{"cityName": "阿尔山", "days": 2, "cityImage": "", "spots": [{"title": "阿尔山国家森林公园", "address": "兴安盟阿尔山市阿尔山国家森林公园", "image": "", "rank": 1, "time": 3.0, "location": {"lat": 47.340155609052175, "lng": 120.70034710152949}, "feature": {"sight_features": "特色1 集原始性、神奇性与多样性于一身的公园", "sight_content": "阿尔山国家森林（地质）公园位于大兴安岭山脉西南麓，呼伦贝尔、科尔沁、锡林郭勒和蒙古国四大草原交汇处，为国家AAAAA级旅游景区。先后获得“全国科普教育基地”、“全国具影响力森林公园”、“国家生态旅游示范区”等殊荣。公园属于寒温带湿润区，原始森林绵延千里，溢翠滴绿。植被类型为寒温带针阔混交林，森林覆盖率达80%，原生态自然环境良好，物种资源独特而丰富，主要植物有522种，野生动物90多种。公园属于火山熔岩地貌，火山温泉星罗棋布，奇岩怪石姿态万千，堪称火山地质博物馆。\n公园旅游资源富集，组合度好、愉悦度高，集原始性、神奇性、多样性于一身，拥有原始森林、火山遗迹、温泉矿泉、高山湿地、河流湖泊、峡谷奇峰、冰雪世界、民俗文化、边境口岸等旅游资源。植被类型属寒温带针阔混交林，代表性的植被为兴安落叶松为主群种的针叶林。野生植物资源非常丰富，主要植物有 109 科 522 种，兽类共有 12 科近 30 种 , 禽鸟类有 23 科 60 余种，鱼类主要是冷水鱼。\n公园火山群集中的面积达3500平方公里。拥有50余座火山锥，19个高位火山口，8大火山口湖（天池），9大熔岩堰塞湖和多姿多样的熔岩地貌。公园内河流湖泊众多，在旅游区内形成碧水环绕于森林的景象，著名的哈拉哈河、洮儿河、柴河等都在此发源；旅游区平均海拔1000米以上，连片分布着大面积湿地，构成了壮观的高山湿地景观。丰富的矿（温）泉资源举世闻名，已成为具特色和吸引力的旅游资源之一，现已出露的四大矿泉群中，共有76眼矿（温）泉，是世界第二大功能型矿（温）泉群，其疗养奇效被广为赞誉。\n崇山峻岭之中，分布多处花岗岩山地和深彻的峡谷，主要有玫瑰峰、大峡谷、麒麟峰、猎人峰、天河峡谷等，构成令人叹为观止的奇峰峡谷景观。公园属寒温带大陆性季风气候，冬季漫长寒冷，不仅以雪质优良著称，更以雪期长而闻名于世，年均积雪日数在150天以上，局部地区达200天以上，加上特殊的山形地貌，是冰雪运动的绝佳场所。"}}, {"title": "阿尔山", "address": "兴安盟阿尔山市", "image": "", "rank": 2, "time": 4.5, "location": {"lat": 47.18305415374976, "lng": 119.95065315165802}, "feature": {"sight_features": "特色1 美过任何一座山的小镇，丰富的温泉资源更是度假的好去处。", "sight_content": "阿尔山位于内蒙古自治区，它虽叫“山\"却不是山，是一座边境旅游疗养小镇。它横跨大兴安岭西南山麓，被呼伦贝尔草原、锡林郭勒草原、蒙古草原，和科尔沁草原环抱其中。因此，这里的空气中负离子含量极高，是一座植被茂密的天然氧吧。不为人熟知的“绝世美景”，让电影《夜宴》也把外景地选在了这里。\n阿尔山国家森林（地质）公园位于大兴安岭山脉西南麓，呼伦贝尔、科尔沁、锡林郭勒和蒙古国四大草原交汇处，为国家AAAAA级旅游景区。先后获得“全国科普教育基地”、“全国具影响力森林公园”、“国家生态旅游示范区”等殊荣。公园属于寒温带湿润区，原始森林绵延千里，溢翠滴绿。植被类型为寒温带针阔混交林，森林覆盖率达80%，原生态自然环境良好，物种资源独特而丰富，主要植物有522种，野生动物90多种。公园属于火山熔岩地貌，火山温泉星罗棋布，奇岩怪石姿态万千，堪称火山地质博物馆。"}}, {"title": "杜鹃湖", "address": "兴安盟阿尔山市阿尔山国家森林景区内", "image": "", "rank": 3, "time": 1.5, "location": {"lat": 47.18305415374976, "lng": 119.95065315165802}, "feature": {"sight_features": "", "sight_content": ""}}, {"title": "石塘林", "address": "兴安盟阿尔山市阿尔山国家森林公园内", "image": "", "rank": 4, "time": 2.5, "location": {"lat": 47.340155609052175, "lng": 120.70034710152949}, "feature": {"sight_features": "", "sight_content": ""}}, {"title": "三潭峡", "address": "安盟阿尔山市东北78公里处阿尔山国家森林公园内", "image": "", "rank": 5, "time": 2.5, "location": {"lat": 47.340155609052175, "lng": 120.70034710152949}, "feature": {"sight_features": "", "sight_content": ""}}, {"title": "驼峰岭天池", "address": "兴安盟阿尔山市阿尔山国家森林公园内", "image": "", "rank": 6, "time": 1.5, "location": {"lat": 47.340155609052175, "lng": 120.70034710152949}, "feature": {"sight_features": "", "sight_content": ""}}, {"title": "阿尔山温泉", "address": "兴安盟阿尔山市", "image": "", "rank": 7, "time": 4.5, "location": {"lat": 47.18305415374976, "lng": 119.95065315165802}, "feature": {"sight_features": "特色1 阿尔山地区受远古火山活动影响，形成了大规模的温泉群！ 特色2 每年海神圣泉旅游度假区以其远播的美名吸引着众多游人来这里旅游洗浴观光！", "sight_content": "阿尔山温泉位于兴安盟阿尔山市境内，设有海神圣泉旅游度假区，矿泉区的草地上分布着多个泉眼，分冷泉、温泉、泉、高温泉4种，泉水最低温度1.5℃，可以满足多种泡汤需求。"}}, {"title": "奥伦布坎景区", "address": "兴安盟阿尔山市白狼镇望远山（紧邻乌兰浩特-阿尔山一级公路和S203）", "image": "", "rank": 8, "time": 3.0, "location": {"lat": 46.936898413934465, "lng": 120.02488990142716}, "feature": {"sight_features": "特色1 文化体验、创意游览、科普发现", "sight_content": "阿尔山奥伦布坎旅游景区位于内蒙古自治区兴安盟阿尔山市东南方向的白狼镇望远山，紧邻乌兰浩特-阿尔山一级公路和S203省道，距离阿尔山市区30公里。景区总面积250平方公里，核心景区28.9平方公里。\n奥伦布坎景区身处大兴安岭腹地，坐拥森林、火山、温泉、冰雪、湿地六大自然资源，形成独一无二的原生态自然奇观。\n以“通古斯部落文化、狩猎文化、冰雪文化”三大文化为依托，打造了“探秘大兴安岭、奥伦布坎部落、魔法汤泉圣地、野奢梦幻时光、自驾集结地、冰雪嘉年华、莫尔根湿地公园”七大主题产品，形成集文化体验、创意游览、科普发现、时尚休闲、特色度假、冰雪娱乐等功能于一体的大型旅游综合景区。"}}, {"title": "阿尔山白狼峰景区", "address": "兴安盟阿尔山市白狼镇203省道附近", "image": "", "rank": 9, "time": 4.5, "location": {"lat": 47.33403223957053, "lng": 119.71604171347956}, "feature": {"sight_features": "特色1 春天满山杜鹃争奇斗艳，仲夏雨后云雾缭绕，秋来层林尽染五彩宾纷，冬天银妆素裹原驰蜡象 特色2 好一派北国风光", "sight_content": "内蒙古阿尔山白狼峰景区(洮儿河国家湿地公园)位于内蒙古阿尔山市中部白狼镇境内，距阿尔山市中心35公里，白狼镇所在地东南3公里。交通便利，紧邻S203线，铁路设白狼站，距阿尔山机场65公里。由白狼峰景区进入阿尔山国家森林公园45公里，呼伦贝尔草原120公里。白狼峰最高海拔1511米，峰顶近200公顷的冰缘石海，为景区搭建了一个天然观景台。景区以白狼峰和洮儿河国家湿地公园为主，将冰缘石海、原始森林、湿地冰雪、河流湖泊，冰雪资源结合狼道文化和林俗文化塑造为旅游产品。由白桦林、冰缘石海、兴安之巅观光祈愿，蒙狼林家乐、洮儿河漂流体验，湿地野生动植物、湿地科普宣教馆、世外洮源酒店，自驾营地、梅花鹿苑、雾凇、兴安日出观赏等景点组成。\n\n\n白狼峰脚下的内蒙古白狼洮儿河国家湿地公园，总面积1135公顷。2014年通过国家林业局的验收，是内蒙古自治区首家国家湿地公园。公园以河流湿地景观为主体，融合了森林、灌丛、沼泽、山岳、冰雪等自然景观及林俗风情文化为主的人文景观。公园内的湿地科普宣教馆为您了解认识湿地知识提供了平台。\n沿着弯曲陡峭的盘山公路前行，挺拔苍劲的兴安落叶松、婷婷玉立的白桦山杨、千姿百态的黑桦，您会发现随着海拔的升高大兴安岭森林植被呈梯次分布。走出林海，满山堆积的奇石让人震撼，冰缘石海上奇石苍松遍布。步行登临峰顶，大兴安岭浩瀚林海、洮儿河水婉延曲折、蒙古高原异域风光尽收眼底，“会当凌绝顶、一览众山小”，祖国山河无限好的感觉油然而生。春天满山杜鹃争奇斗艳，仲夏雨后云雾缭绕，秋来层林尽染五彩宾纷，冬天银妆素裹原驰蜡象，好一派北国风光。\n到蒙狼林家乐体验林区生产生活，观看林业职工采伐、打枝、造材、归楞、集材、装车等生产工序，亲自参与一下抬木头、锯木头、劈拌子，走进职工宿舍大帐篷，烧铁炉子、躺在小杆铺上，让您真正了解大兴安岭林区的生产生活，将给您留下难忘记忆。\n白狼峰自驾营地带您回到久远的北方原始部落。走进木刻楞、撮罗子、蒙古包，骑上蒙古马，带上守猎、垂钩工具，体验一回纯正的渔猎生活。丛林间嬉鹿，日月湖泛舟，洮儿河漂流，冷水鱼垂钩，品山珍野味将使您留恋忘返。2010年中国艺术摄影家学会授予景区为学会摄影基地。\n白狼峰景区是您避暑休闲、娱乐、度假、回归自然、领略北国风光、冰雪乐园的原生态旅游景区。是摄影、绘画、书法、作家和影视创作、自驾游爱好者的世外桃源！"}}, {"title": "地池", "address": "内蒙古呼伦贝尔盟海拉尔市区西部", "image": "", "rank": 10, "time": 1.5, "location": {"lat": 49.21821579936311, "lng": 119.74246537005571}, "feature": {"sight_features": "", "sight_content": ""}}, {"title": "海神温泉会馆", "address": "兴安盟阿尔山市永兴街与温泉路交叉口南150米", "image": "", "rank": 11, "time": 2, "location": {"lat": 47.17422984315311, "lng": 119.95212459494779}, "feature": {"sight_features": "特色1 阿尔山地区受远古火山活动影响，形成了大规模的温泉群！ 特色2 每年海神圣泉旅游度假区以其远播的美名吸引着众多游人来这里旅游洗浴观光！ 特色3 泉水具有较丰富的氡、氟、锂、锶等人体必须的微量元素。", "sight_content": "阿尔山地区受远古火山活动影响，形成了大规模的温泉群。由于地下水补给的方式不同，水中溶入了大量的有益矿物质和微量元素。不同的泉水具有不同的医疗作用，对风湿性关节炎、类风湿、牛皮癣、慢性湿疹、神经性皮炎、高胃酸性胃炎、溃疡病以及高血压、脑血栓后遗症等都有较高的疗效。\n矿泉分为南北两个泉群，南部为冷泉群，主要是放射性氡泉和偏硅酸泉，北部为冷泉、温泉、热泉、高热泉相间的温泉群，主要是重碳酸钠泉、放射性氡泉、偏硅酸泉等。48眼温泉除了重碳酸钠泉、偏硅酸、放射性氡泉之外，还有硫酸泉、食盐泉、铁泉、明矾泉、硫磺泉、碘泉等。这些泉具有较丰富的氡、氟、锂、锶等人体必须的微量元素，通过皮肤进入体内，改善身体循环，促进新陈代泄，调整内分泌和神经系统等，从而起到保健、治疗功效。因此，有圣泉之称。"}}, {"title": "《梦幻阿尔山》演出", "address": "内蒙古兴安盟阿尔山市温泉路圣水阿尔山剧场", "image": "", "rank": 12, "time": 2, "location": {"lat": 47.179220944034796, "lng": 119.9513144554287}, "feature": {"sight_features": "", "sight_content": ""}}, {"title": "哈拉哈水上漂游", "address": "阿尔山国家森林公园景区路二十七大桥处", "image": "", "rank": 13, "time": 2, "location": {"lat": 47.340155609052175, "lng": 120.70034710152949}, "feature": {"sight_features": "", "sight_content": ""}}, {"title": "阿尔山海神圣泉旅游度假区", "address": "内蒙古兴安盟阿尔山市温泉街", "image": "", "rank": 14, "time": 4.5, "location": {"lat": 47.19313209277733, "lng": 119.94967637916174}, "feature": {"sight_features": "", "sight_content": ""}}, {"title": "阿尔山小武农家院", "address": "兴安盟阿尔山市国家森林公园", "image": "", "rank": 15, "time": 4.5, "location": {"lat": 47.18305415374976, "lng": 119.95065315165802}, "feature": {"sight_features": "", "sight_content": ""}}, {"title": "哈拉哈河漂游区", "address": "口岸公路与203省道交汇处西北", "image": "", "rank": 16, "time": 2, "location": {"lat": 47.33403223957053, "lng": 119.71604171347956}, "feature": {"sight_features": "", "sight_content": ""}}, {"title": "十七大桥漂流", "address": "旅游公路十七大桥处", "image": "", "rank": 17, "time": 2, "location": {"lat": 31.76988951914664, "lng": 118.14916077714636}, "feature": {"sight_features": "", "sight_content": ""}}, {"title": "金江沟温泉", "address": "阿尔山国家森林公园内(近金江沟服务区大门)", "image": "", "rank": 18, "time": 1.0, "location": {"lat": 47.40779091117219, "lng": 120.57543155170232}, "feature": {"sight_features": "", "sight_content": ""}}, {"title": "好森沟国家森林公园", "address": "内蒙古自治区阿尔山市兴安盟境内的好森沟林场施业区", "image": "", "rank": 19, "time": 3.5, "location": {"lat": 47.05309516337336, "lng": 120.84618529788807}, "feature": {"sight_features": "", "sight_content": ""}}, {"title": "阿尔山丽泽氧吧度假村", "address": "阿尔山温泉街河西别墅区（永兴街西口）", "image": "", "rank": 20, "time": 4.5, "location": {"lat": 47.180438872883336, "lng": 119.94590063671336}, "feature": {"sight_features": "", "sight_content": ""}}, {"title": "兴安盟阿尔山开心农场农家乐", "address": "机场南200米", "image": "", "rank": 21, "time": 2, "location": {"lat": 49.07585558465927, "lng": 123.03278049880403}, "feature": {"sight_features": "", "sight_content": ""}}, {"title": "温泉花园家庭宾馆", "address": "温泉花园小区", "image": "", "rank": 22, "time": 2, "location": {"lat": 36.21009210082723, "lng": 117.14426634988175}, "feature": {"sight_features": "", "sight_content": ""}}, {"title": "太伟温泉度假村", "address": "祥水湾附近阿尔山滑雪场内", "image": "", "rank": 23, "time": 2, "location": {"lat": 47.177095166913986, "lng": 119.94489645062784}, "feature": {"sight_features": "", "sight_content": ""}}, {"title": "白狼林业局种苗繁育基地", "address": "203省道附近", "image": "", "rank": 24, "time": 2, "location": {"lat": 38.70057735317822, "lng": 114.30841754306506}, "feature": {"sight_features": "", "sight_content": ""}}, {"title": "嘉泉山庄", "address": "旅游路63号", "image": "", "rank": 25, "time": 2, "location": {"lat": 29.44166060156122, "lng": 113.01260852563608}, "feature": {"sight_features": "", "sight_content": ""}}, {"title": "阿尔山国家地质公园", "address": "兴安盟阿尔山市天池镇", "image": "", "rank": 26, "time": 2.0, "location": {"lat": 47.30108463001424, "lng": 120.42717529657196}, "feature": {"sight_features": "", "sight_content": ""}}, {"title": "阿尔山三潭峡度假村", "address": "内蒙古自治区兴安盟阿尔山市天池镇阿尔山国家森林公园", "image": "", "rank": 27, "time": 4.5, "location": {"lat": 47.340155609052175, "lng": 120.70034710152949}, "feature": {"sight_features": "", "sight_content": ""}}, {"title": "阿尔山市地质博物馆", "address": "内蒙古自治区兴安盟阿尔山市海神圣泉旅游度假区地质博物馆", "image": "", "rank": 28, "time": 4.5, "location": {"lat": 47.176779216904265, "lng": 119.95093024836545}, "feature": {"sight_features": "", "sight_content": ""}}, {"title": "中蒙界河第一漂", "address": "口岸公路附近", "image": "", "rank": 29, "time": 2, "location": {"lat": 47.321248747162116, "lng": 119.63525920459483}, "feature": {"sight_features": "", "sight_content": ""}}, {"title": "农家乐农家饭庄", "address": "温泉街酒吧一条街(六和国际大酒店西侧)", "image": "", "rank": 30, "time": 2, "location": {"lat": 47.17933375966884, "lng": 119.9508004135752}, "feature": {"sight_features": "", "sight_content": ""}}, {"title": "洮儿河国家湿地公园", "address": "内蒙古自治区兴安盟阿尔山市白狼镇S203(旧)洮儿河附近", "image": "", "rank": 31, "time": 2, "location": {"lat": 46.906002779093185, "lng": 120.26828562664528}, "feature": {"sight_features": "", "sight_content": ""}}, {"title": "冰川遗迹", "address": "兴安盟阿尔山市阿尔山白狼峰景区内", "image": "", "rank": 32, "time": 4.0, "location": {"lat": 47.029818973332844, "lng": 120.16415293982575}, "feature": {"sight_features": "", "sight_content": ""}}, {"title": "阿尔山天池林宛度假村", "address": "内蒙古自治区兴安盟阿尔山市观光公路", "image": "", "rank": 33, "time": 4.5, "location": {"lat": 47.18305415374976, "lng": 119.95065315165802}, "feature": {"sight_features": "", "sight_content": ""}}, {"title": "圣宴度假村", "address": "内蒙古自治区兴安盟阿尔山市天池镇顺祥驾驶员培训学校北250米", "image": "", "rank": 34, "time": 2, "location": {"lat": 47.312615900975906, "lng": 119.81021817670465}, "feature": {"sight_features": "", "sight_content": ""}}, {"title": "阿尔山鹤鸣湖度假村", "address": "兴安盟阿尔山市天池镇玫瑰峰西200米道南", "image": "", "rank": 35, "time": 4.5, "location": {"lat": 47.32480161213081, "lng": 119.77528988906869}, "feature": {"sight_features": "", "sight_content": ""}}, {"title": "阿尔山市残疾人救助中心", "address": "内蒙古自治区兴安盟阿尔山市伊尔施街道天池镇政府东北100米", "image": "", "rank": 36, "time": 4.5, "location": {"lat": 47.30540623424444, "lng": 119.88290896874197}, "feature": {"sight_features": "", "sight_content": ""}}, {"title": "兴安度假村-客房部", "address": "兴安盟阿尔山市", "image": "", "rank": 37, "time": 2, "location": {"lat": 47.18305415374976, "lng": 119.95065315165802}, "feature": {"sight_features": "", "sight_content": ""}}, {"title": "兴安盟三潭峡度假村", "address": "兴安盟阿尔山市阿尔山天池风景区内", "image": "", "rank": 38, "time": 2, "location": {"lat": 47.29949281699341, "lng": 120.42847433886487}, "feature": {"sight_features": "", "sight_content": ""}}, {"title": "勃尔姑高勒", "address": "内蒙古自治区兴安盟阿尔山市", "image": "", "rank": 39, "time": 2, "location": {"lat": 47.18305415374976, "lng": 119.95065315165802}, "feature": {"sight_features": "", "sight_content": ""}}, {"title": "阿尔山口岸", "address": "兴安盟阿尔山市口岸公路与912县道交叉口西50米", "image": "", "rank": 40, "time": 4.5, "location": {"lat": 47.321248747162116, "lng": 119.63525920459483}, "feature": {"sight_features": "", "sight_content": ""}}, {"title": "实景剧《成吉思汗的黑燾》", "address": "兴安盟阿尔山市温泉街海神蒙古大营南200米", "image": "", "rank": 41, "time": 2, "location": {"lat": 47.17166654692775, "lng": 119.95767531362621}, "feature": {"sight_features": "", "sight_content": ""}}, {"title": "野生动物园", "address": "203省道", "image": "", "rank": 42, "time": 1.0, "location": {"lat": 38.70057735317822, "lng": 114.30841754306506}, "feature": {"sight_features": "", "sight_content": ""}}, {"title": "滑雪游乐中心", "address": "兴林路", "image": "", "rank": 43, "time": 2, "location": {"lat": 39.52584309517135, "lng": 112.28948955015879}, "feature": {"sight_features": "", "sight_content": ""}}, {"title": "鸡冠山庄", "address": "203省道", "image": "", "rank": 44, "time": 2, "location": {"lat": 38.70057735317822, "lng": 114.30841754306506}, "feature": {"sight_features": "", "sight_content": ""}}, {"title": "阿尔山国家地质公园博物馆", "address": "203省道北50米阿尔山国家地质公园博物馆", "image": "", "rank": 46, "time": 4.5, "location": {"lat": 47.32414347632172, "lng": 119.78199975332973}, "feature": {"sight_features": "", "sight_content": ""}}, {"title": "自然博物馆", "address": "203省道", "image": "", "rank": 47, "time": 2, "location": {"lat": 38.70057735317822, "lng": 114.30841754306506}, "feature": {"sight_features": "", "sight_content": ""}}, {"title": "白狼洮源度假新村", "address": "白狼镇203省道鹿村旁", "image": "", "rank": 48, "time": 2, "location": {"lat": 47.0006399156285, "lng": 120.2008205194037}, "feature": {"sight_features": "", "sight_content": ""}}, {"title": "泉润果蔬蓝莓基地", "address": "阿伊环行西线十公里处", "image": "", "rank": 49, "time": 2, "location": {"lat": 19.968802031048973, "lng": 110.27565505275807}, "feature": {"sight_features": "", "sight_content": ""}}, {"title": "准哈尔巴岗托乌拉", "address": "兴安盟-阿尔山市", "image": "", "rank": 50, "time": 2, "location": {"lat": 47.18305415374976, "lng": 119.95065315165802}, "feature": {"sight_features": "", "sight_content": ""}}, {"title": "阿尔山国家森林公园-凉亭", "address": "兴安盟-阿尔山市-阿尔山国家森林公园阿尔山国家森林公园内", "image": "", "rank": 51, "time": 4.5, "location": {"lat": 47.340155609052175, "lng": 120.70034710152949}, "feature": {"sight_features": "", "sight_content": ""}}, {"title": "阿尔山森林公园仙鹤湖", "address": "兴安盟-阿尔山市-阿尔山国家森林公园", "image": "", "rank": 52, "time": 4.5, "location": {"lat": 47.340155609052175, "lng": 120.70034710152949}, "feature": {"sight_features": "", "sight_content": ""}}, {"title": "东呼舒里额", "address": "兴安盟-阿尔山市", "image": "", "rank": 53, "time": 2, "location": {"lat": 47.18305415374976, "lng": 119.95065315165802}, "feature": {"sight_features": "", "sight_content": ""}}, {"title": "别里其尔", "address": "兴安盟-阿尔山市", "image": "", "rank": 54, "time": 2, "location": {"lat": 47.18305415374976, "lng": 119.95065315165802}, "feature": {"sight_features": "", "sight_content": ""}}, {"title": "柴河源大峡谷", "address": "安盟阿尔山市东北78公里处阿尔山国家森林公园内", "image": "", "rank": 55, "time": 2, "location": {"lat": 47.340155609052175, "lng": 120.70034710152949}, "feature": {"sight_features": "", "sight_content": ""}}, {"title": "不冻河畔风情园", "address": "内蒙古自治区兴安盟 ‎", "image": "", "rank": 56, "time": null, "location": {"lat": 46.08846371321896, "lng": 122.04436452582519}, "feature": {"sight_features": "", "sight_content": ""}}, {"title": "伊尔施镇", "address": "内蒙古自治区兴安盟阿尔山市伊尔施镇", "image": "", "rank": 57, "time": 0.75, "location": {"lat": 47.3057819214966, "lng": 119.8833756698951}, "feature": {"sight_features": "", "sight_content": ""}}, {"title": "林俗文化景观区", "address": "内蒙古自治区兴安盟阿尔山市203省道", "image": "", "rank": 58, "time": 2, "location": {"lat": 47.33403223957053, "lng": 119.71604171347956}, "feature": {"sight_features": "", "sight_content": ""}}, {"title": "鹿园", "address": "阿尔山市白狼镇鹿村鹿园", "image": "", "rank": 59, "time": 1.5, "location": {"lat": 47.0006399156285, "lng": 120.2008205194037}, "feature": {"sight_features": "特色1 《亲爱的客栈2》的拍摄地", "sight_content": "鹿园位于内蒙古阿尔山市白狼镇，是《亲爱的客栈2》的拍摄地，可以近距离接触梅花鹿，如果您喜欢，也可进园亲自喂养——与“萌物”牵手合照。"}}, {"title": "阿尔山滑雪场", "address": "温泉街城区两侧", "image": "", "rank": 60, "time": 4.5, "location": {"lat": 37.85786536146987, "lng": 113.61283811718747}, "feature": {"sight_features": "", "sight_content": ""}}]}