{"cityName": "阿克塞", "days": 2, "cityImage": "", "spots": [{"title": "石油小镇", "address": "酒泉市阿克塞哈萨克族自治县215国道与281县道交叉口南150米阿克塞老县城", "image": "", "rank": 1, "time": 2.0, "location": {"lat": 38.50820370898792, "lng": 94.49305400371547}, "feature": {"sight_features": "", "sight_content": ""}}, {"title": "哈尔腾国际狩猎场", "address": "甘肃省酒泉市阿克塞县城南", "image": "", "rank": 2, "time": 1.0, "location": {"lat": 39.640045316916535, "lng": 94.34676019039637}, "feature": {"sight_features": "", "sight_content": ""}}, {"title": "当金山", "address": "酒泉市阿克塞哈萨克族自治县，位于甘肃、青海、新疆三省（区）交界处", "image": "", "rank": 3, "time": 2, "location": {"lat": 39.640045316916535, "lng": 94.34676019039637}, "feature": {"sight_features": "", "sight_content": ""}}, {"title": "大苏干湖景区", "address": "海子草原西北端", "image": "", "rank": 4, "time": 2, "location": {"lat": 39.78863436922662, "lng": 116.46106141298051}, "feature": {"sight_features": "", "sight_content": ""}}, {"title": "吐尔根达坂山", "address": "甘肃省阿克塞哈萨克族自治县境内 736400", "image": "", "rank": 5, "time": 2, "location": {"lat": 39.640045316916535, "lng": 94.34676019039637}, "feature": {"sight_features": "", "sight_content": ""}}, {"title": "阿克塞县红柳湾镇民族风情园", "address": "甘肃省阿克塞哈萨克族自治县红柳湾镇 736400", "image": "", "rank": 6, "time": 2, "location": {"lat": 39.64174889284765, "lng": 94.34646825188528}, "feature": {"sight_features": "", "sight_content": ""}}, {"title": "康乐儿童岛", "address": "南环中路", "image": "", "rank": 7, "time": null, "location": {"lat": 31.547028037045305, "lng": 119.57531264304257}, "feature": {"sight_features": "", "sight_content": ""}}, {"title": "阿克塞哈萨克民族博物馆", "address": "和平中路与和平北路交叉口西南50米", "image": "", "rank": 8, "time": 2, "location": {"lat": 30.12412714293478, "lng": 104.65689112708759}, "feature": {"sight_features": "", "sight_content": ""}}, {"title": "阿克塞哈萨克族自治县阿克清真寺", "address": "文化路27号", "image": "", "rank": 9, "time": 2, "location": {"lat": 39.638797330058864, "lng": 94.33946602780792}, "feature": {"sight_features": "", "sight_content": ""}}, {"title": "瀑布水景广场", "address": "甘肃省酒泉市阿克塞哈萨克族自治县红柳湾镇文化中路金山湖景区附近", "image": "", "rank": 10, "time": 2, "location": {"lat": 39.63053197825586, "lng": 94.3364949209608}, "feature": {"sight_features": "", "sight_content": ""}}, {"title": "西水敖包", "address": "甘肃省酒泉市阿克塞哈萨克族自治县", "image": "", "rank": 11, "time": 2, "location": {"lat": 39.640045316916535, "lng": 94.34676019039637}, "feature": {"sight_features": "", "sight_content": ""}}, {"title": "安南坝自然保护区", "address": "甘肃省阿克塞哈萨克族自治县西部", "image": "", "rank": 12, "time": 2, "location": {"lat": 39.640045316916535, "lng": 94.34676019039637}, "feature": {"sight_features": "", "sight_content": ""}}, {"title": "博罗转井", "address": "甘肃酒泉阿克塞哈萨克族自治县博罗转井", "image": "", "rank": 13, "time": 2.0, "location": {"lat": 39.640045316916535, "lng": 94.34676019039637}, "feature": {"sight_features": "", "sight_content": ""}}]}