{"cityName": "阿克苏市", "days": "", "cityImage": "", "spots": [{"title": "阿克苏市回族陕大寺", "address": "新疆维吾尔自治区阿克苏地区阿克苏市华能小区东北侧", "image": "", "rank": 1, "time": 2.5, "location": {"lat": 41.18884694076626, "lng": 80.3020594133901}, "feature": {"sight_features": "", "sight_content": ""}}, {"title": "依杆其乡无公害蔬菜示范基地", "address": "英巴格路45附近", "image": "", "rank": 2, "time": 2, "location": {"lat": 41.170020060488326, "lng": 80.24896224917754}, "feature": {"sight_features": "", "sight_content": ""}}, {"title": "阿克苏市草莓采摘园", "address": "杭州师范大学附属高级中学东南侧", "image": "", "rank": 3, "time": 2.5, "location": {"lat": 40.62753492318906, "lng": 115.05889906611822}, "feature": {"sight_features": "", "sight_content": ""}}, {"title": "农夫山庄", "address": "宏运驾校斜对面", "image": "", "rank": 4, "time": 2, "location": {"lat": 39.90065171908012, "lng": 119.24769864368825}, "feature": {"sight_features": "", "sight_content": ""}}, {"title": "阿克苏农业博览园灯光艺术狂欢节", "address": "阿克苏市314国道东200米飞机场方向乌喀路991公里处（中石化加油站旁）", "image": "", "rank": 5, "time": 2.5, "location": {"lat": 41.17602825061677, "lng": 80.22120814613605}, "feature": {"sight_features": "", "sight_content": ""}}, {"title": "小木油菜园草莓", "address": "南大街水泥厂向里500米", "image": "", "rank": 6, "time": 2, "location": {"lat": 39.99223922822961, "lng": 116.48539491834674}, "feature": {"sight_features": "", "sight_content": ""}}, {"title": "阿克苏市农基果蔬农民专业合作社", "address": "英巴格路22号", "image": "", "rank": 7, "time": 2.5, "location": {"lat": 41.170019165670304, "lng": 80.2489604796268}, "feature": {"sight_features": "", "sight_content": ""}}, {"title": "家佳广场", "address": "佳和园南侧", "image": "", "rank": 8, "time": 2, "location": {"lat": 39.04879205819165, "lng": 121.75597350838993}, "feature": {"sight_features": "", "sight_content": ""}}, {"title": "齐曼扎", "address": "新疆维吾尔自治区阿克苏地区阿克苏市环南路54", "image": "", "rank": 9, "time": 2, "location": {"lat": 41.1684063190732, "lng": 80.27278247054986}, "feature": {"sight_features": "", "sight_content": ""}}, {"title": "和园渡假村", "address": "新疆维吾尔自治区阿克苏地区温宿县实验林场试验站", "image": "", "rank": 10, "time": 2, "location": {"lat": 41.24106509222132, "lng": 80.36067875068797}, "feature": {"sight_features": "", "sight_content": ""}}, {"title": "浏园度假村", "address": "新疆维吾尔自治区阿克苏地区阿克苏市X300", "image": "", "rank": 11, "time": 2, "location": {"lat": 41.17385992695259, "lng": 80.26992675733364}, "feature": {"sight_features": "", "sight_content": ""}}, {"title": "金银川休闲广场", "address": "阿克苏地区阿克苏市", "image": "", "rank": 12, "time": 2, "location": {"lat": 41.17385992695259, "lng": 80.26992675733364}, "feature": {"sight_features": "", "sight_content": ""}}, {"title": "御景湾儿童水上乐园", "address": "滨河路2号御景湾小区售楼部旁", "image": "", "rank": 13, "time": 2, "location": {"lat": 31.864537652128437, "lng": 117.31429303545228}, "feature": {"sight_features": "", "sight_content": ""}}, {"title": "花果园度假村", "address": "地区中心苗圃斜对面", "image": "", "rank": 14, "time": 2, "location": {"lat": 41.17126653988339, "lng": 80.30701621235006}, "feature": {"sight_features": "", "sight_content": ""}}, {"title": "缤纷嘉年华游乐园", "address": "太百购物中心", "image": "", "rank": 15, "time": 2, "location": {"lat": 41.17973855297777, "lng": 80.26800584930739}, "feature": {"sight_features": "", "sight_content": ""}}, {"title": "兵团一师一团展示馆", "address": "金银川路13号", "image": "", "rank": 16, "time": 2, "location": {"lat": 40.69000208466075, "lng": 79.90105466746589}, "feature": {"sight_features": "", "sight_content": ""}}, {"title": "职工文化艺术中心", "address": "金银川路13号", "image": "", "rank": 17, "time": 2, "location": {"lat": 40.69000208466075, "lng": 79.90105466746589}, "feature": {"sight_features": "", "sight_content": ""}}, {"title": "阿克苏市文化艺术中心", "address": "西大街10号", "image": "", "rank": 18, "time": 2.0, "location": {"lat": 38.04650360886651, "lng": 114.52753269017776}, "feature": {"sight_features": "", "sight_content": ""}}, {"title": "阿克苏地区档案馆", "address": "解放北路1号", "image": "", "rank": 19, "time": 2.5, "location": {"lat": 37.90048979773094, "lng": 112.56827937843504}, "feature": {"sight_features": "", "sight_content": ""}}, {"title": "安宝儿婴幼儿水育乐园", "address": "阿克苏南昌路地下购物街(从左岸小区路口进入往右100米儿童名品区)", "image": "", "rank": 20, "time": 2, "location": {"lat": 41.18108115317438, "lng": 80.26250422688783}, "feature": {"sight_features": "", "sight_content": ""}}, {"title": "迷途真人密室逃脱(总店)", "address": "英阿瓦提路绿景星光苑2号楼804室(新飞跃网络会所楼上)", "image": "", "rank": 21, "time": 2, "location": {"lat": 41.17950199594063, "lng": 80.26991132175006}, "feature": {"sight_features": "", "sight_content": ""}}, {"title": "星期六儿童成长主题乐园", "address": "塔北路金桥小商品城一楼(金桥幼儿园对面)", "image": "", "rank": 22, "time": 2, "location": {"lat": 41.16803084474817, "lng": 80.28483858109925}, "feature": {"sight_features": "", "sight_content": ""}}, {"title": "西域风情国际", "address": "阿克苏阿温大道西侧118号西域风情国际项目处", "image": "", "rank": 23, "time": 2, "location": {"lat": 41.27260005100472, "lng": 80.2509814941282}, "feature": {"sight_features": "", "sight_content": ""}}, {"title": "儿童乐园", "address": "英阿瓦提路好家乡一楼超市门口", "image": "", "rank": 24, "time": 2, "location": {"lat": 41.182920342079285, "lng": 80.27422445274262}, "feature": {"sight_features": "", "sight_content": ""}}, {"title": "阿克苏地区供销社兴农园艺合作社", "address": "乌喀路附近", "image": "", "rank": 25, "time": 2.5, "location": {"lat": 41.16593867100826, "lng": 80.29622236629818}, "feature": {"sight_features": "", "sight_content": ""}}, {"title": "妞妞奶油草莓采摘园", "address": "依干其乡", "image": "", "rank": 26, "time": 2, "location": {"lat": 41.1498923562507, "lng": 80.2724347001954}, "feature": {"sight_features": "", "sight_content": ""}}, {"title": "西部游乐", "address": "温州路步行街内", "image": "", "rank": 27, "time": 2, "location": {"lat": 41.177934237186, "lng": 80.27242843738905}, "feature": {"sight_features": "", "sight_content": ""}}, {"title": "阿克苏市双胡杨农家乐 aksu xaha...", "address": "依杆旗乡五大队阔什托格拉克村", "image": "", "rank": 28, "time": 2.5, "location": {"lat": 41.20785858727281, "lng": 80.15155656822431}, "feature": {"sight_features": "", "sight_content": ""}}]}