{"cityName": "阿拉尔", "days": null, "cityImage": "", "spots": [{"title": "印象蓝泊湾生态观光园", "address": "阿拉尔市十团苗木基地", "image": "", "rank": 1, "time": 2, "location": {"lat": 40.55326389470602, "lng": 81.28735422539545}, "feature": {"sight_features": "", "sight_content": ""}}, {"title": "阿拉尔", "address": "新疆维吾尔自治区阿拉尔市", "image": "", "rank": 2, "time": 2, "location": {"lat": 40.55326389470602, "lng": 81.28735422539545}, "feature": {"sight_features": "", "sight_content": ""}}, {"title": "塔里木大学", "address": "新疆维吾尔自治区，阿拉尔", "image": "", "rank": 3, "time": 2, "location": {"lat": 40.55326389470602, "lng": 81.28735422539545}, "feature": {"sight_features": "", "sight_content": ""}}, {"title": "三五九旅屯垦纪念馆", "address": "阿克苏地区阿拉尔市军垦大道附近", "image": "", "rank": 4, "time": 2, "location": {"lat": 41.17502986007749, "lng": 80.26694348473501}, "feature": {"sight_features": "", "sight_content": ""}}, {"title": "阿拉尔塔里木河大桥", "address": "新疆维吾尔自治区阿拉尔市", "image": "", "rank": 5, "time": 2, "location": {"lat": 40.55326389470602, "lng": 81.28735422539545}, "feature": {"sight_features": "", "sight_content": ""}}, {"title": "农师塔里木祥龙湖风景区", "address": "塔里木拦河闸畔", "image": "", "rank": 6, "time": 2, "location": {"lat": 39.94955323496697, "lng": 116.10150244440267}, "feature": {"sight_features": "", "sight_content": ""}}, {"title": "屯垦纪念馆红色旅游经典景区", "address": "新疆维吾尔自治区阿拉尔市三五九旅屯垦纪念馆", "image": "", "rank": 7, "time": 2, "location": {"lat": 40.55532683804393, "lng": 81.28740590554025}, "feature": {"sight_features": "", "sight_content": ""}}, {"title": "翰墨书画廊", "address": "幸福路南196号", "image": "", "rank": 8, "time": 2, "location": {"lat": 40.554861573310625, "lng": 81.29286187679244}, "feature": {"sight_features": "", "sight_content": ""}}, {"title": "屯垦文化公园", "address": "幸福路和塔里木大道交汇处以西100米处", "image": "", "rank": 9, "time": 2, "location": {"lat": 40.551590432483216, "lng": 81.2917745711269}, "feature": {"sight_features": "", "sight_content": ""}}, {"title": "食话食说生态农庄", "address": "阿和公路附近", "image": "", "rank": 10, "time": 2, "location": {"lat": 40.534007072014624, "lng": 81.23059942242257}, "feature": {"sight_features": "", "sight_content": ""}}, {"title": "阿拉尔市文化馆", "address": "胜利大道与金银川路交叉口南200米", "image": "", "rank": 11, "time": 2.5, "location": {"lat": 40.55104485597087, "lng": 81.28199273414391}, "feature": {"sight_features": "", "sight_content": ""}}, {"title": "绿野仙踪休闲园", "address": "塔里木大道与虹桥路交叉口东南50米", "image": "", "rank": 12, "time": 2, "location": {"lat": 40.54389856563271, "lng": 81.31269918638456}, "feature": {"sight_features": "", "sight_content": ""}}, {"title": "天祥明珠商业街", "address": "新疆维吾尔自治区阿拉尔市天祥明珠商业街", "image": "", "rank": 13, "time": 2, "location": {"lat": 40.55326389470602, "lng": 81.28735422539545}, "feature": {"sight_features": "", "sight_content": ""}}]}