{"cityName": "阿拉善右旗", "days": 2, "cityImage": "", "spots": [{"title": "巴丹吉林沙漠", "address": "阿拉善盟阿拉善右旗巴丹吉林镇巴丹吉林沙漠地质公园", "image": "", "rank": 1, "time": 4.5, "location": {"lat": 39.55706975475875, "lng": 102.37668818377239}, "feature": {"sight_features": "特色1 在寂静的天空下，感受沙漠中的苍凉和广阔。 乘坐越野车，穿行在高高低低的山丘间，体验过山车般的刺激。 欣赏沙漠中的日落日出，还有那些沙海中大大小小的湖泊。", "sight_content": "总面积4.71万km2，是中国第二、世界第三大沙漠。\n\n\n沙漠以“奇峰、鸣沙、群湖、神泉、古庙”五绝著称。最高沙峰为必鲁图峰，海拔1609米，相对高度500米，是世界沙山的最高峰，号称“沙漠珠穆朗玛”，巴丹吉林沙漠也是世界上最大的鸣沙区,被誉为“世界鸣沙王国”。\n沙漠中已探明的湖泊有144个，俗称“沙漠千湖”。在众多湖泊中音德日图泉最为神奇，在一个面积不足3平方米的小岛上有108个泉眼，被誉为“神泉”。\n巴丹吉林沙漠被《国家地理》杂志评为中国最美丽的沙漠。"}}, {"title": "巴丹湖", "address": "内蒙古阿拉善盟阿拉善右旗巴", "image": "", "rank": 2, "time": 2, "location": {"lat": 39.2222409698549, "lng": 101.67346389593693}, "feature": {"sight_features": "", "sight_content": ""}}, {"title": "阿右旗板滩井苁蓉专业合作社(西...", "address": "104乡道附近", "image": "", "rank": 3, "time": 2, "location": {"lat": 32.377745597307516, "lng": 116.85154074351719}, "feature": {"sight_features": "", "sight_content": ""}}, {"title": "阿给图努如", "address": "阿拉善盟阿拉善右旗", "image": "", "rank": 4, "time": 2, "location": {"lat": 39.2222409698549, "lng": 101.67346389593693}, "feature": {"sight_features": "", "sight_content": ""}}, {"title": "中国阿拉善沙漠世界地质博物馆", "address": "内蒙古自治区阿拉善盟阿拉善右旗雅布赖镇沙漠国家地质公园博物馆", "image": "", "rank": 5, "time": 2, "location": {"lat": 39.43522843081953, "lng": 102.7861293063359}, "feature": {"sight_features": "", "sight_content": ""}}, {"title": "乡村一角", "address": "内蒙古阿拉善盟阿拉善右旗内蒙古阿拉善右旗巴丹吉林镇额肯呼都格嘎查阿拉腾路0922号", "image": "", "rank": 6, "time": 2, "location": {"lat": 39.20183914131867, "lng": 101.68487300472749}, "feature": {"sight_features": "", "sight_content": ""}}, {"title": "阿拉善右旗影剧院", "address": "内蒙古自治区阿拉善盟阿拉善右旗巴丹吉林镇雅布赖路右旗影剧院", "image": "", "rank": 7, "time": 4.5, "location": {"lat": 39.22088109442953, "lng": 101.67248761750868}, "feature": {"sight_features": "", "sight_content": ""}}, {"title": "哈日陶勒盖", "address": "内蒙古自治区阿拉善盟阿拉善右旗", "image": "", "rank": 8, "time": 2, "location": {"lat": 39.2222409698549, "lng": 101.67346389593693}, "feature": {"sight_features": "", "sight_content": ""}}, {"title": "沙漠国家地质公园博物馆", "address": "317省道", "image": "", "rank": 9, "time": 2, "location": {"lat": 36.10879203258049, "lng": 114.98930841622683}, "feature": {"sight_features": "", "sight_content": ""}}, {"title": "右旗博物馆", "address": "阿拉善右旗", "image": "", "rank": 10, "time": 2, "location": {"lat": 39.2222409698549, "lng": 101.67346389593693}, "feature": {"sight_features": "", "sight_content": ""}}, {"title": "那林苏亥图", "address": "阿拉善盟-阿拉善右旗", "image": "", "rank": 11, "time": 2, "location": {"lat": 39.2222409698549, "lng": 101.67346389593693}, "feature": {"sight_features": "", "sight_content": ""}}, {"title": "呼和塔什拉嘎", "address": "阿拉善盟-阿拉善右旗", "image": "", "rank": 12, "time": 2, "location": {"lat": 39.2222409698549, "lng": 101.67346389593693}, "feature": {"sight_features": "", "sight_content": ""}}, {"title": "沙枣泉东北", "address": "阿拉善盟-阿拉善右旗", "image": "", "rank": 13, "time": 2, "location": {"lat": 39.2222409698549, "lng": 101.67346389593693}, "feature": {"sight_features": "", "sight_content": ""}}, {"title": "巴音高勒嘎查", "address": "阿拉善盟-阿拉善右旗-巴音高勒嘎查", "image": "", "rank": 14, "time": 2, "location": {"lat": 38.99375262908672, "lng": 101.9128970482269}, "feature": {"sight_features": "", "sight_content": ""}}, {"title": "沃斯格廷呼都格", "address": "阿拉善盟-阿拉善右旗", "image": "", "rank": 15, "time": 2, "location": {"lat": 39.2222409698549, "lng": 101.67346389593693}, "feature": {"sight_features": "", "sight_content": ""}}, {"title": "沙枣泉西北", "address": "阿拉善盟-阿拉善右旗", "image": "", "rank": 16, "time": 2, "location": {"lat": 39.2222409698549, "lng": 101.67346389593693}, "feature": {"sight_features": "", "sight_content": ""}}, {"title": "丁马圈滩", "address": "阿拉善盟-阿拉善右旗-雅布赖镇丁马圈滩", "image": "", "rank": 17, "time": 2, "location": {"lat": 39.60785835255875, "lng": 103.2269550351458}, "feature": {"sight_features": "", "sight_content": ""}}, {"title": "额日登温都日", "address": "阿拉善盟-阿拉善右旗", "image": "", "rank": 18, "time": 2, "location": {"lat": 39.2222409698549, "lng": 101.67346389593693}, "feature": {"sight_features": "", "sight_content": ""}}, {"title": "两个井南山", "address": "阿拉善盟-阿拉善右旗", "image": "", "rank": 19, "time": 2, "location": {"lat": 39.2222409698549, "lng": 101.67346389593693}, "feature": {"sight_features": "", "sight_content": ""}}, {"title": "巴润伊和日", "address": "阿拉善盟-阿拉善右旗", "image": "", "rank": 20, "time": 2, "location": {"lat": 39.2222409698549, "lng": 101.67346389593693}, "feature": {"sight_features": "", "sight_content": ""}}, {"title": "都兰布日", "address": "阿拉善盟-阿拉善右旗", "image": "", "rank": 21, "time": 2, "location": {"lat": 39.2222409698549, "lng": 101.67346389593693}, "feature": {"sight_features": "", "sight_content": ""}}, {"title": "查干都贵", "address": "阿拉善盟-阿拉善右旗", "image": "", "rank": 22, "time": 2, "location": {"lat": 39.2222409698549, "lng": 101.67346389593693}, "feature": {"sight_features": "", "sight_content": ""}}, {"title": "查库尔图.哈沙", "address": "阿拉善盟-阿拉善右旗", "image": "", "rank": 23, "time": 2, "location": {"lat": 39.2222409698549, "lng": 101.67346389593693}, "feature": {"sight_features": "", "sight_content": ""}}, {"title": "查干都贵", "address": "阿拉善盟-阿拉善右旗", "image": "", "rank": 24, "time": 2, "location": {"lat": 39.2222409698549, "lng": 101.67346389593693}, "feature": {"sight_features": "", "sight_content": ""}}, {"title": "羊奶洼井大沙坡", "address": "阿拉善盟-阿拉善右旗", "image": "", "rank": 25, "time": null, "location": {"lat": 39.2222409698549, "lng": 101.67346389593693}, "feature": {"sight_features": "", "sight_content": ""}}, {"title": "腰泉东北", "address": "阿拉善盟-阿拉善右旗", "image": "", "rank": 26, "time": 2, "location": {"lat": 39.2222409698549, "lng": 101.67346389593693}, "feature": {"sight_features": "", "sight_content": ""}}, {"title": "扎敏乌兰", "address": "阿拉善盟-阿拉善右旗", "image": "", "rank": 27, "time": 2, "location": {"lat": 39.2222409698549, "lng": 101.67346389593693}, "feature": {"sight_features": "", "sight_content": ""}}, {"title": "查干博日格", "address": "阿拉善盟-阿拉善右旗", "image": "", "rank": 28, "time": 2, "location": {"lat": 39.2222409698549, "lng": 101.67346389593693}, "feature": {"sight_features": "", "sight_content": ""}}, {"title": "宝格顶呼都格", "address": "阿拉善盟-阿拉善右旗", "image": "", "rank": 29, "time": 2, "location": {"lat": 39.2222409698549, "lng": 101.67346389593693}, "feature": {"sight_features": "", "sight_content": ""}}, {"title": "呼和扎布斯日", "address": "阿拉善盟-阿拉善右旗", "image": "", "rank": 30, "time": 2, "location": {"lat": 39.2222409698549, "lng": 101.67346389593693}, "feature": {"sight_features": "", "sight_content": ""}}, {"title": "伊和海日罕", "address": "阿拉善盟-阿拉善右旗", "image": "", "rank": 31, "time": 2, "location": {"lat": 39.2222409698549, "lng": 101.67346389593693}, "feature": {"sight_features": "", "sight_content": ""}}, {"title": "腾格日超浩", "address": "阿拉善盟-阿拉善右旗", "image": "", "rank": 32, "time": 2, "location": {"lat": 39.2222409698549, "lng": 101.67346389593693}, "feature": {"sight_features": "", "sight_content": ""}}, {"title": "阿拉腾布勒格", "address": "阿拉善盟-阿拉善右旗", "image": "", "rank": 33, "time": 2, "location": {"lat": 39.2222409698549, "lng": 101.67346389593693}, "feature": {"sight_features": "", "sight_content": ""}}, {"title": "敖仁少博格尔", "address": "阿拉善盟-阿拉善右旗", "image": "", "rank": 34, "time": null, "location": {"lat": 39.2222409698549, "lng": 101.67346389593693}, "feature": {"sight_features": "", "sight_content": ""}}, {"title": "扎木拉其", "address": "阿拉善盟-阿拉善右旗", "image": "", "rank": 35, "time": 2, "location": {"lat": 39.2222409698549, "lng": 101.67346389593693}, "feature": {"sight_features": "", "sight_content": ""}}, {"title": "超浩日努如", "address": "阿拉善盟-阿拉善右旗", "image": "", "rank": 36, "time": 2, "location": {"lat": 39.2222409698549, "lng": 101.67346389593693}, "feature": {"sight_features": "", "sight_content": ""}}, {"title": "含水沟", "address": "阿拉善盟-阿拉善右旗", "image": "", "rank": 37, "time": 2, "location": {"lat": 39.2222409698549, "lng": 101.67346389593693}, "feature": {"sight_features": "", "sight_content": ""}}, {"title": "嘎顺浩来", "address": "阿拉善盟-阿拉善右旗", "image": "", "rank": 38, "time": 2, "location": {"lat": 39.2222409698549, "lng": 101.67346389593693}, "feature": {"sight_features": "", "sight_content": ""}}, {"title": "阿给廷高勒", "address": "阿拉善盟-阿拉善右旗", "image": "", "rank": 39, "time": 2, "location": {"lat": 39.2222409698549, "lng": 101.67346389593693}, "feature": {"sight_features": "", "sight_content": ""}}, {"title": "额肯阿给图", "address": "阿拉善盟-阿拉善右旗", "image": "", "rank": 40, "time": 2, "location": {"lat": 39.2222409698549, "lng": 101.67346389593693}, "feature": {"sight_features": "", "sight_content": ""}}, {"title": "阿给图呼德", "address": "阿拉善盟-阿拉善右旗", "image": "", "rank": 41, "time": null, "location": {"lat": 39.2222409698549, "lng": 101.67346389593693}, "feature": {"sight_features": "", "sight_content": ""}}, {"title": "红沙坑山梁", "address": "阿拉善盟-阿拉善右旗", "image": "", "rank": 42, "time": 2, "location": {"lat": 39.2222409698549, "lng": 101.67346389593693}, "feature": {"sight_features": "", "sight_content": ""}}, {"title": "伊和阿给图", "address": "阿拉善盟-阿拉善右旗", "image": "", "rank": 43, "time": 2, "location": {"lat": 39.2222409698549, "lng": 101.67346389593693}, "feature": {"sight_features": "", "sight_content": ""}}, {"title": "阿给图召和", "address": "阿拉善盟-阿拉善右旗", "image": "", "rank": 44, "time": 2, "location": {"lat": 39.2222409698549, "lng": 101.67346389593693}, "feature": {"sight_features": "", "sight_content": ""}}, {"title": "陆家窖山", "address": "阿拉善盟-阿拉善右旗", "image": "", "rank": 45, "time": 2, "location": {"lat": 39.2222409698549, "lng": 101.67346389593693}, "feature": {"sight_features": "", "sight_content": ""}}, {"title": "宝其格努如陶勒盖", "address": "阿拉善盟-阿拉善右旗", "image": "", "rank": 46, "time": 2, "location": {"lat": 39.2222409698549, "lng": 101.67346389593693}, "feature": {"sight_features": "", "sight_content": ""}}, {"title": "哈尔楚鲁吐阿德尔根", "address": "阿拉善盟-阿拉善右旗", "image": "", "rank": 47, "time": 2, "location": {"lat": 39.2222409698549, "lng": 101.67346389593693}, "feature": {"sight_features": "", "sight_content": ""}}, {"title": "鬃德特阿木", "address": "阿拉善盟-阿拉善右旗", "image": "", "rank": 48, "time": 2, "location": {"lat": 39.2222409698549, "lng": 101.67346389593693}, "feature": {"sight_features": "", "sight_content": ""}}, {"title": "和阿尔策克尔尚点", "address": "阿拉善盟-阿拉善右旗", "image": "", "rank": 49, "time": 2, "location": {"lat": 39.2222409698549, "lng": 101.67346389593693}, "feature": {"sight_features": "", "sight_content": ""}}, {"title": "吉格德嘎查", "address": "阿拉善盟-阿拉善右旗", "image": "", "rank": 50, "time": null, "location": {"lat": 39.2222409698549, "lng": 101.67346389593693}, "feature": {"sight_features": "", "sight_content": ""}}, {"title": "哲力马尼", "address": "阿拉善盟-阿拉善右旗", "image": "", "rank": 51, "time": 2, "location": {"lat": 39.2222409698549, "lng": 101.67346389593693}, "feature": {"sight_features": "", "sight_content": ""}}, {"title": "塔嘎那敖格钦", "address": "阿拉善盟-阿拉善右旗", "image": "", "rank": 52, "time": 2, "location": {"lat": 39.2222409698549, "lng": 101.67346389593693}, "feature": {"sight_features": "", "sight_content": ""}}, {"title": "霍托勒.沃博勒金.哈沙", "address": "阿拉善盟-阿拉善右旗", "image": "", "rank": 53, "time": 2, "location": {"lat": 39.2222409698549, "lng": 101.67346389593693}, "feature": {"sight_features": "", "sight_content": ""}}, {"title": "伊和木呼日额格", "address": "阿拉善盟-阿拉善右旗", "image": "", "rank": 54, "time": null, "location": {"lat": 39.2222409698549, "lng": 101.67346389593693}, "feature": {"sight_features": "", "sight_content": ""}}, {"title": "土日根达瓦", "address": "阿拉善盟-阿拉善右旗", "image": "", "rank": 55, "time": 2, "location": {"lat": 39.2222409698549, "lng": 101.67346389593693}, "feature": {"sight_features": "", "sight_content": ""}}, {"title": "乌和尔达瓦", "address": "阿拉善盟-阿拉善右旗", "image": "", "rank": 56, "time": 2, "location": {"lat": 39.2222409698549, "lng": 101.67346389593693}, "feature": {"sight_features": "", "sight_content": ""}}, {"title": "沙力玛音哈沙", "address": "阿拉善盟-阿拉善右旗", "image": "", "rank": 57, "time": 2, "location": {"lat": 39.2222409698549, "lng": 101.67346389593693}, "feature": {"sight_features": "", "sight_content": ""}}, {"title": "马路西沟", "address": "阿拉善盟-阿拉善右旗", "image": "", "rank": 58, "time": 2, "location": {"lat": 39.2222409698549, "lng": 101.67346389593693}, "feature": {"sight_features": "", "sight_content": ""}}, {"title": "根吉廷高勒", "address": "阿拉善盟-阿拉善右旗", "image": "", "rank": 59, "time": 2, "location": {"lat": 39.2222409698549, "lng": 101.67346389593693}, "feature": {"sight_features": "", "sight_content": ""}}, {"title": "阿给廷哈沙", "address": "阿拉善盟-阿拉善右旗", "image": "", "rank": 60, "time": 2, "location": {"lat": 39.2222409698549, "lng": 101.67346389593693}, "feature": {"sight_features": "", "sight_content": ""}}]}