{"cityName": "阿勒泰", "days": "4", "cityImage": "", "spots": [{"title": "喀纳斯景区", "address": "阿勒泰地区布尔津县境内北部，距县城150公里", "image": "", "rank": 1, "time": 2.5, "location": {"lat": 47.70795172388758, "lng": 86.88136017027281}, "feature": {"sight_features": "特色1 人间最后一片净土。神的自留地。", "sight_content": "喀纳斯景区位于新疆北部的阿尔泰山中段，北与哈萨克斯坦共和国、俄罗斯共和国接壤，东邻蒙古人民共和国，自然生态景观和人文景观始终保持着原始风貌，被誉为“人间净土”。根据《大喀纳斯旅游区总体规划（2005－2020年）》，喀纳斯旅游区以北纬48°13′为南部边界，包括哈纳斯国家级自然保护区、喀纳斯国家地质公园、白哈巴国家森林公园、贾登峪国家森林公园、布尔津河谷、禾木河谷、禾木草原及禾木村、白哈巴村、喀纳斯村三个原始图瓦村落等七大自然景观区和三大人文景观区，总面积约10,030平方公里。\n喀纳斯是我国唯一一处位于四国交界的保护区，喀纳斯旅游区以喀纳斯湖为中心，秀丽的西伯利亚冷杉、塔形的西伯利亚云杉、苍劲的西伯利亚红松、西伯利亚落叶松和众多桦树构成了漫山遍野的原始落叶林。这里林木错落有致，花草纷呈，风光绮丽，湖面碧波万倾，群峰倒影，湖水还会随着季节和天气的变化时时变幻颜色，是有名的“变色湖”，每至秋季层林尽染，景色如画，四周雪峰耸峙，绿坡墨林，湖光山色，美不胜收。喀纳斯是我国现代冰川的主要分布区之一，储量丰富的冰川对区内水分起着重要的调节作用。喀纳斯河发源于友谊峰下的喀纳斯冰川，全长约125千米，从东北向西南流经全区，另外区内还发育有水资源丰富的禾木河，与喀纳斯河交汇形成布尔津河，最终汇入额尔齐斯河。她的流向与中国境内的其它河流几乎完全相反，形成一种独特的自然景观。喀纳斯湖位于喀纳斯自然保护区西南部，为古冰川强烈刨蚀，阻塞山谷积水形成。湖长24千米，平均宽度1.9千米，平均水深90米，面积45.73平方千米，蓄水量40亿立方米，湖南端出水口流量约50立方米/秒，湖面12月冻结，翌年5月解冻。\n喀纳斯复杂的自然地理环境特征孕育了丰富的动植物资源，目前整个喀纳斯自然保护区核心区域的环境仍旧保持着原始状态，这种原始状态为野生动植物的栖息和成长提供了良好的场所。据统计，目前规划区内有鸟类117种，兽类39种，两栖爬行类4种，鱼类7种，其中27种属于国家级保护动物，一类保护动物有紫貂、貂熊、雪豹、北山羊和黑鹤等5种，二类保护动物23种。植物种类是我国寒温带草原区最多的地区，共有83科298属798种，其中鸡腿参、赤芍、鹿根等是阿勒泰山区著名的药用植物。此外，本区内还有真菌99种，其中24种具有防癌作用，而冬虫夏草、平盖灵芝、松杉灵芝等菌种具有极高的经济价值。喀纳斯旅游区内的主要自然聚落大部分属于半定居的游牧民族，位于喀纳斯湖下湖口区的喀纳斯村、禾木村、白哈巴村、铁列克提村、齐巴罗依等，其中喀纳斯村现有原住民800人，禾木村1,200人，这些村落的人口主要由蒙古族、哈萨克族构成，其中蒙古族图瓦人占总数的大部分比例，依托图瓦人而形成的图瓦文化是该区最富有特色的民间风俗，图瓦人的生活方式、宗教信仰、祭祀活动等，都充满了古老而纯朴的气息。\n喀纳斯景区有独特的原始森林、神奇的水域湖泊、迷人的草原风光四、群集的现代冰川五、多变的气候景观六、浓郁的民族风情、和谐的人居环境、奇异的“湖怪”之谜"}}, {"title": "五彩滩", "address": "阿勒泰地区布尔津县西北约24公里处", "image": "", "rank": 2, "time": 3.0, "location": {"lat": 47.70795172388758, "lng": 86.88136017027281}, "feature": {"sight_features": "", "sight_content": ""}}, {"title": "白哈巴", "address": "阿勒泰地区哈巴河县铁热克提乡境内", "image": "", "rank": 3, "time": 4.5, "location": {"lat": 48.48156983194846, "lng": 86.70850095666039}, "feature": {"sight_features": "特色1 一个五颜六色的童话世界，傍晚光线柔和，村旁雪山泛红，北疆拍摄日落的最佳地带。", "sight_content": "白哈巴村分为图瓦人居住区、哈萨克人居住区和边防连住所三部分。村子坐落于一条沟谷之中，独特尖顶木头房子，白桦树、绿杨点缀其间；两条清澈的小河蜿蜒环村流过，夕阳牧归时的景色令人心旷神怡。\n\n白哈巴村已成为中外游客在喀纳斯湖旅游的一个重要驿站，被誉为西北第一村。\n白哈巴是个原始自然生态与古老传统文化共融的村落，一切都还保存着几百年来固有的原始风貌，以图瓦人为主，位于阿尔泰山山脉的山谷平地上，与哈萨克斯坦的大山遥遥相望，阿尔泰山上密密麻麻的金黄金黄的松树林一直延伸到白哈巴村里，村民住的木屋和圈养牲畜的栅栏错落有致地散布在松林和桦林之中，安宁、祥和。\n\n村子坐落在一条沟谷之中，建在两条小溪之间的狭长台地上，依山傍水而立。该村的所有建筑均由原木筑成，以外观很古朴的小木楞屋为标志，具有欧式村寨的特色。房屋是清一色的尖顶木楞屋，墙体和顶棚用整根原木垒砌、拼接而成，顶部再用木板支撑成“人”字形的尖顶，可防雨防雪，以保证住房的安全。顶棚和屋顶之间形成两头通风的尖阁，是储藏饲料和风干肉品的好地方。屋内家家户户都好像是工艺品陈列馆，炕上铺着花毡，墙上挂着刺绣的帐幔壁毯，地中央为精制的火炉。\n在落日的傍晚和雾气的清晨，炊烟袅袅飘荡，牛羊满坡，整个村落构绘出了一幅人与自然和谐共处的山水画。山村的西北遥对中国与哈萨克斯坦国界河，南面是高山密林。秋季一到，山村是五彩的红、黄、绿、褐色，层林尽染，犹如一块调色板，加之映衬阿勒泰山的皑皑雪峰，一年四季都是一幅完美的油画。"}}, {"title": "禾木风景区", "address": "阿勒泰地区布尔津县喀纳斯禾木乡禾木村", "image": "", "rank": 4, "time": 2, "location": {"lat": 48.57675346467181, "lng": 87.44742648908347}, "feature": {"sight_features": "特色1 木屋、河流、森林构成的童话世界 特色2 每年九十月份有漫山黄叶，观景台可观赏绝美全景。", "sight_content": "禾木旅游风景区位于阿尔泰山脉中麓，这里保存着最自然、最原始的山野风光，风景独美，禾木河自东北向西南流淌，原始落村与大草原和谐自然的融为一体。这里也是古老的蒙古族图瓦人的居住地。"}}, {"title": "可可托海景区", "address": "阿勒泰地区富蕴县可可托海镇以东5公里处", "image": "", "rank": 5, "time": 4.0, "location": {"lat": 47.22622919082194, "lng": 89.88683581162515}, "feature": {"sight_features": "特色1 山恢弘蜿蜒，水动静相宜，山因水而灵动，水因山而质朴，石拟态象形，林蟠青丛翠", "sight_content": "可可托海，在哈萨克语中意为“绿色的丛林”，在蒙古语中意为“蓝色的河湾”。新疆可可托海景区位于新疆阿勒泰地区富蕴县境内,以峡谷河源风光、沼泽湿地景观、寒极湖泊、地质矿产资源、草原游牧文化、哈萨克族民俗风情等为主要特色，是观光旅游、休闲度假、特种旅游、科学考察等为一体的国家AAAAA级旅游景区、国际原生态旅游景区、世界地质公园。新疆可可托海景区是新疆黄金旅游线路上一颗璀璨的明珠。\n额尔齐斯大峡谷：\n\n额尔齐斯大峡谷是可可托海风景区的主景区。第一景钟山峡谷，“观山赏水接福气”——峡谷山水交错，灵气逼人，山、水、石、树、人交相呼应，沿河两岸群峰对峙，飞来峰、骆驼峰、象鼻峰、神鹰峰等形象逼真，号称“一百单八峰”。山峰中尤以相对高差365米的阿米尔萨拉峰令人叫绝，为阿尔泰山山景之最。可谓一山一景一世界，一步一景一回眸。峰回水转，额尔齐斯河从峡谷深处发源，奔流西去，或蜿蜒和缓，或奔流不息，声色各异，变化多端，河水矿物元素含量丰富，“送子河”名扬千里。冷泉、温泉相拥而出，胃泉、降压泉神秘莫测，“美人汤”著称的季兰德温泉令人流连忘返。\n第二景宝石沟，“徒步寻宝招财气”——宝石沟内树木参天，水流不竭，花海无垠，绿草如茵；芍药谷、黄堇溪、宝石洞，各具特色，令人目不暇接。漫步芍药谷，芍药或红或白，红如烈火,烂漫撩人；白如雪莲，芳香馥郁。穿行黄堇溪，感受风中摇曳的黄堇花肆意拂面，风光旖旎，乐不思归。山穷水尽疑无路，柳暗花明又一村，入宝石洞，拾捡先人零落的海蓝、碧玺，这对于我们来说也不失为一种偶然，一份幸运。穿行在深幽静谧的宝石沟，或徒步，或骑行，或自驾，行至尽头，恍若梦境，溪谷纵横，宝石云集，会发现神秘而圣洁的宝石湖仍以其最原始的姿态等候着你的到来。\n\n\n白桦林\n第三景白桦林，“游林品景结喜气”——白桦林游览区素以“浪漫情人岛”著称，林内小桥流水，桦林斑斓，树影婆娑，形态万千，给原本伟岸挺拔的白桦又赋予了一层浪漫的含义。寄语区、心愿区、休闲区，区区相通；同心桥、连心桥、圆心桥，桥桥相连；心意情意，情浓意浓。漫步桦林花海，浅草无边，花香弥漫。在这里你不仅可以聆听冬不拉悠远的传唱，还可以欣赏山花的烂漫，牛羊的悠闲；不仅可以品茶、聊天、许愿、拍摄婚纱，更有缘观览黄羊、旱獭、松鼠等野生动物资源。\n可可苏里：\n通往大峡谷的必经之景可可苏里，俗称野鸭湖，湖中芦苇形成大小浮岛20多个，水生植物丰富。每年夏秋季节，成千上万的野鸭、灰鹤、红雁云集在此繁衍生息，一派“沙鸥翔集“、“鱼翔浅底”的水乡泽国美景，是一处游船观光、休闲垂钓、摄影野营的好去处，也是景区特别推荐的参观游览胜地\n昆盖特云端石阵\n“昆盖特”为哈萨克语，意为“太阳升起的地方”；昆盖特云端石阵景区以云景和巅峰怪石称绝，建成之后，将与额尔齐斯大峡谷景区相连同，共同组成可可托海大环线。昆盖特云端石阵景区总面积1400平方公里，由大面积的原始森林、草原、溪谷组成，遍布丰富多彩的奇石怪峰，是寻找野趣、体验自然的绝佳之地。\n额尔齐斯河\n额尔齐斯河又称“多逻斯川”，突厥语的意思是“湍急的河流”。据地质学家研究，额尔齐斯河已有300万年的历史，它发源于阿尔泰山南麓的加勒格孜嘎峰。“一江春水向东流”，“大江东去，浪淘尽，千古风流人物”；南唐后主和东坡居士描写的是江河奔腾自西向东流去的壮观景象，而阿尔泰山孕育出的额尔齐斯河却是一路西行奔向了遥远的北冰洋。从哈巴河县流出国门后，汇入哈萨克斯坦的斋桑泊，后经俄罗斯的鄂毕河注入北冰洋，全长2969公里，流域面积10.7万平方公里。\n飞来峰\n龙门广场位于额尔齐斯大峡谷景区入口处，广场周围，群山连绵起伏，如同巨龙之身，飞来峰恰是龙头，飞来石恰是龙角；远观广场，犹如一条巨龙环卧其侧，守护着一方宝地，故称为“龙门广场”。由游客服务中心暨地质博物馆、主碑广场、生态停车场、休闲广场四部分组成。\n地质博物馆\n游客服务中心暨地质博物馆占地面积13000㎡，建筑面积6000㎡，按 “大地自然隆起的褶皱”理念，突出 “和合之道”，追求建筑与自然的和谐共生。由公共服务区、展览区、办公区、设备区四部分组成，包含旅游服务区、商品销售区、游客休息区、网络休息区、商务会议区、地质展览区、景区风光展示区、多媒体展示区、医疗急救中心等。"}}, {"title": "白沙湖", "address": "阿勒泰地区哈巴河县185团境内，距离县城108公里", "image": "", "rank": 6, "time": 2.5, "location": {"lat": 48.066148902457634, "lng": 86.42481768466426}, "feature": {"sight_features": "特色1 葱郁树木和远处的沙山倒映在湖水里，是摄影的绝佳地带。", "sight_content": "白沙湖是新疆阿勒泰地区千里画廊上的一个重要景区之一，距离哈巴河县城100公里，距离阿勒泰机场260公里、距离喀纳斯机场150公里、距离北屯火车站260公里，距离新疆首府乌鲁木齐市770公里。白沙湖风景区西北距中哈边境约2.5公里，有公路相通。海拔约650米，其水域面积为0.5平方公里，是一个被沙丘环绕的沙漠小湖。大陆性北温带寒冷气候，其特点是四季不明，春旱多大风，夏短炎热,秋季凉爽，冬长寒冷；空气干燥，降雨量少，蒸发量大；日照丰富，温差较大。\n\n\n白沙湖南北长约800米，东西宽约600米，形似豌豆荚，东面凹进，西面鼓起。白沙湖是沙漠中独生的一池深水，水源及成因颇受科学研究者关注。其湖心、湖岸、湖周生长的反差极大的气候及生态环境下的多种植被、半干旱灌木丛植被，也让人不解，引人寻思。白沙湖湖中四周生长着高达1—4米的密密丛生的芦苇、菖蒲等水生植物，湖中还有野荷花孤寂地生存着；湖周50米内，是高大茂密的银灰杨、白杨、白桦混生的林带；湖周50米外的沙丘上，则生长着额河杨、山楂、白杨、绣线菊等植物。白沙湖的景致构成十分独特，6月湖中莲花盛开，野鸭游其间，金秋十月红黄树叶，在风中招展，湖中绿水，碧波如镜，湖山映衬，远眺近览，气象万千，沙地在阳光的照射下，散发出阵阵泥土的芳香，使人心醉，远处的金色鸣沙山倒映在碧绿的湖水中、湖边和各类混生林，层层叠叠，交相辉映，犹如一个完美无缺的自然大盆景，展现在游人面前。人称“塞北小江南”。"}}, {"title": "月亮湾", "address": "阿勒泰地区布尔津县喀纳斯卧龙湾上游约1公里处", "image": "", "rank": 7, "time": 1.5, "location": {"lat": 48.700404813088774, "lng": 87.04297135896918}, "feature": {"sight_features": "", "sight_content": ""}}, {"title": "卧龙湾", "address": "阿勒泰地区布尔津县喀纳斯景区内（近神仙湾）", "image": "", "rank": 8, "time": 1.0, "location": {"lat": 48.664850740457034, "lng": 87.04742946344565}, "feature": {"sight_features": "", "sight_content": ""}}, {"title": "贾登峪", "address": "阿勒泰布尔津县（喀纳斯湖东南35公里处）", "image": "", "rank": 9, "time": 3.0, "location": {"lat": 48.83257475841271, "lng": 87.37533583528446}, "feature": {"sight_features": "", "sight_content": ""}}, {"title": "喀纳斯图瓦村", "address": "阿勒泰地区布尔津县喀纳斯景区内（喀纳斯湖南岸2-3公里处）", "image": "", "rank": 10, "time": 3.0, "location": {"lat": 48.50940111391168, "lng": 87.1356576626194}, "feature": {"sight_features": "", "sight_content": ""}}, {"title": "神仙湾", "address": "阿勒泰地区布尔津县喀纳斯景区内，月亮湾往北大约3公里处", "image": "", "rank": 11, "time": 1.5, "location": {"lat": 48.664850740457034, "lng": 87.04742946344565}, "feature": {"sight_features": "", "sight_content": ""}}, {"title": "观鱼台", "address": "阿勒泰地区布尔津县喀纳斯景区哈拉开特山腰上", "image": "", "rank": 12, "time": 0.25, "location": {"lat": 48.50940111391168, "lng": 87.1356576626194}, "feature": {"sight_features": "", "sight_content": ""}}, {"title": "额尔齐斯河", "address": "阿勒泰地区布尔津县", "image": "", "rank": 13, "time": 1.5, "location": {"lat": 47.70795172388758, "lng": 86.88136017027281}, "feature": {"sight_features": "", "sight_content": ""}}, {"title": "喀纳斯河", "address": "阿勒泰地区布尔津县喀纳斯景区内", "image": "", "rank": 14, "time": 3.5, "location": {"lat": 48.50940111391168, "lng": 87.1356576626194}, "feature": {"sight_features": "", "sight_content": ""}}, {"title": "友谊峰", "address": "阿勒泰地区布尔津县喀纳斯湖东北，中蒙边界线上", "image": "", "rank": 15, "time": 1.5, "location": {"lat": 48.83257475841271, "lng": 87.06092890679021}, "feature": {"sight_features": "", "sight_content": ""}}, {"title": "阿尔泰山", "address": "新疆阿勒泰市富蕴县", "image": "", "rank": 16, "time": 1.0, "location": {"lat": 47.83275264847511, "lng": 88.13922656402383}, "feature": {"sight_features": "", "sight_content": ""}}, {"title": "禾木桥", "address": "伊犁哈萨克自治州阿勒泰地区布尔津县喀纳斯风景区禾木村内", "image": "", "rank": 17, "time": 0.35, "location": {"lat": 48.57675346467181, "lng": 87.44742648908347}, "feature": {"sight_features": "", "sight_content": ""}}, {"title": "禾木草原", "address": "阿勒泰地区布尔津县禾木喀纳斯蒙古族乡", "image": "", "rank": 18, "time": 1.5, "location": {"lat": 48.57443577838035, "lng": 87.43942660627785}, "feature": {"sight_features": "", "sight_content": ""}}, {"title": "鸭泽湖", "address": "阿勒泰地区布尔津县禾木喀纳斯蒙古族乡境内喀纳斯村南边", "image": "", "rank": 19, "time": 2.5, "location": {"lat": 48.69721420929009, "lng": 87.04119149254358}, "feature": {"sight_features": "", "sight_content": ""}}, {"title": "双湖", "address": "阿勒泰地区布尔津县喀纳斯湖西岸的恰其阿依特山南坡河谷中", "image": "", "rank": 20, "time": 1.0, "location": {"lat": 48.83257475841271, "lng": 87.06092890679021}, "feature": {"sight_features": "", "sight_content": ""}}, {"title": "桦林公园", "address": "新疆维吾尔自治区阿勒泰市北郊2千米的克兰河谷地中", "image": "", "rank": 21, "time": 3.0, "location": {"lat": 47.91456850298606, "lng": 88.1263970545608}, "feature": {"sight_features": "", "sight_content": ""}}, {"title": "白湖", "address": "阿勒泰地区布尔津县禾木喀纳斯蒙古族乡境内，喀纳斯湖东北", "image": "", "rank": 22, "time": 1.0, "location": {"lat": 48.83257475841271, "lng": 87.06092890679021}, "feature": {"sight_features": "", "sight_content": ""}}, {"title": "驼颈湾", "address": "阿勒泰地区布尔津县喀纳斯风景区喀纳斯河谷内的勃他木依", "image": "", "rank": 23, "time": 0.35, "location": {"lat": 48.700404813088774, "lng": 87.04297135896918}, "feature": {"sight_features": "", "sight_content": ""}}, {"title": "那仁夏牧场", "address": "阿勒泰地区哈巴河县铁热克提乡境内，哈巴河县城以北100千米，距白哈巴村约23千米", "image": "", "rank": 24, "time": 1.5, "location": {"lat": 48.699186176279994, "lng": 86.79185022451097}, "feature": {"sight_features": "", "sight_content": ""}}, {"title": "乌伦古湖", "address": "阿勒泰地区福海县境内", "image": "", "rank": 25, "time": 3.0, "location": {"lat": 47.118140737535164, "lng": 87.4931572463246}, "feature": {"sight_features": "", "sight_content": ""}}, {"title": "中哈界碑", "address": "阿勒泰地区哈巴河县铁热克提乡白哈巴村", "image": "", "rank": 26, "time": 0.35, "location": {"lat": 48.699186176279994, "lng": 86.79185022451097}, "feature": {"sight_features": "", "sight_content": ""}}, {"title": "泰加林廊道", "address": "阿勒泰地区布尔津县北部喀纳斯风景区内，近喀纳斯山庄。", "image": "", "rank": 27, "time": 1.5, "location": {"lat": 48.700404813088774, "lng": 87.04297135896918}, "feature": {"sight_features": "", "sight_content": ""}}, {"title": "小黑湖", "address": "阿勒泰地区布尔津县喀纳斯湖以东21公里，禾木乡以西15公里。", "image": "", "rank": 28, "time": 1.0, "location": {"lat": 48.83257475841271, "lng": 87.24957306388676}, "feature": {"sight_features": "", "sight_content": ""}}, {"title": "布尔津县", "address": "新疆维吾尔自治区阿勒泰地区布尔津县", "image": "", "rank": 29, "time": 2, "location": {"lat": 47.70795172388758, "lng": 86.88136017027281}, "feature": {"sight_features": "", "sight_content": ""}}, {"title": "千湖", "address": "阿勒泰地区布尔津县喀纳斯村西约13公里", "image": "", "rank": 30, "time": 1.5, "location": {"lat": 48.69721420929009, "lng": 87.04119149254358}, "feature": {"sight_features": "", "sight_content": ""}}, {"title": "吐鲁克岩画", "address": "阿勒泰地区布尔津县北部喀纳斯风景区内，喀纳斯湖一道湾东岸", "image": "", "rank": 31, "time": 0.75, "location": {"lat": 48.83257475841271, "lng": 87.06092890679021}, "feature": {"sight_features": "", "sight_content": ""}}, {"title": "哈巴河白桦林", "address": "阿勒泰地区哈巴河县以西4公里处", "image": "", "rank": 32, "time": 2.0, "location": {"lat": 48.066148902457634, "lng": 86.38888546426492}, "feature": {"sight_features": "", "sight_content": ""}}, {"title": "百花园", "address": "阿勒泰地区布尔津县喀纳斯景区内", "image": "", "rank": 33, "time": 1.5, "location": {"lat": 48.50940111391168, "lng": 87.1356576626194}, "feature": {"sight_features": "", "sight_content": ""}}, {"title": "成吉思汗点将台", "address": "阿勒泰地区布尔津县禾木景区内", "image": "", "rank": 34, "time": 1.0, "location": {"lat": 47.70795172388758, "lng": 86.88136017027281}, "feature": {"sight_features": "", "sight_content": ""}}, {"title": "花楸谷", "address": "阿勒泰地区布尔津县北部喀纳斯风景区内", "image": "", "rank": 35, "time": 1.0, "location": {"lat": 48.700404813088774, "lng": 87.04297135896918}, "feature": {"sight_features": "", "sight_content": ""}}, {"title": "五指泉", "address": "位于汗德尕特乡境内，距汗德尕特乡政府所在地约5公里", "image": "", "rank": 36, "time": 1.0, "location": {"lat": 32.21070201655496, "lng": 98.22895932905084}, "feature": {"sight_features": "", "sight_content": ""}}, {"title": "浮木长堤", "address": "阿勒泰地区布尔津县喀纳斯湖最北端的入湖口", "image": "", "rank": 37, "time": 1.0, "location": {"lat": 48.83257475841271, "lng": 87.06092890679021}, "feature": {"sight_features": "", "sight_content": ""}}, {"title": "黄金大道", "address": "阿勒泰地区哈巴河县铁热克提乡白哈巴村后方", "image": "", "rank": 38, "time": 1.0, "location": {"lat": 48.699186176279994, "lng": 86.79185022451097}, "feature": {"sight_features": "", "sight_content": ""}}, {"title": "喀纳斯国家地质公园", "address": "新疆维吾尔自治区布尔津县县城北部阿尔泰深山密林中", "image": "", "rank": 39, "time": 4.5, "location": {"lat": 47.70795172388758, "lng": 86.88136017027281}, "feature": {"sight_features": "", "sight_content": ""}}, {"title": "中华林", "address": "伊犁市阿勒泰地区布尔津县", "image": "", "rank": 40, "time": 1.0, "location": {"lat": 47.70795172388758, "lng": 86.88136017027281}, "feature": {"sight_features": "", "sight_content": ""}}, {"title": "可可苏里湖", "address": "新疆阿勒泰地区富蕴县境内", "image": "", "rank": 41, "time": 2, "location": {"lat": 46.99995105305454, "lng": 89.53195340805546}, "feature": {"sight_features": "", "sight_content": ""}}, {"title": "禾木白桦林", "address": "新疆维吾尔自治区布尔津县禾木哈纳斯蒙古民族乡禾木村（禾木景区）内", "image": "", "rank": 42, "time": null, "location": {"lat": 48.57610661165278, "lng": 87.43952609280461}, "feature": {"sight_features": "", "sight_content": ""}}, {"title": "伊雷木湖", "address": "富蕴县北部，可可托海镇西南约4千米的断陷洼地内", "image": "", "rank": 43, "time": 2, "location": {"lat": 47.22622919082194, "lng": 89.84192053612597}, "feature": {"sight_features": "", "sight_content": ""}}, {"title": "阿拉善温泉", "address": "福海县北的阿尔泰山上", "image": "", "rank": 44, "time": 2, "location": {"lat": 47.97145916272306, "lng": 88.7991092717044}, "feature": {"sight_features": "", "sight_content": ""}}, {"title": "白山布纪念碑", "address": "阿勒泰地区布尔津县县城通往喀纳斯约5公里处", "image": "", "rank": 45, "time": null, "location": {"lat": 48.700404813088774, "lng": 87.04297135896918}, "feature": {"sight_features": "", "sight_content": ""}}, {"title": "冲呼尔乡", "address": "阿勒泰地区布尔津县冲乎尔乡", "image": "", "rank": 46, "time": 2.5, "location": {"lat": 48.12398642664999, "lng": 87.13633278646101}, "feature": {"sight_features": "", "sight_content": ""}}, {"title": "禾木观景台", "address": "新疆维吾尔自治区阿勒泰地区布尔津县禾木乡禾木村", "image": "", "rank": 47, "time": 2.5, "location": {"lat": 48.57675346467181, "lng": 87.44742648908347}, "feature": {"sight_features": "", "sight_content": ""}}, {"title": "三号矿坑", "address": "可可托海镇", "image": "", "rank": 48, "time": 2, "location": {"lat": 47.22622919082194, "lng": 89.84192053612597}, "feature": {"sight_features": "", "sight_content": "在新疆准噶尔盆地的东北边缘，阿尔泰山脉的东端南麓，额尔齐斯河的源头，有一个自建国以来就被列为国家高度机密的区域－－可可托海。在这里隐藏着一个和共和国命运息息相关的神秘大坑――可可托海三号矿坑。 可可托海三号矿坑位于距新疆阿勒泰富蕴县城北部50公里处的可可托海镇，素以“地质矿产博物馆”享誉海内外，是中外地质学者心目中的“麦加”。 　　“三号坑”世界上最大的矿坑，深100多米，长宽数百米，坑内有76种矿共生。其规模之大，矿种之多，品位之高，成带性之分明为国内独有、国外罕见，蕴藏着有锂、铍、铖、钼、铷、铯、铪、铀、钍等多种稀有及放射性元素。可可托海矿藏非常丰富，其中最具代表性的当属三号矿脉。三号矿脉蕴藏着稀有金属铍、锂、钽、铌、铯等；有色金属铜、镍、铅、锌、钨、锰、铋、锡等；黑色金属铁等；非金属矿物云母、长石、石英、重晶石、兰晶石、石灰石、煤、盐、碱等；珠宝石矿海兰石、紫罗兰、石榴子石、芙蓉石等共86种矿物，占人类已知有用矿物种类的60%，而且各种矿物呈十分规则的螺旋带状分布，分布界线非常分明。最令人惊喜的是这是一个草帽型矿，在矿坑四周仍有大量未被挖掘的资源。"}}, {"title": "小东沟森林公园", "address": "阿勒泰市", "image": "", "rank": 49, "time": 1.0, "location": {"lat": 47.83275264847511, "lng": 88.13922656402383}, "feature": {"sight_features": "", "sight_content": ""}}, {"title": "喀纳斯盛典", "address": "新疆维吾尔自治区布尔津县河堤夜市左侧。", "image": "", "rank": 50, "time": 4.5, "location": {"lat": 47.70795172388758, "lng": 86.88136017027281}, "feature": {"sight_features": "", "sight_content": ""}}, {"title": "草原石人哈萨克民族文化产业园", "address": "阿勒泰市布尔津县阿贡盖提草原", "image": "", "rank": 51, "time": 2, "location": {"lat": 47.83275264847511, "lng": 88.13922656402383}, "feature": {"sight_features": "", "sight_content": ""}}, {"title": "蝴蝶谷景区", "address": "阿勒泰市区懂60多公里的库别力克山中", "image": "", "rank": 52, "time": 2, "location": {"lat": 47.83275264847511, "lng": 88.13922656402383}, "feature": {"sight_features": "", "sight_content": ""}}, {"title": "蝴蝶沟", "address": "新疆维吾尔自治区福海县库别力克山", "image": "", "rank": 53, "time": 2.0, "location": {"lat": 47.118140737535164, "lng": 87.4931572463246}, "feature": {"sight_features": "", "sight_content": ""}}, {"title": "乌拉斯沟瀑布", "address": "阿勒泰地区阿勒泰市", "image": "", "rank": 54, "time": 1.0, "location": {"lat": 47.83275264847511, "lng": 88.13922656402383}, "feature": {"sight_features": "", "sight_content": ""}}, {"title": "阿克吐别克钢索桥", "address": "新疆阿勒泰地区布尔津五彩滩景区内", "image": "", "rank": 55, "time": 2, "location": {"lat": 47.846770207726394, "lng": 86.6800713749872}, "feature": {"sight_features": "", "sight_content": ""}}, {"title": "吉木乃神石城地质公园", "address": "疆维吾尔自治区吉木乃县托斯特乡境内", "image": "", "rank": 56, "time": 2, "location": {"lat": 47.28521594638947, "lng": 86.13398804612928}, "feature": {"sight_features": "", "sight_content": ""}}, {"title": "阿肯齐村红树林", "address": "阿勒泰地区布尔津县阿肯齐村", "image": "", "rank": 57, "time": 1.5, "location": {"lat": 47.74031239680348, "lng": 87.00605967340277}, "feature": {"sight_features": "", "sight_content": ""}}, {"title": "切木尔切克陨石群", "address": "阿勒泰市切木尔切克乡境内，距市区12公里", "image": "", "rank": 58, "time": null, "location": {"lat": 47.80399825138858, "lng": 87.97638192263172}, "feature": {"sight_features": "", "sight_content": ""}}, {"title": "塘巴湖水上乐园", "address": "阿勒泰市红墩镇", "image": "", "rank": 59, "time": 2.0, "location": {"lat": 47.73256921764985, "lng": 88.22679360360495}, "feature": {"sight_features": "", "sight_content": ""}}]}