{"cityName": "阿里", "days": "3", "cityImage": "", "spots": [{"title": "玛旁雍错", "address": "阿里地区普兰县霍尔乡境内", "image": "", "rank": 1, "time": 4.5, "location": {"lat": 30.77677403420513, "lng": 81.61936690820315}, "feature": {"sight_features": "", "sight_content": ""}}, {"title": "古格王国遗址", "address": "阿里地区扎达县托林镇西北的象泉河南岸", "image": "", "rank": 2, "time": 1.5, "location": {"lat": 31.487843059662076, "lng": 79.8090617328716}, "feature": {"sight_features": "", "sight_content": ""}}, {"title": "班公错", "address": "阿里地区日土县东北部", "image": "", "rank": 3, "time": 2.5, "location": {"lat": 33.3871860438718, "lng": 79.73910913826312}, "feature": {"sight_features": "", "sight_content": ""}}, {"title": "狮泉河", "address": "阿里地区", "image": "", "rank": 4, "time": 2, "location": {"lat": 32.50686601763335, "lng": 80.11277692192645}, "feature": {"sight_features": "", "sight_content": ""}}, {"title": "拉昂错", "address": "西藏自治区阿里地区普兰县玛旁雍错东北角", "image": "", "rank": 5, "time": 1.0, "location": {"lat": 30.69773491939785, "lng": 81.46642535590499}, "feature": {"sight_features": "", "sight_content": ""}}, {"title": "札达土林", "address": "阿里地区札达县境内", "image": "", "rank": 6, "time": 1.5, "location": {"lat": 31.48534307001444, "lng": 79.80932321217843}, "feature": {"sight_features": "", "sight_content": ""}}, {"title": "象泉河", "address": "阿里地区", "image": "", "rank": 7, "time": 2, "location": {"lat": 32.50686601763335, "lng": 80.11277692192645}, "feature": {"sight_features": "", "sight_content": ""}}, {"title": "托林寺", "address": "西藏自治区札达县象泉河畔", "image": "", "rank": 8, "time": 1.0, "location": {"lat": 31.48534307001444, "lng": 79.80932321217843}, "feature": {"sight_features": "", "sight_content": ""}}, {"title": "塔钦", "address": "阿里地区岗仁布钦的山脚下的小山村", "image": "", "rank": 9, "time": 3.0, "location": {"lat": 32.50686601763335, "lng": 80.11277692192645}, "feature": {"sight_features": "", "sight_content": ""}}, {"title": "扎日南木错", "address": "阿里地区措勤县东边", "image": "", "rank": 10, "time": 1.0, "location": {"lat": 31.02266637927343, "lng": 85.16595220548083}, "feature": {"sight_features": "", "sight_content": ""}}, {"title": "纳木那尼峰", "address": "阿里地区普兰县玛旁雍错旁边", "image": "", "rank": 11, "time": 1.0, "location": {"lat": 30.69773491939785, "lng": 81.46642535590499}, "feature": {"sight_features": "", "sight_content": ""}}, {"title": "孔雀河", "address": "阿里地区", "image": "", "rank": 12, "time": 2, "location": {"lat": 32.50686601763335, "lng": 80.11277692192645}, "feature": {"sight_features": "", "sight_content": ""}}, {"title": "马泉河", "address": "阿里地区", "image": "", "rank": 13, "time": 2, "location": {"lat": 32.50686601763335, "lng": 80.11277692192645}, "feature": {"sight_features": "", "sight_content": ""}}, {"title": "界山达坂", "address": "阿里地区日土县东汝乡松西村", "image": "", "rank": 14, "time": 0.4, "location": {"lat": 33.3871860438718, "lng": 79.73910913826312}, "feature": {"sight_features": "", "sight_content": ""}}, {"title": "科迦寺", "address": "西藏自治区普兰县普兰镇科加村", "image": "", "rank": 15, "time": 2.0, "location": {"lat": 30.200547415587522, "lng": 81.28355963470088}, "feature": {"sight_features": "", "sight_content": ""}}, {"title": "公珠错", "address": "阿里地区普兰县", "image": "", "rank": 16, "time": 2, "location": {"lat": 30.30016259107777, "lng": 81.18309473197418}, "feature": {"sight_features": "", "sight_content": ""}}, {"title": "日土岩画", "address": "西藏自治区阿里地区日土县", "image": "", "rank": 17, "time": 1.0, "location": {"lat": 33.3871860438718, "lng": 79.73910913826312}, "feature": {"sight_features": "", "sight_content": ""}}, {"title": "即乌寺", "address": "阿里地区普兰县", "image": "", "rank": 18, "time": 2, "location": {"lat": 30.30016259107777, "lng": 81.18309473197418}, "feature": {"sight_features": "", "sight_content": ""}}, {"title": "普兰古城", "address": "阿里地区普兰县普兰镇", "image": "", "rank": 19, "time": 3.0, "location": {"lat": 30.290425407576933, "lng": 81.18319289314098}, "feature": {"sight_features": "", "sight_content": ""}}, {"title": "皮央东嘎洞窟遗址", "address": "阿里地区札达县", "image": "", "rank": 20, "time": 1.0, "location": {"lat": 31.48534307001444, "lng": 79.80932321217843}, "feature": {"sight_features": "", "sight_content": ""}}, {"title": "普兰", "address": "阿里地区南部、喜马拉雅山南侧的峡谷地带及中国、印度、尼泊尔三国交界处。", "image": "", "rank": 21, "time": 2.5, "location": {"lat": 30.10197243683529, "lng": 81.28822405462076}, "feature": {"sight_features": "", "sight_content": ""}}, {"title": "那木如", "address": "阿里地区噶尔县那木如村", "image": "", "rank": 22, "time": 7.5, "location": {"lat": 31.91461739179595, "lng": 80.15879116875574}, "feature": {"sight_features": "", "sight_content": ""}}, {"title": "止热寺", "address": "阿里地区普兰县北部", "image": "", "rank": 23, "time": 1.5, "location": {"lat": 30.30016259107777, "lng": 81.18309473197418}, "feature": {"sight_features": "", "sight_content": ""}}, {"title": "卓玛拉山口", "address": "阿里地区普兰县北部冈仁波齐的一座山口", "image": "", "rank": 24, "time": 3.0, "location": {"lat": 30.30016259107777, "lng": 81.18309473197418}, "feature": {"sight_features": "", "sight_content": ""}}, {"title": "达瓦错", "address": "阿里地区措勤县", "image": "", "rank": 25, "time": 1.0, "location": {"lat": 31.02266637927343, "lng": 85.16595220548083}, "feature": {"sight_features": "", "sight_content": ""}}, {"title": "洞错", "address": "阿里地区改则县", "image": "", "rank": 26, "time": 2, "location": {"lat": 32.30835664324378, "lng": 84.06911336253982}, "feature": {"sight_features": "", "sight_content": ""}}, {"title": "罗布拉康寺", "address": "阿里地区改则县洞措乡境内", "image": "", "rank": 27, "time": 0.75, "location": {"lat": 32.10163751127958, "lng": 84.88714480572001}, "feature": {"sight_features": "", "sight_content": ""}}, {"title": "楚果寺", "address": "阿里地区普兰县", "image": "", "rank": 28, "time": 2, "location": {"lat": 30.30016259107777, "lng": 81.18309473197418}, "feature": {"sight_features": "", "sight_content": ""}}, {"title": "扎达布日寺", "address": "阿里地区噶尔县门士镇象泉河畔", "image": "", "rank": 29, "time": 0.75, "location": {"lat": 32.49715682360169, "lng": 80.10287714605373}, "feature": {"sight_features": "", "sight_content": ""}}, {"title": "温泉湖温泉", "address": "阿里地区普兰县", "image": "", "rank": 30, "time": 2, "location": {"lat": 30.30016259107777, "lng": 81.18309473197418}, "feature": {"sight_features": "", "sight_content": ""}}, {"title": "贤伯林寺", "address": "阿里地区普兰县城之西，孔雀河西边的山上", "image": "", "rank": 31, "time": 1.0, "location": {"lat": 30.30016259107777, "lng": 81.18309473197418}, "feature": {"sight_features": "", "sight_content": ""}}, {"title": "曲普水热爆炸奇观", "address": "阿里地区普兰县曲普", "image": "", "rank": 32, "time": 2, "location": {"lat": 30.590939358288296, "lng": 81.59582389345009}, "feature": {"sight_features": "", "sight_content": ""}}, {"title": "阿里神山圣湖旅游区", "address": "阿里地区普兰县霍尔、巴嘎两乡境内", "image": "", "rank": 33, "time": 2, "location": {"lat": 30.857643826573305, "lng": 81.43681049074377}, "feature": {"sight_features": "", "sight_content": ""}}, {"title": "布嘎寺", "address": "阿里地区措勤县达雄乡夏东村", "image": "", "rank": 34, "time": 2, "location": {"lat": 31.459294316706973, "lng": 84.68043277810743}, "feature": {"sight_features": "", "sight_content": ""}}, {"title": "边拉拉康", "address": "阿里地区措勤县磁石乡加饶村", "image": "", "rank": 35, "time": 2, "location": {"lat": 31.078689342397414, "lng": 85.78120003231481}, "feature": {"sight_features": "", "sight_content": ""}}, {"title": "扎布耶茶卡", "address": "西藏自治区日喀则地区仲巴县隆格尔区仁多乡", "image": "", "rank": 36, "time": 2, "location": {"lat": 31.305455551798765, "lng": 83.55864408415415}, "feature": {"sight_features": "", "sight_content": ""}}, {"title": "悬空寺", "address": "西藏自治区阿里地区普兰县城", "image": "", "rank": 37, "time": 3.0, "location": {"lat": 30.30016259107777, "lng": 81.18309473197418}, "feature": {"sight_features": "", "sight_content": ""}}, {"title": "措勤河", "address": "阿里地区措勤县", "image": "", "rank": 38, "time": 2, "location": {"lat": 31.02266637927343, "lng": 85.16595220548083}, "feature": {"sight_features": "", "sight_content": ""}}, {"title": "科加寺", "address": "西藏阿里普兰县科加乡科加村", "image": "", "rank": 39, "time": 2, "location": {"lat": 30.200547415587522, "lng": 81.28355963470088}, "feature": {"sight_features": "", "sight_content": ""}}, {"title": "卓玛拉山", "address": "阿里地区普兰县北部", "image": "", "rank": 40, "time": 2, "location": {"lat": 30.30016259107777, "lng": 81.18309473197418}, "feature": {"sight_features": "", "sight_content": ""}}, {"title": "干尸洞", "address": "阿里地区札达县托林镇西北的象泉河南岸古格王国遗址北面约600米远", "image": "", "rank": 41, "time": 0.75, "location": {"lat": 31.46874630123224, "lng": 79.67868047074775}, "feature": {"sight_features": "", "sight_content": ""}}, {"title": "曲古寺", "address": "阿里地区普兰县境内，位于县驻地以北、神山冈仁波且峰西面。", "image": "", "rank": 42, "time": 2.5, "location": {"lat": 30.30016259107777, "lng": 81.18309473197418}, "feature": {"sight_features": "", "sight_content": ""}}, {"title": "水上飘豆花庄", "address": "狄三路与迎宾大道交叉口东50米", "image": "", "rank": 43, "time": 2, "location": {"lat": 32.49969145026763, "lng": 80.10135972838627}, "feature": {"sight_features": "", "sight_content": ""}}, {"title": "烈士陵园", "address": "西藏自治区阿里地区札达县", "image": "", "rank": 44, "time": 2, "location": {"lat": 31.48534307001444, "lng": 79.80932321217843}, "feature": {"sight_features": "", "sight_content": ""}}, {"title": "托加寺", "address": "西藏自治区阿里地区普兰县", "image": "", "rank": 45, "time": 2, "location": {"lat": 30.30016259107777, "lng": 81.18309473197418}, "feature": {"sight_features": "", "sight_content": ""}}, {"title": "祖楚寺", "address": "普兰县阿里地区Unnamed Road", "image": "", "rank": 46, "time": 2, "location": {"lat": 30.30016259107777, "lng": 81.18309473197418}, "feature": {"sight_features": "", "sight_content": ""}}, {"title": "阿里神山圣湖美", "address": "西藏自治区普兰县境内", "image": "", "rank": 47, "time": 2, "location": {"lat": 30.30016259107777, "lng": 81.18309473197418}, "feature": {"sight_features": "", "sight_content": ""}}, {"title": "美马错保护区湿地", "address": "西藏自治区改则县境内 859200", "image": "", "rank": 48, "time": 2, "location": {"lat": 32.30835664324378, "lng": 84.06911336253982}, "feature": {"sight_features": "", "sight_content": ""}}, {"title": "羌塘湖泊湿地", "address": "西藏自治区日土县羌塘地区 859700", "image": "", "rank": 49, "time": 2, "location": {"lat": 33.3871860438718, "lng": 79.73910913826312}, "feature": {"sight_features": "", "sight_content": ""}}, {"title": "那玉河谷", "address": "西藏自治区加查县崔久乡 856400", "image": "", "rank": 50, "time": 2, "location": {"lat": 29.455504118313087, "lng": 92.71450153805085}, "feature": {"sight_features": "", "sight_content": ""}}, {"title": "御石宫", "address": "219国道东100米", "image": "", "rank": 51, "time": 2, "location": {"lat": 35.63178012550931, "lng": 79.52789721583396}, "feature": {"sight_features": "", "sight_content": ""}}, {"title": "札达县托林广场", "address": "托林镇札达县托林广场", "image": "", "rank": 52, "time": 2, "location": {"lat": 31.487785919074256, "lng": 79.80780875891917}, "feature": {"sight_features": "", "sight_content": ""}}, {"title": "班公湖度假村", "address": "219国道附近", "image": "", "rank": 53, "time": 2, "location": {"lat": 35.63178012550931, "lng": 79.52699891032398}, "feature": {"sight_features": "", "sight_content": ""}}, {"title": "热拉札塘", "address": "阿里地区噶尔县", "image": "", "rank": 54, "time": 2, "location": {"lat": 32.49715682360169, "lng": 80.10287714605373}, "feature": {"sight_features": "", "sight_content": ""}}, {"title": "玉察藏布", "address": "阿里地区措勤县", "image": "", "rank": 55, "time": 2, "location": {"lat": 31.02266637927343, "lng": 85.16595220548083}, "feature": {"sight_features": "", "sight_content": ""}}, {"title": "基乌寺", "address": "阿里普兰县境内，玛旁雍错旁边", "image": "", "rank": 56, "time": 2, "location": {"lat": 30.69773491939785, "lng": 81.46642535590499}, "feature": {"sight_features": "", "sight_content": ""}}, {"title": "盐湖", "address": "西藏自治区阿里地区革吉县", "image": "", "rank": 57, "time": 2.5, "location": {"lat": 32.39335602004398, "lng": 81.15166436963831}, "feature": {"sight_features": "", "sight_content": ""}}, {"title": "改则", "address": "阿里地区的东部", "image": "", "rank": 58, "time": 2, "location": {"lat": 32.50686601763335, "lng": 80.11277692192645}, "feature": {"sight_features": "", "sight_content": ""}}, {"title": "科伽寺", "address": "阿里地区的普兰县", "image": "", "rank": 59, "time": 2, "location": {"lat": 30.30016259107777, "lng": 81.18309473197418}, "feature": {"sight_features": "", "sight_content": ""}}]}