{"cityName": "安多", "days": 2, "cityImage": "", "spots": [{"title": "错那湖", "address": "那曲地区安多县境内", "image": "", "rank": 1, "time": 1.0, "location": {"lat": 33.32168189507654, "lng": 90.56931425424872}, "feature": {"sight_features": "", "sight_content": ""}}, {"title": "格拉丹东雪山", "address": "那曲地区安多县玛飞吉日乡", "image": "", "rank": 2, "time": 1.0, "location": {"lat": 32.1630530869136, "lng": 91.4066350756759}, "feature": {"sight_features": "", "sight_content": ""}}, {"title": "安多县", "address": "西藏那曲地区(唐古拉山脉南北两侧)", "image": "", "rank": 3, "time": 2, "location": {"lat": 31.480679830119627, "lng": 92.06701836885875}, "feature": {"sight_features": "", "sight_content": ""}}, {"title": "日隆错查", "address": "那曲地区安多县", "image": "", "rank": 4, "time": 2, "location": {"lat": 33.32168189507654, "lng": 90.56931425424872}, "feature": {"sight_features": "", "sight_content": ""}}, {"title": "青藏铁路", "address": "西藏自治区拉萨市", "image": "", "rank": 5, "time": 2, "location": {"lat": 29.65004027476773, "lng": 91.12082391546393}, "feature": {"sight_features": "", "sight_content": ""}}, {"title": "四季生态园", "address": "帕那镇安狮西路", "image": "", "rank": 6, "time": 2, "location": {"lat": 33.42904465014651, "lng": 109.15957460913961}, "feature": {"sight_features": "", "sight_content": ""}}, {"title": "甭波诺", "address": "那曲市-安多县", "image": "", "rank": 7, "time": 2, "location": {"lat": 32.271268023108426, "lng": 91.6888906779995}, "feature": {"sight_features": "", "sight_content": ""}}, {"title": "扎卡夏达卡", "address": "那曲市-安多县", "image": "", "rank": 8, "time": 2, "location": {"lat": 32.271268023108426, "lng": 91.6888906779995}, "feature": {"sight_features": "", "sight_content": ""}}, {"title": "所达提不", "address": "那曲市-安多县", "image": "", "rank": 9, "time": 2, "location": {"lat": 32.271268023108426, "lng": 91.6888906779995}, "feature": {"sight_features": "", "sight_content": ""}}]}