{"cityName": "昂仁", "days": 2, "cityImage": "", "spots": [{"title": "搭各加地热喷泉", "address": "日喀则市昂仁县", "image": "", "rank": 1, "time": 1.0, "location": {"lat": 29.30106048401354, "lng": 87.24242733675504}, "feature": {"sight_features": "", "sight_content": ""}}, {"title": "唐东杰布文化广场", "address": "西藏自治区日喀则市昂仁县金塔路", "image": "", "rank": 2, "time": 2, "location": {"lat": 29.30175218925242, "lng": 87.23816398419592}, "feature": {"sight_features": "", "sight_content": ""}}, {"title": "淄博人民公园", "address": "金塔路18号", "image": "", "rank": 3, "time": 2.5, "location": {"lat": 28.901693201586077, "lng": 120.05333826424166}, "feature": {"sight_features": "", "sight_content": ""}}, {"title": "康巴拉山", "address": "西藏自治区日喀则市境内", "image": "", "rank": 4, "time": 2, "location": {"lat": 29.275657822511512, "lng": 88.89370303482552}, "feature": {"sight_features": "", "sight_content": ""}}, {"title": "鲁嘎夏尔玛", "address": "日喀则市-昂仁县", "image": "", "rank": 5, "time": 2, "location": {"lat": 29.30106048401354, "lng": 87.24242733675504}, "feature": {"sight_features": "", "sight_content": ""}}, {"title": "霞木尼日", "address": "日喀则市-昂仁县", "image": "", "rank": 6, "time": 2, "location": {"lat": 29.30106048401354, "lng": 87.24242733675504}, "feature": {"sight_features": "", "sight_content": ""}}, {"title": "爹绒木日", "address": "日喀则市-昂仁县", "image": "", "rank": 7, "time": 2, "location": {"lat": 29.30106048401354, "lng": 87.24242733675504}, "feature": {"sight_features": "", "sight_content": ""}}, {"title": "昂仁容咔", "address": "日喀则市-昂仁县", "image": "", "rank": 8, "time": 2, "location": {"lat": 29.30106048401354, "lng": 87.24242733675504}, "feature": {"sight_features": "", "sight_content": ""}}, {"title": "阿娃并那", "address": "日喀则市-昂仁县", "image": "", "rank": 9, "time": 2, "location": {"lat": 29.30106048401354, "lng": 87.24242733675504}, "feature": {"sight_features": "", "sight_content": ""}}, {"title": "康巴拉山", "address": "西藏自治区日喀则市境内", "image": "", "rank": 10, "time": 2, "location": {"lat": 29.275657822511512, "lng": 88.89370303482552}, "feature": {"sight_features": "", "sight_content": ""}}, {"title": "达格架喷泉", "address": "日喀则市昂仁县206省道(从22道班出发延206往措勤方向约20公里)", "image": "", "rank": 11, "time": 2, "location": {"lat": 31.528980003084104, "lng": 85.20651599925884}, "feature": {"sight_features": "", "sight_content": ""}}]}