{"cityName": "安国", "days": 2, "cityImage": "", "spots": [{"title": "安国药王庙", "address": "保定市安国市药王庙大街121号", "image": "", "rank": 1, "time": 0.75, "location": {"lat": 38.413219583756955, "lng": 115.32524287694355}, "feature": {"sight_features": "", "sight_content": ""}}, {"title": "安国毛主席视察纪念馆", "address": "保定市安国市纪念馆路1号", "image": "", "rank": 2, "time": 0.75, "location": {"lat": 38.43560253280828, "lng": 115.34494361508287}, "feature": {"sight_features": "", "sight_content": ""}}, {"title": "豐盈水上乐园", "address": "保定市安国市S233省道旁伍仁桥镇流托村光明东路54号", "image": "", "rank": 3, "time": null, "location": {"lat": 38.301560271702066, "lng": 115.34538210674806}, "feature": {"sight_features": "", "sight_content": ""}}, {"title": "关汉卿墓", "address": "保定市安国市伍仁村", "image": "", "rank": 4, "time": 0.4, "location": {"lat": 38.303848704586045, "lng": 115.3430208801727}, "feature": {"sight_features": "", "sight_content": ""}}, {"title": "豊盈水上乐园", "address": "保定安国市伍仁桥镇流托村光明东路54号", "image": "", "rank": 5, "time": 2, "location": {"lat": 38.301560271702066, "lng": 115.34538210674806}, "feature": {"sight_features": "", "sight_content": ""}}, {"title": "关汉卿纪念馆", "address": "保定市安国市药王庙大街药王庙北侧", "image": "", "rank": 6, "time": 0.4, "location": {"lat": 38.4126624242523, "lng": 115.3261311034657}, "feature": {"sight_features": "", "sight_content": ""}}, {"title": "国家档案馆", "address": "药华大路219号", "image": "", "rank": 7, "time": 1.0, "location": {"lat": 38.42836143797508, "lng": 115.32698199641085}, "feature": {"sight_features": "", "sight_content": ""}}, {"title": "钓鱼人垂钓俱乐部", "address": "药都公园对面路西28号", "image": "", "rank": 8, "time": 2, "location": {"lat": 38.41846488088205, "lng": 115.33669630812798}, "feature": {"sight_features": "", "sight_content": ""}}, {"title": "众诚农家乐", "address": "231省道附近", "image": "", "rank": 9, "time": 2, "location": {"lat": 38.570258381735, "lng": 115.41346932379217}, "feature": {"sight_features": "", "sight_content": ""}}, {"title": "阁汗卿剧院", "address": "国泰路25", "image": "", "rank": 10, "time": 2, "location": {"lat": 38.431978181811665, "lng": 115.34522456911417}, "feature": {"sight_features": "", "sight_content": ""}}, {"title": "馨香花卉基地", "address": "233省道附近", "image": "", "rank": 11, "time": 2, "location": {"lat": 38.114297221258184, "lng": 115.22578967732287}, "feature": {"sight_features": "", "sight_content": ""}}, {"title": "纪念馆西街", "address": "河北省保定市安国市", "image": "", "rank": 12, "time": 2, "location": {"lat": 38.424828318687446, "lng": 115.33340802487648}, "feature": {"sight_features": "", "sight_content": ""}}, {"title": "伍仁桥", "address": "河北省安国市伍仁桥村南 071200", "image": "", "rank": 13, "time": 2.5, "location": {"lat": 38.300544807687835, "lng": 115.33513978093353}, "feature": {"sight_features": "", "sight_content": ""}}, {"title": "儿童乐园", "address": "安国市其他工农路百合超市旁", "image": "", "rank": 14, "time": 2, "location": {"lat": 38.441689156815826, "lng": 115.33341058325058}, "feature": {"sight_features": "", "sight_content": ""}}, {"title": "中药都药博园", "address": "河北省保定市安国市瓦子里村附近", "image": "", "rank": 15, "time": 2, "location": {"lat": 38.454279591060754, "lng": 115.2858521758395}, "feature": {"sight_features": "", "sight_content": ""}}, {"title": "安国市广慧寺", "address": "河北省保定市安国市祁州镇祁州大路升级工程篮球训练中心", "image": "", "rank": 16, "time": 0.75, "location": {"lat": 38.43057806405057, "lng": 115.35334223261785}, "feature": {"sight_features": "", "sight_content": ""}}, {"title": "安国市中药材国贸中心广场", "address": "中心南街6号附近", "image": "", "rank": 17, "time": 0.75, "location": {"lat": 38.432556776203214, "lng": 115.3448518334123}, "feature": {"sight_features": "", "sight_content": ""}}, {"title": "祁州生态园", "address": "祁州镇工业城工业街", "image": "", "rank": 18, "time": 2, "location": {"lat": 38.41125947854116, "lng": 115.33861239557737}, "feature": {"sight_features": "", "sight_content": ""}}, {"title": "安国市老锄头山药农民专业合作社", "address": "前李村", "image": "", "rank": 19, "time": 0.75, "location": {"lat": 38.34535430083349, "lng": 115.36610562320205}, "feature": {"sight_features": "", "sight_content": ""}}, {"title": "关汉卿墓故居遗址", "address": "河北省安国市伍仁村", "image": "", "rank": 20, "time": 2, "location": {"lat": 38.303848704586045, "lng": 115.3430208801727}, "feature": {"sight_features": "", "sight_content": ""}}, {"title": "盘古国际健身会所", "address": "保定市-安国市-安兴北大街", "image": "", "rank": 21, "time": 2, "location": {"lat": 38.42764702988657, "lng": 115.32237403319569}, "feature": {"sight_features": "", "sight_content": ""}}, {"title": "豐盈滑雪场", "address": "保定市安国市伍仁桥镇流托村S233省道旁", "image": "", "rank": 22, "time": 2, "location": {"lat": 38.301560271702066, "lng": 115.34538210674806}, "feature": {"sight_features": "", "sight_content": ""}}]}