{"cityName": "安化", "days": 2, "cityImage": "", "spots": [{"title": "茶马古道风景区", "address": "益阳市安化县江南镇高城村", "image": "", "rank": 1, "time": 7.5, "location": {"lat": 28.236212453234362, "lng": 111.37022635843363}, "feature": {"sight_features": "", "sight_content": ""}}, {"title": "响水洞漂流", "address": "益阳市安化县大福镇新桥黄皮村（宁乡沩山密印寺往安化方向1公里处）", "image": "", "rank": 2, "time": 2, "location": {"lat": 28.208937421248503, "lng": 111.95220056271442}, "feature": {"sight_features": "特色1 松林成荫，瀑布清泉！ 特色2 山泉漂流，自然、野性，刺激！ 特色3 漂流河道两岸峡谷幽深、杜鹃遍野！", "sight_content": "响水洞漂流坐落在宁乡沩山密印寺旁1公里处，位于世界黑茶文化中心的益阳安化新桥黄皮村境内的高落差原始次森林大峡谷内。\n响水洞漂流按AAAA级景区标准建造，以漂流为核心，以休闲洗浴、棋牌茶艺、垂钓野餐、写生创意、彩弾野战、拓展训练等为补充的户外活动基地。将逐步形成春季花香浴（赏花）、夏季漂流浴（漂流）、秋季森林浴（野战）、冬季温泉浴（泡澡）的“四季浴歌”新品牌。\n漂流河道两岸峡谷幽深、杜鹃遍野，松林成荫，瀑布清泉,河道蜿蜓曲折，水流湍急、水潭重叠、刺激无比，有一种原始、野性水世界的别样意境。\n响水洞漂流河道全长约4.8公里，漂流时长约2小时，总落差约200米，最大落差20米，属于大落差、强刺激的双人自助漂流。\n这里群山叠翠，峡谷幽深，植被茂密。途经响水洞、仙人桥、二水合金等奇异景观，给您带来有惊无险的动感世界和无与伦比的美妙意境。"}}, {"title": "龙泉洞", "address": "益阳市安化县马路镇环狮路18号", "image": "", "rank": 3, "time": 2.5, "location": {"lat": 28.37119540109665, "lng": 111.04046090132235}, "feature": {"sight_features": "", "sight_content": ""}}, {"title": "青云洞", "address": "湖南省益阳市安化县马路镇和奎溪镇", "image": "", "rank": 4, "time": 2.5, "location": {"lat": 28.37119540109665, "lng": 111.04046090132235}, "feature": {"sight_features": "", "sight_content": ""}}, {"title": "秦汉桃源村", "address": "湖南省益阳市安化县奎溪镇达坳村", "image": "", "rank": 5, "time": 2, "location": {"lat": 28.22080326619148, "lng": 110.82928253498562}, "feature": {"sight_features": "", "sight_content": ""}}, {"title": "天鹅岛", "address": "湖南省安化县柘溪水库马辔区域", "image": "", "rank": 6, "time": 2.0, "location": {"lat": 28.380053748765423, "lng": 111.21949270431685}, "feature": {"sight_features": "", "sight_content": ""}}, {"title": "太阳山农家乐", "address": "羊角塘镇", "image": "", "rank": 7, "time": 2, "location": {"lat": 26.60646287745331, "lng": 112.08209504893951}, "feature": {"sight_features": "", "sight_content": ""}}, {"title": "黑茶博物馆", "address": "黄沙坪黑茶博物馆", "image": "", "rank": 8, "time": 2, "location": {"lat": 34.739168648536314, "lng": 112.14277640603102}, "feature": {"sight_features": "", "sight_content": ""}}, {"title": "断层崖", "address": "湖南省安化县境内 413517", "image": "", "rank": 9, "time": 2, "location": {"lat": 28.380053748765423, "lng": 111.21949270431685}, "feature": {"sight_features": "", "sight_content": ""}}, {"title": "乐安桥", "address": "湖南省安化县东坪镇 413523", "image": "", "rank": 10, "time": 2, "location": {"lat": 28.385441586943635, "lng": 111.2286319747418}, "feature": {"sight_features": "", "sight_content": ""}}, {"title": "株溪墓", "address": "湖南省安化县杨林乡 413500", "image": "", "rank": 11, "time": 2, "location": {"lat": 28.420678975628487, "lng": 111.33783512990784}, "feature": {"sight_features": "", "sight_content": ""}}, {"title": "云天桥", "address": "益阳市安化县建设路1号", "image": "", "rank": 12, "time": 2, "location": {"lat": 28.383038640841157, "lng": 111.22857272161207}, "feature": {"sight_features": "", "sight_content": ""}}, {"title": "竹塘广场", "address": "资江路110号附近", "image": "", "rank": 13, "time": 2, "location": {"lat": 28.591230280265183, "lng": 112.3504119113729}, "feature": {"sight_features": "", "sight_content": ""}}, {"title": "清塘铺镇基督耶稣教会", "address": "207国道附近", "image": "", "rank": 14, "time": 2, "location": {"lat": 38.67484937592033, "lng": 114.04837902844483}, "feature": {"sight_features": "", "sight_content": ""}}, {"title": "安化县图书馆", "address": "东坪镇辰州路24号", "image": "", "rank": 15, "time": 2, "location": {"lat": 28.383070860996426, "lng": 111.2282439067616}, "feature": {"sight_features": "", "sight_content": ""}}, {"title": "安化大剧院", "address": "莲花路", "image": "", "rank": 16, "time": 2.0, "location": {"lat": 39.03798524732176, "lng": 111.1085791182851}, "feature": {"sight_features": "", "sight_content": ""}}, {"title": "兴安绿色葡萄园", "address": "仙溪镇山口中学东南侧", "image": "", "rank": 17, "time": 4.5, "location": {"lat": 28.30037421502872, "lng": 111.68424209723022}, "feature": {"sight_features": "", "sight_content": ""}}, {"title": "安化马路大剧院", "address": "X049安化马路大剧院(安化县马路派出所正对面)", "image": "", "rank": 18, "time": 1.0, "location": {"lat": 28.37348442310637, "lng": 111.03643145583999}, "feature": {"sight_features": "", "sight_content": ""}}, {"title": "天鹅湖水上乐园", "address": "东坪镇金开区金竹村", "image": "", "rank": 19, "time": 2, "location": {"lat": 28.386106953651808, "lng": 111.29397489717711}, "feature": {"sight_features": "", "sight_content": ""}}, {"title": "罗马密室逃脱", "address": "希腊神话KTV(罗马商业广场东北)", "image": "", "rank": 20, "time": 2.0, "location": {"lat": 28.377305229898536, "lng": 111.22823946643749}, "feature": {"sight_features": "", "sight_content": ""}}, {"title": "武冈文庙大成殿", "address": "湖南省武冈市南门街", "image": "", "rank": 21, "time": 2, "location": {"lat": 26.732898572991598, "lng": 110.6384076158804}, "feature": {"sight_features": "", "sight_content": ""}}, {"title": "六步溪", "address": "湖南省安化县苍场乡", "image": "", "rank": 22, "time": 2, "location": {"lat": 28.38616130959559, "lng": 110.92949299713507}, "feature": {"sight_features": "", "sight_content": ""}}, {"title": "陶澍故里", "address": "湖南省安化县小淹镇", "image": "", "rank": 23, "time": 2, "location": {"lat": 28.401919605549104, "lng": 111.50323149518103}, "feature": {"sight_features": "", "sight_content": ""}}, {"title": "无门坳", "address": "益阳市-安化县-零三六县道", "image": "", "rank": 24, "time": 2, "location": {"lat": 28.380053748765423, "lng": 111.21949270431685}, "feature": {"sight_features": "", "sight_content": ""}}, {"title": "鸭溪冲", "address": "益阳市-安化县", "image": "", "rank": 25, "time": 2, "location": {"lat": 28.380053748765423, "lng": 111.21949270431685}, "feature": {"sight_features": "", "sight_content": ""}}, {"title": "云台山风景区", "address": "益阳市安化县马路镇云台山", "image": "", "rank": 26, "time": 3.0, "location": {"lat": 28.376654310065277, "lng": 110.9937323943704}, "feature": {"sight_features": "", "sight_content": ""}}]}