{"cityName": "广灵", "days": 2, "cityImage": "", "spots": [{"title": "水神堂", "address": "大同市广灵县城南一里", "image": "", "rank": 1, "time": 1.0, "location": {"lat": 39.76600421713898, "lng": 114.2885863709657}, "feature": {"sight_features": "", "sight_content": ""}}, {"title": "广灵剪纸艺术博物馆", "address": "山西省大同市广灵县", "image": "", "rank": 2, "time": 1.0, "location": {"lat": 39.76600421713898, "lng": 114.2885863709657}, "feature": {"sight_features": "", "sight_content": ""}}, {"title": "萌萌采摘园", "address": "南村镇莎泉东堡(南村镇)", "image": "", "rank": 3, "time": 2, "location": {"lat": 39.7786071335801, "lng": 114.10447757872912}, "feature": {"sight_features": "", "sight_content": ""}}, {"title": "智慧寺", "address": "大同市广灵县", "image": "", "rank": 4, "time": 2, "location": {"lat": 39.76600421713898, "lng": 114.2885863709657}, "feature": {"sight_features": "", "sight_content": ""}}, {"title": "朝阳古寺", "address": "山西省大同市广灵县板城线", "image": "", "rank": 5, "time": 2, "location": {"lat": 39.82875028498412, "lng": 114.24242803467499}, "feature": {"sight_features": "", "sight_content": ""}}, {"title": "街心广场", "address": "新建西街附近", "image": "", "rank": 6, "time": 2, "location": {"lat": 38.509626883172814, "lng": 115.07789117865092}, "feature": {"sight_features": "", "sight_content": ""}}, {"title": "圣泉寺", "address": "大同市广灵县北圣线", "image": "", "rank": 7, "time": 2.0, "location": {"lat": 39.68513884917873, "lng": 114.30267042695473}, "feature": {"sight_features": "", "sight_content": ""}}, {"title": "秧歌文化广场", "address": "山西省大同市广灵县壶泉南路", "image": "", "rank": 8, "time": 2, "location": {"lat": 39.769219002977906, "lng": 114.29523339875628}, "feature": {"sight_features": "", "sight_content": ""}}, {"title": "古钱币", "address": "山西省大同市广灵县新建西街", "image": "", "rank": 9, "time": 1.0, "location": {"lat": 39.76832108889587, "lng": 114.28017735284952}, "feature": {"sight_features": "", "sight_content": ""}}, {"title": "天鼎公园", "address": "303省道附近", "image": "", "rank": 10, "time": 2, "location": {"lat": 38.25466494631471, "lng": 114.66726867564682}, "feature": {"sight_features": "", "sight_content": ""}}, {"title": "山西省广灵县图书馆", "address": "延陵路", "image": "", "rank": 11, "time": 2, "location": {"lat": 31.947930267726544, "lng": 118.53950259687218}, "feature": {"sight_features": "", "sight_content": ""}}, {"title": "广灵县润泽食用菌种植专业合作社", "address": "303省道附近", "image": "", "rank": 12, "time": 2, "location": {"lat": 38.25466494631471, "lng": 114.66726867564682}, "feature": {"sight_features": "", "sight_content": ""}}, {"title": "鱼乐人钓具", "address": "壶泉南路电业局家属小区南侧", "image": "", "rank": 13, "time": 2, "location": {"lat": 39.766151205414225, "lng": 114.29533245670147}, "feature": {"sight_features": "", "sight_content": ""}}, {"title": "极乐寺", "address": "山西省大同市广灵县南村镇", "image": "", "rank": 14, "time": 1.5, "location": {"lat": 39.760625392576856, "lng": 114.1056830086048}, "feature": {"sight_features": "", "sight_content": ""}}]}