{"cityName": "安龙", "days": 2, "cityImage": "", "spots": [{"title": "安龙招堤", "address": "黔西南布依族苗族自治州安龙县顺城街", "image": "", "rank": 1, "time": 1.5, "location": {"lat": 25.115099835725104, "lng": 105.4743386594871}, "feature": {"sight_features": "", "sight_content": ""}}, {"title": "十八先生墓", "address": "贵州省黔西南布依族苗族自治州安龙县", "image": "", "rank": 2, "time": null, "location": {"lat": 25.10399043123158, "lng": 105.44954274777457}, "feature": {"sight_features": "", "sight_content": ""}}, {"title": "大佛寺", "address": "贵州省黔西南布依族苗族自治州安龙县", "image": "", "rank": 3, "time": 1.5, "location": {"lat": 25.10399043123158, "lng": 105.44954274777457}, "feature": {"sight_features": "", "sight_content": ""}}, {"title": "卧龙洞奇观", "address": "贵州省黔西南布依族苗族自治州安龙县", "image": "", "rank": 4, "time": 2, "location": {"lat": 25.10399043123158, "lng": 105.44954274777457}, "feature": {"sight_features": "", "sight_content": ""}}, {"title": "将军园", "address": "贵州省黔西南布依族苗族自治州安龙县", "image": "", "rank": 5, "time": 2, "location": {"lat": 25.10399043123158, "lng": 105.44954274777457}, "feature": {"sight_features": "", "sight_content": ""}}, {"title": "安龙烈士陵园", "address": "贵州省黔西南布依族苗族自治州安龙县", "image": "", "rank": 6, "time": 3.0, "location": {"lat": 25.10399043123158, "lng": 105.44954274777457}, "feature": {"sight_features": "", "sight_content": ""}}, {"title": "笔山书院", "address": "贵州省黔西南布依族苗族自治州安龙县", "image": "", "rank": 7, "time": 2, "location": {"lat": 25.10399043123158, "lng": 105.44954274777457}, "feature": {"sight_features": "", "sight_content": ""}}, {"title": "田园休闲山庄", "address": "贵州省黔西南布依族苗族自治州安龙县", "image": "", "rank": 8, "time": 2, "location": {"lat": 25.10399043123158, "lng": 105.44954274777457}, "feature": {"sight_features": "", "sight_content": ""}}, {"title": "安龙县万峰湖镇彩金水上娱乐垂钓...", "address": "万峰湖镇马安营村", "image": "", "rank": 9, "time": 2, "location": {"lat": 24.935805380097, "lng": 105.05129275580967}, "feature": {"sight_features": "", "sight_content": ""}}, {"title": "龙头大山", "address": "贵州省安龙县县北部 552400", "image": "", "rank": 10, "time": 2, "location": {"lat": 25.10399043123158, "lng": 105.44954274777457}, "feature": {"sight_features": "", "sight_content": ""}}, {"title": "仙鹤坪森林公园", "address": "贵州省安龙县县境东部 552400", "image": "", "rank": 11, "time": 2, "location": {"lat": 25.10399043123158, "lng": 105.44954274777457}, "feature": {"sight_features": "", "sight_content": ""}}, {"title": "二楼儿童乐园", "address": "贵州省黔西南布依族苗族自治州安龙县南明大道4号", "image": "", "rank": 12, "time": 2.0, "location": {"lat": 25.114839862639656, "lng": 105.47790149724027}, "feature": {"sight_features": "", "sight_content": ""}}, {"title": "安龙博物馆", "address": "贵州省黔西南布依族苗族自治州安龙县顺城街", "image": "", "rank": 13, "time": 2.5, "location": {"lat": 25.115099835725104, "lng": 105.4743386594871}, "feature": {"sight_features": "", "sight_content": ""}}, {"title": "南明历史博物馆", "address": "广东街与新西街交叉口西北150米", "image": "", "rank": 14, "time": 2, "location": {"lat": 25.11324795330598, "lng": 105.47322128151785}, "feature": {"sight_features": "", "sight_content": ""}}, {"title": "淘气宝儿童乐园(安龙店)", "address": "法院附近", "image": "", "rank": 15, "time": 2, "location": {"lat": 39.952089291443336, "lng": 116.37395339871216}, "feature": {"sight_features": "", "sight_content": ""}}, {"title": "万峰湖小罗钓鱼棚", "address": "万峰湖秧木码头", "image": "", "rank": 16, "time": 2, "location": {"lat": 24.871809972052553, "lng": 105.04236139729663}, "feature": {"sight_features": "", "sight_content": ""}}, {"title": "龙广商业中心儿童乐园", "address": "龙广镇龙广商业中心儿童乐园", "image": "", "rank": 17, "time": 2, "location": {"lat": 23.087316149675193, "lng": 113.28227964111687}, "feature": {"sight_features": "", "sight_content": ""}}, {"title": "来客喜农家乐", "address": "313省道附近", "image": "", "rank": 18, "time": 2, "location": {"lat": 40.47363217982258, "lng": 116.99325005466613}, "feature": {"sight_features": "", "sight_content": ""}}, {"title": "龙城休闲山庄", "address": "卷洞街附近", "image": "", "rank": 19, "time": 2, "location": {"lat": 25.12342127816868, "lng": 105.46986125060639}, "feature": {"sight_features": "", "sight_content": ""}}, {"title": "高坝钓鱼", "address": "港湾村附近", "image": "", "rank": 20, "time": 2, "location": {"lat": 32.14822045486701, "lng": 120.22794968072807}, "feature": {"sight_features": "", "sight_content": ""}}, {"title": "草莓", "address": "环东路20号", "image": "", "rank": 21, "time": 2, "location": {"lat": 32.29425013220845, "lng": 119.16415056654576}, "feature": {"sight_features": "", "sight_content": ""}}, {"title": "仙鹤坪保护区", "address": "贵州省安龙县县境东南部", "image": "", "rank": 22, "time": 2, "location": {"lat": 25.10399043123158, "lng": 105.44954274777457}, "feature": {"sight_features": "", "sight_content": ""}}, {"title": "下小鸭溪", "address": "黔西南布依族苗族自治州-安龙县", "image": "", "rank": 23, "time": 2, "location": {"lat": 25.10399043123158, "lng": 105.44954274777457}, "feature": {"sight_features": "", "sight_content": ""}}, {"title": "上小鸭溪", "address": "黔西南布依族苗族自治州-安龙县", "image": "", "rank": 24, "time": 2, "location": {"lat": 25.10399043123158, "lng": 105.44954274777457}, "feature": {"sight_features": "", "sight_content": ""}}]}