{"cityName": "安陆", "days": 2, "cityImage": "", "spots": [{"title": "白兆山李白文化旅游区", "address": "孝感市安陆市烟店镇", "image": "", "rank": 1, "time": 5.0, "location": {"lat": 31.320386422612778, "lng": 113.62285527823438}, "feature": {"sight_features": "", "sight_content": "白兆山李白文化旅游区位于孝感安陆市西北部，距孝感市67公里，距安陆市15公里，曾是唐代著名大诗人李白“酒隐安陆、蹉跎十年”之地。白兆山又名碧山，总面积8平方公里，境内主峰海拔379米。\n\n白兆山，上有千年银杏，下有绀珠美泉，左为读书台，右为笔架山，桃花岩位居其中，众星拱月，相映成趣。李白的著名诗《山中问答》：“问余何意栖碧山，笑而不答心自闲，桃花流水杳然去，别有天地非人间。”就是在白兆山写成的。1992年，白兆山被原国家林业部批准为国家森林公园。\n白兆山现有摩崖石刻景区、白兆寺遗址遗迹景区、滴水岩野营攀岩景区、碧山湖休闲度假景区和祖师顶宗教文化景区。白云泉摩崖石刻景区以摩崖石刻群为主景，主要有李白广场、李白雕像、李白诗碑林等景点；白兆寺遗址遗迹景区有李白故居、读书台、白兆寺、笔架山、晒经坡及桃花岩等景点；滴水岩野营攀岩景区主要是一些参与性的生态旅游和野营攀岩活动；碧山湖休闲度假景区是白兆山的接待区；祖师顶宗教文化景区处于山峰之顶，主要是道教文化区，传说道观建筑前古银杏树为李白亲手所植。\n同时白兆山曾经还是道教圣地之一，传真武神（道教祖师爷）到处寻找修炼之所，当他不远千里来到白兆山时，被这里秀丽山水所吸引，于是就在白兆山上建了修炼的道场。只是后来把道场从这里迁移到了武当山。先前白兆山上还有祖师殿100余间，今余少量。"}}, {"title": "钱冲银杏谷", "address": "安陆市王义贞镇距安陆市区约50公里处古银杏国家森林公园景区", "image": "", "rank": 2, "time": 4.5, "location": {"lat": 31.3589687652458, "lng": 113.3923270563123}, "feature": {"sight_features": "", "sight_content": ""}}, {"title": "安陆德安植物公园", "address": "安陆市经济开发区金秋大道毛河水以南", "image": "", "rank": 3, "time": 2, "location": {"lat": 31.266024441458022, "lng": 113.71669052280585}, "feature": {"sight_features": "", "sight_content": ""}}, {"title": "德慧寺", "address": "民福街与解放大道交叉口东北200米", "image": "", "rank": 4, "time": 2, "location": {"lat": 31.273268760773206, "lng": 113.68453935563726}, "feature": {"sight_features": "", "sight_content": ""}}, {"title": "小木马儿童创意美术馆", "address": "太白广场(薇薇新娘西侧)", "image": "", "rank": 5, "time": 2, "location": {"lat": 38.05134213575348, "lng": 114.51872845356941}, "feature": {"sight_features": "", "sight_content": ""}}, {"title": "魏桥农庄", "address": "243省道魏桥村内", "image": "", "rank": 6, "time": 2, "location": {"lat": 31.301739108683115, "lng": 113.50181950361747}, "feature": {"sight_features": "", "sight_content": ""}}, {"title": "白兆山李白文化游览区", "address": "湖北省安陆市烟店镇白兆山林场", "image": "", "rank": 7, "time": 2, "location": {"lat": 31.317783864710606, "lng": 113.56810558846998}, "feature": {"sight_features": "", "sight_content": ""}}, {"title": "星星儿童乐园", "address": "府河西路与中兴街交叉口西北", "image": "", "rank": 8, "time": 2.5, "location": {"lat": 31.121336191310224, "lng": 113.64186793501409}, "feature": {"sight_features": "", "sight_content": ""}}, {"title": "南天门", "address": "孝感市安陆市城西15公里处白兆山风景区祖师顶道教区内", "image": "", "rank": 9, "time": 1.5, "location": {"lat": 31.331364673424233, "lng": 113.57225760863882}, "feature": {"sight_features": "", "sight_content": ""}}, {"title": "甘家祠堂", "address": "孝感市安陆市", "image": "", "rank": 10, "time": 2, "location": {"lat": 31.261414994285975, "lng": 113.69558292415309}, "feature": {"sight_features": "", "sight_content": ""}}, {"title": "古天符庵", "address": "涢水路84", "image": "", "rank": 11, "time": 2, "location": {"lat": 31.257953089601656, "lng": 113.68517868955007}, "feature": {"sight_features": "", "sight_content": ""}}, {"title": "武圣殿", "address": "孝感市安陆市王义贞镇钱冲村古银杏国家森林公园关帝庙内", "image": "", "rank": 12, "time": 2, "location": {"lat": 31.397981086384153, "lng": 113.35278275574568}, "feature": {"sight_features": "", "sight_content": ""}}, {"title": "安陆市绿之梦农业生态园有限公司", "address": "李店镇王店村", "image": "", "rank": 13, "time": 2, "location": {"lat": 31.209230626519922, "lng": 113.76808966057742}, "feature": {"sight_features": "", "sight_content": ""}}, {"title": "刘家祠堂", "address": "孝感市安陆市云安线", "image": "", "rank": 14, "time": 2, "location": {"lat": 31.156006544734826, "lng": 113.78711703160138}, "feature": {"sight_features": "", "sight_content": ""}}, {"title": "白云亭", "address": "孝感市安陆市城西15公里处白兆山风景区内", "image": "", "rank": 15, "time": 2, "location": {"lat": 31.331364673424233, "lng": 113.57225760863882}, "feature": {"sight_features": "", "sight_content": ""}}, {"title": "公民花园", "address": "孝感市安陆市解放大道138号", "image": "", "rank": 16, "time": 2, "location": {"lat": 31.27561096998489, "lng": 113.69196822273014}, "feature": {"sight_features": "", "sight_content": ""}}, {"title": "优贝儿童乐园", "address": "紫金路1号新中百1楼", "image": "", "rank": 17, "time": 2, "location": {"lat": 41.302722292783685, "lng": 123.78310860099478}, "feature": {"sight_features": "", "sight_content": ""}}, {"title": "安陆站广场", "address": "文昌路33号", "image": "", "rank": 18, "time": 2, "location": {"lat": 31.179079052045864, "lng": 120.90933360503848}, "feature": {"sight_features": "", "sight_content": ""}}, {"title": "元通广场", "address": "银杏大道5号", "image": "", "rank": 19, "time": null, "location": {"lat": 31.295779824703036, "lng": 113.71412732840606}, "feature": {"sight_features": "", "sight_content": ""}}, {"title": "王义贞文体广场", "address": "孝感市安陆市王吉街66号", "image": "", "rank": 20, "time": 2, "location": {"lat": 31.261414994285975, "lng": 113.69558292415309}, "feature": {"sight_features": "", "sight_content": ""}}, {"title": "六福庄园", "address": "孝感孝感市安陆市", "image": "", "rank": 21, "time": 2, "location": {"lat": 31.261414994285975, "lng": 113.69558292415309}, "feature": {"sight_features": "", "sight_content": ""}}, {"title": "赵家棚抗日烈士纪念馆", "address": "振兴横街2号", "image": "", "rank": 22, "time": 2, "location": {"lat": 21.771995756572906, "lng": 108.3685684742887}, "feature": {"sight_features": "", "sight_content": ""}}, {"title": "安陆市科技馆", "address": "解放大道20号", "image": "", "rank": 23, "time": 2.5, "location": {"lat": 34.704577280285285, "lng": 116.60609123409111}, "feature": {"sight_features": "", "sight_content": ""}}, {"title": "泰合乐园", "address": "太白大道169号", "image": "", "rank": 24, "time": 2, "location": {"lat": 31.23669071391696, "lng": 113.70061838107911}, "feature": {"sight_features": "", "sight_content": ""}}, {"title": "李白故里", "address": "白兆山风景区", "image": "", "rank": 25, "time": 2.5, "location": {"lat": 31.331364673424233, "lng": 113.57225760863882}, "feature": {"sight_features": "", "sight_content": ""}}, {"title": "安陆市博物馆", "address": "解放大道208号", "image": "", "rank": 26, "time": 2.5, "location": {"lat": 36.11103004152789, "lng": 114.3706707104831}, "feature": {"sight_features": "", "sight_content": ""}}, {"title": "小海洋儿童水上乐园", "address": "金秋大道凯旋城向东200米(水果批发市场对面)", "image": "", "rank": 27, "time": 2, "location": {"lat": 31.262833925269796, "lng": 113.7200735880683}, "feature": {"sight_features": "", "sight_content": ""}}, {"title": "李白纪念馆", "address": "安陆城西郊大凹山", "image": "", "rank": 28, "time": 2, "location": {"lat": 31.261414994285975, "lng": 113.69558292415309}, "feature": {"sight_features": "", "sight_content": ""}}, {"title": "安陆剧院", "address": "紫金路", "image": "", "rank": 29, "time": 2.0, "location": {"lat": 37.09185352618218, "lng": 114.46050242478653}, "feature": {"sight_features": "", "sight_content": ""}}, {"title": "情怀居农家乐", "address": "王义贞镇钱冲村古银杏国家森林公园内", "image": "", "rank": 30, "time": 2, "location": {"lat": 31.397981086384153, "lng": 113.35278275574568}, "feature": {"sight_features": "", "sight_content": ""}}, {"title": "伍欣蓝莓采摘基地", "address": "赵棚镇叶塆村", "image": "", "rank": 31, "time": 2, "location": {"lat": 31.389878260128906, "lng": 113.92281645161727}, "feature": {"sight_features": "", "sight_content": ""}}, {"title": "吴家巷子", "address": "孝感市-安陆市", "image": "", "rank": 32, "time": 2, "location": {"lat": 31.261414994285975, "lng": 113.69558292415309}, "feature": {"sight_features": "", "sight_content": ""}}, {"title": "安陆市森波拉水产养殖专业合作社", "address": "孝感市-安陆市-王义贞镇唐僧村17组", "image": "", "rank": 33, "time": 2, "location": {"lat": 31.365323297903164, "lng": 113.3876949304755}, "feature": {"sight_features": "", "sight_content": ""}}, {"title": "祈雨坛", "address": "孝感市-安陆市-城西15公里处白兆山风景区瀚林湖内", "image": "", "rank": 34, "time": 2, "location": {"lat": 31.331364673424233, "lng": 113.57225760863882}, "feature": {"sight_features": "", "sight_content": ""}}, {"title": "盛世闻樱旅游景区", "address": "孝感市安陆市李店镇G316（福兰线）", "image": "", "rank": 35, "time": 2, "location": {"lat": 31.22306333823329, "lng": 113.787553357452}, "feature": {"sight_features": "特色1 一个以花卉苗木种植观赏、农家休闲体验、生态河谷观光、精品游乐设备为主题的大型体验型旅游景区", "sight_content": "安陆市盛世闻樱悠乐园位于湖北省安陆市李店镇，项目总占地面积3902亩，总投资11.5亿元。\n2018年以来，景区紧紧依托李店镇紧邻市经济开发区的地理优势，坚持高起点定位、高品质规划，积极引进成熟企业扩大投资，规划开工建设了如大型摩天轮、玻璃桥、玻璃漂流、家庭过山车、龙宫探险等一批高质量、高规格的大型游乐设备，以及海啸池、高速滑道、冲天回旋等大型水上乐园游艺项目，增加景区游乐项目品种及提升游客游玩品质。\n景区大力推动以花卉苗木种植观赏、农家休闲体验、生态河谷观光、精品游乐设备为主的体验型旅游景区建设，解决闲置荒地，使资源变资产、资产变资本、资本促发展、发展促增收的良性循环链条，并辐射带动周边乡镇农民脱贫、增收，助力农村稳定。\n盛世闻樱景区坚持打造花海景观，目前已种植郁金香、虞美人、芝樱、油菜花等十余个花卉品种500余亩，这个春天将竞相开放，为安陆的春季赏花线路贡献自己独特的魅力。景区今年还将继续扩大樱花种植面积，增加景区樱花品种，拉长樱花观赏期，着力打造浪漫樱花主题及开发樱花周边系列产品"}}, {"title": "虚怀若谷", "address": "湖北省孝感市安陆市钱冲古银杏国家森林公园", "image": "", "rank": 36, "time": 2, "location": {"lat": 31.261414994285975, "lng": 113.69558292415309}, "feature": {"sight_features": "", "sight_content": ""}}]}