{"cityName": "安宁", "days": 2, "cityImage": "", "spots": [{"title": "金方森林温泉", "address": "昆明安宁市温泉镇龙溪路", "image": "", "rank": 1, "time": 2, "location": {"lat": 24.957488034138855, "lng": 102.45423651149865}, "feature": {"sight_features": "", "sight_content": ""}}, {"title": "安宁温泉", "address": "昆明市安宁市玉清路2号", "image": "", "rank": 2, "time": 0.7, "location": {"lat": 24.965822513899976, "lng": 102.4573910289739}, "feature": {"sight_features": "", "sight_content": ""}}, {"title": "凯莱度假酒店温泉", "address": "昆明安宁市温泉镇温泉旅游度假区温泉半岛", "image": "", "rank": 3, "time": 2, "location": {"lat": 24.94961069053903, "lng": 102.45923449381203}, "feature": {"sight_features": "特色1 真温泉官方认证", "sight_content": "安宁温泉凯莱度假酒店坐落于昆明安宁市温泉镇,东临螳螂川，南接螳川路，西至龙山矿，北靠珍泉村的“温泉半岛凯莱度假酒店”。\n在螳螂川唯一的河水大转角处的黄金位置，沐浴着金色的阳光。螳川环抱中，宛如太阳下的一颗红色珍珠般柔美，独具匠心的温泉设施带给客人还原自我、远离尘嚣，全身心投入自然怀抱的感动。\n在温泉小镇，不是所有的热水都是“天下第一汤”，不是所有的酒店都能享受真温泉——温泉半岛凯莱国际酒店，首家获得安宁市温泉镇旅游度假区管理委员会颁发的“天下第一汤”真温泉官方认证！"}}, {"title": "安宁云涛露天温泉SPA", "address": "昆明市安宁市温泉镇一清路26号安宁云涛温泉花园酒店", "image": "", "rank": 4, "time": 2, "location": {"lat": 24.964341144689485, "lng": 102.45783304379317}, "feature": {"sight_features": "特色1 促进血液循环，加速人体新陈代谢 特色2 泉水来自清澈的地下天然优质偏硅酸矿泉水。 特色3 依山傍水，温泉养生，独特装修风格。", "sight_content": "云涛温泉花园酒店坐落在安宁温泉旅游小镇的核心腹地，与龙山隔川相望，酒店结合温泉区域自然地理景观特征，和酒店极具异国风情的独特装修、别具匠心的风格设计，简单中透着朴实、温馨，让您从中参透生活真谛。依山傍水，温泉养生，独特装修风格，感受现代与传统的完美结合。\n酒店温泉泉水均来自清澈的地下天然优质偏硅酸矿泉水 ，水温达42°-45°之间，可饮可浴，此矿泉水富含对人体有益的微量元素和矿物质，可提高人体免疫力，有缓解疲劳、延年益寿灯功效。\n温泉是一种自然疗法大部份的化学物质会沉淀在皮肤上，改变皮肤酸碱度，故具有吸收、沉淀及清除的作用，其化学物质可刺激自律神经，内分泌及免疫系统。\n虽然温泉对身体健康有益处，有人说可治疗皮肤病、心脏病，可消除疲劳，但仍要注意它非治百病，也要小心其危险性，提醒您酒足饭饱，不可立即入水。"}}, {"title": "连然文庙", "address": "昆明市安宁市连然街", "image": "", "rank": 5, "time": 1.0, "location": {"lat": 24.930039225534692, "lng": 102.49397260477002}, "feature": {"sight_features": "", "sight_content": ""}}, {"title": "温泉摩崖石刻群", "address": "昆明市安宁市一清路", "image": "", "rank": 6, "time": 0.3, "location": {"lat": 24.96458674429628, "lng": 102.45766321554333}, "feature": {"sight_features": "", "sight_content": ""}}, {"title": "法华寺石窟", "address": "昆明市安宁市城东五公里洛阳山麓", "image": "", "rank": 7, "time": 0.5, "location": {"lat": 24.92560172634403, "lng": 102.48440918412749}, "feature": {"sight_features": "", "sight_content": ""}}, {"title": "王仁求碑", "address": "安宁市", "image": "", "rank": 8, "time": 0.25, "location": {"lat": 24.92560172634403, "lng": 102.48440918412749}, "feature": {"sight_features": "", "sight_content": ""}}, {"title": "金色螳螂川风景区", "address": "昆明市安宁市温泉镇金色螳螂川风景区", "image": "", "rank": 9, "time": 2, "location": {"lat": 24.967781835692474, "lng": 102.4578265777901}, "feature": {"sight_features": "", "sight_content": ""}}, {"title": "玉龙湾公园", "address": "昆明市安宁太平乡妥乐村玉龙湾", "image": "", "rank": 10, "time": 2, "location": {"lat": 24.915914720053575, "lng": 102.55916914203439}, "feature": {"sight_features": "", "sight_content": ""}}, {"title": "博兰温泉", "address": "昆明市安宁市近郊升庵北路4号（近天下第一汤）", "image": "", "rank": 11, "time": 0.7, "location": {"lat": 24.96700831680569, "lng": 102.45631485897331}, "feature": {"sight_features": "特色1 博兰假日温泉距昆明37公里 ，距安宁7公里 ，交通便利。 特色2 博兰假日温泉空气清新 ，室内环境优雅舒。 特色3 温泉水温40°C——43°C，泉水对康复医疗和延缓细胞衰老具有良好的作用 。", "sight_content": "安宁，由于得天独厚的地理自然优势，被誉为“连然金方，螳川宝地”，历来是昆明的重要门户，迤西咽喉，历史上曾是南方丝绸之路的重要站口，史称“安宁雄镇，诸爨要冲”。今天，安宁以独特的旅游资源，一展古镇雄风，成为云南省的温泉休闲疗养为主的旅游度假胜地。 带上的你兄弟姐妹，带上的另一半、带上你的家人一起去感受安宁那回归大自然的清新脱俗。\n博兰假日温泉距昆明37公里 ，距安宁7公里 ，交通便利，位于安宁境内的螳螂川畔 ，龙山之麓 ，享誉海内外的“天下第一汤”与之相隔资源共享，温泉水温40°C——43°C，泉水对康复医疗和延缓细胞衰老具有良好的作用 。因而被称为“神水、圣汤”。 博兰假日温泉空气清新 ，室内环境优雅舒适，是聚餐、住宿、娱乐为一体的首选之地，有各类豪华套房 、风格独特的南亚风情泡池 ，让你感受到异国的文化 ，更有露天VIP泡池 ，让你全身心的投入到大自然的怀抱。"}}, {"title": "金谷园山庄", "address": "昆明市安宁市温泉街道办事处步行街", "image": "", "rank": 12, "time": 2, "location": {"lat": 24.964771379227116, "lng": 102.45536323633671}, "feature": {"sight_features": "特色1 毗邻“天下第一汤”。 特色2 山庄清静优雅，是您悠闲养身 、洗浴的好去处。 特色3 水温适宜，健康舒适。", "sight_content": "金谷园山庄位于安宁市温泉步行街，毗邻“天下第一汤”。山庄建设面积2000平方米，内设客房26间，其中9间客房内带有温泉泡池，另有纯温泉泡池12间（每间1-3人）。水源使用温泉”天下第一汤“地下温泉水，水温适宜，健康舒适。另设12个免费车位，免费wifi覆盖。山庄清静优雅，是您悠闲养身 、洗浴的好去处。\n安宁温泉能名冠云南，传遍天下，更是得益于两个重要人物的推介，一是我国著名地理学家、旅行家徐霞客，他评 价安宁温泉为“余所见温泉，滇南最多，此水实为第一池，此处不可不浴”；二是明朝永乐年间，一个叫李绶的贤达，在建于元代温泉边上的几间茅屋的基础上加以修建成可休闲、可浸浴的 泉池。明朝著名政治家、文学家杨一清到那里浸泡后称赞不已，写下了《温泉游记》加以介绍。明代中叶诗人、著名学者杨慎。\n杨慎在滇充军期间多次到过安宁温泉，他将陕西包括华清池在内的13处名泉和云南4处较有声誉的温泉与安宁温泉 进行比较，认为安宁温泉独具“泉水澄清，浮垢自去，苔污绝迹，温凉适宜，宜于烹饪，无色无味，茗茶可饮”等7大特点，为国内各大名泉所不及，并亲笔手书“天下第一汤”五字以匾悬于 泉区门额。此后，慕名而来的名人络绎不绝，他们一致同意安宁温泉是“天下第一泉”的说法并非溢美之词，而安宁温泉的名气也越来越大了。"}}, {"title": "安宁八街镇", "address": "昆明市安宁市青云路八街镇", "image": "", "rank": 13, "time": 2, "location": {"lat": 24.669386370066512, "lng": 102.36600320611659}, "feature": {"sight_features": "", "sight_content": ""}}, {"title": "水神峤风景区", "address": "昆明安宁市青龙街道", "image": "", "rank": 14, "time": 2, "location": {"lat": 25.042334882032666, "lng": 102.34031707903378}, "feature": {"sight_features": "特色1 感受与世隔绝的境界", "sight_content": "﻿安宁水神峤位于安宁市青龙镇牧羊村去青龙峡的中部公路边上 ，周边绿植环绕翠帐流水潺潺，落英满地飘飘。一切都是那么的安宁和谐，那么的悠然自得。陶渊明笔下的“世外桃源”大抵不过如此.\n都市中的扰攘，让我们想在大自然中重新安宁；生活中的烦恼，让我们对自由之境向往不已。此刻不妨放下纷扰，听从内心的呼唤，踏上一趟自由之旅，纵情嬉戏于水神之峤，荡漾心灵，积攒能量，找回最佳的自我。\n活动项目：探险，露营，自助烧烤，特色生态餐饮，休闲棋牌，亲子游玩，垂钓，摄影采景基地，户外拓展，（需提前致电商家预约并咨询相关信息） 真人CS（需提前致电商家预约并咨询相关信息） ，空中溜索，水上秋千，水上荡绳，水上竹排，独特木屋，激情篝火等。\n梦之所向 身临其境 安宁・水神峤"}}, {"title": "尚水铂林温泉", "address": "昆明市安宁市安宁昆畹公路35公里，近安八路与昆畹西路交叉口", "image": "", "rank": 15, "time": 2, "location": {"lat": 24.93184451827614, "lng": 102.46831749168494}, "feature": {"sight_features": "", "sight_content": ""}}, {"title": "天水云方温泉", "address": "温泉小村292号(农贸市场后侧)", "image": "", "rank": 16, "time": 2.5, "location": {"lat": 24.969879050297273, "lng": 102.45580111805232}, "feature": {"sight_features": "", "sight_content": ""}}, {"title": "盛雅温泉", "address": "安宁温泉沈家庄10号", "image": "", "rank": 17, "time": 2, "location": {"lat": 24.965833643467374, "lng": 102.4573464855969}, "feature": {"sight_features": "", "sight_content": ""}}, {"title": "温泉牧羊湖休闲园", "address": "棋台线", "image": "", "rank": 18, "time": 2, "location": {"lat": 25.017520316544562, "lng": 102.45197065352849}, "feature": {"sight_features": "", "sight_content": ""}}, {"title": "漂比靓山庄", "address": "温小公路", "image": "", "rank": 19, "time": 2, "location": {"lat": 24.963401736742227, "lng": 102.45360736616713}, "feature": {"sight_features": "", "sight_content": ""}}, {"title": "儿童欢乐城", "address": "嵩华路39号", "image": "", "rank": 20, "time": 2, "location": {"lat": 24.937529231833835, "lng": 102.49325356331124}, "feature": {"sight_features": "", "sight_content": ""}}, {"title": "景然温泉", "address": "龙溪路景然温泉酒店", "image": "", "rank": 21, "time": 2, "location": {"lat": 24.96717133120869, "lng": 102.45532583359021}, "feature": {"sight_features": "", "sight_content": ""}}, {"title": "龙源山庄", "address": "龙溪路(温泉医院西南)", "image": "", "rank": 22, "time": 2, "location": {"lat": 24.962319004826764, "lng": 102.45568245189449}, "feature": {"sight_features": "", "sight_content": ""}}, {"title": "安宁温泉旅游度假区", "address": "玉泉山青龙峡风景区", "image": "", "rank": 23, "time": 2, "location": {"lat": 25.049919693974566, "lng": 102.37500203725476}, "feature": {"sight_features": "", "sight_content": ""}}, {"title": "安宁会堂", "address": "中华路", "image": "", "rank": 24, "time": 2, "location": {"lat": 37.970712769913675, "lng": 114.74259828862775}, "feature": {"sight_features": "", "sight_content": ""}}, {"title": "温和天下温泉", "address": "升庵北路23号", "image": "", "rank": 25, "time": 2, "location": {"lat": 24.969379076911792, "lng": 102.45639385236662}, "feature": {"sight_features": "", "sight_content": ""}}, {"title": "云涛森林温泉", "address": "温泉镇一清路26号安宁云涛温泉花园酒店", "image": "", "rank": 26, "time": 2, "location": {"lat": 24.964341144689485, "lng": 102.45783304379317}, "feature": {"sight_features": "", "sight_content": ""}}, {"title": "发型设计剧场", "address": "嵩华巷3号", "image": "", "rank": 27, "time": 2, "location": {"lat": 24.93797999132523, "lng": 102.49329765843379}, "feature": {"sight_features": "", "sight_content": ""}}, {"title": "水钢温泉", "address": "升庵南路6号", "image": "", "rank": 28, "time": 2, "location": {"lat": 24.962821103397687, "lng": 102.45712243562652}, "feature": {"sight_features": "", "sight_content": ""}}, {"title": "黑竹林垂钓山庄", "address": "一法公路", "image": "", "rank": 29, "time": 2, "location": {"lat": 24.54114510677607, "lng": 102.33868530977037}, "feature": {"sight_features": "", "sight_content": ""}}, {"title": "新发村垂钓中心", "address": "小明星幼儿园旁", "image": "", "rank": 30, "time": 2, "location": {"lat": 40.46069981639277, "lng": 116.01099184379481}, "feature": {"sight_features": "", "sight_content": ""}}, {"title": "山谷温泉", "address": "安宁温泉镇旅游度假区688号", "image": "", "rank": 31, "time": 2, "location": {"lat": 24.967781835692474, "lng": 102.4578265777901}, "feature": {"sight_features": "", "sight_content": ""}}, {"title": "澳兴休闲会所", "address": "昆皖西路23", "image": "", "rank": 32, "time": 2, "location": {"lat": 24.93146896347893, "lng": 102.47608707258063}, "feature": {"sight_features": "", "sight_content": ""}}, {"title": "昆明安宁春城马术俱乐部", "address": "186乡道昆明安宁春城马术俱乐部", "image": "", "rank": 33, "time": 2.0, "location": {"lat": 24.92560172634403, "lng": 102.48440918412749}, "feature": {"sight_features": "", "sight_content": ""}}, {"title": "庙坝老酒", "address": "云南省昆明市安宁市迎鑫路晓东里附近(昆钢商场北门附近)", "image": "", "rank": 34, "time": 2, "location": {"lat": 24.90450529099258, "lng": 102.50307337202422}, "feature": {"sight_features": "", "sight_content": ""}}, {"title": "极乐山庄", "address": "Z018附近", "image": "", "rank": 35, "time": 2, "location": {"lat": 23.100931760317003, "lng": 113.27528273950196}, "feature": {"sight_features": "", "sight_content": ""}}, {"title": "安宁观音寺", "address": "云南省昆明市安宁市福兴路连然镇福兴村宏宇小区东50米", "image": "", "rank": 36, "time": null, "location": {"lat": 24.930906710163633, "lng": 102.488743444432}, "feature": {"sight_features": "", "sight_content": ""}}, {"title": "宁湖公园", "address": "云南省昆明市安宁市宁湖路", "image": "", "rank": 37, "time": 2, "location": {"lat": 24.926951652784496, "lng": 102.46807002288992}, "feature": {"sight_features": "", "sight_content": ""}}, {"title": "水井湾度假村", "address": "张小段附近", "image": "", "rank": 38, "time": 2, "location": {"lat": 24.881843570695697, "lng": 102.43841791830393}, "feature": {"sight_features": "", "sight_content": ""}}, {"title": "滇珍奇味休闲度假村", "address": "云南省昆明市安宁市大学城云南工程职业学院斜对面", "image": "", "rank": 39, "time": 2, "location": {"lat": 24.94751944541462, "lng": 102.46084827450763}, "feature": {"sight_features": "", "sight_content": ""}}, {"title": "七彩金童亲子乐园", "address": "云南省昆明市安宁市昆明工业职业技术学院南区学生公寓", "image": "", "rank": 40, "time": 2, "location": {"lat": 24.900956434821527, "lng": 102.50165303153877}, "feature": {"sight_features": "", "sight_content": ""}}, {"title": "基督教堂(交草公路)", "address": "交草公路附近", "image": "", "rank": 41, "time": 2, "location": {"lat": 24.925735911079272, "lng": 102.44762465147265}, "feature": {"sight_features": "", "sight_content": ""}}, {"title": "积佛寺", "address": "云南省昆明市安宁市汉昆公路", "image": "", "rank": 42, "time": 2, "location": {"lat": 24.89971884315443, "lng": 102.47207095795201}, "feature": {"sight_features": "", "sight_content": ""}}, {"title": "东湖公园", "address": "百花东路", "image": "", "rank": 43, "time": 2.5, "location": {"lat": 22.866584071862416, "lng": 113.1356125792119}, "feature": {"sight_features": "", "sight_content": ""}}, {"title": "观音宝殿", "address": "云南省昆明市安宁市连然街道福兴巷园林苑西200米", "image": "", "rank": 44, "time": 2, "location": {"lat": 24.932146892471742, "lng": 102.4847538235278}, "feature": {"sight_features": "", "sight_content": ""}}, {"title": "金色儿童主题游乐世界", "address": "云南省昆明市安宁市金色国际2幢1楼", "image": "", "rank": 45, "time": 2, "location": {"lat": 24.92156550664322, "lng": 102.47342349164266}, "feature": {"sight_features": "", "sight_content": ""}}, {"title": "澳兴体育休闲园", "address": "云南省昆明市安宁市昆畹西路", "image": "", "rank": 46, "time": 2, "location": {"lat": 24.931107505796437, "lng": 102.47582759793244}, "feature": {"sight_features": "", "sight_content": ""}}, {"title": "马蹄寺", "address": "昆明市安宁市大屯新村176号", "image": "", "rank": 47, "time": 1.5, "location": {"lat": 24.91089046977145, "lng": 102.47988698303914}, "feature": {"sight_features": "", "sight_content": ""}}, {"title": "基督教堂(沿川南路)", "address": "百花西路附近", "image": "", "rank": 48, "time": 2, "location": {"lat": 38.87439178578327, "lng": 115.46932680660639}, "feature": {"sight_features": "", "sight_content": ""}}, {"title": "万兴山庄", "address": "温泉街道", "image": "", "rank": 49, "time": 2, "location": {"lat": 40.62915852022804, "lng": 120.75975753430124}, "feature": {"sight_features": "", "sight_content": ""}}, {"title": "安宁市博物馆服务部", "address": "昆明市安宁市", "image": "", "rank": 50, "time": 2, "location": {"lat": 24.92560172634403, "lng": 102.48440918412749}, "feature": {"sight_features": "", "sight_content": ""}}, {"title": "安宁蜜蜂博物馆", "address": "云南省昆明市安宁市牧羊公路", "image": "", "rank": 51, "time": 1.0, "location": {"lat": 24.991315548371098, "lng": 102.43176605583528}, "feature": {"sight_features": "", "sight_content": ""}}, {"title": "滇景多肉植物园", "address": "云南省昆明市安宁市梨河路", "image": "", "rank": 52, "time": 2, "location": {"lat": 24.85890596602486, "lng": 102.42589690761827}, "feature": {"sight_features": "", "sight_content": ""}}, {"title": "阿树罗温泉", "address": "昆明市安宁市沿川北路白塔桥旁安宁广晟沁园温泉度假酒店", "image": "", "rank": 53, "time": 2, "location": {"lat": 24.95025857409107, "lng": 102.47045602742539}, "feature": {"sight_features": "", "sight_content": "阿树罗温泉位于安宁广晟沁园温泉度假酒店，水温在42℃至45℃之间，泉水清澈碧透, 水质柔和。室外温泉区有不同的主题内容的温泉泡池。在温泉区里享受纯净的空气，SPA的美妙气息蔓延全身，舒缓的音乐、清新的芳香加以按摩师柔软的手法，可以将心归于宁静，神游物外，好好放空自己。"}}, {"title": "昆明玉龙湾", "address": "昆明市安宁市太平新城玉龙湾影视城旁", "image": "", "rank": 54, "time": 2.0, "location": {"lat": 24.915030154967656, "lng": 102.56653695309595}, "feature": {"sight_features": "", "sight_content": ""}}, {"title": "安宁市图书馆", "address": "湖滨路33号", "image": "", "rank": 55, "time": 1.5, "location": {"lat": 31.948644329209966, "lng": 118.81906588505693}, "feature": {"sight_features": "", "sight_content": ""}}, {"title": "艾庄葡萄园农家乐", "address": "320国道", "image": "", "rank": 56, "time": 2, "location": {"lat": 27.256565251327487, "lng": 111.28158164529765}, "feature": {"sight_features": "", "sight_content": ""}}, {"title": "皓泽天温泉", "address": "温泉镇沈家庄", "image": "", "rank": 57, "time": 2, "location": {"lat": 24.956974182058254, "lng": 102.45936983072352}, "feature": {"sight_features": "", "sight_content": ""}}, {"title": "温泉农家乐", "address": "温泉路", "image": "", "rank": 58, "time": 2, "location": {"lat": 40.18833394336146, "lng": 116.40660396265952}, "feature": {"sight_features": "", "sight_content": ""}}, {"title": "蓝月谷温泉山庄", "address": "温泉街道办事处一清路", "image": "", "rank": 59, "time": 2, "location": {"lat": 24.964771379227116, "lng": 102.45536323633671}, "feature": {"sight_features": "", "sight_content": ""}}, {"title": "青龙谷", "address": "A87县道与安富路交叉口", "image": "", "rank": 60, "time": 3.5, "location": {"lat": 22.573286420738913, "lng": 113.91110839269737}, "feature": {"sight_features": "", "sight_content": ""}}]}