{"cityName": "安平", "days": null, "cityImage": "", "spots": [{"title": "全国第一个农村党支部纪念馆", "address": "河北省安平县台城村", "image": "", "rank": 1, "time": 2, "location": {"lat": 38.21009691022358, "lng": 115.48559613627393}, "feature": {"sight_features": "", "sight_content": ""}}, {"title": "国际丝网会展中心", "address": "732乡道", "image": "", "rank": 2, "time": 2, "location": {"lat": 38.229499124103135, "lng": 115.5216106648137}, "feature": {"sight_features": "", "sight_content": ""}}, {"title": "汉王公园", "address": "衡水市安平县鹤煌大道与汉王路交汇处西北角", "image": "", "rank": 3, "time": 1.0, "location": {"lat": 38.23181810759247, "lng": 115.53923783536129}, "feature": {"sight_features": "", "sight_content": ""}}, {"title": "第九街区密室逃脱", "address": "西马路166号", "image": "", "rank": 4, "time": 2, "location": {"lat": 27.666045046232984, "lng": 120.5643990350453}, "feature": {"sight_features": "", "sight_content": ""}}, {"title": "逯家庄壁画墓", "address": "河北省安平县逯家庄 053600", "image": "", "rank": 5, "time": 2.5, "location": {"lat": 38.24050692219121, "lng": 115.5255492853222}, "feature": {"sight_features": "", "sight_content": ""}}, {"title": "雪花多彩啤酒广场", "address": "网都街与裕华路交叉口西100米", "image": "", "rank": 6, "time": 2, "location": {"lat": 38.23901058826822, "lng": 115.54435874719216}, "feature": {"sight_features": "", "sight_content": ""}}, {"title": "安平县土垚家庭农场", "address": "河北省安平县可胡林村77号", "image": "", "rank": 7, "time": 2, "location": {"lat": 38.26283829204737, "lng": 115.53780422600468}, "feature": {"sight_features": "", "sight_content": ""}}, {"title": "吉祥公园", "address": "鹤煌大道与302省道交叉口西北100米", "image": "", "rank": 8, "time": 2, "location": {"lat": 38.23063793975504, "lng": 115.55597965396436}, "feature": {"sight_features": "", "sight_content": ""}}, {"title": "儿童乐园", "address": "衡水市安平县", "image": "", "rank": 9, "time": 2, "location": {"lat": 38.24050692219121, "lng": 115.5255492853222}, "feature": {"sight_features": "", "sight_content": ""}}, {"title": "安平县基督教会", "address": "汉王路附近", "image": "", "rank": 10, "time": 2, "location": {"lat": 34.19975692038504, "lng": 117.30583697307652}, "feature": {"sight_features": "", "sight_content": ""}}, {"title": "孙犁故居", "address": "衡水市安平县大子文乡孙遥城村", "image": "", "rank": 11, "time": null, "location": {"lat": 38.220499429531905, "lng": 115.41967638939143}, "feature": {"sight_features": "", "sight_content": ""}}, {"title": "鑫瑞水族馆", "address": "河北省衡水市安平县东马路", "image": "", "rank": 12, "time": 2, "location": {"lat": 38.23622266473483, "lng": 115.52716436406979}, "feature": {"sight_features": "", "sight_content": ""}}, {"title": "为民园", "address": "衡水市安平县中心南路路西", "image": "", "rank": 13, "time": 2, "location": {"lat": 38.24416254268818, "lng": 115.52382498789581}, "feature": {"sight_features": "", "sight_content": ""}}, {"title": "翰墨缘画廊", "address": "为民街148号(近卫生局)", "image": "", "rank": 14, "time": 2, "location": {"lat": 22.697391439128847, "lng": 114.35364469537423}, "feature": {"sight_features": "", "sight_content": ""}}, {"title": "葡萄采摘园", "address": "大何庄乡杨各庄村", "image": "", "rank": 15, "time": 2, "location": {"lat": 38.24076083825586, "lng": 115.35508841905462}, "feature": {"sight_features": "", "sight_content": ""}}]}