{"cityName": "安塞", "days": 2, "cityImage": "", "spots": [{"title": "安塞县文化文物馆", "address": "延安市安塞县", "image": "", "rank": 1, "time": 3.0, "location": {"lat": 36.926919875998806, "lng": 109.1706814516393}, "feature": {"sight_features": "", "sight_content": ""}}, {"title": "王家湾毛主席旧居", "address": "陕西省安塞县安塞县城西 717400", "image": "", "rank": 2, "time": 2, "location": {"lat": 36.926919875998806, "lng": 109.1706814516393}, "feature": {"sight_features": "", "sight_content": ""}}, {"title": "王家湾革命旧址", "address": "陕西省安塞县王家湾乡王家湾村 717400", "image": "", "rank": 3, "time": 2, "location": {"lat": 37.29648946797041, "lng": 109.1493418062618}, "feature": {"sight_features": "", "sight_content": ""}}, {"title": "延安湫燕山", "address": "陕西省安塞县境内 717400", "image": "", "rank": 4, "time": 2.5, "location": {"lat": 36.926919875998806, "lng": 109.1706814516393}, "feature": {"sight_features": "", "sight_content": ""}}, {"title": "儿童乐园", "address": "陕西省延安市安塞区S206", "image": "", "rank": 5, "time": 2, "location": {"lat": 36.87009825930708, "lng": 109.33541943983717}, "feature": {"sight_features": "", "sight_content": ""}}, {"title": "安塞区民俗博物馆", "address": "龙凤路14号附近", "image": "", "rank": 6, "time": 2, "location": {"lat": 36.870499060926505, "lng": 109.3327348538206}, "feature": {"sight_features": "", "sight_content": ""}}, {"title": "民间艺术馆", "address": "206省道", "image": "", "rank": 7, "time": 2, "location": {"lat": 40.08163878542396, "lng": 117.10435023437643}, "feature": {"sight_features": "", "sight_content": ""}}, {"title": "鲁卡奇儿童乐园", "address": "真武洞镇财富购物中心旁", "image": "", "rank": 8, "time": 2, "location": {"lat": 36.86923186230228, "lng": 109.33508795612092}, "feature": {"sight_features": "", "sight_content": ""}}, {"title": "延安市南沟景区", "address": "延安市-安塞区-高桥镇南沟村", "image": "", "rank": 9, "time": 2.5, "location": {"lat": 36.60381840423919, "lng": 109.30680099293407}, "feature": {"sight_features": "", "sight_content": ""}}, {"title": "延安南沟生态农业示范园", "address": "延安市-安塞区", "image": "", "rank": 10, "time": 2.5, "location": {"lat": 36.87009825930708, "lng": 109.33541943983717}, "feature": {"sight_features": "", "sight_content": ""}}]}