{"cityName": "安新", "days": null, "cityImage": "", "spots": [{"title": "锦泰温泉度假村", "address": "保定市安新县锦泰路1号", "image": "", "rank": 1, "time": 2, "location": {"lat": 38.98839190361579, "lng": 115.89850246964725}, "feature": {"sight_features": "特色1 拥有独具特色、功能各异的温泉泡池88个", "sight_content": "锦泰温泉度假村坐落于风景秀丽的“京南水乡”白洋淀5A级风景区西北侧，距离白洋淀码头5公里，酒店占地近百余亩，总建筑面积五万多平方米，是一家集住宿、会议、餐饮、温泉、娱乐为一体的四星级度假酒店。\n锦泰温泉度假村着力打造特色养生温泉中心，营业面积近30000平方米，拥有独具特色、功能各异的温泉泡池88个，温泉储存于地下2800米深处震旦系混合岩裂隙中，目前日出水量达8000顿，温泉水经检测证实，属于偏硅酸多元复合型温泉，富含偏硅酸、钾、镁、钠、锂、铁等多种对人体有益的微量元素及矿物质，是一种集医疗、康复、保健、养生、休闲为一体的天然优质温泉。经临床应用表明，温泉对心血管疾病、类风湿、高血压、糖尿病、关节炎、腰腿疼痛、皮肤病等疾病有很好的辅助治疗效果，温泉中心另有超大规模豪华演艺大厅、特色自助餐厅、SPA理疗、游泳池、球馆、健身房等娱乐配套设施齐全；小溪石径、飞瀑假山、芳草吐绿、古木参天，再加上细致周到的一体化亲情服务，使您尽享随心所浴的快乐。"}}, {"title": "休闲岛", "address": "保定市安新县白洋淀", "image": "", "rank": 2, "time": 3.0, "location": {"lat": 38.84547253677617, "lng": 115.93872092065163}, "feature": {"sight_features": "", "sight_content": ""}}, {"title": "海天全盛温泉度假村", "address": "保定市安新县白洋淀旅游路海天影视城内", "image": "", "rank": 3, "time": 2, "location": {"lat": 38.950233789793415, "lng": 116.00042425323309}, "feature": {"sight_features": "特色1 以600年韩国皇室汗蒸养生文化为表", "sight_content": "‍‍\n海天全盛韩式汗蒸、隶属河北全盛投资管理有限公司旗下。营业面积10000平米。是以汗蒸为主，集洗浴、游泳、温泉、韩屋体验、儿童乐园、韩餐与当地特色餐饮、SPA按摩足疗、影视、健身、棋牌、韩式主题全地暖客房为一体的大型综合型功能社交空间。\n海天全盛韩式汗蒸，以600年韩国皇室汗蒸养生文化为表，以全地暖、能量玉石、黄土、玛瑙、红外线、负氧离子、打造出东情西韵的汗蒸原乡，给您和你的至亲至爱挚友带来一种健康的生活方式。景区内单独收费的景点和项目含：单人洗浴+韩式汗蒸、免费提供储物柜、免费提供洗浴用品：一次性洗浴用品提供免费健身房、免费台球、体感游戏、LED休闲大厅、韩式大炕、韩屋体验、特色窑洞，温泉，游泳，影视，SPA按摩足疗、棋牌，韩式主题全地暖客房，韩式菜品，免费消毒浴服、免费儿童乐园大厅免费休息。"}}, {"title": "“嘎子印象”情景剧", "address": "保定市安新县白洋淀旅游码头", "image": "", "rank": 4, "time": 2, "location": {"lat": 38.8274366768791, "lng": 115.95948959582189}, "feature": {"sight_features": "", "sight_content": ""}}, {"title": "宝岛水上乐园", "address": "保定市安新县白洋淀旅游码头", "image": "", "rank": 5, "time": 3.0, "location": {"lat": 38.8274366768791, "lng": 115.95948959582189}, "feature": {"sight_features": "", "sight_content": ""}}, {"title": "雄安农家院", "address": "安新县旅游路西路与s235省道交叉口", "image": "", "rank": 6, "time": 2, "location": {"lat": 38.95057225546471, "lng": 115.96766336748775}, "feature": {"sight_features": "", "sight_content": ""}}, {"title": "白洋淀锦泰温泉度假村", "address": "锦泰路一号锦泰温泉度假村", "image": "", "rank": 7, "time": 6.0, "location": {"lat": 38.98831243058535, "lng": 115.89853223949186}, "feature": {"sight_features": "", "sight_content": ""}}, {"title": "令甲水生植物种植有限公司", "address": "寨南村村西100米", "image": "", "rank": 8, "time": 2, "location": {"lat": 36.63838683535979, "lng": 110.8565586127485}, "feature": {"sight_features": "", "sight_content": ""}}, {"title": "白洋淀望月岛7号农家院", "address": "白洋淀王家寨水乡民俗村(白洋淀景区内)", "image": "", "rank": 9, "time": 2, "location": {"lat": 38.95242217642641, "lng": 115.97831947707441}, "feature": {"sight_features": "", "sight_content": ""}}, {"title": "万荷水生植物种植", "address": "安新镇留村青年路20号(每天惠高岩超市北行50米路西)", "image": "", "rank": 10, "time": 2, "location": {"lat": 41.29796361980391, "lng": 123.1398762461849}, "feature": {"sight_features": "", "sight_content": ""}}, {"title": "白洋淀观荷台33号农家院", "address": "安新镇", "image": "", "rank": 11, "time": 2, "location": {"lat": 38.942637693464306, "lng": 115.93457737240205}, "feature": {"sight_features": "", "sight_content": ""}}, {"title": "白洋淀民俗度假村29号院", "address": "雄安新区白洋淀景区", "image": "", "rank": 12, "time": null, "location": {"lat": 38.95242217642641, "lng": 115.97831947707441}, "feature": {"sight_features": "", "sight_content": ""}}, {"title": "燕赵巨龙潭", "address": "安新县", "image": "", "rank": 13, "time": 2, "location": {"lat": 38.94173429859305, "lng": 115.94242628265987}, "feature": {"sight_features": "", "sight_content": ""}}, {"title": "野墨斋画廊", "address": "迎宾路(地税局对面)", "image": "", "rank": 14, "time": 2, "location": {"lat": 40.31515959654057, "lng": 116.63755134920378}, "feature": {"sight_features": "", "sight_content": ""}}, {"title": "博艺水生植物", "address": "大寨村大寨小学东行200米", "image": "", "rank": 15, "time": 2, "location": {"lat": 37.03017870216453, "lng": 115.6039043705997}, "feature": {"sight_features": "", "sight_content": ""}}, {"title": "海天影视温泉度假村", "address": "白洋淀旅游路海天影视度假村", "image": "", "rank": 16, "time": 2, "location": {"lat": 38.950233789793415, "lng": 116.00042425323309}, "feature": {"sight_features": "", "sight_content": ""}}, {"title": "温泉花园北区", "address": "建设大街", "image": "", "rank": 17, "time": 2, "location": {"lat": 37.878597938698995, "lng": 114.70978533440012}, "feature": {"sight_features": "", "sight_content": ""}}, {"title": "快乐垂钓白洋淀工作站", "address": "雁翎西路怡景家园1号楼2号商铺", "image": "", "rank": 18, "time": 2, "location": {"lat": 38.94059185438496, "lng": 115.92661106978358}, "feature": {"sight_features": "", "sight_content": ""}}, {"title": "渔人部落", "address": "251乡道", "image": "", "rank": 19, "time": 2, "location": {"lat": 40.65485189447591, "lng": 117.48966868118197}, "feature": {"sight_features": "", "sight_content": ""}}, {"title": "南刘庄百亩垂钓园", "address": "安新镇白洋淀景区南刘庄百亩垂钓园", "image": "", "rank": 20, "time": 2, "location": {"lat": 38.95242217642641, "lng": 115.97831947707441}, "feature": {"sight_features": "", "sight_content": ""}}, {"title": "白洋淀观荷台26号农家院", "address": "安新镇王家寨民俗村", "image": "", "rank": 21, "time": 2, "location": {"lat": 38.924612095988465, "lng": 116.01954257679164}, "feature": {"sight_features": "", "sight_content": ""}}, {"title": "白洋淀观荷台26号农家院", "address": "安新镇白洋淀", "image": "", "rank": 22, "time": 2, "location": {"lat": 38.950233789793415, "lng": 116.00042425323309}, "feature": {"sight_features": "", "sight_content": ""}}, {"title": "白洋淀淀边村荷花采摘垂钓园", "address": "安新镇漾堤口村白洋淀宝岛水上游乐园西行1公里", "image": "", "rank": 23, "time": 6.0, "location": {"lat": 38.950233789793415, "lng": 116.00042425323309}, "feature": {"sight_features": "", "sight_content": ""}}, {"title": "净业禅寺", "address": "河北省保定市安新县三台镇(安新县三台镇医院旁)", "image": "", "rank": 24, "time": 2, "location": {"lat": 38.9797050470934, "lng": 115.85138760058172}, "feature": {"sight_features": "", "sight_content": ""}}, {"title": "保定白洋淀荷花大观园国家5A景区", "address": "白洋淀景区荷花大观园景区市场部", "image": "", "rank": 25, "time": 7.5, "location": {"lat": 38.928791257516295, "lng": 116.00415079459036}, "feature": {"sight_features": "", "sight_content": ""}}, {"title": "飞车特技艺术团", "address": "旅游路白洋淀景区鸳鸯岛内", "image": "", "rank": 26, "time": 2, "location": {"lat": 38.95242217642641, "lng": 115.97831947707441}, "feature": {"sight_features": "", "sight_content": ""}}, {"title": "十里荷香度假村", "address": "安新郭里口村(十里荷香景区)", "image": "", "rank": 27, "time": 2, "location": {"lat": 38.93981628278491, "lng": 116.02521446430707}, "feature": {"sight_features": "", "sight_content": ""}}, {"title": "保定名宿度假村27号院", "address": "石龙北路27号院", "image": "", "rank": 28, "time": 7.5, "location": {"lat": 39.921565519429876, "lng": 116.11877221691667}, "feature": {"sight_features": "", "sight_content": ""}}, {"title": "曹登清冷库", "address": "河北省保定市安新县安新镇南大街华傲园小区南50米", "image": "", "rank": 29, "time": 2, "location": {"lat": 38.92293004053236, "lng": 115.93907857290567}, "feature": {"sight_features": "", "sight_content": ""}}, {"title": "怪坡", "address": "保定市安新县旅游路白洋淀景区异国风情园内", "image": "", "rank": 30, "time": 1.5, "location": {"lat": 38.95242217642641, "lng": 115.97831947707441}, "feature": {"sight_features": "", "sight_content": ""}}, {"title": "白洋淀文化苑-观光车", "address": "保定市安新县旅游路白洋淀景区白洋淀文化苑内", "image": "", "rank": 31, "time": 6.0, "location": {"lat": 38.92015666631059, "lng": 115.99346365393815}, "feature": {"sight_features": "", "sight_content": ""}}, {"title": "保定白洋淀水乡家园度假村", "address": "白洋淀景区郭里口村", "image": "", "rank": 32, "time": 7.5, "location": {"lat": 38.95242217642641, "lng": 115.97831947707441}, "feature": {"sight_features": "", "sight_content": ""}}, {"title": "疯狂企鹅大滑梯", "address": "保定市安新县旅游路白洋淀景区异国风情园嘉年华内", "image": "", "rank": 33, "time": 2, "location": {"lat": 38.91626278657698, "lng": 115.97311778871378}, "feature": {"sight_features": "", "sight_content": ""}}, {"title": "白洋淀诗群纪念馆", "address": "保定安新县大淀头", "image": "", "rank": 34, "time": 6.0, "location": {"lat": 38.94173429859305, "lng": 115.94242628265987}, "feature": {"sight_features": "", "sight_content": ""}}, {"title": "观景山滑索-上站", "address": "保定市安新县旅游路白洋淀景区荷花大观园滑索内", "image": "", "rank": 35, "time": 2, "location": {"lat": 38.928791257516295, "lng": 116.00415079459036}, "feature": {"sight_features": "", "sight_content": ""}}, {"title": "幻影迷宫", "address": "保定市安新县旅游路白洋淀景区白洋淀文化苑世界名荷园内", "image": "", "rank": 36, "time": 2, "location": {"lat": 38.92015666631059, "lng": 115.99346365393815}, "feature": {"sight_features": "", "sight_content": ""}}, {"title": "观景山-滑索", "address": "保定市安新县旅游路白洋淀景区荷花大观园内", "image": "", "rank": 37, "time": 2, "location": {"lat": 38.928791257516295, "lng": 116.00415079459036}, "feature": {"sight_features": "", "sight_content": ""}}, {"title": "精品荷花观赏园", "address": "保定市安新县白洋淀旅游码头附近元妃荷园内", "image": "", "rank": 38, "time": 2, "location": {"lat": 38.8274366768791, "lng": 115.95948959582189}, "feature": {"sight_features": "", "sight_content": ""}}, {"title": "农机配件 白洋淀雁翎队纪念馆西", "address": "河北省保定市安新县西大街", "image": "", "rank": 39, "time": 2, "location": {"lat": 38.928165233448944, "lng": 115.93648491427112}, "feature": {"sight_features": "", "sight_content": ""}}, {"title": "安新县美丽乡村规划馆", "address": "河北省保定市安新县旅游东路", "image": "", "rank": 40, "time": 2, "location": {"lat": 38.95113629970612, "lng": 115.95772239801927}, "feature": {"sight_features": "", "sight_content": ""}}, {"title": "美洋洋儿童乐园", "address": "保定市安新县建设大街百隆购物1层", "image": "", "rank": 41, "time": 2, "location": {"lat": 38.93527760171678, "lng": 115.94078500752701}, "feature": {"sight_features": "", "sight_content": ""}}, {"title": "宝光法寺", "address": "保定市安新县旅游路白洋淀景区宝岛水上游乐园内", "image": "", "rank": 42, "time": 2, "location": {"lat": 38.95242217642641, "lng": 115.97831947707441}, "feature": {"sight_features": "", "sight_content": ""}}, {"title": "大雄宝殿", "address": "保定市安新县旅游路白洋淀景区白洋淀文化苑康熙水围行宫敕赐沛恩寺内", "image": "", "rank": 43, "time": 2, "location": {"lat": 38.92015666631059, "lng": 115.99346365393815}, "feature": {"sight_features": "", "sight_content": ""}}, {"title": "摩托艇游乐场", "address": "保定市安新县旅游路白洋淀景区荷花大观园嘉年华游乐场内", "image": "", "rank": 44, "time": 2, "location": {"lat": 38.9269084332748, "lng": 116.0028746977151}, "feature": {"sight_features": "", "sight_content": ""}}, {"title": "白洋淀莲鱼岛度假村", "address": "河北省保定市安新县赵北口镇何庄子村(近赵北口镇码头)", "image": "", "rank": 45, "time": 2, "location": {"lat": 38.916962762831396, "lng": 116.06501313175679}, "feature": {"sight_features": "", "sight_content": ""}}, {"title": "白洋淀雁翎水寨度假村", "address": "保定市安新县安新镇郭里口村", "image": "", "rank": 46, "time": 6.0, "location": {"lat": 38.93981628278491, "lng": 116.02521446430707}, "feature": {"sight_features": "", "sight_content": ""}}, {"title": "安新县郭里口荷花度假村", "address": "河北安新县郭里口村", "image": "", "rank": 47, "time": 2, "location": {"lat": 38.93981628278491, "lng": 116.02521446430707}, "feature": {"sight_features": "", "sight_content": ""}}, {"title": "白洋淀元妃度假村", "address": "保定安新县大张庄村", "image": "", "rank": 48, "time": 6.0, "location": {"lat": 38.92964256660124, "lng": 115.9808756296573}, "feature": {"sight_features": "", "sight_content": ""}}, {"title": "湿地公园", "address": "保定市安新县崇文大街", "image": "", "rank": 49, "time": 2, "location": {"lat": 38.93880140111855, "lng": 115.95267389769724}, "feature": {"sight_features": "", "sight_content": ""}}, {"title": "渥水园", "address": "建设大街228号附近", "image": "", "rank": 50, "time": 2, "location": {"lat": 32.3701792507286, "lng": 119.37776503958001}, "feature": {"sight_features": "", "sight_content": ""}}, {"title": "景新儿童乐园", "address": "河北省保定市安新县安新镇京新风景园(西区)", "image": "", "rank": 51, "time": 2, "location": {"lat": 38.95183806492902, "lng": 115.9308273062201}, "feature": {"sight_features": "", "sight_content": ""}}, {"title": "大滑梯", "address": "保定市安新县旅游路白洋淀景区嘎子印象内", "image": "", "rank": 52, "time": 2, "location": {"lat": 38.91565542590365, "lng": 115.98229972865346}, "feature": {"sight_features": "", "sight_content": ""}}, {"title": "财神庙", "address": "保定市安新县旅游路白洋淀景区白洋淀文化苑金宝山内", "image": "", "rank": 53, "time": 1.5, "location": {"lat": 38.923013162689145, "lng": 115.99125493628243}, "feature": {"sight_features": "", "sight_content": ""}}, {"title": "观音殿", "address": "保定市安新县旅游路白洋淀景区鸳鸯岛内", "image": "", "rank": 54, "time": 2, "location": {"lat": 38.95242217642641, "lng": 115.97831947707441}, "feature": {"sight_features": "", "sight_content": ""}}, {"title": "安新县开发区展馆", "address": "河北省保定市安新县三台镇徐新公路开发区展馆", "image": "", "rank": 55, "time": 2, "location": {"lat": 38.986371710328655, "lng": 115.82556070901701}, "feature": {"sight_features": "", "sight_content": ""}}, {"title": "白洋淀海悦度假村", "address": "下道路与白洋大街交叉口南150米", "image": "", "rank": 56, "time": 2, "location": {"lat": 38.856211913321715, "lng": 115.95545501652222}, "feature": {"sight_features": "", "sight_content": ""}}, {"title": "儿童乐园", "address": "环城西路附近", "image": "", "rank": 57, "time": 2, "location": {"lat": 36.613902946668574, "lng": 114.48863807649496}, "feature": {"sight_features": "", "sight_content": ""}}, {"title": "安新县文化广场", "address": "河北省保定市安新县育才西路51附近", "image": "", "rank": 58, "time": 2, "location": {"lat": 38.942162356478825, "lng": 115.93731185240269}, "feature": {"sight_features": "", "sight_content": ""}}, {"title": "保定白洋淀月亮湾度假村", "address": "河北省保定市安新县白洋淀荷花大观园东南方500米", "image": "", "rank": 59, "time": 7.5, "location": {"lat": 38.94865773182359, "lng": 115.97660828053557}, "feature": {"sight_features": "", "sight_content": ""}}, {"title": "白洋淀雁翎旅游垂钓度假村", "address": "安新镇泥李庄村（白洋淀景区内）", "image": "", "rank": 60, "time": 6.0, "location": {"lat": 38.95242217642641, "lng": 115.97831947707441}, "feature": {"sight_features": "", "sight_content": ""}}]}