{"cityName": "安阳县", "days": 2, "cityImage": "", "spots": [{"title": "马氏庄园", "address": "安阳市安阳县蒋村镇西蒋村", "image": "", "rank": 1, "time": 3.0, "location": {"lat": 36.13156557168409, "lng": 114.11728893253941}, "feature": {"sight_features": "特色1 中州大地特色的封建官僚府第建筑标本。 特色2 晋商大院深深邃富丽的建筑艺术 特色3 整座庄园布局严谨，错落有致，古朴典雅，雄浑庄重", "sight_content": "马氏庄园（刘邓大军司令部旧址）位于安阳市西部20公里的西蒋村，是清末头品顶戴、广西、广东巡抚马丕瑶的府第，被学者称为“中州大地绝无仅有的封建官僚府第建筑标本”，“中原第一大宅”。是全国重点文物保护单位，国家4A级景区，河南省廉政教育基地。\n\n马氏庄园景区北倚寿安山，南临珠泉河，西近巍巍太行，东连华北平原，辉映于行山洹水间，尤为壮观。庄园建于清光绪至民国初期，保存完好，占地面积20000多平方米，其中建筑面积5000多平方米，共分三区六路，每路分四个庭院，九道大门，俗称“九门相照”。庄园建筑布局严谨，错落有致，古朴典雅，雄浑庄重，既有典型的北京四合院宽敞明亮的建筑风格，又有晋商大院深邃富丽的建筑艺术，还有中原地区蓝转灰瓦五脊六兽挂走廊的建筑特色。这里还是一处记载中国近代百年风云的历史见证，清末慈禧太后、光绪皇帝曾在这里下榻；解放战争年代，刘邓大军曾在这里设司令部。\n庄园主人马丕瑶（1831-1895年），字玉山，安阳县西蒋村人。咸丰八年中举人，同治元年登进士。曾任山西平陆、永济知县，解州、辽州知州，太原知府，山西、贵州按察使，山西、广西布政使，兵部侍郎，都察院右副督御史，广西、广东巡抚等职。他为官30余年，政绩卓著，清正廉明，忠心报国，实心爱民，深受百姓爱戴，百姓称它为“马青天”，光绪帝赞他为“百官楷模”。病逝后，光绪帝亲撰祭文，并御赐金字“鞠躬尽瘁”，诰封其为“光禄大夫和振威将军”。\n\n马丕瑶长子马吉森是著名的实业家，先后创办了安阳广益纱厂（今安阳豫北纱厂），六河沟煤矿（今邯郸峰峰矿区），开创了近代河南民族工业之先河；次子马吉樟，光绪九年进士，曾任翰林院编修，国使馆协修，湖北按察使、提法使，民国总统府秘书等职，是当时著名的书法家，曾多次掩护革命志士，并筹得巨款资助大批有志青年出国留学，意图走教育救国的道路；三女儿马青霞，是中国同盟会会员，著名的资产阶级民主革命家、教育家、社会活动家、辛亥革命女志士。孙中山曾亲题“天下为公”相赠，民国时盛传“南有秋瑾，北有青霞”之美誉。\n马氏庄园不仅是一部清末民国初期的建筑巨著，还是一处具有跨时代意义的廉政教育基地和红色景区，更是一部集儒学、建筑、风水、书法、楹联等中国传统文化于一体的百科全书。"}}, {"title": "曹操高陵", "address": "安阳市安阳县安丰乡西高穴村村南", "image": "", "rank": 2, "time": null, "location": {"lat": 36.24069164715873, "lng": 114.28622558545835}, "feature": {"sight_features": "", "sight_content": ""}}, {"title": "万佛沟", "address": "安阳市安阳县西南25公里的宝山灵泉寺两侧（善应镇宝山与岚峰山之间）", "image": "", "rank": 3, "time": 2, "location": {"lat": 36.045317889728686, "lng": 114.08551592953286}, "feature": {"sight_features": "", "sight_content": ""}}, {"title": "泉水谷水上乐园", "address": "安阳市安阳县善应镇善应河桥往南", "image": "", "rank": 4, "time": 2, "location": {"lat": 36.055058140391374, "lng": 114.14192655564283}, "feature": {"sight_features": "特色1 安阳地区水上乐园，多种游玩设备，清凉夏天！", "sight_content": "广州海力水上乐园设备公司与安阳建辉公司依托善应镇山水优势，共同投资1.2亿元，在善应镇南善应村泉水沟新建泉水谷水上乐园项目，让游客体验绿色生态回归、休闲度假、特色美食于一体的感受。\n\n\n泉水谷项目分为五大功能区域：水上游乐区、拓展训练区、生态采摘区、国际标准滑雪场、休闲养生区。项目在建的一期工程涵盖超级海啸冲浪池、超级巨兽碗滑道、竞速彩虹滑道、冲天回旋滑道，还有综合性家庭水上嬉水项目。"}}, {"title": "盛锦苑水上乐园", "address": "301省道向北盛锦苑商务大酒店向北", "image": "", "rank": 5, "time": 2, "location": {"lat": 38.46965190047819, "lng": 111.12733148295854}, "feature": {"sight_features": "", "sight_content": ""}}, {"title": "零度水上乐园", "address": "崔家桥镇海兴桥向北1500米路东", "image": "", "rank": 6, "time": 2, "location": {"lat": 31.012353727643685, "lng": 119.92016631987967}, "feature": {"sight_features": "", "sight_content": ""}}, {"title": "安阳兴和生态园", "address": "永和镇219省道与兴农大道交叉口向东500米", "image": "", "rank": 7, "time": 2, "location": {"lat": 27.855115878009787, "lng": 120.72109614867794}, "feature": {"sight_features": "", "sight_content": ""}}, {"title": "贝尔水魔方", "address": "中华路北段万雅商贸城向北200米路东(贝尔春天院内)", "image": "", "rank": 8, "time": 2, "location": {"lat": 31.531854366152213, "lng": 121.72764301601296}, "feature": {"sight_features": "", "sight_content": ""}}, {"title": "动漫水世界", "address": "辅岩路与301国道交叉口向西200米路北", "image": "", "rank": 9, "time": 2, "location": {"lat": 23.32128661222331, "lng": 113.24099968675924}, "feature": {"sight_features": "", "sight_content": ""}}, {"title": "海兴休闲垂钓庄园", "address": "白璧镇海兴路海兴休闲垂钓庄园", "image": "", "rank": 10, "time": 2, "location": {"lat": 38.14940251651842, "lng": 117.50441804918084}, "feature": {"sight_features": "", "sight_content": ""}}, {"title": "文昌殿", "address": "河南省安阳市安阳县善应镇黑玉村南海路1号", "image": "", "rank": 11, "time": 0.25, "location": {"lat": 36.04548823727946, "lng": 114.10687717732264}, "feature": {"sight_features": "", "sight_content": ""}}, {"title": "灵官殿", "address": "河南省安阳市安阳县善应镇南海路1号", "image": "", "rank": 12, "time": 2, "location": {"lat": 36.04548823727946, "lng": 114.10687717732264}, "feature": {"sight_features": "", "sight_content": ""}}, {"title": "卡通小镇儿童主题乐园", "address": "河南省安阳市安阳县G107(京深线)", "image": "", "rank": 13, "time": 2, "location": {"lat": 36.218906964195526, "lng": 114.23838187262405}, "feature": {"sight_features": "", "sight_content": ""}}, {"title": "欢乐岛儿童乐园", "address": "河南省安阳市安阳县曲沟镇湖波大道家乐购物广场北50米", "image": "", "rank": 14, "time": 2, "location": {"lat": 36.04739078549029, "lng": 114.65204408786367}, "feature": {"sight_features": "", "sight_content": ""}}, {"title": "喜洋洋水上乐园", "address": "河南省安阳市安阳县X001(狄清线)", "image": "", "rank": 15, "time": 2, "location": {"lat": 36.241518544046215, "lng": 114.19188096842541}, "feature": {"sight_features": "", "sight_content": ""}}, {"title": "农家乐度假村", "address": "301省道附近", "image": "", "rank": 16, "time": 2, "location": {"lat": 38.13474737719127, "lng": 114.42863974573754}, "feature": {"sight_features": "", "sight_content": ""}}, {"title": "太保福胜寺", "address": "新星幼儿园附近", "image": "", "rank": 17, "time": 2, "location": {"lat": 39.94207645039894, "lng": 116.0817155192395}, "feature": {"sight_features": "", "sight_content": ""}}, {"title": "兴阳寺院", "address": "036乡道附近", "image": "", "rank": 18, "time": 2, "location": {"lat": 48.39353581856098, "lng": 129.90220447944986}, "feature": {"sight_features": "", "sight_content": ""}}, {"title": "兴禅寺", "address": "紫金山附近", "image": "", "rank": 19, "time": 2, "location": {"lat": 23.23591662481575, "lng": 113.72072139990767}, "feature": {"sight_features": "", "sight_content": ""}}, {"title": "安阳东站广场", "address": "河南省安阳市文峰区京港澳高速公路安阳段东侧", "image": "", "rank": 20, "time": 3.0, "location": {"lat": 36.04267204459597, "lng": 114.43328949722675}, "feature": {"sight_features": "", "sight_content": ""}}, {"title": "开心游乐园", "address": "河南省安阳市安阳县S301", "image": "", "rank": 21, "time": 2, "location": {"lat": 36.218906964195526, "lng": 114.23838187262405}, "feature": {"sight_features": "", "sight_content": ""}}, {"title": "亚龙湾水上乐园", "address": "安阳市上柏树西沟（村内）", "image": "", "rank": 22, "time": 3.5, "location": {"lat": 36.179760977082985, "lng": 114.27961535315976}, "feature": {"sight_features": "", "sight_content": ""}}, {"title": "香山佛寺", "address": "河南省安阳市安阳县S22", "image": "", "rank": 23, "time": 2, "location": {"lat": 36.218906964195526, "lng": 114.23838187262405}, "feature": {"sight_features": "", "sight_content": ""}}, {"title": "儿童乐园", "address": "安阳市安阳县", "image": "", "rank": 24, "time": 2, "location": {"lat": 36.218906964195526, "lng": 114.23838187262405}, "feature": {"sight_features": "", "sight_content": ""}}, {"title": "冢儿寺", "address": "河南省安阳市安阳县Y008(沙东线)", "image": "", "rank": 25, "time": 2, "location": {"lat": 36.12896018807022, "lng": 114.4676029755884}, "feature": {"sight_features": "", "sight_content": ""}}, {"title": "小芳儿童乐园", "address": "河南省安阳市安阳县曲沟镇北曲沟湖波大道世纪新城附近", "image": "", "rank": 26, "time": 2, "location": {"lat": 36.12652159240963, "lng": 114.22066585067849}, "feature": {"sight_features": "", "sight_content": ""}}, {"title": "宝岩寺", "address": "河南省安阳市安阳县沙井村", "image": "", "rank": 27, "time": 2, "location": {"lat": 36.0073648313761, "lng": 114.03512359640739}, "feature": {"sight_features": "", "sight_content": ""}}, {"title": "安阳县辛村烈士纪念园", "address": "河南省安阳市安阳县辛村镇南林高速公路南400米", "image": "", "rank": 28, "time": 3.0, "location": {"lat": 36.06739126997076, "lng": 114.28518287913424}, "feature": {"sight_features": "", "sight_content": ""}}, {"title": "基督教会", "address": "河南省安阳市安阳县东滩西王线善应镇政府东南450米", "image": "", "rank": 29, "time": 2, "location": {"lat": 36.054595427194634, "lng": 114.14197423949591}, "feature": {"sight_features": "", "sight_content": ""}}, {"title": "七一广场", "address": "湖波大道与016乡道交叉口东50米", "image": "", "rank": 30, "time": 1.5, "location": {"lat": 36.11978706663524, "lng": 114.22128488378507}, "feature": {"sight_features": "", "sight_content": ""}}, {"title": "卡奇乐游乐场", "address": "水冶镇光彩大世界一楼", "image": "", "rank": 31, "time": 2, "location": {"lat": 33.02715043492987, "lng": 112.52109913428768}, "feature": {"sight_features": "", "sight_content": ""}}, {"title": "雪花洞庙", "address": "050乡道附近", "image": "", "rank": 32, "time": 2, "location": {"lat": 29.530191510088745, "lng": 120.15491506164761}, "feature": {"sight_features": "", "sight_content": ""}}, {"title": "二龙山庙", "address": "二龙山附近", "image": "", "rank": 33, "time": 2, "location": {"lat": 40.01440117903252, "lng": 123.5837264393926}, "feature": {"sight_features": "", "sight_content": ""}}, {"title": "三教堂古庙", "address": "庞家湾村附近", "image": "", "rank": 34, "time": 2, "location": {"lat": 39.60450870275463, "lng": 117.1876674865283}, "feature": {"sight_features": "", "sight_content": ""}}, {"title": "灵霄宝殿", "address": "221省道附近", "image": "", "rank": 35, "time": 2, "location": {"lat": 40.48669646295935, "lng": 116.04420851897628}, "feature": {"sight_features": "", "sight_content": ""}}, {"title": "珍珠泉景区", "address": "井家庄村珠泉花园附近", "image": "", "rank": 36, "time": 2, "location": {"lat": 36.13898276951114, "lng": 114.1113831451336}, "feature": {"sight_features": "", "sight_content": ""}}, {"title": "清龙寺", "address": "洪河屯乡清龙寺", "image": "", "rank": 37, "time": 2, "location": {"lat": 36.16014586690752, "lng": 114.25373328497572}, "feature": {"sight_features": "", "sight_content": ""}}, {"title": "西门豹祠", "address": "107国道", "image": "", "rank": 38, "time": 2, "location": {"lat": 23.102877208493197, "lng": 113.67228113407819}, "feature": {"sight_features": "", "sight_content": ""}}, {"title": "花园广场", "address": "河南省安阳市安阳县", "image": "", "rank": 39, "time": 2, "location": {"lat": 36.218906964195526, "lng": 114.23838187262405}, "feature": {"sight_features": "", "sight_content": ""}}, {"title": "水冶魔方动漫水上乐园", "address": "水冶镇辅岩路东段开疆时代广场东侧(原五里槐老陶瓷城)", "image": "", "rank": 40, "time": 2, "location": {"lat": 36.136218073424864, "lng": 114.15790762266543}, "feature": {"sight_features": "", "sight_content": ""}}, {"title": "酷乐派水上乐园", "address": "安楚路杜固车站向西100米路北(高铁向东500米)", "image": "", "rank": 41, "time": 2, "location": {"lat": 32.85753681707322, "lng": 120.33496227213054}, "feature": {"sight_features": "", "sight_content": ""}}, {"title": "卡帝乐鳄鱼", "address": "辅岩路北50米", "image": "", "rank": 42, "time": 2, "location": {"lat": 39.332623296205654, "lng": 117.8291981291089}, "feature": {"sight_features": "", "sight_content": ""}}, {"title": "灵泉寺石窟", "address": "河南省安阳县城西南25公里的宝山", "image": "", "rank": 43, "time": 2, "location": {"lat": 36.218906964195526, "lng": 114.23838187262405}, "feature": {"sight_features": "", "sight_content": ""}}]}