{"cityName": "安阳", "days": "", "cityImage": "", "spots": [{"title": "红旗渠", "address": "安阳市林州市", "image": "", "rank": 1, "time": 7.5, "location": {"lat": 36.08885320844752, "lng": 113.82559018908465}, "feature": {"sight_features": "特色1 修建在悬崖峭壁中的人工天河，洋溢着太行山革命气概。", "sight_content": "红旗渠是20世纪60年代，林县人民在极其艰难的条件下，从太行山腰修建的引漳入林工程。是全国重点文物保护单位，被世人称之为“人工天河”，在国际上被誉为“世界第八大奇迹”。盘绕在太行山腰悬崖绝壁之上雄伟险要的红旗渠与“雄、险、奇、秀”的林山自然风景和名胜古迹巧妙地融汇结合。\n红旗渠景区由“分水苑”、“青年洞“、“络丝潭”三个景区组成。三景区各有特点，风调不同，内涵盈连，相映成体。\n红旗渠——分水苑风景区\n分水苑风景区是一园林式景区，也是红旗渠总干渠分为三条干渠的地方。距市区18公里，位于林虑山北部向东分支的大驼岭、猫儿岭之间凹腰处，原名：“坟头岭”，后因之改名为“分水岭”。这里各景点排列有序，规划严整，翠柏簇拥，渠水奔腾。真可谓“山水秀丽”，令人“心旷神怡”。\n红旗渠——青年洞风景区\n青年洞风景区由分水苑风景区驱车上行30公里，即可达青年洞风景区。这里山高路险，红旗渠悬挂在巍峨雄险的太行山悬崖绝壁之上，更使你领略到“人工天河”的无尽诗意，主景“青年洞”靠断壁而凿，从大山之中穿通而过，为你展现出一幅雄壮的画卷，将太行美景“雄、险、奇、秀”凝集于此，极目远眺，尽收眼底，惊诧之余，唯有赞叹。\n红旗渠——络丝潭风景区\n络丝潭风景区络丝潭风景区坐落在青年洞西约1公里处，亦名“天桥断”。“络丝潭”因其潭深一络蚕丝而得名，又因浊漳河有“九峡十八断”，此处乃一较大断崭跌水，上有连接豫、冀两省的峡谷索桥，故称“天桥断”。这里有漳河名胜“小三峡”，可放艇畅游而尽享潭中山水风光；有神秘莫测的“神龟洞”，可欣赏神龟救民的美丽传说；还有凌空高悬的“铁索桥”等古迹名胜。"}}, {"title": "殷墟", "address": "安阳市殷都区殷墟路1号", "image": "", "rank": 2, "time": 3.0, "location": {"lat": 36.12254484377617, "lng": 114.33239008861639}, "feature": {"sight_features": "特色1 这里是中国历史上被证实的第一个都城遗址。 特色2 商朝晚期都城遗址，甲骨文发掘地", "sight_content": "殷墟，位于中国历史文化名城——安阳市的西北郊，横跨洹河南北两岸。古称“北蒙”，甲骨文卜辞中又称为“大邑商”、“邑商”，是中国商代晚期的都城，也是中国历史上第一个有文献可考、并为甲骨文和考古发掘所证实的古代都城遗址，距今已有3300年的历史。\n王陵遗址东西长约450米，南北宽约250米，总面积约180亩。从二十世纪三十年代至今，在这里相继发现了13座王陵大亩（包括一座未完成大墓）、2000多座陪葬墓、祭祀坑与车马坑，出土了数量众多、制作精美的青铜器、玉器、石器、陶器等，被学术界公认为殷商时期的王陵所在，是中国古代文化艺术宝库中璀璨的明珠。\n妇好墓是1928年以来殷墟宫殿宗庙区内*重要的考古发现之一，也是殷墟科学发掘以来发现的保存完整的商代王室成员墓葬之一。\n安阳殷墟，作为世界文化遗产，中国甲骨文发现之地，历经沧桑而重现世间，不仅仅是考古历史上的巨大发现，也是中华文明源远流长的体现，静待世界各地游客的参观光临。\n景区游览图："}}, {"title": "太行大峡谷景区", "address": "安阳市林州市石板岩乡", "image": "", "rank": 3, "time": 4.5, "location": {"lat": 36.17190075076166, "lng": 113.73240605521124}, "feature": {"sight_features": "特色1 断崖高起，群峰峥嵘，森林氧吧。 特色2 太行大峡谷是“北雄风光”的典型代表，号称“百里画廊”。 特色3 花开鸟飞鸣，高山悬瀑落百丈，泉流潭水澄如镜。", "sight_content": "太行大峡谷地处河南省西北部、南太行山东麓的河南省林州市石板岩乡境内，南北长50公里，东西宽1.5公里，海拔800—1739米，相对高差1000米以上。景区总面积89平方公里，其植被覆盖率为90％，有天然氧吧之美誉。境内断崖高起，群峰峥嵘，阳刚劲露，台壁交错，苍溪水湍，流瀑四挂，是“北雄风光”的典型代表。\n\n\n太行大峡谷已运营景区包括：泉潭叠瀑桃花谷、百里画廊太行天路、太行之魂王相岩。“青崖如点黛，赤壁若朝霞，树翳文禽，潭泓绿水，景物奇秀，为世所称”，太行大峡谷景区四季景色各异，令人神往。峡谷内民宅建筑就地取材，石街、石院、石墙、石柱、石梯、石楼与大自然浑然一体，古色古香，令人寻味。太行大峡谷景区交通便捷，接待设施完善，是休闲养生、滑翔攀岩、避暑度假、绘画写生、寻古探幽、旅游观光的好地方。\n\n桃花谷是一条谷中之谷，是太行大峡谷的核心景点，谷内奇峰突兀、峭拨雄壮，一条蜿蜒曲折的桃花溪水贯穿峡谷。溪水两岸草藤垂挂，杂木丛林莽莽无际，随山风涌动的绿潮似海水漫卷。沿谷流下的溪水跌落成瀑，瀑落成潭，潭瀑相连，构成了桃花谷山灵水秀的峡谷水韵，更有三九桃花雪中开奇观。黄龙潭、飞龙峡瀑布、飞龙峡栈道、九连瀑、桃花洞等景点珠联璧合，显示出深峡藏秀的悠远意景。\n“太行天路”景区位于太行山之巅，北起桃花谷景区，南至仙霞谷景区，全长约30km，既是景区环线游览道路的重要组成部分，更是俯瞰太行山壮美风光的良好位置。乘坐观光车游走于太行天路，犹如置身百里画廊，满眼望去，无处不是大气磅礴的国画山水长卷，深邃的峡谷、直立的岩壁，带给游客强烈的视觉震慑。结合山势山形，太行天路沿线设置有10余座观景台，临栏远眺，感觉心胸开阔、杂念全消。\n王相岩东临溪水，西依悬崖，三面峭壁环绕，形成了一个闭合性极强的围谷，与岩崭屏开的朱雀峰相迎，暗合中国古代风地理“左青龙、右白虎、前朱雀、后玄武”的理想模式，吸引了历代名人雅士来此修身隐居。商代国王武丁和奴隶出身的宰相傅说都曾在此居住生活。历代文人墨客多与嵩山少室，东海蓬莱，四川娥眉，三峡诸峰媲美。现代旅游专家学者以王相岩之雄，王相九峰之秀，登山道路之险，山间景观之奇，称之为“太行之魂”。"}}, {"title": "安阳博物馆", "address": "安阳市文峰区文明大道436号", "image": "", "rank": 4, "time": 1.5, "location": {"lat": 36.096981797886784, "lng": 114.32358405708133}, "feature": {"sight_features": "", "sight_content": ""}}, {"title": "羑里城", "address": "安阳市汤阴县韩庄乡文王路中段", "image": "", "rank": 5, "time": 2.5, "location": {"lat": 35.94929885523945, "lng": 114.360983711745}, "feature": {"sight_features": "特色1 世界遗存最早的国家监狱", "sight_content": "羑里城位于“千年古县”汤阴县城北2公里处，是风靡全球的《周易》的发祥地，中华文化的原点，全国重点文物保护单位，国家AAAA级旅游景区，也是我国历史上有文字记载的第一座国家监狱，安阳市优秀爱国主义教育基地，河南省“百佳”摄影创作基地。它以博大精深的文化内涵而名扬海内外，“画地为牢”、“文王拘而演周易”的历史典故发生在这里，“逆境发愤”、“自强不息”的民族精神也源于此地。\n周文王姓姬名昌（公元前1213年—公元前1117年），史称西伯，是商末周族的领袖。他广施仁政，礼贤下士，发展生产，深得人民拥戴，由此引起商王纣（后称殷纣王）的猜忌和不满，昏庸残暴的殷纣王听信谗言，将姬昌囚禁于当时的国家监狱－－羑里城。姬昌被囚后，殷纣王以种种野蛮手段对其进行侮辱和折磨，甚至残忍地将其长子杀害做成肉汤，尔后逼其吞食，而姬昌强忍悲痛，不屈不挠，发愤治学。囚禁7年，文王自强不息，每日在羑里城内夜观天象，苦钻研究，终将伏羲的先天八卦演易为后天八卦，进而推演为六十四卦并系以爻辞，完成了《周易》这部千古不朽的著作。\n历史人物中诸葛亮、张仲景、纪晓岚等都深研过《周易》，诸葛亮的八卦阵就是由《周易》创造而来。早在1993年，羑里城八卦迷魂阵就是根据周文王的九宫八卦而搭建大型真人迷宫，现今八卦迷宫重新翻修改造，共占地2735平方米，将会给游客们带来更丰富的探索乐趣。\n随着4月暖春的到来，空气中散发着绿色的气息，羑里城内绿树成荫、百花齐放，阴阳鱼池中鱼儿成群结队、游游荡荡，大门外大型迎宾古装剧《文王出禁》也重新开演了。《文王出禁》是根据文王在羑里城被囚禁七年，身处逆境，意志不灭，著成《周易》这部千古不朽的文化经典后获释出禁的故事编排而成。"}}, {"title": "汤阴岳飞庙", "address": "汤阴县岳庙街84号", "image": "", "rank": 6, "time": 1.5, "location": {"lat": 35.926126629597924, "lng": 114.36106156968017}, "feature": {"sight_features": "特色1 纪念民族英雄岳飞而建祠庙", "sight_content": "汤阴岳飞庙景区，原名精忠庙，位于河南省汤阴县城内西南街。汤阴岳飞庙始建时间无考，今址是明景泰元年(1450年)重建。历代曾多次作修葺，增建，至今占地6千4百余平方米，六进院落，房屋建筑100余间。汤阴岳飞庙景区内含丰富，殿堂雄伟，碑碣林立。1963年12月，汤阴岳飞庙景区被列为河南省重点文物保护单位。1978年后，经全面整修后重新开放。如今的岳飞庙建筑精湛，碑碣林立，史料翔实，陈列丰富，1995年汤阴岳飞庙景区被评为全国文博系统优秀爱国主义教育基地。2001年岳飞庙被国务院公布为全国重点文物保护单位，2006年10月，经国家旅游景区等级评定委员会的评定验收，公布为AAAA级旅游景区。\n汤阴岳飞庙景区坐北朝南，外廊呈长方形。临街大门为精忠坊，面西，是一座建造精美的木结构牌楼，斗拱型制九踩四昂重翘。坊之正中阳镌明孝宗朱祐樘赐额“宋岳忠武王庙”，两侧八字墙上用青石碣分别阳刻“忠”、“孝”两个大字。字高1.8米，遒劲端庄，格外醒目，过精忠坊为山门，坐北朝南，三开间式建筑，两侧扇形壁镶嵌有滚龙戏水浮雕，门前一对石狮分踞左右。山门檐下一排巨匾，上书“精忠报国”、“浩然正气”、“庙食千秋”，是当代书法家舒同、楚图南、肖劳的手迹。明柱上嵌有当代文学家魏巍撰书的楹联：“存巍然正气；壮故乡山河。”两侧还有一副楹联：蓬头垢面跪当前，想想当年宰相;端冕垂旒临坐上，看看今日将军.\"山门对面为施全祠，内塑施全铜像，前石阶下秦桧、王氏、万俟卨、张俊、王俊五奸党铁跪像呈镇压之势。\n拾级入岳飞庙，古柏苍劲，碑碣林立，东有肃瞻亭，西有觐光亭，仪门前两道高大的碑墙把这里辟作东西两个小院。院中各有亭子一座，东曰“肃瞻”，西曰“觐光”。在林立的碑刻中，有明清帝王谒庙诗篇，有名代重修扩建古庙胜迹的记实，更多的是历代文人学士颂扬英雄的诗词歌赋。穿过御碑亭，便是汤阴岳飞庙景区之主体建筑——正殿。该殿面阔五间18.30米。进深三间11.60米，斗拱型制为五踩重翘重昂，硬山式建筑，高10米。体态稳重，气势恢宏。殿门楣上悬有五块巨匾，分别是“乃武乃文”、“故乡俎豆”、“忠灵示泯”、“百战精威”、“乾坤正气”。其中“百战神威”和“忠灵未泯”为清帝光绪和太后慈禧所题。正殿中央为岳飞彩塑坐像，高丈余，英武魁伟，正气凛凛。上悬“还我河山”贴金巨匾。坐像两侧镶嵌张爱萍将军题写的楹联“朱仙镇血战丧敌胆，风波亭长恨遗千秋”。四周墙上，悬挂着国内现代著名书画家颂扬岳飞的书画墨宝。大殿两侧的东西庑中，为岳飞史迹陈列室。\n\n汤阴岳飞庙大殿后院，是寝殿、岳云祠、四子祠、岳珂祠、孝娥祠、三代祠等。寝殿上方悬有现代著名书法家商向前、沈鹏等题写的匾额和魏传统等的楹联，内陈列着著名的书法珍品《出师表》石刻，有刻石一百四十余方。"}}, {"title": "桃花谷", "address": "安阳市林州市石板岩乡太行大峡谷景区内", "image": "", "rank": 7, "time": 2.5, "location": {"lat": 36.17190075076166, "lng": 113.73240605521124}, "feature": {"sight_features": "", "sight_content": ""}}, {"title": "中国文字博物馆", "address": "安阳市北关区人民大道东段656号", "image": "", "rank": 8, "time": 2.5, "location": {"lat": 36.118058893496666, "lng": 114.41374734145063}, "feature": {"sight_features": "", "sight_content": ""}}, {"title": "袁林", "address": "安阳市北关区洹水北岸之太平庄近洹水北岸", "image": "", "rank": 9, "time": 2.0, "location": {"lat": 36.130280228198714, "lng": 114.36114062056505}, "feature": {"sight_features": "特色1 袁世凯及其夫人于氏中西合璧风格的大型墓葬。", "sight_content": "位于安阳市北郊洹水北岸的临府庄北地，是袁世凯的墓园所在地，现为安阳博物馆馆址所在地。墓园建筑最大的特点是中西合璧，堂院前的部分是明清皇陵的风格，堂院后的墓园部分则具有西洋建筑特色，整体看来非常别致。主要有照壁、神道、牌楼、碑亭、享堂大院等建筑。\n袁世凯，河南人，出身于一个军阀世家。他在清末民初各类党派之争中反覆无常、一直是一个炙手可热的人物，后曾在安阳洹上村隐居了三年。辛亥革命后，他窃取了革命的胜利果实，当上中华民国大总统，后来他又恢复帝制，改年号为洪宪，但迫于全国人民的压力，只坐了83天龙庭就一命呜呼了。 袁世凯（1859年—1916年），字慰庭，号容庵，是中国近代史上赫赫有名的北洋军阀鼻祖、中华民国大总统，风云一时，叱咤中国政坛。1859年9月16日，他出生在河南项城县一个世代官宦的大家族。父祖多为清朝显贵，权重一方。袁世凯早年科举不第，又逢清季兵燹，便弃文投军，依附淮军将领吴长庆门下。1892年，大清藩属朝鲜内乱，求助于清庭，袁世凯即随军入朝平乱。驻朝期间，袁世凯头脑灵活，办事机敏、干练，表现出较高的外交、军事才能，颇为清庭朝野瞩目。\n1894年受李鸿章保举为驻朝总理大臣。1895年受命以道员衔赴天津督练“新式陆军”。他仿造欧洲军制训练军队，取得极大的收获。同时在此基础上扶植自己的势力，形成了日后北洋军阀的班底。1898年参与镇压维新派。1899年任山东巡抚，逐步接近清廷的权力中枢。1901年升任直隶总督兼北洋大臣。1907年入主军机处、兼任外务部尚书。1908年宣统帝继位，受清皇室排挤，袁世凯被迫下野，隐居彰德府（今安阳市）洹上村别墅——“养寿园”。此处原为天津盐商何炳莹的一座别墅，面积约13?3公顷。袁购买后扩充改建，共建9个宅院，姬妾9人，人各一院。正厅“养寿堂”为袁的居室。 宅中置有花园，题名“养寿园”，并开天平渠引漳河水入园，小溪长流，山林峻石，亭台水榭。宅四周筑高大围墙，建有炮台，由当局派两营马队护卫，俨然像一座城堡。袁世凯择居洹上，尽管他每天草笠木履，从舟垂钓，自称洹上渔翁、容庵老人，好像谢绝尘世的样子，但却无时无刻不流露出他重登政治舞台的野心。洹上村筑有铁路专线，时与朝野要人来往，并设有电报房。袁虽身居乡野，其触角却伸向四面八方，每天都要用一两个小时处理电信“公务”。1911年10月辛亥革命爆发，使他终于得到东山再起的时机。他先迫使清廷起用他出任内阁总理大臣，独揽了军政大权，后又窃取了中华民国大总统的宝座。1915年复辟帝制，自称“洪宪皇帝”。1916年3月，这个称帝仅83天的窃国大盗，在全国人民一片声讨声中被迫下台。同年6月毙命。北京政府依照袁“扶柩回籍，葬我洹上”的遗愿，在安阳洹上村东北的太平庄北侧，建造了一座帝陵式的大型陵墓，葬袁于此，人称“袁林”。"}}, {"title": "万泉湖", "address": "安阳市林州市临淇镇", "image": "", "rank": 10, "time": null, "location": {"lat": 35.777712503202864, "lng": 113.89815304714571}, "feature": {"sight_features": "特色1 清泉涓流，碧波浩渺，山势秀丽，绿树成荫", "sight_content": "万泉湖景区是林州主要风景名胜区之一，这里有豫北著名的涌泉群‍‍‍‍-石门涌泉。景区凭借淅河地理优势与水资源充沛精良而开辟的露天浴场，底部全面平整硬化，总面积2万余平方米，是一个不可多得的亲近山水，贴近自然，纳凉去暑的理想之地。\n万泉湖清泉涓流，碧波浩渺，山势秀丽，绿树成荫，亭台楼榭错落有致，游览小道贯穿其间。景区景观有石门古寺、沉金岛池、洞泉神水、探水神龟、慕景之椿和恩天仙桥等。"}}, {"title": "马氏庄园", "address": "安阳市安阳县蒋村镇西蒋村", "image": "", "rank": 11, "time": 3.0, "location": {"lat": 36.13156557168409, "lng": 114.11728893253941}, "feature": {"sight_features": "特色1 中州大地特色的封建官僚府第建筑标本。 特色2 晋商大院深深邃富丽的建筑艺术 特色3 整座庄园布局严谨，错落有致，古朴典雅，雄浑庄重", "sight_content": "马氏庄园（刘邓大军司令部旧址）位于安阳市西部20公里的西蒋村，是清末头品顶戴、广西、广东巡抚马丕瑶的府第，被学者称为“中州大地绝无仅有的封建官僚府第建筑标本”，“中原第一大宅”。是全国重点文物保护单位，国家4A级景区，河南省廉政教育基地。\n\n马氏庄园景区北倚寿安山，南临珠泉河，西近巍巍太行，东连华北平原，辉映于行山洹水间，尤为壮观。庄园建于清光绪至民国初期，保存完好，占地面积20000多平方米，其中建筑面积5000多平方米，共分三区六路，每路分四个庭院，九道大门，俗称“九门相照”。庄园建筑布局严谨，错落有致，古朴典雅，雄浑庄重，既有典型的北京四合院宽敞明亮的建筑风格，又有晋商大院深邃富丽的建筑艺术，还有中原地区蓝转灰瓦五脊六兽挂走廊的建筑特色。这里还是一处记载中国近代百年风云的历史见证，清末慈禧太后、光绪皇帝曾在这里下榻；解放战争年代，刘邓大军曾在这里设司令部。\n庄园主人马丕瑶（1831-1895年），字玉山，安阳县西蒋村人。咸丰八年中举人，同治元年登进士。曾任山西平陆、永济知县，解州、辽州知州，太原知府，山西、贵州按察使，山西、广西布政使，兵部侍郎，都察院右副督御史，广西、广东巡抚等职。他为官30余年，政绩卓著，清正廉明，忠心报国，实心爱民，深受百姓爱戴，百姓称它为“马青天”，光绪帝赞他为“百官楷模”。病逝后，光绪帝亲撰祭文，并御赐金字“鞠躬尽瘁”，诰封其为“光禄大夫和振威将军”。\n\n马丕瑶长子马吉森是著名的实业家，先后创办了安阳广益纱厂（今安阳豫北纱厂），六河沟煤矿（今邯郸峰峰矿区），开创了近代河南民族工业之先河；次子马吉樟，光绪九年进士，曾任翰林院编修，国使馆协修，湖北按察使、提法使，民国总统府秘书等职，是当时著名的书法家，曾多次掩护革命志士，并筹得巨款资助大批有志青年出国留学，意图走教育救国的道路；三女儿马青霞，是中国同盟会会员，著名的资产阶级民主革命家、教育家、社会活动家、辛亥革命女志士。孙中山曾亲题“天下为公”相赠，民国时盛传“南有秋瑾，北有青霞”之美誉。\n马氏庄园不仅是一部清末民国初期的建筑巨著，还是一处具有跨时代意义的廉政教育基地和红色景区，更是一部集儒学、建筑、风水、书法、楹联等中国传统文化于一体的百科全书。"}}, {"title": "安阳天宁寺", "address": "安阳市文峰区文峰南街2号", "image": "", "rank": 12, "time": 3.0, "location": {"lat": 36.1038985163391, "lng": 114.35606955750353}, "feature": {"sight_features": "特色1 古城安阳标志性建筑", "sight_content": "天宁寺位于安阳市文峰区文峰中路西段，天宁寺始建于隋文帝仁寿初年（601年），唐、宋、元、明、清历代增修扩建，至清乾隆三十七年（1772年）彰德府（安阳古称）知府黄邦宁维修，规模达到空前，时亭、台、楼、阁、殿、堂、庙、宇百间。据现存清乾隆三十七年“重修天宁寺图”碑记载“……明洪武间，置僧纲司于此，其规模雄壮，为南北丛林冠。寺有天宁寺塔(文峰塔)五级，由下而登，逐渐宽敞，其巅则为平台，周可容二百人，远望太行，历历在目……历年既久，请殿悉成瓦砾，唯此塔巍然独存……”塔的上身五级出檐，从下往上逐级增大。每层出檐的斗拱又不尽相同。八角檐头系有铜铎，微风吹动，叮当作响，给人以高远静穆之感。塔顶有相轮、塔刹。塔的下身四周正面，各有一门，其中正南面为真门，余为假门。\n券门首额，有砖雕二龙戏珠图像。八角均有巨龙环绕的盘龙柱，上加铁链枷锁，非常壮观。八根龙柱之间，有八幅砖浮雕佛教故事图像：正南面为三身佛像；西南角是释迦佛说法像；西面为悉达多太子诞生图像；西北角一幅是释迦佛雪山苦行修定像；北面为观音菩萨与善财龙女像；东北角是佛为天人说法像；东面一幅为释迦佛涅像；东南角是波斯慝王及王后侍佛闻法像。 这些浮雕造型生动，神情逼真，姿态自然，栩栩如生，是不可多得的艺术珍品。另据安阳县志记载：此塔建于五代周广顺二年（952年），距今已有一千多年历史，2001年定为中国国家重点文物保护单位。"}}, {"title": "洹水湾温泉", "address": "安阳市鄣德路南端", "image": "", "rank": 13, "time": 2, "location": {"lat": 36.10594098401491, "lng": 114.39950042177432}, "feature": {"sight_features": "特色1 典型的江南三段式园林布局", "sight_content": "洹水湾温泉旅游区占地1000多亩，旅游区内建设有五星级酒店、温泉、餐饮、会议中心、景观公园、真人CS，康体娱乐、别墅区。\n还有青檀、榔榆、银杏等引进国内外的200多个种类，500多个品种，共计50多万棵的名优果树、珍稀树木镶嵌在洹水湾温泉旅游区的每一个角落。"}}, {"title": "殷墟王陵遗址", "address": "安阳市洹河北岸的武官村北地", "image": "", "rank": 14, "time": 2, "location": {"lat": 36.135603332803285, "lng": 114.31932461226206}, "feature": {"sight_features": "特色1 举世闻名的司母戊方鼎出土地", "sight_content": "【景点介绍】\n殷墟王陵遗址位于安阳市洹河北岸的武官村北地，与小屯村的殷墟宫殿宗庙遗址隔河相望，与东面的洹北商城遥相呼应，共同组成了闻名中外的殷墟遗址，目前属于殷墟博物院景区内的一个景点。它东西长约450米南北宽约250米，总面积近200亩。从1933年起至今，在这里相继发现了13座大墓2000多座陪葬墓和祭祀坑，出土了数量众多制作精美的青铜器玉器石器和陶器，举世闻名的司母戊方鼎就发现于这里。\n殷墟王陵遗址是殷商王朝的陵地与祭祀场所，被国际专家学者誉为世界“第二个古埃及”，开创了中国帝王陵寝制度的先河，是我国目前已知最早最完整的王陵墓葬群，被学术界公认为殷商时期的王陵所在。它的发现，确证了殷墟商代都城的历史地位，直接推动了中国奴隶制社会的研究，成为探索中华文明起源的重要基石。殷墟王陵遗址是世界文化遗产殷墟的重要组成部分，与殷墟宫殿宗庙遗址洹北商城遗址等共同组成了殷墟遗址。建有M260大墓揭示展示和保护房工程12座王陵大墓的植被标示以及480余座祭祀坑兽祭坑展示工程等。目前，殷墟王陵遗址已成为一座初具规模的集文物保护科学研究宣传教育和旅游休闲为一体的大型遗址公园。\n【票务说明】：此景点不单独售票，购买殷墟博物院门票后，可免费乘坐电瓶车至王陵遗址区参观游览。"}}, {"title": "妇好墓", "address": "安阳市殷都区殷墟路殷墟宫殿宗庙区内", "image": "", "rank": 15, "time": 1.0, "location": {"lat": 36.12527022826624, "lng": 114.334137377274}, "feature": {"sight_features": "", "sight_content": ""}}, {"title": "太行屋脊景区", "address": "安阳市林州市石板岩太行屋脊风景区", "image": "", "rank": 16, "time": 3.5, "location": {"lat": 36.08885320844752, "lng": 113.82559018908465}, "feature": {"sight_features": "特色1 妍秀如娥嵋、雄伟胜泰山、险峻如华岳", "sight_content": "太行屋脊景区位于河南林州市石板岩境内,是南太行林虑国家重点风景区,国家AAAA级旅游区，中国书画写生基地。太行屋脊景区与王相岩、桃花谷、红旗旗渠形成系列风光带。太行屋脊景区入口有宽广清幽的太行平湖，水陆两路进入景区。太行屋脊景区面积广域，分为平湖区、叠水区，特色农业区、风情民俗区，呈循环连接之势，曲径通幽。太行屋脊景区交通便捷，境内有旅游专线直达，适宜不同游客观光。\n太行屋脊景区妍秀如娥嵋，雄伟胜泰山，险峻如华岳，深幽如衡山。红岩壁立万仞，绿树碧映千山，山山皆丰碑，处处入图画，步随景移，可游、可赏、可居、可耕、可休闲、可修身，可涤凡尘，有世外桃园人间仙境这美誉。太行屋脊景区是人们旅游观光、度假避暑、休亲娱乐、会议写生的地方。\n太行屋脊景区旅游资源丰富，即有山地景观又有水域景观，还有人文景观，集雄、奇、险、秀、幽、旷于一体，可与九寨沟、野三坡、蓬莱仙岛相媲美。这里曾是东汉光武帝刘秀逃难避居的地方，也是明代嘉靖十八年山西黎城县临下二十四世海兹舟修身养性、炼丹的地方，还是八路军储粮藏粮的地方。\n太行屋脊景区有很好的科考价值，区内太行屋脊海拔1736米，是南太行林虑山景区的最高处，五、六十年代曾被国防部门设立过国防标尺，太行屋脊景区有河谷、墁崭、山顶三种不同地貌景观，有前震旦纪、震旦纪、寒武纪、奥陶纪四种地质年代，是典型的嶂石岩地貌，景区水资源丰富， 圣水泉（马创泉）是景区最大的水洙源，枯水季节也有6—7寸流量，丰雨季节可达460个流量。太行屋脊景区植被良好，植被覆盖率达95%以上，区内负氧离子含量极高，每平方厘米空气中高达4000个，被誉之为“天然氧吧”。景区自然生态良好，兽类、禽类、爬行类动物繁衍生息，给景区带来了勃勃生机的景象。\n太行屋脊景区主要景点有：亚洲第一堆石大坝、地质电梯、坝底廊道、太行平湖（刘秀湖）、葚子构民族村、黑龙庙、紫云桥、潇湘潭、刘秀石、圣相岩、渡云栈道、炼丹岩、悬潭、九连泻玉瀑、圣水瑶池、木锅寺、碓臼洼中药材生产基地、槐树洼采摘区蔬菜生产基地、紫云山庄、紫云顶观景台、金牛拉磨、九连绝顶、太行石林；天坑地洞、乔子洞。"}}, {"title": "仙台山", "address": "安阳市林州市石板岩乡太行隧洞西口", "image": "", "rank": 17, "time": 7.5, "location": {"lat": 36.17190075076166, "lng": 113.73240605521124}, "feature": {"sight_features": "特色1 山花烂漫，枝头鸟啼", "sight_content": "林州仙台山位于林州市石板岩乡太行隧洞西口。1993年由县电业局，石板岩乡政府、郭家庄奥峡集团总公司三家投资86万元开发。历经3年多时间，于1995年5月1日正式开放。\n仙台山景观分上、中、下层，最下一层的仙台山牌坊，用太行山南麓独有的大红袍石料建筑，风格别致，步石台阶经通天门，攀栏直上通天峡，过一崭，一步一景点，一石一奇观。\n有卧鹰岩、雀吸岩，如来讲经，蘑菇石，蝴蝶展翅石，青蛙望日等。东西北三面悬空。\n亭内小憩，可观远处的仙桃山，佛招手，华山，太行大佛，三马拉轿，宇宙飞船等远景。亭后金龟驮石，鸳鸯鸽和神龟探海等景，形象逼真，过弥勒佛，八仙阁，到女娲补天石，可攀缘到望眼欲空的望情眼一观。攀上小崭，悬空还有一观音洞，洞上的崖缝里长出一桔柑五角枫。观间洞旁有高30.96米的观音菩萨塑像，又称观日出峰。仙台山同年四季，景色各异。山花烂漫，枝头鸟啼。夏天，高瀑流水，青山如洗。秋天，满坡红叶，层林改尽染。冬天，林海冰柱，蔚为大观。\n仙台山主峰海拔1195米。山峰奇秀，俨然一尊大佛巍然屹立，树木繁多，自然景色优美，每至汛期，百泉汇合飞流直下，山光水影，宛如银河倒悬，仙朗凌空，故名仙台山。 晚秋时节，漫山遍野的红叶使仙台山一片火红，令游人流连忘返。"}}, {"title": "文峰塔", "address": "安阳市文峰南街2号", "image": "", "rank": 18, "time": 2.0, "location": {"lat": 36.1038985163391, "lng": 114.35606955750353}, "feature": {"sight_features": "特色1 一反常规，塔身上大下小，呈伞状，为国内外罕见！ 特色2 浮雕生动，栩栩如生，是不可多得的艺术品！ 特色3 安阳历史性地表建筑，值得一看！", "sight_content": "位于安阳老城西北隅，天宁寺旧址的文峰塔，原名“天宁寺塔”，因位于旧彰德府文庙的东北方，代表当地“文风”的象征，故又称“文峰塔”。文峰塔的建筑因富有独特的风格而闻名，其特殊在于一反常规形制，由下往上一层大于一层，逐渐地宽敞，整体呈伞状形式上大而下小，在中国古塔中以及国内外为所罕见文峰塔高38.65米，塔基周长40米。砖身木檐。八角形的塔身立于圆形莲花座上，莲瓣共7层，上下交错，左右舒展，上承塔身，下护塔基，把塔装饰得更为美丽壮观。\n\n塔的上身五级出檐，从下往上逐级增大。每层出檐的斗拱又不尽相同。八角檐头系有铜铎，微风吹动，叮当作响，给人以高远静穆之感。塔顶有相轮、塔刹。塔的下身四周正面，各有一门，其中正南面为真门，余为假门。券门首额，有砖雕二龙戏珠图像。八角均有巨龙环绕的盘龙柱，上加铁链枷锁，非常壮观。八根龙柱之间，有八幅砖浮雕佛教故事图像：正南面为三身佛像；西南角是释迦佛说法像；西面为悉达多太子诞生图像；西北角一幅是释迦佛雪山苦行修定像；北面为观音菩萨与善财龙女像；东北角是佛为天人说法像；东面一幅为释迦佛涅 像；东南角是波斯慝王及王后侍佛闻法像。这些浮雕造型生动，神情逼真，姿态自然，栩栩如生，是不可多得的艺术珍品。文峰塔是为砖塔，门上部的塔身八面，装饰有砖雕的佛教故事浮雕造像。在八根龙柱之间，正有八幅佛教故事造像：东面为释迦牟尼佛涅盘像；西面为悉达多太子诞生图像；南面为三圣佛像；北面为观世音菩萨与善财童子和龙女像；西南面是释迦牟尼佛说法图；西北面是释迦牟尼佛雪山苦行修定图像；东南面是波斯慝王及王后侍佛闻法像；东北面是释迦牟尼佛为天人说法像。浮雕神情逼真，造型生动，姿态自然，为古代砖雕艺术不可多得的珍品。"}}, {"title": "红旗渠青年洞", "address": "安阳市林州市228省道", "image": "", "rank": 19, "time": 2.5, "location": {"lat": 36.36043864412203, "lng": 113.78292849261865}, "feature": {"sight_features": "特色1 是全国重点文物保护单位，被世人称之为“人工天河”，在国际上被誉为“世界第八大奇迹”。盘绕在太行山腰悬崖绝壁之上雄伟险要的红旗渠与“雄、险、奇、秀”的林山自然风景和名胜古迹巧妙地融汇结合。", "sight_content": "红旗渠是20世纪60年代，林县人民在极其艰难的条件下，从太行山腰修建的引漳入林工程。是全国重点文物保护单位，被世人称之为“人工天河”，在国际上被誉为“世界第八大奇迹”。盘绕在太行山腰悬崖绝壁之上雄伟险要的红旗渠与“雄、险、奇、秀”的林山自然风景和名胜古迹巧妙地融汇结合。\n红旗渠景区由“分水苑”、“青年洞“、“络丝潭”三个景区组成。三景区各有特点，风调不同，内涵盈连，相映成体。\n红旗渠——分水苑风景区\n分水苑风景区是一园林式景区，也是红旗渠总干渠分为三条干渠的地方。距市区18公里，位于林虑山北部向东分支的大驼岭、猫儿岭之间凹腰处，原名：“坟头岭”，后因之改名为“分水岭”。这里各景点排列有序，规划严整，翠柏簇拥，渠水奔腾。真可谓“山水秀丽”，令人“心旷神怡”。\n红旗渠——青年洞风景区\n青年洞风景区由分水苑风景区驱车上行30公里，即可达青年洞风景区。这里山高路险，红旗渠悬挂在巍峨雄险的太行山悬崖绝壁之上，更使你领略到“人工天河”的无尽诗意，主景“青年洞”靠断壁而凿，从大山之中穿通而过，为你展现出一幅雄壮的画卷，将太行美景“雄、险、奇、秀”凝集于此，极目远眺，尽收眼底，惊诧之余，唯有赞叹。\n红旗渠——络丝潭风景区\n络丝潭风景区络丝潭风景区坐落在青年洞西约1公里处，亦名“天桥断”。“络丝潭”因其潭深一络蚕丝而得名，又因浊漳河有“九峡十八断”，此处乃一较大断崭跌水，上有连接豫、冀两省的峡谷索桥，故称“天桥断”。这里有漳河名胜“小三峡”，可放艇畅游而尽享潭中山水风光；有神秘莫测的“神龟洞”，可欣赏神龟救民的美丽传说；还有凌空高悬的“铁索桥”等古迹名胜。"}}, {"title": "洹园", "address": "安阳市北关区彰德路北段", "image": "", "rank": 20, "time": 2.5, "location": {"lat": 36.13718564871434, "lng": 114.36354125220991}, "feature": {"sight_features": "", "sight_content": ""}}, {"title": "道口镇", "address": "安阳市滑县道口镇", "image": "", "rank": 21, "time": 3.0, "location": {"lat": 35.578963618811386, "lng": 114.52150425712068}, "feature": {"sight_features": "", "sight_content": ""}}, {"title": "安阳人民公园", "address": "安阳市文峰区解放大道与东风路交叉口", "image": "", "rank": 22, "time": 2.5, "location": {"lat": 36.11135755083973, "lng": 114.37127175053033}, "feature": {"sight_features": "", "sight_content": ""}}, {"title": "王相岩", "address": "安阳市林州市石板岩乡太行大峡谷景区内", "image": "", "rank": 23, "time": 2.5, "location": {"lat": 36.17190075076166, "lng": 113.73240605521124}, "feature": {"sight_features": "", "sight_content": ""}}, {"title": "太行大峡谷漂流", "address": "安阳市林州石板岩乡", "image": "", "rank": 24, "time": 2, "location": {"lat": 36.17190075076166, "lng": 113.73240605521124}, "feature": {"sight_features": "特色1 “晒不黑的漂流”，是名符其实的“生态氧吧漂流”！ 特色2 漂流设施先进，居省内前列，建有全程监控系统！ 特色3 带给您全新的漂流体验！", "sight_content": "太行大峡谷漂流位于国家5A级旅游区、国家重点风景名胜区、国家地质公园—河南林州太行大峡谷。漂流全长4500m，落差85m，全程位于山地森林带，河道两侧林木葱郁，景色壮观，被称为“晒不黑的漂流”，是名符其实的“生态氧吧漂流”\n太行大峡谷漂流设施先进，居省内前列，建有全程监控系统，空气能热泵热水供应，一定能带给您全新的漂流体验。"}}, {"title": "天之瑶温泉度假村", "address": "安阳市文峰区中华路与幸福大道交叉口向东3公里宝莲寺镇林场", "image": "", "rank": 25, "time": 2, "location": {"lat": 36.09172606150078, "lng": 114.39580760639913}, "feature": {"sight_features": "", "sight_content": ""}}, {"title": "长春观", "address": "安阳市安阳县善应镇善应镇南海路1号(近小南海风景旅游区)", "image": "", "rank": 26, "time": 1.5, "location": {"lat": 36.04548823727946, "lng": 114.10687717732264}, "feature": {"sight_features": "特色1 长春观集养生度假、休闲娱乐为一体的综合旅游景区。", "sight_content": "长春观位于安阳市龙安区善应镇西约1公里处的白玉山腰，坐西向东，创建于唐代。长春观是以全真龙门派的祖师丘处机真人，道号“长春子”而命名的。景区布局气势恢宏，给人一种错落有致、布局合理的建筑美感，形成以道教建筑景观、朝觐文化和后山自然风光为主的宗教信仰、养生度假、休闲娱乐为一体的综合旅游景区。"}}, {"title": "殷墟车马坑", "address": "殷墟宫殿宗庙遗址内", "image": "", "rank": 27, "time": 2, "location": {"lat": 36.12755309226445, "lng": 114.33081736587191}, "feature": {"sight_features": "", "sight_content": ""}}, {"title": "二帝陵", "address": "安阳市内黄县兰前线", "image": "", "rank": 28, "time": 1.0, "location": {"lat": 35.85051329343861, "lng": 114.78122492609893}, "feature": {"sight_features": "", "sight_content": ""}}, {"title": "三角湖公园", "address": "河南省安阳市文峰区丁家巷南环城西段", "image": "", "rank": 29, "time": 2, "location": {"lat": 36.09943770956379, "lng": 114.35502621428084}, "feature": {"sight_features": "", "sight_content": ""}}, {"title": "天平山风景区", "address": "安阳市林州市桃源乡（市区西6公里）", "image": "", "rank": 30, "time": 4.5, "location": {"lat": 36.08885320844752, "lng": 113.82559018908465}, "feature": {"sight_features": "特色1 素有“北雄风光最胜处”之美誉", "sight_content": "天平山风景区位于河南省林州市城郊乡桃园村，林虑山国家重点风景名胜区的中段，介于113°37′—114°04′，北纬35°41′—36°22′之间。是国家AAA级景区、林州市首家慈善景区，东距林州市区6公里。景区面积约25平方公里，海拔最高处1671米，交通便利，区位条件优越。\n\n\n天平山，因其“峰势峻极，上平于天”而得名，景区以北雄风光、千年驿道、莲花佛国、天平飞瀑为主要景点，素有“北雄风光最胜处”的美誉，宋代三朝宰相韩琦曾赞曰“林虑天平山者，天下绝胜之境也，雄伟秀拔，虽江南诸山素有名者，皆所不及”\n天平山最高峰海拔1671米，景区内飞瀑流泉，奇洞怪石，自然景观壮丽。千年古驿道，千年古寺天平寺，荆轲出生地，人文景观更是丰富。天平山有六大峰、五小峰，诸峰回环连接成整体连通之巨嶂，高昂险峻，直刺苍穹。区内清溪蜿蜒，水声潺潺。三步一瀑，五一步潭，青山、密林、繁花交相辉映，妙趣天成。"}}, {"title": "明福寺", "address": "安阳市滑县城关镇滑州路", "image": "", "rank": 31, "time": 1.5, "location": {"lat": 35.58128860769767, "lng": 114.5365297408774}, "feature": {"sight_features": "", "sight_content": ""}}, {"title": "殷墟甲骨文碑林", "address": "殷墟宫殿宗庙遗址内", "image": "", "rank": 32, "time": 2, "location": {"lat": 36.12755309226445, "lng": 114.33081736587191}, "feature": {"sight_features": "", "sight_content": ""}}, {"title": "龙安滑雪场", "address": "安阳市龙安区马投涧水涧村", "image": "", "rank": 33, "time": 2, "location": {"lat": 36.08275278362011, "lng": 114.30759316809856}, "feature": {"sight_features": "", "sight_content": ""}}, {"title": "甲骨窖穴", "address": "殷墟宫殿宗庙遗址内", "image": "", "rank": 34, "time": 2, "location": {"lat": 36.12755309226445, "lng": 114.33081736587191}, "feature": {"sight_features": "", "sight_content": ""}}, {"title": "五龙洞", "address": "林州市五龙镇", "image": "", "rank": 35, "time": 1.0, "location": {"lat": 35.7787522047569, "lng": 113.99030855114236}, "feature": {"sight_features": "特色1 亿年溶洞群、千年清风寺", "sight_content": "五龙洞国家森林公园，位于林州市五龙镇境内，地处安阳林州，鹤壁淇县和新乡卫辉三县（市）交界处，地理位置优越，交通十分便捷。这里地处太行山淇山脉东端，东西长7公里，南北宽6公里，总面积2525公顷，分“五龙洞、四道沟、鸡冠山和驴驮沟四大景区。景区风山势宏厚苍劲，危岩壁立，怪石嶙峋；山坡植被茂密，树木葱郁，林海茫茫；溶洞幽穴星罗棋布，山泉溪流通遍布山涧……\n\n五龙洞国家森林公园不仅自然风光独特壮观，同时人文景观也相当丰富，自唐朝以来，这里就是邻近几县百姓祈雨的主要场所，历代僧人道姑也多在此出家，使之成为远近闻名的宗教圣地。洞天福地，曲径通幽，松涛密林，凉亭清风，森林景观与山水风光相辉映，人文景观与民间传说相交融。畅游五龙洞将会给你一种心情舒畅，飘然世外之感。"}}, {"title": "小南海风景区", "address": "安阳市安阳县善应镇", "image": "", "rank": 36, "time": 2.5, "location": {"lat": 36.04370921432014, "lng": 114.10919730013278}, "feature": {"sight_features": "", "sight_content": ""}}, {"title": "林虑山国际滑翔基地", "address": "林州市姚村迎宾大道西段南侧", "image": "", "rank": 37, "time": 2, "location": {"lat": 36.18354140599413, "lng": 113.81823041695668}, "feature": {"sight_features": "特色1 飞翔爱好者的体验基地。", "sight_content": "【玩乐介绍--滑翔伞体验】\n滑翔伞的体验飞行是指由滑翔伞教练员带领下的双人无动力滑翔飞行。参与人员不需要经过任何的专业培训。只要您身体健康，热爱飞翔，就可以在专业的滑翔伞教练员的带飞下，体验一下在林虑山最清澈湛蓝的天空下，太行大峡谷的怀抱中恣意翱翔的畅快和洒脱。不一样的自由，不一样的快感，不一样的刺激，不一样的美妙……\n飞行时间因气象及个人身体状况不同而不同，平均为20分钟左右。\n【飞行基地--林虑山国际滑翔基地】\n林虑山国际滑翔基地位于河南省林州市境内的太行山（又称林虑山）东侧，自1987年被发现以来，被国际航协赞誉为“亚洲第一、世界一流”的飞行场地。曾多次承办FAI滑翔伞一类赛事，也是我国目前承办的级别最高的滑翔伞赛事。目前已正式开发了符合国际标准的起飞场及降落场，空域开阔，可容纳数十具飞行器同时起飞。同时，被批准使用3000米以下的飞行使用空域和固定无线电频率。\n【商家介绍】\n林州滑翔俱乐部是伞友共同出资组建的股份制滑翔伞俱乐部，拥有亚洲最好的的飞行场地之一和资深的国家级教练员团队，常年开展滑翔伞培训、双人伞体验飞行、大型赛事组织、专业器材销售等业务，是中国职业滑翔飞行的代表。被伞友们誉为\"中国滑翔伞的摇篮\"和职业滑翔伞的\"黄埔军校\"。\"将滑翔作为一项事业来开拓，作为一项产业来发展，作为一种文化来培养，作为一种绿色健康的生活方式来倡导\"是林州滑翔俱乐部一贯秉承的理念。"}}, {"title": "冰冰背", "address": "安阳市林州市石板岩乡韩家洼村", "image": "", "rank": 38, "time": 2.5, "location": {"lat": 36.21559383688109, "lng": 113.72732984935067}, "feature": {"sight_features": "", "sight_content": ""}}, {"title": "洹水湾生态采摘园", "address": "安阳市长江大道与彰德路交叉口向南200米路西", "image": "", "rank": 39, "time": 2, "location": {"lat": 36.05353678604749, "lng": 114.35223099924579}, "feature": {"sight_features": "", "sight_content": ""}}, {"title": "万海海洋世界", "address": "安阳市北关区彰德路与灯塔路交叉口万意广场一楼", "image": "", "rank": 40, "time": 7.5, "location": {"lat": 36.11300770521211, "lng": 114.35297517978451}, "feature": {"sight_features": "特色1 集海洋生物展示、科普教育、儿童体验互动、动物表演为一体的综合性海洋主题乐园！ 特色2 特有的中原唯一落地式美人鱼表演视窗和亚特兰蒂斯海底隧道让您充分感受“人在海中走，鱼在身边游”的奇妙感觉！", "sight_content": "安阳万海海洋世界――是集海洋生物展示、海洋科普教育、儿童体验互动、动物表演为一体的综合性海洋主题乐园，特有的中原唯一落地式美人鱼表演视窗和亚特兰蒂斯海底隧道让您充分感受“人在海中走，鱼在身边游”的奇妙感觉。"}}, {"title": "黄华山景区", "address": "安阳市林州市西7公里林滤山", "image": "", "rank": 41, "time": 2, "location": {"lat": 36.08885320844752, "lng": 113.76270880338619}, "feature": {"sight_features": "", "sight_content": ""}}, {"title": "嘉禾滑雪场", "address": "安阳市文峰区中华路南段宝莲寺（安林高速南3.5公里路西）", "image": "", "rank": 42, "time": 2, "location": {"lat": 36.10233565411272, "lng": 114.39562243688776}, "feature": {"sight_features": "", "sight_content": ""}}, {"title": "洹水湾滑雪场", "address": "安阳市彰德路与长江大道交叉口往南500米", "image": "", "rank": 43, "time": 2, "location": {"lat": 36.051348298388, "lng": 114.35223099924579}, "feature": {"sight_features": "", "sight_content": ""}}, {"title": "岳飞先茔", "address": "安阳市汤阴县古贤乡南周流村", "image": "", "rank": 44, "time": 1.5, "location": {"lat": 35.95020218256055, "lng": 114.49100145361373}, "feature": {"sight_features": "", "sight_content": ""}}, {"title": "嘉禾高尔夫", "address": "安阳市文峰区中华路宝莲寺（过安林高速向南3.5公里路西）", "image": "", "rank": 45, "time": 0.5, "location": {"lat": 36.01605362444314, "lng": 114.36236734656947}, "feature": {"sight_features": "", "sight_content": ""}}, {"title": "林虑山", "address": "河南省安阳市林州市河南", "image": "", "rank": 46, "time": 2, "location": {"lat": 36.08885320844752, "lng": 113.82559018908465}, "feature": {"sight_features": "", "sight_content": ""}}, {"title": "民间艺术博物馆", "address": "河南省安阳市文峰区鼓楼东街", "image": "", "rank": 47, "time": 2.0, "location": {"lat": 36.101924068935766, "lng": 114.36097745504713}, "feature": {"sight_features": "", "sight_content": ""}}, {"title": "林州市洪谷山风景区", "address": "安阳市林州市合涧镇洪谷山景区", "image": "", "rank": 48, "time": 4.5, "location": {"lat": 35.98505302628176, "lng": 113.73951576154288}, "feature": {"sight_features": "特色1 北方山水画派鼻祖荆浩长期隐居之地！ 特色2 “文物宝谷”，省级以上文物保护单位占全市近半！ 特色3 洪谷山是历史上著名的皇家佛教法场！", "sight_content": "洪谷山风景名胜区位于人工天河红旗渠的故乡，晋冀豫三省交界处的河南省林州市，是闻名中外的宗教胜地，国家aaaa级旅游景区，北方全景山水画派创始人荆浩隐居地，文化山水底蕴雄厚，现有国保两处、省保五处，市保二处，被称为文物宝谷，是国家重点风景名胜区林虑山之首，国家森林公园。\n\n\n洪谷山风景名胜区位于人工天河红旗渠的故乡，晋冀豫三省交界处的河南省林州市，是闻名中外的宗教胜地，北方全景山水画派创始人荆浩隐居地，文化山水底蕴雄厚。现有国保两处、省保五处，市保二处，被称为文物宝谷。区内峰岭奇秀，溪流迂回，境界清幽，文化遗存丰富，其开发建设符合国家产业政策，符合林州市旅游城市的发展方向。洪谷山风景区以其独特的文化底蕴成为安阳大旅游发展中的重要一环，列入林州市“十二五”规划重点旅游项目。\n\n项目将依托突兀的洪谷山峰，幽深的太行峡谷，旖旎的太行风光以及良好的生态自然环境，提供由奇峰秀水、古木怪石组成的绚丽多姿的自然山水观光游览线路；依托中国山水画开山鼻祖荆浩隐居处的文化资源，提供书画艺术文化活动场所及写生基地旅游产品；依托恢宏的佛教寺庙群落，提供佛教文化旅游产品；建设成为独具特色的aaaaa级景区，为游客提供一个优美、清新、环保、安全、健康的观光休闲胜地。"}}, {"title": "天之瑶滑雪场", "address": "安阳市文峰区中华路与幸福大道交叉口向东3公里路南", "image": "", "rank": 49, "time": 2, "location": {"lat": 36.09172606150078, "lng": 114.39580760639913}, "feature": {"sight_features": "", "sight_content": ""}}, {"title": "岳飞故里", "address": "汤阴县菜园镇程岗村", "image": "", "rank": 50, "time": 2, "location": {"lat": 35.96812113742558, "lng": 114.52176176537817}, "feature": {"sight_features": "", "sight_content": ""}}, {"title": "韩王庙", "address": "安阳市文峰区文化路与文明大道交叉口向北200米路东安阳韩王庙景区", "image": "", "rank": 51, "time": null, "location": {"lat": 36.09683274813585, "lng": 114.36337398772396}, "feature": {"sight_features": "", "sight_content": ""}}, {"title": "安阳钟鼓楼", "address": "河南省安阳市文峰区北大街20号", "image": "", "rank": 52, "time": 2.0, "location": {"lat": 36.10969584967776, "lng": 114.36026261181892}, "feature": {"sight_features": "", "sight_content": ""}}, {"title": "颛顼帝喾陵", "address": "安阳市内黄县梁庄镇三杨庄村", "image": "", "rank": 53, "time": 1.0, "location": {"lat": 35.7338235794602, "lng": 114.78113384151345}, "feature": {"sight_features": "特色1 上古帝王颛顼帝喾之陵墓", "sight_content": "颛顼帝喾陵位于河南省安阳市内黄县梁庄镇，史载二帝葬于“鲋山之阳”，即指此处。\n封土冢南北长约65米，东西宽约54米，顶高25米，陵墓底部都残存有高1米左右的砖砌陵墙，南面陵墙上分别镶嵌有“颛顼陵”和“帝喾陵”石碑各一通。 院中元代石碑记载，砖砌围墙系元代天历二年重修时所筑。\n在二帝陵庙之前的高台地上，还残存有元代至元十一年重修的陵庙拜殿和左右配殿。\n近几年，在拜殿和配殿前后清理出历代碑碣165通。为元、明、清时期的遗物，内容多为历代王朝派遣特使来此祭奠的祭文、历代重修陵庙的庙记，以及文人墨客的拜谒赋诗。据史料记载，昔日二陵建筑宏伟，古朴典雅，碑碣林立，松柏蓊郁。清末被黄沙湮埋，1986年清沙时重见天日。经考古确认均为汉代初建、元代修缮，发现有御桥、御道、神道、水井、山门、棂星门、庙院、寝殿、享殿等基址。其中165通历朝历代祭祀碑，古朴苍劲，记录帝陵的历史。颛顼陵有元、清标志碑，帝喾陵有明代标志碑。元、明、清三代陵碑均立于两位上古帝王陵前，实属罕见。"}}, {"title": "千瀑沟", "address": "林州市小碾村（市区以南约30公里）", "image": "", "rank": 54, "time": 2, "location": {"lat": 35.81961009379408, "lng": 113.79548054784857}, "feature": {"sight_features": "", "sight_content": ""}}, {"title": "黄华神苑", "address": "河南省安阳市林州市", "image": "", "rank": 55, "time": 2, "location": {"lat": 36.08885320844752, "lng": 113.82559018908465}, "feature": {"sight_features": "", "sight_content": ""}}, {"title": "飞行体验-林州航空运动俱乐部", "address": "安阳林州市红旗渠大道西段路", "image": "", "rank": 56, "time": 2, "location": {"lat": 36.097174182176246, "lng": 113.7649529807536}, "feature": {"sight_features": "特色1 可体验滑翔伞、直升机", "sight_content": "林州航空运动俱乐部隶属于河南中宇通航，拥有轿顶山国际滑翔基地、横水小山训练基地、动力三角翼起降场。同时建设有YHA红旗渠国际青年旅舍、室内国标游泳馆、健身会所、户外拓展中心等一系列配套设施。\n林州航空运动俱乐部一直致力于让更多的人实现飞翔！针对不同客户需求，我们会为您量身定制个性化高端飞行体验，满足您的户外拓展、旅游观光、民俗体验、休闲度假等要求。\n直升机是以一个或多个大型水平旋转的旋翼提供向上升力，可以垂直升降，也可以旋停在半空，能够自由飞行。我们在林州开设专用航拍线路，配套必要商业旅游的设施，将景区山居文化、高山摄影，历史文化与航空旅游相结合，带您空中鸟瞰红旗渠、太行山大峡谷。\n滑翔伞可以说是全球最流行的滑翔运动了，其低廉的价格以及它的便携性，受到众多滑翔爱好者的青睐，随着技术的革新，折叠打包后越来越小，越来越轻便的装备让您背着伞包伞行天下，更是一个全新的旅行方式让爱好者们跃跃欲试！很多人把滑翔伞误认为跳伞，和跳伞最大的区别就是，滑翔伞是可以通过山坡起飞，盘升气流而达到滑翔的目的，跳伞是从高空跳下，并不能盘升气流而滑翔。\n跟着滑翔伞御风而行，排云之上，到天际遨游！新奇、好玩、刺激这三种元素不断冲击着大脑。放飞的不仅是身体，还有纯净忘我的心境。\n动力三角翼是航空运动领域中最受欢迎的一种轻型动力的飞行器，被国际航联评为一类飞行器（最安全飞行器），机动性和飞翔的完美结合，平地滑翔直上云霄，可带您在空中鸟瞰太行山、红旗渠、林州市区，必将带给您前所未有空中飞翔体验。\n俱乐部拥有国内专业的三角翼跑道，长300米，宽18米。驱车到俱乐部听取介绍，乘俱乐部专车来到三角翼起降场，带上头盔，系好安全带，教练员准备起飞。机动性和飞翔的完美结合，平地滑翔直上云霄，让身体真正感受到空中的气流。道路、村庄、汽车、行人尽收眼底，体会着飞翔带来的新奇和刺激。"}}, {"title": "珍珠泉", "address": "安阳城水冶镇西侧", "image": "", "rank": 57, "time": 0.5, "location": {"lat": 36.13333124411893, "lng": 114.15199685505388}, "feature": {"sight_features": "", "sight_content": ""}}, {"title": "高阁寺", "address": "", "image": "", "rank": 58, "time": 2.0, "location": {"lat": 36.10185915924193, "lng": 114.36460331881436}, "feature": {"sight_features": "", "sight_content": ""}}, {"title": "洹北商城遗址", "address": "洹河北岸花园庄", "image": "", "rank": 59, "time": 2, "location": {"lat": 33.65341983588134, "lng": 112.78082905221947}, "feature": {"sight_features": "", "sight_content": ""}}]}