{"cityName": "安义", "days": null, "cityImage": "", "spots": [{"title": "安义古村", "address": "南昌市安义县西郊西山梅岭", "image": "", "rank": 1, "time": 3.5, "location": {"lat": 28.797385156081006, "lng": 115.75934783151605}, "feature": {"sight_features": "特色1 南昌“新豫章十景”，由罗田、水南、京台三大自然村连缀而成", "sight_content": "千年安义古村群风景名胜区位于江西省南昌市西郊、西山梅岭脚下。千年安义古村群由罗田、水南、京台三大古村落组成，相距1里地，三村呈品字排列，互为鼎足之势。自唐末蕲洲黄氏为避战乱迁居至此起，经历1300多年历史的罗田、水南，依旧延续着昔日商贾云集的昌盛；更为古老的京台，刘、李两大家族祖先的的荣耀激励着后人，1400年来生生不息。古村群中至今保存完好的明清古宅100多栋，古牌楼、古门楼、古街、古巷、古井、古塘、古树星罗棋布。\n\n\n安义千年古村古村群中道路曲径幽深，两旁高墙耸立，古朴的青石板小径四通八达，民居错落有致。以世大夫第、曦庐为代表的典型赣派风格明清建筑恢宏壮观：三重进五重进主体、天井、厅堂纵横、石刻门楣、雕镂门窗，无不让人赞叹古村当时高超的建筑水平和精湛的雕刻技艺；民俗馆中久远的生产生活用具、古戏台随声摆动的斗拱、墨庄弥漫的书香、沿街林立的古商铺处处浸透着古村独特的赣文化与赣商文化的墨迹。千百年来，古村曾盛极一时，也曾盛极而衰；曾大声喧哗，也曾寂然无声。不论成败得失，古村奋斗过，搏击过。它给后人留下了丰厚的历史文化遗产，它为人们研究赣商文化、赣派建筑提供了极有价值的资料。目前，安义千年古村群已被评为江西历史文化名村、江西省爱国主义教育基地、南昌“新豫章十景”和江西“十大乡村美景”。\n京台村景区:是安义古村群中最古老的村庄,至今已有一千四百年历史。该京台村古村有刘、李两大姓。刘姓村民,为汉代学者刘向后裔,初唐武德元年(公元618年)迁居此地。明初洪武年间,李氏之祖则由朝廷授封而落户于此。千年安义古村群,远离器尘,许多古建民居至\n\n今保存完好,如古村石牌坊、古村古并石槽、古戏台、砖石大门、四十八天井古屋等。\n水南村:是安义古村群三个古等村群落组成之一,水南村村民为古罗田村黄氏分支后裔。明初洪武七年(公元1369年)族祖能公”在此开新基拓水南村新村。水南村该村现存古屋规模宏大,装修考究,雕饰精美,栩栩如生,主要景点有:张勋”辫帅”打工时所出入的古村古屋、黄氏\n\n宗祠水南民俗馆。该村均为黄姓,传为祝融帝后裔为避战乱,于晚唐广明年间由湖北蕲州迁徙至此。民谣有云小小安义县,大大罗田黄。\"足见罗田黄家名声之大。该村乃当年香客赴西山万寿宫朝拜许真君的必经之地,帮店铺比肓,商贾云集,称一时之盛。该村古街、麻石板道、古车辙清晰可见,整个村庄至今保留着完整的地下排水系统。\n花田喜地”位于安义古村群的中心位置,占地约675亩,主题定位于亲情主题生态农业体验园,功能定位于依托田园景观,整合现代农业和休闲旅游的复合型农园,场地东侧保留了原生态田园景观,场地北侧临近罗田村南部,依山傍水,背靠西山,毗邻逍遥湖,三村环绕,花海相伴。"}}, {"title": "水南古村", "address": "南昌市安义县石鼻镇水南村", "image": "", "rank": 2, "time": 1.5, "location": {"lat": 28.749578425123953, "lng": 115.60972102453304}, "feature": {"sight_features": "", "sight_content": ""}}, {"title": "斐然生态旅游度假区", "address": "南昌市安义县长均乡观察村斐然生态园", "image": "", "rank": 3, "time": 2, "location": {"lat": 28.85299729515185, "lng": 115.74481810820224}, "feature": {"sight_features": "特色1 浪漫时光花海，无界生态采摘 特色2 湖畔私有菜园，有机原生餐厅", "sight_content": "花海玫瑰之恋！玫瑰音乐节来啦！\n2019安义第一届玫瑰音乐节\n向所有江西人发出邀请\n来体验一程花海与音乐的旅程\n漫步在玫瑰花林中，仿佛进入梦境；带上相机，留下处处美景！\n1\n玫瑰·浪漫花海美如虹\n绝美花海，让这个初夏风情万种\n\n上百亩花田竞相开放，极致浪漫为您而来！\n\n\n2\n花海遇上音乐狂欢\n浪漫花海遇上唯美音乐\n现场又该会上演怎样的动人演绎呢？\n\n\n景区介绍\n南昌斐然生态旅游度假区（斐然生态园）由江西省斐然生态农业科技开发有限公司创建，隶属安义县，位于梅岭风景区北侧，狮子峰脚下。距离南昌市区35公里，距离昌北国际机场20公里。园区总面积1万亩，以生态农业、休闲度假和地产开发相结合的模式，建设生态休闲农业，建造旅游度假圣地，建成生态宜居小镇。自2008年启动建设，经中国农业科学院农业环境与可持续发展研究所认证，定位为南昌市“都市现代农业科技示范区”；2012年，被评为江西省农业产业化龙头企业，被省农业厅认定为无公害蔬菜生产基地；2013年，园区被评为省级“休闲农业示范点”、列为江西省科技富民强县专项行动计划项目示范基地，江西省农业科普教育中心；被市旅游局授予“休闲、观光、度假”乡村旅游点，作为全市主要的休闲旅游景点之一。\n\n\n园区项目有：大型度假酒店，生态餐厅，时光花海，梦幻蝴蝶谷，空中索道/水上世界等大型游乐项目（筹建），以及休闲垂钓，果蔬采摘，CS/拓展，丛林探险等十几个康体项目。可承接商务会议，家庭度假，校企出游以及中小学春/秋游等各类团体活动。世界珍稀蝴蝶标本展览，“国际范”十足的标本珍品，献给南昌昆虫爱好者们的福利，见所未见，千姿百态，大饱眼福。蝴蝶科普，感受蝴蝶世界的五彩斑斓，动手制作蝴蝶图形，体会色彩和对称的魅力。寓教于乐，亲子互动，在娱乐中学到书本上没有的知识。蝴蝶仙子，卡通互动，特邀美丽的蝴蝶仙子，与大家亲密互动，带你游园！更有200亩超大规模景观花海，醉蝶花、向日葵、鸡冠花……争奇斗艳。"}}, {"title": "潦河", "address": "105国道", "image": "", "rank": 4, "time": 2, "location": {"lat": 23.06304361021549, "lng": 113.30920536063348}, "feature": {"sight_features": "", "sight_content": ""}}, {"title": "千纸鹤音乐城", "address": "解放路", "image": "", "rank": 5, "time": 2, "location": {"lat": 38.31075478654948, "lng": 116.85852551801001}, "feature": {"sight_features": "", "sight_content": ""}}, {"title": "紫园山庄", "address": "新民乡白田村", "image": "", "rank": 6, "time": 2, "location": {"lat": 28.90602283191665, "lng": 115.56188874804201}, "feature": {"sight_features": "", "sight_content": ""}}, {"title": "枧溪祠堂", "address": "南昌市安义县", "image": "", "rank": 7, "time": 2, "location": {"lat": 28.85079427375071, "lng": 115.55544146387352}, "feature": {"sight_features": "", "sight_content": ""}}, {"title": "余家祠堂", "address": "北新段附近", "image": "", "rank": 8, "time": 2, "location": {"lat": 28.877203046406176, "lng": 115.6106614713508}, "feature": {"sight_features": "", "sight_content": ""}}, {"title": "林岗沙场", "address": "长京段西50米", "image": "", "rank": 9, "time": 2, "location": {"lat": 28.775718209778507, "lng": 115.60255336582041}, "feature": {"sight_features": "", "sight_content": ""}}, {"title": "月与广场", "address": "杨梅二路与沿河东路交叉口东南50米", "image": "", "rank": 10, "time": 2, "location": {"lat": 28.844825971786502, "lng": 115.56176400754231}, "feature": {"sight_features": "", "sight_content": ""}}, {"title": "士大夫第古宅", "address": "江西省安义县石鼻镇罗田村 330506", "image": "", "rank": 11, "time": 2, "location": {"lat": 28.75396362852904, "lng": 115.61399011277284}, "feature": {"sight_features": "", "sight_content": ""}}, {"title": "安义县渡河法治主题广场", "address": "文峰路14号附3附近", "image": "", "rank": 12, "time": 2, "location": {"lat": 32.33944541494964, "lng": 118.88411513796804}, "feature": {"sight_features": "", "sight_content": ""}}, {"title": "安义清晨湖光山舍养生度假村", "address": "安义江西省南昌市安义县万埠镇(前岸村)", "image": "", "rank": 13, "time": null, "location": {"lat": 28.884560953007167, "lng": 115.6842680741528}, "feature": {"sight_features": "", "sight_content": ""}}, {"title": "清晨田园度假村", "address": "万埠镇梅基闸", "image": "", "rank": 14, "time": null, "location": {"lat": 28.897860442834567, "lng": 115.69892192711856}, "feature": {"sight_features": "", "sight_content": ""}}, {"title": "安义东方港湾度假村", "address": "骆长段附近", "image": "", "rank": 15, "time": 3.5, "location": {"lat": 28.82348190221722, "lng": 115.64255580847203}, "feature": {"sight_features": "", "sight_content": ""}}, {"title": "财富广场", "address": "南昌市安义县向阳路财富广场", "image": "", "rank": 16, "time": 2, "location": {"lat": 28.848151704931514, "lng": 115.58202642197472}, "feature": {"sight_features": "", "sight_content": ""}}, {"title": "长茅冷汉余氏宗祠", "address": "智明小学附近", "image": "", "rank": 17, "time": 2, "location": {"lat": 28.761143040913694, "lng": 115.56563022642204}, "feature": {"sight_features": "", "sight_content": ""}}, {"title": "奥普乐欢乐水世界（安义广场店）", "address": "南昌市安义县为邦国际生活广场（安义广场斜对面）", "image": "", "rank": 18, "time": 2, "location": {"lat": 28.844636470593937, "lng": 115.57921968976567}, "feature": {"sight_features": "", "sight_content": ""}}, {"title": "安义县博物馆", "address": "文峰路", "image": "", "rank": 19, "time": 2, "location": {"lat": 31.81834357238342, "lng": 121.6649969162903}, "feature": {"sight_features": "", "sight_content": ""}}, {"title": "北潦河", "address": "313省道", "image": "", "rank": 20, "time": 2, "location": {"lat": 40.47363217982258, "lng": 116.99325005466613}, "feature": {"sight_features": "", "sight_content": ""}}, {"title": "文峰塔", "address": "安阳文峰中路", "image": "", "rank": 21, "time": 2.0, "location": {"lat": 36.10334462383662, "lng": 114.37783958101224}, "feature": {"sight_features": "", "sight_content": ""}}, {"title": "五木生态园", "address": "105国道", "image": "", "rank": 22, "time": 2, "location": {"lat": 23.06304361021549, "lng": 113.30920536063348}, "feature": {"sight_features": "", "sight_content": ""}}, {"title": "熊式辉故里", "address": "014县道", "image": "", "rank": 23, "time": null, "location": {"lat": 44.35476392867931, "lng": 125.77068023846462}, "feature": {"sight_features": "", "sight_content": ""}}, {"title": "安义书画院", "address": "解放大道54号附近", "image": "", "rank": 24, "time": 3.5, "location": {"lat": 28.845131471226193, "lng": 115.5550857043493}, "feature": {"sight_features": "", "sight_content": ""}}, {"title": "自由自在唱吧", "address": "解放路", "image": "", "rank": 25, "time": 2, "location": {"lat": 38.31075478654948, "lng": 116.85852551801001}, "feature": {"sight_features": "", "sight_content": ""}}, {"title": "呼啸山庄", "address": "新桥段x064", "image": "", "rank": 26, "time": 2, "location": {"lat": 44.41969688246628, "lng": 84.70676300129851}, "feature": {"sight_features": "", "sight_content": ""}}, {"title": "绿丰家庭农庄", "address": "鼎湖镇莲花村舒家水库东北侧", "image": "", "rank": 27, "time": 2, "location": {"lat": 28.804995210340458, "lng": 115.57312753091773}, "feature": {"sight_features": "", "sight_content": ""}}, {"title": "江西省南昌市安义县步行街", "address": "江西省安义县蔚蓝嘉园步行街", "image": "", "rank": 28, "time": 2, "location": {"lat": 28.844650844695295, "lng": 115.56557127332636}, "feature": {"sight_features": "", "sight_content": ""}}, {"title": "罗田村", "address": "南昌市安义县罗田村", "image": "", "rank": 29, "time": 2, "location": {"lat": 28.75396362852904, "lng": 115.61399011277284}, "feature": {"sight_features": "", "sight_content": ""}}]}