{"cityName": "安远", "days": 2, "cityImage": "", "spots": [{"title": "三百山温泉", "address": "赣州安远县三百山镇虎岗村东江源头", "image": "", "rank": 1, "time": 2, "location": {"lat": 24.958440867781242, "lng": 115.41387278519386}, "feature": {"sight_features": "特色1 “养身”“养老”“养心”", "sight_content": "东江源三百山温泉秉承中国温泉文化之精髓，于原有天然温泉之中分别加入人参、当归、巴戟、首乌、生姜、甘草等中草药物，共计拥有各色温泉泡池88个，温泉水中富含硒、偏硅酸、锂、锌、碘等微量元素，属于偏硅酸低硫磺富硒温泉。其中，偏硅酸含量122mg/L，硒含量0.025mg/L。\n水上乐园项目详介\n大型恒温游泳池\n分有浅水区及深水区，适合不同人群，欢乐、畅快遨游。游泳对心血管系统的改善有相当重要的作用，能增强呼吸系统的功能，加大肺活量，能使皮肤的血液循环得到加强。\n动感造浪池\n能造出多种不同的巨浪喷涌而出，带来全海域舒适的感觉，仿佛投入大海的怀抱，使人心旷神怡，激情无限，趣味无穷。\n儿童水上乐园\n为儿童量身定做的嬉水乐园，拥有迷你可爱的水上滑梯、滑道，让孩子们在水上自由穿梭，安全的享受水中嬉戏的乐趣。\n亲亲鱼疗池\n当人进入温泉池中，鱼儿都围拢在人体周围，勤勤恳恳（亲亲肯肯）地“工作”，啄食人体老化皮质、细菌和毛孔排泄物，从而达到让人体毛孔畅通，排出体内垃圾和毒素的作用。同时还能更好地帮助人体吸收温泉水中的多种矿物质，加速人体新陈代谢，达到美容养颜、延年益寿的神奇功效，特别是对旅游者它不仅可以缓解一天的旅途疲劳还增加了乐趣。"}}, {"title": "三百山风景名胜区", "address": "赣州市安远县三百山镇符山村过桥垄", "image": "", "rank": 2, "time": 2, "location": {"lat": 25.001646185575332, "lng": 115.43289220081793}, "feature": {"sight_features": "", "sight_content": ""}}, {"title": "清华池温泉", "address": "327省道", "image": "", "rank": 3, "time": 2, "location": {"lat": 37.483115265356545, "lng": 114.27992652618842}, "feature": {"sight_features": "", "sight_content": ""}}, {"title": "春光美温泉", "address": "327省道", "image": "", "rank": 4, "time": 2, "location": {"lat": 37.483115265356545, "lng": 114.27992652618842}, "feature": {"sight_features": "", "sight_content": ""}}, {"title": "东江源温泉", "address": "327省道", "image": "", "rank": 5, "time": 2, "location": {"lat": 37.483115265356545, "lng": 114.27992652618842}, "feature": {"sight_features": "", "sight_content": ""}}, {"title": "四季春温泉", "address": "327省道", "image": "", "rank": 6, "time": 2, "location": {"lat": 37.483115265356545, "lng": 114.27992652618842}, "feature": {"sight_features": "", "sight_content": ""}}, {"title": "深圳永桦脐橙基地", "address": "223省道附近", "image": "", "rank": 7, "time": 2.5, "location": {"lat": 37.1020176799816, "lng": 112.02619253560626}, "feature": {"sight_features": "", "sight_content": ""}}, {"title": "安远县钟氏果业专业合作社", "address": "凤山国土资源所附近", "image": "", "rank": 8, "time": 2, "location": {"lat": 24.553217796777115, "lng": 107.04841983631258}, "feature": {"sight_features": "", "sight_content": ""}}, {"title": "三百山", "address": "江西省安远县县城东南部15公里处 342104", "image": "", "rank": 9, "time": 2, "location": {"lat": 25.14274343173196, "lng": 115.40055913128577}, "feature": {"sight_features": "", "sight_content": ""}}, {"title": "安远县图书馆(孵化园分馆)", "address": "欣山镇财富广场二楼", "image": "", "rank": 10, "time": 2, "location": {"lat": 39.05960212248988, "lng": 115.87625886666014}, "feature": {"sight_features": "", "sight_content": ""}}, {"title": "山水印象生态休闲农庄", "address": "江西省赣州市安远县S223欣山正南安隘满坑水", "image": "", "rank": 11, "time": 2, "location": {"lat": 25.08708825990774, "lng": 115.40395741563907}, "feature": {"sight_features": "", "sight_content": ""}}, {"title": "东江儿童乐园", "address": "工业园大道18号附近", "image": "", "rank": 12, "time": null, "location": {"lat": 27.447752319813972, "lng": 115.2643339501677}, "feature": {"sight_features": "", "sight_content": ""}}, {"title": "天心镇基督教堂", "address": "江西省赣州市安远县农民街", "image": "", "rank": 13, "time": 0.5, "location": {"lat": 25.40372902834407, "lng": 115.5109980997144}, "feature": {"sight_features": "", "sight_content": ""}}, {"title": "安远祥光中央公园", "address": "安远县九龙大道体育馆北40米", "image": "", "rank": 14, "time": 2, "location": {"lat": 25.128422510741576, "lng": 115.3939352079151}, "feature": {"sight_features": "", "sight_content": ""}}, {"title": "修田开心乐园", "address": "231省道附近", "image": "", "rank": 15, "time": 2, "location": {"lat": 38.570258381735, "lng": 115.41346932379217}, "feature": {"sight_features": "", "sight_content": ""}}, {"title": "官溪生态旅游村", "address": "223省道附近", "image": "", "rank": 16, "time": 2, "location": {"lat": 37.1020176799816, "lng": 112.02619253560626}, "feature": {"sight_features": "", "sight_content": ""}}, {"title": "车头文化广场", "address": "永兴路附近", "image": "", "rank": 17, "time": 2, "location": {"lat": 39.13022132708221, "lng": 117.06791200117846}, "feature": {"sight_features": "", "sight_content": ""}}, {"title": "东生围", "address": "赣州市安远县县城南20公里的镇岗乡老围村", "image": "", "rank": 18, "time": 2, "location": {"lat": 25.010492362500955, "lng": 115.33942600353679}, "feature": {"sight_features": "", "sight_content": ""}}, {"title": "安远县博物馆", "address": "欣山镇教场街11号", "image": "", "rank": 19, "time": 2, "location": {"lat": 30.37283323401863, "lng": 102.82049870331724}, "feature": {"sight_features": "", "sight_content": ""}}, {"title": "好运温泉", "address": "327省道", "image": "", "rank": 20, "time": 2, "location": {"lat": 37.483115265356545, "lng": 114.27992652618842}, "feature": {"sight_features": "", "sight_content": ""}}, {"title": "富恒现代农业生态园", "address": "223省道", "image": "", "rank": 21, "time": 2, "location": {"lat": 37.1020176799816, "lng": 112.02619253560626}, "feature": {"sight_features": "", "sight_content": ""}}, {"title": "采茶戏大剧院", "address": "九龙大道", "image": "", "rank": 22, "time": 2, "location": {"lat": 31.634673759835362, "lng": 104.68495166698081}, "feature": {"sight_features": "", "sight_content": ""}}, {"title": "安远县龙之味土特产专业合作社", "address": "龙布镇沿江路6号", "image": "", "rank": 23, "time": 2, "location": {"lat": 25.481897990656798, "lng": 115.3862948150297}, "feature": {"sight_features": "", "sight_content": ""}}, {"title": "汕龙农业综合开发公司", "address": "东江源大道与223省道交叉口南50米", "image": "", "rank": 24, "time": 2, "location": {"lat": 25.814969897833652, "lng": 114.92175365023178}, "feature": {"sight_features": "", "sight_content": ""}}, {"title": "安远县镇岗乡黄洞村鹰嘴桃扶贫基...", "address": "镇岗乡黄洞村", "image": "", "rank": 25, "time": 2, "location": {"lat": 24.98404140912688, "lng": 115.3480436998167}, "feature": {"sight_features": "", "sight_content": ""}}, {"title": "东生围", "address": "江西省安远县镇岗乡老围村", "image": "", "rank": 26, "time": 2, "location": {"lat": 25.010492362500955, "lng": 115.33942600353679}, "feature": {"sight_features": "", "sight_content": ""}}, {"title": "东风湖", "address": "江西省安远县三百山西部", "image": "", "rank": 27, "time": 2.0, "location": {"lat": 25.02133680681226, "lng": 115.44758015974901}, "feature": {"sight_features": "", "sight_content": ""}}, {"title": "安远县休闲娱乐街", "address": "江西省安远县休闲娱乐街", "image": "", "rank": 28, "time": 2, "location": {"lat": 25.13978810385648, "lng": 115.39633475979595}, "feature": {"sight_features": "", "sight_content": ""}}, {"title": "老鼠嶂下", "address": "赣州市-安远县", "image": "", "rank": 29, "time": 2, "location": {"lat": 25.14274343173196, "lng": 115.40055913128577}, "feature": {"sight_features": "", "sight_content": ""}}, {"title": "鬼窝子", "address": "赣州市-安远县", "image": "", "rank": 30, "time": 2, "location": {"lat": 25.14274343173196, "lng": 115.40055913128577}, "feature": {"sight_features": "", "sight_content": ""}}]}