{"cityName": "安岳", "days": 2, "cityImage": "", "spots": [{"title": "圆觉洞摩崖造像风景区", "address": "资阳市安岳县岳阳镇", "image": "", "rank": 1, "time": 1.5, "location": {"lat": 30.086458180241713, "lng": 105.3234738350017}, "feature": {"sight_features": "", "sight_content": ""}}, {"title": "安岳石刻", "address": "资阳市安岳县境内", "image": "", "rank": 2, "time": 0.75, "location": {"lat": 30.103392734493756, "lng": 105.34245423273225}, "feature": {"sight_features": "", "sight_content": ""}}, {"title": "毗卢洞文物景区", "address": "资阳市安岳县毗卢洞石刻造像附近", "image": "", "rank": 3, "time": 2, "location": {"lat": 29.929712166191784, "lng": 105.63110959856147}, "feature": {"sight_features": "", "sight_content": ""}}, {"title": "卧佛院", "address": "安岳县城以北25公里八庙乡卧佛沟", "image": "", "rank": 4, "time": 2, "location": {"lat": 30.269400622377354, "lng": 105.30271744236266}, "feature": {"sight_features": "", "sight_content": ""}}, {"title": "千佛寺", "address": "千佛寨森林公园", "image": "", "rank": 5, "time": 0.4, "location": {"lat": 30.108039018649873, "lng": 105.31943515314074}, "feature": {"sight_features": "", "sight_content": ""}}, {"title": "毗卢洞", "address": "四川省安岳县石羊镇 642364", "image": "", "rank": 6, "time": 1.5, "location": {"lat": 29.933861963791642, "lng": 105.6330182642101}, "feature": {"sight_features": "", "sight_content": ""}}, {"title": "茗山寺", "address": "安岳县石羊镇", "image": "", "rank": 7, "time": null, "location": {"lat": 29.933861963791642, "lng": 105.6330182642101}, "feature": {"sight_features": "", "sight_content": ""}}, {"title": "孔雀洞", "address": "四川省安岳县双龙街乡", "image": "", "rank": 8, "time": 2, "location": {"lat": 29.875981870393925, "lng": 105.68973858651572}, "feature": {"sight_features": "", "sight_content": ""}}, {"title": "柠都乐园", "address": "资阳市安岳县成安渝高速出口200米处", "image": "", "rank": 9, "time": 2, "location": {"lat": 30.103392734493756, "lng": 105.34245423273225}, "feature": {"sight_features": "特色1 尽情游玩，放松身心", "sight_content": "柠都乐园以柠檬文化为主体，有欢乐海洋战队、熊出没转杯、无轨仿古火车、海盗船、大摆锤、激流勇进、高空飞翔、碰碰车、海盗船、摩天轮等20余项游乐设施一应俱全。园区呈现出风格悬殊、鬼魅奇特的建筑及园林景观。"}}, {"title": "南苑会所", "address": "岳阳镇南桥村", "image": "", "rank": 10, "time": 2, "location": {"lat": 30.061603852001824, "lng": 105.32120911428558}, "feature": {"sight_features": "", "sight_content": ""}}, {"title": "文化印象大型生态垂钓场", "address": "交通北街附近", "image": "", "rank": 11, "time": 2, "location": {"lat": 29.997063590655067, "lng": 105.2928860821441}, "feature": {"sight_features": "", "sight_content": ""}}, {"title": "安岳县关新村何家农家乐", "address": "304乡道附近", "image": "", "rank": 12, "time": 2, "location": {"lat": 40.60067079792464, "lng": 111.51899666839556}, "feature": {"sight_features": "", "sight_content": ""}}, {"title": "豆豆草莓园", "address": "319国道", "image": "", "rank": 13, "time": 2, "location": {"lat": 25.761668573925817, "lng": 116.38626783390552}, "feature": {"sight_features": "", "sight_content": ""}}, {"title": "欢乐谷(龙台店)", "address": "下码头街与蟠龙正街交叉口东北150米", "image": "", "rank": 14, "time": 2, "location": {"lat": 30.07384968937308, "lng": 105.57105627653914}, "feature": {"sight_features": "", "sight_content": ""}}, {"title": "贝佳乐儿童乐园", "address": "武圣街南100米", "image": "", "rank": 15, "time": 2, "location": {"lat": 30.435869717723875, "lng": 108.69422064658315}, "feature": {"sight_features": "", "sight_content": ""}}, {"title": "安岳县周礼镇救星村水立方水上乐...", "address": "周礼镇救星村11组", "image": "", "rank": 16, "time": 2, "location": {"lat": 29.922201787026736, "lng": 105.13600960474862}, "feature": {"sight_features": "", "sight_content": ""}}, {"title": "李家祠堂", "address": "资阳市安岳县三三四乡道", "image": "", "rank": 17, "time": 2, "location": {"lat": 29.957054543747088, "lng": 105.11077799599947}, "feature": {"sight_features": "", "sight_content": ""}}, {"title": "紫阳寺", "address": "四川省资阳市安岳县文大路", "image": "", "rank": 18, "time": 2, "location": {"lat": 29.886615642816466, "lng": 105.42475046341968}, "feature": {"sight_features": "", "sight_content": ""}}, {"title": "毗卢洞石刻造像", "address": "资阳市安岳县毗卢洞石刻造像附近毗卢洞文物景区内", "image": "", "rank": 19, "time": 2, "location": {"lat": 29.929733960583064, "lng": 105.63126676429683}, "feature": {"sight_features": "", "sight_content": ""}}, {"title": "安岳石窟", "address": "四川省资阳市安岳县莲花路", "image": "", "rank": 20, "time": 2.5, "location": {"lat": 29.93305996287803, "lng": 105.62991207018142}, "feature": {"sight_features": "", "sight_content": ""}}, {"title": "五家祠堂", "address": "资阳市安岳县一三七县道", "image": "", "rank": 21, "time": 2, "location": {"lat": 29.860846659027843, "lng": 105.22307426945922}, "feature": {"sight_features": "", "sight_content": ""}}, {"title": "欢乐岛儿童乐园", "address": "四川省资阳市安岳县建设街272号", "image": "", "rank": 22, "time": 2, "location": {"lat": 30.10508465837095, "lng": 105.34257358764121}, "feature": {"sight_features": "", "sight_content": ""}}, {"title": "普安寺", "address": "岳阳镇茶店子街252号", "image": "", "rank": 23, "time": 2, "location": {"lat": 30.102786359040802, "lng": 105.348321245679}, "feature": {"sight_features": "", "sight_content": ""}}, {"title": "安岳县基督教", "address": "四川省资阳市安岳县兴安路", "image": "", "rank": 24, "time": 2, "location": {"lat": 30.11371314414583, "lng": 105.3492322056187}, "feature": {"sight_features": "", "sight_content": ""}}, {"title": "南山公园", "address": "兴柠街西150米", "image": "", "rank": 25, "time": 2.5, "location": {"lat": 22.269899808088628, "lng": 113.55742664103542}, "feature": {"sight_features": "", "sight_content": ""}}, {"title": "蒋氏祠堂", "address": "资阳市安岳县镇驯路", "image": "", "rank": 26, "time": 2, "location": {"lat": 30.016301503314384, "lng": 105.15042169959223}, "feature": {"sight_features": "", "sight_content": ""}}, {"title": "龙居寺", "address": "遂宁市安居区", "image": "", "rank": 27, "time": 1.0, "location": {"lat": 30.3614964697459, "lng": 105.46246730988199}, "feature": {"sight_features": "", "sight_content": ""}}, {"title": "莫家祠堂", "address": "资阳市安岳县二零六省道", "image": "", "rank": 28, "time": 2, "location": {"lat": 30.103392734493756, "lng": 105.34245423273225}, "feature": {"sight_features": "", "sight_content": ""}}, {"title": "大世界休闲广场", "address": "建设街77号", "image": "", "rank": 29, "time": 2, "location": {"lat": 40.14410036161419, "lng": 117.12444243070107}, "feature": {"sight_features": "", "sight_content": ""}}, {"title": "蓝灵广场", "address": "资阳市安岳县", "image": "", "rank": 30, "time": 2, "location": {"lat": 30.103392734493756, "lng": 105.34245423273225}, "feature": {"sight_features": "", "sight_content": ""}}, {"title": "普州广场", "address": "四川省资阳市安岳县柠都大道菲美斯酒店对面", "image": "", "rank": 31, "time": 2, "location": {"lat": 30.106276083800793, "lng": 105.35869029904505}, "feature": {"sight_features": "", "sight_content": ""}}, {"title": "水中花水族馆", "address": "四川省资阳市安岳县山门口巷12号", "image": "", "rank": 32, "time": 2, "location": {"lat": 30.113117817692473, "lng": 105.35182158292919}, "feature": {"sight_features": "", "sight_content": ""}}, {"title": "重庆潼南崇龛休闲农家乐", "address": "重庆潼南县崇龛镇白沙", "image": "", "rank": 33, "time": 1.5, "location": {"lat": 30.149932965958484, "lng": 105.81967884516254}, "feature": {"sight_features": "", "sight_content": ""}}, {"title": "三仔耳鹅肠火锅", "address": "西大街附近", "image": "", "rank": 34, "time": 2, "location": {"lat": 39.91357131364959, "lng": 116.6700940616933}, "feature": {"sight_features": "", "sight_content": ""}}, {"title": "安岳徐氏水族馆", "address": "岳阳镇山门口巷57号", "image": "", "rank": 35, "time": 0.75, "location": {"lat": 30.113212559265047, "lng": 105.35167952252046}, "feature": {"sight_features": "", "sight_content": ""}}, {"title": "川西欢乐水世界", "address": "柠都大道中段川西柴火大院(中韩广场前行200米即到)", "image": "", "rank": 36, "time": 2, "location": {"lat": 30.09840766174785, "lng": 105.37523008963721}, "feature": {"sight_features": "", "sight_content": ""}}, {"title": "桂荷半岛农家乐", "address": "城郊龙潭村2社", "image": "", "rank": 37, "time": 2, "location": {"lat": 22.959128378733737, "lng": 115.65731647445443}, "feature": {"sight_features": "", "sight_content": ""}}, {"title": "柠檬农场", "address": "岳阳镇顺城街顺城巷5号(审计局对面)", "image": "", "rank": 38, "time": 2, "location": {"lat": 30.103407527805125, "lng": 105.34149861712733}, "feature": {"sight_features": "", "sight_content": ""}}, {"title": "安岳影剧院", "address": "304乡道附近", "image": "", "rank": 39, "time": 2, "location": {"lat": 40.60067079792464, "lng": 111.51899666839556}, "feature": {"sight_features": "", "sight_content": ""}}, {"title": "四川省省级非物质文化遗产保护单...", "address": "秦九韶路北段", "image": "", "rank": 40, "time": 2, "location": {"lat": 30.108507971198193, "lng": 105.35893108624379}, "feature": {"sight_features": "", "sight_content": ""}}, {"title": "卧佛院", "address": "四川省安岳县县城北25公里", "image": "", "rank": 41, "time": 2, "location": {"lat": 30.103392734493756, "lng": 105.34245423273225}, "feature": {"sight_features": "", "sight_content": ""}}, {"title": "木门寺", "address": "四川省安岳县八庙乡石鼓片区", "image": "", "rank": 42, "time": 2, "location": {"lat": 30.269400622377354, "lng": 105.30271744236266}, "feature": {"sight_features": "", "sight_content": ""}}, {"title": "资阳玄妙观", "address": "四川省安岳县鸳大镇", "image": "", "rank": 43, "time": 1.5, "location": {"lat": 30.15225249186671, "lng": 105.2760968673375}, "feature": {"sight_features": "", "sight_content": ""}}, {"title": "陈家塆", "address": "资阳市-安岳县", "image": "", "rank": 44, "time": 2, "location": {"lat": 30.103392734493756, "lng": 105.34245423273225}, "feature": {"sight_features": "", "sight_content": ""}}, {"title": "大衣巡回展", "address": "资阳市-安岳县-正北街94号附近", "image": "", "rank": 45, "time": 2, "location": {"lat": 30.103057248346005, "lng": 105.34306040929037}, "feature": {"sight_features": "", "sight_content": ""}}]}