{"cityName": "巴楚", "days": 2, "cityImage": "", "spots": [{"title": "红海湾景区水上乐园", "address": "606县道附近", "image": "", "rank": 1, "time": 2, "location": {"lat": 24.868506990232046, "lng": 117.10565051583023}, "feature": {"sight_features": "", "sight_content": ""}}, {"title": "欢乐岛儿童乐园", "address": "新疆维吾尔自治区喀什地区巴楚县巴楚步行街4", "image": "", "rank": 2, "time": 2, "location": {"lat": 39.789307024323605, "lng": 78.55992945634429}, "feature": {"sight_features": "", "sight_content": ""}}, {"title": "巴楚县激情文化广场", "address": "新疆维吾尔自治区喀什地区巴楚县巴楚镇文化东路激情文化广场", "image": "", "rank": 3, "time": 2, "location": {"lat": 39.79084366885882, "lng": 78.55484374551314}, "feature": {"sight_features": "", "sight_content": ""}}, {"title": "巴楚娱乐园", "address": "光明路牛筋面凉皮店附近", "image": "", "rank": 4, "time": 2, "location": {"lat": 39.797866200494084, "lng": 78.56278247464398}, "feature": {"sight_features": "", "sight_content": ""}}, {"title": "甜蜜温泉", "address": "314国道", "image": "", "rank": 5, "time": 2, "location": {"lat": 41.99909405613244, "lng": 85.2791136998957}, "feature": {"sight_features": "", "sight_content": ""}}, {"title": "巴楚步行街", "address": "新疆维吾尔自治区巴楚县巴楚步行街", "image": "", "rank": 6, "time": 2, "location": {"lat": 39.789307024323605, "lng": 78.55992945634429}, "feature": {"sight_features": "", "sight_content": ""}}, {"title": "其盖库都克江尕勒", "address": "喀什地区-巴楚县", "image": "", "rank": 7, "time": 2, "location": {"lat": 39.79078837708006, "lng": 78.55570140180049}, "feature": {"sight_features": "", "sight_content": ""}}, {"title": "达里亚博依", "address": "新疆维吾尔自治区和田于田县", "image": "", "rank": 8, "time": 2, "location": {"lat": 36.862954136110474, "lng": 81.68378291474839}, "feature": {"sight_features": "", "sight_content": ""}}, {"title": "塔克拉玛干沙漠", "address": "塔里木盆地中央", "image": "", "rank": 9, "time": 3.0, "location": {"lat": 39.492455911310316, "lng": 79.26535434106383}, "feature": {"sight_features": "", "sight_content": ""}}]}