{"cityName": "白城", "days": 2, "cityImage": "", "spots": [{"title": "向海湿地", "address": "白城市向海乡兴隆山镇西南2千米处", "image": "", "rank": 1, "time": 3.5, "location": {"lat": 44.815739564448975, "lng": 122.4441494910172}, "feature": {"sight_features": "", "sight_content": ""}}, {"title": "莫莫格国家级自然保护区", "address": "白城市镇赉县莫莫格蒙古族乡", "image": "", "rank": 2, "time": 4.0, "location": {"lat": 45.95417333491724, "lng": 123.63448475492555}, "feature": {"sight_features": "", "sight_content": ""}}, {"title": "嫩江湾国家湿地公园", "address": "吉林省大安市嫩江湾国家湿地公园", "image": "", "rank": 3, "time": 4.5, "location": {"lat": 45.53839627949844, "lng": 124.29469031836743}, "feature": {"sight_features": "", "sight_content": ""}}, {"title": "月亮湖旅游区", "address": "白城市大安市月亮泡镇", "image": "", "rank": 4, "time": 2, "location": {"lat": 45.679259955781674, "lng": 124.01831699299606}, "feature": {"sight_features": "", "sight_content": ""}}, {"title": "五间房水岛乐园", "address": "白城市大安市西北部", "image": "", "rank": 5, "time": 2, "location": {"lat": 45.51304514962824, "lng": 124.29850428102031}, "feature": {"sight_features": "", "sight_content": ""}}, {"title": "国家级东沟湿地狩猎区", "address": "位于吉林省西北部，嫩江平原西部，科尔沁草原东部", "image": "", "rank": 6, "time": 2, "location": {"lat": 43.90171443544392, "lng": 125.33257987514821}, "feature": {"sight_features": "", "sight_content": ""}}, {"title": "白城市图书馆", "address": "金辉北街", "image": "", "rank": 7, "time": 1.5, "location": {"lat": 45.63031331135368, "lng": 122.84563288095828}, "feature": {"sight_features": "", "sight_content": ""}}, {"title": "洮儿河", "address": "白城市洮南市", "image": "", "rank": 8, "time": null, "location": {"lat": 45.34113187256745, "lng": 122.79446768260222}, "feature": {"sight_features": "", "sight_content": ""}}, {"title": "东沟湿地狩猎场", "address": "大安市的大岗子乡、通榆县的八面乡、洮南市的二龙乡交界处", "image": "", "rank": 9, "time": 4.0, "location": {"lat": 45.08816239451695, "lng": 123.30759373699618}, "feature": {"sight_features": "", "sight_content": ""}}, {"title": "查干浩特野山生态园", "address": "查干浩特旅游区普云寺东100米", "image": "", "rank": 10, "time": 2, "location": {"lat": 45.867491250411575, "lng": 122.48144790130699}, "feature": {"sight_features": "", "sight_content": ""}}, {"title": "吉影鹤乡国际影城", "address": "开通镇墨宝园西", "image": "", "rank": 11, "time": 2, "location": {"lat": 44.82204600812614, "lng": 123.09208482640926}, "feature": {"sight_features": "", "sight_content": ""}}, {"title": "通榆墨宝园", "address": "风电大路", "image": "", "rank": 12, "time": 2, "location": {"lat": 44.83115835331619, "lng": 123.10008335394129}, "feature": {"sight_features": "", "sight_content": ""}}, {"title": "中国莫莫格湿地博物馆", "address": "103县道", "image": "", "rank": 13, "time": 2, "location": {"lat": 46.25424613801592, "lng": 123.67756811420162}, "feature": {"sight_features": "", "sight_content": ""}}, {"title": "动物园", "address": "嫩江北街155号", "image": "", "rank": 14, "time": 2, "location": {"lat": 45.541726832365924, "lng": 124.29524683390204}, "feature": {"sight_features": "", "sight_content": ""}}, {"title": "汉书遗址", "address": "中国吉林省松原市大安月亮泡乡汉书村", "image": "", "rank": 15, "time": 2, "location": {"lat": 45.14740419341382, "lng": 124.83148187569292}, "feature": {"sight_features": "", "sight_content": ""}}, {"title": "向海蒙古族乡", "address": "吉林省通榆县西北部", "image": "", "rank": 16, "time": 2, "location": {"lat": 44.81896373588188, "lng": 123.09452077673187}, "feature": {"sight_features": "", "sight_content": ""}}, {"title": "思维密室逃脱", "address": "中兴西大路74-10#师范学院对面大学生文化中心东侧50米", "image": "", "rank": 17, "time": 2, "location": {"lat": 45.62019844265149, "lng": 122.81986124416534}, "feature": {"sight_features": "", "sight_content": ""}}, {"title": "文化大戏院二人转大舞台", "address": "公园东路74号文化中心，政务大厅东200米", "image": "", "rank": 18, "time": 2, "location": {"lat": 45.63425969225709, "lng": 122.84752412127729}, "feature": {"sight_features": "", "sight_content": ""}}, {"title": "福尔阳光温泉会馆", "address": "保胜路旅游街爱丁堡幼儿园南15米", "image": "", "rank": 19, "time": 2, "location": {"lat": 40.08439934712895, "lng": 113.2785623407644}, "feature": {"sight_features": "", "sight_content": ""}}, {"title": "凯伦温泉", "address": "胜利西路333号", "image": "", "rank": 20, "time": 2, "location": {"lat": 45.60326381575263, "lng": 122.8283744261953}, "feature": {"sight_features": "", "sight_content": ""}}, {"title": "保民农场", "address": "010乡道附近", "image": "", "rank": 21, "time": 2, "location": {"lat": 37.55366481954672, "lng": 112.36885737069535}, "feature": {"sight_features": "", "sight_content": ""}}, {"title": "欢乐水魔方", "address": "民生东路", "image": "", "rank": 22, "time": 2, "location": {"lat": 36.92332453357784, "lng": 114.89176267223792}, "feature": {"sight_features": "", "sight_content": ""}}, {"title": "草莓采摘", "address": "白城市林海机械化农场", "image": "", "rank": 23, "time": 2, "location": {"lat": 45.53389488619812, "lng": 122.74992673100905}, "feature": {"sight_features": "", "sight_content": ""}}, {"title": "大众剧场二人转演艺大舞台", "address": "中兴东大路93号", "image": "", "rank": 24, "time": 2, "location": {"lat": 45.63051781151621, "lng": 122.85507836936178}, "feature": {"sight_features": "", "sight_content": ""}}, {"title": "白城市泳泉度假村", "address": "洮白一级公路附近", "image": "", "rank": 25, "time": 3.5, "location": {"lat": 45.49390295473831, "lng": 122.81102569891499}, "feature": {"sight_features": "", "sight_content": ""}}, {"title": "鹤城大戏院", "address": "爱国街21号", "image": "", "rank": 26, "time": 2, "location": {"lat": 45.6243998641586, "lng": 122.8677091260358}, "feature": {"sight_features": "", "sight_content": ""}}, {"title": "安广镇", "address": "白城市大安市安广镇", "image": "", "rank": 27, "time": 2, "location": {"lat": 45.655671232959776, "lng": 123.7533081917163}, "feature": {"sight_features": "", "sight_content": ""}}, {"title": "两家子镇", "address": "白城市大安市两家子镇", "image": "", "rank": 28, "time": 2, "location": {"lat": 45.52871634114988, "lng": 123.95361787082658}, "feature": {"sight_features": "", "sight_content": ""}}, {"title": "密室逃脱", "address": "巨无霸汉堡东100米", "image": "", "rank": 29, "time": 2, "location": {"lat": 44.81418845700451, "lng": 123.0940329564162}, "feature": {"sight_features": "", "sight_content": ""}}, {"title": "湖北中烟·镇赉基地单元-六合村...", "address": "220省道附近", "image": "", "rank": 30, "time": 2, "location": {"lat": 40.38775563397051, "lng": 115.90384459998963}, "feature": {"sight_features": "", "sight_content": ""}}, {"title": "到保农场二站", "address": "一零二县道(西满斗豪心)", "image": "", "rank": 31, "time": 2, "location": {"lat": 45.6339878914555, "lng": 123.21867312725908}, "feature": {"sight_features": "", "sight_content": ""}}, {"title": "强胜村马场", "address": "111县道附近", "image": "", "rank": 32, "time": 2, "location": {"lat": 30.169802874864953, "lng": 115.4648469192993}, "feature": {"sight_features": "", "sight_content": ""}}, {"title": "洮南市艳玲少儿图书馆", "address": "繁荣西路518号", "image": "", "rank": 33, "time": 2, "location": {"lat": 45.34529029782477, "lng": 122.7858279598683}, "feature": {"sight_features": "", "sight_content": ""}}, {"title": "小牛顿科技馆", "address": "锦华路76号附近", "image": "", "rank": 34, "time": 2, "location": {"lat": 45.51527309374378, "lng": 124.29377876285118}, "feature": {"sight_features": "", "sight_content": ""}}, {"title": "龙沼沼泽地区湿地", "address": "吉林省大安市龙沼镇 131311", "image": "", "rank": 35, "time": 2, "location": {"lat": 45.09838440748226, "lng": 123.60783645100577}, "feature": {"sight_features": "", "sight_content": ""}}, {"title": "到保镇", "address": "白城市洮北区到保镇", "image": "", "rank": 36, "time": 2, "location": {"lat": 45.58524312803486, "lng": 123.15178610656235}, "feature": {"sight_features": "", "sight_content": ""}}, {"title": "平台镇", "address": "白城市洮北区平台镇", "image": "", "rank": 37, "time": 2, "location": {"lat": 45.716522022364316, "lng": 122.79006078261779}, "feature": {"sight_features": "", "sight_content": ""}}, {"title": "古洞河漂流", "address": "长白山景区", "image": "", "rank": 38, "time": 2, "location": {"lat": 39.97163902496252, "lng": 116.41141942007462}, "feature": {"sight_features": "", "sight_content": ""}}, {"title": "查干浩特旅游开发区-赛马场", "address": "岭下镇东山苗圃", "image": "", "rank": 39, "time": 2, "location": {"lat": 47.34498713557338, "lng": 130.32336109407026}, "feature": {"sight_features": "", "sight_content": ""}}, {"title": "古骑博格", "address": "白城市洮北区青年南大街20b3号央格尔购物广场2层", "image": "", "rank": 40, "time": 2, "location": {"lat": 45.6239440124134, "lng": 122.85926230273218}, "feature": {"sight_features": "", "sight_content": ""}}, {"title": "密海菩提", "address": "庆学西路12-1号门市", "image": "", "rank": 41, "time": 2, "location": {"lat": 45.62708083548136, "lng": 122.83455780752068}, "feature": {"sight_features": "", "sight_content": ""}}, {"title": "新天地运动休闲广场", "address": "步行街镇赉县印刷一厂附近", "image": "", "rank": 42, "time": 2, "location": {"lat": 45.85625115800474, "lng": 123.21140522573388}, "feature": {"sight_features": "", "sight_content": ""}}, {"title": "静园", "address": "大赉乡铁北村", "image": "", "rank": 43, "time": 1.5, "location": {"lat": 45.554234730431, "lng": 124.25550608020829}, "feature": {"sight_features": "", "sight_content": ""}}, {"title": "淘气堡(兴东A座3楼)", "address": "吉林省白城市通榆县繁荣大街兴东商都A座3楼美食城", "image": "", "rank": 44, "time": 2, "location": {"lat": 44.81100775214197, "lng": 123.09616561454438}, "feature": {"sight_features": "", "sight_content": ""}}, {"title": "鹤乡体育公园", "address": "新发北街与育才东路交叉口东南100米", "image": "", "rank": 45, "time": 2, "location": {"lat": 44.82355473745945, "lng": 123.10334933586022}, "feature": {"sight_features": "", "sight_content": ""}}, {"title": "鹤乡体育公园", "address": "新发北街与育才东路交叉口东南100米", "image": "", "rank": 46, "time": 2, "location": {"lat": 44.82355473745945, "lng": 123.10334933586022}, "feature": {"sight_features": "", "sight_content": ""}}, {"title": "老遗址", "address": "吉林省白城市大安市大赉北街48号", "image": "", "rank": 47, "time": 2, "location": {"lat": 45.51453835340846, "lng": 124.2987382446904}, "feature": {"sight_features": "", "sight_content": ""}}, {"title": "大安市博物馆", "address": "吉林省白城市大安市大赉北街26号", "image": "", "rank": 48, "time": 2.5, "location": {"lat": 45.51303337045099, "lng": 124.30021851742502}, "feature": {"sight_features": "", "sight_content": ""}}, {"title": "锦湖湿地公园", "address": "吉林省白城市洮南市育英东路", "image": "", "rank": 49, "time": 2, "location": {"lat": 45.35764370224986, "lng": 122.80474882689282}, "feature": {"sight_features": "", "sight_content": ""}}, {"title": "童世界游乐园", "address": "嫩江南街与长虹东路交叉口东150米", "image": "", "rank": 50, "time": 2, "location": {"lat": 45.51078579289974, "lng": 124.30740966503255}, "feature": {"sight_features": "", "sight_content": ""}}, {"title": "洮南市基督教会", "address": "育英西路400", "image": "", "rank": 51, "time": 1.0, "location": {"lat": 45.35252147956149, "lng": 122.78569527744956}, "feature": {"sight_features": "", "sight_content": ""}}, {"title": "揽海阁", "address": "吉林省白城市通榆县向海国家级自然保护区揽海阁", "image": "", "rank": 52, "time": 2, "location": {"lat": 45.080588731463, "lng": 122.34239870184012}, "feature": {"sight_features": "", "sight_content": ""}}, {"title": "洮南市博物馆", "address": "兴隆西路69", "image": "", "rank": 53, "time": 2.5, "location": {"lat": 45.351551393615885, "lng": 122.79031412543263}, "feature": {"sight_features": "", "sight_content": ""}}, {"title": "鹤鸣湖公园", "address": "302国道附近", "image": "", "rank": 54, "time": 2, "location": {"lat": 45.75877779746667, "lng": 122.5732323727896}, "feature": {"sight_features": "", "sight_content": ""}}, {"title": "基督教会", "address": "吉林省白城市大安市安北街道安铁街北部明珠(A区)旁", "image": "", "rank": 55, "time": null, "location": {"lat": 45.52429193834377, "lng": 124.25671544825538}, "feature": {"sight_features": "", "sight_content": ""}}, {"title": "基督教感恩堂", "address": "和平街35附近", "image": "", "rank": 56, "time": 2, "location": {"lat": 31.651434505666586, "lng": 120.7500299159846}, "feature": {"sight_features": "", "sight_content": ""}}, {"title": "安广护国寺", "address": "长白东路184", "image": "", "rank": 57, "time": 2, "location": {"lat": 43.371461658177616, "lng": 128.24547966928606}, "feature": {"sight_features": "", "sight_content": ""}}, {"title": "童趣儿童游乐园", "address": "吉林省白城市大安市G302(长白公路)", "image": "", "rank": 58, "time": 2, "location": {"lat": 45.51304514962824, "lng": 124.29850428102031}, "feature": {"sight_features": "", "sight_content": ""}}, {"title": "城南基督教堂", "address": "胜利西路1楼-19", "image": "", "rank": 59, "time": 2, "location": {"lat": 27.062225204087824, "lng": 106.97361869867177}, "feature": {"sight_features": "", "sight_content": ""}}, {"title": "镇赉团结基督教会", "address": "吉林省白城市镇赉县庆余南街75号", "image": "", "rank": 60, "time": 2, "location": {"lat": 45.85515062381127, "lng": 123.20379517095107}, "feature": {"sight_features": "", "sight_content": ""}}]}