{"cityName": "拜城", "days": 2, "cityImage": "", "spots": [{"title": "克孜尔千佛洞", "address": "阿克苏地区拜城县克孜尔乡东南约7公里木扎提河北岸明屋达格山断崖上", "image": "", "rank": 1, "time": 3.0, "location": {"lat": 41.75995257280435, "lng": 82.37522834217249}, "feature": {"sight_features": "", "sight_content": ""}}, {"title": "克孜尔魔鬼城", "address": "阿克苏地区拜城县克孜尔乡和黑英山乡境内", "image": "", "rank": 2, "time": 1.5, "location": {"lat": 41.85462868035644, "lng": 82.61098047051487}, "feature": {"sight_features": "", "sight_content": ""}}, {"title": "铁热克温泉", "address": "拜城县西北45公里的铁热克镇境内", "image": "", "rank": 3, "time": 2, "location": {"lat": 41.99116245349915, "lng": 81.549861836015}, "feature": {"sight_features": "", "sight_content": ""}}, {"title": "克孜尔水库", "address": "阿克苏地区拜城县克孜尔水库", "image": "", "rank": 4, "time": 1.0, "location": {"lat": 41.83547801618944, "lng": 82.44932264323475}, "feature": {"sight_features": "", "sight_content": ""}}, {"title": "拜城县国际狩猎场", "address": "阿克苏拜城县老虎台乡境内", "image": "", "rank": 5, "time": 1.0, "location": {"lat": 41.848117207463474, "lng": 81.19895374487969}, "feature": {"sight_features": "", "sight_content": ""}}, {"title": "清真寺", "address": "新疆维吾尔自治区拜城县交通路8号", "image": "", "rank": 6, "time": 1.0, "location": {"lat": 41.80055320715471, "lng": 81.88418894520811}, "feature": {"sight_features": "", "sight_content": ""}}, {"title": "拜城县", "address": "新疆维吾尔自治区阿克苏地区", "image": "", "rank": 7, "time": 2, "location": {"lat": 41.17502986007749, "lng": 80.26694348473501}, "feature": {"sight_features": "", "sight_content": ""}}, {"title": "克孜尔湖", "address": "新疆维吾尔自治区阿克苏拜城县克孜尔乡与赛里木镇", "image": "", "rank": 8, "time": 2, "location": {"lat": 41.83409344947287, "lng": 82.44701746256895}, "feature": {"sight_features": "", "sight_content": ""}}, {"title": "麻扎塔格古城堡", "address": "新疆维吾尔自治区墨玉县和田河下游西侧麻扎塔格红山嘴上 848100", "image": "", "rank": 9, "time": 1.0, "location": {"lat": 38.518684078978964, "lng": 80.79671458830674}, "feature": {"sight_features": "", "sight_content": ""}}, {"title": "亚吐尔乡文化广场", "address": "新疆维吾尔自治区阿克苏地区拜城县亚吐尔乡中学", "image": "", "rank": 10, "time": 2, "location": {"lat": 41.82843480388435, "lng": 81.97590872252394}, "feature": {"sight_features": "", "sight_content": ""}}, {"title": "盐水沟关垒遗址", "address": "公路盐水沟关垒遗址附近", "image": "", "rank": 11, "time": 2, "location": {"lat": 41.8567924268758, "lng": 82.81402228366974}, "feature": {"sight_features": "", "sight_content": ""}}, {"title": "拜城县图书馆", "address": "团结路5号", "image": "", "rank": 12, "time": 2, "location": {"lat": 39.379171865653745, "lng": 117.08050669088618}, "feature": {"sight_features": "", "sight_content": ""}}, {"title": "文峰宫", "address": "文献路步行街", "image": "", "rank": 13, "time": 2, "location": {"lat": 25.689388730796345, "lng": 100.17255944151053}, "feature": {"sight_features": "", "sight_content": ""}}, {"title": "察尔其雅丹地貌", "address": "新疆维吾尔自治区阿克苏地区拜城县", "image": "", "rank": 14, "time": 2, "location": {"lat": 41.80070660198409, "lng": 81.85851627203844}, "feature": {"sight_features": "", "sight_content": ""}}]}