{"cityName": "白沙", "days": "", "cityImage": "", "spots": [{"title": "白沙陨石坑", "address": "白沙黎族自治县牙叉镇东南9公里白沙农场境内", "image": "", "rank": 1, "time": 1.5, "location": {"lat": 19.203391625059812, "lng": 109.47871400621287}, "feature": {"sight_features": "", "sight_content": ""}}, {"title": "红坎瀑布", "address": "白沙黎族自治县元门乡东南部", "image": "", "rank": 2, "time": 1.5, "location": {"lat": 19.105509645568866, "lng": 109.53808253855085}, "feature": {"sight_features": "", "sight_content": ""}}, {"title": "田田庄园", "address": "龙江农场41队", "image": "", "rank": 3, "time": 2, "location": {"lat": 31.676794541027956, "lng": 119.77734559461139}, "feature": {"sight_features": "", "sight_content": ""}}, {"title": "四季春天温泉小镇", "address": "邦溪风情小镇芭蕉湖畔(距昌江县城8公里)", "image": "", "rank": 4, "time": 2, "location": {"lat": 29.27885446446956, "lng": 117.19057910346257}, "feature": {"sight_features": "", "sight_content": ""}}, {"title": "海南农垦邦溪农场", "address": "邦溪镇", "image": "", "rank": 5, "time": 2, "location": {"lat": 19.373585826625387, "lng": 109.1145359642976}, "feature": {"sight_features": "", "sight_content": ""}}, {"title": "海南省国营白沙农场", "address": "牙叉镇", "image": "", "rank": 6, "time": 2, "location": {"lat": 19.225316307947587, "lng": 109.4252815844795}, "feature": {"sight_features": "", "sight_content": ""}}, {"title": "白沙冷泉", "address": "海南省白沙黎族自治县牙叉农场 572800", "image": "", "rank": 7, "time": 1.5, "location": {"lat": 19.231378733012683, "lng": 109.45747066911305}, "feature": {"sight_features": "", "sight_content": ""}}, {"title": "阜许温泉", "address": "310省道", "image": "", "rank": 8, "time": 2, "location": {"lat": 40.608430802624056, "lng": 116.67471864625533}, "feature": {"sight_features": "", "sight_content": ""}}, {"title": "中共海南省国营牙叉农场委员会", "address": "国营牙叉农场附近", "image": "", "rank": 9, "time": 2, "location": {"lat": 32.49051352907651, "lng": 115.38976753919954}, "feature": {"sight_features": "", "sight_content": ""}}, {"title": "南美岭", "address": "海南省白沙黎族自治县南部", "image": "", "rank": 10, "time": 2, "location": {"lat": 19.231378733012683, "lng": 109.45747066911305}, "feature": {"sight_features": "", "sight_content": ""}}, {"title": "仙婆岭", "address": "海南省白沙黎族自治县牙叉镇南端", "image": "", "rank": 11, "time": 2, "location": {"lat": 19.225316307947587, "lng": 109.4252815844795}, "feature": {"sight_features": "", "sight_content": ""}}, {"title": "罗帅村", "address": "白沙黎族自治县-白沙黎族自治县", "image": "", "rank": 12, "time": 2, "location": {"lat": 19.231378733012683, "lng": 109.45747066911305}, "feature": {"sight_features": "", "sight_content": ""}}]}