{"cityName": "白水", "days": 2, "cityImage": "", "spots": [{"title": "方山森林公园", "address": "渭南市白水县西北部20公里处", "image": "", "rank": 1, "time": 4.0, "location": {"lat": 35.18328751461316, "lng": 109.59752055373886}, "feature": {"sight_features": "", "sight_content": ""}}, {"title": "仓颉庙", "address": "渭南市白水县史官镇北史官镇初级中学旁", "image": "", "rank": 2, "time": 1.5, "location": {"lat": 35.36607695583014, "lng": 109.68093690425968}, "feature": {"sight_features": "", "sight_content": "仓颉庙位于渭南市白水县史官镇，是为了纪念文字始祖—仓颉而建。仓颉庙北屏黄龙山，南临洛河水，创建年代不详，但根据《仓颉庙碑》记载，此庙在东汉延熹五年(公元162年)已颇具规模，至今已有1800多年的历史。仓颉庙坐北向南，四周土墙环围，高垣厚墙，格局完整。整组建筑自南向北在中轴线上依次分别为照壁、山门、前殿、报厅、中殿、寝殿、墓冢。在主体建筑的两侧又分布着东、西戏楼、钟鼓楼、东西厢房等，共计70间房屋。庙内现存建筑年代多为元、明、清三朝代所建，其装饰华丽，地方色彩浓厚。庙内保存着古碑18通，其中的《仓颉庙碑》、《仓圣鸟迹书碑》、《广武将军碑》、《时大宋苍公碑》等都是中国书法史上的珍贵实物。1975年《仓颉庙碑》迁入西安碑林博物馆。庙院内古柏参天、郁郁葱葱，生长茂盛，上千年的古柏就有48棵，与桥山的黄帝陵古柏群、山东曲阜孔庙古柏群并称为中国三大古庙古柏群。其中山门边有一株古柏名叫“惊贼柏”，相传从前有窃贼想入内盗窃，此柏突然发出怪声并喷出火花，吓走了窃贼，故名。另外还有许多各具特色的古柏，如“喜鹊登枝”、“二龙戏珠”、“丹凤朝阳”、“奎星点元”、“青龙戏柏”、宝莲灯”、“龙爪柏”、“柏抱槐”等。"}}, {"title": "雁门山庄", "address": "雷牙镇富卓村苹果人家50号", "image": "", "rank": 3, "time": 2, "location": {"lat": 35.23904245007671, "lng": 109.61765211021772}, "feature": {"sight_features": "", "sight_content": ""}}, {"title": "红旗农场(小冯路)", "address": "小冯路西50米", "image": "", "rank": 4, "time": 2, "location": {"lat": 31.929810898278898, "lng": 117.67716557009018}, "feature": {"sight_features": "", "sight_content": ""}}, {"title": "白水县设施农业示范基地", "address": "刘家卓村附近", "image": "", "rank": 5, "time": 2, "location": {"lat": 35.21213945251464, "lng": 109.62094340279268}, "feature": {"sight_features": "", "sight_content": ""}}, {"title": "白水县旭峰蔬菜专业合作社", "address": "南刘路附近", "image": "", "rank": 6, "time": 2, "location": {"lat": 32.38664904912029, "lng": 119.51058745474249}, "feature": {"sight_features": "", "sight_content": ""}}, {"title": "西乡樱桃沟", "address": "陕西省汉中市西乡县城北边", "image": "", "rank": 7, "time": 1.5, "location": {"lat": 32.98939744189546, "lng": 107.77339281906241}, "feature": {"sight_features": "", "sight_content": ""}}, {"title": "白水县妙觉寺", "address": "陕西省渭南市白水县史雷路", "image": "", "rank": 8, "time": 2, "location": {"lat": 35.26009798438833, "lng": 109.61971741339876}, "feature": {"sight_features": "", "sight_content": ""}}, {"title": "富卓苹果人家78号", "address": "富卓村村北柏油路尽头往西100米", "image": "", "rank": 9, "time": 2, "location": {"lat": 27.638402595496498, "lng": 108.17858809858966}, "feature": {"sight_features": "", "sight_content": ""}}, {"title": "董乃平书画培训班", "address": "彭衙路17附近", "image": "", "rank": 10, "time": 2, "location": {"lat": 35.1802293615977, "lng": 109.59741996597937}, "feature": {"sight_features": "", "sight_content": ""}}, {"title": "天桥有机苹果专卖行", "address": "蔡伦路中段", "image": "", "rank": 11, "time": 2, "location": {"lat": 35.18103272349663, "lng": 109.60571223671826}, "feature": {"sight_features": "", "sight_content": ""}}, {"title": "长虹旺座街区", "address": "仓颉路南段", "image": "", "rank": 12, "time": 2, "location": {"lat": 35.17881228644746, "lng": 109.60999999174797}, "feature": {"sight_features": "", "sight_content": ""}}, {"title": "苍颌庙", "address": "陕西省白水县史官乡", "image": "", "rank": 13, "time": 2, "location": {"lat": 35.365490287905246, "lng": 109.7041914584711}, "feature": {"sight_features": "", "sight_content": ""}}, {"title": "杜康泉 Dukang Spring", "address": "陕西省白水县大杨乡杜家壑村", "image": "", "rank": 14, "time": 2, "location": {"lat": 35.20567885004231, "lng": 109.48474044121637}, "feature": {"sight_features": "", "sight_content": ""}}, {"title": "白水县商业街", "address": "陕西省白水县新兴街近大华药店", "image": "", "rank": 15, "time": 2, "location": {"lat": 35.18383985274921, "lng": 109.59974299570614}, "feature": {"sight_features": "", "sight_content": ""}}, {"title": "杨西尧", "address": "渭南市-白水县", "image": "", "rank": 16, "time": 2, "location": {"lat": 35.18328751461316, "lng": 109.59752055373886}, "feature": {"sight_features": "", "sight_content": ""}}, {"title": "杨武峁", "address": "渭南市-白水县", "image": "", "rank": 17, "time": 2, "location": {"lat": 35.18328751461316, "lng": 109.59752055373886}, "feature": {"sight_features": "", "sight_content": ""}}]}