{"cityName": "白银", "days": "", "cityImage": "", "spots": [{"title": "景泰黄河石林", "address": "白银市景泰县中泉乡龙湾村", "image": "", "rank": 1, "time": 3.0, "location": {"lat": 36.89549701862528, "lng": 104.31067684169115}, "feature": {"sight_features": "特色1 观赏宏大高耸的壮观石林，在戈壁之上感受苍凉悲壮。 乘驴车、坐羊皮筏子、围着篝火听西北小调，体验原始淳朴的西北民俗。", "sight_content": "景泰黄河石林位于甘肃白银市景泰县东南部。距离兰州160公里(经白银)，中川机场距离黄河石林大约120公里，黄河石林距离白银市区和景泰县城均为75公里。\n景区面积34平方公里，其中石林面积10平方公里。黄河石林生成于210万年前的新生代第四纪，景区内陡崖凌空，景象万千，峰回路转，步移景变，石柱石笋大多高达80－200多米，山水相依、动静结合、气势磅礴。\n2004年1月被国土资源部批准为国家地质公园。这里群山环抱，环境幽静，空气清新，风景秀丽。黄河石林景区将黄河、石林、沙漠、戈壁、绿洲、农庄等多种资源巧妙结合在一起，山水相依，动静结合，气势磅礴，素有“陇上小江南”、 “世外桃源”之美誉。\n她集东西南北自然景色之大成，在全国实属罕见在北方更是独树一帜。因其造型独特。规模大、景区组合优越，可称之为“中华自然奇观”。 在此拍摄的电视连续《天下粮仓》、《神话》、《美丽的大脚》、《西部热土》、《汗血宝马》、《惊天传奇》、《大漠敦煌》等播出后，更使黄河石林名扬天下。"}}, {"title": "红军会宁会师旧址", "address": "白银市会宁县会师镇会师北路7号", "image": "", "rank": 2, "time": 2, "location": {"lat": 35.696504038709335, "lng": 105.05874691390785}, "feature": {"sight_features": "", "sight_content": ""}}, {"title": "靖远法泉寺", "address": "白银市靖远县东湾镇大坝村", "image": "", "rank": 3, "time": 2, "location": {"lat": 36.631430971170936, "lng": 104.73066171288983}, "feature": {"sight_features": "", "sight_content": ""}}, {"title": "永泰古城", "address": "白银市景泰县西南27公里处", "image": "", "rank": 4, "time": 3.0, "location": {"lat": 36.99309462505076, "lng": 104.069444384363}, "feature": {"sight_features": "", "sight_content": ""}}, {"title": "白银水川湿地公园", "address": "白银市白银区水川镇492乡道", "image": "", "rank": 5, "time": 2.5, "location": {"lat": 36.36486108499088, "lng": 104.18887225589674}, "feature": {"sight_features": "", "sight_content": ""}}, {"title": "寿鹿山森林公园", "address": "白银市景泰县位于甘蒙宁三省区交界处", "image": "", "rank": 6, "time": 2, "location": {"lat": 37.18740626009718, "lng": 104.069444384363}, "feature": {"sight_features": "", "sight_content": ""}}, {"title": "红军长征胜利景园", "address": "白银市会宁县瑞金路", "image": "", "rank": 7, "time": 2, "location": {"lat": 35.689414272590504, "lng": 105.07263604119446}, "feature": {"sight_features": "特色1 瞻仰革命遗迹，享受登山览胜的乐趣", "sight_content": "长征胜利景园由清华大学建筑学院设计，中央军委原副主席刘华清题写了园名。\n景园主要由入口剑形标志、毛泽东《长征》诗碑、景园大门、瑞金塔、红军长征门、遵义会址、强渡嘉陵江、赤水河、泸定桥、懋功会师桥、草地宿营、甘孜会师、 岷山栈道、俄界会议会址、天险腊子口、哈达铺纪念馆、榜罗镇会议会址、六盘山长征纪念亭、延安宝塔、红军会师广场等20个景点组成。\n长征胜利景园利用桃花山山形地貌和自然风景，采用摹拟与微缩相结合的手法，形象、逼真、生动地再现了红军二万五千里征程的千难万险、雄奇壮观，使参观者既可以满足瞻仰革命遗迹的渴望，又可享受登山览胜的乐趣。"}}, {"title": "欢乐时光儿童乐园", "address": "忠恒孕婴馆欢乐时光儿童乐园", "image": "", "rank": 8, "time": 2, "location": {"lat": 30.347095492108895, "lng": 106.29564567038655}, "feature": {"sight_features": "", "sight_content": ""}}, {"title": "北武当山", "address": "白银市靖远县", "image": "", "rank": 9, "time": 4.0, "location": {"lat": 36.577096288836835, "lng": 104.682515077963}, "feature": {"sight_features": "", "sight_content": ""}}, {"title": "黄河石林滑雪场", "address": "白银市景泰县中泉镇红岘台村旁黄河石林国际露营地内（s217线与黄河石林景区道路交汇处）", "image": "", "rank": 10, "time": 2, "location": {"lat": 36.91159145478563, "lng": 104.31067159109544}, "feature": {"sight_features": "", "sight_content": ""}}, {"title": "白银平川红山寺石窟", "address": "甘肃省白银市平川区共和镇 730914", "image": "", "rank": 11, "time": 4.5, "location": {"lat": 36.642698970407096, "lng": 105.02308703818004}, "feature": {"sight_features": "", "sight_content": ""}}, {"title": "白银市博物馆", "address": "长安路16号", "image": "", "rank": 12, "time": 2.5, "location": {"lat": 39.356203506925155, "lng": 115.50950270667535}, "feature": {"sight_features": "", "sight_content": ""}}, {"title": "白银永光清真大寺", "address": "甘肃省白银市白银区王岘镇兰包路馨园小区东250米", "image": "", "rank": 13, "time": 4.5, "location": {"lat": 36.54716634121705, "lng": 104.19685645096436}, "feature": {"sight_features": "", "sight_content": ""}}, {"title": "太白山玉清观", "address": "白银市靖远县331县道附近", "image": "", "rank": 14, "time": 2, "location": {"lat": 36.473776324232446, "lng": 104.47249511244384}, "feature": {"sight_features": "", "sight_content": ""}}, {"title": "长征会师旧址", "address": "甘肃省会宁县会师镇 730700", "image": "", "rank": 15, "time": 2, "location": {"lat": 35.681129128865074, "lng": 105.03357173131269}, "feature": {"sight_features": "", "sight_content": ""}}, {"title": "乌兰山", "address": "白银市靖远县乌兰镇", "image": "", "rank": 16, "time": 1.0, "location": {"lat": 36.52755729666568, "lng": 104.77667012648246}, "feature": {"sight_features": "", "sight_content": ""}}, {"title": "靖远县博物馆", "address": "靖远县乌兰镇鹿鸣园", "image": "", "rank": 17, "time": 2, "location": {"lat": 36.57015635786221, "lng": 104.68928677438886}, "feature": {"sight_features": "", "sight_content": ""}}, {"title": "馨源农家乐", "address": "中泉乡龙湾村", "image": "", "rank": 18, "time": 2, "location": {"lat": 36.89549701862528, "lng": 104.31067684169115}, "feature": {"sight_features": "", "sight_content": ""}}, {"title": "寺儿湾石窟", "address": "白银市靖远县北湾镇天字村东", "image": "", "rank": 19, "time": 1.5, "location": {"lat": 36.490583385153805, "lng": 104.52450526864024}, "feature": {"sight_features": "", "sight_content": ""}}, {"title": "靖远县图书馆", "address": "乌兰镇城关镇东大街13号", "image": "", "rank": 20, "time": 2, "location": {"lat": 36.56941340652786, "lng": 104.6911532395142}, "feature": {"sight_features": "", "sight_content": ""}}, {"title": "五佛寺", "address": "甘肃省白银市景泰县五佛乡。", "image": "", "rank": 21, "time": 2, "location": {"lat": 37.19844628585959, "lng": 104.36206748957734}, "feature": {"sight_features": "", "sight_content": ""}}, {"title": "毓生元画廊", "address": "109国道", "image": "", "rank": 22, "time": 2, "location": {"lat": 39.790711104970946, "lng": 109.99633110015151}, "feature": {"sight_features": "", "sight_content": ""}}, {"title": "珍宝林艺术博览中心", "address": "长安路65号(西区现代妇儿医院楼下)", "image": "", "rank": 23, "time": 2, "location": {"lat": 26.603867626836042, "lng": 101.63741344787044}, "feature": {"sight_features": "", "sight_content": ""}}, {"title": "鲁卡奇儿童乐园", "address": "火车站东侧晶虹购物广场二楼", "image": "", "rank": 24, "time": 2, "location": {"lat": 22.544404869585893, "lng": 114.1193550303083}, "feature": {"sight_features": "", "sight_content": ""}}, {"title": "白银市平川区图书馆", "address": "长征西路平川会展中心附近", "image": "", "rank": 25, "time": 4.5, "location": {"lat": 36.73508605920584, "lng": 104.81597243162942}, "feature": {"sight_features": "", "sight_content": ""}}, {"title": "靖远翡翠湾休闲农庄", "address": "东湾镇翡翠湾", "image": "", "rank": 26, "time": 2, "location": {"lat": 43.838511339059345, "lng": 89.36079466508258}, "feature": {"sight_features": "", "sight_content": ""}}, {"title": "金龙湾农家乐", "address": "昌林路13号", "image": "", "rank": 27, "time": 2, "location": {"lat": 30.372574388258787, "lng": 114.87090672511532}, "feature": {"sight_features": "", "sight_content": ""}}, {"title": "生态休闲娱乐园", "address": "中泉乡龙湾村轮渡线北岸家滩", "image": "", "rank": 28, "time": 2, "location": {"lat": 36.90583351208642, "lng": 104.3302354993395}, "feature": {"sight_features": "", "sight_content": ""}}, {"title": "富军农家乐", "address": "中泉乡龙湾村农行附近", "image": "", "rank": 29, "time": 2, "location": {"lat": 39.98852010300561, "lng": 117.41182943077575}, "feature": {"sight_features": "", "sight_content": ""}}, {"title": "景泰县图书馆", "address": "西街24号附近", "image": "", "rank": 30, "time": 2, "location": {"lat": 23.100931760317003, "lng": 113.27528273950196}, "feature": {"sight_features": "", "sight_content": ""}}, {"title": "牛门洞新石器遗址", "address": "甘肃省会宁县头寨子镇牛门洞村 730700", "image": "", "rank": 31, "time": 2, "location": {"lat": 35.942252812191114, "lng": 104.76095053283787}, "feature": {"sight_features": "", "sight_content": ""}}, {"title": "会宁祖厉人家农家乐", "address": "甘肃省白银市会宁县王家咀", "image": "", "rank": 32, "time": 2, "location": {"lat": 35.77350070392701, "lng": 104.98582655001655}, "feature": {"sight_features": "", "sight_content": ""}}, {"title": "人民公园", "address": "南街附近", "image": "", "rank": 33, "time": 2.5, "location": {"lat": 23.100931760317003, "lng": 113.27528273950196}, "feature": {"sight_features": "", "sight_content": ""}}, {"title": "华藏寺", "address": "甘肃天祝县", "image": "", "rank": 34, "time": 1.0, "location": {"lat": 36.97759617654046, "lng": 103.14862131965808}, "feature": {"sight_features": "", "sight_content": ""}}, {"title": "永新剧院", "address": "308省道附近", "image": "", "rank": 35, "time": 2, "location": {"lat": 40.337133976011295, "lng": 116.52614205897426}, "feature": {"sight_features": "", "sight_content": ""}}, {"title": "陶乐水族馆", "address": "锦华园东门向南30米", "image": "", "rank": 36, "time": 2, "location": {"lat": 29.494977379974486, "lng": 119.30458921164579}, "feature": {"sight_features": "", "sight_content": ""}}, {"title": "阳屲山遗址", "address": "甘肃省白银市会宁县", "image": "", "rank": 37, "time": 2, "location": {"lat": 35.69850805309429, "lng": 105.0596069327387}, "feature": {"sight_features": "", "sight_content": ""}}, {"title": "红军长征胜利纪念馆", "address": "白银市会宁县会师南路22号", "image": "", "rank": 38, "time": 2, "location": {"lat": 35.695656710104195, "lng": 105.06214320851556}, "feature": {"sight_features": "", "sight_content": ""}}, {"title": "会宁县万寿寺", "address": "白银市会宁县", "image": "", "rank": 39, "time": 2, "location": {"lat": 35.69850805309429, "lng": 105.0596069327387}, "feature": {"sight_features": "", "sight_content": ""}}, {"title": "玄帝宫", "address": "白银市会宁县会师北路", "image": "", "rank": 40, "time": 0.75, "location": {"lat": 35.6997888402454, "lng": 105.05676960424304}, "feature": {"sight_features": "", "sight_content": ""}}, {"title": "会宁县南关清真寺", "address": "会师南路与南关西路交叉口南100米", "image": "", "rank": 41, "time": 2, "location": {"lat": 35.69304944687088, "lng": 105.06364683090531}, "feature": {"sight_features": "", "sight_content": ""}}, {"title": "桃花山游乐园", "address": "瑞金路与遵义东路交叉口西南200米", "image": "", "rank": 42, "time": 2, "location": {"lat": 35.689414272590504, "lng": 105.07263604119446}, "feature": {"sight_features": "", "sight_content": ""}}, {"title": "公园路与兰包路交叉口", "address": "甘肃省白银市白银区", "image": "", "rank": 43, "time": 2, "location": {"lat": 36.54146356806949, "lng": 104.15541276065119}, "feature": {"sight_features": "", "sight_content": ""}}, {"title": "龙王庙道观", "address": "甘肃省白银市白银区X331(五金段)", "image": "", "rank": 44, "time": 2, "location": {"lat": 36.54146356806949, "lng": 104.15541276065119}, "feature": {"sight_features": "", "sight_content": ""}}, {"title": "黄龙寺", "address": "白银市白银区", "image": "", "rank": 45, "time": 1.5, "location": {"lat": 36.54146356806949, "lng": 104.15541276065119}, "feature": {"sight_features": "", "sight_content": ""}}, {"title": "火焰山国家矿山公园", "address": "甘肃省白银市白银区四龙路白银公司科技馆", "image": "", "rank": 46, "time": 2, "location": {"lat": 36.55743562346237, "lng": 104.1902655259461}, "feature": {"sight_features": "", "sight_content": ""}}, {"title": "福音堂", "address": "工农路9号", "image": "", "rank": 47, "time": 1.0, "location": {"lat": 38.42170201159413, "lng": 115.32750560881126}, "feature": {"sight_features": "", "sight_content": ""}}, {"title": "水上乐园", "address": "甘肃省白银市白银区创业五号路(新北重专用车有限公司院内)", "image": "", "rank": 48, "time": 2, "location": {"lat": 36.52459693357796, "lng": 104.10945521540468}, "feature": {"sight_features": "", "sight_content": ""}}, {"title": "矿山公园博物馆", "address": "白银市火焰山国家矿山公园内", "image": "", "rank": 49, "time": 2, "location": {"lat": 36.55672177669504, "lng": 104.20214884302897}, "feature": {"sight_features": "", "sight_content": ""}}, {"title": "哈尼儿童乐园", "address": "国芳百货综合楼3楼", "image": "", "rank": 50, "time": 2, "location": {"lat": 31.984131955214693, "lng": 117.25676999900217}, "feature": {"sight_features": "", "sight_content": ""}}, {"title": "观音普陀寺", "address": "路家湾", "image": "", "rank": 51, "time": 2, "location": {"lat": 30.046035761640386, "lng": 120.58028906044767}, "feature": {"sight_features": "", "sight_content": ""}}, {"title": "红山寺", "address": "白银市平川区", "image": "", "rank": 52, "time": null, "location": {"lat": 36.73349875186937, "lng": 104.83161394006756}, "feature": {"sight_features": "", "sight_content": ""}}, {"title": "华辰生态园", "address": "甘肃省白银市平川区", "image": "", "rank": 53, "time": 2, "location": {"lat": 36.73349875186937, "lng": 104.83161394006756}, "feature": {"sight_features": "", "sight_content": ""}}, {"title": "生龙山显云观道观", "address": "甘肃省白银市平川区黄桥乡双铺村杨涯湾", "image": "", "rank": 54, "time": 2, "location": {"lat": 36.637071596989536, "lng": 105.17357413712821}, "feature": {"sight_features": "", "sight_content": ""}}, {"title": "普渡寺", "address": "甘肃省白银市平川区S308", "image": "", "rank": 55, "time": 0.6, "location": {"lat": 36.73349875186937, "lng": 104.83161394006756}, "feature": {"sight_features": "", "sight_content": ""}}, {"title": "恒山公园", "address": "甘肃省白银市平川区恒山高尔夫球场附近", "image": "", "rank": 56, "time": 1.5, "location": {"lat": 36.73349875186937, "lng": 104.83161394006756}, "feature": {"sight_features": "", "sight_content": ""}}, {"title": "三官庙", "address": "白银市靖远县", "image": "", "rank": 57, "time": 2, "location": {"lat": 36.577096288836835, "lng": 104.682515077963}, "feature": {"sight_features": "", "sight_content": ""}}, {"title": "长城", "address": "中卫市沙坡头区", "image": "", "rank": 58, "time": 1.0, "location": {"lat": 37.50570141870293, "lng": 105.20357090088713}, "feature": {"sight_features": "", "sight_content": ""}}, {"title": "会宁牡丹园", "address": "207省道附近", "image": "", "rank": 59, "time": 1.0, "location": {"lat": 41.663861161619536, "lng": 118.91663300242887}, "feature": {"sight_features": "", "sight_content": ""}}, {"title": "洪宇广场", "address": "甘肃省白银市会宁县河畔镇", "image": "", "rank": 60, "time": 2, "location": {"lat": 36.12621571335312, "lng": 104.97443499411565}, "feature": {"sight_features": "", "sight_content": ""}}]}