{"cityName": "白玉", "days": 2, "cityImage": "", "spots": [{"title": "亚青寺", "address": "甘孜藏族自治州白玉县昌台镇", "image": "", "rank": 1, "time": 2.5, "location": {"lat": 31.21531444878755, "lng": 98.8311002182397}, "feature": {"sight_features": "", "sight_content": ""}}, {"title": "白玉寺", "address": "甘孜藏族自治州白玉县城西南的白玉山", "image": "", "rank": 2, "time": 2.0, "location": {"lat": 31.21531444878755, "lng": 98.8311002182397}, "feature": {"sight_features": "", "sight_content": ""}}, {"title": "噶陀寺", "address": "甘孜州白玉县，河坡地区白龙沟朵念山的山腰", "image": "", "rank": 3, "time": 1.5, "location": {"lat": 31.272229861564323, "lng": 98.98409368388278}, "feature": {"sight_features": "", "sight_content": ""}}, {"title": "察青松多白唇鹿自然保护区", "address": "四川省甘孜州白玉县阳麻绒乡境内", "image": "", "rank": 4, "time": 2, "location": {"lat": 31.04770199441095, "lng": 99.27987905535676}, "feature": {"sight_features": "", "sight_content": ""}}, {"title": "火龙沟人文生态景区", "address": "甘孜州白玉县南部盖玉乡降曲河流域，距县城70公里", "image": "", "rank": 5, "time": 2, "location": {"lat": 30.777320921336706, "lng": 99.04603222249085}, "feature": {"sight_features": "", "sight_content": ""}}, {"title": "安章寺", "address": "甘孜藏族自治州白玉县", "image": "", "rank": 6, "time": 1.5, "location": {"lat": 31.21531444878755, "lng": 98.8311002182397}, "feature": {"sight_features": "", "sight_content": ""}}, {"title": "昌台大草原", "address": "位于甘孜州白玉县昌台和亚青寺之间。", "image": "", "rank": 7, "time": 2, "location": {"lat": 31.21531444878755, "lng": 98.8311002182397}, "feature": {"sight_features": "", "sight_content": ""}}, {"title": "拉龙措", "address": "甘孜州白玉县东北部的纳塔乡境内。", "image": "", "rank": 8, "time": null, "location": {"lat": 30.90516931781497, "lng": 99.63848034492192}, "feature": {"sight_features": "", "sight_content": ""}}, {"title": "达依寺", "address": "甘孜州白玉县赠科乡岳达村，离县城93公里。", "image": "", "rank": 9, "time": 2, "location": {"lat": 31.47849172098441, "lng": 99.32904506671528}, "feature": {"sight_features": "", "sight_content": ""}}, {"title": "错拉海子", "address": "甘孜州白玉县盖玉乡错拉村旁。", "image": "", "rank": 10, "time": 2, "location": {"lat": 30.778310446743884, "lng": 99.6731341867498}, "feature": {"sight_features": "", "sight_content": ""}}, {"title": "乡烈士陵园", "address": "甘孜藏族自治州白玉县", "image": "", "rank": 11, "time": 2, "location": {"lat": 31.21531444878755, "lng": 98.8311002182397}, "feature": {"sight_features": "", "sight_content": ""}}, {"title": "达美拥雪山", "address": "西藏自治区芒康县境内 854500", "image": "", "rank": 12, "time": 2, "location": {"lat": 29.685776117713207, "lng": 98.59968548039171}, "feature": {"sight_features": "", "sight_content": ""}}, {"title": "叶巴滩大峡谷", "address": "近盖玉乡", "image": "", "rank": 13, "time": 2, "location": {"lat": 30.777320921336706, "lng": 99.04603222249085}, "feature": {"sight_features": "", "sight_content": ""}}, {"title": "察青松多保护区", "address": "四川省白玉县境内", "image": "", "rank": 14, "time": 2, "location": {"lat": 31.21531444878755, "lng": 98.8311002182397}, "feature": {"sight_features": "", "sight_content": ""}}, {"title": "甘孜州昌台国营牧场", "address": "甘孜藏族自治州-白玉县", "image": "", "rank": 15, "time": 2, "location": {"lat": 31.21531444878755, "lng": 98.8311002182397}, "feature": {"sight_features": "", "sight_content": ""}}, {"title": "滴水岩", "address": "白玉县建设镇扎盘村", "image": "", "rank": 16, "time": 1.5, "location": {"lat": 31.187162739599987, "lng": 98.81273432346106}, "feature": {"sight_features": "", "sight_content": ""}}]}