{"cityName": "巴里坤", "days": 2, "cityImage": "", "spots": [{"title": "鸣沙山", "address": "哈密地区巴里坤哈萨克自治县境内", "image": "", "rank": 1, "time": null, "location": {"lat": 44.273632338337144, "lng": 92.80987293288734}, "feature": {"sight_features": "", "sight_content": ""}}, {"title": "巴里坤草原", "address": "哈密地区巴里坤哈萨克自治县", "image": "", "rank": 2, "time": 2.5, "location": {"lat": 44.273632338337144, "lng": 92.80987293288734}, "feature": {"sight_features": "", "sight_content": ""}}, {"title": "巴里坤湖", "address": "巴里坤县西18公里海子沿乡", "image": "", "rank": 3, "time": 2.0, "location": {"lat": 43.58869486724944, "lng": 92.83034184380448}, "feature": {"sight_features": "", "sight_content": ""}}, {"title": "巴里坤古民宅", "address": "巴里坤县南街榆树巷5号", "image": "", "rank": 4, "time": 1.0, "location": {"lat": 39.89872944266739, "lng": 116.3969021382873}, "feature": {"sight_features": "", "sight_content": ""}}, {"title": "巴里坤古城", "address": "哈密地区巴里坤县县城", "image": "", "rank": 5, "time": 3.5, "location": {"lat": 42.8585963324445, "lng": 93.52835509281725}, "feature": {"sight_features": "", "sight_content": ""}}, {"title": "松树塘", "address": "位于天山北麓，地跨哈密、巴里坤和伊吾的交界处，南距哈密市73公里", "image": "", "rank": 6, "time": 1.0, "location": {"lat": 43.80027135831345, "lng": 87.63840777756565}, "feature": {"sight_features": "", "sight_content": ""}}, {"title": "怪石山", "address": "巴里坤湖西北7公里外小夹山的最东端，距巴里坤县城60公里", "image": "", "rank": 7, "time": 1.0, "location": {"lat": 43.701560164947004, "lng": 92.68924556687793}, "feature": {"sight_features": "", "sight_content": ""}}, {"title": "大河唐城", "address": "哈密地区巴里坤哈萨克自治县大河镇东头渠村东部", "image": "", "rank": 8, "time": 1.5, "location": {"lat": 43.68883708509961, "lng": 93.17846218527268}, "feature": {"sight_features": "", "sight_content": ""}}, {"title": "地藏寺", "address": "哈密地区巴里坤哈萨克自治县东195米", "image": "", "rank": 9, "time": 1.0, "location": {"lat": 44.273632338337144, "lng": 92.81162462863179}, "feature": {"sight_features": "", "sight_content": ""}}, {"title": "蒲类海滑雪场", "address": "哈密巴里坤哈萨克自治县新市路", "image": "", "rank": 10, "time": 2, "location": {"lat": 43.60688763974861, "lng": 93.03089761550457}, "feature": {"sight_features": "", "sight_content": ""}}, {"title": "仙姑庙", "address": "哈密地区巴里坤县天山路", "image": "", "rank": 11, "time": 0.3, "location": {"lat": 43.6015957446768, "lng": 93.03109103954529}, "feature": {"sight_features": "", "sight_content": ""}}, {"title": "清代古粮仓", "address": "哈密市巴里坤县汉城南西街150号", "image": "", "rank": 12, "time": 2, "location": {"lat": 42.34446710455244, "lng": 93.52937301238876}, "feature": {"sight_features": "", "sight_content": ""}}, {"title": "松峰书院", "address": "哈密市巴里坤县天山北路150米", "image": "", "rank": 13, "time": 2, "location": {"lat": 42.84812411205296, "lng": 93.50844983386925}, "feature": {"sight_features": "", "sight_content": ""}}, {"title": "哈密东天山冰雪游乐场", "address": "新疆维吾尔自治区哈密地区哈密市天山风景名胜区内", "image": "", "rank": 14, "time": 1.0, "location": {"lat": 43.29281440542474, "lng": 93.81251903919677}, "feature": {"sight_features": "", "sight_content": ""}}, {"title": "巴里坤兰州湾子", "address": "哈密市巴里坤县城西南角", "image": "", "rank": 15, "time": 2, "location": {"lat": 42.34446710455244, "lng": 93.52937301238876}, "feature": {"sight_features": "", "sight_content": ""}}, {"title": "榆树巷", "address": "巴里坤镇榆树巷", "image": "", "rank": 16, "time": 2, "location": {"lat": 43.60869682986562, "lng": 93.00888381793133}, "feature": {"sight_features": "", "sight_content": ""}}, {"title": "巴里坤地藏寺仙姑庙景区", "address": "新疆维吾尔自治区巴里坤哈萨克自治县县城南门处", "image": "", "rank": 17, "time": null, "location": {"lat": 43.60568877078736, "lng": 93.0229309535639}, "feature": {"sight_features": "", "sight_content": ""}}, {"title": "巴里坤步行街", "address": "新疆维吾尔自治区巴里坤哈萨克自治县汉城东路近华丰家私", "image": "", "rank": 18, "time": 2, "location": {"lat": 43.60577490040055, "lng": 93.02658163122422}, "feature": {"sight_features": "", "sight_content": ""}}, {"title": "古名宅", "address": "汉城北路古名宅", "image": "", "rank": 19, "time": 2, "location": {"lat": 34.28348425234738, "lng": 108.87830458450289}, "feature": {"sight_features": "", "sight_content": ""}}]}