{"cityName": "班玛", "days": 2, "cityImage": "", "spots": [{"title": "红军沟", "address": "果洛州班玛县亚尔堂乡子木达沟", "image": "", "rank": 1, "time": 1.0, "location": {"lat": 32.93850392746955, "lng": 100.74360459644603}, "feature": {"sight_features": "", "sight_content": ""}}, {"title": "白扎寺", "address": "果洛州班玛县城东南部的江日堂乡", "image": "", "rank": 2, "time": 1.5, "location": {"lat": 33.00205333596297, "lng": 100.83095938422103}, "feature": {"sight_features": "", "sight_content": ""}}, {"title": "吉德寺", "address": "果洛州班玛县东南部，班前乡吉德齐村", "image": "", "rank": 3, "time": 1.5, "location": {"lat": 32.90990159963649, "lng": 100.99857100866528}, "feature": {"sight_features": "", "sight_content": ""}}, {"title": "灯塔寺", "address": "果洛州班玛县灯塔乡", "image": "", "rank": 4, "time": 1.5, "location": {"lat": 32.690025532054364, "lng": 100.94343246669986}, "feature": {"sight_features": "", "sight_content": ""}}, {"title": "阿什羌寺", "address": "果洛州班玛县城东南部约10公里处", "image": "", "rank": 5, "time": 1.5, "location": {"lat": 32.93850392746955, "lng": 100.74360459644603}, "feature": {"sight_features": "", "sight_content": ""}}, {"title": "知钦寺", "address": "果洛州班玛县多柯河畔", "image": "", "rank": 6, "time": 1.5, "location": {"lat": 32.93850392746955, "lng": 100.74360459644603}, "feature": {"sight_features": "", "sight_content": ""}}, {"title": "玛柯河林区", "address": "青海省班玛县城东南 814300", "image": "", "rank": 7, "time": 1.0, "location": {"lat": 36.605707645661155, "lng": 101.8095690383313}, "feature": {"sight_features": "", "sight_content": ""}}, {"title": "龙钵寺", "address": "青海省果洛藏族自治州班玛县", "image": "", "rank": 8, "time": 1.5, "location": {"lat": 32.93850392746955, "lng": 100.74360459644603}, "feature": {"sight_features": "", "sight_content": ""}}, {"title": "然亚寺", "address": "果洛州班玛县，708县道东100米", "image": "", "rank": 9, "time": 2.5, "location": {"lat": 32.93850392746955, "lng": 100.74360459644603}, "feature": {"sight_features": "", "sight_content": ""}}, {"title": "班前寺", "address": "果洛州班玛县班前乡", "image": "", "rank": 10, "time": 1.0, "location": {"lat": 32.90990159963649, "lng": 100.99857100866528}, "feature": {"sight_features": "", "sight_content": ""}}, {"title": "可让玛", "address": "果洛藏族自治州-班玛县", "image": "", "rank": 11, "time": 2, "location": {"lat": 32.93850392746955, "lng": 100.74360459644603}, "feature": {"sight_features": "", "sight_content": ""}}]}