{"cityName": "宝丰", "days": 2, "cityImage": "", "spots": [{"title": "宝丰县科技馆", "address": "山河路8号", "image": "", "rank": 1, "time": 2, "location": {"lat": 33.457617255467305, "lng": 118.21137385049455}, "feature": {"sight_features": "", "sight_content": ""}}, {"title": "宝丰书画院", "address": "西大街", "image": "", "rank": 2, "time": 1.0, "location": {"lat": 39.91357131364959, "lng": 116.6700940616933}, "feature": {"sight_features": "", "sight_content": ""}}, {"title": "中华曲艺展览馆", "address": "马街学校附近", "image": "", "rank": 3, "time": 2, "location": {"lat": 33.81866861515895, "lng": 113.05414903446575}, "feature": {"sight_features": "", "sight_content": ""}}, {"title": "清凉寺汝官窑", "address": "河南宝丰县大营镇清凉寺村 476301", "image": "", "rank": 4, "time": 1.5, "location": {"lat": 33.92982768453354, "lng": 112.86849299542894}, "feature": {"sight_features": "", "sight_content": ""}}, {"title": "土菜沟农家院", "address": "宝丰县闹店镇李家沟西南500米", "image": "", "rank": 5, "time": 2, "location": {"lat": 33.829452361448816, "lng": 113.2374936669508}, "feature": {"sight_features": "", "sight_content": ""}}, {"title": "二郎庙", "address": "平顶山市宝丰县", "image": "", "rank": 6, "time": 1.0, "location": {"lat": 33.874745598630774, "lng": 113.06144723583577}, "feature": {"sight_features": "", "sight_content": ""}}, {"title": "宝丰县图书馆", "address": "万寿步行街与人民路交叉口南50米", "image": "", "rank": 7, "time": 2, "location": {"lat": 33.87354794858909, "lng": 113.07036702956663}, "feature": {"sight_features": "", "sight_content": ""}}, {"title": "中原解放纪念馆", "address": "文峰路北150米", "image": "", "rank": 8, "time": 2, "location": {"lat": 31.168107815766824, "lng": 112.59346774186695}, "feature": {"sight_features": "", "sight_content": ""}}, {"title": "大营镇二村文化广场", "address": "大营镇卫生院附近", "image": "", "rank": 9, "time": 2, "location": {"lat": 33.064891971942295, "lng": 120.23044496143469}, "feature": {"sight_features": "", "sight_content": ""}}, {"title": "新滍阳清真寺", "address": "河南省平顶山市宝丰县幸福路宝丰李庄美的品牌专卖店东南", "image": "", "rank": 10, "time": 2, "location": {"lat": 33.854389000590366, "lng": 113.28106026248923}, "feature": {"sight_features": "", "sight_content": ""}}, {"title": "为民游园", "address": "为民路79-83附近", "image": "", "rank": 11, "time": 2, "location": {"lat": 30.166367852141885, "lng": 120.53089814572844}, "feature": {"sight_features": "", "sight_content": ""}}, {"title": "长寿山公园", "address": "张八桥镇长寿山公园", "image": "", "rank": 12, "time": 2, "location": {"lat": 33.87832208944196, "lng": 112.94615300514012}, "feature": {"sight_features": "", "sight_content": ""}}, {"title": "净肠河滨河公园", "address": "241省道附近", "image": "", "rank": 13, "time": 2, "location": {"lat": 38.605845198015224, "lng": 114.37948707331753}, "feature": {"sight_features": "", "sight_content": ""}}, {"title": "清凉寺汝官窑遗址", "address": "河南省平顶山市宝丰县大营镇清凉寺村", "image": "", "rank": 14, "time": 2, "location": {"lat": 33.92982768453354, "lng": 112.86849299542894}, "feature": {"sight_features": "", "sight_content": ""}}, {"title": "宝丰汝窑博物馆", "address": "河南省平顶山市宝丰县", "image": "", "rank": 15, "time": 2, "location": {"lat": 33.874745598630774, "lng": 113.06144723583577}, "feature": {"sight_features": "", "sight_content": ""}}, {"title": "宝丰县城市规划展览馆", "address": "迎宾大道408号", "image": "", "rank": 16, "time": 2, "location": {"lat": 30.630927559834376, "lng": 119.68703662586171}, "feature": {"sight_features": "", "sight_content": ""}}, {"title": "派铌迩有机果树采摘园", "address": "肖旗乡五里头村北(派铌迩农牧科技有限公司)", "image": "", "rank": 17, "time": null, "location": {"lat": 26.14813887191544, "lng": 111.63033551391663}, "feature": {"sight_features": "", "sight_content": ""}}, {"title": "宝丰县泉都水上乐园", "address": "中兴路与北环路交叉口向东66米路南", "image": "", "rank": 18, "time": 2, "location": {"lat": 22.955832997211942, "lng": 113.67942075667585}, "feature": {"sight_features": "", "sight_content": ""}}, {"title": "24小时公益图书馆", "address": "龙兴北路惠翔金河湾小区旁", "image": "", "rank": 19, "time": 2, "location": {"lat": 33.87952063761583, "lng": 113.06872458843321}, "feature": {"sight_features": "", "sight_content": ""}}, {"title": "马川新村草莓葡萄采摘园", "address": "231省道西200米", "image": "", "rank": 20, "time": 2, "location": {"lat": 38.570258381735, "lng": 115.41167271277222}, "feature": {"sight_features": "", "sight_content": ""}}, {"title": "丰裕葡萄采摘园", "address": "赵庄乡丰裕葡萄采摘园", "image": "", "rank": 21, "time": 2, "location": {"lat": 40.377884927793225, "lng": 116.6646780223668}, "feature": {"sight_features": "", "sight_content": ""}}, {"title": "红叶庄园", "address": "龙兴寺水库大坝南", "image": "", "rank": 22, "time": 2, "location": {"lat": 43.798787531828076, "lng": 125.46318263488709}, "feature": {"sight_features": "", "sight_content": ""}}, {"title": "鑫都财富广场步行街", "address": "河南省宝丰县人民路", "image": "", "rank": 23, "time": 2, "location": {"lat": 33.87301966207966, "lng": 113.07799674160204}, "feature": {"sight_features": "", "sight_content": ""}}, {"title": "淑洁商贸街", "address": "河南省宝丰县龙兴北路", "image": "", "rank": 24, "time": 2, "location": {"lat": 33.87983567295486, "lng": 113.06896986266796}, "feature": {"sight_features": "", "sight_content": ""}}, {"title": "生态公园", "address": "平顶山市宝丰县人民东路", "image": "", "rank": 25, "time": 1.5, "location": {"lat": 33.87192402823452, "lng": 113.0875036651193}, "feature": {"sight_features": "", "sight_content": ""}}]}