{"cityName": "宝鸡", "days": null, "cityImage": "", "spots": [{"title": "法门寺", "address": "宝鸡市扶风县城北约10公里的法门镇，距西安约120公里", "image": "", "rank": 1, "time": 1.0, "location": {"lat": 34.48445258885242, "lng": 107.88390692090205}, "feature": {"sight_features": "特色1 成为继兵马俑之后的“陕西第二个文化符号”。 特色2 宝塔金函舍利塔，旷世奇珍现佛光。 特色3 法门寺佛塔被誉为“护国真身宝塔”。 特色4 寺中供奉现今世上仅存的释迦牟尼佛“指骨真身舍利”。 特色5 法门寺珍宝馆拥有出土于法门寺地宫的两千多件大唐国宝重器", "sight_content": "法门寺，一座中国富传奇色彩的寺院，久负盛名的中国佛教圣地，被誉为关中塔庙之祖。两千年来，由于供奉的佛骨舍利和独特的地理位置，奠定了它在中国佛教界举足轻重的地位。\n如今的陕西法门寺文化景区，荟萃中国佛教、亚洲佛教和世界佛教的文化精华，体现佛文化的优秀精神和普世价值，成为集世界僧众朝拜、文化交流、观光旅游、休闲度假为一体的综合文化旅游景区，继兵马俑之后的\"陕西第二个文化符号\"。\n1981年8月24日，宝塔半边倒塌。1986年政府决定重建，87年2月底重修宝塔。适逢四月初八佛诞日，“从地涌出多宝龛，照古腾今无与并”，在沉寂了1113年之后，2499多件大唐国宝重器，簇拥着佛祖真身指骨舍利重回人间。地宫内出土的稀世珍宝，不论在中国社会政治史、文化史、科技史、中外交流史、美术史等方面的研究上，都具有极其重要的价值。2002年应台湾星云大师等邀请，佛指舍利到台湾瞻礼供奉。2004年应香港佛教领袖觉光长老等邀请，佛指舍利在香港瞻礼供奉，盛况空前、影响极大。\n合十舍利塔位于法门寺文化景区的北端，塔高148米，是景区的核心建筑，寓意佛之彼岸。也许在中国的大江南北，你见过许多的佛寺古塔，但可以说法门寺的舍利塔造型奇特。—整个塔的造型像两只合十祷告的双手，庄严肃穆，气势恢宏，其中供奉着释迦牟尼指骨舍利。舍利是梵文音译，意为骨身，或灵骨。在佛教文化中，它扮演着至高无上的角色。每逢初一、十五和重大佛教节日佛指舍利都会升至主塔一层以供信众瞻仰圣物。"}}, {"title": "太白山国家森林公园", "address": "宝鸡市眉县汤峪镇太安路", "image": "", "rank": 2, "time": 4.5, "location": {"lat": 34.13948808588959, "lng": 107.91184101171848}, "feature": {"sight_features": "特色1 这里是中国南北分界线，也是徒步登山的好地方。 特色2 太白山植被、气候、土壤、动物，均以海拔高度变化，呈现出明显的垂直景观带谱 特色3 太白山是以花岗岩为主体的巨大断块山地，山体庞大，气势雄伟，冠盖秦岭群峰", "sight_content": "秦岭是中国南北气候的分界岭，又是长江、黄河两大水系的分水岭。太白山是秦岭的主峰，它位于眉县、太白县、周至县三县交汇处，我们太白山国家森林公园因太白山而得名，它是1991年8月2日由国家林业部正式批准建立国家级森林公园，1992年7月2日正式对外开放。\n太白山国家森林公园地理条件优越，交通便利。东距西安110公里，西距宝鸡90公里，西宝高速、西宝高铁、310国道、陇海铁路、关中旅游环线从眉县穿境而过。东临道教天下洞天之称的楼观台，北接佛教圣地法门寺，西与西府名胜诸葛亮庙、钓鱼台、周公庙等景点相毗邻。\n太白山国家森林公园以高、寒、奇、特、秀五大特点著称：\n高：早在唐代的时候，边塞诗人岑参有诗写道，“天晴诸山出，秦岭峰最高。”太白山是秦岭的主峰，当然也就是最高峰了。它是中国大陆青藏高原以东第一高峰，堪称华中第一山，高于三山五岳，他比四川的峨眉山高700米，比渭南的华山高1700米，比黄山高2100米，比山东的泰山高2200米，它雄冠秦岭，俯瞰五岳，凌驾于关中平原之上。\n寒：太白山顶常年积雪覆盖，盛夏不化，远远望去，如同盛开的千朵白莲，横于蓝天半壁。所以有“太白积雪六月天”之称，它与华岳仙掌、曲江流饮、咸阳古渡等并称为关中八景。夏日登山，山脚下是烈日炎炎、半山腰冷风习习，等到山顶上却是冷风嗖嗖，可谓是“一日历四季，十里不同天”。当代诗人刘郁在亲自体验太白山 千变万化的气候特点之后，有诗云“朝辞盛夏酷暑天，夜宿寒冬半夜眠，春花秋叶铺满路，四时原在一瞬间。”\n奇：在海拔3300米以上，完整清晰的保留着第四纪冰川遗迹，冰川地貌有冰斗、角峰、刃背、槽谷等。最令人震撼的是自然奇观，高山湖泊群、高山花海等分布在山巅周边。在海拔2200米---3400米的山地范围内，万亩杜鹃花丛四月底至七月初竞相开放；从海拔3511米的天圆地方至主峰拔仙台3771.2米处，将经过大爷海、二爷海、三爷海、玉皇池、三清池、药王池。六处高山湖泊，形如串珠闪耀在太白山的胸前。\n特： 由于太白山的高和特殊的地理位置形成丰富多彩的自然景观资源。被誉为我国西部的一颗绿色明珠。它将地球上数千公里范围内才有的动物带、植物带、气候带均匀的分布在海拔620米到3511米的范围内，由下至上可以感受到五个气候带的变化，分别为暖温带—温带—寒温带—亚寒带—寒带。由于气候的立体差异，使植物的分布也形成相应的垂直谱带，由下到上，可以看到松栎林带、红桦林带、冷杉林带、落叶松林带、高山草甸五个景观林带，界线清晰，色调分明。由于得天独厚的自然环境，太白山动植物资源丰富，种类繁多，据不完全统计，有动物302种，鸟类230种，植物1970多种，故又有话说，爬一次太白山，相当于读了半本《本草纲目》。太白山国家森林公园素有“中国天然动物园”和“亚洲天然植物园”之称。\n秀：太白山东起周至县老君岭，西至太白县咀头镇，南跨黄柏源，北到营头.汤峪一线，东西长61千米，南北宽39千米，总面积为2949公顷，园内共有十大景区，180多个景点，海拔跨度从620米—3771.2米，以苍山奇峰为骨架，以森林景观为主体，以清潭碧溪为脉络，文物古迹点缀其间，构成了一幅静态景观与动态景观相协调，自然景观与人文景观浑然一体的生动画卷。它有东岳泰山的雄伟，西岳华山的险峻，神农架的古朴，九寨沟的清冽，然而它又是一座只属于自己的山，博大、雄奇。深沉、壮美。"}}, {"title": "宝鸡青铜器博物馆", "address": "宝鸡市滨河大道东段中华石鼓园内", "image": "", "rank": 3, "time": 1.5, "location": {"lat": 34.353612184605986, "lng": 107.20035937746576}, "feature": {"sight_features": "", "sight_content": ""}}, {"title": "金台观", "address": "宝鸡市金台区摩天院路", "image": "", "rank": 4, "time": 1.0, "location": {"lat": 34.38543858929295, "lng": 107.16079234617652}, "feature": {"sight_features": "", "sight_content": ""}}, {"title": "炎帝陵", "address": "宝鸡市渭滨区清姜路80号常羊山", "image": "", "rank": 5, "time": 1.5, "location": {"lat": 34.33780515032314, "lng": 107.118744089967}, "feature": {"sight_features": "特色1 这里是炎黄子孙祭拜中华始祖炎帝的地方。", "sight_content": "滔滔渭水，源远流长；巍巍秦岭，绵延广袤。 在宝鸡这块古老而肥沃的黄土地上，自五六千年以来，一直传颂着一个伟大的历史传说人物——中华民族的人文始祖炎帝。炎帝与黄帝相邻而居，生活于宝鸡渭水流域的“姜水”之畔。\n炎帝为中华文化、中华文明的开创做出了杰出的贡献，为中华民族的始兴和统一奠定了基础。炎帝的发明创造，表现了敢为人先、百折不挠、造福于民、自强不息的创业和奉献精神。这种精神千百年来激励着中华民族与时俱进、开拓奋发，创造了中华民族的辉煌历史，这种精神，随着中华民族的形成、发展、壮大，其内涵在不断地丰富和扩大，已升华为中华民族的民族精神，铸造为中华民族的民族之魂。远在五千多年前的上古时期，神农氏部落就在这里繁衍生息。中华民族的两位伟大始祖炎帝和黄帝就在这里诞生，中华民族在这里孕育、发展和壮大，宝鸡是华夏文明之源，是中华民族之根，是全球华人的老家。"}}, {"title": "姜子牙钓鱼台", "address": "宝鸡市陈仓区天王镇钓鱼台路南端", "image": "", "rank": 6, "time": 1.0, "location": {"lat": 34.29853357092988, "lng": 107.45800384861373}, "feature": {"sight_features": "", "sight_content": ""}}, {"title": "红河谷森林公园", "address": "宝鸡市眉县营头镇", "image": "", "rank": 7, "time": 4.5, "location": {"lat": 34.09797655335227, "lng": 107.74823074903276}, "feature": {"sight_features": "特色1 斗母瀑布堪称陕西第一瀑。 特色2 飞瀑深潭，珠飞玉渐，气势磅礴。石峡深邃，幽谷含秀，景色迤逦，交错辉映，让人流连忘返。 特色3 因太白八景之一的红河丹崖而得名。", "sight_content": "红河谷森林公园位于陕西眉县营头镇以南的赤峪峡谷之中，西傍陈仓古城宝鸡，东望千年古都西安，毗邻西宝高速公路，尽占地利之优，交通之便。\n这里巍峨的秦岭高耸入云，像一道绿色的屏障，横亘于三秦大地，在秦岭主峰太白山北麓的万绿丛中，红河谷森林公园宛如刚出浴的青春少女，从玉带凝烟的山涧里款款而来，以其挡不住的魅力，吸引着八方游人前来旅游登山，休闲度假，园内绿涛万顷，奇峰林立，山溪流光，曲径通幽，旅游资源极为丰富，现已成为誉满三秦，名扬九州的旅游热点景区。\n观秦岭胜状，于红河幽谷:一线天坚壁对峙，石门天险；赤峪河银练蜿蜒，高瀑低潭；四咀山奇峰挺拔，松柏苍古；十里峡青绿长廊，步挪景鲜；斗母峰瀑布天降，银河飞溅；蟠龙湾九龙出世，福泽延绵；“群仙聚首”形神兼备，“神龟宝蛋”福寿双全，“太公石船”神话扬帆，“双洞水帘”传说久远,综合旅游度假区，俨然世外桃源，童话一般。“幽、奇、峻、秀”自特色，山、林、石、水成画卷。\n红河谷的魅力在山在水，在林在石，更在于她充满智慧和人性的这方真山真水，真情真意的绿色家园。走进红河谷就像走进了一幅锦绣画卷；相聚红河谷就像欣赏一首优美的诗赋；拥抱红河谷就像浪漫一程人生之旅；难忘红河谷就像难舍一处人间仙境。"}}, {"title": "中华石鼓园", "address": "宝鸡市渭滨区滨河大道南150米", "image": "", "rank": 8, "time": 2, "location": {"lat": 34.35372835863189, "lng": 107.17618931070228}, "feature": {"sight_features": "", "sight_content": ""}}, {"title": "五丈原诸葛亮庙", "address": "宝鸡市岐山县五丈原镇周五路", "image": "", "rank": 9, "time": 2.5, "location": {"lat": 34.33535629310692, "lng": 107.63103748342122}, "feature": {"sight_features": "特色1 省级重点文物保护单位和风景名胜区", "sight_content": "五丈原风景名胜区位于陕西省宝鸡市岐山县境内，东距西安市135公里，西距宝鸡市56公里，东邻太白山森林公园，西邻钓鱼台景区，北邻周公庙景区。\n五丈原是三国时期一代贤相、智慧之星——诸葛亮第五次北伐屯兵之地。公元234年，蜀国丞相诸葛亮率十万大军，走褒斜道，出斜谷，驻兵五丈原，与魏将司马懿相隔渭河对峙一百多天，后因积劳成疾病逝，享年54岁。五丈原从此闻名于世，后人为纪念诸葛亮，于五丈原上最北端建祠修庙。五丈原诸葛亮庙始建于唐代，现留存为明清古建筑群。庙宇坐南朝北，耸峙原头，雄伟壮观，屋檐脊兽，千姿百态，壁画彩绘，古朴典雅。庙内有重塑于清代的诸葛亮塑像、岳飞手书诸葛亮《出师表》石刻、“将星”落星石、展示诸葛亮军事才能的八卦阵等景观二十多处。"}}, {"title": "炎帝祠", "address": "宝鸡市渭滨区南光路99号炎帝园内", "image": "", "rank": 10, "time": 1.0, "location": {"lat": 34.380034819917604, "lng": 107.14207613650325}, "feature": {"sight_features": "", "sight_content": ""}}, {"title": "关山草原", "address": "宝鸡市陇县关山店子村", "image": "", "rank": 11, "time": 4.5, "location": {"lat": 34.81599318359737, "lng": 106.84196886989866}, "feature": {"sight_features": "特色1 享有“小天山”之美誉", "sight_content": "关山草原位于宝鸡市陇县西南部,距宝鸡市区134公里、西安市300公里,是中国西北内陆地区唯一的以高山草甸为主体的具有欧式风情的省级风景名胜区,国家AAAA级旅游景区。景区内荟萃了森林、草原、河流、山峦、峡谷等自然景观，纯朴自然又不失壮观,享有“小天山”之美誉。\n这里，地貌与中欧阿尔卑斯山相似，幽涧水泽兼具，草原森林相间，地势广阔，水肥草美，牧马成群，景色秀丽。\n这里,地貌与中欧阿尔卑斯山相似.气候受垂直地带性地理条件的影响,冬春无界,夏秋相连,有“关山六月寒凝霜” 的写照.\n关山景区自然旅游资源景观，由山势浑圆的峰丘、梁脊、宽谷、缓坡构建出景区的景观骨架；由连片的林木和草甸草地构成景区的景观主色调；由潺潺溪流和清澈潭池构成景区的景观脉搏；由蓝天白云以及各种天象构成景区的景观衬托；由清新的空气和凉爽宜人的气候构成景区的景观氛围。"}}, {"title": "岐山周公庙景区", "address": "宝鸡市岐山县凤鸣镇", "image": "", "rank": 12, "time": 2.5, "location": {"lat": 34.45304861268759, "lng": 107.6155192476516}, "feature": {"sight_features": "", "sight_content": ""}}, {"title": "凤凰湖景区", "address": "宝鸡市凤县滨江路和316国道的交叉口附近", "image": "", "rank": 13, "time": 3.5, "location": {"lat": 33.80726980604007, "lng": 106.63562196691484}, "feature": {"sight_features": "", "sight_content": ""}}, {"title": "秦岭", "address": "宝鸡市凤县", "image": "", "rank": 14, "time": 3.0, "location": {"lat": 33.916583016343495, "lng": 106.52255782186808}, "feature": {"sight_features": "", "sight_content": ""}}, {"title": "青峰峡森林公园", "address": "宝鸡市太白县桃川镇杜家庄村青峰峡森林公园", "image": "", "rank": 15, "time": 3.0, "location": {"lat": 34.04807949875775, "lng": 107.45207163305983}, "feature": {"sight_features": "特色1 九潭十八瀑七十二景", "sight_content": "太白山青峰峡森林公园先后创建为国家森林公园，国家AAA级旅游景区，国家级水利风景区。\n公园总面积4360公顷，园内海拔介于1340—3400米之间，森林覆盖率达95%以上，年平均气温7.6℃，空气清新，负离子含量旅游旺季为3万个/cm3。公园景观有“九潭十八瀑七十二景”，分为四大景区：即临芳墅景区（著名景点有千年古杉、睡佛山）、雾瀑涯景区（著名景点有青凤飞瀑、仙桃山、骆驼峰等）、神女峰景区（著名景点有神女峰、将军探路、石龟背蛋、雄鹰展等）、鳌山景区顶部为秦岭主峰鳌山和四十里跑马梁，可见第四纪冰川地貌，瀑布、石海、石河广布，景象壮观独特（著名景点有高山草甸、万亩杜鹃、浩瀚石海、第四纪冰川遗迹等）。人文传说历史悠久，有汉皇帝刘秀之“四十里跑马梁”，也有唐王李世民之妹为爱情献身的“舍身崖”，更有神女峰、睡佛山、娘娘庙之优美传说，点缀在自然景观之间，辉映成趣。\n园内动植物资源丰富、种类繁多、起源古老，森林植被垂直带谱十分明显，现有野生植物2800余种，野生动物1700余种。珍稀野生动物有：大熊猫、金丝猴、羚牛、大鲵、细鳞鲑等栖息在这里。"}}, {"title": "太白山凤凰温泉", "address": "宝鸡市眉县太白山国际生态旅游度假区太白山凤凰温泉", "image": "", "rank": 16, "time": 2, "location": {"lat": 34.28037586308579, "lng": 107.75639813644135}, "feature": {"sight_features": "特色1 露天山地艺术温泉。", "sight_content": "太白山凤凰温泉水来自于萃取地表2000米以下的优质深层岩矿泉，出水温度高达72摄氏度，日出水量可达2000多吨。经陕西省地质矿产局第一水文队勘察及抽样测试，证实此温泉水质属于偏硅酸硫酸钙钠型温泉，是适宜人体健康养生的温泉水。\n泉养生区由室外温泉区、室内sap水疗区及汗蒸区、休息区四个区域组成，室外温泉区分为：动感温泉区、俪人养颜区、儿童戏水区、五行养生区、私密温泉区等各种风格的30余种温泉池。太白山凤凰温泉是优质山地温泉。\n温室外温泉区依山而建，错落有致，荟萃了多元素文化的精华，星罗棋布于景区内；室内温泉spa水疗区，利用高科技的主题元素设有弧钩冲击浴、汽泡躺床浴、打懒浴、足部针刺浴浴等13项浴疗。汗蒸区设有目前最为流行的托玛琳养生蒸房，让您在体验温泉沐浴养生的同时，给您的全身来一次由内到外的彻底洗礼，让我们身体的每一个细胞欢快的呼吸。温泉园区环境优美宁静、空气清新，泉池、步道、凉亭、水景相映成趣，置身其中会使您心情豁然开朗。林泉相依是凤凰温泉最具诱惑之处。\n温泉让森林平添几分浪漫，森林又让温泉多了几许惬意。可以品尝温泉蛋，太白山当地土鸡蛋和鹌鹑蛋；出水温度72℃，水疗食补，一举两得。还可以体验温泉鱼疗，温泉鱼疗使用的是地下3000多米富含（铁、钠、碳酸、锌、镁）等多种矿物质、微量元素的温泉水。人进入温泉池中，温泉鱼都围拢在人体周围，勤勤恳恳地工作，啄食人体老化皮质、细菌和毛孔排泄物，从而达到让人体毛孔畅通，排出体内垃圾和毒素，同时能更好地吸收温泉水中的多种矿物质，加速人体新陈代谢，达到养颜及延年益寿之神奇功效。"}}, {"title": "人民公园", "address": "陕西省宝鸡市渭滨区公园路206号", "image": "", "rank": 17, "time": 2.5, "location": {"lat": 34.3620339923054, "lng": 107.15426853446122}, "feature": {"sight_features": "", "sight_content": ""}}, {"title": "通天河国家森林公园", "address": "宝鸡市凤县通天河国家森林公园宝鸡办事处（大庆路15号）", "image": "", "rank": 18, "time": 3.5, "location": {"lat": 34.20249411069393, "lng": 106.60420263487232}, "feature": {"sight_features": "", "sight_content": ""}}, {"title": "龙门洞", "address": "宝鸡市陇县新集川乡", "image": "", "rank": 19, "time": 1.5, "location": {"lat": 35.07657470136781, "lng": 106.67233032327456}, "feature": {"sight_features": "", "sight_content": ""}}, {"title": "紫柏山景区", "address": "宝鸡市凤县南星镇高桥铺村", "image": "", "rank": 20, "time": 3.0, "location": {"lat": 33.733688535654004, "lng": 106.78045652694996}, "feature": {"sight_features": "", "sight_content": ""}}, {"title": "大水川", "address": "宝鸡市陈仓区香泉镇南峪村大水川", "image": "", "rank": 21, "time": 2, "location": {"lat": 34.54672478475542, "lng": 106.75945493463551}, "feature": {"sight_features": "特色1 森林层峦叠嶂，草场广阔无垠", "sight_content": "大水川位于陕西省宝鸡市陈仓区香泉镇，为国家AAAA级旅游景区， 海拔1900-2300米，总面积60平方公里。景区地势平坦，水源充足，森林茂密，草场广阔，植被极好，风景如画。林区一年内温差不大，酷暑时山外气温高达三十几度，这里仍然凉风习习，是一处可供游人骑马、射箭、打猎、避暑休闲的好去处。\n大水川景区是一处原生态的高山草甸，森林层峦叠嶂，草场广阔无垠。大水川曾是古丝绸之路的必经之地，也是多个朝代的皇家马场.\n大水川景区总面积70平方公里，海拔1900—2300米，冬春无界，夏秋相连，夏季最高气温26度，是四海宾朋消夏避暑的胜地。景区内各类高等植物高达2100多种，蕨类植物110种，野生中草药多达160余种。得天独厚的地理环境造就了大水川的一草一木，形成了独特的高山草甸风貌。这里森林茂密，草场广阔，负氧离子含量极高，无愧于“关陇大地最后一片净土”的美誉。这里动物种类繁多，锦鸡、血雉、冠鹿、青羊、獐子、獾、狐等国家级保护动物出没山林，国家二级保护鱼类——细鳞鲑嬉戏水中。千百年来，作为皇家马苑，大水川繁育了无数良马宝驹。大水川景区于2016年4月28日盛大开园。在草原上搭帐篷、露营，过集体生活，培养学生的野外生存能力。大水川野外拓展训练基地为年轻人培养团队精神，锻炼自身意志提供了锻炼平台。\n大水川景区是一处原生态的高山草甸，森林层峦叠嶂，草场广阔无垠。大水川曾是古丝绸之路的必经之地，也是多个朝代的皇家马场。总面积70平方公里，海拔1900—2300米，冬春无界，夏秋相连，夏季最高气温26度，是四海宾朋消夏避暑的胜地。景区内各类高等植物高达2100多种，蕨类植物110种，野生中草药多达160余种。得天独厚的地理环境造就了大水川的一草一木，形成了独特的高山草甸风貌。千百年来，作为皇家马苑，大水川繁育了无数良马宝驹。在开园之际，大水川国际旅游度假区还将举办为期一月的千家旅行社踩线交流、百名记者团“访古城，游草原”采风、首届大水川杯摄影大赛、千人彩跑、万人帐篷节等主题活动。\n正在建设的九龙山景区计划总投资35.52亿元，总规划面积10平方公里。景区包含：森林公园、地质公园、九龙索道、九龙禅院、九龙山漂流、龙浴温泉苑、九龙山玻璃栈道等项目。主要以“一河两岸”建设农家乐、漂流攀岩、丛林穿越探险、玻璃栈道、索道滑索、九龙禅院、休闲茶园、山野别墅等。"}}, {"title": "嘉陵江源头风景区", "address": "宝鸡市渭滨区川陕路20号", "image": "", "rank": 22, "time": 1.5, "location": {"lat": 34.360217702218435, "lng": 107.12760413200854}, "feature": {"sight_features": "", "sight_content": ""}}, {"title": "宝鸡植物园", "address": "宝鸡市渭滨区潭福路5号（近孔家庄）", "image": "", "rank": 23, "time": 3.5, "location": {"lat": 34.365364098691494, "lng": 107.10691971520019}, "feature": {"sight_features": "", "sight_content": ""}}, {"title": "大散关", "address": "宝鸡市西南26公里的大散岭上", "image": "", "rank": 24, "time": 1.0, "location": {"lat": 34.17501018131036, "lng": 107.2445753670404}, "feature": {"sight_features": "", "sight_content": ""}}, {"title": "渭河公园", "address": "宝鸡市渭滨区滨河北路", "image": "", "rank": 25, "time": 2.5, "location": {"lat": 34.360483003365104, "lng": 107.18224911438439}, "feature": {"sight_features": "", "sight_content": ""}}, {"title": "太白山漂流", "address": "宝鸡市眉县汤峪镇太白山脚下", "image": "", "rank": 26, "time": 2, "location": {"lat": 34.15478969986834, "lng": 107.88461981166326}, "feature": {"sight_features": "特色1 河道可控程度高，兼顾刺激、安全、舒适于一体。 特色2 太白山漂流，设计时尚、配套完善，既安全又刺激，是回归自然、避暑消夏，释放激情的漂流胜地。 特色3 太白山漂流主河道全长9.6公里，落差166米，可漂2—3小时。", "sight_content": "太白山漂流东距西安86公里，咸阳66公里，西距宝鸡60公里。西宝高速、310国道、环山旅游大道等多条高标准公路均可直达码头，是目前距西安和宝鸡两大城市车城最短的漂流，太白山漂流以秦岭主峰为背景，以太白融雪为水源，高山流水、天然河道。全长9.6公里，落差166米，漂流时长2—3小时；可一次投放1100条橡皮艇。\n河道可控程度高，兼顾刺激、安全、舒适于一体。综合客服中心占地138亩，配有高标准的更衣室、洗浴室、卫生间、便利店、快餐店等，上下码头双配套设计。山水清澈，急流湍湍，弯叉交错，滩涂延绵。两岸硕果累累，山花野草遍布。泛舟河上，与浪共舞，中流击水，浪遏飞舟。一路欢笑，一路尖叫，虽互不相识，却嬉戏“水战”。\n丝丝凉爽、心旷神怡，让城市的烦杂九霄云外。真是回归自然，避暑消夏释放激情的漂流胜地。船在水中漂，人在画中游，就是太白山漂流的真实写照。\n太白山漂流项目设施 ：\n1、项目实行上下码头双配套设计,建有可容纳近600小车位，260个大车位的停车场； 项目配备1500条（以6人舟为主）无动力充气橡皮艇，全部采用进口材料、安全可靠、舒适耐用。\n2、河道一次性可投放1100条橡皮艇，同时可漂6000多人。\n3、项目综合客服中心设有高标准的更衣室、洗浴室等。"}}, {"title": "合十舍利塔", "address": "宝鸡市扶风县法门镇公园路20号(近法门寺)", "image": "", "rank": 27, "time": 2, "location": {"lat": 34.44074629700675, "lng": 107.90809212141843}, "feature": {"sight_features": "", "sight_content": ""}}, {"title": "消灾寺景区", "address": "宝鸡市凤县凤州镇凤州村", "image": "", "rank": 28, "time": 2, "location": {"lat": 33.954787656760395, "lng": 106.62788132762351}, "feature": {"sight_features": "特色1 佛儒道三教在此交相辉映", "sight_content": "消灾寺，始建于西汉，兴盛于隋唐，地处古城凤州，距凤县县城10公里。北依豆积山，南临嘉陵江，消灾寺景区儒释道三教聚一山，是消灾祈福之灵地。古刹消灾寺镶嵌绝壁之上，历经千年沧桑，悬崖石窟道教上仙“通玄先生”张果老曾隐居修炼于此，更因唐玄宗避祸安史之乱在此祈福消灾得以灵验而声名远播。景区内古柏挺拔苍翠，飞瀑如虹，绿荫掩映的“十二圆觉菩萨”庄严肃穆，流传千年的“铁棋仙迹”、“萧寺晨钟”、“猴石传说”、“将军石”、民间传承千载的“上九会”远离世俗尘扰，让人遐想连篇。\n东有灵山大佛，西有赐福观音。占地100余亩的赐福广场音乐喷泉升降旋转赐福观音，国内十二生肖观音、二十四大悲手等佛教人文景观气势恢弘、蔚为壮观；江南水乡仿古一条街、空中巴士消灾寺直升机场、寻梦桃源南岐湖水上游乐中心和凤州古城共同缔造了一个独一无二的宗教人文景区，嘉陵江、安河、南岐湖三水汇一区，构成了一幅和谐繁荣的盛世画卷。"}}, {"title": "九龙山景区", "address": "宝鸡市陈仓区坪头镇", "image": "", "rank": 29, "time": 2.5, "location": {"lat": 34.40928379162443, "lng": 106.90438048673067}, "feature": {"sight_features": "特色1 道教文化圣地之一，山清水秀 特色2 山水林木崖峰窟洞混合集中，突显秀美 特色3 状如莲花盛开，又似九龙腾空", "sight_content": "九龙山位于陈仓区坪头镇，距宝鸡市区45公里，北连千北公路，东应鸡峰山，西托方山塬。景区地势险峻，山清水秀，九峰汇集，相依相抱，状如莲花盛开，又似九龙腾空。\n\n\n山水林木崖峰窟洞混合集中，突显秀美。玉皇洞、无量洞、药王洞、三仙洞、八仙洞、穿天洞、莲花峰、妖桃崖、雷神池各有天地，无一雷同，自然风光美不胜收，九龙山古建筑群是省级文物保护单位，自古就是关中西部佛，道教文化圣地之一。\n\n\n近年来九龙山的游客逐年增多，非常适宜游乐避暑、修身养性，旅游业开发前景十分看好。"}}, {"title": "灵官峡", "address": "宝鸡市凤县双石铺镇草店村", "image": "", "rank": 30, "time": 2.5, "location": {"lat": 33.91104871671834, "lng": 106.48654572324469}, "feature": {"sight_features": "特色1 再现宝成铁路修建的艰苦岁月", "sight_content": "凤县灵官峡景区以“铁路古迹、休闲氧吧、古羌文化”为特色，位于凤县县城西南5公里的陕甘交界处，因军旅作家杜鹏程的《夜走灵官峡》一文而声名远扬。\n2016年至2018年，景区按照国家4A级旅游标准进行整体升级改造，改造后的景区功能设施齐全，新增宝成铁文化体验馆、秦岭大自然艺术馆、火车主题休憩区、羌人戏水、羌人幽谷、轨道观光小火车、竹排漂流等多个景点、是一个集宝成铁路文化、羌族文化、生态探险、医疗旅游为一体的多功能景区。\n\n特色一：秦岭大自然艺术馆\n灵官峡秦岭大自然艺术馆中陈列着400余件形态各异、色泽艳丽、线条千变万化的天下奇石艺术品以及动植物标本。\n\n\n这些藏品在全国享有很高的声誉，在陕西自然博物馆展出期间每年的参观人数达到了100多万人次，受到省委书记娄勤俭、省市领导的高度赞扬。本馆的镇馆之宝首次亮相于凤县灵官峡景区,400余件自然天成、没有任何人工雕琢的天然艺术品,让您观后定会叹为观止,大饱眼福。\n特色二：火车主题休憩区\n火车主题休憩区是集游客服务中心、火车太空舱宾馆、铁路工人大食堂、旅游康养、娱乐购物为一体的综合服务区。这里商、养、学、闲、情、奇旅游六大要素一应俱全，太空舱住宿、铁路工人大食堂、医疗旅游康养、独居羌族特色的茶歇购物等，是火车主题休憩的核心旅游项目。\n\n\n特色三:火车太空舱宾馆\n火车太空舱宾馆打破传统房屋的建筑风格，修建在火车隧洞中。一列由“宝鸡开往成都”的绿皮火车“载”着太空舱停留在灵官峡景区。太空舱宾馆由睡眠区，娱乐区，休闲区，洗漱区等六部分组成，且这些区域独立成体。所有的“太空舱”都被无线网络覆盖。最主要的优点是，火车隧洞是最好的“天然空调”，冬暖夏凉，住在里面舒适无比。让出门在外旅行的你，住在里面有种家的温馨感。\n\n\n特色四:铁路工人大食堂\n铁路工人大食堂着力营造五六十年代铁路工人筑路时的生活、工作场景，还原老铁风味，以特色农家菜和各类小吃为主，推出嘉陵江烤鱼、烤鸭和养生药膳，把铁路文化、山水文化、羌族文化带上餐桌。置身铁路工人大食堂，当时工人们用餐时的情景仿佛就在眼前。坐在有着五六十年代风格的怀旧食堂，3D墙体彩绘触景生情，年少的记忆涌上心头，不只是思念的味道，更多的是怀旧和怀念。\n\n\n特色五:轨道小火车、竹排漂流\n轨道小火车，拖着一次性可容纳36到80人的车厢，穿行于灵官峡景区4号至7号幽深的宝成铁路隧道，直达景区的核心景点马蹄湾。下火车换乘竹排穿水路顺风漂流，江面微波粼粼，鱼在水里游，鸟在天上飞，船在江上走，人在画中游，沿途两岸奇峰壁立、怪石嶙峋，美景尽收眼底，听风声水起，感受大自然的呼吸，让你达到“仁者乐山，智者乐水”的至高境界。"}}, {"title": "太白山滑雪场", "address": "宝鸡市眉县太白山国家森林公园内洞天福地景区", "image": "", "rank": 31, "time": 2, "location": {"lat": 34.04887321334318, "lng": 107.81739406151846}, "feature": {"sight_features": "", "sight_content": ""}}, {"title": "中华礼乐城", "address": "宝鸡市渭滨区公园路211号", "image": "", "rank": 32, "time": 2.5, "location": {"lat": 34.359583704814845, "lng": 107.1585435703832}, "feature": {"sight_features": "", "sight_content": ""}}, {"title": "凤翔东湖", "address": "宝鸡市凤翔县城东关", "image": "", "rank": 33, "time": 3.0, "location": {"lat": 34.52761627989884, "lng": 107.40737949664961}, "feature": {"sight_features": "", "sight_content": ""}}, {"title": "大唐秦王陵博物馆", "address": "宝鸡市金台区", "image": "", "rank": 34, "time": 2, "location": {"lat": 34.38235108469557, "lng": 107.15342367812907}, "feature": {"sight_features": "特色1 陕西省重点文物保护单位", "sight_content": "大唐秦王陵博物馆位于陕西宝鸡市北坡公园顶，距离市中区仅2.5公里，占地面积4万多平方米，是展示唐末秦王李茂贞（公元856-924年）及夫人刘氏（公元876-943年）“同茔不同穴”的合葬陵寝为样板的专题博物馆，距今约1100年历史。\n大唐秦王陵由山门、神道、献殿、祀殿、合两座地宫组成。在150米长的神道上，陈列着按皇帝生前出行宫廷仪仗的唐代石雕15组34尊。在两座分别长为120米、80米的地宫殿中，有高8米、宽4米用青砖仿木雕刻而成，保存完整的世界罕见全国唯一的砖雕飞檐古建端楼，做工精细，人物造型逼真。\n有用青砖砌墙并券的八边形穹窿顶；有栩栩如生墓道两侧18幅乐伎图；有唐代珍贵的胡人马乐俑；有精美的砖雕“十二生肖图”、“八人抬轿图”、“二人抬轿”、“汉人牵马图”、“胡人牵驼图”。有按北斗七星位置挑开青砖形成勺状“地面天象图”；有埃及“金字塔”式的人面兽身镇墓兽；还有带有神秘色彩的千年石函……极具观赏和研究价值，在唐代帝王陵寝中极为罕见。"}}, {"title": "吴山旅游风景区", "address": "宝鸡市陈仓区吴山庙附近", "image": "", "rank": 35, "time": 1.0, "location": {"lat": 34.3607563354572, "lng": 107.39343842394861}, "feature": {"sight_features": "", "sight_content": ""}}, {"title": "拔仙台", "address": "宝鸡市眉县汤峪镇太白山国家森林公园内", "image": "", "rank": 36, "time": 1.5, "location": {"lat": 34.04887321334318, "lng": 107.81739406151846}, "feature": {"sight_features": "", "sight_content": ""}}, {"title": "天台山", "address": "宝鸡市渭滨区苟家滩村南500米左右", "image": "", "rank": 37, "time": 1.0, "location": {"lat": 34.37748113268169, "lng": 107.15641916768266}, "feature": {"sight_features": "", "sight_content": ""}}, {"title": "千湖国家湿地公园", "address": "宝鸡市千阳县大桥东南", "image": "", "rank": 38, "time": 2, "location": {"lat": 34.720557055938414, "lng": 107.40482478315215}, "feature": {"sight_features": "", "sight_content": ""}}, {"title": "宝鸡都市高尔夫俱乐部", "address": "宝鸡市渭滨区钛谷路88号", "image": "", "rank": 39, "time": 3.0, "location": {"lat": 34.356111512371534, "lng": 107.26162169863507}, "feature": {"sight_features": "", "sight_content": ""}}, {"title": "燕伋望鲁台", "address": "宝鸡市千阳县宝汉高速", "image": "", "rank": 40, "time": 1.0, "location": {"lat": 34.70548866597804, "lng": 107.07672859945093}, "feature": {"sight_features": "", "sight_content": ""}}, {"title": "兰花园", "address": "宝鸡市眉县槐芽镇西部兰花生态园", "image": "", "rank": 41, "time": 2.5, "location": {"lat": 34.23259090450569, "lng": 107.93211335602669}, "feature": {"sight_features": "", "sight_content": ""}}, {"title": "金台森林公园", "address": "宝鸡市金台区引渭路（近常青路）", "image": "", "rank": 42, "time": 2, "location": {"lat": 34.38265951782819, "lng": 107.15416096686792}, "feature": {"sight_features": "", "sight_content": ""}}, {"title": "北首岭遗址陈列馆", "address": "宝鸡市金台区群建巷17号", "image": "", "rank": 43, "time": 1.0, "location": {"lat": 34.39021119673218, "lng": 107.16582613315259}, "feature": {"sight_features": "", "sight_content": ""}}, {"title": "必捷滑雪场", "address": "宝鸡市渭滨区神龙镇冯家塬（东二路朝上走2.5公里，近凌云驾校）", "image": "", "rank": 44, "time": 2, "location": {"lat": 34.35784217515927, "lng": 107.14683572560376}, "feature": {"sight_features": "", "sight_content": ""}}, {"title": "太白山尚境温泉", "address": "宝鸡市眉县汤峪大道1号", "image": "", "rank": 45, "time": 2, "location": {"lat": 34.14045444140306, "lng": 107.91456516180462}, "feature": {"sight_features": "特色1 五种韩式汗蒸特色房、太白十二草药汤池等 特色2 山水环绕，古木葱郁，景色如画。 特色3 享受温泉带来的魅力。", "sight_content": "太白山尚境温泉位于宝鸡市眉县太白山国际旅游度假区，迎宾大道与汤峪大道交叉口，尚境温泉温泉水温常年保持在60℃左右，具有养生理念的五种韩式汗蒸特色房、太白十二草药汤池、玉石炕、太极池等，深受年轻游客喜爱的温泉造浪池、温泉游泳池、温泉漂流河，另外还有温泉SPA理疗池、温泉儿童戏水区、九耳鱼疗池等特色泡池。"}}, {"title": "黄柏塬", "address": "宝鸡市太白县黄柏塬乡", "image": "", "rank": 46, "time": 2, "location": {"lat": 33.81482557794219, "lng": 107.52668354126033}, "feature": {"sight_features": "", "sight_content": "黄柏塬原生态风景区是国家AAA级旅游风景区，地处陕西省宝鸡市太白县，秦岭南麓腹地，距县城70公里。境内森林、矿产、水能、生物、药材等资源丰富，森林覆盖率96%以上，野生动物种类繁多，区内有大熊猫、金丝猴、羚牛、红腹角雉等珍稀动物栖息，是秦岭之中最具原始生态的地区之一，被誉为“天然氧吧”和“秦岭的九寨沟”，2009年被命名为全省首批环境优美乡镇。2014年9月被评为“全国生态文化村”。\n\n黄柏塬之美在山韵：这里的山层峦叠嶂，延绵起伏。云绕山而飘渺，山纳云而出奇。黄柏塬之美在水意：这里的水涧溪蛇行，瀑潭相映。山借水而峻拔，水依山而妩媚。黄柏塬之美在石奇：这里的石千姿百态，色彩斑斓。水漫石而染色，石出水而生态。黄柏塬之美在树茂：这里的数层层叠叠，郁郁葱葱，因四季之不同而争奇斗艳。黄柏塬之美在桥悠：这里的桥悠悬河上，古风依存，行于其上而悠生田园之情。黄柏塬之美在景秀：大领子云海，干涸沟瀑布群，大箭沟彩石、皂角湾稻田，二郎坝吊桥……莫不如诗如画。黄柏塬之美在物丰：大熊猫、细鳞鲑、羚牛、手儿参、板栗、……莫不名声于世！\n黄柏塬境内大部分面积被划为“太白山国家级自然保护区”和“陕西省大熊猫自然保护区”，是全球同纬度最具原生态地区之一，这里气温湿润，长冬无夏，春秋相连，夏季凉爽宜人，素有“天然空调”之称，是休闲避暑的最佳去处。享有“第四季冰川地质公园”、“生物基因库”、“天然药物库”、“天然氧吧”、“关中后花园”等美誉。由于独特的地理位置黄柏塬成为我国南北植物交汇的场所。区内有种子植物121科、640属、1550余种，此外，尚有大量的苔藓地衣蕨类和菌类植物，其中有世界上仅存的凤毛麟角植物——“独叶草”和许多是属于国家保护的珍稀植物。"}}, {"title": "太白山御汤苑温泉", "address": "宝鸡市眉县太白山脚下御汤苑温泉", "image": "", "rank": 47, "time": 2, "location": {"lat": 34.28037586308579, "lng": 107.75639813644135}, "feature": {"sight_features": "", "sight_content": ""}}, {"title": "西府老街", "address": "宝鸡市金台区西府天地民俗观光旅游景区西北150米", "image": "", "rank": 48, "time": 2, "location": {"lat": 34.38235108469557, "lng": 107.15342367812907}, "feature": {"sight_features": "", "sight_content": ""}}, {"title": "太平寺塔", "address": "宝鸡市歧山县县城西端", "image": "", "rank": 49, "time": 1.0, "location": {"lat": 34.36891564286998, "lng": 107.2445753670404}, "feature": {"sight_features": "", "sight_content": ""}}, {"title": "灵官峡漂流", "address": "宝鸡市凤县双石铺镇草店村", "image": "", "rank": 50, "time": 2, "location": {"lat": 33.91104871671834, "lng": 106.48654572324469}, "feature": {"sight_features": "", "sight_content": ""}}, {"title": "渭水游乐园", "address": "宝鸡眉县风泉路滨河新区渭水乐园", "image": "", "rank": 51, "time": 2, "location": {"lat": 34.28926390258975, "lng": 107.77573846722362}, "feature": {"sight_features": "", "sight_content": ""}}, {"title": "太白山青园山庄温泉", "address": "宝鸡市眉县太白山国家森林公园入口处青园山庄温泉", "image": "", "rank": 52, "time": 2, "location": {"lat": 34.13060987543246, "lng": 107.90407208478666}, "feature": {"sight_features": "特色1 含多种有益于人体健康的微量元素和矿物质", "sight_content": "青园山庄位于太白山国家森林公园入口处，这里山环水绕，古木葱郁，景色如画，是宝鸡眉县八景之一。眉县汤峪温泉现有大泉三口，是从地下深处沿山缝古岩裂隙中流出来的，日涌水量400多吨。水温经常保持在60℃左右，水中含有钾、钠、镁、铁、钙、碘等多种元素，经医疗实践证明，这里的泉水具有促进人体组织代谢和杀菌作用，对风湿关节炎、糖尿病、心血管病、慢性湿疹、神经性皮炎等疾病有一定的疗效。首创的温泉死海漂浮浴，会让你体会到遨游太空的感觉，优质的地热矿泉水，可使你祛病强身。\n兰花园景区 位于宝鸡眉县，东距西安86公里、杨凌15公里，西距宝鸡70公里，西宝高速太白山出口（法汤公路）南3公里；地势平坦、交通便捷：310国道和关中环线近在咫尺；是法汤公路上三颗璀璨的旅游景区明珠之一，南距太白山森林公园9公里，北距法门寺18公里。主要景观有：世界唯一的佛祖夜明珠馆、兰花馆、红掌馆、盆景园、垂钓乐园、水果采摘园、樱花大道、桃花园等。兰花园占地4080亩，是全国一流的生态环境教育基地，是陕西省唯一的“全国花卉生产示范基地”和“全国特色种苗基地”。兰花园以生态科普休闲旅游为主题，园内四季常青、天天有花赏，负氧离子是西安市的41倍，被誉为“鸟的乐园、花的海洋、天然氧吧、植物天堂”。"}}, {"title": "九龙山温泉", "address": "宝鸡市陈仓区坪头镇新民村", "image": "", "rank": 53, "time": 2, "location": {"lat": 34.44571933438989, "lng": 106.85279753229582}, "feature": {"sight_features": "", "sight_content": "九龙山温泉占地35000平方米，是一座集温泉休闲度假、酒店住宿等于一体的四季养生温泉酒店度假区。目前主要由：九龙山温泉酒店、室内温泉泡汤区、水上乐园、室外温泉泡汤池四大部分组成。"}}, {"title": "追梦堂儿童职业体验小镇", "address": "宝鸡市金台区北坡森林公园胜利村西府天地观光旅游园内", "image": "", "rank": 54, "time": 2, "location": {"lat": 34.39254834673351, "lng": 107.14507868404321}, "feature": {"sight_features": "", "sight_content": ""}}, {"title": "炎帝影视基地", "address": "宝鸡市渭滨区石鼓镇沙家湾村茵香河文化旅游区", "image": "", "rank": 55, "time": 2, "location": {"lat": 34.29357756218328, "lng": 107.20122745499532}, "feature": {"sight_features": "特色1 炎帝文化为主题的影视基地和主题公园", "sight_content": "宝鸡炎帝影视基地景区位于宝鸡市渭滨区茵香河文化旅游区，是以炎帝文化为主题的影视基地和主题公园，占地面积约60亩，由37个陶屋单体建筑、集市区和13棵景观造型树构成，配套有游客服务中心及停车场等旅游服务设施。景区以原始部落为设计原型，再现了上古时代的生产、生活场景，成为西部地区独具地方特色的影视基地。\n炎帝影视基地分神农部落和西陵部落两个部分。\n神农部落主要包括会盟所、议事厅、炎帝居所、精卫居所、勐康居所、部落长老居所、族人居所及集市区等主要景观。\n神农部落是神农氏所居住和生活的部落。神农氏踞今5500年至6000年前生于宝鸡的姜水之岸，以火德称氏，故为炎帝，尊号神农，并被后世尊为中国农业之神、医药之神和太阳之神。神农氏的出现，标志着我国神话时代结束、农耕社会的开始。神农氏对人类的最大贡献是建屋取火、部落婚嫁、百草五谷、豢养家畜、种地稼穑，开创了中华民族从蛮荒走向文明的第一步。神农部落是对上古时代神农氏生活和社会活动的集中复原。通过对神农氏居住、生活、集市贸易、手工制作等场景的还原，先民那种纯朴、自然、和谐的原始生态和苦苦追求人类进步的伟大精神如闻其声。\n\n\n西陵部落主要包括树屋、景观造型树、议事厅（竹楼）等主要景观。\n西陵部落是中华民族古老的历史长河中，神秘消失的一个古老国度。追朔远古时代的西陵古国，是5000年时期中华大地一个赫赫有名的古国，从这个古国里走出了华夏第一国母、轩辕黄帝的正妃嫘祖。嫘祖是我国著名的“蚕丝鼻祖”，她开创育桑养蚕之法，抽丝织巾之术，肇造衣饰文明，结束了人类“树叶兽皮”赤身裸体的蛮荒时代。她兴起“八拜成婚”的文明婚姻礼俗，从而又被称为“婚姻文明”的创始者。大约4500年前，有熊氏部落首领黄帝轩辕在西陵国迎娶了嫘祖，促成了中原大地同成都平原的结盟，使其势力进一步强大；嫘祖也将养蚕缫丝技术传入中原，促进了中原经济的发展，为最后炎黄结盟打败蚩尤打下了基础。"}}, {"title": "扶风城隍庙", "address": "宝鸡市扶风县东大街005号", "image": "", "rank": 56, "time": 1.0, "location": {"lat": 34.36466225314292, "lng": 107.8871852203861}, "feature": {"sight_features": "", "sight_content": ""}}, {"title": "太白山艾兰温泉国际酒店温泉", "address": "眉县金渠镇大桥口霸王河经济开发区长兴大道与310国道十字西南角", "image": "", "rank": 57, "time": null, "location": {"lat": 34.22988926085426, "lng": 107.84004641597025}, "feature": {"sight_features": "特色1 结合休闲与养身的大型旅游度假型温泉酒店", "sight_content": "太白山艾兰温泉国际酒店地处中国南北分界线秦岭主峰太白山脚下，宝鸡眉县霸王河经济开发区，为集住宿、餐饮、会议、温泉、SPA、足疗休闲为一体的大型旅游度假型酒店。 周边有旅游资源：太白山(AAAAA）、法门寺（AAAAA）、红河谷（AAAA）、渭河观光线（百里画廊，千亩荷塘）、张载祠等。从西安驾车驶入连霍高速西宝段,途经咸阳、兴平、杨凌等地，至常兴收费站，下高速向南行驶6公里即到，全程90公里，用时1小时 ；从宝鸡驾车驶入连霍高速西宝段，途经虢镇、岐山蔡家坡等地，至常兴收费站，向南行驶6公里即到，全程60公里,用时40分钟。\n\n\n太白山艾兰温泉国际酒店为深圳市东部开发（集团）有限公司投资运营，按照国际五星级标准设计装修，建筑面积27860平米，总投资约2.5亿元，拥有客房202间，其中豪华单间31间，商务单间28间，豪华标间121间，豪华套房18间，VTP温泉套房3间，总统套房1间。酒店16、17楼设置行政楼层，让您感受独具特色的管家级贴身服务；餐饮拥有豪华包间7间、宴会厅同时可接待300人用餐，西餐自助厅同时可容纳150人用餐；会议室可接待20—500人不同的会议形式；温泉具有各种汤池26个，具备游泳池、儿童乐园等服务功能，同时可接纳300人使用；同时酒店还配置棋牌区、儿童游艺区，桌球室等配套服务。\n酒店温泉水温常年保持在60℃左右，富含锂、锶、氟、碘、钡、偏氡等多种矿物质，属硫酸钠性水质的中性温泉。温泉占地7000平米，大小泡汤池20多个，25*10游泳池、儿童戏水池满足您全方位的需求。\n福寿泉：专门针对老年人悉心设计，水温适宜，寓意：幸福相伴，健康长寿；玉女汤：玉女汤的传说为汤池温泉留下了“天赋太白山”“地蕴艾蘭泉”的绝妙佳境；冰溪泉：\n\n\n冷水浴适用于防治心血管疾病、慢性支气管炎和肺气肿、早期高血压、胃下垂、便秘、高血脂等疾病，还适用于减肥、美容和提高免疫力、健身防衰老等目的的锻炼；这里有大大小小几十种针对不同人群的温泉供您选择，让您在这里得到全身心的放松与舒适。\n太白山艾兰温泉国际酒店致力打造为太白山国际旅游度假区品牌酒店，您的满意是我们最大的喜悦，您的舒心是我们最大的心愿，诚挚欢迎您和家人的到来！"}}, {"title": "儿童公园", "address": "宝鸡市金台区西滩路18号", "image": "", "rank": 58, "time": 1.0, "location": {"lat": 34.37623142223349, "lng": 107.12347102835713}, "feature": {"sight_features": "", "sight_content": ""}}, {"title": "西虢水上乐园", "address": "宝鸡市陈仓区虢磻路中段", "image": "", "rank": 59, "time": 2, "location": {"lat": 34.35757142012256, "lng": 107.40257095708525}, "feature": {"sight_features": "特色1 享受纯净的亲水乐趣", "sight_content": "﻿    西虢水上乐园位于宝鸡市陈仓区虢镇东门虢潘路高速路南侧，渭河北侧，占地163000m²。\n项目按即时静态总投资约为2.8亿元人民币，是宝鸡“百里画 廊”陈仓区水上运动公园的一个重点项目，是宝鸡市人民政府精心打造渭河“百里画廊”，“十里花海”“千亩荷塘”“万顷芦荡”等渭河百里生态，文化休闲旅游 景观之一，预计2016年6月投入运营，项目具体设施有：真空造浪沙滩、组合螺旋滑梯、章鱼滑梯、大喇叭滑梯、大滑板滑梯、巨兽碗滑梯、漂流河、儿童戏 水、大型水寨、青少年游泳训练中心等共计20个园内项目，无论规模还是园内设施均居西北首位。\n项目按即时静态总投资约为2.8亿元人民币，是宝鸡“百里画 廊”陈仓区水上运动公园的一个重点项目，是宝鸡市人民政府精心打造渭河“百里画廊”，“十里花海”“千亩荷塘”“万顷芦荡”等渭河百里生态，文化休闲旅游 景观之一，预计2016年6月投入运营，项目具体设施有：真空造浪沙滩、组合螺旋滑梯、章鱼滑梯、大喇叭滑梯、大滑板滑梯、巨兽碗滑梯、漂流河、儿童戏 水、大型水寨、青少年游泳训练中心等共计20个园内项目，无论规模还是园内设施均居西北首位。\n\n西虢水上乐园内有西北顶尖的各项水上游乐设备既适合家人朋友游玩，也适合情侣共度假日：纯净的亲水乐趣既能驱除城市压力，消暑降温，也能增进人与人之间的感情，它将是市民在夏日里休闲选择。"}}, {"title": "秦公一号大墓", "address": "宝鸡市凤翔县石连路", "image": "", "rank": 60, "time": 1.0, "location": {"lat": 34.48680304488288, "lng": 107.37472887610897}, "feature": {"sight_features": "", "sight_content": ""}}]}