{"cityName": "宝兴", "days": 2, "cityImage": "", "spots": [{"title": "东拉山大峡谷", "address": "雅安市宝兴县陇东镇", "image": "", "rank": 1, "time": 1.0, "location": {"lat": 30.48084925876648, "lng": 102.71260615519314}, "feature": {"sight_features": "", "sight_content": ""}}, {"title": "神木垒", "address": "雅安市宝兴县硗碛藏族乡", "image": "", "rank": 2, "time": 3.0, "location": {"lat": 30.76591334938629, "lng": 102.69527221042844}, "feature": {"sight_features": "特色1 国家AAAA级风景区，藏语里神仙玩耍的地方", "sight_content": "神木垒，藏语里，就是神仙玩耍的地方 。神木，云杉的意思。神木垒原生态风景区隶属夹金山国家级森林公园以及省级风景名胜区夹金山风景名胜区的一部分，景区面积约40平方公里，海拔2300至4300米，以森林、雪山、溪流、高山草甸、高山钙化流池为主体景观。主要景点包括红杉坪、神木垒、根雕园、帕格拉神山、亚西拉姆神山、仁赞喇嘛神山、五彩池、松椤园和毕脚坡杜鹃林等。\n作为夹金山国家森林公园的重要组成部分，神木垒面积达60平方公里，景区从海拔2300米一直上升到了4300米。神木垒最让人怦然心动的是它原生态的风景。在这里，既有参天古木，也有高原草甸，原始森林的风貌保存得很好，新修建的旅游山道和木桥，让人轻松穿行在空气清新的天然氧吧，藏族牧民的牛羊，骡马甚至放养的猪儿在山坡草甸惬意地啃食牧草，让人觉得仿佛到了世外桃源。有些藏民牵着牧马向游人兜售他们的服务，骑马上山。\n山顶，浓密的雾霭导致视线不佳，只见到许多由于不明原因而成片折断的大树，绿油油的草地上留下的一个个桌面大的树桩，如同向着天空张开的嘴，仿佛天然的木雕艺术。在硗碛藏乡乡政府旁边还有个一所新建的希望小学，校舍很气派，和旁边的藏族风格的民居形成风格迥异的对比。时令中秋，但树木依旧是葱茏蓊郁，远山也是冷青的，流动的白云增加了山的活力和灵气，白云、远山、蓝天，融为一体，给人的则是高远空阔的感受，在翠绿之中偶尔也有红叶点缀，新认识的乡干部告诉我们，到了十一月，红叶红遍层林尽染，景色相当巴适。景区刚开发，没有什么人为的“现代设施”，倒更其显自然与本色，一排排迎风飞扬的经幡，表达了藏民永恒的祈愿。"}}, {"title": "蜂桶寨邓池沟景区", "address": "雅安市宝兴县蜂桶寨邓池沟", "image": "", "rank": 3, "time": 2, "location": {"lat": 30.575697286777736, "lng": 102.95192520112401}, "feature": {"sight_features": "特色1 世界上第一只大熊猫的发现地", "sight_content": "邓池沟，位于雅安市宝兴县蜂桶寨保护区，北纬30°，这里群山绵延、箭竹满地，山明水秀、如诗如画。\n蜂桶寨邓池沟景区内群山延绵，箭竹遍地，溪水长流，是大熊猫、金丝猴等珍稀野生动物的天然乐园，也是珙桐、连香树等模式种植物的植根之地保护区管理处占地千余亩，建有科研陈列室、动物驯养繁殖场和抢救室，驯养大熊猫、小熊猫、黑熊、马来熊、红腹角锥等多种动物。"}}, {"title": "泽根藏寨", "address": "四川宝兴县硗碛藏族乡", "image": "", "rank": 4, "time": 2, "location": {"lat": 30.76591334938629, "lng": 102.69527221042844}, "feature": {"sight_features": "", "sight_content": ""}}, {"title": "王母寨", "address": "四川省阿坝藏族羌族自治州小金县南部，与著名的四姑娘山风景区毗邻", "image": "", "rank": 5, "time": 2, "location": {"lat": 31.116770378745734, "lng": 102.9094714021971}, "feature": {"sight_features": "", "sight_content": ""}}, {"title": "夹金山垭口", "address": "四川省阿坝藏族羌族自治州小金县南部，与著名的四姑娘山风景区毗邻", "image": "", "rank": 6, "time": 2, "location": {"lat": 31.116770378745734, "lng": 102.9094714021971}, "feature": {"sight_features": "", "sight_content": ""}}, {"title": "夹金山公园中心喇嘛庙", "address": "四川省阿坝藏族羌族自治州小金县南部，与著名的四姑娘山风景区毗邻", "image": "", "rank": 7, "time": 2, "location": {"lat": 31.116770378745734, "lng": 102.9094714021971}, "feature": {"sight_features": "", "sight_content": ""}}, {"title": "蜂桶寨国家级自然保护区", "address": "盐井乡", "image": "", "rank": 8, "time": 2, "location": {"lat": 30.599807378208713, "lng": 108.42088189154832}, "feature": {"sight_features": "", "sight_content": ""}}, {"title": "文锦江温泉旅游区", "address": "成都崇州市万家镇", "image": "", "rank": 9, "time": 2, "location": {"lat": 30.763125855840602, "lng": 103.42411200686412}, "feature": {"sight_features": "", "sight_content": ""}}, {"title": "灵关垂钓休闲港", "address": "210省道附近", "image": "", "rank": 10, "time": 2, "location": {"lat": 40.05575635085877, "lng": 116.1217342607595}, "feature": {"sight_features": "", "sight_content": ""}}, {"title": "赶羊沟风景区", "address": "四川省宝兴县陇东镇 625703", "image": "", "rank": 11, "time": 2, "location": {"lat": 30.48084925876648, "lng": 102.71260615519314}, "feature": {"sight_features": "", "sight_content": ""}}, {"title": "红军纪念碑", "address": "210省道附近", "image": "", "rank": 12, "time": 0.25, "location": {"lat": 40.05575635085877, "lng": 116.1217342607595}, "feature": {"sight_features": "", "sight_content": ""}}, {"title": "熊猫古城景区", "address": "雅安市沿江路67附近", "image": "", "rank": 13, "time": 2, "location": {"lat": 30.073611327368628, "lng": 102.7579609793634}, "feature": {"sight_features": "", "sight_content": ""}}, {"title": "云仁达吉", "address": "雅安市宝兴县神木垒景区内跷碛藏寨", "image": "", "rank": 14, "time": 2, "location": {"lat": 30.69172243343115, "lng": 102.7165612694891}, "feature": {"sight_features": "", "sight_content": ""}}, {"title": "百汇儿童乐园", "address": "四川省雅安市宝兴县穆平中街5", "image": "", "rank": 15, "time": 2, "location": {"lat": 30.37408211244484, "lng": 102.82148423429224}, "feature": {"sight_features": "", "sight_content": ""}}, {"title": "珙桐", "address": "雅安市宝兴县硗碛藏族乡神木垒内", "image": "", "rank": 16, "time": 2, "location": {"lat": 30.82504613652187, "lng": 102.73922041782548}, "feature": {"sight_features": "", "sight_content": ""}}, {"title": "民俗文化广场", "address": "雅安市宝兴县", "image": "", "rank": 17, "time": 2, "location": {"lat": 30.37408211244484, "lng": 102.82148423429224}, "feature": {"sight_features": "", "sight_content": ""}}, {"title": "宝兴县雪山人家精品民宿度假村", "address": "宝兴宝兴县穆坪镇雪山村新江组", "image": "", "rank": 18, "time": 2, "location": {"lat": 30.37537362857584, "lng": 102.81718578493545}, "feature": {"sight_features": "", "sight_content": ""}}, {"title": "戴维小镇民宿度假村", "address": "宝兴宝兴县蜂桶寨乡戴维新村", "image": "", "rank": 19, "time": 2, "location": {"lat": 30.549627903016408, "lng": 102.94945800504087}, "feature": {"sight_features": "", "sight_content": ""}}, {"title": "达瓦更扎", "address": "四川省雅安市宝兴县硗碛藏族乡嘎日村", "image": "", "rank": 20, "time": 3.0, "location": {"lat": 30.7234598327652, "lng": 102.73452321334771}, "feature": {"sight_features": "", "sight_content": ""}}, {"title": "宝兴县图书馆", "address": "沿江路203号", "image": "", "rank": 21, "time": 2, "location": {"lat": 22.894295175992053, "lng": 112.91062305042666}, "feature": {"sight_features": "", "sight_content": ""}}, {"title": "雪域多吉藏寨", "address": "硗碛藏族乡夹拉村灯光组", "image": "", "rank": 22, "time": 2, "location": {"lat": 30.692975204734825, "lng": 102.75828973432692}, "feature": {"sight_features": "", "sight_content": ""}}, {"title": "扎底农家乐", "address": "S210雪山人家民宿客栈北150米(夹金山路)", "image": "", "rank": 23, "time": 2, "location": {"lat": 30.644658599741717, "lng": 104.33442451891568}, "feature": {"sight_features": "", "sight_content": ""}}, {"title": "宝兴灵关", "address": "四川省宝兴县灵关镇", "image": "", "rank": 24, "time": 3.0, "location": {"lat": 30.259920397615588, "lng": 102.83220592467268}, "feature": {"sight_features": "", "sight_content": ""}}, {"title": "灵鹫峡", "address": "四川省宝兴县灵关镇", "image": "", "rank": 25, "time": 2, "location": {"lat": 30.259920397615588, "lng": 102.83220592467268}, "feature": {"sight_features": "", "sight_content": ""}}, {"title": "崩波寺", "address": "四川省稻城县桑堆乡", "image": "", "rank": 26, "time": 2, "location": {"lat": 29.19712149329564, "lng": 100.115504539928}, "feature": {"sight_features": "", "sight_content": ""}}, {"title": "扑鸡沟", "address": "四川省宝兴县永富乡", "image": "", "rank": 27, "time": 2, "location": {"lat": 30.554790722439947, "lng": 102.65941650769265}, "feature": {"sight_features": "", "sight_content": ""}}, {"title": "硗碛寨", "address": "四川省宝兴县夹金山下保护区内", "image": "", "rank": 28, "time": 2, "location": {"lat": 30.863706102853595, "lng": 102.69289289018347}, "feature": {"sight_features": "", "sight_content": ""}}, {"title": "邓池沟天主堂", "address": "四川省宝兴县盐井乡邓池沟", "image": "", "rank": 29, "time": 2, "location": {"lat": 30.575697286777736, "lng": 102.95192520112401}, "feature": {"sight_features": "", "sight_content": ""}}]}