{"cityName": "宝应", "days": 2, "cityImage": "", "spots": [{"title": "周恩来童年读书处", "address": "扬州市宝应县城县南街水巷口3号", "image": "", "rank": 1, "time": 0.75, "location": {"lat": 33.239227894574675, "lng": 119.31436223065168}, "feature": {"sight_features": "", "sight_content": ""}}, {"title": "九里一千墩汉墓群", "address": "扬州市宝应县射阳湖镇，从射阳湖镇赵家村起，一直延伸到天平乡的天平庄附近。", "image": "", "rank": 2, "time": 1.5, "location": {"lat": 33.30010831763877, "lng": 119.592221109894}, "feature": {"sight_features": "", "sight_content": ""}}, {"title": "陈家果园", "address": "泾河镇刘上村乔林路陈家桥南200米路东", "image": "", "rank": 3, "time": 2, "location": {"lat": 24.50059418094193, "lng": 117.6636163995507}, "feature": {"sight_features": "", "sight_content": ""}}, {"title": "电台水上狂欢节", "address": "金源游乐场-金源水上乐园", "image": "", "rank": 4, "time": 2, "location": {"lat": 39.79664277710441, "lng": 109.77974970008569}, "feature": {"sight_features": "", "sight_content": ""}}, {"title": "烈士陵园", "address": "花城路", "image": "", "rank": 5, "time": 2, "location": {"lat": 32.52897333817926, "lng": 119.40300661234221}, "feature": {"sight_features": "", "sight_content": ""}}, {"title": "美兰农场", "address": "柳堡镇寿林村范柳路55号", "image": "", "rank": 6, "time": 2, "location": {"lat": 33.13954116363109, "lng": 119.52778312513665}, "feature": {"sight_features": "", "sight_content": ""}}, {"title": "亲子园健身房", "address": "中央商城b区2楼", "image": "", "rank": 7, "time": 2, "location": {"lat": 33.241676193702205, "lng": 119.32494798045929}, "feature": {"sight_features": "", "sight_content": ""}}, {"title": "江苏永政垂钓中心", "address": "机场路附近", "image": "", "rank": 8, "time": 2, "location": {"lat": 31.302867940801427, "lng": 120.41269622765638}, "feature": {"sight_features": "", "sight_content": ""}}, {"title": "白马湖野生馆", "address": "工农路81号", "image": "", "rank": 9, "time": 2, "location": {"lat": 33.23587327373749, "lng": 119.33017568105257}, "feature": {"sight_features": "", "sight_content": ""}}, {"title": "江苏正润生态有机农场", "address": "江苏正润生态园南侧", "image": "", "rank": 10, "time": 2, "location": {"lat": 33.15503668971144, "lng": 119.3230122506616}, "feature": {"sight_features": "", "sight_content": ""}}, {"title": "超级奶霸休闲坊", "address": "红旗路10", "image": "", "rank": 11, "time": 2, "location": {"lat": 36.84385309468402, "lng": 112.87358139578679}, "feature": {"sight_features": "", "sight_content": ""}}, {"title": "智绘树·童画少儿美术馆", "address": "丽人街与叶挺路交叉口西南50米", "image": "", "rank": 12, "time": 2, "location": {"lat": 33.24205209210997, "lng": 119.32386273757267}, "feature": {"sight_features": "", "sight_content": ""}}, {"title": "金源游乐城", "address": "东阳路与南园路交叉路口(轩宇欧洲城西南边)", "image": "", "rank": 13, "time": 2, "location": {"lat": 33.23905719607962, "lng": 119.37202861330523}, "feature": {"sight_features": "", "sight_content": ""}}, {"title": "李杰渔家乐", "address": "健康路279-1号", "image": "", "rank": 14, "time": 2, "location": {"lat": 31.70795170781001, "lng": 120.55081060729003}, "feature": {"sight_features": "", "sight_content": ""}}, {"title": "八宝亭", "address": "江苏省宝应县安宜镇叶挺路安宜路口 225800", "image": "", "rank": 15, "time": 2, "location": {"lat": 33.243576132328556, "lng": 119.3302031090147}, "feature": {"sight_features": "", "sight_content": ""}}, {"title": "宝应公园水上游乐场", "address": "纵棹园内钓鱼台旁", "image": "", "rank": 16, "time": 2, "location": {"lat": 33.2408856199381, "lng": 119.32225199853902}, "feature": {"sight_features": "", "sight_content": ""}}, {"title": "云南建水特色烧烤", "address": "苏果超市对面新天地商业街", "image": "", "rank": 17, "time": 2, "location": {"lat": 37.870173723778265, "lng": 112.59042066262793}, "feature": {"sight_features": "", "sight_content": ""}}, {"title": "鲜果饮吧", "address": "苏中中路新天地商业街0218号", "image": "", "rank": 18, "time": 2, "location": {"lat": 33.24213969028329, "lng": 119.327968454584}, "feature": {"sight_features": "", "sight_content": ""}}, {"title": "观音禅林", "address": "建龙路附近", "image": "", "rank": 19, "time": 2, "location": {"lat": 33.27693116383979, "lng": 119.22138531519838}, "feature": {"sight_features": "", "sight_content": ""}}, {"title": "贝乐园游乐场", "address": "安宜东路中央商城b区2楼", "image": "", "rank": 20, "time": 2, "location": {"lat": 33.24160861002254, "lng": 119.32528351732998}, "feature": {"sight_features": "", "sight_content": ""}}, {"title": "八宝亭遗址", "address": "安宜东路1", "image": "", "rank": 21, "time": 2, "location": {"lat": 33.24001465714562, "lng": 119.32244368435856}, "feature": {"sight_features": "", "sight_content": ""}}, {"title": "得宝河遗址", "address": "运河路北200米", "image": "", "rank": 22, "time": 2, "location": {"lat": 39.78179662584987, "lng": 116.30293039260037}, "feature": {"sight_features": "", "sight_content": ""}}, {"title": "儿童乐园", "address": "扬州市宝应县中央商城b区2楼", "image": "", "rank": 23, "time": 2, "location": {"lat": 33.241676193702205, "lng": 119.32494798045929}, "feature": {"sight_features": "", "sight_content": ""}}, {"title": "望直港基督教", "address": "安望张路北50米", "image": "", "rank": 24, "time": 2, "location": {"lat": 33.240653802849536, "lng": 119.41757086652464}, "feature": {"sight_features": "", "sight_content": ""}}, {"title": "宝应县规划展示馆", "address": "宝应大道77号(科创服务中心大厦东门)", "image": "", "rank": 25, "time": 2, "location": {"lat": 33.682647105338994, "lng": 117.24222054709793}, "feature": {"sight_features": "", "sight_content": ""}}, {"title": "赵家祠堂", "address": "江苏省扬州市宝应县赵家祠堂附近", "image": "", "rank": 26, "time": 2, "location": {"lat": 33.15475341430029, "lng": 119.4110026039578}, "feature": {"sight_features": "", "sight_content": ""}}, {"title": "陈琳故宅遗址", "address": "射阳湖中心卫生院东侧", "image": "", "rank": 27, "time": 2, "location": {"lat": 33.31399383705489, "lng": 119.62942949184637}, "feature": {"sight_features": "", "sight_content": ""}}, {"title": "月亮湾", "address": "钱沟村北侧", "image": "", "rank": 28, "time": 1.5, "location": {"lat": 38.740864553803284, "lng": 113.74842327813232}, "feature": {"sight_features": "", "sight_content": ""}}, {"title": "胡祠堂", "address": "扬州市宝应县齐心路", "image": "", "rank": 29, "time": 2, "location": {"lat": 33.07223255109306, "lng": 119.53701030464013}, "feature": {"sight_features": "", "sight_content": ""}}, {"title": "曹甸四零烈士墓", "address": "曹南路和陵园路的交叉口附近", "image": "", "rank": 30, "time": 2, "location": {"lat": 33.35559473559502, "lng": 119.42775591548155}, "feature": {"sight_features": "", "sight_content": ""}}, {"title": "感恩堂", "address": "扬州市宝应县", "image": "", "rank": 31, "time": 2, "location": {"lat": 33.24720546114832, "lng": 119.36555570137673}, "feature": {"sight_features": "", "sight_content": ""}}, {"title": "双拥广场", "address": "安宜镇苏中中路621号附近", "image": "", "rank": 32, "time": 2, "location": {"lat": 33.24579343381476, "lng": 119.32591795098624}, "feature": {"sight_features": "", "sight_content": ""}}, {"title": "望直港镇政府法治文化广场", "address": "富港路与金港路交叉口东100米", "image": "", "rank": 33, "time": 2, "location": {"lat": 33.25055641669403, "lng": 119.40480362849796}, "feature": {"sight_features": "", "sight_content": ""}}, {"title": "安乐公墓", "address": "江苏省扬州市宝应县乔林路", "image": "", "rank": 34, "time": null, "location": {"lat": 33.16760419749748, "lng": 119.3775603687543}, "feature": {"sight_features": "", "sight_content": ""}}, {"title": "人民广场", "address": "氾水镇国土所对面", "image": "", "rank": 35, "time": 1.5, "location": {"lat": 33.103683257425736, "lng": 119.41428120078098}, "feature": {"sight_features": "", "sight_content": ""}}, {"title": "小官庄影剧院", "address": "官南路222", "image": "", "rank": 36, "time": 2, "location": {"lat": 25.004194569117793, "lng": 102.73073488539544}, "feature": {"sight_features": "", "sight_content": ""}}, {"title": "京宝度假村", "address": "江苏省扬州市宝应县金三角加油站南侧", "image": "", "rank": 37, "time": 2, "location": {"lat": 33.24720546114832, "lng": 119.36555570137673}, "feature": {"sight_features": "", "sight_content": ""}}, {"title": "宝应县安丰人民公社旧址保护", "address": "交通路与科普巷交叉口东北100米", "image": "", "rank": 38, "time": 2, "location": {"lat": 33.37134648645116, "lng": 119.52203698189118}, "feature": {"sight_features": "", "sight_content": ""}}, {"title": "博欣园精品葡萄园", "address": "江苏省扬州市宝应县X302", "image": "", "rank": 39, "time": 2, "location": {"lat": 33.24720546114832, "lng": 119.36555570137673}, "feature": {"sight_features": "", "sight_content": ""}}, {"title": "大慈观音寺", "address": "射阳湖镇水泗医院后", "image": "", "rank": 40, "time": 2, "location": {"lat": 33.337359395715524, "lng": 119.57827150957878}, "feature": {"sight_features": "", "sight_content": ""}}, {"title": "宝淮影剧场", "address": "近郊安宜北路2号", "image": "", "rank": 41, "time": 2, "location": {"lat": 33.24466023633343, "lng": 119.31953497111725}, "feature": {"sight_features": "", "sight_content": ""}}, {"title": "俏佳人音乐厅", "address": "安宜北路与花城路交叉口东北150米", "image": "", "rank": 42, "time": 2, "location": {"lat": 33.24367167742855, "lng": 119.32150407296463}, "feature": {"sight_features": "", "sight_content": ""}}, {"title": "水云涧度假村", "address": "331省道附近", "image": "", "rank": 43, "time": 2, "location": {"lat": 38.76243571351783, "lng": 115.64385441420583}, "feature": {"sight_features": "", "sight_content": ""}}, {"title": "宝应博物馆", "address": "安宜东路89号", "image": "", "rank": 44, "time": 1.0, "location": {"lat": 33.243456761138916, "lng": 119.34331604195081}, "feature": {"sight_features": "", "sight_content": ""}}, {"title": "宝应县书画院", "address": "安宜南路76号", "image": "", "rank": 45, "time": 2, "location": {"lat": 33.237220697590224, "lng": 119.32176815861506}, "feature": {"sight_features": "", "sight_content": ""}}, {"title": "建设档案馆", "address": "苏中中路", "image": "", "rank": 46, "time": 2, "location": {"lat": 33.24822162574735, "lng": 119.32534673647854}, "feature": {"sight_features": "", "sight_content": ""}}, {"title": "小淘气儿童游乐园", "address": "叶挺路数码广场二楼", "image": "", "rank": 47, "time": 2, "location": {"lat": 30.2725218021017, "lng": 109.47969382104779}, "feature": {"sight_features": "", "sight_content": ""}}, {"title": "新大陆游乐园", "address": "宝应邻里中心205号", "image": "", "rank": 48, "time": 2, "location": {"lat": 33.22528101067035, "lng": 119.34387179212914}, "feature": {"sight_features": "", "sight_content": ""}}, {"title": "极地冰雪嘉年华", "address": "邮政局南院叶挺路2号", "image": "", "rank": 49, "time": 2, "location": {"lat": 30.281215528425896, "lng": 109.48579042684187}, "feature": {"sight_features": "", "sight_content": ""}}, {"title": "宝应县安宜镇鹏博艺术园", "address": "安宜镇叶挺东路(原人武征集站)", "image": "", "rank": 50, "time": null, "location": {"lat": 33.24511089105614, "lng": 119.3374911999562}, "feature": {"sight_features": "", "sight_content": ""}}, {"title": "宝应县银河艺术园", "address": "安宜镇贾家沟47号", "image": "", "rank": 51, "time": 2, "location": {"lat": 41.30153216927546, "lng": 115.22196842402246}, "feature": {"sight_features": "", "sight_content": ""}}, {"title": "苏中革命历史纪念馆", "address": "兴安路", "image": "", "rank": 52, "time": 2, "location": {"lat": 39.240665326062555, "lng": 117.22707186433374}, "feature": {"sight_features": "", "sight_content": ""}}, {"title": "宝应县航宇瓜果蔬菜专业合作社(...", "address": "叶挺路83号附近", "image": "", "rank": 53, "time": 2, "location": {"lat": 30.275371501226946, "lng": 109.48232631504646}, "feature": {"sight_features": "", "sight_content": ""}}, {"title": "儿童主题乐园", "address": "北河路与安宜北路交叉口", "image": "", "rank": 54, "time": 2, "location": {"lat": 33.25518833582604, "lng": 119.31566451313255}, "feature": {"sight_features": "", "sight_content": ""}}, {"title": "射阳湖影剧院", "address": "射彼路与蒋堡路交叉口东50米", "image": "", "rank": 55, "time": 1.0, "location": {"lat": 33.31561234949201, "lng": 119.6279540996056}, "feature": {"sight_features": "", "sight_content": ""}}, {"title": "夏集大剧院", "address": "人民路与郭夏路交叉口东南50米", "image": "", "rank": 56, "time": 2, "location": {"lat": 33.09744073087853, "lng": 119.57990241646947}, "feature": {"sight_features": "", "sight_content": ""}}, {"title": "宝应县长明艺术团", "address": "叶挺路", "image": "", "rank": 57, "time": 2, "location": {"lat": 30.2725218021017, "lng": 109.47969382104779}, "feature": {"sight_features": "", "sight_content": ""}}, {"title": "宝应县丽人步行街", "address": "江苏省宝应县叶挺路58号", "image": "", "rank": 58, "time": 2, "location": {"lat": 33.242041025041, "lng": 119.32386220308089}, "feature": {"sight_features": "", "sight_content": ""}}, {"title": "亚细亚中央步行街", "address": "江苏省宝应县亚细亚中央步行街", "image": "", "rank": 59, "time": 2, "location": {"lat": 33.2414841330293, "lng": 119.3257317978303}, "feature": {"sight_features": "", "sight_content": ""}}, {"title": "金桥生活广场", "address": "江苏省宝应县苏中南路", "image": "", "rank": 60, "time": 2, "location": {"lat": 33.22184141605346, "lng": 119.32502447476668}, "feature": {"sight_features": "", "sight_content": ""}}]}