{"cityName": "八宿", "days": 2, "cityImage": "", "spots": [{"title": "然乌湖", "address": "昌都地区八宿县然乌镇", "image": "", "rank": 1, "time": 2, "location": {"lat": 30.162297747494996, "lng": 96.88564146324985}, "feature": {"sight_features": "", "sight_content": ""}}, {"title": "怒江七十二道拐", "address": "西藏自治区昌都市八宿县G318(沪聂线)", "image": "", "rank": 2, "time": 1.0, "location": {"lat": 30.05902899139862, "lng": 96.92436044615198}, "feature": {"sight_features": "", "sight_content": ""}}, {"title": "来古冰川", "address": "昌都地区八宿县来古村", "image": "", "rank": 3, "time": 1.0, "location": {"lat": 30.162297747494996, "lng": 96.88564146324985}, "feature": {"sight_features": "", "sight_content": ""}}, {"title": "多拉神山", "address": "西藏自治区八宿县白马镇以东", "image": "", "rank": 4, "time": 1.0, "location": {"lat": 30.06113020824185, "lng": 96.92972619474281}, "feature": {"sight_features": "", "sight_content": ""}}, {"title": "来古村", "address": "昌都地区八宿县然乌镇", "image": "", "rank": 5, "time": 7.5, "location": {"lat": 30.162297747494996, "lng": 96.88564146324985}, "feature": {"sight_features": "", "sight_content": ""}}, {"title": "八宿嘎学岩画", "address": "西藏自治区八宿县县城以西", "image": "", "rank": 6, "time": 1.0, "location": {"lat": 30.05902899139862, "lng": 96.92436044615198}, "feature": {"sight_features": "", "sight_content": ""}}, {"title": "仁措湖", "address": "昌都地区八宿县郭关乡", "image": "", "rank": 7, "time": 1.0, "location": {"lat": 30.162297747494996, "lng": 96.88564146324985}, "feature": {"sight_features": "", "sight_content": ""}}, {"title": "同卡寺", "address": "昌都地区八宿县同卡乡", "image": "", "rank": 8, "time": 1.0, "location": {"lat": 30.162297747494996, "lng": 96.88564146324985}, "feature": {"sight_features": "", "sight_content": ""}}, {"title": "八宿县", "address": "西藏自治区昌都八宿县", "image": "", "rank": 9, "time": 2, "location": {"lat": 30.05902899139862, "lng": 96.92436044615198}, "feature": {"sight_features": "", "sight_content": ""}}, {"title": "瓦村", "address": "西藏自治区昌都八宿县瓦村", "image": "", "rank": 10, "time": 3.0, "location": {"lat": 29.958132404232437, "lng": 97.34325160048748}, "feature": {"sight_features": "", "sight_content": ""}}, {"title": "拉根乡生态园", "address": "拉根乡政府大院", "image": "", "rank": 11, "time": 2, "location": {"lat": 40.824008164293836, "lng": 111.67441293316858}, "feature": {"sight_features": "", "sight_content": ""}}, {"title": "昌都市果扎种畜场", "address": "303省道西50米", "image": "", "rank": 12, "time": 3.5, "location": {"lat": 38.25466494631471, "lng": 114.66681952289183}, "feature": {"sight_features": "", "sight_content": ""}}, {"title": "加拉贝里峰", "address": "西藏自治区波密县然乌湖小镇 860300", "image": "", "rank": 13, "time": 2, "location": {"lat": 29.449203294056307, "lng": 96.79886505710584}, "feature": {"sight_features": "", "sight_content": ""}}, {"title": "拿渣庙", "address": "八宿县其他地区八宿县", "image": "", "rank": 14, "time": 2, "location": {"lat": 30.05902899139862, "lng": 96.92436044615198}, "feature": {"sight_features": "", "sight_content": ""}}, {"title": "错土卡", "address": "昌都市八宿县", "image": "", "rank": 15, "time": 2, "location": {"lat": 30.05902899139862, "lng": 96.92436044615198}, "feature": {"sight_features": "", "sight_content": ""}}, {"title": "多拉神山温泉宾馆", "address": "白马镇以东318国道旁", "image": "", "rank": 16, "time": 2, "location": {"lat": 32.41550749556279, "lng": 119.9883744793878}, "feature": {"sight_features": "", "sight_content": ""}}, {"title": "帕隆藏布江", "address": "西藏自治区八宿县发源于八宿县然乌湖", "image": "", "rank": 17, "time": 2, "location": {"lat": 29.449203294056307, "lng": 96.79886505710584}, "feature": {"sight_features": "", "sight_content": ""}}, {"title": "怒江山", "address": "西藏自治区八宿县川藏公路", "image": "", "rank": 18, "time": 1.0, "location": {"lat": 29.63836750578392, "lng": 91.1344443946019}, "feature": {"sight_features": "", "sight_content": ""}}, {"title": "恶鲁隆青", "address": "昌都市-八宿县", "image": "", "rank": 19, "time": 2, "location": {"lat": 30.05902899139862, "lng": 96.92436044615198}, "feature": {"sight_features": "", "sight_content": ""}}, {"title": "然那隆巴", "address": "昌都市-八宿县-然那隆巴", "image": "", "rank": 20, "time": 2, "location": {"lat": 29.509039181806283, "lng": 96.82136265327357}, "feature": {"sight_features": "", "sight_content": ""}}, {"title": "提卜亚扎", "address": "昌都市-八宿县", "image": "", "rank": 21, "time": 2, "location": {"lat": 30.05902899139862, "lng": 96.92436044615198}, "feature": {"sight_features": "", "sight_content": ""}}, {"title": "东池日", "address": "昌都市-八宿县", "image": "", "rank": 22, "time": 2, "location": {"lat": 30.05902899139862, "lng": 96.92436044615198}, "feature": {"sight_features": "", "sight_content": ""}}, {"title": "邦达镇", "address": "昌都地区八宿县邦达镇", "image": "", "rank": 23, "time": 2, "location": {"lat": 30.162297747494996, "lng": 96.88564146324985}, "feature": {"sight_features": "", "sight_content": ""}}, {"title": "业拉山", "address": "昌都地区八宿县", "image": "", "rank": 24, "time": 1.0, "location": {"lat": 30.162297747494996, "lng": 96.88564146324985}, "feature": {"sight_features": "", "sight_content": ""}}, {"title": "帕龙藏布河谷", "address": "林芝地区波密县", "image": "", "rank": 25, "time": 2, "location": {"lat": 30.124827761779184, "lng": 95.55658526718665}, "feature": {"sight_features": "", "sight_content": ""}}, {"title": "怒江桥", "address": "西藏自治区昌都地区八宿县", "image": "", "rank": 26, "time": 2, "location": {"lat": 30.162297747494996, "lng": 96.88564146324985}, "feature": {"sight_features": "", "sight_content": ""}}, {"title": "怒江72拐", "address": "西藏自治区林芝地区察隅县", "image": "", "rank": 27, "time": 3.0, "location": {"lat": 28.681697628834318, "lng": 97.06912359708892}, "feature": {"sight_features": "", "sight_content": ""}}, {"title": "同尼村", "address": "西藏自治区昌都地区八宿县", "image": "", "rank": 28, "time": 2, "location": {"lat": 30.162297747494996, "lng": 96.88564146324985}, "feature": {"sight_features": "", "sight_content": ""}}, {"title": "安木错", "address": "西藏八宿县然乌镇", "image": "", "rank": 29, "time": 2, "location": {"lat": 29.508937856193977, "lng": 96.75765048052492}, "feature": {"sight_features": "", "sight_content": ""}}]}