{"cityName": "巴塘", "days": 2, "cityImage": "", "spots": [{"title": "姊妹湖", "address": "甘孜藏族自治州巴塘和理塘的中间的海子山内", "image": "", "rank": 1, "time": 1.5, "location": {"lat": 30.262489025903154, "lng": 99.56827275317919}, "feature": {"sight_features": "", "sight_content": ""}}, {"title": "康宁寺", "address": "甘孜藏族自治州巴塘县", "image": "", "rank": 2, "time": 1.0, "location": {"lat": 30.01166170737641, "lng": 99.11672669581999}, "feature": {"sight_features": "", "sight_content": ""}}, {"title": "巴塘热水沟", "address": "甘孜藏族自治州巴塘县南面山谷", "image": "", "rank": 3, "time": 2.5, "location": {"lat": 30.01166170737641, "lng": 99.11672669581999}, "feature": {"sight_features": "", "sight_content": ""}}, {"title": "热坑温泉", "address": "甘孜藏族自治州巴塘县", "image": "", "rank": 4, "time": 2, "location": {"lat": 30.01166170737641, "lng": 99.11672669581999}, "feature": {"sight_features": "", "sight_content": ""}}, {"title": "度假村", "address": "甘孜藏族自治州巴塘县", "image": "", "rank": 5, "time": 2, "location": {"lat": 30.01166170737641, "lng": 99.11672669581999}, "feature": {"sight_features": "", "sight_content": ""}}, {"title": "得荣县", "address": "甘孜州西部", "image": "", "rank": 6, "time": 2, "location": {"lat": 30.05527884351838, "lng": 101.96854674579022}, "feature": {"sight_features": "", "sight_content": ""}}, {"title": "拉姆农家乐", "address": "457县道东50米", "image": "", "rank": 7, "time": 2, "location": {"lat": 40.268727016490935, "lng": 115.63388528914774}, "feature": {"sight_features": "", "sight_content": ""}}, {"title": "措普湖", "address": "四川省甘孜州巴塘县措拉区", "image": "", "rank": 8, "time": 2, "location": {"lat": 30.31677501626862, "lng": 99.35377227243738}, "feature": {"sight_features": "", "sight_content": ""}}, {"title": "措普寺", "address": "四川省甘孜州巴塘县措拉区", "image": "", "rank": 9, "time": 2, "location": {"lat": 30.31677501626862, "lng": 99.35377227243738}, "feature": {"sight_features": "", "sight_content": ""}}, {"title": "金沙江大桥", "address": "四川省甘孜藏族自治州巴塘县", "image": "", "rank": 10, "time": 0.5, "location": {"lat": 30.01166170737641, "lng": 99.11672669581999}, "feature": {"sight_features": "", "sight_content": ""}}, {"title": "列衣隧道", "address": "甘孜藏族自治州巴塘县", "image": "", "rank": 11, "time": 2, "location": {"lat": 30.01166170737641, "lng": 99.11672669581999}, "feature": {"sight_features": "", "sight_content": ""}}]}