{"cityName": "巴彦淖尔", "days": "", "cityImage": "", "spots": [{"title": "黄河三盛公水利风景区", "address": "巴彦淖尔市磴口县拦河闸", "image": "", "rank": 1, "time": 4.0, "location": {"lat": 40.3364701771031, "lng": 107.01452247000432}, "feature": {"sight_features": "", "sight_content": ""}}, {"title": "纳林湖景区", "address": "巴彦淖尔市磴口县，距磴口县城40公里", "image": "", "rank": 2, "time": 3.5, "location": {"lat": 40.3364701771031, "lng": 107.01452247000432}, "feature": {"sight_features": "", "sight_content": ""}}, {"title": "阴山岩画", "address": "巴彦淖尔市临河区汇丰街", "image": "", "rank": 3, "time": 1.0, "location": {"lat": 40.756001497920884, "lng": 107.37678873016881}, "feature": {"sight_features": "", "sight_content": ""}}, {"title": "维信高尔夫度假村", "address": "巴彦淖尔乌拉特前旗巴音花镇", "image": "", "rank": 4, "time": 2, "location": {"lat": 40.634082691516234, "lng": 109.30216192409401}, "feature": {"sight_features": "", "sight_content": ""}}, {"title": "乌梁素海旅游区", "address": "巴彦淖尔市乌拉特前旗境内", "image": "", "rank": 5, "time": null, "location": {"lat": 40.822232051033644, "lng": 108.78925556918013}, "feature": {"sight_features": "", "sight_content": ""}}, {"title": "镜湖生态游乐园", "address": "巴彦淖尔市临巴线附近", "image": "", "rank": 6, "time": 1.0, "location": {"lat": 41.43016015819227, "lng": 107.56368279140183}, "feature": {"sight_features": "", "sight_content": ""}}, {"title": "乌拉山国家森林公园", "address": "巴彦淖尔乌拉特前旗乌拉山中段", "image": "", "rank": 7, "time": 1.0, "location": {"lat": 40.74674076200431, "lng": 109.31604483869967}, "feature": {"sight_features": "", "sight_content": ""}}, {"title": "甘露寺", "address": "内蒙古自治区巴彦淖尔市临河区新华镇哈达尔村", "image": "", "rank": 8, "time": 2.5, "location": {"lat": 41.06403781077412, "lng": 107.60322460995032}, "feature": {"sight_features": "", "sight_content": ""}}, {"title": "乌拉特草原", "address": "乌拉特前旗、乌拉特中旗、乌拉特后旗和磴口县境内", "image": "", "rank": 9, "time": 1.0, "location": {"lat": 40.822232051033644, "lng": 108.78925556918013}, "feature": {"sight_features": "", "sight_content": ""}}, {"title": "乌兰布和沙漠旅游区", "address": "阿拉善盟阿拉善左旗乌兰布和沙漠", "image": "", "rank": 10, "time": 1.0, "location": {"lat": 39.66775451141176, "lng": 106.37642049157219}, "feature": {"sight_features": "", "sight_content": ""}}, {"title": "浩彤水上乐园", "address": "巴彦淖尔市临河区临陕路五公里路北浩彤现代农业示范园区内", "image": "", "rank": 11, "time": 2, "location": {"lat": 40.75668072584017, "lng": 107.3695337956837}, "feature": {"sight_features": "", "sight_content": ""}}, {"title": "阿贵庙", "address": "蹬口县沙金套海苏木境内", "image": "", "rank": 12, "time": 1.0, "location": {"lat": 40.706459985918215, "lng": 106.75405951591199}, "feature": {"sight_features": "", "sight_content": ""}}, {"title": "黄河河套文化旅游区湿地公园", "address": "巴彦淖尔市临河区金川大道（金川大桥西侧）", "image": "", "rank": 13, "time": 2, "location": {"lat": 40.758668048096084, "lng": 107.39095426695911}, "feature": {"sight_features": "", "sight_content": ""}}, {"title": "甘其毛道口岸", "address": "巴彦淖尔乌拉特中旗中蒙边境第703（原288）号界碑处", "image": "", "rank": 14, "time": 1.0, "location": {"lat": 41.59334626374648, "lng": 108.51951244005076}, "feature": {"sight_features": "", "sight_content": ""}}, {"title": "塞上奇石林", "address": "巴彦淖尔乌中旗海流图镇南15公里的同和太牧场", "image": "", "rank": 15, "time": 1.0, "location": {"lat": 41.50150565512037, "lng": 108.57371022528271}, "feature": {"sight_features": "", "sight_content": ""}}, {"title": "小佘太秦长城", "address": "巴彦淖尔乌拉特前旗小佘太乡东北部", "image": "", "rank": 16, "time": 1.0, "location": {"lat": 41.170510473091326, "lng": 109.53974926876445}, "feature": {"sight_features": "", "sight_content": ""}}, {"title": "莫尼山泉小镇山泉水世界", "address": "巴彦淖尔市乌拉特前旗白彦花高速出口正北1公里处", "image": "", "rank": 17, "time": 2, "location": {"lat": 40.58690293171038, "lng": 109.30664466711431}, "feature": {"sight_features": "", "sight_content": ""}}, {"title": "温根塔拉草原旅游区", "address": "巴彦淖尔市乌拉特中旗海流图南向西2公里", "image": "", "rank": 18, "time": 2, "location": {"lat": 41.59334626374648, "lng": 108.51951244005076}, "feature": {"sight_features": "", "sight_content": ""}}, {"title": "宇鑫温泉水世界", "address": "巴彦淖尔市五原县212省道附近", "image": "", "rank": 19, "time": 2, "location": {"lat": 41.13289282278893, "lng": 108.27320964549195}, "feature": {"sight_features": "特色1 宇鑫温泉水上世界是巴彦淖尔市首家水上主题乐园。 特色2 这里有加勒比风格的冲浪海滩。 特色3 这里有迪斯尼的梦幻喇叭滑梯。", "sight_content": "宇鑫温泉水上世界是巴彦淖尔市首家、内蒙古西部最大的室内水上主题乐园。丰富的水上项目为您带来欢乐无限的奇妙体验，让您体验最疯狂刺激的水上探险之旅。这里有加勒比风格的冲浪海滩，让您感受超大海浪迎面扑来的惊险与刺激；迪斯尼的梦幻喇叭滑梯、亚马逊风格的随波漂流河让您在运动中感受快乐；超大的巨兽碗滑梯让您感受的不只是尖叫；内蒙西部最大的疯狂水寨让您找回儿时的记忆，还有很多趣味十足的水上设施您想怎么玩就怎么玩。\n宇鑫温泉水上世界是巴彦淖尔市首家、内蒙古西部最大的室内水上主题乐园。丰富的水上项目为您带来欢乐无限的奇妙体验，让您体验最疯狂刺激的水上探险之旅。这里有加勒比风格的冲浪海滩，让您感受超大海浪迎面扑来的惊险与刺激；迪斯尼的梦幻喇叭滑梯、亚马逊风格的随波漂流河让您在运动中感受快乐；超大的巨兽碗滑梯让您感受的不只是尖叫；内蒙西部最大的疯狂水寨让您找回儿时的记忆，还有很多趣味十足的水上设施您想怎么玩就怎么玩。\n宇鑫温泉水上世界是巴彦淖尔市首家、内蒙古西部最大的室内水上主题乐园。丰富的水上项目为您带来欢乐无限的奇妙体验，让您体验最疯狂刺激的水上探险之旅。这里有加勒比风格的冲浪海滩，让您感受超大海浪迎面扑来的惊险与刺激；迪斯尼的梦幻喇叭滑梯、亚马逊风格的随波漂流河让您在运动中感受快乐；超大的巨兽碗滑梯让您感受的不只是尖叫；内蒙西部最大的疯狂水寨让您找回儿时的记忆，还有很多趣味十足的水上设施您想怎么玩就怎么玩。"}}, {"title": "莫尼山泉小镇海洋世界", "address": "彦淖尔市乌拉特前旗白彦花高速出口正北1公里处", "image": "", "rank": 20, "time": 2, "location": {"lat": 40.58690293171038, "lng": 109.30664466711431}, "feature": {"sight_features": "特色1 零距离观赏海洋生物，还可欣赏海洋动物表演 特色2 完全置身于真实海洋中 特色3 可以与各种珍稀深海鱼类及贝壳标本近距离接触", "sight_content": "乌拉特部落海洋世界，有神秘的海底隧道，可零距离观赏海底内多姿多彩的海洋生物。海洋动物表演场将引进活泼可爱、聪明伶俐的海狮和海豹，到时可和他们零距离接触。"}}, {"title": "三盛公滑雪场", "address": "巴彦淖尔市磴口县境内的总干渠的入口处", "image": "", "rank": 21, "time": 2, "location": {"lat": 40.3364701771031, "lng": 107.01452247000432}, "feature": {"sight_features": "", "sight_content": ""}}, {"title": "宇鑫热带雨林海洋世界", "address": "巴彦淖尔市五原县河套农耕文化博览苑北侧", "image": "", "rank": 22, "time": 2, "location": {"lat": 41.06093950719366, "lng": 108.21873889306298}, "feature": {"sight_features": "特色1 行走在其间，感受大自然最原始的气息", "sight_content": "宇鑫热带雨林海洋世界内有蜥蜴、变色龙、蟒蛇、龟、娃娃鱼、黄金蛙、猴类、兔类、鼠类、鹦鹉、鳄鱼等动物。\n行走在其间，感受大自然最原始的气息，打造真实的自然探险之旅。让身居城市的市民在此寻找一份安静，一份来自海洋生物的美，尽情享受完美时光。\n行走在其间，感受大自然最原始的气息，打造真实的自然探险之旅。让身居城市的市民在此寻找一份安静，一份来自海洋生物的美，尽情享受完美时光。"}}, {"title": "临河人民公园游乐场", "address": "人民公园东门", "image": "", "rank": 23, "time": null, "location": {"lat": 39.11191923683254, "lng": 117.2269059212552}, "feature": {"sight_features": "", "sight_content": ""}}, {"title": "欢乐谷", "address": "美食城C座12号(县医院南)", "image": "", "rank": 24, "time": 4.5, "location": {"lat": 40.46871659008488, "lng": 115.98097607548452}, "feature": {"sight_features": "", "sight_content": ""}}, {"title": "陕坝植物园", "address": "陕坝镇", "image": "", "rank": 25, "time": 2, "location": {"lat": 40.90739715579449, "lng": 107.1313379774879}, "feature": {"sight_features": "", "sight_content": ""}}, {"title": "五原博物馆", "address": "110国道", "image": "", "rank": 26, "time": 2, "location": {"lat": 40.65296617192777, "lng": 108.83908835948142}, "feature": {"sight_features": "", "sight_content": ""}}, {"title": "续灯禅寺", "address": "内蒙古自治区巴彦淖尔市乌拉特前旗110国道", "image": "", "rank": 27, "time": 2, "location": {"lat": 40.65296617192777, "lng": 108.83908835948142}, "feature": {"sight_features": "", "sight_content": ""}}, {"title": "鸡鹿塞", "address": "位于今内蒙古自治区西部磴口县（巴彦高勒）西北，狼山西南段哈隆格乃峡谷南口", "image": "", "rank": 28, "time": 2, "location": {"lat": 40.331279862160685, "lng": 107.00718448178498}, "feature": {"sight_features": "", "sight_content": ""}}, {"title": "文化科技会展中心", "address": "将军路", "image": "", "rank": 29, "time": 2, "location": {"lat": 38.737517146736124, "lng": 114.18314535427328}, "feature": {"sight_features": "", "sight_content": ""}}, {"title": "紫欣花卉植物园", "address": "巴音宝力格镇玛瑙湖南门4号", "image": "", "rank": 30, "time": 2, "location": {"lat": 29.659146749650457, "lng": 109.60102304351075}, "feature": {"sight_features": "", "sight_content": ""}}, {"title": "晶昌合作社", "address": "团结东路北50米", "image": "", "rank": 31, "time": null, "location": {"lat": 38.81225062752, "lng": 115.48133129072964}, "feature": {"sight_features": "", "sight_content": ""}}, {"title": "奇珍博物馆", "address": "巴彦淖尔市乌拉特后旗惠民小区8号", "image": "", "rank": 32, "time": 2, "location": {"lat": 41.092544144813694, "lng": 107.07474073918792}, "feature": {"sight_features": "", "sight_content": ""}}, {"title": "风蚀冰臼地质公园", "address": "内蒙古自治区巴彦淖尔市乌拉特中旗S212", "image": "", "rank": 33, "time": 2, "location": {"lat": 41.59334626374648, "lng": 108.51951244005076}, "feature": {"sight_features": "", "sight_content": ""}}, {"title": "芦苇荡", "address": "内蒙古乌梁素海内", "image": "", "rank": 34, "time": 2.5, "location": {"lat": 40.823156232446166, "lng": 111.77260583081977}, "feature": {"sight_features": "", "sight_content": ""}}, {"title": "大桦背", "address": "巴彦淖尔市乌拉特前旗大桦背", "image": "", "rank": 35, "time": 2, "location": {"lat": 40.70848086125323, "lng": 109.41735193428269}, "feature": {"sight_features": "", "sight_content": ""}}, {"title": "海贝儿室内儿童乐园(杭锦后旗店)", "address": "新亚商厦二楼", "image": "", "rank": 36, "time": null, "location": {"lat": 40.676382382124004, "lng": 122.24330911816543}, "feature": {"sight_features": "", "sight_content": ""}}, {"title": "酒文化博物馆", "address": "将军路与塞上东街交叉口", "image": "", "rank": 37, "time": 1.5, "location": {"lat": 40.89208289756797, "lng": 107.15655496362828}, "feature": {"sight_features": "", "sight_content": ""}}, {"title": "河迹湖", "address": "内蒙古乌梁素海景区内", "image": "", "rank": 38, "time": 2, "location": {"lat": 40.823156232446166, "lng": 111.77260583081977}, "feature": {"sight_features": "", "sight_content": ""}}, {"title": "蒲草", "address": "内蒙古乌梁素海内蒲草景观", "image": "", "rank": 39, "time": 2, "location": {"lat": 40.823156232446166, "lng": 111.77260583081977}, "feature": {"sight_features": "", "sight_content": ""}}, {"title": "芝麻开门水世界", "address": "巴彦淖尔市临河区临陕路浩彤现代农业园内", "image": "", "rank": 40, "time": 1.5, "location": {"lat": 40.75668072584017, "lng": 107.3695337956837}, "feature": {"sight_features": "特色1 清凉玩水的好去处 特色2 荷叶浪、卷珠浪、涌浪平推浪等十多种不同的波浪", "sight_content": "芝麻开门水世界位于临河区临陕路浩彤现代农业园内，是清凉玩水、消暑纳凉的好地方。"}}, {"title": "龙成奇石展览馆", "address": "西环路", "image": "", "rank": 41, "time": 2, "location": {"lat": 39.04489408100302, "lng": 117.25170447040091}, "feature": {"sight_features": "", "sight_content": ""}}, {"title": "天正·温泉公馆", "address": "开源路附近", "image": "", "rank": 42, "time": 2, "location": {"lat": 38.887704658590884, "lng": 115.54643275136038}, "feature": {"sight_features": "", "sight_content": ""}}, {"title": "巴耶淖尔市城郊型特色农业科技园...", "address": "312省道附近", "image": "", "rank": 43, "time": 2, "location": {"lat": 36.622905905946894, "lng": 114.42321002791304}, "feature": {"sight_features": "", "sight_content": ""}}, {"title": "巴彦淖尔市图书馆", "address": "新华西街1号图书大厦", "image": "", "rank": 44, "time": 2, "location": {"lat": 40.82468867561973, "lng": 111.66174522918898}, "feature": {"sight_features": "", "sight_content": ""}}, {"title": "巴彦淖尔市图书馆", "address": "五一街", "image": "", "rank": 45, "time": 2, "location": {"lat": 40.7493594895728, "lng": 107.39439808372491}, "feature": {"sight_features": "", "sight_content": ""}}, {"title": "渔乐人生垂钓俱乐部", "address": "解放东街曙光新村42号", "image": "", "rank": 46, "time": 2, "location": {"lat": 32.02824871305117, "lng": 120.82435982093297}, "feature": {"sight_features": "", "sight_content": ""}}, {"title": "众源农家乐垂钓园", "address": "黄河大桥东620米", "image": "", "rank": 47, "time": 2, "location": {"lat": 40.56933398984486, "lng": 110.21745032643321}, "feature": {"sight_features": "", "sight_content": ""}}, {"title": "欢乐剧场", "address": "内蒙古自治区巴彦淖尔市临河区团结路", "image": "", "rank": 48, "time": 2, "location": {"lat": 40.7577218307429, "lng": 107.41887236344593}, "feature": {"sight_features": "", "sight_content": ""}}, {"title": "班禅召海子", "address": "巴彦淖尔市临河区", "image": "", "rank": 49, "time": null, "location": {"lat": 40.75668072584017, "lng": 107.3695337956837}, "feature": {"sight_features": "", "sight_content": ""}}, {"title": "三盛公黄河游乐园", "address": "巴彦淖尔市磴口县沿黄公路磴口方向三公里处", "image": "", "rank": 50, "time": 2, "location": {"lat": 40.3364701771031, "lng": 107.01452247000432}, "feature": {"sight_features": "", "sight_content": "三盛公黄河游乐园座落在巴彦淖尔市磴口县境内，园区占地面积5.5万平米，室内游泳馆1850平米，泳浪馆3000平米，餐厅、多功能会议室、办公区及其他辅助建设2200平米。目前乐园主题为大型水上乐园，园内水质干净，娱乐设施齐全，是家庭出游的必选之地。"}}, {"title": "三封古城遗址", "address": "位于瞪口县哈腾套海苏木约5公里处", "image": "", "rank": 51, "time": 2, "location": {"lat": 40.58100876769949, "lng": 106.55393639419637}, "feature": {"sight_features": "", "sight_content": ""}}, {"title": "老党采摘园", "address": "磴口去纳林湖方向38公里处右转直行2公里", "image": "", "rank": 52, "time": 2, "location": {"lat": 40.3364701771031, "lng": 107.01452247000432}, "feature": {"sight_features": "", "sight_content": ""}}, {"title": "吉昌农业", "address": "隆兴昌镇体育广场南农资大市场19号楼14号门市", "image": "", "rank": 53, "time": 2, "location": {"lat": 30.569432379996258, "lng": 117.03006472548297}, "feature": {"sight_features": "", "sight_content": ""}}, {"title": "海明钓场", "address": "红同补隆世外园西400米", "image": "", "rank": 54, "time": 2, "location": {"lat": 24.82615130993735, "lng": 107.14097574738346}, "feature": {"sight_features": "", "sight_content": ""}}, {"title": "多粒农业有限公司", "address": "大佘太镇西街", "image": "", "rank": 55, "time": 2, "location": {"lat": 41.02843131501722, "lng": 109.15227298163238}, "feature": {"sight_features": "", "sight_content": ""}}, {"title": "园子渠广场", "address": "内蒙古自治区巴彦淖尔市杭锦后旗陕坝镇龙宝东街奋斗小学附近", "image": "", "rank": 56, "time": 2, "location": {"lat": 40.89218692104128, "lng": 107.16351125375171}, "feature": {"sight_features": "", "sight_content": ""}}, {"title": "小舵手水上乐园", "address": "乌拉山镇红卫北路天政购物中心三楼", "image": "", "rank": 57, "time": 2, "location": {"lat": 40.73080111952374, "lng": 108.65859096470012}, "feature": {"sight_features": "", "sight_content": ""}}, {"title": "磴口县图书馆", "address": "团结路附近", "image": "", "rank": 58, "time": 2, "location": {"lat": 39.09559418426625, "lng": 117.10726754529976}, "feature": {"sight_features": "", "sight_content": ""}}, {"title": "巴彦淖尔梦幻灯光节", "address": "巴彦淖尔市黄河湿地生态公园内", "image": "", "rank": 59, "time": 2, "location": {"lat": 40.85302286410711, "lng": 108.07199924982095}, "feature": {"sight_features": "", "sight_content": ""}}, {"title": "维信内蒙古草原生态旅游度假区", "address": "内蒙古自治区巴彦淖尔市乌拉特前旗巴音花镇", "image": "", "rank": 60, "time": 2, "location": {"lat": 40.634082691516234, "lng": 109.30216192409401}, "feature": {"sight_features": "", "sight_content": ""}}]}