{"cityName": "霸州", "days": 2, "cityImage": "", "spots": [{"title": "茗汤温泉度假村", "address": "廊坊市霸州市经济技术开发区106国道东", "image": "", "rank": 1, "time": 2, "location": {"lat": 39.1725896711994, "lng": 116.39041588203045}, "feature": {"sight_features": "特色1 是一个集温光饮、客房、会议、娱乐设施于一体的综合性国家游景区。 特色2 天然好温泉，养生又美颜。", "sight_content": "茗汤温泉度假村 由澳大利亚开发商投资建设，位于河北省霸州市经济技术开发区106国道东侧，地处京、津、冀之中心位置，交通便利，环境优美，美丽的景区融合了人与自然的和谐，是一个集温泉、餐饮、客房、会议、娱乐设施于一体的综合性国家aaaa级旅游景区。茗汤温泉度假村集世界温泉沐浴养生文化之精髓，建有功能各异，错落别致的室内外温泉池，spa水疗，鱼疗池，黑盐泥浴等，泉水质醇汁浓，浴之润滑舒畅，富含人体所需的微量元素和矿物质（如：偏硅酸、偏硼酸、放射性氡等）属碳酸氢纳泉，素有“神仙水”、“天然美人汤” 之美名。更引进了土耳其“亲亲鱼”，让您的身心与畅游的小鱼一起吸收温泉水的精华，尽情舒展释放。\n茗汤温泉属于苏打型地热温泉，为碳酸氢钠泉。井口水温约60摄氏度，水质清澈无味，水中含有多种对人体有益的微量元素和矿物质,如锂、锶、锌、澳、碘、偏硅酸、偏硼酸、放射性氡等。茗汤温泉泉水中偏硅酸（含量为37.3mg/l），偏硼酸（含量为2.0mg/l）已达到医疗价值浓度；氟（含量为3.2mg/l）达到命名矿水浓度，温度为57℃（≥34℃），可命名为偏硅酸、偏硼酸有医疗价值的氟型淡温水。"}}, {"title": "茗汤.赏椿日月潭温泉会馆", "address": "廊坊市霸州市国际温泉城泰山路529号", "image": "", "rank": 2, "time": 2, "location": {"lat": 39.16089461047693, "lng": 116.36548278019394}, "feature": {"sight_features": "", "sight_content": ""}}, {"title": "国全温泉水上乐园", "address": "廊坊市霸州市南孟镇二厂路口西行1公里路北", "image": "", "rank": 3, "time": 2, "location": {"lat": 39.18935779304721, "lng": 116.38501138053992}, "feature": {"sight_features": "", "sight_content": ""}}, {"title": "龙泉禅寺", "address": "廊坊市霸州市信安镇中心", "image": "", "rank": 4, "time": 0.75, "location": {"lat": 39.15872993009776, "lng": 116.65313694620866}, "feature": {"sight_features": "", "sight_content": ""}}, {"title": "月儿湾水上乐园", "address": "廊坊市霸州市建设东道六郎桥东堤南行200米", "image": "", "rank": 5, "time": 2, "location": {"lat": 39.11827399117845, "lng": 116.41320230857961}, "feature": {"sight_features": "特色1 含有大量对人体有益的微量元素和矿物质", "sight_content": "月儿弯水上乐园坐落在河北省千年古镇霸州市，这里是温泉文化之城，翰墨之乡，月儿湾水上乐园于6月28日盛大起航，位于霸州市六郎桥附近，紧邻市区。\n本园整体占地面积2000平米，月儿弯水上乐园具有国内一流水质净化设备，温泉深度为2700，泉水属于苏打型地热温泉，井口水温约60度，水质清澈华润，含有大量对人体有益的微量元素和矿物质。\n它不仅是一座水之城，还是这里目前独有的室内水上乐园，馆内设有达到国家标准的泳池、儿童水寨、氧疗池、温泉药浴池、健身、足疗保健等，本馆四季对外开放。"}}, {"title": "名泉温泉", "address": "廊坊市霸州市金各庄兴华北路", "image": "", "rank": 6, "time": 2, "location": {"lat": 39.15372221321483, "lng": 116.39937920405309}, "feature": {"sight_features": "特色1 温泉景观一池一景，随着四季的变换，景色绚丽多彩。 特色2 给宾客带来不同的视觉享受，让您放松享受的同时身心愉悦。 特色3 集商务会议、休闲度假、温泉养生为一体。", "sight_content": "名泉温泉酒店坐落于京南70公里的河北温泉中心地带——霸州市，名泉温泉酒店地理位置优越，交通便利，酒店整体设计由国内著名设计团队设计，是集商务会议、休闲度假、温泉养生为一体的酒店。设计风格与酒店整体建筑和谐统一，绿化与建筑相互融合，温泉景观一池一景，随着四季的变换，景色绚丽多彩，由此给宾客带来不同的视觉享受，让您放松享受的同时身心愉悦。\n酒店占地面积108000平方米，建筑总面积7614平方米，温泉区面积4400平米，水上乐园面积30666平方米，名泉人工湖面积22000平米。名泉温泉酒店项目划分为客房、餐饮、温泉、大型水上乐园等四大区域，主要为宾客提供温泉、住宿、会议、休闲、娱乐、美食等功能项目。"}}, {"title": "塞纳温泉会馆", "address": "廊坊市霸州市开发区泰山路西侧浙商会馆一期", "image": "", "rank": 7, "time": 2, "location": {"lat": 39.179056419106956, "lng": 116.36064597724332}, "feature": {"sight_features": "特色1 集住、餐、娱、购配套于一体", "sight_content": "塞纳温泉是按国家五星级酒店标准，精心打造的温泉养生庄园，是由河北金泽地产有限公司投资建设，位于河北省霸州市经济技术开发区泰山路中段，整体占地300多亩，是集住、餐、娱、购配套于一体的新型、综合性温泉庄园。塞纳温泉中心，设有康体疗养区、皇室贵族区、自然生态养生区、欢乐动感区、世界经典特色区、风情万种日式汤屋区、SPA水疗多功能区等40多个功能各异的温泉池，同时并设有大型室内SPA水疗功能区、室内恒温泳池，异国风情漂浮浴、儿童乐园、温泉养生食坊等。\n整个温泉区融汇并倾注了独特深厚的沐浴文化内涵。这里没有城市的喧嚣、污染，对久居都市、快节奏生活的城市人来说，尽情享受自然的宁静与舒适，确有一洗尘嚣、令人陶醉的愉悦。塞纳温泉会馆的酒店接待中心，设有60多间SPA温泉客房，可同时容纳150多人住宿，洋溢异国风情的80多幢温泉汤院，设施完善，加上温情式的服务，一定会圆您一个美妙的温泉之梦。塞纳温泉庄园坚持现代养生理念，培养种植无公害果蔬基地100多亩，为不同人群提供原生态的绿色食品，远离毒害，你的健康你做主。"}}, {"title": "霸州王家大院", "address": "廊坊市霸州市胜芳镇朝阳村", "image": "", "rank": 8, "time": 1.0, "location": {"lat": 39.06695303812454, "lng": 116.70130140351682}, "feature": {"sight_features": "", "sight_content": ""}}, {"title": "名泉水上乐园", "address": "霸州市兴华北路茗汤生态餐厅斜对面", "image": "", "rank": 9, "time": 2, "location": {"lat": 39.15372221321483, "lng": 116.39937920405309}, "feature": {"sight_features": "", "sight_content": ""}}, {"title": "胜芳古镇", "address": "河北省廊坊", "image": "", "rank": 10, "time": 2, "location": {"lat": 39.54336666275853, "lng": 116.69058173342549}, "feature": {"sight_features": "", "sight_content": ""}}, {"title": "霸州生态公园", "address": "廊坊市霸州市东环路", "image": "", "rank": 11, "time": 1.0, "location": {"lat": 39.1232711299739, "lng": 116.89544257319737}, "feature": {"sight_features": "", "sight_content": ""}}, {"title": "茗汤.日月潭温泉会馆", "address": "经济开发区国际温泉公园", "image": "", "rank": 12, "time": 2, "location": {"lat": 26.655443026404118, "lng": 118.1922561315343}, "feature": {"sight_features": "", "sight_content": ""}}, {"title": "胜芳博物馆", "address": "胜芳博物馆", "image": "", "rank": 13, "time": 2, "location": {"lat": 39.066324897438825, "lng": 116.7024902991813}, "feature": {"sight_features": "", "sight_content": ""}}, {"title": "恒益堂温泉", "address": "泰山路519号", "image": "", "rank": 14, "time": 2, "location": {"lat": 35.897604016035864, "lng": 120.00319046931652}, "feature": {"sight_features": "", "sight_content": ""}}, {"title": "中华戏曲城", "address": "河北省廊坊霸州市泰山路", "image": "", "rank": 15, "time": 2, "location": {"lat": 39.179056419106956, "lng": 116.36064597724332}, "feature": {"sight_features": "", "sight_content": ""}}, {"title": "大佛禅寺", "address": "河北省廊坊市霸州市佛缘道", "image": "", "rank": 16, "time": 2, "location": {"lat": 39.16080975328681, "lng": 116.74107048617287}, "feature": {"sight_features": "", "sight_content": ""}}, {"title": "霸州温泉新都孔雀城", "address": "泰山路—霸州温泉新都孔雀城(霸州市戏曲大观园,霸州市第十九中学)", "image": "", "rank": 17, "time": 2, "location": {"lat": 39.179056419106956, "lng": 116.36064597724332}, "feature": {"sight_features": "", "sight_content": ""}}, {"title": "采摘园", "address": "霸州镇后卜庄村东南角", "image": "", "rank": 18, "time": 2, "location": {"lat": 39.08234506682253, "lng": 116.41084187071648}, "feature": {"sight_features": "", "sight_content": ""}}, {"title": "霸州图书馆", "address": "裕华东道150号", "image": "", "rank": 19, "time": 1.5, "location": {"lat": 39.66653171348509, "lng": 118.18425224557122}, "feature": {"sight_features": "", "sight_content": ""}}, {"title": "见月图书馆", "address": "翠竹道富林快餐旁", "image": "", "rank": 20, "time": 2, "location": {"lat": 39.282822891311795, "lng": 118.42918997507708}, "feature": {"sight_features": "", "sight_content": ""}}, {"title": "霸州市科技馆", "address": "益津中路165号", "image": "", "rank": 21, "time": 2.5, "location": {"lat": 39.1301499167438, "lng": 116.39833670254265}, "feature": {"sight_features": "", "sight_content": ""}}, {"title": "荣高棠纪念馆", "address": "霸州经济技术开发区西环路", "image": "", "rank": 22, "time": 2, "location": {"lat": 39.14398945741294, "lng": 116.34928211160974}, "feature": {"sight_features": "", "sight_content": ""}}, {"title": "儿童游乐场", "address": "草桥路创富金街0618号(华联东行200米路北)", "image": "", "rank": 23, "time": 2, "location": {"lat": 39.12275809290954, "lng": 116.41171226497596}, "feature": {"sight_features": "", "sight_content": ""}}, {"title": "霸州采摘", "address": "泰山路529号", "image": "", "rank": 24, "time": 2, "location": {"lat": 35.897650869342584, "lng": 120.0034763101298}, "feature": {"sight_features": "", "sight_content": ""}}, {"title": "伯爵山温泉假日酒店餐饮部", "address": "温泉公园泰山路168号", "image": "", "rank": 25, "time": 2, "location": {"lat": 41.13771311749765, "lng": 122.06998863015437}, "feature": {"sight_features": "", "sight_content": ""}}, {"title": "慧丰垂钓园", "address": "堂二里镇天福路慧丰垂钓园", "image": "", "rank": 26, "time": 2, "location": {"lat": 39.15668157073473, "lng": 116.69489455836535}, "feature": {"sight_features": "", "sight_content": ""}}, {"title": "胜芳湿地码头水上乐园", "address": "胜芳镇文昌阁桥南丽华湿地码头", "image": "", "rank": 27, "time": 2, "location": {"lat": 39.05901429738623, "lng": 116.70161383237658}, "feature": {"sight_features": "", "sight_content": ""}}, {"title": "翠林湾大舞台", "address": "堂二里镇东1500米", "image": "", "rank": 28, "time": 2, "location": {"lat": 39.33312286196135, "lng": 116.50025795522994}, "feature": {"sight_features": "", "sight_content": ""}}, {"title": "百年高棠陈列展", "address": "岔河集乡西环路与黄河道交叉口东北(辛庄小学南350米)", "image": "", "rank": 29, "time": 2, "location": {"lat": 39.154381187135, "lng": 116.34943509842793}, "feature": {"sight_features": "", "sight_content": ""}}, {"title": "小勇士拓展乐园(胜芳店)", "address": "芳津道181（胜芳镇肯德基对面八号地铁站商场）", "image": "", "rank": 30, "time": 2, "location": {"lat": 39.07428153493836, "lng": 116.7120841409431}, "feature": {"sight_features": "", "sight_content": ""}}, {"title": "儿童成长主题乐园", "address": "河北省廊坊市霸州市辛胜道24", "image": "", "rank": 31, "time": 2, "location": {"lat": 39.090367723790315, "lng": 116.79485092854627}, "feature": {"sight_features": "", "sight_content": ""}}, {"title": "嘻嗳哆儿童乐园", "address": "温泉道178", "image": "", "rank": 32, "time": 2, "location": {"lat": 22.55056926657703, "lng": 113.47618523460488}, "feature": {"sight_features": "", "sight_content": ""}}, {"title": "任氏宗祠", "address": "樊任路与荣华东街交叉口西50米", "image": "", "rank": 33, "time": 2, "location": {"lat": 39.02749595832585, "lng": 116.56581491244917}, "feature": {"sight_features": "", "sight_content": ""}}, {"title": "城隍庙", "address": "廊坊市霸州市益昌路", "image": "", "rank": 34, "time": 1.5, "location": {"lat": 39.15272469357618, "lng": 116.43385242628698}, "feature": {"sight_features": "", "sight_content": ""}}, {"title": "娃哈哈儿童成长主题乐园", "address": "其他温泉道迎宾山水南门幸福超市B1楼", "image": "", "rank": 35, "time": 2, "location": {"lat": 22.54240336608764, "lng": 113.4787657860629}, "feature": {"sight_features": "", "sight_content": ""}}, {"title": "霸州基督教会", "address": "朝阳路西150米", "image": "", "rank": 36, "time": 2, "location": {"lat": 38.85447906919534, "lng": 117.45378180365176}, "feature": {"sight_features": "", "sight_content": ""}}, {"title": "丽华绿色植物生态园", "address": "廊坊市霸州市", "image": "", "rank": 37, "time": 2, "location": {"lat": 39.13092059698142, "lng": 116.39839726630014}, "feature": {"sight_features": "", "sight_content": ""}}, {"title": "佛城灵云寺", "address": "河北省廊坊市霸州市G112(京环线)", "image": "", "rank": 38, "time": 2, "location": {"lat": 39.13092059698142, "lng": 116.39839726630014}, "feature": {"sight_features": "", "sight_content": ""}}, {"title": "新时代禅寺", "address": "太平街附近", "image": "", "rank": 39, "time": 2.5, "location": {"lat": 39.86902527462364, "lng": 119.42882113693496}, "feature": {"sight_features": "", "sight_content": ""}}, {"title": "童幻屿儿童主题乐园(霸州店)", "address": "其他兴华南路尚潮休闲购物广场一楼(原兴华家具城一楼)", "image": "", "rank": 40, "time": null, "location": {"lat": 39.117411989982315, "lng": 116.4109684850815}, "feature": {"sight_features": "", "sight_content": ""}}, {"title": "永乐园", "address": "天津市西青区当杨路", "image": "", "rank": 41, "time": 2, "location": {"lat": 39.10678410437467, "lng": 116.92556039889497}, "feature": {"sight_features": "", "sight_content": ""}}, {"title": "小伙伴儿童主题乐园", "address": "河北省廊坊市霸州市G106(京广线)", "image": "", "rank": 42, "time": 2, "location": {"lat": 39.13092059698142, "lng": 116.39839726630014}, "feature": {"sight_features": "", "sight_content": ""}}, {"title": "牤牛河公园", "address": "河北省廊坊市霸州市兴华中路", "image": "", "rank": 43, "time": 2, "location": {"lat": 39.128745928901914, "lng": 116.40934641482212}, "feature": {"sight_features": "", "sight_content": ""}}, {"title": "霸州市市民广场", "address": "天祥路与迎宾东道交叉口", "image": "", "rank": 44, "time": 2, "location": {"lat": 39.13090027978998, "lng": 116.40169064563878}, "feature": {"sight_features": "", "sight_content": ""}}, {"title": "黎昌假日", "address": "泰山路与霸州连接线交叉口东南150米", "image": "", "rank": 45, "time": 2, "location": {"lat": 39.16311421973404, "lng": 116.36407303881474}, "feature": {"sight_features": "", "sight_content": ""}}, {"title": "海乐天龙魟会馆", "address": "河北省廊坊市霸州市霸州镇益津南路提香温泉小镇附近", "image": "", "rank": 46, "time": 2, "location": {"lat": 39.10895491159525, "lng": 116.39417016216355}, "feature": {"sight_features": "", "sight_content": ""}}, {"title": "霸州西站站前广场", "address": "河北省廊坊市霸州市", "image": "", "rank": 47, "time": 2, "location": {"lat": 39.13092059698142, "lng": 116.39839726630014}, "feature": {"sight_features": "", "sight_content": ""}}, {"title": "霸州市城建档案馆", "address": "益津中路120号", "image": "", "rank": 48, "time": 2, "location": {"lat": 39.132863884447374, "lng": 116.39531503636653}, "feature": {"sight_features": "", "sight_content": ""}}, {"title": "风光壁画", "address": "兴华南路158号", "image": "", "rank": 49, "time": 2, "location": {"lat": 37.91530084823794, "lng": 115.22226998338556}, "feature": {"sight_features": "", "sight_content": ""}}, {"title": "茗汤温泉高尔夫球练习场", "address": "兴华北路1103号", "image": "", "rank": 50, "time": 2, "location": {"lat": 39.15100533265215, "lng": 116.40136706431612}, "feature": {"sight_features": "", "sight_content": ""}}, {"title": "霸州博物馆", "address": "益津中路165号", "image": "", "rank": 51, "time": 2.5, "location": {"lat": 39.1301499167438, "lng": 116.39833670254265}, "feature": {"sight_features": "", "sight_content": ""}}, {"title": "荣盛阿尔卡迪亚温泉城", "address": "跨106线立交桥北500米路东", "image": "", "rank": 52, "time": 2, "location": {"lat": 43.097392324253015, "lng": 129.77811759918296}, "feature": {"sight_features": "", "sight_content": ""}}, {"title": "百枣生态园", "address": "老堤村西", "image": "", "rank": 53, "time": 2, "location": {"lat": 30.61611908353516, "lng": 112.65856978639627}, "feature": {"sight_features": "", "sight_content": ""}}, {"title": "霸州胜芳凯胜台球厅", "address": "芳津道435-1", "image": "", "rank": 54, "time": 2, "location": {"lat": 39.07480457663928, "lng": 116.70054262192035}, "feature": {"sight_features": "", "sight_content": ""}}, {"title": "华夏民间收藏馆", "address": "迎宾东道193号(市政府对面)", "image": "", "rank": 55, "time": 2, "location": {"lat": 39.12977157582751, "lng": 116.39720341827737}, "feature": {"sight_features": "", "sight_content": ""}}, {"title": "霸州博物馆蜡像展", "address": "迎宾东道193号博物馆", "image": "", "rank": 56, "time": 2, "location": {"lat": 39.12977157582751, "lng": 116.39720341827737}, "feature": {"sight_features": "", "sight_content": ""}}, {"title": "二人转剧场", "address": "海顺路附近", "image": "", "rank": 57, "time": 2, "location": {"lat": 31.28152585834424, "lng": 121.68959397012028}, "feature": {"sight_features": "", "sight_content": ""}}, {"title": "恬畅采摘园", "address": "三街村东环路第五小学东1公里", "image": "", "rank": 58, "time": 2, "location": {"lat": 28.31289502835597, "lng": 109.76837880713454}, "feature": {"sight_features": "", "sight_content": ""}}, {"title": "永善庄园", "address": "长安道南300米", "image": "", "rank": 59, "time": 3.0, "location": {"lat": 39.20302887374727, "lng": 117.21812379194544}, "feature": {"sight_features": "", "sight_content": ""}}, {"title": "温泉宾馆(和谐道)", "address": "益津中路235-1", "image": "", "rank": 60, "time": 2, "location": {"lat": 39.12540710010637, "lng": 116.39694582468087}, "feature": {"sight_features": "", "sight_content": ""}}]}