{"cityName": "北流", "days": 2, "cityImage": "", "spots": [{"title": "勾漏洞", "address": "玉林市北流勾漏洞景区", "image": "", "rank": 1, "time": 1.5, "location": {"lat": 22.745514848356557, "lng": 110.3992824495101}, "feature": {"sight_features": "特色1 道教名山，溶洞景致引人入胜，众多历史名人都在此留下了足迹。", "sight_content": "北流勾漏洞景区是广西省级风景名胜区，位于北流市东南面3公里处勾漏山主峰下，因洞勾、曲、穿、漏而得名。占地面积204公顷，典型的岩溶地貌景观。勾漏洞是古代道教三十六洞天之“二十二洞天”，以其勾曲穿漏特点而闻名。由宝圭、玉阙、白沙、桃源四洞组成，全长300米。\n\n传说东晋葛洪在洞内“炼丹修道”，故洞口有葛仙词祠，洞内有葛洪塑像。洞前有唐宋以来摩崖碑碣百余幅。洞内奇景自然天成，石柱、石笋等钟乳石纵横交错，千姿百态，引人入胜。洞中有宽敞的大厅，也有仅能过人的走廊，还有地下暗河，水清可鉴。人文历史悠久，自魏晋以来，王符、葛洪、李纲、徐霞客等名流到此游览、考察，留下了较多的游踪墨迹，仅磨崖石刻就有120多幅。还有郭沫若、马达特、于立群等当代诗画家的笔迹石刻。除此之外，景区内景色秀丽，花木葱葱，满目苍翠的相思树，又给景区增添了一道别致的风光。"}}, {"title": "大容山森林公园", "address": "玉林北流市大容山林场内", "image": "", "rank": 2, "time": 4.5, "location": {"lat": 22.70899056521976, "lng": 110.34243490738159}, "feature": {"sight_features": "特色1 登顶桂东南第一峰，赏飞瀑云海，领略大自然的原生态美景。 特色2 \"雄壮巍峨、气势不凡，山间鸟兽繁衍、包罗万象，故名\"\"大容山\"\"。 \" 特色3 \"绿野仙踪，天上人间 \"", "sight_content": "大容山风景区是国家级森林公园，位于广西玉林北流市。大容山海拔1275.6米的主峰莲花顶腹地内，总面积2930公顷，距玉林城区46公里，北流23公里。森林公园山体高大，森林密布，山脉绵远，峰峦叠嶂。山中地貌一般在海拔1000米左右，属亚热带气候区，春雾、夏凉、秋爽、冬干，四季景色各异，气象万千。森林覆盖率达82.7%，有两百多种树种。\n\n公园胜景繁多，莲花瀑布、试剑石、望夫石、磨菇石、仙人床、情人树、海豹采果、人工草坪会使你心旷神贻，流连忘返，森林沐浴更会使你充分享受大自然的奥妙。公园内动、植物种类甚多，有被称为活化石的国家重点保护珍稀植物桫椤(树蕨)，花中之王金茶花，还有悠久漫游的千年龟、欢腾的五爪金龙和活泼嬉戏的猴群，构成一道亮丽的风景线。\n大容山是名副其实的养生天堂，这儿有云雾的缭绕、森林的陪伴、泉水的淅沥、鸟儿的呢喃。大容山优良的整体生态系统，涵养了优质的软水水源，水中所含的硒、锌、锶等微量元素的含量都比长寿之乡巴马还高。此外，生长在大山深处的养生食材和药材功能显著，深受游人青睐。大容山不仅拥有丰富优良的旅游资源，而且区位优势十分明显，交通十分便利。是粤桂两省的黄金过渡地带，是广西旅游产业发展总体格局中桂东南旅游经济区的重要组成部分。景区于2003年11月，国家批准其为国家森林公园。是国内距离城市最近、交通最便捷的国家级森林公园之一。\n大容山漂流——高山瀑布下的漂流，位于广西北流市大容山国家森林公园九瀑谷景区下游，总落差约300米，高单级落差8米。新建设的漂流河道延长至3.2公里，增加了适合青少年参与的“逍遥漂”，更多精彩，更多尖叫。大容山漂流水质清澈，沿途风景优美，让人留连；漂流落差大，精彩刺激；沿途均有护漂员保护，安全度高。"}}, {"title": "梁萍书店", "address": "铜卅市场对面水果行直入10米处", "image": "", "rank": 3, "time": 2, "location": {"lat": 40.807121334524446, "lng": 111.70943381454306}, "feature": {"sight_features": "", "sight_content": ""}}, {"title": "北流市图书馆", "address": "城东一路0057号", "image": "", "rank": 4, "time": 1.5, "location": {"lat": 22.71592234587189, "lng": 110.36004151301533}, "feature": {"sight_features": "", "sight_content": ""}}, {"title": "李明瑞、俞作豫烈士纪念馆", "address": "龙颈路", "image": "", "rank": 5, "time": 2, "location": {"lat": 22.721256314740344, "lng": 110.36215556364247}, "feature": {"sight_features": "", "sight_content": ""}}, {"title": "铜石岭", "address": "广西壮族自治区北流市民安镇 537401", "image": "", "rank": 6, "time": 1.0, "location": {"lat": 22.74935330238372, "lng": 110.44578765208526}, "feature": {"sight_features": "", "sight_content": ""}}, {"title": "冰酷冰淇淋批发", "address": "月塘路40号", "image": "", "rank": 7, "time": 2, "location": {"lat": 22.69741044392175, "lng": 110.35978855018381}, "feature": {"sight_features": "", "sight_content": ""}}, {"title": "勾漏洞风景区", "address": "广西壮族自治区北流市东南 537400", "image": "", "rank": 8, "time": 2, "location": {"lat": 22.713958021611358, "lng": 115.18806397483463}, "feature": {"sight_features": "", "sight_content": ""}}, {"title": "大容山国家森林公园", "address": "广西壮族自治区北流市民乐镇 537403", "image": "", "rank": 9, "time": 2, "location": {"lat": 22.826607266024137, "lng": 110.34781183897594}, "feature": {"sight_features": "", "sight_content": ""}}, {"title": "桂林望夫岩", "address": "广西壮族自治区兴安县漓江西岸 541001", "image": "", "rank": 10, "time": 2, "location": {"lat": 25.61592821008686, "lng": 110.5881419429501}, "feature": {"sight_features": "", "sight_content": ""}}, {"title": "隆盛镇", "address": "广西壮族自治区北流市离桂林约100km", "image": "", "rank": 11, "time": 2, "location": {"lat": 22.713958021611358, "lng": 110.36057016580777}, "feature": {"sight_features": "", "sight_content": ""}}, {"title": "北流市新松社区交通安全教育活动...", "address": "广西壮族自治区北流市新松路", "image": "", "rank": 12, "time": 4.5, "location": {"lat": 22.707213860878902, "lng": 110.34830572734518}, "feature": {"sight_features": "", "sight_content": ""}}, {"title": "民乐中心文化广场", "address": "兴民路121-170号附近", "image": "", "rank": 13, "time": 2, "location": {"lat": 32.912754354341146, "lng": 117.4017103686467}, "feature": {"sight_features": "", "sight_content": ""}}, {"title": "儿童游乐园", "address": "陵城街道华荣百货超市内1楼", "image": "", "rank": 14, "time": 2, "location": {"lat": 34.28473549189196, "lng": 108.84268341226796}, "feature": {"sight_features": "", "sight_content": ""}}, {"title": "兴善寺", "address": "大兴路0060", "image": "", "rank": 15, "time": 2, "location": {"lat": 30.573852852189827, "lng": 114.29404349609132}, "feature": {"sight_features": "", "sight_content": ""}}, {"title": "北流市天主教堂", "address": "新芝路94号", "image": "", "rank": 16, "time": 1.0, "location": {"lat": 29.892121146000775, "lng": 121.54600698558961}, "feature": {"sight_features": "", "sight_content": ""}}, {"title": "刘氏祠堂", "address": "广西壮族自治区玉林市北流市沙垌镇", "image": "", "rank": 17, "time": 1.0, "location": {"lat": 22.433610907982246, "lng": 110.59756893883319}, "feature": {"sight_features": "", "sight_content": ""}}, {"title": "广丰公园", "address": "玉林市北流市广丰路194号", "image": "", "rank": 18, "time": 3.0, "location": {"lat": 22.70295352352026, "lng": 110.34996870322868}, "feature": {"sight_features": "", "sight_content": ""}}, {"title": "南园公园", "address": "广西壮族自治区玉林市北流市南国一路一里", "image": "", "rank": 19, "time": 2, "location": {"lat": 22.713958021611358, "lng": 110.36057016580777}, "feature": {"sight_features": "", "sight_content": ""}}, {"title": "冯圣宫", "address": "沿江路102号附近", "image": "", "rank": 20, "time": 2, "location": {"lat": 26.843949501410528, "lng": 116.3376601203358}, "feature": {"sight_features": "", "sight_content": ""}}, {"title": "欧氏宗祠", "address": "广西壮族自治区玉林市北流市S103", "image": "", "rank": 21, "time": 2, "location": {"lat": 22.713958021611358, "lng": 110.36057016580777}, "feature": {"sight_features": "", "sight_content": ""}}, {"title": "清湾八桂乡村公园", "address": "广西壮族自治区玉林市北流市X441", "image": "", "rank": 22, "time": 2, "location": {"lat": 22.713958021611358, "lng": 110.36057016580777}, "feature": {"sight_features": "", "sight_content": ""}}, {"title": "花果山公园", "address": "城北路花果山180-3号", "image": "", "rank": 23, "time": 0.5, "location": {"lat": 22.530430019423356, "lng": 113.04064679832307}, "feature": {"sight_features": "", "sight_content": ""}}, {"title": "北流生态带状公园", "address": "甘贵路与324国道交叉口东北150米", "image": "", "rank": 24, "time": 4.5, "location": {"lat": 24.798575132614413, "lng": 105.5541364467432}, "feature": {"sight_features": "", "sight_content": ""}}, {"title": "新城儿童乐园", "address": "新城国际A229", "image": "", "rank": 25, "time": 2, "location": {"lat": 31.149656032958877, "lng": 120.64243990457999}, "feature": {"sight_features": "", "sight_content": ""}}, {"title": "李明瑞虎将堂", "address": "广西壮族自治区玉林市北流市清湾镇候山村朱砂地", "image": "", "rank": 26, "time": 2, "location": {"lat": 22.204457887009102, "lng": 110.60680106350546}, "feature": {"sight_features": "", "sight_content": ""}}, {"title": "大陂塘牌坊", "address": "036乡道附近", "image": "", "rank": 27, "time": null, "location": {"lat": 48.39353581856098, "lng": 129.90220447944986}, "feature": {"sight_features": "", "sight_content": ""}}, {"title": "观音园", "address": "广西壮族自治区玉林市北流市民乐镇大容山国家森林公园九瀑谷景区内", "image": "", "rank": 28, "time": 1.0, "location": {"lat": 22.894802710885934, "lng": 110.37223564020738}, "feature": {"sight_features": "", "sight_content": ""}}, {"title": "北流市六祖禅寺", "address": "广西壮族自治区玉林市北流市X425", "image": "", "rank": 29, "time": 4.5, "location": {"lat": 22.713958021611358, "lng": 110.36057016580777}, "feature": {"sight_features": "", "sight_content": ""}}, {"title": "郑氏宗祠", "address": "广西壮族自治区玉林市北流市隆盛镇长信村境口", "image": "", "rank": 30, "time": 1.0, "location": {"lat": 22.559504230846482, "lng": 110.45239362551524}, "feature": {"sight_features": "", "sight_content": ""}}, {"title": "大教堂", "address": "玉林市北流市", "image": "", "rank": 31, "time": 1.5, "location": {"lat": 22.713958021611358, "lng": 110.36057016580777}, "feature": {"sight_features": "", "sight_content": ""}}, {"title": "佛堂", "address": "玉林市北流市勾漏山主峰下勾漏洞内", "image": "", "rank": 32, "time": 2, "location": {"lat": 22.745514848356557, "lng": 110.3992824495101}, "feature": {"sight_features": "", "sight_content": ""}}, {"title": "珍稀植物园（建设中）", "address": "玉林市北流市民乐镇大容山国家森林公园内", "image": "", "rank": 33, "time": 2, "location": {"lat": 22.894802710885934, "lng": 110.37223564020738}, "feature": {"sight_features": "", "sight_content": ""}}, {"title": "观世音菩萨", "address": "玉林市北流市民乐镇大容山国家森林公园九瀑谷景区观音园内", "image": "", "rank": 34, "time": 2, "location": {"lat": 22.894802710885934, "lng": 110.37223564020738}, "feature": {"sight_features": "", "sight_content": ""}}, {"title": "福音堂", "address": "大兴路与永安路交叉口西北50米", "image": "", "rank": 35, "time": 1.0, "location": {"lat": 22.71089882645323, "lng": 110.36103816950374}, "feature": {"sight_features": "", "sight_content": ""}}, {"title": "新圩沙塘公园", "address": "广西壮族自治区玉林市北流市新圩镇沙塘小学东300米", "image": "", "rank": 36, "time": 2, "location": {"lat": 22.756216741741127, "lng": 110.2610153678668}, "feature": {"sight_features": "", "sight_content": ""}}, {"title": "水世界动漫大乐园(梦幻园店)", "address": "北流会仙河公园内(梦幻园)", "image": "", "rank": 37, "time": 2, "location": {"lat": 22.713958021611358, "lng": 110.36057016580777}, "feature": {"sight_features": "", "sight_content": ""}}, {"title": "蓝宝宝儿童乐园", "address": "城南街道二环西路1215号中国烟草零售店旁", "image": "", "rank": 38, "time": 2, "location": {"lat": 34.26570060244656, "lng": 117.16048839993368}, "feature": {"sight_features": "", "sight_content": ""}}, {"title": "尚德水上乐园", "address": "六地坡二渡组村旁", "image": "", "rank": 39, "time": 2, "location": {"lat": 22.37822118083472, "lng": 111.86952396141855}, "feature": {"sight_features": "", "sight_content": ""}}, {"title": "蓝宝童儿童乐园", "address": "二环西路永丰广场奥吉超市二楼", "image": "", "rank": 40, "time": 2, "location": {"lat": 22.698053335401603, "lng": 110.35503330978183}, "feature": {"sight_features": "", "sight_content": ""}}, {"title": "鳄鱼漆", "address": "城西路附近", "image": "", "rank": 41, "time": 2, "location": {"lat": 40.608984047530576, "lng": 118.49019356090358}, "feature": {"sight_features": "", "sight_content": ""}}, {"title": "奔腾美食村", "address": "s103附近明珠家具城对面", "image": "", "rank": 42, "time": 2, "location": {"lat": 40.46804563016537, "lng": 115.9906061746533}, "feature": {"sight_features": "", "sight_content": ""}}, {"title": "三白画廊", "address": "南园一路43号", "image": "", "rank": 43, "time": 2, "location": {"lat": 22.700986464986315, "lng": 114.13876902932242}, "feature": {"sight_features": "", "sight_content": ""}}, {"title": "民间艺术小戏台", "address": "永安路与陵宁路商业街交叉口西50米", "image": "", "rank": 44, "time": 2, "location": {"lat": 22.713386714937585, "lng": 110.36053035829741}, "feature": {"sight_features": "", "sight_content": ""}}, {"title": "百香采摘园", "address": "324国道南侧", "image": "", "rank": 45, "time": 2, "location": {"lat": 23.154734358898722, "lng": 114.20469410313481}, "feature": {"sight_features": "", "sight_content": ""}}, {"title": "广西壮族自治区北流市歌舞团", "address": "城东一路0070", "image": "", "rank": 46, "time": 2, "location": {"lat": 22.71560091831614, "lng": 110.36164756109709}, "feature": {"sight_features": "", "sight_content": ""}}, {"title": "长白山人参玛卡酒", "address": "玉林市-北流市-一环西路224号", "image": "", "rank": 47, "time": 4.5, "location": {"lat": 22.700871105564595, "lng": 110.35656587916782}, "feature": {"sight_features": "", "sight_content": ""}}]}