{"cityName": "北票", "days": 2, "cityImage": "", "spots": [{"title": "大黑山温泉度假村", "address": "朝阳市北票市西仓村", "image": "", "rank": 1, "time": 2, "location": {"lat": 42.01137894530034, "lng": 120.5226046721585}, "feature": {"sight_features": "", "sight_content": "大黑山温泉度假村坐落于大黑山国家级森林公园南麓，与森林公园约0.5公里。温泉度假村总建筑面积8800平方米，是集客房、餐饮、游泳、御汤泉、休闲商务会议、罗非鱼养殖为一体的综合性、休闲会所。"}}, {"title": "如意山庄", "address": "朝阳市北票市马友营乡泉巨永泉涌山", "image": "", "rank": 2, "time": 2, "location": {"lat": 41.93142775235932, "lng": 121.05616536412073}, "feature": {"sight_features": "特色1 山好、水好、空气好的深呼吸“氧吧”", "sight_content": "马友营乡如意山庄是山好、水好、空气好的深呼吸“氧吧”，是融自然景色、蒙族风情、体育运动、生态农业等为一体的乡村旅游胜地。\n本次活动主要通过户外帐篷、欣赏音乐、畅饮啤酒、体育运动、越野体验等丰富多彩的活动，让游客远离城市喧嚣，体验原生态，领略农家风情。"}}, {"title": "世纪广场", "address": "妇幼保健所附近", "image": "", "rank": 3, "time": 2.5, "location": {"lat": 39.95879382816439, "lng": 116.38654340645158}, "feature": {"sight_features": "", "sight_content": ""}}, {"title": "金塔集团辣椒基地", "address": "101国道附近", "image": "", "rank": 4, "time": 2, "location": {"lat": 42.37729533175982, "lng": 122.53808546078889}, "feature": {"sight_features": "", "sight_content": ""}}, {"title": "中国四合屯古生物化石馆", "address": "辽宁省北票市宝锦线", "image": "", "rank": 5, "time": 2, "location": {"lat": 41.68462364501231, "lng": 120.76928341296306}, "feature": {"sight_features": "", "sight_content": ""}}, {"title": "北票大峰民间艺术博物馆", "address": "中华路18-6号附近", "image": "", "rank": 6, "time": 2, "location": {"lat": 42.39398412608611, "lng": 122.54367999162362}, "feature": {"sight_features": "", "sight_content": ""}}, {"title": "海乐园儿童主题乐园", "address": "辽宁省朝阳市北票市百丽购物广场3层", "image": "", "rank": 7, "time": 2, "location": {"lat": 41.81207747126181, "lng": 120.77646413214187}, "feature": {"sight_features": "", "sight_content": ""}}, {"title": "燕湖公园", "address": "辽宁省朝阳市北票市独岗寺大桥燕湖广场北250米", "image": "", "rank": 8, "time": 2, "location": {"lat": 41.76705160681236, "lng": 120.91912133526493}, "feature": {"sight_features": "", "sight_content": ""}}, {"title": "辽宁朝阳鸟化石国家地质公园四合...", "address": "辽宁省朝阳市北票市鸟化石国家地质公园四合屯景区", "image": "", "rank": 9, "time": 2, "location": {"lat": 41.59435351423184, "lng": 120.80177905424388}, "feature": {"sight_features": "", "sight_content": ""}}, {"title": "石文化博物馆", "address": "银河小区D22-13号", "image": "", "rank": 10, "time": 2, "location": {"lat": 39.037528236336236, "lng": 117.70697816505006}, "feature": {"sight_features": "", "sight_content": ""}}, {"title": "北票书画院", "address": "中华路45号", "image": "", "rank": 11, "time": 1.0, "location": {"lat": 37.068882181602596, "lng": 115.02976773707404}, "feature": {"sight_features": "", "sight_content": ""}}, {"title": "博物馆", "address": "黄河路", "image": "", "rank": 12, "time": 2, "location": {"lat": 31.810521873018473, "lng": 120.50645664966702}, "feature": {"sight_features": "", "sight_content": ""}}, {"title": "圣翔铸造", "address": "台吉镇宋杖子村东胜汽贸东100米", "image": "", "rank": 13, "time": 2, "location": {"lat": 31.092594623784276, "lng": 109.89172237878527}, "feature": {"sight_features": "", "sight_content": ""}}, {"title": "北票市龙腾飞度假有限公司", "address": "上园镇白石水库风景区内", "image": "", "rank": 14, "time": 2, "location": {"lat": 41.67619905888019, "lng": 121.00764603661068}, "feature": {"sight_features": "", "sight_content": ""}}, {"title": "土城子二刚垂钓园", "address": "305国道东50米", "image": "", "rank": 15, "time": 2, "location": {"lat": 42.63620018540488, "lng": 119.5998542597446}, "feature": {"sight_features": "", "sight_content": ""}}, {"title": "北票市评剧团", "address": "南山街二段人民会堂", "image": "", "rank": 16, "time": 2, "location": {"lat": 41.811959213737, "lng": 120.77797461039926}, "feature": {"sight_features": "", "sight_content": ""}}, {"title": "迷城真人密室逃脱北票店", "address": "青年路与花园街交叉口南", "image": "", "rank": 17, "time": null, "location": {"lat": 41.80532869413012, "lng": 120.78104659426023}, "feature": {"sight_features": "", "sight_content": ""}}, {"title": "桃花山风景区", "address": "辽宁省北票市桃花吐镇", "image": "", "rank": 18, "time": 2, "location": {"lat": 41.69817685146859, "lng": 120.57486552116846}, "feature": {"sight_features": "", "sight_content": ""}}, {"title": "大黑山自然保护区", "address": "内蒙古自治区敖汉旗贝子府镇", "image": "", "rank": 19, "time": 2, "location": {"lat": 42.1585432561998, "lng": 120.40316768372213}, "feature": {"sight_features": "", "sight_content": ""}}]}