{"cityName": "北镇", "days": 2, "cityImage": "", "spots": [{"title": "医巫闾山", "address": "锦州市北镇市巫闾山", "image": "", "rank": 1, "time": 3.5, "location": {"lat": 41.59442809680251, "lng": 121.78344729847997}, "feature": {"sight_features": "特色1 自古与“五岳”齐名，摩崖石刻、古刹亭阁极多。 特色2 奇峰怪石、苍松翠柏遍布山巅，是登山赏景的好去处。 特色3 有名的祈福胜境，山下的北镇庙曾是帝王祭山之地。", "sight_content": "闾山，大自然的神奇造化，姿态万千，象一幅恢弘博大的泼墨画卷，给人以美的享受和无尽的遐想。目不暇接的奇峰怪石；千资百态的苍松翠柏；水丝如帘的石棚飞瀑，真可谓人间仙境，壮美瑰丽。医巫闾山，古称于微闾、无虑山，按：《周礼·职方》称：“东北曰幽州，其山镇曰医无闾。”得名甚早，已不可考。与古华夏民族的“医、巫文化崇拜有关”，今称闾山，地处今辽宁省境内，为国家级自然保护区。医巫闾山历史悠久，由华夏几千年的文明积淀而成。相传舜时把全国分为十二州，每州各封一座山作为一州之镇，闾山被封为北方幽州的镇山。周时封闾山为五岳五镇之一。医巫闾山山脉南部有青岩寺，上院供奉观音亦称歪脖老母，是当地人祈福的首选之地。"}}, {"title": "青岩寺", "address": "锦州市北镇市常兴店镇", "image": "", "rank": 2, "time": 3.5, "location": {"lat": 41.45721122881416, "lng": 121.73425739848301}, "feature": {"sight_features": "特色1 建筑位置险要，结构布局奇特。 特色2 青岩寺是融宗教与旅游为一体的著名风景区。", "sight_content": "景区位于辽宁省北镇市常兴店镇，辽西医巫闾山南端，占地13平方公里。北镇青岩寺始建于北魏，盛于中唐，至今有一千五百余年历史，终日不断。自然风光与人文景观交相辉映，“八景十二奇”观蔚为壮丽。青岩寺建筑整体分为下院、中院、上院、文殊院、圣水院等禅院。上院筑于悬崖绝壁之间，大有凌空悬挂、虚无飘渺之感。中院坐落在山腰万树丛中，讲经说法客不断，晨钟暮鼓伴蝉鸣。下院建于群峰环抱之中，有“千山抱一寺，一寺镇千山”之说。文殊院嵌在青岩之中，尘心世俗随风去，清云淡雾绕香烟。"}}, {"title": "崇兴寺双塔", "address": "锦州市北镇市塔前村东侧", "image": "", "rank": 3, "time": 1.0, "location": {"lat": 41.612815396784015, "lng": 121.80369778701514}, "feature": {"sight_features": "", "sight_content": ""}}, {"title": "北镇庙", "address": "锦州市北镇市城西二公里的山岗上", "image": "", "rank": 4, "time": 1.5, "location": {"lat": 41.59442809680251, "lng": 121.78344729847997}, "feature": {"sight_features": "", "sight_content": ""}}, {"title": "闾山国家森林公园", "address": "锦州市医巫闾山国家级森林公园", "image": "", "rank": 5, "time": 12.0, "location": {"lat": 41.49175012258805, "lng": 121.61123795419827}, "feature": {"sight_features": "", "sight_content": ""}}, {"title": "大朝阳温泉", "address": "锦州北镇市闾山森林公园山脚下", "image": "", "rank": 6, "time": null, "location": {"lat": 41.609270873079424, "lng": 121.71848417959269}, "feature": {"sight_features": "特色1 住、餐、娱、购配套于一体", "sight_content": "大朝阳温泉又称龙阳泉，位于北镇市区西6.5公里处，大朝阳温泉融合温泉自然、闲适、动感、健康等特质，星罗棋布于景区中的温泉池有动感池区、儿童池区、养生池区、异国风情池区、生态池区、观景区及情侣池区等几十种种风格各异、大小不一的功能温泉池。\n温泉池区内设有大型泊浪池、温泉滑道、环状漂流河、八色汤、祖根汤、玉女汤、沐芳园、日式温泉汤屋、温泉食坊、休息平台等。在泡浴的同时游客还可在休息厅、按摩中心接受专业的擦修按摩、中医理疗及纯正的南洋SPA。"}}, {"title": "双峰山", "address": "锦州市北镇市罗罗堡镇小三块石村景区大门口", "image": "", "rank": 7, "time": 2.0, "location": {"lat": 41.567969018033985, "lng": 121.68951857713546}, "feature": {"sight_features": "特色1 历史文化悠久，宗教民俗浓郁", "sight_content": "双峰山风景区位于闾山中南麓，有悠久的历史文化传统和浓郁的宗教民俗风貌。景区内的“三圣峰”天然化成佛，道，儒三家圣主像，与门前的“三圣松”，寺内的“三圣像”呼应成势。\n同时天然形成的双峰、双泉与人工建成的双殿、双亭、双碑、双塔相联成趣，形成独特的旅游风景线。"}}, {"title": "北镇全歼真人CS", "address": "锦州市北镇望城山基地", "image": "", "rank": 8, "time": 2, "location": {"lat": 41.59442809680251, "lng": 121.78344729847997}, "feature": {"sight_features": "", "sight_content": ""}}, {"title": "歪脖老母", "address": "锦州市北镇市常兴镇青岩寺风景区内", "image": "", "rank": 9, "time": 2, "location": {"lat": 41.48504632989717, "lng": 121.61935266137853}, "feature": {"sight_features": "", "sight_content": ""}}, {"title": "北镇鼓楼", "address": "辽宁省锦州市北镇市城内中心地带的钟楼前", "image": "", "rank": 10, "time": 1.5, "location": {"lat": 41.59442809680251, "lng": 121.78344729847997}, "feature": {"sight_features": "", "sight_content": ""}}, {"title": "秀水公园", "address": "锦州市北镇市沟帮子镇", "image": "", "rank": 11, "time": 7.5, "location": {"lat": 41.37564218239686, "lng": 121.7641262552153}, "feature": {"sight_features": "", "sight_content": ""}}, {"title": "宝贝家儿童游乐园", "address": "锦州市北镇市g102福第中百商厦2层", "image": "", "rank": 12, "time": 2.0, "location": {"lat": 41.60234228076769, "lng": 121.80184459532433}, "feature": {"sight_features": "", "sight_content": ""}}, {"title": "北镇双塔", "address": "北镇市205省道", "image": "", "rank": 13, "time": 1.5, "location": {"lat": 41.62912479593959, "lng": 121.84198160415454}, "feature": {"sight_features": "", "sight_content": ""}}, {"title": "北镇市创业孵化基地", "address": "同富电脑培训学校附近", "image": "", "rank": 14, "time": 3.5, "location": {"lat": 39.626414085692446, "lng": 118.14262602586656}, "feature": {"sight_features": "", "sight_content": ""}}, {"title": "辽宁省北镇市胜财甜瓜专业合作社", "address": "闾阳镇闾四村胜财", "image": "", "rank": 15, "time": 2, "location": {"lat": 41.385498767928475, "lng": 121.66364754014307}, "feature": {"sight_features": "", "sight_content": ""}}, {"title": "禅玄斋", "address": "辽宁省锦州市北镇市北大街", "image": "", "rank": 16, "time": 2, "location": {"lat": 41.380728447840056, "lng": 121.78476195332264}, "feature": {"sight_features": "", "sight_content": ""}}, {"title": "永安寺", "address": "锦州市北镇市大祖村416号", "image": "", "rank": 17, "time": 2, "location": {"lat": 41.44858393798253, "lng": 121.77749854332502}, "feature": {"sight_features": "", "sight_content": ""}}, {"title": "高山子儿童乐园", "address": "辽宁省锦州市北镇市S210", "image": "", "rank": 18, "time": 2, "location": {"lat": 41.59442809680251, "lng": 121.78344729847997}, "feature": {"sight_features": "", "sight_content": ""}}, {"title": "财神殿", "address": "锦州市北镇市常兴店镇717县道青岩寺内", "image": "", "rank": 19, "time": 2, "location": {"lat": 41.48504673297993, "lng": 121.6193520702935}, "feature": {"sight_features": "", "sight_content": ""}}, {"title": "北镇市中安镇基督教会", "address": "辽宁省锦州市北镇市中安镇基督教堂", "image": "", "rank": 20, "time": 2, "location": {"lat": 41.61237406756781, "lng": 121.98002888306151}, "feature": {"sight_features": "", "sight_content": ""}}, {"title": "基督教堂(北镇市基督教三自爱国...", "address": "102国道附近", "image": "", "rank": 21, "time": 2, "location": {"lat": 39.9583743375638, "lng": 116.91102159370762}, "feature": {"sight_features": "", "sight_content": ""}}, {"title": "北镇市广场", "address": "广宁东路附近", "image": "", "rank": 22, "time": 0.75, "location": {"lat": 41.602844622173, "lng": 121.804989113762}, "feature": {"sight_features": "", "sight_content": ""}}, {"title": "雨林垂钓园", "address": "102国道", "image": "", "rank": 23, "time": 2, "location": {"lat": 39.9583743375638, "lng": 116.91102159370762}, "feature": {"sight_features": "", "sight_content": ""}}, {"title": "夫宇温泉会馆", "address": "沟帮子开发区立交桥东", "image": "", "rank": 24, "time": 2, "location": {"lat": 41.37310234632291, "lng": 121.78578693518072}, "feature": {"sight_features": "", "sight_content": ""}}, {"title": "留艺画廊", "address": "育才路48-1号附近", "image": "", "rank": 25, "time": 2, "location": {"lat": 31.60456319839092, "lng": 120.23026480985789}, "feature": {"sight_features": "", "sight_content": ""}}, {"title": "果缤纷葡萄苹果采摘园", "address": "光明村百鸟园南500米", "image": "", "rank": 26, "time": 2, "location": {"lat": 22.93564703110879, "lng": 113.76270522334401}, "feature": {"sight_features": "", "sight_content": ""}}, {"title": "玉泉寺", "address": "辽宁省北镇市境内", "image": "", "rank": 27, "time": 2.5, "location": {"lat": 41.59442809680251, "lng": 121.78344729847997}, "feature": {"sight_features": "", "sight_content": ""}}, {"title": "锦州北镇崇兴寺", "address": "辽宁省北镇市北镇县", "image": "", "rank": 28, "time": 4.5, "location": {"lat": 41.59442809680251, "lng": 121.78344729847997}, "feature": {"sight_features": "", "sight_content": ""}}, {"title": "北镇中街步行街", "address": "辽宁省北镇市中街步行街", "image": "", "rank": 29, "time": 2, "location": {"lat": 41.60852586287653, "lng": 121.80331557059691}, "feature": {"sight_features": "", "sight_content": ""}}, {"title": "紫金湾服饰街", "address": "辽宁省北镇市紫金湾服饰街", "image": "", "rank": 30, "time": null, "location": {"lat": 41.6010415690741, "lng": 121.80202201066254}, "feature": {"sight_features": "", "sight_content": ""}}, {"title": "烧烤娱乐一条街", "address": "辽宁省北镇市团结街3号", "image": "", "rank": 31, "time": 2, "location": {"lat": 41.60329434364809, "lng": 121.80860395532063}, "feature": {"sight_features": "", "sight_content": ""}}, {"title": "北镇市龙岗嬉水乐园嬉冰乐园", "address": "锦州市-北镇市-707县道与732乡道交叉口北200米北镇市畜产品安全监察所附近", "image": "", "rank": 32, "time": 3.5, "location": {"lat": 41.61109378884091, "lng": 121.80310877527867}, "feature": {"sight_features": "", "sight_content": ""}}, {"title": "上肖一村", "address": "锦州市-北镇市", "image": "", "rank": 33, "time": 2, "location": {"lat": 41.59442809680251, "lng": 121.78344729847997}, "feature": {"sight_features": "", "sight_content": ""}}, {"title": "冯家园子", "address": "锦州市-北镇市", "image": "", "rank": 34, "time": 2, "location": {"lat": 41.59442809680251, "lng": 121.78344729847997}, "feature": {"sight_features": "", "sight_content": ""}}, {"title": "大芦花景区", "address": "辽宁省锦州市北镇市 ‎", "image": "", "rank": 35, "time": 2, "location": {"lat": 41.59442809680251, "lng": 121.78344729847997}, "feature": {"sight_features": "", "sight_content": ""}}, {"title": "北镇李成梁石坊", "address": "辽宁省锦州市北镇北宁城内钟楼前", "image": "", "rank": 36, "time": 2, "location": {"lat": 41.59442809680251, "lng": 121.78344729847997}, "feature": {"sight_features": "", "sight_content": ""}}]}