{"cityName": "本溪县", "days": 2, "cityImage": "", "spots": [{"title": "关山湖", "address": "本溪市本溪县小市镇陈英村", "image": "", "rank": 1, "time": 1.0, "location": {"lat": 41.1714042506397, "lng": 124.16466762396985}, "feature": {"sight_features": "", "sight_content": "关山湖景区距本溪水洞二十五公里，是自然景观与现代建筑于一体的综合性风景区。景区内山峦俊秀，沟幽谷神，清流潺潺，花母葱茏\n自古就有东北黄山，东北桂林之美誉。景区植被完好，水质清澈，风景秀丽，是一处集旅游、观光、避暑、度假休闲于一体的好去处。"}}, {"title": "湖里风景区", "address": "本溪市本溪满族自治县东营坊乡湖里村", "image": "", "rank": 2, "time": 2, "location": {"lat": 41.18333778144507, "lng": 124.55133786336444}, "feature": {"sight_features": "", "sight_content": ""}}, {"title": "东北抗联史实陈列馆", "address": "本溪市本溪满族自治县小市镇滨河东岸", "image": "", "rank": 3, "time": 1.0, "location": {"lat": 41.31160603519522, "lng": 124.12681176406693}, "feature": {"sight_features": "", "sight_content": ""}}, {"title": "枫香谷温泉", "address": "本溪满族自治县小市镇陈英村", "image": "", "rank": 4, "time": 2, "location": {"lat": 41.1714042506397, "lng": 124.16466762396985}, "feature": {"sight_features": "特色1 是一家集商旅会议、温泉度假、特色餐饮、婚庆服务为一体的温泉度假酒店。 特色2 酒店总建筑面积30000多平方米，回归自然、真山、真水、真温泉。 特色3 枫香谷温泉区营业面积8000余平，依山枕河，设有室内外温泉泡池40余个，巧妙镶于山水之间。", "sight_content": "地处黔北黄金旅游线上的枫香温泉，沉睡在茫茫群山之中，清代以来，枫香镇是川盐入黔的必经之路，人夫马队川流不息，它曾经的辉煌在悠悠的历史长河中写下厚重的一笔。随着川盐的落潮枫香镇也不再拥有当时的繁华，但温泉的开发利用又树起枫香人创业的雄心，昔日冷落的小镇重新有了光彩，无烟产业、朝阳产业的资源优势带动了枫香镇的地方经济，第三产业的兴起明显改变了居民的生活质量。"}}, {"title": "大地森林公园", "address": "本溪市本溪满族自治县东营坊乡境内", "image": "", "rank": 5, "time": 1.5, "location": {"lat": 41.15704227353044, "lng": 124.6755370783263}, "feature": {"sight_features": "", "sight_content": ""}}, {"title": "观音阁水库", "address": "本溪市本溪满族自治县小市镇", "image": "", "rank": 6, "time": 1.0, "location": {"lat": 41.31160603519522, "lng": 124.12681176406693}, "feature": {"sight_features": "", "sight_content": ""}}, {"title": "枫述温泉", "address": "本溪市本溪满族自治县汤沟风景区", "image": "", "rank": 7, "time": 2, "location": {"lat": 41.086343812494675, "lng": 124.21108991206349}, "feature": {"sight_features": "特色1 地热资源丰富，含有多种矿物质", "sight_content": "枫述温泉酒店位于辽宁省本溪市满族自治县汤沟风景区，毗邻国家AAAA级风景区关门山，距本溪市区86公里。是一家集餐饮、住宿、会务及康体休闲于一体的现代化高星级温泉酒店，是政务接待、商务洽谈及休闲度假旅游的\n理想选择。汤沟素来以优质温泉闻名遐迩，是辽东著名的旅游和避暑胜地。汤沟地热资源丰富，水质好，含有多种矿物质。 2016年，酒店经重新装修后，占地面积扩大为25000平方米,包括温泉、餐饮、客房、SPA、养生保健、\n戏水游乐、度假等功能。\n作为汤沟温泉水的源头，枫述温泉酒店坐享得天独厚的水资源，出地表水温在60至70℃之间，最高水温达76℃，居辽宁首位，深受游人喜爱。枫述温泉酒店独具特色的纯天然温泉洗浴及温泉游泳与和尚帽子自然保护区、绿石谷森林\n公园以及抗联第一次西征会议遗址、杨靖宇纪念馆、靖宇石等自然景观和历史遗迹相结合，让游客在体验纯质温泉的同时，再温红色记忆。"}}, {"title": "西征会议遗址纪念碑", "address": "本溪市本溪满族自治县草河掌镇汤池沟旅游风景区", "image": "", "rank": 8, "time": 1.0, "location": {"lat": 41.08614144242168, "lng": 124.21366210568786}, "feature": {"sight_features": "", "sight_content": ""}}, {"title": "龙道沟", "address": "本溪市本溪满族自治县滴田线", "image": "", "rank": 9, "time": 2, "location": {"lat": 41.24189589766474, "lng": 124.38952787948008}, "feature": {"sight_features": "特色1 原生态的景观，绿树成荫，花草飘香", "sight_content": "龙道沟内有最原生态的景观，绿树成荫、花草飘香，传说中的八仙桌，碧绿的大型水库，走在吊桥栈道上，感受自然清新。\n沟里有两道瀑布第一道是屹立在山里的一条优美瀑布，从20多米高的山石上飞流而下，水冰凉彻骨，溅起的水花让周围的暑气去了三分。第二道是深处龙道一条蜿蜒120余米的长瀑布，山水在巨石中奔流、跌宕，激起的水汽被暑气蒸发形成了一片朦胧的梦幻美。"}}, {"title": "汤沟玉龙温泉", "address": "本溪市本溪满族自治县草河掌镇汤沟街", "image": "", "rank": 10, "time": 2, "location": {"lat": 41.08442269462537, "lng": 124.20085923637312}, "feature": {"sight_features": "特色1 富含氟、偏硅酸、锂等矿物质", "sight_content": "玉龙温泉宾馆是一家集住宿、餐饮、洗浴、会议、培训、康复疗养为一体，综合性温泉旅游度假宾馆。\n玉龙泉水疗中心店内设施完善，配套娱乐多样化，隆重推出超值体验娱乐新概念，成为了玉溪市一流的桑拿洗浴名店。集男女宾水疗大池、时鲜餐饮、极速网吧、模拟高尔夫球训练馆、3D影视厅、棋牌等，是您娱乐休闲、泡澡洗浴的首选地。位于高新区东风南路52号的玉龙泉水疗中心在经过精心装修后，让人耳目一新。玉龙泉水疗中心洗浴用水采用深井2000米天然矿物质温泉，富含氟、偏硅酸、锂等矿物质，达到国家医疗矿泉水标准，具有调节中枢神经、增强动脉弹性，促进人体新陈代谢，改善人体微循环等多种功效。玉龙泉水疗融合了传统的温泉文化和时尚的休闲理念，弘扬健康、休闲与生态的平衡，把大自然的云淡风轻和温泉的悠然闲适带给每一位顾客，让顾客如同置身于芬兰的森林小屋里，外在的和内心的所有尘劳和烦恼都随着汗水流出，为热爱生活与健康的人们创造了一个繁华都市中的绿洲。"}}, {"title": "本溪满族自治县东营坊乡枫林园山...", "address": "南营坊村(鑫乐康度假村斜对面)", "image": "", "rank": 11, "time": 3.5, "location": {"lat": 41.148281178239074, "lng": 124.53680273404325}, "feature": {"sight_features": "", "sight_content": ""}}, {"title": "本溪水洞风景区-凉亭", "address": "本溪市本溪满族自治县谢家崴子村本溪水洞风景区内", "image": "", "rank": 12, "time": null, "location": {"lat": 41.30856003745122, "lng": 124.09034614512717}, "feature": {"sight_features": "", "sight_content": ""}}, {"title": "清河堡城", "address": "本溪市本溪满族自治县县城以北35公里", "image": "", "rank": 13, "time": 1.5, "location": {"lat": 41.30790288135311, "lng": 124.12758486914475}, "feature": {"sight_features": "", "sight_content": ""}}, {"title": "本溪县汤沟福兴温泉宾馆", "address": "本溪县汤沟", "image": "", "rank": 14, "time": 2, "location": {"lat": 41.08442269462537, "lng": 124.20085923637312}, "feature": {"sight_features": "", "sight_content": ""}}, {"title": "牛头山庄", "address": "湖里村滴桦线(湖里村南2公里)", "image": "", "rank": 15, "time": 2, "location": {"lat": 41.14336372343772, "lng": 124.5331735411558}, "feature": {"sight_features": "", "sight_content": ""}}, {"title": "王家大院", "address": "东营房乡", "image": "", "rank": 16, "time": 2.5, "location": {"lat": 41.22831719690071, "lng": 124.53194820123679}, "feature": {"sight_features": "", "sight_content": ""}}, {"title": "太子河漂流", "address": "谢家崴子村本溪水洞风景区内", "image": "", "rank": 17, "time": 2, "location": {"lat": 41.30856003745122, "lng": 124.09034614512717}, "feature": {"sight_features": "", "sight_content": ""}}, {"title": "本溪满族自治县图书馆", "address": "长江路369号", "image": "", "rank": 18, "time": 3.5, "location": {"lat": 41.309581807385314, "lng": 124.13240921259795}, "feature": {"sight_features": "", "sight_content": ""}}, {"title": "本溪洞穴博物馆", "address": "辽宁省本溪满族自治县谢家崴子村 117100", "image": "", "rank": 19, "time": 3.5, "location": {"lat": 41.3084292468416, "lng": 124.09646768575375}, "feature": {"sight_features": "", "sight_content": ""}}, {"title": "海盗船", "address": "育才街125号附近", "image": "", "rank": 20, "time": 2, "location": {"lat": 48.48775700141878, "lng": 124.88360632240138}, "feature": {"sight_features": "", "sight_content": ""}}, {"title": "鱼友水族馆", "address": "辽宁省本溪市本溪满族自治县长江路460号", "image": "", "rank": 21, "time": 2, "location": {"lat": 41.308780214961295, "lng": 124.13389793569249}, "feature": {"sight_features": "", "sight_content": ""}}, {"title": "玉京山生态园-凉亭", "address": "本溪市本溪满族自治县谢家崴子村本溪水洞风景区玉京山生态园内", "image": "", "rank": 22, "time": 2, "location": {"lat": 41.30856003745122, "lng": 124.09034614512717}, "feature": {"sight_features": "", "sight_content": ""}}, {"title": "小勇水族馆", "address": "辽宁省本溪市本溪满族自治县长江路191号", "image": "", "rank": 23, "time": 2, "location": {"lat": 41.301162419291984, "lng": 124.13424499602628}, "feature": {"sight_features": "", "sight_content": ""}}, {"title": "海盗船", "address": "本溪市本溪满族自治县谢家崴子村本溪水洞风景区硅化木王国内", "image": "", "rank": 24, "time": 2, "location": {"lat": 41.30856003745122, "lng": 124.09034614512717}, "feature": {"sight_features": "", "sight_content": ""}}, {"title": "财富广场", "address": "本溪市本溪满族自治县长江路396号", "image": "", "rank": 25, "time": 2, "location": {"lat": 41.30565640880124, "lng": 124.13530921676734}, "feature": {"sight_features": "", "sight_content": ""}}, {"title": "太阳岛会所", "address": "辽宁省本溪市本溪满族自治县小右线", "image": "", "rank": 26, "time": 2.0, "location": {"lat": 41.344163873699, "lng": 124.16661356300966}, "feature": {"sight_features": "", "sight_content": ""}}, {"title": "高山滑水", "address": "关门山大峡谷内", "image": "", "rank": 27, "time": 2, "location": {"lat": 43.11332182154948, "lng": 128.92024368834416}, "feature": {"sight_features": "", "sight_content": ""}}, {"title": "古生物硅化园", "address": "本溪水洞景区内", "image": "", "rank": 28, "time": 2, "location": {"lat": 41.30884666477541, "lng": 124.0916644165478}, "feature": {"sight_features": "", "sight_content": ""}}, {"title": "本溪庙后山古人类遗址", "address": "辽宁省本溪满族自治县山城子村 117100", "image": "", "rank": 29, "time": 3.5, "location": {"lat": 41.241039035550784, "lng": 124.12904159459704}, "feature": {"sight_features": "", "sight_content": ""}}, {"title": "本溪县泉水基督教堂", "address": "三九线东50米", "image": "", "rank": 30, "time": null, "location": {"lat": 41.276341956244195, "lng": 124.22086799987859}, "feature": {"sight_features": "", "sight_content": ""}}, {"title": "清雲寺(建设中)", "address": "辽宁省本溪市本溪满族自治县红榛线", "image": "", "rank": 31, "time": 2, "location": {"lat": 41.46198991407374, "lng": 124.2329211757537}, "feature": {"sight_features": "", "sight_content": ""}}, {"title": "鸟语花香水族馆", "address": "辽宁省本溪市本溪满族自治县长江路116", "image": "", "rank": 32, "time": 2, "location": {"lat": 41.29651062161503, "lng": 124.13308438530738}, "feature": {"sight_features": "", "sight_content": ""}}, {"title": "恐龙园", "address": "本溪市本溪满族自治县谢家崴子村本溪水洞风景区本溪水洞内", "image": "", "rank": 33, "time": 4.5, "location": {"lat": 41.30743092568279, "lng": 124.08755309770333}, "feature": {"sight_features": "", "sight_content": ""}}, {"title": "大石湖风景名胜区玉龙湾度假村", "address": "东营房乡南营坊村大石湖风景名胜区", "image": "", "rank": 34, "time": 2, "location": {"lat": 41.114439839808746, "lng": 124.50096954284356}, "feature": {"sight_features": "", "sight_content": ""}}, {"title": "本溪红叶山庄旅游度假村", "address": "本溪市本溪满族自治县东营坊乡洋湖沟村", "image": "", "rank": 35, "time": 3.5, "location": {"lat": 41.2125640451129, "lng": 124.67110654841545}, "feature": {"sight_features": "", "sight_content": ""}}, {"title": "红豆杉度假村", "address": "本溪市本溪满族自治县东营坊乡南营坊村大甸子组1号", "image": "", "rank": 36, "time": 2, "location": {"lat": 41.148281178239074, "lng": 124.53680273404325}, "feature": {"sight_features": "", "sight_content": ""}}, {"title": "辽宁万岁山航空运动飞行营地", "address": "本溪市本溪满族自治县碱厂堡村", "image": "", "rank": 37, "time": 2, "location": {"lat": 41.22878977997222, "lng": 124.12989642751016}, "feature": {"sight_features": "", "sight_content": ""}}, {"title": "金海之星休闲会馆", "address": "本溪市本溪满族自治县小市镇长江路", "image": "", "rank": 38, "time": 2, "location": {"lat": 41.30497167986345, "lng": 124.13493720060818}, "feature": {"sight_features": "", "sight_content": "金海之星休闲会馆由知名设计师精心设计，营业面积达15000多平方米，装修风格典雅、配套设施齐全。有洗浴、商务客房、四季恒温游泳馆、康体水疗、休息大厅、无烟睡眠厅、韩式汗蒸、茶娱室、棋牌室、蓝光影院、多媒体会议室、百味餐厅等设施项目。"}}, {"title": "关门山冰雪嘉年华", "address": "本溪市本溪县满族自治县小市镇关门山森林公园", "image": "", "rank": 39, "time": 2, "location": {"lat": 41.13394962767606, "lng": 124.15066169540763}, "feature": {"sight_features": "", "sight_content": ""}}, {"title": "响水沟生态园", "address": "本桓公路", "image": "", "rank": 40, "time": 2, "location": {"lat": 41.30699810167558, "lng": 123.89985193591875}, "feature": {"sight_features": "", "sight_content": ""}}, {"title": "嘉乐园(东南门店)", "address": "中兴街129号", "image": "", "rank": 41, "time": 2, "location": {"lat": 41.30945652998919, "lng": 124.13109764792625}, "feature": {"sight_features": "", "sight_content": ""}}, {"title": "本溪满族自治县档案馆", "address": "园林巷", "image": "", "rank": 42, "time": 3.5, "location": {"lat": 41.308158504823304, "lng": 124.12671980722679}, "feature": {"sight_features": "", "sight_content": ""}}, {"title": "贺新乐园羊汤馆", "address": "过境路118号(海航国际就酒店)", "image": "", "rank": 43, "time": 2, "location": {"lat": 39.62890012891724, "lng": 121.97613447687733}, "feature": {"sight_features": "", "sight_content": ""}}, {"title": "中国地质博物馆本溪馆", "address": "小市镇本溪水洞", "image": "", "rank": 44, "time": 2, "location": {"lat": 41.30743092568279, "lng": 124.08755309770333}, "feature": {"sight_features": "", "sight_content": ""}}, {"title": "天娇花卉园", "address": "建设东路田师傅镇北侧", "image": "", "rank": 45, "time": 2, "location": {"lat": 41.26784480271549, "lng": 124.36611920748382}, "feature": {"sight_features": "", "sight_content": ""}}, {"title": "汇美新天地儿童乐园", "address": "汇美新天地二楼", "image": "", "rank": 46, "time": 2, "location": {"lat": 28.682483161981295, "lng": 121.4352843277895}, "feature": {"sight_features": "", "sight_content": ""}}, {"title": "万佳钙果种苗繁育基地", "address": "碱厂镇政府东100米", "image": "", "rank": 47, "time": 2, "location": {"lat": 41.2586268291989, "lng": 124.48571151204456}, "feature": {"sight_features": "", "sight_content": ""}}, {"title": "园林苗木基地", "address": "碱厂镇政府南90米", "image": "", "rank": 48, "time": 2, "location": {"lat": 41.2580167223753, "lng": 124.48481320653458}, "feature": {"sight_features": "", "sight_content": ""}}, {"title": "逸园葡萄园", "address": "本溪水洞对面", "image": "", "rank": 49, "time": 2, "location": {"lat": 41.30743092568279, "lng": 124.08755309770333}, "feature": {"sight_features": "", "sight_content": ""}}, {"title": "高家温泉", "address": "温泉寺", "image": "", "rank": 50, "time": 2, "location": {"lat": 32.04201036856059, "lng": 110.79814428745276}, "feature": {"sight_features": "", "sight_content": ""}}, {"title": "佳美装饰艺术空间", "address": "园林巷27栋附近", "image": "", "rank": 51, "time": 2, "location": {"lat": 41.308158504823304, "lng": 124.12671980722679}, "feature": {"sight_features": "", "sight_content": ""}}, {"title": "聚宝阁文玩艺术馆", "address": "春光路与闵家巷交叉口西北50米", "image": "", "rank": 52, "time": 2, "location": {"lat": 41.30172220446831, "lng": 124.13724557358226}, "feature": {"sight_features": "", "sight_content": ""}}, {"title": "本溪汤沟", "address": "辽宁省本溪满族自治县草河掌乡胡家堡村", "image": "", "rank": 53, "time": 3.5, "location": {"lat": 41.08911445180289, "lng": 124.20883267333396}, "feature": {"sight_features": "", "sight_content": ""}}, {"title": "燕东新天地", "address": "辽宁省本溪满族自治县小市镇春光路236号", "image": "", "rank": 54, "time": 2, "location": {"lat": 41.30786921567423, "lng": 124.1366326920718}, "feature": {"sight_features": "", "sight_content": ""}}, {"title": "竞秀峰景区", "address": "本溪市-本溪满族自治县-小市镇关门山国家森林公园关山湖景区内", "image": "", "rank": 55, "time": 2, "location": {"lat": 41.121174975481004, "lng": 124.19576742425093}, "feature": {"sight_features": "", "sight_content": ""}}, {"title": "滴台头子", "address": "本溪市-本溪满族自治县-二零二省道", "image": "", "rank": 56, "time": 2, "location": {"lat": 41.30790288135311, "lng": 124.12758486914475}, "feature": {"sight_features": "", "sight_content": ""}}, {"title": "韦德全民健身活动中心", "address": "本溪市-本溪满族自治县-华龙购物中心西80米", "image": "", "rank": 57, "time": 2, "location": {"lat": 41.30584506719511, "lng": 124.13475485626763}, "feature": {"sight_features": "", "sight_content": ""}}, {"title": "关山草堂", "address": "本溪市-本溪满族自治县-小草线5公里处", "image": "", "rank": 58, "time": 2, "location": {"lat": 40.97354656407154, "lng": 124.07280865511356}, "feature": {"sight_features": "", "sight_content": ""}}, {"title": "本溪县市政管理处苗木基地", "address": "本溪市-本溪满族自治县-508县道西50米", "image": "", "rank": 59, "time": 3.5, "location": {"lat": 41.30790288135311, "lng": 124.12758486914475}, "feature": {"sight_features": "", "sight_content": ""}}, {"title": "本溪满族自治县市政管理处苗木基...", "address": "本溪市-本溪满族自治县-库区路51号附近", "image": "", "rank": 60, "time": 3.5, "location": {"lat": 41.31744468289332, "lng": 124.14703267103411}, "feature": {"sight_features": "", "sight_content": ""}}]}