{"cityName": "宾川", "days": 2, "cityImage": "", "spots": [{"title": "鸡足山", "address": "大理州宾川县鸡足山", "image": "", "rank": 1, "time": 3.5, "location": {"lat": 25.963352503147487, "lng": 100.39319148070906}, "feature": {"sight_features": "特色1 佛教明山，可以参拜古老寺院，欣赏秀丽山色。 特色2 登金顶赏日出 特色3 鸡足奇秀甲天下", "sight_content": "鸡足山位于云南省宾川县西北隅，距大理市100公里，距昆明400公里，是我国的佛教名山，与四大佛教名山峨眉、五台、九华、普陀齐名。鸡足山西与大理、洱源毗邻，北与鹤庆相连，东西长7公里，南北宽6公里，总面积2822公顷，因山势前列三峰，后拖一岭，宛如鸡足而得名。\n鸡足山前临苍山洱海，后靠金沙江，全山共有四十座奇岭，十三座险峰，三十四座崖壁，四十五个幽洞，泉潭百余处。岗岭壑涧林谷峡，构成鸡足山雄、秀、幽、奇的自然景观。明代地理学家徐霞客曾两次登山览胜，赞叹鸡足山“奇观尽收古今胜”。鸡足山主峰天柱峰，海拔为3240米，登上山顶可东看日出，南观祥云，西望苍洱，北眺玉龙雪山，徐霞客为一座峰顶而集中了日、海、云、雪“四观”而感叹不已，认为，这四观，得其中之一便可算奇绝， 天柱峰四观全备，不但可以为鸡足山之首，也可算海内之冠。除了“四观”外，鸡足山还有“天柱佛光”、“华首晴雷”、“洱海回岚”、“苍山积雪”、“万壑松涛”、“飞瀑穿云 ”、“悬岩夕照”、“塔院秋月”等八景，为历代骚人墨客所吟咏。\n鸡足山不仅风景奇秀，而且是我国著名的佛教圣地之一。相传， 这里是释迦牟尼十大弟子之一的迦叶，抱金缕袈裟、携舍利佛牙，来这里设置宣讲佛法的“道场”，并守衣入定于鸡足山华首门。鸡足山上的佛教建筑，始于唐，继于宋、元，盛于明、清，直至民国仍有增修。 清康熙时鸡足山有大小寺42座，庵院65个，静室170余所，寺僧5000余人。鸡足山寺庙中最负盛名、保存最好的寺是祝圣寺，它是清代高僧虚云和尚得到慈禧资助而建盖的，光绪皇帝赐名为“护国祝圣禅寺”。鸡足山海拔最高的寺是金顶寺，位于鸡足山主峰天柱峰顶，寺内楞严塔，是公元1929年云南省主席龙云登山游览时应僧人请求，拨巨资兴建的，龙云为楞严 塔题词：“法相庄严”。鸡足山目前修复规模最大的寺是迦叶殿，它是由四川文殊院宽霖会长发起，由大弟子宏道法师主持重建的，于1994年竣工，殿有四重，迦叶殿中供奉香檀木雕迦叶坐像，高3.3米，重1.6吨。"}}, {"title": "金顶寺", "address": "大理白族自治州宾川县城牛井镇炼洞乡鸡足山天柱峰顶", "image": "", "rank": 2, "time": 1.0, "location": {"lat": 25.83653532464588, "lng": 100.58339997300753}, "feature": {"sight_features": "", "sight_content": ""}}, {"title": "祝圣寺", "address": "大理白族自治州宾川县南岳镇东街", "image": "", "rank": 3, "time": 1.0, "location": {"lat": 25.83524902819825, "lng": 100.57845668761831}, "feature": {"sight_features": "", "sight_content": ""}}, {"title": "慧灯庵", "address": "大理白族自治州宾川县鸡足山风景区金顶寺下", "image": "", "rank": 4, "time": 1.5, "location": {"lat": 25.949749451422434, "lng": 100.40679544539854}, "feature": {"sight_features": "", "sight_content": ""}}, {"title": "灵山一会坊", "address": "大理白族自治州宾川县鸡足山南麓", "image": "", "rank": 5, "time": 0.25, "location": {"lat": 25.963352503147487, "lng": 100.39319148070906}, "feature": {"sight_features": "", "sight_content": ""}}, {"title": "迦叶殿", "address": "大理白族自治州宾川县境内鸡足山天柱峰半山腰", "image": "", "rank": 6, "time": 0.75, "location": {"lat": 25.963352503147487, "lng": 100.39319148070906}, "feature": {"sight_features": "", "sight_content": ""}}, {"title": "华首门", "address": "大理白族自治州宾川县鸡足山镇（鸡足山景区内）", "image": "", "rank": 7, "time": 2, "location": {"lat": 25.958129666620678, "lng": 100.40043745639095}, "feature": {"sight_features": "", "sight_content": ""}}, {"title": "鸡足山索道", "address": "大理白族自治州宾川县鸡足山镇（鸡足山景区内）", "image": "", "rank": 8, "time": 2, "location": {"lat": 25.958129666620678, "lng": 100.40043745639095}, "feature": {"sight_features": "", "sight_content": "鸡足山索道是游览鸡足山的重要交通工具之一。索道可以直达鸡足山天柱峰的金顶寺。游客可以惬意地俯瞰鸡足山上的自然风光。"}}, {"title": "楞严塔", "address": "大理白族自治州宾川县县城西北30余公里外的鸡足山顶", "image": "", "rank": 9, "time": 0.35, "location": {"lat": 25.963352503147487, "lng": 100.39319148070906}, "feature": {"sight_features": "", "sight_content": ""}}, {"title": "九莲寺", "address": "大理白族自治州宾川县鸡足山", "image": "", "rank": 10, "time": 1.0, "location": {"lat": 25.963352503147487, "lng": 100.39319148070906}, "feature": {"sight_features": "", "sight_content": ""}}, {"title": "关庙", "address": "大理白族自治州宾川县力角镇西南方向", "image": "", "rank": 11, "time": 25.0, "location": {"lat": 25.95934742204186, "lng": 100.57354844692362}, "feature": {"sight_features": "", "sight_content": ""}}, {"title": "天柱峰", "address": "大理白族自治州宾川县鸡足山镇鸡足山景区内", "image": "", "rank": 12, "time": 4.0, "location": {"lat": 25.958129666620678, "lng": 100.40043745639095}, "feature": {"sight_features": "", "sight_content": ""}}, {"title": "游鲨密室", "address": "金牛镇文化路1号4楼(供销街-宾川三中)", "image": "", "rank": 13, "time": 2, "location": {"lat": 25.83519098111585, "lng": 100.5845811549222}, "feature": {"sight_features": "", "sight_content": ""}}, {"title": "宾川县图书馆", "address": "全球通大道", "image": "", "rank": 14, "time": 2, "location": {"lat": 25.8238091685444, "lng": 100.586868117682}, "feature": {"sight_features": "", "sight_content": ""}}, {"title": "十二组葡萄园", "address": "金牛镇东四公路十二组葡萄园", "image": "", "rank": 15, "time": 2, "location": {"lat": 25.85113593193379, "lng": 100.6150067589419}, "feature": {"sight_features": "", "sight_content": ""}}, {"title": "零下一度休闲吧", "address": "明泉路208号零下", "image": "", "rank": 16, "time": 2, "location": {"lat": 37.472595119233524, "lng": 121.27977557092056}, "feature": {"sight_features": "", "sight_content": ""}}, {"title": "明德公园", "address": "云南省大理白族自治州宾川县金叶路", "image": "", "rank": 17, "time": 2, "location": {"lat": 25.83691381822031, "lng": 100.58845749321351}, "feature": {"sight_features": "", "sight_content": ""}}, {"title": "至善公园", "address": "云南省大理白族自治州宾川县金牛镇金川路公安局东北", "image": "", "rank": 18, "time": 2, "location": {"lat": 25.832802783585056, "lng": 100.59603705105319}, "feature": {"sight_features": "", "sight_content": ""}}, {"title": "儿童乐园", "address": "云南省大理白族自治州宾川县宏强路74-附10号", "image": "", "rank": 19, "time": 2, "location": {"lat": 25.833267245578305, "lng": 100.58486489370051}, "feature": {"sight_features": "", "sight_content": ""}}, {"title": "饮光寺", "address": "富民路203", "image": "", "rank": 20, "time": 2, "location": {"lat": 31.225227897606008, "lng": 121.45788386470653}, "feature": {"sight_features": "", "sight_content": ""}}, {"title": "放光寺", "address": "大理白族自治州宾川县", "image": "", "rank": 21, "time": 2, "location": {"lat": 25.83524902819825, "lng": 100.57845668761831}, "feature": {"sight_features": "", "sight_content": ""}}, {"title": "弘法堂", "address": "大理白族自治州宾川县鸡足山镇鸡足山景区内", "image": "", "rank": 22, "time": 2, "location": {"lat": 25.958129666620678, "lng": 100.40043745639095}, "feature": {"sight_features": "", "sight_content": ""}}, {"title": "新街水上游乐园", "address": "云南省大理白族自治州宾川县", "image": "", "rank": 23, "time": 2, "location": {"lat": 25.83524902819825, "lng": 100.57845668761831}, "feature": {"sight_features": "", "sight_content": ""}}, {"title": "碧云寺", "address": "鸡足山镇", "image": "", "rank": 24, "time": 1.0, "location": {"lat": 25.861603981391717, "lng": 100.49888918726775}, "feature": {"sight_features": "", "sight_content": ""}}, {"title": "鸡足山二庙", "address": "鸡足山镇沙址村", "image": "", "rank": 25, "time": 2, "location": {"lat": 25.94595081603224, "lng": 100.40916612843522}, "feature": {"sight_features": "", "sight_content": ""}}, {"title": "越析广场", "address": "大理白族自治州宾川县大川盛世11栋54号商铺", "image": "", "rank": 26, "time": 2, "location": {"lat": 25.825333228350047, "lng": 100.59274124359582}, "feature": {"sight_features": "", "sight_content": ""}}, {"title": "世纪广场", "address": "大理白族自治州宾川县宏强路141号", "image": "", "rank": 27, "time": 2.5, "location": {"lat": 25.837196858591444, "lng": 100.58246749236305}, "feature": {"sight_features": "", "sight_content": ""}}, {"title": "宾居镇越析广场", "address": "宾居镇政府对面", "image": "", "rank": 28, "time": 2, "location": {"lat": 25.699154587798304, "lng": 100.52671040868256}, "feature": {"sight_features": "", "sight_content": ""}}, {"title": "古底彝族文化广场", "address": "古底村", "image": "", "rank": 29, "time": 2, "location": {"lat": 26.634178234374303, "lng": 110.80605707959225}, "feature": {"sight_features": "", "sight_content": ""}}, {"title": "鑫源山庄", "address": "220省道", "image": "", "rank": 30, "time": 2, "location": {"lat": 40.38775563397051, "lng": 115.90384459998963}, "feature": {"sight_features": "", "sight_content": ""}}, {"title": "关帝庙|顺德博物馆", "address": "佛都路", "image": "", "rank": 31, "time": 2, "location": {"lat": 25.842943832776413, "lng": 100.57235261184948}, "feature": {"sight_features": "", "sight_content": ""}}, {"title": "清境农场", "address": "大营镇萂村村民委员会北侧", "image": "", "rank": 32, "time": 1.5, "location": {"lat": 25.779759905011325, "lng": 100.33827807119039}, "feature": {"sight_features": "", "sight_content": ""}}]}