{"cityName": "彬县", "days": 2, "cityImage": "", "spots": [{"title": "大佛寺石窟", "address": "咸阳市彬县城以西约10公里", "image": "", "rank": 1, "time": 1.0, "location": {"lat": 34.335476293368586, "lng": 108.71542245143303}, "feature": {"sight_features": "", "sight_content": ""}}, {"title": "开元寺塔", "address": "咸阳市彬县西大街开元广场内", "image": "", "rank": 2, "time": 0.3, "location": {"lat": 35.040536243516534, "lng": 108.08562922764587}, "feature": {"sight_features": "", "sight_content": ""}}, {"title": "侍郎湖", "address": "咸阳市彬县城南40公里处的底店镇牛北村", "image": "", "rank": 3, "time": 2, "location": {"lat": 34.916195164559504, "lng": 107.94449503593867}, "feature": {"sight_features": "", "sight_content": "侍郎湖位于彬县县城南40公里处的底店镇牛北村，是由于山体滑坡形成的天然聚湫。湖面面积370亩，平均水深13米，最深处可达18米，总库容约166万立方米，是陕西较大的天然淡水湖，有“高原明珠”之美誉。"}}, {"title": "公刘墓", "address": "咸阳市彬县龙高乡土陵村", "image": "", "rank": 4, "time": 1.0, "location": {"lat": 35.05183497490588, "lng": 108.06798630717157}, "feature": {"sight_features": "", "sight_content": ""}}, {"title": "大佛寺", "address": "陕西省咸阳市彬县312国道", "image": "", "rank": 5, "time": 1.5, "location": {"lat": 35.06089081589111, "lng": 108.07308774906502}, "feature": {"sight_features": "", "sight_content": ""}}, {"title": "虎子广场", "address": "陕西省咸阳市彬县", "image": "", "rank": 6, "time": 2, "location": {"lat": 35.05183497490588, "lng": 108.06798630717157}, "feature": {"sight_features": "", "sight_content": ""}}, {"title": "周祖文化游乐场", "address": "公刘街38号", "image": "", "rank": 7, "time": null, "location": {"lat": 35.04303902913453, "lng": 108.09460500422526}, "feature": {"sight_features": "", "sight_content": ""}}, {"title": "花果山石窟", "address": "咸阳市彬县水帘村", "image": "", "rank": 8, "time": 3.0, "location": {"lat": 35.069429042824936, "lng": 108.06032754477047}, "feature": {"sight_features": "", "sight_content": ""}}, {"title": "刘家湾公园", "address": "312国道东50米", "image": "", "rank": 9, "time": 2, "location": {"lat": 31.33241303413939, "lng": 120.99899553870222}, "feature": {"sight_features": "", "sight_content": ""}}, {"title": "乐海冲浪", "address": "城关镇东侧", "image": "", "rank": 10, "time": 2, "location": {"lat": 33.8523792245012, "lng": 113.47977737169182}, "feature": {"sight_features": "", "sight_content": ""}}, {"title": "地藏菩萨", "address": "咸阳市彬县312国道边上城西11公里处彬县大佛寺石窟内", "image": "", "rank": 11, "time": 2, "location": {"lat": 35.07923604564187, "lng": 108.00341487816863}, "feature": {"sight_features": "", "sight_content": ""}}, {"title": "档案局档案馆", "address": "西大街10号", "image": "", "rank": 12, "time": 2, "location": {"lat": 38.04650360886651, "lng": 114.52753269017776}, "feature": {"sight_features": "", "sight_content": ""}}, {"title": "乐天欢乐谷", "address": "公刘街25号", "image": "", "rank": 13, "time": 2, "location": {"lat": 35.042765069482215, "lng": 108.09391136909183}, "feature": {"sight_features": "", "sight_content": ""}}, {"title": "乐酷岛", "address": "城关镇彬县中医院斜对面", "image": "", "rank": 14, "time": 2, "location": {"lat": 35.04408362512064, "lng": 108.09141596980888}, "feature": {"sight_features": "", "sight_content": ""}}, {"title": "众勤农庄", "address": "龙高镇顷家村刘王河村。", "image": "", "rank": 15, "time": 2, "location": {"lat": 34.9423166552296, "lng": 108.27160780686927}, "feature": {"sight_features": "", "sight_content": ""}}]}