{"cityName": "宾县", "days": 2, "cityImage": "", "spots": [{"title": "二龙山旅游风景区", "address": "哈尔滨市宾县同哈公路二龙山风景区", "image": "", "rank": 1, "time": 3.0, "location": {"lat": 45.72700790908623, "lng": 127.42354109974991}, "feature": {"sight_features": "特色1 被誉为“哈尔滨东花园”，惊险刺激的游乐项目繁多，是休闲度假、观光旅游的理想之地。", "sight_content": "二龙山风景区为国家AAAA级旅游区、黑龙江省级风景名胜区、省级地质遗迹公园，是宾县旅游的终点景区，素有哈尔滨东花园之称。夏季湖边杨柳如丝，沙滩环岸，是难觅的避暑胜地。\n景区规划总面积40平方公里，是哈尔滨市周边不可多得的度假天堂。景区内一湖碧水，二龙戏珠，三面环山，四季旅游，既有二龙戏珠、长龙卧波等十大丽景，又有宝岛飞虹、湖面飞鱼等四大奇观，还有禅音传诵、万佛布道之境，有“仁山乐水，塞外西湖”之美誉。景区年均气温4度，特别是夏季较哈市城区低3-5度，堪称天然氧吧，避暑胜地。景区年接待游客近百万人次，深受游客的好评。\n二龙山物华天宝，如诗如画，在这里，游客既可以欣赏多姿多彩的自然景观，参与丰富多样的游乐项目，品味绿色环保的生态美食，感受钟鼓梵音的万佛境界，体会怡然自得的野外垂钓……还可以尽情畅游在原生态的自然环境里，远离喧嚣，释放疲劳，洗涤心灵，回归自然。还有垂钓、打靶、射箭、骑马，以及各种游船等大众参与项目。万佛寺是东北的庙宇，藏佛万尊；珍珠岛影视城集观光、娱乐、影视拍摄于一体，让人留连忘返；荷花塘更是不可多得的好去处。"}}, {"title": "香炉山", "address": "哈尔滨市宾县的南端，小兴安岭的余脉", "image": "", "rank": 2, "time": 4.5, "location": {"lat": 45.752465386741754, "lng": 127.47349701449961}, "feature": {"sight_features": "特色1 原生态森林氧吧，景色美丽宜人，是休闲旅游胜地。 特色2 自然资源保持完好，是苍天赋予我们的一块绿色瑰宝 特色3 以山岳、森林、水体和冰雪为主体", "sight_content": "香炉山坐落在宾县的南端，是张广才岭的余脉。相距哈尔滨80公里，有六座主峰，海拔达七百九十米。香炉山东西长4公里，南北宽3公里，总占地面积2.5万亩。至今保持着原始生态，是距哈尔滨最近的天然森林氧吧之一。 哈尔滨香炉山为了更好的保护和完善这苍天赋予的自然世界。公元2001年江龙集团斥巨资买断香炉山的管理权和使用权。并于2004年通过全国专家评审，在黑龙江省发改委立项。\n\n香炉山风景区是以山岳、森林、水体和冰雪等自然景观为主体，集旅游、度假、冰雪、文化娱乐等综合开发建设为一体的休闲旅游胜地。江龙人秉承在保护原始生态的前提下创造效益，用最真挚的情感去爱这座雄伟壮丽的香炉山，建造一座让世人共享的绿色银行。\n\n香炉山风景区风景区景色美丽宜人，春天，黄橙橙的金锁梅和缀满枝头的红、黄、青各色相间的杨梅，其鲜甜之态让人垂涎欲滴；夏秋之际，林中又盛产各种蘑菇。此外，涓涓的泉水声应和着百鸟的啼鸣声奏出的大自然交响曲萦绕耳际，石潭中鱼儿怡然自得的景观令人倾慕。香炉山寺院始建于蜀汉年间，随着沧桑的历史变迁，几经破坏，又多次修复，如今香火旺盛，游人如织。"}}, {"title": "松峰山自然保护区", "address": "哈尔滨市阿城市松峰山镇松峰山林场", "image": "", "rank": 3, "time": 2.0, "location": {"lat": 45.410293282411985, "lng": 127.44369918678382}, "feature": {"sight_features": "特色1 东北较早的道教胜地", "sight_content": "松峰山史称“双乳峰”、“金源乳峰”是东北较早的道教胜地。\n松峰山山险石奇、洞幽水妙，有着天降仙境之美誉。这里有良好的生态环境，优美的自然风光，浓郁的民俗风情，厚重的道教历史文化，淳朴的乡村特色。非常适合周末家人自驾车旅游或度假游。松峰山是金代皇室避暑、狩猎的园林，至今仍有曹道士碑刻、拜斗台、石刻围棋盘、金源太虚古洞等遗存。清代以来被称为东北八大名山奇观。\n松峰山海拔627米，由主峰烟筒峰和形态各异的乳头峰、狮张嘴峰、棋盘峰、石景峰等群峰组成。主峰俗称烟筒砬子 ，陡峭险峻，支峰状似双乳，自古有金源乳峰之称。"}}, {"title": "龙珠二龙山滑雪场", "address": "哈尔滨市宾县二龙山风景区", "image": "", "rank": 4, "time": 12.0, "location": {"lat": 45.74531879555182, "lng": 127.41119401537965}, "feature": {"sight_features": "", "sight_content": ""}}, {"title": "大青山风景区", "address": "哈尔滨市宾县青阳林场", "image": "", "rank": 5, "time": 7.5, "location": {"lat": 45.65321907319183, "lng": 127.90028467876868}, "feature": {"sight_features": "", "sight_content": ""}}, {"title": "英杰风景区", "address": "哈尔滨市宾县宾州镇友联村杨家屯", "image": "", "rank": 6, "time": 4.5, "location": {"lat": 45.63640289816883, "lng": 127.36912226578585}, "feature": {"sight_features": "", "sight_content": ""}}, {"title": "长寿山野外生存拓展培训中心", "address": "黑龙江省哈尔滨市宾西镇长寿山国家森林公园内", "image": "", "rank": 7, "time": 2, "location": {"lat": 45.76103257668097, "lng": 127.18624089663761}, "feature": {"sight_features": "", "sight_content": ""}}, {"title": "二龙山珍珠岛影视城", "address": "宾州镇二龙山风景区二龙山珍珠岛", "image": "", "rank": 8, "time": 2, "location": {"lat": 45.74531879555182, "lng": 127.41119401537965}, "feature": {"sight_features": "", "sight_content": ""}}, {"title": "王以哲将军纪念馆", "address": "哈尔滨市宾县迎宾路南侧以哲公园内", "image": "", "rank": 9, "time": 1.0, "location": {"lat": 45.74899704509947, "lng": 127.46991548749911}, "feature": {"sight_features": "", "sight_content": ""}}, {"title": "龙珠游乐世界", "address": "同哈公路", "image": "", "rank": 10, "time": 2, "location": {"lat": 45.777979189216204, "lng": 127.07711449804741}, "feature": {"sight_features": "", "sight_content": ""}}, {"title": "天艺美术学校", "address": "建设东路", "image": "", "rank": 11, "time": 2, "location": {"lat": 37.847283804032266, "lng": 114.48075736083227}, "feature": {"sight_features": "", "sight_content": ""}}, {"title": "宾县图书馆", "address": "西大街4号", "image": "", "rank": 12, "time": 1.5, "location": {"lat": 39.92630874768487, "lng": 116.45117301414707}, "feature": {"sight_features": "", "sight_content": ""}}, {"title": "桥头美术社", "address": "北大街", "image": "", "rank": 13, "time": 2, "location": {"lat": 39.865658405513635, "lng": 116.29212178217878}, "feature": {"sight_features": "", "sight_content": ""}}, {"title": "白石峰游乐区", "address": "同哈公路", "image": "", "rank": 14, "time": 2, "location": {"lat": 45.777979189216204, "lng": 127.07711449804741}, "feature": {"sight_features": "", "sight_content": ""}}, {"title": "彩艺美术", "address": "同哈公路", "image": "", "rank": 15, "time": null, "location": {"lat": 45.777979189216204, "lng": 127.07711449804741}, "feature": {"sight_features": "", "sight_content": ""}}, {"title": "宾县档案馆", "address": "迎宾西路", "image": "", "rank": 16, "time": 1.0, "location": {"lat": 39.95715257348666, "lng": 119.5982505885787}, "feature": {"sight_features": "", "sight_content": ""}}, {"title": "机器人哈尔滨竞技中心", "address": "宾州镇解放南路39号", "image": "", "rank": 17, "time": 2, "location": {"lat": 37.85469662692201, "lng": 112.56352905266093}, "feature": {"sight_features": "", "sight_content": ""}}, {"title": "以哲公园", "address": "二二一国道(近佳哈高速公路)", "image": "", "rank": 18, "time": 2, "location": {"lat": 46.78547435958703, "lng": 130.18676592601932}, "feature": {"sight_features": "", "sight_content": ""}}, {"title": "龙源垂钓园", "address": "宾州镇殡仪馆龙岗寝园公墓西", "image": "", "rank": 19, "time": 2, "location": {"lat": 45.72923627817222, "lng": 127.46840696844603}, "feature": {"sight_features": "", "sight_content": ""}}, {"title": "二龙山", "address": "黑龙江省宾县宾州镇 150000", "image": "", "rank": 20, "time": 1.5, "location": {"lat": 45.69706328969063, "lng": 127.4784996572237}, "feature": {"sight_features": "", "sight_content": ""}}, {"title": "英杰水上欢乐王国", "address": "英杰风景区", "image": "", "rank": 21, "time": 2, "location": {"lat": 45.662981922207905, "lng": 127.36202162156016}, "feature": {"sight_features": "", "sight_content": ""}}, {"title": "龙湖度假村", "address": "黑龙江省哈尔滨市宾县宾州镇中国龙珠国际登山俱乐部东50米", "image": "", "rank": 22, "time": 2, "location": {"lat": 45.73098347816019, "lng": 127.41504172647225}, "feature": {"sight_features": "", "sight_content": ""}}, {"title": "桃源度假村", "address": "宾州镇二龙山小马屯一道街附近", "image": "", "rank": 23, "time": 2, "location": {"lat": 45.74965950039201, "lng": 127.41645048241033}, "feature": {"sight_features": "", "sight_content": ""}}, {"title": "宾西森林公园", "address": "黑龙江省宾县宾西镇 150000", "image": "", "rank": 24, "time": 2, "location": {"lat": 45.771301887710905, "lng": 127.17227828885855}, "feature": {"sight_features": "", "sight_content": ""}}, {"title": "二龙山珍珠岛", "address": "黑龙江省宾县宾州镇 150000", "image": "", "rank": 25, "time": 2, "location": {"lat": 45.69706328969063, "lng": 127.4784996572237}, "feature": {"sight_features": "", "sight_content": ""}}, {"title": "耀辉演艺啤酒广场", "address": "兴宾大道与龙宾路交叉口南200米", "image": "", "rank": 26, "time": 2, "location": {"lat": 45.77038534301525, "lng": 127.17195546840063}, "feature": {"sight_features": "", "sight_content": ""}}, {"title": "宾光基督教堂", "address": "大千路与花园路交叉口西北150米", "image": "", "rank": 27, "time": 2, "location": {"lat": 45.76516904589421, "lng": 127.48350492569476}, "feature": {"sight_features": "", "sight_content": ""}}, {"title": "坝下公园", "address": "黑龙江省哈尔滨市宾县宾州镇二龙山风景区", "image": "", "rank": 28, "time": 2, "location": {"lat": 45.74531879555182, "lng": 127.41119401537965}, "feature": {"sight_features": "", "sight_content": ""}}, {"title": "金代曲江古城遗址", "address": "古城屯西北角", "image": "", "rank": 29, "time": 2, "location": {"lat": 42.8252347418139, "lng": 130.40204187686987}, "feature": {"sight_features": "", "sight_content": ""}}, {"title": "碧水湖度假村", "address": "哈尔滨市宾县", "image": "", "rank": 30, "time": 2, "location": {"lat": 45.752465386741754, "lng": 127.47349701449961}, "feature": {"sight_features": "", "sight_content": ""}}, {"title": "法治广场", "address": "光明路与城隍西路交叉口东北100米", "image": "", "rank": 31, "time": 2, "location": {"lat": 33.49726203703791, "lng": 112.4446393218226}, "feature": {"sight_features": "", "sight_content": ""}}, {"title": "常安金代古城遗址", "address": "黑龙江省哈尔滨市宾县", "image": "", "rank": 32, "time": 2, "location": {"lat": 45.752465386741754, "lng": 127.47349701449961}, "feature": {"sight_features": "", "sight_content": ""}}, {"title": "罗曼蒂克啤酒广场", "address": "哈尔滨近郊宾县同哈公路", "image": "", "rank": 33, "time": 7.5, "location": {"lat": 45.82134067734559, "lng": 127.9326175470913}, "feature": {"sight_features": "", "sight_content": ""}}, {"title": "龙泉山庄", "address": "哈尔滨市宾县二龙山景区", "image": "", "rank": 34, "time": 2, "location": {"lat": 45.7317352346776, "lng": 127.41322921364815}, "feature": {"sight_features": "", "sight_content": ""}}, {"title": "杏花度假村", "address": "哈尔滨市宾县桃源度假村附近", "image": "", "rank": 35, "time": 2, "location": {"lat": 45.74041566148574, "lng": 127.40837543451998}, "feature": {"sight_features": "", "sight_content": ""}}, {"title": "青莲寺", "address": "民和乡青莲寺", "image": "", "rank": 36, "time": 1.0, "location": {"lat": 46.00248056566472, "lng": 127.6226826376462}, "feature": {"sight_features": "", "sight_content": ""}}, {"title": "鸿翔山庄", "address": "哈尔滨市宾县二龙山风景区内", "image": "", "rank": 37, "time": 2, "location": {"lat": 45.72567317017374, "lng": 127.42021291825917}, "feature": {"sight_features": "", "sight_content": ""}}, {"title": "哈尔滨湖滨山庄", "address": "哈尔滨哈尔滨宾县二龙山风景区", "image": "", "rank": 38, "time": 1.5, "location": {"lat": 45.74531879555182, "lng": 127.41119401537965}, "feature": {"sight_features": "", "sight_content": ""}}, {"title": "光电美术社", "address": "兴宾大道", "image": "", "rank": 39, "time": 2, "location": {"lat": 23.735301203133396, "lng": 109.18931582685799}, "feature": {"sight_features": "", "sight_content": ""}}, {"title": "田昌美术社", "address": "北大街", "image": "", "rank": 40, "time": 2, "location": {"lat": 39.865658405513635, "lng": 116.29212178217878}, "feature": {"sight_features": "", "sight_content": ""}}, {"title": "爵派美术", "address": "同哈公路", "image": "", "rank": 41, "time": 2, "location": {"lat": 45.777979189216204, "lng": 127.07711449804741}, "feature": {"sight_features": "", "sight_content": ""}}, {"title": "马家屯农家乐", "address": "同哈公路二龙山风景区旁", "image": "", "rank": 42, "time": 2, "location": {"lat": 45.72700790908623, "lng": 127.42354109974991}, "feature": {"sight_features": "", "sight_content": ""}}, {"title": "哈尔滨永兴农业休闲采摘基地", "address": "老道（G211国道）英杰风景区出门入口一公里处(永乐小学校东500米)", "image": "", "rank": 43, "time": 1.5, "location": {"lat": 45.803445118568575, "lng": 126.97962229935439}, "feature": {"sight_features": "", "sight_content": ""}}, {"title": "欢乐qq农场", "address": "同哈公路与弘宾路交叉口东北150米", "image": "", "rank": 44, "time": 2, "location": {"lat": 42.85646580255288, "lng": 124.414086267546}, "feature": {"sight_features": "", "sight_content": ""}}, {"title": "陈大斌戏院", "address": "北环西路", "image": "", "rank": 45, "time": 2, "location": {"lat": 38.292199287057066, "lng": 114.44157753515006}, "feature": {"sight_features": "", "sight_content": ""}}, {"title": "西站房屯", "address": "哈尔滨市-宾县-满井镇西站房屯", "image": "", "rank": 46, "time": 2, "location": {"lat": 45.9172898228321, "lng": 127.2783665086207}, "feature": {"sight_features": "", "sight_content": ""}}]}