{"cityName": "宾阳", "days": 2, "cityImage": "", "spots": [{"title": "昆仑关", "address": "南宁市宾阳县昆仑镇昆仑关景区", "image": "", "rank": 1, "time": 2, "location": {"lat": 23.118812795143196, "lng": 108.66084254908874}, "feature": {"sight_features": "", "sight_content": ""}}, {"title": "白鹤观竹海", "address": "南宁市宾阳县武陵镇沙井村委白鹤山", "image": "", "rank": 2, "time": 3.5, "location": {"lat": 23.164723136248778, "lng": 108.86645375685977}, "feature": {"sight_features": "", "sight_content": ""}}, {"title": "蔡氏古宅", "address": "南宁市宾阳县古辣镇的蔡村", "image": "", "rank": 3, "time": 4.0, "location": {"lat": 23.09999283178841, "lng": 109.01862918053992}, "feature": {"sight_features": "", "sight_content": ""}}, {"title": "南街", "address": "南宁市宾阳县芦圩镇内", "image": "", "rank": 4, "time": 1.0, "location": {"lat": 23.228384955589632, "lng": 108.81974578607006}, "feature": {"sight_features": "", "sight_content": ""}}, {"title": "宾州古城", "address": "南宁市宾阳县临浦路与风景路交叉口西北50米", "image": "", "rank": 5, "time": 3.0, "location": {"lat": 23.25366710213341, "lng": 108.82723274028967}, "feature": {"sight_features": "", "sight_content": ""}}, {"title": "炮龙老庙", "address": "南宁市宾阳县宾州镇中和街", "image": "", "rank": 6, "time": 1.5, "location": {"lat": 23.22190150492431, "lng": 108.82077373233598}, "feature": {"sight_features": "", "sight_content": ""}}, {"title": "程思远故居", "address": "南宁市宾阳县大桥镇大程村", "image": "", "rank": 7, "time": 1.0, "location": {"lat": 23.21439588556007, "lng": 108.91137833968722}, "feature": {"sight_features": "", "sight_content": ""}}, {"title": "莲花圣泉水上乐园", "address": "南宁市宾阳县古辣镇富都村（泉南高速古辣出口）", "image": "", "rank": 8, "time": 2, "location": {"lat": 23.088199776248924, "lng": 109.0237740097533}, "feature": {"sight_features": "", "sight_content": ""}}, {"title": "碗窑峡谷漂流", "address": "南宁市宾阳县宾州镇碗窑村", "image": "", "rank": 9, "time": null, "location": {"lat": 23.131567497927833, "lng": 108.82249940776246}, "feature": {"sight_features": "", "sight_content": ""}}, {"title": "Here密室逃脱", "address": "财政路鸿福楼二楼22.23号商铺北部湾银行对面", "image": "", "rank": 10, "time": 2, "location": {"lat": 22.68839387058791, "lng": 109.26588384289137}, "feature": {"sight_features": "", "sight_content": ""}}, {"title": "广西农垦国有东湖农场", "address": "爱心路与324国道交叉口东150米", "image": "", "rank": 11, "time": 2, "location": {"lat": 25.98594602386009, "lng": 119.3838807076285}, "feature": {"sight_features": "", "sight_content": ""}}, {"title": "宾阳县图书馆读者服务部", "address": "思远路与镇安街交叉口西50米", "image": "", "rank": 12, "time": 2, "location": {"lat": 23.22122213762575, "lng": 108.8184569664943}, "feature": {"sight_features": "", "sight_content": ""}}, {"title": "王灵镇王灵社区廉政文化书屋", "address": "324国道南100米", "image": "", "rank": 13, "time": 2, "location": {"lat": 23.153903654296187, "lng": 114.20469410313481}, "feature": {"sight_features": "", "sight_content": ""}}, {"title": "聚龙山庄", "address": "黎塘镇欧阳村委欧阳老村", "image": "", "rank": 14, "time": 2, "location": {"lat": 23.15904357218995, "lng": 109.1954744369577}, "feature": {"sight_features": "", "sight_content": ""}}, {"title": "五川俱乐部垂钓基地", "address": "大桥镇红塘", "image": "", "rank": 15, "time": null, "location": {"lat": 23.177546163629405, "lng": 108.95923624034292}, "feature": {"sight_features": "", "sight_content": ""}}, {"title": "胜杰现代农业生态葡萄园", "address": "王灵镇秀山村路口", "image": "", "rank": 16, "time": 2, "location": {"lat": 23.16940694124406, "lng": 109.0292426089334}, "feature": {"sight_features": "", "sight_content": ""}}, {"title": "露圩影剧院", "address": "487县道露圩镇附近", "image": "", "rank": 17, "time": 2, "location": {"lat": 23.04351661933874, "lng": 109.06570414146934}, "feature": {"sight_features": "", "sight_content": ""}}, {"title": "宾州南桥", "address": "广西壮族自治区宾阳县宾州镇 530405", "image": "", "rank": 18, "time": 2, "location": {"lat": 23.232737129887433, "lng": 108.82227183643447}, "feature": {"sight_features": "", "sight_content": ""}}, {"title": "红木屋植物园", "address": "永安西路136号附近", "image": "", "rank": 19, "time": 2, "location": {"lat": 23.204542619961522, "lng": 109.13483860634793}, "feature": {"sight_features": "", "sight_content": ""}}, {"title": "清洁公园", "address": "广西壮族自治区南宁市宾阳县龙岩路1号", "image": "", "rank": 20, "time": 2, "location": {"lat": 23.211175343853217, "lng": 109.14237941158734}, "feature": {"sight_features": "", "sight_content": ""}}, {"title": "小勇士拓展乐园", "address": "广西壮族自治区南宁市宾阳县广场新区步行街附近", "image": "", "rank": 21, "time": 2, "location": {"lat": 23.223700543766824, "lng": 108.81650237946799}, "feature": {"sight_features": "", "sight_content": ""}}, {"title": "广西黄氏宗祠", "address": "广西壮族自治区南宁市宾阳县X487", "image": "", "rank": 22, "time": 2, "location": {"lat": 23.223700543766824, "lng": 108.81650237946799}, "feature": {"sight_features": "", "sight_content": ""}}, {"title": "韦曰坚纪念馆", "address": "宾阳县中华镇宣村", "image": "", "rank": 23, "time": 2, "location": {"lat": 23.123963221668188, "lng": 108.9655251137246}, "feature": {"sight_features": "", "sight_content": ""}}, {"title": "小盼达儿童乐园", "address": "南宁市宾阳县思远路城建·尚城购物广场1层", "image": "", "rank": 24, "time": 2, "location": {"lat": 23.22136012941857, "lng": 108.82894266303074}, "feature": {"sight_features": "", "sight_content": ""}}, {"title": "贝王鲁卡奇儿童乐园（湖景店）", "address": "宾阳县广源路（湖景花园）小区A8栋101号商铺", "image": "", "rank": 25, "time": 2.5, "location": {"lat": 23.230682231776118, "lng": 108.83334578743563}, "feature": {"sight_features": "", "sight_content": ""}}, {"title": "宾阳凤凰湖公园", "address": "广西壮族自治区南宁市宾阳县Y426", "image": "", "rank": 26, "time": 3.0, "location": {"lat": 23.223700543766824, "lng": 108.81650237946799}, "feature": {"sight_features": "", "sight_content": ""}}, {"title": "金凯动漫水世界", "address": "南宁市宾阳县", "image": "", "rank": 27, "time": 2, "location": {"lat": 23.223700543766824, "lng": 108.81650237946799}, "feature": {"sight_features": "", "sight_content": ""}}, {"title": "开心乐园儿童游乐场", "address": "都市花园广场", "image": "", "rank": 28, "time": 2, "location": {"lat": 23.22496339062463, "lng": 108.82291933055433}, "feature": {"sight_features": "", "sight_content": ""}}, {"title": "城隍庙", "address": "广西壮族自治区南宁市宾阳县府前街宾州镇三联社区", "image": "", "rank": 29, "time": 1.5, "location": {"lat": 23.253599485020537, "lng": 108.83084285676011}, "feature": {"sight_features": "", "sight_content": ""}}, {"title": "喜乐宝儿童海洋主题乐园", "address": "广西壮族自治区南宁市宾阳县Y008", "image": "", "rank": 30, "time": 2, "location": {"lat": 23.223700543766824, "lng": 108.81650237946799}, "feature": {"sight_features": "", "sight_content": ""}}, {"title": "八桂翰墨园", "address": "宾阳服务区东区1层附近", "image": "", "rank": 31, "time": 2, "location": {"lat": 23.23881606291734, "lng": 109.06050883646937}, "feature": {"sight_features": "", "sight_content": ""}}, {"title": "都市花园广场", "address": "广西壮族自治区南宁市宾阳县宾州镇财政路都市花园西", "image": "", "rank": 32, "time": 2, "location": {"lat": 23.22529023372528, "lng": 108.8255888672578}, "feature": {"sight_features": "", "sight_content": ""}}, {"title": "中山公园", "address": "芦圩镇风景路", "image": "", "rank": 33, "time": 1.5, "location": {"lat": 23.248718572839806, "lng": 108.84338311723454}, "feature": {"sight_features": "", "sight_content": ""}}, {"title": "礼拜堂(新宾法庭西南)", "address": "芦圩镇仁爱社区西街67", "image": "", "rank": 34, "time": 2, "location": {"lat": 23.250807117451494, "lng": 108.83374499440413}, "feature": {"sight_features": "", "sight_content": ""}}, {"title": "黎塘挂壁式科技馆", "address": "运河路", "image": "", "rank": 35, "time": 2, "location": {"lat": 39.78041038315263, "lng": 116.30293039260037}, "feature": {"sight_features": "", "sight_content": ""}}, {"title": "壮锦陈列馆", "address": "宾州镇西门街112号", "image": "", "rank": 36, "time": 2, "location": {"lat": 23.25446647201218, "lng": 108.82421609923556}, "feature": {"sight_features": "", "sight_content": ""}}, {"title": "淘气游乐园", "address": "宾州镇华艺世纪娱乐城", "image": "", "rank": 37, "time": 2, "location": {"lat": 23.225272520400154, "lng": 108.82256439118304}, "feature": {"sight_features": "", "sight_content": ""}}, {"title": "新圩镇文化体育和广播影视站图书...", "address": "新圩镇农业技术推广站附近", "image": "", "rank": 38, "time": 2, "location": {"lat": 39.991903663885005, "lng": 116.43539748212007}, "feature": {"sight_features": "", "sight_content": ""}}, {"title": "武陵镇理化村委廉政文化书屋", "address": "487县道西50米", "image": "", "rank": 39, "time": 2, "location": {"lat": 34.190126541372585, "lng": 117.99862725287113}, "feature": {"sight_features": "", "sight_content": ""}}, {"title": "王灵镇双桥文艺队", "address": "105乡道附近", "image": "", "rank": 40, "time": 2, "location": {"lat": 31.39935910030168, "lng": 120.49699610476493}, "feature": {"sight_features": "", "sight_content": ""}}, {"title": "宾阳县图书馆艺术展览厅", "address": "广西壮族自治区宾阳县临浦街01号", "image": "", "rank": 41, "time": 2, "location": {"lat": 23.221476483814687, "lng": 108.81881120428899}, "feature": {"sight_features": "", "sight_content": ""}}, {"title": "新丰采孕婴童购物街", "address": "广西壮族自治区宾阳县永武路", "image": "", "rank": 42, "time": 2, "location": {"lat": 23.225520548248397, "lng": 108.8176861745534}, "feature": {"sight_features": "", "sight_content": ""}}, {"title": "桥香江游泳馆", "address": "南宁市-宾阳县-019乡道北150米", "image": "", "rank": 43, "time": 2, "location": {"lat": 23.223700543766824, "lng": 108.81650237946799}, "feature": {"sight_features": "", "sight_content": ""}}, {"title": "和吉石龙泉", "address": "南宁市-宾阳县", "image": "", "rank": 44, "time": 2, "location": {"lat": 23.223700543766824, "lng": 108.81650237946799}, "feature": {"sight_features": "", "sight_content": ""}}]}