{"cityName": "泌阳", "days": 2, "cityImage": "", "spots": [{"title": "泌阳铜山风景区", "address": "驻马店市泌阳县334省道附近", "image": "", "rank": 1, "time": 3.5, "location": {"lat": 32.78474536014513, "lng": 113.59833937642587}, "feature": {"sight_features": "", "sight_content": ""}}, {"title": "白云山", "address": "驻马店市泌阳县城东30公里", "image": "", "rank": 2, "time": 4.5, "location": {"lat": 32.729730650434554, "lng": 113.33355798837405}, "feature": {"sight_features": "特色1 天中大地第一高山 特色2 有薄雾蒙翠峰，碧纱罩玉容。 特色3 世界地质公园，登顶中原高峰，欣赏壮美的日出和云海景象。", "sight_content": "白云山是天中大地第一高山，位于泌阳县城东30公里，总面积218平方公里，因山之奇峰秀丽，常有白云卷舒相伴，山上有玉皇神殿，正逢岁旱，百姓皆往祈雨，有求必应，故而得名。\n\n其巅顶海拔983米，奇石如垛，云雾缭绕，俗称“白貌垛”。\n传说很久很久以前此间为海中龙王化成的一座青山，故历史上又称“青龙山”。至今从“白貌垛”往东北依然可以看到巨龙横卧的模样。“白貌垛”便是昂起的龙头，乐山则是翘起的龙尾，九龙盘曲，祥瑞纷呈。古人将“貌垛龙容”列为泌阳八景之一。\n\n白云山形势巍然，雄峙一方。西为伏牛山脉，南为大别山脉，诸山组合，广圆五六十里，威镇泌阳县东方。白云山生态原始，古老神秘。\n\n棋盘岭仙人对弈棋盘犹在，老爷庙龙王载宝石船尚存；“白貌垛”水淹丁三渣草挂在山顶，万僧寺惩处恶僧宝锅沉入潭底；古树悬崖，天生地长，千百万年，仍如闺中秀女；奇闻轶事，口语传承，从古到今，果然历久弥新。王质观棋、张良修仙、神仙拉车、神奇故事，如歌如诗；貌垛龙容、竹林晚照、石台擂鼓、自然造化，赏心悦目。\n白云山林木苍郁，花草缤纷，满山青翠。中药材品种达698种之多。在浓萌如盖的密林深处，珍禽异兽，鸟鸣凤啼，是“天然的动植物园”。\n白云山众泉奔腾，溪流竟奏。水在树间流，树在水中长，高山流水，如琴似弦。石是骨，彰显着白云山的雄伟和质朴，水为魂，折射出白云山的清新和灵秀。"}}, {"title": "盘古山景区", "address": "驻马店市泌阳县盘古乡盘古山景区", "image": "", "rank": 3, "time": 2, "location": {"lat": 32.6086047662771, "lng": 113.31592938862238}, "feature": {"sight_features": "", "sight_content": "盘古山景区位于河南省泌阳县盘古乡境内，距县城15公里。景区总规划面积25.75平方公里，森林覆盖率达到90%，植被茂密、灵气氤氲、殿宇轩昂，自然景观与盘古神话相映生辉，盘古山是中国盘古文化的发祥地。"}}, {"title": "泌阳县高邑乡开心乐家庭农场", "address": "高邑乡铜山湖正门南1000米路西周庄", "image": "", "rank": 4, "time": 2, "location": {"lat": 30.28147033708491, "lng": 120.13831123056697}, "feature": {"sight_features": "", "sight_content": ""}}, {"title": "河南泌阳蓝莓示范基地", "address": "张李庄", "image": "", "rank": 5, "time": 2, "location": {"lat": 34.5606053164857, "lng": 117.0009847992767}, "feature": {"sight_features": "", "sight_content": ""}}, {"title": "泌阳恒久远蓝莓生态采摘园", "address": "泰山庙镇后二仙庙石河小学对面", "image": "", "rank": 6, "time": 2, "location": {"lat": 32.84469010175233, "lng": 113.219954321038}, "feature": {"sight_features": "", "sight_content": ""}}, {"title": "下河湾冶铁", "address": "河南泌阳县马谷田镇南岗村 463000", "image": "", "rank": 7, "time": 2, "location": {"lat": 32.63379466315245, "lng": 113.54527438947589}, "feature": {"sight_features": "", "sight_content": ""}}, {"title": "基督教会", "address": "河南省驻马店市泌阳县行政路", "image": "", "rank": 8, "time": 2, "location": {"lat": 32.72967709817741, "lng": 113.33134040084973}, "feature": {"sight_features": "", "sight_content": ""}}, {"title": "儿童乐园", "address": "驻马店市泌阳县文明路76号", "image": "", "rank": 9, "time": 2, "location": {"lat": 32.73195301844303, "lng": 113.34241671799124}, "feature": {"sight_features": "", "sight_content": ""}}, {"title": "焦竹园革命旧址(中共豫鄂边省委...", "address": "河南省驻马店市泌阳县羊进冲新阳高速公路焦竹园革命旧址", "image": "", "rank": 10, "time": 2, "location": {"lat": 32.91921469962579, "lng": 114.12906120289172}, "feature": {"sight_features": "", "sight_content": ""}}, {"title": "东源山庄", "address": "农家乐附近", "image": "", "rank": 11, "time": 1.5, "location": {"lat": 40.43413539434948, "lng": 116.6416511347038}, "feature": {"sight_features": "", "sight_content": ""}}, {"title": "马岗民俗文化园", "address": "河南省驻马店市泌阳县马岗村", "image": "", "rank": 12, "time": 2, "location": {"lat": 33.002371263783814, "lng": 113.56703822725287}, "feature": {"sight_features": "", "sight_content": ""}}, {"title": "四季花海景区", "address": "驻马店市泌阳县高邑乡谭园村", "image": "", "rank": 13, "time": 2, "location": {"lat": 32.753458911050465, "lng": 113.50269660911741}, "feature": {"sight_features": "特色1 景区常年开放，一年四季皆适合游玩", "sight_content": "四季花海景区位于泌阳县高邑镇谭园村，是以鲜花种植、观赏为主的景区。\n园中鸟语花香，环境清新，适合赏花，陶冶个人情操，景区常年开放，一年四季皆适合游玩。"}}, {"title": "东方画院", "address": "335省道", "image": "", "rank": 14, "time": 1.0, "location": {"lat": 38.65605367468026, "lng": 115.46499190580862}, "feature": {"sight_features": "", "sight_content": ""}}, {"title": "泌阳县图书馆(工业园区分馆)", "address": "335省道", "image": "", "rank": 15, "time": 2, "location": {"lat": 38.65605367468026, "lng": 115.46499190580862}, "feature": {"sight_features": "", "sight_content": ""}}, {"title": "泌阳县图书馆", "address": "泌水镇人民路50号", "image": "", "rank": 16, "time": 2, "location": {"lat": 32.723993298875364, "lng": 113.33503188313954}, "feature": {"sight_features": "", "sight_content": ""}}, {"title": "皇庭农家园", "address": "师范路156号", "image": "", "rank": 17, "time": 2, "location": {"lat": 33.63588981315123, "lng": 117.00182831022163}, "feature": {"sight_features": "", "sight_content": ""}}, {"title": "深圳大芬画廊", "address": "花园街道8号商务会馆向西300米路南", "image": "", "rank": 18, "time": 2.5, "location": {"lat": 32.738352012092236, "lng": 113.32824322850226}, "feature": {"sight_features": "", "sight_content": ""}}, {"title": "爱家水世界", "address": "陈营老干部居斜对面", "image": "", "rank": 19, "time": 2, "location": {"lat": 40.02914882621874, "lng": 116.43909796183787}, "feature": {"sight_features": "", "sight_content": ""}}, {"title": "马庄瓜果蔬菜生态园", "address": "古城办事处七里岗居委马庄村", "image": "", "rank": 20, "time": 2, "location": {"lat": 34.78689959623033, "lng": 114.96720946557939}, "feature": {"sight_features": "", "sight_content": ""}}, {"title": "盘龙游乐水上世界", "address": "人民路南段公园大桥南端中泓尚城售楼部南100米", "image": "", "rank": 21, "time": 2, "location": {"lat": 36.79974781363777, "lng": 118.05588780175631}, "feature": {"sight_features": "", "sight_content": ""}}, {"title": "棠树岭", "address": "驻马店市-泌阳县", "image": "", "rank": 22, "time": 2, "location": {"lat": 32.729730650434554, "lng": 113.33355798837405}, "feature": {"sight_features": "", "sight_content": ""}}]}