{"cityName": "博爱", "days": null, "cityImage": "", "spots": [{"title": "焦作明月山", "address": "焦作博爱县明月山景区", "image": "", "rank": 1, "time": 4.5, "location": {"lat": 35.177308063756, "lng": 113.07047799095812}, "feature": {"sight_features": "", "sight_content": ""}}, {"title": "靳家岭", "address": "焦作市博爱县青天河景区内", "image": "", "rank": 2, "time": 3.0, "location": {"lat": 35.3210114880764, "lng": 112.99534342525597}, "feature": {"sight_features": "", "sight_content": ""}}, {"title": "月山寺风景名胜区", "address": "河南省焦作市博爱县月山镇", "image": "", "rank": 3, "time": 2, "location": {"lat": 35.215049265794214, "lng": 113.04653229935174}, "feature": {"sight_features": "", "sight_content": ""}}, {"title": "李商隐纪念馆", "address": "阁前路", "image": "", "rank": 4, "time": 2, "location": {"lat": 35.17422078407096, "lng": 113.08179664128215}, "feature": {"sight_features": "", "sight_content": ""}}, {"title": "幸福湖公园", "address": "幸福湖东门鸡汤臭豆腐", "image": "", "rank": 5, "time": 2, "location": {"lat": 33.782029730065545, "lng": 116.85913999940259}, "feature": {"sight_features": "", "sight_content": ""}}, {"title": "博爱樱桃沟", "address": "寨豁村", "image": "", "rank": 6, "time": 1.5, "location": {"lat": 35.279477052433386, "lng": 113.06300501436979}, "feature": {"sight_features": "", "sight_content": ""}}, {"title": "玉中葡萄园", "address": "博爱县金城乡南里村(237省道旁)", "image": "", "rank": 7, "time": 2, "location": {"lat": 35.072554086112014, "lng": 113.09531618861412}, "feature": {"sight_features": "", "sight_content": ""}}, {"title": "石佛滩摩崖造像", "address": "河南博爱县城西北 454450", "image": "", "rank": 8, "time": 2, "location": {"lat": 35.177308063756, "lng": 113.07047799095812}, "feature": {"sight_features": "", "sight_content": ""}}, {"title": "摩崖石刻", "address": "河南博爱县青天河风景名胜区 454450", "image": "", "rank": 9, "time": 0.75, "location": {"lat": 35.3210114880764, "lng": 112.99534342525597}, "feature": {"sight_features": "", "sight_content": ""}}, {"title": "湾仔多彩啤酒广场博爱店", "address": "河南省焦作市博爱县博爱县柏山镇葵城路龙宫商务酒店附近", "image": "", "rank": 10, "time": 2, "location": {"lat": 35.18747095111177, "lng": 113.0802215901298}, "feature": {"sight_features": "", "sight_content": ""}}, {"title": "大王庙", "address": "焦作市博爱县", "image": "", "rank": 11, "time": 1.5, "location": {"lat": 35.177308063756, "lng": 113.07047799095812}, "feature": {"sight_features": "", "sight_content": ""}}, {"title": "皮皮龙儿童乐园", "address": "中山路与葵城路交叉口新世纪生活广场5楼", "image": "", "rank": 12, "time": 2, "location": {"lat": 35.17662328748251, "lng": 113.07784422100443}, "feature": {"sight_features": "", "sight_content": ""}}, {"title": "博爱县七彩烟花爆竹有限公司展示...", "address": "葵城路51号附近", "image": "", "rank": 13, "time": 2, "location": {"lat": 35.17037619449287, "lng": 113.0781695014258}, "feature": {"sight_features": "", "sight_content": ""}}, {"title": "服装公园", "address": "河南省焦作市博爱县中山路272号", "image": "", "rank": 14, "time": 2, "location": {"lat": 35.17760514474073, "lng": 113.0752740916861}, "feature": {"sight_features": "", "sight_content": ""}}, {"title": "小王子主题乐园", "address": "葵城路新宏大依衣不舍服饰广场三楼", "image": "", "rank": 15, "time": 2, "location": {"lat": 35.17611437488429, "lng": 113.07812855356273}, "feature": {"sight_features": "", "sight_content": ""}}, {"title": "小王子主题乐园", "address": "葵城路新宏大依衣不舍服饰广场三楼", "image": "", "rank": 16, "time": 2, "location": {"lat": 35.17611437488429, "lng": 113.07812855356273}, "feature": {"sight_features": "", "sight_content": ""}}, {"title": "湿地公园", "address": "海华路与发展大道交汇处西北角", "image": "", "rank": 17, "time": 2, "location": {"lat": 35.19505344463495, "lng": 113.0934907419873}, "feature": {"sight_features": "", "sight_content": ""}}, {"title": "中山广场", "address": "中山路36附近", "image": "", "rank": 18, "time": 1.0, "location": {"lat": 39.169950895546116, "lng": 117.21239500755563}, "feature": {"sight_features": "", "sight_content": ""}}, {"title": "清化镇十街民兵连", "address": "河南省焦作市博爱县博爱县清化镇葵城路百兴源小区东南250米", "image": "", "rank": 19, "time": 2, "location": {"lat": 35.17115555910961, "lng": 113.077934914827}, "feature": {"sight_features": "", "sight_content": ""}}, {"title": "博中商城展示中心", "address": "河南省焦作市博爱县中山路与团结路交叉口西50米", "image": "", "rank": 20, "time": 2, "location": {"lat": 35.17725512692794, "lng": 113.06839030829191}, "feature": {"sight_features": "", "sight_content": ""}}, {"title": "大雄宝殿", "address": "焦作市博爱县月山镇月山寺内", "image": "", "rank": 21, "time": 2, "location": {"lat": 35.22486625527501, "lng": 113.06073463522726}, "feature": {"sight_features": "", "sight_content": ""}}, {"title": "樊哙庙大殿", "address": "024县道附近", "image": "", "rank": 22, "time": 2, "location": {"lat": 44.64454580385906, "lng": 126.5906344638957}, "feature": {"sight_features": "", "sight_content": ""}}, {"title": "博爱县图书馆", "address": "阁前路", "image": "", "rank": 23, "time": 2, "location": {"lat": 35.17422078407096, "lng": 113.08179664128215}, "feature": {"sight_features": "", "sight_content": ""}}, {"title": "博爱画院", "address": "葵城路", "image": "", "rank": 24, "time": 1.0, "location": {"lat": 35.17914001736141, "lng": 113.07842263004092}, "feature": {"sight_features": "", "sight_content": ""}}, {"title": "MAX潜逃真人密室", "address": "文化路与团结路交口西行500米路南(新一中南邻)", "image": "", "rank": 25, "time": 2, "location": {"lat": 31.809570102491108, "lng": 120.22377650546449}, "feature": {"sight_features": "", "sight_content": ""}}, {"title": "博爱县广利家庭农场", "address": "柏山镇超限站向北2公里", "image": "", "rank": 26, "time": 2, "location": {"lat": 31.531854366152213, "lng": 121.72764301601296}, "feature": {"sight_features": "", "sight_content": ""}}, {"title": "团结渔具店", "address": "国营博爱农场X024", "image": "", "rank": 27, "time": 2, "location": {"lat": 35.13747231803917, "lng": 113.0089019132335}, "feature": {"sight_features": "", "sight_content": ""}}, {"title": "博爱县一品农庄家庭农场", "address": "博爱县金城乡南庄村金城良种场西南侧200米", "image": "", "rank": 28, "time": 2, "location": {"lat": 35.09743516480657, "lng": 113.13197175335566}, "feature": {"sight_features": "", "sight_content": ""}}, {"title": "老磨坊", "address": "X034孤山休闲港湾东北侧", "image": "", "rank": 29, "time": 2, "location": {"lat": 35.268982986185854, "lng": 112.99908974191074}, "feature": {"sight_features": "", "sight_content": ""}}, {"title": "月山寺", "address": "河南省博爱县境内", "image": "", "rank": 30, "time": 2, "location": {"lat": 35.177308063756, "lng": 113.07047799095812}, "feature": {"sight_features": "", "sight_content": ""}}, {"title": "中国清华商业城", "address": "河南省博爱县靠近香港街", "image": "", "rank": 31, "time": 2, "location": {"lat": 35.17493088562943, "lng": 113.07547290286496}, "feature": {"sight_features": "", "sight_content": ""}}]}