{"cityName": "博白", "days": 2, "cityImage": "", "spots": [{"title": "宴石山风景区", "address": "玉林市博白县顿谷镇", "image": "", "rank": 1, "time": 2, "location": {"lat": 22.163874339422364, "lng": 109.78193666000558}, "feature": {"sight_features": "", "sight_content": ""}}, {"title": "绿珠井", "address": "玉林市博白县双风乡绿萝村", "image": "", "rank": 2, "time": 2, "location": {"lat": 22.397966862928946, "lng": 109.91813781055298}, "feature": {"sight_features": "", "sight_content": ""}}, {"title": "温罗温泉", "address": "亚山镇温罗村", "image": "", "rank": 3, "time": 2, "location": {"lat": 22.16314345092524, "lng": 110.00856146144572}, "feature": {"sight_features": "", "sight_content": ""}}, {"title": "桂南农场", "address": "041乡道", "image": "", "rank": 4, "time": 2, "location": {"lat": 43.70072308970692, "lng": 127.54202156510266}, "feature": {"sight_features": "", "sight_content": ""}}, {"title": "博白县图书馆", "address": "城公园路20号", "image": "", "rank": 5, "time": 2, "location": {"lat": 22.28283278150096, "lng": 109.99015031093988}, "feature": {"sight_features": "", "sight_content": ""}}, {"title": "贝儿健儿童乐园", "address": "锦绣东路锦绣商业广场正对面", "image": "", "rank": 6, "time": 2, "location": {"lat": 22.2653841122965, "lng": 109.9923078072147}, "feature": {"sight_features": "", "sight_content": ""}}, {"title": "儿童乐园", "address": "玉林市博白县兴隆中路33号兴隆购物中心2层", "image": "", "rank": 7, "time": 2, "location": {"lat": 22.27762639186648, "lng": 109.98721805850195}, "feature": {"sight_features": "", "sight_content": ""}}, {"title": "革命烈士纪念馆", "address": "人民公园内", "image": "", "rank": 8, "time": 2, "location": {"lat": 31.781825128528094, "lng": 119.96397989822994}, "feature": {"sight_features": "", "sight_content": ""}}, {"title": "陈马祠堂", "address": "玉林市博白县", "image": "", "rank": 9, "time": 2, "location": {"lat": 22.278674815493492, "lng": 109.98255305648165}, "feature": {"sight_features": "", "sight_content": ""}}, {"title": "法制文化广场", "address": "广西壮族自治区玉林市博白县博白镇大街92号", "image": "", "rank": 10, "time": 2, "location": {"lat": 22.27887907434878, "lng": 109.98470400321101}, "feature": {"sight_features": "", "sight_content": ""}}, {"title": "寨峰谷漂流", "address": "广西壮族自治区玉林市博白县灯心塘村", "image": "", "rank": 11, "time": 2, "location": {"lat": 22.278674815493492, "lng": 109.98255305648165}, "feature": {"sight_features": "", "sight_content": ""}}, {"title": "英桥基督教堂", "address": "广西壮族自治区玉林市博白县X401", "image": "", "rank": 12, "time": 2, "location": {"lat": 22.278674815493492, "lng": 109.98255305648165}, "feature": {"sight_features": "", "sight_content": ""}}, {"title": "王力故居", "address": "玉林市博白县兴隆西路322号附近", "image": "", "rank": 13, "time": 2, "location": {"lat": 22.274567678474806, "lng": 109.97860323634244}, "feature": {"sight_features": "", "sight_content": ""}}, {"title": "东方书画院", "address": "南州南路138号", "image": "", "rank": 14, "time": 1.5, "location": {"lat": 22.274410397060958, "lng": 109.98623143788271}, "feature": {"sight_features": "", "sight_content": ""}}, {"title": "博白县房地产档案馆", "address": "南州南路9", "image": "", "rank": 15, "time": 2, "location": {"lat": 22.277218318138736, "lng": 109.98548556403836}, "feature": {"sight_features": "", "sight_content": ""}}, {"title": "村上人家农家乐", "address": "公园路公园游泳池左直入300米", "image": "", "rank": 16, "time": 2, "location": {"lat": 26.915362840353655, "lng": 118.99244790497318}, "feature": {"sight_features": "", "sight_content": ""}}, {"title": "摩登游乐场", "address": "人民公园旁", "image": "", "rank": 17, "time": 2, "location": {"lat": 40.48043876949942, "lng": 116.8610198797501}, "feature": {"sight_features": "", "sight_content": ""}}, {"title": "鳄鱼漆", "address": "人民中路195号", "image": "", "rank": 18, "time": 2, "location": {"lat": 30.92098242706957, "lng": 121.46502586871446}, "feature": {"sight_features": "", "sight_content": ""}}, {"title": "鳄鱼漆", "address": "404县道西50米", "image": "", "rank": 19, "time": 2, "location": {"lat": 36.54471448953117, "lng": 115.28823734225668}, "feature": {"sight_features": "", "sight_content": ""}}, {"title": "博轩画廊", "address": "博白镇人民中路363号(私人订制旁)", "image": "", "rank": 20, "time": 2, "location": {"lat": 22.56134614373024, "lng": 114.12684626944518}, "feature": {"sight_features": "", "sight_content": ""}}, {"title": "欣欣画廊", "address": "216省道西50米", "image": "", "rank": 21, "time": 2, "location": {"lat": 40.32216149734673, "lng": 116.05368258786781}, "feature": {"sight_features": "", "sight_content": ""}}, {"title": "城西草莓采摘园", "address": "406县道东50米", "image": "", "rank": 22, "time": 2, "location": {"lat": 41.277488185445996, "lng": 115.17189359248796}, "feature": {"sight_features": "", "sight_content": ""}}, {"title": "亚山火龙果基地", "address": "G59呼北高速", "image": "", "rank": 23, "time": 2, "location": {"lat": 30.161671001658416, "lng": 120.27725200455791}, "feature": {"sight_features": "", "sight_content": ""}}, {"title": "塘龙生态农庄", "address": "东平镇新民坡", "image": "", "rank": 24, "time": 2, "location": {"lat": 21.998079922198492, "lng": 109.82203425477}, "feature": {"sight_features": "", "sight_content": ""}}, {"title": "杨梅山庄", "address": "龙城村委会", "image": "", "rank": 25, "time": 2, "location": {"lat": 31.904038898389608, "lng": 117.57150323517433}, "feature": {"sight_features": "", "sight_content": ""}}, {"title": "香公山", "address": "玉林市-博白县-二一六省道", "image": "", "rank": 26, "time": 2, "location": {"lat": 22.33738453584948, "lng": 110.02318485197335}, "feature": {"sight_features": "", "sight_content": ""}}, {"title": "长连垌", "address": "玉林市-博白县-长连垌", "image": "", "rank": 27, "time": 2, "location": {"lat": 21.74315328183745, "lng": 109.84427110608556}, "feature": {"sight_features": "", "sight_content": ""}}, {"title": "勒竹根", "address": "玉林市-博白县", "image": "", "rank": 28, "time": 2, "location": {"lat": 22.278674815493492, "lng": 109.98255305648165}, "feature": {"sight_features": "", "sight_content": ""}}, {"title": "六谷垌", "address": "玉林市-博白县", "image": "", "rank": 29, "time": 2, "location": {"lat": 22.278674815493492, "lng": 109.98255305648165}, "feature": {"sight_features": "", "sight_content": ""}}, {"title": "答竹塘", "address": "玉林市-博白县", "image": "", "rank": 30, "time": 2, "location": {"lat": 22.278674815493492, "lng": 109.98255305648165}, "feature": {"sight_features": "", "sight_content": ""}}]}