{"cityName": "博尔塔拉", "days": "", "cityImage": "", "spots": [{"title": "赛里木湖", "address": "新疆维吾尔自治区博尔塔拉蒙古自治州博乐市", "image": "", "rank": 1, "time": 4.5, "location": {"lat": 44.86000978463866, "lng": 82.05797225459081}, "feature": {"sight_features": "特色1 每年六月左右，湖边各色野花开放，是摄影的绝佳胜地。 特色2 雪山、草原和蔚蓝的湖水构成绝美画卷，是新疆最著名美景之一。", "sight_content": "赛里木湖,古称“天池”、“西方净海”，蒙古语称“赛里木淖尔”,意为“山脊梁上的湖”。位于新疆维吾尔自治区博尔塔拉蒙古自治州境内,国道312线从湖东侧通过。为一地堑式山间断陷盆地，湖面海拔2073米,景区面积1301.4平方千米,湖面面积458平方千米,是一个融高山、冰川、森林、草原、碧湖和珍禽为一体，集雄、奇、幽、秀、旷诸美于一身的新疆境内面积最大的高山内陆湖泊，以湖泊、湿地、草原、森林、雪山自然生态景观为主要特色，以观光游览、生态休闲、古丝绸之路北道历史文化探源和蒙哈等少数民族风情体验为主要活动内容的高山湖泊、草原型国家级风景名胜区，享有“西来之异境，世外之灵壤”的美誉。\n赛里木湖景区规划面积1301.4平方公里，是新疆海拔最高、面积最大的高山湖泊，以湖泊、湿地、草原、森林、雪山自然生态景观为主要特色，以观光游览、生态休闲、古丝绸之路北道历史文化探源和蒙哈等少数民族风情体验为主要活动内容的高山湖泊、草原型国家级风景名胜区，享有“西来之异境，世外之灵壤”的美誉。\n赛里木湖是国家级风景名胜区，国家湿地公园，4a级旅游景区。"}}, {"title": "怪石峪风景区", "address": "新疆维吾尔自治区博乐市市东北38公里处", "image": "", "rank": 2, "time": 3.5, "location": {"lat": 44.86000978463866, "lng": 82.05797225459081}, "feature": {"sight_features": "", "sight_content": ""}}, {"title": "阿拉山口口岸", "address": "位于博乐市东北角", "image": "", "rank": 3, "time": 2, "location": {"lat": 44.86000978463866, "lng": 82.05797225459081}, "feature": {"sight_features": "", "sight_content": ""}}, {"title": "艾比湖", "address": "位于精河县城以北35公里处，西与北疆铁路精河到阿拉山口段相邻", "image": "", "rank": 4, "time": 2, "location": {"lat": 44.60664594349165, "lng": 82.90065531620479}, "feature": {"sight_features": "", "sight_content": ""}}, {"title": "汤山龙泽葡萄园", "address": "汤山街道龙尚路1号龙尚社区(近颐尙温泉)", "image": "", "rank": 5, "time": 2, "location": {"lat": 44.97485663870472, "lng": 81.03114554648644}, "feature": {"sight_features": "", "sight_content": ""}}, {"title": "博尔塔拉蒙古自治州图书馆", "address": "青得里大街13号", "image": "", "rank": 6, "time": 4.5, "location": {"lat": 44.90990379377197, "lng": 82.0844025968954}, "feature": {"sight_features": "", "sight_content": ""}}, {"title": "温泉县体育馆", "address": "三峡西路44-1号", "image": "", "rank": 7, "time": 1.5, "location": {"lat": 44.97464597192283, "lng": 81.03442817508443}, "feature": {"sight_features": "", "sight_content": ""}}, {"title": "沁园春农家乐", "address": "街亭温泉西100米", "image": "", "rank": 8, "time": 2, "location": {"lat": 44.97485663870472, "lng": 81.03024724097646}, "feature": {"sight_features": "", "sight_content": ""}}, {"title": "大连龙门旅游度假区大和馆温泉", "address": "许屯镇大和温泉馆", "image": "", "rank": 9, "time": 1.5, "location": {"lat": 44.97485663870472, "lng": 81.03114554648644}, "feature": {"sight_features": "", "sight_content": ""}}, {"title": "北鲵生态园", "address": "亚联温泉疗养院对面", "image": "", "rank": 10, "time": 2, "location": {"lat": 44.99061208568075, "lng": 81.04070520583714}, "feature": {"sight_features": "", "sight_content": ""}}, {"title": "阿尔先沟温泉", "address": "巩乃斯乡", "image": "", "rank": 11, "time": 2, "location": {"lat": 43.272812263638734, "lng": 84.5517686776303}, "feature": {"sight_features": "", "sight_content": ""}}, {"title": "温泉县图书馆", "address": "博格达尔西街与幸福路交叉口东南150米", "image": "", "rank": 12, "time": 1.5, "location": {"lat": 44.9799962332107, "lng": 81.03335925952926}, "feature": {"sight_features": "", "sight_content": ""}}, {"title": "博乐市图书馆", "address": "青得里大街96号", "image": "", "rank": 13, "time": 1.5, "location": {"lat": 44.91090716710511, "lng": 82.08147657734929}, "feature": {"sight_features": "", "sight_content": ""}}, {"title": "河野田园休闲农庄", "address": "道尔套特村", "image": "", "rank": 14, "time": 2, "location": {"lat": 44.699509745943466, "lng": 82.31855308864402}, "feature": {"sight_features": "", "sight_content": ""}}, {"title": "汇香坊香薰图书馆", "address": "博格达尔西街与环城路交叉口西北100米", "image": "", "rank": 15, "time": 2, "location": {"lat": 44.97962896057761, "lng": 81.02839523567775}, "feature": {"sight_features": "", "sight_content": ""}}, {"title": "博格达圣泉景区", "address": "304省道", "image": "", "rank": 16, "time": 2, "location": {"lat": 38.007414201086036, "lng": 114.44892402313616}, "feature": {"sight_features": "", "sight_content": ""}}, {"title": "博格达温泉", "address": "新疆维吾尔自治区博乐市城北300米处 833400", "image": "", "rank": 17, "time": 0.7, "location": {"lat": 44.86000978463866, "lng": 82.05797225459081}, "feature": {"sight_features": "", "sight_content": ""}}, {"title": "阿日夏特石人墓", "address": "新疆维吾尔自治区温泉县哈日布呼镇阿日夏特草原 833500", "image": "", "rank": 18, "time": 2, "location": {"lat": 45.01397993085632, "lng": 81.62721426213992}, "feature": {"sight_features": "", "sight_content": ""}}, {"title": "阿克烧房农家乐", "address": "304省道", "image": "", "rank": 19, "time": 2, "location": {"lat": 38.007414201086036, "lng": 114.44892402313616}, "feature": {"sight_features": "", "sight_content": ""}}, {"title": "博尔塔拉蒙古自治州博物馆", "address": "205省道", "image": "", "rank": 20, "time": 4.5, "location": {"lat": 40.38230240600069, "lng": 116.84666042934258}, "feature": {"sight_features": "", "sight_content": ""}}, {"title": "图书馆", "address": "幸福西路4号", "image": "", "rank": 21, "time": 1.0, "location": {"lat": 32.06553035547261, "lng": 112.16002634216274}, "feature": {"sight_features": "", "sight_content": ""}}, {"title": "精河生态园", "address": "县体育中心对面", "image": "", "rank": 22, "time": 7.5, "location": {"lat": 30.549434999876414, "lng": 120.0033050930996}, "feature": {"sight_features": "", "sight_content": ""}}, {"title": "儿童游乐场", "address": "生态园西侧", "image": "", "rank": 23, "time": 2, "location": {"lat": 29.831361157892797, "lng": 106.44278612439919}, "feature": {"sight_features": "", "sight_content": ""}}, {"title": "西域温泉滑雪场", "address": "环城路赛马场旁", "image": "", "rank": 24, "time": 2, "location": {"lat": 37.35144421170158, "lng": 111.19625655224671}, "feature": {"sight_features": "", "sight_content": ""}}, {"title": "蜀南温泉", "address": "中国四川省宜宾市翠屏区酒都路中段", "image": "", "rank": 25, "time": 2, "location": {"lat": 28.762026602015258, "lng": 104.64924054384277}, "feature": {"sight_features": "", "sight_content": ""}}, {"title": "鑫长城滑雪场", "address": "赛马场东侧800米", "image": "", "rank": 26, "time": 2, "location": {"lat": 22.330367665176887, "lng": 108.31168933336558}, "feature": {"sight_features": "", "sight_content": ""}}, {"title": "古代岩画", "address": "青得里大街与文化路交叉口", "image": "", "rank": 27, "time": 2, "location": {"lat": 44.91474580550866, "lng": 82.06413463793503}, "feature": {"sight_features": "", "sight_content": ""}}, {"title": "勇敢者转盘", "address": "伊犁河南岸公园", "image": "", "rank": 28, "time": null, "location": {"lat": 22.787169765196488, "lng": 113.28377354204387}, "feature": {"sight_features": "", "sight_content": ""}}, {"title": "博格达尔温泉", "address": "城北300米处的山脚下", "image": "", "rank": 29, "time": null, "location": {"lat": 36.656293630836586, "lng": 101.77240488175582}, "feature": {"sight_features": "", "sight_content": ""}}, {"title": "新疆博乐市书画院", "address": "青得里大街96号", "image": "", "rank": 31, "time": 2, "location": {"lat": 44.91090716710511, "lng": 82.08147657734929}, "feature": {"sight_features": "", "sight_content": ""}}, {"title": "拾艺斋画廊", "address": "北京路261号附近", "image": "", "rank": 32, "time": 2, "location": {"lat": 24.5128591754779, "lng": 117.66283771330099}, "feature": {"sight_features": "", "sight_content": ""}}, {"title": "锦绣庄园农家乐", "address": "园陵路2号", "image": "", "rank": 33, "time": 2, "location": {"lat": 33.85144914894097, "lng": 120.1440639017986}, "feature": {"sight_features": "", "sight_content": ""}}, {"title": "何氏孵化场", "address": "达勒特镇", "image": "", "rank": 34, "time": 2, "location": {"lat": 44.81752828854173, "lng": 82.26851112736577}, "feature": {"sight_features": "", "sight_content": ""}}, {"title": "赛里木湖 Sailimu Lake", "address": "新疆维吾尔自治区博乐市境内", "image": "", "rank": 35, "time": 2, "location": {"lat": 44.86000978463866, "lng": 82.05797225459081}, "feature": {"sight_features": "", "sight_content": ""}}, {"title": "甘家湖梭梭林", "address": "新疆维吾尔自治区精河县准噶尔盆地西南缘", "image": "", "rank": 36, "time": 2, "location": {"lat": 44.60664594349165, "lng": 82.90065531620479}, "feature": {"sight_features": "", "sight_content": ""}}, {"title": "博乐红星商业街", "address": "新疆维吾尔自治区博乐市红星路", "image": "", "rank": 37, "time": 4.5, "location": {"lat": 44.89480014482648, "lng": 82.07678901402525}, "feature": {"sight_features": "", "sight_content": ""}}, {"title": "呼和浩特呼尔村", "address": "博尔塔拉蒙古自治州-博乐市", "image": "", "rank": 38, "time": 2.5, "location": {"lat": 44.86000978463866, "lng": 82.05797225459081}, "feature": {"sight_features": "", "sight_content": ""}}, {"title": "艾比湖自然保护区", "address": "新疆维吾尔自治区博尔塔拉蒙古自治州博乐艾比湖自然保护区", "image": "", "rank": 39, "time": 2, "location": {"lat": 45.03682700463018, "lng": 82.59407746958226}, "feature": {"sight_features": "", "sight_content": ""}}, {"title": "夏尔西里", "address": "新疆维吾尔自治区博尔塔拉蒙古自治州境内的阿拉套山北麓", "image": "", "rank": 40, "time": 2, "location": {"lat": 44.9121964134647, "lng": 82.07291475827434}, "feature": {"sight_features": "", "sight_content": ""}}]}