{"cityName": "博湖", "days": 2, "cityImage": "", "spots": [{"title": "孔雀海滩水乐园沙滩", "address": "巴音郭楞自治州巴州博湖县孔雀河源扬水站旁（紧邻连S206国道）", "image": "", "rank": 1, "time": 1.0, "location": {"lat": 41.82152493687539, "lng": 86.71077007743149}, "feature": {"sight_features": "", "sight_content": ""}}, {"title": "加勒比海盗水上乐园", "address": "孔雀河源扬水站旁", "image": "", "rank": 2, "time": 2, "location": {"lat": 41.50246072174425, "lng": 85.81542217510442}, "feature": {"sight_features": "", "sight_content": ""}}, {"title": "红枣采摘园", "address": "塔什店镇，莲花湖景区继续前行8公里处", "image": "", "rank": 3, "time": null, "location": {"lat": 25.99963187477898, "lng": 119.46908423423838}, "feature": {"sight_features": "", "sight_content": ""}}, {"title": "莲海世界", "address": "新疆维吾尔自治区巴音郭楞蒙古自治州博湖县阿洪口", "image": "", "rank": 4, "time": 2, "location": {"lat": 41.774807473316216, "lng": 86.53308010835202}, "feature": {"sight_features": "特色1 观野生芦苇赏万亩莲田", "sight_content": "‍\n博湖县因境内有全国最大的内陆淡水湖—博斯腾湖而得名。博斯腾湖景区成为新疆第八家国家5A级旅游区。博斯腾湖历史悠久，文化璀璨，有很多动人的传说，更有独特的民族风情。博斯腾湖自然风光秀丽，湖内有全国最大的野生睡莲群、种类数量众多的候鸟，是适合人们观光旅游休闲度假宜居宜业的好地方。湖区旅游资源丰富，自然风光秀丽。生命之源的湖水、死亡之海的沙漠、地球之肾的湿地与马背民族的蒙古族特色风情有机融合在一起，成为一道令人叫绝的靓丽风景线。春天临湖观景，如诗如画；夏季登船游湖，飞舟斩浪；金秋荡舟品湖，心旷神怡；冬季千里冰封，湖面如镜。游人可以在蓝天碧水间心无旁骛畅游“西海”，也可以在如画美景中细细品味“西海第一锅”美味野鱼汤。景区四季不同的迷人景色呈现不同的独特韵味。四季有景，四季有情。\n阿洪口是我国最大的野生睡莲群景区，40万亩野生睡莲傍水而生，被誉为博斯腾湖的珍珠项链，五一期间正值阿洪口景区万亩野生睡莲争相出水之际和最佳观赏期。清澈见底的湖水，亭亭玉立的睡莲，在水底沉睡了整个冬天的野生睡莲，在风和浪的摇摆下，“出水现芙蓉”的美妙身姿尤其夺人眼球。乘坐水上“画舫”荡舟湖心，水面上翩翩起舞的莲叶，映红了整个湖面，惹得游客不忍离去，尤其是莲花“出淤泥而不染”的高贵品质，也是许多家长和长辈教育孩子的最佳课堂。因野生睡莲刚出水叶艳枝红，含苞待放，也被寓意为“红红火火”“开门红”，所以每年五一期间游客们都争相前来观看，祈福一年当中家庭、事业“红红火火”“开门大吉”。阿洪口景区迷人的风光和人文文化也被誉为博斯腾湖景区开园“第一景”。是游客每年祈福庇佑必去的风水“第一站”。博斯腾湖是全国“四大苇区”之一，拥有近60万亩野生芦苇，通过人工培育和自然更新，每年五一期间，阿洪口60万亩野生芦苇，刺水而出，长出新芽。一眼望去尽显李白笔下“野火烧不尽，春风吹又生”顽强与诗意。景区青翠浓密的芦苇荡与纵横交错步行栈道共同构成一幅巨大而又神秘的“绿野迷宫”，一旦误入苇湖深处，游客如入“迷魂阵”，大可体验湿地探险之旅，每年吸引不少户外探险者前来挑战。因野生芦苇富含天然的负氧离子的空气，可以帮助人体调节心肺功能，节日期间更有学生、儿童喜爱的“绿野寻踪”寻宝、露营等活动，让您和您的家人，在天然的苇荡迷宫中尽享世外仙踪的乐趣。\n博斯腾湖水域，以鱼肥草茂，野味十足，享誉内外。儿时的五道黑、野生的大草鱼、凶猛的大黑鱼，营养丰富的池沼贡鱼，充满神秘色彩的“西游鱼”、野味十足的“烤野鱼”，在阿洪口景区可谓“应有尽有”。阿洪口景区的野生鱼以独具特色的“野味十足、鲜味十足、辣味十足、麻味十足、香味十足”，不断挑战游客“舌尖上”的味蕾。景区独有传统秘制烤鱼，好吃不贵，均是野味。尤其是野生新鲜鲫鱼，更是妇孺滋补的佳品。游客还可以和家人一起，在烤鱼师傅的指导下亲身体验现场抓鱼和烤鱼活动。也是诸多美食爱好者和吃货的天堂。\n阿洪口景区，也是博斯腾湖最大的湿地公园，因气候湿润，水草丰茂，每年五一期间吸引大批珍奇水鸟，前来筑巢，繁衍生息，为保护和关心好，大自然和我们共同的朋友，景区专门为这些水鸟修建了人工鸟岛。岛上鸟类种目繁多，是水鸟与人和谐共生的水草天堂。清晨鸬鹚与鱼翁泛舟捕鱼，午间白鹭与野鸭争相斗舞，傍晚天鹅成双成对，坠入爱河。天空中鱼鹰盘旋，水面上水鸡成群，芦苇荡翠鸟穿梭，水底水鸭追逐。游客乘坐快艇经过，顿时水面上、芦苇荡百鸟齐鸣，争相飞起、热闹至极。阿洪口景区也是年轻人相约邂逅，情定一生的度假和牵手的“浪漫岛屿”，是整个巴州著名的婚纱摄影“取景点”。这里也被誉为“求爱圣地”。流传着这样一句爱的格言：“爱她就带她来阿洪口鸟岛表白”。\n阿洪口景区，水域宽广，水色连天，视野辽阔，水面交通工具豪华大气，老少皆宜。这里有年轻人喜欢追求刺激，快似“天堂雷霆号”的湖上快艇，顷刻间刺破湖面，纵情驰骋；这里有成年人喜欢寄情山水，极具“中国风”的水上“画舫船”，让您和家人、长辈共同尽情享受江南水乡和轻舟已过万重山诗意和释怀。乘坐快艇和画舫船还可登上景区著名的“莲海阁”，让你登高体验“一览众山小”大气与回肠。登上“莲海阁”最高处，景区迷人景色尽收眼底，也是广大记者和摄影爱好者的向往圣地。隔水望去，阿洪口水天一色、万亩睡莲、千顷芦苇、百里沙漠交相辉映形成的神秘“七彩景观”完美呈现。让您久久不能释怀的烦恼和愁绪，彻底洗去繁华、回归自我。"}}, {"title": "越野星球主题乐园", "address": "博斯腾湖乡", "image": "", "rank": 5, "time": 2, "location": {"lat": 41.90644117823412, "lng": 86.96499317678531}, "feature": {"sight_features": "", "sight_content": ""}}, {"title": "博湖县乌兰乡诚成绿色疏果园", "address": "293县道附近", "image": "", "rank": 6, "time": 2, "location": {"lat": 23.349691868977906, "lng": 113.98580942984759}, "feature": {"sight_features": "", "sight_content": ""}}, {"title": "大河口", "address": "新疆维吾尔自治区博湖县博斯腾湖附近 841400", "image": "", "rank": 7, "time": 1.0, "location": {"lat": 42.075155180575145, "lng": 86.91358270185923}, "feature": {"sight_features": "", "sight_content": ""}}, {"title": "博湖县图书馆", "address": "中华路", "image": "", "rank": 8, "time": 2, "location": {"lat": 37.970712769913675, "lng": 114.74259828862775}, "feature": {"sight_features": "", "sight_content": ""}}, {"title": "苏勒德农家乐", "address": "293县道东50米", "image": "", "rank": 9, "time": 2, "location": {"lat": 23.349691868977906, "lng": 113.98625858260243}, "feature": {"sight_features": "", "sight_content": ""}}, {"title": "博斯腾湖沙漠主题公园滑雪场", "address": "博斯腾湖景区内", "image": "", "rank": 10, "time": null, "location": {"lat": 42.075155180575145, "lng": 86.91358270185923}, "feature": {"sight_features": "", "sight_content": ""}}]}