{"cityName": "博乐", "days": 2, "cityImage": "", "spots": [{"title": "怪石峪风景区", "address": "新疆维吾尔自治区博乐市市东北38公里处", "image": "", "rank": 1, "time": 3.5, "location": {"lat": 44.86000978463866, "lng": 82.05797225459081}, "feature": {"sight_features": "", "sight_content": ""}}, {"title": "阿拉山口口岸", "address": "位于博乐市东北角", "image": "", "rank": 2, "time": 2, "location": {"lat": 44.86000978463866, "lng": 82.05797225459081}, "feature": {"sight_features": "", "sight_content": ""}}, {"title": "博尔塔拉蒙古自治州图书馆", "address": "青得里大街13号", "image": "", "rank": 3, "time": 4.5, "location": {"lat": 44.90990379377197, "lng": 82.0844025968954}, "feature": {"sight_features": "", "sight_content": ""}}, {"title": "博乐市图书馆", "address": "青得里大街96号", "image": "", "rank": 4, "time": 1.5, "location": {"lat": 44.91090716710511, "lng": 82.08147657734929}, "feature": {"sight_features": "", "sight_content": ""}}, {"title": "河野田园休闲农庄", "address": "道尔套特村", "image": "", "rank": 5, "time": 2, "location": {"lat": 44.699509745943466, "lng": 82.31855308864402}, "feature": {"sight_features": "", "sight_content": ""}}, {"title": "阿克烧房农家乐", "address": "304省道", "image": "", "rank": 6, "time": 2, "location": {"lat": 38.007414201086036, "lng": 114.44892402313616}, "feature": {"sight_features": "", "sight_content": ""}}, {"title": "博尔塔拉蒙古自治州博物馆", "address": "205省道", "image": "", "rank": 7, "time": 4.5, "location": {"lat": 40.38230240600069, "lng": 116.84666042934258}, "feature": {"sight_features": "", "sight_content": ""}}, {"title": "鑫长城滑雪场", "address": "赛马场东侧800米", "image": "", "rank": 8, "time": 2, "location": {"lat": 22.330367665176887, "lng": 108.31168933336558}, "feature": {"sight_features": "", "sight_content": ""}}, {"title": "古代岩画", "address": "青得里大街与文化路交叉口", "image": "", "rank": 9, "time": 2, "location": {"lat": 44.91474580550866, "lng": 82.06413463793503}, "feature": {"sight_features": "", "sight_content": ""}}, {"title": "勇敢者转盘", "address": "伊犁河南岸公园", "image": "", "rank": 10, "time": 2, "location": {"lat": 22.787169765196488, "lng": 113.28377354204387}, "feature": {"sight_features": "", "sight_content": ""}}, {"title": "新疆博乐市书画院", "address": "青得里大街96号", "image": "", "rank": 11, "time": 2, "location": {"lat": 44.91090716710511, "lng": 82.08147657734929}, "feature": {"sight_features": "", "sight_content": ""}}, {"title": "拾艺斋画廊", "address": "北京路261号附近", "image": "", "rank": 12, "time": 2, "location": {"lat": 24.5128591754779, "lng": 117.66283771330099}, "feature": {"sight_features": "", "sight_content": ""}}, {"title": "锦绣庄园农家乐", "address": "园陵路2号", "image": "", "rank": 13, "time": 2, "location": {"lat": 33.85144914894097, "lng": 120.1440639017986}, "feature": {"sight_features": "", "sight_content": ""}}, {"title": "何氏孵化场", "address": "达勒特镇", "image": "", "rank": 14, "time": 2, "location": {"lat": 44.81752828854173, "lng": 82.26851112736577}, "feature": {"sight_features": "", "sight_content": ""}}, {"title": "赛里木湖 Sailimu Lake", "address": "新疆维吾尔自治区博乐市境内", "image": "", "rank": 16, "time": 2, "location": {"lat": 44.86000978463866, "lng": 82.05797225459081}, "feature": {"sight_features": "", "sight_content": ""}}, {"title": "博乐红星商业街", "address": "新疆维吾尔自治区博乐市红星路", "image": "", "rank": 17, "time": 4.5, "location": {"lat": 44.89480014482648, "lng": 82.07678901402525}, "feature": {"sight_features": "", "sight_content": ""}}, {"title": "呼和浩特呼尔村", "address": "博尔塔拉蒙古自治州-博乐市", "image": "", "rank": 18, "time": 2.5, "location": {"lat": 44.86000978463866, "lng": 82.05797225459081}, "feature": {"sight_features": "", "sight_content": ""}}, {"title": "艾比湖自然保护区", "address": "新疆维吾尔自治区博尔塔拉蒙古自治州博乐艾比湖自然保护区", "image": "", "rank": 19, "time": 2, "location": {"lat": 45.03682700463018, "lng": 82.59407746958226}, "feature": {"sight_features": "", "sight_content": ""}}, {"title": "夏尔西里", "address": "新疆维吾尔自治区博尔塔拉蒙古自治州境内的阿拉套山北麓", "image": "", "rank": 20, "time": 2, "location": {"lat": 44.9121964134647, "lng": 82.07291475827434}, "feature": {"sight_features": "", "sight_content": ""}}, {"title": "赛里木湖", "address": "新疆维吾尔自治区博尔塔拉蒙古自治州博乐市", "image": "", "rank": 21, "time": 4.5, "location": {"lat": 44.86000978463866, "lng": 82.05797225459081}, "feature": {"sight_features": "特色1 每年六月左右，湖边各色野花开放，是摄影的绝佳胜地。 特色2 雪山、草原和蔚蓝的湖水构成绝美画卷，是新疆最著名美景之一。", "sight_content": "赛里木湖,古称“天池”、“西方净海”，蒙古语称“赛里木淖尔”,意为“山脊梁上的湖”。位于新疆维吾尔自治区博尔塔拉蒙古自治州境内,国道312线从湖东侧通过。为一地堑式山间断陷盆地，湖面海拔2073米,景区面积1301.4平方千米,湖面面积458平方千米,是一个融高山、冰川、森林、草原、碧湖和珍禽为一体，集雄、奇、幽、秀、旷诸美于一身的新疆境内面积最大的高山内陆湖泊，以湖泊、湿地、草原、森林、雪山自然生态景观为主要特色，以观光游览、生态休闲、古丝绸之路北道历史文化探源和蒙哈等少数民族风情体验为主要活动内容的高山湖泊、草原型国家级风景名胜区，享有“西来之异境，世外之灵壤”的美誉。\n赛里木湖景区规划面积1301.4平方公里，是新疆海拔最高、面积最大的高山湖泊，以湖泊、湿地、草原、森林、雪山自然生态景观为主要特色，以观光游览、生态休闲、古丝绸之路北道历史文化探源和蒙哈等少数民族风情体验为主要活动内容的高山湖泊、草原型国家级风景名胜区，享有“西来之异境，世外之灵壤”的美誉。\n赛里木湖是国家级风景名胜区，国家湿地公园，4a级旅游景区。"}}]}