{"cityName": "勃利", "days": 2, "cityImage": "", "spots": [{"title": "扈家果园", "address": "桃山水库专用路2道弯(水库大坝靠山处再走1.5公里)", "image": "", "rank": 1, "time": 2, "location": {"lat": 43.87127652427073, "lng": 125.38046755374909}, "feature": {"sight_features": "", "sight_content": ""}}, {"title": "勃利县图书馆", "address": "长安街103号", "image": "", "rank": 2, "time": 2, "location": {"lat": 24.960878541243172, "lng": 118.38947254855458}, "feature": {"sight_features": "", "sight_content": ""}}, {"title": "青松岭", "address": "黑龙江省勃利县长白山系完达山 154604", "image": "", "rank": 3, "time": 0.4, "location": {"lat": 45.76096431316663, "lng": 130.59853255314385}, "feature": {"sight_features": "", "sight_content": ""}}, {"title": "硅化木群", "address": "黑龙江省勃利县县东南 154604", "image": "", "rank": 4, "time": 2, "location": {"lat": 45.76096431316663, "lng": 130.59853255314385}, "feature": {"sight_features": "", "sight_content": ""}}, {"title": "新发古城遗址", "address": "黑龙江省勃利县县西北 154604", "image": "", "rank": 5, "time": 2, "location": {"lat": 45.76096431316663, "lng": 129.20971630248886}, "feature": {"sight_features": "", "sight_content": ""}}, {"title": "极灵寺", "address": "七台河市勃利县", "image": "", "rank": 6, "time": 2, "location": {"lat": 45.76096431316663, "lng": 130.59853255314385}, "feature": {"sight_features": "", "sight_content": ""}}, {"title": "亿达广场", "address": "七台河市勃利县西河沿路122号", "image": "", "rank": 7, "time": 2, "location": {"lat": 45.75900398903528, "lng": 130.5733779059123}, "feature": {"sight_features": "", "sight_content": ""}}, {"title": "石龙山", "address": "黑龙江省勃利县完达山 154604", "image": "", "rank": 8, "time": 2, "location": {"lat": 45.76096431316663, "lng": 130.59853255314385}, "feature": {"sight_features": "", "sight_content": ""}}, {"title": "勃利密塞", "address": "黑龙江省勃利县县西北 154604", "image": "", "rank": 9, "time": 2.0, "location": {"lat": 45.76096431316663, "lng": 129.20971630248886}, "feature": {"sight_features": "", "sight_content": ""}}, {"title": "勃利森林公园", "address": "黑龙江省勃利县县西南 154604", "image": "", "rank": 10, "time": 4.0, "location": {"lat": 44.78031020055154, "lng": 130.59853256281517}, "feature": {"sight_features": "", "sight_content": ""}}, {"title": "东北亚美食广场", "address": "七台河市勃利县康华街东北亚商业广场3层", "image": "", "rank": 11, "time": 2, "location": {"lat": 45.76095573138844, "lng": 130.58561456418133}, "feature": {"sight_features": "", "sight_content": ""}}, {"title": "南山公园", "address": "学府路东100米", "image": "", "rank": 12, "time": 2.5, "location": {"lat": 40.17263779928602, "lng": 116.81238419023583}, "feature": {"sight_features": "", "sight_content": ""}}, {"title": "家乐儿童乐园", "address": "康华街105号(海富商厦三楼)", "image": "", "rank": 13, "time": 2, "location": {"lat": 45.76068198779977, "lng": 130.58412372557729}, "feature": {"sight_features": "", "sight_content": ""}}, {"title": "广场碰碰车乐园", "address": "黑龙江省七台河市勃利县春天花园1楼门市东数第七个", "image": "", "rank": 14, "time": 2, "location": {"lat": 45.76096431316663, "lng": 130.59853255314385}, "feature": {"sight_features": "", "sight_content": ""}}, {"title": "大友美术", "address": "康华街236附近", "image": "", "rank": 15, "time": 2, "location": {"lat": 45.76049205231943, "lng": 130.5886034826301}, "feature": {"sight_features": "", "sight_content": ""}}, {"title": "青山乡奋斗采摘园", "address": "148县道东150米", "image": "", "rank": 16, "time": 2, "location": {"lat": 45.09469139717655, "lng": 126.13710245984632}, "feature": {"sight_features": "", "sight_content": ""}}]}