{"cityName": "博罗", "days": 2, "cityImage": "", "spots": [{"title": "罗浮山", "address": "惠州市博罗县长宁镇罗浮山风景名胜区", "image": "", "rank": 1, "time": 3.0, "location": {"lat": 23.269602087375393, "lng": 114.04338029565724}, "feature": {"sight_features": "特色1 广东名山，爬山、漂流的好去处 特色2 苏轼曾在此留下“日啖荔枝三百颗，不辞长做岭南人”的名句。 特色3 道教尊为天下第七大洞天、三十四福地，被佛教称为罗浮第一禅林", "sight_content": "罗浮山，雄峙于岭南中南部，坐临南海大亚湾，毗邻惠州西湖。距离博罗县城25公里，西距广州60公里，南距东莞40公里、深圳90公里，东距惠州45公里，广惠高速公路、广汕公路、广梅公路从山脚下穿过，广惠高速公路设有罗浮山出口，交通极其便利。汉代司马迁曰：“罗浮汉佐命南岳，天下十山之一”。被道教尊为天下第七大洞天、三十四福地。它与广东南海县境内的西樵山结为姐妹山，故又有东樵山之称。\n罗浮山方圆214多平方公里，共有大小山峰432座，飞瀑名泉多达980多处，洞天奇景18处，石室幽岩72个，以山势雄伟壮观，植被繁茂常绿，林木高大森古，神仙洞府超凡脱俗的特色吸引古今无数的名仙名人和游客。历代诗人陆贾、谢灵运、李白、杜甫、李贺、刘禹锡、韩愈、柳宗元、苏轼、杨万里、汤显祖、屈大钧等都留下经典的文赋和诗咏。罗浮山的“师雄梦梅”、“东坡啖荔”、“安期天饮”、“稚川炼丹”、“仙凡路别”、“花手游会”、“洞天药市”、“天龙王梦”等不少的传说，神奇幽胜，风流华夏。\n自古罗浮为百粤群山之祖国各地，为天下蓬莱之境，这块难得的“风水宝地”可以接待来客休闲度假、健体养身、消灾纳福、商务洽谈、赏景会友，可以说这里是一个难得的洞天福地。"}}, {"title": "五矿哈施塔特奥地利小镇", "address": "惠州市博罗县体育大道东五矿小镇", "image": "", "rank": 2, "time": 2.0, "location": {"lat": 23.181562162351387, "lng": 114.32029218383441}, "feature": {"sight_features": "特色1 不出国门仿若置身于奥地利童话当中", "sight_content": "五矿.哈施塔特名人堂坐落在美丽的奥地利风情小镇，是深惠莞地区一家实体蜡像体验馆。其由具备高水平的东莞市艺霸蜡像制作团队精心打造的名人艺术殿堂！旨在打造国内美丽刺激炫酷互动体验室内冰雪乐园，以欧洲风情元素为故事主线，通过在国际上经常获奖的冰雕大师匠心打造，展现出精彩纷呈的冰上娱乐互动项目和巧夺天工的冰雕艺术品，让游客朋友邂逅浪漫的冰雪世界，感受中国美的奥地利小镇冰雪王国！\n\n\n五矿哈施塔特冰雪王国包含十大主题娱乐互动体验项目，包括：VR雪山吊桥、旋转大滑道、冰上快乐滑板、冰上碰碰车、冰上漂移车、滑雪场、嬉雪乐园、欧洲主题城堡、经典童话故事人物、神秘恐龙馆。具备超强的视觉体验感和互动参与感，让游客朋友充分体验冰雪世界的魅力，追寻甜蜜的冰雪童话故事，感受视觉、听觉、触觉融于一体的全景冲击。\n\n\n名人堂个个栩栩如生、活灵活现，真假难辨。他们分别来自政治、演艺娱乐、体育及高科技领域，设计精美，内容丰富！有世界伟大领袖毛主席、周恩来，有改革开放领路人邓小平，有叱咤风云奥巴马、普京，有国际巨星成龙、刘德华、范冰冰、施瓦辛格、加勒比海盗，有性感女神玛丽莲.梦露、奥黛丽.赫本，有体坛风云人物乔丹、梅西，有众人喜欢的孙悟空、白雪公主、蜘蛛侠、超人、熊大、熊二、光头强，还有风趣搞笑会聊天的机器人，逗您乐不停！"}}, {"title": "雷公峡漂流", "address": "惠州市博罗县泰美镇象头山林场内", "image": "", "rank": 3, "time": 2, "location": {"lat": 23.33706833766843, "lng": 114.47174882297114}, "feature": {"sight_features": "特色1 漂流河道落差近100米，河道大小落差十多处 特色2 景区内群峰叠翠、云缭雾绕、绝谷幽岩，漂流河道途经20多个自然景观 特色3 全程4.5公里，约漂流1.5小时", "sight_content": "雷公峡漂流景区位于博罗泰美镇—著名的惠州市象头森林公园内，全力打造集休闲、旅游、度假、娱乐、观光于一体的大型综合生态旅游区（惠州雷公峡漂流景区）。景区交通便利，全程高速连接广州、东莞、惠州、深圳、河源、汕头等市。\n象头山雷公峡漂流全程长约4.5公里，漂流时间约2小时，由专业的建筑公司设计、施工的漂流河道落差近100米，河道大小落差十多处；峡谷入口有一座容量 达300万立方的中小型水库。河道水质好，水量充足时而奔腾直下、激流澎湃，时而回旋幽谷、心旷神怡。漂流河道途经20多个自然景观。沿途十里竹廊扶风相掩，高含量的负离子幽谷空气清新，清澈的溪水散发着自然灵气，让人置身于仙境一般，将让您领略“激情穿越、仙境畅游”的独特神韵。\n旅游区内配套设施齐全，设有激情漂流、农家中餐、豪华客房、野营、无公害菜园、优质果林、山谷攀爬、拓展培训基地、野狼野战基地、烧烤场、游泳池、钓鱼池、特色土特产购物等休闲、娱乐的服务项目。"}}, {"title": "嘉宝田养生温泉", "address": "惠州市博罗县罗浮山风景区", "image": "", "rank": 4, "time": 2, "location": {"lat": 23.278195378073672, "lng": 114.070970493556}, "feature": {"sight_features": "特色1 含多种对人体有益的微量元素", "sight_content": "“嘉宝田养生温泉”于五星级度假酒店和高尔夫球场环抱之中，占地5万余平方米，温泉池区拥有特色休闲区、世外桃源区、国色天香区、华夏文明区、娱乐动感区、时尚风情区、养生保健区、美容美颜区、异国风情区九大主题，60余个形状、风格、功能各异的温泉泡池。\n嘉宝田养生温泉是罗浮山地区首次发现并查明的地热资源，宝田养生温泉泉井共2处，泉眼井深300多米，出水温度50余度；经中国广州分析测试中心检测“宝田养生温泉”水质富含：氟、偏硅酸、氡、锂、铁、锶、溴等多种有益于人体健康的矿物质和微量元素。"}}, {"title": "那里花开主题公园", "address": "惠州市博罗县罗浮山下浪村", "image": "", "rank": 5, "time": 2.5, "location": {"lat": 23.298999699394425, "lng": 114.02607598869193}, "feature": {"sight_features": "特色1 远望罗浮飞云顶，近赏蜂飞碟绕花 特色2 吃喝玩一体，畅玩一天 特色3 真正让你沉浸在五彩缤纷的花花世界中", "sight_content": "那里花开主题公园位于惠州市博罗县罗浮山下浪村，罗浮山最高峰是七彩花海的天然屏障。青山绿水与七彩花海相映成趣，颠覆前所未有的视觉效果。历经四年精心打造为集花卉观赏、恐龙游玩、美食、科普、有机蔬菜采摘、休闲娱乐等为一体的多功能生态主题公园。向日葵、鸡冠花、百日草、波斯菊、醉蝶花、虞美人、美人蕉、美女樱、莲花、千日红、孔雀草、堆心菊、玫瑰、月季等根据不同的季节次第盛开，春节期间，开得最美的是樱花和虞美人。\n这里的樱花有关山、染井吉野、普贤象、日本早樱、雨晴垂枝、郁金等6个品种，其中的郁金更是罕见的绿色花瓣樱花。七彩花海配搭欧陆式风格建筑，使这里成为文艺女青年们的拍照胜地。\n远望罗浮飞云顶，近赏蜂飞碟绕花！以罗浮山最高峰作花海屏障，颠覆前所未有的视觉效果！在这里，不仅可以悠然徜徉在目前珠三角最大的虞美人观赏地、广东面积最大的醉蝶花之中，还可以静静欣赏首次引进广东娇小迷人的高雪轮！此外，在花海中还可以观赏到纯真烂漫的格桑花、浪漫温馨的“樱花”、相约爱情的“繁星花”、高贵妖娆的“一串红”金鱼草等等花卉，可以真正让人沉浸在五彩缤纷的花花世界中！\n穿过花丛，还可以登高临下，缤纷花海一览无余！背依罗浮山峰，面朝七彩花海，利用园区地势高处建设的观景台，登临其上，放眼眺望，小桥流水，繁花纷呈，园区的美景尽收眼底，怎能让人不叫一个痛快！\n\n\n景区内新增的恐龙园，是广东地区首家史前主题恐龙游乐中心，将数百只恐龙融入当地自然景观，恐龙出没，惊险刺激。未来还将增设深广惠直通车、景区各类型花海季、星空露营节、草坪电音节、竹笋节、斑鱼节等精彩景区活动。"}}, {"title": "汤泉高尔夫俱乐部", "address": "惠州市博罗县罗阳镇赤竹坑管理区", "image": "", "rank": 6, "time": 2, "location": {"lat": 23.167470560074584, "lng": 114.29214239011162}, "feature": {"sight_features": "", "sight_content": ""}}, {"title": "惠州怡情谷温泉度假村", "address": "惠州市博罗县博罗湖镇响水下洞文化村", "image": "", "rank": 7, "time": 5.0, "location": {"lat": 23.537072369159098, "lng": 114.54116879209779}, "feature": {"sight_features": "特色1 冰川时期形成的冰川遗存原始奇观 特色2 别出心裁的中国风建筑设计 特色3 颇有“采菊东篱下，悠然见南山”的境界。", "sight_content": "惠州怡情谷温泉由广东博罗龙花洞文化度假村有限公司投资兴建的怡情谷温泉大酒店（响水漂流）旅游度假区，是一所按国际五星级标准设计与建造的集旅游度假、商务会议、餐饮住宿、保健养生、休闲观光、温泉疗养、中外贵宾接待为一体的特色大型温泉度假村。\n通过多年的不懈努力，在新建旅游区域内，配套形成系列生态休闲度假旅游景区集群、村落；形成休闲、度假、观光等旅游链，高标准、高定位、高品质、高要求地打造出原生态休闲度假景区旅游新品牌，创建一个具备生态旅游、温泉酒店、别墅度假、娱乐会所、户外探险、激情漂流、休闲观光、保健养生、餐饮美食为一体的度假旅游胜地。\n\n\n这里没有大城市的浊气风尘和喧嚣、也没有人们匆匆追赶的脚步；这里只有甘甜的山水、古朴详和的山村氛围以及清新无比的空气，让远道而来的客人能尽享这强身健体的天然大氧吧（负离子含量高达三万多/立方厘米）。是人们亲近大自然的理想之地。"}}, {"title": "响水河漂流", "address": "惠州市博罗县湖镇镇响水区下洞良村", "image": "", "rank": 8, "time": 2, "location": {"lat": 23.27287580431212, "lng": 114.16110428551502}, "feature": {"sight_features": "特色1 河水源于罗浮山脉的天然漂流河道 特色2 全程河道变化多端，2-3米落差有十多处，顺流而下直冲龙潭，一声嚎吼，激流飞舟，刺激到飞起，过程十分丰富多彩 特色3 四周竹木青翠碧绿，河道两岸树木参天，两边悬崖惟妙惟肖，峡谷遮天，怪石嶙峋，犹如鬼斧神工之作。", "sight_content": "响水河是天然漂流河道，河水源于罗浮山脉，响水河漂流全程河道由距今3百多万年前、第四世纪大冰期形成的冰川遗存原始奇观——冰臼群构成，奥妙又神奇。四周竹木青翠碧绿，河道两岸树木参天，两边悬崖惟妙惟肖，峡谷遮天，怪石嶙峋，犹如鬼斧神工之作。\n响水河漂流河段3.5公里，总落差近50米。全程河道变化多端，2-3米落差有十多处，顺流而下直冲龙潭，一声嚎吼，激流飞舟，刺激到飞起，过程十分丰富多彩。"}}, {"title": "平安峡漂流", "address": "惠州市博罗县柏塘镇平安林场平安山生态旅游区", "image": "", "rank": 9, "time": 2, "location": {"lat": 23.31882279562679, "lng": 114.33366980967104}, "feature": {"sight_features": "特色1 到处可以品尝到花的香味 特色2 森林茂密，溪流潺潺，瀑布成群。", "sight_content": "“岭南秘境，世外桃源。”平安山旅游风景区位于象头山国家级自然保护区核心区，按国家AAAAA级风景区规划建设，面积约20平方公里，最高峰海拔达1000米。景区内森林密布，野生动物种类繁多，形态各异的瀑布、惊险刺激的隧道漂流、万亩林海、千年古寺等形成独有的山水画卷，景区有珠三角最大的瀑林大峡谷，峡谷内有岭南至美的原始森林悬空栈道、大峡谷瀑布群等，景区住宿、餐饮、游乐休闲设施齐全，是集旅游观光、森林度假、文化养生和休闲为一体的生态旅游度假区。\n平安峡漂流：最惊险刺激的峡谷漂流，华南地区唯一隧道漂流，纯天然的山泉水漂流，被誉为“亚洲第一漂”。全程3公里，总落差255米，挑战“勇士漂”后，还有“逍遥漂”，全方位地体验漂流的乐趣。\n水上乐园：超高大型人造浪池带来浪花涌动的快感，感受投身大海的乐趣。设备齐全的儿童游乐区，别具一格的儿童漂流滑道，构成亲子戏水的绝佳场所。天然的平安山泉水，为您创造健康的夏日狂欢体验。"}}, {"title": "象头山", "address": "惠州市博罗县中南部的小金河旅游资源开发区", "image": "", "rank": 10, "time": 2.5, "location": {"lat": 23.178805592432578, "lng": 114.29657265142765}, "feature": {"sight_features": "", "sight_content": ""}}, {"title": "长津冰雪大世界", "address": "惠州市博罗县长宁镇长福路古坭塘", "image": "", "rank": 11, "time": 2, "location": {"lat": 23.20646981484928, "lng": 114.03045513822109}, "feature": {"sight_features": "", "sight_content": "长津冰雪大世界倾力打造的冰雪梦幻主题王国，让你一年四季都能体验到冰雪旅游的乐趣。来尝试一场真正的奇幻之旅。\n疯狂冰上过山车，劲爽与刺激的体验；极地滑雪道，体验滑雪带来的快感；雪城堡滑梯，速度与激情的碰撞；还有更多精美冰雕等你来发掘。\n馆内温度比较低，建议您备好雪地靴、羽绒服等御寒保暖衣物哦，愿您在这有一场奇妙的欢乐之旅。"}}, {"title": "华首寺", "address": "惠州市博罗县罗浮山的西南面", "image": "", "rank": 12, "time": 1.5, "location": {"lat": 23.298999699394425, "lng": 114.02607598869193}, "feature": {"sight_features": "", "sight_content": ""}}, {"title": "秋枫寨旅游区", "address": "惠州市博罗县公庄镇官山秋枫寨", "image": "", "rank": 13, "time": 2, "location": {"lat": 23.488518707273535, "lng": 114.330991897167}, "feature": {"sight_features": "", "sight_content": "秋枫寨旅游度假区位于惠州市博罗且县公庄镇西南部官山，占地面积近万亩，四面环山，山里古木参天，林中到得是神工鬼斧般的山石，纵横清澈的溪流，银链似的飞瀑，山顶还有美丽的天池，是集生态旅游、休闲度假、健身康体、山地与森林景观欣赏等多种功能于一体的大型综合旅游度假区。\n整个景区原生态植被景观保存良好，生物资源丰富，空气清新，负氧离子含量极高，乃是层峦叠嶂、林木葱绿的天然氧吧。景区内既有迷人的自然生态山水，又有豪华舒适的现代建筑；既有优越的山地森林资源，又有迤逦的湖泊水域风光；游客既可泡冷泉品香茗，享受大观园乡村美食、烧拷，也可体验登山探险、凌空滑索的惊险刺激；既可在山水湖光中荡舟垂钓，也可在丛林间亲子滑水。\n\n\n秋枫寨景区自驾游或跟团出游皆十分合适，且在四季有不同风情。夏季游客可在万亩原生态森林中避暑，入秋时可观赏满山红叶。"}}, {"title": "飞云顶", "address": "惠州市博罗县长宁镇罗浮山的主峰", "image": "", "rank": 14, "time": 4.5, "location": {"lat": 23.298999699394425, "lng": 114.02607598869193}, "feature": {"sight_features": "", "sight_content": ""}}, {"title": "拨云寺", "address": "惠州市博罗县长宁镇223县道罗浮大道罗浮山上", "image": "", "rank": 15, "time": 4.5, "location": {"lat": 23.22648714576019, "lng": 114.0589132627338}, "feature": {"sight_features": "", "sight_content": ""}}, {"title": "平安山生态旅游风景区", "address": "惠州市博罗县柏塘镇", "image": "", "rank": 16, "time": null, "location": {"lat": 23.37305366006956, "lng": 114.32053689393321}, "feature": {"sight_features": "", "sight_content": "平安山位于象头山国家级自然保护区，景区面积约20平方公里，区域交通便利，森林和野生动物种类繁多。景区按国家AAAAA级风景区规划建设，最高峰海拔达1000米，年平均气温在22.5度。景区有珠三角最大的瀑林大峡谷、岭南至美的原始森林悬空栈道、大峡谷瀑布群、幽美的水帘洞等。景区住宿、餐饮、游乐休闲设施齐全，是集旅游观光、森林度假、文化养生和休闲为一体的生态旅游度假区。素有“岭南秘境，世外桃源”之美称。\n\n\n平安山大峡谷是珠三角地区最大的瀑林大峡谷。平安山大峡谷内山涧幽深，溪流蜿蜒，悬崖逼水，形成腾龙飞瀑、平安峡瀑布、天龙瀑布等几十级瀑布，总落差达333米，形成了天然的大峡谷瀑布群。登山栈道从山脚至山顶，沿溪流蜿蜒而上修建，全长近10公里，共2000级阶梯，是广东省内至长原生态尽显的步行栈道，且大部分栈道是悬空栈道，适合远眺观景、驻足拍照、休闲锻炼、挑战自我。\n\n\n元音古寺始建于唐宋年间，几经兴衰，2003年开始全面修复，玉佛殿、弥勒殿、观音殿等殿宇，形成广东省规模较大的佛寺及仿唐建筑群落。古寺中的释迦佛像是华南地区最大的玉佛像。"}}, {"title": "广东航天农业科技生态园", "address": "惠州市博罗县湖镇镇下村农场（航天育种示范基地）", "image": "", "rank": 17, "time": 2, "location": {"lat": 23.242484999520986, "lng": 114.1760343305945}, "feature": {"sight_features": "", "sight_content": "罗浮山航天育种基地是集农业科研、科普教育、亲子拓展、生态旅游观光、休闲度假为一体的国家级综合性现代农业示范园区，示范场荣誉：全国首个县级航天农业试验示范基地、“国家植物航天育种工程技术研究中心”博罗成果转化与示范基地、全国青少年农业科普示范基地、\n全国休闲农业与乡村旅游示范点、国家3A旅游景区。\n目前，全场现有土地3650亩，其中水果基地1100亩，鱼塘800亩，水田300亩，其它农作物与道路、河流1450亩。整个园区地势高低起伏，鱼塘、水田零星分布其中，一条东西走向的河流从园区北部穿过，荔枝、龙眼、航天果蔬以及其它农作物绵延而生。\n基地北区生产区的十大示范园：智能温室“农科奇观” 园、航天品种示范园、特种蔬菜示范园、有机蔬菜示范园、优质水稻示范园、樱桃番茄采摘园、经济山茶资源圃、玫瑰·月季园、鱼塘垂钓园、珍禽养殖示范园。其中智能温室“农科奇观”园是一个集科研、科普和观光于一体的\n占地面积近5000 m2的智能玻璃温室，温室内主要有水培蔬菜展示、空中花园、食虫植物、沙漠植物、水生植物、奇花植物、观赏小鸟、蝴蝶标本、罗浮山名贵中草药、特色瓜果、植物迷宫等多个功能区，这些功能区由一条流动的水系和假山、壁画等小品景观串联在一起，\n形成了一个令人耳目一新、流连忘返的丰富整体景观。"}}, {"title": "古石龙休闲度假农场", "address": "惠州市博罗县观音阁彭村", "image": "", "rank": 18, "time": 2, "location": {"lat": 23.403126591117548, "lng": 114.60161285843607}, "feature": {"sight_features": "", "sight_content": ""}}, {"title": "万嘉欢水上乐园", "address": "惠州市博罗县博罗大道东858号", "image": "", "rank": 19, "time": 2, "location": {"lat": 23.19077543241593, "lng": 114.32738104228942}, "feature": {"sight_features": "", "sight_content": ""}}, {"title": "四方山", "address": "惠州市博罗县长宁镇", "image": "", "rank": 20, "time": 3.5, "location": {"lat": 23.332897641200617, "lng": 114.04275027537618}, "feature": {"sight_features": "", "sight_content": ""}}, {"title": "罗浮山真枪实弹射击俱乐部", "address": "惠州市博罗县长宁镇罗浮山5A名胜风景区停车场斜对面", "image": "", "rank": 21, "time": 2, "location": {"lat": 23.298999699394425, "lng": 114.02607598869193}, "feature": {"sight_features": "特色1 可锻练各方面的心理素质", "sight_content": "罗浮山真枪实弹射击俱乐部，位于中国十大道教名山同时被誉为“岭南第一山”的罗浮山风景区的大门斜对面。\n射击俱乐部（原为罗浮山射击场）于1987年至今已有27年的历史，其源于广东人民抗日游击队东江纵队当年在罗浮山带领群众保家卫国的精神而创立，弘扬全民族抗战的坚强意志\n射击俱乐部项目有真枪实弹射击、户外彩弹、飞碟训练场等组成，射击区占地面积3600平方米共四层，第一层为接待、休息区，第三、四层为靶场射击区，同时还提供专属的会员服务区，配套方面严格按照国家\n要求进行安全保护设置。\n俱乐部使用5.6口径铅芯子弹，配置有奥林匹亚98手枪、建卫-8步枪、建卫-10半自动步枪，及德国、俄罗斯等国家的进口名枪，客人可根据需要自行选择，并升级挑战。\n射击现今做为一种运动，它锻练人的各方面的心理素质，如平衡力、集中注意力、协调、心理稳定和时间感觉等素质。\n对于不同的人群有其不同的体验与锻练，做为一个成功的男士所具备的耐力、定力、目标感可以让您在这亲身体验到，同时可达到减轻压力的效果；对于青少年其在射击中更好的认识自身潜能，增强自信心和坚强的意志力；对于企业通过组织团队比赛等活动，建立团队的凝聚力，发挥团队精神、互补互助让企业的参与者均可感受到团队协作的强大动力。\n射击俱乐部配备专业教练一对一的射击指导，让每一位光临俱乐部的人员感受真枪实弹射击，收获非一般成功体验。"}}, {"title": "博罗空中田园", "address": "惠州市博罗县长宁镇松树岗村", "image": "", "rank": 22, "time": 2.0, "location": {"lat": 23.21908607783588, "lng": 114.02219861824761}, "feature": {"sight_features": "", "sight_content": "广东空中田园生机立体农业园是一家集科研，生产观光、旅游、科普、生态为一体的新型农业观光园（台资）坐落在博罗县长宁镇国家5A级景区罗浮山脚下，环境优美，空气清新！园区运用先进的种植技术及理念，全程安全无害有机种植模式将蔬果种植提升到一个新层次。\n空中田园主要在推广一种生机理念，也就是在整个种植的过程当中完全不使用农药、激素、化肥、转基因工程技术、也要做到没有抗生素残留 、没有重金属污染。园区主要分成十四大区域，包括种植体验区、亲子互动区、七彩蝴蝶谷（在施工中）、网棚生机蔬果立体种植区、露天生机蔬果立体种植区、网棚平面叶菜种植区、温网棚生机蔬果育苗区、CNT土壤良种植展示区、手工DIY区、珍奇动物园、3D彩绘区、游乐场等。"}}, {"title": "响水河生态休闲乐园", "address": "惠州市博罗县湖镇镇响水下洞良村怡情谷温泉附近", "image": "", "rank": 23, "time": 2, "location": {"lat": 23.27287580431212, "lng": 114.16110428551502}, "feature": {"sight_features": "", "sight_content": ""}}, {"title": "五矿冰雪王国", "address": "惠州市博罗县体育大道东五矿哈施塔特景区内", "image": "", "rank": 24, "time": 2, "location": {"lat": 23.181562162351387, "lng": 114.32029218383441}, "feature": {"sight_features": "", "sight_content": ""}}, {"title": "观背村", "address": "惠州市博罗县罗阳镇中部", "image": "", "rank": 25, "time": 2, "location": {"lat": 23.167470560074584, "lng": 114.29214239011162}, "feature": {"sight_features": "", "sight_content": ""}}, {"title": "名人蜡像馆", "address": "惠州博罗县罗阳镇麦田岭，哈斯塔特景区里面", "image": "", "rank": 26, "time": 1.5, "location": {"lat": 23.18491200044013, "lng": 114.33755259240607}, "feature": {"sight_features": "", "sight_content": ""}}, {"title": "莱茵河原生态农场", "address": "惠州市博罗县公庄镇黄陂下坝尾石咸头村", "image": "", "rank": 27, "time": 2, "location": {"lat": 23.54589205935352, "lng": 114.39659720386202}, "feature": {"sight_features": "", "sight_content": ""}}, {"title": "龙华旭日古村落", "address": "惠州市博罗县龙华镇旭日村", "image": "", "rank": 28, "time": 2, "location": {"lat": 23.19305608996929, "lng": 114.1183758871841}, "feature": {"sight_features": "", "sight_content": ""}}, {"title": "六角坑山庄园", "address": "中国广东省惠州市博罗县长宁镇罗浮山风景区下浪村", "image": "", "rank": 29, "time": 2, "location": {"lat": 23.263388696129287, "lng": 114.07213878748153}, "feature": {"sight_features": "", "sight_content": ""}}, {"title": "罗浮山玉兰生态农场", "address": "广东省惠州市博罗县X223下湖村", "image": "", "rank": 30, "time": 2, "location": {"lat": 23.178805592432578, "lng": 114.29657265142765}, "feature": {"sight_features": "", "sight_content": ""}}, {"title": "怡情果园", "address": "广东省惠州市博罗湖镇响水下洞良村", "image": "", "rank": 31, "time": 2, "location": {"lat": 23.27287580431212, "lng": 114.16110428551502}, "feature": {"sight_features": "", "sight_content": ""}}, {"title": "东方树玫瑰园", "address": "惠州市博罗县湖镇镇茶山村", "image": "", "rank": 32, "time": 1.5, "location": {"lat": 23.221992088461164, "lng": 114.1217129026101}, "feature": {"sight_features": "", "sight_content": "东方树玫瑰园是一个以树状玫瑰为主题，集生态、观光、休闲、度假、养生于一体的综合旅游景区。园区坐落于惠州市罗浮山脉中博罗县湖镇镇茶山村，海拔高度为946米的茶山主峰下，四面大山环绕其间。园区现有超过600多棵优良树状玫瑰品种，同时引进国内外优种玫瑰、月季、蔷薇600多种。并邀请该领域相关专家团队对玫瑰品种进行研发、培植，达到一年四季花期可控，营造出四季开花不断，鸟语花香，小桥流水，回归大自然的美丽景观。\n园区有超过600多棵优良树状玫瑰品种，有号称“玫瑰界爱马仕”的尊贵进口玫瑰皇族，也有国内接地气的优种玫瑰、月季以及传说中价值昂贵的百年树玫瑰。园区还特意打造了造型独特的玫瑰迷宫、玫瑰花墙、玫瑰花廊、玫瑰彩虹等多元化的观赏景致，满足了我们所有对玫瑰的浪漫幻想。\n\n\n除了玫瑰园艺区，景区还规划并开放了休闲氧吧区、婚纱摄影区、亲子乐园区、蔬果种植体验区、动物观赏区、客家饮食文化区以及民宿区。吃喝玩乐配套设施齐全，无论是家庭出游，还是朋友情侣度假都能满足游玩、住宿、用餐一体化需求。秀山环绕，泉水流过，有繁花似锦，更有快乐体验，东方树玫瑰园在茶山村期待您的到来！"}}, {"title": "长荣水上乐园", "address": "惠州市博罗县观音阁镇长荣大观园", "image": "", "rank": 33, "time": 2.0, "location": {"lat": 23.408473578761416, "lng": 114.60523211247016}, "feature": {"sight_features": "", "sight_content": "长荣水上乐园位于长荣大观园内，有水上滑梯、充气城堡等各类水上娱乐设施。除了水上乐园外，长荣大观园内以综合农业休闲为主题，集休闲度假游玩观赏，水上乐园于一体。"}}, {"title": "罗浮山丰谷园农庄", "address": "罗浮山（那里花开路口）漂流售票处北行600米", "image": "", "rank": 34, "time": 2, "location": {"lat": 41.203487242316044, "lng": 125.2797587925171}, "feature": {"sight_features": "", "sight_content": ""}}, {"title": "大江南农场钓鱼农家乐", "address": "福田镇福园公路(即往九龙潭方向右手边)", "image": "", "rank": 35, "time": 2, "location": {"lat": 36.841318373243, "lng": 113.99807489903908}, "feature": {"sight_features": "", "sight_content": ""}}, {"title": "罗浮山天然温泉中心", "address": "罗浮山那里花开附近", "image": "", "rank": 36, "time": 2, "location": {"lat": 26.089626043694548, "lng": 119.32178595011955}, "feature": {"sight_features": "", "sight_content": ""}}, {"title": "培峰葡萄园", "address": "莲湖村", "image": "", "rank": 37, "time": 2, "location": {"lat": 22.9442124832682, "lng": 113.33893079569485}, "feature": {"sight_features": "", "sight_content": ""}}, {"title": "7080农场", "address": "长宁镇福岗村", "image": "", "rank": 38, "time": 2, "location": {"lat": 23.2015071146703, "lng": 114.0489507725635}, "feature": {"sight_features": "", "sight_content": ""}}, {"title": "汤泉半岛", "address": "于惠州汤泉景区汤泉高尔夫球场中央", "image": "", "rank": 39, "time": 2, "location": {"lat": 23.202440296330927, "lng": 114.37685205889464}, "feature": {"sight_features": "", "sight_content": ""}}, {"title": "博罗县万顷粮园生态农场", "address": "泰美镇龙塘村199县道", "image": "", "rank": 40, "time": 2, "location": {"lat": 23.28733053095091, "lng": 114.50977459465382}, "feature": {"sight_features": "", "sight_content": ""}}, {"title": "刘屋村社区图书阅览室", "address": "兴园三路43附近", "image": "", "rank": 41, "time": 2, "location": {"lat": 23.12519402951282, "lng": 113.96927930247145}, "feature": {"sight_features": "", "sight_content": ""}}, {"title": "钽铌矿农场", "address": "泰美镇小罗路西400米(浪形排)", "image": "", "rank": 42, "time": 2, "location": {"lat": 23.31697345878449, "lng": 114.4736947108069}, "feature": {"sight_features": "", "sight_content": ""}}, {"title": "九龙山生态农场", "address": "G25长深高速附近", "image": "", "rank": 43, "time": 2, "location": {"lat": 29.076328932567755, "lng": 119.76598830139807}, "feature": {"sight_features": "", "sight_content": ""}}, {"title": "龙溪温泉", "address": "龙桥大道2228号", "image": "", "rank": 44, "time": 2, "location": {"lat": 23.089919280839425, "lng": 114.11677264151609}, "feature": {"sight_features": "", "sight_content": ""}}, {"title": "青年农副产品专业合作社", "address": "公庄镇三中路7号", "image": "", "rank": 45, "time": 2, "location": {"lat": 23.557626263174935, "lng": 114.39965875013058}, "feature": {"sight_features": "", "sight_content": ""}}, {"title": "多美丽海洋玉髓", "address": "金罗路东50米", "image": "", "rank": 46, "time": 2, "location": {"lat": 30.682708392513483, "lng": 104.04009827675952}, "feature": {"sight_features": "", "sight_content": ""}}, {"title": "杨村高标度假村", "address": "杨村镇亨美管理区高标郊野生态度假园", "image": "", "rank": 47, "time": 2, "location": {"lat": 23.41432194043204, "lng": 114.46538931942047}, "feature": {"sight_features": "", "sight_content": ""}}, {"title": "老孙生态葡萄园", "address": "长宁镇松树岗村", "image": "", "rank": 48, "time": 2, "location": {"lat": 23.21908607783588, "lng": 114.02219861824761}, "feature": {"sight_features": "", "sight_content": ""}}, {"title": "般若温泉", "address": "湖镇响水下洞文化村龙花洞旅游区(惠州怡情谷温泉度假酒店内)", "image": "", "rank": 49, "time": 2, "location": {"lat": 23.311639356407277, "lng": 114.21102405333254}, "feature": {"sight_features": "", "sight_content": ""}}, {"title": "祥丰园农家乐", "address": "罗浮山风景名胜区", "image": "", "rank": 50, "time": 2, "location": {"lat": 23.269602087375393, "lng": 114.04338029565724}, "feature": {"sight_features": "", "sight_content": ""}}, {"title": "葛洪博物馆", "address": "罗浮山朱明洞景区", "image": "", "rank": 51, "time": 1.0, "location": {"lat": 23.264761327367314, "lng": 114.0720384943663}, "feature": {"sight_features": "", "sight_content": ""}}, {"title": "湖镇镇金满园生态农场", "address": "湖镇镇和睦村白土小组显岗水库东北", "image": "", "rank": 52, "time": 2, "location": {"lat": 23.29267255786313, "lng": 114.12489674437042}, "feature": {"sight_features": "", "sight_content": ""}}, {"title": "化州中火嶂", "address": "广东省化州市石湾镇 525100", "image": "", "rank": 53, "time": null, "location": {"lat": 21.666775495227622, "lng": 110.54713886611329}, "feature": {"sight_features": "", "sight_content": ""}}, {"title": "益富山度假村", "address": "广东省惠州市博罗县G35(济广高速公路)", "image": "", "rank": 54, "time": 2, "location": {"lat": 23.171586097118865, "lng": 114.09511076441602}, "feature": {"sight_features": "", "sight_content": ""}}, {"title": "桃园渡假村", "address": "X223石洞雲闲农庄西南侧180米", "image": "", "rank": 55, "time": 1.5, "location": {"lat": 31.909199228140412, "lng": 121.30903625505988}, "feature": {"sight_features": "", "sight_content": ""}}, {"title": "罗浮山曼殊度假村", "address": "广东省惠州市博罗县Y544", "image": "", "rank": 56, "time": 2, "location": {"lat": 23.178805592432578, "lng": 114.29657265142765}, "feature": {"sight_features": "", "sight_content": ""}}, {"title": "惠州万象仙湖度假村", "address": "广东省惠州市博罗县泰美镇赤岭村流下龙水库", "image": "", "rank": 57, "time": 5.0, "location": {"lat": 23.395605841359274, "lng": 114.44309545534912}, "feature": {"sight_features": "", "sight_content": ""}}, {"title": "梁屋高头村影剧场", "address": "广东省惠州市博罗县园洲镇高头东江路记德来百货东350米", "image": "", "rank": 58, "time": 2, "location": {"lat": 23.119989203328476, "lng": 113.94377494377711}, "feature": {"sight_features": "", "sight_content": ""}}, {"title": "宝石影剧院", "address": "宝华路80号", "image": "", "rank": 59, "time": 2, "location": {"lat": 23.12116518828577, "lng": 113.24842699798452}, "feature": {"sight_features": "", "sight_content": ""}}, {"title": "园洲润源农庄", "address": "广东省惠州市博罗县和安大道", "image": "", "rank": 60, "time": 2, "location": {"lat": 23.163141686851308, "lng": 113.97383690654003}, "feature": {"sight_features": "", "sight_content": ""}}]}