{"cityName": "波密", "days": 2, "cityImage": "", "spots": [{"title": "米堆冰川", "address": "林芝市波密县玉普乡米堆村", "image": "", "rank": 1, "time": 3.0, "location": {"lat": 29.644923506206123, "lng": 96.34960513711285}, "feature": {"sight_features": "", "sight_content": ""}}, {"title": "岗乡自然保护区", "address": "林芝市波密县帕隆藏布河畔南恻", "image": "", "rank": 2, "time": 2.5, "location": {"lat": 29.865060090548965, "lng": 95.77390012164511}, "feature": {"sight_features": "", "sight_content": ""}}, {"title": "通麦天险", "address": "林芝市波密县易贡乡通麦", "image": "", "rank": 3, "time": 2.5, "location": {"lat": 30.348155630217857, "lng": 94.90054104499804}, "feature": {"sight_features": "", "sight_content": ""}}, {"title": "米堆村", "address": "林芝市波密县米堆村", "image": "", "rank": 4, "time": 1.5, "location": {"lat": 29.865060090548965, "lng": 95.77390012164511}, "feature": {"sight_features": "", "sight_content": ""}}, {"title": "古乡湖", "address": "林芝市波密县古乡", "image": "", "rank": 5, "time": 2.0, "location": {"lat": 29.9626232046007, "lng": 95.38664902006958}, "feature": {"sight_features": "", "sight_content": ""}}, {"title": "排龙天险", "address": "林芝市巴宜区排龙门村", "image": "", "rank": 6, "time": 2.0, "location": {"lat": 29.64164454637214, "lng": 94.36754427671993}, "feature": {"sight_features": "", "sight_content": ""}}, {"title": "通麦大桥", "address": "林芝市波密县", "image": "", "rank": 7, "time": 0.25, "location": {"lat": 29.865060090548965, "lng": 95.77390012164511}, "feature": {"sight_features": "", "sight_content": ""}}, {"title": "嘎朗湖景区", "address": "林芝市波密县，县城西北方约17公里", "image": "", "rank": 8, "time": 2, "location": {"lat": 29.865060090548965, "lng": 95.77390012164511}, "feature": {"sight_features": "", "sight_content": ""}}, {"title": "易贡国家地质公园", "address": "林芝市波密县与林芝县交界处", "image": "", "rank": 9, "time": 2, "location": {"lat": 29.865060090548965, "lng": 95.77390012164511}, "feature": {"sight_features": "", "sight_content": ""}}, {"title": "波密桃花沟", "address": "林芝市波密县桃花沟风景区", "image": "", "rank": 10, "time": 2.0, "location": {"lat": 29.865060090548965, "lng": 95.77390012164511}, "feature": {"sight_features": "", "sight_content": ""}}, {"title": "易贡茶场", "address": "林芝市波密县易贡乡境内", "image": "", "rank": 11, "time": 1.0, "location": {"lat": 30.348155630217857, "lng": 94.90054104499804}, "feature": {"sight_features": "", "sight_content": ""}}, {"title": "古乡镇", "address": "林芝市波密县古乡镇", "image": "", "rank": 12, "time": 0.5, "location": {"lat": 29.865060090548965, "lng": 95.77390012164511}, "feature": {"sight_features": "", "sight_content": ""}}, {"title": "米堆河", "address": "林芝市波密县玉普乡米堆村", "image": "", "rank": 13, "time": 0.25, "location": {"lat": 29.644923506206123, "lng": 96.34960513711285}, "feature": {"sight_features": "", "sight_content": ""}}, {"title": "盔甲山", "address": "林芝市波密县松宗镇境内", "image": "", "rank": 14, "time": 0.25, "location": {"lat": 29.76090257659512, "lng": 96.03431396079766}, "feature": {"sight_features": "", "sight_content": ""}}, {"title": "倾多镇", "address": "林芝市波密县倾多镇", "image": "", "rank": 15, "time": 0.25, "location": {"lat": 30.255938037100837, "lng": 95.76611499800723}, "feature": {"sight_features": "", "sight_content": ""}}, {"title": "卓龙沟", "address": "林芝市波密县城扎木镇南面6公里处的一片原始森林里", "image": "", "rank": 16, "time": 3.5, "location": {"lat": 29.80816535740315, "lng": 95.76052109894339}, "feature": {"sight_features": "", "sight_content": ""}}, {"title": "巴卡村", "address": "林芝市波密县，距美丽的古乡湖约2公里。", "image": "", "rank": 17, "time": 0.75, "location": {"lat": 29.9626232046007, "lng": 95.38664902006958}, "feature": {"sight_features": "", "sight_content": ""}}, {"title": "里呀多卡", "address": "林芝市波密县里呀多卡村", "image": "", "rank": 18, "time": 0.25, "location": {"lat": 29.865060090548965, "lng": 95.77390012164511}, "feature": {"sight_features": "", "sight_content": ""}}, {"title": "松宗", "address": "林芝市波密县松宗镇", "image": "", "rank": 19, "time": 2.5, "location": {"lat": 29.76090257659512, "lng": 96.03431396079766}, "feature": {"sight_features": "", "sight_content": ""}}, {"title": "易贡错", "address": "林芝市波密县", "image": "", "rank": 20, "time": 0.75, "location": {"lat": 29.865060090548965, "lng": 95.77390012164511}, "feature": {"sight_features": "", "sight_content": ""}}, {"title": "波都臧布河谷", "address": "林芝市波密县中部，里呀多卡附近。", "image": "", "rank": 21, "time": 0.25, "location": {"lat": 29.865060090548965, "lng": 95.77390012164511}, "feature": {"sight_features": "", "sight_content": ""}}, {"title": "格尼村", "address": "林芝市波密县松宗镇格尼村", "image": "", "rank": 22, "time": 1.5, "location": {"lat": 29.752505366222714, "lng": 96.09345481131608}, "feature": {"sight_features": "", "sight_content": ""}}, {"title": "嘎朗王宫遗址", "address": "林芝市波密县318国道旁", "image": "", "rank": 23, "time": 1.0, "location": {"lat": 29.865060090548965, "lng": 95.77390012164511}, "feature": {"sight_features": "", "sight_content": ""}}, {"title": "扎木镇岗村", "address": "林芝市波密县扎木镇岗村", "image": "", "rank": 24, "time": 2, "location": {"lat": 29.80816535740315, "lng": 95.76052109894339}, "feature": {"sight_features": "", "sight_content": ""}}, {"title": "如纳村", "address": "林芝市波密县如纳村", "image": "", "rank": 25, "time": 2, "location": {"lat": 29.865060090548965, "lng": 95.77390012164511}, "feature": {"sight_features": "", "sight_content": ""}}, {"title": "嘎瓦龙景区", "address": "西藏波密", "image": "", "rank": 26, "time": 2, "location": {"lat": 29.652893647472517, "lng": 91.12434212899261}, "feature": {"sight_features": "", "sight_content": ""}}, {"title": "易贡错湖", "address": "西藏自治区波密县易贡乡", "image": "", "rank": 27, "time": 2, "location": {"lat": 30.27495639703866, "lng": 94.82335146081462}, "feature": {"sight_features": "", "sight_content": ""}}, {"title": "古乡寺", "address": "西藏自治区林芝地区波密县", "image": "", "rank": 28, "time": null, "location": {"lat": 30.124827761779184, "lng": 95.55658526718665}, "feature": {"sight_features": "", "sight_content": ""}}, {"title": "冻油村", "address": "林芝市波密县倾多镇冻油村", "image": "", "rank": 29, "time": 2.0, "location": {"lat": 30.255938037100837, "lng": 95.76611499800723}, "feature": {"sight_features": "", "sight_content": ""}}, {"title": "玉许乡", "address": "林芝市波密县玉许乡", "image": "", "rank": 30, "time": 3.0, "location": {"lat": 30.335991233177854, "lng": 95.36432167935212}, "feature": {"sight_features": "", "sight_content": ""}}, {"title": "许木乡", "address": "林芝市波密县许木乡", "image": "", "rank": 31, "time": null, "location": {"lat": 29.865060090548965, "lng": 95.77390012164511}, "feature": {"sight_features": "", "sight_content": ""}}, {"title": "林芝博窝度假村", "address": "扎木村4003KM处博窝度假村内(318国道东)", "image": "", "rank": 32, "time": 1.0, "location": {"lat": 29.836959111852405, "lng": 95.79745405143115}, "feature": {"sight_features": "", "sight_content": ""}}, {"title": "易贡国家地质公园陈列馆", "address": "波密县其他西藏易贡国家地质公园博物馆景区附近", "image": "", "rank": 33, "time": 2, "location": {"lat": 30.100321763066255, "lng": 95.07618004246255}, "feature": {"sight_features": "", "sight_content": ""}}, {"title": "西藏易贡国家地质公园陈列馆", "address": "西藏自治区波密县西藏易贡国家地质公园博物馆景区附近", "image": "", "rank": 34, "time": 2, "location": {"lat": 30.100368006057128, "lng": 95.07618893568711}, "feature": {"sight_features": "", "sight_content": ""}}, {"title": "烈士陵园", "address": "林芝市波密县", "image": "", "rank": 35, "time": 2, "location": {"lat": 29.865060090548965, "lng": 95.77390012164511}, "feature": {"sight_features": "", "sight_content": ""}}, {"title": "贡普日", "address": "西藏自治区林芝市波密县", "image": "", "rank": 36, "time": 2, "location": {"lat": 29.865060090548965, "lng": 95.77390012164511}, "feature": {"sight_features": "", "sight_content": ""}}, {"title": "波茂广场", "address": "茂名路附近", "image": "", "rank": 37, "time": 2, "location": {"lat": 35.79001648711377, "lng": 115.09351814711607}, "feature": {"sight_features": "", "sight_content": ""}}, {"title": "额公藏布", "address": "昌都市八宿县", "image": "", "rank": 38, "time": 2, "location": {"lat": 30.05902899139862, "lng": 96.92436044615198}, "feature": {"sight_features": "", "sight_content": ""}}, {"title": "波密县商业步行街", "address": "西藏自治区波密县318国道", "image": "", "rank": 39, "time": 2, "location": {"lat": 29.60908954309582, "lng": 94.41316714745398}, "feature": {"sight_features": "", "sight_content": ""}}, {"title": "瓦巴村", "address": "西藏自治区林芝地区波密县", "image": "", "rank": 40, "time": 2, "location": {"lat": 30.124827761779184, "lng": 95.55658526718665}, "feature": {"sight_features": "", "sight_content": ""}}, {"title": "米堆一号", "address": "川藏公路进入米堆的岔路口", "image": "", "rank": 41, "time": 2, "location": {"lat": 29.63836750578392, "lng": 91.1344443946019}, "feature": {"sight_features": "", "sight_content": ""}}]}