{"cityName": "博兴", "days": null, "cityImage": "", "spots": [{"title": "威尼斯水上乐园", "address": "博兴县新城二路支脉河桥南首路东", "image": "", "rank": 1, "time": 2, "location": {"lat": 37.13788000736427, "lng": 118.16977757939729}, "feature": {"sight_features": "", "sight_content": ""}}, {"title": "兴国寺", "address": "滨州市博兴县湖滨镇兴国路丈八佛村", "image": "", "rank": 2, "time": 1.0, "location": {"lat": 37.09106092099918, "lng": 118.2261992501735}, "feature": {"sight_features": "", "sight_content": ""}}, {"title": "魏休庵纪念馆", "address": "东外环路", "image": "", "rank": 3, "time": 2, "location": {"lat": 37.88975422761368, "lng": 115.20615317611225}, "feature": {"sight_features": "", "sight_content": ""}}, {"title": "博兴人民公园", "address": "山东省滨州市博兴县博城二路", "image": "", "rank": 4, "time": 2.5, "location": {"lat": 37.159141297502146, "lng": 118.12643251767558}, "feature": {"sight_features": "", "sight_content": ""}}, {"title": "麻大湖国家湿地公园", "address": "滨州市博兴县", "image": "", "rank": 5, "time": 1.5, "location": {"lat": 37.160477277651474, "lng": 118.1174926953251}, "feature": {"sight_features": "", "sight_content": ""}}, {"title": "博华农业", "address": "博华高效生态农业科技有限公司附近", "image": "", "rank": 6, "time": 2, "location": {"lat": 22.51469740720364, "lng": 114.06637863067199}, "feature": {"sight_features": "", "sight_content": ""}}, {"title": "地球村游乐场", "address": "滨州市博兴县新城二路支脉河桥南首路东", "image": "", "rank": 7, "time": 2, "location": {"lat": 37.13788000736427, "lng": 118.16977757939729}, "feature": {"sight_features": "", "sight_content": ""}}, {"title": "龙升第一有机农场", "address": "西外环路附近", "image": "", "rank": 8, "time": 2, "location": {"lat": 37.90414055708377, "lng": 114.50741092792387}, "feature": {"sight_features": "", "sight_content": ""}}, {"title": "山东省博兴县蒲菇垂钓俱乐部", "address": "湖滨镇寨卞村中心街广场北100米路东", "image": "", "rank": 9, "time": 2, "location": {"lat": 37.65838420121454, "lng": 116.80449181277099}, "feature": {"sight_features": "", "sight_content": ""}}, {"title": "沙旺郎特水上乐园", "address": "店子镇红绿灯西行二公里路南", "image": "", "rank": 10, "time": 2, "location": {"lat": 28.24054813030942, "lng": 112.95802549581606}, "feature": {"sight_features": "", "sight_content": ""}}, {"title": "董永传说", "address": "山东省博兴县博兴县东南 256500", "image": "", "rank": 11, "time": 2, "location": {"lat": 37.160477277651474, "lng": 118.1174926953251}, "feature": {"sight_features": "", "sight_content": ""}}, {"title": "风阳桥", "address": "山东省博兴县湖溪镇仗八佛村 256512", "image": "", "rank": 12, "time": 2, "location": {"lat": 37.160477277651474, "lng": 118.1174926953251}, "feature": {"sight_features": "", "sight_content": ""}}, {"title": "博兴县打渔张森林公园", "address": "博兴县乔庄镇近黄河南岸处(打渔张引黄干渠)", "image": "", "rank": 13, "time": 2, "location": {"lat": 37.38994814880914, "lng": 118.21365226138664}, "feature": {"sight_features": "", "sight_content": ""}}, {"title": "博兴县京剧团", "address": "博城四路285号", "image": "", "rank": 14, "time": 2, "location": {"lat": 37.150249519869355, "lng": 118.12908883132283}, "feature": {"sight_features": "", "sight_content": ""}}, {"title": "长青水族馆", "address": "锦秋街道菜园村", "image": "", "rank": 15, "time": 2, "location": {"lat": 37.14519023902102, "lng": 118.1411173154744}, "feature": {"sight_features": "", "sight_content": ""}}, {"title": "基督教堂", "address": "山东省滨州市博兴县兴福镇赵马幼儿园西南150米", "image": "", "rank": 16, "time": 2.0, "location": {"lat": 37.00867634307159, "lng": 118.26042504942585}, "feature": {"sight_features": "", "sight_content": ""}}, {"title": "天主教堂", "address": "山东省滨州市博兴县范家镇西高村", "image": "", "rank": 17, "time": 1.0, "location": {"lat": 37.24638372130303, "lng": 118.0991486239805}, "feature": {"sight_features": "", "sight_content": ""}}, {"title": "董园", "address": "山东省滨州市博兴县陈户镇广青路纯锦十二小区纯锦小区", "image": "", "rank": 18, "time": 2, "location": {"lat": 37.26539055771052, "lng": 118.2216764517105}, "feature": {"sight_features": "", "sight_content": ""}}, {"title": "零点音乐厅", "address": "博城五路106号", "image": "", "rank": 19, "time": 2, "location": {"lat": 37.14849511499797, "lng": 118.15457896881287}, "feature": {"sight_features": "", "sight_content": ""}}, {"title": "中国厨都博物馆", "address": "山东省滨州市博兴县澳博路", "image": "", "rank": 20, "time": 2, "location": {"lat": 37.03824409863768, "lng": 118.19850538960638}, "feature": {"sight_features": "", "sight_content": ""}}, {"title": "澳博会展中心", "address": "澳博路11号", "image": "", "rank": 21, "time": 2, "location": {"lat": 37.04527984339145, "lng": 118.25107063482825}, "feature": {"sight_features": "", "sight_content": ""}}, {"title": "文化馆戏曲艺术团", "address": "胜利二路", "image": "", "rank": 22, "time": 2, "location": {"lat": 30.68913626907596, "lng": 111.3101122086512}, "feature": {"sight_features": "", "sight_content": ""}}, {"title": "乐嗨嗨水上嘉年华", "address": "胜利路董永公园内", "image": "", "rank": 23, "time": 2, "location": {"lat": 30.92528839516361, "lng": 113.92432601000982}, "feature": {"sight_features": "", "sight_content": ""}}, {"title": "渤海美术书法研究会", "address": "博兴文化广场附近", "image": "", "rank": 24, "time": 2, "location": {"lat": 37.146083385115, "lng": 118.13654595731046}, "feature": {"sight_features": "", "sight_content": ""}}, {"title": "博兴德扬书画苑", "address": "乐安街185号", "image": "", "rank": 25, "time": 2, "location": {"lat": 36.67489333860714, "lng": 117.0160660264835}, "feature": {"sight_features": "", "sight_content": ""}}, {"title": "艺星美术(博兴分校)", "address": "胜利二路418号", "image": "", "rank": 26, "time": 2, "location": {"lat": 37.149519703359914, "lng": 118.1372776046907}, "feature": {"sight_features": "", "sight_content": ""}}, {"title": "盛世画居艺术馆", "address": "胜利三路南首", "image": "", "rank": 27, "time": 2, "location": {"lat": 25.36392278776609, "lng": 118.69832076244911}, "feature": {"sight_features": "", "sight_content": ""}}, {"title": "世纪画廊", "address": "博城四路与国泰路交叉口西南50米", "image": "", "rank": 28, "time": 2, "location": {"lat": 37.15021798142973, "lng": 118.1315743699062}, "feature": {"sight_features": "", "sight_content": ""}}, {"title": "嘉美画廊", "address": "博城四路与国泰路交叉口东南50米", "image": "", "rank": 29, "time": 2, "location": {"lat": 23.138094235516693, "lng": 113.1538256614376}, "feature": {"sight_features": "", "sight_content": ""}}, {"title": "怀馨楼画廊", "address": "博城六路200号附近", "image": "", "rank": 30, "time": 2, "location": {"lat": 37.14370795600509, "lng": 118.12989622831522}, "feature": {"sight_features": "", "sight_content": ""}}, {"title": "瑞轩画廊", "address": "胜利二路405号附近", "image": "", "rank": 31, "time": 2, "location": {"lat": 37.1493657427376, "lng": 118.13695798759024}, "feature": {"sight_features": "", "sight_content": ""}}, {"title": "博兴影剧院", "address": "博城五路276号", "image": "", "rank": 32, "time": 2, "location": {"lat": 37.14753918904516, "lng": 118.14602638171347}, "feature": {"sight_features": "", "sight_content": ""}}, {"title": "丈八佛石造像", "address": "山东省博兴县寨郝乡寨高村", "image": "", "rank": 33, "time": 2, "location": {"lat": 37.160477277651474, "lng": 118.1174926953251}, "feature": {"sight_features": "", "sight_content": ""}}, {"title": "麻大湖", "address": "山东省博兴县湖滨镇", "image": "", "rank": 34, "time": 1.5, "location": {"lat": 37.08842617758568, "lng": 118.2026358863752}, "feature": {"sight_features": "", "sight_content": ""}}, {"title": "时尚步行街", "address": "山东省博兴县博城五路", "image": "", "rank": 35, "time": 2, "location": {"lat": 37.14673272065194, "lng": 118.12847412804881}, "feature": {"sight_features": "", "sight_content": ""}}, {"title": "纯化镇", "address": "山东省滨州博兴县纯化镇", "image": "", "rank": 36, "time": 2, "location": {"lat": 37.26537059916491, "lng": 118.2859921716981}, "feature": {"sight_features": "", "sight_content": ""}}, {"title": "董永公园", "address": "槐荫大道257号", "image": "", "rank": 37, "time": 3.0, "location": {"lat": 30.923914634888835, "lng": 113.92464260700716}, "feature": {"sight_features": "", "sight_content": ""}}]}