{"cityName": "鄱阳", "days": 2, "cityImage": "", "spots": [{"title": "鄱阳湖国家湿地公园", "address": "上饶市鄱阳县", "image": "", "rank": 1, "time": 7.5, "location": {"lat": 29.011452830922217, "lng": 116.71056614080348}, "feature": {"sight_features": "特色1 观鸟胜境，生态湿地和候鸟保护区", "sight_content": "鄱阳湖国家湿地公园是世界六大湿地之一、中国第一大淡水湖。湿地公园总面积为36285.0公顷，其中湿地总面积为35116.1公顷，占土地总面积的96.8%。\n公园内丰水季节烟波浩淼，气势磅礴 ；枯水季节水落滩出、河流众多、溪水蜿蜒、芦花飞舞。景区内处处湖光山色，景色幽然，环境优雅，空气清新，其溶山水之灵气于一方，汇自然与人文为一体，是休闲养生的理想之所。\n这里拥有江南最珍贵的“鸟”；这里是观鸟胜境，是生态湿地和候鸟保护区。这里夏季有夏候鸟——鹭鸟，冬季有冬候鸟——天鹅、白鹤、东方白鹳等。世界上现存的白鹤有4000多只，一到冬天98%的天鹅、白鹤会选择到鄱阳湖越冬，场面非常壮观。\n龟脑山因山型像一只趴在湖岸边的乌龟而命名，当地的渔民称它为神龟守渔。山上有取中国最大淡水湖之意的“天下第一湖”石碑和我国古代十二大烈女之一的鄱阳湖女神——饶娥铜像。其中饶娥神像高38米，是今日景区的标识之一。\n在湖中央有一个小岛，形状像倒扣在鄱阳湖中的小水瓢，当地的渔民称他是“瓢里山”，也称鸟岛。山的北面白茫茫一片，主要是白鹭，而南面则栖息着以池鹭、苍鹭为主的灰暗色鹭鸟，形成一山灰白的世界奇观。香油洲是中国最大的草洲，这里的草，翠绿丰茂，成为绿的海洋，堪称惊艳。\n科学园是鄱阳湖湿地公园的会客厅，浓缩了鄱阳湖湿地文化的精华，用声、光、电等高科技手段形象生动地集中展示了湿地生态资源和湿地人文资源，形成了丰富多彩的旅游景点。"}}, {"title": "鱼山坞", "address": "上饶市鄱阳县枧田街乡", "image": "", "rank": 2, "time": 2.5, "location": {"lat": 29.474227195911308, "lng": 116.98964796499016}, "feature": {"sight_features": "", "sight_content": ""}}, {"title": "蜈蚣山", "address": "江西省上饶市鄱阳县田畈街镇松林村", "image": "", "rank": 3, "time": 7.5, "location": {"lat": 29.3586941624591, "lng": 116.8601512241905}, "feature": {"sight_features": "", "sight_content": ""}}, {"title": "永福寺塔", "address": "上饶市鄱阳县建设路", "image": "", "rank": 4, "time": 2, "location": {"lat": 28.997273303217007, "lng": 116.68229482790457}, "feature": {"sight_features": "", "sight_content": ""}}, {"title": "芝山公园", "address": "浒山镇峙山南路", "image": "", "rank": 5, "time": 2, "location": {"lat": 30.16588453614323, "lng": 121.2614738564774}, "feature": {"sight_features": "", "sight_content": ""}}, {"title": "动漫水世界", "address": "芝阳路金怡大酒店对面路口直行300米羽毛球馆内", "image": "", "rank": 6, "time": 2, "location": {"lat": 29.008239430654736, "lng": 116.68789084543306}, "feature": {"sight_features": "", "sight_content": ""}}, {"title": "高畈农场", "address": "田坂街", "image": "", "rank": 7, "time": 2, "location": {"lat": 29.30457668869636, "lng": 119.1247471568443}, "feature": {"sight_features": "", "sight_content": ""}}, {"title": "元宝山农场土鸡蛋直销", "address": "芝阳路185号附近", "image": "", "rank": 8, "time": 2, "location": {"lat": 29.002901548603095, "lng": 116.68173987632001}, "feature": {"sight_features": "", "sight_content": ""}}, {"title": "安邦立体画业", "address": "鄱阳镇鄱阳湖大道附近", "image": "", "rank": 9, "time": 2, "location": {"lat": 29.015812000305726, "lng": 116.70285588400367}, "feature": {"sight_features": "", "sight_content": ""}}, {"title": "青少年水上垂钓乐园", "address": "团林乡鄱阳湖国家湿地公园鄱阳湖湿地科学园内", "image": "", "rank": 10, "time": 2, "location": {"lat": 29.139632561331613, "lng": 116.68531825296188}, "feature": {"sight_features": "", "sight_content": ""}}, {"title": "浪子孵化厂", "address": "209省道附近", "image": "", "rank": 11, "time": 2, "location": {"lat": 39.99809006691208, "lng": 116.08348027993928}, "feature": {"sight_features": "", "sight_content": ""}}, {"title": "梅王庙", "address": "鄱阳镇洪家巷90号", "image": "", "rank": 12, "time": 2, "location": {"lat": 27.014992868691454, "lng": 114.90544196995636}, "feature": {"sight_features": "", "sight_content": ""}}, {"title": "开心哈兔", "address": "城东桃花源记售楼部旁，嘉禾影院旁", "image": "", "rank": 13, "time": 2, "location": {"lat": 36.605707645661155, "lng": 101.8095690383313}, "feature": {"sight_features": "", "sight_content": ""}}, {"title": "念佛寺", "address": "江西省上饶市鄱阳县鄱阳镇东湖大道中盛现代城附近", "image": "", "rank": 14, "time": 1.5, "location": {"lat": 28.990554645485908, "lng": 116.71241754666232}, "feature": {"sight_features": "", "sight_content": ""}}, {"title": "百汇儿童乐园(田畈街店)", "address": "田畈街百汇购物广场三楼", "image": "", "rank": 15, "time": 2, "location": {"lat": 29.35736245533537, "lng": 116.88300275632226}, "feature": {"sight_features": "", "sight_content": ""}}, {"title": "梦幻王国游乐园", "address": "鄱阳县人民南路盐业食堂东300米", "image": "", "rank": 16, "time": 2, "location": {"lat": 28.98701283483841, "lng": 116.70402438184455}, "feature": {"sight_features": "", "sight_content": ""}}, {"title": "鄱阳湖湿地科学园-观湖平台", "address": "上饶市鄱阳县团林乡鄱阳湖国家湿地公园鄱阳湖湿地科学园内", "image": "", "rank": 17, "time": 2, "location": {"lat": 29.139632561331613, "lng": 116.68531825296188}, "feature": {"sight_features": "", "sight_content": ""}}, {"title": "墙因美", "address": "江西省上饶市鄱阳县鄱阳镇人民北路装饰大市场宜景苑", "image": "", "rank": 18, "time": null, "location": {"lat": 29.017865567650656, "lng": 116.71312267157214}, "feature": {"sight_features": "", "sight_content": ""}}, {"title": "天鹅公园", "address": "上饶市鄱阳县", "image": "", "rank": 19, "time": 2, "location": {"lat": 29.011452830922217, "lng": 116.71056614080348}, "feature": {"sight_features": "", "sight_content": ""}}, {"title": "鄱阳湖国际度假村", "address": "双港镇鄱阳湖国家湿地公园", "image": "", "rank": 20, "time": 2, "location": {"lat": 28.98710611706456, "lng": 116.66301288339358}, "feature": {"sight_features": "", "sight_content": ""}}, {"title": "铁炉福音堂", "address": "710县道附近", "image": "", "rank": 21, "time": 2, "location": {"lat": 40.523368449146986, "lng": 106.5308914919147}, "feature": {"sight_features": "", "sight_content": ""}}, {"title": "星期六儿童主题乐园", "address": "江西省上饶市鄱阳县中央城金街3号106-1", "image": "", "rank": 22, "time": 2, "location": {"lat": 29.01143383130456, "lng": 116.70427832921892}, "feature": {"sight_features": "", "sight_content": ""}}, {"title": "鄱阳湖公园-白天鹅公园", "address": "鄱阳镇", "image": "", "rank": 23, "time": 2, "location": {"lat": 29.02506362257552, "lng": 116.73247584093039}, "feature": {"sight_features": "", "sight_content": ""}}, {"title": "迪乐儿童乐园", "address": "江西省上饶市鄱阳县华润万家1楼", "image": "", "rank": 24, "time": 2, "location": {"lat": 29.011452830922217, "lng": 116.71056614080348}, "feature": {"sight_features": "", "sight_content": ""}}, {"title": "魔方水上乐园", "address": "城北交警大队斜对面鄱湖商贸批发中心广场内", "image": "", "rank": 25, "time": 2, "location": {"lat": 36.64240420147752, "lng": 101.78702165986142}, "feature": {"sight_features": "", "sight_content": ""}}, {"title": "鄱湖一号", "address": "鄱阳湖长山岛", "image": "", "rank": 26, "time": 2, "location": {"lat": 28.88347236148704, "lng": 116.29158136135221}, "feature": {"sight_features": "", "sight_content": ""}}, {"title": "硒地农业", "address": "鄱阳镇人民北路湖城国际5栋1单元118号", "image": "", "rank": 27, "time": 2, "location": {"lat": 29.00655900857072, "lng": 116.71036204579168}, "feature": {"sight_features": "", "sight_content": ""}}, {"title": "鄱阳赣剧院", "address": "五一路2-22号附近", "image": "", "rank": 28, "time": 7.5, "location": {"lat": 23.100931760317003, "lng": 113.27528273950196}, "feature": {"sight_features": "", "sight_content": ""}}, {"title": "鄱阳县博物馆", "address": "建设路(文庙旁)", "image": "", "rank": 29, "time": 2, "location": {"lat": 35.73491748140345, "lng": 116.50279304704016}, "feature": {"sight_features": "", "sight_content": ""}}, {"title": "鄱阳县图书馆", "address": "建设路18号附近", "image": "", "rank": 30, "time": 2, "location": {"lat": 39.129905832318926, "lng": 117.21512241130434}, "feature": {"sight_features": "", "sight_content": ""}}, {"title": "鄱阳县文化馆", "address": "芝阳路锦锋大酒店排楼3楼(县职业学校对面)", "image": "", "rank": 31, "time": 2, "location": {"lat": 25.904406450914994, "lng": 119.02217966141039}, "feature": {"sight_features": "", "sight_content": ""}}, {"title": "鄱阳县赣剧团", "address": "五一路鄱阳赣剧院附近", "image": "", "rank": 32, "time": null, "location": {"lat": 28.991370464272165, "lng": 116.68738117563264}, "feature": {"sight_features": "", "sight_content": ""}}, {"title": "阳光大道商品街", "address": "江西省鄱阳县209省道附近", "image": "", "rank": 33, "time": 2, "location": {"lat": 29.03394589877867, "lng": 116.7158846484041}, "feature": {"sight_features": "", "sight_content": ""}}, {"title": "紫金山步行街", "address": "江西省鄱阳县紫金山步行街", "image": "", "rank": 34, "time": 2, "location": {"lat": 28.99783028415401, "lng": 116.68188268264181}, "feature": {"sight_features": "", "sight_content": ""}}, {"title": "曹家嘴五甲", "address": "上饶市-鄱阳县", "image": "", "rank": 35, "time": 2, "location": {"lat": 29.011452830922217, "lng": 116.71056614080348}, "feature": {"sight_features": "", "sight_content": ""}}, {"title": "反到冲", "address": "上饶市-鄱阳县", "image": "", "rank": 36, "time": 2, "location": {"lat": 29.011452830922217, "lng": 116.71056614080348}, "feature": {"sight_features": "", "sight_content": ""}}, {"title": "鄱阳湖水上乐园", "address": "上饶市-鄱阳县-团林乡鄱阳湖国家湿地公园鄱阳湖湿地科学园内", "image": "", "rank": 37, "time": 2, "location": {"lat": 29.139632561331613, "lng": 116.68531825296188}, "feature": {"sight_features": "", "sight_content": ""}}]}