{"cityName": "苍南", "days": 2, "cityImage": "", "spots": [{"title": "苍南碗窑景区", "address": "温州市苍南县桥墩镇碗窑村", "image": "", "rank": 1, "time": 2.5, "location": {"lat": 27.496046841322244, "lng": 120.273054957075}, "feature": {"sight_features": "特色1 逛明清盛产粗瓷的古村落，品味村中原汁原味的古窑、古建筑和老戏台。 走在栈道上，欣赏三折瀑悬布，远眺山水环抱中的古村，宁静美好。", "sight_content": "苍南碗窑景区位于风景秀丽的玉龙湖上游，距苍南县城20公里，碗窑旧称蕉滩，由碗窑乡土建筑群、碗窑博物馆、手工制瓷作坊、玉龙湖、三折瀑、碗窑古道等景点组成。\n由碗窑乡土建筑群、碗窑博物馆、手工制瓷作坊、玉龙湖、三折瀑、碗窑古道等景点组成。\n它是“国家AAAA级旅游景区”、“中国历史文化名村”、 “中国民族民间建筑魅力名村”、“首批中国传统村落”"}}, {"title": "渔寮风景区", "address": "温州市苍南县渔寮村音乐石", "image": "", "rank": 2, "time": 6.0, "location": {"lat": 27.266268082023874, "lng": 120.52944820444431}, "feature": {"sight_features": "特色1 “天下第一鲜”——文蛤零污染。 特色2 渔寮被定为省级风景名胜区，是近年崛起的旅游新区。 特色3 渔寮具有山清水秀，风清岛奇，沙净水碧的独特风味，是高品位的旅游、避暑、休养胜地。", "sight_content": "渔寮渔家乐位于苍南县东南部的渔寮乡境内，东临大海，南接霞关，北壤赤溪，西毗马站。总面积为18.5平方公里。景区山地自北向南走向，西北青山环抱，苍松翠绿。盛产粮食、蔬菜、水果，同时渔寮又是苍南县渔业重乡，有创汇产品10多种，其中文蛤、梭子蟹、石斑鱼等水产资源十分丰富，畅销日本和港澳地区。渔寮浅海养殖条件优越。渔寮宜人的气候，宽广的沙滩、奇异的礁石，蔚蓝的大海，天然的岛屿，构成独特的滨海景区特色。渔寮景区共有旅游景点68处。渔寮由黄金海滩、音乐石、十六奇礁、雾城岙等部分组成。1991年渔寮被定为省级风景名胜区，是近年崛起的旅游小新区。\n渔寮沙滩平坦宽广，就像一条平铺着的地毯，走在上面柔滑而硬实。虽然看起来沙面似乎总是积着一层浅水，但人走在上面连鞋底都不湿。把自己淹埋在沙子里，只露出头部，或躺在沙滩上享受日光浴，你将忘记什么是疲劳，什么是忧愁。\n\n渔寮宽阔平坦的沙滩上养有“天下第一鲜”——文蛤，因没有污染，此地出产的文蛤是日本指定进口的海产品。潮水退后，渔寮沙滩上便出现大量菊花状、冰裂状花纹小洞，里面不时有小蟹们进出，这些花纹是它们的杰作。在沙滩上追赶四处横行的小蟹是一个乐趣，小蟹个头虽小，却很灵活，在你抓它的瞬间，便钻进了沙洞，速度之快，令人措手不及。你虽然可能抓不到小蟹，却是蟹乐人也乐。如果运气好，你还能在渔寮沙滩上捡到五光十色的贝壳。\n在渔寮沙滩的中部有堆重重叠叠、大小不等、内部空空的石头叫音乐石，用石头叩击不同的部位，能发出大鼓、小鼓、小锣等五音七律，或铿锵洪亮，或低沉悠扬。如果你爱好音乐，你就能在顶端这些石头上奏出一支支悦耳动听的乐曲。\n\n如果你们爱好体育，可以在渔寮渔家乐打打沙滩排球，或去参加帆板运动。在海上驾驶摩托艇去冲浪，更能体会御风而行的味道。如果你们这些技艺都不高超，可以下海畅游，可以在沙滩上享受日光浴。也可以乘渔船到渔家乐外海去欣赏海光山色。总之，渔寮能使你自得其乐。\n渔寮大沙滩对面800米处有个海岛状似大乌龟，圆圆的脑袋，半圆形的外壳，就象一只海龟遨游在碧波荡漾的大海上。它很想爬上沙滩做一次日光浴，但又怕惊扰了游客，只好远远地躲在一边，注视着沙滩上游人的一举一动。据说，它就是吕山老母派来送黄九师公回家的大神龟，因迷恋渔寮的美景，也就不愿回去了，从此永远留在了渔寮。\n\n大自然赋予渔寮丰富的旅游资源，景区内的渔寮岙、雾城岙、草屿山、皇帝礁、七姐妹礁、音乐石、狮头岩、三折瀑布是苍南县渔寮滨海玉苍山省级风景各胜区的重要旅游景区，共有自然景观二十余处。渔寮的大、小两沙滩，独具有风光，美境天成，闻名遐迩。至渔寮。可观山之景，尝鱼之鲜，是观光、度假、避暑的好去处，渔寮是旅游者的乐园。海浴泛舟，埋沙日浴，寻贝逗乐，访古城、观日出。\n渔寮风景名胜区现是滨海玉苍风景名胜区之一，以黄金沙滩为主，集山光水色之大成，融自然人文景观于一体，渔寮具有山清水秀，风清岛奇，沙净水碧的独特风味，是高品位的旅游、避暑、休养胜地，渔寮可与北戴河相媲美，被称为“东方夏威夷”。以黄金沙滩为主体，兼备奇礁怪洞，集自然和人文景观为一体，是以游泳、度假、观光为主的滨海风景名胜区。渔寮景区共有景点20余个。\n渔寮大沙滩属热带季风气候，夏无酷暑，冬无严寒，四季如春。渔寮最高气温为30摄氏度，最低气温在零度以上，年平均气温在17摄氏度。在渔寮你能看到我省唯有此地能够种植的荔枝、香蕉等亚热带作物。"}}, {"title": "蒲壮所城", "address": "温州市苍南县马站镇蒲城乡", "image": "", "rank": 3, "time": 2, "location": {"lat": 27.240869119994898, "lng": 120.45333838171241}, "feature": {"sight_features": "", "sight_content": ""}}, {"title": "石聚堂景区", "address": "温州市苍南县灵溪镇浦西北面4公里处", "image": "", "rank": 4, "time": 1.5, "location": {"lat": 27.479781335379744, "lng": 120.38236169315448}, "feature": {"sight_features": "特色1 大石累累，争奇竞秀，故山名为石聚", "sight_content": "国家AA级风景旅游区石聚堂位于县城灵溪镇浦亭乡境内,这里大石累累,争奇竞秀,故山名为石聚,中心高处许真君祠和玉泉禅寺,故称为“石聚堂”。景区内分为石聚天成、玉泉洞天、太宝观日三个部分。自然景观有单人巷、一线天、金龟驮子、九节龙、济公帽、蛤蟆岩、合掌岩等。人文景观有紫云道观、玉清道观、玉泉禅寺、观音阁等。这里的气候和地理条件十分优越,有利于植被绿化和野生动植物的生存和繁衍,目前在此已发现有国家级和省级规定的保护动物如水獭、九头鹰、四声杜鹃和重点保护植物竹柏等20余种。历史文化石聚堂在浦亭乡的白石坑山与鱼池山之间,西接玉苍山,北接南雁荡山,东连凤池乡岩下寺(紫云道观),南距县城4公里。石聚堂大石垒垒,石缝中杂树竞出,松篁交翠。中心高处平坦,有玉泉寺和玉真道观,都坐北向南,俗众合称为石聚堂。"}}, {"title": "渔寮沙滩", "address": "温州市苍南县", "image": "", "rank": 5, "time": 3.0, "location": {"lat": 27.523066788446513, "lng": 120.4335951222883}, "feature": {"sight_features": "", "sight_content": ""}}, {"title": "天福生态园", "address": "温州市苍南县灵溪镇观美社区桃湖村", "image": "", "rank": 6, "time": 2, "location": {"lat": 27.468142917424043, "lng": 120.37135575555838}, "feature": {"sight_features": "", "sight_content": ""}}, {"title": "莒溪大峡谷", "address": "温州市苍南县桥墩镇莒溪社区境内", "image": "", "rank": 7, "time": 2.5, "location": {"lat": 27.50777467380047, "lng": 120.20187020928306}, "feature": {"sight_features": "", "sight_content": ""}}, {"title": "余家大院", "address": "温州市苍南县金乡镇大仓前街52号", "image": "", "rank": 8, "time": 1.0, "location": {"lat": 27.515761369498975, "lng": 120.41843657613464}, "feature": {"sight_features": "", "sight_content": ""}}, {"title": "金乡古卫城", "address": "温州市苍南县金乡镇", "image": "", "rank": 9, "time": 1.0, "location": {"lat": 27.426383102954784, "lng": 120.62538868723487}, "feature": {"sight_features": "", "sight_content": ""}}, {"title": "洗马桥", "address": "温州市苍南县金乡镇南门外甘溪", "image": "", "rank": 10, "time": 0.25, "location": {"lat": 27.426383102954784, "lng": 120.62538868723487}, "feature": {"sight_features": "", "sight_content": ""}}, {"title": "赤溪五洞桥", "address": "温州市苍南县赤溪镇过溪村", "image": "", "rank": 11, "time": 0.2, "location": {"lat": 27.348539033668803, "lng": 120.5126080420545}, "feature": {"sight_features": "", "sight_content": ""}}, {"title": "狮山公园", "address": "温州市苍南县金乡镇东门大街", "image": "", "rank": 12, "time": null, "location": {"lat": 27.43798544431583, "lng": 120.62120027491461}, "feature": {"sight_features": "", "sight_content": ""}}, {"title": "欧乐湾乐园", "address": "温州苍南县金乡镇石砰社区", "image": "", "rank": 13, "time": 1.0, "location": {"lat": 27.426383102954784, "lng": 120.62538868723487}, "feature": {"sight_features": "", "sight_content": ""}}, {"title": "福德湾", "address": "温州市苍南县矾山镇福德湾村", "image": "", "rank": 14, "time": 2, "location": {"lat": 27.365882601525914, "lng": 120.41164551493914}, "feature": {"sight_features": "", "sight_content": ""}}, {"title": "魁星阁", "address": "温州市苍南县金乡镇西门水门洞上", "image": "", "rank": 15, "time": 0.25, "location": {"lat": 27.426383102954784, "lng": 120.62538868723487}, "feature": {"sight_features": "", "sight_content": ""}}, {"title": "仙堂山遗址", "address": "温州市苍南县桥墩镇仙堂村", "image": "", "rank": 16, "time": 1.5, "location": {"lat": 27.470077403295168, "lng": 120.3083478498378}, "feature": {"sight_features": "", "sight_content": ""}}, {"title": "棕榈湾", "address": "温州市苍南县黄金海岸线上鹤顶山到海边的一段", "image": "", "rank": 17, "time": 7.5, "location": {"lat": 27.324283267943645, "lng": 120.4668217794296}, "feature": {"sight_features": "", "sight_content": ""}}, {"title": "云台山", "address": "温州市苍南县金乡镇", "image": "", "rank": 18, "time": 4.5, "location": {"lat": 27.426383102954784, "lng": 120.62538868723487}, "feature": {"sight_features": "", "sight_content": ""}}, {"title": "玉龙湖水上乐园", "address": "温州市苍南县玉苍山11号（桥墩水库坝顶）", "image": "", "rank": 19, "time": 2, "location": {"lat": 27.534957449369085, "lng": 120.3100815642003}, "feature": {"sight_features": "", "sight_content": ""}}, {"title": "日月潭农庄", "address": "温州市苍南县灵溪镇岭前村", "image": "", "rank": 20, "time": 2.0, "location": {"lat": 27.49038915374171, "lng": 120.38954504706096}, "feature": {"sight_features": "", "sight_content": ""}}, {"title": "球山公园", "address": "温州市苍南县球山路65号", "image": "", "rank": 21, "time": 2, "location": {"lat": 27.520932763381165, "lng": 120.54611127308934}, "feature": {"sight_features": "", "sight_content": ""}}, {"title": "浙南第三县队成立旧址", "address": "温州市瑞安市230省道", "image": "", "rank": 22, "time": 2, "location": {"lat": 27.902699784967357, "lng": 120.25029893727657}, "feature": {"sight_features": "", "sight_content": ""}}, {"title": "碗窑博物馆", "address": "温州市苍南县桥墩镇碗窑村", "image": "", "rank": 23, "time": null, "location": {"lat": 27.496046841322244, "lng": 120.273054957075}, "feature": {"sight_features": "", "sight_content": ""}}, {"title": "雾城沙滩", "address": "温州市苍南县渔寮雾城村", "image": "", "rank": 24, "time": 2, "location": {"lat": 27.278510625469373, "lng": 120.52674088860432}, "feature": {"sight_features": "", "sight_content": ""}}, {"title": "郑成功纪念馆", "address": "福建省厦门市鼓浪屿日光岩", "image": "", "rank": 25, "time": 1.5, "location": {"lat": 24.450849224038382, "lng": 118.07383164034515}, "feature": {"sight_features": "", "sight_content": ""}}, {"title": "中心湖公园", "address": "浙江省温州市苍南县站前大道和人民大道交叉口东南侧", "image": "", "rank": 26, "time": 2, "location": {"lat": 27.527921712127455, "lng": 120.42297930709708}, "feature": {"sight_features": "", "sight_content": ""}}, {"title": "海螺度假村", "address": "浙江省温州市苍南县马站镇后槽村", "image": "", "rank": 27, "time": 2, "location": {"lat": 27.232143991662337, "lng": 120.52336099525972}, "feature": {"sight_features": "", "sight_content": ""}}, {"title": "温州海口度假村", "address": "浙江省苍南县金乡镇海口村", "image": "", "rank": 28, "time": 3.0, "location": {"lat": 27.433916796882283, "lng": 120.64844999795739}, "feature": {"sight_features": "", "sight_content": ""}}, {"title": "月亮湾沙滩", "address": "渔寮雾城村", "image": "", "rank": 29, "time": 2, "location": {"lat": 27.278510625469373, "lng": 120.52674088860432}, "feature": {"sight_features": "", "sight_content": ""}}, {"title": "碗坑山窑址", "address": "温州苍南藻溪大星垟村南碗坑山", "image": "", "rank": 30, "time": 2, "location": {"lat": 27.467130293175455, "lng": 120.4563280008385}, "feature": {"sight_features": "", "sight_content": ""}}, {"title": "温州藻溪南朝墓葬", "address": "温州市苍南县藻溪乡(南山北麓)", "image": "", "rank": 31, "time": 3.0, "location": {"lat": 27.467130293175455, "lng": 120.4563280008385}, "feature": {"sight_features": "", "sight_content": ""}}, {"title": "广福寺双塔", "address": "浙江苍南云岩乡(三峰山麓)", "image": "", "rank": 32, "time": 2, "location": {"lat": 27.51960520343801, "lng": 120.500829876127}, "feature": {"sight_features": "", "sight_content": ""}}, {"title": "法云寺", "address": "位于苍南县海拔约800米的玉苍山巅。", "image": "", "rank": 33, "time": 2, "location": {"lat": 27.534957449369085, "lng": 120.3100815642003}, "feature": {"sight_features": "", "sight_content": ""}}, {"title": "水月禅寺", "address": "温州市苍南县金乡镇环城西路59号", "image": "", "rank": 34, "time": 0.35, "location": {"lat": 27.43436914834634, "lng": 120.61333293951508}, "feature": {"sight_features": "", "sight_content": ""}}, {"title": "陈式纯烈士纪念碑", "address": "温州市苍南县金乡镇南郊圆山山麓", "image": "", "rank": 35, "time": 0.3, "location": {"lat": 27.426383102954784, "lng": 120.62538868723487}, "feature": {"sight_features": "", "sight_content": ""}}, {"title": "涌泉寺", "address": "温州市苍南县金乡镇西门外梅岭", "image": "", "rank": 36, "time": 0.75, "location": {"lat": 27.426383102954784, "lng": 120.62538868723487}, "feature": {"sight_features": "", "sight_content": ""}}, {"title": "苍南玉苍山", "address": "浙江省苍南县苍南县 325800", "image": "", "rank": 37, "time": 1.5, "location": {"lat": 27.523066788446513, "lng": 120.4335951222883}, "feature": {"sight_features": "", "sight_content": ""}}, {"title": "温州矾矿博物馆", "address": "矾山镇八一路38号", "image": "", "rank": 38, "time": 3.0, "location": {"lat": 40.23396243846529, "lng": 115.44541821411926}, "feature": {"sight_features": "", "sight_content": ""}}, {"title": "玉苍山滑雪场", "address": "玉苍山国家森林公园售票处", "image": "", "rank": 39, "time": 2, "location": {"lat": 27.524240835037, "lng": 120.31641961262218}, "feature": {"sight_features": "", "sight_content": ""}}, {"title": "儿童乐园", "address": "龙湖路128号2单元201室(龙湖路双排街路口,枫林网吧二楼)", "image": "", "rank": 40, "time": 2, "location": {"lat": 27.577958680543194, "lng": 120.5464142993852}, "feature": {"sight_features": "", "sight_content": ""}}, {"title": "x档案密室逃脱(灵溪店)", "address": "灵溪镇江湾路316-318号201室(中国银行东边50米处)", "image": "", "rank": 41, "time": 2, "location": {"lat": 43.85050182146436, "lng": 126.60009777064083}, "feature": {"sight_features": "", "sight_content": ""}}, {"title": "墨攻真人密室逃脱", "address": "银泰城步行街m4栋214-217(沃尔玛超市楼上)", "image": "", "rank": 42, "time": 2, "location": {"lat": 31.4707878758284, "lng": 104.75488769018823}, "feature": {"sight_features": "", "sight_content": ""}}, {"title": "苍南火龙果采摘", "address": "龙金大道716号", "image": "", "rank": 43, "time": 6.0, "location": {"lat": 27.546993785703016, "lng": 120.54370574611595}, "feature": {"sight_features": "", "sight_content": ""}}, {"title": "温州小农场", "address": "钱库镇洋南村49号", "image": "", "rank": 44, "time": 3.0, "location": {"lat": 33.758000905217436, "lng": 120.1319421268232}, "feature": {"sight_features": "", "sight_content": ""}}, {"title": "苍南天涯休闲农场", "address": "龙金大道陡门底路口", "image": "", "rank": 45, "time": 6.0, "location": {"lat": 27.47147352506029, "lng": 120.58870005498135}, "feature": {"sight_features": "", "sight_content": ""}}, {"title": "九龙生态园", "address": "灵江街", "image": "", "rank": 46, "time": null, "location": {"lat": 27.524770680060264, "lng": 120.48088863825329}, "feature": {"sight_features": "", "sight_content": ""}}, {"title": "南澳绿亨庄园", "address": "金钗街154号", "image": "", "rank": 47, "time": 2, "location": {"lat": 27.58379390655846, "lng": 120.56023589744883}, "feature": {"sight_features": "", "sight_content": ""}}, {"title": "还有鱼水上乐园", "address": "西一路100号", "image": "", "rank": 48, "time": 2, "location": {"lat": 34.26809632331765, "lng": 108.96666545917786}, "feature": {"sight_features": "", "sight_content": ""}}, {"title": "苍南绿云花卉专业合作社", "address": "灵宜线北50米", "image": "", "rank": 49, "time": 6.0, "location": {"lat": 27.52086766273625, "lng": 120.50634725329627}, "feature": {"sight_features": "", "sight_content": ""}}, {"title": "宜山图书馆", "address": "宜山镇球山路12号", "image": "", "rank": 50, "time": 2, "location": {"lat": 27.520932763381165, "lng": 120.54611127308934}, "feature": {"sight_features": "", "sight_content": ""}}, {"title": "娃娃书吧", "address": "玉苍路785-787号附近", "image": "", "rank": 51, "time": 2, "location": {"lat": 24.968359774081875, "lng": 118.59600044116603}, "feature": {"sight_features": "", "sight_content": ""}}, {"title": "苍南县云山村云之山蓝莓专业合作...", "address": "岱岭乡云山村6号", "image": "", "rank": 52, "time": 2, "location": {"lat": 27.284898918644558, "lng": 120.43235541037983}, "feature": {"sight_features": "", "sight_content": ""}}, {"title": "墨香书吧", "address": "玉苍路与东仓路交叉口东170米", "image": "", "rank": 53, "time": 2, "location": {"lat": 27.513036281636545, "lng": 120.42560823949322}, "feature": {"sight_features": "", "sight_content": ""}}, {"title": "彩虹儿童乐园", "address": "浙江省温州市苍南县云仙街106号--1082楼", "image": "", "rank": 54, "time": 2, "location": {"lat": 27.46363827171666, "lng": 120.31600466464623}, "feature": {"sight_features": "", "sight_content": ""}}, {"title": "到安微九华山", "address": "浙江省温州市苍南县", "image": "", "rank": 55, "time": 2, "location": {"lat": 27.523066788446513, "lng": 120.4335951222883}, "feature": {"sight_features": "", "sight_content": ""}}, {"title": "石坪社区梦幻海洋乐园", "address": "浙江省温州市苍南县珠石线", "image": "", "rank": 56, "time": 2, "location": {"lat": 27.421529297738143, "lng": 120.65057898021873}, "feature": {"sight_features": "", "sight_content": ""}}, {"title": "金乡地方教会基督徒聚会处", "address": "温州市苍南县金湖街", "image": "", "rank": 57, "time": 2, "location": {"lat": 27.431783503885907, "lng": 120.62145671598506}, "feature": {"sight_features": "", "sight_content": ""}}, {"title": "白岩寺", "address": "温州市苍南县", "image": "", "rank": 58, "time": 2, "location": {"lat": 27.523066788446513, "lng": 120.4335951222883}, "feature": {"sight_features": "", "sight_content": ""}}, {"title": "人工湖公园", "address": "浙江省温州市苍南县灵溪镇人民大道怡和城市家园北150米", "image": "", "rank": 59, "time": 2, "location": {"lat": 27.518962411740848, "lng": 120.4326907657927}, "feature": {"sight_features": "", "sight_content": ""}}, {"title": "七彩金童儿童游乐园", "address": "浙江省温州市苍南县时代御园4幢105室", "image": "", "rank": 60, "time": 2, "location": {"lat": 27.531712601013517, "lng": 120.41660331425048}, "feature": {"sight_features": "", "sight_content": ""}}]}