{"cityName": "苍梧", "days": 2, "cityImage": "", "spots": [{"title": "李济深故居", "address": "梧州市龙圩区李济深故居(育斜线东)", "image": "", "rank": 1, "time": 1.0, "location": {"lat": 23.31735703052927, "lng": 111.28656451182424}, "feature": {"sight_features": "", "sight_content": ""}}, {"title": "爽岛民俗风情旅游区", "address": "梧州市苍梧县梨埠镇", "image": "", "rank": 2, "time": 1.0, "location": {"lat": 23.774459057082804, "lng": 111.51781325284152}, "feature": {"sight_features": "", "sight_content": ""}}, {"title": "戎圩古镇（龙圩镇）", "address": "广西梧州市苍梧县龙圩镇", "image": "", "rank": 3, "time": 1.0, "location": {"lat": 23.398410756338727, "lng": 111.29367224996615}, "feature": {"sight_features": "", "sight_content": ""}}, {"title": "飞龙湖旅游度假区", "address": "广西梧州市苍梧县梨埠镇凤仪村", "image": "", "rank": 4, "time": 1.0, "location": {"lat": 23.809154108083714, "lng": 111.50417235701593}, "feature": {"sight_features": "", "sight_content": ""}}, {"title": "梧州大爽河生态游乐景区", "address": "梧州市苍梧县梨埠镇凤仪村", "image": "", "rank": 5, "time": 2.5, "location": {"lat": 23.809154108083714, "lng": 111.50417235701593}, "feature": {"sight_features": "", "sight_content": ""}}, {"title": "苍梧粤东会馆", "address": "广西梧州市苍梧县县城", "image": "", "rank": 6, "time": null, "location": {"lat": 23.845998205466344, "lng": 111.55554663955536}, "feature": {"sight_features": "", "sight_content": ""}}, {"title": "大爽河漂流", "address": "芲梧县梨埠镇", "image": "", "rank": 7, "time": 2, "location": {"lat": 23.774459057082804, "lng": 111.51781325284152}, "feature": {"sight_features": "", "sight_content": ""}}, {"title": "梧州龙之泉旅游度假山庄", "address": "广西壮族自治区梧州市苍梧县S323", "image": "", "rank": 8, "time": 2, "location": {"lat": 23.845998205466344, "lng": 111.55554663955536}, "feature": {"sight_features": "", "sight_content": ""}}, {"title": "李氏祖祠", "address": "广西壮族自治区梧州市苍梧县G207", "image": "", "rank": 9, "time": 1.0, "location": {"lat": 23.845998205466344, "lng": 111.55554663955536}, "feature": {"sight_features": "", "sight_content": ""}}, {"title": "覃氏宗祠", "address": "广西壮族自治区梧州市苍梧县", "image": "", "rank": 10, "time": 2, "location": {"lat": 23.845998205466344, "lng": 111.55554663955536}, "feature": {"sight_features": "", "sight_content": ""}}, {"title": "石旺山庄", "address": "207国道附近", "image": "", "rank": 11, "time": 2, "location": {"lat": 38.67484937592033, "lng": 114.04837902844483}, "feature": {"sight_features": "", "sight_content": ""}}, {"title": "苍梧爽岛", "address": "梨埠镇爽岛电站库区内", "image": "", "rank": 12, "time": 1.0, "location": {"lat": 23.835932080429025, "lng": 111.44726642053776}, "feature": {"sight_features": "", "sight_content": ""}}, {"title": "桂俊书画廊", "address": "圣石街西150米", "image": "", "rank": 13, "time": 2, "location": {"lat": 23.85292981686968, "lng": 111.5479256851029}, "feature": {"sight_features": "", "sight_content": ""}}, {"title": "朱恁", "address": "梧州市-苍梧县-二零七国道", "image": "", "rank": 14, "time": 2, "location": {"lat": 23.457301094946867, "lng": 111.27597666627338}, "feature": {"sight_features": "", "sight_content": ""}}]}