{"cityName": "苍溪", "days": 2, "cityImage": "", "spots": [{"title": "苍溪红军渡", "address": "广元市苍溪县陵江镇红军村", "image": "", "rank": 1, "time": 2, "location": {"lat": 31.73176346886412, "lng": 105.96556420905065}, "feature": {"sight_features": "", "sight_content": ""}}, {"title": "苍溪梨博园", "address": "广元市苍溪县陵江镇红旗桥村", "image": "", "rank": 2, "time": 4.0, "location": {"lat": 31.790565312650205, "lng": 105.95827908880547}, "feature": {"sight_features": "", "sight_content": ""}}, {"title": "梨文化博览园", "address": "广元市苍溪县城，以西7公里处", "image": "", "rank": 3, "time": 2, "location": {"lat": 31.73868440061661, "lng": 105.94148261460028}, "feature": {"sight_features": "", "sight_content": ""}}, {"title": "寻乐书岩", "address": "苍溪县东青镇贾家洞", "image": "", "rank": 4, "time": 2.0, "location": {"lat": 31.716658923980965, "lng": 105.85646333221896}, "feature": {"sight_features": "", "sight_content": ""}}, {"title": "烟丛寺", "address": "苍溪县陵江镇少屏山", "image": "", "rank": 5, "time": 2.0, "location": {"lat": 31.77714569108085, "lng": 105.94517628156908}, "feature": {"sight_features": "", "sight_content": ""}}, {"title": "元坝天台山", "address": "四川省广元苍溪县", "image": "", "rank": 6, "time": 2, "location": {"lat": 31.73868440061661, "lng": 105.94148261460028}, "feature": {"sight_features": "", "sight_content": ""}}, {"title": "苍溪临江寺", "address": "苍溪县城西1公里处的嘉陵江西岸", "image": "", "rank": 7, "time": 2, "location": {"lat": 36.628505782483685, "lng": 101.77700385023793}, "feature": {"sight_features": "", "sight_content": ""}}, {"title": "狮岭村", "address": "广元市苍溪县城东", "image": "", "rank": 8, "time": 2, "location": {"lat": 31.73868440061661, "lng": 105.94148261460028}, "feature": {"sight_features": "", "sight_content": ""}}, {"title": "祟霞白塔", "address": "四川省苍溪县城东约3公里文焕村塔子山顶", "image": "", "rank": 9, "time": 2, "location": {"lat": 31.73094951297182, "lng": 105.96879937190411}, "feature": {"sight_features": "", "sight_content": ""}}, {"title": "荷塘梨园农家乐", "address": "197县道附近", "image": "", "rank": 10, "time": 2, "location": {"lat": 23.25633487517183, "lng": 111.05954051509356}, "feature": {"sight_features": "", "sight_content": ""}}, {"title": "图书室", "address": "红军路中段277号苍溪县总工会综合楼5楼", "image": "", "rank": 11, "time": 2, "location": {"lat": 31.740462150635125, "lng": 105.94015563770093}, "feature": {"sight_features": "", "sight_content": ""}}, {"title": "鹤山生态园", "address": "白鹤街东50米", "image": "", "rank": 12, "time": 7.5, "location": {"lat": 22.737270008444288, "lng": 108.33334062064144}, "feature": {"sight_features": "", "sight_content": ""}}, {"title": "国家种子基地", "address": "北门沟路370附近", "image": "", "rank": 13, "time": 2, "location": {"lat": 31.74826221665856, "lng": 105.94678844894818}, "feature": {"sight_features": "", "sight_content": ""}}, {"title": "泰豐果园红心猕猴桃采摘园", "address": "东青镇东光村4组二房岩", "image": "", "rank": 14, "time": 2, "location": {"lat": 31.736468516345152, "lng": 105.8883741927823}, "feature": {"sight_features": "", "sight_content": ""}}, {"title": "同心广场", "address": "陵江镇解放路196号", "image": "", "rank": 15, "time": 2, "location": {"lat": 31.73978732213637, "lng": 105.95516452616164}, "feature": {"sight_features": "", "sight_content": ""}}, {"title": "苍溪县盲人有声读物图书室", "address": "东台街19号", "image": "", "rank": 16, "time": 2, "location": {"lat": 31.74185332961656, "lng": 105.9539188719618}, "feature": {"sight_features": "", "sight_content": ""}}, {"title": "紫气东来", "address": "解放路东段349号", "image": "", "rank": 17, "time": 2, "location": {"lat": 31.740333941279616, "lng": 105.9574390357129}, "feature": {"sight_features": "", "sight_content": ""}}, {"title": "张家祠堂", "address": "广元市苍溪县土门垭--长井山", "image": "", "rank": 18, "time": 2, "location": {"lat": 32.09748067895066, "lng": 106.08578232622966}, "feature": {"sight_features": "", "sight_content": ""}}, {"title": "老祠堂", "address": "广元市苍溪县土门垭--李家嘴", "image": "", "rank": 19, "time": 2, "location": {"lat": 32.09748067895066, "lng": 106.08578232622966}, "feature": {"sight_features": "", "sight_content": ""}}, {"title": "蹇家祠堂", "address": "广元市苍溪县苍溪黄猫--得胜坪", "image": "", "rank": 20, "time": 2, "location": {"lat": 31.98265681154398, "lng": 106.28758656652073}, "feature": {"sight_features": "", "sight_content": ""}}, {"title": "仰天楼", "address": "212国道东200米", "image": "", "rank": 21, "time": 2, "location": {"lat": 32.4966001815921, "lng": 105.62624028983116}, "feature": {"sight_features": "", "sight_content": ""}}, {"title": "崇霞宝塔", "address": "广元市苍溪县", "image": "", "rank": 22, "time": 2, "location": {"lat": 31.73868440061661, "lng": 105.94148261460028}, "feature": {"sight_features": "", "sight_content": ""}}, {"title": "昝家祠堂", "address": "广元市苍溪县南江野羊溪--苍溪东溪", "image": "", "rank": 23, "time": 2, "location": {"lat": 31.73868440061661, "lng": 105.94148261460028}, "feature": {"sight_features": "", "sight_content": ""}}, {"title": "陈家祠堂", "address": "广元市苍溪县石马--玉井", "image": "", "rank": 24, "time": 1.5, "location": {"lat": 31.73868440061661, "lng": 105.94148261460028}, "feature": {"sight_features": "", "sight_content": ""}}, {"title": "开心广场", "address": "四川省广元市苍溪县解放路西段134号", "image": "", "rank": 25, "time": 2, "location": {"lat": 31.73878173025073, "lng": 105.94384135197106}, "feature": {"sight_features": "", "sight_content": ""}}, {"title": "陶苑居", "address": "047乡道附近", "image": "", "rank": 26, "time": 2, "location": {"lat": 45.10067650864217, "lng": 131.21687881534675}, "feature": {"sight_features": "", "sight_content": ""}}, {"title": "马桑区苏维埃政府遗址", "address": "马桑卫生院附近", "image": "", "rank": 27, "time": 2, "location": {"lat": 31.788106912748134, "lng": 105.84271080486145}, "feature": {"sight_features": "", "sight_content": ""}}, {"title": "图书馆", "address": "嘉陵路西段30号", "image": "", "rank": 28, "time": null, "location": {"lat": 31.737220814340656, "lng": 105.94311616610236}, "feature": {"sight_features": "", "sight_content": ""}}, {"title": "龙山镇孩乐堡儿童乐园", "address": "龙山镇迎宾街中段", "image": "", "rank": 29, "time": 2, "location": {"lat": 35.24431821824584, "lng": 115.47068294070597}, "feature": {"sight_features": "", "sight_content": ""}}, {"title": "嘉陵江水上漂流", "address": "嘉陵镇", "image": "", "rank": 30, "time": 2, "location": {"lat": 33.70382192101488, "lng": 106.20803167565835}, "feature": {"sight_features": "", "sight_content": ""}}, {"title": "鳄鱼漆(龙山镇专卖店)", "address": "迎宾路227号附近", "image": "", "rank": 31, "time": 2, "location": {"lat": 38.70617962605656, "lng": 115.76769360538708}, "feature": {"sight_features": "", "sight_content": ""}}, {"title": "乌木根雕艺术馆", "address": "陵江镇肖家坝新苍中校旁", "image": "", "rank": 32, "time": 2, "location": {"lat": 31.752027961720284, "lng": 105.93287203559206}, "feature": {"sight_features": "", "sight_content": ""}}, {"title": "惠林苗木种植", "address": "陵江镇江南村五组", "image": "", "rank": 33, "time": 2, "location": {"lat": 31.739623288312654, "lng": 105.91485244118074}, "feature": {"sight_features": "", "sight_content": ""}}, {"title": "滕家院子", "address": "广元市-旺苍县-旺苍--苍溪", "image": "", "rank": 34, "time": 2, "location": {"lat": 32.23509738307936, "lng": 106.29649124536307}, "feature": {"sight_features": "", "sight_content": ""}}, {"title": "仲家湾", "address": "广元市-苍溪县-三川--九龙山", "image": "", "rank": 35, "time": 2, "location": {"lat": 31.976379679462934, "lng": 106.03564433932628}, "feature": {"sight_features": "", "sight_content": ""}}, {"title": "转头湾", "address": "广元市-苍溪县-回水--李家嘴", "image": "", "rank": 36, "time": 2, "location": {"lat": 31.83875738095596, "lng": 106.28047029447414}, "feature": {"sight_features": "", "sight_content": ""}}, {"title": "苍溪·梨文化博览园", "address": "212国道中国苍溪·梨文化博览园附近", "image": "", "rank": 37, "time": 2, "location": {"lat": 37.167031900084226, "lng": 116.46282217352586}, "feature": {"sight_features": "", "sight_content": ""}}]}