{"cityName": "沧源", "days": 2, "cityImage": "", "spots": [{"title": "沧源崖画谷", "address": "临沧市沧源佤族自治县", "image": "", "rank": 1, "time": 2.5, "location": {"lat": 23.152878733913262, "lng": 99.25272169608435}, "feature": {"sight_features": "", "sight_content": ""}}, {"title": "广允缅寺", "address": "云南省临沧市沧源佤族自治县城勐董大街北侧", "image": "", "rank": 2, "time": 1.5, "location": {"lat": 23.152878733913262, "lng": 99.25272169608435}, "feature": {"sight_features": "", "sight_content": ""}}, {"title": "沧源司岗里景区", "address": "临沧市沧源佤族自治县司岗里大道费达佛寺旁", "image": "", "rank": 3, "time": 2, "location": {"lat": 23.156389350832573, "lng": 99.26034601828418}, "feature": {"sight_features": "", "sight_content": ""}}, {"title": "千米国画长廊", "address": "临沧市沧源县佤族自治县沧源崖画谷风景旅游区内", "image": "", "rank": 4, "time": 2, "location": {"lat": 23.27643497623208, "lng": 99.32624663842398}, "feature": {"sight_features": "", "sight_content": ""}}, {"title": "葫芦小镇", "address": "临沧市沧源佤族自治县葫芦小镇", "image": "", "rank": 5, "time": 2, "location": {"lat": 23.140922171702346, "lng": 99.23760291162746}, "feature": {"sight_features": "", "sight_content": ""}}, {"title": "司岗里传说展览厅", "address": "028乡道", "image": "", "rank": 6, "time": 2, "location": {"lat": 38.49443500611887, "lng": 112.88216180520445}, "feature": {"sight_features": "", "sight_content": ""}}, {"title": "翁丁佤族群居村落", "address": "云南省沧源佤族自治县勐角乡翁丁村 677401", "image": "", "rank": 7, "time": null, "location": {"lat": 23.28442873532839, "lng": 99.17458520808869}, "feature": {"sight_features": "", "sight_content": ""}}, {"title": "沧源佤族自治县影剧院", "address": "云南省临沧市沧源佤族自治县", "image": "", "rank": 8, "time": 2.5, "location": {"lat": 23.152878733913262, "lng": 99.25272169608435}, "feature": {"sight_features": "", "sight_content": ""}}, {"title": "控井花千谷", "address": "勐角乡控井新寨", "image": "", "rank": 9, "time": 2, "location": {"lat": 23.218191063498594, "lng": 99.25103037904701}, "feature": {"sight_features": "", "sight_content": ""}}, {"title": "清华科普太阳能", "address": "314省道西150米", "image": "", "rank": 10, "time": 2, "location": {"lat": 40.19306973684933, "lng": 117.32344946351547}, "feature": {"sight_features": "", "sight_content": ""}}, {"title": "雅居水族馆", "address": "广允路东50米", "image": "", "rank": 11, "time": 2, "location": {"lat": 23.15207804840573, "lng": 99.26083428954907}, "feature": {"sight_features": "", "sight_content": ""}}, {"title": "嘎里佛寺", "address": "云南省临沧市沧源佤族自治县勐董社区嘎理组", "image": "", "rank": 12, "time": 2, "location": {"lat": 23.157957453567548, "lng": 99.25770702217143}, "feature": {"sight_features": "", "sight_content": ""}}, {"title": "泰安山庄", "address": "东航民族希望小学附近", "image": "", "rank": 13, "time": 1.5, "location": {"lat": 23.148825864573418, "lng": 99.26640981942381}, "feature": {"sight_features": "", "sight_content": ""}}, {"title": "班洪抗英遗址碑", "address": "班洪乡班洪村班洪中心完小附近", "image": "", "rank": 14, "time": 2, "location": {"lat": 23.296779065035697, "lng": 99.10559818269228}, "feature": {"sight_features": "", "sight_content": ""}}, {"title": "乐园山庄", "address": "267县道附近", "image": "", "rank": 15, "time": 2, "location": {"lat": 23.390828345978708, "lng": 113.32873200715854}, "feature": {"sight_features": "", "sight_content": ""}}, {"title": "汇香坊香薰图书馆", "address": "广允路东200米", "image": "", "rank": 16, "time": 2, "location": {"lat": 23.15207804840573, "lng": 99.26218174781359}, "feature": {"sight_features": "", "sight_content": ""}}, {"title": "时尚代码", "address": "小沧线附近", "image": "", "rank": 17, "time": 2, "location": {"lat": 23.35928395169203, "lng": 99.57565059013113}, "feature": {"sight_features": "", "sight_content": ""}}, {"title": "飞洋鱼具", "address": "广允路中国移动北侧", "image": "", "rank": 18, "time": 2, "location": {"lat": 39.925058029430275, "lng": 116.41922051173354}, "feature": {"sight_features": "", "sight_content": ""}}, {"title": "沧源佤山", "address": "云南省沧源佤族自治县境内", "image": "", "rank": 19, "time": 2.5, "location": {"lat": 23.152878733913262, "lng": 99.25272169608435}, "feature": {"sight_features": "", "sight_content": ""}}, {"title": "南滚河", "address": "云南省沧源佤族自治县县西南角", "image": "", "rank": 20, "time": 2, "location": {"lat": 23.152878733913262, "lng": 99.25272169608435}, "feature": {"sight_features": "", "sight_content": ""}}, {"title": "沧源商业街", "address": "云南省沧源佤族自治县314省道", "image": "", "rank": 21, "time": 1.5, "location": {"lat": 23.234557274181537, "lng": 99.30829060542159}, "feature": {"sight_features": "", "sight_content": ""}}, {"title": "沧源南滚河自然保护区", "address": "班老乡", "image": "", "rank": 22, "time": 2.5, "location": {"lat": 23.250399552584863, "lng": 98.96135116571173}, "feature": {"sight_features": "", "sight_content": ""}}]}