{"cityName": "曹县", "days": 2, "cityImage": "", "spots": [{"title": "碧海龙都温泉", "address": "菏泽市曹县长江东路与青岛北路交汇处", "image": "", "rank": 1, "time": 2, "location": {"lat": 34.856823168516286, "lng": 115.57003648500829}, "feature": {"sight_features": "", "sight_content": ""}}, {"title": "环岛公园", "address": "长江东路与青菏南路交叉口东北100米", "image": "", "rank": 2, "time": 2.0, "location": {"lat": 34.85785114056217, "lng": 115.55829340329691}, "feature": {"sight_features": "", "sight_content": ""}}, {"title": "曹县图书馆", "address": "五台山路", "image": "", "rank": 3, "time": 1.5, "location": {"lat": 32.41631035215959, "lng": 119.48238590424013}, "feature": {"sight_features": "", "sight_content": ""}}, {"title": "万亩桃园基地大樱桃采摘园", "address": "唐庄村", "image": "", "rank": 4, "time": 2, "location": {"lat": 39.50028819797228, "lng": 118.91814509763617}, "feature": {"sight_features": "", "sight_content": ""}}, {"title": "千姿休闲农庄", "address": "菏泽市曹县汽车总站往南4公里处团结河桥南20米路东", "image": "", "rank": 5, "time": 2, "location": {"lat": 34.75462021513366, "lng": 115.5721622845739}, "feature": {"sight_features": "", "sight_content": ""}}, {"title": "百川实景", "address": "安才楼镇王堂村135号", "image": "", "rank": 6, "time": 2, "location": {"lat": 34.67996166725558, "lng": 115.6836907350293}, "feature": {"sight_features": "", "sight_content": ""}}, {"title": "品尚实景", "address": "安蔡楼镇安蔡楼行政村50号", "image": "", "rank": 7, "time": 2, "location": {"lat": 33.42904465014651, "lng": 109.15957460913961}, "feature": {"sight_features": "", "sight_content": ""}}, {"title": "佳艺实景", "address": "大集乡张庄行政村孟庙村237号", "image": "", "rank": 8, "time": 2, "location": {"lat": 33.32966238824834, "lng": 117.24339317894115}, "feature": {"sight_features": "", "sight_content": ""}}, {"title": "星期六密室逃脱", "address": "东方红大街汉光购物中心二楼", "image": "", "rank": 9, "time": 2, "location": {"lat": 34.83026174429501, "lng": 115.55499191854764}, "feature": {"sight_features": "", "sight_content": ""}}, {"title": "万亩桃园基地大樱桃采摘园", "address": "青固集镇南李集", "image": "", "rank": 10, "time": 2, "location": {"lat": 34.62150767571369, "lng": 115.76102677984137}, "feature": {"sight_features": "", "sight_content": ""}}, {"title": "亿鑫源鸭业", "address": "348省道南50米", "image": "", "rank": 11, "time": 2, "location": {"lat": 34.87050758154903, "lng": 116.94989082397161}, "feature": {"sight_features": "", "sight_content": ""}}, {"title": "喜多哆水上乐园", "address": "郑庄村新商业街", "image": "", "rank": 12, "time": 2, "location": {"lat": 36.78169143403449, "lng": 117.04208975744646}, "feature": {"sight_features": "", "sight_content": ""}}, {"title": "淘宝农家乐", "address": "桑万路农家乐饭店南", "image": "", "rank": 13, "time": 2, "location": {"lat": 37.960745523917396, "lng": 115.28672452840497}, "feature": {"sight_features": "", "sight_content": ""}}, {"title": "垂钓者渔具", "address": "四季河文化商业街B75号", "image": "", "rank": 14, "time": 2, "location": {"lat": 30.658396395752177, "lng": 117.49075024101599}, "feature": {"sight_features": "", "sight_content": ""}}, {"title": "锦盛庄园", "address": "鸭绿江路52号附近", "image": "", "rank": 15, "time": 2, "location": {"lat": 34.89029152832138, "lng": 115.54998224698224}, "feature": {"sight_features": "", "sight_content": ""}}, {"title": "健龙购物广场", "address": "城隍庙后街附近", "image": "", "rank": 16, "time": 2, "location": {"lat": 34.80832353820918, "lng": 114.34922730007817}, "feature": {"sight_features": "", "sight_content": ""}}, {"title": "四季河公园", "address": "菏泽市曹县气象局北", "image": "", "rank": 17, "time": 2, "location": {"lat": 34.83180934841467, "lng": 115.54845724362382}, "feature": {"sight_features": "", "sight_content": ""}}, {"title": "汤沟会馆", "address": "长江西路与青菏南路交叉口西南200米", "image": "", "rank": 18, "time": 2, "location": {"lat": 34.85637011262233, "lng": 115.55739509778694}, "feature": {"sight_features": "", "sight_content": ""}}, {"title": "乐幼悠儿童主题乐园", "address": "山东省菏泽市曹县新安江路汉光购物中心家得利购物广场", "image": "", "rank": 19, "time": 2, "location": {"lat": 34.83029020294487, "lng": 115.5548423929006}, "feature": {"sight_features": "", "sight_content": ""}}, {"title": "徐楼度假村", "address": "菏泽曹县G35济广高速（近徐楼西关）", "image": "", "rank": 20, "time": 2, "location": {"lat": 34.78836168751027, "lng": 115.6577425767123}, "feature": {"sight_features": "", "sight_content": ""}}, {"title": "博士后儿童乐园", "address": "菏泽市曹县", "image": "", "rank": 21, "time": 2, "location": {"lat": 34.83180934841467, "lng": 115.54845724362382}, "feature": {"sight_features": "", "sight_content": ""}}, {"title": "曹县生态花海公园", "address": "山东省菏泽市曹县", "image": "", "rank": 22, "time": 2, "location": {"lat": 34.83180934841467, "lng": 115.54845724362382}, "feature": {"sight_features": "", "sight_content": ""}}, {"title": "金旺达三楼海洋之星儿童乐园", "address": "曹县其他蒙泽湖商业街16号", "image": "", "rank": 23, "time": 2, "location": {"lat": 34.82530772978727, "lng": 115.55475849745409}, "feature": {"sight_features": "", "sight_content": ""}}, {"title": "人民公园", "address": "长江路西段人社局对面路北", "image": "", "rank": 24, "time": 2.5, "location": {"lat": 40.7742573060547, "lng": 114.89256205544682}, "feature": {"sight_features": "", "sight_content": ""}}, {"title": "宝贝乐儿童乐园", "address": "新安江路汉光购物中心负一楼（磐石宾馆对过）", "image": "", "rank": 25, "time": 2, "location": {"lat": 34.83066004330263, "lng": 115.55463509093805}, "feature": {"sight_features": "", "sight_content": ""}}, {"title": "侯集清真寺", "address": "山东省菏泽市曹县侯集回族镇许单路侯集镇政府东500米", "image": "", "rank": 26, "time": 2, "location": {"lat": 34.828093413371576, "lng": 115.7382709693406}, "feature": {"sight_features": "", "sight_content": ""}}, {"title": "南湖公园", "address": "山东省菏泽市曹县青菏南路", "image": "", "rank": 27, "time": 2.5, "location": {"lat": 34.82350276917642, "lng": 115.5562151285843}, "feature": {"sight_features": "", "sight_content": ""}}, {"title": "环岛游乐园", "address": "山东省菏泽市曹县S348(青菏中路)", "image": "", "rank": 28, "time": 2, "location": {"lat": 34.87464024610563, "lng": 115.55787754264243}, "feature": {"sight_features": "", "sight_content": ""}}, {"title": "东关清真寺", "address": "东关大街199号东关", "image": "", "rank": 29, "time": 2, "location": {"lat": 34.68955204896942, "lng": 112.49675261873175}, "feature": {"sight_features": "", "sight_content": ""}}, {"title": "菏泽少儿书画院(曹县分校)", "address": "府前路", "image": "", "rank": 30, "time": 2.0, "location": {"lat": 40.6095122160732, "lng": 117.1166282749851}, "feature": {"sight_features": "", "sight_content": ""}}, {"title": "曹县书画院", "address": "五里墩", "image": "", "rank": 31, "time": 2, "location": {"lat": 39.75133203228554, "lng": 99.25206390647799}, "feature": {"sight_features": "", "sight_content": ""}}, {"title": "水魔方水上乐园", "address": "汽车东站舜渔大酒店东500米左转1里地五里屯", "image": "", "rank": 32, "time": 2, "location": {"lat": 40.67471635617735, "lng": 122.24904617864392}, "feature": {"sight_features": "", "sight_content": ""}}, {"title": "曹县八里湾骑马场", "address": "八里湾风景区骑马场", "image": "", "rank": 33, "time": 2, "location": {"lat": 34.79924389697248, "lng": 115.5811852837265}, "feature": {"sight_features": "", "sight_content": ""}}, {"title": "红苹果实景", "address": "安才楼开发区452号", "image": "", "rank": 34, "time": 2, "location": {"lat": 34.70721502286959, "lng": 115.68555681021775}, "feature": {"sight_features": "", "sight_content": ""}}, {"title": "兆亿实景", "address": "大集乡万桑路65号", "image": "", "rank": 35, "time": 2, "location": {"lat": 34.74680692404574, "lng": 115.63750654370939}, "feature": {"sight_features": "", "sight_content": ""}}, {"title": "金欧实景(曹县店)", "address": "安蔡楼镇楚天集行政村", "image": "", "rank": 36, "time": 2, "location": {"lat": 34.7075577675271, "lng": 115.71953431782715}, "feature": {"sight_features": "", "sight_content": ""}}, {"title": "大观园画廊", "address": "蒙泽湖商业街50号附近", "image": "", "rank": 37, "time": 2, "location": {"lat": 34.825375365050824, "lng": 115.55032679705117}, "feature": {"sight_features": "", "sight_content": ""}}, {"title": "魔窟真人密室逃脱", "address": "曹城办事处健龙广场东侧二楼", "image": "", "rank": 38, "time": 2, "location": {"lat": 34.83154650085434, "lng": 115.55192090216171}, "feature": {"sight_features": "", "sight_content": ""}}, {"title": "蒙泽湖商业街", "address": "山东省曹县清荷南路", "image": "", "rank": 39, "time": 2, "location": {"lat": 34.83180934841467, "lng": 115.54845724362382}, "feature": {"sight_features": "", "sight_content": ""}}, {"title": "石狮商业街", "address": "山东省曹县石狮商业街", "image": "", "rank": 40, "time": 1.5, "location": {"lat": 34.88931559350717, "lng": 115.36613913359079}, "feature": {"sight_features": "", "sight_content": ""}}, {"title": "吴马庄村", "address": "菏泽市-曹县", "image": "", "rank": 41, "time": 2, "location": {"lat": 34.83180934841467, "lng": 115.54845724362382}, "feature": {"sight_features": "", "sight_content": ""}}, {"title": "张扁但庄", "address": "菏泽市-曹县", "image": "", "rank": 42, "time": 2, "location": {"lat": 34.83180934841467, "lng": 115.54845724362382}, "feature": {"sight_features": "", "sight_content": ""}}]}