{"cityName": "岑巩", "days": 2, "cityImage": "", "spots": [{"title": "中木召古庄园遗址", "address": "黔东南苗族侗族自治州岑巩县城东北23公里的大有乡中木自然村", "image": "", "rank": 1, "time": 0.75, "location": {"lat": 27.251982775357032, "lng": 108.83749275014307}, "feature": {"sight_features": "", "sight_content": ""}}, {"title": "龙鳌河风景名胜区", "address": "黔东南苗族侗族自治州岑巩县羊桥乡境内", "image": "", "rank": 2, "time": 2.5, "location": {"lat": 27.466566642748802, "lng": 108.86451420387449}, "feature": {"sight_features": "", "sight_content": ""}}, {"title": "马家寨", "address": "贵州省岑巩县水尾镇马家寨村 557804", "image": "", "rank": 3, "time": 2, "location": {"lat": 27.42036483488977, "lng": 108.95535711999946}, "feature": {"sight_features": "", "sight_content": ""}}, {"title": "回龙寺", "address": "黔东南苗族侗族自治州岑巩县", "image": "", "rank": 4, "time": 0.5, "location": {"lat": 27.17990241739444, "lng": 108.82248096195714}, "feature": {"sight_features": "", "sight_content": ""}}, {"title": "地标广场", "address": "新兴大道岑巩汽车站附近", "image": "", "rank": 5, "time": 2, "location": {"lat": 27.19102933137655, "lng": 108.82503841348895}, "feature": {"sight_features": "", "sight_content": ""}}, {"title": "龙江寺", "address": "注溪大道北50米", "image": "", "rank": 6, "time": 2, "location": {"lat": 27.26134373406034, "lng": 108.67345585078417}, "feature": {"sight_features": "", "sight_content": ""}}, {"title": "龙鳌河", "address": "贵州省岑巩县水尾镇", "image": "", "rank": 7, "time": 2.5, "location": {"lat": 27.417623826247656, "lng": 108.98695510074322}, "feature": {"sight_features": "", "sight_content": ""}}, {"title": "岑巩县华储步行街", "address": "贵州省岑巩县华储步行街C栋501", "image": "", "rank": 8, "time": 2, "location": {"lat": 27.17962893251229, "lng": 108.82352137939846}, "feature": {"sight_features": "", "sight_content": ""}}, {"title": "塘家塆", "address": "黔东南苗族侗族自治州-岑巩县", "image": "", "rank": 9, "time": null, "location": {"lat": 27.17990241739444, "lng": 108.82248096195714}, "feature": {"sight_features": "", "sight_content": ""}}]}