{"cityName": "岑溪", "days": 2, "cityImage": "", "spots": [{"title": "天龙顶国家山地公园", "address": "梧州市岑溪市南渡镇吉太村", "image": "", "rank": 1, "time": 7.5, "location": {"lat": 22.724769327505925, "lng": 110.88351934708255}, "feature": {"sight_features": "特色1 看原生态高山草甸，四季风光皆有各自特色。", "sight_content": "龙顶山地公园开发建设了龙脊仙桥、冰川遗址、田园水韵等自然景观。提供丰富多彩的观赏、攀登、野营、徒步穿越、度假疗养、溯溪、农家乐、采摘、探险、特色餐饮、山地自行车、瑜伽健身等山地旅游活动。\n龙脊仙桥被当地人称为“薄刀崎”。过龙脊仙桥就象走在“刀刃”上，海拔千米的“华山一条路”两侧都是数百米的陡峭悬崖，它是徒步者感受惊险与成功的乐途。也很象登长城，攀越五座山峰（烽火台）。沿途要经过奇石群、金竹道、悬崖壁、山鹰林等，运气好你还可以看到云海在你脚下飘过，享受一下在天上人间的感觉。\n田园水韵是山地公园乡村游的一大特色。向东涧是注入天龙潭的一股溪流，发源于天龙顶，溪水流经丹霞断层、石台地貌，连串形成数个瀑布。瀑布高低不同，大小不一，形状各异，映衬着田园、竹林、松树等，景色非常优美。瀑布层层叠叠，奔流而下，饶过村庄和农田。整个山林水声潺潺，时而急速，时而舒缓，与森林里的风声、鸟鸣合奏一曲“田园水韵”交响乐。"}}, {"title": "白霜涧", "address": "梧州市岑溪市南渡镇吉太社区", "image": "", "rank": 2, "time": 1.0, "location": {"lat": 22.725266434780302, "lng": 110.88348054028454}, "feature": {"sight_features": "特色1 具有飞流直下的瀑布，美丽神奇的传说", "sight_content": "白霜涧漂流溯溪观瀑景点全长2.1公里，游程约60分钟，沿途老人小孩可走安全路径，感受溪流潺潺，山幽鸟鸣；年青人寻求刺激可以走溯溪探险地带，在惊险刺激中过浮桥、网桥、铁链梯、坐浮艇、攀山岩、穿密林，享受大自然的恩赐。\n漂流全程3.6公里，用时2小时，水文落差120米。两岸森林茂密，风景如画；河边奇石林立，形态各异；途经景点有千尺峡、小三峡、小象迎客。。。。一路胜景，目不睱接。还有许多美丽神奇传说，如木马救难、仙人指路等，这自然与人文相结合的景观，一定会让您流连忘返、快乐无穷！"}}, {"title": "石庙山", "address": "梧州市岑溪市南渡镇吉太社区", "image": "", "rank": 3, "time": 1.0, "location": {"lat": 22.725266434780302, "lng": 110.88348054028454}, "feature": {"sight_features": "特色1 石中溪水万上青，庙前风景千古秀", "sight_content": "在群山环绕的黄华河中上游，屹立着一座古老的石山，这就是远近闻名的石庙旅游点。它位于水汶镇西南部，座落在兆阳村委会后面，西邻吉太乡，东北与大隆镇相邻，南邻广东朱砂镇，距水汶镇政府驻地12公里。石庙相对高度950米，占地面积170多亩。气候冬暖夏凉，四季宜人，年平均温度20.3℃，雨量充沛，历年平均湿度为78%。石庙资源丰富，有金属矿和非金属矿，有各种野生动物等。\n石庙四周群山怀抱，连绵起伏，直通云间。一条小溪由左向右环绕着山脚，与黄华河相接，连成一体，就象一条玉带盘绕着石庙。一条公路盘旋石庙山间而上，直通石庙顶。石庙山上怪石嶙峋，奇峰突起，千姿百态，花草树木在石缝间生长，枝繁叶茂，每逢早晚，云雾笼罩，就象人间仙景。有民诗赞“石中溪水万上青，庙前风景千古秀”，可与“桂林山水”相毗美。\n相传盘古开天辟地，天上三位仙人指使三个石人赶石山往土柱顶，赶到石庙（后取名）时天已亮，就赶不动石山了，就让其座落花流水在此处，并指派盘古老神在此镇守，后取名石庙。盘古老神在盘古大石上种下一株柑桔树，每年中秋月圆时分就“流泪”（流桔子）向天哭诉申冤，但始终喊天不应，叫地不闻。后来，有人在盘古石下面建了一座庙，叫盘古庙，也叫石庙，据说这个石庙很灵，一直以来香火鼎盛，香客甚众。"}}, {"title": "大竹龙母庙", "address": "广西梧州市岑溪市糯垌镇大竹村", "image": "", "rank": 4, "time": 1.0, "location": {"lat": 23.053546866585247, "lng": 111.04386354515229}, "feature": {"sight_features": "", "sight_content": ""}}, {"title": "邓公庙", "address": "广西壮族自治区梧州市岑溪市南渡镇南安街305号", "image": "", "rank": 5, "time": 1.0, "location": {"lat": 22.854003950038148, "lng": 110.83598781899194}, "feature": {"sight_features": "", "sight_content": ""}}, {"title": "岑溪珍稀植物红豆杉", "address": "广西梧州市岑溪市南渡镇吉太村", "image": "", "rank": 6, "time": 7.5, "location": {"lat": 22.724769327505925, "lng": 110.88351934708255}, "feature": {"sight_features": "", "sight_content": ""}}, {"title": "岑溪东山欢乐园", "address": "体育路42号", "image": "", "rank": 7, "time": 7.5, "location": {"lat": 41.31380616162923, "lng": 123.77643823343043}, "feature": {"sight_features": "", "sight_content": ""}}, {"title": "美术村合作医疗卫生所", "address": "三堡派出所附近", "image": "", "rank": 8, "time": 2, "location": {"lat": 33.46419305546652, "lng": 119.15746538592356}, "feature": {"sight_features": "", "sight_content": ""}}, {"title": "岑溪市泽丰传媒", "address": "学府一号楼盘", "image": "", "rank": 9, "time": 7.5, "location": {"lat": 22.92462127871964, "lng": 111.00143182658881}, "feature": {"sight_features": "", "sight_content": ""}}, {"title": "夫妻山", "address": "广西壮族自治区岑溪市境内 543200", "image": "", "rank": 10, "time": 2, "location": {"lat": 22.92462127871964, "lng": 111.00143182658881}, "feature": {"sight_features": "", "sight_content": ""}}, {"title": "樟木古街", "address": "工农路与324国道交叉口西50米", "image": "", "rank": 11, "time": null, "location": {"lat": 22.95613305550315, "lng": 109.77474608372277}, "feature": {"sight_features": "", "sight_content": ""}}, {"title": "岑溪余氏故居", "address": "广西壮族自治区梧州岑溪市中林村附近", "image": "", "rank": 12, "time": 7.5, "location": {"lat": 22.910790612708936, "lng": 110.86434831904776}, "feature": {"sight_features": "", "sight_content": ""}}, {"title": "港湾乐园", "address": "广西壮族自治区梧州市岑溪市岑城镇沿江二路港湾乐园", "image": "", "rank": 13, "time": 2, "location": {"lat": 22.917998651634317, "lng": 110.99666182612901}, "feature": {"sight_features": "", "sight_content": ""}}, {"title": "太福社", "address": "岑城镇义洲大道红五星宾馆对面", "image": "", "rank": 14, "time": 2, "location": {"lat": 22.91538648334545, "lng": 111.01377570041102}, "feature": {"sight_features": "", "sight_content": ""}}, {"title": "岑溪市谭氏宗祠", "address": "工农路与324国道交叉口西150米", "image": "", "rank": 15, "time": 7.5, "location": {"lat": 22.95613305550315, "lng": 109.77474608372277}, "feature": {"sight_features": "", "sight_content": ""}}, {"title": "刘三娘庙", "address": "广西壮族自治区梧州市岑溪市", "image": "", "rank": 16, "time": 2, "location": {"lat": 22.92462127871964, "lng": 111.00143182658881}, "feature": {"sight_features": "", "sight_content": ""}}, {"title": "文化公园", "address": "广西壮族自治区梧州市岑溪市工农路58号", "image": "", "rank": 17, "time": 2, "location": {"lat": 22.92608480981738, "lng": 111.00220267332635}, "feature": {"sight_features": "", "sight_content": ""}}, {"title": "咖啡猫游乐场", "address": "梧州市岑溪市", "image": "", "rank": 18, "time": 2, "location": {"lat": 22.92462127871964, "lng": 111.00143182658881}, "feature": {"sight_features": "", "sight_content": ""}}, {"title": "小广场", "address": "梧州市岑溪市城中路83号", "image": "", "rank": 19, "time": 1.5, "location": {"lat": 22.92180645771633, "lng": 111.00050953632203}, "feature": {"sight_features": "", "sight_content": ""}}, {"title": "雷祖庙", "address": "324国道附近", "image": "", "rank": 20, "time": 2, "location": {"lat": 23.154734358898722, "lng": 114.20469410313481}, "feature": {"sight_features": "", "sight_content": ""}}, {"title": "百花洲公园", "address": "滨江一路附近", "image": "", "rank": 21, "time": 1.0, "location": {"lat": 23.076433420525788, "lng": 113.16608039909899}, "feature": {"sight_features": "", "sight_content": ""}}, {"title": "归义镇图书馆", "address": "新墟富民街", "image": "", "rank": 22, "time": 2, "location": {"lat": 22.908095904418335, "lng": 111.09684426833299}, "feature": {"sight_features": "", "sight_content": ""}}, {"title": "岑溪市图书馆", "address": "工农路46号", "image": "", "rank": 23, "time": 1.5, "location": {"lat": 38.42214066867702, "lng": 115.32660771921674}, "feature": {"sight_features": "", "sight_content": ""}}, {"title": "吉太漂流风景区", "address": "南渡镇吉太社区", "image": "", "rank": 24, "time": 2, "location": {"lat": 22.725266434780302, "lng": 110.88348054028454}, "feature": {"sight_features": "", "sight_content": ""}}, {"title": "金得利门厂提货仓", "address": "北环大道", "image": "", "rank": 25, "time": 2, "location": {"lat": 37.08865031607019, "lng": 115.03384629830981}, "feature": {"sight_features": "", "sight_content": ""}}, {"title": "阳光农业园游乐中心", "address": "归义镇荔枝村大坡桥头", "image": "", "rank": 26, "time": 2, "location": {"lat": 22.902865465186707, "lng": 111.13372783557705}, "feature": {"sight_features": "", "sight_content": ""}}, {"title": "演出管理站", "address": "岑城镇岑溪市文体中心", "image": "", "rank": 27, "time": 2, "location": {"lat": 22.906277570624827, "lng": 111.00967276275831}, "feature": {"sight_features": "", "sight_content": ""}}, {"title": "公牛风度", "address": "岑城镇南北大道258号", "image": "", "rank": 28, "time": 2, "location": {"lat": 22.921585940213173, "lng": 111.00277769395427}, "feature": {"sight_features": "", "sight_content": ""}}, {"title": "岑溪市青年艺术团", "address": "新兴一街60号", "image": "", "rank": 29, "time": 7.5, "location": {"lat": 22.930388432338635, "lng": 111.01227856019435}, "feature": {"sight_features": "", "sight_content": ""}}, {"title": "岑溪市牛娘剧团", "address": "工农路58号", "image": "", "rank": 30, "time": 7.5, "location": {"lat": 37.98734013048112, "lng": 114.59931278278353}, "feature": {"sight_features": "", "sight_content": ""}}, {"title": "石庙", "address": "广西壮族自治区岑溪市水汶镇西南部", "image": "", "rank": 31, "time": 1.5, "location": {"lat": 22.71478074215609, "lng": 110.92911117956461}, "feature": {"sight_features": "", "sight_content": ""}}, {"title": "义州商业四街", "address": "广西壮族自治区岑溪市义州商业四街", "image": "", "rank": 32, "time": null, "location": {"lat": 22.918182286492087, "lng": 111.00561685229731}, "feature": {"sight_features": "", "sight_content": ""}}]}