{"cityName": "察布查尔", "days": 2, "cityImage": "", "spots": [{"title": "白石峰", "address": "新疆维吾尔自治区伊犁哈萨克自治州察布查尔锡伯自治县", "image": "", "rank": 1, "time": 2, "location": {"lat": 43.846690330451665, "lng": 81.1579245709068}, "feature": {"sight_features": "", "sight_content": ""}}, {"title": "伊河龙庭农家乐", "address": "721县道北100米", "image": "", "rank": 2, "time": 2, "location": {"lat": 41.60440488967974, "lng": 122.26364414443552}, "feature": {"sight_features": "", "sight_content": ""}}, {"title": "畅园庄园", "address": "伊昭公路边", "image": "", "rank": 3, "time": 2, "location": {"lat": 43.42925624512017, "lng": 81.05220131407907}, "feature": {"sight_features": "", "sight_content": ""}}, {"title": "清水湖生态旅游度假村", "address": "新疆维吾尔自治区察布查尔锡伯自治县霍尔乡 835300", "image": "", "rank": 4, "time": 2, "location": {"lat": 43.846690330451665, "lng": 81.1579245709068}, "feature": {"sight_features": "", "sight_content": ""}}, {"title": "图伯特纪念馆", "address": "新疆维吾尔自治区察布查尔锡伯自治县纳达齐牛录乡 835300", "image": "", "rank": 5, "time": 2, "location": {"lat": 43.8363692771365, "lng": 81.18974735324367}, "feature": {"sight_features": "", "sight_content": ""}}, {"title": "靖远寺", "address": "新疆维吾尔自治区察布查尔锡伯自治县孙扎奇乡 835300", "image": "", "rank": 6, "time": 2.0, "location": {"lat": 43.846690330451665, "lng": 81.1579245709068}, "feature": {"sight_features": "", "sight_content": ""}}, {"title": "中国历代酷刑展", "address": "伊犁河游乐园旁", "image": "", "rank": 7, "time": 2, "location": {"lat": 43.88797819776974, "lng": 81.30518511420557}, "feature": {"sight_features": "", "sight_content": ""}}, {"title": "中国民族博物馆察布查尔锡伯自治...", "address": "牛录乡", "image": "", "rank": 8, "time": 2, "location": {"lat": 43.84326276702193, "lng": 81.07881942837594}, "feature": {"sight_features": "", "sight_content": ""}}, {"title": "中华弓箭文化博物馆", "address": "殷登路布哈街", "image": "", "rank": 9, "time": 2, "location": {"lat": 43.841820631854475, "lng": 81.15662436351167}, "feature": {"sight_features": "", "sight_content": ""}}, {"title": "察布查尔锡伯自治县档案馆", "address": "查鲁盖路东街28号", "image": "", "rank": 10, "time": 2, "location": {"lat": 43.84541944131118, "lng": 81.17633829865724}, "feature": {"sight_features": "", "sight_content": ""}}, {"title": "伊犁吉马游乐场", "address": "阿顿巴村活畜综合交易市场东200米", "image": "", "rank": 11, "time": 2, "location": {"lat": 39.99923724972649, "lng": 118.57790553022053}, "feature": {"sight_features": "", "sight_content": ""}}, {"title": "白天马渡假村", "address": "塔什科瑞克乡政府南1000米", "image": "", "rank": 12, "time": null, "location": {"lat": 43.89464954671883, "lng": 81.3146532806909}, "feature": {"sight_features": "", "sight_content": ""}}, {"title": "奇遇山庄", "address": "S237努拉洪布拉克牧场村西南侧", "image": "", "rank": 13, "time": 2, "location": {"lat": 43.513528574161725, "lng": 81.13443434669398}, "feature": {"sight_features": "", "sight_content": ""}}, {"title": "银顶寺", "address": "新疆维吾尔自治区察布查尔锡伯自治县海努克乡西北", "image": "", "rank": 14, "time": 2, "location": {"lat": 43.73232028494116, "lng": 81.32334534202752}, "feature": {"sight_features": "", "sight_content": ""}}, {"title": "库勒特克其格村", "address": "伊犁哈萨克自治州-察布查尔锡伯自治县", "image": "", "rank": 15, "time": 2, "location": {"lat": 43.846690330451665, "lng": 81.1579245709068}, "feature": {"sight_features": "", "sight_content": ""}}, {"title": "琼塔木村", "address": "伊犁哈萨克自治州-察布查尔锡伯自治县-零五三乡道", "image": "", "rank": 16, "time": 2, "location": {"lat": 43.846690330451665, "lng": 81.1579245709068}, "feature": {"sight_features": "", "sight_content": ""}}, {"title": "穆地里霍洛村", "address": "伊犁哈萨克自治州-察布查尔锡伯自治县-零一五乡道", "image": "", "rank": 17, "time": 2, "location": {"lat": 43.846690330451665, "lng": 81.1579245709068}, "feature": {"sight_features": "", "sight_content": ""}}, {"title": "清泉二队", "address": "伊犁哈萨克自治州-察布查尔锡伯自治县-七一五县道", "image": "", "rank": 18, "time": 2, "location": {"lat": 43.694657066588114, "lng": 81.54708812461725}, "feature": {"sight_features": "", "sight_content": ""}}, {"title": "琼布拉克村", "address": "伊犁哈萨克自治州-察布查尔锡伯自治县-七一五县道", "image": "", "rank": 19, "time": 2, "location": {"lat": 43.694657066588114, "lng": 81.54708812461725}, "feature": {"sight_features": "", "sight_content": ""}}, {"title": "寨牛录村", "address": "伊犁哈萨克自治州-察布查尔锡伯自治县-七一五县道", "image": "", "rank": 20, "time": 2, "location": {"lat": 43.694657066588114, "lng": 81.54708812461725}, "feature": {"sight_features": "", "sight_content": ""}}, {"title": "乌尔坦六队", "address": "伊犁哈萨克自治州-察布查尔锡伯自治县-零五三乡道", "image": "", "rank": 21, "time": 2, "location": {"lat": 43.846690330451665, "lng": 81.1579245709068}, "feature": {"sight_features": "", "sight_content": ""}}, {"title": "乌合尔达村", "address": "伊犁哈萨克自治州-察布查尔锡伯自治县-七一五县道", "image": "", "rank": 22, "time": null, "location": {"lat": 43.694657066588114, "lng": 81.54708812461725}, "feature": {"sight_features": "", "sight_content": ""}}, {"title": "孙扎齐牛录村", "address": "伊犁哈萨克自治州-察布查尔锡伯自治县", "image": "", "rank": 23, "time": 2, "location": {"lat": 43.846690330451665, "lng": 81.1579245709068}, "feature": {"sight_features": "", "sight_content": ""}}, {"title": "百合家宴农家乐", "address": "伊犁哈萨克自治州-察布查尔锡伯自治县-查鲁盖路东街70号附近", "image": "", "rank": 24, "time": 2, "location": {"lat": 43.846642299301685, "lng": 81.16525507555025}, "feature": {"sight_features": "", "sight_content": ""}}, {"title": "杏花沟野杏林", "address": "伊犁州新源县吐尔根乡", "image": "", "rank": 25, "time": 2, "location": {"lat": 43.58425657909841, "lng": 83.41296266627238}, "feature": {"sight_features": "", "sight_content": ""}}]}