{"cityName": "茶陵", "days": 2, "cityImage": "", "spots": [{"title": "云阳国家森林公园", "address": "株洲市茶陵县106国道", "image": "", "rank": 1, "time": 3.5, "location": {"lat": 26.54645583662992, "lng": 113.64661124566409}, "feature": {"sight_features": "", "sight_content": ""}}, {"title": "茶陵县工农兵政府旧址", "address": "株洲市茶陵县", "image": "", "rank": 2, "time": 2.5, "location": {"lat": 26.78358911035979, "lng": 113.54547165714293}, "feature": {"sight_features": "", "sight_content": ""}}, {"title": "云阳山", "address": "株洲市茶陵县城关镇十八丘", "image": "", "rank": 3, "time": 2, "location": {"lat": 26.79783947372363, "lng": 113.55051462839286}, "feature": {"sight_features": "", "sight_content": ""}}, {"title": "乐翔热气球飞行营地", "address": "株洲市群丰镇湘江大道和株雷路悠移庄园", "image": "", "rank": 4, "time": 2, "location": {"lat": 27.744223878915403, "lng": 113.12075730459152}, "feature": {"sight_features": "", "sight_content": ""}}, {"title": "东门塔", "address": "湖南株洲茶陵县", "image": "", "rank": 5, "time": 2, "location": {"lat": 26.78358911035979, "lng": 113.54547165714293}, "feature": {"sight_features": "", "sight_content": ""}}, {"title": "吴记家庭农场草莓园", "address": "腰陂镇中心医院斜对面S320路口", "image": "", "rank": 6, "time": 2, "location": {"lat": 38.04577491685916, "lng": 114.53347578241478}, "feature": {"sight_features": "", "sight_content": ""}}, {"title": "皇雩山", "address": "湖南省茶陵县水田乡东坑村 412400", "image": "", "rank": 7, "time": 2, "location": {"lat": 26.88872285503184, "lng": 113.87845872257476}, "feature": {"sight_features": "", "sight_content": ""}}, {"title": "桃江社区广场", "address": "吉祥路与和谐路交叉口东50米", "image": "", "rank": 8, "time": 1.0, "location": {"lat": 26.771715651836082, "lng": 113.54461651341637}, "feature": {"sight_features": "", "sight_content": ""}}, {"title": "试剑岩", "address": "广西壮族自治区阳朔县境内 541900", "image": "", "rank": 9, "time": 2, "location": {"lat": 24.7845191914325, "lng": 110.50347503171274}, "feature": {"sight_features": "", "sight_content": ""}}, {"title": "皇雩仙寺", "address": "湖南省茶陵县水田乡东坑村 412400", "image": "", "rank": 10, "time": 1.0, "location": {"lat": 26.88872285503184, "lng": 113.87845872257476}, "feature": {"sight_features": "", "sight_content": ""}}, {"title": "观音阁南杂店", "address": "红满天商业步行街附近", "image": "", "rank": 11, "time": 2, "location": {"lat": 26.797450432197852, "lng": 113.55221151312777}, "feature": {"sight_features": "", "sight_content": ""}}, {"title": "大风车儿童游乐园", "address": "株洲市茶陵县", "image": "", "rank": 12, "time": 2, "location": {"lat": 26.78358911035979, "lng": 113.54547165714293}, "feature": {"sight_features": "", "sight_content": ""}}, {"title": "喜洋洋儿童乐园", "address": "株洲市茶陵县地王国际5栋", "image": "", "rank": 13, "time": 2, "location": {"lat": 26.796323743252575, "lng": 113.55202078400364}, "feature": {"sight_features": "", "sight_content": ""}}, {"title": "三楼儿童游乐园", "address": "交通街与广场北路交叉口东100米", "image": "", "rank": 14, "time": 2, "location": {"lat": 26.79637765870884, "lng": 113.55237221818683}, "feature": {"sight_features": "", "sight_content": ""}}, {"title": "娇娇儿童乐园", "address": "湖南省株洲市茶陵县S320", "image": "", "rank": 15, "time": 2, "location": {"lat": 26.78358911035979, "lng": 113.54547165714293}, "feature": {"sight_features": "", "sight_content": ""}}, {"title": "陈氏宗祠", "address": "湖南省株洲市茶陵县X050", "image": "", "rank": 16, "time": 2, "location": {"lat": 26.78358911035979, "lng": 113.54547165714293}, "feature": {"sight_features": "", "sight_content": ""}}, {"title": "犀城广场", "address": "株洲市茶陵县金鑫国际1楼", "image": "", "rank": 17, "time": 2, "location": {"lat": 26.795531989619782, "lng": 113.55548309238722}, "feature": {"sight_features": "", "sight_content": ""}}, {"title": "牧童儿童乐园(茶陵园)", "address": "茶陵县钢材大市场二楼(红桥加油站)", "image": "", "rank": 18, "time": 2, "location": {"lat": 26.805752704474838, "lng": 113.54908666937841}, "feature": {"sight_features": "", "sight_content": ""}}, {"title": "神农度假村", "address": "青年电站", "image": "", "rank": 19, "time": 2, "location": {"lat": 26.553685426824103, "lng": 113.633108333158}, "feature": {"sight_features": "", "sight_content": ""}}, {"title": "慧科生态园", "address": "106国道", "image": "", "rank": 20, "time": 2, "location": {"lat": 39.1725896711994, "lng": 116.39041588203045}, "feature": {"sight_features": "", "sight_content": ""}}, {"title": "紫荆花欢乐世界", "address": "陵园路", "image": "", "rank": 21, "time": 2, "location": {"lat": 39.621393536285936, "lng": 118.17592745707117}, "feature": {"sight_features": "", "sight_content": ""}}, {"title": "钢板钢圈专销", "address": "炎帝大道湘林超市南侧", "image": "", "rank": 22, "time": 2, "location": {"lat": 25.534099950494795, "lng": 113.92002058855726}, "feature": {"sight_features": "", "sight_content": ""}}, {"title": "源泰航不锈钢总经销", "address": "炎帝南路名人居家具贵族生活馆旁", "image": "", "rank": 23, "time": 2, "location": {"lat": 26.771687435854812, "lng": 113.53838033104267}, "feature": {"sight_features": "", "sight_content": ""}}, {"title": "茶陵县观垅里刨花楠种植有限公司", "address": "106国道附近", "image": "", "rank": 24, "time": 2, "location": {"lat": 39.1725896711994, "lng": 116.39041588203045}, "feature": {"sight_features": "", "sight_content": ""}}, {"title": "剧场", "address": "一二零乡道", "image": "", "rank": 25, "time": 2, "location": {"lat": 39.759357747243186, "lng": 119.07126443833883}, "feature": {"sight_features": "", "sight_content": ""}}, {"title": "茶陵神农殿", "address": "湖南省茶陵县云阳山东麓", "image": "", "rank": 26, "time": 2.5, "location": {"lat": 26.76109921750051, "lng": 113.47600601546927}, "feature": {"sight_features": "", "sight_content": ""}}, {"title": "南浦铁犀", "address": "湖南省茶陵县城关镇人民街", "image": "", "rank": 27, "time": 2, "location": {"lat": 26.797956852470328, "lng": 113.56581082100148}, "feature": {"sight_features": "", "sight_content": ""}}, {"title": "红满天商业步行城", "address": "湖南省茶陵县红满天商业步行城", "image": "", "rank": 28, "time": 2, "location": {"lat": 26.796419624976416, "lng": 113.55283411250704}, "feature": {"sight_features": "", "sight_content": ""}}, {"title": "地王国际商业街", "address": "湖南省茶陵县交通街", "image": "", "rank": 29, "time": 2, "location": {"lat": 26.79637765870884, "lng": 113.55237221818683}, "feature": {"sight_features": "", "sight_content": ""}}, {"title": "羊脑上", "address": "株洲市-茶陵县", "image": "", "rank": 30, "time": 2, "location": {"lat": 26.78358911035979, "lng": 113.54547165714293}, "feature": {"sight_features": "", "sight_content": ""}}, {"title": "中华茶祖文化产业园规划展示中心", "address": "株洲市-茶陵县-犀城大道与赤松街交叉口北50米", "image": "", "rank": 31, "time": 2, "location": {"lat": 26.79096179515053, "lng": 113.53399443074763}, "feature": {"sight_features": "", "sight_content": ""}}]}