{"cityName": "常宁", "days": 2, "cityImage": "", "spots": [{"title": "常宁百万樱花园", "address": "衡阳市常宁市罗桥镇对江村", "image": "", "rank": 1, "time": 7.5, "location": {"lat": 26.292718548857394, "lng": 112.49112139496816}, "feature": {"sight_features": "", "sight_content": ""}}, {"title": "洋泉水库", "address": "湖南省常宁市洋泉镇巷坪村 421524", "image": "", "rank": 2, "time": null, "location": {"lat": 26.278610576385038, "lng": 112.27455496613351}, "feature": {"sight_features": "", "sight_content": ""}}, {"title": "矿山公园", "address": "济齐路", "image": "", "rank": 3, "time": null, "location": {"lat": 36.70892551294945, "lng": 116.88717489896166}, "feature": {"sight_features": "", "sight_content": ""}}, {"title": "常宁市图书馆", "address": "宜阳镇新村路12号", "image": "", "rank": 4, "time": 1.5, "location": {"lat": 26.409689593678007, "lng": 112.40048319009256}, "feature": {"sight_features": "", "sight_content": ""}}, {"title": "七星生态农业", "address": "桃江路45-5", "image": "", "rank": 5, "time": 2, "location": {"lat": 31.215532398159876, "lng": 121.45475511332715}, "feature": {"sight_features": "", "sight_content": ""}}, {"title": "常宁市剧院", "address": "解放北路102号附近", "image": "", "rank": 6, "time": 2.0, "location": {"lat": 39.13036410730824, "lng": 117.2191369997132}, "feature": {"sight_features": "", "sight_content": ""}}, {"title": "第一读者长宁生活馆", "address": "青阳南路23号附近", "image": "", "rank": 7, "time": 2, "location": {"lat": 31.853745069205413, "lng": 117.24817737320122}, "feature": {"sight_features": "", "sight_content": ""}}, {"title": "西门桥", "address": "湖南省常宁市常宁市城西侧 421500", "image": "", "rank": 8, "time": 2, "location": {"lat": 26.42672043225662, "lng": 112.40556050266383}, "feature": {"sight_features": "", "sight_content": ""}}, {"title": "曲潭桥", "address": "湖南省常宁市曲潭乡回江村 421500", "image": "", "rank": 9, "time": 2, "location": {"lat": 26.40814817358559, "lng": 112.45296725542816}, "feature": {"sight_features": "", "sight_content": ""}}, {"title": "泉峰公园", "address": "胜利居委会", "image": "", "rank": 10, "time": 2, "location": {"lat": 40.14235729458856, "lng": 116.6617367060253}, "feature": {"sight_features": "", "sight_content": ""}}, {"title": "天堂山风景名胜区", "address": "湖南省常宁市常宁市南部 421500", "image": "", "rank": 11, "time": 3.5, "location": {"lat": 26.42672043225662, "lng": 112.40556050266383}, "feature": {"sight_features": "", "sight_content": ""}}, {"title": "新洲水上乐园", "address": "湖南省衡阳市常宁市X083", "image": "", "rank": 12, "time": 2, "location": {"lat": 26.42672043225662, "lng": 112.40556050266383}, "feature": {"sight_features": "", "sight_content": ""}}, {"title": "儿童主题乐园", "address": "湖南省衡阳市常宁市宜阳街道常衡路生源百货", "image": "", "rank": 13, "time": 2, "location": {"lat": 26.411761600879807, "lng": 112.40775111497128}, "feature": {"sight_features": "", "sight_content": ""}}, {"title": "南门湖歌剧院", "address": "衡阳市常宁市泉峰西路474号附近", "image": "", "rank": 14, "time": 2, "location": {"lat": 26.406872405633173, "lng": 112.40203657279042}, "feature": {"sight_features": "", "sight_content": ""}}, {"title": "蓬塘福音堂", "address": "衡阳市常宁市", "image": "", "rank": 15, "time": 2, "location": {"lat": 26.42672043225662, "lng": 112.40556050266383}, "feature": {"sight_features": "", "sight_content": ""}}, {"title": "乐世界儿童乐园", "address": "湖南省衡阳市常宁市群英西路17号", "image": "", "rank": 16, "time": 2, "location": {"lat": 26.41388879359011, "lng": 112.3972654597569}, "feature": {"sight_features": "", "sight_content": ""}}, {"title": "东风广场", "address": "衡阳市常宁市青阳路128号", "image": "", "rank": 17, "time": 2, "location": {"lat": 26.413483686941856, "lng": 112.40673594620291}, "feature": {"sight_features": "", "sight_content": ""}}, {"title": "爱米奇儿童主题乐园", "address": "老北门桥外滩首府大厦拾年梦缘上二楼", "image": "", "rank": 18, "time": 2, "location": {"lat": 32.39702848680579, "lng": 119.44187826892939}, "feature": {"sight_features": "", "sight_content": ""}}, {"title": "快乐星游乐园", "address": "松柏-欧家洲（开乐基二楼）", "image": "", "rank": 19, "time": 2, "location": {"lat": 26.596036587289696, "lng": 112.58959225885401}, "feature": {"sight_features": "", "sight_content": ""}}, {"title": "中国西江漂流", "address": "080县道", "image": "", "rank": 20, "time": 2, "location": {"lat": 28.190527522392223, "lng": 112.69103462753534}, "feature": {"sight_features": "", "sight_content": ""}}, {"title": "陈家洲梦幻庄园(水上乐园部)", "address": "松柏镇陈家洲内(陈家洲湘江大桥西侧)", "image": "", "rank": 21, "time": 2, "location": {"lat": 26.588705011651175, "lng": 112.56130068197942}, "feature": {"sight_features": "", "sight_content": ""}}, {"title": "常宁市职教中心正雄生态农业园", "address": "517乡道东50米", "image": "", "rank": 22, "time": 2, "location": {"lat": 35.37720857982394, "lng": 113.08436330673442}, "feature": {"sight_features": "", "sight_content": ""}}, {"title": "常宁市聚宝盆生物农业科技推广专...", "address": "517乡道附近", "image": "", "rank": 23, "time": 2, "location": {"lat": 23.750144388962212, "lng": 112.38765386029495}, "feature": {"sight_features": "", "sight_content": ""}}, {"title": "游乐场", "address": "青阳中路", "image": "", "rank": 24, "time": 2, "location": {"lat": 30.534965951078707, "lng": 120.43918271441467}, "feature": {"sight_features": "", "sight_content": ""}}, {"title": "邓塘魔幻水上乐园", "address": "外环西路检察院斜对面邓塘魔幻水上乐园(检察院斜对面)", "image": "", "rank": 25, "time": 2, "location": {"lat": 39.14202757776393, "lng": 117.17002018495423}, "feature": {"sight_features": "", "sight_content": ""}}, {"title": "浯洲岛", "address": "新河浯洲岛", "image": "", "rank": 26, "time": 2, "location": {"lat": 37.53459060153626, "lng": 115.24854716945154}, "feature": {"sight_features": "", "sight_content": ""}}, {"title": "西江漂流", "address": "塔山乡西江村", "image": "", "rank": 27, "time": 2, "location": {"lat": 40.86110527756074, "lng": 120.95533254959274}, "feature": {"sight_features": "", "sight_content": ""}}, {"title": "常宁市宏兴农业农民专业合作社", "address": "宜潭乡乌联村西南侧", "image": "", "rank": 28, "time": 2, "location": {"lat": 26.415462986896916, "lng": 112.40963736699914}, "feature": {"sight_features": "", "sight_content": ""}}, {"title": "农业综合开发办", "address": "泉峰西路105号", "image": "", "rank": 29, "time": 2, "location": {"lat": 26.40681421344766, "lng": 112.40290196750794}, "feature": {"sight_features": "", "sight_content": ""}}, {"title": "a健美俱乐部", "address": "泉峰广场泉峰公馆201室", "image": "", "rank": 30, "time": 2, "location": {"lat": 26.402812635344183, "lng": 112.4028520217216}, "feature": {"sight_features": "", "sight_content": ""}}, {"title": "工人运动陈列馆", "address": "Z041与Z046交叉口西150米", "image": "", "rank": 31, "time": 2, "location": {"lat": 25.261996750211555, "lng": 110.22857180675695}, "feature": {"sight_features": "", "sight_content": ""}}, {"title": "大鲨鱼水上乐园", "address": "水口山松柏镇三角塘村(邹鹰幼儿园旁)", "image": "", "rank": 32, "time": 2, "location": {"lat": 27.38831492091333, "lng": 111.65543652162096}, "feature": {"sight_features": "", "sight_content": ""}}, {"title": "R-time密室逃脱", "address": "群英路", "image": "", "rank": 33, "time": 2, "location": {"lat": 36.596105422760175, "lng": 114.54693262173402}, "feature": {"sight_features": "", "sight_content": ""}}, {"title": "庙前风景区", "address": "湖南省常宁市庙前镇", "image": "", "rank": 34, "time": 2, "location": {"lat": 26.18371570329997, "lng": 112.52570504049714}, "feature": {"sight_features": "", "sight_content": ""}}, {"title": "大义山", "address": "湖南省常宁市市东17km处", "image": "", "rank": 35, "time": 2, "location": {"lat": 26.42672043225662, "lng": 112.40556050266383}, "feature": {"sight_features": "", "sight_content": ""}}, {"title": "康家戏台", "address": "湖南省常宁市水口山街口", "image": "", "rank": 36, "time": 2, "location": {"lat": 26.306413343289776, "lng": 112.39034461497458}, "feature": {"sight_features": "", "sight_content": ""}}, {"title": "财神溶洞", "address": "湖南省常宁市东南部", "image": "", "rank": 37, "time": 2, "location": {"lat": 26.42672043225662, "lng": 112.40556050266383}, "feature": {"sight_features": "", "sight_content": ""}}, {"title": "紫阳步行街", "address": "湖南省常宁市紫阳步行街", "image": "", "rank": 38, "time": 3.0, "location": {"lat": 26.414419064944127, "lng": 112.40036796624145}, "feature": {"sight_features": "", "sight_content": ""}}, {"title": "老屋蒋家", "address": "衡阳市-常宁市", "image": "", "rank": 39, "time": 2, "location": {"lat": 26.42672043225662, "lng": 112.40556050266383}, "feature": {"sight_features": "", "sight_content": ""}}, {"title": "道顺湾", "address": "衡阳市-常宁市-零七五县道", "image": "", "rank": 40, "time": 2, "location": {"lat": 26.42672043225662, "lng": 112.40556050266383}, "feature": {"sight_features": "", "sight_content": ""}}]}