{"cityName": "常德", "days": "", "cityImage": "", "spots": [{"title": "桃花源", "address": "常德市桃源县桃花源镇", "image": "", "rank": 1, "time": 4.5, "location": {"lat": 28.758243009993926, "lng": 111.44138810960455}, "feature": {"sight_features": "特色1 桃花源历史源远流长、底蕴深厚 特色2 陶渊明《桃花源记》中所描述的世外桃源", "sight_content": "秦溪秦谷寻梦体验之旅\n\n当年武陵渔郎溯溪而上，误入桃花源，正是从溪进入秦谷。在这片古朴自然的村落里感受到了人间的温暖与平和。这是一条深度和谐的游线，夜晚还将在秦溪上演全球最长的山水实景演出《桃花源记》。\n\n两山一湖千年文化之旅\n“两山一湖”包括桃花山、桃源山和五柳湖。五柳湖静影湖色、摇橹泛舟、各类文化展馆；桃花山下复古情长、诗文碑刻、“采菊东篱下，悠然见南山”的情怀；桃源山的“渔村夕照”“福地洞天”。带您追寻历代文人墨客探访桃花源历史文化的踪迹，同时体验现代桃花源生活理念。\n\n万亩桃林爱情浪漫之旅\n这里既是令人称奇的世界桃林博览园，全世界一百来种桃树品种在这里都能看到，也是一个有浪漫爱情传说的圣地。特别是园中三株直径一米的百年古桃树，见证了多少沧海桑田的爱情故事。\n\n桃川万寿宫归心祈福之旅\n“桃川万寿宫”始建于东晋，唐宋达鼎峰。光落地的柱头就有1330根，气势恢宏、香火极盛。民间流传“四十八层庵，走马观山门”只说。公元1112年，宋徽宗亲笔题写了桃川万寿宫的匾额，列为皇家祈福礼拜的道场。"}}, {"title": "柳叶湖", "address": "常德市武陵区柳叶大道", "image": "", "rank": 2, "time": 1.5, "location": {"lat": 29.058115669655006, "lng": 111.65638672223993}, "feature": {"sight_features": "", "sight_content": ""}}, {"title": "常德灯光艺术节嘉年华", "address": "常德市柳叶湖旅游度假区", "image": "", "rank": 3, "time": 1.5, "location": {"lat": 29.095150274302586, "lng": 111.75065381637451}, "feature": {"sight_features": "", "sight_content": ""}}, {"title": "常德欢乐水世界", "address": "常德市柳叶湖旅游度假区", "image": "", "rank": 4, "time": 1.5, "location": {"lat": 29.095150274302586, "lng": 111.75065381637451}, "feature": {"sight_features": "特色1 多个游玩项目，全方位释放水上娱乐魅力。 特色2 一路体验炫酷激爽的清凉之旅，根本停不下来。 特色3 劲爽刺激的项目与亲子游乐项目相结合，男女老少皆可来玩。", "sight_content": "常德欢乐水世界，以国际创新理念、罕见的超大规模、国内领先的设备等，成为岛上水主题乐园。景区占地约20万平方米，涵盖主题游乐、旅游休闲、特色商业等多种功能，形成滨水、水上、岛湾等多元化空间形态。欢乐水世界以5A级景区为标准，在加入中国风元素的基础上，结合湖南、常德的地方特色，充分将游乐设备、配套设施、景观、灯光等溶于一体，除了刺激的游乐项目外，还将呈现符合游客寻找桃源意境的景观体验。园区拥有21大领冠全球的顶尖玩水项目，以及包括金色沙滩，穿梭时光隧道、音乐广场喷泉等10余处人文景观，全方位释放水上娱乐魅力，打造华中旅游新地标。\n常德欢乐水世界公园坐落于柳叶湖东岸，依托柳叶湖的生态旅游资源，遵循“生态优先，环保先行”的规划原则，在水公园的规划设计和建设过程中，力求做足水文章，力求在保护好生态环境的前提下，充分展现柳叶湖的自然之美。整个公园的园林设计处处体现出人与自然的和谐共生，丰富的植被遍布于园区每一个角落，营造出浓郁的生态景观。更可登上高达120米的亚洲超高摩天轮，将21.8平方公里的柳叶湖尽收眼底。当非凡的创想智慧和柳叶湖得天独厚的生态资源相遇，这座水上乐园与柳叶湖一起华丽绽放。欢乐水世界公园的项目设置充分考虑了劲爽刺激的项目与亲子游乐项目相结合，无论你是男女老少，无论你是跟谁一起来，欢乐水世界都会有适合你的项目。这里我们推荐了三条线路，你还可以随意自由搭配，总有一款适合你。合理的空间规划，游乐设备，原汁原味的异国风情，全方位彰显了水上游乐的魅力，让游客尽情亲水、游水、戏水，在与水的亲密互动中释放激情与活力。其中21个玩水项目领冠全球，包括全球超大的魔幻互动水寨——欢乐水寨、世界水上竞速之王——彩虹赛道、水上极限摇摆之王——大喇叭、深海漩涡体验项目——巨兽碗、跌落式水上极速滑道——大回环、水上过山车等，打造最欢乐刺激的特色玩水空间，充分满足游客对刺激体验和家庭互动的全方位需求。游乐设备，人性亲和的主题景观，全方位彰显了水上游乐的魅力，让游客尽情亲水、游水、戏水，在与水的亲密互动中释放激情与活力。\n\n\n\n线路一：温和亲子游玩路线：\n首先可以来到美轮美奂的“漂流河”悠闲地沿着河流飘荡，然后到专为亲子家庭设计的“合家欢滑道”，特设儿童专用的滑梯，让每个孩子共同体验水滑梯的快乐。再到汇集了多种水上互动游乐设施和玩水项目的“欢乐水寨”，让大人孩子在这个魔幻的水城堡里一起狂欢，接着和小朋友在浮圈上去“造浪池”浅水区享受温和的涓涓细浪，在“桃花泡泡池”中拂去身心的疲惫，一路观赏游人的尖叫。最后进到“SPA绿洲”中做水疗按摩，卸下全身的疲劳，静静享受按摩的乐趣。在穿行于各个设备之间时，我们可以随时看到各个舞台的异域风情表演。\n漂流河→合家欢滑道→欢乐水寨→造浪池→桃花泡泡池→SPA绿洲\n线路二：欢乐尖叫游玩攻略：\n家人和朋友们一起嬉水的团体组合，既要有舒适的玩水体验，又不可少让大家尖叫的设备。可以由美轮美奂的“漂流河”开始，悠闲地沿着河流飘荡，静静地欣赏沿途风光，紧接着从“大喇叭”18米高的平台疾驰而下，共同经历跌宕下滑的惊险体验，再到汇集了多种水上互动游乐设施和玩水项目的“欢乐水寨”等待一大桶水给大家带来的清凉与欢笑，随后进入全园区人群聚集最多 “造浪池”，畅享水上迪斯高与劲爆乐队带来的精彩表演，嗨翻全场，再进到落差不算太高，但是够长的“旋转游龙”和“巨蟒滑道”感受【山路十八弯】的失重体验，紧接着再去挑战有着“水上过山车”感受水上速度与激情，如果觉得这个还不过瘾，可以考虑和伙伴们一起感受“巨兽碗”的深海漩涡体验，最后去“SPA绿洲” 中做水疗按摩，体验紧张刺激之后难得的轻松。游玩过程中，随时观看园区各种表演，来吧，和这些美女帅哥们扭腰摆臀，一起狂欢吧！\n漂流河→大喇叭→欢乐水寨→造浪池→旋转游龙→巨蟒滑道→水上过山车→巨兽碗→SPA绿洲\n线路三：挑战游玩攻略：\n真正的挑战者根本不需要预热，直奔进入园区的第一个设备——水上极限摇摆之王“大喇叭”滑道和【全球最负盛名的漩涡体验项目】“龙卷风”感受水上极限尖叫的乐趣，和朋友一起踏上有着【世界水上竞速之王】之称的 “彩虹滑道”、在“大回环”、“垂直滑道”、“高速滑道”上感受同一高度、不同方式的刺激，感受自由落体和极速狂飙的激情。驾驶“水上过山车”风驰电掣，挑战“旋转游龙”的山路十八弯和“巨蟒滑道”的暗黑水上之旅、下“巨兽碗”潜入深海往，“冲天回旋”冲上云霄，一路体验炫酷激爽的清凉之旅，根本停不下来。\n\n\n大喇叭→龙卷风→彩虹滑道→大回环→垂直滑道→高速滑道→水上过山车→旋转游龙→巨蟒滑道→巨兽碗→冲天回旋"}}, {"title": "诗墙公园", "address": "常德市武陵区沅安路沿江带", "image": "", "rank": 5, "time": 1.0, "location": {"lat": 29.027776136767475, "lng": 111.70796467219775}, "feature": {"sight_features": "", "sight_content": ""}}, {"title": "夹山国家森林公园", "address": "常德市石门县常德石门夹山国家森林公园", "image": "", "rank": 6, "time": 4.5, "location": {"lat": 29.56937479906385, "lng": 111.48572833391827}, "feature": {"sight_features": "特色1 拥有国家重点保护的珙桐、香果树等名贵树种", "sight_content": "夹山国家森林公园位距石门县城东南8公里，是集闯王陵园、佛教圣地、茶道源头、森林风光于一体的旅游胜地。1993年建立国家森林公园，1994年推选为全国森林公园示范园，2001年评定为中国AAA级旅游景区。\n境内气候温暖湿润，土壤深厚肥沃，地势波状起伏，山沟纵横，植被丰富，森林覆盖率高达93.6％。夹山国家森林公园有木本植物204种，其中有属国家重点保护的珙桐、香果树、鹅掌楸等名贵树种，以及被列为石门县古木大树保护名录的古树18株。公园现有闯王墓（陵）、灵泉禅院、洗墨池、玉玺井、碧岩泉、佛光阁、名人墓等10余处景点。"}}, {"title": "花岩溪", "address": "常德市鼎城区花岩溪林场", "image": "", "rank": 7, "time": 3.5, "location": {"lat": 28.671193137803435, "lng": 111.57339751062669}, "feature": {"sight_features": "", "sight_content": "花岩溪以它山和水的自然美动人心弦。杨公寨、紫云山、九龙山、李家寨环绕四周，层恋叠嶂，沟壑相连。花岩溪近万亩人工杉林青翠欲滴。千亩原始混交林，树围合抱,叶茂枝劲。闻名遐迩的五溪湖和龙凤湖分别镶嵌在正北和西南边境，山环水绕，气象万千，湖光山色，相映成辉。花岩溪是一方未经雕琢的璞玉，藏而不露，引人入胜；她象初出闺门的少女，羞羞答答，楚楚动人。花岩溪的山水竞显风流，花岩溪的景点美不胜收：白鹭在林梢翩翩起舞，播弄风姿；银鱼在水中喋喋嬉戏，追。波逐浪。九龙山岩九龙腾飞，气势磅礴；金鸡崖像雄鸡傲，引颈高唱。龙凤湖、五溪湖碧水长天一色，仙池山、栖凤山青山流霞飞烟。凤凰坡、浪岭坡芳草鲜美，山花吐秀；燕子洞、滴水洞泉水叮咚，溪流潺潺。\n花岩溪步 步成景，徜佯其间，若梦若仙，令人心旷神怡，满目生辉；花岩溪处处藏珍，身临其境，如痴如醉，花岩溪叫人流连忘返，其乐融融当你荡舟于龙凤湖上，就象见到了西湖美景；当你漫不在山林古道，就象置身于泼墨的山水画中。花岩溪民风淳朴，习俗古老。花岩溪这里环境幽静，气候宜人，空气清新，水质纯净，历史上就是达官贵人、文人隐士休闲避署的胜地。近年来，各级领导十分重视花岩溪景区的开发和建设，各项旅游设施已经初具规模，正在抓紧配套完善。在花岩溪，你可以行得方便，吃得香甜，住得舒适，玩得开心。走进花岩溪，你就会五有一种回归大自然的感觉。花岩溪将带给你清新，给你芳香，给你潇洒，给你希望。"}}, {"title": "常德冰雕艺术展", "address": "常德市城区洞庭大道与皂果路的交汇处（德景园）", "image": "", "rank": 8, "time": 1.5, "location": {"lat": 29.049525769285765, "lng": 111.68514575753905}, "feature": {"sight_features": "", "sight_content": ""}}, {"title": "滨湖公园", "address": "常德市武陵区朗州路376号", "image": "", "rank": 9, "time": 1.5, "location": {"lat": 29.042357694724185, "lng": 111.7092775241408}, "feature": {"sight_features": "", "sight_content": ""}}, {"title": "白马湖文化公园", "address": "常德市武陵区柳叶大道与龙港路交叉口", "image": "", "rank": 10, "time": 1.5, "location": {"lat": 29.05951957181048, "lng": 111.68182358212006}, "feature": {"sight_features": "", "sight_content": ""}}, {"title": "常德市博物馆", "address": "常德市武陵区武陵大道144号", "image": "", "rank": 11, "time": 1.0, "location": {"lat": 29.044057354056367, "lng": 111.69964229924396}, "feature": {"sight_features": "", "sight_content": ""}}, {"title": "孤峰塔", "address": "常德市武陵区香火街孤峰公园内", "image": "", "rank": 12, "time": 0.75, "location": {"lat": 28.976337260308885, "lng": 111.70512106454751}, "feature": {"sight_features": "", "sight_content": ""}}, {"title": "笔架城", "address": "常德市武陵区沅安路", "image": "", "rank": 13, "time": 0.75, "location": {"lat": 29.021432727052787, "lng": 111.71315445441545}, "feature": {"sight_features": "", "sight_content": ""}}, {"title": "五溪湖", "address": "常德市鼎城区", "image": "", "rank": 14, "time": 2, "location": {"lat": 29.024443397066236, "lng": 111.6875220918157}, "feature": {"sight_features": "", "sight_content": ""}}, {"title": "东山峰滑雪场", "address": "常德市石门县东山峰管理区", "image": "", "rank": 15, "time": 2, "location": {"lat": 29.925902071210974, "lng": 110.70197374391589}, "feature": {"sight_features": "", "sight_content": ""}}, {"title": "西洞庭湖湿地保护区", "address": "常德市汉寿县岩汪湖镇", "image": "", "rank": 16, "time": 3.0, "location": {"lat": 28.88289707086836, "lng": 112.08378814372345}, "feature": {"sight_features": "特色1 以气象万千、美丽富饶闻名天下", "sight_content": "西洞庭湖湿地公园由沅、澧汇聚而成，有水浸皆湖，水落为洲的沼泽地貌特征，西洞庭湖衔远山、吞长江，碧波万顷，浩无涯际，素以气象万千、美丽富饶闻名天下。这一带港汊迂回，丘峦突兀，湖外有湖，湖中有岛，渔帆点点，芦叶青青，鱼跃水底，鸥鹭翔飞。\n境内河汊纵横，洲岛密布，广阔的湖面上星罗棋布地散布着140个人迹罕至的湖洲和湖岛。这里土地肥沃，气候温暖湿润，四季分明，物产丰富生长着湿地植物865种、鸟类207种、鱼类114种。其中国家一级保护动物有中华鲟、白鹤、白头鹤、中华秋沙鸭等10多种。\n湖洲芦苇面积达5.4万多公顷，这里湖面宽广，水草繁茂，水产动物极多，自古盛产鲤、鲢、鳜、鲭、鳊、鲰、银鱼、草鱼、凤尾鱼和龟、鳖等各种淡水鱼称得上天然特种水产基地，湖洲上野生的绿色食品野芹菜、野藜蒿、芦笋和蓼米被誉为“洞庭四珍”倍受人们珍爱。\n西洞庭湖湿地公园风景区是一个大自然迷宫，浩渺无银的水域湖洲，风情万种的湖汊岛屿，这里芦获连天鱼米香有久负胜名的飞机水上打靶场、杨么水寨、龙王庙、水上长城、洞庭烟云、洞庭秋月、远浦归帆、平沙落雁、渔村夕照、江天暮雪等众多的人文景观。"}}, {"title": "夷望溪", "address": "常德市桃源县兴隆街乡游船码头", "image": "", "rank": 17, "time": 3.5, "location": {"lat": 28.818746396875394, "lng": 111.19267432691879}, "feature": {"sight_features": "特色1 被称为常德的“小桂林”", "sight_content": "夷望溪位于湖南省常德市桃源县兴隆街乡夷望溪村，景色秀美、山水怡人，被称为常德的“小桂林”。夷望溪，亦称怡望溪，有望之心怡的意思，乍听起来，似乎又是一道被世间所遗忘的山间流水。\n夷望溪，一个青山凝黛，绿水悠悠的妙境，仿佛又到了桂林的漓江，恰好这里也有个象山，酷似一只刚从水中沐浴上岸的老象。两岸也是青山如屏，翠竹成荫。夷望溪水清澈透明，如同碧玉，无怪乎诗人将它称作“沅江小桂林”。这山有的如大象、有的如雄狮、有的如麒麟、有的如钟鼓，还有一座山崖壁上似挂着一弯明月。\n在河堤与山脚之间是一些农田，偶尔可见两三个农夫在叱牛耕耘，悠闲的哼着些土里巴唧的用牛歌，旁边总有几只黑身而白翼的笨鸟，在周围停立，似乎一点也不怕人，等到农夫和耕牛走近时，才怏怏地窜飞至另一边去，依就呆呆地盯着那农夫和耕牛，真是一幅写意的《桃源隐耕图》。"}}, {"title": "河洑国家森林公园", "address": "湖南省常德市武陵区", "image": "", "rank": 18, "time": 2, "location": {"lat": 29.06078347657812, "lng": 111.6895448961624}, "feature": {"sight_features": "", "sight_content": ""}}, {"title": "龙王洞", "address": "常德市石门县白云镇望羊桥村", "image": "", "rank": 19, "time": 2.5, "location": {"lat": 29.658061030181866, "lng": 111.08264086707182}, "feature": {"sight_features": "", "sight_content": ""}}, {"title": "城头山遗址公园", "address": "湖南澧县城头山镇", "image": "", "rank": 20, "time": 2, "location": {"lat": 29.669004710040404, "lng": 111.66330196159586}, "feature": {"sight_features": "特色1 展示居住遗迹、制陶遗迹和墓葬遗迹", "sight_content": "城头山旅游景区是国家4A级旅游景区，位于湖南省澧县县城西北10公里的城头山镇。包括城头山国家考古遗址公园、澧阳平原史前遗址博物馆、城头山农业大观园三大部分。一期依托城头山古城遗址，以文物保护展示为基础，兴建城头山国家考古遗址公园和澧阳平原史前遗址博物馆，2011年启动建设，2015年底基本建成对外开放。二期以保护和诠释稻作农耕文明为主要特色，形成一个以旅游农业、观光农业、休闲农业、示范农业、体验农业为主要内容的农业大观园。总体目标是建成5A级国家旅游景区，打造世界级文化遗址旅游目的地。\n城头山旅游景区是文化遗产保护与旅游相结合的文化旅游项目。景区以古城文化、稻作文化、祭祀文化为灵魂，将遗址景观和周边生态环境、建筑景观等要素结合起来，按照旅游“六要素”的要求，配套一系列体验产品、休闲项目、生态景观，形成完整的游憩体系。\n城头山国家考古遗址公园是依托全国重点文物保护单位城头山古城遗址而修建，是城头山旅游景区的核心板块。2013年由国家文物局正式列入全国第二批国家考古遗址公园立项名单并开始建设，是“十二五”“十三五”规化确定的国家级大遗址保护示范区，同时承担遗址保护、文化展示和旅游休闲三大功能。公园占地面积662亩，公园布局以城头山遗址为轴心向南、向西延伸两条入园道路。2.5公里的南北景观轴线上分布入园门楼、游客服务中心、题字碑景点、南门生态广场及环护城河景观带等景点。\n澧阳平原史前遗址博物馆是城头山旅游景区内的标志性建筑，占地面积100亩。将展示以整个澧阳平原长达几十万年的史前人类遗存为基本背景，以城头山遗址为“龙头”的澧阳平原史前遗址群所代表的中国南方璀璨的古文明。博物馆内设艺术大厅、基本文物陈列馆、临时展览馆、多媒体演示厅等。\n城头山农业大观园是以城头山国家考古遗址公园为核心，以稻作文化为主线，集旅游农业、观光农业、示范农业、休闲农业、体验农业为一体打造的农业观光园，规划面积5000余亩。规化建成现代农业观光园、稻田彩绘园、农耕体验园、稻田酒店等八大版块。\n城头山这座神秘的古城，位于湖南省澧县县城西北10公里，在澧县车溪乡城头山村境内，占地18.7公顷，是国际知名的“中国第一城”（早于距今6000年）。城头山遗址1979年被发现，1991年至2001年，连续进行了11次考古发掘，其中，1998年—2001年属于中日联合考古，后来，2011—2014年间，又进行了多次抢救性补充考古发掘。共揭露面积近9000平方米，出土文物16000余件。遗址区内有迄今发现的世界最早（6500年前）、保存最完好的水稻田，中国最早的大型祭坛。城头山遗址代表了长江流域新石器时代古文明的发展高度，与素称中华文明摇篮的黄河流域古文明相比，毫不逊色，而且时间更早。城头山的考古发掘成果，被镌刻在北京中华世纪坛青铜通道，写进了大、中学的历史教科书。1992年和1997年，该遗址先后两次评为年度“中国十大考古新发现”。1996年，国务院公布为“全国重点文物保护单位”。2001年，入选“中国二十世纪100项考古大发现”。2005年11月，《城头山遗址》特种邮票小型张在全国公开发行。同年，被国家列入“十一•五”期间重点保护的大遗址。\n古城遗址内建成城墙遗迹剖面和稻田祭坛遗迹两个展示馆，及居住遗迹、制陶遗迹和墓葬遗迹三个复原展示。"}}, {"title": "柳叶湖游船", "address": "常德市柳叶湖游船大码头", "image": "", "rank": 21, "time": 2, "location": {"lat": 29.068828118067472, "lng": 111.7540266993429}, "feature": {"sight_features": "", "sight_content": ""}}, {"title": "柳叶湖摩天轮", "address": "常德市柳叶湖旅游度假区", "image": "", "rank": 22, "time": 2, "location": {"lat": 29.095150274302586, "lng": 111.75065381637451}, "feature": {"sight_features": "", "sight_content": ""}}, {"title": "石门文庙", "address": "常德市石门县楚江镇文庙路6号", "image": "", "rank": 23, "time": 1.0, "location": {"lat": 29.591020249846952, "lng": 111.38181370450813}, "feature": {"sight_features": "", "sight_content": ""}}, {"title": "清水湖旅游度假区", "address": "常德市汉寿县太子庙工业园北侧", "image": "", "rank": 24, "time": 2, "location": {"lat": 28.781619204115096, "lng": 111.95453226558013}, "feature": {"sight_features": "", "sight_content": ""}}, {"title": "枫林花海", "address": "常德市桃源县枫树乡回维新村", "image": "", "rank": 25, "time": 1.0, "location": {"lat": 29.024201444876127, "lng": 111.5014608784282}, "feature": {"sight_features": "特色1 四季花开，姹紫嫣红", "sight_content": "常德市桃源县枫树乡被称为维吾尔族第二故乡。\n枫树维吾尔族回族乡位于桃源县城东北14公里。素有维吾尔族“第二故乡”之称。也是马克思主义史学家、著名教育家、维吾尔族杰出代表翦伯赞先生的故乡。\n枫林花海维回民族风情园规划面积2000亩，园区景点遍布，有马克思主义历史学家翦伯赞故居；根据各个季节变化，有多种花卉高低呼应的“枫林花海”；有占地100多亩的葡萄区；有“翦”姓始祖，威震南方的哈勒·八十墓；有被列入湖南省重点宗教活动场所的清真寺。\n枫林花海各色花卉，四季花开，姹紫嫣红，一片生机勃勃的怡人景色。花海品种以郁金香、金盏菊、百日草、醉蝶花、蓝花鼠尾草等为主，花期长，又有入药价值，是集观赏性和实用性为一体的旅游景点。"}}, {"title": "《桃花源记》大型山水实景演出", "address": "常德市桃花源景区五柳码头《桃花源记》游客中心（秦溪游船中心）", "image": "", "rank": 26, "time": 2, "location": {"lat": 28.79813124385283, "lng": 111.44909512801298}, "feature": {"sight_features": "特色1 全球首台大型溪流漫游实景演出", "sight_content": "中国山水实景演出创始团队——山水盛典文化产业有限公司亿元级投资实景演出，创新打造秦溪4.6公里的“河流剧场”；中国山水实景演出创始人梅帅元领衔，总导演严文龙、音乐总监张骁梦幻演绎陶渊明千古文章，让观众泛舟溪上，感受大型溪流漫游实景演出《桃花源记》。心里的声音召唤，去吧，循着《桃花源记》中武陵渔人的足迹，循着陶渊明的梦去寻找心中的那条溪、那个桃花源。\n\n\n十八个演区星落分布秦溪两岸：从“武陵渔人”张网捕鱼的劳作，到“牧童短笛”悠远的牧歌；从“洗衣对歌”乡间生活，到“农耕画卷”的丰收景象；从“村舍夜话”乡野趣事，到“水上婚礼”的奇特婚俗；从“私塾童趣”的玩闹学堂，到“桃花源记”的众人合诵；从“林泉沐浴”的少女清纯，到“落英缤纷”壮美画面。常德原生态民歌回响在让观众美醉的场景之中，蒙太奇般的表演于烟波浩渺的悠悠秦溪上，“剪辑”成一个半小时通向观众心灵深处“桃源秘境”光影之路。\n\n\n有这么一个地方，千百年来总是被人歌颂与向往。有这么一个地方，千百年来厌倦了喧嚣的人们心中总会住着它。有这么一个地方，千百年来寻其踪迹者“不复得路”，遂“无问津者”。心里的声音召唤，去吧，循着《桃花源记》中武陵渔人的足迹，循着陶渊明的梦。去寻找心中的那条溪、那个桃花源。"}}, {"title": "星德山", "address": "常德市桃源县", "image": "", "rank": 27, "time": null, "location": {"lat": 28.908694006999355, "lng": 111.49540733144599}, "feature": {"sight_features": "", "sight_content": ""}}, {"title": "穿紫河游船", "address": "常德市武陵区穿紫河社区河街下南门游船码头（常德市武陵区拱辰路153号附近）", "image": "", "rank": 28, "time": 2, "location": {"lat": 29.065322413367955, "lng": 111.70371431811935}, "feature": {"sight_features": "", "sight_content": "穿紫河游船，豪华大气的外型、敞亮舒适的内舱、玻璃钢结构、全通透舱室、全封闭型高速船舶……让人眼前一亮。水上巴士一路途经大小河街、德国小镇、金银街、白马湖公园、丁玲公园等，游客从韵味十足的“老常德”穿越到异域情调的“德国”，再到闲情别致的商业街区、清雅秀丽的公园小景，人在船上坐，景在身边游，真正近距离品读新常德的魅力风情。"}}, {"title": "石门壶瓶山", "address": "常德市石门县壶瓶山镇江坪河村一组", "image": "", "rank": 29, "time": 4.0, "location": {"lat": 30.11792379540584, "lng": 110.80918778679907}, "feature": {"sight_features": "特色1 壶瓶山住深山木楼，吃金包银饭，过农家赶年，跳土家舞蹈，夏鉴江南景，冬赏北国春！ 特色2 壶瓶山游原始森林，观壶瓶飞瀑！被中外专家学者称为“华中地区弥足珍贵的物种基因库”。 特色3 峡谷内空气中含有大量的植物精气“芬多精”，每立方米含有10000个负氧离子，被誉为“大自然天然氧吧”。", "sight_content": "壶瓶山自然保护区的旅游是以原始次生林和峡谷、峰林等独特地貌为特色的生态旅游。区内自然景观有绝壁、奇峰怪石、湖潭瀑布、溶洞，还有大量的古生物化石和植物“活化石”；人文景观有土家族的民俗民情文化和寺庙及革命纪念地等。壶瓶山自然保护区的生态旅游有四绝：一绝是峡谷生态休闲观光；二绝是峡谷生态漂流；三绝是屋脊观景；四绝是东山峰滑雪滑草。\n壶瓶山没有受到第四纪冰川的侵袭，保存了良好的生态环境和大量的孑遗动植物及其群落，是我国华中地区珍贵生物物种的基因库，是华南虎野外繁殖种群的存在地之一。在已初步查明的2836种植物中，属国家一、二级保护植物共有33种。区内丰富的植被和温暖湿润的气候，为野生动植物的繁衍提供了良好的生境，据调查，区内有华南虎、金钱豹等54国家重点保护动物。在壶瓶山游览观光，熊豹时有出没，珍禽异兽时而跃入游客的眼帘，既神秘又神奇，猿猴啼鸣、百鸟歌唱、猕猴成群的嬉戏，黑熊的憩息痴呆，游人犹入梦幻仙境，趣味顿生。\n湖南屋脊漂位于湖南最长的一条峡谷——龙文峡（龙门出水—张家渡）中，全长58公里，目前开通的漂流线长22公里，即神景寨至文峰一段，河流湍急。湖南屋脊峡谷漂流有20多处急湾、50多个险滩，落差近90米，漂流途经龙洞飞瀑、蛟龙潭、蛇湾、凉风岩、思儿潭、雄狮卧波、三碗酒等十多处景观，漂完全程大约需要近2个小时时间。湖南屋脊漂流，在激流险滩可让人惊心动魄，水流舒缓的地方，又能让您悠然自得，既可以尽情享受沿途的刺激和惊险，又可以细细品味远古传说的神奇，会让您尽情领略到一种全新的人生境界。"}}, {"title": "湖南桃花源国际高尔夫俱乐部", "address": "常德市朗州路（北）3333号", "image": "", "rank": 30, "time": 2, "location": {"lat": 29.07054926689712, "lng": 111.70760053238142}, "feature": {"sight_features": "", "sight_content": ""}}, {"title": "天供山森林公园", "address": "湖南省常德市澧县", "image": "", "rank": 31, "time": 2, "location": {"lat": 29.638946004609103, "lng": 111.7655335473624}, "feature": {"sight_features": "", "sight_content": ""}}, {"title": "柳叶湖渔樵村", "address": "常德柳叶湖旅游度假区白鹤山乡沾天湖村", "image": "", "rank": 32, "time": 2, "location": {"lat": 29.095150274302586, "lng": 111.75065381637451}, "feature": {"sight_features": "", "sight_content": ""}}, {"title": "蒙泉湖", "address": "常德市石门县蒙泉镇", "image": "", "rank": 33, "time": 4.0, "location": {"lat": 29.418222576772592, "lng": 111.39647676600369}, "feature": {"sight_features": "", "sight_content": ""}}, {"title": "孟姜女祠", "address": "常德市澧县县城以东15千米的嘉山良种场内", "image": "", "rank": 34, "time": 2, "location": {"lat": 29.554340745237848, "lng": 111.90831758039664}, "feature": {"sight_features": "", "sight_content": ""}}, {"title": "兰江阁", "address": "常德市澧县临江路与解放路交叉口东南100米", "image": "", "rank": 35, "time": 2, "location": {"lat": 29.63058493004192, "lng": 111.76957222652709}, "feature": {"sight_features": "", "sight_content": ""}}, {"title": "仙池山", "address": "湖南常德市", "image": "", "rank": 36, "time": 2, "location": {"lat": 29.037749999406877, "lng": 111.70545217995837}, "feature": {"sight_features": "", "sight_content": ""}}, {"title": "乌云界漂流", "address": "常德市桃源县茶庵铺镇", "image": "", "rank": 37, "time": 2, "location": {"lat": 28.652190084729344, "lng": 111.16262806473956}, "feature": {"sight_features": "", "sight_content": ""}}, {"title": "秀坪园艺场", "address": "湖南省常德市石门县", "image": "", "rank": 38, "time": 2, "location": {"lat": 29.590365966649998, "lng": 111.386451407024}, "feature": {"sight_features": "", "sight_content": ""}}, {"title": "艾肯（I CAN）梦想城儿童职业体...", "address": "常德市白马湖公园三中心四楼", "image": "", "rank": 39, "time": null, "location": {"lat": 29.037749999406877, "lng": 111.70545217995837}, "feature": {"sight_features": "", "sight_content": "常德ICAN梦想城儿童职业体验馆是一座让青少年通过近似于游戏娱乐的方式，体验成人的职业行为，常德梦想城是2016年9月12日对外开放，拥有8大主题系统，80多种职业体验的常德艾肯ICAN职业体验馆即将试营业开放。艾肯ICAN职业体验馆是按照真实世界打造的缩微版儿童王国，是为3-15岁少年儿童提供的社会职业体验的成长乐园。\n\n\n该体验馆是常德市人民政府投资兴建，市妇联倾力打造的湘西北首家儿童职业教育体验基地和室内青少年素质拓展中心，是寓教于乐的教育综合体，是课堂教育的有益补充。可以鼓励孩子认知、参与、体验、感悟社会，让孩子在快乐的体验中学习知识、开发智力、激活潜能。\n\n\n体验完以后我们的老师会发给他们报酬，也就是我们艾肯梦想城的梦想币，拿到梦想币他们可以到我们的蛋糕店、到我们的军事基地、壹德壹米粉店，那里都是消费的场馆。通过各种职业体验以后，可以提高他们的自主学习、交流沟通、动手动脑、抗压以及理财的能力，同时还可以收获快乐。"}}, {"title": "秦人村景区", "address": "湖南省常德市澧县", "image": "", "rank": 40, "time": 2, "location": {"lat": 29.638946004609103, "lng": 111.7655335473624}, "feature": {"sight_features": "", "sight_content": ""}}, {"title": "钦山寺", "address": "湖南省常德市澧县县城西侧(近遗址)", "image": "", "rank": 41, "time": 2, "location": {"lat": 29.638946004609103, "lng": 111.7655335473624}, "feature": {"sight_features": "", "sight_content": ""}}, {"title": "山洞溪漂流", "address": "常德桃源县西安镇", "image": "", "rank": 42, "time": null, "location": {"lat": 28.488650460557427, "lng": 111.05846291049907}, "feature": {"sight_features": "", "sight_content": ""}}, {"title": "百岛湖", "address": "湖南省常德市澧县", "image": "", "rank": 43, "time": 2, "location": {"lat": 29.638946004609103, "lng": 111.7655335473624}, "feature": {"sight_features": "", "sight_content": ""}}, {"title": "桃花雪缘室内滑雪场", "address": "常德市桃源县茶庵铺镇古溶溪村（背靠乌云界）", "image": "", "rank": 44, "time": 2, "location": {"lat": 28.621359148249798, "lng": 111.16623621302266}, "feature": {"sight_features": "特色1 常德首家四季滑雪乐园", "sight_content": "桃花雪缘滑四季滑雪乐园,位于桃源县茶庵铺镇古溶溪村，背靠乌云界国家级自然保护区，山峦起伏、林海茫茫、怪石嶙峋、风光秀美；紧邻319国道、杭瑞高速，交通便捷；距离桃花源风景区29公里，桃源县城45公里，常德市区70公里，是常长张凤黄金旅游线中间节点上最具特色、最具体验性，首屈一指的明星项目。\n该规划占地面积30亩，其中规划建设生态停车场6000平方米，滑雪中心6500平方米，建设一条宽40米、常140米的主滑雪道，并引进一条魔毯运输设备，日接待能力2000人次。"}}, {"title": "嘉山风景区", "address": "常德市津市市新洲镇", "image": "", "rank": 45, "time": 4.0, "location": {"lat": 29.538667412643374, "lng": 111.86520245076413}, "feature": {"sight_features": "", "sight_content": ""}}, {"title": "万仞洞", "address": "湖南省常德市石门县皂市镇万仞洞村", "image": "", "rank": 46, "time": 2, "location": {"lat": 29.73179376943607, "lng": 111.20689419322164}, "feature": {"sight_features": "", "sight_content": ""}}, {"title": "鱼洞", "address": "常德市石门县壶瓶山镇江坪河村", "image": "", "rank": 47, "time": 0.25, "location": {"lat": 30.11792379540584, "lng": 110.80918778679907}, "feature": {"sight_features": "", "sight_content": ""}}, {"title": "闯王陵", "address": "湖南省常德市石门县", "image": "", "rank": 48, "time": 2, "location": {"lat": 29.590365966649998, "lng": 111.386451407024}, "feature": {"sight_features": "", "sight_content": ""}}, {"title": "常德会战阵亡将士纪念公墓", "address": "常德市武陵区青年路工人文化宫旁", "image": "", "rank": 49, "time": 1.5, "location": {"lat": 29.033070847407608, "lng": 111.70966209501765}, "feature": {"sight_features": "", "sight_content": ""}}, {"title": "洞庭花海", "address": "常德市汉寿县株木山乡文步桥村", "image": "", "rank": 50, "time": 0.25, "location": {"lat": 28.83728159342917, "lng": 111.94448415342016}, "feature": {"sight_features": "特色1 园内来自欧美的名贵玫瑰花海是您传达爱意、表白爱情的最佳场所，更可以品尝玫瑰花宴、玫瑰花饼、享受玫瑰花浴、玫瑰精油等，还有上万坪的玫瑰婚庆广场、玫瑰爱情城堡。 特色2 园内国内外奇花异草珍稀树木品种繁多，真正的四季花海，365天都有不一样的视觉享受。 特色3 园区集生态旅游、休闲度假、鲜花宴特色美食、影视拍摄、相亲婚庆、婚纱摄影、亲子乐园、文化传播、科普教育、房车露营、户外运动、养生禅修等为一体，满足游客各种需求和生态观光度假的体验感受", "sight_content": "洞庭花海位于常德市汉寿县株木山乡韩文村,花海整个景区占地约1000亩，花的种类也很多，园区按4A生态景区标准建设，将建成花海观光区、欧式婚礼区、儿童游乐区、康体养生区、果蔬采摘区、露营烧烤区、垂钓休闲区、户外拓展区等8大功能区。洞庭玫瑰花海根据园区不同的产业和主题分区，还有百果园，儿童乐园，风情沙滩，篝火广场等游乐场所，同时还有各种婚纱婚庆主题摄影区，大量引进国内外珍贵花卉品种的同时，也配置了乡土树种，仿古建筑、假山、喷泉、亭台楼阁、石拱桥，等，以欧式建筑为主体，用美轮美奂的环境，给年轻人一个传递爱意、情定终生的童话世界。\n\n\n\n\n以玫瑰、绣球、茶花、腊梅、紫薇、紫藤、樱花、观赏桃、郁金香、百合、百日草、孔雀草、硫华菊、向日葵、波斯菊、藤本月季、紫藤、荷花、睡莲等各类木本、藤本及水生花卉为主，充分利用天然水系、水生植物、农田林网、周边特色农家小院等优势资源，采用大条形、大色块的构图，形成构图流畅、色彩鲜艳的四季花海，打造成集生态旅游、休闲度假、鲜花宴特色美食、影视拍摄、相亲婚庆、婚纱摄影、亲子乐园、文化传播、科普教育、房车露营、户外运动、养生禅修等为一体，满足游客吃、住、行、游、购、娱需求的体验式生态观光旅游度假圣地。"}}, {"title": "天月湖度假村", "address": "湖南常德市汉寿县刘家坝", "image": "", "rank": 51, "time": 2, "location": {"lat": 28.880878340794254, "lng": 111.97196364594451}, "feature": {"sight_features": "", "sight_content": ""}}, {"title": "武陵阁", "address": "湖南省常德市武陵区武陵大道", "image": "", "rank": 52, "time": 2, "location": {"lat": 29.05329136221712, "lng": 111.69932429819524}, "feature": {"sight_features": "", "sight_content": ""}}, {"title": "湖南屋脊峡谷漂流", "address": "常德市石门县壶瓶山镇江坪河村", "image": "", "rank": 53, "time": 2, "location": {"lat": 30.11792379540584, "lng": 110.80918778679907}, "feature": {"sight_features": "", "sight_content": ""}}, {"title": "沙滩公园", "address": "常德市鼎城区桥子口", "image": "", "rank": 54, "time": 1.5, "location": {"lat": 29.128534467124386, "lng": 111.73004645801622}, "feature": {"sight_features": "", "sight_content": ""}}, {"title": "梦幻水世界", "address": "常德市桃源县漳江南路文化体育中心", "image": "", "rank": 55, "time": 0.2, "location": {"lat": 28.895098670975003, "lng": 111.48762419242526}, "feature": {"sight_features": "", "sight_content": ""}}, {"title": "彭山景区", "address": "常德市澧县澧南镇", "image": "", "rank": 56, "time": 2.5, "location": {"lat": 29.564703531699294, "lng": 111.7669672204982}, "feature": {"sight_features": "特色1 集吃住、观光、游乐、购物等功能于一体", "sight_content": "湖南澧县彭山景区，是由1000亩湿地、2000亩水域、3000亩山林自然地貌建成的国家AAA 级旅游景区、国家五星级休闲庄园、中国最美农庄、湖南省乡村旅游示范点，同时也是湖南省艺术摄影学会创作基地、常德市书法家协会、美术家协会创作基地。整个景区以原生态、健康养生、保护自然为理念，在不破坏原生态的基础上因地制宜建设，享有“生态胜景，大爱彭山”之美誉。目前正在创建4A景区。\n彭山，是守望着“中华城祖，世界稻源”的一座文明璀璨之山，是澧阳平原上依水望洲、王祠凌空的文化厚重之山，是屈原行吟澧水留下千古名句“沅有芷兮澧有兰”的文艺浪漫之山，更是地质遗迹丰富、环境和谐优美的生态文明之山。\n彭山景区目前主要分为原乡梦体验区、生态氧吧体验区、游乐体验区、亲水体验区、民俗文化体验区和禅修文化体验区，集吃住、观光、游乐、体验、购物等功能于一体。青山环绕、碧水相衬，山、水、洲自然地融为一体，令人沉浸其中，流连忘返。\n原乡梦体验区：包含吃、住、娱、育、购等五大功能，在您休闲娱乐的同时体验一次民朴乡风的旅程。吃原生态健康养生菜；住主题民宿、雅致客房；KTV、清吧、茶艺等休闲娱乐齐全；城头山地质文化博物馆、植物科普园、书画室等，寓教于乐；购自种自养自制农产品、有机紫米、四季特色水果等。\n游乐体验区：摩天轮可俯瞰山水洲城、远眺澧阳平原，弯月飞车、7D影院、过山车、真人CS、碰碰车、旋转木马等十多种惊险刺激、有趣的游乐项目，让您抛却一切烦恼，尽享欢乐。\n亲水体验区：以澧水为中心，以河洲湿地为衬托，水上有画舫、快艇游览两岸山水景色，岸边设有露营帐篷、烧烤、篝火、汽车旅馆、蒙古包、美食街等特色体验项目。\n民俗文化体验区：传统工艺木榨茶油滴滴浓香，自酿纯粮原浆洞藏酒彭山醇等系列酒酒香健身，放养的动禽、农家腌制的腊肉与景区生态种植的果蔬让您大饱口福，还有打糍粑等更多民俗体验项目期待您的参与。\n禅修文化体验区：为纪念彭王李元则修建的 “思王祠”坐落于彭山之巅，步入香火鼎旺的圣地，侧听儒林禅语，一口素食、一杯禅茶足以洗涤心灵。\n生态氧吧体验区：彭山景区平均气温适中，植被茂盛，水质优良，空气清新，山水相连，动静相依，素有九澧天然氧吧之美誉。登上彭山，呼吸着清新的空气，倚亭望远，尽揽澧阳平原美景。\n彭山景区目前已启动二期建设，主要包含中国首条跨河玻璃桥及沅洲花海等观光体验项目，将彭山打造成一个极具核心吸引力的全国性休闲旅游度假区。"}}, {"title": "乌云界生态园", "address": "常德市桃源县乌云界国家级自然保护区", "image": "", "rank": 57, "time": 2, "location": {"lat": 28.56359730254331, "lng": 111.38503918901698}, "feature": {"sight_features": "特色1 美不胜收的各色花海和原汁原味的民俗活动", "sight_content": "在我县南部有一个绿水如诗、青山皆画的地方——乌云界生态园，那里有繁花似锦、美不胜收的各色花海，有别具一格、原汁原味的民俗活动，有空灵澄澈、波平如镜的高峡平湖，还有巍峨耸峙、峰峦雄伟的千米高峰。\n从乌云界生态园的入口往里走，是一段溪流山涧。听着潺潺的流水声，踏着古老的青石板，穿过木质的小吊桥，赏着亭台楼阁、山水风光，别有一番韵味。然而这还只是美景的起点。延着小溪一路蜿蜒而上，十几分钟后，映入眼帘的就是乌云界生态园四大专区之一的花颜话语专区，小道两旁开满了各色的鲜花，有象征着热情奔放的硫华菊，有带有神秘色彩的格桑花，还有桂花、玫瑰花，可谓是馨香满园。\n来到百花园，五颜六色的香水玫瑰争奇斗艳，黄灿灿的硫华菊与蝴蝶比美毫不逊色，意喻幸福美好的格桑花昂首盛开，高傲的波斯菊身姿曼妙，馥郁芬芳的桂花香气袭人。就连纵横交错的青石古道，在各色花草的簇拥下，也更加显得优雅迷人，畅游其中，宛若天仙下凡。"}}, {"title": "东山峰", "address": "湖南省常德市石门县", "image": "", "rank": 58, "time": 2, "location": {"lat": 29.590365966649998, "lng": 111.386451407024}, "feature": {"sight_features": "", "sight_content": ""}}, {"title": "常德会战抗日纪念碑", "address": "青年路108号附近", "image": "", "rank": 59, "time": 1.5, "location": {"lat": 31.926359112600732, "lng": 118.65687448963608}, "feature": {"sight_features": "", "sight_content": ""}}, {"title": "常德科技馆", "address": "白马湖公园内", "image": "", "rank": 60, "time": 2.5, "location": {"lat": 30.78491510058495, "lng": 106.06137708218539}, "feature": {"sight_features": "", "sight_content": ""}}]}