{"cityName": "昌图", "days": 2, "cityImage": "", "spots": [{"title": "春远原生态大榛子採摘园", "address": "大兴镇", "image": "", "rank": 1, "time": 2, "location": {"lat": 44.19344701405296, "lng": 123.48571612952276}, "feature": {"sight_features": "", "sight_content": ""}}, {"title": "禧徕乐国际家居建材博览城", "address": "102国道附近", "image": "", "rank": 2, "time": 2, "location": {"lat": 39.9583743375638, "lng": 116.91102159370762}, "feature": {"sight_features": "", "sight_content": ""}}, {"title": "辽代韩州", "address": "辽宁省昌图县八面城镇 112512", "image": "", "rank": 3, "time": 2, "location": {"lat": 43.20455905477404, "lng": 124.05389513622823}, "feature": {"sight_features": "", "sight_content": ""}}, {"title": "吴俊升墓园", "address": "辽宁省昌图县老城镇长青村 112522", "image": "", "rank": 4, "time": 2, "location": {"lat": 42.845169598083814, "lng": 124.0368200822132}, "feature": {"sight_features": "", "sight_content": ""}}, {"title": "昌图亚茹大戏院", "address": "影院街", "image": "", "rank": 5, "time": 2, "location": {"lat": 39.15401892180174, "lng": 117.1952150602028}, "feature": {"sight_features": "", "sight_content": ""}}, {"title": "比家美音乐厅", "address": "辽宁省铁岭市昌图县", "image": "", "rank": 6, "time": 2, "location": {"lat": 42.79217837184396, "lng": 124.11750067115085}, "feature": {"sight_features": "", "sight_content": ""}}, {"title": "大昇儿童乐园", "address": "昌图县其他新创转盘(原大福来西区)漂亮宝贝三楼", "image": "", "rank": 7, "time": 2, "location": {"lat": 42.79217837184396, "lng": 124.11750067115085}, "feature": {"sight_features": "", "sight_content": ""}}, {"title": "端木蕻良纪念馆", "address": "北环路与文化大街交叉口东100米昌图县图书馆附近", "image": "", "rank": 8, "time": 2, "location": {"lat": 42.79459100863528, "lng": 124.1119543613559}, "feature": {"sight_features": "", "sight_content": ""}}, {"title": "南山墓园", "address": "辽宁省铁岭市昌图县双上线", "image": "", "rank": 9, "time": 2, "location": {"lat": 42.95316079281536, "lng": 124.29824608179531}, "feature": {"sight_features": "", "sight_content": ""}}, {"title": "文曲星儿童乐园", "address": "辽宁省铁岭市昌图县新梨线八面兴隆商城", "image": "", "rank": 10, "time": 2, "location": {"lat": 43.00240415993757, "lng": 123.8747723608773}, "feature": {"sight_features": "", "sight_content": ""}}, {"title": "楠泥湾音乐厅", "address": "303国道附近", "image": "", "rank": 11, "time": 2, "location": {"lat": 43.53481831055721, "lng": 118.65925526872917}, "feature": {"sight_features": "", "sight_content": ""}}, {"title": "天王音乐厅", "address": "仿古街附近", "image": "", "rank": 12, "time": 2, "location": {"lat": 37.071909615961324, "lng": 114.51429218797789}, "feature": {"sight_features": "", "sight_content": ""}}, {"title": "北山公园", "address": "北环路与影院大街交叉口东北150米", "image": "", "rank": 13, "time": 1.0, "location": {"lat": 42.79573053431077, "lng": 124.11661005962756}, "feature": {"sight_features": "", "sight_content": ""}}, {"title": "基督教会(八面城镇城镇管理综合...", "address": "基督教会附近", "image": "", "rank": 14, "time": 2, "location": {"lat": 39.9726493373737, "lng": 116.29135025722036}, "feature": {"sight_features": "", "sight_content": ""}}, {"title": "昌图儿童休闲乐园", "address": "滨河北路与102国道交汇处", "image": "", "rank": 15, "time": 2, "location": {"lat": 27.945100481529757, "lng": 120.8551373245256}, "feature": {"sight_features": "", "sight_content": ""}}, {"title": "太平寺", "address": "102国道西50米", "image": "", "rank": 16, "time": 1.0, "location": {"lat": 39.9583743375638, "lng": 116.91057244095263}, "feature": {"sight_features": "", "sight_content": ""}}, {"title": "文化休闲广场", "address": "铁岭市昌图县", "image": "", "rank": 17, "time": 2, "location": {"lat": 42.79217837184396, "lng": 124.11750067115085}, "feature": {"sight_features": "", "sight_content": ""}}, {"title": "真耶稣教会", "address": "105省道附近", "image": "", "rank": 18, "time": 2, "location": {"lat": 40.96089319814357, "lng": 112.03171953991749}, "feature": {"sight_features": "", "sight_content": ""}}, {"title": "昌图县曲家基督教堂", "address": "辽宁省铁岭市昌图县曲家店镇曲家基督教堂", "image": "", "rank": 19, "time": 2, "location": {"lat": 43.22771579730625, "lng": 123.94335148193393}, "feature": {"sight_features": "", "sight_content": ""}}, {"title": "松山雅境", "address": "昌图镇北山小学西行280米", "image": "", "rank": 20, "time": 1.5, "location": {"lat": 42.79761397925565, "lng": 124.11562980260422}, "feature": {"sight_features": "", "sight_content": ""}}, {"title": "王永志事迹展览馆", "address": "昌盛路与影院大街交汇处", "image": "", "rank": 21, "time": 2, "location": {"lat": 42.789648818512575, "lng": 124.11752324017847}, "feature": {"sight_features": "", "sight_content": ""}}, {"title": "文萃美术", "address": "滨北街16门附近", "image": "", "rank": 22, "time": null, "location": {"lat": 45.81870492114716, "lng": 126.52580516486647}, "feature": {"sight_features": "", "sight_content": ""}}, {"title": "昌图县图书馆", "address": "北环路与文化大街交叉口东100米", "image": "", "rank": 23, "time": 2, "location": {"lat": 42.79459100863528, "lng": 124.1119543613559}, "feature": {"sight_features": "", "sight_content": ""}}, {"title": "常泰寺", "address": "辽宁省昌图县城南", "image": "", "rank": 24, "time": 2, "location": {"lat": 42.79217837184396, "lng": 124.11750067115085}, "feature": {"sight_features": "", "sight_content": ""}}, {"title": "此鹭湖 Cilu Lake", "address": "辽宁省昌图县此鹭湖镇", "image": "", "rank": 25, "time": 2, "location": {"lat": 42.79217837184396, "lng": 124.11750067115085}, "feature": {"sight_features": "", "sight_content": ""}}, {"title": "向阳寺", "address": "辽宁省西丰县西丰镇向阳街", "image": "", "rank": 26, "time": 1.0, "location": {"lat": 42.76868222619091, "lng": 124.6871849360604}, "feature": {"sight_features": "", "sight_content": ""}}, {"title": "精品服装街", "address": "辽宁省昌图县滨河北路", "image": "", "rank": 27, "time": 2, "location": {"lat": 42.78797604186582, "lng": 124.12192338490544}, "feature": {"sight_features": "", "sight_content": ""}}, {"title": "文化礼品街", "address": "辽宁省昌图县站前大街", "image": "", "rank": 28, "time": 2, "location": {"lat": 42.793917129412364, "lng": 124.1206798471134}, "feature": {"sight_features": "", "sight_content": ""}}]}