{"cityName": "长武", "days": 2, "cityImage": "", "spots": [{"title": "昭仁寺", "address": "咸阳市长武县东街村39号", "image": "", "rank": 1, "time": 1.0, "location": {"lat": 35.20993186581068, "lng": 107.8090389291566}, "feature": {"sight_features": "", "sight_content": ""}}, {"title": "华隆生态园", "address": "新安路与西兰路交叉口西南200米", "image": "", "rank": 2, "time": 2, "location": {"lat": 35.1053092891932, "lng": 107.94684419018628}, "feature": {"sight_features": "", "sight_content": ""}}, {"title": "川丰生态垂钓园", "address": "亭口镇川丰村", "image": "", "rank": 3, "time": 2, "location": {"lat": 35.04384991127228, "lng": 107.88894336955735}, "feature": {"sight_features": "", "sight_content": ""}}, {"title": "雪花啤酒广场", "address": "陕西省咸阳市长武县富源花城东100米(312国道北)", "image": "", "rank": 4, "time": 2, "location": {"lat": 35.119221178224805, "lng": 107.93901376525923}, "feature": {"sight_features": "", "sight_content": ""}}, {"title": "浅水塬度假村", "address": "陕西省咸阳市长武县长马公路", "image": "", "rank": 5, "time": 2, "location": {"lat": 35.240408090346094, "lng": 107.77832139470054}, "feature": {"sight_features": "", "sight_content": ""}}, {"title": "亭口丝路车辙遗址", "address": "陕西省咸阳市长武县亭口镇亭北村", "image": "", "rank": 6, "time": 2, "location": {"lat": 35.10827641493972, "lng": 107.94157911918548}, "feature": {"sight_features": "", "sight_content": ""}}, {"title": "亭口文化广场", "address": "亭口镇", "image": "", "rank": 7, "time": 2, "location": {"lat": 37.356542665950826, "lng": 121.00407541054756}, "feature": {"sight_features": "", "sight_content": ""}}, {"title": "长武印象体验园", "address": "洪家镇曹公村", "image": "", "rank": 8, "time": 1.0, "location": {"lat": 35.24924982851331, "lng": 107.73977395094481}, "feature": {"sight_features": "", "sight_content": ""}}, {"title": "秦陇步行街", "address": "陕西省长武县秦陇步行街", "image": "", "rank": 9, "time": 2, "location": {"lat": 35.20909035031837, "lng": 107.80414511434849}, "feature": {"sight_features": "", "sight_content": ""}}]}