{"cityName": "长宁", "days": 2, "cityImage": "", "spots": [{"title": "蜀南花海", "address": "宜宾市长宁县古河镇和乐村", "image": "", "rank": 1, "time": 2, "location": {"lat": 28.708459769292865, "lng": 105.03377552259109}, "feature": {"sight_features": "", "sight_content": ""}}, {"title": "蜀南竹海", "address": "宜宾长宁县蜀南竹海景区", "image": "", "rank": 2, "time": 3.5, "location": {"lat": 28.51546007769627, "lng": 104.93110969953442}, "feature": {"sight_features": "特色1 誉为竹的海洋、翠甲天下 特色2 在竹海翻腾的林间漫步，耳边阵阵“竹”涛，悠闲惬意。 特色3 寻找20度的清凉夏天，感受天然氧吧", "sight_content": "蜀南竹海位于宜宾市境内长宁、江安两县交界之处，北距成都400多公里，以万顷竹海著称。 蜀南竹海风景区内有景点124个，分布广。整个景区东西长约13公里，南北宽约6公里，其中一级景点15个，二级景点19个，蜀南竹海素以雄、险、幽、峻、秀闻名，其中天皇寺、天宝寨、仙寓洞、青龙湖、七彩飞瀑、古战场、观云亭、翡翠长廊、茶花山、花溪十三桥等景观被称为“竹海十佳”。蜀南竹海空气清新，纯净，负离子含量较高，是我国一级环保旅游区。\n竹海、小桥、流水，竹海漂流，一种能让您在享受完“漫步竹林深处”的意境同时，又能体验一下具有竹海特色的“竹海林中漂流”。蜀南竹海集竹景、山水、溶洞、湖泊、瀑布于一体，兼有历史悠久的人文景观，主要景观有墨溪、忘忧谷、翡翠长廊、仙寓硐、天宝寨、七彩飞瀑、青龙湖、仙女湖、海中海、迎风湾、竹海博物馆、游人中心、鱼化石、育江、夕佳山古民居等。\n竹海索道，可观浩瀚竹海，可揽悠悠白云。坐在索道里，就像乘坐一叶小舟，在波涛汹涌的大海里航行，时而直冲云霄，时而滑向谷底。惊险人生的无穷乐趣，尽在其中。乘上楠竹扎的竹筏，荡舟湖心，绿竹倒映，天高云淡，心旷神怡。蜀南竹海漂流后半段水库至终点垂直落差近85米，为“刺激漂”，让女人尖叫，让男人狂笑！全程须用时约50至60分钟。\n蜀南竹海可谓是“竹的海洋”，7万余亩翠竹覆盖了27条峻岭、500多座峰峦。这里生长着15属58种竹子，除盛产常见的楠竹、水竹、慈竹外，还有紫竹、罗汉竹、人面竹、鸳鸯竹等珍稀竹种。夏日一片葱茏，冬日一片银白，是国内外少有的大面积竹景，与恐龙、石林、悬棺并称川南四绝。2001年大红大紫的奥斯卡大片《卧虎藏龙》，大家一定还记忆犹新，其中“竹海打斗”的场面，最为值得称道。在绿涛万倾、壮阔如海的竹林间，一个身轻如燕的女子，一个身手不凡的男子，一前一后，穿梭往来，将中国武术的缥缈轻逸展现的淋漓尽致。该片获奖后，有人问导演李安：“片中之万亩翠竹、湖光山色的壮美画面来自何处？”答曰：“来自川南之蜀南竹海。”\n全竹宴也叫熊猫大餐，听见名字吓人一跳。其实是聪明的竹海人把竹笋充分利用，做成多种美味，款待八方游客。为进一步把竹美食打造成一大品牌，让更多的人吃到上天赐予竹海人的美食，竹海人把用竹做成的菜肴根据客人的爱好和时令季节的变幻拼成了“竹全席”或者“全竹宴”。价格在200元到600元不等，能满足不同人的需求。有游客在吃过后有这样的比喻：“北京有‘满汉全席’，竹海有‘全竹席’”。 竹海人世世代代流传的饮食习惯演绎成一种独具特色的风情，成为竹文化中极具魅力的一部分，诱得到竹海的客人流连忘返。常见的竹笋和珍贵的竹荪在我们全竹宴上是两道清淡的菜，却也是食不厌精，百吃不腻。苏东坡作为美食家，他绝不会对竹的美味一无所知。还有什么比竹更兼有风致和味道？也许，“居有竹，食有笋（荪）”才是他所想要的。清凉竹叶卷起糯米制成的小点，蒸熟后糯米小点就有了竹叶的清香；竹宴以竹筒为盛器，便多了些滋味，美食配美器加上美景，如果再有一份好心情，美食的境界便在于此了。"}}, {"title": "七彩飞瀑", "address": "宜宾市长宁县蜀南竹海景区内", "image": "", "rank": 3, "time": 2, "location": {"lat": 28.473762817888144, "lng": 104.98314997499907}, "feature": {"sight_features": "", "sight_content": ""}}, {"title": "蜀南竹海景区观光索道", "address": "宜宾市长宁县蜀南竹海景区", "image": "", "rank": 4, "time": 2, "location": {"lat": 28.51546007769627, "lng": 104.93110969953442}, "feature": {"sight_features": "特色1 高空之上看竹海。 特色2 誉为竹的海洋、翠甲天下。", "sight_content": "蜀南竹海索道是一条典型的观光索道，上起观海楼，翡翠长廊景点，下至墨溪，忘忧谷，全长2742米，是我国最长的索道之一,行程时间近30分钟。\n乘坐竹海索道，可观浩瀚竹海，可揽悠悠白云。"}}, {"title": "七洞沟", "address": "宜宾市长宁县古河镇幸福村", "image": "", "rank": 5, "time": 2, "location": {"lat": 28.689029834783863, "lng": 105.02416122911093}, "feature": {"sight_features": "特色1 空气清新、环境优美", "sight_content": "七洞沟景区位于宜宾市长宁县古河镇境内，距离长宁县城15公里，江安县城15公里，宜泸高速长宁出口9公里。\n景区景点均坐落在美丽的绵溪河大峡谷，空气清新、环境优美。\n景区主要由：东汉时期古墓群，最具代表的&shy;&shy;--七个洞；千年古庙--飞泉寺；原始森林景区--七条沟；水上娱乐--绵溪河大峡谷漂流；国家级保护植物--桢楠树群、桫椤树群等景点构成。"}}, {"title": "天宝寨", "address": "蜀南竹海景区内", "image": "", "rank": 6, "time": 2, "location": {"lat": 28.473762817888144, "lng": 104.98314997499907}, "feature": {"sight_features": "", "sight_content": ""}}, {"title": "竹海世外桃源神汤温泉", "address": "宜宾市长宁县竹海镇", "image": "", "rank": 7, "time": 2, "location": {"lat": 28.48597369795731, "lng": 104.98277312775299}, "feature": {"sight_features": "", "sight_content": ""}}, {"title": "万江漂流", "address": "宜宾长宁县蜀南竹海景区内", "image": "", "rank": 8, "time": 2, "location": {"lat": 28.473762817888144, "lng": 104.98314997499907}, "feature": {"sight_features": "", "sight_content": ""}}, {"title": "海中海", "address": "四川省长宁县万岭镇蜀南竹海风景区内 627750", "image": "", "rank": 9, "time": 2.5, "location": {"lat": 28.474315399576206, "lng": 104.98666577657744}, "feature": {"sight_features": "", "sight_content": ""}}, {"title": "龙君庙", "address": "长宁镇城西路", "image": "", "rank": 10, "time": 2, "location": {"lat": 28.582919761317267, "lng": 104.91925708384288}, "feature": {"sight_features": "", "sight_content": ""}}, {"title": "竹海博物馆", "address": "竹海镇宜宾蜀南竹海风景名胜区内", "image": "", "rank": 11, "time": 2, "location": {"lat": 28.480799644325696, "lng": 105.00540347461063}, "feature": {"sight_features": "", "sight_content": ""}}, {"title": "竹海氡温泉", "address": "龙头镇古高路西50米", "image": "", "rank": 12, "time": 2, "location": {"lat": 28.43047794892047, "lng": 105.04276621148813}, "feature": {"sight_features": "", "sight_content": ""}}, {"title": "生态园农家乐", "address": "308省道附近", "image": "", "rank": 13, "time": 2, "location": {"lat": 40.337133976011295, "lng": 116.52614205897426}, "feature": {"sight_features": "", "sight_content": ""}}, {"title": "飞泉峡", "address": "四川省长宁县古河镇 644302", "image": "", "rank": 14, "time": 2, "location": {"lat": 28.667938260907434, "lng": 105.0126778690856}, "feature": {"sight_features": "", "sight_content": ""}}, {"title": "挂膀岩洞穴群", "address": "四川省长宁县万岭乡 644304", "image": "", "rank": 15, "time": 2, "location": {"lat": 28.588133452698838, "lng": 104.92756445509465}, "feature": {"sight_features": "", "sight_content": ""}}, {"title": "七个洞崖墓群", "address": "四川省长宁县古河镇保民村 644303", "image": "", "rank": 16, "time": 2, "location": {"lat": 28.68018904380068, "lng": 105.03706679719885}, "feature": {"sight_features": "", "sight_content": ""}}, {"title": "余则鸿烈士纪念馆", "address": "四川省长宁县长宁镇新街94号 644300", "image": "", "rank": 17, "time": 2, "location": {"lat": 28.30031395566994, "lng": 105.0940022241486}, "feature": {"sight_features": "", "sight_content": ""}}, {"title": "竹韵广场", "address": "四川省宜宾市长宁县竹都大道二段29号", "image": "", "rank": 18, "time": 2, "location": {"lat": 28.585658782389025, "lng": 104.9218099378471}, "feature": {"sight_features": "", "sight_content": ""}}, {"title": "西部竹石林", "address": "宜宾市长宁县梅硐镇高简村", "image": "", "rank": 19, "time": 2, "location": {"lat": 28.30062100308167, "lng": 104.99171027315013}, "feature": {"sight_features": "特色1 我国喀斯特地貌发育最典型的地区", "sight_content": "西部竹石林风景区位于四川省长宁县南部的梅硐镇和兴文县西北部的两龙乡，距长宁县城42公里，按 AAAAA旅游景区规划打造。景区占地面积118平方公里，有18大景观区，400多个精品点。\n景区内喀斯特地貌起源于5.3亿多年前的寒武纪地质年代，浑然天成，是我国喀斯特地貌发育最典型的 地区。露天石林奇形怪状，栩栩如生，有如万里长城之八达岭者，有如秦皇兵马俑者，有如古代大将军者， 亦有如诸葛武侯埋下的十万“伏兵”者。\n上、中、下三龙潭碧水悠悠，红尾鱼时翻时跃；岸边林木葱绿，鸟语花香，物类繁多，还有最典型的 植物活化石”桫椤树堪称世界之最。五斗坝万亩茶园沁人心脾；园内随处可见群群白鹤，还常听到布谷鸟 鸣唱，峭壁悬崖上弥猴攀跃，崇山峻岭中时有野猪、黄羊、绿孔雀、云豹、青猴、狐狸等出现，令人心旷 神怡，胆战心惊。苗族风情特色更使游人拍手称赞。"}}, {"title": "小天使儿童游乐园", "address": "四川省宜宾市长宁县三元乡长宁三元客运站附近", "image": "", "rank": 20, "time": 2, "location": {"lat": 28.592782380142683, "lng": 104.80895183627413}, "feature": {"sight_features": "", "sight_content": ""}}, {"title": "余泽鸿故居", "address": "宜宾市长宁县梅硐乡泽鸿村", "image": "", "rank": 21, "time": 2, "location": {"lat": 28.34219210708717, "lng": 104.99107542717185}, "feature": {"sight_features": "", "sight_content": ""}}, {"title": "温州商城游乐园", "address": "308省道附近", "image": "", "rank": 22, "time": 3.0, "location": {"lat": 40.337133976011295, "lng": 116.52614205897426}, "feature": {"sight_features": "", "sight_content": ""}}, {"title": "游山玩水专业户外（长宁店）", "address": "四川省宜宾市长宁县建设路1段-144", "image": "", "rank": 23, "time": 2, "location": {"lat": 28.585275120706857, "lng": 104.92476529021121}, "feature": {"sight_features": "", "sight_content": ""}}, {"title": "大雄宝殿", "address": "宜宾市长宁县竹海镇蜀南竹海内", "image": "", "rank": 24, "time": 2, "location": {"lat": 28.48597369795731, "lng": 104.98277312775299}, "feature": {"sight_features": "", "sight_content": ""}}, {"title": "丰碑园", "address": "天能路一段与建设路二段交叉口西北50米", "image": "", "rank": 25, "time": 2, "location": {"lat": 28.58395856722392, "lng": 104.92328801961409}, "feature": {"sight_features": "", "sight_content": ""}}, {"title": "童乐王国儿童游乐园", "address": "向阳街4号楼3栋附20号", "image": "", "rank": 26, "time": 2, "location": {"lat": 43.722484979578255, "lng": 127.3418733483243}, "feature": {"sight_features": "", "sight_content": ""}}, {"title": "人民英雄纪念碑", "address": "建设路2段", "image": "", "rank": 27, "time": 1.0, "location": {"lat": 28.583743606552755, "lng": 104.92340565811043}, "feature": {"sight_features": "", "sight_content": ""}}, {"title": "培风广场", "address": "宜宾市长宁县民主街70号", "image": "", "rank": 28, "time": 2, "location": {"lat": 28.57933750728419, "lng": 104.92998271348905}, "feature": {"sight_features": "", "sight_content": ""}}, {"title": "宜宾蜀南竹海人面竹度假村", "address": "宜宾蜀南竹海翡翠长廊右侧300米", "image": "", "rank": 29, "time": 3.0, "location": {"lat": 28.47218732907904, "lng": 105.01210623237453}, "feature": {"sight_features": "", "sight_content": ""}}, {"title": "泽鸿广场", "address": "珙晏路与015乡道交叉口西北50米", "image": "", "rank": 30, "time": 2, "location": {"lat": 39.754319199493544, "lng": 118.4675874287618}, "feature": {"sight_features": "", "sight_content": ""}}, {"title": "蜀南竹海兴隆湾度假村", "address": "长宁蜀南竹海风景区中心翡翠长廊至龙吟寺方向翡翠长廊前行三叉口往左200米处", "image": "", "rank": 31, "time": 2, "location": {"lat": 28.47218732907904, "lng": 105.01210623237453}, "feature": {"sight_features": "", "sight_content": ""}}, {"title": "熊快跑亲子户外营地", "address": "宜宾市长宁县古河镇和乐村蜀南花海景区梦幻半岛内", "image": "", "rank": 32, "time": 2, "location": {"lat": 28.708459769292865, "lng": 105.03377552259109}, "feature": {"sight_features": "", "sight_content": ""}}, {"title": "草莓采摘园", "address": "下长镇政府", "image": "", "rank": 33, "time": 2, "location": {"lat": 28.72870018773307, "lng": 105.01102168118352}, "feature": {"sight_features": "", "sight_content": ""}}, {"title": "黄家大河坝", "address": "平上村", "image": "", "rank": 34, "time": 2, "location": {"lat": 35.47205869468471, "lng": 114.82830227653656}, "feature": {"sight_features": "", "sight_content": ""}}, {"title": "马桥村农场", "address": "铜鼓乡马桥", "image": "", "rank": 35, "time": 2, "location": {"lat": 28.550112220043466, "lng": 104.7582675745357}, "feature": {"sight_features": "", "sight_content": ""}}, {"title": "梅硐竹石林景区", "address": "四川省长宁县梅硐镇", "image": "", "rank": 36, "time": 2, "location": {"lat": 28.330619274316845, "lng": 105.00901913542268}, "feature": {"sight_features": "", "sight_content": ""}}, {"title": "长宁竹海自然保护区", "address": "四川省长宁县竹海镇", "image": "", "rank": 37, "time": 3.5, "location": {"lat": 28.48597369795731, "lng": 104.98277312775299}, "feature": {"sight_features": "", "sight_content": ""}}, {"title": "竹海山庄", "address": "四川省江安县万里镇", "image": "", "rank": 38, "time": 2, "location": {"lat": 28.489980310103153, "lng": 105.03856344783904}, "feature": {"sight_features": "", "sight_content": ""}}, {"title": "长宁县民主街步行街", "address": "四川省长宁县翠屏区民主街145号", "image": "", "rank": 39, "time": 2, "location": {"lat": 28.580049528586624, "lng": 104.9290445032524}, "feature": {"sight_features": "", "sight_content": ""}}, {"title": "长宁步行街", "address": "四川省长宁县天能路", "image": "", "rank": 40, "time": 3.0, "location": {"lat": 28.5834175292396, "lng": 104.92445983489723}, "feature": {"sight_features": "", "sight_content": ""}}, {"title": "五叠屏", "address": "宜宾市长宁县蜀南竹海风景名胜区忘忧谷内", "image": "", "rank": 41, "time": 0.5, "location": {"lat": 28.462103642959644, "lng": 104.99037741414675}, "feature": {"sight_features": "", "sight_content": ""}}, {"title": "观云亭", "address": "四川省宜宾市长宁县竹海镇万岭小桥(蜀南竹海风景名胜区)", "image": "", "rank": 42, "time": 0.5, "location": {"lat": 28.488293735038493, "lng": 105.02705214961405}, "feature": {"sight_features": "", "sight_content": ""}}]}