{"cityName": "长顺", "days": 2, "cityImage": "", "spots": [{"title": "长顺杜鹃湖风景区", "address": "黔南布依族苗族自治州长顺县新寨乡杜鹃湖(长顺)", "image": "", "rank": 1, "time": 1.0, "location": {"lat": 26.090959654158915, "lng": 106.34600310200668}, "feature": {"sight_features": "", "sight_content": ""}}, {"title": "付家院岩画", "address": "贵州省长顺县威远镇付家院村 550704", "image": "", "rank": 2, "time": 2, "location": {"lat": 25.980939997891284, "lng": 106.50221067686539}, "feature": {"sight_features": "", "sight_content": ""}}, {"title": "天灯坡", "address": "水井巷与育英巷交叉口西北100米", "image": "", "rank": 3, "time": 2, "location": {"lat": 26.028937401222368, "lng": 106.45707075583438}, "feature": {"sight_features": "", "sight_content": ""}}, {"title": "益家和农家苹果园", "address": "和平西路132号附近", "image": "", "rank": 4, "time": 2, "location": {"lat": 23.11777154216154, "lng": 113.24740040546502}, "feature": {"sight_features": "", "sight_content": ""}}, {"title": "国家天然资源保护工程新寨森林管...", "address": "鼠场村附近", "image": "", "rank": 5, "time": 2, "location": {"lat": 26.353471317868433, "lng": 105.48364468236382}, "feature": {"sight_features": "", "sight_content": ""}}, {"title": "吾家画廊", "address": "黔南布依族苗族自治州长顺县长发中路与长发南路交叉口东南150米", "image": "", "rank": 6, "time": 2, "location": {"lat": 26.02901064599254, "lng": 106.4553602141608}, "feature": {"sight_features": "", "sight_content": ""}}, {"title": "晶源生态农业园", "address": "黔南布依族苗族自治州-长顺县-广顺镇凤凰坝", "image": "", "rank": 7, "time": 2, "location": {"lat": 26.193708943938976, "lng": 106.38936705507894}, "feature": {"sight_features": "", "sight_content": ""}}, {"title": "神泉谷休闲旅游度假区", "address": "黔南布依族苗族自治州长顺县威远社区永增村", "image": "", "rank": 8, "time": 1.5, "location": {"lat": 26.03604017679645, "lng": 106.51369329848357}, "feature": {"sight_features": "特色1 粉黛乱子草盛开季节，看粉花在风中摇曳。", "sight_content": "神泉谷风景区长顺县城仅11公里，一条乌麻河从上游贯穿威远古镇，景区内有玻璃滑道漂流、神泉驿站、自然漂流、西谷区等景点。"}}]}