{"cityName": "彰化", "days": "1", "cityImage": "", "spots": [{"title": "鹿港", "address": "台湾彰化县鹿港镇", "image": "", "rank": 1, "time": 7.5, "location": {"lat": 24.086935197487048, "lng": 120.4658100421883}, "feature": {"sight_features": "", "sight_content": ""}}, {"title": "鹿港天后宫", "address": "彰化县鹿港镇玉顺里中山路430号", "image": "", "rank": 2, "time": 2.0, "location": {"lat": 29.28943701805108, "lng": 120.24102842441667}, "feature": {"sight_features": "", "sight_content": ""}}, {"title": "鹿港龙山寺", "address": "台湾彰化县鹿港镇龙山街100号", "image": "", "rank": 3, "time": 1.0, "location": {"lat": 24.086935197487048, "lng": 120.4658100421883}, "feature": {"sight_features": "", "sight_content": ""}}, {"title": "摸乳巷", "address": "台湾彰化县鹿港镇北街菜园路38号", "image": "", "rank": 4, "time": 0.15000000000000002, "location": {"lat": 24.086935197487048, "lng": 120.4658100421883}, "feature": {"sight_features": "", "sight_content": ""}}, {"title": "鹿港老街", "address": "彰化县鹿港镇埔头街、瑶林街、大有街三条街道组成的街区", "image": "", "rank": 5, "time": 4.5, "location": {"lat": 43.529446348376, "lng": 125.67737827745069}, "feature": {"sight_features": "", "sight_content": ""}}, {"title": "鹿港民俗文物馆", "address": "彰化县鹿港镇中山路152号", "image": "", "rank": 6, "time": 0.65, "location": {"lat": 41.804209063729, "lng": 123.42435556517133}, "feature": {"sight_features": "", "sight_content": ""}}, {"title": "小垦丁水上休闲世界", "address": "台湾彰化縣彰化市彰南路四段98號", "image": "", "rank": 7, "time": 7.5, "location": {"lat": 24.07928626593072, "lng": 120.56967012469127}, "feature": {"sight_features": "", "sight_content": ""}}, {"title": "二水观光自行车道", "address": "彰化县二水乡光文路1号", "image": "", "rank": 8, "time": 2, "location": {"lat": 29.803442713116013, "lng": 121.48533759099219}, "feature": {"sight_features": "", "sight_content": ""}}, {"title": "鹿港城隍庙", "address": "彰化县鹿港镇中山路366号", "image": "", "rank": 9, "time": 1.0, "location": {"lat": 32.064019498449156, "lng": 118.79094928191681}, "feature": {"sight_features": "", "sight_content": ""}}, {"title": "南瑶宫", "address": "彰化市南瑶里南瑶路43号", "image": "", "rank": 10, "time": 2, "location": {"lat": 30.68964187622866, "lng": 120.44243358952981}, "feature": {"sight_features": "", "sight_content": ""}}, {"title": "彰化郑成功庙", "address": "彰化中山路二段", "image": "", "rank": 11, "time": 7.5, "location": {"lat": 28.88581131463841, "lng": 105.45502999308212}, "feature": {"sight_features": "", "sight_content": ""}}, {"title": "九曲巷", "address": "彰化县鹿港镇金盛巷", "image": "", "rank": 12, "time": 0.15000000000000002, "location": {"lat": 26.632603089127695, "lng": 109.04292985822157}, "feature": {"sight_features": "", "sight_content": ""}}, {"title": "半边井", "address": "鹿港镇瑶林街12号", "image": "", "rank": 13, "time": 0.1, "location": {"lat": 24.694400175320293, "lng": 118.6529441702553}, "feature": {"sight_features": "", "sight_content": ""}}, {"title": "丁家大宅", "address": "彰化县鹿港镇中山路130号", "image": "", "rank": 14, "time": 0.5, "location": {"lat": 39.164370485530014, "lng": 117.20722235063248}, "feature": {"sight_features": "", "sight_content": ""}}, {"title": "虎山岩", "address": "台中彰化市6公里", "image": "", "rank": 15, "time": 2, "location": {"lat": 24.07928626593072, "lng": 120.56967012469127}, "feature": {"sight_features": "", "sight_content": ""}}, {"title": "文武庙", "address": "彰化县鹿港镇街尾里青云路2号", "image": "", "rank": 16, "time": 1.5, "location": {"lat": 32.39362675514641, "lng": 120.56349227183554}, "feature": {"sight_features": "", "sight_content": ""}}, {"title": "十宜楼", "address": "彰化县鹿港镇中山路147号", "image": "", "rank": 17, "time": 0.35, "location": {"lat": 41.80365319489829, "lng": 123.42328576415643}, "feature": {"sight_features": "", "sight_content": ""}}, {"title": "南靖宮", "address": "彰化县鹿港镇埔头街74号", "image": "", "rank": 18, "time": 1.0, "location": {"lat": 26.52512804858424, "lng": 119.30024918601652}, "feature": {"sight_features": "", "sight_content": ""}}, {"title": "彰化精诚夜市", "address": "500台湾彰化縣彰化市林森路和精誠路交叉口", "image": "", "rank": 19, "time": 7.5, "location": {"lat": 24.07928626593072, "lng": 120.56967012469127}, "feature": {"sight_features": "", "sight_content": ""}}, {"title": "地藏王庙", "address": "彰化县鹿港镇力行街2号", "image": "", "rank": 20, "time": 1.5, "location": {"lat": 34.66780104071568, "lng": 112.3936715117298}, "feature": {"sight_features": "", "sight_content": ""}}, {"title": "彰化中央陆桥夜市", "address": "彰化市天祥路", "image": "", "rank": 21, "time": 7.5, "location": {"lat": 24.07928626593072, "lng": 120.56967012469127}, "feature": {"sight_features": "", "sight_content": ""}}, {"title": "彰化孔庙", "address": "彰化县彰化市公园路", "image": "", "rank": 22, "time": 2.0, "location": {"lat": 26.632603089127695, "lng": 109.04292985822157}, "feature": {"sight_features": "", "sight_content": ""}}, {"title": "三山国王庙", "address": "彰化县鹿港镇顺兴里中山路276号", "image": "", "rank": 23, "time": 1.5, "location": {"lat": 31.26749301032204, "lng": 121.4833429334022}, "feature": {"sight_features": "", "sight_content": ""}}, {"title": "台湾玻璃馆", "address": "台湾彰化县鹿港镇鹿工南四路30号", "image": "", "rank": 24, "time": 2, "location": {"lat": 24.086935197487048, "lng": 120.4658100421883}, "feature": {"sight_features": "", "sight_content": ""}}, {"title": "瓮墙", "address": "彰化县鹿港镇中山路", "image": "", "rank": 25, "time": 0.75, "location": {"lat": 26.632603089127695, "lng": 109.04292985822157}, "feature": {"sight_features": "", "sight_content": ""}}, {"title": "彰化鹿港鹿和夜市", "address": "505台湾彰化縣鹿港鎮", "image": "", "rank": 26, "time": 7.5, "location": {"lat": 24.086956718804895, "lng": 121.97387097871568}, "feature": {"sight_features": "", "sight_content": ""}}, {"title": "八卦山", "address": "台湾彰化市彰化县", "image": "", "rank": 27, "time": 0.75, "location": {"lat": 24.07928626593072, "lng": 120.56967012469127}, "feature": {"sight_features": "", "sight_content": ""}}, {"title": "彰化师范大学", "address": "台湾彰化县进德路一号", "image": "", "rank": 28, "time": 1.5, "location": {"lat": 24.086956718804895, "lng": 121.97387097871568}, "feature": {"sight_features": "", "sight_content": ""}}, {"title": "台糖鹿港车站", "address": "台湾彰化县鹿港镇彰鹿路八段110號", "image": "", "rank": 29, "time": 2, "location": {"lat": 24.086935197487048, "lng": 120.4658100421883}, "feature": {"sight_features": "", "sight_content": ""}}, {"title": "彰化扇形车库", "address": "台湾彰化县彰化市彰美路一段1号 ‎", "image": "", "rank": 30, "time": 7.5, "location": {"lat": 24.07928626593072, "lng": 120.56967012469127}, "feature": {"sight_features": "", "sight_content": ""}}, {"title": "开化寺", "address": "500台湾彰化縣彰化市中華路134號", "image": "", "rank": 31, "time": 1.0, "location": {"lat": 24.07928626593072, "lng": 120.56967012469127}, "feature": {"sight_features": "", "sight_content": ""}}, {"title": "緞帶王織帶文化園區", "address": "鹿工路15號 鹿港鎮, 彰化縣 505 Taiwan", "image": "", "rank": 32, "time": 2.5, "location": {"lat": 37.715944129575384, "lng": 112.75252674058467}, "feature": {"sight_features": "", "sight_content": ""}}, {"title": "桂花巷艺术村", "address": "台湾彰化县鹿港镇桂花巷艺术村", "image": "", "rank": 33, "time": 2, "location": {"lat": 24.086935197487048, "lng": 120.4658100421883}, "feature": {"sight_features": "", "sight_content": ""}}, {"title": "中山路老街", "address": "彰化县鹿港镇中山路", "image": "", "rank": 34, "time": 2, "location": {"lat": 26.632603089127695, "lng": 109.04292985822157}, "feature": {"sight_features": "", "sight_content": ""}}, {"title": "彰化艺术馆", "address": "台湾彰化县彰化市中山路二段542号", "image": "", "rank": 35, "time": 0.5, "location": {"lat": 23.98487399040968, "lng": 121.61584350526923}, "feature": {"sight_features": "", "sight_content": ""}}, {"title": "延平公园", "address": "台湾彰化县彰化市", "image": "", "rank": 36, "time": 0.5, "location": {"lat": 24.07928626593072, "lng": 120.56967012469127}, "feature": {"sight_features": "", "sight_content": ""}}, {"title": "1895八卦山抗日保台纪念馆", "address": "台湾彰化市中山路二段500号", "image": "", "rank": 37, "time": 2, "location": {"lat": 23.98487399040968, "lng": 121.61584350526923}, "feature": {"sight_features": "", "sight_content": ""}}, {"title": "元清观", "address": "台湾彰化县彰化市民生路207号", "image": "", "rank": 38, "time": 2, "location": {"lat": 24.07928626593072, "lng": 120.56967012469127}, "feature": {"sight_features": "", "sight_content": ""}}, {"title": "定光佛庙", "address": "彰化縣彰化市光復路140號", "image": "", "rank": 39, "time": 2.0, "location": {"lat": 24.07928626593072, "lng": 120.56967012469127}, "feature": {"sight_features": "", "sight_content": ""}}, {"title": "玉渠宫", "address": "彰化县鹿港镇车围巷1号", "image": "", "rank": 40, "time": 2, "location": {"lat": 26.632603089127695, "lng": 109.04292985822157}, "feature": {"sight_features": "", "sight_content": ""}}, {"title": "鹿港公会堂", "address": "505台湾彰化县鹿港镇", "image": "", "rank": 41, "time": 7.5, "location": {"lat": 26.632603089127695, "lng": 109.04292985822157}, "feature": {"sight_features": "", "sight_content": ""}}, {"title": "文开书院", "address": "台湾彰化县鹿港镇青云路2号", "image": "", "rank": 42, "time": 2, "location": {"lat": 24.086935197487048, "lng": 120.4658100421883}, "feature": {"sight_features": "", "sight_content": ""}}, {"title": "凤山公园", "address": "台湾彰化县溪湖镇", "image": "", "rank": 43, "time": 2, "location": {"lat": 23.955648042217717, "lng": 120.49156868498336}, "feature": {"sight_features": "", "sight_content": ""}}, {"title": "彰化女中", "address": "Taiwan", "image": "", "rank": 44, "time": 7.5, "location": {"lat": 26.632603089127695, "lng": 109.04292985822157}, "feature": {"sight_features": "", "sight_content": ""}}, {"title": "德美公园", "address": "台湾彰化县和美镇", "image": "", "rank": 45, "time": 2, "location": {"lat": 24.122087862823367, "lng": 120.52369129051766}, "feature": {"sight_features": "", "sight_content": ""}}, {"title": "文德宫", "address": "台湾彰化县花坛乡白山村彰员路360号", "image": "", "rank": 46, "time": 2, "location": {"lat": 24.03227572791528, "lng": 120.56995108860384}, "feature": {"sight_features": "", "sight_content": ""}}, {"title": "敕建天后宫", "address": "彰化县鹿港镇埔头街96号", "image": "", "rank": 47, "time": 2, "location": {"lat": 26.52512804858424, "lng": 119.30024918601652}, "feature": {"sight_features": "", "sight_content": ""}}, {"title": "意楼", "address": "彰化县鹿港镇金盛巷", "image": "", "rank": 48, "time": 2, "location": {"lat": 26.632603089127695, "lng": 109.04292985822157}, "feature": {"sight_features": "", "sight_content": ""}}, {"title": "王功蚵艺文化馆", "address": "彰化县芳苑乡王功渔港路一号", "image": "", "rank": 49, "time": 2, "location": {"lat": 30.889503919789615, "lng": 121.8555942563611}, "feature": {"sight_features": "", "sight_content": ""}}, {"title": "Changhua City Art Museum", "address": "中国,彰化县,No. 542, Sec2., Gongyuan Rd., Changhua City,", "image": "", "rank": 50, "time": 2, "location": {"lat": 26.632603089127695, "lng": 109.04292985822157}, "feature": {"sight_features": "", "sight_content": ""}}, {"title": "Lukang Folk Arts Museum", "address": "中国,彰化县,No. 152, Zhongshan Rd., Lukang Township,", "image": "", "rank": 51, "time": 2, "location": {"lat": 26.632603089127695, "lng": 109.04292985822157}, "feature": {"sight_features": "", "sight_content": ""}}, {"title": "八挂山", "address": "彰化县彰化市八卦路8-1号", "image": "", "rank": 52, "time": 2, "location": {"lat": 22.5653506729948, "lng": 114.10644538032014}, "feature": {"sight_features": "", "sight_content": ""}}, {"title": "Museum of Culture and History ...", "address": "彰化县No. 1, Sec. 1, Zhongzho Rd., Tianzhong Township", "image": "", "rank": 53, "time": 2, "location": {"lat": 26.632603089127695, "lng": 109.04292985822157}, "feature": {"sight_features": "", "sight_content": ""}}, {"title": "The Church of Luotso", "address": "彰化县No. 109, Luoyong Rd., Puxin Township", "image": "", "rank": 54, "time": 1.5, "location": {"lat": 26.632603089127695, "lng": 109.04292985822157}, "feature": {"sight_features": "", "sight_content": ""}}, {"title": "Lugang Town History Museum", "address": "彰化县Ln. 1320, Minquan Rd., Lukang Township", "image": "", "rank": 55, "time": 2, "location": {"lat": 26.632603089127695, "lng": 109.04292985822157}, "feature": {"sight_features": "", "sight_content": ""}}, {"title": "Longsheng Petrified Wood Museu...", "address": "彰化县No. 41, Sec. 2, Minsheng Rd., Tianwei Township", "image": "", "rank": 56, "time": 2, "location": {"lat": 26.632603089127695, "lng": 109.04292985822157}, "feature": {"sight_features": "", "sight_content": ""}}, {"title": "Dong Luo River Bikeway", "address": "彰化县Xizhuang, Erlin Township", "image": "", "rank": 57, "time": 2, "location": {"lat": 26.632603089127695, "lng": 109.04292985822157}, "feature": {"sight_features": "", "sight_content": ""}}, {"title": "埔心罗厝天主堂", "address": "埔心乡罗厝村罗永路109号 513", "image": "", "rank": 58, "time": null, "location": {"lat": 31.70499864568788, "lng": 104.48595668942635}, "feature": {"sight_features": "", "sight_content": ""}}, {"title": "Laihe Memorial Museum", "address": "彰化县No. 242, Sec 1., Gongyuan Rd., Changhua City4f", "image": "", "rank": 59, "time": 2, "location": {"lat": 26.632603089127695, "lng": 109.04292985822157}, "feature": {"sight_features": "", "sight_content": ""}}]}