{"cityName": "昌吉市", "days": "", "cityImage": "", "spots": [{"title": "杜氏旅游景区", "address": "昌吉市昌吉市区六工镇近郊北部", "image": "", "rank": 1, "time": 5.0, "location": {"lat": 44.11188279573223, "lng": 87.46268365729982}, "feature": {"sight_features": "特色1 集生态、旅游、文化和城乡统筹于一体。 特色2 欢乐、温馨、刺激的游玩氛围。 特色3 体验一家之欢、亲子之情，释放压力、放飞自我的明智选择。", "sight_content": "杜氏旅游景区简介新疆杜氏旅游度假区坐落于昌吉市六工镇北郊。占地面积近3500亩，国家AAAA级旅游景区，全国“信得过”旅游景区。度假区内布局七大主题乐园，其中海洋水世界、欢乐王国、冰雪乐园、非遗文化小镇、康体休闲养生园等五大园区均于2016年呈现。杜氏旅游度假区结合目前及未来国人的需求，打造符合不同人群、不同季节、不同地区，集生态、旅游、文化和城乡统筹于一体的丝绸之路文化乐园。海洋水世界海洋水世界占地面积近百亩，由国际及国内多家知名公司联合设计的。海洋水世界不仅在环境及设备上为游客提供各种尽情游玩，而且还精心准备了丰富文艺表演、水上项目表演等，让您充分体验“海洋水世界”带来的别样风情盛夏、难忘之旅！\n欢乐王国“欢乐王国”集生态休闲、科技体验、欢乐刺激于一体，适合家庭、青少年等不同人群的综合型主题游乐园。乐设施区内的娱乐项目不但适合儿童游玩，也是全家游玩的理想场所，包括海盗船、碰碰车、转转杯、梦幻双层旋转木马等令大小朋友皆喜爱的家庭型、亲子互动式、年轻时尚一族的经典游乐设施，还有老少皆宜的各类摊位游戏，在挑战快乐的同时，还能获得各种惊喜礼品。\n\n非遗文化小镇小镇建筑是以丝绸之路文化为主题、仿古建筑为载体的体验式商旅文化街区。在这条富有异域特色的文化步行街中，浓缩有当年丝绸之路沿线的风土人情、历史风貌和文化景观。人们在此可以品尝到异域特色美食，观赏到民族特色演艺，购买到各国特色商品，珍贵的历史文化资源衍生出丰富多彩的可视、可感、可体验、可消费的文化产品。渔人码头当你踏上船舷，沐风而行，就像亲临了大海！在湖面上，你可以随心 所欲的快速狂奔，放飞自己的心灵，将一切烦恼忘却。杜氏旅游度假区千余亩的广阔湖面空间，数十个各类游艇、船支，定会带给你无限的自由与遐想。\n在渔人码头您可以选择大型游艇，或者小型双人游艇，体验自由奔放的快感，或者是选择乘坐观光水上木筏，荡漾在碧水清波中，享受属于你的那份惬意。体育康体园“体育康体园”是由体育运动区、密林景观区、草地景观区、滨水 景观区、花园小品等构成，在设计精巧、造型优美的自然环境中小憩、慢跑、骑行、打球或者是露营等，感受人与自然的和谐共存，让你的生活情趣即时提升。"}}, {"title": "《千回西域》演出", "address": "昌吉市乌伊东路999号新疆大剧院", "image": "", "rank": 2, "time": 2, "location": {"lat": 44.01423038247393, "lng": 87.31433355466663}, "feature": {"sight_features": "特色1 梦回千里，终见西域，来新疆不容错失的绝佳演出。 特色2 古西域乐舞、丝路历史文化、新疆各民族歌舞风情有机融合。 特色3 《千回西域》 幕纵千里，秀观千年", "sight_content": "新疆旅游第一站 丝路文化第一城\n丝绸之路·印象城\n丝绸之路·印象城位于乌昌交汇处屯河西岸，是复兴丝绸之路文化的中国西部最具民族特色、最具示范性的文化旅游城。\n丝绸之路·印象城集旅游观光、歌舞演艺、异域风情、古堡传说、穿越体验、休闲娱乐、美食购物等为一体，由丝绸之路文化艺术中心·新疆大剧院 、丝绸之路旅游集散中心、丝绸之路艺术馆·博物馆街区、中亚美食城、印象城酒店集群、丝绸之路国际大巴扎、印象西域国际广场、西域不夜城、亚欧风情街、中亚古玩城、汗血宝马场、篝火广场、亚欧文化企业总部等15大具有浓郁民族特色和异域风情的项目所组成。\n\n\n丝绸之路文化艺术中心\n\n波斯、罗马、西域、大唐------散落的玑珠，远方的异域家园\n用金色丝线将它们串连\n收藏歌的缥缈，舞的轻盈，力与美的绽放\n回归丝绸之上歌舞的天堂\n丝绸之路文化艺术中心为丝绸之路·印象城首批落成项目，位于乌昌交汇处屯河西岸，总投资17.6亿元，占地面积280亩，总建筑面积12万平方米，其中地上建筑面积9.6万平方米，地下建筑面积2.6万平方米，包括新疆大剧院、音乐厅、多功能小剧场、会议中心、旅游购物中心、丝绸之路艺术馆博物馆、丝绸之路旅游推广中心等，是一个集文化演艺、旅游观光、会议展览于一体的大型文化景观建筑。\n金色雪莲花  新疆大剧院\n丝绸之路文化艺术中心·新疆大剧院的建筑造型，以“盛开的天山雪莲”为设计理念，由中国著名建筑设计大师孟建明先生设计，已成为别具风格的西域文化艺术地标。工程建设由中国建筑行业王牌军——中国建筑第三工程局承建；舞台机械装置由解放军总装备部工程设计研究院设计、制作、安装；主剧场由苏州金螳螂建筑装饰股份有限公司、深圳洪涛装饰股份有限公司进行精装修；由中国（香港）寰宇文化科技集团提供激光特效／水特效；中国数虎图像公司提供多媒体数字特效；广州励丰文化科技股份有限公司提供全景多声道音响系统／演出集成控制系统的深化设计； GTD（广州）电脑灯公司提供国际品牌光源技术制作、安装；北京金立翔艺彩科技股份有限公司提供3000平米LED巨幕设计、安装。\n\n\n新疆大剧院主剧场可容纳2100人观看演出，台宽86米、台深68米、台口宽27米、台面4000平方米的国内最大室内表演舞台上，安装36处立体实景，配置国际一流技术的声、光、电、烟火、水幕等大型机械舞台装置，营造出如梦如幻、身临其境的舞台意境。\n\n公共交通信息：从乌鲁木齐市西北路（乌昌站台）乘坐“乌昌大巴”至昌吉，进入昌吉 第一站下车步行即可到达（沿昌吉国家农业科技园区下坡后通过红绿灯左转行至 20米，即可到达新疆大剧院停车场），此为循环班次，早班车7:30，末班车23:30。"}}, {"title": "杜氏丛林探险大世界", "address": "昌吉回族自治州昌吉市六工镇", "image": "", "rank": 3, "time": 2, "location": {"lat": 44.11188279573223, "lng": 87.46268365729982}, "feature": {"sight_features": "", "sight_content": ""}}, {"title": "努尔加滑雪场", "address": "昌吉回族自治州昌吉市庙儿沟乡三工镇三工滩努尔加水库东岸", "image": "", "rank": 4, "time": 2, "location": {"lat": 44.39152032936464, "lng": 87.28946105862829}, "feature": {"sight_features": "", "sight_content": ""}}, {"title": "清代粮仓", "address": "北京北路与红旗路交叉口西150米", "image": "", "rank": 5, "time": 2, "location": {"lat": 44.03453022766008, "lng": 87.30969121617416}, "feature": {"sight_features": "", "sight_content": ""}}, {"title": "昌吉回族自治州科技馆", "address": "宁边西路与世纪大道交叉处东侧路北", "image": "", "rank": 6, "time": 4.5, "location": {"lat": 44.03642595484095, "lng": 87.2772164091134}, "feature": {"sight_features": "", "sight_content": ""}}, {"title": "西界剧情密室", "address": "建国西路友好时尚购物中心五楼", "image": "", "rank": 7, "time": 2, "location": {"lat": 43.875658761067186, "lng": 87.5902542733864}, "feature": {"sight_features": "", "sight_content": ""}}, {"title": "新疆朗青休闲观光牧场", "address": "滨湖镇121线道北400米", "image": "", "rank": 8, "time": 2, "location": {"lat": 44.20160654634496, "lng": 87.46506930395115}, "feature": {"sight_features": "", "sight_content": ""}}, {"title": "惊城密室逃脱桌游馆", "address": "乐活小镇(青年南路与和田路交汇处)", "image": "", "rank": 9, "time": 2, "location": {"lat": 41.03306419961597, "lng": 113.13528602907708}, "feature": {"sight_features": "", "sight_content": ""}}, {"title": "逸野轩画廊", "address": "宁边东路1号", "image": "", "rank": 10, "time": 2, "location": {"lat": 44.029756306542865, "lng": 87.31641663531373}, "feature": {"sight_features": "", "sight_content": ""}}, {"title": "大沙河生态园", "address": "蕃茄制品有限公司南边", "image": "", "rank": 11, "time": 2, "location": {"lat": 39.06881637738621, "lng": 117.03319997700102}, "feature": {"sight_features": "", "sight_content": ""}}, {"title": "翰林书画院", "address": "瑞祥步行街", "image": "", "rank": 12, "time": 2, "location": {"lat": 44.030394093284, "lng": 87.3162731310085}, "feature": {"sight_features": "", "sight_content": ""}}, {"title": "彩虹岛儿童乐园", "address": "延安北路东方广场汇嘉时代正面3楼观光电梯右手旁", "image": "", "rank": 13, "time": null, "location": {"lat": 44.023429420153256, "lng": 87.31575074749004}, "feature": {"sight_features": "", "sight_content": ""}}, {"title": "天露水世界", "address": "青湖南路1025号苏宁电器旁", "image": "", "rank": 14, "time": 2, "location": {"lat": 44.160611125236386, "lng": 87.54002850218214}, "feature": {"sight_features": "", "sight_content": ""}}, {"title": "五家渠希望有机化工厂(西南门)", "address": "301省道北50米", "image": "", "rank": 15, "time": 2, "location": {"lat": 38.13510215172757, "lng": 114.42863974573754}, "feature": {"sight_features": "", "sight_content": ""}}, {"title": "田园绿菜垂钓园", "address": "231省道南侧六合附近", "image": "", "rank": 16, "time": 2, "location": {"lat": 32.328666041019886, "lng": 118.82747132971379}, "feature": {"sight_features": "", "sight_content": ""}}, {"title": "西域金成马业", "address": "西外环南路与和田路交汇处", "image": "", "rank": 17, "time": 2, "location": {"lat": 43.99861271769491, "lng": 87.22536958246549}, "feature": {"sight_features": "", "sight_content": ""}}, {"title": "黄金海岸水上乐园", "address": "宁边东路29号", "image": "", "rank": 18, "time": 7.5, "location": {"lat": 44.02965001181835, "lng": 87.31905316198552}, "feature": {"sight_features": "", "sight_content": ""}}, {"title": "清水泉度假村", "address": "新疆维吾尔自治区昌吉市硫磺沟镇 831100", "image": "", "rank": 19, "time": 2, "location": {"lat": 43.751917996703774, "lng": 87.22725417721014}, "feature": {"sight_features": "", "sight_content": ""}}, {"title": "清水泉度假村", "address": "硫磺沟镇以南8公里", "image": "", "rank": 20, "time": 2, "location": {"lat": 43.69979995950345, "lng": 87.22725417721014}, "feature": {"sight_features": "", "sight_content": ""}}, {"title": "清水泉", "address": "硫磺沟镇以南8公里处", "image": "", "rank": 21, "time": 2, "location": {"lat": 43.69979995950345, "lng": 87.22725417721014}, "feature": {"sight_features": "", "sight_content": ""}}, {"title": "援疆生态公园", "address": "新疆维吾尔自治区直辖县级行政单位五家渠市", "image": "", "rank": 22, "time": 2, "location": {"lat": 44.17244451890095, "lng": 87.54993663229611}, "feature": {"sight_features": "", "sight_content": ""}}, {"title": "五家渠沁园生态旅游度假村", "address": "新疆维吾尔自治区五家渠市青湖南路西150米", "image": "", "rank": 23, "time": 2, "location": {"lat": 44.1507282036931, "lng": 87.53851405053983}, "feature": {"sight_features": "", "sight_content": ""}}, {"title": "天池路清真寺", "address": "长宁北路基督教堂附近", "image": "", "rank": 24, "time": 2, "location": {"lat": 44.02085153297085, "lng": 87.30427383450973}, "feature": {"sight_features": "", "sight_content": ""}}, {"title": "亚心广场", "address": "昌吉回族自治州昌吉市延安北路195号", "image": "", "rank": 25, "time": 2, "location": {"lat": 44.0222845514148, "lng": 87.31472761138029}, "feature": {"sight_features": "", "sight_content": ""}}, {"title": "绿轴公园", "address": "新疆维吾尔自治区昌吉回族自治州昌吉市米泉路", "image": "", "rank": 26, "time": 2, "location": {"lat": 43.99402230076978, "lng": 87.25299933447175}, "feature": {"sight_features": "", "sight_content": ""}}, {"title": "昌吉儿童公园", "address": "新疆维吾尔自治区昌吉回族自治州昌吉市北一路", "image": "", "rank": 27, "time": 4.5, "location": {"lat": 44.020126845938606, "lng": 87.27386462195048}, "feature": {"sight_features": "", "sight_content": ""}}, {"title": "森林公园", "address": "北京南路与静苑路交叉口西南200米", "image": "", "rank": 28, "time": 2.5, "location": {"lat": 31.909199228140412, "lng": 121.30903625505988}, "feature": {"sight_features": "", "sight_content": ""}}, {"title": "昌吉市吐鲁番寺", "address": "宁边西路与柳树巷交叉口南150米", "image": "", "rank": 29, "time": 4.5, "location": {"lat": 44.028708299062984, "lng": 87.311634226738}, "feature": {"sight_features": "", "sight_content": ""}}, {"title": "缤蝴渡假村", "address": "一二一县道", "image": "", "rank": 30, "time": 2, "location": {"lat": 30.406829252220568, "lng": 107.5202219398965}, "feature": {"sight_features": "", "sight_content": ""}}, {"title": "苗圃惠友度假村", "address": "光明驾校北侧", "image": "", "rank": 31, "time": 2, "location": {"lat": 31.201077146193235, "lng": 121.51594792631103}, "feature": {"sight_features": "", "sight_content": ""}}, {"title": "都市苹果庄园", "address": "北园村北一巷", "image": "", "rank": 32, "time": 2, "location": {"lat": 44.03707616190621, "lng": 87.3162085042152}, "feature": {"sight_features": "", "sight_content": ""}}, {"title": "五家渠大公馆生态园度假村", "address": "新疆维吾尔自治区五家渠市五家渠101团五连北侧约1公里", "image": "", "rank": 33, "time": 2, "location": {"lat": 44.17244451890095, "lng": 87.54993663229611}, "feature": {"sight_features": "", "sight_content": ""}}, {"title": "邓家沟度假村", "address": "新疆维吾尔自治区昌吉回族自治州昌吉市", "image": "", "rank": 34, "time": 2, "location": {"lat": 44.020126845938606, "lng": 87.27386462195048}, "feature": {"sight_features": "", "sight_content": ""}}, {"title": "波尔多渡假村", "address": "雏鹰路", "image": "", "rank": 35, "time": 2, "location": {"lat": 44.30271180445672, "lng": 87.44456265838964}, "feature": {"sight_features": "", "sight_content": ""}}, {"title": "金水休闲美食园", "address": "新疆维吾尔自治区昌吉回族自治州昌吉市大西渠镇幸福路大沙河生态园北350米", "image": "", "rank": 36, "time": 2, "location": {"lat": 44.01618965064985, "lng": 87.21054290782155}, "feature": {"sight_features": "", "sight_content": ""}}, {"title": "香十里土坑烧烤度假村", "address": "北京南路", "image": "", "rank": 37, "time": 2, "location": {"lat": 43.45600335881615, "lng": 82.97614997539604}, "feature": {"sight_features": "", "sight_content": ""}}, {"title": "金太阳马达加斯加丛林探险乐园", "address": "昌吉回族自治州昌吉市", "image": "", "rank": 38, "time": 2, "location": {"lat": 44.020126845938606, "lng": 87.27386462195048}, "feature": {"sight_features": "", "sight_content": ""}}, {"title": "青湖御园", "address": "青格达湖旅游区五家渠市青湖南路2666号", "image": "", "rank": 39, "time": 2, "location": {"lat": 44.14401102405438, "lng": 87.54446537017735}, "feature": {"sight_features": "", "sight_content": ""}}, {"title": "健康西路清真寺", "address": "昌吉回族自治州昌吉市星汇名筑7号楼1单元901", "image": "", "rank": 40, "time": 2, "location": {"lat": 44.02699441090074, "lng": 87.2879346886278}, "feature": {"sight_features": "", "sight_content": ""}}, {"title": "昌吉市喀什寺", "address": "新疆维吾尔自治区昌吉回族自治州昌吉市宁边路办事处宁边西路宁合家园", "image": "", "rank": 41, "time": 4.5, "location": {"lat": 44.03231155689642, "lng": 87.30905208042756}, "feature": {"sight_features": "", "sight_content": ""}}, {"title": "张氏度假村", "address": "121县道附近", "image": "", "rank": 42, "time": 2, "location": {"lat": 30.406829252220568, "lng": 107.5202219398965}, "feature": {"sight_features": "", "sight_content": ""}}, {"title": "绿野度假村", "address": "六工镇东五工村昌五路与电台路交口", "image": "", "rank": 43, "time": 2, "location": {"lat": 43.84578687953194, "lng": 125.27676049755543}, "feature": {"sight_features": "", "sight_content": ""}}, {"title": "回族花儿度假村", "address": "解放路227号", "image": "", "rank": 44, "time": 2, "location": {"lat": 37.89388069267253, "lng": 112.56805667771944}, "feature": {"sight_features": "", "sight_content": ""}}, {"title": "食景度假村", "address": "绿洲北路附近", "image": "", "rank": 45, "time": 2, "location": {"lat": 44.02330520049032, "lng": 87.33010722127243}, "feature": {"sight_features": "", "sight_content": ""}}, {"title": "杭州千岛湖度假村", "address": "杭州市淳安县千岛湖镇排岭南路48号(排岭南路与炉峰路交叉口", "image": "", "rank": 46, "time": 4.5, "location": {"lat": 29.60713073002843, "lng": 119.0487928604402}, "feature": {"sight_features": "", "sight_content": ""}}, {"title": "石河子市周恩来总理纪念碑馆", "address": "昌吉市其他北泉路360号", "image": "", "rank": 47, "time": 1.0, "location": {"lat": 44.037059072177364, "lng": 87.31163585338962}, "feature": {"sight_features": "", "sight_content": ""}}, {"title": "陕西大寺(昌吉市宁边路社区卫生...", "address": "新疆维吾尔自治区昌吉回族自治州昌吉市宁边西路73号", "image": "", "rank": 48, "time": 2, "location": {"lat": 44.03012963283468, "lng": 87.30722696994665}, "feature": {"sight_features": "", "sight_content": ""}}, {"title": "绿源度假村", "address": "大头庄园附近", "image": "", "rank": 49, "time": 2, "location": {"lat": 44.03869604278866, "lng": 87.31730236454656}, "feature": {"sight_features": "", "sight_content": ""}}, {"title": "牡丹园旅游渡假会所", "address": "延安南路与吐鲁番西路交叉口往南100米路西", "image": "", "rank": 50, "time": 2, "location": {"lat": 42.678924820793675, "lng": 89.26602548864244}, "feature": {"sight_features": "", "sight_content": ""}}, {"title": "新渠古城遗址", "address": "201省道附近", "image": "", "rank": 51, "time": 2, "location": {"lat": 38.686331107748025, "lng": 113.87626234527481}, "feature": {"sight_features": "", "sight_content": ""}}, {"title": "新疆兵团第六师五家渠市博物馆", "address": "新疆维吾尔自治区五家渠市青湖南路与长征西街交叉口东北(五家渠市中心西200米)", "image": "", "rank": 52, "time": 2, "location": {"lat": 44.17049064767727, "lng": 87.54111138450153}, "feature": {"sight_features": "", "sight_content": ""}}, {"title": "大佛寺", "address": "新疆维吾尔自治区昌吉回族自治州昌吉市北园村北一巷西圣观音寺(人民公园北)", "image": "", "rank": 53, "time": 1.5, "location": {"lat": 44.03564636648079, "lng": 87.31892646300011}, "feature": {"sight_features": "", "sight_content": ""}}, {"title": "昌吉回族自治州档案馆", "address": "红星西路", "image": "", "rank": 54, "time": 4.5, "location": {"lat": 26.57299445739313, "lng": 109.69561208045864}, "feature": {"sight_features": "", "sight_content": ""}}, {"title": "昌峰书画社", "address": "宁边东路23号", "image": "", "rank": 55, "time": 2, "location": {"lat": 44.02971871452807, "lng": 87.31744609342816}, "feature": {"sight_features": "", "sight_content": ""}}, {"title": "金桥游戏乐园", "address": "亚中巷", "image": "", "rank": 56, "time": 2, "location": {"lat": 44.018775750026016, "lng": 87.29809121000679}, "feature": {"sight_features": "", "sight_content": ""}}, {"title": "图书馆(北京北路店)", "address": "北京北路77号昌吉学院内", "image": "", "rank": 57, "time": 2, "location": {"lat": 44.02342955653614, "lng": 87.30930528957454}, "feature": {"sight_features": "", "sight_content": ""}}, {"title": "昌吉市图书馆(宁边东路店)", "address": "宁边东路21号", "image": "", "rank": 58, "time": 4.5, "location": {"lat": 44.02971352942071, "lng": 87.31729787301902}, "feature": {"sight_features": "", "sight_content": ""}}, {"title": "民乐园(西北门店)", "address": "净化路16号", "image": "", "rank": 59, "time": 2, "location": {"lat": 44.028163809984996, "lng": 87.32880516660184}, "feature": {"sight_features": "", "sight_content": ""}}, {"title": "和乐园", "address": "健康西路", "image": "", "rank": 60, "time": 2, "location": {"lat": 37.92054372399521, "lng": 114.94860096004183}, "feature": {"sight_features": "", "sight_content": ""}}]}