{"cityName": "长海", "days": "", "cityImage": "", "spots": [{"title": "长海", "address": "大连市长海县", "image": "", "rank": 1, "time": 1.5, "location": {"lat": 39.27827021716725, "lng": 122.59462651636738}, "feature": {"sight_features": "", "sight_content": ""}}, {"title": "广鹿岛", "address": "大连市长海县广鹿岛柳条村(柳条村十字路口)", "image": "", "rank": 2, "time": 4.5, "location": {"lat": 39.16534055457743, "lng": 122.35329704024753}, "feature": {"sight_features": "", "sight_content": ""}}, {"title": "大长山岛", "address": "大连市长海县长山群岛中部，长海县城所在地", "image": "", "rank": 3, "time": 4.0, "location": {"lat": 39.223873050831834, "lng": 122.71296128933282}, "feature": {"sight_features": "", "sight_content": ""}}, {"title": "哈仙岛", "address": "大连市长海县大长山岛西南六海里处", "image": "", "rank": 4, "time": 2.0, "location": {"lat": 39.30523781139993, "lng": 122.51649862692622}, "feature": {"sight_features": "", "sight_content": ""}}, {"title": "獐子岛", "address": "大连市长海县獐子岛镇", "image": "", "rank": 5, "time": 1.0, "location": {"lat": 39.03641692836021, "lng": 122.74102101715788}, "feature": {"sight_features": "", "sight_content": ""}}, {"title": "小水口森林公园", "address": "大连市长海县小长山岛最东端", "image": "", "rank": 6, "time": 3.0, "location": {"lat": 39.24436911593769, "lng": 122.69679121972922}, "feature": {"sight_features": "", "sight_content": ""}}, {"title": "海洋岛", "address": "大连市长海县海洋乡", "image": "", "rank": 7, "time": 3.0, "location": {"lat": 39.06710211191149, "lng": 123.1846250827406}, "feature": {"sight_features": "", "sight_content": ""}}, {"title": "小长山岛", "address": "大连市长海县长山群岛中部", "image": "", "rank": 8, "time": 1.0, "location": {"lat": 39.223873050831834, "lng": 122.71296128933282}, "feature": {"sight_features": "", "sight_content": ""}}, {"title": "仙女湖", "address": "大连市近郊长海县广鹿岛的老铁山入海口", "image": "", "rank": 9, "time": 1.0, "location": {"lat": 39.16534055457743, "lng": 122.35329704024753}, "feature": {"sight_features": "", "sight_content": ""}}, {"title": "瓜皮岛", "address": "大连市长海县市广鹿乡瓜皮村", "image": "", "rank": 10, "time": 1.0, "location": {"lat": 39.18304713297437, "lng": 122.38370951644055}, "feature": {"sight_features": "", "sight_content": ""}}, {"title": "环海公园", "address": "大连市长海县大长山岛镇", "image": "", "rank": 11, "time": 1.0, "location": {"lat": 39.23675337710916, "lng": 122.5262717686712}, "feature": {"sight_features": "", "sight_content": ""}}, {"title": "三元宫", "address": "长海县大长山岛镇", "image": "", "rank": 12, "time": 1.5, "location": {"lat": 39.23675337710916, "lng": 122.5262717686712}, "feature": {"sight_features": "", "sight_content": ""}}, {"title": "饮牛湾度假区", "address": "大连市大长山岛东南海滨", "image": "", "rank": 13, "time": 1.0, "location": {"lat": 39.30527968713216, "lng": 122.51649862692622}, "feature": {"sight_features": "", "sight_content": ""}}, {"title": "马祖庙", "address": "大连长海县广鹿乡铁山仙女湖景区之望海岭上", "image": "", "rank": 14, "time": 0.75, "location": {"lat": 39.18304713297437, "lng": 122.38370951644055}, "feature": {"sight_features": "", "sight_content": ""}}, {"title": "双凤朝阳塔", "address": "大连市长海县大长山岛镇", "image": "", "rank": 15, "time": 1.0, "location": {"lat": 39.23675337710916, "lng": 122.5262717686712}, "feature": {"sight_features": "", "sight_content": ""}}, {"title": "小珠山遗址", "address": "大连市长海县广鹿乡塘洼村吴屯", "image": "", "rank": 16, "time": 0.75, "location": {"lat": 39.210195101001005, "lng": 122.38809436212637}, "feature": {"sight_features": "", "sight_content": ""}}, {"title": "祈祥园", "address": "辽宁省长海县大长山岛南端", "image": "", "rank": 17, "time": 1.0, "location": {"lat": 39.30527968713216, "lng": 122.51649862692622}, "feature": {"sight_features": "", "sight_content": ""}}, {"title": "海参博物馆", "address": "大连市长海县大长山岛镇长海西路89号", "image": "", "rank": 18, "time": 1.0, "location": {"lat": 39.30527968713216, "lng": 122.51649862692622}, "feature": {"sight_features": "", "sight_content": ""}}, {"title": "财神岛", "address": "大连市长海县广鹿岛", "image": "", "rank": 19, "time": 2, "location": {"lat": 39.16534055457743, "lng": 122.35329704024753}, "feature": {"sight_features": "", "sight_content": ""}}, {"title": "月亮湾浴场", "address": "大连市普兰店区同仁街附近", "image": "", "rank": 20, "time": 2, "location": {"lat": 39.4092358418251, "lng": 121.97171798505958}, "feature": {"sight_features": "", "sight_content": ""}}, {"title": "金沙广场", "address": "大连市长海县獐子镇沙包子村北海", "image": "", "rank": 21, "time": 2, "location": {"lat": 39.036760145807754, "lng": 122.74471008390418}, "feature": {"sight_features": "", "sight_content": ""}}, {"title": "长海县广鹿岛渔人部落", "address": "沙尖村彩虹滩", "image": "", "rank": 22, "time": 2, "location": {"lat": 32.13400817220208, "lng": 121.17664991512076}, "feature": {"sight_features": "", "sight_content": ""}}, {"title": "山山岛旅游度假山庄", "address": "大连长海县大长山岛镇小泡子村南海77号", "image": "", "rank": 23, "time": 2, "location": {"lat": 39.28007528768594, "lng": 122.61854606279189}, "feature": {"sight_features": "", "sight_content": ""}}, {"title": "鹰嘴石", "address": "大连市长海县獐子岛东南部", "image": "", "rank": 24, "time": 0.5, "location": {"lat": 39.0322239280051, "lng": 122.73640936190705}, "feature": {"sight_features": "", "sight_content": ""}}, {"title": "明珠公园", "address": "大连市长海县獐子镇金海路", "image": "", "rank": 25, "time": 0.75, "location": {"lat": 39.0383797786856, "lng": 122.74093323743836}, "feature": {"sight_features": "", "sight_content": ""}}, {"title": "西大山碑遗址公园", "address": "大连市长海县大长山岛镇南海坨", "image": "", "rank": 26, "time": 0.75, "location": {"lat": 39.23675337710916, "lng": 122.5262717686712}, "feature": {"sight_features": "", "sight_content": ""}}, {"title": "守岛建岛纪念公园", "address": "大连市长海县大长山岛镇小盐场村长海西路", "image": "", "rank": 27, "time": 0.75, "location": {"lat": 39.289259576393555, "lng": 122.56571706878415}, "feature": {"sight_features": "", "sight_content": ""}}, {"title": "大连市长海县瓜皮岛全喜度假村", "address": "大连长海县瓜皮岛三队", "image": "", "rank": 28, "time": 1.5, "location": {"lat": 39.23451012885321, "lng": 122.44160023742062}, "feature": {"sight_features": "", "sight_content": ""}}, {"title": "长海哈仙岛哈仙五虎石度假村", "address": "长海哈仙岛五虎石景区", "image": "", "rank": 29, "time": 2.0, "location": {"lat": 39.23957308894403, "lng": 122.5291289955322}, "feature": {"sight_features": "", "sight_content": ""}}, {"title": "哈仙岛颐仙度假村", "address": "辽宁省长海县大长山岛镇哈仙村沙尖屯", "image": "", "rank": 30, "time": 2, "location": {"lat": 39.236961313251946, "lng": 122.52900442121901}, "feature": {"sight_features": "", "sight_content": ""}}, {"title": "大连金蟾岛休闲度假村", "address": "长海大连长海县大长山岛镇三官庙村小银窝2号", "image": "", "rank": 31, "time": 2, "location": {"lat": 39.273937122007155, "lng": 122.63387599935373}, "feature": {"sight_features": "", "sight_content": ""}}, {"title": "大连虹泰水上俱乐部(一部)", "address": "大长山岛饮牛湾景区（杨家村）黄金海岸沙滩", "image": "", "rank": 32, "time": 1.5, "location": {"lat": 39.27192107455625, "lng": 122.67625700948349}, "feature": {"sight_features": "", "sight_content": ""}}, {"title": "长海县鹿岛澜湾渔家", "address": "沙尖村彩虹滩浴场", "image": "", "rank": 33, "time": 2, "location": {"lat": 32.13400817220208, "lng": 121.17664991512076}, "feature": {"sight_features": "", "sight_content": ""}}, {"title": "星成渔家", "address": "哈仙村谷家屯69号", "image": "", "rank": 34, "time": 2, "location": {"lat": 46.04376282148955, "lng": 121.79913683946869}, "feature": {"sight_features": "", "sight_content": ""}}, {"title": "哈仙岛国财渔家", "address": "大长山岛镇哈仙村谷家屯68号", "image": "", "rank": 35, "time": 2, "location": {"lat": 39.236961313251946, "lng": 122.52900442121901}, "feature": {"sight_features": "", "sight_content": ""}}, {"title": "长海富红渔家乐", "address": "辽宁省大连市长海县苇沟", "image": "", "rank": 36, "time": 2, "location": {"lat": 39.27827021716725, "lng": 122.59462651636738}, "feature": {"sight_features": "", "sight_content": ""}}, {"title": "福悦来渔家乐", "address": "广鹿岛", "image": "", "rank": 37, "time": 2, "location": {"lat": 38.94390786748665, "lng": 121.5799159733205}, "feature": {"sight_features": "", "sight_content": ""}}, {"title": "哈仙岛盛鑫旅店", "address": "(镇政府（兴旺渔家西南侧)）", "image": "", "rank": 38, "time": 2, "location": {"lat": 38.93566910944656, "lng": 116.9295478872232}, "feature": {"sight_features": "", "sight_content": ""}}, {"title": "长海县大长山岛镇兴海渔家旅店", "address": "长海县大长山岛镇哈仙村洼子屯15号", "image": "", "rank": 39, "time": 1.0, "location": {"lat": 39.236961313251946, "lng": 122.52900442121901}, "feature": {"sight_features": "", "sight_content": ""}}, {"title": "獐子岛镇图书馆", "address": "文化街", "image": "", "rank": 40, "time": 2, "location": {"lat": 24.173503201107945, "lng": 110.81563259681678}, "feature": {"sight_features": "", "sight_content": ""}}, {"title": "长海图书馆", "address": "塔山D园3号", "image": "", "rank": 41, "time": 1.5, "location": {"lat": 39.27818496688129, "lng": 122.59389808042934}, "feature": {"sight_features": "", "sight_content": ""}}, {"title": "唯美长山鸿福渔家度假村", "address": "大长山岛镇杨家村饮牛湾50号", "image": "", "rank": 42, "time": 2, "location": {"lat": 39.269198539449974, "lng": 122.66566191101045}, "feature": {"sight_features": "", "sight_content": ""}}, {"title": "大连獐子岛渔业集团海珍品育苗厂", "address": "东大线附近", "image": "", "rank": 43, "time": 1.5, "location": {"lat": 39.38033340863105, "lng": 121.4287116394057}, "feature": {"sight_features": "", "sight_content": ""}}, {"title": "广鹿岛馨悦渔家旅店", "address": "广鹿岛邹南屯", "image": "", "rank": 44, "time": 2, "location": {"lat": 39.16534055457743, "lng": 122.35329704024753}, "feature": {"sight_features": "", "sight_content": ""}}, {"title": "观景台", "address": "獐子岛", "image": "", "rank": 45, "time": 0.5, "location": {"lat": 39.9690151563768, "lng": 116.39198545801072}, "feature": {"sight_features": "", "sight_content": ""}}, {"title": "普兰店市长海县大连格仙岛斗斗渔...", "address": "大连市普兰店市长海县格仙岛格仙村", "image": "", "rank": 46, "time": 2.0, "location": {"lat": 39.27018707436442, "lng": 122.44453595282725}, "feature": {"sight_features": "", "sight_content": ""}}, {"title": "民生广场", "address": "利地街4号附近", "image": "", "rank": 47, "time": 2, "location": {"lat": 39.274454055970374, "lng": 122.64668115934754}, "feature": {"sight_features": "", "sight_content": ""}}, {"title": "长海县广鹿岛龙海度假村", "address": "大连辽宁大连长海县广鹿乡彩红海滩", "image": "", "rank": 48, "time": 2, "location": {"lat": 39.18304713297437, "lng": 122.38370951644055}, "feature": {"sight_features": "", "sight_content": ""}}, {"title": "长海县广鹿龙海渡假村", "address": "沙尖村西北海彩虹滩浴场", "image": "", "rank": 49, "time": 2, "location": {"lat": 32.13400817220208, "lng": 121.17664991512076}, "feature": {"sight_features": "", "sight_content": ""}}, {"title": "广鹿岛盛岛怡景度假村", "address": "广鹿岛88号", "image": "", "rank": 50, "time": 2, "location": {"lat": 38.94390786748665, "lng": 121.5799159733205}, "feature": {"sight_features": "", "sight_content": ""}}, {"title": "国华度假村", "address": "大连近郊长海县广鹿乡沙尖村", "image": "", "rank": 51, "time": 2, "location": {"lat": 39.1830191581332, "lng": 122.33949208328893}, "feature": {"sight_features": "", "sight_content": ""}}, {"title": "广鹿岛银渔湾度假村", "address": "大连长海县广鹿乡盐场附近", "image": "", "rank": 52, "time": 2, "location": {"lat": 39.19999399811808, "lng": 122.35501335173795}, "feature": {"sight_features": "", "sight_content": ""}}, {"title": "大连长海宝岛旅游度假村", "address": "辽宁省大连市长海县多塘线", "image": "", "rank": 53, "time": 2, "location": {"lat": 39.211103185434666, "lng": 122.39209548673225}, "feature": {"sight_features": "", "sight_content": ""}}, {"title": "天丰度假", "address": "大连市长海县大长山岛镇哈仙村楼上屯50号", "image": "", "rank": 54, "time": 2, "location": {"lat": 39.236961313251946, "lng": 122.52900442121901}, "feature": {"sight_features": "", "sight_content": ""}}, {"title": "哈仙岛金海湾度假村", "address": "大长山岛镇哈仙岛洼子屯", "image": "", "rank": 55, "time": 2, "location": {"lat": 39.23794207465379, "lng": 122.52349796744292}, "feature": {"sight_features": "", "sight_content": ""}}, {"title": "长海哈仙岛瑜华度假村", "address": "大连长海县哈仙岛143号(近海滨浴场)", "image": "", "rank": 56, "time": null, "location": {"lat": 39.24032511567966, "lng": 122.52406201347262}, "feature": {"sight_features": "", "sight_content": ""}}, {"title": "福岸度假村", "address": "长海县大长山岛镇哈仙村王家屯22号", "image": "", "rank": 57, "time": 2, "location": {"lat": 39.236961313251946, "lng": 122.52900442121901}, "feature": {"sight_features": "", "sight_content": ""}}, {"title": "福缘度假村", "address": "大连市长海县大长山岛镇哈仙村王家屯23号", "image": "", "rank": 58, "time": 2, "location": {"lat": 39.236961313251946, "lng": 122.52900442121901}, "feature": {"sight_features": "", "sight_content": ""}}, {"title": "大连意鑫度假村", "address": "大连近郊哈仙岛谷家屯47号", "image": "", "rank": 59, "time": 2, "location": {"lat": 39.262120267720974, "lng": 122.09126621695538}, "feature": {"sight_features": "", "sight_content": ""}}, {"title": "大连市长海县塞里岛阳光海岸度假...", "address": "塞里岛塞利村", "image": "", "rank": 60, "time": 1.5, "location": {"lat": 39.22052763748787, "lng": 122.60638120328764}, "feature": {"sight_features": "", "sight_content": ""}}]}