{"cityName": "昌江", "days": "", "cityImage": "", "spots": [{"title": "棋子湾", "address": "昌江黎族自治县北斗东路", "image": "", "rank": 1, "time": 3.0, "location": {"lat": 19.37429337619072, "lng": 108.73770322766732}, "feature": {"sight_features": "", "sight_content": ""}}, {"title": "坝王岭", "address": "昌江黎族自治县东南白沙、乐东两县交界处", "image": "", "rank": 2, "time": 4.0, "location": {"lat": 19.303997876684264, "lng": 109.06246408734343}, "feature": {"sight_features": "", "sight_content": ""}}, {"title": "昌化镇", "address": "昌江黎族自治县", "image": "", "rank": 3, "time": 2.5, "location": {"lat": 19.303997876684264, "lng": 109.06246408734343}, "feature": {"sight_features": "", "sight_content": ""}}, {"title": "古昌化城", "address": "昌江县西部滨海", "image": "", "rank": 4, "time": 3.0, "location": {"lat": 19.303997876684264, "lng": 109.06246408734343}, "feature": {"sight_features": "", "sight_content": ""}}, {"title": "七星燕窝岭", "address": "昌江黎族自治县七星燕窝岭", "image": "", "rank": 5, "time": 2.0, "location": {"lat": 19.12314325570497, "lng": 109.03294424117594}, "feature": {"sight_features": "", "sight_content": ""}}, {"title": "皇帝洞", "address": "昌江黎族自治县王下乡牙迫村东面", "image": "", "rank": 6, "time": 2.0, "location": {"lat": 18.968754174590686, "lng": 109.13817463303899}, "feature": {"sight_features": "", "sight_content": ""}}, {"title": "霸王岭", "address": "昌江黎族自治县东南部", "image": "", "rank": 7, "time": 2, "location": {"lat": 19.303997876684264, "lng": 109.06246408734343}, "feature": {"sight_features": "", "sight_content": "霸王岭国家森林公园于2006年12月经批准成立，位于海南岛西南部昌江县境内，公园总面积12.7万亩，森林覆盖率97.3%，2007年5月1日正式对外营业。霸王岭国家森林公园交通便利，距昌江县城26公里，距 海口市214公里、三亚市238公里。2018霸王岭雨林氧吧小镇被评为国家森林小镇建设试点单位。\n霸王岭国家森林公园是海南热带雨林五大集中分布区之一，区内山峦叠嶂，植被茂密，雨林景观别具特色，负氧离子每立方厘米达0.6-10万个，是城市的200—300倍，同时霸王岭热带雨林也是目前国内保存完好的热带雨林，区内植物达2213种，其中尤为珍贵的植物有沉香、海南黄花梨等就分布在区内，动物达365种，其中一级保护动物有海南长臂猿、云豹、孔雀雉、巨蜥、海南山鹧鸪、蟒蛇、穿山甲等，是海南乃至整个亚洲不可多得的物种基因库，如曾经面临灭绝的热带珍惜物种—海南长臂猿就唯一分布在霸王岭境内。\n目前，霸王岭国家森林公园已开发雅加和白石潭两个景区，铺设完成“情道”、“霸道”、“天道”、“钱道”4条旅游栈道和“王道”科考栈道，总长度6.8公里。真诚欢迎海内外朋友来霸王岭国家森林公园观光、休闲、度假、健身、实习、考察！"}}, {"title": "斧头山", "address": "海南省昌江黎族自治县石碌镇", "image": "", "rank": 8, "time": 2, "location": {"lat": 19.2869350749404, "lng": 109.06598136304113}, "feature": {"sight_features": "", "sight_content": ""}}, {"title": "琵琶园农家乐", "address": "石碌镇环城西2路琵琶园", "image": "", "rank": 9, "time": 2, "location": {"lat": 19.293691102181693, "lng": 109.05732787647311}, "feature": {"sight_features": "", "sight_content": ""}}, {"title": "韵墨轩书画艺术文化中心", "address": "昌江大道", "image": "", "rank": 10, "time": 2, "location": {"lat": 29.314263846940833, "lng": 117.21102459076126}, "feature": {"sight_features": "", "sight_content": ""}}, {"title": "山竹沟村农场", "address": "G98海南环线高速附近", "image": "", "rank": 11, "time": 2, "location": {"lat": 18.33020149570256, "lng": 109.51108441650845}, "feature": {"sight_features": "", "sight_content": ""}}, {"title": "铁矿半岛知青农场", "address": "环城西二路附近", "image": "", "rank": 12, "time": 2, "location": {"lat": 24.696582613279634, "lng": 118.14176220097062}, "feature": {"sight_features": "", "sight_content": ""}}, {"title": "南罗农场(二分场)", "address": "063乡道东100米", "image": "", "rank": 13, "time": 2, "location": {"lat": 35.37720857982394, "lng": 113.08436330673442}, "feature": {"sight_features": "", "sight_content": ""}}, {"title": "红田山水缘农家乐", "address": "红田农场中心幼儿园附近", "image": "", "rank": 14, "time": 2, "location": {"lat": 19.314201525617616, "lng": 109.00604644638437}, "feature": {"sight_features": "", "sight_content": ""}}, {"title": "海尾湿地公园", "address": "昌江海尾镇石港塘湿地内", "image": "", "rank": 15, "time": 2.0, "location": {"lat": 19.44558902835346, "lng": 108.85390027512484}, "feature": {"sight_features": "", "sight_content": ""}}, {"title": "海南棋子湾滨海度假区", "address": "昌江黎族自治县北斗东路", "image": "", "rank": 16, "time": 2, "location": {"lat": 19.37429337619072, "lng": 108.73770322766732}, "feature": {"sight_features": "", "sight_content": ""}}, {"title": "昌化岭", "address": "海南省昌江黎族自治县石碌镇", "image": "", "rank": 17, "time": 2, "location": {"lat": 19.2869350749404, "lng": 109.06598136304113}, "feature": {"sight_features": "", "sight_content": ""}}, {"title": "坝王岭森林自然保护区", "address": "海南省昌江黎族自治县境内", "image": "", "rank": 18, "time": 2, "location": {"lat": 19.303997876684264, "lng": 109.06246408734343}, "feature": {"sight_features": "", "sight_content": ""}}, {"title": "红田农场拾伍队", "address": "南华花园附近", "image": "", "rank": 19, "time": 2, "location": {"lat": 25.98320242127604, "lng": 119.63147412188597}, "feature": {"sight_features": "", "sight_content": ""}}, {"title": "坝王岭长臂猿保护", "address": "海南省昌江黎族自治县东南部", "image": "", "rank": 20, "time": 2, "location": {"lat": 19.303997876684264, "lng": 109.06246408734343}, "feature": {"sight_features": "", "sight_content": ""}}, {"title": "石碌铁矿", "address": "海南省昌江黎族自治县石碌镇南", "image": "", "rank": 21, "time": 2, "location": {"lat": 19.2869350749404, "lng": 109.06598136304113}, "feature": {"sight_features": "", "sight_content": ""}}]}