{"cityName": "昌乐", "days": 2, "cityImage": "", "spots": [{"title": "东莫汤泉(昌乐店)", "address": "潍坊市昌乐县新城街美家家居西侧", "image": "", "rank": 1, "time": 2, "location": {"lat": 36.72586158893551, "lng": 118.84848444638962}, "feature": {"sight_features": "", "sight_content": ""}}, {"title": "桂河湿地公园", "address": "故城街与利民街交叉口", "image": "", "rank": 2, "time": 2, "location": {"lat": 36.7129631373372, "lng": 118.83750064124104}, "feature": {"sight_features": "", "sight_content": ""}}, {"title": "乔官古火山口", "address": "山东省昌乐县乔官镇 262408", "image": "", "rank": 3, "time": 2, "location": {"lat": 36.56059359962361, "lng": 118.87403233055106}, "feature": {"sight_features": "", "sight_content": ""}}, {"title": "昌乐县益丰瓜菜专业合作社", "address": "红河镇水泊村", "image": "", "rank": 4, "time": 2, "location": {"lat": 36.39055913878839, "lng": 118.91812922817103}, "feature": {"sight_features": "", "sight_content": ""}}, {"title": "将军生态园", "address": "朱刘街道", "image": "", "rank": 5, "time": 2, "location": {"lat": 36.71471106078249, "lng": 118.93490268778906}, "feature": {"sight_features": "", "sight_content": ""}}, {"title": "农家乐种业", "address": "城南街道南郝社区", "image": "", "rank": 6, "time": 2, "location": {"lat": 29.583273602529893, "lng": 105.07517447547959}, "feature": {"sight_features": "", "sight_content": ""}}, {"title": "昌乐庵上胡村草莓基地", "address": "庵上胡村", "image": "", "rank": 7, "time": 2, "location": {"lat": 36.60648633357553, "lng": 118.93288662791947}, "feature": {"sight_features": "", "sight_content": ""}}, {"title": "鲜杏采摘", "address": "朱刘镇山坡村", "image": "", "rank": 8, "time": 2, "location": {"lat": 36.71574262330989, "lng": 118.90448509664449}, "feature": {"sight_features": "", "sight_content": ""}}, {"title": "昌乐农业观光园", "address": "山东省昌乐县尧沟镇 262403", "image": "", "rank": 9, "time": 2, "location": {"lat": 36.721018142342984, "lng": 118.76242960639946}, "feature": {"sight_features": "", "sight_content": ""}}, {"title": "火郎鼓儿童欢乐世界", "address": "山东省潍坊市昌乐县新昌路177号", "image": "", "rank": 10, "time": 2, "location": {"lat": 36.70845381253873, "lng": 118.84225144221875}, "feature": {"sight_features": "", "sight_content": ""}}, {"title": "蓝雪赛车场", "address": "城关街道田禾汽车城", "image": "", "rank": 11, "time": 2, "location": {"lat": 36.69625005450564, "lng": 118.81556329216161}, "feature": {"sight_features": "", "sight_content": ""}}, {"title": "科迪食文化广场", "address": "山东省潍坊市昌乐县站前街100号", "image": "", "rank": 12, "time": 2, "location": {"lat": 36.71481396703472, "lng": 118.84619264535559}, "feature": {"sight_features": "", "sight_content": ""}}, {"title": "昌乐南山农场", "address": "山东省潍坊市昌乐县唐吾镇仙月湖风景区南450米", "image": "", "rank": 13, "time": 2, "location": {"lat": 36.3427826872069, "lng": 118.79104730681068}, "feature": {"sight_features": "", "sight_content": ""}}, {"title": "江南水乡生态园", "address": "昌大路新昌酒店附近", "image": "", "rank": 14, "time": 2, "location": {"lat": 36.73320400553034, "lng": 118.8568589695742}, "feature": {"sight_features": "", "sight_content": ""}}, {"title": "善缘香纸", "address": "山东省潍坊市昌乐县文化路", "image": "", "rank": 15, "time": 2, "location": {"lat": 36.70438634577247, "lng": 118.8491803142614}, "feature": {"sight_features": "", "sight_content": ""}}, {"title": "开心游乐园", "address": "其他濠景海岸路口向西150米路北(昌盛街旧货市场北邻)", "image": "", "rank": 16, "time": 2, "location": {"lat": 25.818690217462144, "lng": 114.51441354132281}, "feature": {"sight_features": "", "sight_content": ""}}, {"title": "鑫源儿童乐园", "address": "山东省潍坊市昌乐县西环路", "image": "", "rank": 17, "time": 2, "location": {"lat": 36.710401634038455, "lng": 118.82585827035699}, "feature": {"sight_features": "", "sight_content": ""}}, {"title": "火郎鼓游乐场", "address": "山东省潍坊市昌乐县新昌路194附近", "image": "", "rank": 18, "time": 2, "location": {"lat": 36.70765496293601, "lng": 118.84265672945806}, "feature": {"sight_features": "", "sight_content": ""}}, {"title": "快乐童年主题乐园", "address": "潍坊市昌乐县方山路5777全福元F3", "image": "", "rank": 19, "time": 2, "location": {"lat": 36.702797599141874, "lng": 118.85200081929145}, "feature": {"sight_features": "", "sight_content": ""}}, {"title": "火狼鼓游乐场", "address": "新昌路194号附近", "image": "", "rank": 20, "time": 2, "location": {"lat": 31.816748449558286, "lng": 119.91978051203601}, "feature": {"sight_features": "", "sight_content": ""}}, {"title": "摇摇车", "address": "潍坊市昌乐县文化路与利民街交叉路口西200米路北中百大厦F4", "image": "", "rank": 21, "time": 2, "location": {"lat": 36.71230420036995, "lng": 118.84810758477053}, "feature": {"sight_features": "", "sight_content": ""}}, {"title": "昌乐县青山公墓", "address": "山东省潍坊市昌乐县S224", "image": "", "rank": 22, "time": 2, "location": {"lat": 36.71299619084501, "lng": 118.83648798143965}, "feature": {"sight_features": "", "sight_content": ""}}, {"title": "真耶稣教会", "address": "山东省潍坊市昌乐县利民街中央帝景", "image": "", "rank": 23, "time": 2, "location": {"lat": 36.708711858882374, "lng": 118.84364903581255}, "feature": {"sight_features": "", "sight_content": ""}}, {"title": "幸福广场", "address": "兴隆街与023县道交叉口北200米", "image": "", "rank": 24, "time": 2, "location": {"lat": 24.930998326596296, "lng": 103.14268674297747}, "feature": {"sight_features": "", "sight_content": ""}}, {"title": "西湖公园", "address": "城宝昌路222号", "image": "", "rank": 25, "time": 1.5, "location": {"lat": 31.262265961480054, "lng": 121.48313540416834}, "feature": {"sight_features": "", "sight_content": ""}}, {"title": "红色赣菜休闲山庄", "address": "北海路附近", "image": "", "rank": 26, "time": 2, "location": {"lat": 38.29397118587157, "lng": 116.94038691067612}, "feature": {"sight_features": "", "sight_content": ""}}, {"title": "昌乐基督教会城东教堂", "address": "山东省潍坊市昌乐县孤山街163", "image": "", "rank": 27, "time": 2, "location": {"lat": 36.70625932320657, "lng": 118.85431191682613}, "feature": {"sight_features": "", "sight_content": ""}}, {"title": "白浪河湿地公园", "address": "昌盛路", "image": "", "rank": 28, "time": 2, "location": {"lat": 39.67712121245497, "lng": 116.01999767093928}, "feature": {"sight_features": "", "sight_content": ""}}, {"title": "白浪河湿地公园-凉亭", "address": "昌盛路白浪河湿地公园内", "image": "", "rank": 29, "time": 2, "location": {"lat": 36.54100575882455, "lng": 118.9961544457839}, "feature": {"sight_features": "", "sight_content": ""}}, {"title": "昌乐县法治文化广场", "address": "潍坊市昌乐县", "image": "", "rank": 30, "time": 2, "location": {"lat": 36.71299619084501, "lng": 118.83648798143965}, "feature": {"sight_features": "", "sight_content": ""}}, {"title": "台湾红珊瑚展馆", "address": "新城街", "image": "", "rank": 31, "time": 2, "location": {"lat": 39.62511090545333, "lng": 118.21230965037822}, "feature": {"sight_features": "", "sight_content": ""}}, {"title": "昌乐图书馆", "address": "新昌路97号", "image": "", "rank": 32, "time": 1.5, "location": {"lat": 31.23874983209858, "lng": 121.47575753387927}, "feature": {"sight_features": "", "sight_content": ""}}, {"title": "老牛钓鱼村", "address": "325省道", "image": "", "rank": 33, "time": 2, "location": {"lat": 40.38011571404755, "lng": 115.90477371737859}, "feature": {"sight_features": "", "sight_content": ""}}, {"title": "昌乐县画院", "address": "利民街1号", "image": "", "rank": 34, "time": 2, "location": {"lat": 38.12723365328042, "lng": 114.47112341961082}, "feature": {"sight_features": "", "sight_content": ""}}, {"title": "中华宝玉石博物馆", "address": "昌大路", "image": "", "rank": 35, "time": 2, "location": {"lat": 36.75198232202751, "lng": 118.86522863741753}, "feature": {"sight_features": "", "sight_content": ""}}, {"title": "生态园", "address": "世界民族文化村内", "image": "", "rank": 36, "time": 2, "location": {"lat": 31.078825426882467, "lng": 120.91791143452271}, "feature": {"sight_features": "", "sight_content": ""}}, {"title": "泰阳山生态园", "address": "寿阳山路", "image": "", "rank": 37, "time": 2, "location": {"lat": 36.716323437962345, "lng": 118.87174718326592}, "feature": {"sight_features": "", "sight_content": ""}}, {"title": "龙井生态园", "address": "万福路", "image": "", "rank": 38, "time": 2, "location": {"lat": 39.362180317389985, "lng": 114.69879195690802}, "feature": {"sight_features": "", "sight_content": ""}}, {"title": "三乐斋书画苑", "address": "新昌路404附近", "image": "", "rank": 39, "time": 2, "location": {"lat": 36.700615091540094, "lng": 118.84206301679905}, "feature": {"sight_features": "", "sight_content": ""}}, {"title": "书画展览厅(相军美术馆)", "address": "故城街与利民街交叉口西100米", "image": "", "rank": 40, "time": 2, "location": {"lat": 36.7129631373372, "lng": 118.83750064124104}, "feature": {"sight_features": "", "sight_content": ""}}, {"title": "中国一汽森雅城市展厅", "address": "新城街北汽幻速旁", "image": "", "rank": 41, "time": 2, "location": {"lat": 31.423320423840632, "lng": 121.38217398103711}, "feature": {"sight_features": "", "sight_content": ""}}, {"title": "乔官镇宝石山书画社", "address": "223省道", "image": "", "rank": 42, "time": 2, "location": {"lat": 37.1020176799816, "lng": 112.02619253560626}, "feature": {"sight_features": "", "sight_content": ""}}, {"title": "宝都书画院", "address": "方山路103号", "image": "", "rank": 43, "time": 2, "location": {"lat": 28.64396685046118, "lng": 121.28049212428958}, "feature": {"sight_features": "", "sight_content": ""}}, {"title": "昌乐县润源瓜菜合作社刘仁增", "address": "韩信村", "image": "", "rank": 44, "time": 2, "location": {"lat": 36.631231991648704, "lng": 118.80644855176222}, "feature": {"sight_features": "", "sight_content": ""}}, {"title": "慧凯画廊", "address": "新昌路蓝宝石广场1层", "image": "", "rank": 45, "time": 2, "location": {"lat": 36.70580754897989, "lng": 118.840919624351}, "feature": {"sight_features": "", "sight_content": ""}}, {"title": "潍坊润泽草莓葡萄采摘基地", "address": "乔官镇小善地村润泽庄园家庭农场(S325省道与朱红路交叉路口南行1000米路西)", "image": "", "rank": 46, "time": 3.5, "location": {"lat": 36.5465766642208, "lng": 118.9309132043243}, "feature": {"sight_features": "", "sight_content": ""}}, {"title": "水印江南·美食街", "address": "山东省昌乐县湖滨路", "image": "", "rank": 47, "time": 2, "location": {"lat": 36.70564729530887, "lng": 118.83413080891705}, "feature": {"sight_features": "", "sight_content": ""}}, {"title": "昌乐马宋商场", "address": "山东省昌乐县325省道", "image": "", "rank": 48, "time": 2, "location": {"lat": 36.50058552057035, "lng": 119.0650534642123}, "feature": {"sight_features": "", "sight_content": ""}}, {"title": "昌乐商业步行街", "address": "山东省昌乐县站前路", "image": "", "rank": 49, "time": 2, "location": {"lat": 36.71299619084501, "lng": 118.83648798143965}, "feature": {"sight_features": "", "sight_content": ""}}, {"title": "世代古典汽车博物馆", "address": "潍坊市昌乐县朱刘镇东圈社区（潍昌路南）", "image": "", "rank": 50, "time": null, "location": {"lat": 36.71299525334069, "lng": 119.00819466360204}, "feature": {"sight_features": "", "sight_content": "潍坊世代古典汽车博物馆是国内最大，收藏车辆最多的专业汽车博物馆，现收藏的老爷车几乎涵盖了上世纪各个年代的经典车型，摆在一起，就是一部汽车文化发展史。博物馆位于山东半岛中部，有”齐国古都“、中国“蓝宝石之乡”的潍坊市昌乐县朱刘镇东圈社区（潍昌路南）。博物馆景区附有高档餐厅、火车酒吧、峨山风景区、桂林苑景区、峨山公园、民俗博物馆、百姓大舞台、全国性越野摩托车赛场等众多便民利民的旅游设施。"}}]}