{"cityName": "长葛", "days": 2, "cityImage": "", "spots": [{"title": "海洋湾欢乐水世界", "address": "长葛市魏武大道与三号路交叉口（佛耳岗村）", "image": "", "rank": 1, "time": 2, "location": {"lat": 34.27805972657445, "lng": 113.82097684232457}, "feature": {"sight_features": "特色1 华北地区规模最大的水上游乐目的地之一。 特色2 初步建成大型水上主题游乐区，包括激情大海啸、六并道竞技滑道、尖峰疾驰、儿童水屋等等，可同时容纳游客上万人次。 特色3 依托游乐项目功能分区，以古都许昌深厚的文化底蕴为剧情设计源头，海洋湾以激情大海啸为主线，将海洋湾冲浪。", "sight_content": "河南.长葛市海洋湾欢乐水世界还将依托游乐项目功能分区，以古都许昌深厚的文化底蕴为剧情设计源头，海洋湾以激情大海啸为主线，将海洋湾冲浪；滑道竞技等游乐设施作为主题场景，让游客进入一片精彩绝伦、留恋忘返的欢乐水世界中。\n河南.长葛市海洋湾欢乐水世界计划总投资约1.2亿元，初步建成大型水上主题游乐区，包括激情大海啸、六并道竞技滑道、尖峰疾驰、儿童水屋等等，可同时容纳游客上万人次。"}}, {"title": "豫星农业观光园", "address": "许昌市长葛市古桥乡师庄村北豫星农业科技园", "image": "", "rank": 2, "time": 2, "location": {"lat": 34.244810136640716, "lng": 114.05895157765298}, "feature": {"sight_features": "", "sight_content": ""}}, {"title": "鑫亮源水上生态欢乐园", "address": "许昌市长葛市官亭乡鑫亮源", "image": "", "rank": 3, "time": 2, "location": {"lat": 34.29852260734886, "lng": 113.77608106364845}, "feature": {"sight_features": "", "sight_content": ""}}, {"title": "葛天源旅游风景区", "address": "长葛市魏武路北段西侧", "image": "", "rank": 4, "time": 2, "location": {"lat": 34.22301626628444, "lng": 113.7744209106253}, "feature": {"sight_features": "", "sight_content": ""}}, {"title": "阳光玫瑰葡萄园", "address": "坡胡镇坡李村南500米", "image": "", "rank": 5, "time": 2, "location": {"lat": 43.097392324253015, "lng": 129.77811759918296}, "feature": {"sight_features": "", "sight_content": ""}}, {"title": "菲乐艺术中心", "address": "颍川大道与铁东路交叉口东200米路南世纪新城15号楼1楼东户", "image": "", "rank": 6, "time": 2, "location": {"lat": 34.2339268363753, "lng": 113.78777790508371}, "feature": {"sight_features": "", "sight_content": ""}}, {"title": "长葛市绿美鲜蔬菜种植专业合作社", "address": "325省道附近", "image": "", "rank": 7, "time": 2, "location": {"lat": 40.38011571404755, "lng": 115.90477371737859}, "feature": {"sight_features": "", "sight_content": ""}}, {"title": "生态桃园", "address": "石固镇大马村", "image": "", "rank": 8, "time": 2, "location": {"lat": 34.18414540079664, "lng": 113.72848452316845}, "feature": {"sight_features": "", "sight_content": ""}}, {"title": "石固遗址", "address": "河南长葛市老石固村 461000", "image": "", "rank": 9, "time": 2, "location": {"lat": 34.16843323752799, "lng": 113.68531779125998}, "feature": {"sight_features": "", "sight_content": ""}}, {"title": "长葛民俗馆", "address": "金桥路南50米", "image": "", "rank": 10, "time": 0.5, "location": {"lat": 31.380000256899017, "lng": 120.53163162295701}, "feature": {"sight_features": "", "sight_content": ""}}, {"title": "幸福亲子游乐园", "address": "八七路与建设路交叉口向西50米路北（幸福万家超市三楼）", "image": "", "rank": 11, "time": 2, "location": {"lat": 34.22317461589251, "lng": 113.77710316104753}, "feature": {"sight_features": "", "sight_content": ""}}, {"title": "奥乐奥微乐谷儿童主题乐园", "address": "河南省许昌市长葛市新华路468", "image": "", "rank": 12, "time": 2, "location": {"lat": 34.22036523864375, "lng": 113.778881287635}, "feature": {"sight_features": "", "sight_content": ""}}, {"title": "宏基·葛天生态园", "address": "葛天大道", "image": "", "rank": 13, "time": 2, "location": {"lat": 34.20016541577141, "lng": 113.8223346014588}, "feature": {"sight_features": "", "sight_content": ""}}, {"title": "长葛市专利技术展示交易中心", "address": "河南长葛市文化路", "image": "", "rank": 14, "time": 2, "location": {"lat": 34.22278146997709, "lng": 113.77356899720507}, "feature": {"sight_features": "", "sight_content": ""}}, {"title": "青岛世纪华联啤酒广场", "address": "葛天大道与香格里拉大街交叉口南200米路西（世纪华联北临）", "image": "", "rank": 15, "time": 0.75, "location": {"lat": 32.30476922572387, "lng": 121.18430737311847}, "feature": {"sight_features": "", "sight_content": ""}}, {"title": "白寨清真北寺", "address": "河南省许昌市长葛市", "image": "", "rank": 16, "time": 2, "location": {"lat": 34.22301626628444, "lng": 113.7744209106253}, "feature": {"sight_features": "", "sight_content": ""}}, {"title": "乐可多儿童游乐园（保盛店）", "address": "秦公路保盛生活广场三楼", "image": "", "rank": 17, "time": 2, "location": {"lat": 34.2232902524815, "lng": 113.79446768952165}, "feature": {"sight_features": "", "sight_content": ""}}, {"title": "清钦纪念馆", "address": "河南省许昌市长葛市后河镇陉山大道西段清敛纪念馆", "image": "", "rank": 18, "time": 2, "location": {"lat": 34.249529649851155, "lng": 113.6784749930547}, "feature": {"sight_features": "", "sight_content": ""}}, {"title": "福仔儿童乐园", "address": "建设路与新华路交叉口东南50米", "image": "", "rank": 19, "time": 2, "location": {"lat": 29.481541975714304, "lng": 121.88228641437547}, "feature": {"sight_features": "", "sight_content": ""}}, {"title": "壁榄泉湖休闲广场", "address": "许昌市长葛市", "image": "", "rank": 20, "time": 2, "location": {"lat": 34.22301626628444, "lng": 113.7744209106253}, "feature": {"sight_features": "", "sight_content": ""}}, {"title": "擎榄泉湖休闲广场", "address": "河南省许昌市长葛市长社东路北(河南省长葛市交警大队车管所西)", "image": "", "rank": 21, "time": 2, "location": {"lat": 34.232114938988026, "lng": 113.82785128873127}, "feature": {"sight_features": "", "sight_content": ""}}, {"title": "擘榄泉湖休闲广场", "address": "长社东路3198号", "image": "", "rank": 22, "time": 2, "location": {"lat": 34.23276607188756, "lng": 113.83157820378361}, "feature": {"sight_features": "", "sight_content": ""}}, {"title": "文化怡园", "address": "新华路", "image": "", "rank": 23, "time": 2, "location": {"lat": 39.14651100379498, "lng": 117.01963610637686}, "feature": {"sight_features": "", "sight_content": ""}}, {"title": "双洎河畔美食休闲广场", "address": "河南省许昌市长葛市大周镇双洎河桥小博士幼儿园北400米", "image": "", "rank": 24, "time": 2, "location": {"lat": 34.250736409729, "lng": 113.85982133055988}, "feature": {"sight_features": "", "sight_content": ""}}, {"title": "T台冲浪", "address": "益民街566", "image": "", "rank": 25, "time": 2, "location": {"lat": 34.22689113975707, "lng": 113.77637783234825}, "feature": {"sight_features": "", "sight_content": ""}}, {"title": "淘乐园大型儿童城堡", "address": "其他新华路与文化路交叉口向西150米(家美生活广场3楼)", "image": "", "rank": 26, "time": 2, "location": {"lat": 34.21993047832191, "lng": 113.7720242701518}, "feature": {"sight_features": "", "sight_content": ""}}, {"title": "图书馆", "address": "颍川大道与铁东路交叉口", "image": "", "rank": 27, "time": 1.0, "location": {"lat": 34.23712491752643, "lng": 113.78766453892834}, "feature": {"sight_features": "", "sight_content": ""}}, {"title": "毛主席纪念馆", "address": "视察路红色经典主题餐厅旁", "image": "", "rank": 28, "time": 2.5, "location": {"lat": 34.23154937280741, "lng": 113.77257115674968}, "feature": {"sight_features": "", "sight_content": ""}}, {"title": "河南省科学院长葛科技馆", "address": "富康路2号", "image": "", "rank": 29, "time": 2, "location": {"lat": 39.79518522274665, "lng": 116.28507245994355}, "feature": {"sight_features": "", "sight_content": ""}}, {"title": "金逸齐画廊", "address": "八七路文化局旁", "image": "", "rank": 30, "time": 2, "location": {"lat": 23.735609076565165, "lng": 109.2367514358902}, "feature": {"sight_features": "", "sight_content": ""}}, {"title": "长葛市旅游接待文艺演出中心", "address": "八七路", "image": "", "rank": 31, "time": 2, "location": {"lat": 34.22263210679729, "lng": 113.7760368724072}, "feature": {"sight_features": "", "sight_content": ""}}, {"title": "许昌鑫亮源水上生态欢乐公园", "address": "官亭乡佛耳岗水库北岸鑫亮源游乐度假村内(鑫亮生态园内)", "image": "", "rank": 32, "time": 2, "location": {"lat": 34.27761130030725, "lng": 113.81987867282167}, "feature": {"sight_features": "", "sight_content": ""}}, {"title": "中万农业", "address": "文化路与人民路交叉口北50米", "image": "", "rank": 33, "time": 2, "location": {"lat": 34.095577394285506, "lng": 117.48478668627774}, "feature": {"sight_features": "", "sight_content": ""}}, {"title": "快乐农家家庭农场", "address": "石象镇325省道苗庄村段", "image": "", "rank": 34, "time": 2, "location": {"lat": 34.19754000768275, "lng": 113.86326772725911}, "feature": {"sight_features": "", "sight_content": ""}}, {"title": "爱家生活店", "address": "金桥路街道天下城轩辕村银行隔壁", "image": "", "rank": 35, "time": 2, "location": {"lat": 34.219753985357315, "lng": 113.78448227638806}, "feature": {"sight_features": "", "sight_content": ""}}, {"title": "艺品画廊", "address": "铭心路419号(好时运东临)", "image": "", "rank": 36, "time": 2, "location": {"lat": 34.21259388547269, "lng": 113.77881445101016}, "feature": {"sight_features": "", "sight_content": ""}}, {"title": "古国画廊", "address": "金英路附近", "image": "", "rank": 37, "time": 2, "location": {"lat": 40.73164647391515, "lng": 118.77822195560393}, "feature": {"sight_features": "", "sight_content": ""}}, {"title": "聚贤阁画廊", "address": "富康路561-1号附近", "image": "", "rank": 38, "time": 2, "location": {"lat": 31.73205986230171, "lng": 118.36093204405385}, "feature": {"sight_features": "", "sight_content": ""}}, {"title": "薰衣草", "address": "文化路561号附近", "image": "", "rank": 39, "time": 2, "location": {"lat": 36.38960517254553, "lng": 120.44270072582576}, "feature": {"sight_features": "", "sight_content": ""}}, {"title": "光辉画廊", "address": "铁东北路198号", "image": "", "rank": 40, "time": 2, "location": {"lat": 39.259591901990014, "lng": 117.15334291858512}, "feature": {"sight_features": "", "sight_content": ""}}, {"title": "长葛市瑞丰源家庭农场", "address": "S325蓝翔金属制品公司东北侧", "image": "", "rank": 41, "time": 2, "location": {"lat": 23.660772180420384, "lng": 113.05974403415345}, "feature": {"sight_features": "", "sight_content": ""}}, {"title": "长葛市豫剧团", "address": "八七路", "image": "", "rank": 42, "time": 2, "location": {"lat": 34.22269881135369, "lng": 113.7765559528563}, "feature": {"sight_features": "", "sight_content": ""}}, {"title": "长社商业步行街", "address": "河南省长葛市长社路", "image": "", "rank": 43, "time": 2, "location": {"lat": 34.2291668426497, "lng": 113.78702927433949}, "feature": {"sight_features": "", "sight_content": ""}}, {"title": "香港商业街", "address": "河南省长葛市长社路", "image": "", "rank": 44, "time": 1.5, "location": {"lat": 34.2291668426497, "lng": 113.78702927433949}, "feature": {"sight_features": "", "sight_content": ""}}, {"title": "益民步行街", "address": "河南省长葛市益民步行街", "image": "", "rank": 45, "time": 2, "location": {"lat": 34.22671713828451, "lng": 113.7756759341516}, "feature": {"sight_features": "", "sight_content": ""}}, {"title": "圪垯庙", "address": "许昌市-长葛市", "image": "", "rank": 46, "time": 2, "location": {"lat": 34.22301626628444, "lng": 113.7744209106253}, "feature": {"sight_features": "", "sight_content": ""}}, {"title": "殿后刘村", "address": "许昌市-长葛市-董张路", "image": "", "rank": 47, "time": 2, "location": {"lat": 34.260339654811915, "lng": 113.94225932397352}, "feature": {"sight_features": "", "sight_content": ""}}, {"title": "明基电竞馆(新贵店)", "address": "许昌市-长葛市-张辽路", "image": "", "rank": 48, "time": 2, "location": {"lat": 34.20119532420585, "lng": 113.82243572011684}, "feature": {"sight_features": "", "sight_content": ""}}]}