{"cityName": "长白", "days": 2, "cityImage": "", "spots": [{"title": "灵光塔", "address": "白山市长白朝鲜族自治县长白镇西北郊塔山两南端平坦的台地上（塔山公园内）", "image": "", "rank": 1, "time": 0.25, "location": {"lat": 41.42941909543527, "lng": 128.19434387067307}, "feature": {"sight_features": "", "sight_content": ""}}, {"title": "门坎哨险滩", "address": "303省道", "image": "", "rank": 2, "time": 2, "location": {"lat": 38.25466494631471, "lng": 114.66726867564682}, "feature": {"sight_features": "", "sight_content": ""}}, {"title": "影剧院", "address": "吉林省白山市长白朝鲜族自治县", "image": "", "rank": 3, "time": 2, "location": {"lat": 41.425895812593765, "lng": 128.20758420219488}, "feature": {"sight_features": "", "sight_content": ""}}, {"title": "碧海蓝天度假村", "address": "长白朝鲜族自治县X098大梨树村东北侧", "image": "", "rank": 4, "time": 2, "location": {"lat": 41.47438782902157, "lng": 128.24310232800818}, "feature": {"sight_features": "", "sight_content": ""}}, {"title": "万古崖", "address": "望天鹅风景区内", "image": "", "rank": 5, "time": 2, "location": {"lat": 41.560298751787926, "lng": 127.95335815361426}, "feature": {"sight_features": "", "sight_content": ""}}, {"title": "中朝界河鸭绿江激情漂流", "address": "吉林省白山市长白朝鲜族自治县s303", "image": "", "rank": 6, "time": 2, "location": {"lat": 41.425895812593765, "lng": 128.20758420219488}, "feature": {"sight_features": "", "sight_content": ""}}, {"title": "葫芦套遗址", "address": "鸭绿江大街南150米", "image": "", "rank": 7, "time": 2, "location": {"lat": 41.416276508717374, "lng": 128.21173911760238}, "feature": {"sight_features": "", "sight_content": ""}}, {"title": "民族文化广场", "address": "长白大街54-5号", "image": "", "rank": 8, "time": 0.4, "location": {"lat": 41.74606053792998, "lng": 123.41581887628284}, "feature": {"sight_features": "", "sight_content": ""}}, {"title": "朝鲜族文化广场", "address": "通江北路与303省道交叉口西南150米", "image": "", "rank": 9, "time": 2, "location": {"lat": 31.909199228140412, "lng": 121.30903625505988}, "feature": {"sight_features": "", "sight_content": ""}}, {"title": "漂流线", "address": "302省道", "image": "", "rank": 10, "time": 2, "location": {"lat": 40.09862711264105, "lng": 117.61062300284506}, "feature": {"sight_features": "", "sight_content": ""}}, {"title": "长白县十六道沟村薰衣草庄园", "address": "白山市-长白朝鲜族自治县-金华乡十六道沟薰衣草庄园", "image": "", "rank": 11, "time": 2, "location": {"lat": 41.45047338800311, "lng": 128.07816930596746}, "feature": {"sight_features": "", "sight_content": ""}}]}