{"cityName": "昌都", "days": "2", "cityImage": "", "spots": [{"title": "然乌湖", "address": "昌都地区八宿县然乌镇", "image": "", "rank": 1, "time": 2, "location": {"lat": 30.162297747494996, "lng": 96.88564146324985}, "feature": {"sight_features": "", "sight_content": ""}}, {"title": "邦达草原", "address": "西藏自治区八宿县境内", "image": "", "rank": 2, "time": 1.0, "location": {"lat": 30.05902899139862, "lng": 96.92436044615198}, "feature": {"sight_features": "", "sight_content": ""}}, {"title": "东达山", "address": "西藏自治区昌都地区左贡县以北", "image": "", "rank": 3, "time": 2, "location": {"lat": 29.56256091374007, "lng": 97.80828842556404}, "feature": {"sight_features": "", "sight_content": ""}}, {"title": "强巴林寺", "address": "昌都地区昌都县昌都镇", "image": "", "rank": 4, "time": 2.0, "location": {"lat": 31.448479903273466, "lng": 97.24405212797693}, "feature": {"sight_features": "", "sight_content": ""}}, {"title": "西藏盐井千年古盐田", "address": "昌都地区芒康县盐井镇纳西民族乡", "image": "", "rank": 5, "time": 2, "location": {"lat": 29.620318554387282, "lng": 98.62076028532407}, "feature": {"sight_features": "", "sight_content": ""}}, {"title": "觉巴山", "address": "昌都地区芒康县境内", "image": "", "rank": 6, "time": 1.0, "location": {"lat": 29.620318554387282, "lng": 98.62076028532407}, "feature": {"sight_features": "", "sight_content": ""}}, {"title": "怒江七十二道拐", "address": "西藏自治区昌都市八宿县G318(沪聂线)", "image": "", "rank": 7, "time": 1.0, "location": {"lat": 30.05902899139862, "lng": 96.92436044615198}, "feature": {"sight_features": "", "sight_content": ""}}, {"title": "业拉山九十九道拐", "address": "川藏路北线邦达镇北侧", "image": "", "rank": 8, "time": 2, "location": {"lat": 30.21355564186517, "lng": 97.29918819734745}, "feature": {"sight_features": "", "sight_content": ""}}, {"title": "来古冰川", "address": "昌都地区八宿县来古村", "image": "", "rank": 9, "time": 1.0, "location": {"lat": 30.162297747494996, "lng": 96.88564146324985}, "feature": {"sight_features": "", "sight_content": ""}}, {"title": "安久拉山", "address": "昌都八宿县然乌镇", "image": "", "rank": 10, "time": 2, "location": {"lat": 29.508937856193977, "lng": 96.75765048052492}, "feature": {"sight_features": "", "sight_content": ""}}, {"title": "孜珠寺", "address": "西藏自治区丁青县觉恩乡", "image": "", "rank": 11, "time": 1.0, "location": {"lat": 31.244313405374125, "lng": 95.92419369568464}, "feature": {"sight_features": "", "sight_content": ""}}, {"title": "多拉神山", "address": "西藏自治区八宿县白马镇以东", "image": "", "rank": 12, "time": 1.0, "location": {"lat": 30.06113020824185, "lng": 96.92972619474281}, "feature": {"sight_features": "", "sight_content": ""}}, {"title": "噶玛寺", "address": "昌都地区昌都县扎曲河上游约120公里的白西山麓", "image": "", "rank": 13, "time": 1.0, "location": {"lat": 31.96128653491228, "lng": 96.9674226161974}, "feature": {"sight_features": "", "sight_content": ""}}, {"title": "卡若文化遗址", "address": "西藏自治区昌都县卡若镇", "image": "", "rank": 14, "time": 1.0, "location": {"lat": 31.448479903273466, "lng": 97.24405212797693}, "feature": {"sight_features": "", "sight_content": ""}}, {"title": "格林丹东温泉", "address": "昌都地区芒康县曲孜卡乡温泉度假区", "image": "", "rank": 15, "time": 2, "location": {"lat": 29.620318554387282, "lng": 98.62076028532407}, "feature": {"sight_features": "", "sight_content": ""}}, {"title": "“大脚印”奇观", "address": "西藏自治区昌都县昌都镇", "image": "", "rank": 16, "time": 2.0, "location": {"lat": 31.448479903273466, "lng": 97.24405212797693}, "feature": {"sight_features": "", "sight_content": ""}}, {"title": "芒康县", "address": "西藏自治区昌都地区芒康县", "image": "", "rank": 17, "time": 2, "location": {"lat": 29.620318554387282, "lng": 98.62076028532407}, "feature": {"sight_features": "", "sight_content": ""}}, {"title": "谷布神山", "address": "西藏自治区昌都县日通乡", "image": "", "rank": 18, "time": 1.0, "location": {"lat": 31.448479903273466, "lng": 97.24405212797693}, "feature": {"sight_features": "", "sight_content": ""}}, {"title": "红拉山滇金丝猴自然保护区", "address": "昌都地区芒康县", "image": "", "rank": 19, "time": 1.0, "location": {"lat": 29.620318554387282, "lng": 98.62076028532407}, "feature": {"sight_features": "", "sight_content": ""}}, {"title": "朱角山", "address": "昌都地区昌都县俄洛镇", "image": "", "rank": 20, "time": 1.0, "location": {"lat": 31.448479903273466, "lng": 97.24405212797693}, "feature": {"sight_features": "", "sight_content": ""}}, {"title": "小恩达遗址", "address": "昌都地区昌都镇小恩达村", "image": "", "rank": 21, "time": 1.0, "location": {"lat": 31.140575631882083, "lng": 97.1855815799761}, "feature": {"sight_features": "", "sight_content": ""}}, {"title": "盐井天主教堂", "address": "昌都地区芒康县纳西乡上盐井村", "image": "", "rank": 22, "time": 1.0, "location": {"lat": 29.02932787575109, "lng": 98.616280686547}, "feature": {"sight_features": "", "sight_content": ""}}, {"title": "查杰玛大殿", "address": "西藏自治区昌都地区类乌齐县查杰玛大殿", "image": "", "rank": 23, "time": 1.0, "location": {"lat": 31.440570366463334, "lng": 96.40508751540689}, "feature": {"sight_features": "", "sight_content": ""}}, {"title": "伊日温泉", "address": "西藏自治区类乌齐县伊日乡", "image": "", "rank": 24, "time": 2, "location": {"lat": 31.585524242949628, "lng": 96.57908343835176}, "feature": {"sight_features": "", "sight_content": ""}}, {"title": "来古村", "address": "昌都地区八宿县然乌镇", "image": "", "rank": 25, "time": 7.5, "location": {"lat": 30.162297747494996, "lng": 96.88564146324985}, "feature": {"sight_features": "", "sight_content": ""}}, {"title": "八宿嘎学岩画", "address": "西藏自治区八宿县县城以西", "image": "", "rank": 26, "time": 1.0, "location": {"lat": 30.05902899139862, "lng": 96.92436044615198}, "feature": {"sight_features": "", "sight_content": ""}}, {"title": "莽错", "address": "昌都地区芒康县中部莽岭乡", "image": "", "rank": 27, "time": 1.0, "location": {"lat": 29.620318554387282, "lng": 98.62076028532407}, "feature": {"sight_features": "", "sight_content": ""}}, {"title": "生钦朗扎山", "address": "西藏自治区江达县岗托乡境内", "image": "", "rank": 28, "time": 1.0, "location": {"lat": 31.568020188935787, "lng": 98.56178783917862}, "feature": {"sight_features": "", "sight_content": ""}}, {"title": "波罗古泽", "address": "昌都地区江达县波罗乡境内", "image": "", "rank": 29, "time": 1.0, "location": {"lat": 31.813700173194704, "lng": 98.03637532100646}, "feature": {"sight_features": "", "sight_content": ""}}, {"title": "仁措湖", "address": "昌都地区八宿县郭关乡", "image": "", "rank": 30, "time": 1.0, "location": {"lat": 30.162297747494996, "lng": 96.88564146324985}, "feature": {"sight_features": "", "sight_content": ""}}, {"title": "长毛岭养鹿场", "address": "昌都地区类乌齐县长毛岭乡那登通", "image": "", "rank": 31, "time": 1.0, "location": {"lat": 31.440570366463334, "lng": 96.40508751540689}, "feature": {"sight_features": "", "sight_content": ""}}, {"title": "三色湖", "address": "西藏昌都边坝县", "image": "", "rank": 32, "time": 2, "location": {"lat": 30.939624927346678, "lng": 94.71437114915865}, "feature": {"sight_features": "", "sight_content": ""}}, {"title": "卡玛多塔林", "address": "西藏自治区类乌齐县国道317线右侧", "image": "", "rank": 33, "time": 1.0, "location": {"lat": 31.217793112280912, "lng": 96.6067171923989}, "feature": {"sight_features": "", "sight_content": ""}}, {"title": "波罗吉荣大峡谷", "address": "昌都地区江达县同普乡与波罗乡交界处", "image": "", "rank": 34, "time": 2.0, "location": {"lat": 31.813700173194704, "lng": 98.03637532100646}, "feature": {"sight_features": "", "sight_content": ""}}, {"title": "仁达摩崖造像", "address": "昌都地区察雅县旺布乡", "image": "", "rank": 35, "time": 1.0, "location": {"lat": 30.58905331061463, "lng": 97.84388561484764}, "feature": {"sight_features": "", "sight_content": ""}}, {"title": "乃旦寺", "address": "昌都地区类乌齐县加桑区雨扎乡乌入村东南约二百米高的山上", "image": "", "rank": 36, "time": 1.0, "location": {"lat": 31.440570366463334, "lng": 96.40508751540689}, "feature": {"sight_features": "", "sight_content": ""}}, {"title": "同卡寺", "address": "昌都地区八宿县同卡乡", "image": "", "rank": 37, "time": 1.0, "location": {"lat": 30.162297747494996, "lng": 96.88564146324985}, "feature": {"sight_features": "", "sight_content": ""}}, {"title": "曲孜卡温泉", "address": "昌都地区芒康县滇藏公路旁的曲孜卡乡", "image": "", "rank": 38, "time": 2, "location": {"lat": 29.620318554387282, "lng": 98.62076028532407}, "feature": {"sight_features": "", "sight_content": ""}}, {"title": "布托湖", "address": "西藏自治区丁青县县城北", "image": "", "rank": 39, "time": 1.0, "location": {"lat": 31.41840296461374, "lng": 95.60264384421787}, "feature": {"sight_features": "", "sight_content": ""}}, {"title": "然乌镇", "address": "西藏自治区昌都地区八宿县", "image": "", "rank": 40, "time": 2, "location": {"lat": 30.162297747494996, "lng": 96.88564146324985}, "feature": {"sight_features": "", "sight_content": ""}}, {"title": "德庆颇章神山", "address": "昌都类乌齐县类乌齐镇旁", "image": "", "rank": 41, "time": 2.0, "location": {"lat": 31.374625082785077, "lng": 96.5117074241528}, "feature": {"sight_features": "", "sight_content": ""}}, {"title": "通麦", "address": "西藏自治区林芝地区波密县", "image": "", "rank": 42, "time": 2.5, "location": {"lat": 30.124827761779184, "lng": 95.55658526718665}, "feature": {"sight_features": "", "sight_content": ""}}, {"title": "八宿县", "address": "西藏自治区昌都八宿县", "image": "", "rank": 43, "time": 2, "location": {"lat": 30.05902899139862, "lng": 96.92436044615198}, "feature": {"sight_features": "", "sight_content": ""}}, {"title": "维色寺", "address": "西藏自治区昌都地区芒康县", "image": "", "rank": 44, "time": 2, "location": {"lat": 29.620318554387282, "lng": 98.62076028532407}, "feature": {"sight_features": "", "sight_content": ""}}, {"title": "类乌齐县", "address": "西藏自治区昌都地区类乌齐县", "image": "", "rank": 45, "time": 2, "location": {"lat": 31.440570366463334, "lng": 96.40508751540689}, "feature": {"sight_features": "", "sight_content": ""}}, {"title": "昌都盐井盐田", "address": "西藏自治区芒康县纳西乡", "image": "", "rank": 46, "time": 1.5, "location": {"lat": 29.02932787575109, "lng": 98.616280686547}, "feature": {"sight_features": "", "sight_content": ""}}, {"title": "瓦村", "address": "西藏自治区昌都八宿县瓦村", "image": "", "rank": 47, "time": 3.0, "location": {"lat": 29.958132404232437, "lng": 97.34325160048748}, "feature": {"sight_features": "", "sight_content": ""}}, {"title": "达玛山", "address": "昌都地区芒康县 ‎", "image": "", "rank": 48, "time": 1.0, "location": {"lat": 29.620318554387282, "lng": 98.62076028532407}, "feature": {"sight_features": "", "sight_content": ""}}, {"title": "果布白宗山", "address": "昌都地区江达县", "image": "", "rank": 49, "time": 2, "location": {"lat": 31.813700173194704, "lng": 98.03637532100646}, "feature": {"sight_features": "", "sight_content": ""}}, {"title": "拉根乡生态园", "address": "拉根乡政府大院", "image": "", "rank": 50, "time": 2, "location": {"lat": 40.824008164293836, "lng": 111.67441293316858}, "feature": {"sight_features": "", "sight_content": ""}}, {"title": "扎西达谭林卡", "address": "莫洛镇林通村", "image": "", "rank": 51, "time": 2, "location": {"lat": 30.85114383644614, "lng": 98.2737818832516}, "feature": {"sight_features": "", "sight_content": ""}}, {"title": "昌都市果扎种畜场", "address": "303省道西50米", "image": "", "rank": 52, "time": 3.5, "location": {"lat": 38.25466494631471, "lng": 114.66681952289183}, "feature": {"sight_features": "", "sight_content": ""}}, {"title": "边坝小城", "address": "西藏自治区边坝县边坝镇 855500", "image": "", "rank": 53, "time": 1.0, "location": {"lat": 30.83232661573275, "lng": 94.85445219533344}, "feature": {"sight_features": "", "sight_content": ""}}, {"title": "向康大殿", "address": "西藏自治区昌都市察雅县", "image": "", "rank": 54, "time": 2, "location": {"lat": 30.659864699370576, "lng": 97.57512367962845}, "feature": {"sight_features": "", "sight_content": ""}}, {"title": "搬根寺", "address": "西藏自治区昌都市江达县", "image": "", "rank": 55, "time": 2, "location": {"lat": 31.50520701797964, "lng": 98.22459452096771}, "feature": {"sight_features": "", "sight_content": ""}}, {"title": "芒框腊卡", "address": "西藏自治区昌都市左贡县", "image": "", "rank": 56, "time": 2, "location": {"lat": 29.676848537197444, "lng": 97.84736683298861}, "feature": {"sight_features": "", "sight_content": ""}}, {"title": "恩达温泉瀑布", "address": "X502", "image": "", "rank": 57, "time": 2, "location": {"lat": 22.711924756531765, "lng": 113.16215868559979}, "feature": {"sight_features": "", "sight_content": ""}}, {"title": "类乌齐寺", "address": "西藏自治区类乌齐县类乌齐镇", "image": "", "rank": 58, "time": 2, "location": {"lat": 31.374625082785077, "lng": 96.5117074241528}, "feature": {"sight_features": "", "sight_content": ""}}, {"title": "荣许", "address": "西藏自治区昌都芒康县荣许", "image": "", "rank": 59, "time": 2, "location": {"lat": 29.61263820189159, "lng": 98.16516256501397}, "feature": {"sight_features": "", "sight_content": ""}}, {"title": "长毛岭马鹿自然保护区", "address": "西藏自治区类乌齐县县西部", "image": "", "rank": 60, "time": 2, "location": {"lat": 31.217793112280912, "lng": 96.6067171923989}, "feature": {"sight_features": "", "sight_content": ""}}]}