{"cityName": "昌邑", "days": 2, "cityImage": "", "spots": [{"title": "昌邑绿博园", "address": "潍坊市昌邑市围子街办宋庄社区", "image": "", "rank": 1, "time": 2.5, "location": {"lat": 36.78133630760928, "lng": 119.47883885420514}, "feature": {"sight_features": "", "sight_content": ""}}, {"title": "青山秀水旅游度假区", "address": "潍坊市昌邑市石埠镇永大路2号", "image": "", "rank": 2, "time": 2, "location": {"lat": 36.67625546607869, "lng": 119.43710372034721}, "feature": {"sight_features": "特色1 首例利用废弃矿坑资源开发建设的旅游景区", "sight_content": "青山秀水旅游度假区位于昌邑市石埠经济发展区北侧，是由山东金宝集团投资开发的潍坊市首先利用矿坑资源建设的旅游度假区，目前主要景点大部分是在矿坑内观赏，且可以与动物近距离接触。度假区内有动物园、天鹅湖、百鸟园、儿童乐园、太阳岛、秀水河、竹林、花海等20余处景点组成，总占地面积138万平方米。景区现主要建设有青山竹海、非洲动物园、青山天鹅湖、鸟语花香、青山大草原、青山秀水河、青山太阳岛、生态牧场等优美景点。\n青山秀水旅游景区的规划建设将会继续综合考虑旅游市场的各方面因素。全面提升旅游景区新形象，不断满足现代人对旅游市场多元化、时尚化的需求。\n青山，古称青石山，海拔68米，面积15平方公里，它灵秀壮丽文化灿烂，是昌邑市中部平原上的一座名山，因唐王李世民东征时曾在山上露营而闻名。“青城山外幽意浓，绿岛水中映叶蓉”。青山秀水旅游景区欢迎您的光临指导。"}}, {"title": "白塔村烈士祠", "address": "昌邑市龙池镇白塔村烈士祠", "image": "", "rank": 3, "time": 2, "location": {"lat": 37.012277353489274, "lng": 119.30253829156304}, "feature": {"sight_features": "", "sight_content": ""}}, {"title": "潍河国家水利风景区", "address": "交通街", "image": "", "rank": 4, "time": 2, "location": {"lat": 43.1867133921878, "lng": 124.36341970061274}, "feature": {"sight_features": "", "sight_content": ""}}, {"title": "青山采摘园", "address": "史家庄村南200米", "image": "", "rank": 5, "time": 2, "location": {"lat": 39.421227003013456, "lng": 117.5341771796917}, "feature": {"sight_features": "", "sight_content": ""}}, {"title": "围子农场", "address": "滨海路附近", "image": "", "rank": 6, "time": 2, "location": {"lat": 39.11012042376985, "lng": 117.36242054275989}, "feature": {"sight_features": "", "sight_content": ""}}, {"title": "利鑫瓜果", "address": "利民街684号", "image": "", "rank": 7, "time": 2, "location": {"lat": 36.860989204650586, "lng": 119.3949221726678}, "feature": {"sight_features": "", "sight_content": ""}}, {"title": "丹青水墨轩画廊", "address": "新昌路60号附近", "image": "", "rank": 8, "time": 2, "location": {"lat": 31.81494636216635, "lng": 119.92458484034415}, "feature": {"sight_features": "", "sight_content": ""}}, {"title": "油桃蟠桃采摘", "address": "院校中街7号", "image": "", "rank": 9, "time": 2, "location": {"lat": 36.874807088651345, "lng": 119.4269772327725}, "feature": {"sight_features": "", "sight_content": ""}}, {"title": "北孟影剧院", "address": "马家庙子村附近", "image": "", "rank": 10, "time": 2, "location": {"lat": 36.61019961821397, "lng": 119.51520244450336}, "feature": {"sight_features": "", "sight_content": ""}}, {"title": "北孟镇全民健身广场", "address": "龙辉大酒店附近", "image": "", "rank": 11, "time": 2, "location": {"lat": 36.37571301565107, "lng": 120.4299888584524}, "feature": {"sight_features": "", "sight_content": ""}}, {"title": "贝旺儿童乐园", "address": "盛和街018号", "image": "", "rank": 12, "time": 2, "location": {"lat": 34.785575511994566, "lng": 113.77983226933095}, "feature": {"sight_features": "", "sight_content": ""}}, {"title": "佛缘佛具香纸", "address": "山东省潍坊市昌邑市都昌路360", "image": "", "rank": 13, "time": 2, "location": {"lat": 36.85541683401361, "lng": 119.38917610577829}, "feature": {"sight_features": "", "sight_content": ""}}, {"title": "哈哈宝贝儿童主题乐园", "address": "潍坊市昌邑市交通街468号中百大厦F3", "image": "", "rank": 14, "time": 2, "location": {"lat": 36.851416154637846, "lng": 119.40114063686569}, "feature": {"sight_features": "", "sight_content": ""}}, {"title": "儿童乐园", "address": "潍坊市昌邑市", "image": "", "rank": 15, "time": 2, "location": {"lat": 36.8651610726221, "lng": 119.40440597739446}, "feature": {"sight_features": "", "sight_content": ""}}, {"title": "潍坊欢乐岛儿童乐园", "address": "山东省潍坊市昌邑市利民街393号", "image": "", "rank": 16, "time": 3.5, "location": {"lat": 36.86056963331205, "lng": 119.40415314571545}, "feature": {"sight_features": "", "sight_content": ""}}, {"title": "摇摇车", "address": "潍坊市昌邑市利民街389号全福元F1", "image": "", "rank": 17, "time": 2, "location": {"lat": 36.861064466910655, "lng": 119.40515597266473}, "feature": {"sight_features": "", "sight_content": ""}}, {"title": "水上乐园", "address": "城里东街新嘉时代广场三楼", "image": "", "rank": 18, "time": 2, "location": {"lat": 36.86314022389317, "lng": 119.40417489369185}, "feature": {"sight_features": "", "sight_content": ""}}, {"title": "宝贝熊儿童乐园", "address": "潍坊市昌邑市利民街616号维客利购物广场F2", "image": "", "rank": 19, "time": 2, "location": {"lat": 36.860114850280425, "lng": 119.40231759674487}, "feature": {"sight_features": "", "sight_content": ""}}, {"title": "乐贝儿主题乐园", "address": "爱客城3楼", "image": "", "rank": 20, "time": 2, "location": {"lat": 36.86056963331205, "lng": 119.40415314571545}, "feature": {"sight_features": "", "sight_content": ""}}, {"title": "山东昌邑天主教堂", "address": "山东省潍坊市昌邑市新村街", "image": "", "rank": 21, "time": 2, "location": {"lat": 36.85733027210426, "lng": 119.40158294093946}, "feature": {"sight_features": "", "sight_content": ""}}, {"title": "小苹果儿童主题亲子乐园", "address": "奎聚街道天水路新嘉城时代广场三楼", "image": "", "rank": 22, "time": 2, "location": {"lat": 36.86314022389317, "lng": 119.40417489369185}, "feature": {"sight_features": "", "sight_content": ""}}, {"title": "亲子乐园", "address": "潍坊市昌邑市交通街468号中百大厦F1", "image": "", "rank": 23, "time": 2, "location": {"lat": 36.851430232756044, "lng": 119.40095792152496}, "feature": {"sight_features": "", "sight_content": ""}}, {"title": "儿童主题乐园", "address": "潍坊市昌邑市利民街389号全福元B1", "image": "", "rank": 24, "time": 2, "location": {"lat": 36.861064466910655, "lng": 119.40515597266473}, "feature": {"sight_features": "", "sight_content": ""}}, {"title": "潍河", "address": "山东省潍坊市昌邑市", "image": "", "rank": 25, "time": 2, "location": {"lat": 36.8651610726221, "lng": 119.40440597739446}, "feature": {"sight_features": "", "sight_content": ""}}, {"title": "北海度假村", "address": "山东省潍坊市昌邑市下营镇海水养殖科技局南100米", "image": "", "rank": 26, "time": 2, "location": {"lat": 37.099278334237084, "lng": 119.50724309387122}, "feature": {"sight_features": "", "sight_content": ""}}, {"title": "昌邑民间收藏博物馆", "address": "潍坊市昌邑市围子街办宋庄社区(南环路与下小路交叉口南1.5公里路西)中国(昌邑)绿博园内", "image": "", "rank": 27, "time": 2, "location": {"lat": 36.81022782958848, "lng": 119.47330530214504}, "feature": {"sight_features": "", "sight_content": ""}}, {"title": "绿博园-游乐园", "address": "绿博园游乐园", "image": "", "rank": 28, "time": 2, "location": {"lat": 38.27753786928058, "lng": 116.84612406819036}, "feature": {"sight_features": "", "sight_content": ""}}, {"title": "中国·柳丝绸文化博物馆", "address": "统一路与锦华路交叉口东150米", "image": "", "rank": 29, "time": 2, "location": {"lat": 36.91783479114337, "lng": 119.40320899518377}, "feature": {"sight_features": "", "sight_content": ""}}, {"title": "北海公园", "address": "潍坊市昌邑市城里东街173号", "image": "", "rank": 30, "time": 2.5, "location": {"lat": 36.86504321399171, "lng": 119.41426450038324}, "feature": {"sight_features": "", "sight_content": ""}}, {"title": "德盛源休闲农庄", "address": "206国道", "image": "", "rank": 31, "time": 2, "location": {"lat": 24.027693425509675, "lng": 115.9917729736661}, "feature": {"sight_features": "", "sight_content": ""}}, {"title": "卜庄社区图书室", "address": "兴卜路", "image": "", "rank": 32, "time": 2, "location": {"lat": 36.92146461905164, "lng": 119.56311333442031}, "feature": {"sight_features": "", "sight_content": ""}}, {"title": "黄元御纪念馆", "address": "利民街155号", "image": "", "rank": 33, "time": 2, "location": {"lat": 38.87324771416255, "lng": 116.46183851731446}, "feature": {"sight_features": "", "sight_content": ""}}, {"title": "昌邑姜氏历史研究会", "address": "解放路105附近", "image": "", "rank": 34, "time": 2, "location": {"lat": 42.742359208954284, "lng": 124.73487922924768}, "feature": {"sight_features": "", "sight_content": ""}}, {"title": "胡乐松书画培训班", "address": "利民商贸城", "image": "", "rank": 35, "time": 2, "location": {"lat": 47.212987492483244, "lng": 123.64581831442621}, "feature": {"sight_features": "", "sight_content": ""}}, {"title": "瀚海画廊", "address": "富昌街6号宠物旁", "image": "", "rank": 36, "time": 2, "location": {"lat": 22.71127914708903, "lng": 114.13248412465448}, "feature": {"sight_features": "", "sight_content": ""}}, {"title": "青涛画廊", "address": "富昌街218号", "image": "", "rank": 37, "time": 2, "location": {"lat": 22.711584942521835, "lng": 114.13135306818724}, "feature": {"sight_features": "", "sight_content": ""}}, {"title": "红果果奶莓采摘园", "address": "戈井路", "image": "", "rank": 38, "time": 2, "location": {"lat": 36.550634048961264, "lng": 119.55942199046953}, "feature": {"sight_features": "", "sight_content": ""}}, {"title": "角兰钓鱼场", "address": "角兰村", "image": "", "rank": 39, "time": 2, "location": {"lat": 40.239468070286776, "lng": 117.81660804860674}, "feature": {"sight_features": "", "sight_content": ""}}, {"title": "潍坊电视台星光少儿艺术团", "address": "新昌路", "image": "", "rank": 40, "time": 3.5, "location": {"lat": 39.941876601815046, "lng": 119.61764438201341}, "feature": {"sight_features": "", "sight_content": ""}}, {"title": "潍水风情湿地公园", "address": "山东省潍坊市昌邑市烟汕路 ‎", "image": "", "rank": 41, "time": 2, "location": {"lat": 36.84973472126968, "lng": 119.45350949094374}, "feature": {"sight_features": "", "sight_content": ""}}]}