{"cityName": "长汀", "days": 2, "cityImage": "", "spots": [{"title": "长汀古城", "address": "龙岩市长汀县其他兆征路80号", "image": "", "rank": 1, "time": 3.0, "location": {"lat": 25.841037768698005, "lng": 116.35894864274955}, "feature": {"sight_features": "", "sight_content": ""}}, {"title": "汀江国家湿地公园", "address": "龙岩市长汀县三洲镇汀江国家湿地公园（X651县道旁）", "image": "", "rank": 2, "time": 2.5, "location": {"lat": 25.579031525831446, "lng": 116.38084492973009}, "feature": {"sight_features": "特色1 保护客家母亲河汀江", "sight_content": "长汀汀江国家湿地公园位于长汀县三洲镇，范围涉及河田、三洲、濯田3个乡镇12个行政村，总面积590公顷，其中涉及湿地公园面积466.81公顷，涵盖汀江及其支流河道28.5公里。\n湿地公园分成保育区、宣教展示区、恢复区、合理利用区、管理服务区等五个功能区，公园以客家母亲河——汀江的保护为主题，同时展示长汀水土流失治理成果，成为集河流湿地保护与恢复、生态文明教育、科研监测、休闲体验于一体的国家湿地公园。湿地公园生物多样性丰富，湿地类型多样，湿地特征典型，湿地景观和历史文化价值高。\n湿地公园现在形成小气候，为植物的生长营造了良好的条件。目前，已查明维管束植物有115科304属424种，其中湿地植物有145种。\n山清水秀的湿地公园，吸引着白鹭、鸳鸯等越来越多的候鸟在此停留。有野生脊椎动物180种，其中湿地动物有鱼类50种、两栖类7种、爬行类1种、鸟类11种，共69种。\n闲暇时光，携三五好友，带长辈子女，来湿地公园体验骑车露营，放松身心，亲近大自然，享受生态美景！"}}, {"title": "丁屋岭", "address": "龙岩市长汀县古城镇丁黄村", "image": "", "rank": 3, "time": 2, "location": {"lat": 25.74820720663679, "lng": 116.2686319794962}, "feature": {"sight_features": "", "sight_content": ""}}, {"title": "长汀县博物馆", "address": "兆征路41号", "image": "", "rank": 4, "time": 2.5, "location": {"lat": 25.83972458294731, "lng": 116.36158469097515}, "feature": {"sight_features": "", "sight_content": ""}}, {"title": "汀州文庙", "address": "福建省龙岩市长汀县兆征路 ‎ 东北 12619 公里", "image": "", "rank": 5, "time": 2, "location": {"lat": 25.8396446138658, "lng": 179.9980414421111}, "feature": {"sight_features": "", "sight_content": ""}}, {"title": "长汀红色旧址群", "address": "龙岩市长汀县", "image": "", "rank": 6, "time": 2, "location": {"lat": 25.83918461828047, "lng": 116.36356796987941}, "feature": {"sight_features": "", "sight_content": ""}}, {"title": "辛耕别墅", "address": "长汀县城关", "image": "", "rank": 7, "time": null, "location": {"lat": 25.83918461828047, "lng": 116.36356796987941}, "feature": {"sight_features": "", "sight_content": ""}}, {"title": "三元阁", "address": "南大街", "image": "", "rank": 8, "time": 2, "location": {"lat": 39.99223922822961, "lng": 116.48539491834674}, "feature": {"sight_features": "", "sight_content": ""}}, {"title": "汀州试院(汀州博物馆)", "address": "东大街与横岗岭交叉口", "image": "", "rank": 9, "time": 2, "location": {"lat": 22.617509352603705, "lng": 114.14733733676542}, "feature": {"sight_features": "", "sight_content": ""}}, {"title": "瞿秋白烈士纪念馆", "address": "城西罗汉岭下", "image": "", "rank": 10, "time": 2, "location": {"lat": 36.63449697952408, "lng": 101.77241422413312}, "feature": {"sight_features": "", "sight_content": ""}}, {"title": "竹林山庄", "address": "古城镇黄泥坪老口", "image": "", "rank": 11, "time": 2, "location": {"lat": 25.889701619044363, "lng": 116.19836914917427}, "feature": {"sight_features": "", "sight_content": ""}}, {"title": "文化馆业余美术学校(高中部店)", "address": "环东路(近高中部)", "image": "", "rank": 12, "time": 2, "location": {"lat": 37.57915708437257, "lng": 112.42064754085541}, "feature": {"sight_features": "", "sight_content": ""}}, {"title": "长汀县星梦园花卉专业合作社", "address": "319国道附近", "image": "", "rank": 13, "time": 2, "location": {"lat": 25.761668573925817, "lng": 116.38626783390552}, "feature": {"sight_features": "", "sight_content": ""}}, {"title": "金威啤酒广场", "address": "海天大酒店附近", "image": "", "rank": 14, "time": null, "location": {"lat": 47.182096247333526, "lng": 119.9460455774091}, "feature": {"sight_features": "", "sight_content": ""}}, {"title": "长汀新桥曲凹哩漂流", "address": "新桥镇叶屋村", "image": "", "rank": 15, "time": 2, "location": {"lat": 25.893836301829495, "lng": 116.46669822586766}, "feature": {"sight_features": "", "sight_content": ""}}, {"title": "福建云霄山", "address": "福建省云霄县西侧 363300", "image": "", "rank": 16, "time": 2, "location": {"lat": 23.964072828247573, "lng": 114.0829043978114}, "feature": {"sight_features": "", "sight_content": ""}}, {"title": "龙岩朝斗岩", "address": "福建省长汀县龙岩朝斗岩景区 366300", "image": "", "rank": 17, "time": 2, "location": {"lat": 25.83918461828047, "lng": 116.36356796987941}, "feature": {"sight_features": "", "sight_content": ""}}, {"title": "宗保公祠", "address": "福建省龙岩市长汀县X650", "image": "", "rank": 18, "time": 2, "location": {"lat": 25.83918461828047, "lng": 116.36356796987941}, "feature": {"sight_features": "", "sight_content": ""}}, {"title": "太福寺", "address": "福建省龙岩市长汀县", "image": "", "rank": 19, "time": 2, "location": {"lat": 25.83918461828047, "lng": 116.36356796987941}, "feature": {"sight_features": "", "sight_content": ""}}, {"title": "长汀县水土保持科教园", "address": "兆征路卧龙楼601", "image": "", "rank": 20, "time": 2, "location": {"lat": 26.461715297383176, "lng": 111.60529543378351}, "feature": {"sight_features": "", "sight_content": ""}}, {"title": "新丰寺", "address": "江滨路附近", "image": "", "rank": 21, "time": 2, "location": {"lat": 31.197468083274327, "lng": 121.47964700270349}, "feature": {"sight_features": "", "sight_content": ""}}, {"title": "策武公园", "address": "龙岩市长汀县", "image": "", "rank": 22, "time": 2, "location": {"lat": 25.83918461828047, "lng": 116.36356796987941}, "feature": {"sight_features": "", "sight_content": ""}}, {"title": "红江公园", "address": "福建省龙岩市长汀县S205", "image": "", "rank": 23, "time": 2, "location": {"lat": 25.83918461828047, "lng": 116.36356796987941}, "feature": {"sight_features": "", "sight_content": ""}}, {"title": "三洲中国历史文化名村", "address": "福建省龙岩市长汀县三洲镇X651(旧)", "image": "", "rank": 24, "time": 2, "location": {"lat": 25.59657107223884, "lng": 116.37781966314648}, "feature": {"sight_features": "", "sight_content": ""}}, {"title": "星期六儿童成长主题乐园", "address": "西外街腾龙时代广场捷龙超市2楼", "image": "", "rank": 25, "time": 2, "location": {"lat": 25.84471507918368, "lng": 116.35313039377252}, "feature": {"sight_features": "", "sight_content": ""}}, {"title": "西竺庵", "address": "西门街西竹巷", "image": "", "rank": 26, "time": 2, "location": {"lat": 39.00402465412309, "lng": 112.30816988869645}, "feature": {"sight_features": "", "sight_content": ""}}, {"title": "龙归寺", "address": "205省道附近", "image": "", "rank": 27, "time": 2, "location": {"lat": 40.38230240600069, "lng": 116.84666042934258}, "feature": {"sight_features": "", "sight_content": ""}}, {"title": "易氏宗祠", "address": "南山小学附近", "image": "", "rank": 28, "time": 1.0, "location": {"lat": 39.1002699740041, "lng": 121.71828241748025}, "feature": {"sight_features": "", "sight_content": ""}}, {"title": "洛幻王国儿童乐园", "address": "财富广场B区3层", "image": "", "rank": 29, "time": 2, "location": {"lat": 32.93739869031733, "lng": 117.37732776190127}, "feature": {"sight_features": "", "sight_content": ""}}, {"title": "太平廊桥", "address": "龙岩市长汀县太平桥", "image": "", "rank": 30, "time": 0.5, "location": {"lat": 25.84306493629987, "lng": 116.37047238734887}, "feature": {"sight_features": "", "sight_content": ""}}, {"title": "图书馆", "address": "水东街121号", "image": "", "rank": 31, "time": 1.0, "location": {"lat": 25.842265033678302, "lng": 116.37069261053779}, "feature": {"sight_features": "", "sight_content": ""}}, {"title": "宜家画廊", "address": "环北路", "image": "", "rank": 32, "time": 2, "location": {"lat": 38.94418634723466, "lng": 115.51733036661804}, "feature": {"sight_features": "", "sight_content": ""}}, {"title": "方方纪念馆", "address": "汀四路", "image": "", "rank": 33, "time": 2, "location": {"lat": 25.828721815939716, "lng": 116.36732418226642}, "feature": {"sight_features": "", "sight_content": ""}}, {"title": "卧龙山麓", "address": "黄高岭N号(近兆征路)", "image": "", "rank": 34, "time": 2, "location": {"lat": 30.05577241644165, "lng": 122.07012054811511}, "feature": {"sight_features": "", "sight_content": ""}}, {"title": "朱坊影剧院", "address": "朱坊村村委会附近", "image": "", "rank": 35, "time": 2, "location": {"lat": 31.15399104656258, "lng": 121.29261002375874}, "feature": {"sight_features": "", "sight_content": ""}}, {"title": "好食多农家乐", "address": "金碧路西50米", "image": "", "rank": 36, "time": 2, "location": {"lat": 32.10856259978445, "lng": 118.78564186299765}, "feature": {"sight_features": "", "sight_content": ""}}, {"title": "长汀县汀州客家剧院", "address": "梅林大道", "image": "", "rank": 37, "time": 2, "location": {"lat": 30.568342019181788, "lng": 119.09408457919209}, "feature": {"sight_features": "", "sight_content": ""}}, {"title": "濯田镇影剧院", "address": "街上村附近兴隆街", "image": "", "rank": 38, "time": 2, "location": {"lat": 25.56051241263965, "lng": 116.29363268330562}, "feature": {"sight_features": "", "sight_content": ""}}, {"title": "龙岩长汀古镇", "address": "福建省长汀县长汀镇", "image": "", "rank": 39, "time": 2, "location": {"lat": 25.83918461828047, "lng": 116.36356796987941}, "feature": {"sight_features": "", "sight_content": ""}}, {"title": "长汀革命旧址", "address": "福建省长汀县兆征路", "image": "", "rank": 40, "time": 2, "location": {"lat": 25.8396446138658, "lng": 116.3614345221414}, "feature": {"sight_features": "", "sight_content": ""}}, {"title": "竹子岺下", "address": "龙岩市-长汀县", "image": "", "rank": 41, "time": 2, "location": {"lat": 25.83918461828047, "lng": 116.36356796987941}, "feature": {"sight_features": "", "sight_content": ""}}, {"title": "大岺背", "address": "龙岩市-长汀县", "image": "", "rank": 42, "time": 2, "location": {"lat": 25.83918461828047, "lng": 116.36356796987941}, "feature": {"sight_features": "", "sight_content": ""}}, {"title": "长汀高福寺", "address": "龙岩市-长汀县", "image": "", "rank": 43, "time": 2, "location": {"lat": 25.83918461828047, "lng": 116.36356796987941}, "feature": {"sight_features": "", "sight_content": ""}}, {"title": "杨成武将军纪念碑", "address": "龙岩市长汀县", "image": "", "rank": 44, "time": 2, "location": {"lat": 25.83918461828047, "lng": 116.36356796987941}, "feature": {"sight_features": "", "sight_content": ""}}, {"title": "杨成武将军纪念馆", "address": "福建省龙岩市长汀县", "image": "", "rank": 45, "time": 2, "location": {"lat": 25.83918461828047, "lng": 116.36356796987941}, "feature": {"sight_features": "", "sight_content": ""}}]}