{"cityName": "长垣", "days": 2, "cityImage": "", "spots": [{"title": "长垣星期八小镇", "address": "新乡市长垣县蒲北淇河路路东", "image": "", "rank": 1, "time": 2, "location": {"lat": 35.224050727685295, "lng": 114.65945948486542}, "feature": {"sight_features": "特色1 给孩子创造一个体验梦想的世界！ 特色2 是全国规模最大的星期8少年儿童社会角色扮演主题乐园！", "sight_content": "2017年4月28日防腐蚀之都建设集团携手上海童梦投资公司联合打造的长垣星期8小镇，是专为3-15岁孩子创建的角色扮演主题乐园。坐落在蒲北防腐建材博览城东区，营业面积13000多平方米，总投资1.5亿元，是全国规模最大的星期8少年儿童社会角色扮演主题乐园。\n\n\n长垣星期8小镇有50多个体验馆,涵盖8大社会领域、70多种角色扮演，充满童趣、体验真实、孩子在这里可以尽情尝尝做大人的滋味。\n\n\n长垣星期8小镇始终以“创新社会化教育、关注下一代成长”为己任，致力于对社会教育模式进行全新的探索；给担负未来的孩子创造一个体验梦想的世界。"}}, {"title": "九一攀岩", "address": "宏力大道与华垣路及交叉口", "image": "", "rank": 2, "time": 2, "location": {"lat": 35.208253668384906, "lng": 114.68025508943829}, "feature": {"sight_features": "", "sight_content": ""}}, {"title": "三善园", "address": "宏力大道东50米", "image": "", "rank": 3, "time": 2, "location": {"lat": 35.32361131192799, "lng": 113.91044781330469}, "feature": {"sight_features": "", "sight_content": ""}}, {"title": "温泉城", "address": "长城大道82号", "image": "", "rank": 4, "time": 2, "location": {"lat": 30.7188791117434, "lng": 120.42410127990658}, "feature": {"sight_features": "", "sight_content": ""}}, {"title": "海浪屿儿童水上乐园", "address": "联华广场西北角(步行街北口隔壁)", "image": "", "rank": 5, "time": 2, "location": {"lat": 39.4455205118494, "lng": 106.88631429361934}, "feature": {"sight_features": "", "sight_content": ""}}, {"title": "靓俪温泉", "address": "宏力大道与卫华大道交汇处向北200米路西", "image": "", "rank": 6, "time": 2, "location": {"lat": 21.614610853148488, "lng": 110.28820210352386}, "feature": {"sight_features": "", "sight_content": ""}}, {"title": "雪冬温泉城", "address": "002乡道附近", "image": "", "rank": 7, "time": 2, "location": {"lat": 42.378424836827975, "lng": 117.60771626587587}, "feature": {"sight_features": "", "sight_content": ""}}, {"title": "蒲苑温泉城", "address": "宏力大道附近", "image": "", "rank": 8, "time": 2, "location": {"lat": 35.32533787197334, "lng": 113.86783650908286}, "feature": {"sight_features": "", "sight_content": ""}}, {"title": "长垣县图书馆", "address": "博爱路与山海大道东北角", "image": "", "rank": 9, "time": 2, "location": {"lat": 35.21647868782272, "lng": 114.66637446371506}, "feature": {"sight_features": "", "sight_content": ""}}, {"title": "鸿源休闲垂钓", "address": "308省道东50米", "image": "", "rank": 10, "time": 2, "location": {"lat": 40.337133976011295, "lng": 116.52659121172924}, "feature": {"sight_features": "", "sight_content": ""}}, {"title": "鹿港水上乐园", "address": "S308东线黄河浮桥向南300米路西(鹿港号对面)", "image": "", "rank": 11, "time": 2.5, "location": {"lat": 39.47944549915701, "lng": 106.76560061003624}, "feature": {"sight_features": "", "sight_content": ""}}, {"title": "如意园", "address": "河南省新乡市长垣县蒲西街道博爱路", "image": "", "rank": 12, "time": 2, "location": {"lat": 35.21647868782272, "lng": 114.66637446371506}, "feature": {"sight_features": "", "sight_content": ""}}, {"title": "高村祠堂", "address": "常村镇高村", "image": "", "rank": 13, "time": 2, "location": {"lat": 35.173904993586454, "lng": 114.58587758544064}, "feature": {"sight_features": "", "sight_content": ""}}, {"title": "芭贝乐儿童乐园", "address": "河南省新乡市长垣县金博大购物广场二楼", "image": "", "rank": 14, "time": 2, "location": {"lat": 35.18569029419883, "lng": 114.67331891596847}, "feature": {"sight_features": "", "sight_content": ""}}, {"title": "天宁寺", "address": "河南省新乡市长垣县满村乡陈墙村东头", "image": "", "rank": 15, "time": 1.5, "location": {"lat": 35.23688400334689, "lng": 114.75440827972673}, "feature": {"sight_features": "", "sight_content": ""}}, {"title": "程夫子祠", "address": "河南省长垣县张三寨镇官桥营村", "image": "", "rank": 16, "time": 2, "location": {"lat": 35.34426936769305, "lng": 114.74327454289701}, "feature": {"sight_features": "", "sight_content": ""}}, {"title": "河南省长垣县恼里镇雅琳宝宝儿童...", "address": "河南省新乡市长垣县矿山大道", "image": "", "rank": 17, "time": 2, "location": {"lat": 35.04556001118779, "lng": 114.75137183103513}, "feature": {"sight_features": "", "sight_content": ""}}, {"title": "电影院", "address": "电影院附近", "image": "", "rank": 18, "time": 2, "location": {"lat": 25.511686820030352, "lng": 119.79595810879536}, "feature": {"sight_features": "", "sight_content": ""}}, {"title": "长垣县方里水上乐园", "address": "河南省长垣县方里镇西头加油站南1500米路西", "image": "", "rank": 19, "time": 2, "location": {"lat": 35.27705870943274, "lng": 114.83609360541118}, "feature": {"sight_features": "", "sight_content": ""}}, {"title": "蒲北乐堡啤酒广场居然之家店", "address": "河南省新乡市长垣县淇河路", "image": "", "rank": 20, "time": 2, "location": {"lat": 35.224050727685295, "lng": 114.65945948486542}, "feature": {"sight_features": "", "sight_content": ""}}, {"title": "大风车儿童乐园", "address": "河南省新乡市长垣县向阳路南段127", "image": "", "rank": 21, "time": 2, "location": {"lat": 35.20719822456536, "lng": 114.67560989145973}, "feature": {"sight_features": "", "sight_content": ""}}, {"title": "崔景荣纪念馆", "address": "新乡市长垣县景荣路1号", "image": "", "rank": 22, "time": 2, "location": {"lat": 35.213100522583474, "lng": 114.71013264176791}, "feature": {"sight_features": "", "sight_content": ""}}, {"title": "龙锦水族馆", "address": "新乡市长垣县", "image": "", "rank": 23, "time": 2, "location": {"lat": 35.20719822456536, "lng": 114.67560989145973}, "feature": {"sight_features": "", "sight_content": ""}}, {"title": "中国烹饪文化博物馆", "address": "博爱路与新长北线交叉口", "image": "", "rank": 24, "time": 0.5, "location": {"lat": 35.29772816918835, "lng": 114.04135769291776}, "feature": {"sight_features": "", "sight_content": ""}}, {"title": "陈墙基督教堂", "address": "陈墙村附近", "image": "", "rank": 25, "time": 2, "location": {"lat": 35.23688400334689, "lng": 114.75440827972673}, "feature": {"sight_features": "", "sight_content": ""}}, {"title": "寺谷遗址·观音堂", "address": "后寺谷村附近", "image": "", "rank": 26, "time": 2, "location": {"lat": 35.17656666869261, "lng": 114.60607425469607}, "feature": {"sight_features": "", "sight_content": ""}}, {"title": "以马内利", "address": "河南省新乡市长垣县", "image": "", "rank": 27, "time": 2, "location": {"lat": 35.20719822456536, "lng": 114.67560989145973}, "feature": {"sight_features": "", "sight_content": ""}}, {"title": "祝大乾休闲娱乐度假山庄", "address": "胡寨村", "image": "", "rank": 28, "time": 2, "location": {"lat": 36.669594902080235, "lng": 114.66728601923131}, "feature": {"sight_features": "", "sight_content": ""}}, {"title": "阳光岛水上乐园", "address": "桂陵大道与火车道交汇处向北500米", "image": "", "rank": 29, "time": 2, "location": {"lat": 21.617131004996395, "lng": 110.28820210352386}, "feature": {"sight_features": "", "sight_content": ""}}, {"title": "统一水上乐园", "address": "山海大道凤凰城对过向南小路向南100米路西", "image": "", "rank": 30, "time": 2, "location": {"lat": 30.608655646852636, "lng": 114.27312273420497}, "feature": {"sight_features": "", "sight_content": ""}}, {"title": "亿隆温泉", "address": "向阳路南段", "image": "", "rank": 31, "time": 2, "location": {"lat": 33.743239428596404, "lng": 112.90993651326747}, "feature": {"sight_features": "", "sight_content": ""}}, {"title": "水景坊生态馆", "address": "宏力大道东50米", "image": "", "rank": 32, "time": 2, "location": {"lat": 35.32361131192799, "lng": 113.91044781330469}, "feature": {"sight_features": "", "sight_content": ""}}, {"title": "众和冬枣", "address": "长垣大道和巨人大道交汇处玫瑰苑附近", "image": "", "rank": 33, "time": 2, "location": {"lat": 35.1813320591754, "lng": 114.69462802969964}, "feature": {"sight_features": "", "sight_content": ""}}, {"title": "长垣县汇通种植专业合作社", "address": "天汇路南50米", "image": "", "rank": 34, "time": 2, "location": {"lat": 43.8668911199057, "lng": 87.56473546602687}, "feature": {"sight_features": "", "sight_content": ""}}, {"title": "龙果源生态农庄(火龙果采摘园)", "address": "工业路张三寨镇(飘安集团东隔壁)", "image": "", "rank": 35, "time": 2, "location": {"lat": 35.283001517770664, "lng": 114.71657756339502}, "feature": {"sight_features": "", "sight_content": ""}}, {"title": "宏瑞温泉", "address": "蒲西街36号", "image": "", "rank": 36, "time": 2, "location": {"lat": 35.20407783838472, "lng": 114.6898359894124}, "feature": {"sight_features": "", "sight_content": ""}}, {"title": "蒲城商业中心", "address": "河南省长垣县中心街", "image": "", "rank": 37, "time": 2, "location": {"lat": 35.204730704392276, "lng": 114.69960011835839}, "feature": {"sight_features": "", "sight_content": ""}}, {"title": "长城商贸城", "address": "河南省长垣县长城大道", "image": "", "rank": 38, "time": 2, "location": {"lat": 35.210497725762224, "lng": 114.69116336505958}, "feature": {"sight_features": "", "sight_content": ""}}]}