{"cityName": "昌宁", "days": 2, "cityImage": "", "spots": [{"title": "鸡飞石鸡飞温泉", "address": "312省道", "image": "", "rank": 1, "time": 2, "location": {"lat": 36.622905905946894, "lng": 114.42321002791304}, "feature": {"sight_features": "", "sight_content": ""}}, {"title": "芒翁农家小院", "address": "云南省保山市昌宁县XM61", "image": "", "rank": 2, "time": 2, "location": {"lat": 24.833984919852785, "lng": 99.61161657602588}, "feature": {"sight_features": "", "sight_content": ""}}, {"title": "小桥温泉", "address": "保山市昌宁县312省道西150米", "image": "", "rank": 3, "time": 2, "location": {"lat": 24.664374213976945, "lng": 99.72003702053354}, "feature": {"sight_features": "", "sight_content": ""}}, {"title": "清韵阁温泉", "address": "温泉镇小桥温泉旅游度假区第16幢", "image": "", "rank": 4, "time": 2, "location": {"lat": 44.97485663870472, "lng": 81.03114554648644}, "feature": {"sight_features": "", "sight_content": ""}}, {"title": "边生坝农家娱乐园", "address": "312省道", "image": "", "rank": 5, "time": 2, "location": {"lat": 36.622905905946894, "lng": 114.42321002791304}, "feature": {"sight_features": "", "sight_content": ""}}, {"title": "中共昌宁县文体广电旅游局委员会...", "address": "文昌街附近", "image": "", "rank": 6, "time": 2, "location": {"lat": 38.121242157937154, "lng": 114.47416471196574}, "feature": {"sight_features": "", "sight_content": ""}}, {"title": "观音山栗园土鸡场", "address": "228省道附近", "image": "", "rank": 7, "time": 2, "location": {"lat": 39.03858546081583, "lng": 117.03749267899916}, "feature": {"sight_features": "", "sight_content": ""}}, {"title": "象山度假区", "address": "云南省昌宁县湾甸乡象山村 678106", "image": "", "rank": 8, "time": 3.0, "location": {"lat": 24.54337047595141, "lng": 99.35429369564055}, "feature": {"sight_features": "", "sight_content": ""}}, {"title": "昌宁江桥客运码头", "address": "澜沧江大桥沧江饭店", "image": "", "rank": 9, "time": 2, "location": {"lat": 24.952690691922683, "lng": 99.7523415419166}, "feature": {"sight_features": "", "sight_content": ""}}, {"title": "麦华仕", "address": "云南省保山市昌宁县右甸北路8", "image": "", "rank": 10, "time": null, "location": {"lat": 24.83371768755686, "lng": 99.61742569587553}, "feature": {"sight_features": "", "sight_content": ""}}, {"title": "茶韵公园", "address": "保山市昌宁县", "image": "", "rank": 11, "time": 2, "location": {"lat": 24.833984919852785, "lng": 99.61161657602588}, "feature": {"sight_features": "", "sight_content": ""}}, {"title": "芝麻开门儿童乐园", "address": "书林巷与右甸北路交叉口东北100米", "image": "", "rank": 12, "time": 2, "location": {"lat": 24.83355541737921, "lng": 99.61858443093213}, "feature": {"sight_features": "", "sight_content": ""}}, {"title": "奇乐宝贝游乐园", "address": "昌宁县街心花园四方街超市1楼", "image": "", "rank": 13, "time": 2, "location": {"lat": 24.83263662039671, "lng": 99.61752506104118}, "feature": {"sight_features": "", "sight_content": ""}}, {"title": "星光游乐园", "address": "云南省保山市昌宁县田园镇右甸南路昌宁万鑫购物中心", "image": "", "rank": 14, "time": 2, "location": {"lat": 24.82986093985424, "lng": 99.61811437191317}, "feature": {"sight_features": "", "sight_content": ""}}, {"title": "三圣宫", "address": "云南省保山市昌宁县右甸南路", "image": "", "rank": 15, "time": 2.0, "location": {"lat": 24.82297770114525, "lng": 99.61837144269577}, "feature": {"sight_features": "", "sight_content": ""}}, {"title": "右甸农业生态公园", "address": "云南省保山市昌宁县S228", "image": "", "rank": 16, "time": 2, "location": {"lat": 24.833984919852785, "lng": 99.61161657602588}, "feature": {"sight_features": "", "sight_content": ""}}, {"title": "佛光寺", "address": "312省道附近", "image": "", "rank": 17, "time": null, "location": {"lat": 36.622905905946894, "lng": 114.42321002791304}, "feature": {"sight_features": "", "sight_content": ""}}, {"title": "云南省昌宁县图书馆", "address": "书林巷", "image": "", "rank": 18, "time": 2, "location": {"lat": 24.833623908104762, "lng": 99.61887888739345}, "feature": {"sight_features": "", "sight_content": ""}}, {"title": "卡斯温泉", "address": "卡斯镇西南边卡斯村口", "image": "", "rank": 19, "time": 2, "location": {"lat": 24.798830577668834, "lng": 99.3953368351065}, "feature": {"sight_features": "", "sight_content": ""}}, {"title": "滨河公园", "address": "保山市昌宁县前进路2号", "image": "", "rank": 20, "time": 2.0, "location": {"lat": 24.832451503741563, "lng": 99.6191786923658}, "feature": {"sight_features": "", "sight_content": ""}}]}