{"cityName": "巢湖", "days": "", "cityImage": "", "spots": [{"title": "巢湖", "address": "合肥市巢湖市", "image": "", "rank": 1, "time": 4.5, "location": {"lat": 31.629002428816317, "lng": 117.89557620044565}, "feature": {"sight_features": "", "sight_content": ""}}, {"title": "紫微洞", "address": "巢湖市北郊紫微洞旅游区", "image": "", "rank": 2, "time": 2.0, "location": {"lat": 31.652321303375835, "lng": 117.87504394311608}, "feature": {"sight_features": "特色1 典型的地下河型洞穴 特色2 紫微洞又名紫薇洞、双井洞，因洞有大小两个天然井状出口而得名 特色3 仙境梦地，紫微洞天", "sight_content": "王乔谜窟是安徽省内唯一一座摩崖石窟造像溶洞，洞内刻有唐朝早期佛像及动物雕像共计600余尊，独有一尊彩雕佛像有首，余皆无首，乃为千古之谜，为安徽省重点文物保护单位。\n\n景区环境优美、景点众多，尤以紫微洞、王乔谜窟闻名遐迩。紫微洞以雄、奇、险、幽而著称，著名景点有“三奇”（双井开天、铁索寒桥、地下长河）“四绝”（玉螺帐、天外飞瀑、天沟天槽、猴子捞月）等，奇景奇观令人目不暇接、流连忘返。\n\n紫微洞位于巢城北郊，又称双井洞，因洞有大小两个天然井状出口而得名。总长3000米，主洞长达1500多米，是典型的地下河型洞穴，洞穴呈廓道状，以雄、奇、险、幽见长，融自然、人文景观于一体。\n\n紫微洞10大洞天，36主景，72辅景，先陆路游览，后水路荡舟。最妙的要数洞内的“四绝”、“三奇”景观。“四绝”为天沟、天板、天漕，玉螺账，石鹅管和天外飞瀑。“三绝”为铁索寒桥、双井开天、地下长河。此外，“龙潭听涛”、“群猴朝圣”、“洞中大龙湫”、“九龙壁”、“石葡萄”、“石褶裙”、“石针”、“石笋”、“葫芦寿星”、“猴子捞月亮”、“八戒照镜子”等景点，以及王乔炼丹留下的胜迹，惟妙惟肖，令人目不暇接，叹为观止。"}}, {"title": "姥山岛", "address": "巢湖市居巢区中庙镇", "image": "", "rank": 3, "time": 3.0, "location": {"lat": 31.650688899701947, "lng": 117.72806407997771}, "feature": {"sight_features": "特色1 被誉为巢湖的“两颗宝石“之一 特色2 林木葱郁，四季常青，如青螺浮水", "sight_content": "王乔得道、许由洗耳、浮丘垂钓、巢州地陷的传闻轶事娓娓动听，闻名遐尔。商汤伐纣、夏桀败走南巢、张良蛰隐大秀山、范增归葬亚父山等，更为巢湖平增思古幽情，添就诱人史话。这令人神往人间圣境，引历代名流大家盘桓驻足，泼墨挥毫。巢湖藉其秀丽的风光、宜人的景色被列为国家对外开放城市，安徽省重点旅游开发区和风景疗养区，皖中大地上一颗璀灿的旅游明珠。\n巢湖四周有半汤、香泉、汤池三大温泉，有太湖山，鸡笼山，冶父山，天井山四个国家森林公园，称“四块翡翠”，还有仙人，紫薇，王乔，华阳，伯山五大溶洞。黛峰叠翠，古塔耸云；湖岸沟、河、港、纵横交错，玉带燎绕，岸柳晓风，如诗若画；古中庙飞檐雕栋，流光溢彩；天然溶洞紫微洞，雄、奇、险、幽，巧夺天工，为“江北第一洞”。\n仙人洞钟乳纷呈，景成万象；王乔洞佛像雕刻鬼斧神工，是安徽省仅有的摩崖石窟艺术宝库；银屏白牡丹做立悬崖，神奇独特，堪称“天下第一奇花”；南北龟山静伏水面，凝姑望姥；半汤温泉品位上乘，疗效卓然…，名胜古迹，钟灵梳秀，星罗棋布。"}}, {"title": "银屏山", "address": "巢湖市南郊", "image": "", "rank": 4, "time": null, "location": {"lat": 31.608732547545824, "lng": 117.88049041703327}, "feature": {"sight_features": "特色1 喀斯特地貌溶洞景观", "sight_content": "银屏山是巢湖境内高峰，海拔约508米，四周山峦起伏，九峰环抱，姿若雄狮，有“九狮抱银屏”之说。山中谷幽、林密，加上溶洞、奇花构成一幅幅优美的图画。银屏牡丹花，人称“天下第一奇花”，生长在一堵巨大的犹如斧削、光滑如屏的悬崖峭壁之上，为一株天然野生白牡丹花，风姿绰约，历经千年而永葆青春，殊为举世罕见。\n仙人洞位于牡丹花的绝壁之下，洞内盘桓曲折、怪石嶙峋、钟乳纷呈，宛若地下迷宫，是典型的喀斯特地貌溶洞景观。位于月亮山顶的牡丹亭，三层八角，恢宏典雅，被誉为“安徽第一亭”。巢湖最高峰——银屏山顶，是秋天登高临远的绝佳处，可以“南看长江飘玉带，北观巢湖数点舟”。山顶上的龙兴寺庙，参差错落，晨钟暮鼓，号称“江北九华”，是参禅拜佛的绝佳境地。"}}, {"title": "中庙", "address": "合肥市巢湖市中庙镇境内", "image": "", "rank": 5, "time": null, "location": {"lat": 31.629002428816317, "lng": 117.89557620044565}, "feature": {"sight_features": "", "sight_content": ""}}, {"title": "鼓山寺", "address": "巢湖市之东，合、巢、芜公路北侧（亚父范增之故里鼓山之上）", "image": "", "rank": 6, "time": 1.0, "location": {"lat": 31.600673801281545, "lng": 117.91792505339782}, "feature": {"sight_features": "", "sight_content": ""}}, {"title": "巢湖市博物馆", "address": "合肥是巢湖市居巢区裕溪路光明中心村南侧", "image": "", "rank": 7, "time": 1.5, "location": {"lat": 31.650688899701947, "lng": 117.72806407997771}, "feature": {"sight_features": "", "sight_content": ""}}, {"title": "卧牛山公园", "address": "合肥市巢湖市卧牛路27号", "image": "", "rank": 8, "time": 1.0, "location": {"lat": 31.607582853138812, "lng": 117.87108948188822}, "feature": {"sight_features": "", "sight_content": ""}}, {"title": "东庵森林公园", "address": "巢湖市巢湖南畔，沿巢庐路离城5公里处。", "image": "", "rank": 9, "time": 1.0, "location": {"lat": 31.58633292739935, "lng": 117.83148740231123}, "feature": {"sight_features": "", "sight_content": ""}}, {"title": "李克农故居", "address": "巢湖市炯炀镇中李村（烔忠路附近）", "image": "", "rank": 10, "time": 1.0, "location": {"lat": 31.6703688357646, "lng": 117.63797327592751}, "feature": {"sight_features": "", "sight_content": ""}}, {"title": "张治中故居", "address": "巢湖市居巢区黄麓镇洪家疃村", "image": "", "rank": 11, "time": 1.0, "location": {"lat": 31.660492082641564, "lng": 117.54899852621617}, "feature": {"sight_features": "", "sight_content": ""}}, {"title": "鼓山", "address": "巢湖市居巢区长江东路鼓山风景区管理处", "image": "", "rank": 12, "time": 3.5, "location": {"lat": 31.60243915097823, "lng": 117.92028157824215}, "feature": {"sight_features": "", "sight_content": ""}}, {"title": "洗耳池公园", "address": "合肥市巢湖市巢湖市居巢区巢湖路、东风路附近", "image": "", "rank": 13, "time": 2.5, "location": {"lat": 31.615212291355316, "lng": 117.88037906757378}, "feature": {"sight_features": "", "sight_content": ""}}, {"title": "烔炀镇", "address": "合肥市巢湖市居巢区烔炀镇", "image": "", "rank": 14, "time": 1.5, "location": {"lat": 31.68890564506162, "lng": 117.63261130920286}, "feature": {"sight_features": "", "sight_content": ""}}, {"title": "元帅楼露天温泉", "address": "巢湖市汤山路92号干疗大门内20米", "image": "", "rank": 15, "time": 2, "location": {"lat": 31.6525914008534, "lng": 117.92550765020756}, "feature": {"sight_features": "", "sight_content": ""}}, {"title": "半汤温泉疗养院", "address": "合肥市巢湖市半汤镇汤山路92号", "image": "", "rank": 16, "time": 2, "location": {"lat": 31.6525914008534, "lng": 117.92550765020756}, "feature": {"sight_features": "", "sight_content": "巢湖半汤温泉疗养院是一家集康复、疗养、度假、会议接待于一体的综合性疗养院。\n\n\n半汤泉水冷热合流，洁明清澈，出地一般在55℃，内含活性元素30多种，其中每毫升含80120埃曼氡气，在国内罕见。"}}, {"title": "相隐寺", "address": "合肥市巢湖市巢湖之滨的西黄山腹地", "image": "", "rank": 17, "time": 1.0, "location": {"lat": 31.629002428816317, "lng": 117.89557620044565}, "feature": {"sight_features": "", "sight_content": ""}}, {"title": "月亮湾湿地公园", "address": "合肥市巢湖市居巢区滨湖大道", "image": "", "rank": 18, "time": 1.5, "location": {"lat": 31.662795347885815, "lng": 117.65821805123961}, "feature": {"sight_features": "", "sight_content": ""}}, {"title": "壹号井温泉山庄", "address": "巢湖市花园路19号", "image": "", "rank": 19, "time": 2, "location": {"lat": 31.654230003003093, "lng": 117.92268375766741}, "feature": {"sight_features": "", "sight_content": "壹号井温泉山庄所有温泉水，皆采自半汤温泉区第一号井，水温62摄氏度，水质无色无味，室内泡池区有多个池子可以选择。室外环境优美，景色清幽。\n壹号井温泉山庄所有温泉水,皆采自半汤温泉区中第一号井(唯二之一)，水温62摄氏度,水质无色无味,透明洁净,不受地表污染,含30多种化学成分，矿物总含量高达1800—2000mg/L。\n矿泉水中最有治病效果的是微量放射性气体氡气，凡泉水中氡的含量达到30EM/L以上者，称为氡泉，据统计国内矿泉含氡达30EM/L以上者仅13处，其中，半汤温泉含氡量最高，为我国少有的含氡中温优质温泉。"}}, {"title": "冯玉祥旧居", "address": "合肥市巢湖市夏阁镇竹柯村", "image": "", "rank": 20, "time": 1.0, "location": {"lat": 31.691482093489814, "lng": 117.85470891415109}, "feature": {"sight_features": "", "sight_content": ""}}, {"title": "荣昌自摘葡萄园", "address": "长江东路附近", "image": "", "rank": 21, "time": 3.5, "location": {"lat": 34.18538418760702, "lng": 117.1931497642082}, "feature": {"sight_features": "", "sight_content": ""}}, {"title": "巢湖昆虫王国", "address": "合肥市巢湖市南岸马尾河湿地兆河大桥西侧", "image": "", "rank": 22, "time": 4.5, "location": {"lat": 31.427749874046157, "lng": 117.56255740226167}, "feature": {"sight_features": "", "sight_content": ""}}, {"title": "香泉", "address": "安徽省巢湖和县城香泉", "image": "", "rank": 23, "time": 2, "location": {"lat": 31.608732547545824, "lng": 117.88049041703327}, "feature": {"sight_features": "", "sight_content": ""}}, {"title": "和县博物馆", "address": "历阳西路138", "image": "", "rank": 24, "time": null, "location": {"lat": 31.467373232276085, "lng": 118.24041673147991}, "feature": {"sight_features": "", "sight_content": ""}}, {"title": "巢湖桃花岛度假区", "address": "夏阁西峰乡", "image": "", "rank": 25, "time": 4.5, "location": {"lat": 39.733103440170524, "lng": 98.47613165100431}, "feature": {"sight_features": "", "sight_content": ""}}, {"title": "巢湖庐江奇石馆", "address": "长江东路东侧", "image": "", "rank": 26, "time": 4.5, "location": {"lat": 34.18538418760702, "lng": 117.1931497642082}, "feature": {"sight_features": "", "sight_content": ""}}, {"title": "巢湖园林", "address": "东风西路", "image": "", "rank": 27, "time": 1.5, "location": {"lat": 24.142331758393627, "lng": 115.74317645937481}, "feature": {"sight_features": "", "sight_content": ""}}, {"title": "历阳公园", "address": "朝阳路", "image": "", "rank": 28, "time": 2, "location": {"lat": 38.85447906919534, "lng": 117.45512926191672}, "feature": {"sight_features": "", "sight_content": ""}}, {"title": "黄麓师范学校", "address": "安徽省合肥市巢湖市", "image": "", "rank": 29, "time": 2, "location": {"lat": 31.629002428816317, "lng": 117.89557620044565}, "feature": {"sight_features": "", "sight_content": ""}}, {"title": "巢湖地区湿地", "address": "安徽省巢湖市居巢区境内", "image": "", "rank": 30, "time": 4.5, "location": {"lat": 31.650688899701947, "lng": 117.72806407997771}, "feature": {"sight_features": "", "sight_content": ""}}, {"title": "桃花岛", "address": "安徽省巢湖市居巢区西峰乡", "image": "", "rank": 31, "time": 2, "location": {"lat": 31.650688899701947, "lng": 117.72806407997771}, "feature": {"sight_features": "", "sight_content": ""}}, {"title": "巢湖体育中心水上乐园", "address": "合肥市巢湖市健康西路和体育大道交叉口体育中心内", "image": "", "rank": 32, "time": 3.0, "location": {"lat": 31.61301374410722, "lng": 117.86354339850256}, "feature": {"sight_features": "", "sight_content": ""}}, {"title": "小港湾农家乐", "address": "居巢区黄麓镇大河甸村(城建学院)", "image": "", "rank": 33, "time": 2, "location": {"lat": 31.650688899701947, "lng": 117.72806407997771}, "feature": {"sight_features": "", "sight_content": ""}}, {"title": "御温泉", "address": "花园路(近半汤区地质疗养所)", "image": "", "rank": 34, "time": null, "location": {"lat": 31.65208729317375, "lng": 117.92195036038805}, "feature": {"sight_features": "", "sight_content": ""}}, {"title": "巢湖市图书馆", "address": "卧牛路9号", "image": "", "rank": 35, "time": 1.5, "location": {"lat": 33.89982140132755, "lng": 116.82709742120065}, "feature": {"sight_features": "", "sight_content": ""}}, {"title": "仙人洞", "address": "散兵镇大岭1号", "image": "", "rank": 36, "time": 1.5, "location": {"lat": 40.079446745851975, "lng": 115.57250925867035}, "feature": {"sight_features": "", "sight_content": ""}}, {"title": "金泉山庄度假村", "address": "巢湖半汤温泉度假区", "image": "", "rank": 37, "time": 2, "location": {"lat": 31.664945018209295, "lng": 117.9087308965032}, "feature": {"sight_features": "", "sight_content": ""}}, {"title": "烔炀影剧院", "address": "朝阳路与烔炀路交叉口东北150米", "image": "", "rank": 38, "time": 2, "location": {"lat": 31.689272512962106, "lng": 117.64384004094194}, "feature": {"sight_features": "", "sight_content": ""}}, {"title": "人民剧场(人民路)", "address": "安徽省合肥市巢湖市人民路与团结路交叉口南100米", "image": "", "rank": 39, "time": 2, "location": {"lat": 31.6033196243466, "lng": 117.8746785582482}, "feature": {"sight_features": "", "sight_content": ""}}, {"title": "老岳牡丹园艺", "address": "人民路与环城路交叉口北150米", "image": "", "rank": 40, "time": 2, "location": {"lat": 41.40381258532658, "lng": 119.63182686893037}, "feature": {"sight_features": "", "sight_content": ""}}, {"title": "高尔夫陶瓷", "address": "建材大市场潜川街368号", "image": "", "rank": 41, "time": 2, "location": {"lat": 31.613576836339547, "lng": 117.89554080720853}, "feature": {"sight_features": "", "sight_content": ""}}, {"title": "巢湖剧院", "address": "健康中路243号", "image": "", "rank": 42, "time": 2.0, "location": {"lat": 21.66327206907319, "lng": 110.91695446881033}, "feature": {"sight_features": "", "sight_content": ""}}, {"title": "葡国", "address": "长江中路与长江西路交叉口东100米", "image": "", "rank": 43, "time": 2, "location": {"lat": 31.962338670043952, "lng": 120.4118018342669}, "feature": {"sight_features": "", "sight_content": ""}}, {"title": "四户许许氏宗祠", "address": "塘稍村", "image": "", "rank": 44, "time": 2, "location": {"lat": 31.70524702599015, "lng": 117.60603105731545}, "feature": {"sight_features": "", "sight_content": ""}}, {"title": "安徽省巢湖市银屏山龙兴寺", "address": "合肥市巢湖市散兵镇", "image": "", "rank": 45, "time": 2, "location": {"lat": 31.53654256623591, "lng": 117.75768662895231}, "feature": {"sight_features": "", "sight_content": ""}}, {"title": "岱山古寺", "address": "安徽省合肥市巢湖市", "image": "", "rank": 46, "time": 2, "location": {"lat": 31.629002428816317, "lng": 117.89557620044565}, "feature": {"sight_features": "", "sight_content": ""}}, {"title": "巢湖天台禅寺", "address": "安徽省巢湖市苏湾镇苏集X061", "image": "", "rank": 47, "time": 4.5, "location": {"lat": 31.880107540677923, "lng": 117.82305590679458}, "feature": {"sight_features": "", "sight_content": ""}}, {"title": "三友堂民俗馆", "address": "巢湖市区银屏路79号", "image": "", "rank": 48, "time": 2, "location": {"lat": 31.602295253637923, "lng": 117.86142122898951}, "feature": {"sight_features": "", "sight_content": ""}}, {"title": "碧秀禅寺", "address": "银屏镇芙蓉行政村上王山头村75号", "image": "", "rank": 49, "time": 2, "location": {"lat": 28.191913247304726, "lng": 113.03940774487253}, "feature": {"sight_features": "", "sight_content": ""}}, {"title": "西苑广场", "address": "合肥市巢湖市东风路436号", "image": "", "rank": 50, "time": 2, "location": {"lat": 31.6047917804506, "lng": 117.86827791230307}, "feature": {"sight_features": "", "sight_content": ""}}, {"title": "塔影庵", "address": "合肥市巢湖市洗耳池路1号", "image": "", "rank": 51, "time": 2, "location": {"lat": 31.600825476441376, "lng": 117.87979459048356}, "feature": {"sight_features": "", "sight_content": ""}}, {"title": "大佛寺", "address": "011县道附近", "image": "", "rank": 52, "time": 1.5, "location": {"lat": 39.98940127442669, "lng": 116.08268465074909}, "feature": {"sight_features": "", "sight_content": ""}}, {"title": "青云寺", "address": "001县道附近", "image": "", "rank": 53, "time": 2, "location": {"lat": 38.094880367227645, "lng": 115.43311409749823}, "feature": {"sight_features": "", "sight_content": ""}}, {"title": "银屏中心广场", "address": "巢湖路374号", "image": "", "rank": 54, "time": 2, "location": {"lat": 31.610790273168426, "lng": 117.88177005323224}, "feature": {"sight_features": "", "sight_content": ""}}, {"title": "中垾文化广场", "address": "安徽省合肥市S105", "image": "", "rank": 55, "time": 2, "location": {"lat": 31.826577833686887, "lng": 117.23344266497664}, "feature": {"sight_features": "", "sight_content": ""}}, {"title": "袁氏宗祠", "address": "安徽省合肥市巢湖市湖边八米路", "image": "", "rank": 56, "time": 2, "location": {"lat": 31.445789586583977, "lng": 117.58794616238168}, "feature": {"sight_features": "", "sight_content": ""}}, {"title": "巢湖市观音净寺", "address": "安徽省合肥市巢湖市柘皋镇南金村(合浦加油站南600米路东)", "image": "", "rank": 57, "time": 4.5, "location": {"lat": 31.784135079933662, "lng": 117.74114630746158}, "feature": {"sight_features": "", "sight_content": ""}}, {"title": "酷宝儿童乐园", "address": "安徽省合肥市柘皋镇金泰新城(迎湖轩酒楼隔壁)", "image": "", "rank": 58, "time": 2, "location": {"lat": 31.798581665018123, "lng": 117.78787880021052}, "feature": {"sight_features": "", "sight_content": ""}}, {"title": "巢湖汉墓", "address": "安徽省合肥市裕溪路", "image": "", "rank": 59, "time": 0.75, "location": {"lat": 31.850801759971496, "lng": 117.3546660345298}, "feature": {"sight_features": "", "sight_content": ""}}, {"title": "项氏宗祠", "address": "安徽省合肥市巢湖市X007", "image": "", "rank": 60, "time": 2, "location": {"lat": 31.629002428816317, "lng": 117.89557620044565}, "feature": {"sight_features": "", "sight_content": ""}}]}