{"cityName": "察隅", "days": 2, "cityImage": "", "spots": [{"title": "察隅慈巴沟国家自然保护区", "address": "林芝市察隅县", "image": "", "rank": 1, "time": 3.5, "location": {"lat": 28.667444137201056, "lng": 97.47326974924565}, "feature": {"sight_features": "", "sight_content": ""}}, {"title": "沙琼村", "address": "林芝市察隅县下察隅乡", "image": "", "rank": 2, "time": 2.0, "location": {"lat": 28.667444137201056, "lng": 97.47326974924565}, "feature": {"sight_features": "", "sight_content": ""}}, {"title": "下察隅", "address": "林芝市察隅县南部", "image": "", "rank": 3, "time": 2, "location": {"lat": 28.667444137201056, "lng": 97.47326974924565}, "feature": {"sight_features": "", "sight_content": ""}}, {"title": "仁龙巴冰川", "address": "林芝市察隅县和昌都市八宿县然乌镇交界处", "image": "", "rank": 4, "time": 2, "location": {"lat": 28.667444137201056, "lng": 97.47326974924565}, "feature": {"sight_features": "", "sight_content": ""}}, {"title": "上察隅", "address": "林芝市察隅县西南部", "image": "", "rank": 5, "time": 2, "location": {"lat": 28.667444137201056, "lng": 97.47326974924565}, "feature": {"sight_features": "", "sight_content": ""}}, {"title": "古冰川", "address": "西藏自治区林芝地区察隅县", "image": "", "rank": 6, "time": 1.0, "location": {"lat": 28.681697628834318, "lng": 97.06912359708892}, "feature": {"sight_features": "", "sight_content": ""}}, {"title": "德姆拉山口", "address": "林芝市察隅县古玉乡201省道", "image": "", "rank": 7, "time": 1.0, "location": {"lat": 29.203830004749427, "lng": 97.2016124075202}, "feature": {"sight_features": "", "sight_content": ""}}, {"title": "龙普", "address": "西藏自治区察隅县察瓦龙乡 860600", "image": "", "rank": 8, "time": 1.0, "location": {"lat": 28.48232508238275, "lng": 98.47020198959831}, "feature": {"sight_features": "", "sight_content": ""}}, {"title": "址体错", "address": "西藏自治区林芝市察隅县", "image": "", "rank": 9, "time": 2, "location": {"lat": 28.667444137201056, "lng": 97.47326974924565}, "feature": {"sight_features": "", "sight_content": ""}}, {"title": "卢为色拉", "address": "西藏自治区察隅县察瓦龙乡 860600", "image": "", "rank": 10, "time": 2, "location": {"lat": 28.48232508238275, "lng": 98.47020198959831}, "feature": {"sight_features": "", "sight_content": ""}}, {"title": "曲南通", "address": "西藏自治区察隅县境内 860600", "image": "", "rank": 11, "time": 2, "location": {"lat": 28.667444137201056, "lng": 97.47326974924565}, "feature": {"sight_features": "", "sight_content": ""}}, {"title": "察隅县图书馆", "address": "201省道附近(西藏察隅县人民医院西200米)", "image": "", "rank": 12, "time": 2, "location": {"lat": 28.667394047801146, "lng": 97.47013727618759}, "feature": {"sight_features": "", "sight_content": ""}}, {"title": "慈巴沟保护区", "address": "西藏自治区察隅县县城中部", "image": "", "rank": 13, "time": 2, "location": {"lat": 28.667444137201056, "lng": 97.47326974924565}, "feature": {"sight_features": "", "sight_content": ""}}, {"title": "司巴东格拉", "address": "林芝市-察隅县", "image": "", "rank": 14, "time": null, "location": {"lat": 28.667444137201056, "lng": 97.47326974924565}, "feature": {"sight_features": "", "sight_content": ""}}, {"title": "秋热拉", "address": "林芝市-察隅县", "image": "", "rank": 16, "time": 2, "location": {"lat": 28.667444137201056, "lng": 97.47326974924565}, "feature": {"sight_features": "", "sight_content": ""}}]}