{"cityName": "成安", "days": null, "cityImage": "", "spots": [{"title": "绿帅庄园", "address": "邯郸市成安县辛义乡南徐村村南", "image": "", "rank": 1, "time": 2, "location": {"lat": 36.39200043932614, "lng": 114.65022854146186}, "feature": {"sight_features": "", "sight_content": ""}}, {"title": "河北漳西农业科技有限公司", "address": "吴家疃村", "image": "", "rank": 2, "time": 2, "location": {"lat": 36.40060727549326, "lng": 114.81043287970482}, "feature": {"sight_features": "", "sight_content": ""}}, {"title": "成安规划展览馆", "address": "富康北大街", "image": "", "rank": 3, "time": 1.5, "location": {"lat": 36.46006420705039, "lng": 114.68538174144138}, "feature": {"sight_features": "", "sight_content": ""}}, {"title": "神沐温泉", "address": "乾侯南街与有所为路交叉口南行250米路西院内", "image": "", "rank": 4, "time": 2, "location": {"lat": 36.4471531601753, "lng": 114.68559145355759}, "feature": {"sight_features": "", "sight_content": ""}}, {"title": "大自然温泉", "address": "乾侯南街6号附近", "image": "", "rank": 5, "time": 2, "location": {"lat": 36.44640667815572, "lng": 114.68406370675419}, "feature": {"sight_features": "", "sight_content": ""}}, {"title": "翰林世家品鉴中心", "address": "河北省成安县新兴西路", "image": "", "rank": 6, "time": 2, "location": {"lat": 36.45345317148808, "lng": 114.68395805297084}, "feature": {"sight_features": "", "sight_content": ""}}, {"title": "南姚堡水上乐园", "address": "河北省邯郸市成安县南姚堡村", "image": "", "rank": 7, "time": 2, "location": {"lat": 36.47504792661357, "lng": 114.68675346293816}, "feature": {"sight_features": "", "sight_content": ""}}, {"title": "大寨天主堂", "address": "河北省邯郸市成安县", "image": "", "rank": 8, "time": 2, "location": {"lat": 36.4497962089534, "lng": 114.67657655801901}, "feature": {"sight_features": "", "sight_content": ""}}, {"title": "李家町镇基督教会", "address": "河北省邯郸市成安县成大公路李家町镇中学东南850米", "image": "", "rank": 9, "time": 2, "location": {"lat": 36.357947020945986, "lng": 114.76121062992982}, "feature": {"sight_features": "", "sight_content": ""}}, {"title": "成安县基督教会", "address": "河北省邯郸市成安县道东堡乡烈士陵园西250米", "image": "", "rank": 10, "time": 2, "location": {"lat": 36.351004693225704, "lng": 114.60869421571597}, "feature": {"sight_features": "", "sight_content": ""}}, {"title": "三清殿", "address": "河北省邯郸市成安县东岳固村", "image": "", "rank": 11, "time": 0.35, "location": {"lat": 36.37859013558518, "lng": 114.71872103173172}, "feature": {"sight_features": "", "sight_content": ""}}, {"title": "水圆音乐啤酒广场", "address": "邯郸市成安县", "image": "", "rank": 12, "time": 2, "location": {"lat": 36.4497962089534, "lng": 114.67657655801901}, "feature": {"sight_features": "", "sight_content": ""}}, {"title": "七彩儿童游乐城", "address": "河北省邯郸市成安县邯大公路北50米", "image": "", "rank": 13, "time": 2, "location": {"lat": 36.42407042990073, "lng": 114.78476928211572}, "feature": {"sight_features": "", "sight_content": ""}}, {"title": "神爱世人", "address": "凤凰东路附近", "image": "", "rank": 14, "time": 2, "location": {"lat": 31.44344001184335, "lng": 119.50530470149602}, "feature": {"sight_features": "", "sight_content": ""}}, {"title": "国家档案馆", "address": "有所为路", "image": "", "rank": 15, "time": 1.0, "location": {"lat": 36.44972481437605, "lng": 114.67523016873761}, "feature": {"sight_features": "", "sight_content": ""}}, {"title": "抗日纪念馆", "address": "光明街", "image": "", "rank": 16, "time": null, "location": {"lat": 39.731825005739296, "lng": 116.4335674819826}, "feature": {"sight_features": "", "sight_content": ""}}, {"title": "毛泽东主席视察纪念馆", "address": "曹前线", "image": "", "rank": 17, "time": 2, "location": {"lat": 36.50618311536001, "lng": 114.75326813420398}, "feature": {"sight_features": "", "sight_content": ""}}, {"title": "农产品服务", "address": "聚厚大道020乡", "image": "", "rank": 18, "time": 2, "location": {"lat": 36.48602508260482, "lng": 114.64573823797573}, "feature": {"sight_features": "", "sight_content": ""}}]}