{"cityName": "城步", "days": 2, "cityImage": "", "spots": [{"title": "南山牧场", "address": "邵阳市城步苗族自治县南山镇", "image": "", "rank": 1, "time": 2.5, "location": {"lat": 26.180671723194955, "lng": 110.13177294633999}, "feature": {"sight_features": "", "sight_content": ""}}, {"title": "玉女溪国家森林公园", "address": "邵阳市城步苗族自治县五团镇卜落水村", "image": "", "rank": 2, "time": 2, "location": {"lat": 26.617288030054112, "lng": 110.46956947119945}, "feature": {"sight_features": "", "sight_content": ""}}, {"title": "城步蒙古包草原度假村", "address": "城步南山镇南山牧场内（天湖旁）", "image": "", "rank": 3, "time": 2.5, "location": {"lat": 26.180671723194955, "lng": 110.13177294633999}, "feature": {"sight_features": "", "sight_content": ""}}, {"title": "十万古田", "address": "邵阳市城步苗族自治县", "image": "", "rank": 4, "time": null, "location": {"lat": 26.396203220077773, "lng": 110.32853713031585}, "feature": {"sight_features": "", "sight_content": ""}}, {"title": "白云湖", "address": "219省道", "image": "", "rank": 5, "time": 3.0, "location": {"lat": 40.151047949015684, "lng": 115.89871895858025}, "feature": {"sight_features": "", "sight_content": ""}}, {"title": "苗岭农庄", "address": "儒林镇", "image": "", "rank": 6, "time": null, "location": {"lat": 31.592234505393137, "lng": 119.6258741486549}, "feature": {"sight_features": "", "sight_content": ""}}, {"title": "矮哥农家乐", "address": "091县道", "image": "", "rank": 7, "time": 2, "location": {"lat": 33.16698248492615, "lng": 118.1429986429921}, "feature": {"sight_features": "", "sight_content": ""}}, {"title": "城步苗族自治县图书馆", "address": "儒林镇文体街", "image": "", "rank": 8, "time": 2.5, "location": {"lat": 26.36151799038522, "lng": 110.31660601619735}, "feature": {"sight_features": "", "sight_content": ""}}, {"title": "黔峰山", "address": "湖南省城步苗族自治县城东 422500", "image": "", "rank": 9, "time": 2, "location": {"lat": 26.396203220077773, "lng": 110.32853713031585}, "feature": {"sight_features": "", "sight_content": ""}}, {"title": "两江峡谷", "address": "湖南省城步苗族自治县西南部 422500", "image": "", "rank": 10, "time": 2, "location": {"lat": 26.396203220077773, "lng": 110.32853713031585}, "feature": {"sight_features": "", "sight_content": ""}}, {"title": "长安营城", "address": "湖南省城步苗族自治县西南面南山风景区 422500", "image": "", "rank": 11, "time": 2, "location": {"lat": 26.186323122260934, "lng": 110.10752064779986}, "feature": {"sight_features": "", "sight_content": ""}}, {"title": "回龙桥", "address": "湖南省城步苗族自治县岩寨乡长坪村 422500", "image": "", "rank": 12, "time": 2, "location": {"lat": 26.254911515211756, "lng": 110.09629823833866}, "feature": {"sight_features": "", "sight_content": ""}}, {"title": "乱云奇峰", "address": "城步苗族自治县南山风景名胜区内", "image": "", "rank": 13, "time": 2, "location": {"lat": 26.171193177556415, "lng": 110.16002080268544}, "feature": {"sight_features": "", "sight_content": ""}}, {"title": "儒林广场", "address": "湖南省邵阳市城步苗族自治县人民路", "image": "", "rank": 14, "time": 2, "location": {"lat": 26.373331057562403, "lng": 110.32276452928008}, "feature": {"sight_features": "", "sight_content": ""}}, {"title": "界贝休闲山庄", "address": "219省道大桥村内", "image": "", "rank": 15, "time": 2, "location": {"lat": 29.66849649308163, "lng": 116.08958676569877}, "feature": {"sight_features": "", "sight_content": ""}}, {"title": "最美桃林苗家乐", "address": "桃林村附近", "image": "", "rank": 16, "time": 2, "location": {"lat": 36.12669469544515, "lng": 103.70309954320004}, "feature": {"sight_features": "", "sight_content": ""}}, {"title": "山水云间休闲山庄", "address": "威溪水库东岭东侧", "image": "", "rank": 17, "time": 2, "location": {"lat": 26.656730123894807, "lng": 110.60253413928362}, "feature": {"sight_features": "", "sight_content": ""}}, {"title": "阳氏庄园", "address": "丹口镇太平村黄泥界", "image": "", "rank": 18, "time": 2, "location": {"lat": 26.358057415529355, "lng": 110.26355989907047}, "feature": {"sight_features": "", "sight_content": ""}}, {"title": "六亭岭", "address": "湖南省邵阳县中心", "image": "", "rank": 19, "time": 2, "location": {"lat": 26.996528332196284, "lng": 111.28050768063707}, "feature": {"sight_features": "", "sight_content": ""}}, {"title": "隘口甘泉", "address": "湖南省绥宁县城东", "image": "", "rank": 20, "time": 2, "location": {"lat": 26.588422719333217, "lng": 110.16241987037962}, "feature": {"sight_features": "", "sight_content": ""}}, {"title": "古溶洞", "address": "湖南省城步苗族自治县儒林镇白谬州村石山", "image": "", "rank": 21, "time": 2, "location": {"lat": 26.331110152546906, "lng": 110.33919763710446}, "feature": {"sight_features": "", "sight_content": ""}}]}