{"cityName": "澄迈", "days": "", "cityImage": "", "spots": [{"title": "富力红树湾湿地公园", "address": "澄迈市西线高速573公里三林出口", "image": "", "rank": 1, "time": 7.5, "location": {"lat": 19.74434867164637, "lng": 110.01351091010905}, "feature": {"sight_features": "特色1 远离喧嚣，可饱览一望无际的水上森林，成群结队的火烈鸟。", "sight_content": "‍‍大自然互动教室——海南红树湾湿地公园。红树湾湿地公园占地面积约2200亩。由富力地产斥资3亿按国家AAAA级景区标准精心打造，整体园区以4.2公里原木木栈道贯穿于整个红树林水域，涵括红树林湿地体验馆、亲子乐园、火烈鸟餐厅、火烈鸟岛、红树湾风情集市、大树茶室、水上娱乐中心等七大项目。\n公园荣誉挂牌：海南省科普教育基地海南省红树林保护体系联盟成员单位UNDP-GEF海南湿地保护项目单位海南大学海洋学院实习基地海南省女画家协会写生创作基地海南双豪影视文化传媒有限公司影视拍摄基地海南好都影视传媒广告有限公司影视拍摄取景基地海南省摄影家协会海南红树林湿地公园摄影创作基地。‍‍\n‍‍\n海南红树湾湿地公园，是按照国家AAAA级标准打造的红树林主题旅游公园，其2200亩红树林生物群落，形成罕有的原生生态环境，每年吸引着无数自然爱好者到访，成为海口一道人与自然和谐相处的风景。红树湾湿地公园自然栖息有鸟类近30种，6000多只，珍惜红树植物40多种，4.2公里原木木栈道贯穿于整个红树林海域。\n沿途漫步，你将欣赏到鸟类的群舞，鱼虾的嬉戏，听取原生植物的丝丝细语，畅快呼吸每一处绿意。于此探索神秘的自然，必将是一段永存的记忆。在湿地体验馆，你可以看到最新最酷的科普展示，了解湿地的重要生态价值。漫步情侣栈道，在密林之中和爱人说说悄悄话，也是浪漫非常。\n小朋友可以在嘟嘟乐园尽情的玩耍，玩累了，可以到木栈道上的火烈鸟餐厅用餐，顺便一览100只从古巴远道而来的火烈鸟的风姿。穿过火烈鸟餐厅，就是红树林集市，这里吃的玩的一应俱全，还有“把湿地带回家”植物微景观DIY体验以及萌萌的羊驼在等着大家。‍‍\n如果你想近距离观察红树林，可以到我们的游船码头乘坐各种水上交通工具，在水上恣意畅游。最后，到大树茶室喝一杯醇香的本地咖啡，结束一天悠闲而快乐的游玩吧。\n体验馆湿地体验馆是海南省目前唯一一个以红树林与湿地为主题的科普展馆，整个体验馆有上下两层，建筑面积1300平方米，以“湿地·生命·人文”为主题，揭开被誉为海上森林的神秘湿地，传播人类与自然休戚与共的依存关系。"}}, {"title": "福山咖啡文化风情镇", "address": "澄迈县澄迈咖啡文化风情镇中心区", "image": "", "rank": 2, "time": 2, "location": {"lat": 19.74434867164637, "lng": 110.01351091010905}, "feature": {"sight_features": "", "sight_content": ""}}, {"title": "永庆文化旅游景区", "address": "澄迈县老城经济开发区盈滨半岛永庆寺", "image": "", "rank": 3, "time": 2, "location": {"lat": 19.98810029207702, "lng": 110.11760177628051}, "feature": {"sight_features": "", "sight_content": ""}}, {"title": "永庆寺", "address": "海口市澄迈县老城区盈滨半岛", "image": "", "rank": 4, "time": 2, "location": {"lat": 20.04404943925674, "lng": 110.32552547126409}, "feature": {"sight_features": "特色1 琼北地区规模较大的佛教寺院", "sight_content": "永庆寺位于海南省澄迈县，盈滨半岛旅游区，是“海南永庆文化旅游景区”已建成的一期景点，占地80亩，是琼北地区规模最大的佛教寺院。\n历史上的永庆寺始建于唐代，为海南古代“澄迈八景”之一，是海南历史上有名的禅林圣地。据史料记载，曾有李纲、李光、胡铨、苏东坡等众多贤臣雅士慕名游历该寺，使之名闻四方，法音宣流于琼州各地。\n海南永庆文化旅游景区将打造成以永庆寺宗教场所经营为基础，以佛家修心养性与休闲养生为特色主题，具有吸引力的传统文化旅游体验区，形成“宗教祈福---修心养性---度假养生”的全新佛教文化体验休闲与修心养生生活方式综合区。"}}, {"title": "金山寺", "address": "金江镇城郊尖岭", "image": "", "rank": 5, "time": 1.5, "location": {"lat": 19.866575714273882, "lng": 110.10285754030588}, "feature": {"sight_features": "", "sight_content": ""}}, {"title": "美榔姐妹塔", "address": "澄迈县永发镇美榔村", "image": "", "rank": 6, "time": 2, "location": {"lat": 19.794189819392106, "lng": 110.19599475744836}, "feature": {"sight_features": "", "sight_content": ""}}, {"title": "欣美达洲际海逸水上运动俱乐部", "address": "澄迈县盈滨半岛西海岸大酒店旁", "image": "", "rank": 7, "time": 2, "location": {"lat": 19.98810029207702, "lng": 110.11760177628051}, "feature": {"sight_features": "", "sight_content": ""}}, {"title": "福山镇", "address": "澄迈县福山镇", "image": "", "rank": 8, "time": 2, "location": {"lat": 19.827117695885335, "lng": 110.01143148017624}, "feature": {"sight_features": "", "sight_content": ""}}, {"title": "老城镇", "address": "澄迈县老城镇", "image": "", "rank": 9, "time": 2, "location": {"lat": 19.909492475908685, "lng": 110.13208813299755}, "feature": {"sight_features": "", "sight_content": ""}}, {"title": "麒麟乐园", "address": "立新路11号", "image": "", "rank": 10, "time": 2, "location": {"lat": 31.385816547782248, "lng": 121.29350955725235}, "feature": {"sight_features": "", "sight_content": ""}}, {"title": "澄迈县图书馆", "address": "解放路144号", "image": "", "rank": 11, "time": 2, "location": {"lat": 37.87678281286635, "lng": 112.56746571216851}, "feature": {"sight_features": "", "sight_content": ""}}, {"title": "后海温泉新城", "address": "南海大道西延线20公里处北侧", "image": "", "rank": 12, "time": 2, "location": {"lat": 28.458022928582537, "lng": 119.46391124494389}, "feature": {"sight_features": "", "sight_content": ""}}, {"title": "硒岛咖啡度假村", "address": "国营红光农场内", "image": "", "rank": 13, "time": 2, "location": {"lat": 19.842689729042256, "lng": 109.92919970270096}, "feature": {"sight_features": "", "sight_content": ""}}, {"title": "卜厚村农场", "address": "S21中线高速东50米", "image": "", "rank": 14, "time": 2, "location": {"lat": 19.90146294819823, "lng": 110.25817995635605}, "feature": {"sight_features": "", "sight_content": ""}}, {"title": "原野无公害野菜种植基地", "address": "225国道", "image": "", "rank": 15, "time": 2, "location": {"lat": 19.4663081009107, "lng": 109.32109095968458}, "feature": {"sight_features": "", "sight_content": ""}}, {"title": "永兴村农场", "address": "二六零县道", "image": "", "rank": 16, "time": 2, "location": {"lat": 22.54792074834624, "lng": 114.59432041430848}, "feature": {"sight_features": "", "sight_content": ""}}, {"title": "澄迈金江欢乐天地游乐园", "address": "文化北路25号", "image": "", "rank": 17, "time": 2, "location": {"lat": 31.277927459398516, "lng": 120.58829426598288}, "feature": {"sight_features": "", "sight_content": ""}}, {"title": "美浪湾高尔夫球会", "address": "金马大道88号", "image": "", "rank": 18, "time": 2, "location": {"lat": 33.20967392667803, "lng": 112.01437378602853}, "feature": {"sight_features": "", "sight_content": ""}}, {"title": "加笼坪热带季雨林旅游区", "address": "海南省澄迈县境内 571900", "image": "", "rank": 19, "time": null, "location": {"lat": 19.74434867164637, "lng": 110.01351091010905}, "feature": {"sight_features": "", "sight_content": ""}}, {"title": "红湖欢乐水庄", "address": "海南省儋州市澄迈县金江镇 571700", "image": "", "rank": 20, "time": 1.5, "location": {"lat": 19.742732842321328, "lng": 110.01663295114523}, "feature": {"sight_features": "", "sight_content": ""}}, {"title": "澄迈县档案馆", "address": "文化北路108号", "image": "", "rank": 21, "time": 2, "location": {"lat": 32.2460719242335, "lng": 119.83083638825444}, "feature": {"sight_features": "", "sight_content": ""}}, {"title": "万泉河休闲漂流", "address": "滨海大道海景湾花园竹苑别墅", "image": "", "rank": 22, "time": 2, "location": {"lat": 20.04154645937609, "lng": 110.3355960428584}, "feature": {"sight_features": "", "sight_content": ""}}, {"title": "九乐宫温泉", "address": "西达农场九乐宫温泉度假山庄", "image": "", "rank": 23, "time": 2, "location": {"lat": 19.493378343138726, "lng": 109.91660927635533}, "feature": {"sight_features": "", "sight_content": ""}}, {"title": "诚和永发农场(东南门)", "address": "260县道附近", "image": "", "rank": 24, "time": 2, "location": {"lat": 22.54792074834624, "lng": 114.59432041430848}, "feature": {"sight_features": "", "sight_content": ""}}, {"title": "大坡山农场", "address": "263县道附近", "image": "", "rank": 25, "time": 2, "location": {"lat": 29.107597348056046, "lng": 107.01375189109966}, "feature": {"sight_features": "", "sight_content": ""}}, {"title": "西达农场南江队", "address": "148乡道附近", "image": "", "rank": 26, "time": 2, "location": {"lat": 24.543272315057642, "lng": 115.90875274625853}, "feature": {"sight_features": "", "sight_content": ""}}, {"title": "西南农场南大队", "address": "二六九县道", "image": "", "rank": 27, "time": 2, "location": {"lat": 23.33149558732734, "lng": 113.55509268881272}, "feature": {"sight_features": "", "sight_content": ""}}, {"title": "红光农场红岭队", "address": "049乡道西100米", "image": "", "rank": 28, "time": 2, "location": {"lat": 22.60919886263197, "lng": 114.24644262262933}, "feature": {"sight_features": "", "sight_content": ""}}, {"title": "正一农庄", "address": "267县道附近", "image": "", "rank": 29, "time": 2, "location": {"lat": 23.390828345978708, "lng": 113.32873200715854}, "feature": {"sight_features": "", "sight_content": ""}}, {"title": "白莲和谐休闲农庄", "address": "老城镇白莲墟文明南路", "image": "", "rank": 30, "time": 2, "location": {"lat": 19.915922600416394, "lng": 110.13048169594951}, "feature": {"sight_features": "", "sight_content": ""}}, {"title": "金江新加坡花园", "address": "金江镇", "image": "", "rank": 31, "time": 2, "location": {"lat": 19.742732842321328, "lng": 110.01663295114523}, "feature": {"sight_features": "", "sight_content": ""}}, {"title": "智达休闲山庄", "address": "智达农场(西达农贸市场斜对面)", "image": "", "rank": 32, "time": 2, "location": {"lat": 19.489235384925134, "lng": 109.89200880537932}, "feature": {"sight_features": "", "sight_content": ""}}, {"title": "鳄鱼恤", "address": "文化北路218号附近", "image": "", "rank": 33, "time": 2, "location": {"lat": 19.739376053545385, "lng": 110.01736404247411}, "feature": {"sight_features": "", "sight_content": ""}}, {"title": "澄迈县农业技术推广中心", "address": "金江镇文化南路", "image": "", "rank": 34, "time": 2, "location": {"lat": 19.72462612619992, "lng": 110.01419619055186}, "feature": {"sight_features": "", "sight_content": ""}}, {"title": "金江影剧院", "address": "级行政单位澄迈县金江镇文化北路", "image": "", "rank": 35, "time": 2, "location": {"lat": 19.74328721045948, "lng": 110.01631337267202}, "feature": {"sight_features": "", "sight_content": ""}}, {"title": "润丰供港基地", "address": "224国道", "image": "", "rank": 36, "time": 2, "location": {"lat": 18.878078730416323, "lng": 109.52217828024781}, "feature": {"sight_features": "", "sight_content": ""}}, {"title": "火美人演艺广场", "address": "文化北路附近", "image": "", "rank": 37, "time": 2, "location": {"lat": 38.738384813700875, "lng": 112.70693582346085}, "feature": {"sight_features": "", "sight_content": ""}}, {"title": "大丰荔枝园", "address": "澄迈县047乡道南50米五村知青农场", "image": "", "rank": 38, "time": 3.5, "location": {"lat": 19.910510980076957, "lng": 110.02379328687134}, "feature": {"sight_features": "", "sight_content": ""}}, {"title": "济公山", "address": "海南省澄迈县东南部", "image": "", "rank": 39, "time": 1.5, "location": {"lat": 19.74434867164637, "lng": 110.01351091010905}, "feature": {"sight_features": "", "sight_content": ""}}, {"title": "冯平符节纪念碑", "address": "海南省澄迈县金江镇西北", "image": "", "rank": 40, "time": 2, "location": {"lat": 19.742732842321328, "lng": 110.01663295114523}, "feature": {"sight_features": "", "sight_content": ""}}, {"title": "南泰鳄鱼湖", "address": "海南省澄迈县老城镇", "image": "", "rank": 41, "time": 2, "location": {"lat": 19.909492475908685, "lng": 110.13208813299755}, "feature": {"sight_features": "", "sight_content": ""}}, {"title": "马白山纪念园", "address": "海南省澄迈县马村镇", "image": "", "rank": 42, "time": 2, "location": {"lat": 19.958617489832275, "lng": 110.0374462289738}, "feature": {"sight_features": "", "sight_content": ""}}, {"title": "澄迈济公山旅游度假区", "address": "海南省澄迈县济公山", "image": "", "rank": 43, "time": 2, "location": {"lat": 19.74434867164637, "lng": 110.01351091010905}, "feature": {"sight_features": "", "sight_content": ""}}, {"title": "新春购物一条街", "address": "海南省澄迈县金江镇步行街", "image": "", "rank": 44, "time": 2, "location": {"lat": 19.742732842321328, "lng": 110.01663295114523}, "feature": {"sight_features": "", "sight_content": ""}}, {"title": "盈滨半岛", "address": "中国海南省澄迈县鲁能大道", "image": "", "rank": 45, "time": 2, "location": {"lat": 19.989035755181412, "lng": 110.11049493464749}, "feature": {"sight_features": "", "sight_content": ""}}, {"title": "罗驿古村", "address": "海南省澄迈县罗驿村", "image": "", "rank": 46, "time": 2, "location": {"lat": 19.901630168278366, "lng": 110.12575309839066}, "feature": {"sight_features": "", "sight_content": ""}}]}