{"cityName": "成县", "days": 2, "cityImage": "", "spots": [{"title": "鸡峰山", "address": "陇南市成县鸡峰镇鸡峰山庄", "image": "", "rank": 1, "time": 2, "location": {"lat": 33.68837110931877, "lng": 105.7011180605304}, "feature": {"sight_features": "", "sight_content": ""}}, {"title": "杜少陵祠", "address": "甘肃省成县县城东南3.5公里处 742508", "image": "", "rank": 2, "time": 7.5, "location": {"lat": 33.75663518735122, "lng": 105.74847790289836}, "feature": {"sight_features": "", "sight_content": ""}}, {"title": "成县金莲洞风景区", "address": "甘肃省成县店村镇乡新村 742500", "image": "", "rank": 3, "time": 2.0, "location": {"lat": 33.766700036584794, "lng": 105.85237510611422}, "feature": {"sight_features": "", "sight_content": ""}}, {"title": "陇南西狭颂摩崖", "address": "甘肃省成县西部 742500", "image": "", "rank": 4, "time": 2, "location": {"lat": 33.75663518735122, "lng": 99.07855949131206}, "feature": {"sight_features": "", "sight_content": ""}}, {"title": "成县文化遗产博物馆", "address": "甘肃省陇南市成县城关镇陇南北路文化遗产博物馆", "image": "", "rank": 5, "time": 2, "location": {"lat": 33.763713649692136, "lng": 105.74358440249718}, "feature": {"sight_features": "", "sight_content": ""}}, {"title": "西峡颂摩崖石刻", "address": "甘肃省成县县城西13公里处的天井山麓 742508", "image": "", "rank": 6, "time": 3.5, "location": {"lat": 33.75663518735122, "lng": 105.74847790289836}, "feature": {"sight_features": "", "sight_content": ""}}, {"title": "固原挂马林海", "address": "宁夏回族自治区彭阳县城西部30公里 756300", "image": "", "rank": 7, "time": 1.0, "location": {"lat": 35.85540546348971, "lng": 106.64454429656213}, "feature": {"sight_features": "", "sight_content": ""}}, {"title": "新派文化广场", "address": "205省道附近", "image": "", "rank": 8, "time": 2, "location": {"lat": 40.38230240600069, "lng": 116.84666042934258}, "feature": {"sight_features": "", "sight_content": ""}}, {"title": "保仁寺", "address": "陇南市成县西13公里处西狭颂风景区内", "image": "", "rank": 9, "time": 2, "location": {"lat": 33.70863168201132, "lng": 105.60341101949902}, "feature": {"sight_features": "", "sight_content": ""}}, {"title": "泰山庙", "address": "甘肃省陇南市成县大山庙", "image": "", "rank": 10, "time": 1.0, "location": {"lat": 33.74347963400998, "lng": 105.76775112936073}, "feature": {"sight_features": "", "sight_content": ""}}, {"title": "成县基督教", "address": "甘肃省陇南市成县", "image": "", "rank": 11, "time": 2.0, "location": {"lat": 33.75663518735122, "lng": 105.74847790289836}, "feature": {"sight_features": "", "sight_content": ""}}, {"title": "樱花山庄", "address": "甘肃省陇南市成县小川镇十天高速公路麦源香面业有限公司", "image": "", "rank": 12, "time": 2, "location": {"lat": 33.694145845871134, "lng": 105.5833353726568}, "feature": {"sight_features": "", "sight_content": ""}}, {"title": "避难广场", "address": "北大街与西大街交叉口西150米", "image": "", "rank": 13, "time": 2, "location": {"lat": 39.894427170250175, "lng": 119.23920226715785}, "feature": {"sight_features": "", "sight_content": ""}}, {"title": "核桃园度假村", "address": "支旗大路大路沟", "image": "", "rank": 14, "time": 2, "location": {"lat": 40.55402232076088, "lng": 118.75478978752876}, "feature": {"sight_features": "", "sight_content": ""}}, {"title": "莲湖公园儿童游乐场", "address": "西大街", "image": "", "rank": 15, "time": 2, "location": {"lat": 39.91357131364959, "lng": 116.6700940616933}, "feature": {"sight_features": "", "sight_content": ""}}, {"title": "杜甫草堂", "address": "甘肃省陇南市成县城关镇杜甫草堂", "image": "", "rank": 16, "time": 2.5, "location": {"lat": 33.723686470620805, "lng": 105.76684980554424}, "feature": {"sight_features": "", "sight_content": ""}}, {"title": "成县红二方面军长征纪念馆", "address": "陇南市成县西大街莲湖边", "image": "", "rank": 17, "time": 2, "location": {"lat": 33.74625305247923, "lng": 105.73412100457679}, "feature": {"sight_features": "", "sight_content": ""}}, {"title": "德惠轩画廊", "address": "205省道", "image": "", "rank": 18, "time": 2, "location": {"lat": 40.38230240600069, "lng": 116.84666042934258}, "feature": {"sight_features": "", "sight_content": ""}}, {"title": "天一艺术馆", "address": "南河桥木材加工厂附近", "image": "", "rank": 19, "time": 2, "location": {"lat": 33.73980360488166, "lng": 105.73968888178874}, "feature": {"sight_features": "", "sight_content": ""}}, {"title": "云峰山庄", "address": "205省道", "image": "", "rank": 20, "time": 2, "location": {"lat": 40.38230240600069, "lng": 116.84666042934258}, "feature": {"sight_features": "", "sight_content": ""}}, {"title": "城市农家乐", "address": "陇南中路附近", "image": "", "rank": 21, "time": 2, "location": {"lat": 33.752359441477104, "lng": 105.75141207950765}, "feature": {"sight_features": "", "sight_content": ""}}, {"title": "丽宁农家乐", "address": "505县道附近", "image": "", "rank": 22, "time": 2, "location": {"lat": 23.17104627480371, "lng": 107.6917112338362}, "feature": {"sight_features": "", "sight_content": ""}}, {"title": "飞天画廊", "address": "滨河北路成州国际大酒店1楼", "image": "", "rank": 23, "time": 2, "location": {"lat": 33.752604254361664, "lng": 105.74208490692294}, "feature": {"sight_features": "", "sight_content": ""}}, {"title": "成县大众农机专业合作社", "address": "205省道北50米", "image": "", "rank": 24, "time": 2, "location": {"lat": 40.382645894936516, "lng": 116.84666042934258}, "feature": {"sight_features": "", "sight_content": ""}}, {"title": "龙风山", "address": "陇南市-成县", "image": "", "rank": 25, "time": 2, "location": {"lat": 33.75663518735122, "lng": 105.74847790289836}, "feature": {"sight_features": "", "sight_content": ""}}, {"title": "千坝草原", "address": "甘肃省陇南市武都区东南部", "image": "", "rank": 26, "time": 2, "location": {"lat": 33.39807218808857, "lng": 104.9325933607497}, "feature": {"sight_features": "", "sight_content": ""}}]}