{"cityName": "澄城", "days": 2, "cityImage": "", "spots": [{"title": "澄城县城隍庙神楼", "address": "县政府西南5O米", "image": "", "rank": 1, "time": 1.0, "location": {"lat": 36.59936101830994, "lng": 114.53768406345772}, "feature": {"sight_features": "", "sight_content": ""}}, {"title": "澄城水库", "address": "陕西省渭南市澄城县长宁街", "image": "", "rank": 2, "time": 1.5, "location": {"lat": 35.19290642703748, "lng": 109.9446477726522}, "feature": {"sight_features": "", "sight_content": ""}}, {"title": "姿源黄花菜农民专业合作社", "address": "连家城01号", "image": "", "rank": 3, "time": 2, "location": {"lat": 35.00614453557223, "lng": 109.97050336867116}, "feature": {"sight_features": "", "sight_content": ""}}, {"title": "良周秦汉宫景区", "address": "陕西省渭南市澄城县良周村西边", "image": "", "rank": 4, "time": 2, "location": {"lat": 35.37773863265479, "lng": 109.8961827081848}, "feature": {"sight_features": "", "sight_content": ""}}, {"title": "尧头窑文化景区", "address": "陕西省渭南市澄城县尧杨路", "image": "", "rank": 5, "time": 2, "location": {"lat": 35.12590257036074, "lng": 109.85072432975085}, "feature": {"sight_features": "", "sight_content": ""}}, {"title": "儿童乐园", "address": "陕西省渭南市澄城县冯原镇冯原中心卫生院附近", "image": "", "rank": 6, "time": 2, "location": {"lat": 35.38249098427692, "lng": 109.79173564767474}, "feature": {"sight_features": "", "sight_content": ""}}, {"title": "吉智岛儿童乐园", "address": "渭南市澄城县", "image": "", "rank": 7, "time": 2, "location": {"lat": 35.19657281555104, "lng": 109.93843360325295}, "feature": {"sight_features": "", "sight_content": ""}}, {"title": "零食公园", "address": "陕西省渭南市澄城县古徵街", "image": "", "rank": 8, "time": 2, "location": {"lat": 35.19912640319719, "lng": 109.9493402556362}, "feature": {"sight_features": "", "sight_content": ""}}, {"title": "镰心文体广场", "address": "108国道东200米", "image": "", "rank": 9, "time": 2, "location": {"lat": 36.13357010619177, "lng": 111.55365958310907}, "feature": {"sight_features": "", "sight_content": ""}}, {"title": "艺达游乐园", "address": "青正街附近", "image": "", "rank": 10, "time": 2, "location": {"lat": 30.905420686070098, "lng": 103.59956517186778}, "feature": {"sight_features": "", "sight_content": ""}}, {"title": "尧头村休闲广场", "address": "陕西省渭南市澄城县尧头村", "image": "", "rank": 11, "time": 2, "location": {"lat": 35.16078536393459, "lng": 109.84576397116545}, "feature": {"sight_features": "", "sight_content": ""}}, {"title": "长宏广场", "address": "宝塔路附近", "image": "", "rank": 12, "time": 2, "location": {"lat": 39.82761223518967, "lng": 118.13031314897019}, "feature": {"sight_features": "", "sight_content": ""}}, {"title": "刘卓弘运沙场", "address": "善尧路附近", "image": "", "rank": 13, "time": 2, "location": {"lat": 35.24182387158465, "lng": 109.83467024396485}, "feature": {"sight_features": "", "sight_content": ""}}, {"title": "世纪美辰儿童乐园", "address": "陕西省渭南市澄城县宝塔路世纪美辰二楼", "image": "", "rank": 14, "time": 2, "location": {"lat": 35.195345200087665, "lng": 109.94815448337998}, "feature": {"sight_features": "", "sight_content": ""}}, {"title": "方圆家居画廊", "address": "青正街", "image": "", "rank": 15, "time": 2, "location": {"lat": 30.905420686070098, "lng": 103.59956517186778}, "feature": {"sight_features": "", "sight_content": ""}}, {"title": "尚美书画艺术社", "address": "青正街四路", "image": "", "rank": 16, "time": 2, "location": {"lat": 30.905006484617545, "lng": 103.60258336249991}, "feature": {"sight_features": "", "sight_content": ""}}, {"title": "澄城图书馆", "address": "长宁街", "image": "", "rank": 17, "time": 1.5, "location": {"lat": 30.2671438165059, "lng": 120.1787707526346}, "feature": {"sight_features": "", "sight_content": ""}}, {"title": "古征书画院", "address": "长宁街", "image": "", "rank": 18, "time": 2, "location": {"lat": 30.2671438165059, "lng": 120.1787707526346}, "feature": {"sight_features": "", "sight_content": ""}}, {"title": "澄城县博物馆", "address": "古征街南段与东九路交口东160米", "image": "", "rank": 19, "time": 1.0, "location": {"lat": 29.592148474812372, "lng": 105.08779298914357}, "feature": {"sight_features": "", "sight_content": ""}}, {"title": "体育场水上乐园", "address": "古徵街南段澄城体育场游泳馆内", "image": "", "rank": 20, "time": 2, "location": {"lat": 35.16498193425955, "lng": 109.9515050174067}, "feature": {"sight_features": "", "sight_content": ""}}, {"title": "欢乐雪", "address": "东五路4号", "image": "", "rank": 21, "time": 2, "location": {"lat": 23.12835106562746, "lng": 113.11378627327697}, "feature": {"sight_features": "", "sight_content": ""}}, {"title": "良周宫殿遗址", "address": "陕西省澄城县刘家洼乡良周村北", "image": "", "rank": 22, "time": 2, "location": {"lat": 35.37773863265479, "lng": 109.8961827081848}, "feature": {"sight_features": "", "sight_content": ""}}]}