{"cityName": "承德县", "days": 2, "cityImage": "", "spots": [{"title": "老沟庄园景区", "address": "承德市承德县双峰寺镇老西营村", "image": "", "rank": 1, "time": 2, "location": {"lat": 41.04655122664774, "lng": 117.95811846952594}, "feature": {"sight_features": "", "sight_content": ""}}, {"title": "承德朝阳洞", "address": "承德市承德县仓子乡境内", "image": "", "rank": 2, "time": 4.5, "location": {"lat": 41.020109946466015, "lng": 118.10170591291987}, "feature": {"sight_features": "特色1 承德朝阳洞是“承德十大景”之一。 特色2 朝阳洞的奇特，就在于它“横贯山腹”。 特色3 朝阳洞下方的云水洞，其泉四季不竭，严冬雾气缭绕，盛夏寒气袭人，铮铮琮琮，蔚为壮观。", "sight_content": "承德朝阳洞是“承德十大景”之一，距承德市区20公里，位于河北承德县仓子乡境内。据清代志书《承德府志》记载，朝阳洞“在府治东稍南三十七里。石窦嵌空，横贯山腹”，“晓日初升光射罅漏，隔山可见朝阳。”朝阳洞由此而得名。朝阳洞的奇特，就在于它“横贯山腹”。每当旭日初升，阳光透过洞口，宛如一柄金剑射穿了山崖，在洞口处可以看到山对面的太阳，仿佛嵌在另一侧的洞口上。其次它在悬崖上拦腰生出一道平台，平台内侧那突出的石檐，正好作了天然的屋顶。每逢雨天，石檐落下道道瀑布。透过雨帘望见苍茫的远山，别是一番情趣。\n\n\n朝阳洞以洞得名，以洞取胜。在主洞周围上下，分布着大小石洞数百个，大者如琼楼广厦，小者仅可容身。洞中有洞，洞外有洞，洞套洞，洞连洞，走入洞中，就象走入了迷宫。朝阳洞下方的云水洞，有清泉一眼，水质清冽甜爽，饮之爽心提神，是过去观内道人的取水处。其泉四季不竭，严冬雾气缭绕，盛夏寒气袭人，铮铮琮琮，蔚为壮观。\n\n\n洞内的通道两侧，还塑有十八罗汉佛像，是热河都统汤玉麟于民国十九年（1930）增修的。东洞口外崖壁上有摩崖刻字：“名山胜境”、“洞天福地”、“大观”，分别为汤玉麟、张贵良、耿世瑞于1930年所题。"}}, {"title": "唐家湾丹霞温泉度假区", "address": "承德市承德县仓子乡七家村里", "image": "", "rank": 3, "time": 2, "location": {"lat": 40.99347527020818, "lng": 118.15342769238653}, "feature": {"sight_features": "特色1 依托丹霞地貌，被誉为“承德度假天堂”", "sight_content": "唐家湾丹霞温泉度假区位于距离承德市区20公里的仓子乡境内，车程30分钟。唐家湾丹霞温泉度假区由承德县恒伟唐家湾景区开发有限公司独资开发，依托丹霞地貌景观群、滨水湿地、地热温泉和优越的地理位置等资源优势，斥资21.36亿元致力打造一个集观光旅游、餐饮娱乐、养生养老、休闲度假、户外运动、亲子娱乐、农业采摘于一体的大型综合性国家4A级旅游度假区。\n景区规划控制面积1106.37公顷，其中水域面积27.71公顷，该项目已被省政府列为省重点建设项目。整个景区项目建成后，是现代都市人休闲，亲子、情侣度假的绝佳去处，被誉为“承德度假天堂”。"}}, {"title": "叮当溶洞", "address": "承德市承德县仓子乡唐家湾村", "image": "", "rank": 4, "time": 2, "location": {"lat": 40.9495363663251, "lng": 118.19676023801757}, "feature": {"sight_features": "特色1 休闲度假、旅游观光的理想天地", "sight_content": "叮当溶洞位于河北省承德县仓子乡唐家湾村，属于喀斯特地貌风景区，现开发洞穴面积约1万平方米，连接隧道1500余米，洞穴长度2000米。\n同时建有时光隧道、桃花园、溶洞观光、鬼洞、天眼佛洞、财神庙、人工湖、滑索、玻璃吊桥等项目。"}}, {"title": "康熙温泉行宫度假村", "address": "承德市承德县头沟镇汤泉村", "image": "", "rank": 5, "time": 2, "location": {"lat": 41.216788332329436, "lng": 118.11404298477683}, "feature": {"sight_features": "", "sight_content": ""}}, {"title": "老沟庄园CS", "address": "承德市承德县双峰寺镇老西营村", "image": "", "rank": 6, "time": 2, "location": {"lat": 41.04655122664774, "lng": 117.95811846952594}, "feature": {"sight_features": "", "sight_content": ""}}, {"title": "应季水果采摘", "address": "小营村", "image": "", "rank": 7, "time": 2, "location": {"lat": 40.05446923984222, "lng": 116.35382276569138}, "feature": {"sight_features": "", "sight_content": ""}}, {"title": "云枫岭", "address": "承德市承德县双峰寺镇小井村", "image": "", "rank": 8, "time": 2, "location": {"lat": 41.06096591412796, "lng": 117.93170427031035}, "feature": {"sight_features": "", "sight_content": ""}}, {"title": "峡谷水乡", "address": "承德市承德县下板城镇张家店村元宝沟", "image": "", "rank": 9, "time": 0.25, "location": {"lat": 40.819373797395286, "lng": 118.20957116603104}, "feature": {"sight_features": "", "sight_content": ""}}, {"title": "根远商店(农家游客栈)", "address": "新杖子乡涝洼村一组山嘴街", "image": "", "rank": 10, "time": 2, "location": {"lat": 40.80212738482842, "lng": 117.91483770761434}, "feature": {"sight_features": "", "sight_content": ""}}, {"title": "热河地质博物馆", "address": "101国道", "image": "", "rank": 11, "time": 2, "location": {"lat": 42.37729533175982, "lng": 122.53808546078889}, "feature": {"sight_features": "", "sight_content": ""}}, {"title": "汤泉行宫", "address": "河北省承德县头沟镇汤泉村 067404", "image": "", "rank": 12, "time": null, "location": {"lat": 41.216788332329436, "lng": 118.11404298477683}, "feature": {"sight_features": "", "sight_content": ""}}, {"title": "安匠高山峡谷冲浪漂流", "address": "安匠乡湾子村灯厂东100米", "image": "", "rank": 13, "time": 2, "location": {"lat": 40.74665367693773, "lng": 117.66370711471933}, "feature": {"sight_features": "", "sight_content": ""}}, {"title": "黄旗湾水上乐园", "address": "双桥区上板城镇上滦线黄旗湾子村东南方80米", "image": "", "rank": 14, "time": 2, "location": {"lat": 40.98082447740105, "lng": 117.94942790898834}, "feature": {"sight_features": "", "sight_content": ""}}, {"title": "黄旗湾游乐园", "address": "上板城镇黄旗湾子村黄旗湾游乐园", "image": "", "rank": 15, "time": 2, "location": {"lat": 40.78583806669447, "lng": 117.96669106278735}, "feature": {"sight_features": "", "sight_content": ""}}, {"title": "梦幻岛儿童乐园", "address": "河北省承德市承德县板城大街", "image": "", "rank": 16, "time": 2, "location": {"lat": 40.775414963381614, "lng": 118.18088298906105}, "feature": {"sight_features": "", "sight_content": ""}}, {"title": "叮当洞景区", "address": "095乡道东50米", "image": "", "rank": 17, "time": 2, "location": {"lat": 35.37720857982394, "lng": 113.08436330673442}, "feature": {"sight_features": "", "sight_content": ""}}, {"title": "淘气城儿童主题乐园", "address": "下板城万荣广场3层", "image": "", "rank": 18, "time": 2, "location": {"lat": 30.441001923869244, "lng": 122.40970682374692}, "feature": {"sight_features": "", "sight_content": ""}}, {"title": "承德县天天农场", "address": "河北省承德市承德县下仓线", "image": "", "rank": 19, "time": 2, "location": {"lat": 40.84617089167452, "lng": 118.16205073358708}, "feature": {"sight_features": "", "sight_content": ""}}, {"title": "周氏水族馆", "address": "河北省承德市承德县珠源路", "image": "", "rank": 20, "time": 2, "location": {"lat": 40.77467899747176, "lng": 118.18165819258056}, "feature": {"sight_features": "", "sight_content": ""}}, {"title": "孔家生态采摘园", "address": "语录街朝梁子村口往东200米", "image": "", "rank": 21, "time": 2, "location": {"lat": 40.78674761483182, "lng": 118.2078617634083}, "feature": {"sight_features": "", "sight_content": ""}}, {"title": "丽水泉漂流", "address": "两家满族乡两家村(久清超市向西100米)", "image": "", "rank": 22, "time": 2, "location": {"lat": 41.32059654623117, "lng": 118.04997022948052}, "feature": {"sight_features": "", "sight_content": ""}}, {"title": "孔家采摘园", "address": "下板城朝阳家园前行50米", "image": "", "rank": 23, "time": 2, "location": {"lat": 34.86431348628433, "lng": 117.57991307434176}, "feature": {"sight_features": "", "sight_content": ""}}, {"title": "志川葡萄采摘园", "address": "上滦线附近", "image": "", "rank": 24, "time": 2, "location": {"lat": 40.788515215533664, "lng": 117.97787417677604}, "feature": {"sight_features": "", "sight_content": ""}}, {"title": "承德冰雪大峡谷", "address": "下板城镇张家店", "image": "", "rank": 25, "time": 4.5, "location": {"lat": 40.75291573543631, "lng": 118.17326129979214}, "feature": {"sight_features": "", "sight_content": ""}}, {"title": "二龙山生态度假山庄", "address": "上谷乡山湾子南侧", "image": "", "rank": 26, "time": 2, "location": {"lat": 40.460324748601735, "lng": 119.21559483788107}, "feature": {"sight_features": "", "sight_content": ""}}, {"title": "永和垂钓乐园", "address": "东北线与S52承秦高速入口交叉口北100米", "image": "", "rank": 27, "time": 2, "location": {"lat": 40.71059651705086, "lng": 118.52454627275839}, "feature": {"sight_features": "", "sight_content": ""}}, {"title": "板城商业街", "address": "河北省承德县板城大街西204米", "image": "", "rank": 28, "time": 2, "location": {"lat": 40.775414963381614, "lng": 118.17905044582069}, "feature": {"sight_features": "", "sight_content": ""}}, {"title": "柳河十八湾花海漂游", "address": "承德市-承德县-大营子乡幸福村獐子沟", "image": "", "rank": 29, "time": 2, "location": {"lat": 40.69455881888011, "lng": 118.00631696812141}, "feature": {"sight_features": "", "sight_content": ""}}, {"title": "大冰沟村", "address": "承德市-承德县", "image": "", "rank": 30, "time": 2, "location": {"lat": 40.77436719493557, "lng": 118.1804557369944}, "feature": {"sight_features": "", "sight_content": ""}}]}