{"cityName": "陈巴尔虎旗", "days": 2, "cityImage": "", "spots": [{"title": "莫尔格勒河", "address": "呼伦贝尔市陈巴尔虎旗境内", "image": "", "rank": 1, "time": 2.0, "location": {"lat": 49.33491428888495, "lng": 119.43046248676728}, "feature": {"sight_features": "", "sight_content": ""}}, {"title": "金帐汗蒙古部落", "address": "呼伦贝尔市陈巴尔虎旗呼伦贝尔草原德莫尔格勒河畔", "image": "", "rank": 2, "time": 7.5, "location": {"lat": 49.266508233668375, "lng": 119.30558517511076}, "feature": {"sight_features": "特色1 感受浓浓的游牧部落文化。", "sight_content": "金帐汗蒙古部落位于呼伦贝尔草原莫尔格勒河畔，是呼伦贝尔境内一个以游牧部落为景观的旅游景点。目前景区内有篝火狂欢晚会、精彩的套马驯马表演、蒙古式博克、角力擂台赛、祭敖包、萨满宗教文化表演等观光节目。"}}, {"title": "呼和诺尔草原旅游区", "address": "呼伦贝尔市陈旗白音哈达苏木", "image": "", "rank": 3, "time": 3.5, "location": {"lat": 47.43488780374774, "lng": 122.11272072428518}, "feature": {"sight_features": "", "sight_content": ""}}, {"title": "巴尔虎狼岛", "address": "呼伦贝尔市陈巴尔虎旗巴彦库仁镇宝日希勒路南三公里", "image": "", "rank": 4, "time": 2, "location": {"lat": 49.35177985628338, "lng": 119.80519575059833}, "feature": {"sight_features": "", "sight_content": ""}}, {"title": "海纳蒙古庄园", "address": "301省道北50米", "image": "", "rank": 5, "time": 2, "location": {"lat": 38.13510215172757, "lng": 114.42863974573754}, "feature": {"sight_features": "", "sight_content": ""}}, {"title": "敖包", "address": "呼伦贝尔市陈巴尔虎旗呼伦贝尔草原德莫尔格勒河畔金帐汗部落内", "image": "", "rank": 6, "time": 2, "location": {"lat": 49.51242346263789, "lng": 119.78890700944693}, "feature": {"sight_features": "", "sight_content": ""}}, {"title": "赛马场", "address": "呼和诺尔旅游景区内", "image": "", "rank": 7, "time": 1.0, "location": {"lat": 49.28270783096317, "lng": 119.2175526400822}, "feature": {"sight_features": "", "sight_content": ""}}, {"title": "一代天骄草原景区", "address": "呼伦贝尔市陈巴尔虎旗西乌珠尔苏木G301国道1.9公里", "image": "", "rank": 8, "time": 1.5, "location": {"lat": 49.48565636795022, "lng": 118.5815621323405}, "feature": {"sight_features": "", "sight_content": ""}}, {"title": "190天边草原游牧部落", "address": "呼伦贝尔市陈巴尔虎旗边防公路904县道190界碑处", "image": "", "rank": 9, "time": 2.0, "location": {"lat": 49.97158823222546, "lng": 118.95103476998636}, "feature": {"sight_features": "", "sight_content": ""}}, {"title": "垂钓区", "address": "呼伦贝尔草原德莫尔格勒河畔金帐汗部落内", "image": "", "rank": 10, "time": 2, "location": {"lat": 49.51242346263789, "lng": 119.78890700944693}, "feature": {"sight_features": "", "sight_content": ""}}, {"title": "阿民跑马场", "address": "904县道西50米", "image": "", "rank": 11, "time": 2, "location": {"lat": 37.45026736821324, "lng": 112.85791540313369}, "feature": {"sight_features": "", "sight_content": ""}}, {"title": "白音哈达草原景区", "address": "海满一级公路南100米", "image": "", "rank": 12, "time": 2, "location": {"lat": 49.30530430050703, "lng": 119.73685805723184}, "feature": {"sight_features": "", "sight_content": ""}}, {"title": "金帐汗部落高尔夫练习场", "address": "陈旗巴彦哈达苏木金帐汗部落附近", "image": "", "rank": 13, "time": 2, "location": {"lat": 49.51242346263789, "lng": 119.78890700944693}, "feature": {"sight_features": "", "sight_content": ""}}, {"title": "行者敖包", "address": "呼伦贝尔市陈巴尔虎旗呼和诺尔旅游景区内", "image": "", "rank": 14, "time": 2, "location": {"lat": 49.28270783096317, "lng": 119.2175526400822}, "feature": {"sight_features": "", "sight_content": ""}}, {"title": "维丽斯广场", "address": "巴尔虎大街与301国道交叉口东北50米", "image": "", "rank": 15, "time": 2, "location": {"lat": 49.33709659990722, "lng": 119.4622244531925}, "feature": {"sight_features": "", "sight_content": ""}}, {"title": "民族博物馆", "address": "陈旗巴彦库仁镇巴尔虎大街", "image": "", "rank": 16, "time": 2.0, "location": {"lat": 49.33709659990722, "lng": 119.4622244531925}, "feature": {"sight_features": "", "sight_content": ""}}, {"title": "胡列也吐度假村", "address": "呼伦贝尔陈巴尔虎旗东乌珠尔苏木海拉图嘎查", "image": "", "rank": 17, "time": 2, "location": {"lat": 49.250729816504204, "lng": 118.98005202680723}, "feature": {"sight_features": "", "sight_content": ""}}, {"title": "恩和音浑迪", "address": "呼伦贝尔市陈巴尔虎旗", "image": "", "rank": 18, "time": 2, "location": {"lat": 49.33491428888495, "lng": 119.43046248676728}, "feature": {"sight_features": "", "sight_content": ""}}, {"title": "莫日格勒草原景区", "address": "呼伦贝尔市陈巴尔虎旗莫日格勒河畔", "image": "", "rank": 19, "time": 2, "location": {"lat": 49.33491428888495, "lng": 119.43046248676728}, "feature": {"sight_features": "", "sight_content": ""}}, {"title": "默日根", "address": "呼伦贝尔市-陈巴尔虎旗-呼和诺尔旅游景区", "image": "", "rank": 20, "time": 2, "location": {"lat": 49.28270783096317, "lng": 119.2175526400822}, "feature": {"sight_features": "", "sight_content": ""}}, {"title": "准查力其格那浑迪", "address": "呼伦贝尔市-陈巴尔虎旗", "image": "", "rank": 21, "time": 2, "location": {"lat": 49.33491428888495, "lng": 119.43046248676728}, "feature": {"sight_features": "", "sight_content": ""}}, {"title": "准松格乃温都日", "address": "呼伦贝尔市-陈巴尔虎旗", "image": "", "rank": 22, "time": 2, "location": {"lat": 49.33491428888495, "lng": 119.43046248676728}, "feature": {"sight_features": "", "sight_content": ""}}, {"title": "八大关牧场", "address": "内蒙古呼伦贝尔陈巴尔虎旗(黑山头到满洲里的边防公路186公里到187公里之间)", "image": "", "rank": 23, "time": 2, "location": {"lat": 49.604098854866066, "lng": 117.38543585768029}, "feature": {"sight_features": "", "sight_content": ""}}, {"title": "天下草原游牧部落", "address": "呼伦贝尔市陈巴尔虎旗巴彦哈达苏木", "image": "", "rank": 24, "time": 2, "location": {"lat": 49.42027337270272, "lng": 119.26909046814008}, "feature": {"sight_features": "", "sight_content": ""}}]}