{"cityName": "城固", "days": 2, "cityImage": "", "spots": [{"title": "五门堰", "address": "汉中市城固县许家庙镇东南", "image": "", "rank": 1, "time": 2, "location": {"lat": 33.257924434644174, "lng": 107.25419333549158}, "feature": {"sight_features": "", "sight_content": ""}}, {"title": "新世纪广场", "address": "汉中市城固县张骞路与南一路交东南100米", "image": "", "rank": 2, "time": 1.0, "location": {"lat": 33.15340260740711, "lng": 107.3268094513914}, "feature": {"sight_features": "", "sight_content": ""}}, {"title": "城固钟楼", "address": "汉中市城固县中山街与南一路交叉口西南50米", "image": "", "rank": 3, "time": 1.5, "location": {"lat": 33.16217464364192, "lng": 107.33980093432085}, "feature": {"sight_features": "", "sight_content": ""}}, {"title": "天汉丝路花海旅游度假区", "address": "汉中市城固县董小路董家营乡中心小学东南220米", "image": "", "rank": 4, "time": 2, "location": {"lat": 33.0837832070454, "lng": 107.27826545281883}, "feature": {"sight_features": "", "sight_content": ""}}, {"title": "江滨公园", "address": "三一六国道与一零八国道交口东100米", "image": "", "rank": 5, "time": 1.0, "location": {"lat": 33.12346227590733, "lng": 107.20429686161778}, "feature": {"sight_features": "", "sight_content": ""}}, {"title": "天汉丝路花海生态旅游景区", "address": "董家营镇徐李社区", "image": "", "rank": 6, "time": 2, "location": {"lat": 33.07239729908527, "lng": 107.2897831236269}, "feature": {"sight_features": "", "sight_content": ""}}, {"title": "上元古镇欢乐水世界", "address": "汉中市城固县上元观古镇向东900米", "image": "", "rank": 7, "time": 4.5, "location": {"lat": 33.162399385178446, "lng": 107.34061258029828}, "feature": {"sight_features": "", "sight_content": ""}}, {"title": "金沙湾水上乐园", "address": "二里镇黄岗村金沙湾度假村", "image": "", "rank": 8, "time": 2, "location": {"lat": 39.62510465312963, "lng": 121.47106380314892}, "feature": {"sight_features": "", "sight_content": ""}}, {"title": "南山生态园", "address": "天明镇中台村", "image": "", "rank": 9, "time": 2, "location": {"lat": 32.984062279530704, "lng": 107.2372664875128}, "feature": {"sight_features": "", "sight_content": ""}}, {"title": "重庆天醉园", "address": "108国道", "image": "", "rank": 10, "time": 1.5, "location": {"lat": 36.13357010619177, "lng": 111.55186297208911}, "feature": {"sight_features": "", "sight_content": ""}}, {"title": "堰水山庄", "address": "陕西省城固县城固县城南 723200", "image": "", "rank": 11, "time": null, "location": {"lat": 33.162399385178446, "lng": 107.34061258029828}, "feature": {"sight_features": "", "sight_content": ""}}, {"title": "福星啤酒广场", "address": "西环三路（张骞路）北段福星商务会馆后院", "image": "", "rank": 12, "time": 2, "location": {"lat": 33.16576599412035, "lng": 107.32857504661702}, "feature": {"sight_features": "", "sight_content": ""}}, {"title": "栗子园", "address": "丰顺家园旁", "image": "", "rank": 13, "time": 2, "location": {"lat": 33.181710479719634, "lng": 107.33020924220416}, "feature": {"sight_features": "", "sight_content": ""}}, {"title": "二郎洞", "address": "陕西省城固县大盘乡 723200", "image": "", "rank": 14, "time": 1.0, "location": {"lat": 32.848963373260446, "lng": 107.23624820162398}, "feature": {"sight_features": "", "sight_content": ""}}, {"title": "汉桂西汉龙泉", "address": "陕西省汉中市城固县崔家山镇孟家营孟五路蓝天小区附近", "image": "", "rank": 15, "time": 2, "location": {"lat": 33.15479099679063, "lng": 107.19562443517351}, "feature": {"sight_features": "", "sight_content": ""}}, {"title": "美吉乐儿童主题乐园(城固店)", "address": "其他东二路荷花园新市场内靠西面2楼", "image": "", "rank": 16, "time": 2, "location": {"lat": 23.40042623198284, "lng": 116.71844952622757}, "feature": {"sight_features": "", "sight_content": ""}}, {"title": "基督教会", "address": "民主巷11号", "image": "", "rank": 17, "time": 2, "location": {"lat": 24.419878801650267, "lng": 111.5786380030887}, "feature": {"sight_features": "", "sight_content": ""}}, {"title": "城固县韩家祠堂", "address": "陕西省汉中市城固县", "image": "", "rank": 18, "time": 2, "location": {"lat": 33.162399385178446, "lng": 107.34061258029828}, "feature": {"sight_features": "", "sight_content": ""}}, {"title": "博望广场", "address": "汉中市城固县", "image": "", "rank": 19, "time": 2, "location": {"lat": 33.162399385178446, "lng": 107.34061258029828}, "feature": {"sight_features": "", "sight_content": ""}}, {"title": "桃花园度假村", "address": "汉中城固县博望镇博望村内（汉运司车站南300米）", "image": "", "rank": 20, "time": 2, "location": {"lat": 33.15732163476665, "lng": 107.34026304782775}, "feature": {"sight_features": "", "sight_content": ""}}, {"title": "伏牛山庄", "address": "陕西省汉中市城固县桔园景区附近", "image": "", "rank": 21, "time": 2, "location": {"lat": 33.265015514473, "lng": 107.24774014316563}, "feature": {"sight_features": "", "sight_content": ""}}, {"title": "天正度假村", "address": "博望镇强家坎村", "image": "", "rank": 22, "time": 2, "location": {"lat": 33.18065420908755, "lng": 107.29465515722133}, "feature": {"sight_features": "", "sight_content": ""}}, {"title": "柑桔观光度假村", "address": "石城路附近", "image": "", "rank": 23, "time": 2, "location": {"lat": 30.450938557548277, "lng": 120.09023075314602}, "feature": {"sight_features": "", "sight_content": ""}}, {"title": "偃水山庄", "address": "陕西汉中市城固县城南3公里处", "image": "", "rank": 24, "time": 2, "location": {"lat": 33.162399385178446, "lng": 107.34061258029828}, "feature": {"sight_features": "", "sight_content": ""}}, {"title": "湑水漂流", "address": "汉中市城固县桔园镇小北村", "image": "", "rank": 25, "time": 2, "location": {"lat": 33.307700404413936, "lng": 107.28604995277499}, "feature": {"sight_features": "", "sight_content": "湑水漂流位于山清水秀的小北村，这里有得天独厚的天然太极八卦和湑水河，水资源丰富，尽情体验奇山秀水的诗情画意和破浪飞舟的奇妙感受。"}}, {"title": "星光儿童乐园绿动体感游戏", "address": "经贸市场三楼(星光儿童乐园内)", "image": "", "rank": 26, "time": 2, "location": {"lat": 34.20718112707789, "lng": 108.91446549282381}, "feature": {"sight_features": "", "sight_content": ""}}, {"title": "鲁卡奇儿童乐园", "address": "民主街33号", "image": "", "rank": 27, "time": 2, "location": {"lat": 38.895625430403605, "lng": 121.65297087732633}, "feature": {"sight_features": "", "sight_content": ""}}, {"title": "智多星成长乐园", "address": "张骞路18号", "image": "", "rank": 28, "time": 2, "location": {"lat": 33.15808876522171, "lng": 107.32700063146494}, "feature": {"sight_features": "", "sight_content": ""}}, {"title": "白鹭园农家乐", "address": "柳林镇拥军路", "image": "", "rank": 29, "time": 2, "location": {"lat": 33.148109391973975, "lng": 107.19928178275225}, "feature": {"sight_features": "", "sight_content": ""}}, {"title": "野牧生态农业", "address": "城固二里镇金沙滩风景区牧野山庄(西汉高速汉中东出口)", "image": "", "rank": 30, "time": 2, "location": {"lat": 33.05297102726481, "lng": 107.14488985303856}, "feature": {"sight_features": "", "sight_content": ""}}, {"title": "星宇城真人密室逃脱俱乐部", "address": "北环路城固一中向西400米锦园物流中心院内二楼", "image": "", "rank": 31, "time": 2, "location": {"lat": 33.166743494997895, "lng": 107.33111362205598}, "feature": {"sight_features": "", "sight_content": ""}}, {"title": "李固墓", "address": "陕西省城固县柳林镇李固庙村", "image": "", "rank": 32, "time": 2, "location": {"lat": 33.13367627138677, "lng": 107.23254236890364}, "feature": {"sight_features": "", "sight_content": ""}}, {"title": "汉中南沙河", "address": "陕西省城固县巴山", "image": "", "rank": 33, "time": 2, "location": {"lat": 33.162399385178446, "lng": 107.34061258029828}, "feature": {"sight_features": "", "sight_content": ""}}, {"title": "么儿拐", "address": "汉中市-城固县", "image": "", "rank": 34, "time": 2, "location": {"lat": 33.162399385178446, "lng": 107.34061258029828}, "feature": {"sight_features": "", "sight_content": ""}}, {"title": "三么田湾", "address": "汉中市-城固县", "image": "", "rank": 35, "time": 2, "location": {"lat": 33.162399385178446, "lng": 107.34061258029828}, "feature": {"sight_features": "", "sight_content": ""}}]}