{"cityName": "澄江", "days": 2, "cityImage": "", "spots": [{"title": "抚仙湖景区", "address": "玉溪市江川区澄川线", "image": "", "rank": 1, "time": 2.5, "location": {"lat": 24.575194071226957, "lng": 102.84157921688022}, "feature": {"sight_features": "", "sight_content": ""}}, {"title": "禄充风景区", "address": "玉溪市澄江县抚仙湖", "image": "", "rank": 2, "time": 3.5, "location": {"lat": 24.632787903313762, "lng": 102.92890081133946}, "feature": {"sight_features": "", "sight_content": ""}}, {"title": "月亮湾湿地公园", "address": "玉溪市澄江县澄阳路", "image": "", "rank": 3, "time": 1.5, "location": {"lat": 24.753065174689294, "lng": 102.98746542043277}, "feature": {"sight_features": "", "sight_content": ""}}, {"title": "澄江动物化石群", "address": "玉溪市澄江县城以东5公里的帽天山", "image": "", "rank": 4, "time": 2.0, "location": {"lat": 24.66431553178561, "lng": 102.97789089853073}, "feature": {"sight_features": "", "sight_content": ""}}, {"title": "帽天山国家地质公园", "address": "玉溪市澄江县", "image": "", "rank": 5, "time": 1.5, "location": {"lat": 24.67941490881611, "lng": 102.91455487234985}, "feature": {"sight_features": "", "sight_content": ""}}, {"title": "新河口湖滨公园", "address": "玉溪市澄江县抚仙湖北岸", "image": "", "rank": 6, "time": 2, "location": {"lat": 24.632017921754773, "lng": 102.94171906952167}, "feature": {"sight_features": "", "sight_content": ""}}, {"title": "笔架山", "address": "玉溪市澄江县禄充村抚仙湖禄充风景区内", "image": "", "rank": 7, "time": 2.5, "location": {"lat": 24.56330219055585, "lng": 102.84896186615217}, "feature": {"sight_features": "", "sight_content": ""}}, {"title": "樱花谷", "address": "玉溪市澄江县抚仙湖环湖路7号水下古城旁", "image": "", "rank": 8, "time": 1.5, "location": {"lat": 24.5737040450753, "lng": 102.96704897175799}, "feature": {"sight_features": "", "sight_content": ""}}, {"title": "抚仙湖奇石博物馆", "address": "玉溪市澄江县环湖北路19号", "image": "", "rank": 9, "time": 7.5, "location": {"lat": 24.611057394194155, "lng": 102.9593866054215}, "feature": {"sight_features": "特色1 抚仙湖奇石博物馆是集文化科普和珍稀品收藏为一体的多功能旅游文化艺术馆。 特色2 我馆坐落于澄江帽天山下抚仙湖北岸，东接月亮湾湿地，毗邻悦椿度假酒店，风景秀丽，环境优雅", "sight_content": "云南七宝石艺有限公司成立于2014年3月7日，前身是玉溪市国风艺术精品馆，公司坐落于抚仙湖北岸，东接月亮湾湿地，毗邻悦椿度假酒店、樱花谷旅游度假区，与禄冲风景区、孤岛风景区隔海相望，风景秀丽、环境优雅、绿树成荫。公司下设抚仙湖奇石博展馆，占地3600多平方米，成套标准化信息化办公楼，设备齐全（放映机、综合集成网络布线等一系列软硬件设施），公司拥有自己的电子商务网络服务平台-----抚仙湖奇石博物馆网（www.trlqs.com）,在平台即可了解抚仙湖、帽天山等特色资源及公司独特的艺术文化，是云南省最大的私营收藏展示艺术馆，馆内为现代艺术风格，主要收藏展示国内各类珍稀观赏石、古生物化石、矿物晶体标本及根艺，如：享誉世界的大理石画；晶莹润泽、质地华贵的云南黄龙玉；金沙江、怒江、澜沧江的水石；东川、会泽的铁胆石；青金玉，产于阿富汗，是一种古老而又神圣的玉石，呈蓝色，质地致密、细腻。明清以来帝王祭天只有天坛用青金石，清朝四品大臣，帽上顶戴也是青金石顶。滇南、滇西的宝玉石和蜚声国外的元江红宝石；文山的矿物晶体，邻国缅甸的树化玉……，总价值上亿元。是集文化科普和珍稀品收藏为一体的多功能旅游文化艺术馆。\n抚仙湖奇石博物馆坐落在《世界首批国家地质公园、澄江化石地世界自然遗产》帽天山下，附近有月亮湾湿地公园，毗邻悦春度假酒店，风景秀丽。\n我馆坐落于澄江帽天山下抚仙湖北岸，东接月亮湾湿地，毗邻悦椿度假酒店，风景秀丽，环境优雅。占地3600余平方米，现是云南省最大的私营收藏展示艺术馆，馆内为现代艺术风格，主要收藏展示国内外各类珍稀观赏石、古生物化石、矿物晶体及根艺，大小展品上万件，是集文化科普和珍稀品收藏为一体的多功能旅游文化艺术馆。\n博物馆在观赏石品质、展览效果等方面具有一定规模和档次，先后受到云南省三大协会的肯定和赞许，并颁发云南省民间收藏文化示范基地、云南省观赏石展览基地和云南省根艺美术展览学术研究示范基地，成为云南省首屈一指的旅游文化艺术博物馆。\n抚仙湖奇石博物馆坐落在《世界首批国家地质公园、澄江化石地世界自然遗产》帽天山下，附近有月亮湾湿地公园，毗邻悦春度假酒店，风景秀丽。博物馆内收藏的奇石品种和数量几乎涵盖了目前观赏奇石的所有种类，是云南省目前较大的奇石博物馆。馆内为现代艺术风格，主要展示国内各类珍稀观赏石、古生物化石，矿物晶体标本及根艺，是集文化科普和珍稀品收藏为一体的多功能旅游文化艺术馆。"}}, {"title": "波息湾", "address": "玉溪市澄江县抚仙湖畔禄充风景区内", "image": "", "rank": 10, "time": 2, "location": {"lat": 24.63286643434345, "lng": 102.86805760450727}, "feature": {"sight_features": "", "sight_content": ""}}, {"title": "凤山公园", "address": "玉溪市澄江县凤麓街道凤麓镇环城北路9号", "image": "", "rank": 11, "time": 2, "location": {"lat": 24.6795965617948, "lng": 102.92638070506261}, "feature": {"sight_features": "", "sight_content": ""}}, {"title": "志舟楼", "address": "玉溪市澄江县凤麓街道凤麓镇环城北路9号凤山公园内", "image": "", "rank": 12, "time": 0.5, "location": {"lat": 24.680376473628268, "lng": 102.92683205686933}, "feature": {"sight_features": "", "sight_content": ""}}, {"title": "望海公园", "address": "老澄川路南50米", "image": "", "rank": 13, "time": 2, "location": {"lat": 24.635095599004654, "lng": 102.88758978728917}, "feature": {"sight_features": "", "sight_content": ""}}, {"title": "西浦公园", "address": "云南省澄江县龙街镇罗卜村", "image": "", "rank": 14, "time": 2, "location": {"lat": 24.654544969139536, "lng": 102.90065988272609}, "feature": {"sight_features": "", "sight_content": ""}}, {"title": "阳宗镇", "address": "云南省玉溪市澄江县阳宗镇", "image": "", "rank": 15, "time": 4.5, "location": {"lat": 24.843237418051107, "lng": 102.97177624701112}, "feature": {"sight_features": "", "sight_content": ""}}, {"title": "金甲客阁", "address": "云南省澄江县大庄乡早街村", "image": "", "rank": 16, "time": 2, "location": {"lat": 24.67941490881611, "lng": 102.91455487234985}, "feature": {"sight_features": "", "sight_content": ""}}, {"title": "悦莲庄园", "address": "玉溪市澄江县右所镇吉花村委会马房村旁悦莲庄园", "image": "", "rank": 17, "time": 2, "location": {"lat": 24.64299263745837, "lng": 102.91463550065917}, "feature": {"sight_features": "", "sight_content": ""}}, {"title": "曾辉农家乐", "address": "抚仙湖禄充风景区西北门售票处", "image": "", "rank": 18, "time": 2, "location": {"lat": 24.56330219055585, "lng": 102.84896186615217}, "feature": {"sight_features": "", "sight_content": ""}}, {"title": "太阳山高尔夫练习场", "address": "环湖东路10号太阳山山海练习场(希尔顿酒店斜对过)", "image": "", "rank": 19, "time": 2, "location": {"lat": 24.582476982697017, "lng": 102.96187667505704}, "feature": {"sight_features": "", "sight_content": ""}}, {"title": "开心农场蓝莓草莓采摘野炊", "address": "仙湖路东16-13号", "image": "", "rank": 20, "time": 2, "location": {"lat": 24.67650106431471, "lng": 102.91820862490873}, "feature": {"sight_features": "", "sight_content": ""}}, {"title": "禾力农业新品种示范基地", "address": "095乡道南50米", "image": "", "rank": 21, "time": 2, "location": {"lat": 35.55727517043936, "lng": 112.51427719563465}, "feature": {"sight_features": "", "sight_content": ""}}, {"title": "红花园休闲山庄", "address": "老澄川路149乡", "image": "", "rank": 22, "time": 2, "location": {"lat": 24.63550616847068, "lng": 102.88758978728917}, "feature": {"sight_features": "", "sight_content": ""}}, {"title": "澄江县禄充渔山生态园", "address": "澄川线观音阁北侧", "image": "", "rank": 23, "time": 2, "location": {"lat": 24.67394917395693, "lng": 102.92316962757754}, "feature": {"sight_features": "", "sight_content": ""}}, {"title": "波息湾度假村", "address": "云南省澄江县抚仙湖畔 652500", "image": "", "rank": 24, "time": 2, "location": {"lat": 24.632787903313762, "lng": 102.92890081133946}, "feature": {"sight_features": "", "sight_content": ""}}, {"title": "惊奇", "address": "云南省玉溪市澄江县凤麓街道凤翔路揽秀园8幢6号", "image": "", "rank": 25, "time": 2, "location": {"lat": 24.677096771519274, "lng": 102.92219963998309}, "feature": {"sight_features": "", "sight_content": ""}}, {"title": "美洋洋主题儿童乐园", "address": "云南省玉溪市澄江县凤麓街道庆丰街碧湖园商业广场B区", "image": "", "rank": 26, "time": 2, "location": {"lat": 24.681507565942024, "lng": 102.91600238837356}, "feature": {"sight_features": "", "sight_content": ""}}, {"title": "波息山庄-休息处", "address": "玉溪市澄江县禄充村澄川线禄充风景区波息湾内", "image": "", "rank": 27, "time": 2, "location": {"lat": 24.63286643434345, "lng": 102.86805760450727}, "feature": {"sight_features": "", "sight_content": ""}}, {"title": "观音宝殿", "address": "玉溪市澄江县禄充村澄川线禄充风景区观音寺内", "image": "", "rank": 28, "time": 2, "location": {"lat": 24.568168639606387, "lng": 102.85007995378275}, "feature": {"sight_features": "", "sight_content": ""}}, {"title": "文昌寺", "address": "云南省玉溪市澄江县龙街街道尖山派出所南300米", "image": "", "rank": 29, "time": 1.5, "location": {"lat": 24.59364842561912, "lng": 102.8520995844161}, "feature": {"sight_features": "", "sight_content": ""}}, {"title": "抚仙湖水下上古遗址", "address": "玉溪市澄江县环湖东路7号樱花谷外滩内", "image": "", "rank": 30, "time": 7.5, "location": {"lat": 24.61104532108394, "lng": 102.95814487771548}, "feature": {"sight_features": "", "sight_content": ""}}, {"title": "抚仙湖北岸湿地", "address": "云南省玉溪市澄江县右所镇环湖公路湖畔圣水西南250米", "image": "", "rank": 31, "time": 7.5, "location": {"lat": 24.628577109726677, "lng": 102.9522510054359}, "feature": {"sight_features": "", "sight_content": ""}}, {"title": "娃娃乐儿童乐园", "address": "玉溪市澄江县凤麓镇环城北路9号凤山公园内", "image": "", "rank": 32, "time": 1.0, "location": {"lat": 24.680376473628268, "lng": 102.92683205686933}, "feature": {"sight_features": "", "sight_content": ""}}, {"title": "观澜湖高尔夫球会", "address": "右所镇环湖东路10号", "image": "", "rank": 33, "time": 2, "location": {"lat": 24.582476982697017, "lng": 102.96187667505704}, "feature": {"sight_features": "", "sight_content": ""}}, {"title": "笔砚公园", "address": "玉溪市澄江县禄充村澄川线禄充风景区内", "image": "", "rank": 34, "time": 2, "location": {"lat": 24.63286643434345, "lng": 102.86805760450727}, "feature": {"sight_features": "", "sight_content": ""}}, {"title": "磨辖班", "address": "玉溪市澄江县禄充村澄川线禄充风景区抗浪鱼自然生态区内", "image": "", "rank": 35, "time": 2, "location": {"lat": 24.63286643434345, "lng": 102.86805760450727}, "feature": {"sight_features": "", "sight_content": ""}}, {"title": "澄江小舌形贝", "address": "玉溪市澄江县国家地质公园附近云南澄江动物群古生物国家地质公园澄江动物群首发点内", "image": "", "rank": 36, "time": 2.5, "location": {"lat": 24.66254398425963, "lng": 102.97470594826142}, "feature": {"sight_features": "", "sight_content": ""}}, {"title": "海滩公园", "address": "澄华路象山宾馆附近", "image": "", "rank": 37, "time": 2.5, "location": {"lat": 24.632017921754773, "lng": 102.94171906952167}, "feature": {"sight_features": "", "sight_content": ""}}, {"title": "禄充文昌宫", "address": "云南省玉溪市澄江县翰林路180", "image": "", "rank": 38, "time": 2, "location": {"lat": 24.564673927539484, "lng": 102.84779056020827}, "feature": {"sight_features": "", "sight_content": ""}}, {"title": "荣大广场", "address": "玉溪市澄江县", "image": "", "rank": 39, "time": 2, "location": {"lat": 24.67941490881611, "lng": 102.91455487234985}, "feature": {"sight_features": "", "sight_content": ""}}, {"title": "老鹰地旅游度假村一期", "address": "环湖东路10号", "image": "", "rank": 40, "time": 2, "location": {"lat": 21.870473491262533, "lng": 111.99133124568246}, "feature": {"sight_features": "", "sight_content": ""}}, {"title": "玉融度假村", "address": "玉溪澄江龙街街道办事处万海社区镇海营", "image": "", "rank": 41, "time": 2, "location": {"lat": 24.638102452628996, "lng": 102.89720446254918}, "feature": {"sight_features": "", "sight_content": ""}}, {"title": "80后野戏俱乐部抚仙湖基地", "address": "千兴街13号附近", "image": "", "rank": 42, "time": 2, "location": {"lat": 24.565300796318798, "lng": 102.84936178170729}, "feature": {"sight_features": "", "sight_content": ""}}, {"title": "痴醉水族馆", "address": "云南省玉溪市澄江县北正街30号", "image": "", "rank": 43, "time": 2, "location": {"lat": 24.67574589025365, "lng": 102.92483987485916}, "feature": {"sight_features": "", "sight_content": ""}}, {"title": "清青海岸度假村", "address": "右所林海公园附近", "image": "", "rank": 44, "time": 2, "location": {"lat": 24.632556421787758, "lng": 102.93036264365809}, "feature": {"sight_features": "", "sight_content": ""}}, {"title": "林海公园", "address": "玉溪市澄江县右所镇下备乐村环湖路", "image": "", "rank": 46, "time": 0.6, "location": {"lat": 24.64335243999241, "lng": 102.93229999938809}, "feature": {"sight_features": "", "sight_content": ""}}, {"title": "云南大学后勤集团旅游度假村", "address": "新河口附近", "image": "", "rank": 47, "time": 2, "location": {"lat": 39.94636698051171, "lng": 117.38404138916407}, "feature": {"sight_features": "", "sight_content": ""}}, {"title": "澄江动物化石群博物馆", "address": "仙湖路21号附近", "image": "", "rank": 48, "time": 2.5, "location": {"lat": 23.314870804142505, "lng": 113.0029395280453}, "feature": {"sight_features": "", "sight_content": ""}}, {"title": "太阳山国际生态旅游休闲度假社区", "address": "云南省玉溪市澄江县抚仙湖环湖东路10号", "image": "", "rank": 49, "time": 2, "location": {"lat": 24.582476982697017, "lng": 102.96187667505704}, "feature": {"sight_features": "", "sight_content": ""}}, {"title": "南国花园", "address": "玉溪市澄江县", "image": "", "rank": 50, "time": 2.5, "location": {"lat": 24.67941490881611, "lng": 102.91455487234985}, "feature": {"sight_features": "", "sight_content": ""}}, {"title": "华祥生态园", "address": "仙湖路附近", "image": "", "rank": 51, "time": 2, "location": {"lat": 22.569683290282985, "lng": 114.17280491240584}, "feature": {"sight_features": "", "sight_content": ""}}, {"title": "石榴生态园", "address": "澄华线", "image": "", "rank": 52, "time": 2, "location": {"lat": 24.532941015036005, "lng": 102.9533585262988}, "feature": {"sight_features": "", "sight_content": ""}}, {"title": "皓洋潜水", "address": "立昌鱼洞风景区内", "image": "", "rank": 53, "time": 2, "location": {"lat": 24.539037617644485, "lng": 102.85192663994445}, "feature": {"sight_features": "", "sight_content": ""}}, {"title": "零海拔潜水", "address": "庆丰街10", "image": "", "rank": 54, "time": 2, "location": {"lat": 34.73875813764079, "lng": 113.65888553790025}, "feature": {"sight_features": "", "sight_content": ""}}, {"title": "抚仙湖帆船基地", "address": "海口镇海关村抚仙湖边", "image": "", "rank": 55, "time": 7.5, "location": {"lat": 24.514737528635077, "lng": 102.936081107414}, "feature": {"sight_features": "", "sight_content": ""}}, {"title": "吉里村苗场", "address": "吉里村附近", "image": "", "rank": 56, "time": 2, "location": {"lat": 31.94915736382216, "lng": 119.21272986672825}, "feature": {"sight_features": "", "sight_content": ""}}, {"title": "古铜色国际潜水俱乐部Golden Div...", "address": "环湖东路10号", "image": "", "rank": 57, "time": 2, "location": {"lat": 21.870473491262533, "lng": 111.99133124568246}, "feature": {"sight_features": "", "sight_content": ""}}, {"title": "碧海垂钓园", "address": "老澄川路南50米", "image": "", "rank": 58, "time": 2, "location": {"lat": 24.635095599004654, "lng": 102.88758978728917}, "feature": {"sight_features": "", "sight_content": ""}}, {"title": "云南万景湖农业科技有限责任公司...", "address": "龙街街道办事处左所社区下左所村", "image": "", "rank": 59, "time": 2, "location": {"lat": 24.75988471131955, "lng": 102.77573158598581}, "feature": {"sight_features": "", "sight_content": ""}}, {"title": "太阳山练习场", "address": "澄阳路环湖东路10号", "image": "", "rank": 60, "time": 2, "location": {"lat": 21.870473491262533, "lng": 111.99133124568246}, "feature": {"sight_features": "", "sight_content": ""}}]}