{"cityName": "嘉义县", "days": 2, "cityImage": "", "spots": [{"title": "奮起湖神木群", "address": "竹崎鄉, 嘉義縣 604 Taiwan", "image": "", "rank": 1, "time": 2, "location": {"lat": 38.82903586595584, "lng": 110.33126976909105}, "feature": {"sight_features": "", "sight_content": ""}}, {"title": "石盤谷瀑布群", "address": "阿里山鄉, 嘉義縣 605 Taiwan", "image": "", "rank": 2, "time": 2, "location": {"lat": 31.37909299969708, "lng": 119.83878213404964}, "feature": {"sight_features": "", "sight_content": ""}}, {"title": "特富野古道", "address": "嘉义县阿里山阿里山公路台18线96.5公里处", "image": "", "rank": 3, "time": 2, "location": {"lat": 32.156831652716065, "lng": 118.73729960228331}, "feature": {"sight_features": "", "sight_content": ""}}, {"title": "受镇宫", "address": "阿里山乡香林村45号 606", "image": "", "rank": 4, "time": 1.5, "location": {"lat": 37.40038337885254, "lng": 112.83377124080621}, "feature": {"sight_features": "", "sight_content": ""}}, {"title": "义竹车站", "address": "嘉义县义竹乡岸脚村岸脚47号", "image": "", "rank": 5, "time": 2, "location": {"lat": 24.39047553430457, "lng": 117.93822222070479}, "feature": {"sight_features": "", "sight_content": ""}}, {"title": "三代木", "address": "阿里山鄉, 嘉義縣 605 Taiwan", "image": "", "rank": 6, "time": 0.25, "location": {"lat": 31.37909299969708, "lng": 119.83878213404964}, "feature": {"sight_features": "", "sight_content": ""}}, {"title": "Solar Exploration Center", "address": "嘉义县No. 21-25, Gexiliao, Xialiau Vil., Shuishang Township", "image": "", "rank": 7, "time": 4.5, "location": {"lat": 22.728825804821007, "lng": 114.24663741029775}, "feature": {"sight_features": "", "sight_content": ""}}, {"title": "北门水晶教堂", "address": "台南市北门游客中心南侧", "image": "", "rank": 8, "time": 1.5, "location": {"lat": 38.96584875626212, "lng": 121.36052796411255}, "feature": {"sight_features": "", "sight_content": ""}}, {"title": "布袋游客中心", "address": "布袋镇顺安路61号 625", "image": "", "rank": 9, "time": 2, "location": {"lat": 23.1254790490648, "lng": 113.96889388794753}, "feature": {"sight_features": "", "sight_content": ""}}, {"title": "巨木群栈道", "address": "台湾嘉义县阿里山乡阿里山森林游乐区", "image": "", "rank": 10, "time": 1.5, "location": {"lat": 23.4532073641023, "lng": 120.79544661222165}, "feature": {"sight_features": "", "sight_content": ""}}, {"title": "云潭步道", "address": "嘉义县梅山乡", "image": "", "rank": 11, "time": 1.5, "location": {"lat": 22.728825804821007, "lng": 114.24663741029775}, "feature": {"sight_features": "", "sight_content": ""}}, {"title": "龙顶步道", "address": "602台湾嘉义县番路乡", "image": "", "rank": 12, "time": 1.25, "location": {"lat": 23.422363536115075, "lng": 120.64307849212832}, "feature": {"sight_features": "", "sight_content": ""}}, {"title": "杉林栈道", "address": "604台湾嘉义县竹崎乡", "image": "", "rank": 13, "time": 0.5, "location": {"lat": 23.504934297529292, "lng": 120.60873737291745}, "feature": {"sight_features": "", "sight_content": ""}}, {"title": "迷糊步道", "address": "605台湾嘉义县阿里山乡台18线66千米处", "image": "", "rank": 14, "time": 2, "location": {"lat": 32.156831652716065, "lng": 118.73729960228331}, "feature": {"sight_features": "", "sight_content": ""}}, {"title": "驿马溪休闲农场", "address": "604台湾嘉义县", "image": "", "rank": 15, "time": null, "location": {"lat": 24.086956718804895, "lng": 121.97387097871568}, "feature": {"sight_features": "", "sight_content": ""}}, {"title": "福山古道", "address": "605台湾嘉义县阿里山乡", "image": "", "rank": 16, "time": 2, "location": {"lat": 23.4532073641023, "lng": 120.79544661222165}, "feature": {"sight_features": "", "sight_content": ""}}, {"title": "瑞太古道", "address": "603台湾嘉义县梅山乡", "image": "", "rank": 17, "time": 2, "location": {"lat": 23.55098039040994, "lng": 120.68671961826388}, "feature": {"sight_features": "", "sight_content": ""}}, {"title": "青年岭环状步道", "address": "台湾嘉义县梅山乡166县道22.5千米处", "image": "", "rank": 18, "time": 1.25, "location": {"lat": 23.55098039040994, "lng": 120.68671961826388}, "feature": {"sight_features": "", "sight_content": ""}}, {"title": "修慧步道", "address": "602台湾嘉义县番路乡", "image": "", "rank": 19, "time": 0.5, "location": {"lat": 23.422363536115075, "lng": 120.64307849212832}, "feature": {"sight_features": "", "sight_content": ""}}, {"title": "丰山观景台", "address": "605台湾嘉义县阿里山乡丰山村", "image": "", "rank": 20, "time": 0.75, "location": {"lat": 23.4532073641023, "lng": 120.79544661222165}, "feature": {"sight_features": "", "sight_content": ""}}, {"title": "夫妻树", "address": "南投县信义乡台21线141.7公里处", "image": "", "rank": 21, "time": 0.35, "location": {"lat": 22.19570364388167, "lng": 113.36400864418482}, "feature": {"sight_features": "", "sight_content": ""}}, {"title": "慈云寺", "address": "嘉义县阿里山乡阿里山森林游乐区内", "image": "", "rank": 22, "time": 1.5, "location": {"lat": 26.873098697359676, "lng": 100.24759729382008}, "feature": {"sight_features": "", "sight_content": ""}}, {"title": "阿里山神木遗迹", "address": "嘉义县阿里山乡阿里山森林游乐区内", "image": "", "rank": 23, "time": 0.25, "location": {"lat": 26.873098697359676, "lng": 100.24759729382008}, "feature": {"sight_features": "", "sight_content": ""}}, {"title": "三代木及象鼻木", "address": "嘉义县阿里山乡阿里山森林游乐区内", "image": "", "rank": 24, "time": 0.25, "location": {"lat": 26.873098697359676, "lng": 100.24759729382008}, "feature": {"sight_features": "", "sight_content": ""}}, {"title": "阿里山贵宾馆", "address": "嘉义县阿里山乡阿里山森林游乐区内", "image": "", "rank": 25, "time": 0.5, "location": {"lat": 26.873098697359676, "lng": 100.24759729382008}, "feature": {"sight_features": "", "sight_content": ""}}, {"title": "姊妹潭", "address": "嘉义县阿里山乡阿里山森林游乐区", "image": "", "rank": 26, "time": 1.5, "location": {"lat": 26.873098697359676, "lng": 100.24759729382008}, "feature": {"sight_features": "", "sight_content": ""}}, {"title": "阿里山森林铁路", "address": "嘉義市林森西路2號", "image": "", "rank": 27, "time": 3.0, "location": {"lat": 23.481283918031668, "lng": 107.0255338505713}, "feature": {"sight_features": "", "sight_content": ""}}, {"title": "香林神木", "address": "嘉义县阿里山乡阿里山森林游乐区慈云寺旁", "image": "", "rank": 28, "time": 0.25, "location": {"lat": 26.873098697359676, "lng": 100.24759729382008}, "feature": {"sight_features": "", "sight_content": ""}}, {"title": "Tiaotiao Recreational Farm", "address": "嘉义县Xixing Vil., Xixing Vil., Dapu Township", "image": "", "rank": 29, "time": 2, "location": {"lat": 22.728825804821007, "lng": 114.24663741029775}, "feature": {"sight_features": "", "sight_content": ""}}, {"title": "Bu Dai Mouth Zhou Nan Salt Fie...", "address": "嘉义县No. 402, Xincuozai, Budai Township", "image": "", "rank": 30, "time": 2, "location": {"lat": 22.728825804821007, "lng": 114.24663741029775}, "feature": {"sight_features": "", "sight_content": ""}}, {"title": "Canyon Ecological Farm", "address": "嘉义县No. 1, Daxiagu, Bihu Vil., Meishan Township", "image": "", "rank": 31, "time": 2, "location": {"lat": 22.728825804821007, "lng": 114.24663741029775}, "feature": {"sight_features": "", "sight_content": ""}}, {"title": "Long Tou Recreation Farm", "address": "嘉义县No. 20, Longtou, Gongtian Vil., Fanlu Township", "image": "", "rank": 32, "time": 2, "location": {"lat": 22.728825804821007, "lng": 114.24663741029775}, "feature": {"sight_features": "", "sight_content": ""}}, {"title": "Song Tian Gang Recreation Farm", "address": "嘉义县No. 48-15, Songzijiao, Songshan Vil., Minxiong Township", "image": "", "rank": 33, "time": 2, "location": {"lat": 22.728825804821007, "lng": 114.24663741029775}, "feature": {"sight_features": "", "sight_content": ""}}, {"title": "Chiayi Ecological Resort Farm", "address": "嘉义县Xixing Vil., Dapu Township", "image": "", "rank": 34, "time": 2, "location": {"lat": 22.728825804821007, "lng": 114.24663741029775}, "feature": {"sight_features": "", "sight_content": ""}}, {"title": "Mount Dajian", "address": "嘉义县Meishan Township", "image": "", "rank": 35, "time": 2, "location": {"lat": 22.728825804821007, "lng": 114.24663741029775}, "feature": {"sight_features": "", "sight_content": ""}}, {"title": "Chiayi Jhugeng Ecological Recr...", "address": "嘉义县No. 11, Tianwei, Wanqiao Vil., Zhuqi Township", "image": "", "rank": 36, "time": 2, "location": {"lat": 22.728825804821007, "lng": 114.24663741029775}, "feature": {"sight_features": "", "sight_content": ""}}, {"title": "Dong Hou Liao Church", "address": "嘉义县No. 62, Dongguang Vil., Dongguang Vil., Yizhu Township", "image": "", "rank": 37, "time": 7.5, "location": {"lat": 22.728825804821007, "lng": 114.24663741029775}, "feature": {"sight_features": "", "sight_content": ""}}, {"title": "竿仔寮(官顺村)", "address": "嘉义县Guanshun Vil., Yizhu Township", "image": "", "rank": 38, "time": 2, "location": {"lat": 22.728825804821007, "lng": 114.24663741029775}, "feature": {"sight_features": "", "sight_content": ""}}, {"title": "Organic Sponge Cucumber Farm", "address": "嘉义县Hemu Vil., Zhongpu Township", "image": "", "rank": 39, "time": 2, "location": {"lat": 22.728825804821007, "lng": 114.24663741029775}, "feature": {"sight_features": "", "sight_content": ""}}, {"title": "Alishan Farm", "address": "嘉义县Ruili Vil., Meishan Township", "image": "", "rank": 40, "time": 2, "location": {"lat": 22.728825804821007, "lng": 114.24663741029775}, "feature": {"sight_features": "", "sight_content": ""}}, {"title": "Jianan Ostrich Pasture", "address": "嘉义县No. 52, Huweiliao, Minxiong Township", "image": "", "rank": 41, "time": 2, "location": {"lat": 22.728825804821007, "lng": 114.24663741029775}, "feature": {"sight_features": "", "sight_content": ""}}, {"title": "Fenchihu Historic Exhibition H...", "address": "嘉义县No. 24-1, Fenqihu, Zhonghe Vil., Zhuqi Township", "image": "", "rank": 42, "time": 2, "location": {"lat": 22.728825804821007, "lng": 114.24663741029775}, "feature": {"sight_features": "", "sight_content": ""}}, {"title": "沼平公园", "address": "嘉义县阿里山乡阿里山森林游乐区内", "image": "", "rank": 43, "time": 4.5, "location": {"lat": 26.873098697359676, "lng": 100.24759729382008}, "feature": {"sight_features": "", "sight_content": ""}}, {"title": "小笠原山", "address": "台湾嘉义县阿里山乡中山村56号", "image": "", "rank": 44, "time": 1.5, "location": {"lat": 23.4532073641023, "lng": 120.79544661222165}, "feature": {"sight_features": "", "sight_content": ""}}, {"title": "野姜花溪步道", "address": "台湾嘉义县梅山乡瑞里村幼叶林6邻1-1号", "image": "", "rank": 45, "time": 1.5, "location": {"lat": 23.55098039040994, "lng": 120.68671961826388}, "feature": {"sight_features": "", "sight_content": ""}}, {"title": "Zhōng bù guózhōng (中埔國...", "address": "Taiwan", "image": "", "rank": 46, "time": 2, "location": {"lat": 24.544438569624372, "lng": 118.12439090287192}, "feature": {"sight_features": "", "sight_content": ""}}, {"title": "梅山", "address": "No. 160, Zhonghua Rd, Zhuqi Township, Chiayi County, Taiwan", "image": "", "rank": 47, "time": 3.0, "location": {"lat": 28.44749098560832, "lng": 119.93961602420909}, "feature": {"sight_features": "", "sight_content": ""}}, {"title": "龙隐寺", "address": "嘉义县番路乡触口村1号", "image": "", "rank": 48, "time": 1.0, "location": {"lat": 27.409139682273707, "lng": 114.66604698045845}, "feature": {"sight_features": "", "sight_content": ""}}, {"title": "树灵塔", "address": "台湾嘉义县阿里山乡阿里山风景区内", "image": "", "rank": 49, "time": 0.35, "location": {"lat": 23.4532073641023, "lng": 120.79544661222165}, "feature": {"sight_features": "", "sight_content": ""}}, {"title": "阿里山博物馆", "address": "嘉义县阿里山乡阿里山森林游乐区内", "image": "", "rank": 50, "time": 1.5, "location": {"lat": 26.873098697359676, "lng": 100.24759729382008}, "feature": {"sight_features": "", "sight_content": ""}}, {"title": "塔山", "address": "台湾嘉义县阿里山乡", "image": "", "rank": 51, "time": 5.5, "location": {"lat": 23.4532073641023, "lng": 120.79544661222165}, "feature": {"sight_features": "", "sight_content": ""}}, {"title": "香林国民小学", "address": "嘉义县阿里山乡40号", "image": "", "rank": 52, "time": 1.5, "location": {"lat": 23.4532073641023, "lng": 120.79544661222165}, "feature": {"sight_features": "", "sight_content": ""}}, {"title": "振兴戏院", "address": "云林县北港镇中山路42号", "image": "", "rank": 53, "time": 2, "location": {"lat": 39.16965029000184, "lng": 117.21190253940726}, "feature": {"sight_features": "", "sight_content": ""}}, {"title": "嘉义新港板头村", "address": "嘉义县新港乡板头村", "image": "", "rank": 54, "time": 7.5, "location": {"lat": 22.728825804821007, "lng": 114.24663741029775}, "feature": {"sight_features": "", "sight_content": ""}}, {"title": "品皇咖啡观光工厂", "address": "嘉义县太保市春珠里3邻85-18号", "image": "", "rank": 55, "time": 2, "location": {"lat": 22.63096424809761, "lng": 110.17157881369522}, "feature": {"sight_features": "", "sight_content": ""}}, {"title": "新港交址陶文化区", "address": "嘉义县新港乡嘉义县新港乡板头村五邻18-6号", "image": "", "rank": 56, "time": 2, "location": {"lat": 22.728825804821007, "lng": 114.24663741029775}, "feature": {"sight_features": "", "sight_content": ""}}]}