{"cityName": "赤壁", "days": 2, "cityImage": "", "spots": [{"title": "赤壁古战场", "address": "湖北省咸宁市赤壁市赤壁镇武侯巷6号", "image": "", "rank": 1, "time": 2.5, "location": {"lat": 29.88197566651635, "lng": 113.64311935248685}, "feature": {"sight_features": "特色1 我国古代著名战役中惟一尚存原貌的古战场", "sight_content": "赤壁古战场位于长江中游南岸，湖北省赤壁市境内。公元208年，羽扇纶巾的诸葛亮，巧借一夜东风，在这里吹灭了曹操独霸天下的梦想；雄姿英发的周瑜，智用一场烈火，点燃了赤壁千秋不息的辉煌。\n\n赤壁之战，一战成就了多少人：周瑜、庞统、诸葛亮、黄盖等等数不尽的英雄好汉。那个时代是注重勇气与智慧的时代！没有藐视一切的勇气怎么会有孙权切案的故事！没有绝顶的智慧怎么会有庞统巧献连环计的传奇！一切都是因为在赤壁这个地方人杰地灵！“赤壁”二字，上写皆土。土接地气，乃万物之源。赤壁，得地气，通王气，乃吉祥宝地。\n古往今来，任何战争都是以一方为最终结果的，唯独这场赤壁大战，虽然以曹军溃败为阶段性的结果，但是天下诸侯纷争、民不聊生的局面自此短暂平息了，赤壁大战后诞生了三个鼎足而立的国家和三位开国皇帝！"}}, {"title": "陆水湖风景区", "address": "咸宁市赤壁市沿湖路", "image": "", "rank": 2, "time": 1.0, "location": {"lat": 29.70037064800708, "lng": 113.9065716911615}, "feature": {"sight_features": "", "sight_content": ""}}, {"title": "赤壁龙佑温泉", "address": "咸宁市赤壁市龙佑温泉度假区", "image": "", "rank": 3, "time": 2, "location": {"lat": 29.685685813260356, "lng": 113.83627461563691}, "feature": {"sight_features": "特色1 拥有稀少珍贵的医疗矿泉", "sight_content": "龙佑赤壁温泉度假区位于湖北省赤壁市境内，距市中心5公里，由此北上武汉110公里，南下岳阳70公里，进抵长沙210公里，西去赤壁古战场40公里，东与著名风景区陆水湖毗邻。龙佑赤壁温泉度假区坐落在风景秀美五洪山麓，五洪山温泉自古有之，相传为舜帝南巡驻跸之地。其二妃娥皇、女英寻迹于此，及第洞庭君山，竞成湘水之神。\n附近有被列入国家级重点文物保护单位的三国赤壁古战场，古迹众多，名闻遐迩。有山清水秀、岛屿棋布的陆水湖风景区，中央电视台在此建成了《水浒传》的第二个外景拍摄基地“水浒城”，目前又在建设国家级陆水湖旅游度假区。\n有宜浴宜饮、治病健身，被专家赞为“神泉”的珍贵医疗矿泉龙佑赤壁温泉；有莽莽苍苍、绵绵不绝，陆水水库黏土坝；有美轮美奂、鬼斧神工的“地下龙宫”玄素洞、神龙洞；有山高水长、夏日风凉的雪峰山避暑胜地；还有万亩茶园、万亩猕猴桃园等自然风光，如诗如画、交相辉映，是观光休闲旅游度假的乐园。"}}, {"title": "春泉庄温泉", "address": "咸宁市赤壁市茶庵岭镇五龙山路(温泉大道)1号", "image": "", "rank": 4, "time": 2, "location": {"lat": 29.662804773270956, "lng": 113.83620304763694}, "feature": {"sight_features": "特色1 水温稳定，水质清澈", "sight_content": "‍‍   ‍‍盛春温泉水取自五龙山热水体，热水体集中分布在茶庵岭—五龙山-陆水水库断层溶洞出露部位，水温为60℃，最高可达到64℃，热水体内水温稳定。水质明亮清澈，无菌无毒无沉淀物，浴感极好。五龙山温泉水的化学类型属于含偏硅酸，放射性氡，硫酸钙型泉，亦可称为硫酸钙型弱放射性氡泉。所含的矿物质并非硫酸，故没有浓重的硫磺气味。氡泉非常少见，与国内外一些名泉相比，氡泉不仅矿物质含量丰富，而且构成巧妙，比例适中，特色显著，是极为稀少珍贵的医疗矿泉，故被称为“温泉中的贵族”。‍‍‍‍‍‍‍‍\n‍‍   盛春温泉位于赤壁市茶庵岭著名的温泉村，坐落于五龙山脚下，占地14000平方米，包含室内，室外，餐饮等功能区。室外区由家庭亲子区、养生区、氧吧区和溶洞区组成、溶洞区更配有景观干湿蒸房；室内区由男、女宾室内泡池区、VIP区组成；全区43个泡池错落有致地分布于山丘之上。传统的温泉泡汤环境有着很深的人工打造痕迹，而盛春温泉在设计中保留自然环境的原始生态风貌，43个泡池依地形巧妙地分布于山坡上，隐卧在原生树木和山石的怀抱之中，四周田野风光尽收眼底。沐浴温泉时听着清脆的鸟叫，阵阵花香扑鼻而来，抬头便可仰望青山，回眸可见静谧湖水，在温泉的细腻滋润中领略日出、日落之美。盛春温泉不添加人工化学物质，打造天然纯粹温泉体验，回归享受温泉的自然本质。‍‍\n\n\n‍‍‍‍‍‍   盛春温泉致力于打造高度休闲的温泉体验，倡导生态健康的“自然疗法”，用最质朴的自然与温泉治愈心灵，舒缓身心压力，寻回健康活力，快乐轻松的生命状态。根据砖茶的特有疗效，结合五龙山温泉的天然效力，在赤壁三国文化、砖茶文化的沉淀中，遵循古法秘技，‍‍首创砖茶汤泉‍‍。在独特的茶香中，沐浴在翠竹山林间，呼吸着富含负离子的清新空气，品尝着地道的砖茶，来一份砖茶制作的小吃，这种悠闲自得，处处流露着修心、抒怀之境。“茶能通禅”，在茶中融进了“清”、“静”思想；而喝茶人通过饮茶，又将自己与山水、自然、宇宙融为一体，在茶中求得美好的韵律和精神开释。在茶的繁衍过程中，“以茶散郁气、以茶驱睡气、以茶养生气、以茶驱病气、以茶树礼仁、以茶表敬意、以茶尝滋味、以茶养身体、以茶可行道、以茶可雅志”，深深地影响着每一个人。\n‍‍‍‍   砖茶汤泉以其独具的优势，在这里充分地发挥着她内外在的魅力。砖茶汤泉对于美容养颜、消脂健体、降血糖血脂、抗氧化、抗衰老、促进机体对营养补充的运行等发挥着独有的功效。泡浴温泉之余，来到依山傍水的盛春餐厅，古朴与简约的布置，融合着对自然尊崇的品位。餐厅选用当地的新鲜蔬果，精良肉质等绿色有机食材，既有多款精心准备的免费小吃，更有为您用心制作的各式风味及砖茶特色美食。一杯砖茶，一杯咖啡，一味美食，倚窗而坐，近俯眼前静谧湖水，远眺秀美五龙山。在温泉滋润之后开启特色美食之旅，让身心在味蕾的满足中得以放松！‍‍\n‍‍‍‍"}}, {"title": "乐儿乐儿童乐园（沃尔玛店）", "address": "咸宁市赤壁市河北大道47号沃尔玛购物广场一楼", "image": "", "rank": 5, "time": 2, "location": {"lat": 29.729368907535303, "lng": 113.8871527577552}, "feature": {"sight_features": "", "sight_content": ""}}, {"title": "赤壁市博物馆", "address": "陆水湖大道229", "image": "", "rank": 6, "time": 2.5, "location": {"lat": 29.72368183476753, "lng": 113.90219668012583}, "feature": {"sight_features": "", "sight_content": ""}}, {"title": "蚂蚁亲子乐园", "address": "咸宁市赤壁市龙佑温泉度假区", "image": "", "rank": 7, "time": 2, "location": {"lat": 29.685685813260356, "lng": 113.83627461563691}, "feature": {"sight_features": "", "sight_content": ""}}, {"title": "葛仙山", "address": "咸宁市崇阳县", "image": "", "rank": 8, "time": 1.0, "location": {"lat": 29.561333782271227, "lng": 114.04656290943393}, "feature": {"sight_features": "", "sight_content": ""}}, {"title": "黄盖湖", "address": "湖北省咸宁市赤壁市", "image": "", "rank": 9, "time": 2, "location": {"lat": 29.73066599752579, "lng": 113.90643686179263}, "feature": {"sight_features": "", "sight_content": ""}}, {"title": "赤壁遗址", "address": "湖北省咸宁市赤壁市s214", "image": "", "rank": 10, "time": 1.5, "location": {"lat": 29.73066599752579, "lng": 113.90643686179263}, "feature": {"sight_features": "", "sight_content": ""}}, {"title": "五洪山温泉", "address": "五洪山路附近", "image": "", "rank": 11, "time": 2, "location": {"lat": 29.6802817365727, "lng": 113.86888501902907}, "feature": {"sight_features": "", "sight_content": ""}}, {"title": "雪峰山", "address": "湖北咸宁赤壁市214省道", "image": "", "rank": 12, "time": 3.0, "location": {"lat": 29.797556480155265, "lng": 113.65484439532142}, "feature": {"sight_features": "", "sight_content": ""}}, {"title": "赤壁市图书馆", "address": "文化大道328号赤壁高铁北站附近", "image": "", "rank": 13, "time": 1.5, "location": {"lat": 29.73066599752579, "lng": 113.90643686179263}, "feature": {"sight_features": "", "sight_content": ""}}, {"title": "双泉山庄", "address": "荆泉大道", "image": "", "rank": 14, "time": 2, "location": {"lat": 29.662157055531615, "lng": 113.93050382732983}, "feature": {"sight_features": "", "sight_content": ""}}, {"title": "咸宁赤壁大战陈列馆", "address": "赤壁山北侧", "image": "", "rank": 15, "time": 3.5, "location": {"lat": 27.49744719973445, "lng": 119.30910983620797}, "feature": {"sight_features": "", "sight_content": ""}}, {"title": "潘朵拉星球果园", "address": "神山镇油岭村", "image": "", "rank": 16, "time": 2, "location": {"lat": 29.85095860113407, "lng": 114.05813919287611}, "feature": {"sight_features": "", "sight_content": ""}}, {"title": "黄金奇异果猕猴桃种植基地", "address": "神山镇油岭村", "image": "", "rank": 17, "time": 2, "location": {"lat": 29.85095860113407, "lng": 114.05813919287611}, "feature": {"sight_features": "", "sight_content": ""}}, {"title": "赤壁市群众艺术馆", "address": "湖北省赤壁市宝成路与金鸡山路交叉口", "image": "", "rank": 18, "time": 2.5, "location": {"lat": 29.720372372478433, "lng": 113.88994941367136}, "feature": {"sight_features": "", "sight_content": ""}}, {"title": "关帝寺", "address": "咸宁市赤壁市陆水湖大道646号陆水湖风景区好运岛内", "image": "", "rank": 19, "time": 2, "location": {"lat": 29.699943632052417, "lng": 113.90435351165458}, "feature": {"sight_features": "", "sight_content": ""}}, {"title": "观音阁", "address": "咸宁市赤壁市陆水湖大道646号陆水湖风景区民俗乐园内", "image": "", "rank": 20, "time": 1.0, "location": {"lat": 29.699943632052417, "lng": 113.90435351165458}, "feature": {"sight_features": "", "sight_content": ""}}, {"title": "飞车走壁", "address": "咸宁市赤壁市陆水湖大道646号陆水湖风景区陆水湖神龙岛内", "image": "", "rank": 21, "time": 2, "location": {"lat": 29.699943632052417, "lng": 113.90435351165458}, "feature": {"sight_features": "", "sight_content": ""}}, {"title": "植物认养园", "address": "咸宁市赤壁市陆水湖大道646号陆水湖风景区三峡试验坝主题公园内", "image": "", "rank": 22, "time": 2, "location": {"lat": 29.6984734024999, "lng": 113.89932531573365}, "feature": {"sight_features": "", "sight_content": ""}}, {"title": "塔山庙伏魔宮", "address": "湖北省咸宁市赤壁市荆泉山路(新屋梁家向东南200米)", "image": "", "rank": 23, "time": 2, "location": {"lat": 29.64473098562849, "lng": 113.89110213187766}, "feature": {"sight_features": "", "sight_content": ""}}, {"title": "民俗乐园", "address": "咸宁市赤壁市陆水湖大道646号陆水湖风景区内", "image": "", "rank": 24, "time": 2, "location": {"lat": 29.699943632052417, "lng": 113.90435351165458}, "feature": {"sight_features": "", "sight_content": ""}}, {"title": "三国美食文化公园", "address": "赤壁大道与河北大道交汇处", "image": "", "rank": 25, "time": 2, "location": {"lat": 29.72952355890485, "lng": 113.903114890289}, "feature": {"sight_features": "", "sight_content": ""}}, {"title": "赤壁市金鸡山公园", "address": "赤壁大道183号附近", "image": "", "rank": 26, "time": 2.5, "location": {"lat": 30.454498690534137, "lng": 114.88970764484539}, "feature": {"sight_features": "", "sight_content": ""}}, {"title": "嘻嘻哈哈儿童乐园", "address": "西湖休闲广场", "image": "", "rank": 27, "time": 2, "location": {"lat": 28.661976709900657, "lng": 115.88353569365187}, "feature": {"sight_features": "", "sight_content": ""}}, {"title": "天主堂", "address": "咸宁市赤壁市胜利街68号", "image": "", "rank": 28, "time": 0.4, "location": {"lat": 29.566090865084224, "lng": 113.72367526532818}, "feature": {"sight_features": "", "sight_content": ""}}, {"title": "金贝儿儿童主题乐园", "address": "赤马港街道河北大道万象新城二楼", "image": "", "rank": 29, "time": 2, "location": {"lat": 29.729621014684483, "lng": 113.8879149097937}, "feature": {"sight_features": "", "sight_content": ""}}, {"title": "龙翔山公园", "address": "湖北省咸宁市赤壁市瑞通大道(博园旁边)", "image": "", "rank": 30, "time": 2, "location": {"lat": 29.728377518856604, "lng": 113.91877279549243}, "feature": {"sight_features": "", "sight_content": ""}}, {"title": "滑草", "address": "咸宁市赤壁市陆水湖大道646号陆水湖风景区凤凰岛内", "image": "", "rank": 31, "time": 2, "location": {"lat": 29.699943632052417, "lng": 113.90435351165458}, "feature": {"sight_features": "", "sight_content": ""}}, {"title": "棒棒糖儿童乐园", "address": "咸宁市赤壁市", "image": "", "rank": 32, "time": 2, "location": {"lat": 29.73066599752579, "lng": 113.90643686179263}, "feature": {"sight_features": "", "sight_content": ""}}, {"title": "观音阁", "address": "咸宁市赤壁市陆水湖办事处玄素洞村玄素洞内", "image": "", "rank": 33, "time": 1.0, "location": {"lat": 29.635201563276237, "lng": 113.8806286127707}, "feature": {"sight_features": "", "sight_content": ""}}, {"title": "财神殿", "address": "咸宁市赤壁市赤壁镇武侯巷6号三国赤壁古战场内", "image": "", "rank": 34, "time": 2, "location": {"lat": 29.885814218980656, "lng": 113.63647585414081}, "feature": {"sight_features": "", "sight_content": ""}}, {"title": "山水缘度假村", "address": "湖北省咸宁市赤壁市", "image": "", "rank": 35, "time": 2, "location": {"lat": 29.73066599752579, "lng": 113.90643686179263}, "feature": {"sight_features": "", "sight_content": ""}}, {"title": "皇朝休闲广场", "address": "湖北省咸宁市赤壁市莼川大道147-70号", "image": "", "rank": 36, "time": 2, "location": {"lat": 29.719850149590464, "lng": 113.88800956155033}, "feature": {"sight_features": "", "sight_content": ""}}, {"title": "沐恩堂", "address": "金鸡山路111号", "image": "", "rank": 37, "time": 0.75, "location": {"lat": 29.71539677179345, "lng": 113.88417936651815}, "feature": {"sight_features": "", "sight_content": ""}}, {"title": "三峡试验坝科技博览园", "address": "咸宁市赤壁市陆水湖国家级风景区附近", "image": "", "rank": 38, "time": 2, "location": {"lat": 29.699422849425034, "lng": 113.90504969842458}, "feature": {"sight_features": "", "sight_content": ""}}, {"title": "青泉公园", "address": "咸宁市赤壁市陆水湖大道411号", "image": "", "rank": 39, "time": 2, "location": {"lat": 29.715194274844336, "lng": 113.89647838165813}, "feature": {"sight_features": "", "sight_content": ""}}, {"title": "随阳天然植物园", "address": "208省道", "image": "", "rank": 40, "time": 2, "location": {"lat": 39.82817275160928, "lng": 115.96548677323707}, "feature": {"sight_features": "", "sight_content": ""}}, {"title": "图书馆", "address": "宝成路", "image": "", "rank": 41, "time": 1.0, "location": {"lat": 38.131857004477396, "lng": 112.74495528455988}, "feature": {"sight_features": "", "sight_content": ""}}, {"title": "赤壁市科技馆", "address": "周画路", "image": "", "rank": 42, "time": 2.5, "location": {"lat": 29.732742352587966, "lng": 113.8992512028342}, "feature": {"sight_features": "", "sight_content": ""}}, {"title": "奥兰多水上乐园", "address": "体育路二中操场上", "image": "", "rank": 43, "time": 2, "location": {"lat": 26.405191688887676, "lng": 112.86750862506565}, "feature": {"sight_features": "", "sight_content": ""}}, {"title": "盛春温泉", "address": "茶庵岭镇温泉村五龙山大道1号", "image": "", "rank": 44, "time": 2, "location": {"lat": 29.666587898512066, "lng": 113.83661087384681}, "feature": {"sight_features": "", "sight_content": ""}}, {"title": "野生垂钓水库", "address": "中伙镇高桥村十一组", "image": "", "rank": 45, "time": 2, "location": {"lat": 39.160198741935986, "lng": 116.01828757033314}, "feature": {"sight_features": "", "sight_content": ""}}, {"title": "海洋公园", "address": "沿河大道181-5号", "image": "", "rank": 46, "time": 3.0, "location": {"lat": 29.713411574979784, "lng": 113.8926786176234}, "feature": {"sight_features": "", "sight_content": ""}}, {"title": "枫桥农场", "address": "214省道附近", "image": "", "rank": 47, "time": 2, "location": {"lat": 40.25674691410845, "lng": 116.28095415138388}, "feature": {"sight_features": "", "sight_content": ""}}, {"title": "董家乐", "address": "周画路105号", "image": "", "rank": 48, "time": 2, "location": {"lat": 29.730471854775903, "lng": 113.89692219981761}, "feature": {"sight_features": "", "sight_content": ""}}, {"title": "非洲鳄鱼(赤壁分店)", "address": "天府街与金銮街交叉口东南200米", "image": "", "rank": 49, "time": 2, "location": {"lat": 37.5289880514929, "lng": 121.26399459156895}, "feature": {"sight_features": "", "sight_content": ""}}, {"title": "阳光生态家园农庄", "address": "蒲圻街道", "image": "", "rank": 50, "time": 2, "location": {"lat": 29.698163556348646, "lng": 113.85927662382288}, "feature": {"sight_features": "", "sight_content": ""}}, {"title": "赤壁市江南明清石窗博物馆", "address": "城南凤凰山苦竹桥村", "image": "", "rank": 51, "time": 2.5, "location": {"lat": 29.704113905424336, "lng": 113.87510829724411}, "feature": {"sight_features": "", "sight_content": ""}}, {"title": "赤壁市喜庆演艺团", "address": "赤壁大道286", "image": "", "rank": 52, "time": 2.5, "location": {"lat": 30.453013886065314, "lng": 114.88645611838695}, "feature": {"sight_features": "", "sight_content": ""}}, {"title": "玄素洞 Xuanshu Cave", "address": "湖北省赤壁市荆泉镇", "image": "", "rank": 53, "time": 2, "location": {"lat": 29.6667833907002, "lng": 113.9165774221658}, "feature": {"sight_features": "", "sight_content": ""}}, {"title": "赤壁市中心商业步行街", "address": "湖北省赤壁市中心商业步行街", "image": "", "rank": 54, "time": 2.5, "location": {"lat": 29.716339545574844, "lng": 113.89086400456162}, "feature": {"sight_features": "", "sight_content": ""}}, {"title": "深坑岭", "address": "咸宁市-赤壁市", "image": "", "rank": 55, "time": 2, "location": {"lat": 29.73066599752579, "lng": 113.90643686179263}, "feature": {"sight_features": "", "sight_content": ""}}, {"title": "半山周家", "address": "咸宁市-赤壁市", "image": "", "rank": 56, "time": 2, "location": {"lat": 29.73066599752579, "lng": 113.90643686179263}, "feature": {"sight_features": "", "sight_content": ""}}, {"title": "羊楼洞", "address": "湖北省咸宁赤壁市羊楼洞镇", "image": "", "rank": 57, "time": 1.5, "location": {"lat": 29.545340735267228, "lng": 113.75711611827641}, "feature": {"sight_features": "", "sight_content": ""}}]}