{"cityName": "赤城", "days": 2, "cityImage": "", "spots": [{"title": "赤城温泉度假村", "address": "张家口市赤城县汤泉路", "image": "", "rank": 1, "time": 2, "location": {"lat": 40.903553106071676, "lng": 115.74303328928987}, "feature": {"sight_features": "", "sight_content": ""}}, {"title": "大海陀自然保护区", "address": "张家口市赤城县082乡道大海陀自然保护区", "image": "", "rank": 2, "time": 2, "location": {"lat": 40.918761216841006, "lng": 115.83850589956863}, "feature": {"sight_features": "", "sight_content": ""}}, {"title": "东猴顶", "address": "张家口市赤城县黑龙山国家森林公园内", "image": "", "rank": 3, "time": 2, "location": {"lat": 40.918761216841006, "lng": 115.83850589956863}, "feature": {"sight_features": "", "sight_content": ""}}, {"title": "朝阳观", "address": "河北省张家口市赤城县后城镇滴水崖", "image": "", "rank": 4, "time": 0.75, "location": {"lat": 40.71777660014043, "lng": 116.07368587530289}, "feature": {"sight_features": "", "sight_content": ""}}, {"title": "元泉温泉水疗馆", "address": "张家口市赤城县汤泉路8号", "image": "", "rank": 5, "time": 2, "location": {"lat": 40.903553106071676, "lng": 115.74303328928987}, "feature": {"sight_features": "", "sight_content": ""}}, {"title": "白河湾公园", "address": "河北省张家口市赤城县", "image": "", "rank": 6, "time": 2, "location": {"lat": 40.918761216841006, "lng": 115.83850589956863}, "feature": {"sight_features": "", "sight_content": ""}}, {"title": "云州水库", "address": "河北省张家口市赤城县", "image": "", "rank": 7, "time": 2, "location": {"lat": 40.918761216841006, "lng": 115.83850589956863}, "feature": {"sight_features": "", "sight_content": ""}}, {"title": "金阁山", "address": "张家口市赤城县城北11公里处", "image": "", "rank": 8, "time": 2, "location": {"lat": 40.918761216841006, "lng": 115.83850589956863}, "feature": {"sight_features": "", "sight_content": ""}}, {"title": "护国寺", "address": "河北省张家口市赤城县云州乡", "image": "", "rank": 9, "time": 0.75, "location": {"lat": 41.12200473656785, "lng": 115.84048067241868}, "feature": {"sight_features": "", "sight_content": ""}}, {"title": "关外第一泉", "address": "位于河北省张家口市赤城县赤城镇", "image": "", "rank": 10, "time": 2, "location": {"lat": 40.908867064613986, "lng": 115.84616459722794}, "feature": {"sight_features": "", "sight_content": ""}}, {"title": "黑龙山森林公园", "address": "河北省张家口市赤城县", "image": "", "rank": 11, "time": 2, "location": {"lat": 40.918761216841006, "lng": 115.83850589956863}, "feature": {"sight_features": "", "sight_content": ""}}, {"title": "明珠温泉山庄", "address": "张家口市赤城县赤城镇孙家庄村", "image": "", "rank": 12, "time": null, "location": {"lat": 40.908867064613986, "lng": 115.84616459722794}, "feature": {"sight_features": "", "sight_content": ""}}, {"title": "奥伦达海坨山谷", "address": "张家口市赤城县阎家坪村", "image": "", "rank": 13, "time": 2, "location": {"lat": 40.54058113378503, "lng": 115.74976169277998}, "feature": {"sight_features": "", "sight_content": ""}}, {"title": "根子农家乐", "address": "小五台西京河口村(近小五台自然风景区)", "image": "", "rank": 14, "time": 2, "location": {"lat": 37.86908376126616, "lng": 112.58831529322455}, "feature": {"sight_features": "", "sight_content": ""}}, {"title": "塞外仙都旅游温泉度假有限公司", "address": "112国道", "image": "", "rank": 15, "time": 2, "location": {"lat": 39.26831909597096, "lng": 117.3328898504419}, "feature": {"sight_features": "", "sight_content": ""}}, {"title": "温泉雅阁宾馆", "address": "赤城温泉度假村200米", "image": "", "rank": 16, "time": 2, "location": {"lat": 40.907754011620376, "lng": 115.75814663271528}, "feature": {"sight_features": "", "sight_content": ""}}, {"title": "君泽庄苑", "address": "二四一省道", "image": "", "rank": 17, "time": 2, "location": {"lat": 38.605845198015224, "lng": 114.37948707331753}, "feature": {"sight_features": "", "sight_content": ""}}, {"title": "龙门所万亩蔬菜基地", "address": "112国道附近", "image": "", "rank": 18, "time": 2, "location": {"lat": 39.26831909597096, "lng": 117.3328898504419}, "feature": {"sight_features": "", "sight_content": ""}}, {"title": "玉龙湾", "address": "大滩镇孤石村内", "image": "", "rank": 19, "time": 2, "location": {"lat": 40.87207002020226, "lng": 114.90277392241643}, "feature": {"sight_features": "", "sight_content": ""}}, {"title": "独石公园", "address": "241省道附近", "image": "", "rank": 20, "time": 2, "location": {"lat": 38.605845198015224, "lng": 114.37948707331753}, "feature": {"sight_features": "", "sight_content": ""}}, {"title": "朝阳度假村", "address": "353省道附近", "image": "", "rank": 21, "time": 2, "location": {"lat": 40.81336586549137, "lng": 116.81189618576752}, "feature": {"sight_features": "", "sight_content": ""}}, {"title": "元泉宾馆水疗馆", "address": "张家口市赤城县汤泉周里沟村", "image": "", "rank": 22, "time": 2, "location": {"lat": 40.907786876651514, "lng": 115.75793645887003}, "feature": {"sight_features": "", "sight_content": "元泉宾馆内设有水疗馆，包含室内馆和室外馆，是集游泳、儿童乐园、养生休闲一体的休闲健身场馆。内馆、外馆共设有游泳池、儿童水上乐园、桑拿浴、按摩浴、鱼疗、理疗和生姜、红酒、咖啡、熏衣草浴等特色药浴。林中有园，园中有馆，馆中有泉，泉景相融是元泉宾馆环境的真实写照。"}}, {"title": "赤城县博物馆", "address": "汤泉河北街", "image": "", "rank": 23, "time": 2, "location": {"lat": 40.91671974780546, "lng": 115.83632020099161}, "feature": {"sight_features": "", "sight_content": ""}}, {"title": "洗心苑", "address": "汤泉路", "image": "", "rank": 24, "time": 2, "location": {"lat": 40.187426351584115, "lng": 124.38365359654682}, "feature": {"sight_features": "", "sight_content": ""}}, {"title": "糖梨沟", "address": "张家口市-赤城县", "image": "", "rank": 25, "time": 2, "location": {"lat": 40.918761216841006, "lng": 115.83850589956863}, "feature": {"sight_features": "", "sight_content": ""}}, {"title": "四道沟中桥", "address": "张家口市-赤城县-四道沟中桥(112国道)", "image": "", "rank": 26, "time": 2, "location": {"lat": 40.86867257522676, "lng": 115.82898718489325}, "feature": {"sight_features": "", "sight_content": ""}}, {"title": "四十里长嵯", "address": "张家口市赤城县", "image": "", "rank": 27, "time": 2, "location": {"lat": 40.918761216841006, "lng": 115.83850589956863}, "feature": {"sight_features": "", "sight_content": ""}}, {"title": "赤城鼓楼", "address": "河北省张家口市赤城县城中北部", "image": "", "rank": 28, "time": 1.0, "location": {"lat": 40.918761216841006, "lng": 115.83850589956863}, "feature": {"sight_features": "", "sight_content": ""}}]}