{"cityName": "茌平", "days": 2, "cityImage": "", "spots": [{"title": "天赐休闲度假村温泉", "address": "聊城茌平县温陈乡黄庄村", "image": "", "rank": 1, "time": 2, "location": {"lat": 36.55800672462668, "lng": 116.18111023467995}, "feature": {"sight_features": "", "sight_content": ""}}, {"title": "圣水康泉理疗会馆", "address": "新政路茌平宾馆内", "image": "", "rank": 2, "time": 2, "location": {"lat": 36.591994189141495, "lng": 116.26516291248502}, "feature": {"sight_features": "", "sight_content": ""}}, {"title": "快乐垂钓园", "address": "茌杜路附近", "image": "", "rank": 3, "time": 2, "location": {"lat": 36.578347759015756, "lng": 116.33964366089462}, "feature": {"sight_features": "", "sight_content": ""}}, {"title": "夕阳红生态园", "address": "南外环路附近附近", "image": "", "rank": 4, "time": 2, "location": {"lat": 39.609007947245225, "lng": 122.00206570061177}, "feature": {"sight_features": "", "sight_content": ""}}, {"title": "聊城正园生态农庄(西门)", "address": "博梁路与254省道交叉口南200米", "image": "", "rank": 5, "time": 2.5, "location": {"lat": 42.28777717636898, "lng": 117.52502760300462}, "feature": {"sight_features": "", "sight_content": ""}}, {"title": "许氏庄园", "address": "在山东省聊城市茌平县257省道附近", "image": "", "rank": 6, "time": 2, "location": {"lat": 36.6264103778827, "lng": 116.0949919752191}, "feature": {"sight_features": "", "sight_content": ""}}, {"title": "茌平县洪官屯镇江北食府", "address": "洪屯镇聊夏路小魏庄桥西南侧", "image": "", "rank": 7, "time": 2, "location": {"lat": 38.010381080199444, "lng": 114.46741977426439}, "feature": {"sight_features": "", "sight_content": ""}}, {"title": "德胜农场", "address": "贾寨镇(近聊夏路)", "image": "", "rank": 8, "time": 2, "location": {"lat": 36.72001002894337, "lng": 116.0198944421616}, "feature": {"sight_features": "", "sight_content": ""}}, {"title": "教场铺遗址", "address": "山东省茌平县乐平铺镇教场铺村西北 252126", "image": "", "rank": 9, "time": 2, "location": {"lat": 36.40747846642686, "lng": 113.98863021372078}, "feature": {"sight_features": "", "sight_content": ""}}, {"title": "极限运动", "address": "山东省聊城市茌平县中心街", "image": "", "rank": 10, "time": 2, "location": {"lat": 36.60595382880853, "lng": 116.26398764231851}, "feature": {"sight_features": "", "sight_content": ""}}, {"title": "蓓蕾儿童乐园", "address": "山东省聊城市茌平县", "image": "", "rank": 11, "time": 2, "location": {"lat": 36.5867850688424, "lng": 116.26145544215375}, "feature": {"sight_features": "", "sight_content": ""}}, {"title": "宝福邻儿童城", "address": "中心街与振兴西路交叉口东北150米宝福邻购物中心", "image": "", "rank": 12, "time": 2, "location": {"lat": 36.597042490330416, "lng": 116.2634718218201}, "feature": {"sight_features": "", "sight_content": ""}}, {"title": "华严寺", "address": "聊城市茌平县", "image": "", "rank": 13, "time": 0.75, "location": {"lat": 36.5867850688424, "lng": 116.26145544215375}, "feature": {"sight_features": "", "sight_content": ""}}, {"title": "乐之源游乐场(茌平店)", "address": "中心街京都购物中心5层", "image": "", "rank": 14, "time": 2, "location": {"lat": 41.27058914409608, "lng": 123.17949688475375}, "feature": {"sight_features": "", "sight_content": ""}}, {"title": "马沙儿童乐园", "address": "马沙中心小学附近", "image": "", "rank": 15, "time": 2, "location": {"lat": 36.56138419139967, "lng": 116.23551920614746}, "feature": {"sight_features": "", "sight_content": ""}}, {"title": "新政游园", "address": "新政西路607", "image": "", "rank": 16, "time": 2, "location": {"lat": 36.59143520511158, "lng": 116.25541675344208}, "feature": {"sight_features": "", "sight_content": ""}}, {"title": "博平影剧院", "address": "山东省聊城市茌平县S257", "image": "", "rank": 17, "time": 2, "location": {"lat": 36.5867850688424, "lng": 116.26145544215375}, "feature": {"sight_features": "", "sight_content": ""}}, {"title": "信乐儿童乐园", "address": "隅西路", "image": "", "rank": 18, "time": 2, "location": {"lat": 36.58766456593151, "lng": 116.25807497568913}, "feature": {"sight_features": "", "sight_content": ""}}, {"title": "儿童乐园", "address": "中心街与文化路交叉口东南150米", "image": "", "rank": 19, "time": 2, "location": {"lat": 42.75217173623976, "lng": 123.36073620892014}, "feature": {"sight_features": "", "sight_content": ""}}, {"title": "老年书画研究会", "address": "隅东路", "image": "", "rank": 20, "time": 2, "location": {"lat": 36.59093644808373, "lng": 116.26497284720863}, "feature": {"sight_features": "", "sight_content": ""}}, {"title": "茌平跑马场", "address": "博平镇西段", "image": "", "rank": 21, "time": 0.4, "location": {"lat": 36.59642754444367, "lng": 116.08717349056892}, "feature": {"sight_features": "", "sight_content": ""}}, {"title": "乘风山庄马术俱乐部", "address": "博平汽车站往北500米路西", "image": "", "rank": 22, "time": 2, "location": {"lat": 36.60424788486155, "lng": 116.12236934299233}, "feature": {"sight_features": "", "sight_content": ""}}, {"title": "农民书画研究会", "address": "隅东路", "image": "", "rank": 23, "time": 2, "location": {"lat": 36.59093644808373, "lng": 116.26497284720863}, "feature": {"sight_features": "", "sight_content": ""}}, {"title": "茌平县图书馆", "address": "览胜街附近", "image": "", "rank": 24, "time": 2, "location": {"lat": 36.56321493176394, "lng": 116.25865256906424}, "feature": {"sight_features": "", "sight_content": ""}}, {"title": "山东新丝丽织造技术有限公司", "address": "胡屯乡工业园", "image": "", "rank": 25, "time": 2, "location": {"lat": 36.696683093248716, "lng": 116.19818066960806}, "feature": {"sight_features": "", "sight_content": ""}}, {"title": "蓝精灵童屋", "address": "青龙街68号附近", "image": "", "rank": 26, "time": 2, "location": {"lat": 32.455193783688266, "lng": 118.44361751614393}, "feature": {"sight_features": "", "sight_content": ""}}, {"title": "来鹤轩画廊", "address": "文化路与顺河街交叉口东南100米", "image": "", "rank": 27, "time": 2, "location": {"lat": 36.94793249749609, "lng": 116.0183372726787}, "feature": {"sight_features": "", "sight_content": ""}}, {"title": "龙凤画廊", "address": "枣乡街美景家园", "image": "", "rank": 28, "time": null, "location": {"lat": 36.58544155722586, "lng": 116.24661776263848}, "feature": {"sight_features": "", "sight_content": ""}}, {"title": "薰衣草(太和路)", "address": "太和路北50米", "image": "", "rank": 29, "time": 2, "location": {"lat": 39.80691602719401, "lng": 119.43238837458968}, "feature": {"sight_features": "", "sight_content": ""}}, {"title": "山东省聊城市夏氏庄园农业科技有...", "address": "杨青路肖家庄乡西侧", "image": "", "rank": 30, "time": 2, "location": {"lat": 36.69027689204256, "lng": 116.04300353915163}, "feature": {"sight_features": "", "sight_content": ""}}, {"title": "祥和商贸城", "address": "山东省茌平县中心街", "image": "", "rank": 31, "time": 2, "location": {"lat": 36.60595382880853, "lng": 116.26398764231851}, "feature": {"sight_features": "", "sight_content": ""}}, {"title": "新东方商贸城", "address": "山东省茌平县商业街", "image": "", "rank": 32, "time": 2, "location": {"lat": 36.59678866475197, "lng": 116.26813731252014}, "feature": {"sight_features": "", "sight_content": ""}}, {"title": "信发步行街", "address": "山东省茌平县信发步行街", "image": "", "rank": 33, "time": 2, "location": {"lat": 36.5995119335927, "lng": 116.26513485840395}, "feature": {"sight_features": "", "sight_content": ""}}, {"title": "茌平商业城", "address": "山东省茌平县中心街", "image": "", "rank": 34, "time": 2, "location": {"lat": 36.60595382880853, "lng": 116.26398764231851}, "feature": {"sight_features": "", "sight_content": ""}}, {"title": "金牛湖景区", "address": "聊城市茌平县城区西南(茌平三中北门对面)", "image": "", "rank": 35, "time": 2.0, "location": {"lat": 36.457768012398326, "lng": 116.26321207857852}, "feature": {"sight_features": "", "sight_content": ""}}]}