{"cityName": "淳化", "days": 2, "cityImage": "", "spots": [{"title": "汉云陵", "address": "陕西省咸阳市淳化县", "image": "", "rank": 1, "time": 2.0, "location": {"lat": 34.80477691129529, "lng": 108.58744176373197}, "feature": {"sight_features": "", "sight_content": ""}}, {"title": "淳化县", "address": "陕西省咸阳市", "image": "", "rank": 2, "time": 7.5, "location": {"lat": 34.335476293368586, "lng": 108.71542245143303}, "feature": {"sight_features": "", "sight_content": ""}}, {"title": "阳光农场", "address": "焦爷公路", "image": "", "rank": 3, "time": 2, "location": {"lat": 34.85443329794283, "lng": 108.67026322310679}, "feature": {"sight_features": "", "sight_content": ""}}, {"title": "甘泉宫", "address": "县城北35公里", "image": "", "rank": 4, "time": 2, "location": {"lat": 30.956961144774052, "lng": 117.80121720154149}, "feature": {"sight_features": "", "sight_content": ""}}, {"title": "甘泉湖旅游景区", "address": "甘泉湖旅游景区", "image": "", "rank": 5, "time": 2, "location": {"lat": 34.797782859354406, "lng": 108.59172024645221}, "feature": {"sight_features": "", "sight_content": ""}}, {"title": "淳化图书馆", "address": "人民街中段附近", "image": "", "rank": 6, "time": 1.5, "location": {"lat": 34.80257770024408, "lng": 108.587691043511}, "feature": {"sight_features": "", "sight_content": ""}}, {"title": "陕西省机电工程学校农场", "address": "232县道附近", "image": "", "rank": 7, "time": 2, "location": {"lat": 25.299851241884024, "lng": 118.7514332553701}, "feature": {"sight_features": "", "sight_content": ""}}, {"title": "凤凰塬山庄", "address": "淳耀路滨河路北段路口附近", "image": "", "rank": 8, "time": 6.0, "location": {"lat": 34.809514732046914, "lng": 108.59041021428969}, "feature": {"sight_features": "", "sight_content": ""}}, {"title": "犁园广场", "address": "南新街中段附近", "image": "", "rank": 9, "time": 2, "location": {"lat": 34.801091222633204, "lng": 108.58803958604888}, "feature": {"sight_features": "", "sight_content": ""}}, {"title": "泥河谷博物馆小镇", "address": "石桥镇北咀头", "image": "", "rank": 10, "time": 2, "location": {"lat": 34.78215918417495, "lng": 108.66513606984923}, "feature": {"sight_features": "", "sight_content": ""}}, {"title": "爷台山战役纪念馆", "address": "陕西省咸阳市淳化县焦爷公路", "image": "", "rank": 11, "time": 2, "location": {"lat": 34.85443329794283, "lng": 108.67026322310679}, "feature": {"sight_features": "", "sight_content": ""}}, {"title": "童爱岛儿童乐园", "address": "城关镇梨园广场", "image": "", "rank": 12, "time": 2, "location": {"lat": 34.799672893254304, "lng": 108.58937177312016}, "feature": {"sight_features": "", "sight_content": ""}}, {"title": "西山公园(淳化县学生资助管理中...", "address": "陕西省咸阳市淳化县西山二路南100米", "image": "", "rank": 13, "time": 2, "location": {"lat": 34.80477691129529, "lng": 108.58744176373197}, "feature": {"sight_features": "", "sight_content": ""}}, {"title": "甘泉湖旅游景区-文博馆", "address": "滨河路中段附近", "image": "", "rank": 14, "time": 2, "location": {"lat": 33.63020030552241, "lng": 114.65633903023576}, "feature": {"sight_features": "", "sight_content": ""}}, {"title": "淳化档案", "address": "人民街北段", "image": "", "rank": 15, "time": 2, "location": {"lat": 34.80732446606567, "lng": 108.5876200773757}, "feature": {"sight_features": "", "sight_content": ""}}]}