{"cityName": "楚雄", "days": 2, "cityImage": "", "spots": [{"title": "禄丰世界恐龙谷", "address": "禄丰县川街世界恐龙谷风景区", "image": "", "rank": 1, "time": 3.5, "location": {"lat": 24.978267136189128, "lng": 102.0777644256661}, "feature": {"sight_features": "特色1 走进失落的恐龙王国，穿越侏罗纪世界。了解恐龙三个年代三叠纪、侏罗纪、白垩纪的景观、动植物等。 特色2 穿越亿万年的时光，感受与恐龙同行的中华大地，在刺激、奇幻侏罗纪世界中穿梭，恐龙谷与你同在！恐龙时空乐园给你不一样的视觉盛宴！恐龙危机、飞越侏罗纪、神萧传奇、4D欢乐影院、摩托过山车......40多项引入世界一流科技，融入恐龙文化的高精尖游乐项目。时空密码、机械山谷、围捕猎龙岛、智龙国度、多多乐园五大园区精心为旅客朋友打造出一个神奇的恐龙乐园国度。走遍四海，让你我欢聚恐龙谷！", "sight_content": "恐龙时空乐园十大必玩项目介绍\n一、五大王牌项目\n1、恐龙危机\n基础信息：引进国际一流沉浸体验的高科技恐龙主题特种影视项目\n推荐理由：沉浸、极速、俯冲、追捕与逃生\n推荐指数：★★★★★\n刺激指数：★★★★★\n产品介绍：游客乘坐时空穿梭设备，重返恐龙世界，穿梭在龙爪利齿间， 身临其境感受恐龙危机，在机器人的帮助下成功解除危机，重返现实！\n温馨提示：身高1.4m以上的游客方可乘坐\n2、飞越侏罗纪\n基础信息：重返侏罗纪主题飞行影院\n推荐理由：爬升、俯冲、急转、鸟瞰、翱翔侏罗纪世界\n推荐指数：★★★★★\n刺激指数：★★★★★\n产品介绍：游客乘坐特殊飞行器翱翔彩云之南，在电闪雷鸣间穿越回到侏罗纪世界，体验飞行中爬升、俯冲、急转的刺激，翱翔恐龙世界，亲眼目睹恐龙灭绝，最终安全返回时空乐园。\n温馨提示：身高1.4m以上的游客（有恐高症不建议乘坐）方可乘坐\n3、4D欢乐影院\n基础信息：恐龙主题环境4D影院\n推荐理由：环境4D影院，近距离与恐龙明星互动\n推荐指数：★★★★★\n刺激指数：★★★\n欢乐指数：★★★★★\n产品介绍：恐龙快乐家族五只小恐龙欢聚一堂，一场狂欢party邀你嗨翻侏罗纪，萌翻你对“可爱”的定义。适合人群：老少皆宜\n4、神萧传奇\n基础信息：一部讲述韩湘子与龙女凄美爱情故事的魔幻剧场\n推荐理由：魔幻、奇幻、爱情、魔法刷新你的视觉新感受！\n推荐指数：★★★★★\n刺激指数：★★★★\n唯美指数：★★★★★\n产品介绍：古老而美丽的韩湘子与龙王之女的爱情故事通过高科技手段完美呈现，人物的突然出现与凭空消失、神族间的魔法之战，颠覆你对魔幻的概念，萌发你对美好爱情的向往！\n适合人群：老少皆宜\n\n\n5、多多脱口秀\n基础信息：恐龙主题脱口秀剧场\n推荐理由：搞怪、趣味、互动、整蛊、脱口秀\n推荐指数：★★★★★\n刺激指数：★★★\n童趣指数：★★★★★\n产品介绍：恐龙快乐家族主要成员乐多多的精彩脱口秀，强大气场让现场每位游客笑声不断，逢年过节还有特殊的节目祝福，一不小心你就会被恶搞哟！\n适合人群：老少皆宜！\n二、五大经典游乐项目\n1、翼龙飞翔\n基础信息：奇妙刺激的翼龙来回盘转、滑行，感受风的呼啸，放飞畅快心情。\n推荐理由：旋转、眩晕\n推荐指数：★★★★★\n刺激指数：★★★★\n尖叫指数：★★★★\n产品介绍：集娱乐性、趣味性、惊险刺激性为一体，乘坐旋转座椅的不断攀升，在极速飞旋中缓慢下降，使乘客座椅在离心力的作用下绕立柱飞旋，给乘客带来无穷乐趣。\n温馨提示：身高1.4m—1.9m的游客方可乘坐\n2、暴龙啸天\n基础信息：一座48米的\"惊险之塔\"\n推荐理由：极速、失重\n推荐指数：★★★★★\n刺激指数：★★★★\n尖叫指数：★★★★★\n产品介绍： 1.8秒弹射到48米高空，让你感受一次惊心动魄的历程，释放所有压力，体验前所未有的激情和欢乐。\n温馨提示：身高1.4m—1.9m的游客方可乘坐\n3、猎龙峡谷\n基础信息：侏罗纪时代的恐龙主题水道峡谷漂流项目\n推荐理由：峡谷、漂流、刺激、湿身\n推荐指数：★★★★★\n刺激指数：★★★\n欢乐指数：★★★★\n产品介绍：在整个漂流过程中，乘客不仅能经历惊涛骇浪，急流旋转等瞬息万变的惊险场面，亦能欣赏到恐龙世界中群山重叠的盛景，在人造烟雾缭绕，银河飞瀑化作烟雨清风，涓涓流水等大自然的无限风光，感受到回归大自然的无穷乐趣。\n温馨提示：身高1.4m—1.9m的游客方可乘坐\n\n\n4、围捕猎龙岛\n基础信息：恐龙主题的两级提升飞舟冲浪项目\n推荐理由：极速、失重、刺激、湿身\n推荐指数：★★★★★、\n刺激指数：★★★★\n欢乐指数：★★★★\n产品介绍：让游客体验滔天巨浪，惊心动魄，乘坐漂流船经历种种险情，从26米高空冲下，逃离恐龙口，以高达 80 km/h 速度冲入冲浪池，体验高空滑坠的尖叫和畅快。\n温馨提示：身高1.4m—1.9m的游客方可乘坐\n5、过山龙\n基础信息：西南首个摩托过山车项目\n推荐理由：极速、失重、刺激、眩晕\n推荐指数：★★★★★\n刺激指数：★★★★★\n欢乐指数：★★★★\n产品介绍：英勇的骑士驾驭摩托车像赛车手一样极速的飞驰于轨道之上。3秒提速狂飙，135公里/小时高空疾驰，全程疯狂心跳，让你感受不一样的过山车，给你带来不一样的心跳体验！\n温馨提示：身高1.4m—1.9m的游客方可乘坐"}}, {"title": "元谋土林", "address": "元谋县物茂乡土林街1号", "image": "", "rank": 2, "time": 2.5, "location": {"lat": 25.93649265608852, "lng": 101.77904516873247}, "feature": {"sight_features": "特色1 如林的土柱千姿百态，远远看去非常大气。 拍壮美的土林日出和日落，在浪巴铺还能以土林为前景拍星轨。", "sight_content": "元谋土林是一种土状堆积物塑造的、成群的柱状地形，因远望如林而得名。土林一般出现在盆地或谷地内，以近年在中国云南元谋发现的为最典型，反映了古地理变迁和地貌发育过程。云南元谋的浪巴铺土林又叫新华土林，地处元谋、大姚、牟定3县交界的大山深处，位于元谋县的新华乡。主要由一 条主沙箐和34条幽谷组成，分为4个片区。\n雪峰状土林规模较大，高达40米；在色彩上，顶部以紫红色为主，中上部为灰色，中下部以 黄色为基调，其间夹有褐红、灰白、棕黄、灰黑、樱红等多色组成。物茂土林景区位于云南元谋县物茂乡罗兴村委会，又称虎跳滩土林，发育于一套河流相间砾石层、沙层夹粘土层的地层中。物茂土林旅游资源十分丰富，千奇百怪的土柱造型、深远宁静的幽谷地缝、高悬半空的洞穴天门、原始粗犷的沙沟荒漠、怪模怪样的五彩奇石和种类繁多的远古 植物化石，组成了景区内丰富的景观。"}}, {"title": "彝人古镇", "address": "楚雄彝族自治州楚雄市永安路543号", "image": "", "rank": 3, "time": 3.0, "location": {"lat": 25.05803901201985, "lng": 101.52482600035772}, "feature": {"sight_features": "", "sight_content": ""}}, {"title": "禄丰恐龙博物馆", "address": "楚雄州禄丰县金山镇金山南路95号", "image": "", "rank": 4, "time": 2.5, "location": {"lat": 25.147627659816667, "lng": 102.08280751279744}, "feature": {"sight_features": "", "sight_content": ""}}, {"title": "狮子山旅游区", "address": "楚雄州武定县狮子山旅游景区", "image": "", "rank": 5, "time": 2.5, "location": {"lat": 25.536089587806806, "lng": 102.4105318203669}, "feature": {"sight_features": "特色1 素有“西南第一山”之称", "sight_content": "武定狮子山风景区距昆明88公里，主峰海拔2419.8米，年均气温13.2°c，冬无严寒，夏无酷暑。是一个以一山一湖一箐为主体，融山水风光，文物古迹、人文地质、民族风情为一体的风景名胜区。景区总面积166平方公里，分为4个片区。 　　武定狮子山素有“西南第一山”之称，山势雄险，在蜿蜒起伏的丘陵中拔地而起，像一头雄踞而视的狮子。山中箐谷幽深，林木葱郁，一些珍禽异兽相嬉于其间。在壁立的悬岩中，一条历史悠久的石阶沿山势曲折而上，沿途有很多景点，有虬劲蟠立的迎客松，有峻峭惊险的观日亭，有造型粗犷的蛇头岩，有山岚掩映的双笋峰，有神秘诱人的观音洞，有幽深险奇的“九曲黄河”、“曲水流觞”等，还有人工雕琢环境优雅的礼斗阁、月牙塘。这些遍布于悬岩峭壁间的景点，把人们带到了一个奇妙的世界。每当天气晴朗的凌晨，总有很多的游客来到观日亭上，观看狮山日出。高原名山的日出，自有一番迷人的景象。\n狮山主峰海拔2452米，与武定县城高差达680米。在从县城出发，盘山而上的短短数公里，一股宜人的清新空气扑面而来，令人心旷神怡。狮山风景与周围环境迥然有别，仿佛周围丘陵与山地相簇拥的一方世外桃源。风景区东西长12公里，南北宽8公里，总面积0.78万亩，四周立有永久性界碑。1982年5月7日，楚雄州人大常委会批准狮山为州级自然保护区，主要保护对象为亚热带半湿润常绿阔叶林。保护区内森林覆盖率为42%，属元江栲、滇青冈生态群落。狮山植物种类丰富，共有86科165属214种。狮山自然保护区对维持地方生态衡，涵养水源发挥着重要作用。"}}, {"title": "黑井古镇", "address": "楚雄彝族自治州禄丰县黒井古镇风景区", "image": "", "rank": 6, "time": 2.0, "location": {"lat": 25.155830804806403, "lng": 102.0855313547639}, "feature": {"sight_features": "特色1 历史纹脉清晰，特色鲜明", "sight_content": "黑井古镇位于云南省楚雄彝族自治州的“恐龙之乡”——禄丰县，自古以来是个产贡盐的地方。它依山傍江，是一个久封于龙川江河谷中已经差不多一个世纪的小镇，是云南四大古镇之一。据《黑盐井志》记载：“土人李阿召牧牛山间，一牛倍肥泽，后失牛，因迹之，至井处，牛舔地出盐。”为纪念这头黑牛的功绩，遂称此地为“黑牛盐井”，后称“黑井”。这里民风淳朴，风景秀丽，是个与世隔绝的地方。\n黑井仍保留着较为完整的传统城镇格局，有21处文物保护单位，是禄丰县乃至楚雄州有名的文物大镇。历经千年，古镇风貌依旧，历史纹脉清晰，特色鲜明。\n关于黑井，金庸《天龙八部》有语：“保定帝下旨免了盐税，大理国万民感恩。云南产盐不多，通国只白井、黑井、云龙等九井产盐，每年须向蜀中买盐，盐税甚重，边远贫民一年中往往有数月淡食。保定帝知道盐税一免，黄眉僧定要设法去救段誉以报……”黑井，就是大理国仅有的9个盐井之一。\n“盐城”早已失去了昔日的辉煌，却留下了古色古香的具有唐宋风貌坊巷，颇具明清风格的民居，碑刻、石雕、古塔、石牌坊、古戏台，以及古寺庙、古盐井、煮盐灶户等，特别是享誉省内外的保存完好的明清建筑典型的武家大院，吸引了众多的海内外游客。\n“王”字型的武家大院豪宅、贞节牌坊、道光皇帝的御笔、飞来寺、以前曾产过盐的盐井及卤水池子仍留在那里。在龙祠内悬挂着雍正皇帝所题写的牌匾，上书“灵源普泽”四个大字。此匾长2米多、宽80厘米，匾上雕有9个龙头。“灵源普泽”四字也正是雍正皇对当时黑井卤水惠泽普天下的评价。还有始建于明末，完工于清道光年间，至今仍发挥着防洪作用，护卫着黑井镇的安全的黑井庆安堤，也是一个不可不去的地方。"}}, {"title": "彝人部落", "address": "楚雄经济开发区彝人古镇内", "image": "", "rank": 7, "time": 2, "location": {"lat": 25.05112600374207, "lng": 101.55180205822019}, "feature": {"sight_features": "", "sight_content": ""}}, {"title": "浪巴铺土林（新华土林）", "address": "楚雄彝族自治州元谋县新华乡浪巴铺村", "image": "", "rank": 8, "time": 1.0, "location": {"lat": 25.685770123029403, "lng": 101.71583818234144}, "feature": {"sight_features": "特色1 土林高大密集，类型齐全", "sight_content": "元谋土林是一种土状堆积物塑造的、成群的柱状地形，因远望如林而得名。土林一般出现在盆地或谷地内，以近年在中国云南元谋发现的为最典型，反映了古地理变迁和地貌发育过程。云南元谋的浪巴铺土林又叫新华土林，地处元谋、大姚、牟定3县交界的大山深处，位于元谋县的新华乡\n雪峰状土林规模较大，高达40米；在色彩上，顶部以紫红色为主，中上部为灰色，中下部以 黄色为基调，其间夹有褐红、灰白、棕黄、灰黑、樱红等多色组成。物茂土林景区位于云南元谋县物茂乡罗兴村委会，又称虎跳滩土林，发育于一套河流相间砾石层、沙层夹粘土层的地层中。主要由一 条主沙箐和34条幽谷组成，分为4个片区。物茂土林旅游资源十分丰富，千奇百怪的土柱造型、深远宁静的幽谷地缝、高悬半空的洞穴天门、原始粗犷的沙沟荒漠、怪模怪样的五彩奇石和种类繁多的远古 植物化石，组成了景区内丰富的景观。"}}, {"title": "紫溪山森林公园", "address": "楚雄市城西，距离楚雄市25公里，在320国道旁", "image": "", "rank": 9, "time": 2.0, "location": {"lat": 25.078517381766446, "lng": 101.65814984242537}, "feature": {"sight_features": "", "sight_content": ""}}, {"title": "物茂土林（虎跳滩土林）", "address": "楚雄彝族自治州元谋县物茂乡土林街1号", "image": "", "rank": 10, "time": null, "location": {"lat": 25.93649265608852, "lng": 101.77904516873247}, "feature": {"sight_features": "特色1 沟壑纵横，荒凉粗犷", "sight_content": "虎跳滩土林位于元谋县城西北32公里的物茂乡虎溪行政村，又称物茂土林，芝麻土林，总面积2．3平方公里。虎跳滩土林形状以城堡状、屏风状、帘状为主，高度一般1015米，最高27米。从远处眺望虎跳滩土林，沟壑纵横，荒凉粗犷、犹如一座废弃的城堡。而近看则像一组组工程巨大的艺术群雕。\n虎跳滩土林的景点分布在主沟和支沟两侧。主沟为东西向的干涸河床，宽1040米，总长1500米，河床表面为黄色细砂和彩色砾石。支沟分布在主沟南北两则，宽0．5－8米，总长4300米。土林佳景大多集中在支沟两侧。主沟的北侧有元帅府，古堡幽情，骆驼峰3条支沟；南侧有无名沟，欧亚奇观2条支沟；另外还有几条小支沟尚未命名。欧亚奇观是虎跳滩土林最佳景观，这里土林高大挺拔，造型大都似古代宫廷殿堂，中西合璧，相映生辉。元帅府土林以动物造型为特色，如熊猫、狮、虎、鹰、雕等走兽飞禽，惟妙惟肖。古堡幽情以赤、褐、黑三色土帽盖顶而取胜。虎跳滩土林东南600米处有虎跳滩瀑布，建有一个小型水力发电站。瀑布有三级，落差不大，但为土林增添了动感。"}}, {"title": "石羊古镇", "address": "楚雄彝族自治州大姚县城西北部35公里处", "image": "", "rank": 11, "time": 2, "location": {"lat": 25.727600600572302, "lng": 101.33056746712646}, "feature": {"sight_features": "特色1 中原文化和彝族文化在此碰撞交融", "sight_content": "石羊古镇距大姚县城仅30公里车程，从县城往西北方一路沿着平坦的柏油路前行，路随峰转，时而曲折，时而平直，路经十几个路边小村，一路有奇峰怪石，有葱葱郁郁的沧桑古树.一路前行下来，不知不觉便身居古镇怀抱之中。\n石羊，自西汉凿井采盐以来，就是云南井盐的盛产地，明末清初是石羊制盐的鼎盛时期，虽手工作坊年产盐已达九百多万千。南疆数省，边陲邻国，均以能享洁白如雪的白井盐为荣。商贾云集和历代王朝官吏“直属提举司”的轮换，使石羊成为众生仰慕向往的黄金宝地的同时，也给地处深山僻壤的石羊带来多元文化的冲击。“立学校以振民风，设关律以便行旅，造塔坊以培文风”。\n石羊，古称白井，位于楚雄州大姚县西北部，距县城35公里，国土面积407平方公里，总人口27668人。它是一个历史悠久，文化底蕴深厚的小镇。历史上，中原文化和彝族文化在此碰撞交融，儒家文化、盐文化、佛教、道教、伊斯兰教等宗教文化在此相互激荡，留下了灿烂的历史文化和风土人情。石羊方圆不越十里，明清时曾设灵源、张公、绿萝、龙泉、龙吟五大书院及多所义学、塾馆，各种文化相互激荡、交融，孕育有了现有石羊特色的石羊文化。 尽管经历了较多的历史沧桑和自然灾害的破坏，但仍保留下来了许多悠久的历史遗存，并以其深厚的文化底蕴，1995年8，被省人民政府命名为首批三个历史文化名镇之一。"}}, {"title": "楚雄州博物馆", "address": "楚雄市鹿城南路471号", "image": "", "rank": 12, "time": 1.0, "location": {"lat": 25.030593257670166, "lng": 101.55495939008662}, "feature": {"sight_features": "", "sight_content": ""}}, {"title": "己衣大裂谷", "address": "楚雄彝族自治州武定县己衣乡", "image": "", "rank": 13, "time": 2.0, "location": {"lat": 26.103881131693157, "lng": 102.26268510636153}, "feature": {"sight_features": "", "sight_content": ""}}, {"title": "彝族十月太阳历文化园", "address": "楚雄市北郊太阳历大道", "image": "", "rank": 14, "time": 2.0, "location": {"lat": 25.05478465146547, "lng": 101.53801913310707}, "feature": {"sight_features": "", "sight_content": ""}}, {"title": "黒井古镇", "address": "楚雄彝族自治州禄丰县", "image": "", "rank": 15, "time": 3.0, "location": {"lat": 25.155830804806403, "lng": 102.0855313547639}, "feature": {"sight_features": "", "sight_content": ""}}, {"title": "水城河", "address": "楚雄州武定县水城村", "image": "", "rank": 16, "time": 3.5, "location": {"lat": 25.819868325979098, "lng": 102.35918074285539}, "feature": {"sight_features": "", "sight_content": ""}}, {"title": "福塔公园", "address": "楚雄彝族自治州楚雄市", "image": "", "rank": 17, "time": 1.5, "location": {"lat": 25.03886038832341, "lng": 101.55247228396097}, "feature": {"sight_features": "", "sight_content": ""}}, {"title": "咪依噜风情谷", "address": "楚雄彝族自治州南华县217省道东北", "image": "", "rank": 18, "time": 1.0, "location": {"lat": 25.236159133250514, "lng": 101.274411245647}, "feature": {"sight_features": "", "sight_content": ""}}, {"title": "班果土林", "address": "楚雄州元谋县城西18公里的平田乡东南400米沙河处", "image": "", "rank": 19, "time": 2.0, "location": {"lat": 25.744595631333944, "lng": 101.77008833068197}, "feature": {"sight_features": "", "sight_content": ""}}, {"title": "龙华寺", "address": "楚雄州姚安县城北12公里的光禄镇西山", "image": "", "rank": 20, "time": 2.0, "location": {"lat": 25.63379392494564, "lng": 101.23823211251583}, "feature": {"sight_features": "", "sight_content": ""}}, {"title": "大姚白塔", "address": "楚雄州大姚县西城门外的文笔山顶", "image": "", "rank": 21, "time": 2.0, "location": {"lat": 25.727600600572302, "lng": 101.33056746712646}, "feature": {"sight_features": "", "sight_content": ""}}, {"title": "石羊孔庙", "address": "楚雄州大姚县城西面36公里的石羊镇", "image": "", "rank": 22, "time": 2.0, "location": {"lat": 25.85291042524798, "lng": 101.10784940083944}, "feature": {"sight_features": "", "sight_content": ""}}, {"title": "金沙江", "address": "云南高原西北部、川西南山地", "image": "", "rank": 23, "time": 1.5, "location": {"lat": 27.963388024859785, "lng": 104.1239589302782}, "feature": {"sight_features": "", "sight_content": ""}}, {"title": "虎跳滩峡谷", "address": "楚雄州元谋县物茂乡境内（与虎跳滩土林相距仅100米）。", "image": "", "rank": 24, "time": null, "location": {"lat": 25.93649265608852, "lng": 101.77904516873247}, "feature": {"sight_features": "", "sight_content": ""}}, {"title": "元谋人遗址", "address": "楚雄市元谋县大那乌村北约500米的山腰", "image": "", "rank": 25, "time": 1.0, "location": {"lat": 25.678763632880557, "lng": 101.91615145191143}, "feature": {"sight_features": "", "sight_content": ""}}, {"title": "元谋人陈列馆", "address": "楚雄州元谋县龙川街", "image": "", "rank": 26, "time": 2.0, "location": {"lat": 25.71051621589588, "lng": 101.88058479964626}, "feature": {"sight_features": "", "sight_content": ""}}, {"title": "化佛山", "address": "楚雄彝族自治州牟定县", "image": "", "rank": 27, "time": 1.0, "location": {"lat": 25.318845903713523, "lng": 101.5534809912178}, "feature": {"sight_features": "", "sight_content": ""}}, {"title": "永仁方山", "address": "楚雄州永仁县城东北", "image": "", "rank": 28, "time": 2.0, "location": {"lat": 26.055565754520842, "lng": 101.67249299666791}, "feature": {"sight_features": "", "sight_content": ""}}, {"title": "姚安路军民总管府", "address": "楚雄彝族自治州姚安县光禄古镇", "image": "", "rank": 29, "time": 1.0, "location": {"lat": 25.591603716687295, "lng": 101.20956722592226}, "feature": {"sight_features": "特色1 世称“七朝古衙”", "sight_content": "姚安路军民总管府旧址所在地光禄，今为姚安一镇。史上则为政权建置最早，辉煌盛极一时的政治经济军事文化中心。总管府位于龙华山下古镇之西，与高雪君祠（高氏土衙）、高氏宗祠为邻，为国家级文物保护单位。历经两汉、唐（南诏）、宋(大理）、元、明、清七代。期间或军镇、或府衙、或自治土司衙署，皆有政治管理机构相延。世称“七朝古衙”。\n公元前109年，汉武帝置弄栋县，行政区域覆盖今日之楚雄、南华、牟定、元谋、姚安、广通等地。公元664年，为统一指挥洱海及滇池地区各部落抗御土蕃南下，唐高宗移建姚州都督府于此，又设南中统部，事关西南全局，军镇之地位，堪称六诏之中分，三川之门户，南中之锁钥。其建置军政合一，节制五十七州县，对如今的川西南、贵州西部、云南全境实行安抚和军事管理。南诏与唐王朝之间的天宝战争就是从姚州都督府而起。安史之乱使唐由盛而衰，天宝战争则是使唐由衰而亡的又一转折点。天宝之祸结束后，蒙段割据，偏安南诏国、大理国计五百余年。先为南诏国弄栋府，置弄栋节度，为六节度之一；后为大理国统矢逻，又名姚府，为八大名府之一。公元1328年，元文宗设姚安路军民总管府。公元1382年，明太祖改元朝建置姚安路为明朝建置姚安府，之后又改为姚安军民总管府。公元1760年，清乾隆裁府为州，称姚州，隶楚雄府。公元1914年，民国一体设县，称姚安县。此后，县名相沿至今。"}}, {"title": "德丰寺", "address": "楚雄彝族自治州姚安县南正街90号", "image": "", "rank": 30, "time": 2.0, "location": {"lat": 25.508997791531886, "lng": 101.24655515111398}, "feature": {"sight_features": "", "sight_content": ""}}, {"title": "禄丰恐龙化石遗址", "address": "禄丰县城4.5公里处", "image": "", "rank": 31, "time": 2.0, "location": {"lat": 25.155830804806403, "lng": 102.0855313547639}, "feature": {"sight_features": "", "sight_content": ""}}, {"title": "禄丰长龙温泉水乐园", "address": "楚雄市禄丰县侏罗纪大街恐龙环岛", "image": "", "rank": 32, "time": 2, "location": {"lat": 25.12533139455311, "lng": 102.07225907051945}, "feature": {"sight_features": "", "sight_content": ""}}, {"title": "南华德茂温泉庄园", "address": "楚雄彝族自治州南华县曹家冲（民族中学背后）", "image": "", "rank": 33, "time": 2, "location": {"lat": 25.19858707115555, "lng": 101.28042055018456}, "feature": {"sight_features": "", "sight_content": "南华德茂庄园是一家集温水游泳、水上冲关、儿童戏水、森林温水池、休闲娱乐、餐饮美食、垂钓、划船、生态景观等为一体的大型生态观光游乐园。"}}, {"title": "楚雄彝族自治州博物馆", "address": "中国云南省楚雄彝族自治州楚雄市鹿城南路", "image": "", "rank": 34, "time": 2, "location": {"lat": 25.03205192937694, "lng": 101.55375329456693}, "feature": {"sight_features": "", "sight_content": ""}}, {"title": "天生桥", "address": "楚雄彝族自治州武定县己衣乡己衣大裂谷景区内", "image": "", "rank": 35, "time": 0.3, "location": {"lat": 26.10209998600536, "lng": 102.2750019941879}, "feature": {"sight_features": "", "sight_content": ""}}, {"title": "广通温泉", "address": "楚雄市禄丰县广通镇平地村委会龙川江河畔广通温泉度假村", "image": "", "rank": 36, "time": 2, "location": {"lat": 25.217047287151953, "lng": 101.65139726194299}, "feature": {"sight_features": "", "sight_content": ""}}, {"title": "禄丰恐龙谷", "address": "云南省楚雄彝族自治州禄丰县", "image": "", "rank": 37, "time": 2, "location": {"lat": 25.155830804806403, "lng": 102.0855313547639}, "feature": {"sight_features": "", "sight_content": ""}}, {"title": "峨碌公园", "address": "楚雄彝族自治州楚雄市西小山路", "image": "", "rank": 38, "time": 2, "location": {"lat": 25.03278959272028, "lng": 101.54792120145218}, "feature": {"sight_features": "", "sight_content": ""}}, {"title": "禄丰五台山", "address": "云南省楚雄彝族自治州禄丰县和平镇五台山", "image": "", "rank": 39, "time": 2.0, "location": {"lat": 25.32543044232414, "lng": 102.0971567862971}, "feature": {"sight_features": "", "sight_content": ""}}, {"title": "元谋猿人博物馆", "address": "楚雄彝族自治州元谋县G5京昆高速出口", "image": "", "rank": 40, "time": 7.5, "location": {"lat": 26.079985004075205, "lng": 101.7062674872209}, "feature": {"sight_features": "", "sight_content": ""}}, {"title": "太阳历公园", "address": "云南省楚雄市市郊", "image": "", "rank": 41, "time": 2, "location": {"lat": 25.03886038832341, "lng": 101.55247228396097}, "feature": {"sight_features": "", "sight_content": ""}}, {"title": "中国第一福塔", "address": "云南省楚雄彝族自治州楚雄市 ‎", "image": "", "rank": 42, "time": 2, "location": {"lat": 25.03886038832341, "lng": 101.55247228396097}, "feature": {"sight_features": "", "sight_content": ""}}, {"title": "大龙祠", "address": "楚雄州禄丰县黑井古镇内", "image": "", "rank": 43, "time": 2, "location": {"lat": 25.37519754777876, "lng": 101.75227451830615}, "feature": {"sight_features": "", "sight_content": ""}}, {"title": "古盐坊", "address": "楚雄彝族自治州禄丰县001乡道与002乡道交叉口东北100米", "image": "", "rank": 44, "time": 2, "location": {"lat": 25.406290677576315, "lng": 101.77899609789571}, "feature": {"sight_features": "", "sight_content": ""}}, {"title": "肥牛食府", "address": "217省道附近", "image": "", "rank": 45, "time": 2, "location": {"lat": 39.08362397662689, "lng": 117.74948306857745}, "feature": {"sight_features": "", "sight_content": ""}}, {"title": "武家大院", "address": "楚雄州禄丰县黑井古镇内", "image": "", "rank": 46, "time": 2, "location": {"lat": 25.37519754777876, "lng": 101.75227451830615}, "feature": {"sight_features": "", "sight_content": ""}}, {"title": "飞来寺", "address": "楚雄州禄丰县黑井古镇内", "image": "", "rank": 47, "time": 2.0, "location": {"lat": 25.37519754777876, "lng": 101.75227451830615}, "feature": {"sight_features": "", "sight_content": ""}}, {"title": "水城河何家院农家乐", "address": "插甸乡水城自然风景区南50米", "image": "", "rank": 48, "time": 1.0, "location": {"lat": 25.825442473678187, "lng": 102.36103218913797}, "feature": {"sight_features": "", "sight_content": ""}}, {"title": "凤凰温泉", "address": "大猪街附近", "image": "", "rank": 49, "time": 6.0, "location": {"lat": 25.388969286003253, "lng": 102.30435929556664}, "feature": {"sight_features": "", "sight_content": ""}}, {"title": "唐仁桩", "address": "219省道附近", "image": "", "rank": 50, "time": 2, "location": {"lat": 40.151047949015684, "lng": 115.89871895858025}, "feature": {"sight_features": "", "sight_content": ""}}, {"title": "迎光农家乐", "address": "214省道西50米", "image": "", "rank": 51, "time": 2, "location": {"lat": 40.25674691410845, "lng": 116.28050499862889}, "feature": {"sight_features": "", "sight_content": ""}}, {"title": "老虎跳峡", "address": "云南省双柏县大麦地乡小麦地冲村 675105", "image": "", "rank": 52, "time": 2, "location": {"lat": 24.39502186887264, "lng": 101.85915531747534}, "feature": {"sight_features": "", "sight_content": ""}}, {"title": "三潭瀑布", "address": "云南省楚雄彝族自治州大姚县", "image": "", "rank": 53, "time": 2, "location": {"lat": 25.727600600572302, "lng": 101.33056746712646}, "feature": {"sight_features": "", "sight_content": ""}}, {"title": "炼象关", "address": "云南省禄丰县金山镇腰站村委会境内", "image": "", "rank": 54, "time": 2, "location": {"lat": 25.143000277545593, "lng": 102.07273426874426}, "feature": {"sight_features": "", "sight_content": ""}}, {"title": "云南禄丰恐龙国家地质公园", "address": "云南省楚雄彝族自治州禄丰县 Z182县道", "image": "", "rank": 55, "time": 2, "location": {"lat": 25.155830804806403, "lng": 102.0855313547639}, "feature": {"sight_features": "", "sight_content": ""}}, {"title": "黑井文庙", "address": "云南省楚雄州禄丰县黑井镇", "image": "", "rank": 56, "time": 2, "location": {"lat": 25.377161771865804, "lng": 101.75240288975671}, "feature": {"sight_features": "", "sight_content": ""}}, {"title": "江边红军长征纪念馆", "address": "元谋县红军横渡金沙江渡口景区内", "image": "", "rank": 57, "time": 2, "location": {"lat": 25.970476916116542, "lng": 101.89531462410561}, "feature": {"sight_features": "", "sight_content": ""}}, {"title": "贞孝总坊", "address": "黑井古镇一街街尾靠五马桥头处", "image": "", "rank": 58, "time": 2, "location": {"lat": 25.382142616366764, "lng": 101.75388388383016}, "feature": {"sight_features": "", "sight_content": ""}}, {"title": "楚雄太空奇幻主题乐园", "address": "楚雄彝族自治州楚雄市彝人古镇旁太阳历公园西南侧", "image": "", "rank": 59, "time": 1.5, "location": {"lat": 25.0640419348429, "lng": 101.52361041424032}, "feature": {"sight_features": "", "sight_content": ""}}, {"title": "广通镇", "address": "楚雄彝族自治州禄丰县广通镇", "image": "", "rank": 60, "time": 2.5, "location": {"lat": 25.172287480679707, "lng": 101.75614615935793}, "feature": {"sight_features": "", "sight_content": ""}}]}