{"cityName": "滁州", "days": "", "cityImage": "", "spots": [{"title": "琅琊山", "address": "滁州市南谯区西南郊", "image": "", "rank": 1, "time": 7.5, "location": {"lat": 32.20613189926425, "lng": 118.42348205203612}, "feature": {"sight_features": "特色1 欧阳修《醉翁亭记》里描述的山。 特色2 访文中让泉、醉翁亭等景物。登顶南天门，体验“醉翁之意不在酒，在乎山水之间”的乐趣。", "sight_content": "琅琊山为国家重点风景名胜区和国家森林公园，蕴藏着丰富的动植物资源，并分布着我国北亚热带向暖温带过渡地带石灰岩地区保存最完整的天然次生林。山中沟壑幽深，琅琊溪、玻璃沼、曲水流觞淙淙流淌；让泉、濯缨泉、紫薇泉等山泉散布山间；归云洞、雪鸿洞、重熙洞、桃源等洞洞神奇。92年7月中央电视台琅琊山风光摄制组拍摄到的“海市蜃楼”又称奇观。蔚然深秀的琅琊山历来享有“蓬莱之后无别山”之美誉。\n\n\n\n琅琊山景色淡雅俊秀，文化渊源久远。自唐宋以来李幼卿、韦应物、欧阳修、辛弃疾、王安石、梅尧臣、宋濂、文征明、曾巩、薛时雨等历代无数文豪墨客，达官显贵为之开发山川、建寺造亭、赋诗题咏，留下大量、卓越的文化遗产，拥有“名山、名寺、名亭、名泉、名文、名士”六名胜境。其中唐建琅琊寺为皖东著名佛寺，也是全国重点寺观之一，宋建醉翁亭因北宋大文豪欧阳修所　著《醉翁亭记》一文而闻名遐迩，被誉为“天下第一亭”。"}}, {"title": "狼巷迷谷", "address": "滁州市凤阳县殷涧镇城东南30公里处", "image": "", "rank": 2, "time": 3.0, "location": {"lat": 32.688044490551626, "lng": 117.64796908335414}, "feature": {"sight_features": "特色1 有黄山的清秀和华山的险峻 特色2 有诗云：三月莺啼花满山，天风飞暖树无间。", "sight_content": "狼巷迷谷风景区主要景点有：禅窟古刹、禅窟洞天、玉泉净心、摩崖石刻、谷中黄山、天落石、狼牙巷、瘦人谷、响石谷、千层岩、摩腹巷等五十多处。天然溶洞“禅窟”洞内景观千姿百态，您即可领略大自然的神奇又可在洞内对佛教文化寻根问祖。还真实记载了历代文人墨客对禅窟寺的钟爱。有诗云：三月莺啼花满山，天风飞暖树无间。\n\n狼巷迷谷内地形奇特、沟壑纵横、明谷暗涧、沟沟相连、谷谷相通，谷深处抬头望天如一线，谷浅处举目观山如层峦。其岩石千姿百态、形神兼备，有的似鳄鱼探路、有的如野狼挡道、有的层层叠叠如天书万页。生长在岩石上的树木更具有特色，他们虽历经沧桑，不那么挺拔高大，歪曲的身材即能经得风霜雪雨，不屈不挠，倔强地生长，显示出顽强的生命力。"}}, {"title": "醉翁亭", "address": "滁州市南谯区琅琊古道旁", "image": "", "rank": 3, "time": 2, "location": {"lat": 32.29635977692938, "lng": 118.30488201933493}, "feature": {"sight_features": "", "sight_content": ""}}, {"title": "小岗村", "address": "滁州市凤阳县小溪河镇", "image": "", "rank": 4, "time": 3.0, "location": {"lat": 32.81227221518137, "lng": 117.84227675935081}, "feature": {"sight_features": "特色1 中国农村改革的发源地，农家乐旅游示范村 特色2 安徽历史文化名村，包产到户。", "sight_content": "1978年冬，小岗村18位农民以“托孤”的方式，冒险在土地承包责任书按下鲜红手印，实施了“大包干”。这一“按”竟成了中国农村改革的第一份宣言，它改变了中国农村发展史，掀开了中国改革开放的序幕。自强不息的小岗人创造出了小岗村精神，那就是“自力更生的奋发图强精神，实事求是的和谐求真精神，敢为人先的突破创新精神”。小岗村也由普普通通的小村庄一跃而为中国农村改革第一村。\n\n客观地说，小岗村30年来变化很大，进步明显。“大包干”虽然激发了农民种田积极性，迅速实现了丰衣足食愿望。调整产业结构，发展现代农业；以“纪念馆”带动旅游业，把小岗村旅游列入旅游发展规划，与县内的皇陵、皇城、韭山洞等景点连线、捆绑推介；着力办好工业园，实现小岗村跨越发展。"}}, {"title": "深秀湖", "address": "滁州市南谯区观景路（醉翁亭至琅琊寺的山道边）", "image": "", "rank": 5, "time": 1.0, "location": {"lat": 32.289356669046924, "lng": 118.29466277368387}, "feature": {"sight_features": "", "sight_content": ""}}, {"title": "让泉", "address": "滁州市琅琊区琅琊古道30号琅琊山内", "image": "", "rank": 6, "time": 0.5, "location": {"lat": 32.29453328163872, "lng": 118.3019906829154}, "feature": {"sight_features": "", "sight_content": ""}}, {"title": "琅琊寺", "address": "滁州市南谯区琅琊山景区内", "image": "", "rank": 7, "time": 1.0, "location": {"lat": 32.2844691010471, "lng": 118.2928083665857}, "feature": {"sight_features": "", "sight_content": ""}}, {"title": "明皇陵", "address": "滁州市凤阳县西南7公里处的太平乡", "image": "", "rank": 8, "time": 1.0, "location": {"lat": 32.82789908933174, "lng": 117.5385853687445}, "feature": {"sight_features": "特色1 气势磅礴，雄伟壮观 特色2 明皇陵不仅数量居历代帝王陵墓之冠，而且雕刻技艺上也有独到之处。 特色3 被国务院列为全国重点文物保护单位。", "sight_content": "太祖朱元璋即帝位以后，建都南京，而以临濠（今凤阳）为中都。明皇陵墓中安葬着朱元璋父母及兄嫂、侄儿的遗骨。到洪武十二年，皇陵的总体格局基本形式，外有城垣，内有护所、祭祀设施；又在陵前竖起高大的皇陵碑和成双成对的石像生。它经过精心的设计、规划、施工，建成后的皇陵，气象巍峨，被誉为“重门列戟园陵肃”，“壮哉斯陵从古无”。\n明皇陵碑额篆有“大明皇陵之碑”6个大字，因碑文系朱元璋亲自撰写，又名“御制皇陵碑”。朱元璋为了让子孙后代了解艰辛家世和开创江山的艰难，秉笔直书，历述家世实情与戎马生涯，一改历代帝陵碑刻粉饰夸功、谀墓不实的恶习。皇皇大著，堪称一绝。碑文长达1105字，是研究朱元璋家史与元末明初历史的珍贵史料。"}}, {"title": "白鹭岛国际度假村", "address": "滁州市来安县舜山镇复兴村011县道", "image": "", "rank": 9, "time": 2, "location": {"lat": 32.52988323033652, "lng": 118.38749269940658}, "feature": {"sight_features": "", "sight_content": "位于来安县城西北13公里处，距古都南京50公里，景区总面积4．2万亩，森林覆盖率90％，是省级森林公园，集休闲娱乐、旅游度假、花果茶鸟购销为一体。是人们旅游观光、休闲度假、访古探幽、回归自然的理想去处白鹭岛风景区处于亚热带季风气候和江淮分水岭独特地理类型，空气清新，气候宜人。\n每年清明至白露，数万之众的鹭鸟云集，亮丽奇特，蔚为壮观，创设了“惊飞远映碧山去，一树梨花落晚风”的诗情画意。\n这里有峰峦迭翠的练子山，秀色宜人的舜歌山，洞天明境的练子湖，碧波荡漾的舜歌湖，担竹环绕的大庵寺，香烟弥漫的孔雀寺，鬼斧神工的一线天，古色古香的赏鹭亭，变化奇妙的望日峰，神奇传说中的都堂坟，气势恢宏的抗金古战场，怀中抱子的千年古树，流水潺潺的观音泉，绵延细腻的天然沙滩浴场，雄居山腰的穆桂英跑马道，观景揽月的望火楼，五颜六色的奇花异草，品种繁多的珍禽鸟兽，郁郁葱葱的万亩林海。"}}, {"title": "琅琊山冠景国际旅游度假中心", "address": "安徽滁州琅琊山", "image": "", "rank": 10, "time": 2, "location": {"lat": 32.2844691010471, "lng": 118.2928083665857}, "feature": {"sight_features": "", "sight_content": ""}}, {"title": "龙兴寺", "address": "滁州市凤阳县北凤凰山日精峰下", "image": "", "rank": 11, "time": 2.0, "location": {"lat": 32.88097672525767, "lng": 117.5385853687445}, "feature": {"sight_features": "", "sight_content": ""}}, {"title": "野芳园", "address": "滁州市琅琊区琅琊古道30号琅琊山内", "image": "", "rank": 12, "time": 1.0, "location": {"lat": 32.29453328163872, "lng": 118.3019906829154}, "feature": {"sight_features": "", "sight_content": ""}}, {"title": "中国金丝楠木博物馆", "address": "滁州市上海北路和马鞍山西路交汇处（马鞍山西路邵阳工业园2楼）", "image": "", "rank": 13, "time": 2, "location": {"lat": 32.340943980098295, "lng": 118.37278258735847}, "feature": {"sight_features": "特色1 以金丝楠木为主题的特色博物馆", "sight_content": "中国金丝楠木博物馆建于2012年，座落于历史文化名城安徽滁州，展馆面积16000平方米，是以金丝楠木为主题的 独具特色的博物馆，展馆是以收藏、研究、展示、拍卖一条龙的高档次高品位的文化园，也是中国金丝楠木科研基地，中国金丝楠木家私展销中心。博物馆集中搜集、整理了长期散落在民间 、寺庙的金丝楠木家具，如将军柜、拔步床、供案、八仙桌、太师椅等各类金丝楠木古家具。馆内现已精心收藏了5000多件明代、清代、民国等不同时期具有代表性的金丝楠系列高档藏品。 其中包括金丝楠木将军柜、精品佛龛，精品屏风、瓜棱柜、四平柜、大橱柜、条案、拔步床、太师椅、梳妆台等精选藏品。\n本博物馆的平面布局，分开放区、库房区、学术区、科研区、管理区、设备区等6个区域。六个展览厅分别为“明 清金丝楠木经典供案展厅”、“明清金丝楠木经典床具展厅”、“明清金丝楠木经典家具综合展厅”、“明清金丝楠木精品橱柜展厅”、“金丝楠木民国、现代家具精品展厅”、“明清精品 屏风、描金佛龛及卧榻展厅”。当前它正以崭新的面貌迎接着八方来客。\n馆藏金丝楠木家具，每一件都必须有虎皮纹、水波纹，而且在光照的情况下均能移步换景，并散发出金丝耀眼和淡 雅的楠香。中国金丝楠木博物馆的对外开放，全面展示了中国昔日帝王家具的风采,给人们再现和还原古代达官贵族生活的完整画面，可游、可赏、可居，使得后人进一步了解古代上层社会的 政治、生活，并集中体现了精湛的工艺价值、极高的艺术欣赏价值和深厚的历史文化价值。"}}, {"title": "女山", "address": "滁州市明光市女山湖镇邵岗乡山东村", "image": "", "rank": 14, "time": 1.0, "location": {"lat": 33.01274997558714, "lng": 118.16363890808464}, "feature": {"sight_features": "", "sight_content": ""}}, {"title": "韭山洞", "address": "滁州市凤阳县城南30多公里韭山山腹", "image": "", "rank": 15, "time": 1.0, "location": {"lat": 32.88097672525767, "lng": 117.5385853687445}, "feature": {"sight_features": "特色1 典型的北方溶洞", "sight_content": "韭山洞东西主洞长一千四百七十二米，侧洞与北山的蝙蝠洞相通,长约四千多米，被专家誉为江北第一洞，其特点是深、大、险、奇、古。全洞分为虎踞龙蟠、摘星揽月、峡谷幽深、清流碧影、玉溪泛舟五大景区，重要景点二十多处。其中“虎踞龙蟠”是王惟忠备战屯兵的主要地段，“摘星揽月”是古人所谓“石形如器物者甚众”的景区，后三个景区曲折盘旋，奥妙无穷，在开发前从无先人涉足。\n\n韭山洞距今已有五亿年的地质历史，为喀斯特溶洞。早在一千五百多年前《水经注》中就有记载。唐代有很多人入洞探奇,据南宋《濠梁志》述：“洞水长流不绝,其石形如器物甚众,左右多唐人诗刻石,深崖中有石观音及石老人像”。韭山洞主洞长1472米，支洞长 400米。全洞分为虎踞龙蟠、摘星揽月、峡谷幽深、清流碧影、玉溪泛舟五大景区。"}}, {"title": "皇甫山", "address": "滁州市南谯区大柳镇", "image": "", "rank": 16, "time": 1.0, "location": {"lat": 32.40078244320282, "lng": 118.04980426753755}, "feature": {"sight_features": "特色1 山上群峰奔凑，山下幽谷深邃", "sight_content": "皇甫山森林公园总面积53273亩，森林覆盖率96%，是皖东北地区唯一一个集国家森林公园，自然生态保护区和具备国家aaaa级旅游景区基础为一体的特殊区域，具有江淮地区保存最完整、面积最大的原始次生森林次生景观带，素有华东西双版纳之称。\n皇甫山以山水之美著称。山势群峰奔凑，绵延起伏，山下幽谷深邃，溪流潺潺；山间花香鸟语，藤树缠绕。\n\n古树参天、白藤萝翠蔓、景色瑰丽令人心旷神怡；丛林间鹭啼雀鸣，其中皇甫山的鹭鸟景观最为壮观，每年清明至禄夏期间，数十万只鹭纷纷云集，是全国罕见的鹭群景观。"}}, {"title": "明中都鼓楼", "address": "滁州市凤阳县府城镇鼓楼广场", "image": "", "rank": 17, "time": 1.0, "location": {"lat": 32.86873175457889, "lng": 117.56982277505683}, "feature": {"sight_features": "特色1 中国最大的鼓楼", "sight_content": "明中都鼓楼位于县城中央，是中都城重要附属建筑。鼓楼台二雄伟壮观，高17米，南北长61.5米，东西宽34.4米。门额上＂万世根本”四个苍劲有力的大字，在数百米之外也能历历在目。1995年，县委、县政府组织重建鼓楼，＂层檐三覆，栋宇百尺，巍乎翼然，琼绝尘埃，制度宏大，规模壮丽”的原貌，不久将重现于世人面前。并且在鼓楼四周进行整体规划建设，已形成繁荣的仿古商业旅游区。\n鼓楼建成600多年来，几经沧桑，屡废屡建。台基一直保存完好，基上柱础排列整齐。1986年被列为安徽省重点文物保护单位。1998年，基上楼宇已按旧制重新恢复，再现了当年“谯楼归市”的盛况。楼内布置了《朱元璋?凤阳》展览馆，突出地展示了朱元璋与凤阳的特殊关系以及凤阳在明朝历史上所占有的重要地位。"}}, {"title": "九天峰生态旅游度假区", "address": "滁州市施集镇杨饭店村九天峰度假村风景区", "image": "", "rank": 18, "time": 1.0, "location": {"lat": 32.302631403867984, "lng": 118.16684207509246}, "feature": {"sight_features": "", "sight_content": ""}}, {"title": "吴敬梓纪念馆", "address": "滁州市全椒县河湾街88号", "image": "", "rank": 19, "time": null, "location": {"lat": 32.091939797603374, "lng": 118.28058428269748}, "feature": {"sight_features": "", "sight_content": ""}}, {"title": "南天门", "address": "滁州市琅琊区琅琊古道30号琅琊山景区内", "image": "", "rank": 20, "time": 1.5, "location": {"lat": 32.29453328163872, "lng": 118.3019906829154}, "feature": {"sight_features": "", "sight_content": ""}}, {"title": "洗心亭", "address": "", "image": "", "rank": 21, "time": 0.25, "location": {"lat": 25.114651597761746, "lng": 118.65261487481139}, "feature": {"sight_features": "", "sight_content": ""}}, {"title": "长城梦世界影视城", "address": "滁州市南谯区腰铺镇梅铺村境内", "image": "", "rank": 22, "time": 2, "location": {"lat": 32.24035287859835, "lng": 118.30963531131381}, "feature": {"sight_features": "特色1 1：1仿制乾清宫 特色2 徽派建筑广泛采用砖、木、石雕。", "sight_content": "滁州影视城位于腰铺镇梅铺村境内，建成后将是影视拍摄基地和文化旅游基地。全长约2600米的洪武大道，囊括自中国唐代至今1000多年历史，包括历史著名的乾清宫、大明宫、总统府，亦名为“中华千年大道”。\n\n华表\n相传华表是部落时代的一种图腾标志，古称“桓表”，以一种“望柱”的形式出现。华表不单纯是个装饰品，也是提醒古代帝王勤政为民的标志。华表的基座称为须弥座，且在基座外添加了一圈石栏杆，栏杆的四角石柱上各有一只小石狮，头的朝向与上面的石犼相同。栏杆不但对华表起到保护作用，还将华表烘托得更加高耸和庄严。\n徽派建筑群\n滁州影视基地徽派建筑广泛采用砖、木、石雕，表现出高超的装饰艺术水平。砖雕大多镶嵌在门罩、窗楣、照壁上，在大块的青砖上雕刻着生动逼真的人物、虫鱼、花鸟及八宝、博古和几何图案，极富装饰效果。"}}, {"title": "金甲溪千岩峡森林漂流", "address": "滁州市南谯区大柳镇曲亭村皇甫山林场旁", "image": "", "rank": 23, "time": 2, "location": {"lat": 32.375156810871474, "lng": 118.05226210866712}, "feature": {"sight_features": "特色1 人工湖面碧波荡漾，风景秀美", "sight_content": "滁州金甲溪千岩峡森林漂流是亭城滁州目前唯一的漂流产品，有“南京花园里的漂流”、“合肥人自家的漂流”、 “真正的森林漂流”等美誉。2014年7月19日，滁州本市60家旅行社同行200多人体验漂流一举获得成功。2014年7月26日试营业当天接待数百游客。金甲溪千岩峡森林漂流成为目前长三角及江 淮区域最受网民及游客关注的焦点。\n金甲溪千岩峡森林漂流起漂点在皖东第一峰——皇甫山北将军岭南侧，以山谷清泉汇聚而成的人工湖面碧波荡漾， 风景秀美。人工湖的起漂点第一道水坝以6米高的落差令客人一漂惊艳，浑身畅快为开端，钻拱桥，进森林，周围全是参天大树，飞速地在森林中穿过，真过瘾啊！一道又一道水坝，惊险！一 湾又一湾河滩，刺激！一潭又一潭湖水，享受！\n金甲溪漂流全长约2公里，总落差约30米，有大小潭坝十余个。游客们说说笑笑，打打闹闹，叫叫跳跳，不知不觉 一个小时过去了，白鹤飞舞造型的拉膜景观出现在林荫深处，标识着漂流行程安全抵达终点。在林间的淋浴区呼吸着富含负氧离子的芬芳空气，冲洗着兴奋过后的躯体，换上干爽的衣服，回 味一天的体验，感受深刻！走遍滁州，丘陵俊美，湖泊河川纵横，金甲溪漂流的开业，实现了滁州旅游中漂流产品的零突破！双亭两记醉游滁州城，百转千回趣漂金甲溪！这个夏季打算去漂 流的朋友们，快去体验“金甲溪森林漂流”的欢乐吧！"}}, {"title": "护国寺", "address": "", "image": "", "rank": 24, "time": null, "location": {"lat": 28.005823553498807, "lng": 120.63677102472089}, "feature": {"sight_features": "", "sight_content": ""}}, {"title": "嘉文梦幻王国儿童主题乐园（滁州...", "address": "滁州市育新东路1912文化商业街商场负一楼", "image": "", "rank": 25, "time": 2, "location": {"lat": 32.319450399612606, "lng": 118.31730270007893}, "feature": {"sight_features": "", "sight_content": ""}}, {"title": "会峰阁", "address": "滁州市琅琊区琅琊古道30号琅琊山景区内", "image": "", "rank": 26, "time": 0.5, "location": {"lat": 32.29453328163872, "lng": 118.3019906829154}, "feature": {"sight_features": "", "sight_content": ""}}, {"title": "XS911真人密室逃生俱乐部", "address": "滁州市琅琊区丰乐北路181号1栋402室（五中南侧4楼）", "image": "", "rank": 27, "time": 2, "location": {"lat": 32.30260361551757, "lng": 118.31687384902847}, "feature": {"sight_features": "", "sight_content": ""}}, {"title": "八岭湖生态旅游区", "address": "滁州市明光市张八岭镇普贤村", "image": "", "rank": 28, "time": null, "location": {"lat": 32.53759010663708, "lng": 118.29311837990195}, "feature": {"sight_features": "特色1 皖东地区极具特色的原生态旅游景区", "sight_content": "八岭湖生态旅游区位于明光市张八岭镇普贤村，景区呈条形带状，总占地面积约为5000亩，沿河13余公里。为滁州首家开放式景区，景区以全新理念打造集观光、休闲、体验为一体的综合性旅游度假区。先后被评为安徽省级水利风景区、明光市首家AAA级景区，合肥都市圈“十佳休闲旅游线路”，同时入选《2016全国优选旅游项目》，已成为皖东地区极具特色的原生态旅游景区。明光市八岭湖生态旅游区依水而建，景区建有漂流、水上运动、儿童乐园、沙滩摩托、丛林CS、野外拓展、露营烧烤、射箭、飞碟打靶、固定靶射击等多种休闲旅游娱乐项目，是美食、养生、休闲度假相融合，老、中、少皆宜的生态旅游度假场所。\n\n景区开发建设过程中，始终坚持“保护中开发、开发中保护”的生态开发原则，充分利用周边地理环境及水道资源，陆续建成水上乐园区、接待功能区、农业观光区、森林公园、历史文化区和高端度假养生公寓等六大功能区。拥有激情漂流、森林漂流、竹筏漂流、沙滩摩托、滑草、马术、射箭等特色游玩项目以及华东最大枫杨林、樱花主题公园等特色观光项目。作为明光市重点旅游开发项目，景区建设之初就受到各级政府部门的高度重视，在八岭湖人不断努力下，最终将景区建设成集产品类型丰富、文化内涵深刻、综合效益显著为一体的文化生态型旅游度假目的地。浓浓乡村情、融情山水间，八岭湖景区欢迎您！"}}, {"title": "沃公祠", "address": "滁州市天长市建设东路601号", "image": "", "rank": 29, "time": 1.0, "location": {"lat": 32.6888044738774, "lng": 119.03485151983928}, "feature": {"sight_features": "", "sight_content": ""}}, {"title": "红草湖湿地公园", "address": "滁州市天长市312省道(近天泽新村)", "image": "", "rank": 30, "time": 2, "location": {"lat": 32.684273562524986, "lng": 118.99761672456084}, "feature": {"sight_features": "", "sight_content": ""}}, {"title": "碧云湖", "address": "滁州是全椒县城去10公里处", "image": "", "rank": 31, "time": 1.0, "location": {"lat": 32.091939797603374, "lng": 118.28058428269748}, "feature": {"sight_features": "", "sight_content": ""}}, {"title": "半塔烈士陵园", "address": "滁州市来安县半塔镇西北光山山坡上", "image": "", "rank": 32, "time": 1.0, "location": {"lat": 32.68126125897471, "lng": 118.5947865771946}, "feature": {"sight_features": "", "sight_content": ""}}, {"title": "孔雀寺遗址", "address": "滁州市来安县城西北约10公里练子山西南山脚", "image": "", "rank": 33, "time": 1.0, "location": {"lat": 32.54053241718321, "lng": 118.36437225591965}, "feature": {"sight_features": "", "sight_content": ""}}, {"title": "花山彩云洞", "address": "", "image": "", "rank": 34, "time": null, "location": {"lat": 31.725472572000722, "lng": 118.49960562874881}, "feature": {"sight_features": "", "sight_content": ""}}, {"title": "三界外生态旅游度假区", "address": "滁州市明光市三界镇", "image": "", "rank": 35, "time": 2, "location": {"lat": 32.58033947055703, "lng": 118.13330040465546}, "feature": {"sight_features": "", "sight_content": ""}}, {"title": "神山国家森林公园", "address": "滁州市全椒县草庵乡境内", "image": "", "rank": 36, "time": 1.0, "location": {"lat": 32.085613651943696, "lng": 118.14930202131492}, "feature": {"sight_features": "", "sight_content": ""}}, {"title": "龙岗抗大八分校旧址", "address": "滁州市天长市龙岗", "image": "", "rank": 37, "time": 1.0, "location": {"lat": 32.67341003277047, "lng": 119.01138527948528}, "feature": {"sight_features": "", "sight_content": ""}}, {"title": "菊花博览园", "address": "滁州市南谯区滁宁路2628号", "image": "", "rank": 38, "time": 2, "location": {"lat": 32.21418043519962, "lng": 118.36345224734853}, "feature": {"sight_features": "", "sight_content": ""}}, {"title": "二郎湖", "address": "滁州市南谯区腰铺镇", "image": "", "rank": 39, "time": 1.0, "location": {"lat": 32.22680559418644, "lng": 118.28841986210153}, "feature": {"sight_features": "", "sight_content": ""}}, {"title": "杨将军墓", "address": "滁州市天长市谕兴乡草庙山东麓", "image": "", "rank": 40, "time": 1.0, "location": {"lat": 32.51041667089695, "lng": 119.07915952149986}, "feature": {"sight_features": "", "sight_content": ""}}, {"title": "滁州琅琊古刹", "address": "安徽省滁州市琅琊区琅琊山", "image": "", "rank": 41, "time": 7.5, "location": {"lat": 32.2844691010471, "lng": 118.2928083665857}, "feature": {"sight_features": "", "sight_content": ""}}, {"title": "三塔寺", "address": "滁州市全椒县三塔寺风景区", "image": "", "rank": 42, "time": 0.4, "location": {"lat": 32.020397394885634, "lng": 118.094543706021}, "feature": {"sight_features": "", "sight_content": ""}}, {"title": "皇觉寺遗址", "address": "滁州市凤阳县057县道明皇陵北墙外", "image": "", "rank": 43, "time": 1.0, "location": {"lat": 32.80985737839872, "lng": 117.53274692191296}, "feature": {"sight_features": "", "sight_content": ""}}, {"title": "北湖公园", "address": "南充市顺庆区文化路369号", "image": "", "rank": 44, "time": 1.5, "location": {"lat": 30.802287818078575, "lng": 106.09162521787687}, "feature": {"sight_features": "", "sight_content": ""}}, {"title": "嘉山公园", "address": "滁州市明光市池河大道（招信路）与祁仓路交会处", "image": "", "rank": 45, "time": 1.5, "location": {"lat": 32.78274028365679, "lng": 118.02627334783936}, "feature": {"sight_features": "", "sight_content": ""}}, {"title": "南屏山森林公园", "address": "滁州市全椒县儒林路东50米", "image": "", "rank": 46, "time": 2, "location": {"lat": 32.197407809358985, "lng": 118.33370795684472}, "feature": {"sight_features": "", "sight_content": ""}}, {"title": "釜山卧龙公园", "address": "", "image": "", "rank": 47, "time": 1.0, "location": {"lat": 32.65078272875396, "lng": 118.7235478923838}, "feature": {"sight_features": "", "sight_content": ""}}, {"title": "天长博物馆", "address": "滁州市天长市天长街道石梁西路131号", "image": "", "rank": 48, "time": 1.0, "location": {"lat": 32.69030705351299, "lng": 119.01027263828061}, "feature": {"sight_features": "", "sight_content": ""}}, {"title": "冠景高尔夫", "address": "滁州琅琊区市览山路111号（琅琊山林场旁）", "image": "", "rank": 49, "time": 2, "location": {"lat": 32.26459343092244, "lng": 118.26851482952651}, "feature": {"sight_features": "", "sight_content": ""}}, {"title": "韩山公园", "address": "滁州市明光市三中路", "image": "", "rank": 50, "time": 0.5, "location": {"lat": 32.790698896731584, "lng": 117.99525193998522}, "feature": {"sight_features": "", "sight_content": ""}}, {"title": "明中都皇城遗址", "address": "滁州市凤阳县", "image": "", "rank": 51, "time": 1.0, "location": {"lat": 32.88097672525767, "lng": 117.5385853687445}, "feature": {"sight_features": "", "sight_content": ""}}, {"title": "嘉山高原牧场", "address": "滁州市明光市石坝镇境内", "image": "", "rank": 52, "time": 1.0, "location": {"lat": 32.76153920941119, "lng": 118.13075225238144}, "feature": {"sight_features": "", "sight_content": ""}}, {"title": "南湖公园", "address": "滁州市明光市人民路与光明路交叉口西南200米", "image": "", "rank": 53, "time": 2.5, "location": {"lat": 32.779859313520014, "lng": 117.99471466435801}, "feature": {"sight_features": "", "sight_content": ""}}, {"title": "景华生态园", "address": "滁州市来安县汊河经济开发区104国道旁", "image": "", "rank": 54, "time": 2, "location": {"lat": 32.213628639297326, "lng": 118.60514044650259}, "feature": {"sight_features": "", "sight_content": "景华生态园坐落于来安县汊河经济开发区，占地面积700亩，以农业生态度假项目为主，及餐饮、住宿、休闲娱乐一体。一年四季均有时令水果、绿色有机蔬菜供应。风景秀丽，景色怡人，是现代都市周边少有的世外桃源式园林。提供农业采摘，农业体验，垂钓，洗浴，KTV，客房，餐饮等都市休闲，又提供商务接待、商务会议、商务宴请等商务活动，又提供新鲜环保无公害的丰富农产品。\n景华生态园成立于2007年，坐落于来安县汊河经济开发区，紧临104国道，与南京高新技术开发区隔河相望，距离南京长江大桥仅23公里。占地面积700亩，以农业生态度假项目为主，及餐饮、住宿、休闲娱乐一体。一年四季均有时令水果、绿色有机蔬菜供应。风景秀丽，景色怡人，是现代都市周边少有的世外桃源式园林。景华生态园是在2003年做为招商引资项目进入到汊河经济开发区内，前期只是以苗木种植及水果培育为主，利用周边农民的抛荒地进行苗木种植开发，也就是在2007年期间，结合国家对农业项目的大力支持，以及社会发展的需要，考虑将农业环境与旅游相结合，做现代农业旅游项目，将农业生产场所、环境及活动与普通市民的休闲娱乐放松相结合。"}}, {"title": "令狐山风景区", "address": "滁州市定远县塔山北路", "image": "", "rank": 55, "time": 2, "location": {"lat": 32.388650189881865, "lng": 117.94132501362725}, "feature": {"sight_features": "", "sight_content": ""}}, {"title": "抗大八分校旧址", "address": "天长市区以北30公里龙岗镇", "image": "", "rank": 56, "time": 1.0, "location": {"lat": 32.67341003277047, "lng": 119.01138527948528}, "feature": {"sight_features": "", "sight_content": ""}}, {"title": "谕兴杨捷墓石刻", "address": "滁州市天长市草庙山上", "image": "", "rank": 57, "time": 2, "location": {"lat": 32.67341003277047, "lng": 119.01138527948528}, "feature": {"sight_features": "", "sight_content": ""}}, {"title": "欧阳修纪念馆", "address": "古道9号", "image": "", "rank": 58, "time": 1.0, "location": {"lat": 39.9699690694149, "lng": 116.30425231832783}, "feature": {"sight_features": "", "sight_content": ""}}, {"title": "草庙山", "address": "滁州市天长市", "image": "", "rank": 59, "time": 2, "location": {"lat": 32.67341003277047, "lng": 119.01138527948528}, "feature": {"sight_features": "", "sight_content": ""}}, {"title": "九道湾公园", "address": "滁州市明光市金达路西侧（池河大桥旁）", "image": "", "rank": 60, "time": 0.75, "location": {"lat": 32.79663774410143, "lng": 117.97577793954646}, "feature": {"sight_features": "", "sight_content": ""}}]}