{"cityName": "磁县", "days": 2, "cityImage": "", "spots": [{"title": "兰陵王高肃墓", "address": "邯郸市磁县107国道", "image": "", "rank": 1, "time": 2.0, "location": {"lat": 36.2605982742291, "lng": 114.3534928067753}, "feature": {"sight_features": "", "sight_content": ""}}, {"title": "磁州窑博物馆", "address": "河北省磁县城内磁州路中段路北", "image": "", "rank": 2, "time": 2, "location": {"lat": 36.37972170393504, "lng": 114.3921177329745}, "feature": {"sight_features": "", "sight_content": ""}}, {"title": "鼓楼", "address": "邯郸市磁县鼓楼北大街38号", "image": "", "rank": 3, "time": 1.0, "location": {"lat": 36.36492964192855, "lng": 114.39197338965192}, "feature": {"sight_features": "", "sight_content": ""}}, {"title": "昊林庄园", "address": "邯郸市磁县中华慈大街路西", "image": "", "rank": 4, "time": 2, "location": {"lat": 36.373411741468104, "lng": 114.41141388958332}, "feature": {"sight_features": "", "sight_content": ""}}, {"title": "国庆跑马场", "address": "邯郸市磁县台城乡（邯郸机场门口西行3000米）", "image": "", "rank": 5, "time": 2, "location": {"lat": 36.53097487505843, "lng": 114.43884985472326}, "feature": {"sight_features": "", "sight_content": ""}}, {"title": "磁州窑遗址", "address": "邯郸市磁县西南40公里的磁县及峰峰矿区境内", "image": "", "rank": 6, "time": 2, "location": {"lat": 36.08924476385162, "lng": 114.38043173139184}, "feature": {"sight_features": "", "sight_content": ""}}, {"title": "永宙生态农业采摘园", "address": "岳城镇钟离村桥东", "image": "", "rank": 7, "time": 2, "location": {"lat": 38.06338975380927, "lng": 114.51078430496142}, "feature": {"sight_features": "", "sight_content": ""}}, {"title": "乡情垂钓娱乐园", "address": "107国道", "image": "", "rank": 8, "time": 2, "location": {"lat": 23.102877208493197, "lng": 113.67228113407819}, "feature": {"sight_features": "", "sight_content": ""}}, {"title": "阳光之美少儿思维绘画美术馆", "address": "振兴路80号附近", "image": "", "rank": 9, "time": 2, "location": {"lat": 41.533619822219414, "lng": 121.26135460642094}, "feature": {"sight_features": "", "sight_content": ""}}, {"title": "讲武城", "address": "河北省磁县漳河北岸 056500", "image": "", "rank": 10, "time": 2, "location": {"lat": 36.38035894094747, "lng": 114.38043173139184}, "feature": {"sight_features": "", "sight_content": ""}}, {"title": "直南党史馆", "address": "河北省磁县朝阳北大街", "image": "", "rank": 11, "time": 2, "location": {"lat": 36.37973977474359, "lng": 114.38676951122245}, "feature": {"sight_features": "", "sight_content": ""}}, {"title": "百姓水族馆", "address": "河北省邯郸市磁县友谊北大街", "image": "", "rank": 12, "time": 2, "location": {"lat": 36.38347409209484, "lng": 114.3790990511508}, "feature": {"sight_features": "", "sight_content": ""}}, {"title": "磁县八十岗古庙遗址景区", "address": "河北省邯郸市磁县西固义乡磁西路耶稣基督教堂南500米", "image": "", "rank": 13, "time": 2.0, "location": {"lat": 36.37109909295131, "lng": 114.30855725921596}, "feature": {"sight_features": "", "sight_content": ""}}, {"title": "磁县南峧寺景区", "address": "河北省邯郸市磁县南峧村", "image": "", "rank": 14, "time": 2.0, "location": {"lat": 36.48858255485864, "lng": 114.00603280160274}, "feature": {"sight_features": "", "sight_content": ""}}, {"title": "磁县圣佛寺", "address": "河北省邯郸市磁县北贾壁乡义井镇中心小学西北750米", "image": "", "rank": 15, "time": 2.0, "location": {"lat": 36.48989678418413, "lng": 114.08024930626014}, "feature": {"sight_features": "", "sight_content": ""}}, {"title": "耶稣基督教堂", "address": "邯郸市磁县", "image": "", "rank": 16, "time": 2.5, "location": {"lat": 36.38035894094747, "lng": 114.38043173139184}, "feature": {"sight_features": "", "sight_content": ""}}, {"title": "森森水族馆", "address": "磁州路职校小区底商", "image": "", "rank": 17, "time": null, "location": {"lat": 36.3808035800385, "lng": 114.3846873639148}, "feature": {"sight_features": "", "sight_content": ""}}, {"title": "杨仙庙", "address": "邯郸市磁县安康西路93号", "image": "", "rank": 18, "time": 2, "location": {"lat": 36.37094751419589, "lng": 114.38663057839398}, "feature": {"sight_features": "", "sight_content": ""}}, {"title": "三官庙", "address": "河北省邯郸市磁县西固义乡政府南400米", "image": "", "rank": 19, "time": 2, "location": {"lat": 36.39864267606357, "lng": 114.25458899912655}, "feature": {"sight_features": "", "sight_content": ""}}, {"title": "慈灵山古庙", "address": "河北省邯郸市磁县滨湖路", "image": "", "rank": 20, "time": 2, "location": {"lat": 36.41978787164822, "lng": 114.32066672650755}, "feature": {"sight_features": "", "sight_content": ""}}, {"title": "东海公园", "address": "乐滏里与建设东路交叉口西北200米", "image": "", "rank": 21, "time": 3.0, "location": {"lat": 36.36274427431095, "lng": 114.39557841991777}, "feature": {"sight_features": "", "sight_content": ""}}, {"title": "溢泉湖生态园", "address": "下庄店村南(永烽学校南行1公里)", "image": "", "rank": 22, "time": 2, "location": {"lat": 36.4278934813316, "lng": 114.30692824236009}, "feature": {"sight_features": "", "sight_content": ""}}, {"title": "春上小叮当肉植物园", "address": "河北省邯郸市磁县友谊北大街31号", "image": "", "rank": 23, "time": 2, "location": {"lat": 36.37128789839273, "lng": 114.38007800024133}, "feature": {"sight_features": "", "sight_content": ""}}, {"title": "磁县北朝历史文化体验中心", "address": "和谐大道附近", "image": "", "rank": 24, "time": 2.0, "location": {"lat": 36.584152347857376, "lng": 114.51636086339781}, "feature": {"sight_features": "", "sight_content": ""}}, {"title": "云台山", "address": "河北省邯郸市磁县202省道", "image": "", "rank": 25, "time": 4.5, "location": {"lat": 36.38035894094747, "lng": 114.38043173139184}, "feature": {"sight_features": "", "sight_content": ""}}, {"title": "邯郸城皇庙", "address": "河北省邯郸市磁县", "image": "", "rank": 26, "time": 2.0, "location": {"lat": 36.38035894094747, "lng": 114.38043173139184}, "feature": {"sight_features": "", "sight_content": ""}}, {"title": "鬼谷祠堂", "address": "友谊南大街6号", "image": "", "rank": 27, "time": 2, "location": {"lat": 38.04672361313186, "lng": 114.45849298522927}, "feature": {"sight_features": "", "sight_content": ""}}, {"title": "磁县城乡规划展示馆", "address": "博物馆东街", "image": "", "rank": 28, "time": 2.0, "location": {"lat": 36.38246793023032, "lng": 114.39209030321575}, "feature": {"sight_features": "", "sight_content": ""}}, {"title": "太行书画院", "address": "箭道路", "image": "", "rank": 29, "time": 2, "location": {"lat": 34.583390659622644, "lng": 117.75177977795279}, "feature": {"sight_features": "", "sight_content": ""}}, {"title": "太漳漂流", "address": "白土镇吴家河村", "image": "", "rank": 30, "time": 2, "location": {"lat": 36.35220517563955, "lng": 114.01713494323106}, "feature": {"sight_features": "", "sight_content": ""}}, {"title": "毛泽东纪念馆", "address": "皮场庙路", "image": "", "rank": 31, "time": 1.0, "location": {"lat": 36.36082593421106, "lng": 114.39561237676436}, "feature": {"sight_features": "", "sight_content": ""}}, {"title": "磁县图书馆", "address": "穿海街", "image": "", "rank": 32, "time": 1.5, "location": {"lat": 36.364965049889214, "lng": 114.38925878855335}, "feature": {"sight_features": "", "sight_content": ""}}, {"title": "小树林水上乐园", "address": "迎宾东路13号", "image": "", "rank": 33, "time": 2, "location": {"lat": 39.9579854928318, "lng": 119.60285635004708}, "feature": {"sight_features": "", "sight_content": ""}}, {"title": "电脑维修", "address": "阳光花园2号楼5单元102", "image": "", "rank": 34, "time": 2, "location": {"lat": 23.09303025526487, "lng": 107.14926442130435}, "feature": {"sight_features": "", "sight_content": ""}}, {"title": "3D魔幻艺术画展", "address": "友谊北大街中盛国贸2楼南侧", "image": "", "rank": 35, "time": 2, "location": {"lat": 38.04995413403423, "lng": 114.48704927677677}, "feature": {"sight_features": "", "sight_content": ""}}, {"title": "贝儿健奇幻主题乐园", "address": "中盛建材市场22号楼〔忆江南饭店后面〕", "image": "", "rank": 36, "time": 2, "location": {"lat": 36.387122030405166, "lng": 114.38210298387787}, "feature": {"sight_features": "", "sight_content": ""}}, {"title": "磁县大丰收农场", "address": "滏阳北大街207号附近", "image": "", "rank": 37, "time": 2.0, "location": {"lat": 36.37706827044725, "lng": 114.40040321881185}, "feature": {"sight_features": "", "sight_content": ""}}, {"title": "彩蝶轩画廊", "address": "朝阳南大街与箭道路交叉口东南50米", "image": "", "rank": 38, "time": 2, "location": {"lat": 36.36234902558547, "lng": 114.3856548461355}, "feature": {"sight_features": "", "sight_content": ""}}, {"title": "炉峰山", "address": "河北省磁县陶泉乡境内", "image": "", "rank": 39, "time": 2, "location": {"lat": 36.42122211942567, "lng": 113.9904786479856}, "feature": {"sight_features": "", "sight_content": ""}}, {"title": "新乡乌龙山响水乐园", "address": "邯郸市-磁县-S316", "image": "", "rank": 40, "time": 2.5, "location": {"lat": 36.38035894094747, "lng": 114.38043173139184}, "feature": {"sight_features": "", "sight_content": ""}}]}