{"cityName": "从江", "days": 2, "cityImage": "", "spots": [{"title": "从江", "address": "黔东南苗族侗族自治州", "image": "", "rank": 1, "time": 3.0, "location": {"lat": 26.58970296982603, "lng": 107.9894462407788}, "feature": {"sight_features": "", "sight_content": ""}}, {"title": "加榜梯田", "address": "黔东南苗族侗族自治州从江县加榜乡加车村", "image": "", "rank": 2, "time": 3.5, "location": {"lat": 25.5906923211934, "lng": 108.58483618150748}, "feature": {"sight_features": "", "sight_content": ""}}, {"title": "小黄侗寨", "address": "黔东南苗族侗族自治州从江县高增乡小黄村", "image": "", "rank": 3, "time": 3.0, "location": {"lat": 25.877762037679478, "lng": 108.98196560651857}, "feature": {"sight_features": "", "sight_content": ""}}, {"title": "从江鼓楼", "address": "黔东南苗族侗族自治州从江县平瑞村202省道旁", "image": "", "rank": 4, "time": 0.25, "location": {"lat": 25.802733766418797, "lng": 108.96098502917016}, "feature": {"sight_features": "", "sight_content": ""}}, {"title": "高增侗寨", "address": "黔东南苗族侗族自治州从江县", "image": "", "rank": 5, "time": 4.0, "location": {"lat": 25.75988132789156, "lng": 108.91156142782468}, "feature": {"sight_features": "", "sight_content": ""}}, {"title": "增冲鼓楼", "address": "贵州省从江县增冲乡增冲村", "image": "", "rank": 6, "time": 4.0, "location": {"lat": 25.949398667221832, "lng": 108.70636473414802}, "feature": {"sight_features": "", "sight_content": ""}}, {"title": "占里侗寨", "address": "黔东南苗族侗族自治州从江县", "image": "", "rank": 7, "time": 1.5, "location": {"lat": 25.75988132789156, "lng": 108.91156142782468}, "feature": {"sight_features": "", "sight_content": ""}}, {"title": "增冲侗寨", "address": "黔东南苗族侗族自治州从江县往洞乡增冲村", "image": "", "rank": 8, "time": 2.5, "location": {"lat": 25.91943811075956, "lng": 108.7105608575228}, "feature": {"sight_features": "", "sight_content": ""}}, {"title": "五里坡原生态瑶浴", "address": "黔东南从江县丙妹镇大塘村五里坡瑶寨", "image": "", "rank": 9, "time": 2, "location": {"lat": 25.70197862351434, "lng": 108.84476743117752}, "feature": {"sight_features": "", "sight_content": ""}}, {"title": "加车村", "address": "黔东南苗族侗族自治州从江县加榜乡加车村", "image": "", "rank": 10, "time": 1.5, "location": {"lat": 25.5906923211934, "lng": 108.58483618150748}, "feature": {"sight_features": "", "sight_content": ""}}, {"title": "银潭", "address": "黔东南苗族侗族自治州从江县", "image": "", "rank": 11, "time": 2.5, "location": {"lat": 25.75988132789156, "lng": 108.91156142782468}, "feature": {"sight_features": "", "sight_content": ""}}, {"title": "巨洞侗寨", "address": "黔东南苗族侗族自治州从江县", "image": "", "rank": 12, "time": 2.5, "location": {"lat": 25.75988132789156, "lng": 108.91156142782468}, "feature": {"sight_features": "", "sight_content": ""}}, {"title": "信地鼓楼", "address": "黔东南苗族侗族自治州从江县信地乡寨友村", "image": "", "rank": 13, "time": 1.0, "location": {"lat": 25.931833645215, "lng": 108.6623019901181}, "feature": {"sight_features": "", "sight_content": ""}}, {"title": "银潭侗寨", "address": "青平路附近", "image": "", "rank": 14, "time": 3.0, "location": {"lat": 31.186687941752748, "lng": 121.35673277784143}, "feature": {"sight_features": "", "sight_content": ""}}, {"title": "岜扒侗寨", "address": "贵州省黔东南从江县城北面的东山坳上", "image": "", "rank": 15, "time": 2, "location": {"lat": 25.75988132789156, "lng": 108.91156142782468}, "feature": {"sight_features": "", "sight_content": ""}}, {"title": "停洞侗寨", "address": "黔东南州从江县停洞镇", "image": "", "rank": 16, "time": 7.5, "location": {"lat": 25.822888017866426, "lng": 108.61805311538996}, "feature": {"sight_features": "", "sight_content": ""}}, {"title": "林上林公园", "address": "从江县", "image": "", "rank": 17, "time": 2, "location": {"lat": 25.75988132789156, "lng": 108.91156142782468}, "feature": {"sight_features": "", "sight_content": ""}}, {"title": "王师傅农家乐", "address": "321国道附近", "image": "", "rank": 18, "time": 2, "location": {"lat": 23.231187385915014, "lng": 112.93308957690171}, "feature": {"sight_features": "", "sight_content": ""}}, {"title": "加鸠乡苗族", "address": "贵州省从江县加鸠乡 557405", "image": "", "rank": 19, "time": 4.0, "location": {"lat": 25.677194767802565, "lng": 108.43363341877897}, "feature": {"sight_features": "", "sight_content": ""}}, {"title": "岜沙苗族文化陈列室", "address": "黔东南苗族侗族自治州从江县岜沙苗寨岜沙景区内", "image": "", "rank": 20, "time": 2, "location": {"lat": 25.72616516628772, "lng": 108.87290234716446}, "feature": {"sight_features": "", "sight_content": ""}}, {"title": "加页村", "address": "黔东南州从江县加页村", "image": "", "rank": 21, "time": null, "location": {"lat": 25.611325764847205, "lng": 108.5991824178362}, "feature": {"sight_features": "", "sight_content": ""}}, {"title": "从江县档案馆", "address": "丙妹镇新建路25号", "image": "", "rank": 22, "time": 2, "location": {"lat": 25.760801060723423, "lng": 108.70451473054408}, "feature": {"sight_features": "", "sight_content": ""}}, {"title": "从江民族剧场", "address": "321国道附近", "image": "", "rank": 23, "time": 3.5, "location": {"lat": 23.231187385915014, "lng": 112.93308957690171}, "feature": {"sight_features": "", "sight_content": ""}}, {"title": "从江县科普馆", "address": "贵州省从江县江东南路", "image": "", "rank": 24, "time": 2, "location": {"lat": 25.732498135172225, "lng": 108.90865911860429}, "feature": {"sight_features": "", "sight_content": ""}}, {"title": "从江县江东民族风情商贸街", "address": "贵州省从江县江东南路", "image": "", "rank": 25, "time": 2, "location": {"lat": 25.732498135172225, "lng": 108.90865911860429}, "feature": {"sight_features": "", "sight_content": ""}}, {"title": "增盈侗寨", "address": "从江县往洞镇增盈村", "image": "", "rank": 26, "time": 2, "location": {"lat": 25.95924809595102, "lng": 108.67122469974568}, "feature": {"sight_features": "", "sight_content": ""}}, {"title": "高华村", "address": "黔东南苗族侗族自治州从江县", "image": "", "rank": 27, "time": 2, "location": {"lat": 25.75988132789156, "lng": 108.91156142782468}, "feature": {"sight_features": "", "sight_content": ""}}]}