{"cityName": "措勤", "days": 2, "cityImage": "", "spots": [{"title": "扎日南木错", "address": "阿里地区措勤县东边", "image": "", "rank": 1, "time": 1.0, "location": {"lat": 31.02266637927343, "lng": 85.16595220548083}, "feature": {"sight_features": "", "sight_content": ""}}, {"title": "达瓦错", "address": "阿里地区措勤县", "image": "", "rank": 2, "time": 1.0, "location": {"lat": 31.02266637927343, "lng": 85.16595220548083}, "feature": {"sight_features": "", "sight_content": ""}}, {"title": "布嘎寺", "address": "阿里地区措勤县达雄乡夏东村", "image": "", "rank": 3, "time": 2, "location": {"lat": 31.459294316706973, "lng": 84.68043277810743}, "feature": {"sight_features": "", "sight_content": ""}}, {"title": "边拉拉康", "address": "阿里地区措勤县磁石乡加饶村", "image": "", "rank": 4, "time": 2, "location": {"lat": 31.078689342397414, "lng": 85.78120003231481}, "feature": {"sight_features": "", "sight_content": ""}}, {"title": "措勤河", "address": "阿里地区措勤县", "image": "", "rank": 5, "time": 2, "location": {"lat": 31.02266637927343, "lng": 85.16595220548083}, "feature": {"sight_features": "", "sight_content": ""}}, {"title": "玉察藏布", "address": "阿里地区措勤县", "image": "", "rank": 6, "time": 2, "location": {"lat": 31.02266637927343, "lng": 85.16595220548083}, "feature": {"sight_features": "", "sight_content": ""}}, {"title": "我阿玛次", "address": "阿里地区-措勤县", "image": "", "rank": 7, "time": 2, "location": {"lat": 31.02266637927343, "lng": 85.16595220548083}, "feature": {"sight_features": "", "sight_content": ""}}, {"title": "打耳子", "address": "阿里地区-措勤县", "image": "", "rank": 8, "time": 2, "location": {"lat": 31.02266637927343, "lng": 85.16595220548083}, "feature": {"sight_features": "", "sight_content": ""}}, {"title": "我隆拉", "address": "阿里地区-措勤县", "image": "", "rank": 9, "time": 2, "location": {"lat": 31.02266637927343, "lng": 85.16595220548083}, "feature": {"sight_features": "", "sight_content": ""}}]}