{"cityName": "昔阳", "days": 2, "cityImage": "", "spots": [{"title": "大寨村", "address": "晋中市昔阳县大寨镇大寨村", "image": "", "rank": 1, "time": 2.5, "location": {"lat": 37.57637988825252, "lng": 113.72573056640718}, "feature": {"sight_features": "", "sight_content": ""}}, {"title": "大寨陈永贵故居", "address": "山西省昔阳县大寨村", "image": "", "rank": 2, "time": 2, "location": {"lat": 37.57531178691402, "lng": 113.72652560271574}, "feature": {"sight_features": "", "sight_content": ""}}, {"title": "大寨森林公园", "address": "山西省晋中市昔阳县大寨镇", "image": "", "rank": 3, "time": 2, "location": {"lat": 37.57718358627569, "lng": 113.7259600870582}, "feature": {"sight_features": "", "sight_content": ""}}, {"title": "昔阳县图书馆", "address": "昔阳少年活动中心西侧", "image": "", "rank": 4, "time": 2, "location": {"lat": 37.61788404299596, "lng": 113.71361290387442}, "feature": {"sight_features": "", "sight_content": ""}}, {"title": "大同土林滑雪场", "address": "山西省大同县杜庄乡 037300", "image": "", "rank": 5, "time": null, "location": {"lat": 39.944952881876176, "lng": 113.49035133573113}, "feature": {"sight_features": "", "sight_content": ""}}, {"title": "中华奇石城", "address": "山东省费县城北盖家洞村", "image": "", "rank": 6, "time": 2.5, "location": {"lat": 35.305938668916255, "lng": 117.95096345895251}, "feature": {"sight_features": "", "sight_content": ""}}, {"title": "昔阳好人广场", "address": "上城街与下城街北路交叉口南50米", "image": "", "rank": 7, "time": 2.5, "location": {"lat": 37.61901318777312, "lng": 113.71187497556019}, "feature": {"sight_features": "", "sight_content": ""}}, {"title": "沂蒙云瀑洞天旅游区", "address": "山东省费县南张庄乡", "image": "", "rank": 8, "time": 2, "location": {"lat": 35.388134997220696, "lng": 118.01683531626996}, "feature": {"sight_features": "", "sight_content": ""}}, {"title": "忆江南杭帮菜", "address": "迎宾路东段", "image": "", "rank": 9, "time": 2, "location": {"lat": 47.26161901111402, "lng": 132.6535202225394}, "feature": {"sight_features": "", "sight_content": ""}}, {"title": "梵乘寺", "address": "北界都村", "image": "", "rank": 10, "time": 2, "location": {"lat": 37.639847881921035, "lng": 113.85381321717345}, "feature": {"sight_features": "", "sight_content": ""}}, {"title": "澳恼山森林公园", "address": "山西省晋中市昔阳县g207", "image": "", "rank": 11, "time": 2, "location": {"lat": 37.61788404299596, "lng": 113.71361290387442}, "feature": {"sight_features": "", "sight_content": ""}}, {"title": "赵壁教堂", "address": "山西省晋中市昔阳县留马线", "image": "", "rank": 12, "time": 2, "location": {"lat": 37.37763300199064, "lng": 113.82885890185231}, "feature": {"sight_features": "", "sight_content": ""}}, {"title": "良心博物馆", "address": "上城街与下城街北路交叉口西南100米", "image": "", "rank": 13, "time": 2, "location": {"lat": 37.61901318777312, "lng": 113.71187497556019}, "feature": {"sight_features": "", "sight_content": ""}}, {"title": "晋中黄庵垴嶂风光区", "address": "山西省昔阳县皋落镇南岩村", "image": "", "rank": 14, "time": 6.0, "location": {"lat": 37.46827341455974, "lng": 113.93421712352249}, "feature": {"sight_features": "", "sight_content": ""}}, {"title": "金帝娱乐园", "address": "乐平镇迎宾路", "image": "", "rank": 15, "time": 2, "location": {"lat": 28.972081926297147, "lng": 117.1292021998525}, "feature": {"sight_features": "", "sight_content": ""}}, {"title": "昔阳县博物馆", "address": "新建路", "image": "", "rank": 16, "time": 2, "location": {"lat": 39.164365704750224, "lng": 117.21108062489954}, "feature": {"sight_features": "", "sight_content": ""}}, {"title": "大寨村生态农业园", "address": "东南5公里的虎头山下", "image": "", "rank": 17, "time": 2, "location": {"lat": 23.494386671660774, "lng": 116.51093198121578}, "feature": {"sight_features": "", "sight_content": ""}}, {"title": "红旗一条街", "address": "山西省昔阳县上城街15号", "image": "", "rank": 18, "time": 2, "location": {"lat": 37.61569332326908, "lng": 113.71154856816841}, "feature": {"sight_features": "", "sight_content": ""}}, {"title": "前大寒村", "address": "晋中市-昔阳县", "image": "", "rank": 19, "time": 2, "location": {"lat": 37.61788404299596, "lng": 113.71361290387442}, "feature": {"sight_features": "", "sight_content": ""}}, {"title": "大寒掌", "address": "晋中市-昔阳县", "image": "", "rank": 20, "time": 2, "location": {"lat": 37.61788404299596, "lng": 113.71361290387442}, "feature": {"sight_features": "", "sight_content": ""}}, {"title": "大寒口村", "address": "晋中市-昔阳县", "image": "", "rank": 21, "time": 2, "location": {"lat": 37.61788404299596, "lng": 113.71361290387442}, "feature": {"sight_features": "", "sight_content": ""}}, {"title": "水磨头", "address": "山西省晋中市昔阳县东冶头镇水磨头村", "image": "", "rank": 22, "time": 2, "location": {"lat": 37.62209747926015, "lng": 113.99533971686297}, "feature": {"sight_features": "", "sight_content": ""}}]}