{"cityName": "大安", "days": 2, "cityImage": "", "spots": [{"title": "嫩江湾国家湿地公园", "address": "吉林省大安市嫩江湾国家湿地公园", "image": "", "rank": 1, "time": 4.5, "location": {"lat": 45.53839627949844, "lng": 124.29469031836743}, "feature": {"sight_features": "", "sight_content": ""}}, {"title": "月亮湖旅游区", "address": "白城市大安市月亮泡镇", "image": "", "rank": 2, "time": 2, "location": {"lat": 45.679259955781674, "lng": 124.01831699299606}, "feature": {"sight_features": "", "sight_content": ""}}, {"title": "五间房水岛乐园", "address": "白城市大安市西北部", "image": "", "rank": 3, "time": 2, "location": {"lat": 45.51304514962824, "lng": 124.29850428102031}, "feature": {"sight_features": "", "sight_content": ""}}, {"title": "动物园", "address": "嫩江北街155号", "image": "", "rank": 4, "time": 2, "location": {"lat": 45.541726832365924, "lng": 124.29524683390204}, "feature": {"sight_features": "", "sight_content": ""}}, {"title": "汉书遗址", "address": "中国吉林省松原市大安月亮泡乡汉书村", "image": "", "rank": 5, "time": 2, "location": {"lat": 45.14740419341382, "lng": 124.83148187569292}, "feature": {"sight_features": "", "sight_content": ""}}, {"title": "安广镇", "address": "白城市大安市安广镇", "image": "", "rank": 6, "time": 2, "location": {"lat": 45.655671232959776, "lng": 123.7533081917163}, "feature": {"sight_features": "", "sight_content": ""}}, {"title": "两家子镇", "address": "白城市大安市两家子镇", "image": "", "rank": 7, "time": 2, "location": {"lat": 45.52871634114988, "lng": 123.95361787082658}, "feature": {"sight_features": "", "sight_content": ""}}, {"title": "小牛顿科技馆", "address": "锦华路76号附近", "image": "", "rank": 8, "time": 2, "location": {"lat": 45.51527309374378, "lng": 124.29377876285118}, "feature": {"sight_features": "", "sight_content": ""}}, {"title": "龙沼沼泽地区湿地", "address": "吉林省大安市龙沼镇 131311", "image": "", "rank": 9, "time": 2, "location": {"lat": 45.09838440748226, "lng": 123.60783645100577}, "feature": {"sight_features": "", "sight_content": ""}}, {"title": "静园", "address": "大赉乡铁北村", "image": "", "rank": 10, "time": null, "location": {"lat": 45.554234730431, "lng": 124.25550608020829}, "feature": {"sight_features": "", "sight_content": ""}}, {"title": "三圣庵", "address": "吉林省白城市大安市新明路108号", "image": "", "rank": 11, "time": 0.4, "location": {"lat": 45.511219350754665, "lng": 124.31370073656991}, "feature": {"sight_features": "", "sight_content": ""}}, {"title": "安广护国寺", "address": "长白东路184", "image": "", "rank": 12, "time": 2, "location": {"lat": 43.371461658177616, "lng": 128.24547966928606}, "feature": {"sight_features": "", "sight_content": ""}}, {"title": "童趣儿童游乐园", "address": "吉林省白城市大安市G302(长白公路)", "image": "", "rank": 13, "time": 2, "location": {"lat": 45.51304514962824, "lng": 124.29850428102031}, "feature": {"sight_features": "", "sight_content": ""}}, {"title": "老遗址", "address": "吉林省白城市大安市大赉北街48号", "image": "", "rank": 14, "time": null, "location": {"lat": 45.51453835340846, "lng": 124.2987382446904}, "feature": {"sight_features": "", "sight_content": ""}}, {"title": "大安市博物馆", "address": "吉林省白城市大安市大赉北街26号", "image": "", "rank": 15, "time": 2.5, "location": {"lat": 45.51303337045099, "lng": 124.30021851742502}, "feature": {"sight_features": "", "sight_content": ""}}, {"title": "童世界游乐园", "address": "嫩江南街与长虹东路交叉口东150米", "image": "", "rank": 16, "time": 2, "location": {"lat": 45.51078579289974, "lng": 124.30740966503255}, "feature": {"sight_features": "", "sight_content": ""}}, {"title": "基督教会", "address": "吉林省白城市大安市安北街道安铁街北部明珠(A区)旁", "image": "", "rank": 17, "time": 2, "location": {"lat": 45.52429193834377, "lng": 124.25671544825538}, "feature": {"sight_features": "", "sight_content": ""}}, {"title": "金鼎广场", "address": "白城市大安市", "image": "", "rank": 18, "time": 2, "location": {"lat": 45.51304514962824, "lng": 124.29850428102031}, "feature": {"sight_features": "", "sight_content": ""}}, {"title": "嫩江度假村", "address": "大安市右岸", "image": "", "rank": 19, "time": 2, "location": {"lat": 45.51304514962824, "lng": 124.29850428102031}, "feature": {"sight_features": "", "sight_content": ""}}, {"title": "大安市秋实儿童游乐王国NO.5", "address": "大安市第一人民医院斜对过", "image": "", "rank": 20, "time": 2, "location": {"lat": 45.510703516106794, "lng": 124.29228828177271}, "feature": {"sight_features": "", "sight_content": ""}}, {"title": "德善佛堂", "address": "德善路62", "image": "", "rank": 21, "time": 2, "location": {"lat": 27.543586910100746, "lng": 109.96340391813095}, "feature": {"sight_features": "", "sight_content": ""}}, {"title": "水岛乐园", "address": "舍力镇庆丰村南侧", "image": "", "rank": 22, "time": 2, "location": {"lat": 44.733016643241626, "lng": 129.73932687183748}, "feature": {"sight_features": "", "sight_content": ""}}, {"title": "荷塘月色美术培训基地", "address": "锦华路130附近", "image": "", "rank": 23, "time": null, "location": {"lat": 30.01111176054316, "lng": 120.8753808008306}, "feature": {"sight_features": "", "sight_content": ""}}, {"title": "高岩美术书法辅导班", "address": "长虹东路78附近", "image": "", "rank": 24, "time": 2, "location": {"lat": 28.452372588278347, "lng": 119.50285979287663}, "feature": {"sight_features": "", "sight_content": ""}}, {"title": "鑫博农业", "address": "明珠二期北门西100米红黄蓝亲子园附近", "image": "", "rank": 25, "time": 2, "location": {"lat": 25.594864710530967, "lng": 100.23070340108279}, "feature": {"sight_features": "", "sight_content": ""}}, {"title": "DEON COLLECTION", "address": "康平北街105-10号附近", "image": "", "rank": 26, "time": 2, "location": {"lat": 34.81257001761558, "lng": 114.31143786178295}, "feature": {"sight_features": "", "sight_content": ""}}, {"title": "大安福街", "address": "吉林省大安市S102道", "image": "", "rank": 27, "time": 2, "location": {"lat": 45.51304514962824, "lng": 124.29850428102031}, "feature": {"sight_features": "", "sight_content": ""}}, {"title": "金盛商业街", "address": "吉林省大安市锦华路", "image": "", "rank": 28, "time": 2, "location": {"lat": 45.516650112423726, "lng": 124.29676708213017}, "feature": {"sight_features": "", "sight_content": ""}}, {"title": "大安银街", "address": "吉林省大安市银街步行街", "image": "", "rank": 29, "time": 2, "location": {"lat": 45.51365349010589, "lng": 124.29287501810131}, "feature": {"sight_features": "", "sight_content": ""}}]}