{"cityName": "大埔", "days": 2, "cityImage": "", "spots": [{"title": "富大陶瓷工业旅游区", "address": "梅州市大埔县高陂工业园富大陶瓷对面", "image": "", "rank": 1, "time": null, "location": {"lat": 24.353459468581786, "lng": 116.70155892128847}, "feature": {"sight_features": "", "sight_content": ""}}, {"title": "坪山梯田旅游区", "address": "梅州市大埔县大东镇坪山村", "image": "", "rank": 2, "time": 2, "location": {"lat": 24.32302619823226, "lng": 116.89311647083525}, "feature": {"sight_features": "特色1 站在高处俯视梯田，一片锦绣，一层一层延绵不绝，一年四季景观各异。", "sight_content": "坪山梯田旅游景区位于梅州市大埔县大东镇坪山村，地处闽粤两省四县交界处，是集“观梯田风景、饮神奇泉水、瞻将军故居、游特色民居”于一体的国家旅游景区。坪山村历史文化底蕴深厚，人文资源丰富，文物古迹众多，自然生态优美，因其有始建于元末的形态原始、线条优美的千亩梯田而享有“广东元阳”的美誉。2011年坪山村被评为“广东省古村落”，同时，坪山梯田被评为广东省乡村旅游示范基地、省级摄影家采风创作基地。2015年被评为梅州市十佳旅游赏花旅游基地。\n坪山梯田始建于元末，完工于清初。相传是温马公从宁化石壁村移居坪山，在这荒山野岭中开辟出一块块梯田开基生活，年复一年日复一日用愚公移山的精神将荒山野岭开垦了令世人惊叹的梯田。坪山梯田迄今已有600多年的历史了，共有1200多亩，其中主体680多亩，坡度多为25度到65度，沿山坡层层叠叠，从山脚连到山顶，从此山连到彼山延绵不断。少的有数十级，多的有千多级，形态不一，阡陌纵横，古人曾称梯田为“原田膏润”、“马岗欢舞”。在这里我们可以看到城市看不到的美景,听到城市听不到的故事,尝到城市尝不到的美食。\n坪山梯田一年四季景观各异，每年3、4月份是油菜花的盛开的季节。5、6月份坪山梯田举办放水节，农耕亲子活动等，8、9月份，水稻生长的季节，10月份，一边是稻穗成熟之际，金黄的稻田，沉甸甸的稻穗在风中摇曳，金黄无边，形成充满希望的梯田美景，一边是五颜六色美丽而不娇艳的幸福之花------格桑花。"}}, {"title": "百侯古镇", "address": "梅州市大埔县百侯镇百侯名镇旅游区", "image": "", "rank": 3, "time": null, "location": {"lat": 24.3005058416472, "lng": 116.77761995974303}, "feature": {"sight_features": "", "sight_content": ""}}, {"title": "三河坝战役纪念馆", "address": "梅州市大埔县三河镇八一路附近", "image": "", "rank": 4, "time": 2, "location": {"lat": 24.43988254690216, "lng": 116.54768273848174}, "feature": {"sight_features": "", "sight_content": ""}}, {"title": "泰安楼客家文化园", "address": "梅州市大埔县湖寮镇大兴路（田家炳实验中学旁）", "image": "", "rank": 5, "time": 2, "location": {"lat": 24.354406668213517, "lng": 116.69042530393706}, "feature": {"sight_features": "", "sight_content": ""}}, {"title": "西湖公园", "address": "梅州市大埔县田家炳体育中心附近", "image": "", "rank": 6, "time": 1.5, "location": {"lat": 24.35295536813815, "lng": 116.68984163262705}, "feature": {"sight_features": "", "sight_content": ""}}, {"title": "双髻山森林公园", "address": "广东省梅州市大埔县湖寮镇189乡道双髻山森林公园", "image": "", "rank": 7, "time": 2, "location": {"lat": 24.345288602608786, "lng": 116.66779359345166}, "feature": {"sight_features": "", "sight_content": ""}}, {"title": "大埔县博物馆(青梅路)", "address": "青梅路13", "image": "", "rank": 8, "time": 2, "location": {"lat": 24.361504338086863, "lng": 116.70599066121537}, "feature": {"sight_features": "", "sight_content": ""}}, {"title": "大埔蜜柚公园", "address": "广东省梅州市大埔县158乡道西200米", "image": "", "rank": 9, "time": 2, "location": {"lat": 24.353459468581786, "lng": 116.70155892128847}, "feature": {"sight_features": "", "sight_content": ""}}, {"title": "梅河公园", "address": "梅州市大埔县中华广场117号", "image": "", "rank": 10, "time": 2, "location": {"lat": 24.362221823713156, "lng": 116.69183630114689}, "feature": {"sight_features": "", "sight_content": ""}}, {"title": "梅州江畔人家休闲旅游度假村", "address": "广东省梅州市大埔县青溪镇长丰公路江畔人家旅游度假村", "image": "", "rank": 11, "time": 4.5, "location": {"lat": 24.552718195794938, "lng": 116.64733043648361}, "feature": {"sight_features": "", "sight_content": ""}}, {"title": "梅林图书馆", "address": "199乡道附近", "image": "", "rank": 12, "time": 2, "location": {"lat": 39.78931811293151, "lng": 118.43816970644646}, "feature": {"sight_features": "", "sight_content": ""}}, {"title": "公颓汉乐汉剧厅", "address": "西湖公园内", "image": "", "rank": 13, "time": 2, "location": {"lat": 26.10096012768755, "lng": 119.29505792608626}, "feature": {"sight_features": "", "sight_content": ""}}, {"title": "广东大埔麒麟山", "address": "广东省大埔县洲瑞镇南村 510000", "image": "", "rank": 14, "time": 2, "location": {"lat": 24.21504948373556, "lng": 116.53926363509238}, "feature": {"sight_features": "", "sight_content": ""}}, {"title": "王兰基督教会", "address": "力中大道附近", "image": "", "rank": 15, "time": 2, "location": {"lat": 24.24049889993243, "lng": 116.77672131108065}, "feature": {"sight_features": "", "sight_content": ""}}, {"title": "大埔县西河镇影剧院", "address": "大埔县西河镇文化站附近", "image": "", "rank": 16, "time": 2, "location": {"lat": 24.488075711188838, "lng": 116.75934808252342}, "feature": {"sight_features": "", "sight_content": ""}}, {"title": "洋竹山庄", "address": "001县道附近", "image": "", "rank": 17, "time": 2, "location": {"lat": 38.094880367227645, "lng": 115.43311409749823}, "feature": {"sight_features": "", "sight_content": ""}}, {"title": "梅溪公王宫", "address": "142乡道附近", "image": "", "rank": 18, "time": 2, "location": {"lat": 40.63032058768716, "lng": 119.03994106418921}, "feature": {"sight_features": "", "sight_content": ""}}, {"title": "王兰商代墓葬遗址", "address": "172乡道附近", "image": "", "rank": 19, "time": 2, "location": {"lat": 40.274488612737414, "lng": 116.75324051901856}, "feature": {"sight_features": "", "sight_content": ""}}, {"title": "百侯影剧院", "address": "梅州市大埔县侯南村160", "image": "", "rank": 20, "time": 2, "location": {"lat": 24.30770800431326, "lng": 116.77894969264324}, "feature": {"sight_features": "", "sight_content": ""}}, {"title": "丰溪山庄", "address": "120乡道大埔丰溪省级自然保护区管理处附近", "image": "", "rank": 21, "time": 2, "location": {"lat": 24.65011085544028, "lng": 116.79460612462566}, "feature": {"sight_features": "", "sight_content": ""}}, {"title": "湖寮镇璜滕坑玅福寺", "address": "189乡道附近", "image": "", "rank": 22, "time": 2, "location": {"lat": 22.424982041569283, "lng": 112.87334662903065}, "feature": {"sight_features": "", "sight_content": ""}}, {"title": "大埔县西湖湿地公园", "address": "湖寮镇(博物馆旁边)", "image": "", "rank": 23, "time": 2, "location": {"lat": 39.98254025482098, "lng": 116.32550459177787}, "feature": {"sight_features": "", "sight_content": ""}}, {"title": "金山公园", "address": "江苏省镇江市 212002", "image": "", "rank": 24, "time": 1.0, "location": {"lat": 32.19471592052375, "lng": 119.43048944567383}, "feature": {"sight_features": "", "sight_content": ""}}, {"title": "罗明科学馆", "address": "广东省大埔县221省道", "image": "", "rank": 25, "time": 2, "location": {"lat": 24.437415251018372, "lng": 116.73968372576374}, "feature": {"sight_features": "", "sight_content": ""}}, {"title": "广东飞天马茶叶科普示范园", "address": "湖寮镇星汇园1-6号", "image": "", "rank": 26, "time": 2, "location": {"lat": 24.36593483073219, "lng": 116.70099025976523}, "feature": {"sight_features": "", "sight_content": ""}}, {"title": "关岳庙", "address": "广东省梅州市大埔县金山路", "image": "", "rank": 27, "time": 1.5, "location": {"lat": 24.521256553271648, "lng": 116.68652987485707}, "feature": {"sight_features": "", "sight_content": ""}}, {"title": "大埔县陶瓷展馆", "address": "广东省梅州市大埔县湖寮镇环城大道文化馆", "image": "", "rank": 28, "time": 2, "location": {"lat": 24.354731823218536, "lng": 116.69818255019976}, "feature": {"sight_features": "", "sight_content": ""}}, {"title": "大埔县洲瑞镇南村灵岩寺", "address": "951县道", "image": "", "rank": 29, "time": 2, "location": {"lat": 24.210083454229125, "lng": 116.5164076455687}, "feature": {"sight_features": "", "sight_content": ""}}, {"title": "高陂基督教堂", "address": "广东省梅州市大埔县白玉路150", "image": "", "rank": 30, "time": 2, "location": {"lat": 24.197216117521485, "lng": 116.6449677402812}, "feature": {"sight_features": "", "sight_content": ""}}, {"title": "佛印禅寺", "address": "雁洋镇", "image": "", "rank": 31, "time": 2, "location": {"lat": 24.358958381039624, "lng": 116.39503250823802}, "feature": {"sight_features": "", "sight_content": ""}}, {"title": "隐吾公祠(汇东刘氏)", "address": "八一路1号附近", "image": "", "rank": 32, "time": 2, "location": {"lat": 23.100931760317003, "lng": 113.27528273950196}, "feature": {"sight_features": "", "sight_content": ""}}, {"title": "广东大埔兴瑞农业生态园", "address": "广东省梅州市大埔县百侯镇新乐村", "image": "", "rank": 33, "time": null, "location": {"lat": 24.38013552679795, "lng": 116.79636262450738}, "feature": {"sight_features": "", "sight_content": ""}}, {"title": "西河基督教堂", "address": "梅州市大埔县天王街54號", "image": "", "rank": 34, "time": 2, "location": {"lat": 24.48858020073042, "lng": 116.75834495643872}, "feature": {"sight_features": "", "sight_content": ""}}, {"title": "福山寺", "address": "五虎山", "image": "", "rank": 35, "time": 2, "location": {"lat": 28.41477287341716, "lng": 121.13049744922296}, "feature": {"sight_features": "", "sight_content": ""}}, {"title": "关帝庙", "address": "广东省梅州市大埔县湖寮镇虎中路文武阁(大埔县政府西南)", "image": "", "rank": 36, "time": 0.5, "location": {"lat": 24.35195745572291, "lng": 116.700035944907}, "feature": {"sight_features": "", "sight_content": ""}}, {"title": "洞天美食游乐园", "address": "山庄北路东50米", "image": "", "rank": 37, "time": 2, "location": {"lat": 24.351026558006147, "lng": 116.70067483326008}, "feature": {"sight_features": "", "sight_content": ""}}, {"title": "公王宫", "address": "广东省梅州市大埔县湖寮镇古城北环公路西岭中国书法公园", "image": "", "rank": 38, "time": 2, "location": {"lat": 24.367073466657683, "lng": 116.69196133539248}, "feature": {"sight_features": "", "sight_content": ""}}, {"title": "罗明故居", "address": "广东省梅州市大埔县枫朗镇坎下村", "image": "", "rank": 39, "time": null, "location": {"lat": 24.26169716533075, "lng": 116.8157759848263}, "feature": {"sight_features": "", "sight_content": ""}}, {"title": "大埔县溪尾陈氏江洲世绪宗祠", "address": "221省道梅溪村溪尾", "image": "", "rank": 40, "time": 2, "location": {"lat": 27.061559952239843, "lng": 118.9983703658256}, "feature": {"sight_features": "", "sight_content": ""}}, {"title": "马佛山云封寺", "address": "梅州市大埔县", "image": "", "rank": 41, "time": 2, "location": {"lat": 24.353459468581786, "lng": 116.70155892128847}, "feature": {"sight_features": "", "sight_content": ""}}, {"title": "财神殿", "address": "梅州市大埔县y141万福寺内", "image": "", "rank": 42, "time": 2, "location": {"lat": 24.389809074069948, "lng": 116.44352473834631}, "feature": {"sight_features": "", "sight_content": ""}}, {"title": "观音岩", "address": "梅州市大埔县雁洋镇南福村阴那山旅游度假区内", "image": "", "rank": 43, "time": 1.0, "location": {"lat": 24.408621659410183, "lng": 116.42559608839075}, "feature": {"sight_features": "", "sight_content": ""}}, {"title": "青溪文体广场", "address": "坪石街41号附近", "image": "", "rank": 44, "time": 2, "location": {"lat": 24.533033962603234, "lng": 116.60329355107608}, "feature": {"sight_features": "", "sight_content": ""}}, {"title": "大塘坝文化广场", "address": "广东省梅州市大埔县Y110", "image": "", "rank": 45, "time": 2, "location": {"lat": 24.353459468581786, "lng": 116.70155892128847}, "feature": {"sight_features": "", "sight_content": ""}}, {"title": "中华广场", "address": "梅州市大埔县内环西路51号", "image": "", "rank": 46, "time": 1.0, "location": {"lat": 24.362125132812693, "lng": 116.69313374355724}, "feature": {"sight_features": "", "sight_content": ""}}, {"title": "龙江寺", "address": "072县道附近", "image": "", "rank": 47, "time": 2, "location": {"lat": 44.32202538256775, "lng": 129.32792110032702}, "feature": {"sight_features": "", "sight_content": ""}}, {"title": "居士林", "address": "山庄北路附近", "image": "", "rank": 48, "time": 2, "location": {"lat": 24.351026558006147, "lng": 116.70022568050524}, "feature": {"sight_features": "", "sight_content": ""}}, {"title": "兴福寺", "address": "122乡道附近", "image": "", "rank": 49, "time": 1.0, "location": {"lat": 43.60004526255713, "lng": 123.87409392372564}, "feature": {"sight_features": "", "sight_content": ""}}, {"title": "南安寺", "address": "光明大道与214乡道交叉口东150米", "image": "", "rank": 50, "time": 2, "location": {"lat": 24.095685772288846, "lng": 116.66299134202745}, "feature": {"sight_features": "", "sight_content": ""}}, {"title": "灵觉寺", "address": "广东省梅州市大埔县", "image": "", "rank": 51, "time": 1.5, "location": {"lat": 24.353459468581786, "lng": 116.70155892128847}, "feature": {"sight_features": "", "sight_content": ""}}, {"title": "流动图书馆(大埔分馆)", "address": "虎中路18号", "image": "", "rank": 52, "time": 2, "location": {"lat": 24.35543464448272, "lng": 116.69903745767196}, "feature": {"sight_features": "", "sight_content": ""}}, {"title": "华侨事迹展览馆", "address": "府前路31号", "image": "", "rank": 53, "time": null, "location": {"lat": 37.622669451826106, "lng": 114.6045842883467}, "feature": {"sight_features": "", "sight_content": ""}}, {"title": "展鹰画院", "address": "青梅路17号", "image": "", "rank": 54, "time": 2, "location": {"lat": 24.361551271359282, "lng": 116.70621721925474}, "feature": {"sight_features": "", "sight_content": ""}}, {"title": "虎山乐园", "address": "山庄北路", "image": "", "rank": 55, "time": 2, "location": {"lat": 24.351026558006147, "lng": 116.70022568050524}, "feature": {"sight_features": "", "sight_content": ""}}, {"title": "熊大休闲游乐园", "address": "万川路77号", "image": "", "rank": 56, "time": 2, "location": {"lat": 24.356108272515506, "lng": 116.70304678470414}, "feature": {"sight_features": "", "sight_content": ""}}, {"title": "大埔县汉剧团排练场", "address": "虎中路16-D附近", "image": "", "rank": 57, "time": 2, "location": {"lat": 24.355304213987466, "lng": 116.69905740993565}, "feature": {"sight_features": "", "sight_content": ""}}, {"title": "大埔腾龙农家乐", "address": "西环路426号", "image": "", "rank": 58, "time": 2, "location": {"lat": 42.54577593580512, "lng": 124.0322970223433}, "feature": {"sight_features": "", "sight_content": ""}}, {"title": "金州湾休闲山庄", "address": "三洲村沿江路附近", "image": "", "rank": 59, "time": 2, "location": {"lat": 23.227370918953884, "lng": 113.05551736659474}, "feature": {"sight_features": "", "sight_content": ""}}]}