{"cityName": "达茂旗", "days": 2, "cityImage": "", "spots": [{"title": "希拉穆仁草原", "address": "包头市达尔罕茂明安联合旗希拉穆仁镇", "image": "", "rank": 1, "time": 3.0, "location": {"lat": 41.329492796574456, "lng": 111.24270280713135}, "feature": {"sight_features": "", "sight_content": ""}}, {"title": "百灵庙", "address": "包头市达尔罕茂明安联合旗广福街", "image": "", "rank": 2, "time": 1.0, "location": {"lat": 41.70644865580144, "lng": 110.44474589716404}, "feature": {"sight_features": "", "sight_content": ""}}, {"title": "红格尔敖包旅游景区", "address": "包头市达尔罕茂明安联合旗希拉穆仁草原", "image": "", "rank": 3, "time": 2, "location": {"lat": 41.32948952979189, "lng": 111.2358788454943}, "feature": {"sight_features": "", "sight_content": ""}}, {"title": "哈撒儿景区", "address": "包头市达茂旗明安镇", "image": "", "rank": 4, "time": 2, "location": {"lat": 41.751805876134924, "lng": 109.64339718591316}, "feature": {"sight_features": "", "sight_content": ""}}, {"title": "普会寺", "address": "包头市达尔罕茂明安联合旗希拉穆仁镇乌兰图格苏木", "image": "", "rank": 5, "time": 2, "location": {"lat": 41.329492796574456, "lng": 111.24270280713135}, "feature": {"sight_features": "", "sight_content": ""}}, {"title": "白云鄂博矿山", "address": "包头市白云鄂博矿山", "image": "", "rank": 6, "time": 2, "location": {"lat": 40.66292878826139, "lng": 109.84654350721243}, "feature": {"sight_features": "", "sight_content": ""}}, {"title": "哈布图·哈萨尔祭奠堂", "address": "包头市达尔罕茂明安联合旗新宝力格苏木", "image": "", "rank": 7, "time": 2, "location": {"lat": 41.74990582361827, "lng": 109.6410571386868}, "feature": {"sight_features": "", "sight_content": ""}}, {"title": "神鹰宏浩冰雪世界", "address": "包头市达茂旗希拉穆仁草原神鹰宏浩度假村", "image": "", "rank": 8, "time": 2, "location": {"lat": 41.253186465704104, "lng": 111.24299499537136}, "feature": {"sight_features": "", "sight_content": ""}}, {"title": "乌日娜牧家乐", "address": "内蒙古自治区包头市达尔罕茂明安联合旗", "image": "", "rank": 9, "time": 2, "location": {"lat": 41.7045485510015, "lng": 110.43952090316525}, "feature": {"sight_features": "", "sight_content": ""}}, {"title": "西河水库旅游度假村", "address": "内蒙古自治区包头市东河区西河乡 014025", "image": "", "rank": 10, "time": 2, "location": {"lat": 40.58222803832416, "lng": 110.05039480879458}, "feature": {"sight_features": "", "sight_content": ""}}, {"title": "达茂旗规划馆", "address": "内蒙古自治区达尔罕茂明安联合旗团结路", "image": "", "rank": 11, "time": 2, "location": {"lat": 41.707857381210715, "lng": 110.44504144147344}, "feature": {"sight_features": "", "sight_content": ""}}, {"title": "诗画草原", "address": "包头市达尔罕茂明安联合旗", "image": "", "rank": 12, "time": 2, "location": {"lat": 41.7045485510015, "lng": 110.43952090316525}, "feature": {"sight_features": "", "sight_content": "诗画草原旅游景区位于达茂旗巴音敖包苏木达布希拉图嘎查（百灵庙镇至额尔登敖包16公里处），是草原自驾游、草原深度体验、蒙元风情度假等民族特色旅游的好去处。诗画草原旅游景区海拔较高，地势平坦，广袤辽阔，拥有天然草场10万亩。"}}, {"title": "巴音艾力旅游度假村", "address": "包头市-达尔罕茂明安联合旗-希拉穆仁镇乌布楞嘎查", "image": "", "rank": 13, "time": null, "location": {"lat": 41.34863078694485, "lng": 111.28533231192112}, "feature": {"sight_features": "", "sight_content": ""}}, {"title": "希拉穆仁花海", "address": "包头市达尔罕茂明安联合旗达茂旗希拉穆仁镇呼和点素嘎查", "image": "", "rank": 14, "time": 2, "location": {"lat": 41.34604316919088, "lng": 111.15020515653204}, "feature": {"sight_features": "", "sight_content": ""}}]}