{"cityName": "大方", "days": 2, "cityImage": "", "spots": [{"title": "木寨大峡谷漂流", "address": "毕节市大方县核桃乡木寨村", "image": "", "rank": 1, "time": 2, "location": {"lat": 27.35655586683106, "lng": 105.64212465216185}, "feature": {"sight_features": "", "sight_content": "木寨大峡谷漂流全长约10公里，沿岸绿树成荫，翠竹成林，约5公里的峡谷漂流，水质清澈见底，两岸悬崖耸立，鸟声余音缭绕，带你体验真正的原始味道，沿途景区美不胜收。"}}, {"title": "彝山花谷景区", "address": "毕节市大方县", "image": "", "rank": 2, "time": 2, "location": {"lat": 27.147060750626153, "lng": 105.61845131242103}, "feature": {"sight_features": "", "sight_content": "“彝山花谷”位于毕节市百里杜鹃鹏程管理区启化村，是百里杜鹃新打造的旅游景点。该景区是百里杜鹃依托当地十万彝山这个得天独厚的旅游资源，依托花卉、温泉等，打造的一个集度假、养生、观光、体验为一体的旅游景区。"}}, {"title": "油杉河景区", "address": "毕节市大方县曾家寨村附近", "image": "", "rank": 3, "time": 2, "location": {"lat": 27.426971050521363, "lng": 105.94732485636462}, "feature": {"sight_features": "", "sight_content": ""}}, {"title": "初水花源", "address": "毕节市大方县普底乡桥头村", "image": "", "rank": 4, "time": 2, "location": {"lat": 27.19797793978019, "lng": 105.82077047663479}, "feature": {"sight_features": "", "sight_content": ""}}, {"title": "鹏程生态园", "address": "田坪村大方六中对面", "image": "", "rank": 5, "time": 2, "location": {"lat": 27.206604020470156, "lng": 105.58816197775394}, "feature": {"sight_features": "", "sight_content": ""}}, {"title": "大方县图书馆", "address": "府前路与环府路交叉口东南100米", "image": "", "rank": 6, "time": 2, "location": {"lat": 27.146193640785118, "lng": 105.61445236081748}, "feature": {"sight_features": "", "sight_content": ""}}, {"title": "奢香军营山地公园", "address": "贵州省毕节市大方县百里杜鹃风景区内", "image": "", "rank": 7, "time": 2.5, "location": {"lat": 27.147060750626153, "lng": 105.61845131242103}, "feature": {"sight_features": "", "sight_content": ""}}, {"title": "九驿生态园", "address": "贵州省毕节市大方县羊场镇陇公小学南250米", "image": "", "rank": 8, "time": 2, "location": {"lat": 27.096998077404432, "lng": 105.6667421963324}, "feature": {"sight_features": "", "sight_content": ""}}, {"title": "龙昌坪大山", "address": "贵州省大方县绿塘乡高潮村周家寨", "image": "", "rank": 9, "time": 2, "location": {"lat": 27.07474721391338, "lng": 105.40889018795102}, "feature": {"sight_features": "", "sight_content": ""}}, {"title": "仫佬山庄农家乐", "address": "209省道东50米", "image": "", "rank": 10, "time": 2, "location": {"lat": 39.99809006691208, "lng": 116.08392943269428}, "feature": {"sight_features": "", "sight_content": ""}}, {"title": "天禄源农家乐", "address": "004县道附近", "image": "", "rank": 11, "time": 2, "location": {"lat": 40.57432358393056, "lng": 116.56266536439895}, "feature": {"sight_features": "", "sight_content": ""}}, {"title": "馨原野外烧烤", "address": "004县道东50米", "image": "", "rank": 12, "time": 2, "location": {"lat": 40.57432358393056, "lng": 116.56311451715393}, "feature": {"sight_features": "", "sight_content": ""}}, {"title": "千岁衢碑", "address": "贵州省大方县县城西南 551600", "image": "", "rank": 13, "time": 2, "location": {"lat": 27.147060750626153, "lng": 105.61845131242103}, "feature": {"sight_features": "", "sight_content": ""}}, {"title": "支嘎阿鲁湖", "address": "毕节市大方县黄泥塘镇C060支嘎阿鲁湖", "image": "", "rank": 14, "time": 2, "location": {"lat": 27.057077484093483, "lng": 105.77077699656209}, "feature": {"sight_features": "", "sight_content": ""}}, {"title": "小阳光游乐园", "address": "贵州省毕节市大方县红旗大街", "image": "", "rank": 15, "time": 2, "location": {"lat": 27.14122162754001, "lng": 105.61302703293987}, "feature": {"sight_features": "", "sight_content": ""}}, {"title": "宜兴紫砂壶", "address": "贵州省毕节市大方县铜关路", "image": "", "rank": 16, "time": 2, "location": {"lat": 27.15347143961041, "lng": 105.6072177810393}, "feature": {"sight_features": "", "sight_content": ""}}, {"title": "斗姥阁", "address": "贵州省毕节市大方县G326(庆春北路)", "image": "", "rank": 17, "time": 2, "location": {"lat": 27.1576023195742, "lng": 105.61474544197307}, "feature": {"sight_features": "", "sight_content": ""}}, {"title": "大方县基督教东门教堂", "address": "326国道附近", "image": "", "rank": 18, "time": 2, "location": {"lat": 28.504838334466942, "lng": 108.62811511625138}, "feature": {"sight_features": "", "sight_content": ""}}, {"title": "贵州夜郎西民族游乐园", "address": "毕节市大方县文曲大道", "image": "", "rank": 19, "time": 2, "location": {"lat": 27.147060750626153, "lng": 105.61845131242103}, "feature": {"sight_features": "", "sight_content": ""}}, {"title": "儿童乐园", "address": "贵州省毕节市大方县和谐路", "image": "", "rank": 20, "time": null, "location": {"lat": 27.1430306866112, "lng": 105.61933132304068}, "feature": {"sight_features": "", "sight_content": ""}}, {"title": "和谐广场", "address": "安居大道附近", "image": "", "rank": 21, "time": null, "location": {"lat": 29.472532207634043, "lng": 113.28995735051144}, "feature": {"sight_features": "", "sight_content": ""}}, {"title": "百里杜鹃渡假村", "address": "毕节市大方县", "image": "", "rank": 22, "time": 2, "location": {"lat": 27.147060750626153, "lng": 105.61845131242103}, "feature": {"sight_features": "", "sight_content": ""}}, {"title": "清雅阁农家乐", "address": "326国道南50米", "image": "", "rank": 23, "time": 2, "location": {"lat": 28.50444155146462, "lng": 108.62811511625138}, "feature": {"sight_features": "", "sight_content": ""}}, {"title": "步步升农家乐", "address": "革左梁子附近", "image": "", "rank": 24, "time": 2, "location": {"lat": 27.23077268814803, "lng": 105.85741745895338}, "feature": {"sight_features": "", "sight_content": ""}}, {"title": "安春农机专业合作社", "address": "北郊路附近", "image": "", "rank": 25, "time": 2, "location": {"lat": 29.904772800992756, "lng": 121.55006707945935}, "feature": {"sight_features": "", "sight_content": ""}}, {"title": "奢香墓", "address": "贵州省大方县城郊", "image": "", "rank": 26, "time": 2, "location": {"lat": 27.147060750626153, "lng": 105.61845131242103}, "feature": {"sight_features": "", "sight_content": ""}}, {"title": "芝樱花田", "address": "毕节市-大方县-知音路", "image": "", "rank": 27, "time": 2, "location": {"lat": 27.147060750626153, "lng": 105.61845131242103}, "feature": {"sight_features": "", "sight_content": ""}}, {"title": "夜郎西民族乐园", "address": "毕节市大方县", "image": "", "rank": 28, "time": 2, "location": {"lat": 27.147060750626153, "lng": 105.61845131242103}, "feature": {"sight_features": "", "sight_content": "夜郎西民族乐园以演绎“夜郎文化”、传承“民族文化”、推动文化产业发展为本，打造新区重要的文化交流场所和行游中心，建设毕节市七星关区至金海湖新区经济圈具有地标性特点的主题园区。场内有百米摩天轮、四环过山车、跳楼机等多项有动力游乐项目，还有游泳池、攀岩、悬崖秋千等多项无动力游乐项目。"}}, {"title": "百里杜鹃戛木景区", "address": "毕节市大方县内", "image": "", "rank": 29, "time": 2, "location": {"lat": 27.147060750626153, "lng": 105.61845131242103}, "feature": {"sight_features": "", "sight_content": ""}}]}