{"cityName": "岱山", "days": 2, "cityImage": "", "spots": [{"title": "岱山岛骑行", "address": "舟山市岱山县黄燕线中国海岬公园", "image": "", "rank": 1, "time": 2, "location": {"lat": 30.333617994889305, "lng": 122.19862281265628}, "feature": {"sight_features": "", "sight_content": ""}}, {"title": "东沙古镇", "address": "舟山市岱山岛西北端1", "image": "", "rank": 2, "time": 3.5, "location": {"lat": 30.28349494055949, "lng": 122.18664329423976}, "feature": {"sight_features": "特色1 海滨生长足生涯，出水鲜鳞处处皆，才见喧闹朝市散，晚潮争集又横街。", "sight_content": "﻿东沙镇位于岱山岛西北端，北濒岱衢洋，东邻岱东镇，南与高亭、岱西两镇接壤。\n\n\n最大海湾由西沙角、念母岙、沙河口自西而东环列，至山渚头岬角形成半圈状。镇 区坐落于大海湾东角--史称\"东沙角\"，镇由此得名。境内有东垦山、大寨子山、小寨子山等岛屿。总面积23.46平方公里。地势南高北低，气候冬暖夏凉。\n\n\n全镇辖东沙、桥头、泥峙、司基4个新型社区及渔业专业经济合作社。2005年末有居民8921户，共19313人，其中非农户口人数6361人。镇政府驻 地宫门，距县城9公里"}}, {"title": "鹿栏晴沙景区", "address": "舟山市岱山岱东镇鹿栏山下", "image": "", "rank": 3, "time": 3.0, "location": {"lat": 30.303722337947107, "lng": 122.2220088653198}, "feature": {"sight_features": "特色1 “蓬莱十景”之一。", "sight_content": "鹿栏晴沙位于岱山岛东北部的后沙洋，“蓬莱十景”之首，因处鹿栏山下得名。沙滩南北长3600米，东西宽约500米，沙质细腻而坚硬，滩坡平缓呈铁灰色，故素有“万步铁板沙”之称。清诗人刘梦兰曾有诗赞曰：“一带平沙绕海隅，鹿栏山下亦名区。好将白地光明锦，写出潇湘落雁图。”赵朴初先生观赏了该沙滩后，连连称道：“东方奇观,神州罕见。”\n\n\n目前，已在该沙滩上建造了别致新颖的“晴沙海洋乐园”，内配有茶室、小卖部、高速游艇、海滨浴场等设施。沙滩活动开展得丰富多彩：海上靶场、网钓鱼虾、沙滩跑车、排球、足球赛、戏水弄潮等项目，使人流连忘返。鹿栏晴沙南的大嘴头外为竹屿港，“竹屿怒涛”也为“蓬莱十景”之一。"}}, {"title": "摩星山景区", "address": "舟山市岱山县东南部", "image": "", "rank": 4, "time": 4.0, "location": {"lat": 30.269655894034567, "lng": 122.23260481448817}, "feature": {"sight_features": "特色1 摩星山景区位于岱山岛东南部，距县城高亭镇2.2公里，全山占地约6平方公里。 特色2 山岗绵延叠翠，海拔257.1米，为岛上最高处，可揽景观日出，视野开阔。 特色3 摩星山属自然景观的山海风光类型,由于特殊的地理位置，形成了山域、地域、海域三个层次的空间梯度分布。", "sight_content": "摩星山景区位于岱山岛东南部，距县城高亭镇2.2公里，全山占地约6平方公里，山岗绵延叠翠，海拔257.1米，为岛上最高处，可揽景观日出，视野开阔。 摩星山属自然景观的山海风光类型。\n由于特殊的地理位置，形成了山域、地域、海域三个层次的空间梯度分布，而三个空间景域又可以遥相呼应。是观赏“海上千岛”的好地方，被列为浙江省仅有的几处自然天象类5级资源 ，站在摩星山巅，极目南眺，只见海中岛屿星罗棋布，围环于大岛外延，那岛海在云雾中若隐若现，变幻莫测，极具观赏价值，“蓬莱仙岛”的意境也在此刻得到完美诠释。有“海上布达拉 宫”之称的慈云极乐寺隐于山中。\n\n\n慈云极乐寺建置最早可追溯到清朝乾隆年间，佛教文化和普陀山一脉相承，源远流长。慈云极乐寺依山就势，拾级而上，气势磅礴，在舟山群岛首屈一指，每年吸引着无数的善男信女和各 地游客在此祈愿求福。"}}, {"title": "秀山岛景区", "address": "舟山市岱山县秀山乡兰秀路105号", "image": "", "rank": 5, "time": 3.0, "location": {"lat": 30.18667267508577, "lng": 122.15594238562207}, "feature": {"sight_features": "", "sight_content": ""}}, {"title": "双合石壁", "address": "舟山市岱山县岱西镇双合村", "image": "", "rank": 6, "time": 3.5, "location": {"lat": 30.30473997118309, "lng": 122.0750044788677}, "feature": {"sight_features": "", "sight_content": ""}}, {"title": "岱山岛盐主题公园", "address": "舟山市岱山岛岱西镇万亩盐场内", "image": "", "rank": 7, "time": 2.5, "location": {"lat": 30.28349494055949, "lng": 122.18664329423976}, "feature": {"sight_features": "", "sight_content": ""}}, {"title": "中国灯塔博物馆", "address": "舟山市岱山县岱山县城竹屿新区", "image": "", "rank": 8, "time": 1.5, "location": {"lat": 30.269655894034567, "lng": 122.23260481448817}, "feature": {"sight_features": "", "sight_content": ""}}, {"title": "中国海洋渔业博物馆", "address": "舟山市岱山县解放路23号", "image": "", "rank": 9, "time": 1.5, "location": {"lat": 30.31955898741052, "lng": 122.15240003821641}, "feature": {"sight_features": "", "sight_content": ""}}, {"title": "观音山景区", "address": "舟山市岱山县衢山岛", "image": "", "rank": 10, "time": 2.0, "location": {"lat": 30.44847723504924, "lng": 122.36501380340408}, "feature": {"sight_features": "", "sight_content": ""}}, {"title": "沙龙沙滩", "address": "舟山市岱山县衢山镇沙龙村(近大岙岗墩)", "image": "", "rank": 11, "time": 2, "location": {"lat": 30.46793366993429, "lng": 122.373239822315}, "feature": {"sight_features": "", "sight_content": ""}}, {"title": "3D魔幻城", "address": "浙江舟山岱山县高亭日达广场B区3楼（时代影院旁）", "image": "", "rank": 12, "time": 2, "location": {"lat": 30.252223114872415, "lng": 122.21669536127912}, "feature": {"sight_features": "", "sight_content": ""}}, {"title": "慈云古庵", "address": "舟山市岱山县磨心山月平岗巅南", "image": "", "rank": 13, "time": 1.5, "location": {"lat": 30.269655894034567, "lng": 122.23260481448817}, "feature": {"sight_features": "", "sight_content": ""}}, {"title": "慈云极乐寺", "address": "舟山市岱山县磨心山极乐寺", "image": "", "rank": 14, "time": 2.5, "location": {"lat": 30.267942397901304, "lng": 122.20619121893387}, "feature": {"sight_features": "", "sight_content": ""}}, {"title": "大长涂山", "address": "舟山市岱山县长涂镇", "image": "", "rank": 15, "time": 4.5, "location": {"lat": 30.258630686624944, "lng": 122.29301162901523}, "feature": {"sight_features": "", "sight_content": ""}}, {"title": "小长涂山", "address": "舟山市岱山县长涂镇小长涂山", "image": "", "rank": 16, "time": 5.5, "location": {"lat": 30.261998117483124, "lng": 122.28429397019362}, "feature": {"sight_features": "", "sight_content": ""}}, {"title": "大鱼山", "address": "舟山市岱山县岱山岛西北海域", "image": "", "rank": 17, "time": 5.5, "location": {"lat": 30.28349494055949, "lng": 122.18664329423976}, "feature": {"sight_features": "", "sight_content": ""}}, {"title": "鼠浪湖岛", "address": "舟山市岱山县009乡道", "image": "", "rank": 18, "time": 0.75, "location": {"lat": 30.269655894034567, "lng": 122.23260481448817}, "feature": {"sight_features": "", "sight_content": ""}}, {"title": "九子沙滩", "address": "舟山市岱山县秀山岛上", "image": "", "rank": 19, "time": 2.5, "location": {"lat": 30.18479244565477, "lng": 122.15587447282722}, "feature": {"sight_features": "", "sight_content": ""}}, {"title": "竹山庙", "address": "舟山市岱山县", "image": "", "rank": 20, "time": 2, "location": {"lat": 30.269655894034567, "lng": 122.23260481448817}, "feature": {"sight_features": "", "sight_content": ""}}, {"title": "金乐迪", "address": "舟山市岱山县高亭镇竹屿新区星河路星辰大厦3楼", "image": "", "rank": 21, "time": 2, "location": {"lat": 30.25612968616907, "lng": 122.22656270293308}, "feature": {"sight_features": "", "sight_content": ""}}, {"title": "三星国际灯塔", "address": "舟山岱山县三星山", "image": "", "rank": 22, "time": 2, "location": {"lat": 30.442705620347997, "lng": 122.5223460756773}, "feature": {"sight_features": "", "sight_content": ""}}, {"title": "中国台风博物馆", "address": "浙江省舟山市岱山县中国台风博物馆", "image": "", "rank": 23, "time": 2, "location": {"lat": 30.3455958871298, "lng": 122.18836994163337}, "feature": {"sight_features": "", "sight_content": ""}}, {"title": "麦仓山海鸥岛", "address": "舟山市岱山县衢山镇黄泽岛和小衢岛之间", "image": "", "rank": 24, "time": 2, "location": {"lat": 30.4483983233724, "lng": 122.36357891216552}, "feature": {"sight_features": "", "sight_content": ""}}, {"title": "长寿禅院", "address": "舟山市岱山县秀山乡黄泥坎村附近", "image": "", "rank": 25, "time": 2, "location": {"lat": 30.426666524476946, "lng": 122.48204195597137}, "feature": {"sight_features": "", "sight_content": ""}}, {"title": "三礁沙滩", "address": "舟山市岱山县秀山岛上", "image": "", "rank": 26, "time": 0.65, "location": {"lat": 30.18479244565477, "lng": 122.15587447282722}, "feature": {"sight_features": "", "sight_content": ""}}, {"title": "风电观景平台", "address": "舟山市岱山县", "image": "", "rank": 27, "time": 2, "location": {"lat": 30.269655894034567, "lng": 122.23260481448817}, "feature": {"sight_features": "", "sight_content": ""}}, {"title": "衢山岛风力发电场观光平台", "address": "舟山市岱山县011乡道附近", "image": "", "rank": 28, "time": 0.6, "location": {"lat": 30.269655894034567, "lng": 122.23260481448817}, "feature": {"sight_features": "", "sight_content": ""}}, {"title": "海防博物馆", "address": "浙江省舟山市岱山县岱东镇后沙洋", "image": "", "rank": 29, "time": 1.5, "location": {"lat": 30.314359886361327, "lng": 122.23269774778639}, "feature": {"sight_features": "", "sight_content": ""}}, {"title": "文化馆", "address": "长河路", "image": "", "rank": 30, "time": 2, "location": {"lat": 30.16043724916794, "lng": 121.05561329070684}, "feature": {"sight_features": "", "sight_content": ""}}, {"title": "蓬莱慈", "address": "牛头山59号", "image": "", "rank": 31, "time": 2, "location": {"lat": 39.56113436158436, "lng": 114.36937958136345}, "feature": {"sight_features": "", "sight_content": ""}}, {"title": "沈家坑水库", "address": "长涂镇小长涂山岛(近上虞家)", "image": "", "rank": 32, "time": 2, "location": {"lat": 30.038242967062466, "lng": 120.87450989363869}, "feature": {"sight_features": "", "sight_content": ""}}, {"title": "金维映史迹纪念馆", "address": "解放路63号", "image": "", "rank": 33, "time": 2, "location": {"lat": 37.87900353047741, "lng": 112.56711479361256}, "feature": {"sight_features": "", "sight_content": ""}}, {"title": "和平方舟号", "address": "蓬莱路143号", "image": "", "rank": 34, "time": 2, "location": {"lat": 29.469911057523976, "lng": 121.87714890006386}, "feature": {"sight_features": "", "sight_content": ""}}, {"title": "磨星山", "address": "浙江省岱山县岱山岛东南部 316200", "image": "", "rank": 35, "time": null, "location": {"lat": 30.28349494055949, "lng": 122.18664329423976}, "feature": {"sight_features": "", "sight_content": ""}}, {"title": "中国海岬公园", "address": "浙江省舟山市岱山县黄燕线", "image": "", "rank": 36, "time": 2, "location": {"lat": 30.269655894034567, "lng": 122.23260481448817}, "feature": {"sight_features": "", "sight_content": ""}}, {"title": "普济禅寺宋朝宫", "address": "衢山镇普济一弄35号", "image": "", "rank": 37, "time": 1.5, "location": {"lat": 32.21770882917238, "lng": 119.85206046119961}, "feature": {"sight_features": "", "sight_content": ""}}, {"title": "四平基督教堂", "address": "浙江省舟山市岱山县岛万线", "image": "", "rank": 38, "time": 2.5, "location": {"lat": 30.440628766315708, "lng": 122.33074776275978}, "feature": {"sight_features": "", "sight_content": ""}}, {"title": "舟山秀山秀水湾休闲度假村私人海...", "address": "舟山舟山岱山县秀山乡秀水湾度假村158号", "image": "", "rank": 39, "time": 0.5, "location": {"lat": 30.17008012144157, "lng": 122.18805586887453}, "feature": {"sight_features": "", "sight_content": ""}}, {"title": "秀水湾休闲度假村", "address": "岱山县秀山乡秀水湾度假村160号（舟山前景君廷温泉度假酒店西南方向100米-200米左右", "image": "", "rank": 40, "time": 2, "location": {"lat": 30.17008012144157, "lng": 122.18805586887453}, "feature": {"sight_features": "", "sight_content": ""}}, {"title": "舟山秀山秀水湾休闲度假村", "address": "舟山岱山县秀山乡秀水湾度假村158号", "image": "", "rank": 41, "time": null, "location": {"lat": 30.17008012144157, "lng": 122.18805586887453}, "feature": {"sight_features": "", "sight_content": ""}}, {"title": "这边风景度假村", "address": "岱山县岱东镇涂口村上船跳19号", "image": "", "rank": 42, "time": 2, "location": {"lat": 30.305580029231834, "lng": 122.21856196377287}, "feature": {"sight_features": "", "sight_content": ""}}, {"title": "舟山秀山岛嘉年华度假村", "address": "浙江省舟山市岱山县秀山乡南沙嘉年华苑30幢", "image": "", "rank": 43, "time": 2, "location": {"lat": 30.179193710973376, "lng": 122.21279980104524}, "feature": {"sight_features": "", "sight_content": ""}}, {"title": "岱山高亭天主教堂", "address": "浙江省舟山市岱山县文明路", "image": "", "rank": 44, "time": 1.5, "location": {"lat": 30.25531532232249, "lng": 122.2146228905184}, "feature": {"sight_features": "", "sight_content": ""}}, {"title": "宝筏禅庵", "address": "浙江省舟山市岱山县福禄路", "image": "", "rank": 45, "time": 2, "location": {"lat": 30.26177166403935, "lng": 122.22355412866145}, "feature": {"sight_features": "", "sight_content": ""}}, {"title": "万寿禅寺", "address": "浙江省舟山市岱山县衢山岛五尖山", "image": "", "rank": 46, "time": 1.0, "location": {"lat": 30.44847723504924, "lng": 122.36501380340408}, "feature": {"sight_features": "", "sight_content": ""}}, {"title": "海景度假园", "address": "凉峙大岙57号", "image": "", "rank": 47, "time": 2, "location": {"lat": 27.96476087668111, "lng": 120.74562746989243}, "feature": {"sight_features": "", "sight_content": ""}}, {"title": "岱山县档案馆", "address": "人民路88号", "image": "", "rank": 48, "time": 2, "location": {"lat": 30.24971543013203, "lng": 122.21218022176889}, "feature": {"sight_features": "", "sight_content": ""}}, {"title": "兰秀博物馆", "address": "秀山乡书仕路", "image": "", "rank": 49, "time": 2, "location": {"lat": 30.190272361588665, "lng": 122.17743466294846}, "feature": {"sight_features": "", "sight_content": ""}}, {"title": "小岭墩", "address": "东沙古镇", "image": "", "rank": 50, "time": 2, "location": {"lat": 30.319178674226837, "lng": 122.15161290699635}, "feature": {"sight_features": "", "sight_content": ""}}, {"title": "中国盐业博物馆", "address": "岱西镇", "image": "", "rank": 51, "time": 2, "location": {"lat": 30.29666205914983, "lng": 122.1290437688721}, "feature": {"sight_features": "", "sight_content": ""}}, {"title": "前景君廷温泉", "address": "秀山岛秀水湾度假村158号(近老山)舟山前景君廷温泉度假酒店", "image": "", "rank": 52, "time": 2, "location": {"lat": 30.17022264913481, "lng": 122.18822819621033}, "feature": {"sight_features": "", "sight_content": ""}}, {"title": "海盐博物馆", "address": "岱西盐博苑", "image": "", "rank": 53, "time": 2.5, "location": {"lat": 30.26490124654531, "lng": 122.14215960872482}, "feature": {"sight_features": "", "sight_content": ""}}, {"title": "中国岛礁博物馆", "address": "康健路与新河路交叉口", "image": "", "rank": 54, "time": 2, "location": {"lat": 30.251831184409735, "lng": 122.21492047128639}, "feature": {"sight_features": "", "sight_content": ""}}, {"title": "舟山岱西林家村水上乐园", "address": "岱西镇林家村", "image": "", "rank": 55, "time": 0.5, "location": {"lat": 30.305020939333613, "lng": 122.13809341985085}, "feature": {"sight_features": "", "sight_content": ""}}, {"title": "鹿栏晴沙", "address": "浙江省岱山县岱山岛", "image": "", "rank": 56, "time": null, "location": {"lat": 30.28349494055949, "lng": 122.18664329423976}, "feature": {"sight_features": "", "sight_content": ""}}, {"title": "秀山岛", "address": "浙江省岱山县秀山岛", "image": "", "rank": 57, "time": 2.5, "location": {"lat": 30.18479244565477, "lng": 122.15587447282722}, "feature": {"sight_features": "", "sight_content": ""}}, {"title": "诺兰贝儿步行街", "address": "浙江省岱山县人民路近七匹狼", "image": "", "rank": 58, "time": 2, "location": {"lat": 30.249969335791498, "lng": 122.2160014768659}, "feature": {"sight_features": "", "sight_content": ""}}, {"title": "安澜路步行街", "address": "浙江省岱山县安澜路", "image": "", "rank": 59, "time": 2, "location": {"lat": 30.250104381585814, "lng": 122.21074572937798}, "feature": {"sight_features": "", "sight_content": ""}}, {"title": "火山列岛", "address": "舟山市-岱山县", "image": "", "rank": 60, "time": 2, "location": {"lat": 30.269655894034567, "lng": 122.23260481448817}, "feature": {"sight_features": "", "sight_content": ""}}]}