{"cityName": "大荔", "days": 2, "cityImage": "", "spots": [{"title": "丰图义仓", "address": "渭南市大荔县朝邑粮站大院内，岱祠楼附近", "image": "", "rank": 1, "time": 0.4, "location": {"lat": 34.801832760483684, "lng": 109.94845330291125}, "feature": {"sight_features": "", "sight_content": ""}}, {"title": "大荔沙苑同州沙漠", "address": "渭南市大荔县羌白镇沙苑村", "image": "", "rank": 2, "time": 2, "location": {"lat": 34.74400989969537, "lng": 109.84371215155012}, "feature": {"sight_features": "", "sight_content": "“同州沙漠”地处最大的中国内陆沙漠腹地的大荔县羌白镇沙苑村，有沙漠沙丘一千多亩，让游客不出陕西就能体验到沙漠的风情。目前，已建成千亩沙漠大赛场，配套旅游项目包括骆驼队，沙滩摩托车等，可享受到滑沙、沙漠卡丁车、沙海冲浪，攀岩，骑上骆驼体会进沙漠的感觉。"}}, {"title": "岱祠楼", "address": "陕西省渭南市大荔市大荔县Y233", "image": "", "rank": 3, "time": null, "location": {"lat": 34.801832760483684, "lng": 109.94845330291125}, "feature": {"sight_features": "", "sight_content": ""}}, {"title": "甜水沟遗址", "address": "渭南市大荔县段家乡解放村甜水沟内", "image": "", "rank": 4, "time": 1.0, "location": {"lat": 34.87915838357649, "lng": 109.83134022543936}, "feature": {"sight_features": "", "sight_content": ""}}, {"title": "大棚黄花菜", "address": "溢渡村", "image": "", "rank": 5, "time": 2, "location": {"lat": 34.64912074124278, "lng": 109.89800384025025}, "feature": {"sight_features": "", "sight_content": ""}}, {"title": "同州湖风景区", "address": "陕西省渭南市大荔县S202(大华路)", "image": "", "rank": 6, "time": 2, "location": {"lat": 34.78522238509469, "lng": 109.9440503725389}, "feature": {"sight_features": "", "sight_content": ""}}, {"title": "八鱼石墓博物馆", "address": "渭南市大荔县八鱼乡八鱼村", "image": "", "rank": 7, "time": 2, "location": {"lat": 34.731245618057635, "lng": 109.83876547505595}, "feature": {"sight_features": "", "sight_content": ""}}, {"title": "龙泉山庄温泉", "address": "段家镇育红河", "image": "", "rank": 8, "time": 2, "location": {"lat": 34.9209127963288, "lng": 109.82842210154953}, "feature": {"sight_features": "", "sight_content": ""}}, {"title": "探险家密室逃脱", "address": "花城路西段鸿基新天地内(领地KTV东邻)", "image": "", "rank": 9, "time": 2, "location": {"lat": 34.805616919743855, "lng": 109.93146295910579}, "feature": {"sight_features": "", "sight_content": ""}}, {"title": "冬枣", "address": "羌白镇东羌白", "image": "", "rank": 10, "time": 2, "location": {"lat": 34.74792195287644, "lng": 109.84225879025196}, "feature": {"sight_features": "", "sight_content": ""}}, {"title": "柳福居生态休闲农庄", "address": "高朝路208县", "image": "", "rank": 11, "time": 2, "location": {"lat": 34.82469678746816, "lng": 110.11350157934548}, "feature": {"sight_features": "", "sight_content": ""}}, {"title": "逐梦人鬼屋密室集中营", "address": "同州湖生态区湖堤路同州里AY18-03号", "image": "", "rank": 12, "time": 2, "location": {"lat": 29.831361157892797, "lng": 106.44278612439919}, "feature": {"sight_features": "", "sight_content": ""}}, {"title": "同州广场", "address": "东大街", "image": "", "rank": 13, "time": 2, "location": {"lat": 22.617509352603705, "lng": 114.14733733676542}, "feature": {"sight_features": "", "sight_content": ""}}, {"title": "同州乐园欢乐水世界", "address": "同州湖同州乐园摩天轮东50米", "image": "", "rank": 14, "time": 2, "location": {"lat": 38.08354121595048, "lng": 114.46913844919662}, "feature": {"sight_features": "", "sight_content": ""}}, {"title": "书香宝贝少儿主题图书馆", "address": "云棋路25号附近", "image": "", "rank": 15, "time": 2, "location": {"lat": 34.80422665096249, "lng": 109.95520110441055}, "feature": {"sight_features": "", "sight_content": ""}}, {"title": "大荔县龙首温泉度假村", "address": "渭南市大荔县段家镇育红村", "image": "", "rank": 16, "time": 2, "location": {"lat": 34.91582854531033, "lng": 109.82151646058568}, "feature": {"sight_features": "", "sight_content": ""}}, {"title": "大荔民俗博物馆", "address": "南七村", "image": "", "rank": 17, "time": 1.0, "location": {"lat": 34.78805984369678, "lng": 109.90996651184525}, "feature": {"sight_features": "", "sight_content": ""}}, {"title": "大荔县新时代水上乐园", "address": "朝邑村南街", "image": "", "rank": 18, "time": 2, "location": {"lat": 34.60357473356561, "lng": 109.19386557416858}, "feature": {"sight_features": "", "sight_content": ""}}, {"title": "智立方儿童乐园", "address": "渭南市大荔县隆发购物广场3楼", "image": "", "rank": 19, "time": 2, "location": {"lat": 34.80730998625594, "lng": 109.94810696212018}, "feature": {"sight_features": "", "sight_content": ""}}, {"title": "大荔金沙岛", "address": "渭南市大荔县苏村镇", "image": "", "rank": 20, "time": 7.5, "location": {"lat": 34.63522361062955, "lng": 109.87805227455151}, "feature": {"sight_features": "", "sight_content": "大荔金沙岛景区成立于2015年8月13日，地处陕西省大荔县苏村镇沙南村自然沙湾区。景区风景秀丽，沙丘连绵，拥有数10个游乐项目。"}}, {"title": "大荔县图书馆", "address": "东大街38号", "image": "", "rank": 21, "time": 2, "location": {"lat": 22.61729942596652, "lng": 114.14733751642652}, "feature": {"sight_features": "", "sight_content": ""}}, {"title": "金明博物馆", "address": "南七村", "image": "", "rank": 22, "time": 2, "location": {"lat": 34.78805984369678, "lng": 109.90996651184525}, "feature": {"sight_features": "", "sight_content": ""}}, {"title": "同州湖水魔方水上乐园", "address": "同州湖西段篮球场南侧", "image": "", "rank": 23, "time": 2, "location": {"lat": 31.262054980735144, "lng": 120.62576954707853}, "feature": {"sight_features": "", "sight_content": ""}}, {"title": "尊天马术俱乐部", "address": "大荔县朝邑镇平罗村", "image": "", "rank": 24, "time": 2, "location": {"lat": 34.79427879285336, "lng": 110.05025152906573}, "feature": {"sight_features": "", "sight_content": ""}}, {"title": "东府水上嘉年华", "address": "东府广场北侧", "image": "", "rank": 25, "time": 2, "location": {"lat": 34.79983059765517, "lng": 109.9289456402701}, "feature": {"sight_features": "", "sight_content": ""}}, {"title": "大荔县民俗博物馆", "address": "南七村453号", "image": "", "rank": 26, "time": 2, "location": {"lat": 34.78805984369678, "lng": 109.90996651184525}, "feature": {"sight_features": "", "sight_content": ""}}, {"title": "大荔红梅冬枣", "address": "埝桥乡北黄村", "image": "", "rank": 27, "time": 2, "location": {"lat": 34.838378591392704, "lng": 109.90909472251731}, "feature": {"sight_features": "", "sight_content": ""}}, {"title": "冬枣", "address": "羌白镇留", "image": "", "rank": 28, "time": 2, "location": {"lat": 34.74400989969537, "lng": 109.84371215155012}, "feature": {"sight_features": "", "sight_content": ""}}, {"title": "宏焕有机冬枣釆摘园", "address": "许庄镇厮罗寨村", "image": "", "rank": 29, "time": 2, "location": {"lat": 34.877406503436454, "lng": 109.99130046263456}, "feature": {"sight_features": "", "sight_content": ""}}, {"title": "英考鸵鸟观光园", "address": "观池镇南一公里", "image": "", "rank": 30, "time": 2, "location": {"lat": 39.920558429401076, "lng": 116.46579244315224}, "feature": {"sight_features": "", "sight_content": ""}}, {"title": "梦嘉农场", "address": "高洼村", "image": "", "rank": 31, "time": 2, "location": {"lat": 38.33155447721244, "lng": 113.8400803303676}, "feature": {"sight_features": "", "sight_content": ""}}, {"title": "渭南三河湿地自然保护区", "address": "陕西省大荔县华原乡", "image": "", "rank": 32, "time": 1.5, "location": {"lat": 34.96085651756662, "lng": 110.20967477539655}, "feature": {"sight_features": "", "sight_content": ""}}, {"title": "大荔商业二街", "address": "陕西省大荔县商业二街", "image": "", "rank": 33, "time": 2, "location": {"lat": 34.801436538388586, "lng": 109.94787470433228}, "feature": {"sight_features": "", "sight_content": ""}}, {"title": "钛仑电竞体验馆", "address": "渭南市-大荔县-西大街佳百隆商城西邻二楼(海澜之家二楼)", "image": "", "rank": 34, "time": 2, "location": {"lat": 34.80050808200958, "lng": 109.95179924749512}, "feature": {"sight_features": "", "sight_content": ""}}, {"title": "沙苑腹地", "address": "陕西渭南大荔官池镇大元子北淩草南", "image": "", "rank": 35, "time": 2, "location": {"lat": 34.70971380005223, "lng": 109.94183619677891}, "feature": {"sight_features": "", "sight_content": ""}}]}