{"cityName": "大名", "days": 2, "cityImage": "", "spots": [{"title": "石刻博物馆", "address": "河北省邯郸市大名县孔庄村", "image": "", "rank": 1, "time": 2, "location": {"lat": 36.28767178755125, "lng": 115.19729913115829}, "feature": {"sight_features": "", "sight_content": ""}}, {"title": "金沙城水上乐园", "address": "平安大街大名府国际商贸城院内", "image": "", "rank": 2, "time": 2, "location": {"lat": 36.27513245250847, "lng": 115.13317206251422}, "feature": {"sight_features": "", "sight_content": ""}}, {"title": "大名县规划展馆", "address": "天雄路438号", "image": "", "rank": 3, "time": 2, "location": {"lat": 31.105798666192896, "lng": 121.61919456140538}, "feature": {"sight_features": "", "sight_content": ""}}, {"title": "南湖鱼塘", "address": "西未庄乡", "image": "", "rank": 4, "time": 2, "location": {"lat": 36.271710660053095, "lng": 115.11766822568362}, "feature": {"sight_features": "", "sight_content": ""}}, {"title": "宋代大名府城遗址", "address": "河北省邯郸市大名县丛峰线大名县大街乡大街村", "image": "", "rank": 5, "time": 2, "location": {"lat": 36.30286877323039, "lng": 115.21948900649284}, "feature": {"sight_features": "", "sight_content": ""}}, {"title": "宋村温泉度假村", "address": "黄金堤乡五得利街东50米", "image": "", "rank": 6, "time": 2, "location": {"lat": 36.28870988200871, "lng": 115.18460164385952}, "feature": {"sight_features": "", "sight_content": ""}}, {"title": "瑞智门", "address": "京府大街与大名府路交叉口南100米", "image": "", "rank": 7, "time": 2, "location": {"lat": 36.29020219320975, "lng": 115.15709617592397}, "feature": {"sight_features": "", "sight_content": ""}}, {"title": "福音营地", "address": "旧治乡南环基督教堂阳平路", "image": "", "rank": 8, "time": 2, "location": {"lat": 36.27094356045996, "lng": 115.16105158396583}, "feature": {"sight_features": "", "sight_content": ""}}, {"title": "大名森林生态园", "address": "河北省邯郸市大名县五得利街", "image": "", "rank": 9, "time": 2, "location": {"lat": 36.28870988200871, "lng": 115.18415249110453}, "feature": {"sight_features": "", "sight_content": ""}}, {"title": "大名县基督教会", "address": "河北省邯郸市大名县大名镇南街", "image": "", "rank": 10, "time": 2, "location": {"lat": 36.29128846623129, "lng": 115.15461253007031}, "feature": {"sight_features": "", "sight_content": ""}}, {"title": "万北村经济文化广场", "address": "邯郸市大名县", "image": "", "rank": 11, "time": 2, "location": {"lat": 36.29128846623129, "lng": 115.15461253007031}, "feature": {"sight_features": "", "sight_content": ""}}, {"title": "金港湾休闲广场", "address": "天雄路", "image": "", "rank": 12, "time": 1.0, "location": {"lat": 31.10892917094397, "lng": 121.61896402477083}, "feature": {"sight_features": "", "sight_content": ""}}, {"title": "狄仁杰祠堂碑", "address": "大名县从峰线", "image": "", "rank": 13, "time": 2, "location": {"lat": 36.28161491652411, "lng": 115.41027378160152}, "feature": {"sight_features": "", "sight_content": ""}}, {"title": "京华生态园", "address": "313省道北50米", "image": "", "rank": 14, "time": 2, "location": {"lat": 40.47397519896867, "lng": 116.99325005466613}, "feature": {"sight_features": "", "sight_content": ""}}, {"title": "超级课堂", "address": "大名镇元城街大名中心卫生院西北角", "image": "", "rank": 15, "time": 2, "location": {"lat": 36.283420319732386, "lng": 115.14745625288612}, "feature": {"sight_features": "", "sight_content": ""}}, {"title": "邯郸市凝德农业科技有限公司", "address": "五得利街与从峰线交叉口西南150米", "image": "", "rank": 16, "time": 2.0, "location": {"lat": 31.909199228140412, "lng": 121.30903625505988}, "feature": {"sight_features": "", "sight_content": ""}}, {"title": "秭扬农博园有限公司", "address": "李茂堤二排215省道南", "image": "", "rank": 17, "time": null, "location": {"lat": 36.23950249136519, "lng": 115.2157875251644}, "feature": {"sight_features": "", "sight_content": ""}}, {"title": "大名县天主教堂", "address": "河北大名县城内东街", "image": "", "rank": 18, "time": 2, "location": {"lat": 36.29128846623129, "lng": 115.15461253007031}, "feature": {"sight_features": "", "sight_content": ""}}]}