{"cityName": "丹巴", "days": 2, "cityImage": "", "spots": [{"title": "甲居藏寨", "address": "甘孜藏族自治州市丹巴县聂嘎乡甲居一村", "image": "", "rank": 1, "time": 2.5, "location": {"lat": 30.93368978810095, "lng": 101.87653036955433}, "feature": {"sight_features": "", "sight_content": ""}}, {"title": "八美镇", "address": "甘孜藏族自治州道孚县八美镇", "image": "", "rank": 2, "time": 3.0, "location": {"lat": 30.48888901749477, "lng": 101.4906805516837}, "feature": {"sight_features": "", "sight_content": ""}}, {"title": "莫斯卡", "address": "甘孜藏族自治州丹巴县", "image": "", "rank": 3, "time": 2.0, "location": {"lat": 30.88476979933027, "lng": 101.89643706758775}, "feature": {"sight_features": "", "sight_content": ""}}, {"title": "梭坡碉楼", "address": "甘孜藏族自治州丹巴县梭坡乡", "image": "", "rank": 4, "time": 3.5, "location": {"lat": 30.85238325475951, "lng": 102.00554317974395}, "feature": {"sight_features": "", "sight_content": ""}}, {"title": "中路藏寨", "address": "甘孜藏族自治州丹巴县中路乡克格依村", "image": "", "rank": 5, "time": 3.0, "location": {"lat": 30.90020567057831, "lng": 101.94661810937593}, "feature": {"sight_features": "", "sight_content": ""}}, {"title": "丹巴美人谷", "address": "甘孜藏族自治州丹巴县西南21公里的巴底乡境内", "image": "", "rank": 6, "time": 3.0, "location": {"lat": 31.111551663511737, "lng": 101.88589805751414}, "feature": {"sight_features": "", "sight_content": ""}}, {"title": "东谷", "address": "丹巴县东谷乡", "image": "", "rank": 7, "time": 1.0, "location": {"lat": 30.79421440311472, "lng": 101.75974547272932}, "feature": {"sight_features": "", "sight_content": ""}}, {"title": "党岭风光", "address": "甘孜藏族自治州丹巴县西北方边耳乡境内", "image": "", "rank": 8, "time": 1.0, "location": {"lat": 31.061784745166918, "lng": 101.56780364059834}, "feature": {"sight_features": "", "sight_content": ""}}, {"title": "曲登沙寺", "address": "甘孜藏族自治州丹巴县半扇门乡喇嘛寺一村", "image": "", "rank": 9, "time": 2, "location": {"lat": 31.010566229457766, "lng": 102.10363985629876}, "feature": {"sight_features": "", "sight_content": ""}}, {"title": "葫芦海", "address": "四川省甘孜藏族自治州丹巴县党岭村", "image": "", "rank": 10, "time": 2, "location": {"lat": 31.081817316427454, "lng": 101.41427013254707}, "feature": {"sight_features": "", "sight_content": ""}}, {"title": "金龙寺", "address": "四川省甘孜藏族自治州康定县", "image": "", "rank": 11, "time": 2, "location": {"lat": 29.9579893491674, "lng": 101.75533059715232}, "feature": {"sight_features": "", "sight_content": ""}}, {"title": "松安寺", "address": "甘孜藏族自治州丹巴县巴旺乡光都村", "image": "", "rank": 12, "time": 1.5, "location": {"lat": 30.998916185753668, "lng": 101.87593967349505}, "feature": {"sight_features": "", "sight_content": ""}}, {"title": "纪念碑公园", "address": "三岔河北路84号", "image": "", "rank": 13, "time": null, "location": {"lat": 30.882428258140415, "lng": 101.90927196688376}, "feature": {"sight_features": "", "sight_content": ""}}, {"title": "梭坡古碉群", "address": "县城内", "image": "", "rank": 14, "time": 2, "location": {"lat": 30.8524866762682, "lng": 101.93701981561203}, "feature": {"sight_features": "", "sight_content": ""}}, {"title": "梭坡藏寨古雕群", "address": "城南3公里处", "image": "", "rank": 15, "time": 2, "location": {"lat": 36.840813636666354, "lng": 109.34349549472793}, "feature": {"sight_features": "", "sight_content": ""}}, {"title": "红五军团政治部遗址", "address": "四川省甘孜藏族自治州丹巴县001乡道附近甲居藏寨内", "image": "", "rank": 16, "time": 2, "location": {"lat": 30.909876774829375, "lng": 101.88203534382123}, "feature": {"sight_features": "", "sight_content": ""}}, {"title": "杰哇雍忠达吉岭寺", "address": "甘孜藏族自治州丹巴县城西南21公里的巴底乡境内邛山村中美人谷内", "image": "", "rank": 17, "time": 2, "location": {"lat": 31.092505939159473, "lng": 101.8664147991388}, "feature": {"sight_features": "", "sight_content": ""}}, {"title": "篝火广场", "address": "甘孜藏族自治州丹巴县001乡道附近甲居藏寨内", "image": "", "rank": 18, "time": 2, "location": {"lat": 30.909876774829375, "lng": 101.88203534382123}, "feature": {"sight_features": "", "sight_content": ""}}, {"title": "黄土坡休闲山庄", "address": "211省道附近", "image": "", "rank": 19, "time": 2, "location": {"lat": 36.51043423729015, "lng": 114.22165389690889}, "feature": {"sight_features": "", "sight_content": ""}}, {"title": "丹巴嘉绒古碉王宫", "address": "丹巴三岔河北路83号", "image": "", "rank": 20, "time": 2.5, "location": {"lat": 30.88271769330405, "lng": 101.90929395470775}, "feature": {"sight_features": "", "sight_content": ""}}, {"title": "念佛堂", "address": "甘孜藏族自治州丹巴县梭坡乡莫洛村梭坡古碉民居内", "image": "", "rank": 21, "time": 2, "location": {"lat": 30.856162776286933, "lng": 101.94290078732811}, "feature": {"sight_features": "", "sight_content": ""}}, {"title": "甘丹彭措岭寺", "address": "甘孜藏族自治州丹巴县211省道附近", "image": "", "rank": 22, "time": 2, "location": {"lat": 30.759262110820014, "lng": 101.99019707637785}, "feature": {"sight_features": "", "sight_content": ""}}, {"title": "东坡臧家", "address": "中路乡克格依村", "image": "", "rank": 23, "time": 2, "location": {"lat": 30.90020567057831, "lng": 101.94661810937593}, "feature": {"sight_features": "", "sight_content": ""}}, {"title": "天然盆景区座佛山庄", "address": "303省道附近", "image": "", "rank": 24, "time": 2, "location": {"lat": 38.25466494631471, "lng": 114.66726867564682}, "feature": {"sight_features": "", "sight_content": ""}}, {"title": "雪域山庄", "address": "四川省甘孜藏族自治州丹巴县三岔河南路23号附近", "image": "", "rank": 25, "time": 2, "location": {"lat": 30.881984985125, "lng": 101.90489250294625}, "feature": {"sight_features": "", "sight_content": ""}}, {"title": "丹巴碉楼", "address": "四川省丹巴县丹巴县", "image": "", "rank": 26, "time": 1.0, "location": {"lat": 30.88476979933027, "lng": 101.89643706758775}, "feature": {"sight_features": "", "sight_content": ""}}, {"title": "墨尔多寺", "address": "303省道", "image": "", "rank": 27, "time": 2, "location": {"lat": 38.25466494631471, "lng": 114.66726867564682}, "feature": {"sight_features": "", "sight_content": ""}}, {"title": "牦牛村", "address": "甘孜藏族自治州丹巴县", "image": "", "rank": 28, "time": 2, "location": {"lat": 30.88476979933027, "lng": 101.89643706758775}, "feature": {"sight_features": "", "sight_content": ""}}]}