{"cityName": "丹东", "days": "", "cityImage": "", "spots": [{"title": "鸭绿江断桥", "address": "丹东市沿江开发区江岸路0号", "image": "", "rank": 1, "time": 1.0, "location": {"lat": 40.12418444812375, "lng": 124.40038857455342}, "feature": {"sight_features": "特色1 丹东的标志性景点之一。 特色2 抗美援朝战争的伟大见证。 特色3 鸭绿江国家重点风景名胜区大桥景区主要景点。", "sight_content": "位于鸭绿江大桥南侧，鸭绿江断桥位于丹东市鸭绿江畔，是日本殖民统治的遗迹，曾在抗美援朝战争中被炸断，是鸭绿江第一座大铁桥所残留在中国丹东一侧的“断桥”。该桥1911年10月建成，是一座12孔，开闭式大桥。1950年11月至1951年2月被美军炸断。中方一侧所剩四孔残桥保留至今，1993年鸭绿江“断桥”被重新维修开发利用，并改名为“端桥”。\n\n\n丹东鸭绿江断桥原为鸭绿江上第一座桥，始建于1909年，长944.2米，宽11米，十二孔，从中方数第四孔为开闭梁，以四号墩为轴，可旋转90°，便于过往船只航行。抗美援朝战争期间被美军炸毁。中方一侧残存四孔，成为抗美援朝战争的历史见证。现为爱国主义教育基地。游人可登桥凭吊游觅。是鸭绿江国家重点风景名胜区大桥景区主要景点。鸭绿江断桥是集耻辱、斗争、成就于一体的爱国主义教育的生动教材。"}}, {"title": "凤凰山", "address": "凤城市凤山路附近凤凰山国家风景名胜景区", "image": "", "rank": 2, "time": 5.5, "location": {"lat": 40.42253743225071, "lng": 124.07769878058095}, "feature": {"sight_features": "", "sight_content": ""}}, {"title": "虎山长城", "address": "丹东市宽甸满族自治县虎山镇虎山村", "image": "", "rank": 3, "time": 3.5, "location": {"lat": 40.228854627704834, "lng": 124.52690629807041}, "feature": {"sight_features": "", "sight_content": ""}}, {"title": "抗美援朝纪念馆", "address": "丹东市振兴区山上街7号", "image": "", "rank": 4, "time": 1.5, "location": {"lat": 40.12595524424922, "lng": 124.37206350614514}, "feature": {"sight_features": "", "sight_content": ""}}, {"title": "鸭绿江公园", "address": "丹东市振兴区滨江中路", "image": "", "rank": 5, "time": 2.0, "location": {"lat": 40.12355662420941, "lng": 124.39809700258729}, "feature": {"sight_features": "", "sight_content": ""}}, {"title": "锦江山公园", "address": "丹东市元宝区山上街93号", "image": "", "rank": 6, "time": null, "location": {"lat": 40.13686490168591, "lng": 124.38736319586215}, "feature": {"sight_features": "", "sight_content": ""}}, {"title": "五龙山", "address": "丹东市五龙背镇老古沟村", "image": "", "rank": 7, "time": 1.0, "location": {"lat": 40.23751253023239, "lng": 124.34646869091065}, "feature": {"sight_features": "特色1 包容佛教“五教十宗”全部内涵的山岳。 特色2 山势巍峨壮丽，像五条腾越的龙脊。", "sight_content": "国家AAAA级旅游区-五龙山，位于辽宁省丹东市西北17公里处，景区内风光旖旎、佳木葱茏、奇石林立，宛如一幅秀美迷人的自然山水画卷，被专家誉为天然的石雕公园。始建于明朝正德年间的灵峰禅寺，重建后成为目前东北地区单体建筑较大的佛教寺院，红窗碧瓦，气势恢宏，雄踞关东禅林之首。\n特别是在去年深秋时节，惊现千年璞玉坐佛，香客云集，此时五龙山上的迎春花傲霜怒放，令世人惊奇。省市各大媒体争相予以报道，让这 座名山更加赋有灵性。据安东县志记载：“山中的佛爷洞，有佛殿建刹以来，灵应无比。即卜种种灵应，有述者之不可胜述也。五龙山以秀美的自然风光、丰富的历史遣迹多彩的人文景观以及完美的服务设施，成为边陲丹东的旅游胜地。"}}, {"title": "鸭绿江风景名胜区", "address": "丹东市鸭绿江下游浑江口至江海分界处的大东港之间", "image": "", "rank": 8, "time": 7.5, "location": {"lat": 40.141937697822854, "lng": 124.4173263944357}, "feature": {"sight_features": "", "sight_content": ""}}, {"title": "鸭绿江大桥", "address": "丹东市振兴区江岸路0号", "image": "", "rank": 9, "time": 1.5, "location": {"lat": 40.12418444812375, "lng": 124.40038857455342}, "feature": {"sight_features": "", "sight_content": ""}}, {"title": "天桥沟森林公园", "address": "丹东市宽甸县黎明村7组", "image": "", "rank": 10, "time": 1.5, "location": {"lat": 41.06512785794113, "lng": 124.71009554526155}, "feature": {"sight_features": "特色1 世界无污染区之一，素有“天外小庐山”之美誉。 特色2 以林海、奇峰怪石景观为主，四季景色鲜明", "sight_content": "天桥沟森林公园是国家AAAA级风景旅游区，“全国十佳游客满意度风景名胜区”，系辽宁省“十佳森林公园”位于辽宁省宽甸县满族自治县境内，森林覆盖率96%。\n\n公园以林海、奇峰和怪石景观为主，以丰富的生态资源和独特的自然景观为依托，以厚重的人文景观和神秘的抗联遗址为点缀，素有“一山望三县”之美誉。\n\n天桥沟森林公园四季景色鲜明：春天百花争艳，俏满人间；盛夏青山滴翠，清爽宜人。回归于自然，畅想于林海。难以复制的原始风貌，叹为观止的自然风光，将是高品 位游客避暑度假、旅游观光的首选和必选之地！\n\n天桥沟森林公园四季景色鲜明：金秋万山红遍，层林尽染；冬日银装素裹，玉树琼枝。奇峰上，怪石似鬼斧神工、千姿百态；峭壁间，苍松如天外飞仙、婀娜多姿。享乐 于幽静，陶冶于纯真，嬉戏于童趣。不一样的理念，不一样的投入，一定会给您带来不一样的感受；一次寻常的旅游，一定会收获一次不寻常的经历。"}}, {"title": "大梨树生态旅游区", "address": "丹东市凤城市西南郊10公里处", "image": "", "rank": 11, "time": 2, "location": {"lat": 40.45918048245619, "lng": 124.07242172438802}, "feature": {"sight_features": "特色1 漫步于全国最大的村级集体果园 特色2 大梨树生态旅游区由花果山、干字文化广场、药王谷、葡萄城、展览馆、影视城、餐饮娱乐区组成，是集赏花摘果、休闲娱乐、度假避暑、会议接待为一体的综合性旅游区！ 特色3 大梨树生态旅游区是全国首批农业旅游示范点，全国休闲农业与乡村旅游示范点，享有“中国最美的乡村”、“中国十佳和谐乡村”、“中国农业公园”、“乡村旅游第一村”的美誉！", "sight_content": "大梨树国家AAAA级旅游景区位于辽宁省凤城市西南郊10公里处，距丹阜高速公路凤城出口5公里，是全国首批农业旅游示范点、全国休闲农业与乡村旅游示范点、中国美丽乡村。 景区由休闲农业体验区、民族村落观光区、旅游综合服务区三大功能区组成。\n休闲农业体验区紧紧依托2.6万亩花果山，几百万株果树，精心打造出闻名省内外的赏花摘果体验游，每年四月到十月，是辽宁省跨时最长、品种最多、参与性最好的休闲农业游目的地之一。花果山上，干字文化广场宏伟壮观，辽宁省爱国主义教育基地——大梨树村史馆是辽宁省规模最大的村史馆之一。药王谷供奉着十三位神医药圣，可谓一步一景，一步一重天，流传着许多美丽的故事与传说。特别是阴阳泉水，一凉一热，号称一绝。\n民族村落观光区紧紧依托大梨树河两岸满族村落，建设成北方水乡，被国家民委命名为首批“中国少数民族特色村寨”。徜徉在复原清末民初县城的影视城中，体验影视剧拍摄，过一把明星瘾！在知青城中，看一场老电影，吃一顿忆苦思甜饭，进行一场劳作体验等，大梨树知青节已经成为影响全国的怀旧节日。民俗文化体验馆有摄影艺术、剪纸等7个门类，由经验丰富的艺术家现场指导，成就自己喜爱的作品。\n旅游综合服务区里，拥有“中国三星级饭店”庄稼院酒店、“省三星农家乐”青年点饭店，品尝满族特色食品、农家食品，欣赏知青艺术团特色演出，举行篝火晚会，您可以尽享乡村休闲度假的惬意。这里有高、中、低挡的客房和火炕随时恭候您的光临，日可接待2万人游览，500人会议，500人住宿，3000人就餐。\n大梨树景区，真诚欢迎四海宾客的到来！"}}, {"title": "鸭绿江中朝界河游船", "address": "丹东市振兴区滨江中路鸭绿江1号观光码头", "image": "", "rank": 12, "time": 2, "location": {"lat": 40.123498404265575, "lng": 124.39983013035686}, "feature": {"sight_features": "", "sight_content": ""}}, {"title": "河口景区", "address": "丹东市宽甸满族自治县长甸镇下河口村", "image": "", "rank": 13, "time": 2.5, "location": {"lat": 40.416145778753204, "lng": 124.80416054763671}, "feature": {"sight_features": "", "sight_content": ""}}, {"title": "小岛", "address": "丹东市东港市菩萨庙镇小岛村", "image": "", "rank": 14, "time": 3.0, "location": {"lat": 39.79300306117302, "lng": 123.5979356185595}, "feature": {"sight_features": "", "sight_content": ""}}, {"title": "青山沟", "address": "丹东市宽甸满族自治县青山沟镇", "image": "", "rank": 15, "time": 2.5, "location": {"lat": 41.02265292010625, "lng": 125.22937578559943}, "feature": {"sight_features": "", "sight_content": ""}}, {"title": "大鹿岛", "address": "丹东市东港市大孤山镇大鹿岛村", "image": "", "rank": 16, "time": 4.5, "location": {"lat": 39.90247450071467, "lng": 123.61381306155}, "feature": {"sight_features": "", "sight_content": ""}}, {"title": "中朝边境一步跨", "address": "丹东市区东北方向约12公里的鸭绿江畔（虎山长城）", "image": "", "rank": 17, "time": 1.0, "location": {"lat": 40.232194331714226, "lng": 124.52418496327374}, "feature": {"sight_features": "", "sight_content": ""}}, {"title": "国门公园", "address": "丹东市振兴区江岸路", "image": "", "rank": 18, "time": 1.5, "location": {"lat": 40.124241859441604, "lng": 124.40042985169161}, "feature": {"sight_features": "", "sight_content": ""}}, {"title": "蒲石河森林公园", "address": "丹东市凤城市赛马镇东甸村", "image": "", "rank": 19, "time": 4.5, "location": {"lat": 40.993579786506, "lng": 124.29762534100993}, "feature": {"sight_features": "", "sight_content": ""}}, {"title": "小韭菜沟", "address": "丹东市宽甸满族自治县长甸镇碑碣岭码头", "image": "", "rank": 20, "time": 1.5, "location": {"lat": 40.49101086456716, "lng": 124.82467339887232}, "feature": {"sight_features": "", "sight_content": ""}}, {"title": "大孤山", "address": "丹东市东港市正堂路", "image": "", "rank": 21, "time": 3.5, "location": {"lat": 39.90623791476022, "lng": 123.60477025386263}, "feature": {"sight_features": "", "sight_content": ""}}, {"title": "天华山", "address": "丹东市宽甸满族自治县灌水镇北部", "image": "", "rank": 22, "time": 3.0, "location": {"lat": 41.0755097482259, "lng": 124.5821953933444}, "feature": {"sight_features": "特色1 以峰奇、峡险、涧幽、水秀为特色", "sight_content": "天华山风景区位于辽宁省东部山区的宽甸满族自治县灌水镇北部，为长白山脉西南麓，海拔1100多米的高寒林带区，景区总面积63平方公里。“白龙涧”、“青龙涧”、“玉龙涧”、“天华峰”、“西谷顶”五大景区浑然一体，天华山的奇峰、怪石、森林、古木、洞峡、幽涧、瀑布、溪水的自然之美，相映生辉，它的奇妙、清幽、雄险和润秀，以及密集型、高品位的自然景观资源，被专家们誉为旷世佳境，万景奇山。\n天华山以峰奇、峡险、涧幽、水秀为特色。其雄奇峻拔的天华峰、神采奕奕的毛公峰、坐立云端的观音峰、栩栩如生的狮头峰、高耸九天的御玺峰、跃上云头的海豹峰等十八奇峰构成天华山的云天景观；气势雄伟，望而生畏，攀而心惊的通天峡和天门风道、龙脊险崖可谓“天下一绝”；三涧六谷清幽幻化，沁人心肺，奥妙天成，称为景观极品，实不过份；天华山之水更是清澈缠绵，瀑布、溪水从巨石上飞泄，从怪石间跳绕，为这浩瀚的天华山注入灵性和活力。\n天华山季相分明，春翡夏翠，秋金冬银。尤其霜叶红似火，胜于二月花的天华山之秋，五花七彩的山峦，如火如荼，到处是赤红的枫叶、金黄的白桦、天柏、胡柞，挂满枝头的野果子和瀑布谷壑的野菊，编织出万千幅工笔重彩画作。一夜飞雪掩天华，千树万树似梨花，冬天的天华山是白玉的世界，石如汉白，水如腊象，重叠无际群山呈现出一派金色林带银色山，千万银蛇舞翩翩的壮观景象。有人云：天华山是千首诗，有人说：天华山是万幅画，有人言：天华山是一部不解的天书。"}}, {"title": "绿江村", "address": "丹东市宽甸满族自治县", "image": "", "rank": 23, "time": 4.5, "location": {"lat": 40.737553200489806, "lng": 124.79042662867784}, "feature": {"sight_features": "", "sight_content": ""}}, {"title": "五龙背温泉", "address": "丹东市振安区站前西街45号", "image": "", "rank": 24, "time": 2, "location": {"lat": 40.26616156043256, "lng": 124.2750337236886}, "feature": {"sight_features": "特色1 环境典雅宁静，清新怡人", "sight_content": "龙苑温泉假日酒店是由国家发改委、教育部、财政部投资建设的丹东市商贸旅游实训基地，占地2万平方米，建筑面积1万平方米。环境典雅宁静，清新怡人，温泉历史悠久，四射喷涌，是一个集疗养、旅游、休闲度假、承办会议、培训为一体的综合性场所，拥有辽东地区较大室内温泉游泳、露天温泉、洗浴、桑拿、冲浪等项目，功能齐全，服务上乘，品味至高，所以龙苑温泉假日酒店是广大朋友们旅游休闲的最佳选择。"}}, {"title": "大梨树影视城", "address": "丹东市凤城市近桓盖线", "image": "", "rank": 25, "time": 1.5, "location": {"lat": 40.53985577730534, "lng": 124.24609956821233}, "feature": {"sight_features": "", "sight_content": ""}}, {"title": "獐岛", "address": "丹东市东港市北井子镇", "image": "", "rank": 26, "time": 1.5, "location": {"lat": 39.890717905101205, "lng": 123.91272449936818}, "feature": {"sight_features": "", "sight_content": ""}}, {"title": "花脖山国家森林公园", "address": "丹东市宽甸县牛毛坞镇泉山林场", "image": "", "rank": 27, "time": 3.5, "location": {"lat": 41.0220679364129, "lng": 125.04837507652903}, "feature": {"sight_features": "特色1 辽宁第一高峰，森林保持完整，素有“辽东林海”之称。", "sight_content": "辽宁花脖山森林公园始建于2004年，花脖山、百瀑峡、千苍谷三大景区浑然一体，各显风姿，69个主要景点，各领风骚。经国家和省市专家实地考察论证：“花脖山景区是高山探险、科考寻奇、观云海、看日出的至高点，大小瀑布30余条，构成东北梯形瀑布群的奇观，浩瀚壮观；千苍谷景区辽东幽谷，原始苍古，古树参天，葱翠谷深，溪瀑纵横，鸟语兽行，松风林荡，是辽东仅存的原始生态保持较完整的区域之一，素有“辽东林海”之称。小雅河漂流长达4.5公里，高山峡谷，河道跌宕起伏，落差适中，是辽东罕见的高山峡谷天然漂流区。\n境内原始古朴，森林茂密，森林垂直分布明显，动植物资源种类繁多。森林植被保持完整，自然环境清纯，氧气充足，负氧离子含量高，温湿度适宜，水质极佳，含有丰富的对人体有益的微量元素，是世界上第六大无污染区之一的核心部位，被称为“清爽、清幽、清秀、清纯”的大清世界，“辽东净土”、天然氧吧“！是人和自然和谐共存的地方，万般奇妙，鬼斧神工。丰富的生物群落构成了动物世界，鸟类王国，植物家园，给花脖山壮丽的山水增添了无限的锦绣和勃勃生机，使之充满了神奇和奥秘。其景色四季各异，春赏山花夏观荫，秋枫红透染层林，冬来雾凇枝头挂，云海日出更牵魂。登临花脖山主峰，“一览众山小”，可观“三县一国”的风光美景，具有丰富的知识性，趣味性是您休闲、猎奇、求知、求新、怀旧和生态旅游的最理想的选择。"}}, {"title": "珍珠公园", "address": "丹东市振安区滨江东路", "image": "", "rank": 28, "time": 1.0, "location": {"lat": 40.191020333063236, "lng": 124.48966298371168}, "feature": {"sight_features": "", "sight_content": ""}}, {"title": "河口断桥", "address": "丹东市宽甸县长甸镇河口村", "image": "", "rank": 29, "time": 1.5, "location": {"lat": 40.40616719081468, "lng": 124.8044230468796}, "feature": {"sight_features": "", "sight_content": ""}}, {"title": "鸭绿江大道", "address": "丹东市振兴区鸭绿江边", "image": "", "rank": 30, "time": 1.5, "location": {"lat": 40.08042620012398, "lng": 124.35661567417156}, "feature": {"sight_features": "", "sight_content": ""}}, {"title": "元宝山公园", "address": "丹东市元宝区北部的元宝山南麓", "image": "", "rank": 31, "time": 1.0, "location": {"lat": 40.14225146313862, "lng": 124.40258403321981}, "feature": {"sight_features": "", "sight_content": ""}}, {"title": "玄武湖", "address": "丹东市黄椅山国家森林公园内", "image": "", "rank": 32, "time": 1.0, "location": {"lat": 40.73998420536624, "lng": 124.76653698145391}, "feature": {"sight_features": "", "sight_content": ""}}, {"title": "月亮岛", "address": "丹东市振兴区春三路和滨江路的交汇处", "image": "", "rank": 33, "time": 2.0, "location": {"lat": 40.134279261587544, "lng": 124.40788726962852}, "feature": {"sight_features": "", "sight_content": ""}}, {"title": "浑江大转弯", "address": "丹东市宽甸满族自治县浑江村", "image": "", "rank": 34, "time": 1.0, "location": {"lat": 40.87628482125941, "lng": 125.70343084222391}, "feature": {"sight_features": "", "sight_content": ""}}, {"title": "宗裕金汤水世界", "address": "丹东市元宝区金山经济开发区宗裕城", "image": "", "rank": 35, "time": 2, "location": {"lat": 40.18825328718146, "lng": 124.38547754120682}, "feature": {"sight_features": "特色1 集室外水上乐园，内含六项大型水上项目 特色2 依山傍水得天独厚的地理位置，可以俯瞰烟波浩淼的双河景 特色3 采用先进的设施及国内漂流河连接室内外的水上动线。", "sight_content": "位于中朝边境，享有“中国温泉之城”美誉的丹东市，隶属于辽宁宗裕房地产开发有限公司，总投资10.4个亿，总占地面积20万平，是东北地区较大的嬉水温泉主题公园，项目以欢乐养生为设计主旨，温泉水取自五龙温泉一脉，是集温泉、嬉水、度假、休闲、住宿、餐饮、娱乐为一体的综合型温泉度假区，涵盖热带雨林养生馆、温泉SPA馆、韩朝风情汗蒸区、室外大型水上乐园、豪华影院、美食餐厅、宗裕烧烤广场、婚礼草坪、房车宿营地、国际标准游泳馆、温泉客栈、温泉度假酒店等，是名副其实的丹东旅游大本营。\n丹东温泉、传承千年。 宗裕温泉权威认证医疗级温泉。宗裕金汤温泉，深入地下2013米，取自3亿年前印支期花岗岩地层，同属五龙山一脉的天然矿物温泉，出水温度高达52.8度。经东北核工业分析检测中心鉴定为复合型医疗级温泉，矿物质成分含量丰富，含有氟、偏硅酸、硫化氢等数十种对人体有益的微量元素。可美容养颜、延缓衰老、关节炎、风湿病、皮肤病等有显著疗效。水质纯净似玉，滑若凝脂。"}}, {"title": "丹东鸭绿江游船", "address": "丹东市振兴区滨江中路鸭绿江断桥东行200米2号观光码头", "image": "", "rank": 36, "time": 0.4, "location": {"lat": 40.12353783710976, "lng": 124.40176973993604}, "feature": {"sight_features": "特色1 航线能清晰的参观到朝鲜威化岛，将军楼，志愿军浮桥过江处。 特色2 鸭绿江断桥，中朝友谊桥，水上参观全貌一览无遗。 特色3 承揽商务接待，豪华不失身份。", "sight_content": "乘坐丹东鸭绿江游船游览鸭绿江两岸风光，，此线能清晰的参观到朝鲜威化岛，将军楼，志愿军浮桥过江处，鸭绿江断桥，中朝友谊桥，（水上参观全貌一览无遗）。"}}, {"title": "太平湾", "address": "丹东振安区太平湾镇", "image": "", "rank": 37, "time": 3.0, "location": {"lat": 40.34037781084511, "lng": 124.73407910403843}, "feature": {"sight_features": "", "sight_content": ""}}, {"title": "天主教堂", "address": "丹东市元宝区朝阳街（近朝阳小学）", "image": "", "rank": 38, "time": 1.0, "location": {"lat": 40.14585752599948, "lng": 124.39854744710563}, "feature": {"sight_features": "", "sight_content": ""}}, {"title": "抗美援朝纪念馆纪念塔展区", "address": "锦江山大街68号", "image": "", "rank": 39, "time": 1.0, "location": {"lat": 40.123904338809865, "lng": 124.3707515444224}, "feature": {"sight_features": "", "sight_content": ""}}, {"title": "天桥沟滑雪场", "address": "丹东市宽甸县双山子镇", "image": "", "rank": 40, "time": 2, "location": {"lat": 41.033647513310925, "lng": 124.70962430317408}, "feature": {"sight_features": "", "sight_content": ""}}, {"title": "老牛背", "address": "丹东市凤城市区东南约4公里处凤凰山景区内", "image": "", "rank": 41, "time": 0.4, "location": {"lat": 40.45918048245619, "lng": 124.07242172438802}, "feature": {"sight_features": "", "sight_content": ""}}, {"title": "九连城", "address": "丹东市振安区九连城镇", "image": "", "rank": 42, "time": 2.0, "location": {"lat": 40.23951902047506, "lng": 124.49968368857385}, "feature": {"sight_features": "", "sight_content": ""}}, {"title": "青年湖公园", "address": "丹东市振兴区青年大街83号", "image": "", "rank": 43, "time": 2.0, "location": {"lat": 40.11776740819271, "lng": 124.38263822700685}, "feature": {"sight_features": "", "sight_content": ""}}, {"title": "奇石峡漂流", "address": "丹东凤城刘家河镇蛟洋峪村", "image": "", "rank": 44, "time": 2, "location": {"lat": 40.67482026143209, "lng": 123.99422512625334}, "feature": {"sight_features": "特色1 辽宁水质第一清澈，矿泉水中的漂流！ 特色2 周围景色如画，原生态程度高，无破坏污染！ 特色3 交通便利，无盘山道！", "sight_content": "奇石峡漂流位于辽宁省凤城市刘家河镇蛟洋峪村，漂流河道全长10.8公里，起点与尾点之间落差达90米，漂流全程约3个小时。河道两岸群山巍峨，风景秀丽，动植物资源丰富，沿途大面积植被产生出的空气负离子让游人时刻置身于一个巨大的天然氧吧。河道内怪石嶙峋，两侧奇石林立，时值夏日河水清澈、水流湍急、缓急流几十处交叉衔接、九曲通幽，奇石峡因此而得名。\n奇石峡景区内设施、服务完善，有上下游停车场、游客餐厅、淋浴间、超市、卫生室、卫生间等基本服务设施，可根据游客需求提供篝火晚会、自助烧烤、卡拉OK、自助麻将等丰富的餐饮娱乐项目。奇石峡景区周边旅游资源极为丰富，可做二日游、三日游行程连线，让客人在体验漂流带来的凉爽同时，也可走进“绿色海洋”呼吸“天然氧吧”带给你的美丽心情，亦或攀登一座座雄伟的峻山，走进大自然的怀抱。奇石峡漂流距离凤凰山景区、大梨树景区约50公里车程，距离鸭绿江、天桥沟、天华山、五龙山、本溪水洞、关门山等景区车程均在一小时左右。"}}, {"title": "黑沟水库", "address": "丹东市元宝区304国道丹霍公路左侧（距离丹东市中心10公里）", "image": "", "rank": 45, "time": 2.5, "location": {"lat": 40.206884213858416, "lng": 124.2648523290385}, "feature": {"sight_features": "", "sight_content": ""}}, {"title": "韩国3D魔幻世界", "address": "丹东市振兴区人民路2号（新乐购附近原表壳厂3楼）", "image": "", "rank": 46, "time": 2, "location": {"lat": 40.11809595048422, "lng": 124.37483238196432}, "feature": {"sight_features": "", "sight_content": ""}}, {"title": "百瀑峡", "address": "丹东市宽甸满族自治县台铁线", "image": "", "rank": 47, "time": 2, "location": {"lat": 41.023102424310345, "lng": 124.79141745965534}, "feature": {"sight_features": "特色1 百瀑峡被誉为“辽东净土”、“天然氧吧”", "sight_content": "百瀑峡，自然环境无污染、无破坏、无噪音，氧气充足，负氧离子含量高，空气含尘量极低，温湿度适宜，水质极佳，含有丰富的对人体有益的微量元素，被誉为“辽东净土”、“天然氧吧”。水是百瀑峡的主旋律，翠潭迭瀑，首尾相衔，飞流直下，大自然的神功，将泉潭溪瀑聚敛为一体，组成一个和谐的世界。 百瀑峡瀑布多、水清澈。只见那泉水从峰巅上涌出，千曲百折，漫谷穿峡，形成大小瀑布近百个，组成了一个庞大的梯式瀑布群，百瀑峡因此而得名。百瀑峡的瀑布在东北都属罕见，令人目不暇接，心扉震撼。\n夏日来到“百瀑峡”您就仿佛置身于一个清凉的世界，清冽的溪水，寒气袭人。碧绿的山，碧绿的水，碧绿的树，碧绿的石清碧诱人。这里大大小小的几十个瀑布形态各异，层层叠叠，翠潭迭瀑，首尾相衔。有如珠帘，有如银花，有如泻布，有如飞纱为慰壮观，在深山峡谷中奏响了一首漫妙的山水交响曲。让您大饱眼福，大饱耳福。大自然的鬼斧神功，将泉潭溪瀑聚敛为一体，组成一个和谐的世界，令人心扉震撼。来到这里怎么能不使您踏水行吟，诗性大发，游兴不尽。"}}, {"title": "抗美援朝烈士陵园", "address": "丹东市元宝区锦江山北麓", "image": "", "rank": 48, "time": 1.5, "location": {"lat": 40.13978772500648, "lng": 124.38243325569796}, "feature": {"sight_features": "", "sight_content": ""}}, {"title": "黄椅山森林公园", "address": "丹东市宽甸满族自治县县城西郊5公里处", "image": "", "rank": 49, "time": 3.0, "location": {"lat": 40.737553200489806, "lng": 124.79042662867784}, "feature": {"sight_features": "特色1 山环水绕，美景天成，集“雄、秀、奇、美、幽”于一身，是一座天然的火山博物馆。", "sight_content": "黄椅山火山森林公园位于辽宁省东部的宽甸满族自治县城区西沿的火山口地带，占地面积20平方公里，火山锥、梨花村、玄武湖三大景区妙然天成，即有火山之奇，也有河谷之幽，还有山野之趣和人文之美。黄椅山以火山而闻名遐迩，岁月更迁，一峰突起，群山环绕，为第四纪火山喷发后的杰作。这里火山石遍地皆是，千姿百态；火山地下矿泉四季喷涌，淙淙有声；玄武湖叠连成嶂；山林野趣，农家村舍，湖光月影，碧水轻舟，让人悠闲自得。可谓宽甸山城近郊的一块乐土、一片绿洲。\n\n火山锥景区为休闲区，这里不仅有驰名的济源宝塔和古刹钟声，还有名目繁多的游乐项目，它是以城市公园为主调，是山城人消遣娱乐的好地方。沿水山锥西行一公里，便来到了银装绿裹的梨花村景区，这里的田园风光着实迷人，春园如翡，梨花似雪。果园、药园、小菜园井井有条。这里的农家小院隐蔽在银花绿树之中，每到炊烟缕缕，农家都散发着农家风味的菜香。每到金秋时节，遍地都可以闻到瓜果的飘香。农家大炕挤满了来自天南地北的游客，车笛声、招呼声、欢笑声荡漾在这个世外桃园这中。\n从梨花村顺坡而下，俯幽幽碧水，轻波泛舟，湖光山色，仰望两岸似金如翠的玄武岩，大自然的鬼斧神工，造化出如此奇境，令人望而生畏，赞叹不已。上游为河，下游为湖，这里是赏石戏水、漂流、游泳、垂钓的好地方。黄椅山为地质史上第四纪大山喷发玄武岩堆积而成，火山口，大山壁至今保存完整，是天然火山博物馆，引起众多国内外地质专家的关注。"}}, {"title": "青山湖", "address": "丹东市宽甸满族自治县青山沟镇青山沟风景区内", "image": "", "rank": 50, "time": 4.0, "location": {"lat": 41.003900859791905, "lng": 125.27140782110637}, "feature": {"sight_features": "", "sight_content": ""}}, {"title": "九水峡漂流", "address": "丹东市宽甸满族自治县虎山镇长岗子村安平河中下游", "image": "", "rank": 51, "time": 2, "location": {"lat": 40.30425912442299, "lng": 124.63741483131422}, "feature": {"sight_features": "特色1 各项基础设施齐备", "sight_content": "九水峡漂流是由丹东九水峡旅游开发有限公司于2007年开发建设的九水峡旅游区的启动项目，景区位于宽甸满族自治县虎山镇长岗子 村的安平河中游，距丹东市中心40km，距宽甸县城65公里，东临鸭绿江景观大道，西接201国道，地处丹东城区与宽甸纵深各大风景区、 森林公园、自然保护区之间，东南西北均处于“承上启下”的位置。\n景区内漂流因河道在山谷里转了九个大弯故名“九水峡” ，景区内河川艳秀、河水清澈、岸山险峭苍翠幽谧，河床多为石结构，岸滩 巨石嶙峋，是一处典型河川地貌。漂流全长10.8公里，总落差78米，最高落差达9米，最长落差数百米，大小落差三十余处。沿河分别由 三段惊险刺激的迭瀑漂段、三段水流湍急的搏击漂段、三段蜿蜒舒缓的休闲漂段和三段安谧的幽静漂段组成，漂流全程约3小时。"}}, {"title": "鸭绿江口湿地", "address": "丹东市东港市新城区二道沟", "image": "", "rank": 52, "time": 3.5, "location": {"lat": 40.04919328754918, "lng": 124.028061815491}, "feature": {"sight_features": "", "sight_content": ""}}, {"title": "丹东博物馆", "address": "丹东市振兴区山上街7号", "image": "", "rank": 53, "time": 1.0, "location": {"lat": 40.12595524424922, "lng": 124.37206350614514}, "feature": {"sight_features": "", "sight_content": ""}}, {"title": "九连城日俄战争遗址", "address": "丹东市振安区九连城镇九连城村", "image": "", "rank": 54, "time": 0.4, "location": {"lat": 40.206671312759596, "lng": 124.47229440298142}, "feature": {"sight_features": "", "sight_content": ""}}, {"title": "金海温泉公馆", "address": "丹东市振安区五龙背镇镇前西街26-1", "image": "", "rank": 55, "time": 2, "location": {"lat": 40.16469702566065, "lng": 124.43438692285066}, "feature": {"sight_features": "", "sight_content": ""}}, {"title": "满园温泉会馆", "address": "丹东市凤城市凤山区凤凰山村3组", "image": "", "rank": 56, "time": 2, "location": {"lat": 40.456130925024176, "lng": 124.06426129615224}, "feature": {"sight_features": "", "sight_content": ""}}, {"title": "双城朝鲜观光码头", "address": "丹东市宽甸县古楼子乡南荒沟村八组", "image": "", "rank": 57, "time": 2, "location": {"lat": 40.286107376331, "lng": 124.61253296073924}, "feature": {"sight_features": "", "sight_content": ""}}, {"title": "安东商埠历史博物馆", "address": "丹东市振兴区滨江西路附近", "image": "", "rank": 58, "time": 1.0, "location": {"lat": 40.08549728408847, "lng": 124.3530077055484}, "feature": {"sight_features": "", "sight_content": ""}}, {"title": "丹东五龙国际高尔夫俱乐部", "address": "丹东市振安区楼房镇梨树沟村", "image": "", "rank": 59, "time": 1.0, "location": {"lat": 40.30551076570311, "lng": 124.3635367372444}, "feature": {"sight_features": "", "sight_content": ""}}, {"title": "九花沟冰雪大世界", "address": "丹东市振安区楼房镇梨树沟村（下五龙山高速口左行1公里）", "image": "", "rank": 60, "time": 2, "location": {"lat": 40.30551076570311, "lng": 124.3635367372444}, "feature": {"sight_features": "", "sight_content": ""}}]}