{"cityName": "丹凤", "days": null, "cityImage": "", "spots": [{"title": "商於古道棣花文化旅游景区", "address": "商洛市丹凤县棣花镇境内", "image": "", "rank": 1, "time": 0.75, "location": {"lat": 33.765825825194646, "lng": 110.23053790020475}, "feature": {"sight_features": "", "sight_content": ""}}, {"title": "棣花古镇", "address": "商洛市丹凤县", "image": "", "rank": 2, "time": 2, "location": {"lat": 33.701537322920714, "lng": 110.33356028859974}, "feature": {"sight_features": "", "sight_content": ""}}, {"title": "商洛秦岭", "address": "陕西省丹凤县境内 726200", "image": "", "rank": 3, "time": null, "location": {"lat": 33.701537322920714, "lng": 110.33356028859974}, "feature": {"sight_features": "", "sight_content": ""}}, {"title": "万湾土窑农家乐", "address": "沪陕高速公路", "image": "", "rank": 4, "time": null, "location": {"lat": 31.3185223173952, "lng": 121.69102107754159}, "feature": {"sight_features": "", "sight_content": ""}}, {"title": "山丹鱼村", "address": "银花镇商路河", "image": "", "rank": 5, "time": 2, "location": {"lat": 33.48416192762862, "lng": 110.28654666126009}, "feature": {"sight_features": "", "sight_content": ""}}, {"title": "动漫水世界", "address": "江滨北路金山国际酒店后门口", "image": "", "rank": 6, "time": 2, "location": {"lat": 33.68937574585823, "lng": 110.3500963260715}, "feature": {"sight_features": "", "sight_content": ""}}, {"title": "黑龙湾临仙阁农家乐", "address": "北赵川镇黑龙湾", "image": "", "rank": 7, "time": 2, "location": {"lat": 33.69275030383936, "lng": 110.53653404720714}, "feature": {"sight_features": "", "sight_content": ""}}, {"title": "商山", "address": "陕西省丹凤县丹凤县城西丹江南岸 726200", "image": "", "rank": 8, "time": 2, "location": {"lat": 33.701537322920714, "lng": 110.33356028859974}, "feature": {"sight_features": "", "sight_content": ""}}, {"title": "贾平凹故居", "address": "陕西省丹凤县棣花镇棣花村 726208", "image": "", "rank": 9, "time": 1.0, "location": {"lat": 33.73721919616972, "lng": 110.20856019475029}, "feature": {"sight_features": "", "sight_content": ""}}, {"title": "天主堂", "address": "龙驹寨镇老街38号", "image": "", "rank": 10, "time": 0.4, "location": {"lat": 33.69603324215871, "lng": 110.34644194290094}, "feature": {"sight_features": "", "sight_content": ""}}, {"title": "二郎神庙", "address": "陕西省商洛市丹凤县312国道", "image": "", "rank": 11, "time": 2, "location": {"lat": 33.64963727442195, "lng": 110.4454174703633}, "feature": {"sight_features": "", "sight_content": ""}}, {"title": "明家祠堂", "address": "双武路北50米", "image": "", "rank": 12, "time": 2, "location": {"lat": 23.106752479589144, "lng": 108.30836697469226}, "feature": {"sight_features": "", "sight_content": ""}}, {"title": "凤冠山渡假村", "address": "312国道向东过丹芋路口", "image": "", "rank": 13, "time": 2, "location": {"lat": 31.33241303413939, "lng": 120.99854638594724}, "feature": {"sight_features": "", "sight_content": ""}}, {"title": "金利山庄", "address": "郭山路附近", "image": "", "rank": 14, "time": 2, "location": {"lat": 33.460497826437546, "lng": 110.26826263894394}, "feature": {"sight_features": "", "sight_content": ""}}, {"title": "四皓碑林园", "address": "陕西省商洛市丹凤县G312(沪霍线)", "image": "", "rank": 15, "time": 1.0, "location": {"lat": 33.701537322920714, "lng": 110.33356028859974}, "feature": {"sight_features": "", "sight_content": ""}}, {"title": "陕西丹凤书画院", "address": "中心街14号附近", "image": "", "rank": 16, "time": 2, "location": {"lat": 39.68705075082055, "lng": 115.40249697114055}, "feature": {"sight_features": "", "sight_content": ""}}, {"title": "丹凤美术家协会书画交流中心", "address": "商贸街", "image": "", "rank": 17, "time": 2, "location": {"lat": 39.26042954320438, "lng": 117.81295302404605}, "feature": {"sight_features": "", "sight_content": ""}}, {"title": "丹凤县图书馆", "address": "南凤街", "image": "", "rank": 18, "time": 2, "location": {"lat": 29.579377429394654, "lng": 105.06323454808573}, "feature": {"sight_features": "", "sight_content": ""}}, {"title": "陕西丹江世纪漂流有限责任公司(...", "address": "丹江漂流下码头,月日滩", "image": "", "rank": 19, "time": 2, "location": {"lat": 33.644326500700366, "lng": 110.35181440452885}, "feature": {"sight_features": "", "sight_content": ""}}, {"title": "爱儿乐婴幼儿spa水育乐园", "address": "江滨北路46号号", "image": "", "rank": 20, "time": 2, "location": {"lat": 33.69435706644964, "lng": 110.33350019196111}, "feature": {"sight_features": "", "sight_content": ""}}, {"title": "天桐游乐", "address": "丹凤时代购物中心四楼", "image": "", "rank": 21, "time": 2, "location": {"lat": 33.701537322920714, "lng": 110.33356028859974}, "feature": {"sight_features": "", "sight_content": ""}}, {"title": "丹凤县博物馆", "address": "花庙路博物馆", "image": "", "rank": 22, "time": 2, "location": {"lat": 31.28106174464604, "lng": 119.02625029982703}, "feature": {"sight_features": "", "sight_content": ""}}, {"title": "桑乐超级数字化太阳能", "address": "312国道附近", "image": "", "rank": 23, "time": 2, "location": {"lat": 31.33241303413939, "lng": 120.99854638594724}, "feature": {"sight_features": "", "sight_content": ""}}, {"title": "悠然庄园", "address": "龙驹寨镇杨场村四组153号(龙潭水库向上2公里)", "image": "", "rank": 24, "time": 2, "location": {"lat": 33.718402924851496, "lng": 110.3691408726968}, "feature": {"sight_features": "", "sight_content": ""}}, {"title": "平凹老宅", "address": "棣花古镇宋金街", "image": "", "rank": 25, "time": 2, "location": {"lat": 33.73413509274801, "lng": 110.19707219856643}, "feature": {"sight_features": "", "sight_content": ""}}, {"title": "龙台观", "address": "陕西省丹凤县铁峪铺镇花子沟村", "image": "", "rank": 26, "time": 2, "location": {"lat": 33.63884728675391, "lng": 110.50915751575636}, "feature": {"sight_features": "", "sight_content": ""}}, {"title": "商洛龙潭瀑布", "address": "陕西省丹凤县境内", "image": "", "rank": 27, "time": 1.0, "location": {"lat": 33.701537322920714, "lng": 110.33356028859974}, "feature": {"sight_features": "", "sight_content": ""}}, {"title": "商洛武关遗址", "address": "陕西省丹凤县东武关河北岸", "image": "", "rank": 28, "time": 1.0, "location": {"lat": 33.701537322920714, "lng": 110.33356028859974}, "feature": {"sight_features": "", "sight_content": ""}}]}