{"cityName": "当雄", "days": 2, "cityImage": "", "spots": [{"title": "纳木措", "address": "西藏自治区拉萨市当雄县扎西多寺附近", "image": "", "rank": 1, "time": 1.0, "location": {"lat": 30.778143617551798, "lng": 90.87065311439801}, "feature": {"sight_features": "特色1 纳木措为著名的佛教圣地之一 特色2 风和日丽的时候，巍巍的雪山倒映在湖水中，显得宁静而祥和 特色3 西藏三大圣湖之一，爬上湖畔扎西半岛的山坡，看夕阳或日出，夜晚还可观赏浩瀚", "sight_content": "纳木措，蒙语和满语称“腾格里海”，藏语纳木湖意为天湖，据传纳木措是帝释之女，念青唐古拉之妻，密宗本尊胜乐金刚的道场，被善男信女视为必去的神圣之地之一，从古到今香客不断。\n纳木措是西藏最大的湖泊，也是世界上海拔最高的咸水湖，更是西藏三大圣湖之一。‍‍\n\n\n旅游达人 刘琦\n每到羊年，诸佛在纳木措设坛大兴法会，如人此时前往朝拜，转湖念经一次，胜过平时朝礼转湖念经十三次，其福无量。所以每到羊年僧人信徒不惜长途跋涉前往转湖一次。\n而每到藏历羊年的四月十五达到高潮，届时信徒如潮如云，盛况空前。‍‍\n\n\n旅游达人 陈玉淋\n‍‍纳木措的形状像静卧的金刚度母，背靠白雪皑皑的念青唐古拉山。\n湖的南面有乌龟梁、孔雀梁等18道梁，北面有黄鸭岛、鹏鸟岛等18个岛，湖的四面建有4座寺庙，东有扎西多波切寺，南有古尔琼白玛寺，西有多加寺，北有恰妥寺，象征着佛教上所说的愠、怒、权、势。‍‍‍\n\n\n旅游达人 罗晓龙"}}, {"title": "那根拉山口", "address": "拉萨市当雄县境内(近纳木措)", "image": "", "rank": 2, "time": 0.75, "location": {"lat": 30.47922172694214, "lng": 91.1074517468307}, "feature": {"sight_features": "", "sight_content": ""}}, {"title": "羊八井地热温泉", "address": "西藏自治区拉萨市当雄县羊八井镇", "image": "", "rank": 3, "time": 2, "location": {"lat": 30.10106269367844, "lng": 90.54588198518604}, "feature": {"sight_features": "", "sight_content": ""}}, {"title": "念青唐古拉观景台", "address": "拉萨市当雄县（从拉萨至纳木错的109国道旁）", "image": "", "rank": 4, "time": 0.4, "location": {"lat": 30.304119491236584, "lng": 90.79732713053502}, "feature": {"sight_features": "特色1 观赏纳木错和念青唐古拉山的绝佳位置，看皑皑白雪，云舒云卷。", "sight_content": "念青唐古拉观景台是观赏念青唐古拉山主峰的理想位置。观景台旁，经幡随风飘动，远处，都是皑皑的白雪和耸立的群山。蓝天，白云，雪山，还有黑的白的牦牛，以及迎风而舞的经幡，这一切构成了一幅斑斓的图画。"}}, {"title": "羊八井寺", "address": "拉萨市当雄县羊八井镇内", "image": "", "rank": 5, "time": 0.75, "location": {"lat": 30.10106269367844, "lng": 90.54588198518604}, "feature": {"sight_features": "", "sight_content": ""}}, {"title": "扎西半岛", "address": "拉萨市当雄县纳木错景区内", "image": "", "rank": 6, "time": 3.0, "location": {"lat": 30.81530448914324, "lng": 90.90340222156152}, "feature": {"sight_features": "", "sight_content": ""}}, {"title": "唐拉昂曲峰", "address": "拉萨市当雄县境内", "image": "", "rank": 7, "time": 1.0, "location": {"lat": 30.47922172694214, "lng": 91.1074517468307}, "feature": {"sight_features": "", "sight_content": ""}}, {"title": "善恶洞", "address": "拉萨市当雄县纳木错景区内扎西半岛上", "image": "", "rank": 8, "time": 0.75, "location": {"lat": 30.81530448914324, "lng": 90.90340222156152}, "feature": {"sight_features": "", "sight_content": ""}}, {"title": "合掌石", "address": "拉萨市当雄县纳木错景区", "image": "", "rank": 9, "time": 0.2, "location": {"lat": 30.81530448914324, "lng": 90.90340222156152}, "feature": {"sight_features": "", "sight_content": ""}}, {"title": "迎宾石", "address": "拉萨市当雄县纳木错景区", "image": "", "rank": 10, "time": 0.1, "location": {"lat": 30.81530448914324, "lng": 90.90340222156152}, "feature": {"sight_features": "", "sight_content": ""}}, {"title": "玛尼堆", "address": "拉萨市当雄县纳木错景区内", "image": "", "rank": 11, "time": 2, "location": {"lat": 30.81530448914324, "lng": 90.90340222156152}, "feature": {"sight_features": "", "sight_content": ""}}, {"title": "廓琼岗日冰川", "address": "拉萨市当雄县羊八井镇格达乡雪布曲卡（毗邻304省道）", "image": "", "rank": 12, "time": 2, "location": {"lat": 29.92204099922148, "lng": 90.3202058592302}, "feature": {"sight_features": "", "sight_content": ""}}, {"title": "扎西岛寺", "address": "拉萨市当雄县纳木错景区", "image": "", "rank": 13, "time": 0.3, "location": {"lat": 30.81530448914324, "lng": 90.90340222156152}, "feature": {"sight_features": "", "sight_content": ""}}, {"title": "康玛寺", "address": "拉萨市当雄县（距离县城约16公里处）", "image": "", "rank": 14, "time": 1.0, "location": {"lat": 30.47922172694214, "lng": 91.1074517468307}, "feature": {"sight_features": "", "sight_content": ""}}, {"title": "普若岗日冰川", "address": "西藏自治区班戈县双湖正北方向 852500", "image": "", "rank": 15, "time": 1.0, "location": {"lat": 31.39872762296325, "lng": 90.01670772711378}, "feature": {"sight_features": "", "sight_content": ""}}, {"title": "当曲白莲度假村", "address": "109国道附近", "image": "", "rank": 16, "time": 2, "location": {"lat": 39.790711104970946, "lng": 109.99633110015151}, "feature": {"sight_features": "", "sight_content": ""}}, {"title": "民族风情园", "address": "拉萨市当雄县", "image": "", "rank": 17, "time": 2, "location": {"lat": 30.47922172694214, "lng": 91.1074517468307}, "feature": {"sight_features": "", "sight_content": ""}}, {"title": "鲁孜峰", "address": "西藏自治区当雄县羊八井镇", "image": "", "rank": 18, "time": 2, "location": {"lat": 30.10106269367844, "lng": 90.54588198518604}, "feature": {"sight_features": "", "sight_content": ""}}, {"title": "启孜峰 Qizi Peak", "address": "西藏自治区当雄县羊八井镇西北部", "image": "", "rank": 19, "time": 2, "location": {"lat": 30.10106269367844, "lng": 90.54588198518604}, "feature": {"sight_features": "", "sight_content": ""}}, {"title": "唐古拉山", "address": "西藏自治区当雄县县城南部", "image": "", "rank": 20, "time": 0.5, "location": {"lat": 30.47922172694214, "lng": 91.1074517468307}, "feature": {"sight_features": "", "sight_content": ""}}, {"title": "隆只拉", "address": "拉萨市-当雄县", "image": "", "rank": 21, "time": 2, "location": {"lat": 30.47922172694214, "lng": 91.1074517468307}, "feature": {"sight_features": "", "sight_content": ""}}, {"title": "金色池塘", "address": "拉萨市当雄县的阿热湿地", "image": "", "rank": 22, "time": 2, "location": {"lat": 30.47922172694214, "lng": 91.1074517468307}, "feature": {"sight_features": "", "sight_content": ""}}, {"title": "纳木错乡", "address": "西藏自治区拉萨市当雄县", "image": "", "rank": 23, "time": 2, "location": {"lat": 30.47922172694214, "lng": 91.1074517468307}, "feature": {"sight_features": "", "sight_content": ""}}, {"title": "纳木错国家公园", "address": "拉萨市当雄县109国道", "image": "", "rank": 24, "time": 2, "location": {"lat": 30.304119491236584, "lng": 90.79732713053502}, "feature": {"sight_features": "", "sight_content": ""}}]}