{"cityName": "宕昌", "days": 2, "cityImage": "", "spots": [{"title": "官鹅沟", "address": "陇南市宕昌县城郊", "image": "", "rank": 1, "time": 3.0, "location": {"lat": 34.05348629135883, "lng": 104.39938579986988}, "feature": {"sight_features": "", "sight_content": ""}}, {"title": "立界村官鹅沟旅游服务农民专业合...", "address": "官鹅村宕昌县祥云养生山庄东南侧300米", "image": "", "rank": 2, "time": 2, "location": {"lat": 34.01653970704834, "lng": 104.40518433588592}, "feature": {"sight_features": "", "sight_content": ""}}, {"title": "哈达铺会议旧址", "address": "陇南市宕昌县哈达铺镇", "image": "", "rank": 3, "time": 2, "location": {"lat": 34.23402471665284, "lng": 104.24215527147533}, "feature": {"sight_features": "", "sight_content": ""}}, {"title": "农味庄园农家乐", "address": "212国道附近", "image": "", "rank": 4, "time": 2, "location": {"lat": 32.4966001815921, "lng": 105.6244436788112}, "feature": {"sight_features": "", "sight_content": ""}}, {"title": "菜根香农家乐", "address": "212国道附近", "image": "", "rank": 5, "time": 2, "location": {"lat": 32.4966001815921, "lng": 105.6244436788112}, "feature": {"sight_features": "", "sight_content": ""}}, {"title": "博士牛农家乐", "address": "城关镇旧城坝东苑宾馆附近", "image": "", "rank": 6, "time": 2, "location": {"lat": 34.04019060528042, "lng": 104.3925907888228}, "feature": {"sight_features": "", "sight_content": ""}}, {"title": "丽景农家乐", "address": "城关镇城关镇第四小学对面", "image": "", "rank": 7, "time": 2, "location": {"lat": 31.47580472119266, "lng": 116.96360861205845}, "feature": {"sight_features": "", "sight_content": ""}}, {"title": "桥头农家乐", "address": "212国道西50米", "image": "", "rank": 8, "time": 2, "location": {"lat": 32.4966001815921, "lng": 105.62399452605622}, "feature": {"sight_features": "", "sight_content": ""}}, {"title": "陇南绿色农庄", "address": "陇南市宕昌县官鹅沟立界村", "image": "", "rank": 9, "time": 2, "location": {"lat": 34.01629612975544, "lng": 104.39915841628766}, "feature": {"sight_features": "", "sight_content": ""}}, {"title": "观音阁", "address": "陇南市宕昌县城郊官鹅沟风景区内", "image": "", "rank": 10, "time": 1.0, "location": {"lat": 34.01629612975544, "lng": 104.39915841628766}, "feature": {"sight_features": "", "sight_content": ""}}, {"title": "宕昌县图书馆", "address": "岷江大道", "image": "", "rank": 11, "time": 2, "location": {"lat": 28.837050174695715, "lng": 104.37149143762552}, "feature": {"sight_features": "", "sight_content": ""}}, {"title": "海天书画社", "address": "甘川公路", "image": "", "rank": 12, "time": 2, "location": {"lat": 34.05026525896916, "lng": 104.40474131765926}, "feature": {"sight_features": "", "sight_content": ""}}, {"title": "哈达铺红军长征纪念馆", "address": "哈达铺镇", "image": "", "rank": 13, "time": 1.0, "location": {"lat": 34.23402471665284, "lng": 104.24215527147533}, "feature": {"sight_features": "", "sight_content": ""}}, {"title": "生态园农家乐", "address": "212国道北100米", "image": "", "rank": 14, "time": 2, "location": {"lat": 32.49736150311046, "lng": 105.6244436788112}, "feature": {"sight_features": "", "sight_content": ""}}, {"title": "山水人家农家乐", "address": "城关镇鹿仁村", "image": "", "rank": 15, "time": 2, "location": {"lat": 33.971657391061356, "lng": 104.35105498266941}, "feature": {"sight_features": "", "sight_content": ""}}, {"title": "小时代童屋", "address": "城关镇东苑宾馆", "image": "", "rank": 16, "time": 2, "location": {"lat": 29.304216515048445, "lng": 121.44463813063797}, "feature": {"sight_features": "", "sight_content": ""}}, {"title": "隆家山村", "address": "陇南市-宕昌县", "image": "", "rank": 17, "time": 2, "location": {"lat": 34.05348629135883, "lng": 104.39938579986988}, "feature": {"sight_features": "", "sight_content": ""}}, {"title": "好地坪村", "address": "陇南市-宕昌县", "image": "", "rank": 18, "time": 2, "location": {"lat": 34.05348629135883, "lng": 104.39938579986988}, "feature": {"sight_features": "", "sight_content": ""}}]}