{"cityName": "当阳", "days": 2, "cityImage": "", "spots": [{"title": "长坂坡", "address": "宜昌市当阳市长坂路86号", "image": "", "rank": 1, "time": 1.5, "location": {"lat": 30.83120222864049, "lng": 111.79489323967509}, "feature": {"sight_features": "", "sight_content": ""}}, {"title": "玉泉寺", "address": "宜昌市当阳市玉泉村230县道6公里处", "image": "", "rank": 2, "time": 2.5, "location": {"lat": 30.792323289800787, "lng": 111.7012107546505}, "feature": {"sight_features": "", "sight_content": ""}}, {"title": "关陵庙", "address": "宜昌市当阳市关陵庙", "image": "", "rank": 3, "time": 1.5, "location": {"lat": 30.846504393749644, "lng": 111.77849516216695}, "feature": {"sight_features": "", "sight_content": ""}}, {"title": "麦城", "address": "宜昌市当阳市两河镇麦城村", "image": "", "rank": 4, "time": 1.5, "location": {"lat": 30.696513166970764, "lng": 111.95150530359042}, "feature": {"sight_features": "", "sight_content": ""}}, {"title": "玉泉花海", "address": "宜昌市当阳市玉泉路玉泉村（近玉泉寺约600米处）", "image": "", "rank": 5, "time": 2, "location": {"lat": 30.79459717705482, "lng": 111.75547559389726}, "feature": {"sight_features": "", "sight_content": ""}}, {"title": "临沮公园", "address": "宜昌市当阳市玉阳街道南正街94号", "image": "", "rank": 6, "time": 2, "location": {"lat": 30.836703848907174, "lng": 111.8077670735531}, "feature": {"sight_features": "", "sight_content": ""}}, {"title": "胡家湾樱花园", "address": "宜昌市当阳市半月镇胡家湾村", "image": "", "rank": 7, "time": 2, "location": {"lat": 30.619875619250845, "lng": 111.7481037296788}, "feature": {"sight_features": "", "sight_content": ""}}, {"title": "关雎河畔", "address": "宜昌市当阳市庙前村沙河镇", "image": "", "rank": 8, "time": 2, "location": {"lat": 31.00715195858516, "lng": 111.80941993300924}, "feature": {"sight_features": "特色1 回到爱开始的地方！", "sight_content": "“颂一则诗经，品一段历史 ；听一曲礼乐，观一帘山水。”这里是诗经发祥地，湖北省当阳市关雎河畔生态旅游区。\n当阳，自战国时期建县，距今已有2200多年历史，是楚文化的发祥地之一，他西邻三峡宜昌，东连荆州古城，北通襄阳隆中，地理交通环境优越。地之辽阔，山之厚重，水之灵动，天精地华在这里融为一体，孕育出醉美关雎河畔。\n“关关雎鸠，在河之洲；窈窕淑女，君子好逑”，一阕关雎翻开诗经的篇章，也唱响泱泱中华传承数千年的诗歌文化史，据考证《诗经·国风·关雎》就起源当阳的沮漳河流域，关雎河畔景区由此得名。\n景区位于湖北省当阳市庙前村沙河镇，地处三峡旅游黄金线上，由“湖北超圣投资集团”旗下子公司“当阳圣枫投资开发有限公司”斥资11.8亿元兴建。1万亩原生态山水经文化、园林大师的精心设计雕琢，造就融诗经文化体验、生态观光农业、亲水游乐、湿地生态旅游四大特色于一体的诗意山水生态游景区。\n群山掬翠，碧水环绕，这里是绿植覆盖率达到百分之60的天然氧吧。踏着青苔斑驳的石板路，漫步在诗歌长廊，赏阅沿途石刻上的诗经名篇，品读传诵千古的动人故事。正在建设中的关雎园、蒹葭园、在河之洲、摽有梅、采葛园、束楚园等主题景点将全方位展现诗经风、雅、颂的不同韵味，让您仿佛穿越时空，聆听两千年华夏先民的吟唱，感受诗经文化的博大精深。\n关雎河畔以水闻名，占地10000㎡的超大型水上游乐场犹如一朵巨大的莲花绽放在湖面之上，水上景观由坚固安全的浮道串联在一起，形成集观水赏山、文艺演出、灯光景观、娱乐休闲于一身的水上“不夜城”。\n或与心上人泛舟于湖面，或与孩子来一场碰碰船大战，或与亲友来一次水上烧烤、打一场水上麻将，或是架一叶小舟静心垂钓，丰富多彩的水上娱乐能让您忘却人生烦愁，独得山水之乐。\n数十艘古色古香的画舫和水上木屋溯水而列，组成华中地区唯一一所水上酒店。在画舫里相伴，在木屋里栖宿，随着波浪起伏，静听水声吟吟，宛若爱的合鸣；180亩房车帐篷营地滨水而设，可供补给、游玩、娱乐、野营，在鸟语虫鸣中仰望璀璨银河，将带给您别样的住宿体验。\n感恩亲情、点亮爱情、不忘友情，这里是让您情思无限的佳境。山花烂漫的季节邀朋友来关雎河畔，在3000亩花海中欣赏漫山遍野的樱花、桃花、紫薇、桂花、海棠、银杏、冬青，春来繁花似锦，暖秋红枫似火，花间蝴蝶起舞，林中百鸟争鸣，穿行其间，犹如行走在梦的记忆里。\n瓜熟蒂落的季节带家人来关雎河畔，在生态观光采摘园里尽情采摘葡萄、蓝莓、枇杷、杨梅、蟠桃，这里的有机鲜果不施农药，不用化肥，让您放心品尝纯天然的自然馈赠，在采拮美味的过程中体验田园劳作之乐。\n这里是珍禽异兽的乐园，关雎鸟、鸬鹚、白天鹅、绿头鸭等珍稀飞禽在这里快乐生活，您可以在湖光山色之间看“落霞与孤鹜齐飞，秋水共长天一色”，品味诗歌入画的人间绝境；可以观赏鸬鹚扑鱼表演，这项传承千年的神秘技艺是勇气、技艺、智慧与野性的无间配合；还可以近距离观看凶猛狰狞的鳄鱼表演，热带巨兽的精彩表演将为一路的高昂兴致添一分惊险刺激。\n心泊在何处，何处就是故乡。景区接待中心配有大中小型多功能会议室和五星级豪华客房，提供农家风味宴席和自助餐，是进行高端商务旅游、家庭休闲度假、举办各类商务会议与室内演出的理想场所。\n关雎河畔响应国家政策要求，顺应地区发展趋势，依托优势山水秉赋而生，景区全体同仁将胸怀责任、全力以赴，展现“农、游、娱、养”的生态游特色，倾力打造世界闻名的“诗经文化”旅游景点，为早日升级成为5A级景区、成为华中地区规模最大、规格最高的山水一体旅游目的地而不懈奋斗，为鄂西生态文化旅游圈的构建贡献一份心力。\n回到爱开始的地方，关雎河畔欢迎您！"}}, {"title": "三国欢乐世界", "address": "宜昌市当阳市环城西路东200米", "image": "", "rank": 9, "time": 2, "location": {"lat": 30.82724369262195, "lng": 111.77852120494198}, "feature": {"sight_features": "", "sight_content": ""}}, {"title": "香榭水上乐园", "address": "南正街87-2号", "image": "", "rank": 10, "time": 2, "location": {"lat": 30.8355454852727, "lng": 111.80627744653863}, "feature": {"sight_features": "", "sight_content": ""}}, {"title": "当阳市第二图书馆", "address": "桥路8号", "image": "", "rank": 11, "time": 1.5, "location": {"lat": 22.837293463478844, "lng": 108.34829620544485}, "feature": {"sight_features": "", "sight_content": ""}}, {"title": "海燕农家乐", "address": "107省道附近", "image": "", "rank": 12, "time": 2, "location": {"lat": 41.523408462260896, "lng": 123.50372337043669}, "feature": {"sight_features": "", "sight_content": ""}}, {"title": "当阳市慈济农场", "address": "玉阳路129号", "image": "", "rank": 13, "time": 1.5, "location": {"lat": 30.99370425472679, "lng": 121.22821539222343}, "feature": {"sight_features": "", "sight_content": ""}}, {"title": "当阳市林桥蓝莓专业合作社", "address": "庙前镇回龙观庙前中小学北侧", "image": "", "rank": 14, "time": 1.5, "location": {"lat": 30.96006589671281, "lng": 111.84229307460434}, "feature": {"sight_features": "", "sight_content": ""}}, {"title": "橫矛处农家乐", "address": "环城东路1号", "image": "", "rank": 15, "time": 2, "location": {"lat": 31.904867010176908, "lng": 120.28398073952276}, "feature": {"sight_features": "", "sight_content": ""}}, {"title": "季家湖城址", "address": "湖北省当阳市草埠湖镇季家湖村 444115", "image": "", "rank": 16, "time": 2, "location": {"lat": 30.572934586431856, "lng": 111.94439915634521}, "feature": {"sight_features": "", "sight_content": ""}}, {"title": "魏家祠堂", "address": "湖北省宜昌市当阳市X001", "image": "", "rank": 17, "time": 2, "location": {"lat": 30.82698905028075, "lng": 111.79456850223322}, "feature": {"sight_features": "", "sight_content": ""}}, {"title": "当阳市植物园", "address": "关陵路145附近", "image": "", "rank": 18, "time": 3.5, "location": {"lat": 30.841114055077103, "lng": 111.7846471594674}, "feature": {"sight_features": "", "sight_content": ""}}, {"title": "淯溪民俗博物馆", "address": "湖北省宜昌市当阳市小河桥路8号", "image": "", "rank": 19, "time": null, "location": {"lat": 30.922872758719535, "lng": 111.93858489369461}, "feature": {"sight_features": "", "sight_content": ""}}, {"title": "丁家祠堂", "address": "宜昌市当阳市", "image": "", "rank": 20, "time": 2, "location": {"lat": 30.82698905028075, "lng": 111.79456850223322}, "feature": {"sight_features": "", "sight_content": ""}}, {"title": "清明园", "address": "长坂路附近", "image": "", "rank": 21, "time": 2, "location": {"lat": 30.977757748983983, "lng": 112.19718364197229}, "feature": {"sight_features": "", "sight_content": ""}}, {"title": "慈化圆通", "address": "湖北省宜昌市当阳市向阳路", "image": "", "rank": 22, "time": 2, "location": {"lat": 30.778414953628676, "lng": 111.87920032838026}, "feature": {"sight_features": "", "sight_content": ""}}, {"title": "盛泰·麒麟广场", "address": "宜昌市当阳市玉阳路123号", "image": "", "rank": 23, "time": 2, "location": {"lat": 30.82781052075451, "lng": 111.81411338436656}, "feature": {"sight_features": "", "sight_content": ""}}, {"title": "庙前圆通", "address": "湖北省宜昌市当阳市烟集街1号", "image": "", "rank": 24, "time": 2, "location": {"lat": 30.89636577617798, "lng": 111.8868182938105}, "feature": {"sight_features": "", "sight_content": ""}}, {"title": "河溶影剧院", "address": "河高线与溶新路交叉口西150米", "image": "", "rank": 25, "time": 2, "location": {"lat": 30.707983880281247, "lng": 111.9900326666248}, "feature": {"sight_features": "", "sight_content": ""}}, {"title": "当阳市图书馆(两河分馆)", "address": "汉宜路20号附近", "image": "", "rank": 26, "time": 1.5, "location": {"lat": 30.853096956572983, "lng": 113.297694578177}, "feature": {"sight_features": "", "sight_content": ""}}, {"title": "玉泉山风景区", "address": "当阳市区以西约10公里处", "image": "", "rank": 27, "time": 2.0, "location": {"lat": 30.82698905028075, "lng": 111.79456850223322}, "feature": {"sight_features": "", "sight_content": ""}}, {"title": "朝阳观", "address": "汉宜路西200米", "image": "", "rank": 28, "time": 0.75, "location": {"lat": 30.71122600295521, "lng": 111.2949041281301}, "feature": {"sight_features": "", "sight_content": ""}}, {"title": "张家祠堂", "address": "湖北省宜昌市当阳市", "image": "", "rank": 29, "time": 2, "location": {"lat": 30.82698905028075, "lng": 111.79456850223322}, "feature": {"sight_features": "", "sight_content": ""}}, {"title": "焦家祠堂", "address": "宜昌市当阳市百宝寨路", "image": "", "rank": 30, "time": 2, "location": {"lat": 30.884093769371663, "lng": 111.72996686148316}, "feature": {"sight_features": "", "sight_content": ""}}, {"title": "张家祠堂", "address": "宜昌市当阳市二一三县道", "image": "", "rank": 31, "time": 2, "location": {"lat": 31.059766735286633, "lng": 111.92335146658525}, "feature": {"sight_features": "", "sight_content": ""}}, {"title": "当阳市图书馆(玉泉分馆)", "address": "关陵路33号附近", "image": "", "rank": 32, "time": 1.5, "location": {"lat": 30.839823446918125, "lng": 111.78550654985881}, "feature": {"sight_features": "", "sight_content": ""}}, {"title": "世外桃源农家乐钓鱼休闲", "address": "关陵路90-1刑警大队旁", "image": "", "rank": 33, "time": 2, "location": {"lat": 30.844367885507708, "lng": 111.78273736951407}, "feature": {"sight_features": "", "sight_content": ""}}, {"title": "当阳市红林生态农业科技有限公司", "address": "庙前镇林桥村2组", "image": "", "rank": 34, "time": 1.5, "location": {"lat": 30.928995435833215, "lng": 111.8584973094614}, "feature": {"sight_features": "", "sight_content": ""}}, {"title": "8号铺子农家乐", "address": "官垱街官垱小学旁", "image": "", "rank": 35, "time": 2, "location": {"lat": 30.61738848423193, "lng": 112.51512391505241}, "feature": {"sight_features": "", "sight_content": ""}}, {"title": "当阳市爱心艺术团", "address": "224省道附近", "image": "", "rank": 36, "time": 1.5, "location": {"lat": 40.07033678730361, "lng": 116.8104973444274}, "feature": {"sight_features": "", "sight_content": ""}}, {"title": "磨盘山遗址", "address": "湖北省当阳市河溶镇前进村", "image": "", "rank": 37, "time": 2, "location": {"lat": 30.68980293347418, "lng": 112.00548328604037}, "feature": {"sight_features": "", "sight_content": ""}}, {"title": "南吉塆", "address": "宜昌市-当阳市-二一三县道", "image": "", "rank": 38, "time": 2, "location": {"lat": 31.059766735286633, "lng": 111.92335146658525}, "feature": {"sight_features": "", "sight_content": ""}}, {"title": "周仓坟", "address": "宜昌市-当阳市-一零七省道", "image": "", "rank": 39, "time": 2, "location": {"lat": 30.69981532959527, "lng": 111.99182897491579}, "feature": {"sight_features": "", "sight_content": ""}}, {"title": "当阳玉泉寺风景区青龙洞", "address": "湖北省宜昌市当阳市玉泉寺", "image": "", "rank": 40, "time": 1.5, "location": {"lat": 30.778944711136614, "lng": 111.68132482993198}, "feature": {"sight_features": "", "sight_content": ""}}]}