{"cityName": "丹阳", "days": 2, "cityImage": "", "spots": [{"title": "季子庙", "address": "镇江市丹阳市延陵镇九里风景区内", "image": "", "rank": 1, "time": 2, "location": {"lat": 31.897157155582537, "lng": 119.44900885098276}, "feature": {"sight_features": "", "sight_content": ""}}, {"title": "万善公园", "address": "镇江市丹阳市丹金路1号", "image": "", "rank": 2, "time": 2, "location": {"lat": 31.986780983622854, "lng": 119.5925304647523}, "feature": {"sight_features": "", "sight_content": ""}}, {"title": "总前委旧址纪念馆", "address": "镇江市丹阳市内城河路宝塔弄5号（原戴家花园）", "image": "", "rank": 3, "time": 2, "location": {"lat": 31.999530232944515, "lng": 119.58013420803682}, "feature": {"sight_features": "", "sight_content": ""}}, {"title": "九里风景区", "address": "镇江市丹阳市延陵镇", "image": "", "rank": 4, "time": 2.5, "location": {"lat": 31.921868749008375, "lng": 119.4807948821141}, "feature": {"sight_features": "", "sight_content": ""}}, {"title": "丹阳市天主堂", "address": "镇江市丹阳市北环路66号", "image": "", "rank": 5, "time": 0.75, "location": {"lat": 32.00821101190244, "lng": 119.57617400034862}, "feature": {"sight_features": "", "sight_content": ""}}, {"title": "岳氏宗祠", "address": "镇江市丹阳市培棠村", "image": "", "rank": 6, "time": 2, "location": {"lat": 31.98123221638903, "lng": 119.49496252273592}, "feature": {"sight_features": "", "sight_content": ""}}, {"title": "白龙寺", "address": "镇江市丹阳市皇塘镇大南庄村界沟村21号", "image": "", "rank": 7, "time": 2.5, "location": {"lat": 31.76501814934329, "lng": 119.70840842155478}, "feature": {"sight_features": "", "sight_content": ""}}, {"title": "新四军江南指挥部旧址", "address": "镇江市丹阳市", "image": "", "rank": 8, "time": 2, "location": {"lat": 32.01592027416992, "lng": 119.61250060471407}, "feature": {"sight_features": "", "sight_content": ""}}, {"title": "龙庆禅寺", "address": "镇江市丹阳市嘉山村48号", "image": "", "rank": 9, "time": 2, "location": {"lat": 32.04379432150619, "lng": 119.76345244920427}, "feature": {"sight_features": "", "sight_content": ""}}, {"title": "丹阳市人民公园", "address": "公园路", "image": "", "rank": 10, "time": 2.5, "location": {"lat": 39.85630561225323, "lng": 116.5374093064604}, "feature": {"sight_features": "", "sight_content": ""}}, {"title": "水晶山民俗文化展览馆", "address": "后水晶山21号(近通港公路)", "image": "", "rank": 11, "time": 2, "location": {"lat": 32.09621243267662, "lng": 119.68807873032111}, "feature": {"sight_features": "", "sight_content": ""}}, {"title": "丹阳市陵口", "address": "丹阳市陵口镇东南", "image": "", "rank": 12, "time": 2.5, "location": {"lat": 31.93891728461818, "lng": 119.68193941672003}, "feature": {"sight_features": "", "sight_content": ""}}, {"title": "赛乐姆水上乐园", "address": "镇江市丹阳市访仙镇南122省道与丹东公路交叉口东行100米（向东100米）", "image": "", "rank": 13, "time": null, "location": {"lat": 32.04278170681149, "lng": 119.79366256770827}, "feature": {"sight_features": "", "sight_content": ""}}, {"title": "上田水上乐园", "address": "镇江市丹阳市吕城镇312国道葛店村西北侧", "image": "", "rank": 14, "time": 2, "location": {"lat": 31.904392873800923, "lng": 119.68765715554528}, "feature": {"sight_features": "", "sight_content": ""}}, {"title": "老秦葡萄园", "address": "丹北镇尧巷加油站往西200米", "image": "", "rank": 15, "time": 2, "location": {"lat": 24.09701218694945, "lng": 108.25104566533965}, "feature": {"sight_features": "", "sight_content": ""}}, {"title": "风骑士俱乐部", "address": "云阳镇丹金路曙光医院对面鑫达鞋业内", "image": "", "rank": 16, "time": 2, "location": {"lat": 31.978858653698218, "lng": 119.59026287215346}, "feature": {"sight_features": "", "sight_content": ""}}, {"title": "天和桃园", "address": "机场路红叶加油站向西50米天和桃园(沪宁高速丹阳东出口向西1公里)", "image": "", "rank": 17, "time": 2, "location": {"lat": 31.992063706749555, "lng": 119.71378266721743}, "feature": {"sight_features": "", "sight_content": ""}}, {"title": "碧云天生态农庄", "address": "珥陵镇祁谢巷碧云天生态农庄", "image": "", "rank": 18, "time": 2, "location": {"lat": 31.868572164569798, "lng": 119.58227783447526}, "feature": {"sight_features": "", "sight_content": ""}}, {"title": "火龙果采摘园", "address": "下邳村", "image": "", "rank": 19, "time": 2, "location": {"lat": 34.148237057611645, "lng": 117.9206234310989}, "feature": {"sight_features": "", "sight_content": ""}}, {"title": "三水锦源", "address": "王府酒店沿241省道往南12公里", "image": "", "rank": 20, "time": 2, "location": {"lat": 38.52120593306258, "lng": 114.37948707331753}, "feature": {"sight_features": "", "sight_content": ""}}, {"title": "上海战役总前委旧址纪念馆", "address": "白云街与城河路交口东70米", "image": "", "rank": 21, "time": 2.0, "location": {"lat": 31.999123480162044, "lng": 119.57995544434202}, "feature": {"sight_features": "", "sight_content": ""}}, {"title": "王府酒店温泉部", "address": "南二环路88号", "image": "", "rank": 22, "time": 2, "location": {"lat": 31.982605082308176, "lng": 119.56258616922159}, "feature": {"sight_features": "", "sight_content": ""}}, {"title": "新华都锦城·温泉", "address": "华南路108号", "image": "", "rank": 23, "time": 2, "location": {"lat": 31.985702614945946, "lng": 119.57744213284721}, "feature": {"sight_features": "", "sight_content": ""}}, {"title": "丹阳市瑞清园林工程处苗木基地", "address": "312国道附近", "image": "", "rank": 24, "time": 2.5, "location": {"lat": 31.33241303413939, "lng": 120.99854638594724}, "feature": {"sight_features": "", "sight_content": ""}}, {"title": "练湖农场十二分场", "address": "练湖农场", "image": "", "rank": 25, "time": 2, "location": {"lat": 32.013514222241135, "lng": 119.5653938329744}, "feature": {"sight_features": "", "sight_content": ""}}, {"title": "贺甲战斗纪念馆", "address": "镇江丹阳市延陵镇五星村", "image": "", "rank": 26, "time": 2, "location": {"lat": 31.904020659307566, "lng": 119.42321523714568}, "feature": {"sight_features": "", "sight_content": ""}}, {"title": "豪迈书画院", "address": "凤凰路89-11号附近", "image": "", "rank": 27, "time": 2, "location": {"lat": 32.0120737226443, "lng": 119.61224330755839}, "feature": {"sight_features": "", "sight_content": ""}}, {"title": "丹阳市臣飞垂钓园", "address": "春塘村201县道", "image": "", "rank": 28, "time": 2.5, "location": {"lat": 52.434100448246895, "lng": 125.2582118471889}, "feature": {"sight_features": "", "sight_content": ""}}, {"title": "郭氏庄园", "address": "丹北镇新桥镇新亚特钢厂对面", "image": "", "rank": 29, "time": 2, "location": {"lat": 32.07846151258627, "lng": 119.81946363658278}, "feature": {"sight_features": "", "sight_content": ""}}, {"title": "广胜卡丁车", "address": "江苏省镇江市丹阳市X107(丹金路)", "image": "", "rank": 30, "time": 2, "location": {"lat": 31.92174213401857, "lng": 119.60061747627539}, "feature": {"sight_features": "", "sight_content": ""}}, {"title": "低价革命", "address": "全福路164-19号", "image": "", "rank": 31, "time": 2, "location": {"lat": 47.35661636614369, "lng": 123.95044494168052}, "feature": {"sight_features": "", "sight_content": ""}}, {"title": "佛昌寺", "address": "镇江市丹阳市新镇南路万四房", "image": "", "rank": 32, "time": 2, "location": {"lat": 31.829614023558694, "lng": 119.78944487152529}, "feature": {"sight_features": "", "sight_content": ""}}, {"title": "司徒影剧院", "address": "光明中路193号", "image": "", "rank": 33, "time": 2, "location": {"lat": 32.00842229788952, "lng": 119.50510018517888}, "feature": {"sight_features": "", "sight_content": ""}}, {"title": "新桥影剧院", "address": "镇江市丹阳市新兴路15号", "image": "", "rank": 34, "time": 2.0, "location": {"lat": 32.078647973243925, "lng": 119.82099862611659}, "feature": {"sight_features": "", "sight_content": ""}}, {"title": "练湖生态园", "address": "312国道", "image": "", "rank": 35, "time": 2, "location": {"lat": 31.33241303413939, "lng": 120.99854638594724}, "feature": {"sight_features": "", "sight_content": ""}}, {"title": "爱贝儿游乐园", "address": "江苏省镇江市丹阳市司徒镇光明中路美乐花园西北", "image": "", "rank": 36, "time": 2, "location": {"lat": 32.00650150288394, "lng": 119.51297881138296}, "feature": {"sight_features": "", "sight_content": ""}}, {"title": "丹凤公园", "address": "江苏省镇江市丹阳市南三环路", "image": "", "rank": 37, "time": 1.0, "location": {"lat": 31.95911161460386, "lng": 119.57586011264071}, "feature": {"sight_features": "", "sight_content": ""}}, {"title": "孩子王(吾悦店)", "address": "其他开发区金陵西路与凤凰路交汇处吾悦广场2F", "image": "", "rank": 38, "time": 2, "location": {"lat": 32.0028468915183, "lng": 119.61317285164247}, "feature": {"sight_features": "", "sight_content": ""}}, {"title": "游戏机", "address": "镇江市丹阳市新民东路99号丹阳金鹰天地F5", "image": "", "rank": 39, "time": 2, "location": {"lat": 31.995662218654363, "lng": 119.5812544336349}, "feature": {"sight_features": "", "sight_content": ""}}, {"title": "儿童乐园", "address": "江苏省镇江市丹阳市镇北路", "image": "", "rank": 40, "time": 2, "location": {"lat": 32.03792651157134, "lng": 119.60455911239549}, "feature": {"sight_features": "", "sight_content": ""}}, {"title": "猪猪侠儿童乐园", "address": "江苏省镇江市丹阳市养正西路", "image": "", "rank": 41, "time": 2, "location": {"lat": 31.90606867420921, "lng": 119.74721161109258}, "feature": {"sight_features": "", "sight_content": ""}}, {"title": "友唱", "address": "镇江市丹阳市新民东路99号丹阳金鹰天地F8", "image": "", "rank": 42, "time": 2, "location": {"lat": 31.995662218654363, "lng": 119.5812544336349}, "feature": {"sight_features": "", "sight_content": ""}}, {"title": "星星王国乐园", "address": "丹阳市金陵西路吾悦广场", "image": "", "rank": 43, "time": 2.5, "location": {"lat": 32.00299302840206, "lng": 119.6134389746498}, "feature": {"sight_features": "", "sight_content": ""}}, {"title": "胡氏宴913纪念馆朝阳餐馆专营店", "address": "江苏省镇江市丹阳市S241(丹金路)", "image": "", "rank": 44, "time": 2, "location": {"lat": 31.92174213401857, "lng": 119.60061747627539}, "feature": {"sight_features": "", "sight_content": ""}}, {"title": "彩虹岛儿童乐园", "address": "镇江市丹阳市皇塘镇皇家花园商业街40号", "image": "", "rank": 45, "time": 2.5, "location": {"lat": 31.79215203728249, "lng": 119.70573541379792}, "feature": {"sight_features": "", "sight_content": ""}}, {"title": "快乐岛亲子游乐园", "address": "南二环路899号", "image": "", "rank": 46, "time": 0.5, "location": {"lat": 31.982178440734614, "lng": 119.56704957980904}, "feature": {"sight_features": "", "sight_content": ""}}, {"title": "游乐新天地", "address": "镇江市丹阳市新民东路99号丹阳金鹰天地F6", "image": "", "rank": 47, "time": 2, "location": {"lat": 31.995662218654363, "lng": 119.5812544336349}, "feature": {"sight_features": "", "sight_content": ""}}, {"title": "龙王土地庙", "address": "司徒镇西环路好孩子幼儿园对面威尼斯直走200米", "image": "", "rank": 48, "time": 2, "location": {"lat": 31.99693718175679, "lng": 119.56476953579752}, "feature": {"sight_features": "", "sight_content": ""}}, {"title": "基督福音堂", "address": "沃得大道南200米", "image": "", "rank": 49, "time": 2, "location": {"lat": 32.11053713461557, "lng": 119.7193989864523}, "feature": {"sight_features": "", "sight_content": ""}}, {"title": "普慈寺", "address": "东环路东100米", "image": "", "rank": 50, "time": 2, "location": {"lat": 31.3224838958287, "lng": 120.65576336888692}, "feature": {"sight_features": "", "sight_content": ""}}, {"title": "慈航殿", "address": "季子南路与206县道交叉口西150米", "image": "", "rank": 51, "time": 2, "location": {"lat": 31.896405217147485, "lng": 119.45081962648399}, "feature": {"sight_features": "", "sight_content": ""}}, {"title": "七彩金童儿童乐园", "address": "横塘镇横陵路横塘大桥由东向西下桥左拐50米", "image": "", "rank": 52, "time": 2, "location": {"lat": 31.940822589543874, "lng": 119.60257830922055}, "feature": {"sight_features": "", "sight_content": ""}}, {"title": "禾福多广场", "address": "访南路西150米", "image": "", "rank": 53, "time": 2, "location": {"lat": 32.00328599180292, "lng": 119.74326741480179}, "feature": {"sight_features": "", "sight_content": ""}}, {"title": "洛嘉儿童主题乐园", "address": "金陵西路大亚科技集团有限公司隔壁", "image": "", "rank": 54, "time": 2, "location": {"lat": 32.00360288631203, "lng": 119.61632540901616}, "feature": {"sight_features": "", "sight_content": ""}}, {"title": "红果果乐园", "address": "导墅镇小杨树", "image": "", "rank": 55, "time": 2, "location": {"lat": 31.8310804804944, "lng": 119.68254226685285}, "feature": {"sight_features": "", "sight_content": ""}}, {"title": "金鼎盛世广场", "address": "丹桂路41号", "image": "", "rank": 56, "time": 2, "location": {"lat": 29.89751578160727, "lng": 121.61781164862397}, "feature": {"sight_features": "", "sight_content": ""}}, {"title": "访仙影剧院", "address": "访仙镇", "image": "", "rank": 57, "time": 2, "location": {"lat": 31.99371393611507, "lng": 119.73755680762397}, "feature": {"sight_features": "", "sight_content": ""}}, {"title": "港汇广场", "address": "镇江市丹阳市丹金路35号", "image": "", "rank": 58, "time": 2, "location": {"lat": 31.986054870768267, "lng": 119.58895527799211}, "feature": {"sight_features": "", "sight_content": ""}}, {"title": "篮球广场", "address": "里庄镇开发区", "image": "", "rank": 59, "time": 2, "location": {"lat": 31.810159903269344, "lng": 119.64630840983637}, "feature": {"sight_features": "", "sight_content": ""}}, {"title": "紫荆园度假村", "address": "白龙路附近", "image": "", "rank": 60, "time": 2, "location": {"lat": 31.723409603022827, "lng": 119.53164660598247}, "feature": {"sight_features": "", "sight_content": ""}}]}