{"cityName": "稻城", "days": 2, "cityImage": "", "spots": [{"title": "稻城亚丁", "address": "甘孜藏族自治州稻城县", "image": "", "rank": 1, "time": 4.5, "location": {"lat": 29.04312155812638, "lng": 100.30446155970226}, "feature": {"sight_features": "特色1 朝觐“仙乃日、央迈勇、夏诺多吉”三座神山 特色2 十大徒步线路之一 特色3 蓝色星球上的一片净土", "sight_content": "稻城亚丁景区位于四川甘孜州稻城县日瓦乡境内，属国家级自然保护区，省级风景名胜区，被誉为“香格里拉仙境””。亚丁景区属于高山峡谷类风景区，海拔2900米（贡嘎河口）-6032米（仙乃日峰），幅员面积1344平方公里，呈现出美丽的高山峡谷自然风光，是中国香格里拉生态旅游区的核心区，被誉为“香格里拉之魂”。\n主要景点有：\n海子山：海子山位于理塘与稻城亚丁两县之间，是四川省的省级自然保护区，区内大大小的花岗岩漂砾（砾石）及形态各异的冰蚀岩盆（湖泊）充斥了你的眼球。\n仙乃日：慈目注视脚下人间仙境，夏天雪线下瀑布成群连片，气势宏伟壮观，山脚下分布着由草地、森林、湖泊完美组合的景致，美不胜收。仙乃日是观音菩萨，藏语意为“观世间菩萨”，海拔6032米，是稻城三座神山的北峰。其状巍峨，象菩萨端坐在莲花台上，照片中有水的地方叫珍珠海，传说是仙女的梳妆镜。\n央迈勇：藏语意为：“文殊菩萨”为“三怙主”雪山的南峰，海拔高度为5958米，在佛教中排在《三怙主》雪山之首。文殊菩萨在佛教中是智慧的化身，雪峰像文殊师利手中的智慧之剑直指苍穹，冰晶玉洁的央迈勇傲然于天地之间。\n夏诺多吉：（意为金刚菩萨）海拔5958米，就似一位英俊刚烈、神采奕奕的少年。这三座雪山佛名三怙主雪山。在世界佛教二十四圣地中排名第十一位。\n\n\n珍珠海：严格意义上说珍珠海只能算是一个大一点的水潭，碧绿的水色在清晨天空的映射下发著幽幽的光芒，仿佛就是一块跌落在人间的深色翡翠。\n洛绒牛场的峰林：洛绒牛场峰林，为冈达概组大理石，遭受抬升剥蚀作用而成，该处有峰林怪石，高低错落，重峦叠嶂，鬼斧神工，奇巧天成。\n卓玛拉湖：卓玛拉措：意为“仙女、渡母”之意，“措”：湖泊、海子之意，所以卓玛拉措又叫渡母海，是仙乃日左边白渡母的魂湖，卓玛拉措海拔4100米，面积0．75公顷，美丽的卓玛拉措，像一颗镶嵌在莲花宝座上的绿宝石，碧波荡漾，水天一色。\n\n\n扎灌崩：“扎灌崩”(海拔3850米)藏语意为“大山崖的末端”，“扎灌”意为“山顶上的修行洞”，“崩”为尾巴处，意为山岩下的大坝。相传在该处山崖上——崖洞中有高僧修行，后就依该山洞修建了寺庙(扎灌寺)。\n亚丁峡谷：亚丁峡谷，北起康古，途经亚丁村，南至洛绒牛场，海拔2800一4200m峡谷最大深度1500m，谷长25km，沿途景观数不胜数。"}}, {"title": "牛奶海", "address": "甘孜藏族自治州稻城县亚丁景区内央迈勇神山山坳处", "image": "", "rank": 2, "time": 2.5, "location": {"lat": 28.461116280362088, "lng": 100.34633035332148}, "feature": {"sight_features": "特色1 坐在牛奶海边，看着碧蓝静谧的圣湖，心旷神怡。", "sight_content": "牛奶海，又叫洛绒措，位于稻城亚丁央迈勇神山脚下的山坳里，是一个形状如水滴的古冰川湖，因其湖边有一圈乳白色的钙质沉积，故名牛奶海。从洛绒牛场到牛奶海只能徒步或在牛场马帮处租马，由于其地理位置海拔较高，山路较为崎岖，对身体素质有一定要求，前往时需注意安全。"}}, {"title": "仙乃日", "address": "甘孜藏族自治州稻城县亚丁自然保护区内", "image": "", "rank": 3, "time": 3.0, "location": {"lat": 28.554335564795103, "lng": 100.33362612604067}, "feature": {"sight_features": "特色1 亚丁三怙主神山之一，风景绝美。", "sight_content": "仙乃日是亚丁三怙主神山之一，位于稻城县亚丁自然保护区内，是三怙主雪山的北峰，峰顶终年积雪不化。仙乃日周围则是高山湖泊、冰川和树林，组成了一幅美妙的风景，这里是摄影爱好者的天堂。游客可以在仙乃日的观景台上欣赏神山的巍峨，可以拍摄出如壁纸般的照片，美得让人窒息。"}}, {"title": "洛绒牛场", "address": "甘孜藏族自治州稻城县亚丁", "image": "", "rank": 4, "time": 3.0, "location": {"lat": 28.461116280362088, "lng": 100.34633035332148}, "feature": {"sight_features": "", "sight_content": "洛绒牛场是亚丁自然保护区知名景点之一，是附近藏民放牧的牧场。牛场周围是连绵的高山草甸，春夏时节草甸上野花盛开，漫山遍野，非常壮观。贡嘎河从牛场穿过，成群的牛羊在河边和山坡上悠闲的吃草，一派和谐景象。"}}, {"title": "五色海", "address": "甘孜藏族自治州康定县南面（位于仙乃日与央迈勇之间）", "image": "", "rank": 5, "time": 3.5, "location": {"lat": 29.9579893491674, "lng": 101.75533059715232}, "feature": {"sight_features": "", "sight_content": ""}}, {"title": "央迈勇", "address": "甘孜藏族自治州稻城县日瓦乡亚丁", "image": "", "rank": 6, "time": 3.0, "location": {"lat": 28.565175906951705, "lng": 100.35483170646161}, "feature": {"sight_features": "", "sight_content": "央迈勇藏语意为：文殊菩萨，位于亚丁自然保护区内，海拔5958米，为亚丁三怙主雪山的南峰，位列三怙主之首。"}}, {"title": "冲古寺", "address": "甘孜州稻城县仙乃日雪峰脚下,亚丁自然保护区内", "image": "", "rank": 7, "time": 1.5, "location": {"lat": 28.554335564795103, "lng": 100.33362612604067}, "feature": {"sight_features": "", "sight_content": ""}}, {"title": "亚丁村", "address": "甘孜藏族自治州稻城县216省道附近稻城亚丁风景区内", "image": "", "rank": 8, "time": 3.0, "location": {"lat": 28.85559987445039, "lng": 100.27124069483489}, "feature": {"sight_features": "特色1 景色绝美，宛若人间仙境，是绝佳的摄影取景地。", "sight_content": "亚丁村，位于稻城亚丁景区内，很多游玩亚丁景区的游客会选择在这里住宿。亚丁村周边景色优美，原始自然的风光让很多游客喜欢上这里，在村里散步的时候，你就能看到远方的雪山，还有山下的草原和牛羊。这里也是摄影爱好者喜爱的地方，能够拍出不少好照片。"}}, {"title": "海子山", "address": "甘孜藏族自治州稻城县境内，理塘与稻城两县之间", "image": "", "rank": 9, "time": 2.0, "location": {"lat": 29.04312155812638, "lng": 100.30446155970226}, "feature": {"sight_features": "", "sight_content": ""}}, {"title": "珍珠海", "address": "甘孜藏族自治州稻城县亚丁景区内", "image": "", "rank": 10, "time": 2.0, "location": {"lat": 28.461116280362088, "lng": 100.34633035332148}, "feature": {"sight_features": "", "sight_content": ""}}, {"title": "夏诺多吉", "address": "甘孜藏族自治州稻城县境内", "image": "", "rank": 11, "time": 2, "location": {"lat": 29.04312155812638, "lng": 100.30446155970226}, "feature": {"sight_features": "", "sight_content": "夏诺多吉位于稻城县与凉山州木里县的交界处，是三怙主雪山之一。黄昏是一个适合观景的时候，夕阳从西边斜斜地照在雪峰上，整个雪峰沐浴在柔和的阳光中，裸露的岩石和冰雪体被渲染得极为艳丽。"}}, {"title": "傍河与色拉", "address": "甘孜藏族自治州稻城县去往亚丁的公路两边", "image": "", "rank": 12, "time": 2.5, "location": {"lat": 28.461116280362088, "lng": 100.34633035332148}, "feature": {"sight_features": "", "sight_content": ""}}, {"title": "卡斯地狱谷", "address": "甘孜藏族自治州稻城县各卡乡卡斯村", "image": "", "rank": 13, "time": 6.0, "location": {"lat": 28.400425471732643, "lng": 100.2505035259406}, "feature": {"sight_features": "", "sight_content": ""}}, {"title": "红草地", "address": "甘孜州稻城县桑堆乡，距离县城28公里，216省道旁", "image": "", "rank": 14, "time": 1.0, "location": {"lat": 28.85559987445039, "lng": 100.27124069483489}, "feature": {"sight_features": "", "sight_content": ""}}, {"title": "贡嘎郎吉岭寺", "address": "甘孜藏族自治州稻城县贡嘎山乡", "image": "", "rank": 15, "time": 2.0, "location": {"lat": 29.04312155812638, "lng": 100.30446155970226}, "feature": {"sight_features": "", "sight_content": ""}}, {"title": "三神山", "address": "甘孜藏族自治州稻城县", "image": "", "rank": 16, "time": 3.0, "location": {"lat": 29.04312155812638, "lng": 100.30446155970226}, "feature": {"sight_features": "", "sight_content": ""}}, {"title": "扎灌崩", "address": "甘孜藏族自治州稻城县香格里拉镇稻城亚丁景区内", "image": "", "rank": 17, "time": 1.5, "location": {"lat": 29.043266104185587, "lng": 100.30790988506227}, "feature": {"sight_features": "", "sight_content": ""}}, {"title": "冲古草坪", "address": "甘孜藏族自治州稻城县稻城景区", "image": "", "rank": 18, "time": 0.4, "location": {"lat": 29.04312155812638, "lng": 100.30446155970226}, "feature": {"sight_features": "", "sight_content": ""}}, {"title": "俄初山", "address": "甘孜藏族自治州稻城县日瓦乡境内，亚丁景区以北，距香格里拉乡25公里。", "image": "", "rank": 19, "time": 3.0, "location": {"lat": 28.565175906951705, "lng": 100.35483170646161}, "feature": {"sight_features": "", "sight_content": ""}}, {"title": "兔子山", "address": "甘孜藏族自治州稻城县境内海子山北部", "image": "", "rank": 20, "time": 1.5, "location": {"lat": 29.15044721173502, "lng": 100.44664840192858}, "feature": {"sight_features": "", "sight_content": ""}}, {"title": "稻城白塔", "address": "甘孜藏族自治州稻城县稻城大桥桥头", "image": "", "rank": 21, "time": 0.25, "location": {"lat": 29.05173955880516, "lng": 100.30280723668241}, "feature": {"sight_features": "", "sight_content": ""}}, {"title": "桑堆小镇", "address": "甘孜藏族自治州稻城县桑堆乡", "image": "", "rank": 22, "time": 2.5, "location": {"lat": 29.19712149329564, "lng": 100.115504539928}, "feature": {"sight_features": "", "sight_content": ""}}, {"title": "稻城县城", "address": "四川省甘孜藏族自治州稻城县", "image": "", "rank": 23, "time": 4.5, "location": {"lat": 29.04312155812638, "lng": 100.30446155970226}, "feature": {"sight_features": "", "sight_content": ""}}, {"title": "奔波寺（蚌普寺）", "address": "甘孜藏族自治州稻城县蚌普寺", "image": "", "rank": 24, "time": null, "location": {"lat": 29.223973932022552, "lng": 100.10928330805288}, "feature": {"sight_features": "", "sight_content": ""}}, {"title": "热乌寺", "address": "甘孜藏族自治州稻城县波瓦山色拉乡境内", "image": "", "rank": 25, "time": 1.0, "location": {"lat": 28.890517538676338, "lng": 100.30311198682656}, "feature": {"sight_features": "", "sight_content": ""}}, {"title": "波瓦山", "address": "甘孜藏族自治州稻城县色拉乡境内", "image": "", "rank": 26, "time": 1.5, "location": {"lat": 28.990134177605196, "lng": 100.25084482903425}, "feature": {"sight_features": "", "sight_content": ""}}, {"title": "茹布查卡温泉", "address": "甘孜藏族自治州稻城贡巴山北麓", "image": "", "rank": 27, "time": 2, "location": {"lat": 30.05527884351838, "lng": 101.96854674579022}, "feature": {"sight_features": "", "sight_content": ""}}, {"title": "兴伊错", "address": "甘孜藏族自治州稻城县海子山", "image": "", "rank": 28, "time": 1.5, "location": {"lat": 29.15044721173502, "lng": 100.44664840192858}, "feature": {"sight_features": "", "sight_content": ""}}, {"title": "念青贡嘎日松贡布", "address": "甘孜藏族自治州稻城县稻城亚丁景区内", "image": "", "rank": 29, "time": 0.5, "location": {"lat": 29.043266104185587, "lng": 100.30790988506227}, "feature": {"sight_features": "", "sight_content": ""}}, {"title": "赤土河谷", "address": "甘孜藏族自治州稻城县境内", "image": "", "rank": 30, "time": 12.0, "location": {"lat": 29.04312155812638, "lng": 100.30446155970226}, "feature": {"sight_features": "", "sight_content": ""}}, {"title": "雄登寺", "address": "甘孜州藏族自治州稻城县县城10公里处的茹布乡境内", "image": "", "rank": 31, "time": 1.0, "location": {"lat": 29.050646365082507, "lng": 100.31587713628873}, "feature": {"sight_features": "", "sight_content": ""}}, {"title": "著杰寺（直共寺）", "address": "甘孜藏族自治州稻城县桑堆乡内", "image": "", "rank": 32, "time": 2.0, "location": {"lat": 29.19712149329564, "lng": 100.115504539928}, "feature": {"sight_features": "", "sight_content": ""}}, {"title": "邦普寺", "address": "甘孜藏族自治州稻城县桑堆乡", "image": "", "rank": 33, "time": 0.75, "location": {"lat": 29.19712149329564, "lng": 100.115504539928}, "feature": {"sight_features": "", "sight_content": ""}}, {"title": "万亩杨林", "address": "甘孜藏族自治州稻城县境内", "image": "", "rank": 34, "time": 1.5, "location": {"lat": 29.04312155812638, "lng": 100.30446155970226}, "feature": {"sight_features": "", "sight_content": ""}}, {"title": "俄初街", "address": "甘孜藏族自治州稻城县", "image": "", "rank": 35, "time": 1.5, "location": {"lat": 29.04312155812638, "lng": 100.30446155970226}, "feature": {"sight_features": "", "sight_content": ""}}, {"title": "仁村", "address": "甘孜藏族自治州稻城县仁村", "image": "", "rank": 36, "time": null, "location": {"lat": 28.54874116529291, "lng": 100.32276063042627}, "feature": {"sight_features": "", "sight_content": ""}}, {"title": "青蛙海", "address": "甘孜藏族自治州稻城县香格里拉镇亚丁景区内", "image": "", "rank": 37, "time": 3.5, "location": {"lat": 28.461116280362088, "lng": 100.34633035332148}, "feature": {"sight_features": "", "sight_content": ""}}, {"title": "石河公园", "address": "甘孜藏族自治州稻城县境内，海子山附近", "image": "", "rank": 38, "time": 0.25, "location": {"lat": 29.15044721173502, "lng": 100.44664840192858}, "feature": {"sight_features": "", "sight_content": ""}}, {"title": "蒙自大峡谷", "address": "甘孜藏族自治州稻城县日瓦乡与蒙自乡之间", "image": "", "rank": 39, "time": 3.5, "location": {"lat": 28.565175906951705, "lng": 100.35483170646161}, "feature": {"sight_features": "", "sight_content": ""}}, {"title": "磨房沟", "address": "甘孜藏族自治州稻城县境内", "image": "", "rank": 40, "time": 1.5, "location": {"lat": 29.04312155812638, "lng": 100.30446155970226}, "feature": {"sight_features": "", "sight_content": ""}}, {"title": "扎郎寺", "address": "甘孜藏族自治州稻城县傍河乡西北", "image": "", "rank": 41, "time": 1.0, "location": {"lat": 29.035015354540505, "lng": 100.24893232312957}, "feature": {"sight_features": "", "sight_content": ""}}, {"title": "牛朗神山", "address": "甘孜藏族自治州稻城县叶尔红村背后", "image": "", "rank": 42, "time": 2.5, "location": {"lat": 29.04312155812638, "lng": 100.30446155970226}, "feature": {"sight_features": "", "sight_content": ""}}, {"title": "龙古黑海", "address": "甘孜藏族自治州稻城县县城7公里的北山坳之中", "image": "", "rank": 43, "time": 1.5, "location": {"lat": 29.04312155812638, "lng": 100.30446155970226}, "feature": {"sight_features": "", "sight_content": ""}}, {"title": "勒西错", "address": "甘孜藏族自治州稻城县亚丁风景区", "image": "", "rank": 44, "time": 1.0, "location": {"lat": 28.453276131729776, "lng": 100.35757225601225}, "feature": {"sight_features": "", "sight_content": ""}}, {"title": "叶尔红村", "address": "甘孜藏族自治州稻城县叶尔红村", "image": "", "rank": 45, "time": 1.0, "location": {"lat": 29.04312155812638, "lng": 100.30446155970226}, "feature": {"sight_features": "", "sight_content": ""}}, {"title": "圣水门", "address": "甘孜藏族自治州稻城县香格里拉镇亚丁景区内", "image": "", "rank": 46, "time": 2, "location": {"lat": 28.461116280362088, "lng": 100.34633035332148}, "feature": {"sight_features": "", "sight_content": ""}}, {"title": "稻城亚丁温泉", "address": "甘孜州稻城县贡巴路2段36号稻城温泉大酒店", "image": "", "rank": 47, "time": 4.5, "location": {"lat": 29.046245317891334, "lng": 100.31462894078304}, "feature": {"sight_features": "", "sight_content": ""}}, {"title": "红哈达藏家乐", "address": "甘孜藏族自治州稻城县香格里拉镇洛克小道（稻城亚丁天堂酒店附近）", "image": "", "rank": 48, "time": 2, "location": {"lat": 28.566198710807292, "lng": 100.35467201828439}, "feature": {"sight_features": "", "sight_content": ""}}, {"title": "知火扎朗", "address": "稻城县香格里拉乡至亚丁村的马道上", "image": "", "rank": 49, "time": 1.0, "location": {"lat": 28.540074442761803, "lng": 100.32471586782574}, "feature": {"sight_features": "", "sight_content": ""}}, {"title": "荏苒马场", "address": "金珠镇平落村4号(傍河乡傍河桥右拐第四栋老藏房)", "image": "", "rank": 50, "time": null, "location": {"lat": 29.035015354540505, "lng": 100.24893232312957}, "feature": {"sight_features": "", "sight_content": ""}}, {"title": "华美达康巴服饰锅庄晚会", "address": "稻城县香格里拉镇华美达安可酒店康巴服饰锅庄晚会", "image": "", "rank": 51, "time": 2, "location": {"lat": 28.566198710807292, "lng": 100.35467201828439}, "feature": {"sight_features": "", "sight_content": ""}}, {"title": "天上亚丁演艺中心", "address": "甘孜州稻城县香格里拉镇日松贡布酒店", "image": "", "rank": 52, "time": 2, "location": {"lat": 29.04312155812638, "lng": 100.30446155970226}, "feature": {"sight_features": "", "sight_content": ""}}, {"title": "色拉乡", "address": "稻城县城西南8公里。东邻金珠镇，南连赤土、巨龙乡，西依木拉乡，北接傍河乡", "image": "", "rank": 53, "time": 2, "location": {"lat": 29.035015354540505, "lng": 100.24893232312957}, "feature": {"sight_features": "", "sight_content": ""}}, {"title": "俄洛", "address": "四川省甘孜藏族自治州稻城县俄洛", "image": "", "rank": 54, "time": 2, "location": {"lat": 29.013942395626163, "lng": 100.27333248455321}, "feature": {"sight_features": "", "sight_content": ""}}, {"title": "红军桥", "address": "四川省甘孜藏族自治州雅江县", "image": "", "rank": 55, "time": 0.25, "location": {"lat": 30.037568967863947, "lng": 101.02050035294431}, "feature": {"sight_features": "", "sight_content": ""}}, {"title": "十六尊者", "address": "甘孜藏族自治州稻城县香格里拉镇亚丁景区内", "image": "", "rank": 56, "time": 2.5, "location": {"lat": 28.461116280362088, "lng": 100.34633035332148}, "feature": {"sight_features": "", "sight_content": ""}}, {"title": "骑单车游稻城", "address": "甘孜藏族自治州稻城县", "image": "", "rank": 57, "time": 4.5, "location": {"lat": 29.04312155812638, "lng": 100.30446155970226}, "feature": {"sight_features": "", "sight_content": ""}}, {"title": "杜鹃谷温泉山庄", "address": "甘孜州稻城县赤土乡216省道(杜鹃山景观景台南1200米）", "image": "", "rank": 58, "time": 2, "location": {"lat": 28.67860106375247, "lng": 100.24821433987466}, "feature": {"sight_features": "", "sight_content": ""}}, {"title": "亚丁·三怙主大型歌舞剧", "address": "甘孜藏族自治州稻城县香格里拉镇俄初河路40号", "image": "", "rank": 59, "time": 2, "location": {"lat": 28.56000599084188, "lng": 100.34520097219402}, "feature": {"sight_features": "", "sight_content": ""}}, {"title": "亚丁徒步小转山", "address": "甘孜藏族自治州稻城县日瓦乡，亚丁自然保护区内", "image": "", "rank": 60, "time": 3.0, "location": {"lat": 28.554335564795103, "lng": 100.33362612604067}, "feature": {"sight_features": "", "sight_content": ""}}]}