{"cityName": "道县", "days": 2, "cityImage": "", "spots": [{"title": "周敦颐广场", "address": "滨河路197号", "image": "", "rank": 1, "time": 2, "location": {"lat": 33.477576417299105, "lng": 119.81225015350711}, "feature": {"sight_features": "", "sight_content": ""}}, {"title": "百年老宅", "address": "湖南省道县乐福堂乡龙村 425300", "image": "", "rank": 2, "time": 2, "location": {"lat": 25.674477365243675, "lng": 111.55220288683803}, "feature": {"sight_features": "", "sight_content": ""}}, {"title": "道县月岩", "address": "湖南省道县西部 425300", "image": "", "rank": 3, "time": 2.5, "location": {"lat": 25.53252996282964, "lng": 107.78691104666623}, "feature": {"sight_features": "", "sight_content": ""}}, {"title": "道县窑址", "address": "湖南省道县青口乡青田村和庙头村 425308", "image": "", "rank": 4, "time": 1.0, "location": {"lat": 25.609017876492608, "lng": 111.7138147170498}, "feature": {"sight_features": "", "sight_content": ""}}, {"title": "圣脉泉", "address": "湖南省道县清塘镇楼田村 425305", "image": "", "rank": 5, "time": 2, "location": {"lat": 25.513458144524648, "lng": 111.51707489062784}, "feature": {"sight_features": "", "sight_content": ""}}, {"title": "五龙图", "address": "湖南省道县濂溪街 425300", "image": "", "rank": 6, "time": 2, "location": {"lat": 25.53252996282964, "lng": 111.60740437934045}, "feature": {"sight_features": "", "sight_content": ""}}, {"title": "湘源瀑布", "address": "湖南省道县上关乡湘源村 425300", "image": "", "rank": 7, "time": 2, "location": {"lat": 25.527803402666773, "lng": 111.61419210243267}, "feature": {"sight_features": "", "sight_content": ""}}, {"title": "湘源温泉", "address": "湖南省道县上关乡 425300", "image": "", "rank": 8, "time": 2, "location": {"lat": 25.520416208088427, "lng": 111.60991162457732}, "feature": {"sight_features": "", "sight_content": ""}}, {"title": "永安关古战场", "address": "湖南省道县仙子脚乡 425300", "image": "", "rank": 9, "time": 2.5, "location": {"lat": 25.53252996282964, "lng": 111.60740437934045}, "feature": {"sight_features": "", "sight_content": ""}}, {"title": "状元石", "address": "湖南省道县濂溪河畔 425300", "image": "", "rank": 10, "time": 2, "location": {"lat": 25.53252996282964, "lng": 111.60740437934045}, "feature": {"sight_features": "", "sight_content": ""}}, {"title": "红军墙", "address": "湖南省永州市道县潇水中路", "image": "", "rank": 11, "time": 2, "location": {"lat": 25.520858129557357, "lng": 111.59920538775013}, "feature": {"sight_features": "", "sight_content": ""}}, {"title": "中郎岩", "address": "湖南省道县乐福堂乡富头村 425300", "image": "", "rank": 12, "time": 2, "location": {"lat": 25.65709757192472, "lng": 111.50012253976122}, "feature": {"sight_features": "", "sight_content": ""}}, {"title": "基督教福音堂", "address": "湖南省永州市道县S325", "image": "", "rank": 13, "time": 2, "location": {"lat": 25.53252996282964, "lng": 111.60740437934045}, "feature": {"sight_features": "", "sight_content": ""}}, {"title": "鬼崽岭祭祀遗址", "address": "湖南省永州市道县", "image": "", "rank": 14, "time": 2, "location": {"lat": 25.53252996282964, "lng": 111.60740437934045}, "feature": {"sight_features": "", "sight_content": ""}}, {"title": "羿源水上乐园", "address": "湖南省永州市道县道州南路", "image": "", "rank": 15, "time": 2, "location": {"lat": 25.498630425758, "lng": 111.59630166280027}, "feature": {"sight_features": "", "sight_content": ""}}, {"title": "道县东门基督教堂", "address": "湖南省永州市道县东洲北路", "image": "", "rank": 16, "time": 2, "location": {"lat": 25.53252996282964, "lng": 111.60740437934045}, "feature": {"sight_features": "", "sight_content": ""}}, {"title": "道州欢乐世界水上乐园", "address": "永州市道县祥林铺镇207国道旁", "image": "", "rank": 17, "time": 2, "location": {"lat": 25.405151619041316, "lng": 111.57816893669732}, "feature": {"sight_features": "", "sight_content": "道州欢乐世界，距永州市、郴州市、桂林市、贺州市车程约两小时，地处蓝山、新田、宁远、江永、江华半小时生活圈内。无论省内游客，还是两广游客，都可通过高速方便迅捷抵达。占地200余亩，永州超豪华版户外嬉水欢乐世界！海滨沙滩+人工造浪池！畅享海滩风情！取深层无污染地下水+国际一流水处理设备，水质干净、卫生、安全！"}}, {"title": "龙道亲子儿童乐园", "address": "潇水中路金龙商业广场三楼(米萝咖啡隔壁)", "image": "", "rank": 18, "time": 2, "location": {"lat": 25.52062616901425, "lng": 111.5995221078152}, "feature": {"sight_features": "", "sight_content": ""}}, {"title": "道县图书馆", "address": "文化路16号", "image": "", "rank": 19, "time": 1.5, "location": {"lat": 25.53252996282964, "lng": 111.60740437934045}, "feature": {"sight_features": "", "sight_content": ""}}, {"title": "道县吉鼎原生态休闲山庄", "address": "乐福堂乡大莲塘村", "image": "", "rank": 20, "time": 2, "location": {"lat": 25.644750177235203, "lng": 111.4852871994384}, "feature": {"sight_features": "", "sight_content": ""}}, {"title": "鑫成休闲山庄", "address": "蚣坝镇新塘069县道西", "image": "", "rank": 21, "time": 2, "location": {"lat": 25.405494042476235, "lng": 111.67508193850726}, "feature": {"sight_features": "", "sight_content": ""}}, {"title": "道山", "address": "湖南省道县清塘镇楼田村", "image": "", "rank": 22, "time": 1.5, "location": {"lat": 25.513458144524648, "lng": 111.51707489062784}, "feature": {"sight_features": "", "sight_content": ""}}, {"title": "都庞岭国家级自然保护区", "address": "湖南省道县清塘镇", "image": "", "rank": 23, "time": 2, "location": {"lat": 25.509464193276475, "lng": 111.46904979465576}, "feature": {"sight_features": "", "sight_content": ""}}, {"title": "千家洞自然保护区", "address": "湖南省道县道县西北部", "image": "", "rank": 24, "time": 2, "location": {"lat": 25.53252996282964, "lng": 111.60740437934045}, "feature": {"sight_features": "", "sight_content": ""}}, {"title": "两河口", "address": "湖南省道县祥霖铺镇分江头村", "image": "", "rank": 25, "time": 2, "location": {"lat": 25.44072336457065, "lng": 111.60699808563979}, "feature": {"sight_features": "", "sight_content": ""}}, {"title": "寒亭,暖谷", "address": "湖南省江永县沱江镇东部", "image": "", "rank": 26, "time": 2, "location": {"lat": 25.221556750836044, "lng": 111.59958911421978}, "feature": {"sight_features": "", "sight_content": ""}}, {"title": "周敦颐故乡", "address": "湖南省道县清塘镇楼田村", "image": "", "rank": 27, "time": 2, "location": {"lat": 25.513458144524648, "lng": 111.51707489062784}, "feature": {"sight_features": "", "sight_content": ""}}, {"title": "云溪水库", "address": "湖南省道县清塘镇", "image": "", "rank": 28, "time": 2, "location": {"lat": 25.509464193276475, "lng": 111.46904979465576}, "feature": {"sight_features": "", "sight_content": ""}}, {"title": "上仂田", "address": "永州市-道县", "image": "", "rank": 29, "time": 2, "location": {"lat": 25.53252996282964, "lng": 111.60740437934045}, "feature": {"sight_features": "", "sight_content": ""}}, {"title": "倒水洞村", "address": "永州市-道县", "image": "", "rank": 30, "time": 2, "location": {"lat": 25.53252996282964, "lng": 111.60740437934045}, "feature": {"sight_features": "", "sight_content": ""}}]}