{"cityName": "大石桥", "days": 2, "cityImage": "", "spots": [{"title": "蟠龙山", "address": "营口市大石桥市青花街道哈大北路56号", "image": "", "rank": 1, "time": 1.0, "location": {"lat": 40.664034071439474, "lng": 122.52716365408152}, "feature": {"sight_features": "", "sight_content": ""}}, {"title": "大石桥迷镇山", "address": "营口市大石桥市金桥街道新起点双语幼儿园(金龙路)", "image": "", "rank": 2, "time": 2, "location": {"lat": 40.629567648495694, "lng": 122.48597206323855}, "feature": {"sight_features": "", "sight_content": ""}}, {"title": "清水湾温泉", "address": "营口市大石桥市三山路检车线北200米", "image": "", "rank": 3, "time": 2, "location": {"lat": 40.65080216481545, "lng": 122.51537953139649}, "feature": {"sight_features": "", "sight_content": ""}}, {"title": "铁岭蟠龙山风景区", "address": "蟠龙路", "image": "", "rank": 4, "time": 1.0, "location": {"lat": 31.06709182459055, "lng": 121.30573516556503}, "feature": {"sight_features": "", "sight_content": ""}}, {"title": "恩典堂", "address": "上白线北50米", "image": "", "rank": 5, "time": 2, "location": {"lat": 25.50036733157593, "lng": 110.70558211767363}, "feature": {"sight_features": "", "sight_content": ""}}, {"title": "振兴园", "address": "营口沿海银行大石桥支行", "image": "", "rank": 6, "time": 2, "location": {"lat": 40.66338774072199, "lng": 122.25566898811795}, "feature": {"sight_features": "", "sight_content": ""}}, {"title": "青花基督教会", "address": "哈大北路13号附近", "image": "", "rank": 7, "time": 2, "location": {"lat": 40.65441607636696, "lng": 122.52122785958865}, "feature": {"sight_features": "", "sight_content": ""}}, {"title": "大石桥市书画院南楼分院", "address": "镁都大街与321省道交叉口西100米", "image": "", "rank": 8, "time": 2, "location": {"lat": 40.616929522817834, "lng": 122.52476791182373}, "feature": {"sight_features": "", "sight_content": ""}}, {"title": "礼拜堂", "address": "营西线附近", "image": "", "rank": 9, "time": 2, "location": {"lat": 40.76242919047028, "lng": 122.28869479403956}, "feature": {"sight_features": "", "sight_content": ""}}, {"title": "关帝庙", "address": "营口市大石桥市", "image": "", "rank": 10, "time": 0.5, "location": {"lat": 40.65080216481545, "lng": 122.51537953139649}, "feature": {"sight_features": "", "sight_content": ""}}, {"title": "蟠龙山广场", "address": "哈大中路与人民大街路口北侧", "image": "", "rank": 11, "time": 2, "location": {"lat": 40.63618536461057, "lng": 122.51352514765426}, "feature": {"sight_features": "", "sight_content": ""}}, {"title": "金佰利音乐厅", "address": "辽宁省营口市大石桥市钢都街道红旗东路富丽花园", "image": "", "rank": 12, "time": 1.0, "location": {"lat": 40.63045849899263, "lng": 122.53503063905468}, "feature": {"sight_features": "", "sight_content": ""}}, {"title": "大石桥市水源村休闲广场", "address": "府前大街", "image": "", "rank": 13, "time": 2, "location": {"lat": 38.11581168927372, "lng": 116.32068515576768}, "feature": {"sight_features": "", "sight_content": ""}}, {"title": "大东北二人转", "address": "蟠龙山金融街门市", "image": "", "rank": 14, "time": 2, "location": {"lat": 39.94926736802042, "lng": 116.15760786133424}, "feature": {"sight_features": "", "sight_content": ""}}, {"title": "书画展览室", "address": "辽宁省大石桥市新兴社区居委会南侧", "image": "", "rank": 15, "time": 2, "location": {"lat": 40.78120410218699, "lng": 122.38935930564041}, "feature": {"sight_features": "", "sight_content": ""}}, {"title": "海云寺", "address": "辽宁省营口市大石桥市金龙路", "image": "", "rank": 16, "time": 2, "location": {"lat": 40.62820870472019, "lng": 122.48087695882667}, "feature": {"sight_features": "", "sight_content": ""}}, {"title": "南楼相馆", "address": "辽宁省营口市大石桥市南楼街道祥和家园附近", "image": "", "rank": 17, "time": 2, "location": {"lat": 40.61266963964728, "lng": 122.57977600904944}, "feature": {"sight_features": "", "sight_content": ""}}, {"title": "乡野音乐厅", "address": "南楼大街繁华巷附近", "image": "", "rank": 18, "time": 2, "location": {"lat": 33.26334555664671, "lng": 120.05361286872743}, "feature": {"sight_features": "", "sight_content": ""}}, {"title": "宝贝嘉园儿童乐园", "address": "中心大市场二楼亿万佳商场", "image": "", "rank": 19, "time": 2, "location": {"lat": 43.619178537425675, "lng": 122.28506639435587}, "feature": {"sight_features": "", "sight_content": ""}}, {"title": "红缘音乐厅", "address": "金牡丹烧烤城附近", "image": "", "rank": 20, "time": 2, "location": {"lat": 40.64064327978674, "lng": 122.52636518885102}, "feature": {"sight_features": "", "sight_content": ""}}, {"title": "天主堂(石桥大街店)", "address": "金桥大街2号附近", "image": "", "rank": 21, "time": 2, "location": {"lat": 40.63924058239641, "lng": 122.50002888928422}, "feature": {"sight_features": "", "sight_content": ""}}, {"title": "西大庙(祥云寺 )", "address": "辽宁省营口市大石桥市建一镇岫水线祥云寺附近", "image": "", "rank": 22, "time": 2, "location": {"lat": 40.48472660331498, "lng": 122.86019370075726}, "feature": {"sight_features": "", "sight_content": ""}}, {"title": "大石桥市图书馆", "address": "胜利大街34号", "image": "", "rank": 23, "time": 1.5, "location": {"lat": 36.66063010298573, "lng": 117.01152960072592}, "feature": {"sight_features": "", "sight_content": ""}}, {"title": "佛教华藏图书馆", "address": "工农路", "image": "", "rank": 24, "time": 2, "location": {"lat": 38.42216268398484, "lng": 115.32654473093268}, "feature": {"sight_features": "", "sight_content": ""}}, {"title": "革命历史纪念馆", "address": "哈大北路13号", "image": "", "rank": 25, "time": 2, "location": {"lat": 40.65441607636696, "lng": 122.52122785958865}, "feature": {"sight_features": "", "sight_content": ""}}, {"title": "虎石沟万人坑纪念馆", "address": "高平线", "image": "", "rank": 26, "time": 2, "location": {"lat": 40.66500324584996, "lng": 122.61797350621579}, "feature": {"sight_features": "", "sight_content": ""}}, {"title": "金牛山古人类遗址陈列馆", "address": "永安镇西田屯村", "image": "", "rank": 27, "time": 2, "location": {"lat": 40.58080618429109, "lng": 122.46238225961417}, "feature": {"sight_features": "", "sight_content": ""}}, {"title": "大石桥滑雪场", "address": "S321", "image": "", "rank": 28, "time": 2, "location": {"lat": 40.1761483664384, "lng": 116.5081028446723}, "feature": {"sight_features": "", "sight_content": ""}}, {"title": "大石桥市画院", "address": "哈大中路24号", "image": "", "rank": 29, "time": 1.0, "location": {"lat": 40.64159818346535, "lng": 122.51879614657314}, "feature": {"sight_features": "", "sight_content": ""}}, {"title": "太阳帆儿童图书馆", "address": "哈大中路东200米", "image": "", "rank": 30, "time": 2, "location": {"lat": 40.63618536461057, "lng": 122.51532175867422}, "feature": {"sight_features": "", "sight_content": ""}}, {"title": "绿源再生能源开发公司", "address": "金桥街道大石桥有色金属工业园(化工)", "image": "", "rank": 31, "time": 2, "location": {"lat": 40.63865099226475, "lng": 122.48146763781813}, "feature": {"sight_features": "", "sight_content": ""}}, {"title": "七星剧场", "address": "新开路繁荣大街", "image": "", "rank": 32, "time": 2, "location": {"lat": 38.04594324560478, "lng": 114.38088043499405}, "feature": {"sight_features": "", "sight_content": ""}}, {"title": "曲家沟农场", "address": "汤池镇321省道塔峪沟村", "image": "", "rank": 33, "time": 2, "location": {"lat": 40.52007156230887, "lng": 122.6798583998154}, "feature": {"sight_features": "", "sight_content": ""}}, {"title": "第九街区超级密室逃脱大石桥店", "address": "蟠龙金融街第九街区密室逃脱", "image": "", "rank": 34, "time": 2, "location": {"lat": 26.57594581026264, "lng": 106.70170432889509}, "feature": {"sight_features": "", "sight_content": ""}}, {"title": "营口金牛山", "address": "辽宁省大石桥市永安镇西田屯村", "image": "", "rank": 35, "time": 3.5, "location": {"lat": 40.58080618429109, "lng": 122.46238225961417}, "feature": {"sight_features": "", "sight_content": ""}}, {"title": "恒基金尊国际健身会馆", "address": "营口市-大石桥市-金域华庭小区西门", "image": "", "rank": 36, "time": 2, "location": {"lat": 40.639635491877875, "lng": 122.52658697060006}, "feature": {"sight_features": "", "sight_content": ""}}, {"title": "孟家油坊", "address": "营口市-大石桥市-钢都街道哈大中路万国大厦附近", "image": "", "rank": 37, "time": 2, "location": {"lat": 40.63618536461057, "lng": 122.51352514765426}, "feature": {"sight_features": "", "sight_content": ""}}, {"title": "东道沟", "address": "营口市-大石桥市", "image": "", "rank": 38, "time": 2, "location": {"lat": 40.65080216481545, "lng": 122.51537953139649}, "feature": {"sight_features": "", "sight_content": ""}}, {"title": "东道沟", "address": "营口市-大石桥市", "image": "", "rank": 39, "time": 2, "location": {"lat": 40.65080216481545, "lng": 122.51537953139649}, "feature": {"sight_features": "", "sight_content": ""}}]}