{"cityName": "大田", "days": "", "cityImage": "", "spots": [{"title": "象山", "address": "三明市大田县谢洋乡象山村", "image": "", "rank": 1, "time": 3.5, "location": {"lat": 25.58852216745236, "lng": 117.82187669053297}, "feature": {"sight_features": "", "sight_content": ""}}, {"title": "屏山生态茶园", "address": "三明市大田县724县道", "image": "", "rank": 2, "time": 2, "location": {"lat": 25.698932641878844, "lng": 117.85343999668406}, "feature": {"sight_features": "", "sight_content": ""}}, {"title": "建设镇建爱村图书室", "address": "306省道", "image": "", "rank": 3, "time": 2, "location": {"lat": 44.29269479672118, "lng": 120.43504383645545}, "feature": {"sight_features": "", "sight_content": ""}}, {"title": "腾宇游乐场", "address": "中山时代广场3楼", "image": "", "rank": 4, "time": 2, "location": {"lat": 38.930222257674856, "lng": 121.65679738301904}, "feature": {"sight_features": "", "sight_content": ""}}, {"title": "独爱我3D梦幻画展(凤祥店)", "address": "凤祥新天地3楼", "image": "", "rank": 5, "time": 2, "location": {"lat": 34.25967088270277, "lng": 108.950616889886}, "feature": {"sight_features": "", "sight_content": ""}}, {"title": "美地公园", "address": "福建省三明市大田县均溪镇大田县象山路87号", "image": "", "rank": 6, "time": 2, "location": {"lat": 25.697414650112396, "lng": 117.8692960826804}, "feature": {"sight_features": "", "sight_content": ""}}, {"title": "米奇熊亲子乐园", "address": "福建省三明市大田县建山路109号", "image": "", "rank": 7, "time": 2, "location": {"lat": 25.691383510361145, "lng": 117.85474460577576}, "feature": {"sight_features": "", "sight_content": ""}}, {"title": "大田县仙亭山龙兴殿", "address": "福建省三明市大田县均溪镇仙亭山龙兴殿", "image": "", "rank": 8, "time": 2, "location": {"lat": 25.7343960668517, "lng": 117.85624905011456}, "feature": {"sight_features": "", "sight_content": ""}}, {"title": "前坪蒋氏和廷祠堂", "address": "福建省三明市大田县前坪乡黎明村四组", "image": "", "rank": 9, "time": 2, "location": {"lat": 25.845428089273412, "lng": 117.87410751096913}, "feature": {"sight_features": "", "sight_content": ""}}, {"title": "大田栋仁灵相宫", "address": "福建省三明市大田县S306", "image": "", "rank": 10, "time": 2, "location": {"lat": 25.698932641878844, "lng": 117.85343999668406}, "feature": {"sight_features": "", "sight_content": ""}}, {"title": "贵竹林公园", "address": "福建省三明市大田县建设镇306省道西350米", "image": "", "rank": 11, "time": 2, "location": {"lat": 25.974940368068406, "lng": 117.78572231380336}, "feature": {"sight_features": "", "sight_content": ""}}, {"title": "仰斗宫", "address": "福建省三明市大田县兴屏街屏山乡政府南350米", "image": "", "rank": 12, "time": 2, "location": {"lat": 25.59498934633919, "lng": 117.90625617993948}, "feature": {"sight_features": "", "sight_content": ""}}, {"title": "太华影剧院", "address": "太华街大风车幼儿园附近", "image": "", "rank": 13, "time": 2, "location": {"lat": 25.819913272987385, "lng": 117.73042397408564}, "feature": {"sight_features": "", "sight_content": ""}}, {"title": "斯贝斯", "address": "建山路199号附近", "image": "", "rank": 14, "time": 2, "location": {"lat": 25.270555366417412, "lng": 110.29265961673414}, "feature": {"sight_features": "", "sight_content": ""}}, {"title": "牛振中泉州风味牛肉馆", "address": "前山路与银山南路交叉口东北50米", "image": "", "rank": 15, "time": 2, "location": {"lat": 25.697378901615853, "lng": 117.85282645402096}, "feature": {"sight_features": "", "sight_content": ""}}, {"title": "昊华白槿花生态园", "address": "太华镇小华村003号", "image": "", "rank": 16, "time": 2, "location": {"lat": 25.771222829853972, "lng": 117.71549614602415}, "feature": {"sight_features": "", "sight_content": ""}}, {"title": "芳联堡", "address": "福建省大田县许思坑村", "image": "", "rank": 17, "time": 2, "location": {"lat": 25.770386019386336, "lng": 117.87974436995762}, "feature": {"sight_features": "", "sight_content": ""}}, {"title": "安良堡", "address": "三明市大田县东坡村", "image": "", "rank": 18, "time": 2, "location": {"lat": 25.698932641878844, "lng": 117.85343999668406}, "feature": {"sight_features": "", "sight_content": ""}}]}