{"cityName": "大同", "days": "2", "cityImage": "", "spots": [{"title": "云冈石窟", "address": "大同市南郊区云冈镇", "image": "", "rank": 1, "time": 0.4, "location": {"lat": 40.10148490386132, "lng": 113.24080237317804}, "feature": {"sight_features": "特色1 中国三大石窟之一，雕刻融合了中西艺术风格。 特色2 与莫高窟、龙门石窟和麦积山石窟并称为中国四大石窟艺术宝库，2001年12月被联合国教科文组织批准列入“世界文化遗产”名录。 特色3 世界文化遗产，世界三大石雕艺术宝库，石窟依山开凿，规模恢弘、气势雄浑，公元5世纪中西文化融合的历史丰碑。", "sight_content": "云冈石窟位于中国山西省大同市城西约16公里的武州（周）山南麓、武州川的北岸，地理位置为东经113o20’，北纬40o04’。石窟依山开凿，规模恢弘、气势雄浑，东西绵延约1公里，窟区自东而西依自然山势分为东、中、西三区。现存主要洞窟45个，附属洞窟209个，雕刻面积达18000余平方米，造像最高为17米，最小为2厘米，佛龛约计1100多个，大小造像51000余尊。云冈石窟距今已有1500年的历史，是佛教艺术东传中国后，第一次由一个民族用一个朝代雕作而成皇家风范的佛教艺术宝库，是公元5世纪中西文化融合的历史丰碑。1961年3月被国务院公布为首批全国重点文物保护单位；2001年12月被联合国教科文组织批准列入“世界文化遗产”名录；2007年5月成为国家首批5A级旅游景区。\n云冈石窟原名武州（周）山石窟寺，明代改称云冈石窟。北魏地理学家郦道元《水经注·灅水》记载：“武州川水又东南流，水侧有石，祗洹舍并诸窟室，比丘尼所居也。其水又东转迳灵岩南，凿石开山，因岩结构，真容巨壮，世法所稀，山堂水殿，烟寺相望，林渊锦镜，缀目新眺”。作为北魏建都平城（今山西大同）时期的大型石窟寺文化遗存，是从北魏文成帝复法启开凿之始，到北魏正光年间终结，大致历经了近70年之久，石窟艺术内容丰富，雕饰精美，是当时统治北中国的北魏皇室集中全国技艺和人力、物力所雕凿，是由一代代、一批批的能工巧匠创造出的一座佛国圣殿，是新疆以东最早出现的大型石窟群，它以壮丽的典型皇家风范造像而异于其他早期石窟，展现的佛教文化艺术涉及到历史、建筑、音乐等多方面内容。它是东方石雕艺术的精魂，也是中西文化融合的典范，亦代表着公元5-6世纪佛教艺术的最高成就，在中国乃至世界艺术史上占有重要地位，与敦煌莫高窟、洛阳龙门石窟并称为中国三大石窟，亦与印度阿旃陀石窟（1983年入列世界遗产名录）、阿富汗巴米扬石窟(2001年3月12日被塔利班炸毁，2003年巴米扬遗址入列世界遗产名录，并称为世界三大石雕艺术宝库。\n\n第一窟、第二窟两窟为双窟，位于云冈石窟东端。一窟中央雕出两层方形塔柱，后壁立像为弥勒，四壁佛像大多风化剥蚀，南壁窟门两侧雕维摩、文殊，东壁后下部的佛本生故事浮雕保存较完整；二窟中央为一方形三层塔柱，每层四面刻出三间楼阁式佛龛，窟内壁面还雕出五层小塔，是研究北魏建筑的形象资料。\n第三窟，是云冈最大的石窟，前面断壁高约25米，传为昙曜译经楼，窟分前后室，前室上部中间凿出一个弥勒窟室，左右凿出一对三层方塔。后室南面西侧雕刻有面貌圆润、肌肉丰满、花冠精细、衣纹流畅的三尊造像，本尊坐佛高约10米，两菩萨立像各高6.2米。从这三像的风格和雕刻手法看，可能是初唐(公元七世纪)时雕刻的。\n第四窟，窟的中央雕一长方形立柱，南北两面各雕六佛像，东西各雕三佛像。南壁窟门上方有北魏正光纪年(公元520～525年)铭记，这是云冈石窟现存最晚的铭记。\n第五窟，位于云冈石窟中部，与六窟为一组双窟。窟分前后室，后室北壁主像为三世佛，中央坐像高17米，是云冈石窟最大的佛像。窟的四壁满雕佛龛、佛像。拱门两侧，刻有二佛对坐在菩提树已顶部浮雕飞天，线条优美。两窟窟前有五间四层楼阁，现是一个连接窟顶的两层方形塔柱，高约15米。塔柱下面叫层大龛，南面雕坐佛像，西面雕倚坐佛像，北面雕释迎多宝对坐像，东面雕交脚弥勒像。塔柱四面大龛两侧和窟东、南、西三壁以及明窗两侧，雕出33幅描写释迦牟尼从诞生到成道的佛传故事浮雕。此窟规模宏伟，雕饰富丽，技法精炼，是云冈石窟中最有代表性的一个。\n第七窟，窟前建有三层木构窟檐，窟内分前后两室。后室正壁上层刻有菩萨坐于狮子座上。东、西、南三面壁上，布满雕刻的佛龛造像，南壁门拱上的六个供养菩萨，形象优美逼真。窟顶浮雕飞天，生动活泼，各以莲花为中心， 盘旋飞舞，舞姿动人。\n第八窟，窟内两侧有五头六臂乘孔雀的鸠摩罗天，东侧刻有三头八臂骑牛的摩醯首罗天，这种雕像在云冈极为罕见。\n第九窟，分前后两室，前室门拱两柱为八角形，室壁上刻有佛龛、乐第9窟和第10窟伎、舞伎，造像生动，动感强。\n第十窟，与九窟同期开凿，分前后两室。前室有飞天，体态优美，比例协调。明窗上部，石雕群佛构图繁杂，玲珑精巧，引人注目。\n第十一窟，窟中共有直达窟顶的方形塔柱，四面雕有佛像。正面，菩萨像保存完好。窟周壁上佛龛上满刻造像和小佛。\n第十二窟，正壁上端刻有伎乐天人，手执弦管、打击乐器，神情迥异，形象生动。他们手中的排箫，箜篌等古典乐器十分珍贵，是研究我国音乐的重要资料。\n第十三窟，正中端座一尊交脚弥勒佛像，高12米多，左臂与腿之间雕有一托臂力士像，这是云冈石窟仅有的一例。南壁门拱上部的七佛雕像，雕饰精美，姿态飘逸。\n第十四窟，雕像多分化，西壁上部，尚存部分造像东侧存有方形佛柱。\n第十五窟，雕有一万余尊小佛坐像，人称万佛洞。\n第十六窟，第十六至二十窟，是云冈石窟最早开业凿的五个洞窟，通称“昙曜五窟。”十六窟为平面呈椭圆形。正中主像释迦像，高13.5米，立于莲花座上，周壁雕有千佛和佛龛。第十七窟，主像是三世佛，正中为交弥勒坐像，高15.6米。东、西两壁各雕龛，东为坐像，西为立像。明窗东侧的北魏太和十三年(公元489年)佛龛，是以后补刻的。\n第十八窟，正中立像高达15米多，右臂袒露，身披千佛袈裟，刻画细腻，生动感人。\n第十九窟，主像是三世像，窟中的释迦坐像，高16.8米，是云冈石窟中 昙曜五窟的第二大像。窟外东西凿出两个耳洞，各雕一身8米的坐像。\n第二十窟，窟前带大约在辽代以前已崩塌，造像完全露天。立像是三大佛，正中的释迦坐像，高13.7米，这尊佛像面部丰满，两肩宽厚，造型雄伟，气魄浑厚，为云冈石窟雕刻艺术的代表作。"}}, {"title": "悬空寺", "address": "大同市浑源县东南郊恒山脚下", "image": "", "rank": 2, "time": 3.0, "location": {"lat": 39.698952969845486, "lng": 113.70560028821707}, "feature": {"sight_features": "特色1 悬在峭壁上的千年古寺，走走寺内悬空的木栈道。 特色2 感受悬空寺神奇的建筑魅力", "sight_content": "悬空寺，又名玄空寺，位于山西浑源县，距大同市65公里，是国内现存的唯一的佛、道、儒三教合一的独特寺庙。悬空寺始建于1500多年前的北魏王朝后期，北魏太和十五年（公元491年），历代都对悬空寺做过修缮，北魏王朝将道家的道坛从平城，今大同南移到此，古代工匠根据道家“不闻鸡鸣犬吠之声”的要求建设了悬空寺。\n悬空寺修建在恒山金龙峡西侧翠屏峰的悬崖峭壁间，面朝恒山、背倚翠屏、上载危岩、下临深谷、楼阁悬空、结构巧奇。悬空寺共有殿阁四十间，利用力学原理半插飞梁为基，巧借岩石暗托，梁柱上下一体，廊栏左右相连，曲折出奇，虚实相生。寺内有铜、铁、石、泥佛像八十多尊，寺下岩石上“壮观”二字，是唐代诗仙李白的墨宝。古人云：“蜃楼疑海上，鸟道没云中。”明代大旅行家徐霞客叹其为“天下巨观”。\n悬空寺发展了我国的建筑传统和建筑风格，整个寺院，上载危崖，下临深谷，背岩依龛，寺门向南，以西为正。全寺为木质框架式结构，依照力学原理，半插横梁为基，巧借岩石暗托，梁柱上下一体，廊栏左右紧联。其建筑特色可以概括为“奇、悬、巧”三个字。\n奇—远望悬空寺，像一付玲珑剔透的浮雕，镶嵌在万仞峭壁间，近看悬空寺，大有凌空欲飞之势。\n悬—全寺共有殿阁40间，表面看上去支撑它们的是十几根碗口粗的木柱，其实有的木柱根本不受力。据说在悬空寺建成时，没有这些木桩，人们看见悬空寺似乎没有任何支撑，害怕走上去寺会掉下来，为了让人们放心，所以在寺底下安置了些木柱，所以有人用“悬空寺，半天高，三根马尾空中吊”来形容悬空寺。\n巧—体现在建寺时因地制宜，充分利用峭壁的自然状态布置和建造寺庙各部分建筑，将一般寺庙平面建筑的布局、形制等建造在立体的空间中，山门、钟鼓楼、大殿、配殿等都有，设计非常精巧。"}}, {"title": "华严寺", "address": "大同市下寺坡街459号", "image": "", "rank": 3, "time": 0.75, "location": {"lat": 40.09855902076172, "lng": 113.30137807992065}, "feature": {"sight_features": "特色1 我国现存年代较早、保存较完整的一座辽金寺庙建筑群。 特色2 保存千年之久的辽代藏经殿，被誉为“辽代艺术博物馆”。 特色3 寺中保存有珍贵的辽金佛殿、精美的辽明塑像以及被梁思成先生誉为国宝的“天宫楼阁”。", "sight_content": "华严寺位于大同古城内西南隅，始建于辽重熙七年（公元1038年），依据佛教经典《华严经》取“慈悲之华，必结庄严之果”的大乘教义而命名。寺院坐西向东，山门、普光明殿、大雄宝殿、薄伽教藏殿、华严宝塔等30余座单体建筑分别排列在南北两条主轴线上，布局严谨，规模宏大，占地面积达66000平方米，是我国现存年代较早、保存较完整的一座辽金寺庙建筑群。云中古刹华严寺，是历史之珍品，是文物之精华，更是中华文化之结晶，它将继续以其珍贵的历史价值和独特的艺术魅力流传百世。\n大同华严寺内的建筑、塑像、壁藏、壁画、平綦、藻井等，以历史之悠久，规模之浩大，技艺之高超，堪称辽金艺术博物馆。主殿大雄宝殿始建于辽清宁八年（公元1062年）,是我国现存辽金时期较大的佛殿；薄伽教藏殿建于辽重熙七年（公元1038年），面阔五间，殿内依墙排列重楼式小木作藏经阁38间及“天宫楼阁”五间，巧夺天工，玲珑之致，被著名建筑学家梁思成先生誉为“海内孤品”。\n\n\n大同华严寺大殿中央佛坛上供奉的29尊辽代泥塑堪称辽塑精品，尤以合掌露齿菩萨为较，惟妙惟肖，史学家郑振铎先生赞其为“东方维纳斯”。华严宝塔是继应县木塔之后全国第二大纯木榫卯结构的方形木塔，通高43米，上景金盘，下承莲池，特别是塔下近500平方米的千佛地宫，采用100吨纯铜打造而成，内供佛祖舍利及千尊佛像，金碧辉煌，全国惟一，是传统与现实完美结合的典范之作。"}}, {"title": "善化寺", "address": "大同市城区南寺街6号（近楼房巷）", "image": "", "rank": 4, "time": 0.85, "location": {"lat": 40.09276454348732, "lng": 113.30745826076495}, "feature": {"sight_features": "", "sight_content": ""}}, {"title": "九龙壁", "address": "大同市城区大东街18号九龙壁景区内", "image": "", "rank": 5, "time": 2.0, "location": {"lat": 40.09903023613231, "lng": 113.31072564673535}, "feature": {"sight_features": "", "sight_content": ""}}, {"title": "清真大寺", "address": "大同市大西街九楼巷5号", "image": "", "rank": 6, "time": 1.0, "location": {"lat": 40.09978540893965, "lng": 113.30502138339105}, "feature": {"sight_features": "", "sight_content": ""}}, {"title": "鼓楼", "address": "大同市城区大南街南段十字口", "image": "", "rank": 7, "time": 1.0, "location": {"lat": 40.10254286655904, "lng": 113.2969658727473}, "feature": {"sight_features": "", "sight_content": ""}}, {"title": "关帝庙", "address": "大同市鼓楼东街", "image": "", "rank": 8, "time": 0.5, "location": {"lat": 40.09756745896392, "lng": 113.30993035261312}, "feature": {"sight_features": "", "sight_content": ""}}, {"title": "恒山", "address": "大同市浑源县东南郊恒山脚下", "image": "", "rank": 9, "time": 1.5, "location": {"lat": 39.698952969845486, "lng": 113.70560028821707}, "feature": {"sight_features": "特色1 “五岳”中的北岳，登上主峰天峰岭俯瞰群山，豁然开朗。 特色2 道教圣地，自古为兵家据险以守之地，以丰富的景观特色著称于世 特色3 西衔雁门关、东跨太行山，南障三晋，北瞰云、代二州，莽莽苍苍", "sight_content": "恒山为国家AAAA风景区是国务院1982年公布的全国第一批44个国家重点风景名胜区之一。据1984年规划，全景区为4个等级的保护区和1个自然保护区。一、二级保护区面积为62.10平方公里，以双峰并峙的天峰岭和翠屏峰为中心，包括天峰岭景区、翠屏峰景区、千佛岭景区、温泉景区和浑源城景点群；龙山一带为自然保护区。恒山主峰分东西两峰，东为大峰岭西为翠屏峰，两峰对峙，风格独具，断崖绿带、层次分明。金龙峡，居于天峰岭、翠屏峰之间，峡谷幽深，峭壁侧立，石夹青天，最窄处不过三丈。这里自古为兵家必争之地。北魏时，道武帝发兵数万人，在此劈山凿道据守，作为进退中原的门户。宋代，杨业父子在此以险为凭，抵抗外族的人侵。\n\n\n恒山松，为恒山一景。“四大夫松”，古松根部悬于石外，紧抓岩石，傲然挺立，姿态雄健。在虎风门观松，或立于丹崖上，或倒挂于绝壁问，如伞如翼如亭如龙如桥，千姿百态，仪态万方。恒山云，变幻无穷。出云洞在后土夫人庙的不远处山腰，晴日郎郎，洞口寂静，阴雨来临，洞口便游出缕缕白云，引人遐思。\n恒山景观中，果老岭、姑嫂岩，飞石窟、还原洞、虎风日、大宇湾等处，充满了神奇色彩，还伴有优美的神话传说。悬根松、紫芝峪、苦甜井更是自然景观中的奇景。苦甜井位于恒山半腰，双井并列，相隔1米，水质迥然不同。一井水如甘露，甜美清凉、水井深数尺，取之不尽，可供万人饮用，唐玄宗李隆基赐匾“龙泉观”。另一井水苦涩难饮，成为鲜明对照。现苦井已封。"}}, {"title": "古城墙", "address": "大同市和阳内街", "image": "", "rank": 10, "time": 2.0, "location": {"lat": 40.0824687161612, "lng": 113.30643625858623}, "feature": {"sight_features": "", "sight_content": ""}}, {"title": "晋华宫国家矿山公园", "address": "大同市南郊区晋华宫", "image": "", "rank": 11, "time": 2.5, "location": {"lat": 40.10836245706076, "lng": 113.13967740005414}, "feature": {"sight_features": "", "sight_content": ""}}, {"title": "5窟", "address": "山西省大同市云冈石窟景区", "image": "", "rank": 12, "time": 2, "location": {"lat": 40.11983210425409, "lng": 113.14407615150927}, "feature": {"sight_features": "", "sight_content": ""}}, {"title": "10窟", "address": "山西省大同市云冈石窟景区", "image": "", "rank": 13, "time": 12.5, "location": {"lat": 40.11983210425409, "lng": 113.14407615150927}, "feature": {"sight_features": "", "sight_content": ""}}, {"title": "大同博物馆", "address": "大同市华严街下寺坡街14号", "image": "", "rank": 14, "time": 2.0, "location": {"lat": 40.09884078803088, "lng": 113.30249136341375}, "feature": {"sight_features": "", "sight_content": ""}}, {"title": "大同方特欢乐世界", "address": "大同市南郊区南环路3666号", "image": "", "rank": 15, "time": 2.5, "location": {"lat": 40.06906208921585, "lng": 113.3732610258124}, "feature": {"sight_features": "特色1 老少合家欢的梦幻乐园。 特色2 以科幻和互动体验为特色 特色3 国内知名连锁品牌主题乐园。", "sight_content": "‍\n‍‍‍‍‍‍‍‍‍‍大同方特欢乐世界坐落于大同市御东新区，是晋冀蒙地区独一无二的高科技主题乐园。大同方特欢乐世界以科幻和互动体验为最大特色，采用国际一流的理念和技术精心打造，可与世界先进的主题乐园相媲美。\n大同方特欢乐世界由飞越极限、生命之光、逃出恐龙岛、魔法城堡、唐古拉雪山、火流星、海螺湾、华夏五千年、熊出没脱口秀等20多个主题项目区组成，涉及主题项目、游乐项目、休闲及景观项目等200多项，其中绝大多数项目老少皆宜。这里有世界上独一无二的高空飞翔体验项目“飞越极限”；世界上先进的跟踪式立体魔幻表演项目“魔法城堡”；大型室内漂流历险主题项目“逃出恐龙岛”；世界顶级悬挂式过山车“火流星”；中国独创的大型雪山探险模拟项目“唐古拉雪山”；色彩斑斓、如梦似幻的4D剧场项目“海螺湾”；妙趣诙谐的卡通表演项目“熊出没脱口秀”……\n唐古拉雪山——1个室内外结合的过山车项目\n亿万年的冰雪随岁月流逝，形成了壮丽的高原奇景，急速的飞车沿轨道蜿蜒穿梭在陡峭的山峰，时而钻入山体中的岩浆通道，时而失去控制、从山崖冲出!大型雪山探险模拟项目--唐古拉雪山，让您体验急速跌落、旋转和翻滚带来的完美感觉。体验时长是3分钟，大家可以在方特旅游APP上看看需要排队多长时间哦。带孩子的朋友注意啦，这个项目身高限制是1.2米以上\n逃出恐龙岛——26米的高空俯冲而下\n逃出恐龙岛是以吴哥窟为主要建筑风格的大型室内漂流历险主题项目，游客将乘坐小车进入危险的侏罗纪时代，在茂密的丛林里展开一场惊心动魄的冒险。巨型恐龙的隆隆脚步震动着大地、巨石突然从眼前滚落，紧张和恐怖弥漫四周。随后游船从几十米高的悬崖瀑布上急速下坠，让游客在惊叫声中经历一场永生难忘的恐龙岛冒险之旅，项目体验时间是15分钟，这个项目身高限制是1.4米以上，温馨提示：需要购买雨衣哦。\n火流星——90秒在轨道上体验急速飞翔的刺激\n大同方特欢乐世界最热门的项目之一。本项目选用了悬挂式座椅系统，增加了刺激程度，游客在轨道上高速下落、空中翻腾时能够体验到急速自由飞翔的刺激。同时可以乘坐20名游客，体验时长90秒，在空中穿梭的时间不到40秒，大家可以在方特旅游APP上看看需要排队多长时间哦。这个项目身高限制是1.4米以上，坐在任何位置感觉都非常刺激，体验过之后你会发现等待的时间果然是值得的。\n飓风飞椅——上下飞旋，无比惬意\n在优美、轻快的旋律中，硕大的转盘和转台错向旋转、摇摆，随着转盘的摇摆，塔身徐徐上升。此时，稳坐飞椅的游客在离心力的作用下，上下飞旋，时而像在蓝天翱翔，时而像在海上冲浪，能感受到腾云驾雾的快感。让您验儿时荡秋千的感觉。此项目的运行时间为3分钟，这个项目身高限制是1.4米以上，每次可乘坐38人。\n飞跃极限——8分钟带您环游世界，体验凌空飞行的真实感受\n大同方特欢乐世界最热门的项目之一。飞越极限，使用巨大的半球形银幕、灵巧的悬挂式座椅，配合宏大的电影画面，为你呈现出全包围式虚拟环境，带你横跨铁塔，穿过长城，攀登珠穆朗玛峰，体会凌空飞翔的真实感受，八分钟环游世界！这个项目的身高限制是1.2米以上，1.2-1.5米儿童需成人陪同才能体验。\n熊出没历险记——和熊大熊二一起坐在动感小车上，体验射击带来的惊险与刺激\n熊出没历险是动感射击类游戏项目，乘坐载有发射装置的卡通游览车，行进在多角度、多方位的缤纷场景和奇异世界里，随乖巧可爱的熊大、熊二，与光头强和各种憨态可掬的小怪物们战斗，绝对是件酷毙了的事情。\n这是一场盛况空前的欢乐盛宴！这是一个充满神奇的梦幻乐园！这是一个未来科幻的探险王国！梦幻奇妙的世界，等待您来探秘！"}}, {"title": "大同火山群", "address": "大同市大同县境内", "image": "", "rank": 16, "time": 2.5, "location": {"lat": 40.00162748889317, "lng": 113.58386582098244}, "feature": {"sight_features": "", "sight_content": ""}}, {"title": "万佛洞", "address": "山西省大同市云冈石窟景区", "image": "", "rank": 17, "time": 1.0, "location": {"lat": 40.11983210425409, "lng": 113.14407615150927}, "feature": {"sight_features": "", "sight_content": ""}}, {"title": "9窟", "address": "山西大同市云冈石窟景区", "image": "", "rank": 18, "time": 2, "location": {"lat": 40.11983210425409, "lng": 113.14407615150927}, "feature": {"sight_features": "", "sight_content": ""}}, {"title": "20窟", "address": "大同市南郊区云冈石窟景区", "image": "", "rank": 19, "time": null, "location": {"lat": 40.11983210425409, "lng": 113.14407615150927}, "feature": {"sight_features": "", "sight_content": ""}}, {"title": "18窟", "address": "山西省大同市云冈石窟景区", "image": "", "rank": 20, "time": 12.5, "location": {"lat": 40.11983210425409, "lng": 113.14407615150927}, "feature": {"sight_features": "", "sight_content": ""}}, {"title": "1、2窟", "address": "山西省大同市云冈石窟景区", "image": "", "rank": 21, "time": null, "location": {"lat": 40.11983210425409, "lng": 113.14407615150927}, "feature": {"sight_features": "", "sight_content": ""}}, {"title": "大同土林", "address": "大同市大同县杜庄乡杜庄村", "image": "", "rank": 22, "time": 2.5, "location": {"lat": 39.942404126994134, "lng": 113.48164662867838}, "feature": {"sight_features": "", "sight_content": "大自然的鬼斧神工造化了土林诡异迷离的地貌，当你走进这里，一时很难明白自己是登陆火星上还身陷魔域仙界。这就是大同土林，当地人叫\"石板沟\"。\n放眼望去，土林的奇特另人眼花缭乱：有的犬牙交错壁立千仞，那一定是天界地缘；有的连绵不断，如远古长城再现；有的独居单处，好似隐士休闲；有的三五成群，有如古堡森严。土林的南边伸入到一片的宁静水域之中，站在岸边眺望，在水光倒影中的土林，更是扑朔迷离恍如梵界。"}}, {"title": "6窟", "address": "云冈石窟景区", "image": "", "rank": 23, "time": 1.0, "location": {"lat": 22.536914518242426, "lng": 113.99745928451098}, "feature": {"sight_features": "", "sight_content": ""}}, {"title": "法华寺", "address": "大同市城区和阳街", "image": "", "rank": 24, "time": 2.0, "location": {"lat": 40.099573896062736, "lng": 113.31253754511847}, "feature": {"sight_features": "", "sight_content": ""}}, {"title": "井下探秘游", "address": "大同市南郊区晋华宫矿内", "image": "", "rank": 25, "time": 2.5, "location": {"lat": 40.10876347823839, "lng": 113.16858786811241}, "feature": {"sight_features": "", "sight_content": ""}}, {"title": "11窟", "address": "山西省大同市云冈石窟景区", "image": "", "rank": 26, "time": 12.5, "location": {"lat": 40.11983210425409, "lng": 113.14407615150927}, "feature": {"sight_features": "", "sight_content": ""}}, {"title": "13、14窟", "address": "山西省大同市云冈石窟景区", "image": "", "rank": 27, "time": 0.5, "location": {"lat": 40.11983210425409, "lng": 113.14407615150927}, "feature": {"sight_features": "", "sight_content": ""}}, {"title": "灵岩寺", "address": "大同南郊区云冈石窟景区湖心岛中央", "image": "", "rank": 28, "time": 2.0, "location": {"lat": 40.11983210425409, "lng": 113.14407615150927}, "feature": {"sight_features": "", "sight_content": ""}}, {"title": "大同纯阳宫", "address": "大同市鼓楼西街纯阳宫", "image": "", "rank": 29, "time": 1.5, "location": {"lat": 40.097944541082704, "lng": 113.30705406999733}, "feature": {"sight_features": "", "sight_content": ""}}, {"title": "白登山", "address": "大同市大同县城东五公里处", "image": "", "rank": 30, "time": 2.5, "location": {"lat": 40.00162748889317, "lng": 113.58386582098244}, "feature": {"sight_features": "", "sight_content": ""}}, {"title": "永安寺", "address": "大同市浑源县城内东北", "image": "", "rank": 31, "time": 2, "location": {"lat": 39.698952969845486, "lng": 113.70560028821707}, "feature": {"sight_features": "", "sight_content": ""}}, {"title": "得胜堡", "address": "大同市城北新荣区得胜堡村", "image": "", "rank": 32, "time": 2.5, "location": {"lat": 40.401104205087876, "lng": 113.24711392697931}, "feature": {"sight_features": "", "sight_content": ""}}, {"title": "县文庙砖雕五龙壁", "address": "大同市城内北街大墙后街", "image": "", "rank": 33, "time": 1.0, "location": {"lat": 40.0824687161612, "lng": 113.30643625858623}, "feature": {"sight_features": "", "sight_content": ""}}, {"title": "7、8窟", "address": "山西省大同市城区武周山麓", "image": "", "rank": 34, "time": 0.5, "location": {"lat": 40.10254286655904, "lng": 113.2969658727473}, "feature": {"sight_features": "", "sight_content": ""}}, {"title": "三龙壁", "address": "大同市城西同云公路中段的观音堂内", "image": "", "rank": 35, "time": 0.75, "location": {"lat": 40.108085152956065, "lng": 113.21088919315359}, "feature": {"sight_features": "", "sight_content": ""}}, {"title": "鲁班窑石窟", "address": "大同市南郊区云冈石窟以西约2公里处的十里河西岸的山丘上", "image": "", "rank": 36, "time": 2, "location": {"lat": 40.11983210425409, "lng": 113.14407615150927}, "feature": {"sight_features": "", "sight_content": ""}}, {"title": "魏都水世界", "address": "大同市南郊区魏都大道", "image": "", "rank": 37, "time": 2, "location": {"lat": 40.0873383765764, "lng": 113.29587529302766}, "feature": {"sight_features": "特色1 以科技及生态采摘为中心的大型水上公园 特色2 休闲娱乐，养生疗养好去处 特色3 农业科技旅游观光综合体", "sight_content": "魏都水世界是一个由科技及生态采摘为中心的大型水上公园娱乐项目，集农业采摘、科技果蔬园、水上公园、滑雪、滑冰、骑射、垂钓、室内健身养生、会议及休闲度假为一体的农业科技旅游观光综合体。\n水上乐园有大型的戏水区：趣味水寨、彩虹竞赛滑梯、大喇叭滑梯、敞开皮筏滑梯、水上飞龙滑梯、冲天大回旋滑梯、暴风谷滑道、高速滑梯、巨兽碗滑梯、敞开螺旋滑梯、疯狂海啸、潮汐漂流河；游泳池：深水区1.6米，浅水区1.4米；\n为什么选择魏都水世界？室内夏天时候不怕日晒，秋天时候不怕风吹；空调全时段运行，给足你温暖的关爱；恒温循环水，分分钟循环杀菌消毒处理；保证水的卫生安全，30度水温不刺激。"}}, {"title": "万人坑", "address": "大同市煤峪口南沟", "image": "", "rank": 38, "time": 1.5, "location": {"lat": 40.32833403205993, "lng": 114.46654109762811}, "feature": {"sight_features": "", "sight_content": ""}}, {"title": "龙山", "address": "大同市浑源县西南", "image": "", "rank": 39, "time": 2.0, "location": {"lat": 39.698952969845486, "lng": 113.70560028821707}, "feature": {"sight_features": "", "sight_content": ""}}, {"title": "平城遗址", "address": "大同市南郊区东马路", "image": "", "rank": 40, "time": 2.0, "location": {"lat": 40.11784163707908, "lng": 113.31339932462812}, "feature": {"sight_features": "", "sight_content": ""}}, {"title": "大同御河", "address": "大同市", "image": "", "rank": 41, "time": 1.0, "location": {"lat": 40.0824687161612, "lng": 113.30643625858623}, "feature": {"sight_features": "", "sight_content": ""}}, {"title": "3窟", "address": "山西省大同市云冈东部窟群区域的最西端", "image": "", "rank": 42, "time": 12.5, "location": {"lat": 39.99683881127932, "lng": 113.16240150396362}, "feature": {"sight_features": "", "sight_content": ""}}, {"title": "乌龙峡生态旅游度假区", "address": "大同县鹅毛村口", "image": "", "rank": 43, "time": 2.5, "location": {"lat": 40.00162748889317, "lng": 113.58386582098244}, "feature": {"sight_features": "特色1 人称塞北“九寨沟”", "sight_content": "大同乌龙峡生态旅游度假区地处桑干古道，是由火山熔岩经河水亿年冲刷形成的一条长约10公里，宽约1公里的大峡谷。峡谷内不仅有“乌龙泄玉”“乌龙瀑布”等绚丽奇特的自然景观；而且有丰富的人文景观。人称塞北“九寨沟”。 大同乌龙峡生态旅游度假区，集餐饮、娱乐、休闲于一体。人们在欣赏自然风光的同时，漂流、泛舟、垂钓、射箭、滑翔、跑马与大自然融为一体，获得身心愉悦。\n大同乌龙峡生态旅游度假区位于大同县鹅毛村南1公里册田水库库区下方，中间是一绵长峡谷，两岸为火山熔岩，经河水亿年洗刷，形成长10公里，宽百余米的天然奇峡，峡内杨柳依依，绿草茵茵，溪清崖翠，石坚花异，黑色巨石星罗棋布，汩汩泉流环绕其间，碧波鳞荡的湖水，小船不十的穿来穿去。大同乌龙峡生态旅游度假区是一方如诗如画的天然胜景。大同乌龙峡生态旅游度假区的自然景观与人文景观丰富，还有堪称乌龙三绝的乌龙泉、乌龙滩、乌龙洞。真是您渡假旅游、消暑散心的理想去处。"}}, {"title": "17窟", "address": "山西省大同市城区武周山麓", "image": "", "rank": 44, "time": 1.0, "location": {"lat": 40.10254286655904, "lng": 113.2969658727473}, "feature": {"sight_features": "", "sight_content": ""}}, {"title": "观音堂", "address": "大同城西7.5公里的同云公路旁", "image": "", "rank": 45, "time": 2.0, "location": {"lat": 36.63449697952408, "lng": 101.77241422413312}, "feature": {"sight_features": "", "sight_content": ""}}, {"title": "大同龙壁", "address": "大同市北街大墙后街", "image": "", "rank": 46, "time": 2.5, "location": {"lat": 40.0824687161612, "lng": 113.30643625858623}, "feature": {"sight_features": "", "sight_content": ""}}, {"title": "昙曜广场", "address": "云冈石窟入口", "image": "", "rank": 47, "time": 0.4, "location": {"lat": 40.11983210425409, "lng": 113.14407615150927}, "feature": {"sight_features": "", "sight_content": ""}}, {"title": "I Do梦想城儿童职业体验馆", "address": "大同市城区南三环美好新里程C1", "image": "", "rank": 48, "time": 2, "location": {"lat": 40.069968216782335, "lng": 113.30272690720321}, "feature": {"sight_features": "", "sight_content": ""}}, {"title": "八台子村古长城", "address": "大同市左云县三屯乡八台子村", "image": "", "rank": 49, "time": 1.5, "location": {"lat": 40.1749810875613, "lng": 112.73352462811505}, "feature": {"sight_features": "", "sight_content": ""}}, {"title": "觉山寺", "address": "大同市灵丘县红石楞乡觉山村", "image": "", "rank": 50, "time": 1.0, "location": {"lat": 39.37630937304924, "lng": 114.31863235468013}, "feature": {"sight_features": "", "sight_content": ""}}, {"title": "玉龙洞庙", "address": "大同市以西三、四十公里的七峰山腰", "image": "", "rank": 51, "time": 1.0, "location": {"lat": 40.0824687161612, "lng": 113.30640930942094}, "feature": {"sight_features": "", "sight_content": ""}}, {"title": "天竺庙五龙壁", "address": "大同市城内大北街三道营坊巷内", "image": "", "rank": 52, "time": 1.0, "location": {"lat": 40.106247558059174, "lng": 113.30629554262133}, "feature": {"sight_features": "", "sight_content": ""}}, {"title": "大同丛林野战真人拓展训练中心", "address": "大同市大同县倍加造镇营房沟村", "image": "", "rank": 53, "time": 2.5, "location": {"lat": 40.0571428542042, "lng": 113.48518351438653}, "feature": {"sight_features": "", "sight_content": ""}}, {"title": "鹿野苑石窟", "address": "大同市南郊区军营乡小石子村大沙沟的北崖面上", "image": "", "rank": 54, "time": 1.5, "location": {"lat": 40.16683218183221, "lng": 113.27468483377635}, "feature": {"sight_features": "", "sight_content": ""}}, {"title": "法华塔", "address": "市内东北隅塔寺街", "image": "", "rank": 55, "time": 1.0, "location": {"lat": 40.10098993419796, "lng": 113.31740690445739}, "feature": {"sight_features": "", "sight_content": ""}}, {"title": "云林寺", "address": "大同市阳高县龙泉镇新华南街文物巷24号西门南侧", "image": "", "rank": 56, "time": 1.5, "location": {"lat": 40.37025999950885, "lng": 113.75420026290087}, "feature": {"sight_features": "", "sight_content": ""}}, {"title": "昙曜五窟", "address": "山西大同云冈石窟景区", "image": "", "rank": 57, "time": 1.0, "location": {"lat": 40.11983210425409, "lng": 113.14407615150927}, "feature": {"sight_features": "", "sight_content": ""}}, {"title": "七峰山", "address": "大同市口泉峪南侧，距离市区西南26公里处", "image": "", "rank": 58, "time": 3.5, "location": {"lat": 39.867549495405946, "lng": 113.91417946152876}, "feature": {"sight_features": "", "sight_content": ""}}, {"title": "方山陵墓", "address": "大同市城北25公里处", "image": "", "rank": 59, "time": 1.5, "location": {"lat": 36.656293630836586, "lng": 101.77240488175582}, "feature": {"sight_features": "", "sight_content": ""}}, {"title": "吴官屯石窟", "address": "大同市云岗沟内，距云冈石窟西北面8公里处", "image": "", "rank": 60, "time": 2, "location": {"lat": 40.0824687161612, "lng": 113.30643625858623}, "feature": {"sight_features": "", "sight_content": ""}}]}