{"cityName": "大悟", "days": 2, "cityImage": "", "spots": [{"title": "铁寨风景区", "address": "孝感市大悟县刘集镇铁寨村", "image": "", "rank": 1, "time": 2, "location": {"lat": 31.355424429180026, "lng": 114.31494450873102}, "feature": {"sight_features": "", "sight_content": ""}}, {"title": "鄂豫边区革命烈士陵园", "address": "孝感市大悟县城关镇东江岗山西麓", "image": "", "rank": 2, "time": 2, "location": {"lat": 31.601062777999466, "lng": 114.1464354447433}, "feature": {"sight_features": "", "sight_content": ""}}, {"title": "生态农庄(北山村)", "address": "四姑镇王家田", "image": "", "rank": 3, "time": null, "location": {"lat": 31.286079666639434, "lng": 120.66304525792718}, "feature": {"sight_features": "", "sight_content": ""}}, {"title": "徐海东大将陈列馆", "address": "孝感市大悟县城关河东广场后巷2号", "image": "", "rank": 4, "time": 2, "location": {"lat": 31.567219806641464, "lng": 114.1334125381888}, "feature": {"sight_features": "", "sight_content": ""}}, {"title": "澴河公园", "address": "京珠联络线附近", "image": "", "rank": 5, "time": 2, "location": {"lat": 29.961102724269026, "lng": 114.31267558616365}, "feature": {"sight_features": "", "sight_content": ""}}, {"title": "灵泉寺", "address": "湖北省孝感市大悟县城关镇山庄路30号", "image": "", "rank": 6, "time": 2.0, "location": {"lat": 31.560707706240294, "lng": 114.12382019839383}, "feature": {"sight_features": "", "sight_content": ""}}, {"title": "大悟县图书馆", "address": "长征中路115号", "image": "", "rank": 7, "time": 2, "location": {"lat": 34.05033295082315, "lng": 104.40143941609625}, "feature": {"sight_features": "", "sight_content": ""}}, {"title": "新四军第五师纪念馆", "address": "芳畈镇白果树湾村白果树湾", "image": "", "rank": 8, "time": 2, "location": {"lat": 30.944674559823493, "lng": 115.40853041314915}, "feature": {"sight_features": "", "sight_content": ""}}, {"title": "梦幻岛儿童乐园", "address": "夏店正街西150米", "image": "", "rank": 9, "time": 2, "location": {"lat": 31.420061997155006, "lng": 114.31462699186886}, "feature": {"sight_features": "", "sight_content": ""}}, {"title": "神秘庄园", "address": "243省道", "image": "", "rank": 10, "time": 2, "location": {"lat": 32.14968473714547, "lng": 119.36607869484463}, "feature": {"sight_features": "", "sight_content": ""}}, {"title": "王祠堂", "address": "孝感市大悟县三华路", "image": "", "rank": 11, "time": 2, "location": {"lat": 31.567219806641464, "lng": 114.1334125381888}, "feature": {"sight_features": "", "sight_content": ""}}, {"title": "甘家祠堂", "address": "湖北省孝感市大悟县", "image": "", "rank": 12, "time": 2, "location": {"lat": 31.567219806641464, "lng": 114.1334125381888}, "feature": {"sight_features": "", "sight_content": ""}}, {"title": "乐祠堂", "address": "孝感市大悟县宣卡线", "image": "", "rank": 13, "time": 2, "location": {"lat": 31.673313901719123, "lng": 114.53240842119766}, "feature": {"sight_features": "", "sight_content": ""}}, {"title": "众鑫度假村", "address": "大悟县大新镇建新社区6组", "image": "", "rank": 14, "time": 2, "location": {"lat": 31.7217098229673, "lng": 114.14892833146574}, "feature": {"sight_features": "", "sight_content": ""}}, {"title": "桃源山庄", "address": "湖北省孝感市大悟县刘集镇长冲村罗家河", "image": "", "rank": 15, "time": 2, "location": {"lat": 31.421366809029966, "lng": 114.39299442525389}, "feature": {"sight_features": "", "sight_content": ""}}, {"title": "孝感北站广场", "address": "湖北省孝感市大悟县高店街", "image": "", "rank": 16, "time": 2, "location": {"lat": 31.596012894572098, "lng": 114.23647690260364}, "feature": {"sight_features": "", "sight_content": ""}}, {"title": "泉水寨生态养生旅游度假村", "address": "大悟城关镇泉水寨", "image": "", "rank": 17, "time": 2, "location": {"lat": 31.552517159589012, "lng": 114.12455303692717}, "feature": {"sight_features": "", "sight_content": ""}}, {"title": "十八潭风景区", "address": "孝感市大悟县三里镇石铺村", "image": "", "rank": 18, "time": 2, "location": {"lat": 31.78127726400674, "lng": 114.18983550162663}, "feature": {"sight_features": "特色1 人与大自然和谐相处的胜地", "sight_content": "十八潭风景区位于湖北省孝感市大悟县，西与信阳避暑胜地鸡公山相邻，南与广水市武胜关接壤，以“峰秀谷长、瀑响潭多”为特色，景区内自然景观丰富。还有野生动物园可供参观。\n十八潭风景区的“十里飞瀑响水潭”，深藏在方圆百里群山峻岭之中。大悟十八潭10余公里长的深山峡谷，鬼斧神工般地锻造出白马潭、黑龙潭、虎啸潭、响水潭、弥勒潭、观音潭、七叠潭等十八潭美景。\n十八潭景区有动人心弦的瀑布，又有清澈如镜的碧潭；既有赏心悦目的古树，又有清脆悦耳的林涛；既有雕琢传奇的美石，又有脍炙人口的故事。雨过天晴的十八潭，即现彩虹凌空，云蒸霞蔚，十八潭全然掩映在波涛澎湃的云海之中，摇曳群峰胜似仙岛蓬莱。置身其中宛若仙境，可以尽情欣赏波澜壮阔、变幻莫测的云海奇观。\n十八潭景区集观光、休闲为一体。十八潭风景区第一期已建成项目有十八潭大峡谷、鄂北野生动物世界、银河小镇、9D声效玻璃桥、玻璃滑道等。"}}, {"title": "革命历史博物馆", "address": "城关河东广场后巷2号", "image": "", "rank": 19, "time": 1.5, "location": {"lat": 29.65833125291544, "lng": 91.14510035237143}, "feature": {"sight_features": "", "sight_content": ""}}, {"title": "尚品画廊", "address": "西岳大道附近", "image": "", "rank": 20, "time": 2, "location": {"lat": 31.574718526144974, "lng": 114.12988484214601}, "feature": {"sight_features": "", "sight_content": ""}}, {"title": "大悟县金岭生态文明度假村", "address": "孝感市-大悟县", "image": "", "rank": 21, "time": 2, "location": {"lat": 31.567219806641464, "lng": 114.1334125381888}, "feature": {"sight_features": "", "sight_content": ""}}, {"title": "许家冲", "address": "孝感市-大悟县-河乔线", "image": "", "rank": 22, "time": 2, "location": {"lat": 31.391682272356533, "lng": 114.42267581101609}, "feature": {"sight_features": "", "sight_content": ""}}, {"title": "古门冲", "address": "孝感市-大悟县", "image": "", "rank": 23, "time": 2, "location": {"lat": 31.567219806641464, "lng": 114.1334125381888}, "feature": {"sight_features": "", "sight_content": ""}}, {"title": "五岳山林场", "address": "湖北省孝感市大悟县宣化店镇姚畈乡‎五岳山", "image": "", "rank": 24, "time": 2, "location": {"lat": 31.70925125075775, "lng": 114.33686633509124}, "feature": {"sight_features": "", "sight_content": ""}}, {"title": "宣化店谈判旧址", "address": "湖北省大悟县宣化店镇会馆村", "image": "", "rank": 25, "time": 2, "location": {"lat": 31.701844854371135, "lng": 114.51590117262089}, "feature": {"sight_features": "", "sight_content": ""}}, {"title": "中原军区司令部", "address": "湖北省大悟县宣化店镇南端", "image": "", "rank": 26, "time": null, "location": {"lat": 31.691407720671165, "lng": 114.50270252696623}, "feature": {"sight_features": "", "sight_content": ""}}]}