{"cityName": "大姚", "days": 2, "cityImage": "", "spots": [{"title": "三潭瀑布", "address": "云南省楚雄彝族自治州大姚县", "image": "", "rank": 1, "time": 2, "location": {"lat": 25.727600600572302, "lng": 101.33056746712646}, "feature": {"sight_features": "", "sight_content": ""}}, {"title": "蜻蛉湖", "address": "云南省楚雄彝族自治州大姚县西河北路", "image": "", "rank": 2, "time": 2, "location": {"lat": 25.73235993150762, "lng": 101.33955419000466}, "feature": {"sight_features": "", "sight_content": ""}}, {"title": "咪依鲁风景区", "address": "云南省大姚县赵家店乡 675406", "image": "", "rank": 3, "time": 2, "location": {"lat": 25.823938408995364, "lng": 101.49823969389995}, "feature": {"sight_features": "", "sight_content": ""}}, {"title": "大成殿", "address": "楚雄彝族自治州大姚县石羊古镇石羊孔庙内", "image": "", "rank": 4, "time": 1.0, "location": {"lat": 25.863577267586212, "lng": 101.1063397130914}, "feature": {"sight_features": "", "sight_content": ""}}, {"title": "核桃博物馆", "address": "大姚县环城西路与咪依噜大道交汇处", "image": "", "rank": 5, "time": 2, "location": {"lat": 25.733086270437095, "lng": 101.320116510759}, "feature": {"sight_features": "", "sight_content": ""}}, {"title": "益智儿童乐园", "address": "金碧镇白塔广场", "image": "", "rank": 6, "time": 2, "location": {"lat": 25.730253250337643, "lng": 101.33013744827896}, "feature": {"sight_features": "", "sight_content": ""}}, {"title": "小精灵儿童乐园", "address": "云南省楚雄彝族自治州大姚县金碧锦苑1-02", "image": "", "rank": 7, "time": 2, "location": {"lat": 25.721021019706537, "lng": 101.33332796983908}, "feature": {"sight_features": "", "sight_content": ""}}, {"title": "贝智家儿童游乐园", "address": "碧鸡巷与金龙巷交叉口东50米", "image": "", "rank": 8, "time": 2, "location": {"lat": 25.720978223793704, "lng": 101.33216277506754}, "feature": {"sight_features": "", "sight_content": ""}}, {"title": "圣泉寺", "address": "楚雄彝族自治州大姚县石羊古镇内", "image": "", "rank": 9, "time": 2.0, "location": {"lat": 25.862747457584778, "lng": 101.1065305518088}, "feature": {"sight_features": "", "sight_content": ""}}, {"title": "十八月历纪念碑", "address": "云南省楚雄彝族自治州大姚县自必苴村委会", "image": "", "rank": 10, "time": 2, "location": {"lat": 25.727600600572302, "lng": 101.33056746712646}, "feature": {"sight_features": "", "sight_content": ""}}, {"title": "橄榄山庄", "address": "217省道附近", "image": "", "rank": 11, "time": 2, "location": {"lat": 39.08362397662689, "lng": 117.74948306857745}, "feature": {"sight_features": "", "sight_content": ""}}, {"title": "双龙堡休闲苑", "address": "咪依噜大街附近", "image": "", "rank": 12, "time": 2, "location": {"lat": 25.745227527439113, "lng": 101.32973572605505}, "feature": {"sight_features": "", "sight_content": ""}}, {"title": "三股水山庄", "address": "石三段附近", "image": "", "rank": 13, "time": 2, "location": {"lat": 28.496013991911873, "lng": 116.50149757071901}, "feature": {"sight_features": "", "sight_content": ""}}, {"title": "大姚县图书馆(白塔路店)", "address": "文苑路68号(近白塔路)", "image": "", "rank": 14, "time": 2, "location": {"lat": 25.731331006983474, "lng": 101.32869216454445}, "feature": {"sight_features": "", "sight_content": ""}}, {"title": "大姚县图书馆(龙祥路店)", "address": "龙祥路", "image": "", "rank": 15, "time": 2, "location": {"lat": 36.691646639425585, "lng": 113.82360009383751}, "feature": {"sight_features": "", "sight_content": ""}}, {"title": "盐文化博物馆", "address": "石三段", "image": "", "rank": 16, "time": 2, "location": {"lat": 28.496013991911873, "lng": 116.50149757071901}, "feature": {"sight_features": "", "sight_content": ""}}, {"title": "吉兴花画苑", "address": "南街66号附近", "image": "", "rank": 17, "time": 2, "location": {"lat": 23.100931760317003, "lng": 113.27528273950196}, "feature": {"sight_features": "", "sight_content": ""}}, {"title": "米他科", "address": "楚雄彝族自治州-大姚县", "image": "", "rank": 18, "time": 2, "location": {"lat": 25.727600600572302, "lng": 101.33056746712646}, "feature": {"sight_features": "", "sight_content": ""}}, {"title": "白茨古么", "address": "楚雄彝族自治州-大姚县-瓦拉公路", "image": "", "rank": 19, "time": 2, "location": {"lat": 26.128512711171282, "lng": 101.32201730545475}, "feature": {"sight_features": "", "sight_content": ""}}, {"title": "武定狮子山", "address": "云南省楚雄州武定县狮子山旅游景区", "image": "", "rank": 20, "time": 1.5, "location": {"lat": 25.536089587806806, "lng": 102.4105318203669}, "feature": {"sight_features": "", "sight_content": ""}}]}