{"cityName": "大冶", "days": 2, "cityImage": "", "spots": [{"title": "雷山风景区", "address": "黄石市大冶市陈贵镇境内", "image": "", "rank": 1, "time": 3.0, "location": {"lat": 30.044325482616372, "lng": 114.83044415397418}, "feature": {"sight_features": "", "sight_content": "雷山，位于大冶市城西十五公里的陈贵镇境内，是鄂东南重要的风景名胜之一。山下长港环绕，山水辉映；山上奇松怪石，胜景纷呈雷山，集森林公园、风景名胜旅游区于一体，共分方广洞、大小口、小雷八景、石笋尖等四大景区，宝塔、亭台、楼阁、庙宇及百亩竹林点缀其中，更有那神奇的石松、石城、石床、石屋、石浪、石兽等石景鬼斧神工、绝妙天成。早在明朝袁宏道就留有赞美雷山之诗句“峰峰雪点缀，曲曲水苍寒”。"}}, {"title": "鄂王城生态文化园", "address": "黄石市大冶市金牛镇", "image": "", "rank": 2, "time": 2, "location": {"lat": 29.99252182939154, "lng": 114.60886675537594}, "feature": {"sight_features": "", "sight_content": "鄂王城生态文化园位于鄂王故里—湖北省大冶市金牛镇，景区占地面积3600多亩，建筑风格融汇中西，集中打造出“两园三区五地”的特色。\n两园即生态农业产业园、乡村旅游示范园；三区即休闲娱乐区、会议餐饮功能区、养生养老区；五地即果蔬种植采摘基地、生态畜牧养殖基地、水产养殖基地、花卉苗木基地、婚纱摄影基地等。"}}, {"title": "铜绿山古铜矿遗址", "address": "黄石市大冶市铜绿山古铜矿遗址", "image": "", "rank": 3, "time": 1.0, "location": {"lat": 30.086879481351204, "lng": 114.95033387311638}, "feature": {"sight_features": "", "sight_content": ""}}, {"title": "青龙山风景区", "address": "黄石市大冶市城东红星湖畔", "image": "", "rank": 4, "time": 1.0, "location": {"lat": 30.10166780010339, "lng": 114.98643626401979}, "feature": {"sight_features": "", "sight_content": ""}}, {"title": "雷山水世界", "address": "黄石市大冶市陈贵镇雷山风景名胜区", "image": "", "rank": 5, "time": 2, "location": {"lat": 30.047011227510023, "lng": 114.80955840803662}, "feature": {"sight_features": "特色1 雷山温泉水世界——拥有顶尖的配套设施、清新宜人的环境以及优质服务，为广大游客打造一个以水景为特色、水上活动为主题的消暑乐园！ 特色2 雷山水世界引进了国际领先机房设备，不间断对水世界的水进行处理，保证整个园区的水质达到国家标准的水平。园区内还配备了大量遮阳棚、躺椅，做到了“处处有树荫，处处有遮阳”，让游客可以在凉爽中尽兴游玩！ 特色3 雷山水世界由天际冲浪池及露天游泳池两大嬉水区组成，其中露天游泳池分儿童区和成人区，水深分别是0.6米和1.3米。与其他水上乐园不一样，雷山温泉水世界周围青山环绕，游客不仅可以在这里嬉水，还能享受绿林带来的清新！", "sight_content": "雷山温泉水世界——拥有顶尖的配套设施、清新宜人的环境以及优质服务，为广大游客打造一个以水景为特色、水上活动为主题的消暑乐园。\n雷山水世界引进了国际领先机房设备，不间断对水世界的水进行处理，保证整个园区的水质达到国家标准的水平。园区内还配备了大量遮阳棚、躺椅，做到了“处处有树荫，处处有遮阳”，让游客可以在凉爽中尽兴游玩。\n雷山水世界由天际冲浪池及露天游泳池两大嬉水区组成，其中露天游泳池分儿童区和成人区，水深分别是0.6米和1.3米。与其他水上乐园不一样，雷山温泉水世界周围青山环绕，游客不仅可以在这里嬉水，还能享受绿林带来的清新。"}}, {"title": "黄坪山生态旅游区", "address": "黄石市大冶市（与阳新县西北部交界，距大冶市区约20公里）。", "image": "", "rank": 6, "time": 1.0, "location": {"lat": 30.10166780010339, "lng": 114.98643626401979}, "feature": {"sight_features": "", "sight_content": ""}}, {"title": "龙凤山生态园", "address": "黄石市大冶市刘仁八镇八角亭", "image": "", "rank": 7, "time": 2, "location": {"lat": 29.92355065377225, "lng": 114.84582879938398}, "feature": {"sight_features": "", "sight_content": "大冶龙凤山生态园景区位于刘仁八镇双港口八角亭村，近双港口水库，交通便捷，地理位置优越，风景优美。\n景区内设有适合大型接待的各式豪华客房、生态餐厅、KTV、棋牌室、乒乓球室、台球室、CS野战、军事拓展基地、特色农庄、烧烤垂钓、田头超市、田园观光采摘、登山、滑索、室外篮球、羽毛球场等综合设施。"}}, {"title": "南山头革命旧址", "address": "黄石市大冶市南部，与阳新县三溪口镇相邻", "image": "", "rank": 8, "time": 2, "location": {"lat": 30.10166780010339, "lng": 114.98643626401979}, "feature": {"sight_features": "", "sight_content": ""}}, {"title": "楚天香谷芳香文化博览园", "address": "黄石市大冶市茗山乡杨桥村8组78号", "image": "", "rank": 9, "time": 2, "location": {"lat": 30.04029601089788, "lng": 114.74003065031062}, "feature": {"sight_features": "", "sight_content": ""}}, {"title": "红三军团纪念馆", "address": "黄石市大冶市区刘仁八镇中学内", "image": "", "rank": 10, "time": 1.0, "location": {"lat": 29.937248390374616, "lng": 114.83347194594546}, "feature": {"sight_features": "", "sight_content": ""}}, {"title": "黄石矿博园", "address": "黄石市大冶市园博大道2-3号", "image": "", "rank": 11, "time": 1.0, "location": {"lat": 30.10166780010339, "lng": 114.98643626401979}, "feature": {"sight_features": "", "sight_content": ""}}, {"title": "章畈温泉", "address": "汪仁镇章畈村", "image": "", "rank": 12, "time": 2, "location": {"lat": 30.148478280498697, "lng": 115.15294348022938}, "feature": {"sight_features": "", "sight_content": ""}}, {"title": "童爱岛儿童乐园", "address": "长安南路平安社区旁", "image": "", "rank": 13, "time": 2, "location": {"lat": 37.29066109591759, "lng": 114.51441920119055}, "feature": {"sight_features": "", "sight_content": ""}}, {"title": "大冶市艺术剧院", "address": "东风路9号", "image": "", "rank": 14, "time": 1.5, "location": {"lat": 40.381240327043834, "lng": 115.21967383374984}, "feature": {"sight_features": "", "sight_content": ""}}, {"title": "大冶兵暴旧址", "address": "湖北省大冶市城关镇 435100", "image": "", "rank": 15, "time": 1.0, "location": {"lat": 30.10166780010339, "lng": 114.98643626401979}, "feature": {"sight_features": "", "sight_content": ""}}, {"title": "湖北黄金山国际温泉度假村", "address": "大棋路北50米", "image": "", "rank": 16, "time": 2, "location": {"lat": 30.143481535209972, "lng": 115.1104669945968}, "feature": {"sight_features": "", "sight_content": ""}}, {"title": "黄石站站前广场", "address": "湖北省黄石市大冶市罗桥开发区", "image": "", "rank": 17, "time": 2, "location": {"lat": 30.10166780010339, "lng": 114.98643626401979}, "feature": {"sight_features": "", "sight_content": ""}}, {"title": "宫台山庄", "address": "湖北省黄石市大冶市灵乡镇灵秀路118号", "image": "", "rank": 18, "time": 2, "location": {"lat": 30.024060142439737, "lng": 114.76093561998609}, "feature": {"sight_features": "", "sight_content": ""}}, {"title": "虬川广场", "address": "小桥路与虬川大道交叉口东150米", "image": "", "rank": 19, "time": 2, "location": {"lat": 30.019122744113883, "lng": 114.6365825001378}, "feature": {"sight_features": "", "sight_content": ""}}, {"title": "邹氏宗祠", "address": "湖北省黄石市大冶市刘仁八镇邹贵卿", "image": "", "rank": 20, "time": 2, "location": {"lat": 29.920970822393492, "lng": 114.86661945159172}, "feature": {"sight_features": "", "sight_content": ""}}, {"title": "文曲星儿童乐园", "address": "湖北省黄石市大冶市刘仁八路86", "image": "", "rank": 21, "time": 2, "location": {"lat": 29.940519380722698, "lng": 114.85017287637113}, "feature": {"sight_features": "", "sight_content": ""}}, {"title": "宝山寺", "address": "湖北省黄石市大冶市石桌", "image": "", "rank": 22, "time": 0.75, "location": {"lat": 29.959787508316502, "lng": 114.94329580057463}, "feature": {"sight_features": "", "sight_content": ""}}, {"title": "金山禅寺", "address": "灵乡大道199号附近", "image": "", "rank": 23, "time": 2, "location": {"lat": 30.014802977166298, "lng": 114.7581567276384}, "feature": {"sight_features": "", "sight_content": ""}}, {"title": "七彩儿童乐园", "address": "湖北省黄石市大冶市S315(灵乡大道)", "image": "", "rank": 24, "time": 2, "location": {"lat": 30.014785652412762, "lng": 114.75913089547076}, "feature": {"sight_features": "", "sight_content": ""}}, {"title": "红脚丫儿童乐园", "address": "湖北省黄石市大冶市G106(京广线)", "image": "", "rank": 25, "time": 2, "location": {"lat": 30.10166780010339, "lng": 114.98643626401979}, "feature": {"sight_features": "", "sight_content": ""}}, {"title": "财神殿", "address": "黄石市大冶市S315古训堂内", "image": "", "rank": 26, "time": 2, "location": {"lat": 30.10166780010339, "lng": 114.98643626401979}, "feature": {"sight_features": "", "sight_content": ""}}, {"title": "姜家祠堂", "address": "黄石市大冶市", "image": "", "rank": 27, "time": 2, "location": {"lat": 30.10166780010339, "lng": 114.98643626401979}, "feature": {"sight_features": "", "sight_content": ""}}, {"title": "仙明寺", "address": "湖北省黄石市大冶市G106", "image": "", "rank": 28, "time": 2, "location": {"lat": 30.10166780010339, "lng": 114.98643626401979}, "feature": {"sight_features": "", "sight_content": ""}}, {"title": "公园路8号", "address": "湖北省黄石市大冶市公园路", "image": "", "rank": 29, "time": 2, "location": {"lat": 30.05824679818089, "lng": 114.8189561029937}, "feature": {"sight_features": "", "sight_content": ""}}, {"title": "天王殿", "address": "黄石市大冶市陈贵镇陈贵镇雷山风景名胜区雷音寺内", "image": "", "rank": 30, "time": 2, "location": {"lat": 30.047011227510023, "lng": 114.80955840803662}, "feature": {"sight_features": "", "sight_content": ""}}, {"title": "大雄宝殿", "address": "黄石市大冶市雷岭路", "image": "", "rank": 31, "time": 2, "location": {"lat": 30.0497855220527, "lng": 114.8121650166434}, "feature": {"sight_features": "", "sight_content": ""}}, {"title": "儿童乐园", "address": "湖北省黄石市大冶市S314(金牛大道)", "image": "", "rank": 32, "time": 2, "location": {"lat": 30.020643346706372, "lng": 114.63260515547539}, "feature": {"sight_features": "", "sight_content": ""}}, {"title": "观音堂", "address": "黄石市大冶市雷山风景名胜区内", "image": "", "rank": 33, "time": 2.0, "location": {"lat": 30.039748751380102, "lng": 114.80966349091688}, "feature": {"sight_features": "", "sight_content": ""}}, {"title": "大冶革命烈士陵园", "address": "金株大道南50米", "image": "", "rank": 34, "time": 1.0, "location": {"lat": 30.06947678939351, "lng": 114.93023516677174}, "feature": {"sight_features": "", "sight_content": ""}}, {"title": "青云梯", "address": "青龙路华严禅寺附近", "image": "", "rank": 35, "time": 2, "location": {"lat": 30.08974926627057, "lng": 114.98883670342727}, "feature": {"sight_features": "", "sight_content": ""}}, {"title": "广王寺", "address": "下黄新村小区52", "image": "", "rank": 36, "time": 2, "location": {"lat": 30.11717247044153, "lng": 114.97972183457019}, "feature": {"sight_features": "", "sight_content": ""}}, {"title": "大冶美吉特水上乐园", "address": "长乐大道6号美吉特中亿商贸中心", "image": "", "rank": 37, "time": 2, "location": {"lat": 30.129301096596723, "lng": 114.96635713175219}, "feature": {"sight_features": "", "sight_content": ""}}, {"title": "大冶市锦麟奇石馆", "address": "矿冶大道72号附近", "image": "", "rank": 38, "time": 1.0, "location": {"lat": 30.07597336973687, "lng": 114.95819626553632}, "feature": {"sight_features": "", "sight_content": ""}}, {"title": "零食物语公园量贩店", "address": "湖北省黄石市大冶市湖滨路23-8号", "image": "", "rank": 39, "time": 2, "location": {"lat": 30.097193280248224, "lng": 114.98269221648475}, "feature": {"sight_features": "", "sight_content": ""}}, {"title": "三佛寺", "address": "青山路附近", "image": "", "rank": 40, "time": 2, "location": {"lat": 41.87034034443168, "lng": 123.39673780365717}, "feature": {"sight_features": "", "sight_content": ""}}, {"title": "亚克力水族馆", "address": "湖北省黄石市大冶市富民路3", "image": "", "rank": 41, "time": 2, "location": {"lat": 30.217013572651354, "lng": 114.83759949063251}, "feature": {"sight_features": "", "sight_content": ""}}, {"title": "儿童乐园", "address": "湖北省黄石市大冶市还曙路", "image": "", "rank": 42, "time": 2, "location": {"lat": 30.10166780010339, "lng": 114.98643626401979}, "feature": {"sight_features": "", "sight_content": ""}}, {"title": "感恩堂", "address": "保安大道215", "image": "", "rank": 43, "time": 2, "location": {"lat": 30.175612499592372, "lng": 114.74597291700485}, "feature": {"sight_features": "", "sight_content": ""}}, {"title": "九井世族", "address": "金山大道北50米", "image": "", "rank": 44, "time": 2, "location": {"lat": 29.221325553514852, "lng": 119.85536095820044}, "feature": {"sight_features": "", "sight_content": ""}}, {"title": "圣水泉古寺", "address": "钟山大道东200米", "image": "", "rank": 45, "time": 2, "location": {"lat": 26.58680718102289, "lng": 104.87794169941765}, "feature": {"sight_features": "", "sight_content": ""}}, {"title": "龙角山庄", "address": "矿冶大道与龙角山路交叉口南100米", "image": "", "rank": 46, "time": 2, "location": {"lat": 30.07499518781718, "lng": 114.95613413477733}, "feature": {"sight_features": "", "sight_content": ""}}, {"title": "景观规划公园广场", "address": "湖北省黄石市大冶市长安南路雅兴花园东北50米", "image": "", "rank": 47, "time": 2, "location": {"lat": 30.1261975084518, "lng": 114.97802304452874}, "feature": {"sight_features": "", "sight_content": ""}}, {"title": "大冶火车站广场", "address": "黄石市大冶市大冶大道63号", "image": "", "rank": 48, "time": 1.0, "location": {"lat": 30.1005376806989, "lng": 114.97273957533278}, "feature": {"sight_features": "", "sight_content": ""}}, {"title": "世纪林", "address": "黄石市大冶市东风东路9号", "image": "", "rank": 49, "time": 2, "location": {"lat": 30.10443056247341, "lng": 114.98627663243575}, "feature": {"sight_features": "", "sight_content": ""}}, {"title": "碧桂园湿地公园", "address": "金湖大道西50米", "image": "", "rank": 50, "time": 1.5, "location": {"lat": 23.20161047157528, "lng": 113.34992772238837}, "feature": {"sight_features": "", "sight_content": ""}}, {"title": "大冶市星期六儿童水上主题乐园", "address": "金湖大道西侧（大冶一品人家小区正门旁，香格里拉小区后门对面）", "image": "", "rank": 51, "time": 1.0, "location": {"lat": 30.113773054279616, "lng": 114.98706732633546}, "feature": {"sight_features": "", "sight_content": ""}}, {"title": "黄石保安九号度假村", "address": "黄石黄石大冶市保安镇桃树村八组", "image": "", "rank": 52, "time": 1.0, "location": {"lat": 30.16610730014613, "lng": 114.73803251702576}, "feature": {"sight_features": "", "sight_content": ""}}, {"title": "三元阁广场", "address": "三元路与枣园路交叉口西50米", "image": "", "rank": 53, "time": 2, "location": {"lat": 30.18154309821304, "lng": 114.74729555958011}, "feature": {"sight_features": "", "sight_content": ""}}, {"title": "四连山渡假村", "address": "湖北省黄石市大冶市汪仁镇四连山度假村", "image": "", "rank": 54, "time": 2, "location": {"lat": 30.166778728289785, "lng": 115.10700338816062}, "feature": {"sight_features": "", "sight_content": ""}}, {"title": "保安9号养生山庄", "address": "湖北省黄石市大冶市保安镇桃树村八组", "image": "", "rank": 55, "time": 2, "location": {"lat": 30.16610730014613, "lng": 114.73803251702576}, "feature": {"sight_features": "", "sight_content": ""}}, {"title": "保安湖", "address": "东风农场管理区", "image": "", "rank": 56, "time": 2, "location": {"lat": 30.305280699540383, "lng": 114.72821171208874}, "feature": {"sight_features": "", "sight_content": ""}}, {"title": "黄石地质博物馆", "address": "湖北省黄石市大冶市", "image": "", "rank": 57, "time": 1.0, "location": {"lat": 30.10166780010339, "lng": 114.98643626401979}, "feature": {"sight_features": "", "sight_content": ""}}, {"title": "大冶市科技馆", "address": "新冶大道30号", "image": "", "rank": 58, "time": 2.5, "location": {"lat": 30.11200927373888, "lng": 114.98205568977666}, "feature": {"sight_features": "", "sight_content": ""}}, {"title": "博盛生态园", "address": "灵乡大道", "image": "", "rank": 59, "time": 2, "location": {"lat": 30.014785652412762, "lng": 114.75913089547076}, "feature": {"sight_features": "", "sight_content": ""}}, {"title": "小天才儿童乐园", "address": "工人文化宫4楼", "image": "", "rank": 60, "time": 2, "location": {"lat": 30.179665975620523, "lng": 111.78471004841398}, "feature": {"sight_features": "", "sight_content": ""}}]}