{"cityName": "大竹", "days": 2, "cityImage": "", "spots": [{"title": "海明湖温泉水世界", "address": "达州市大竹县海明湖温泉旅游度假区和悦庄乡村温泉酒店", "image": "", "rank": 1, "time": 2, "location": {"lat": 30.76622383622554, "lng": 107.29224696992881}, "feature": {"sight_features": "", "sight_content": ""}}, {"title": "五峰山国家森林公园", "address": "达州市，大竹县月华乡五峰山", "image": "", "rank": 2, "time": 2, "location": {"lat": 30.778885576692282, "lng": 107.35388396983483}, "feature": {"sight_features": "特色1 茵茵芳草，置身其中", "sight_content": "五峰山国家森林公园，国家AAA级旅游区、国家森林公园。又名竹海公园，位于大竹县月华乡五峰山。距县城18公里，乃川东新辟一处旅游胜地。因其竹区辽阔，竹类繁多而得名。景区内风光秀丽，竹海茫茫，林木葱郁，山花绚丽，芳草茵茵，浩如烟海，置于其内，如入画中。"}}, {"title": "清河古镇", "address": "达州市大竹县清河镇", "image": "", "rank": 3, "time": 2, "location": {"lat": 30.91979094085922, "lng": 107.2140128855052}, "feature": {"sight_features": "", "sight_content": ""}}, {"title": "泰山动漫水世界", "address": "万家村2组", "image": "", "rank": 4, "time": 1.5, "location": {"lat": 39.85176845782844, "lng": 121.74843499771973}, "feature": {"sight_features": "", "sight_content": ""}}, {"title": "蜀西花卉园林研究所大竹生产基地", "address": "沙桥路附近", "image": "", "rank": 5, "time": 2, "location": {"lat": 22.77197243012849, "lng": 113.26075552964694}, "feature": {"sight_features": "", "sight_content": ""}}, {"title": "大竹县黑花生种植示范与种源繁育...", "address": "竹阳东路347号附近", "image": "", "rank": 6, "time": 2, "location": {"lat": 30.740277434963737, "lng": 107.22005761562083}, "feature": {"sight_features": "", "sight_content": ""}}, {"title": "金阳东湖国际温泉城", "address": "竹阳镇东湖路", "image": "", "rank": 7, "time": 2, "location": {"lat": 30.735007252607936, "lng": 107.218854117102}, "feature": {"sight_features": "", "sight_content": ""}}, {"title": "鸿汁源有机红心火龙果采摘基地", "address": "东柳乡黄家坝村锁柳桥北100米", "image": "", "rank": 8, "time": 2, "location": {"lat": 30.73385962685534, "lng": 107.26842951053567}, "feature": {"sight_features": "", "sight_content": ""}}, {"title": "狮子岭生态园", "address": "四川省大竹县川主乡 635100", "image": "", "rank": 9, "time": 2, "location": {"lat": 30.683648047007807, "lng": 107.23287417421326}, "feature": {"sight_features": "", "sight_content": ""}}, {"title": "云雾峡", "address": "四川省大竹县竹阳镇 635100", "image": "", "rank": 10, "time": 2, "location": {"lat": 30.7391941895264, "lng": 107.21260101514196}, "feature": {"sight_features": "", "sight_content": ""}}, {"title": "余华广场", "address": "月华大道附近", "image": "", "rank": 11, "time": 2, "location": {"lat": 30.81841466419585, "lng": 107.31302966046167}, "feature": {"sight_features": "", "sight_content": ""}}, {"title": "绿水竹水上乐园", "address": "510乡道", "image": "", "rank": 12, "time": 2, "location": {"lat": 40.055882335035726, "lng": 116.77400754579824}, "feature": {"sight_features": "", "sight_content": ""}}, {"title": "大竹县云雾山", "address": "四川省大竹县民主乡西北 635100", "image": "", "rank": 13, "time": 2, "location": {"lat": 30.696529836562515, "lng": 101.43225805360443}, "feature": {"sight_features": "", "sight_content": ""}}, {"title": "包家祠堂", "address": "广安市邻水县达县碑庙--邻水石滓", "image": "", "rank": 14, "time": 2, "location": {"lat": 30.34107251833194, "lng": 106.93640258895681}, "feature": {"sight_features": "", "sight_content": ""}}, {"title": "周家祠堂", "address": "达州市大竹县五零三乡道", "image": "", "rank": 15, "time": 2, "location": {"lat": 30.74207661790974, "lng": 107.21157970735341}, "feature": {"sight_features": "", "sight_content": ""}}, {"title": "王家祠堂", "address": "四川省达州市大竹县零二八县道", "image": "", "rank": 16, "time": 2, "location": {"lat": 30.74207661790974, "lng": 107.21157970735341}, "feature": {"sight_features": "", "sight_content": ""}}, {"title": "烂祠堂", "address": "达州市大竹县零二八县道", "image": "", "rank": 17, "time": 2, "location": {"lat": 30.74207661790974, "lng": 107.21157970735341}, "feature": {"sight_features": "", "sight_content": ""}}, {"title": "竹阳镇老公园", "address": "达州市竹阳镇竹阳南路", "image": "", "rank": 18, "time": 2, "location": {"lat": 30.731298984703475, "lng": 107.21481073800153}, "feature": {"sight_features": "", "sight_content": ""}}, {"title": "陈家祠堂", "address": "大竹县", "image": "", "rank": 19, "time": 1.5, "location": {"lat": 30.74207661790974, "lng": 107.21157970735341}, "feature": {"sight_features": "", "sight_content": ""}}, {"title": "五一水上乐园", "address": "大竹县五一桥加油站斜对面", "image": "", "rank": 20, "time": 2, "location": {"lat": 30.74207661790974, "lng": 107.21157970735341}, "feature": {"sight_features": "", "sight_content": ""}}, {"title": "大竹县天主教柏林天主堂", "address": "168县道附近", "image": "", "rank": 21, "time": 2, "location": {"lat": 23.598493598094564, "lng": 114.68588433558809}, "feature": {"sight_features": "", "sight_content": ""}}, {"title": "龙潭峡度假村", "address": "龙潭村人口文化大院附近", "image": "", "rank": 22, "time": 2, "location": {"lat": 30.726710059400855, "lng": 107.1774493081462}, "feature": {"sight_features": "", "sight_content": ""}}, {"title": "绿水竹度假村", "address": "510乡道附近", "image": "", "rank": 23, "time": 2, "location": {"lat": 40.055882335035726, "lng": 116.77400754579824}, "feature": {"sight_features": "", "sight_content": ""}}, {"title": "拜哥啤酒广场", "address": "四川省达州市大竹县竹阳东路146号", "image": "", "rank": 24, "time": 2, "location": {"lat": 30.74043172437509, "lng": 107.221676571455}, "feature": {"sight_features": "", "sight_content": ""}}, {"title": "英雄本色休闲山庄", "address": "318国道附近", "image": "", "rank": 25, "time": 2, "location": {"lat": 31.023348267795328, "lng": 120.88254137011852}, "feature": {"sight_features": "", "sight_content": ""}}, {"title": "华山羊肉山庄", "address": "210国道附近", "image": "", "rank": 26, "time": 1.5, "location": {"lat": 30.75468488618663, "lng": 107.2576735785458}, "feature": {"sight_features": "", "sight_content": ""}}, {"title": "云雾山避暑山庄", "address": "501乡道附近", "image": "", "rank": 27, "time": 2, "location": {"lat": 51.61721794935349, "lng": 123.98872012251098}, "feature": {"sight_features": "", "sight_content": ""}}, {"title": "炉山钓鱼休闲山庄", "address": "炉山村附近", "image": "", "rank": 28, "time": null, "location": {"lat": 29.874234045849153, "lng": 118.91178403891755}, "feature": {"sight_features": "", "sight_content": ""}}, {"title": "诚信山庄", "address": "四川省达州市大竹县", "image": "", "rank": 29, "time": 2, "location": {"lat": 30.74207661790974, "lng": 107.21157970735341}, "feature": {"sight_features": "", "sight_content": ""}}, {"title": "东方森林乐园", "address": "竹石路", "image": "", "rank": 30, "time": 1.5, "location": {"lat": 29.387743701698366, "lng": 103.78704667490487}, "feature": {"sight_features": "", "sight_content": ""}}, {"title": "高观寨休闲庄", "address": "四川省达州市大竹县莲印乡天生竹石路净土寺", "image": "", "rank": 31, "time": 2, "location": {"lat": 30.70812102711704, "lng": 107.20678171209912}, "feature": {"sight_features": "", "sight_content": ""}}, {"title": "白塔一乐园", "address": "沙桥路", "image": "", "rank": 32, "time": 2, "location": {"lat": 22.77197243012849, "lng": 113.26075552964694}, "feature": {"sight_features": "", "sight_content": ""}}, {"title": "大竹县图书馆", "address": "竹阳镇胜利街80号", "image": "", "rank": 33, "time": 2, "location": {"lat": 30.739149109861675, "lng": 107.21129745976216}, "feature": {"sight_features": "", "sight_content": ""}}, {"title": "城北记忆", "address": "沙桥路新体馆旁(新体馆旁)", "image": "", "rank": 34, "time": 2, "location": {"lat": 22.77197243012849, "lng": 113.26075552964694}, "feature": {"sight_features": "", "sight_content": ""}}, {"title": "理想美术", "address": "荷花池街63", "image": "", "rank": 35, "time": 2, "location": {"lat": 31.15802867704678, "lng": 104.40045199203222}, "feature": {"sight_features": "", "sight_content": ""}}, {"title": "生态农庄", "address": "东大街电力公司旁紫荆门综合市场内(电力公司旁)", "image": "", "rank": 36, "time": 2, "location": {"lat": 23.60940113855145, "lng": 109.66744104809868}, "feature": {"sight_features": "", "sight_content": ""}}, {"title": "大竹县金丰菌业", "address": "G65包茂高速庙坝街入口附近", "image": "", "rank": 37, "time": null, "location": {"lat": 27.965161367921887, "lng": 109.65655062091317}, "feature": {"sight_features": "", "sight_content": ""}}, {"title": "无间密室", "address": "北大街凯歌超市二楼", "image": "", "rank": 38, "time": 2, "location": {"lat": 30.74137926038677, "lng": 107.21413529669874}, "feature": {"sight_features": "", "sight_content": ""}}, {"title": "欢乐谷", "address": "幸福大街与福康街交叉口东50米", "image": "", "rank": 39, "time": 4.5, "location": {"lat": 30.742573912262966, "lng": 107.2145894323544}, "feature": {"sight_features": "", "sight_content": ""}}, {"title": "四川省卉宝源农业有限公司", "address": "建设路与金利路交叉口西50米", "image": "", "rank": 40, "time": 2, "location": {"lat": 30.73893672790607, "lng": 107.22278390816564}, "feature": {"sight_features": "", "sight_content": ""}}, {"title": "明飞山庄", "address": "竹海路西段535号", "image": "", "rank": 41, "time": 2, "location": {"lat": 30.786749360663766, "lng": 106.09444746921285}, "feature": {"sight_features": "", "sight_content": ""}}, {"title": "玉带河太极岛", "address": "达州市大竹县杨家镇双江村3组玉带河太极岛景区", "image": "", "rank": 42, "time": 2, "location": {"lat": 30.849859437554564, "lng": 107.22626669162783}, "feature": {"sight_features": "", "sight_content": "玉带河太极岛景区位于大竹县杨家镇双江村、南大梁高速杨家出口附近，交通便利，是一处依托苗木资源转型升级的旅游景区。整个景区有玉带河观光带、草坪艺术度假区、梦幻樱花度假区、山地生态运动区、乡野田园游乐区五大主题景点，是一个集绿色生态、亲水休闲、旅游观光、竹屋度假等为一体的乡村度假好去处。"}}, {"title": "阳光鑫秀步行街", "address": "四川省大竹县石桥镇上聂路东段", "image": "", "rank": 43, "time": 2, "location": {"lat": 30.777599098379397, "lng": 107.45134445474949}, "feature": {"sight_features": "", "sight_content": ""}}, {"title": "庙坝桃花源", "address": "达州市-大竹县-庙坝街与210国道交叉口西150米", "image": "", "rank": 44, "time": 2, "location": {"lat": 30.75468488618663, "lng": 107.2576735785458}, "feature": {"sight_features": "", "sight_content": ""}}, {"title": "大竹烈士陵园", "address": "达州市-大竹县-莲印乡竹阳南路文化村南250米", "image": "", "rank": 45, "time": 3.0, "location": {"lat": 30.732417349462533, "lng": 107.21141186885022}, "feature": {"sight_features": "", "sight_content": ""}}, {"title": "大竹县大城寨", "address": "达州市-大竹县-牌坊乡大全村", "image": "", "rank": 46, "time": 2, "location": {"lat": 30.623353128209168, "lng": 107.12653131358545}, "feature": {"sight_features": "", "sight_content": ""}}, {"title": "高滩场乡", "address": "达州市-大竹县-建华床上用品专卖店西南50米", "image": "", "rank": 47, "time": 2, "location": {"lat": 30.551463379183907, "lng": 107.35590129092536}, "feature": {"sight_features": "", "sight_content": ""}}]}