{"cityName": "德格", "days": 2, "cityImage": "", "spots": [{"title": "德格印经院", "address": "甘孜藏族自治州德格县更庆镇文化街17号", "image": "", "rank": 1, "time": 2.0, "location": {"lat": 31.81934206249042, "lng": 98.59014076314246}, "feature": {"sight_features": "", "sight_content": ""}}, {"title": "新路海", "address": "甘孜藏族自治州德格县马尼干戈乡", "image": "", "rank": 2, "time": 3.0, "location": {"lat": 31.931328415588784, "lng": 99.20976858391423}, "feature": {"sight_features": "", "sight_content": ""}}, {"title": "更庆寺", "address": "甘孜藏族自治州德格县更庆镇", "image": "", "rank": 3, "time": 1.5, "location": {"lat": 31.81934206249042, "lng": 98.59014076314246}, "feature": {"sight_features": "", "sight_content": ""}}, {"title": "阿须草原", "address": "甘孜藏族自治州德格县阿须乡", "image": "", "rank": 4, "time": 2.5, "location": {"lat": 32.40836740415918, "lng": 99.01146825073941}, "feature": {"sight_features": "", "sight_content": ""}}, {"title": "八邦寺", "address": "甘孜藏族自治州德格县八邦乡", "image": "", "rank": 5, "time": 2.5, "location": {"lat": 31.646610360223775, "lng": 98.80337652404829}, "feature": {"sight_features": "", "sight_content": ""}}, {"title": "宗萨寺", "address": "甘孜藏族自治州德格县麦宿乡", "image": "", "rank": 6, "time": 2.5, "location": {"lat": 31.812106494712996, "lng": 98.5874016113543}, "feature": {"sight_features": "", "sight_content": ""}}, {"title": "竹庆寺", "address": "甘孜藏族自治州德格县", "image": "", "rank": 7, "time": 1.5, "location": {"lat": 31.812106494712996, "lng": 98.5874016113543}, "feature": {"sight_features": "", "sight_content": ""}}, {"title": "卡松渡自然生态旅游区", "address": "甘孜藏族自治州德格县", "image": "", "rank": 8, "time": 1.5, "location": {"lat": 31.812106494712996, "lng": 98.5874016113543}, "feature": {"sight_features": "", "sight_content": ""}}, {"title": "岗托大桥", "address": "甘孜州德格县城沿川藏国道317线蜿蜒西行约25公里", "image": "", "rank": 9, "time": 2, "location": {"lat": 31.812106494712996, "lng": 98.5874016113543}, "feature": {"sight_features": "", "sight_content": ""}}, {"title": "玛尼堆", "address": "青海省玉树县新寨村", "image": "", "rank": 10, "time": 2, "location": {"lat": 33.02163031381012, "lng": 97.07465387492371}, "feature": {"sight_features": "", "sight_content": ""}}, {"title": "丁青寺", "address": "位于甘孜州德格县中扎科乡一个三山合围的开阔地上，距离玛尼干戈30公里。", "image": "", "rank": 11, "time": 2, "location": {"lat": 32.00779186310845, "lng": 99.50872498012656}, "feature": {"sight_features": "", "sight_content": ""}}, {"title": "多瀑沟", "address": "位于甘孜州德格县麦宿工委普马乡，距德格县城108公里。", "image": "", "rank": 12, "time": 2, "location": {"lat": 31.675835528719876, "lng": 98.92752213891698}, "feature": {"sight_features": "", "sight_content": ""}}, {"title": "八一桥山庄", "address": "317国道附近", "image": "", "rank": 13, "time": 2, "location": {"lat": 31.408980835514807, "lng": 103.11125800875102}, "feature": {"sight_features": "", "sight_content": ""}}, {"title": "康定印经院", "address": "巴宫街13号", "image": "", "rank": 14, "time": 1.5, "location": {"lat": 31.810592973809804, "lng": 98.58631210151653}, "feature": {"sight_features": "", "sight_content": ""}}, {"title": "羌塘大草原", "address": "四川省红原县境内", "image": "", "rank": 15, "time": 2, "location": {"lat": 32.7966052787623, "lng": 102.55061520946042}, "feature": {"sight_features": "", "sight_content": ""}}, {"title": "措普沟国家森林公园", "address": "四川省巴塘县措拉区", "image": "", "rank": 16, "time": 2, "location": {"lat": 30.31677501626862, "lng": 99.35377227243738}, "feature": {"sight_features": "", "sight_content": ""}}, {"title": "噶陀寺", "address": "四川省白玉县河坡地区", "image": "", "rank": 17, "time": 1.5, "location": {"lat": 31.390417459288273, "lng": 98.95633846904933}, "feature": {"sight_features": "", "sight_content": ""}}, {"title": "香巴拉步行街", "address": "四川省德格县措拉街", "image": "", "rank": 18, "time": 2, "location": {"lat": 31.81170634323306, "lng": 98.58588123197357}, "feature": {"sight_features": "", "sight_content": ""}}, {"title": "生钦朗扎山", "address": "西藏自治区江达县岗托乡境内 854100", "image": "", "rank": 19, "time": 1.0, "location": {"lat": 31.568020188935787, "lng": 98.56178783917862}, "feature": {"sight_features": "", "sight_content": ""}}, {"title": "玉隆拉措风景区", "address": "甘孜藏族自治州德格县玉隆拉措风景区(317国道南)", "image": "", "rank": 20, "time": 2, "location": {"lat": 31.8681161887045, "lng": 99.12759278791286}, "feature": {"sight_features": "", "sight_content": ""}}, {"title": "错阿乡", "address": "四川省甘孜藏族自治州德格县错阿乡", "image": "", "rank": 21, "time": 2, "location": {"lat": 31.817156181561703, "lng": 99.42819585178603}, "feature": {"sight_features": "", "sight_content": ""}}, {"title": "马尼干戈", "address": "四川省德格县马尼干戈乡", "image": "", "rank": 22, "time": 4.0, "location": {"lat": 31.931328415588784, "lng": 99.20976858391423}, "feature": {"sight_features": "", "sight_content": ""}}]}