{"cityName": "德惠", "days": 2, "cityImage": "", "spots": [{"title": "江山生态度假村", "address": "长春市德惠市松花江畔", "image": "", "rank": 1, "time": null, "location": {"lat": 44.6934380346288, "lng": 126.25334654602983}, "feature": {"sight_features": "", "sight_content": ""}}, {"title": "高城子水库", "address": "长春市德惠市", "image": "", "rank": 2, "time": 1.0, "location": {"lat": 44.52716106660816, "lng": 125.73451517727733}, "feature": {"sight_features": "", "sight_content": ""}}, {"title": "大跃进水库", "address": "长春市德惠市东部（沐东涝区，岔路口、五台、朝阳三个村交界处）", "image": "", "rank": 3, "time": 1.0, "location": {"lat": 44.52716106660816, "lng": 125.73451517727733}, "feature": {"sight_features": "", "sight_content": ""}}, {"title": "龍熙温泉", "address": "长春市德惠市惠发街御景华城正门", "image": "", "rank": 4, "time": 2, "location": {"lat": 44.524686361798764, "lng": 125.71875643278369}, "feature": {"sight_features": "", "sight_content": "德惠龍熙温泉位于德惠铁南御景华城正门，是一家集温泉、洗浴、汗蒸、戏水乐园、客房、餐饮、养生等为一体的温泉休闲会馆，整体占地面积8000余平方米，高端时尚的装修风格，尽显现代美感。会馆内以绿色养生为主旋律，有男、女宾更衣室、沐浴区、标间、套包、榻榻米炕等服务项目。"}}, {"title": "垂钓山庄", "address": "守华路", "image": "", "rank": 5, "time": 2, "location": {"lat": 44.549758559369025, "lng": 125.75119401568108}, "feature": {"sight_features": "", "sight_content": ""}}, {"title": "德惠市植物园", "address": "德惠路888号", "image": "", "rank": 6, "time": 3.5, "location": {"lat": 43.89457971209573, "lng": 125.30929346073526}, "feature": {"sight_features": "", "sight_content": ""}}, {"title": "德惠市图书馆", "address": "德福街与惠新路交叉口西南200米", "image": "", "rank": 7, "time": 1.5, "location": {"lat": 44.529157572314865, "lng": 125.73454813520817}, "feature": {"sight_features": "", "sight_content": ""}}, {"title": "德馨城大戏院", "address": "吉林省长春市德惠市岔路口镇中心小学西250米", "image": "", "rank": 8, "time": 1.5, "location": {"lat": 44.64173125509907, "lng": 126.18521469757478}, "feature": {"sight_features": "", "sight_content": ""}}, {"title": "东北乐大戏院", "address": "德惠路1168号", "image": "", "rank": 9, "time": 2, "location": {"lat": 43.89457971209573, "lng": 125.30929346073526}, "feature": {"sight_features": "", "sight_content": ""}}, {"title": "礼仪庆典文化广场", "address": "吉林省长春市德惠市大青咀镇榆树林村小学", "image": "", "rank": 10, "time": 2, "location": {"lat": 44.371612110892805, "lng": 125.86306637970607}, "feature": {"sight_features": "", "sight_content": ""}}, {"title": "大青嘴遗址", "address": "吉林省长春市德惠市大青咀镇北", "image": "", "rank": 11, "time": 2, "location": {"lat": 44.4264676160989, "lng": 125.85046838872559}, "feature": {"sight_features": "", "sight_content": ""}}, {"title": "德惠市郭家镇基督教会", "address": "吉林省长春市德惠市S001", "image": "", "rank": 12, "time": 2, "location": {"lat": 44.52716106660816, "lng": 125.73451517727733}, "feature": {"sight_features": "", "sight_content": ""}}, {"title": "文化公园", "address": "长春市德惠市松柏路辅路", "image": "", "rank": 13, "time": 2, "location": {"lat": 44.52354343266135, "lng": 125.73113524350786}, "feature": {"sight_features": "", "sight_content": ""}}, {"title": "豆丁童乐园", "address": "人民街与民族路交汇处", "image": "", "rank": 14, "time": 2, "location": {"lat": 34.69623884702674, "lng": 112.49123218914953}, "feature": {"sight_features": "", "sight_content": ""}}, {"title": "德惠东正教堂旧址", "address": "和平街东北部约百余米", "image": "", "rank": 15, "time": 2, "location": {"lat": 30.522628395855453, "lng": 104.05291343219874}, "feature": {"sight_features": "", "sight_content": ""}}, {"title": "惠民公园", "address": "德兴街与惠民路交叉口西南100米", "image": "", "rank": 16, "time": 1.0, "location": {"lat": 44.52574479635824, "lng": 125.73636136398176}, "feature": {"sight_features": "", "sight_content": ""}}, {"title": "德惠市信合基督教堂", "address": "德信街与苗圃胡同交叉口东50米德惠市人大常委会建设街道工作委员会附近", "image": "", "rank": 17, "time": 2, "location": {"lat": 44.53303584222283, "lng": 125.70790974319155}, "feature": {"sight_features": "", "sight_content": ""}}, {"title": "德惠市庭园基督教会", "address": "长春市德惠市", "image": "", "rank": 18, "time": 1.5, "location": {"lat": 44.52716106660816, "lng": 125.73451517727733}, "feature": {"sight_features": "", "sight_content": ""}}, {"title": "基督教惠发堂", "address": "人民街附近", "image": "", "rank": 19, "time": null, "location": {"lat": 41.668567687358234, "lng": 115.69629869270942}, "feature": {"sight_features": "", "sight_content": ""}}, {"title": "智多星儿童游乐园", "address": "吉林省长春市德惠市胜利街道东风路港丰润泽苑", "image": "", "rank": 20, "time": 2.5, "location": {"lat": 44.537402651512416, "lng": 125.7416664140693}, "feature": {"sight_features": "", "sight_content": ""}}, {"title": "革命烈士纪念塔", "address": "惠发街道惠安路革命烈士纪念塔", "image": "", "rank": 21, "time": 2, "location": {"lat": 44.593010794925924, "lng": 125.74913080285697}, "feature": {"sight_features": "", "sight_content": ""}}, {"title": "欢乐谷儿童乐园", "address": "吉林省长春市德惠市岔路口镇中心小学北50米", "image": "", "rank": 22, "time": 2, "location": {"lat": 44.642051935409306, "lng": 126.18746046134972}, "feature": {"sight_features": "", "sight_content": ""}}, {"title": "彩色空间儿童乐园", "address": "三道街新东方购物中心三楼", "image": "", "rank": 23, "time": 2, "location": {"lat": 44.5398631349403, "lng": 125.71676697443516}, "feature": {"sight_features": "", "sight_content": ""}}, {"title": "庭园教堂", "address": "利民街与民族路交叉口北100米", "image": "", "rank": 24, "time": 2, "location": {"lat": 43.60916737767044, "lng": 121.31578400984729}, "feature": {"sight_features": "", "sight_content": ""}}, {"title": "许家油坊村文化广场", "address": "102国道附近", "image": "", "rank": 25, "time": 2, "location": {"lat": 39.9583743375638, "lng": 116.91102159370762}, "feature": {"sight_features": "", "sight_content": ""}}, {"title": "鑫缘广场", "address": "信合街与苗圃路交汇处", "image": "", "rank": 26, "time": 2, "location": {"lat": 44.536117182427496, "lng": 125.70432133247596}, "feature": {"sight_features": "", "sight_content": ""}}, {"title": "御景广场", "address": "德大路附近", "image": "", "rank": 27, "time": 2, "location": {"lat": 32.254773910933814, "lng": 111.7298457851716}, "feature": {"sight_features": "", "sight_content": ""}}, {"title": "迎宾广场", "address": "德惠西火车站前", "image": "", "rank": 28, "time": 0.35, "location": {"lat": 44.52716106660816, "lng": 125.73451517727733}, "feature": {"sight_features": "", "sight_content": ""}}, {"title": "德惠市新华信合基督教会", "address": "信合街附近", "image": "", "rank": 29, "time": null, "location": {"lat": 25.595246432196888, "lng": 111.96093587143979}, "feature": {"sight_features": "", "sight_content": ""}}, {"title": "烈士陵园(中共德惠市郭家镇委员...", "address": "德农路革命烈士纪念碑(中共德惠市郭家镇委员会东北)附近", "image": "", "rank": 30, "time": 2, "location": {"lat": 44.48307315393792, "lng": 125.46358683104452}, "feature": {"sight_features": "", "sight_content": ""}}, {"title": "明珠广场", "address": "长春市德惠市德惠路877号", "image": "", "rank": 31, "time": 1.5, "location": {"lat": 44.5418377975133, "lng": 125.7119843725441}, "feature": {"sight_features": "", "sight_content": ""}}, {"title": "德大广场", "address": "德大广场与松柏路交叉口东北100米", "image": "", "rank": 32, "time": 2, "location": {"lat": 44.53446594096794, "lng": 125.69659900873567}, "feature": {"sight_features": "", "sight_content": ""}}, {"title": "东方书画", "address": "建设路918附近", "image": "", "rank": 33, "time": 1.5, "location": {"lat": 33.741279433521356, "lng": 113.33114380758717}, "feature": {"sight_features": "", "sight_content": ""}}, {"title": "莲花自然保护区", "address": "人民街与德惠路交叉口", "image": "", "rank": 34, "time": 4.5, "location": {"lat": 44.54291966233142, "lng": 125.71136437465738}, "feature": {"sight_features": "", "sight_content": ""}}, {"title": "科协科技馆", "address": "德惠路1121号", "image": "", "rank": 35, "time": 2, "location": {"lat": 43.89633867496328, "lng": 125.30476573147332}, "feature": {"sight_features": "", "sight_content": ""}}, {"title": "乡情园", "address": "东风路望河堡东北500米", "image": "", "rank": 36, "time": 2, "location": {"lat": 44.53507476188779, "lng": 125.75230499232563}, "feature": {"sight_features": "", "sight_content": ""}}, {"title": "德惠市郭家镇景丽葡萄采摘园", "address": "郭家镇景丽葡萄采摘园", "image": "", "rank": 37, "time": 2, "location": {"lat": 40.377884927793225, "lng": 116.6646780223668}, "feature": {"sight_features": "", "sight_content": ""}}, {"title": "昌盛商业街", "address": "吉林省德惠市西大街", "image": "", "rank": 38, "time": 2, "location": {"lat": 44.52716106660816, "lng": 125.73451517727733}, "feature": {"sight_features": "", "sight_content": ""}}]}