{"cityName": "德化", "days": 2, "cityImage": "", "spots": [{"title": "九仙山风景区", "address": "泉州市德化县泉州德化赤水镇", "image": "", "rank": 1, "time": 3.0, "location": {"lat": 25.652687549096548, "lng": 118.18100998524831}, "feature": {"sight_features": "特色1 攀登刺激冒险的天梯，欣赏日出、云海、雾松三绝 特色2 感受登山观景的乐趣。", "sight_content": "有“中土蓬莱第一山”美称的九仙山，是一座集秀美风光、宗教圣地和文物古迹于一山的旅游胜地，位于德化县西北部，距离泉州市区140公里，距离德化县城关22公里，景区面积约35平方公里，主峰“尺五天”海拔1658米，现已开发弥勒洞、金顶、灵鹫岩寺、永安岩四个景区，莲花峰、广钦寺景区正在开发中。山上的湿度、风速、雾天均居全国第二位，故有佛光、云海、雾凇等气象奇观。九仙山年均气温12℃，尤其是炎夏季节，山中处处凉爽宜人，是避暑的理想去处。\n九仙山名称的由来有多种说法。有说是因该山九峰并峙故名；有说是此山最早开发在南北朝，是道教用地，因道教有九仙而得名；清乾隆版《德化县志》记载，是“相传昔有隐士九人居此，俱仙去”，故名；明知县杨九正则在《九仙山志序》说是“仙游九鲤胜事俱在，德化邻之，则山名九仙”，把这座山名的由来与仙游九鲤湖何氏九仙连在一起；还有一种说法，相传很久以前，有一附近农民上山砍柴，遇到八仙在山顶的一块名叫棋盘石的巨石上下棋，下得十分精彩，他站在一旁观看，忘了砍柴，直到日落西天了才回家，却发现家里早已儿孙满堂，方知自己遇到了仙人，急忙再折上山，但仙人早已远去，于是他就在山上修炼，后来也成了仙，因此而得名。这个传说流传甚广，今还有“山中方七日，世上几百年”的民谚在民间流传；另有一说法，说是唐代开元年间，开山僧邹无比在天然室修炼成仙，恰逢八仙在邻洞欢聚，合为九仙。“山不在高，有仙则名”，九仙山的命名大致亦出于此。\n风景秀丽的九仙山，峰峦间常有云雾飘绕，嶙峋怪石下有幽洞密布，曲径上有松阴翠竹，身旁小涧飞流，游览其间如入仙境。而山中的景致随着气候变化更是景色万千，美不胜收。春天，杜鹃花漫山怒放，红的紫的黄的七彩纷呈，令人目不暇接；夏日，时而云海飘渺，时而日丽山青，特别是雨后天晴之际，空山如洗，翠竹青松在阳光下凝碧吐绿，甚是悦目；秋风送爽时节，红叶铺径，登临峰顶，或观旭日东升，或看落霞纷飞，让人感慨万千；冬季的南国虽说青山依旧，但山中常会白雪银妆，雾凇垂玉，一派北国风光，令人流连忘返。\n九仙山不仅风光秀美，景色如画，还是闽南地区的宗教圣地。早在南北朝，就不知有多少求道的隐士在山中炼丹修行。到了唐代开元年间，高僧无比与徒弟普惠创建了灵鹫岩寺之后，道家逐渐退出，佛教的香火却长盛不衰，在明清时期，山中曾经建有大小寺院７座，灵鹫岩寺一度成为福建省佛教活动中心之一，其18支房派的900多位僧人遍布各地，许多高僧分布于89座寺院里担任住持传教，香火远播闽台及海外。"}}, {"title": "岱仙瀑布", "address": "泉州市德化县水口镇", "image": "", "rank": 2, "time": 1.5, "location": {"lat": 25.706951797685647, "lng": 118.45242387629925}, "feature": {"sight_features": "", "sight_content": ""}}, {"title": "石牛山森林公园", "address": "泉州市德化县水口镇水口街湖坂村赤石口", "image": "", "rank": 3, "time": 3.0, "location": {"lat": 25.68656406304096, "lng": 118.43412870242454}, "feature": {"sight_features": "", "sight_content": ""}}, {"title": "翰林陶瓷体验馆", "address": "泉州市德化县浔北路翰林府邸陶瓷城251馆", "image": "", "rank": 4, "time": 2, "location": {"lat": 25.499222225505182, "lng": 118.24401857996922}, "feature": {"sight_features": "", "sight_content": ""}}, {"title": "国宝云龙谷", "address": "泉州市德化县国宝乡", "image": "", "rank": 5, "time": 2, "location": {"lat": 25.583651317330474, "lng": 118.19941668285372}, "feature": {"sight_features": "", "sight_content": "国宝云龙谷位于中国瓷都德化的中部略偏西南，省道206线旁，距城关15公里，交通便捷。景区按“一带四区”布局，即峡谷游憩带、田园体验区、宗教观光区、休闲度假区、生态探险区，总面积5000亩。景区内有1200多种高等植物、100多种大型真菌、100多种内陆栖脊椎动物，呈现出戴云山独特的生物多样性，是天然的森林氧吧；神奇的九龙溪、神匠的溪中怪石、复杂的原始森林、巧夺天工的大小酒瓮，孕育了旖旎的峡谷风光；荷花、樱花、睡莲、映山红、枫叶、紫薇等四季花草，构成一幅美丽的诗画山水世界；佛岭古村、明代抗倭古堡、云龙宫、朱熹遗迹，保存着浓厚的乡土人情和深厚的历史文化底蕴；日月亭、情人潭、鳄鱼滩、雄狮赐福，传唱着古老的情歌；古朴的民俗物品、新奇的植物迷宫、趣味的农耕体验，展示了中华民族的古老文明和聪明才智；德化黑鸡、德化黑兔、德化梨等土特产品，更是让您过足农家山珍野味瘾……\n这里是戴云山麓中理想的山水田园休闲旅游驿站。走出喧嚣城市，拥抱美好自然，感悟山水灵性，悠享乡村愉悦。峡谷、田园、人文之旅。"}}, {"title": "石龙溪漂流", "address": "泉州市德化县南埕镇塔兜村", "image": "", "rank": 6, "time": 2, "location": {"lat": 25.600065961443427, "lng": 118.40949678356924}, "feature": {"sight_features": "特色1 华东第一漂", "sight_content": "号称“华东第一漂”——德化石龙溪橡皮艇漂流，全程约4公里，历时近3个小时，沿途树林茂密，野生动物成群，溪水清澈，溪流湍急，落差大，有69个弯，88个急流点。游人两人或三人一组，挥浆击水，沿溪而下，惊涛骇浪，有惊无险，尽情潇洒。\n石龙溪起源于石牛山脚下，汇合石牛山与七合山的6条山涧之水向西流经塔兜与桃仙溪合流，全长12公里。这里的水，湍急处如飞珠溅玉，平缓处如银湖泄波，错落有致，吭然有声，溪水清澈见底，整条溪流都在原始森林的映衬中。这里的山，蜿蜒起伏、连绵不断，高低不同，形态万千，重峦叠嶂、林木葱茏，整座山弥漫着原始森林的气息。这里的花，种类繁多，竞相争艳。花种有菊花、杜鹃花、百合花、山茶花、兰花等。这里的动物，除了山鸡、野兔、野猪等，还有珍贵的穿山甲、蟒蛇、赤麂（俗名山羌）、苏门羚（俗名山羊）、金钱豹。这里的树木，既有杉树、松柏、樟树、枫树，还有名贵的香柴、红杉等树种。这里的植物，既有可入葯的“十大功劳”、黄花金桂等，又有珍稀的国家一级保护植物——桫椤。\n南埕桃花岛距离城关27公里。岛上种植有桃树、西蕃莲、杨梅等果树，还有百年樟树、迎客松、两树相拥的情侣树、白鹭洲、宗教胜地大洲宫等，周围有苏十万抗元遗址调兵寨、厘顶寨等。石龙溪漂流四周生态环境保护较好，水质清澈，沿溪靠山两侧古树参天，山上森林茂密，白鹭成群。在泉州、厦门及福州一带久负盛名，慕名而来的游客众多。"}}, {"title": "顺美陶瓷生活馆", "address": "泉州市德化县浔中镇宝美村环城路", "image": "", "rank": 7, "time": 2, "location": {"lat": 25.496961839297633, "lng": 118.26459820134829}, "feature": {"sight_features": "特色1 一部陶瓷史", "sight_content": "陶瓷文化生活馆一部陶瓷史，可以用文字语言记录，也可以通过历代不同风格、不同类型的陶瓷展现。德化顺美陶瓷文化生活馆就是这样一个展馆，它通过销往世界各国、中国各地的陶瓷产品，让参观者感受德化陶瓷魅力的同时，展现德化悠久的陶瓷文化历史，以及现代陶瓷的发展现状。\n“陶瓷文化生活馆”总建筑面积20000平方米，其中文化创作场所10000平方米，文化产品展示中心6000平方米，其他配套设备4000平方米。整个陶瓷文化生活馆是一个多元化的陶瓷文化创意产业园区，主要由西方陶瓷文化用品展示中心、中国传统瓷雕艺术品展示中心，中国日用陶瓷展示中心，以及陶瓷文化创作中心四部分组成，陶瓷文化生活馆总投资6500万元。\n该馆同时为德化当地陶瓷企业设立展馆，设置包括国际文化礼品区、中国文化礼品区及陶艺DIY体验区，其展品囊括了德化历代陶瓷特色产品，吸引了众多陶瓷爱好者前往参观。“德化陶瓷文化历史悠久，但如何将历史文化与现代陶瓷发展结合展示，却是现今德化陶瓷文化的一个空白。”顺美集团相关负责人郑衍彬介绍，该馆的规划初衷，就是希望填补这样一个空白，将德化的千年制瓷历史、制瓷工艺等融入展馆，让人们一次览尽德化陶瓷的前世今生。"}}, {"title": "戴云山", "address": "泉州市德化县赤水镇戴云村境内", "image": "", "rank": 8, "time": 3.0, "location": {"lat": 25.64235256691709, "lng": 118.22181210934599}, "feature": {"sight_features": "", "sight_content": ""}}, {"title": "云龙谷漂流", "address": "泉州市德化县国宝乡国宝云龙谷景区境内", "image": "", "rank": 9, "time": 2, "location": {"lat": 25.60924480394839, "lng": 118.18110711632815}, "feature": {"sight_features": "特色1 集瀑布、深潭、奇石、丛林、珍惜植物于一体！ 特色2 戴云山天然山泉水，沿溪两侧生态环境良好，风光秀丽！ 特色3 全程3.8公里，落差近50米，急流险滩30多处，漂流时间约2小时左右！", "sight_content": "云龙谷橡皮艇漂流位于中国瓷都德化中部略偏西南的国宝乡国宝云龙谷景区境内，省道206线旁，距离德化县城17公里。该漂流河段系晋江水源头之一，起点为国宝云龙谷景区的大门口，终点为梨花岛，全程3.8公里，落差近50米，急流险滩30多处，漂流时间约2小时左右。\n漂流河道的主要水源来自戴云山天然山泉水，水质优良，清澈见底。天然峡谷赋予云龙谷漂流与众不同的特色，沿溪两侧生态环境良好，风光秀丽，集瀑布、深潭、奇石、丛林、珍惜植物于一体。两岸的主要景点包括云龙瀑、樱花岛、睡美女、连心岛、连心潭、鲤鱼跃龙门、雄师赐福、梨花岛，自然景色之美、空气之新鲜令人为之惊叹，能让游客真正感觉到与自然的和谐、亲近，感受到纵情自然的无穷乐趣。"}}, {"title": "桃仙溪景区桃花岛", "address": "泉州市德化南埕镇203省道附近", "image": "", "rank": 10, "time": 2, "location": {"lat": 25.684806714621597, "lng": 118.4261162269055}, "feature": {"sight_features": "特色1 国家4A级景区", "sight_content": "泉州桃仙溪景区桃花岛地处德化县南埕镇镇区，是桃仙溪与芹溪交汇冲积而成的长达1公里、面积约200亩的一个小岛屿，因岛上种有近万株呈八卦阵的桃树而得名。桃花岛上分布着景点主要有百年老樟、迎客松、两树相拥的情侣树、白鹭洲 、大洲宫等。岛的四周生态环境保护较好，特别是桃仙溪靠山一侧，沿溪古树成群，山上森林茂密，古树苍翠，山中还有苏十万抗元遗址：调兵寨、厘顶寨等。\n\n漫步桃花之中，平添几分仙气，或友人三五成群，或阖家春游踏青，身处漫山遍野的芬芳中，尽享浪漫春光，是一件无尽惬意的事情！兴之所至，你可以在桃花树下席地而坐，小酌一杯桃乡美酒，重温渊明遗风；也可以泛舟桃仙溪，波光潋滟，尽览水天一色的景色；你也可以和桃农一起，为桃树翻土、施肥、浇水，体验桃农生活。正所谓“淡墨写意桃花岛，白鹭高飞芦苇摇。捕鱼捉虾乐趣多，岛上畅游任逍遥！”\n桃花岛风景区集观光、度假、朝圣、避暑、休闲、健身等为一体，是德化旅游一个亮点，而且正在成为国内外游客赴闽旅游的又一个热点。"}}, {"title": "塔兜“御汤宫”温泉", "address": "泉州市德化县南埕镇塔兜村", "image": "", "rank": 11, "time": 2, "location": {"lat": 25.600065961443427, "lng": 118.40949678356924}, "feature": {"sight_features": "", "sight_content": ""}}, {"title": "大龙湖漂流", "address": "泉州市德化县美湖镇美湖村", "image": "", "rank": 12, "time": 2, "location": {"lat": 25.618674534445635, "lng": 118.08811110921857}, "feature": {"sight_features": "特色1 激流勇进，博浪闯滩，体验漂流乐趣。 特色2 全程二十多个激流险滩顺流而下，浪遏飞舟，惊心动魄。 特色3 天天是泼水节，处处是水仗区，戏水嬉闹，也是一大乐趣。", "sight_content": "大龙湖漂流位于德化县美湖镇美湖村，漂流全长约5公里，落差125米，属于自然风光的峡谷漂流，全程共有二十多个激流险滩顺流而下，沿溪两侧风光秀丽，在感受浪遏飞舟的同时，戏水也是大龙湖漂流的一大乐趣。\n\n这里天天是泼水节，处处是水仗区。无论相识与否，见面礼就是相互泼水。在蜿蜒、曲折的峡谷河流中，游客或博浪闯滩、或戏水嘻闹，可放纵情怀，回归自然。"}}, {"title": "德化陶瓷博物馆", "address": "福建省泉州市德化县浔中镇唐寨山森林公园内", "image": "", "rank": 13, "time": 2.0, "location": {"lat": 25.52563745488123, "lng": 118.228686289852}, "feature": {"sight_features": "", "sight_content": ""}}, {"title": "戴云寺", "address": "泉州市德化县戴云山下", "image": "", "rank": 14, "time": 2, "location": {"lat": 25.50218979423107, "lng": 118.25402417802431}, "feature": {"sight_features": "", "sight_content": ""}}, {"title": "洞上陶艺村", "address": "泉州市德化县346县道", "image": "", "rank": 15, "time": 2, "location": {"lat": 25.45768956650516, "lng": 118.29366961340534}, "feature": {"sight_features": "", "sight_content": ""}}, {"title": "灵鹫岩寺", "address": "德化县赤九段九仙山中", "image": "", "rank": 16, "time": 2, "location": {"lat": 25.716529782821848, "lng": 118.11730268401043}, "feature": {"sight_features": "", "sight_content": ""}}, {"title": "焦溪古仓温泉", "address": "泉州市德化县蕉溪村村委会", "image": "", "rank": 17, "time": 2, "location": {"lat": 25.54931419153275, "lng": 118.29604697893672}, "feature": {"sight_features": "特色1 拥有大小泡池不等，可以自由选择", "sight_content": "古仓温泉园，是从地下自然涌出的自然水，泉口温度显著地高于当地年平均气温而又低于（等于）45度的地下水天然泉水。室外温泉区环境大气，拥有大小泡池不等，可以自由选择。\n温泉园内自带游泳池（长23米，宽11米，浅水区0.9米，深水区1.60米），更有多种泡池包括瀑布喷泉泳池，动感温泉水疗池，双龙溪水按摩浴等。"}}, {"title": "德化好来登天润温泉度假村", "address": "福建省泉州德化雷峰镇203省道西侧（蕉溪村西）", "image": "", "rank": 18, "time": 3.0, "location": {"lat": 25.607147558112, "lng": 118.36800574178973}, "feature": {"sight_features": "", "sight_content": ""}}, {"title": "古桥岛温泉", "address": "雷峰镇", "image": "", "rank": 19, "time": null, "location": {"lat": 25.608112743232635, "lng": 118.29454951083852}, "feature": {"sight_features": "", "sight_content": ""}}, {"title": "塔兜御汤宫温泉", "address": "南埕镇塔兜村", "image": "", "rank": 20, "time": 2, "location": {"lat": 25.600065961443427, "lng": 118.40949678356924}, "feature": {"sight_features": "", "sight_content": ""}}, {"title": "杨梅放养山鸡", "address": "浔南路63号附近", "image": "", "rank": 21, "time": 2, "location": {"lat": 33.27675470883776, "lng": 118.93234055345634}, "feature": {"sight_features": "", "sight_content": ""}}, {"title": "石狮九仙山", "address": "福建省德化县赤水乡 362500", "image": "", "rank": 22, "time": 3.0, "location": {"lat": 25.49730859417917, "lng": 118.247550069555}, "feature": {"sight_features": "", "sight_content": ""}}, {"title": "祖龙宫", "address": "福建省泉州市德化县宝美街69号", "image": "", "rank": 23, "time": 2, "location": {"lat": 25.493243108828374, "lng": 118.26440281989993}, "feature": {"sight_features": "", "sight_content": ""}}, {"title": "德化县基督教会", "address": "埔林巷35号附近", "image": "", "rank": 24, "time": 2, "location": {"lat": 25.495502878124988, "lng": 118.25385450304847}, "feature": {"sight_features": "", "sight_content": ""}}, {"title": "邱双炯陶瓷艺术陈列馆", "address": "福建省泉州市德化县城中路", "image": "", "rank": 25, "time": 2, "location": {"lat": 25.503713016058366, "lng": 118.24919875391117}, "feature": {"sight_features": "", "sight_content": ""}}, {"title": "草洋庵", "address": "泉州市德化县", "image": "", "rank": 26, "time": 2, "location": {"lat": 25.49730859417917, "lng": 118.247550069555}, "feature": {"sight_features": "", "sight_content": ""}}, {"title": "佛光祈胜", "address": "泉州市德化县上涌镇九仙山风景区九仙山风景区内", "image": "", "rank": 27, "time": 2, "location": {"lat": 25.689950772447162, "lng": 118.1223158081615}, "feature": {"sight_features": "", "sight_content": ""}}, {"title": "龙翔美食健身休闲广场", "address": "福建省泉州市德化县浔中镇浔东路富东花苑文良购物广场", "image": "", "rank": 28, "time": 2, "location": {"lat": 25.500132861468543, "lng": 118.25582147355246}, "feature": {"sight_features": "", "sight_content": ""}}, {"title": "瓷都广场", "address": "泉州市德化县龙浔镇南门时尚华庭a幢3-4号", "image": "", "rank": 29, "time": 2, "location": {"lat": 25.494544188527858, "lng": 118.2472615338253}, "feature": {"sight_features": "", "sight_content": ""}}, {"title": "德化石牛山怡庭度假山庄", "address": "德化水口镇湖坂村赤石口", "image": "", "rank": 30, "time": 3.0, "location": {"lat": 25.68656406304096, "lng": 118.43412870242454}, "feature": {"sight_features": "", "sight_content": ""}}, {"title": "和胜赛车场", "address": "203省道附近", "image": "", "rank": 31, "time": 2, "location": {"lat": 38.70057735317822, "lng": 114.30841754306506}, "feature": {"sight_features": "", "sight_content": ""}}, {"title": "缨溪境戏台", "address": "诗墩路", "image": "", "rank": 32, "time": 2, "location": {"lat": 25.507715541928953, "lng": 118.25622350030197}, "feature": {"sight_features": "", "sight_content": ""}}, {"title": "九仙山", "address": "泉州市德化县泉州德化上涌乡（德化县西北部的赤水、上涌、大铭三地的交界处）", "image": "", "rank": 33, "time": 2.5, "location": {"lat": 25.73671443456918, "lng": 118.16596030384105}, "feature": {"sight_features": "", "sight_content": ""}}, {"title": "中国白艺术宫", "address": "福建省德化县瓷都大道", "image": "", "rank": 34, "time": 2, "location": {"lat": 25.490335699838532, "lng": 118.23032010635367}, "feature": {"sight_features": "", "sight_content": ""}}, {"title": "德化窑遗址", "address": "福建省德化县浔中镇宝美村 362500", "image": "", "rank": 35, "time": 2, "location": {"lat": 25.498001141610008, "lng": 118.25587245508505}, "feature": {"sight_features": "", "sight_content": ""}}, {"title": "宝灵宫", "address": "龙浔镇宝泰路10号", "image": "", "rank": 36, "time": 2, "location": {"lat": 25.495365285317977, "lng": 118.26568310736998}, "feature": {"sight_features": "", "sight_content": ""}}, {"title": "地藏殿", "address": "泉州市德化县永安岩内", "image": "", "rank": 37, "time": 2.5, "location": {"lat": 25.698652362047067, "lng": 118.12373045967816}, "feature": {"sight_features": "", "sight_content": ""}}, {"title": "上涌公园", "address": "福建省泉州市德化县S206", "image": "", "rank": 38, "time": 2, "location": {"lat": 25.49730859417917, "lng": 118.247550069555}, "feature": {"sight_features": "", "sight_content": ""}}, {"title": "泉州桃仙居度假村", "address": "泉州市德化县南埕镇桃仙居度假村", "image": "", "rank": 39, "time": 1.5, "location": {"lat": 25.64520265289645, "lng": 118.40452186075828}, "feature": {"sight_features": "", "sight_content": ""}}, {"title": "董坂宫", "address": "浔南路158号附近", "image": "", "rank": 40, "time": 2, "location": {"lat": 33.27657648209448, "lng": 118.9350594654565}, "feature": {"sight_features": "", "sight_content": ""}}, {"title": "风池公园", "address": "福建省泉州市德化县西门街4号", "image": "", "rank": 41, "time": 2, "location": {"lat": 25.498105564001506, "lng": 118.24464620716441}, "feature": {"sight_features": "", "sight_content": ""}}, {"title": "御香园", "address": "龙浔镇南环路城南嘉园", "image": "", "rank": 42, "time": 2, "location": {"lat": 25.490264827805095, "lng": 118.24669138111493}, "feature": {"sight_features": "", "sight_content": ""}}, {"title": "龙湖公园", "address": "进城大道", "image": "", "rank": 43, "time": 1.5, "location": {"lat": 23.862065443503077, "lng": 106.67441330176499}, "feature": {"sight_features": "", "sight_content": ""}}, {"title": "石牛山景区岱仙瀑布-检票口", "address": "泉州市德化县德化定制商务旅游线石牛山景区岱仙瀑布内", "image": "", "rank": 44, "time": null, "location": {"lat": 25.680058276423864, "lng": 118.44983788829632}, "feature": {"sight_features": "", "sight_content": ""}}, {"title": "中国白瓷博物馆", "address": "瓷都大道", "image": "", "rank": 45, "time": 2, "location": {"lat": 29.28737804729124, "lng": 117.19788507876606}, "feature": {"sight_features": "", "sight_content": ""}}, {"title": "革命历史纪念馆", "address": "环城南路285号", "image": "", "rank": 46, "time": null, "location": {"lat": 30.91213986959879, "lng": 121.47736067504493}, "feature": {"sight_features": "", "sight_content": ""}}, {"title": "永安万年水泥德化总代理", "address": "瓷都大道与环城南路交叉口东200米", "image": "", "rank": 47, "time": 2.5, "location": {"lat": 25.48984329208648, "lng": 118.24378270290849}, "feature": {"sight_features": "", "sight_content": ""}}, {"title": "北京创导福建总代理商", "address": "德新街宝美卫生所旁", "image": "", "rank": 48, "time": 1.0, "location": {"lat": 25.49004330454584, "lng": 118.26337963465322}, "feature": {"sight_features": "", "sight_content": ""}}, {"title": "桃仙溪竹筏漂流", "address": "南埕镇塔兜村", "image": "", "rank": 49, "time": 2, "location": {"lat": 25.600065961443427, "lng": 118.40949678356924}, "feature": {"sight_features": "", "sight_content": ""}}, {"title": "陶源农家乐", "address": "隆泰大道附近", "image": "", "rank": 50, "time": 2, "location": {"lat": 25.497162407727746, "lng": 118.27793713986155}, "feature": {"sight_features": "", "sight_content": ""}}, {"title": "虾菇山农家乐", "address": "堤坝路东50米", "image": "", "rank": 51, "time": 2, "location": {"lat": 22.91854999750451, "lng": 113.07457318874452}, "feature": {"sight_features": "", "sight_content": ""}}, {"title": "土不土生态农庄", "address": "潘祠村溪心20号", "image": "", "rank": 52, "time": 2, "location": {"lat": 27.52893678705972, "lng": 120.3704146359098}, "feature": {"sight_features": "", "sight_content": ""}}, {"title": "德化县九仙山食用菌专业合作社", "address": "凤林路12号附近", "image": "", "rank": 53, "time": 2, "location": {"lat": 31.525400296437194, "lng": 121.04380738599963}, "feature": {"sight_features": "", "sight_content": ""}}, {"title": "双全农业", "address": "进城大道", "image": "", "rank": 54, "time": 2, "location": {"lat": 23.862065443503077, "lng": 106.67441330176499}, "feature": {"sight_features": "", "sight_content": ""}}, {"title": "寨仔尾尖", "address": "泉州市-德化县", "image": "", "rank": 55, "time": 2, "location": {"lat": 25.49730859417917, "lng": 118.247550069555}, "feature": {"sight_features": "", "sight_content": ""}}, {"title": "石屑仔", "address": "泉州市-德化县", "image": "", "rank": 56, "time": 2, "location": {"lat": 25.49730859417917, "lng": 118.247550069555}, "feature": {"sight_features": "", "sight_content": ""}}]}