{"cityName": "德令哈", "days": 2, "cityImage": "", "spots": [{"title": "托素湖", "address": "海西蒙古族藏族自治州德令哈市怀头他拉镇", "image": "", "rank": 1, "time": 1.0, "location": {"lat": 37.35562925406733, "lng": 96.75770557277079}, "feature": {"sight_features": "", "sight_content": ""}}, {"title": "外星人遗址", "address": "海西州德令哈市", "image": "", "rank": 2, "time": 1.0, "location": {"lat": 37.37534590746335, "lng": 97.36747029997534}, "feature": {"sight_features": "", "sight_content": ""}}, {"title": "可鲁克湖景区", "address": "海西蒙古族藏族自治州德令哈市", "image": "", "rank": 3, "time": 1.0, "location": {"lat": 37.37534590746335, "lng": 97.36747029997534}, "feature": {"sight_features": "", "sight_content": ""}}, {"title": "尕海湖", "address": "德令哈市尕海镇", "image": "", "rank": 4, "time": 1.5, "location": {"lat": 37.22404136444206, "lng": 97.42216236703447}, "feature": {"sight_features": "", "sight_content": ""}}, {"title": "巴音河", "address": "青海省海西蒙古族藏族自治州德令哈市", "image": "", "rank": 5, "time": 1.0, "location": {"lat": 37.37534590746335, "lng": 97.36747029997534}, "feature": {"sight_features": "", "sight_content": ""}}, {"title": "柏树山", "address": "德令哈市北面10公里处", "image": "", "rank": 6, "time": 1.0, "location": {"lat": 37.37534590746335, "lng": 97.36747029997534}, "feature": {"sight_features": "", "sight_content": ""}}, {"title": "热水墓群", "address": "德令哈市都兰县热水乡", "image": "", "rank": 7, "time": null, "location": {"lat": 36.22613168559259, "lng": 98.17284117863865}, "feature": {"sight_features": "", "sight_content": ""}}, {"title": "哈里哈图森林公园", "address": "德令哈市乌兰县境内", "image": "", "rank": 8, "time": 1.0, "location": {"lat": 37.37534590746335, "lng": 97.36747029997534}, "feature": {"sight_features": "", "sight_content": ""}}, {"title": "柯柯盐湖", "address": "德令哈市乌兰县柯柯镇境内", "image": "", "rank": 9, "time": 1.0, "location": {"lat": 36.835959044282966, "lng": 97.79740669842715}, "feature": {"sight_features": "", "sight_content": ""}}, {"title": "黑石山水库", "address": "德令哈市以北4公里处的巴音河黑石山山口", "image": "", "rank": 10, "time": 1.0, "location": {"lat": 37.31837787136359, "lng": 97.48456854193172}, "feature": {"sight_features": "", "sight_content": ""}}, {"title": "白公山", "address": "德令哈市托素湖东北地带", "image": "", "rank": 11, "time": 1.0, "location": {"lat": 37.14988634381235, "lng": 96.9538486450261}, "feature": {"sight_features": "", "sight_content": ""}}, {"title": "金子海", "address": "德令哈市乌兰县", "image": "", "rank": 12, "time": 1.0, "location": {"lat": 37.37534590746335, "lng": 97.36747029997534}, "feature": {"sight_features": "", "sight_content": ""}}, {"title": "紫金山天文台青海站", "address": "德令哈市正东40公里处", "image": "", "rank": 13, "time": 1.0, "location": {"lat": 37.37534590746335, "lng": 97.36747029997534}, "feature": {"sight_features": "", "sight_content": ""}}, {"title": "鲁芒沟岩画", "address": "德令哈市天峻县天棚乡鲁芒沟内约4公里的东山根", "image": "", "rank": 14, "time": 1.0, "location": {"lat": 37.245587081924675, "lng": 99.24231738691512}, "feature": {"sight_features": "", "sight_content": ""}}, {"title": "卢山岩画", "address": "德令哈天峻县市江河乡卢山山丘的30多块花岗长粉岩上", "image": "", "rank": 15, "time": 1.0, "location": {"lat": 37.34591635807179, "lng": 99.33281589004265}, "feature": {"sight_features": "", "sight_content": ""}}, {"title": "天峻石经寺", "address": "德令哈市天峻县下环仓（天峻县城东北方，离县城约18公里处）。", "image": "", "rank": 16, "time": 1.0, "location": {"lat": 37.306903395111, "lng": 99.02924296796702}, "feature": {"sight_features": "", "sight_content": ""}}, {"title": "二郎洞", "address": "德令哈市天峻县关角山", "image": "", "rank": 17, "time": 1.0, "location": {"lat": 37.18452706859477, "lng": 98.87862956277263}, "feature": {"sight_features": "", "sight_content": ""}}, {"title": "贝壳山", "address": "德令哈市都兰县诺木洪乡东南方向的一片荒漠地带", "image": "", "rank": 18, "time": 1.0, "location": {"lat": 36.44071930648656, "lng": 96.46279140672615}, "feature": {"sight_features": "", "sight_content": ""}}, {"title": "天峻石林", "address": "德令哈市天峻县城西部的天峻山上", "image": "", "rank": 19, "time": 1.0, "location": {"lat": 37.37534590746335, "lng": 97.36747029997534}, "feature": {"sight_features": "", "sight_content": ""}}, {"title": "诺木洪遗址", "address": "德令哈市都兰县诺木洪乡", "image": "", "rank": 20, "time": 1.0, "location": {"lat": 36.44071930648656, "lng": 96.46279140672615}, "feature": {"sight_features": "", "sight_content": ""}}, {"title": "德令哈天文科普馆", "address": "长江路35号", "image": "", "rank": 21, "time": 2, "location": {"lat": 44.556458057350675, "lng": 120.91449095663236}, "feature": {"sight_features": "", "sight_content": ""}}, {"title": "那达慕民族运动场", "address": "蓄集乡固始汗大道那达慕民族运动场", "image": "", "rank": 22, "time": 2, "location": {"lat": 37.47041440932353, "lng": 97.35799651943987}, "feature": {"sight_features": "", "sight_content": ""}}, {"title": "尕海", "address": "青海省,德令哈市,境内, 817000", "image": "", "rank": 23, "time": 1.5, "location": {"lat": 37.37534590746335, "lng": 97.36747029997534}, "feature": {"sight_features": "", "sight_content": ""}}, {"title": "海西红军沟", "address": "青海省德令哈市马可河", "image": "", "rank": 24, "time": 1.0, "location": {"lat": 37.37534590746335, "lng": 97.36747029997534}, "feature": {"sight_features": "", "sight_content": ""}}, {"title": "海子诗歌陈列馆", "address": "河西街道莲湖路海子诗歌陈列馆", "image": "", "rank": 25, "time": 2, "location": {"lat": 37.37554329395116, "lng": 97.37358592885334}, "feature": {"sight_features": "", "sight_content": ""}}, {"title": "民族博物馆", "address": "柴达木东路25号", "image": "", "rank": 26, "time": 2.0, "location": {"lat": 37.37952014567907, "lng": 97.37787658451153}, "feature": {"sight_features": "", "sight_content": ""}}, {"title": "德令哈农场", "address": "409县道附近", "image": "", "rank": 27, "time": 2, "location": {"lat": 40.83602379787554, "lng": 114.1463981731494}, "feature": {"sight_features": "", "sight_content": ""}}, {"title": "德令哈市清真大寺", "address": "青海省海西蒙古族藏族自治州德令哈市柴达木西路46", "image": "", "rank": 28, "time": 1.0, "location": {"lat": 37.37524818665269, "lng": 97.36153892074387}, "feature": {"sight_features": "", "sight_content": ""}}, {"title": "德令哈尕海国家湿地公园", "address": "S2013茶德高速东50米国家重点公益林尕海湖管护站附近", "image": "", "rank": 29, "time": 2, "location": {"lat": 37.16843043674043, "lng": 97.57535840685821}, "feature": {"sight_features": "", "sight_content": ""}}, {"title": "索勒布郭勒", "address": "青海省海西蒙古族藏族自治州德令哈市", "image": "", "rank": 30, "time": 2, "location": {"lat": 37.37534590746335, "lng": 97.36747029997534}, "feature": {"sight_features": "", "sight_content": ""}}, {"title": "青年林公园", "address": "青海省海西蒙古族藏族自治州德令哈市黄河路37", "image": "", "rank": 31, "time": 2, "location": {"lat": 37.359058890291735, "lng": 97.39136602444742}, "feature": {"sight_features": "", "sight_content": ""}}, {"title": "德令哈植物园", "address": "都兰西路南50米", "image": "", "rank": 32, "time": 3.5, "location": {"lat": 37.35726052673912, "lng": 97.35770552325127}, "feature": {"sight_features": "", "sight_content": ""}}, {"title": "柴达木影剧院", "address": "柴达木东路21号", "image": "", "rank": 33, "time": 2, "location": {"lat": 37.37947293255171, "lng": 97.37901939351015}, "feature": {"sight_features": "", "sight_content": ""}}, {"title": "庆华广场", "address": "尕海镇庆华广场", "image": "", "rank": 34, "time": 2, "location": {"lat": 37.32263367177509, "lng": 97.39079626857651}, "feature": {"sight_features": "", "sight_content": ""}}, {"title": "州档案馆", "address": "党校路6号", "image": "", "rank": 35, "time": 2, "location": {"lat": 37.812408022562046, "lng": 112.579563000234}, "feature": {"sight_features": "", "sight_content": ""}}, {"title": "海西蒙古族藏族自治州图书馆", "address": "柴达木东路", "image": "", "rank": 36, "time": 2.5, "location": {"lat": 37.38000006215336, "lng": 97.39535608710787}, "feature": {"sight_features": "", "sight_content": ""}}, {"title": "州图书馆", "address": "格尔木西路", "image": "", "rank": 37, "time": 2.5, "location": {"lat": 37.37437198456347, "lng": 97.37412954202594}, "feature": {"sight_features": "", "sight_content": ""}}, {"title": "儿童乐园", "address": "天峻西路4号", "image": "", "rank": 38, "time": 2, "location": {"lat": 37.369244908011794, "lng": 97.37077831001582}, "feature": {"sight_features": "", "sight_content": ""}}, {"title": "克鲁克湖-托素湖自然保护区", "address": "青海省格尔木市东北", "image": "", "rank": 39, "time": 2, "location": {"lat": 36.41237104695386, "lng": 94.93331021042529}, "feature": {"sight_features": "", "sight_content": ""}}, {"title": "海西可鲁克湖", "address": "青海省格尔木市巴音河", "image": "", "rank": 40, "time": 2.5, "location": {"lat": 35.980715626046035, "lng": 95.73332969092829}, "feature": {"sight_features": "", "sight_content": ""}}, {"title": "德令哈商业步行街", "address": "青海省德令哈市柴达木东路与步行南街交叉口", "image": "", "rank": 41, "time": 1.0, "location": {"lat": 37.38000006215336, "lng": 97.39535608710787}, "feature": {"sight_features": "", "sight_content": ""}}, {"title": "德令哈市步行街", "address": "青海省德令哈市柴达木东路与步行南街交叉口", "image": "", "rank": 42, "time": 3.0, "location": {"lat": 37.38000006215336, "lng": 97.39535608710787}, "feature": {"sight_features": "", "sight_content": ""}}, {"title": "敦德哈尔阿木", "address": "海西蒙古族藏族自治州-德令哈市", "image": "", "rank": 43, "time": 2, "location": {"lat": 37.37534590746335, "lng": 97.36747029997534}, "feature": {"sight_features": "", "sight_content": ""}}, {"title": "沃门特哈尔阿木", "address": "海西蒙古族藏族自治州-德令哈市", "image": "", "rank": 44, "time": 2, "location": {"lat": 37.37534590746335, "lng": 97.36747029997534}, "feature": {"sight_features": "", "sight_content": ""}}, {"title": "怀头哈尔阿木", "address": "海西蒙古族藏族自治州-德令哈市", "image": "", "rank": 45, "time": 2, "location": {"lat": 37.37534590746335, "lng": 97.36747029997534}, "feature": {"sight_features": "", "sight_content": ""}}, {"title": "德令哈市金兰牲畜养殖专业合作社", "address": "海西蒙古族藏族自治州-德令哈市-公社支渠附近", "image": "", "rank": 46, "time": 1.0, "location": {"lat": 37.3627501043139, "lng": 96.75555042556417}, "feature": {"sight_features": "", "sight_content": ""}}]}