{"cityName": "邓州", "days": 2, "cityImage": "", "spots": [{"title": "南阳花洲书院", "address": "南阳市邓州市人民东路", "image": "", "rank": 1, "time": 2.0, "location": {"lat": 32.69391743997009, "lng": 112.09342010302309}, "feature": {"sight_features": "特色1 是河南省重点文物保护单位", "sight_content": "花洲书院，国家3A级景区，始建于宋代庆历年间，北宋著名政治家、军事家、文学家、教育家、思想家范仲淹任邓州知州期间创建了书院内讲学堂——春风堂、藏书楼、斋舍，并在书院东侧创建百花洲，重修览秀亭，构筑春风阁，花洲书院因百花洲而得名。\n\n书院建筑是花洲书院内主体，为五进四院，中院更有全国少有的小巧精致的泮池，状元桥，成为花洲书院一大特色。书院西侧并列为二进一院的范公祠。范公祠北为新建四进三院的名人馆，中院有古三眼井——范公井，整个建筑风格为清代北方建筑。百花洲位于花洲书院东侧，紧临邓州保存最完好的一段明代古土城墙。布局为南山北水，花洲南由各具特色的峭壁假山、五峰山和别有洞天组成。别有洞天假山将南北隔离，花洲北湖内大小三岛，岛上再现范仲淹任知州时与民同乐的嘉赏亭及菊花台等。百花洲建筑采用范仲淹家乡清代江南园林风格。从而使花洲书院形成完美一体的中国典型书院园林。\n2002到2005年，邓州市委、市政府多方筹措资金1400余万元，历时三年，对花洲书院进行全面修复，创历史规模之最。重修后的花洲书院，占地126亩，有各类仿古建筑66座，建筑面积达4000平方米，花洲书院内处处充满了厚重的历史文化气息。"}}, {"title": "秀水湾温泉", "address": "南阳市邓州市新华中路21号", "image": "", "rank": 2, "time": 2, "location": {"lat": 32.69528363125429, "lng": 112.08510565671438}, "feature": {"sight_features": "", "sight_content": ""}}, {"title": "奇彩风车庄园", "address": "桑庄镇", "image": "", "rank": 3, "time": 1.5, "location": {"lat": 32.58965580570787, "lng": 112.23375099221442}, "feature": {"sight_features": "", "sight_content": ""}}, {"title": "邓州人民公园", "address": "邓州市花洲街道办事处北环路36号", "image": "", "rank": 4, "time": 2.5, "location": {"lat": 32.70028817325518, "lng": 112.08499126459957}, "feature": {"sight_features": "", "sight_content": ""}}, {"title": "习氏宗祠", "address": "南阳邓州市十林镇习营村", "image": "", "rank": 5, "time": 2, "location": {"lat": 32.853015416389184, "lng": 111.8700185079152}, "feature": {"sight_features": "", "sight_content": ""}}, {"title": "邓州市图书馆", "address": "古城路232号", "image": "", "rank": 6, "time": 1.5, "location": {"lat": 35.80175516597075, "lng": 112.93024778474664}, "feature": {"sight_features": "", "sight_content": ""}}, {"title": "锦绣园林", "address": "三贤路与南一环交叉口东50米", "image": "", "rank": 7, "time": 2, "location": {"lat": 32.692982847687496, "lng": 112.09253927764001}, "feature": {"sight_features": "", "sight_content": ""}}, {"title": "零度密室逃脱", "address": "古城广场大屏幕东二区3楼(古城广场外街)", "image": "", "rank": 8, "time": 2, "location": {"lat": 36.62477204042303, "lng": 114.47543791809385}, "feature": {"sight_features": "", "sight_content": ""}}, {"title": "淘乐多儿童主题乐园", "address": "新华路与三贤路交叉口古城商业中心3区2层", "image": "", "rank": 9, "time": 2, "location": {"lat": 34.42419231444932, "lng": 114.1931499309583}, "feature": {"sight_features": "", "sight_content": ""}}, {"title": "江南(众泰)TT老年观光代步车", "address": "团结东路附近", "image": "", "rank": 10, "time": 1.0, "location": {"lat": 38.81189919692905, "lng": 115.48133129072964}, "feature": {"sight_features": "", "sight_content": ""}}, {"title": "儿童游乐场", "address": "文化路东50米", "image": "", "rank": 11, "time": 2, "location": {"lat": 33.50501953851551, "lng": 112.43562110165533}, "feature": {"sight_features": "", "sight_content": ""}}, {"title": "寒号鸟植物园", "address": "邓州市人民路与铁西路交叉口西50米路北", "image": "", "rank": 12, "time": 2, "location": {"lat": 32.67720814550579, "lng": 112.1061588953075}, "feature": {"sight_features": "", "sight_content": ""}}, {"title": "张湾清真寺", "address": "河南省南阳市邓州市S249", "image": "", "rank": 13, "time": 2, "location": {"lat": 32.69391743997009, "lng": 112.09342010302309}, "feature": {"sight_features": "", "sight_content": ""}}, {"title": "邓州市湍河国家湿地公园", "address": "文化路与滨河路交叉口东北100米", "image": "", "rank": 14, "time": 2, "location": {"lat": 36.82489292175356, "lng": 117.5174717756991}, "feature": {"sight_features": "", "sight_content": ""}}, {"title": "明珠湖公园", "address": "迎宾大道附近", "image": "", "rank": 15, "time": 3.5, "location": {"lat": 40.09022363082665, "lng": 114.15469279026227}, "feature": {"sight_features": "", "sight_content": ""}}, {"title": "兰贵坊水族馆", "address": "河南省南阳市邓州市新华东路", "image": "", "rank": 16, "time": 2, "location": {"lat": 32.691712929483394, "lng": 112.13775055738073}, "feature": {"sight_features": "", "sight_content": ""}}, {"title": "二郎庙", "address": "河南省南阳市邓州市S244", "image": "", "rank": 17, "time": 1.0, "location": {"lat": 32.69391743997009, "lng": 112.09342010302309}, "feature": {"sight_features": "", "sight_content": ""}}, {"title": "张南清真寺", "address": "河南省南阳市邓州市张村镇古镇路张南社区", "image": "", "rank": 18, "time": 2, "location": {"lat": 32.83056020835718, "lng": 111.8920446544943}, "feature": {"sight_features": "", "sight_content": ""}}, {"title": "邓州市湍河景观带", "address": "滨河路东50米", "image": "", "rank": 19, "time": 2, "location": {"lat": 31.860233915135026, "lng": 117.31188034315763}, "feature": {"sight_features": "", "sight_content": ""}}, {"title": "中银广场", "address": "新华东路97号附近", "image": "", "rank": 20, "time": 2, "location": {"lat": 29.462707134907603, "lng": 119.89840904369954}, "feature": {"sight_features": "", "sight_content": ""}}, {"title": "团结广场", "address": "团结路北100米", "image": "", "rank": 21, "time": 2, "location": {"lat": 43.621922384061236, "lng": 122.24967992689305}, "feature": {"sight_features": "", "sight_content": ""}}, {"title": "公园路与三贤路交叉口", "address": "河南省南阳市邓州市", "image": "", "rank": 22, "time": 2, "location": {"lat": 32.69391743997009, "lng": 112.09342010302309}, "feature": {"sight_features": "", "sight_content": ""}}, {"title": "宝贝开心乐园", "address": "三里河大李寨转盘向东200米", "image": "", "rank": 23, "time": 2, "location": {"lat": 31.641803695526015, "lng": 118.48277433712033}, "feature": {"sight_features": "", "sight_content": ""}}, {"title": "澜梦水世界", "address": "南阳市邓州市团结东路市公安局向东5公里", "image": "", "rank": 24, "time": 2, "location": {"lat": 32.684317296528796, "lng": 112.13158663020866}, "feature": {"sight_features": "", "sight_content": "澜梦水世界位于南阳市邓州市城东10公里，是一个以亲水为主题的大型综合性水乐园，由水上乐园、室内恒温游泳馆和假日酒店三大类构成。室内设有按摩冲浪池、冷热理疗池、温控游泳池。户外水上游乐区设有盘龙滑道、彩虹滑道、激情冲浪、梦幻飘流、养生池、儿童游乐区等游乐项目，给人带来惊险刺激或温馨浪漫的美好体验。"}}, {"title": "文轩画艺", "address": "三贤路2号", "image": "", "rank": 25, "time": 2, "location": {"lat": 32.70081290108009, "lng": 112.09397992701689}, "feature": {"sight_features": "", "sight_content": ""}}, {"title": "编外雷锋团展览馆", "address": "北京大道与北环东路交汇处编外雷锋团展览馆", "image": "", "rank": 26, "time": 2, "location": {"lat": 32.703316424178496, "lng": 112.13090234957966}, "feature": {"sight_features": "", "sight_content": ""}}, {"title": "邓国之春生态园", "address": "文化路", "image": "", "rank": 27, "time": 2, "location": {"lat": 39.74005789896059, "lng": 116.15120920962735}, "feature": {"sight_features": "", "sight_content": ""}}, {"title": "教育图书馆", "address": "新华中路", "image": "", "rank": 28, "time": 2, "location": {"lat": 22.369838543089102, "lng": 113.44930877097596}, "feature": {"sight_features": "", "sight_content": ""}}, {"title": "浪淘沙游泳馆水上乐园", "address": "北环路杨埠口路北(奇春加油站对面)", "image": "", "rank": 29, "time": 2, "location": {"lat": 33.41304167253016, "lng": 112.66269010536367}, "feature": {"sight_features": "", "sight_content": ""}}, {"title": "沃金移动水世界", "address": "三孔桥向西粮食储备库向北湍河大桥南侧桥头(韩洼村)", "image": "", "rank": 30, "time": 2, "location": {"lat": 26.64806550517685, "lng": 119.54450209493108}, "feature": {"sight_features": "", "sight_content": ""}}, {"title": "乡村农家乐", "address": "249省道附近", "image": "", "rank": 31, "time": 2, "location": {"lat": 34.251184186395946, "lng": 118.36169776685699}, "feature": {"sight_features": "", "sight_content": ""}}, {"title": "渠首乡味生态园", "address": "卫生路33号附近", "image": "", "rank": 32, "time": 2, "location": {"lat": 34.78623077367011, "lng": 113.66019512450322}, "feature": {"sight_features": "", "sight_content": ""}}, {"title": "邓州市赵集镇农家源生态园", "address": "040县道西侧", "image": "", "rank": 33, "time": 2, "location": {"lat": 31.14150889313253, "lng": 117.57871267587522}, "feature": {"sight_features": "", "sight_content": ""}}, {"title": "福胜寺塔", "address": "河南省邓州市古城街", "image": "", "rank": 34, "time": 1.0, "location": {"lat": 32.69391743997009, "lng": 112.09342010302309}, "feature": {"sight_features": "", "sight_content": ""}}, {"title": "邓州名店街", "address": "河南省邓州市新华中路", "image": "", "rank": 35, "time": 2, "location": {"lat": 32.693729314118535, "lng": 112.09306998306073}, "feature": {"sight_features": "", "sight_content": ""}}, {"title": "邓州古城商业街", "address": "河南省邓州市南桥店", "image": "", "rank": 36, "time": 2, "location": {"lat": 32.67998700923155, "lng": 112.0933401538327}, "feature": {"sight_features": "", "sight_content": ""}}, {"title": "下李营", "address": "南阳市-邓州市", "image": "", "rank": 37, "time": 2, "location": {"lat": 32.69391743997009, "lng": 112.09342010302309}, "feature": {"sight_features": "", "sight_content": ""}}]}