{"cityName": "灯塔", "days": 2, "cityImage": "", "spots": [{"title": "燕州城遗址", "address": "辽阳市灯塔市", "image": "", "rank": 1, "time": 2.5, "location": {"lat": 41.432474125925786, "lng": 123.34546215145255}, "feature": {"sight_features": "", "sight_content": ""}}, {"title": "兰庭文化生态园", "address": "辽阳市灯塔市古城街道罗金线康家台村", "image": "", "rank": 2, "time": 2, "location": {"lat": 41.45802351792691, "lng": 123.2214288867557}, "feature": {"sight_features": "", "sight_content": ""}}, {"title": "高营墙村农村合作社", "address": "高营墙村", "image": "", "rank": 3, "time": 2, "location": {"lat": 41.334059274124215, "lng": 123.24926881629025}, "feature": {"sight_features": "", "sight_content": ""}}, {"title": "张氏葡萄园", "address": "石桥子村村南面202国道旁", "image": "", "rank": 4, "time": 2, "location": {"lat": 41.33449688325433, "lng": 123.1484382412379}, "feature": {"sight_features": "", "sight_content": ""}}, {"title": "张氏葡萄采摘", "address": "兆麟东路", "image": "", "rank": 5, "time": 2, "location": {"lat": 41.425857042386326, "lng": 123.33917893919012}, "feature": {"sight_features": "", "sight_content": ""}}, {"title": "垂钓乐园", "address": "202国道", "image": "", "rank": 6, "time": 2, "location": {"lat": 41.59705006009023, "lng": 123.31841695729419}, "feature": {"sight_features": "", "sight_content": ""}}, {"title": "世纪隆德大酒店温泉会馆", "address": "繁荣街422号", "image": "", "rank": 7, "time": 2, "location": {"lat": 48.046592714822374, "lng": 126.25675158292371}, "feature": {"sight_features": "", "sight_content": ""}}, {"title": "兰庭农业", "address": "古城街道与爱大线交叉口西500米小黄金村幸福桥北100米", "image": "", "rank": 8, "time": 2, "location": {"lat": 41.445356538471444, "lng": 123.24278098081233}, "feature": {"sight_features": "", "sight_content": ""}}, {"title": "千山格桑花海", "address": "辽宁省辽阳市灯塔市沈营线", "image": "", "rank": 9, "time": 2, "location": {"lat": 41.38892411593465, "lng": 123.32433948372486}, "feature": {"sight_features": "", "sight_content": ""}}, {"title": "鲁卡奇儿童游乐园", "address": "亿迈隆附近好孩子超市二楼", "image": "", "rank": 10, "time": 2, "location": {"lat": 43.90103807943531, "lng": 125.34212995595708}, "feature": {"sight_features": "", "sight_content": ""}}, {"title": "清宁寺", "address": "辽宁省辽阳市灯塔市万宝桥街道吕方寺村", "image": "", "rank": 11, "time": 2, "location": {"lat": 41.429623086517616, "lng": 123.38572164334074}, "feature": {"sight_features": "", "sight_content": ""}}, {"title": "欢乐谷", "address": "辽阳市灯塔市", "image": "", "rank": 12, "time": 4.5, "location": {"lat": 41.432474125925786, "lng": 123.34546215145255}, "feature": {"sight_features": "", "sight_content": ""}}, {"title": "兆麟广场", "address": "灯塔市兆麟东路", "image": "", "rank": 13, "time": 2, "location": {"lat": 41.425857042386326, "lng": 123.33917893919012}, "feature": {"sight_features": "", "sight_content": ""}}, {"title": "清缘居", "address": "繁荣街花园小区北台8号楼西2单元西6门", "image": "", "rank": 14, "time": 2, "location": {"lat": 41.45409470541718, "lng": 123.32865098905395}, "feature": {"sight_features": "", "sight_content": ""}}, {"title": "天福商场", "address": "辽宁省辽阳市灯塔市文明街103号", "image": "", "rank": 15, "time": 2, "location": {"lat": 41.43870711064355, "lng": 123.34122824893987}, "feature": {"sight_features": "", "sight_content": ""}}, {"title": "岳家度假村", "address": "岳家堡小学附近", "image": "", "rank": 16, "time": null, "location": {"lat": 41.34408134610973, "lng": 123.22864807586797}, "feature": {"sight_features": "", "sight_content": ""}}, {"title": "灯塔市图书馆", "address": "中兴路450号", "image": "", "rank": 17, "time": 1.5, "location": {"lat": 38.03202104465178, "lng": 115.03932499983546}, "feature": {"sight_features": "", "sight_content": ""}}, {"title": "凯临圣汇生态园", "address": "304省道", "image": "", "rank": 18, "time": 2, "location": {"lat": 38.007414201086036, "lng": 114.44892402313616}, "feature": {"sight_features": "", "sight_content": ""}}, {"title": "洁华水上乐园", "address": "兆麟东路第一高级中学东200米", "image": "", "rank": 19, "time": 2, "location": {"lat": 41.42775138725404, "lng": 123.34265321390254}, "feature": {"sight_features": "", "sight_content": ""}}, {"title": "李兆麟古居纪念馆", "address": "铧子镇后屯村", "image": "", "rank": 20, "time": null, "location": {"lat": 41.44609555584076, "lng": 123.42568035020521}, "feature": {"sight_features": "", "sight_content": ""}}, {"title": "黄金葡萄采摘园", "address": "古城街道小黄金屯村", "image": "", "rank": 21, "time": 2, "location": {"lat": 41.449092019750985, "lng": 123.2284317872571}, "feature": {"sight_features": "", "sight_content": ""}}, {"title": "中邑冰酒", "address": "柳河子镇，棉花村，太阳谷庄园", "image": "", "rank": 22, "time": 2, "location": {"lat": 41.45228451763455, "lng": 123.61718932753807}, "feature": {"sight_features": "", "sight_content": ""}}, {"title": "灯塔市开心玩国游乐场", "address": "皮草东大街2号", "image": "", "rank": 23, "time": 2, "location": {"lat": 41.44787590830563, "lng": 123.06166848660426}, "feature": {"sight_features": "", "sight_content": ""}}, {"title": "灯塔兰庭文化生态园", "address": "辽峰小镇", "image": "", "rank": 24, "time": 2, "location": {"lat": 41.432474125925786, "lng": 123.34546215145255}, "feature": {"sight_features": "", "sight_content": ""}}, {"title": "灯塔佛陀寺", "address": "辽阳市-灯塔市", "image": "", "rank": 25, "time": 2, "location": {"lat": 41.432474125925786, "lng": 123.34546215145255}, "feature": {"sight_features": "", "sight_content": ""}}, {"title": "腰结子村", "address": "辽阳市-灯塔市", "image": "", "rank": 26, "time": 2, "location": {"lat": 41.432474125925786, "lng": 123.34546215145255}, "feature": {"sight_features": "", "sight_content": ""}}, {"title": "万宝桥公园", "address": "兆麟东路一中对过", "image": "", "rank": 27, "time": 2, "location": {"lat": 41.425857042386326, "lng": 123.33917893919012}, "feature": {"sight_features": "", "sight_content": ""}}]}