{"cityName": "德钦", "days": 2, "cityImage": "", "spots": [{"title": "白马雪山", "address": "云南省迪庆藏族自治州德钦县214国道白马雪山自然保护区", "image": "", "rank": 1, "time": 2.5, "location": {"lat": 28.262794424349142, "lng": 99.26209497509457}, "feature": {"sight_features": "", "sight_content": ""}}, {"title": "雾浓顶观景台", "address": "迪庆藏族自治州德钦县214国道旁雾浓顶村", "image": "", "rank": 2, "time": 1.0, "location": {"lat": 28.319159428535947, "lng": 99.13023574560108}, "feature": {"sight_features": "", "sight_content": ""}}, {"title": "西当村", "address": "迪庆藏族自治州德钦县西当公路西当村", "image": "", "rank": 3, "time": 2, "location": {"lat": 28.44212775959559, "lng": 98.83853638151359}, "feature": {"sight_features": "", "sight_content": ""}}, {"title": "澜沧江梅里大峡谷", "address": "云南迪庆藏族自治州德钦县", "image": "", "rank": 4, "time": 2, "location": {"lat": 28.470086006822044, "lng": 98.92445265605383}, "feature": {"sight_features": "", "sight_content": ""}}, {"title": "飞来寺国家森林公园", "address": "云南省迪庆藏族自治州德钦县", "image": "", "rank": 5, "time": 2, "location": {"lat": 28.470086006822044, "lng": 98.92445265605383}, "feature": {"sight_features": "", "sight_content": ""}}, {"title": "白马雪山垭口", "address": "云南省迪庆藏族自治州德钦县214国道白马雪山自然保护区", "image": "", "rank": 6, "time": 2, "location": {"lat": 28.262794424349142, "lng": 99.26209497509457}, "feature": {"sight_features": "", "sight_content": ""}}, {"title": "茨中村", "address": "云南省迪庆藏族自治州德钦县", "image": "", "rank": 7, "time": 2, "location": {"lat": 28.470086006822044, "lng": 98.92445265605383}, "feature": {"sight_features": "", "sight_content": ""}}, {"title": "斯农冰川", "address": "迪庆藏族自治州德钦县境内", "image": "", "rank": 8, "time": 2, "location": {"lat": 28.470086006822044, "lng": 98.92445265605383}, "feature": {"sight_features": "", "sight_content": ""}}, {"title": "月亮湾大峡谷", "address": "迪庆藏族自治州德钦县奔子栏镇和子庚乡交界处", "image": "", "rank": 9, "time": null, "location": {"lat": 28.246686769436288, "lng": 99.30618084689814}, "feature": {"sight_features": "", "sight_content": ""}}, {"title": "白马雪山高山杜鹃林", "address": "云南西部的高山石砾坡地", "image": "", "rank": 10, "time": 2, "location": {"lat": 25.07815259412553, "lng": 102.86920422501576}, "feature": {"sight_features": "", "sight_content": ""}}, {"title": "德钦县图书馆", "address": "敦和社区下街9号", "image": "", "rank": 11, "time": 2, "location": {"lat": 28.489396080236403, "lng": 98.92230000973046}, "feature": {"sight_features": "", "sight_content": ""}}, {"title": "卡格博宫", "address": "敦和社区下街64号", "image": "", "rank": 12, "time": 2, "location": {"lat": 28.488230040824252, "lng": 98.92137679241239}, "feature": {"sight_features": "", "sight_content": ""}}, {"title": "儿童游乐城", "address": "南坪街与214国道交叉口", "image": "", "rank": 13, "time": 2, "location": {"lat": 28.319159428535947, "lng": 99.13023574560108}, "feature": {"sight_features": "", "sight_content": ""}}, {"title": "梅里雪山国家公园金沙江大湾", "address": "云南省迪庆藏族自治州德钦县214国道附近梅里雪山国家公园滇藏生态文化走廊景区附近", "image": "", "rank": 14, "time": 4.5, "location": {"lat": 28.260245427337697, "lng": 99.28281298942046}, "feature": {"sight_features": "", "sight_content": ""}}, {"title": "梅里雪山国家公园景区", "address": "东北部十公里处", "image": "", "rank": 15, "time": 4.5, "location": {"lat": 33.933232765259675, "lng": 106.5613629032373}, "feature": {"sight_features": "", "sight_content": ""}}, {"title": "尼丁", "address": "云南省迪庆藏族自治州德钦县尼丁", "image": "", "rank": 16, "time": 1.0, "location": {"lat": 28.191799555268563, "lng": 99.25237631198877}, "feature": {"sight_features": "", "sight_content": ""}}, {"title": "太子庙", "address": "迪庆藏族自治州德钦县云岭乡西当村梅里雪山景区明永冰川景区内", "image": "", "rank": 17, "time": 2, "location": {"lat": 28.474247233243304, "lng": 98.7951128797691}, "feature": {"sight_features": "", "sight_content": ""}}, {"title": "永芝村", "address": "云南省迪庆藏族自治州德钦县云岭乡", "image": "", "rank": 18, "time": 2, "location": {"lat": 28.29953472622481, "lng": 98.8744323364091}, "feature": {"sight_features": "", "sight_content": ""}}, {"title": "尼农峡谷", "address": "迪庆藏族自治州德钦县雨崩河谷下游", "image": "", "rank": 19, "time": 2, "location": {"lat": 28.39956479298522, "lng": 98.80151606432351}, "feature": {"sight_features": "", "sight_content": ""}}, {"title": "南卡扎西寺庙", "address": "飞来寺景区", "image": "", "rank": 20, "time": 2, "location": {"lat": 28.44433324880668, "lng": 98.88377352974314}, "feature": {"sight_features": "", "sight_content": ""}}, {"title": "梅里雪山观景台", "address": "214国道西100米", "image": "", "rank": 21, "time": 1.5, "location": {"lat": 28.319159428535947, "lng": 99.12933744009139}, "feature": {"sight_features": "", "sight_content": ""}}, {"title": "圣缘农家乐", "address": "明永公路附近", "image": "", "rank": 22, "time": 2, "location": {"lat": 28.442904944239157, "lng": 98.83689030942986}, "feature": {"sight_features": "", "sight_content": ""}}, {"title": "书松村", "address": "云南省迪庆藏族自治州德钦县书松村", "image": "", "rank": 23, "time": 2, "location": {"lat": 28.272411602963214, "lng": 99.19671652198143}, "feature": {"sight_features": "", "sight_content": ""}}, {"title": "玉珠寺", "address": "迪庆藏族自治州德钦县燕门乡", "image": "", "rank": 24, "time": 2, "location": {"lat": 28.080887230843594, "lng": 98.92752086703065}, "feature": {"sight_features": "", "sight_content": ""}}, {"title": "枕状玄武岩地貌", "address": "云南省迪庆藏族自治州德钦县214国道", "image": "", "rank": 25, "time": 2, "location": {"lat": 28.319159428535947, "lng": 99.13023574560108}, "feature": {"sight_features": "", "sight_content": ""}}, {"title": "飞来寺", "address": "迪庆藏族自治州德钦县云岭乡西当村梅里雪山景区飞来寺景区内", "image": "", "rank": 26, "time": null, "location": {"lat": 28.44433324880668, "lng": 98.88377352974314}, "feature": {"sight_features": "", "sight_content": ""}}]}