{"cityName": "德阳", "days": "", "cityImage": "", "spots": [{"title": "三星堆博物馆", "address": "德阳市广汉丰富南兴镇真武村", "image": "", "rank": 1, "time": 2.5, "location": {"lat": 31.00659812864588, "lng": 104.21497247128575}, "feature": {"sight_features": "特色1 通天神树等青铜器造型诡异奇特，堪称奇观。 特色2 馆藏文物丰富。 特色3 20世纪人类的考古发现。", "sight_content": "三星堆博物馆位于全国重点文物保护单位三星堆遗址东北角，地处历史文化名城四川省广汉市城西鸭子河畔，南距成都38公里，北距德阳26公里，是我国一座大型现代化的专题性遗址博物馆。博物馆于1992年8月奠基，1997年10月正式开放。三星堆古遗址分布面积12平方公里，距今已有5000至3000年历史，是迄今在西南地区发现的范围大、延续时间长、文化内涵丰富的古城、古国、古蜀文化遗址。现有保存最完整的东、西、南城墙和月亮湾内城墙。三星堆古遗址被称为20世纪人类伟大的考古发现之一，昭示了长江流域与黄河流域一样，同属中华文明的母体，被誉为“长江文明之源”。\n三星堆博物馆现有两个展馆，其展示面积近12000平方米，分为第一展馆（综合馆，陈列金、铜、玉、石、陶等类文物）和第二展馆（青铜专馆）。两大展馆陈列规模宏大，布局考究，内容与展线节奏动静结合，波澜起伏，以其融知识性、故事性、观赏性、趣味性于一炉的诠释方式，有力的揭示了三星堆文物的深刻内涵，集中反映了三星堆文明的辉煌灿烂，给人以身临其境、故国神游的感觉。\n三星堆博物馆占地面积约33公顷，绿化面积达80％以上，馆区内环境优美、布局动静得宜，曲径敞道，垂柳依依、古蜀奇葩、湖光岛影无处不体现了人文与自然完美结合、飘逸自然、浑然天成的川西园林特色。博物馆主体建筑外形追求与地貌、史迹及文物造型艺术相结合的神韵，融原始意味和现代气息为一体。一展馆建筑为半弧形斜坡生态式建筑，张扬人与自然和谐共生的人文精神，二展馆建筑为三部一体的变形螺旋式建筑，其整体具有“堆列三星”与“人类历史演进历程”的双重象征，馆外还有气势灰宏的仿古祭祀台和供现代文体活动的大型表演场与展馆建筑遥相呼应，表达了三星堆文化苍古雄浑、博大精深的历史意蕴。"}}, {"title": "德阳文庙", "address": "德阳市旌阳区文庙街123号", "image": "", "rank": 2, "time": 1.0, "location": {"lat": 31.135296403711607, "lng": 104.39805972127606}, "feature": {"sight_features": "", "sight_content": ""}}, {"title": "绵竹年画村", "address": "德阳市绵竹市孝德镇年画村12组", "image": "", "rank": 3, "time": 3.0, "location": {"lat": 31.283980010345346, "lng": 104.23833093429212}, "feature": {"sight_features": "", "sight_content": ""}}, {"title": "绵竹麓棠温泉", "address": "德阳市绵竹市土门镇麓棠村一组", "image": "", "rank": 4, "time": 2, "location": {"lat": 31.318652353626362, "lng": 104.08375763940967}, "feature": {"sight_features": "特色1 酒画之乡，山水绵竹，不亚苏杭，人间天堂 特色2 漫山梅林，瑞雪迎春，腊梅飘香，游人如织 特色3 沱江上游之源，一片圣洁之地", "sight_content": "绵竹麓棠温泉绵竹水好，在沱江上游之源，一片圣洁之地，九顶山之水经千万年之沉淀在平坝区域形成了“纵横交错”的地下阴河，露头的泉堰众多，据《绵竹县志》记载，“沿山及平坝区地下阴河众多，泉堰密布”。“惟西南一线泉脉可酿此酒”。（即酿造绵竹大曲，剑南春）”。\n绵竹麓棠温泉位于绵竹城西商贸旅游大镇土门镇圣灯山下梅子沟脚下。据记载，北宋祥符年间，三溪寺的开山祖师玉川祖师曾在圣灯山上点燃圣灯，祈求上天保佑一方平安，修建庙宇顺利；另一方面夜幕降临，圣灯明亮，驱散妖魔鬼怪，给人们带来光明、希望。《绵竹县志》记载，“圣灯山在麓棠之上，考圣灯山有二，一在城西四十里，高于山溪过半”。麓棠温泉现在的位置恰好在圣灯山下的梅子沟。“梅子沟”这个小地方，在历史上是漫山梅林，瑞雪迎春，腊梅飘香，游人如织，因而人们将它取名“梅子沟”。"}}, {"title": "石刻艺术墙", "address": "德阳市旌阳区内泰山北路干道旁", "image": "", "rank": 5, "time": 2, "location": {"lat": 31.15232156754697, "lng": 104.4015638035619}, "feature": {"sight_features": "", "sight_content": ""}}, {"title": "罗江白马关", "address": "德阳市罗江县白马关镇", "image": "", "rank": 6, "time": 2.5, "location": {"lat": 31.293855929300147, "lng": 104.45770079413556}, "feature": {"sight_features": "", "sight_content": ""}}, {"title": "孝泉古镇", "address": "德阳市旌阳区孝泉镇", "image": "", "rank": 7, "time": 3.0, "location": {"lat": 31.25387769628146, "lng": 104.2866880017762}, "feature": {"sight_features": "", "sight_content": ""}}, {"title": "金雁湖", "address": "广汉市，雒城镇北门外", "image": "", "rank": 8, "time": 1.0, "location": {"lat": 30.98562073318045, "lng": 104.29005873599893}, "feature": {"sight_features": "", "sight_content": ""}}, {"title": "黄继光纪念馆", "address": "德阳市中江县凯江镇东河路下段1号", "image": "", "rank": 9, "time": 2, "location": {"lat": 31.041061110149883, "lng": 104.68956912438692}, "feature": {"sight_features": "", "sight_content": ""}}, {"title": "四川绵竹九龙滑草场", "address": "德阳市绵竹市九龙镇九龙山乡村旅游景区内", "image": "", "rank": 10, "time": null, "location": {"lat": 31.413444668557958, "lng": 104.14174621011405}, "feature": {"sight_features": "特色1 户外拓展训练基地和滑翔伞运动基地 特色2 环境优美、空气清新 特色3 滑草及户外休闲运动中心", "sight_content": "九龙滑草场位于国家AAAA级九龙山旅游风景区，是德阳地区的滑草及户外休闲运动中心。滑草场占地160余亩，总投资1300余万元，由江苏扬州援建。\n现开展有四轮滑草车、履带滑草、草地悠玻球等草地运动项目，还开展有真人CS、水上步行球、热气球、射箭、骑马、户外自助烧烤、露营、攀岩、弹跳飞人、西部狂牛、风筝、羽毛球、高尔夫球练习、品茗棋牌等户外休闲运动项目。滑草场还是户外拓展训练基地和中国九龙滑翔伞运动基地，开展有企业拓展培训和滑翔伞教学飞行训练认证、双人伞带飞和动力伞商业飞行表演等空中项目。\n草场紧临绵竹沿山旅游公路，距汉旺地震遗址、剑南春麓堂温泉渡假中心、土门玫瑰谷和中国绵竹年画村都在15公里以内。滑草场背靠九龙山跑马岭，前览成都平原美景，空气清新，视野开阔，风景秀丽。"}}, {"title": "段家大院子", "address": "德阳市广汉市段家大院子", "image": "", "rank": 11, "time": 1.5, "location": {"lat": 31.043586891226383, "lng": 104.23577077257173}, "feature": {"sight_features": "", "sight_content": ""}}, {"title": "什邡蓥华山风景区", "address": "德阳市什邡市方亭镇西北", "image": "", "rank": 12, "time": 3.5, "location": {"lat": 31.131627196237922, "lng": 104.17543904470733}, "feature": {"sight_features": "特色1 原始的自然美景，珍稀动植物遍布。", "sight_content": "什邡蓥华山风景区位于什邡市西北部，它的海拔比峨眉山还要高一些。这里没有什么人为的开发痕迹，夏天游客可以来此休闲避暑，行走在山间小路上，可以观赏珙桐、银杏、红杉、楠木、连香树等珍稀植物，有时还能发现金丝猴、野驴、山羊等野生动物，探险性十足。"}}, {"title": "绵竹汉旺地震遗址", "address": "德阳市绵竹市顺河中路", "image": "", "rank": 13, "time": 3.0, "location": {"lat": 31.459173939874965, "lng": 104.17707656582148}, "feature": {"sight_features": "", "sight_content": ""}}, {"title": "庞统祠", "address": "德阳市罗江县白马关镇", "image": "", "rank": 14, "time": 2, "location": {"lat": 31.293855929300147, "lng": 104.45770079413556}, "feature": {"sight_features": "", "sight_content": ""}}, {"title": "德阳万佛寺", "address": "德阳市罗江县白马乡大霍山", "image": "", "rank": 15, "time": 1.5, "location": {"lat": 31.320265186662187, "lng": 104.53541026815122}, "feature": {"sight_features": "", "sight_content": ""}}, {"title": "三溪寺", "address": "德阳市，绵竹市土门镇梅子沟", "image": "", "rank": 16, "time": 2, "location": {"lat": 31.320523928077883, "lng": 104.06426851420103}, "feature": {"sight_features": "", "sight_content": ""}}, {"title": "房湖公园", "address": "德阳市广汉市雒城镇西南", "image": "", "rank": 17, "time": 1.0, "location": {"lat": 30.98562073318045, "lng": 104.29005873599893}, "feature": {"sight_features": "", "sight_content": ""}}, {"title": "绵竹年画博物馆", "address": "德阳市，绵竹市大南路大南街574", "image": "", "rank": 18, "time": 1.5, "location": {"lat": 31.335525966941734, "lng": 104.20588339906797}, "feature": {"sight_features": "", "sight_content": ""}}, {"title": "川西第一漂", "address": "德阳市什邡市红白镇红峡谷旅游度假区内", "image": "", "rank": 19, "time": 2, "location": {"lat": 31.381728283880758, "lng": 104.03199598955126}, "feature": {"sight_features": "特色1 让你体验仁者乐山、智者乐水的无限乐趣。 特色2 谷水飞瀑流泉，峰峦怪岩，荗林修竹、诡谷险滩、青鸟唱柳、漂流赏景、人间仙境。 特色3 川西第一漂以其参与度高、体验性强、落差大、水量足、船行急而成为川西地区最具刺激性的动感、时尚、新潮水上运动娱乐项目，被誉为：“川西第一品牌”。", "sight_content": "川西第一漂位于四川省什邡市红白镇红峡谷旅游度假区内，漂流峡谷20公里，垂直落差196米。漂流河道属国内首家原生态峡谷漂流，位处世界奇观川西深大断裂的核心地段，谷水飞瀑流泉、峰峦耸峙、峭崖怪岩、茂林修竹、诡谷险滩、青鸟唱柳、漂流赏景，人间仙境。川西第一漂以其参与度高、体验性强、落差大、水量足、船行急而成为川西地区最具刺激性的动感、时尚、新潮水上运动娱乐项目，被誉为“川西漂流第一品牌”。\n漂流河道紧邻什邡市北京大道。距成都、绵阳、德阳等城市均在90公里交通圈内。外围大交通有北京大道与成绵高速、成渝环线高速、映汶高速、京昆高速、厦蓉高速、成赤高速相连，实现高速全覆盖的优越位置。漂流上下码头停车、咨询、票务、餐饮、购物、更衣、洗浴，各项设施齐全、服务热情周到、方便快捷。漂流上下码头有区间通勤车，接送客人。\n川西第一漂是川西大地夏季旅游避暑最佳圣地，是旅行社周边景区配线最好选择、更让游客真正体验到“仁者乐山、智者乐水”的限乐趣。"}}, {"title": "云湖国家森林公园", "address": "德阳市绵竹市汉旺镇以北", "image": "", "rank": 20, "time": 3.0, "location": {"lat": 31.45908726021021, "lng": 104.17746546293776}, "feature": {"sight_features": "", "sight_content": ""}}, {"title": "和海田园", "address": "德阳市旌阳区德新镇五星村", "image": "", "rank": 21, "time": 2, "location": {"lat": 31.252236726780094, "lng": 104.37053158639756}, "feature": {"sight_features": "特色1 休闲娱乐的好去处", "sight_content": "‍‍‍\n和海（德阳）田园综合体地处具有“泉乡”之称的四川省德阳市德新镇。一期占地面积约1800亩，项目拥有10万㎡的海岛银滩，及具有疗养功效的古海水漂浮。依托德新镇目前探明的地下深海盐资源以及4900米处2.5亿年前丰富的深沉古海水资源，项目规划了“四轴五区”功能格局，“四轴”包含：2.6公里火车观光线、1.1公里运河观光线、木栈道观光线、骑行观光线；“五区”包含：农业观光区、旅游实训区、休闲娱乐区、康养度假区、文化产业区。\n项目以“和”文化为主题，以古海水疗养、古海水游乐、古海水物联网养殖、海鲜美食、海景名宿等时尚海岛风情和休闲泉水农业为核心，集旅游观光、游乐体验、娱乐表演为一体，融合餐饮集市、康养民宿、亲子教育、婚纱摄影、户外拓展等特色服务，全力打造生态型海文化田园综合体。\n\n\n贡多拉小船\n运河观光核心选择，和海园区独特的风景线。\n极地盐洞\n零下6摄氏度的冰雪世界，狗拉雪橇、冰雪碰碰车、滑雪场、冰上自行车，给你童话般的奇妙体验。\n欢乐世界\n大人的梦工厂、儿童的乐园，摩天轮、碰碰车、豪华飞椅、小型过山车，等你来体验！\n沙滩戏水\n十万平方米的海岛沙滩，可供上万人尽情玩沙戏水。（项目包含在门票中）\n运河商业街\n特色商业区，可满足吃喝玩乐购的各种需求（目前部分未开放）\n花田初见\n浪漫花海，扑鼻花香、视觉盛宴、自拍圣地。\n古海水漂浮\n2.5亿年前的古海水，身临死海般的漂浮效果。（暂未开放）\n海景民宿\n马尔代夫式风格海景民宿，体验面朝大海，春暖花开的美妙。（暂未开放）\n旅途爱上碗时尚快餐厅\n特色菜品，饮品，在您旅途劳累之时，及时满足您挑剔的口味和食欲。\nE-box美食街\n各种特色小吃、美食，饮品，等待您的品尝。\n【景点特色】 棕榈银滩、海景民宿、观光火车、儿童乐园、贡多拉游船、动力滑翔伞、皮划艇、马术、极地盐洞、户外拓展基地、旅途爱上碗餐厅、运河码头、运河商业街、E-Box美食街、风车花海、植物隧道、萌宠园、海水疗养区、七星泉、威尼斯小岛、爱情岛、气田研学基地、白鹭园、玫瑰花田、鸽子园、海水养殖区、生态泉水鱼养殖区、热带树种植区、红豆杉种植区、千佛手种植区等。"}}, {"title": "红泉桃花谷", "address": "德阳市中江县太安镇红泉村5组", "image": "", "rank": 22, "time": 2.0, "location": {"lat": 30.666714936152054, "lng": 104.94725089317969}, "feature": {"sight_features": "特色1 休闲娱乐的好去处", "sight_content": "红泉桃花谷景区总占地面积3500亩，目前是四川省内最大的桃树种植集中区。景区内种植有1500亩自日本引进的特色桃树品种——龙珠碧桃，每年最佳观赏期为3月10日至4月20日。"}}, {"title": "什邡穿心店地震遗址", "address": "德阳市什邡市穿心店镇广青公路附近", "image": "", "rank": 23, "time": 2.0, "location": {"lat": 31.442280683563546, "lng": 104.00572747662495}, "feature": {"sight_features": "", "sight_content": ""}}, {"title": "广汉白马寺", "address": "广汉市城西，鸭子河畔", "image": "", "rank": 24, "time": 1.0, "location": {"lat": 30.9824152397429, "lng": 104.28842189310545}, "feature": {"sight_features": "", "sight_content": ""}}, {"title": "龙居寺", "address": "广汉市新丰镇龙居村", "image": "", "rank": 25, "time": 1.0, "location": {"lat": 30.925270920825405, "lng": 104.2643565094763}, "feature": {"sight_features": "", "sight_content": ""}}, {"title": "红峡谷", "address": "德阳市什邡市红白镇广青公路", "image": "", "rank": 26, "time": 2.5, "location": {"lat": 31.442280683563546, "lng": 104.00572747662495}, "feature": {"sight_features": "", "sight_content": ""}}, {"title": "金龙湖", "address": "德阳市广汉市东部金鱼镇龙马村", "image": "", "rank": 27, "time": 2.5, "location": {"lat": 31.02148832017264, "lng": 104.37876349100617}, "feature": {"sight_features": "", "sight_content": ""}}, {"title": "白塔寺", "address": "德阳市中江县东北镇仿古街169号", "image": "", "rank": 28, "time": 1.0, "location": {"lat": 31.055665191268975, "lng": 104.68393610744923}, "feature": {"sight_features": "", "sight_content": ""}}, {"title": "崴螺山森林公园", "address": "德阳市旌阳区和新镇境内", "image": "", "rank": 29, "time": 2.5, "location": {"lat": 31.07303513371452, "lng": 104.47878665199835}, "feature": {"sight_features": "", "sight_content": ""}}, {"title": "易家河坝欢乐水世界", "address": "德阳市广汉市三水镇友谊村", "image": "", "rank": 30, "time": 2.5, "location": {"lat": 30.949429857415414, "lng": 104.38167031151777}, "feature": {"sight_features": "", "sight_content": "欢乐水世界总占地4万余平米，位于美丽的易家河坝旅游风景区内。园区以泰式东南亚风格进行总体规划设计，泰式建筑、热带植物、天然海沙沙滩、东南亚特色美食、还有各种特色主题水上游乐设备。包括乘风破浪造浪池、欢乐水城堡、飞跃彩虹竞速滑道、蛟龙入海翻滚滑道、魔法漩涡、冲天回旋、海底总动员、真沙海滩，以及亚洲最美人工漂流河——花海奇幻漂流。\n‍‍\n‍‍乘风破浪造浪池，利用高气压推动水流，会产生像海浪一样的壮观场面，最大浪可高达1.5米，池海旁边设置沙滩、躺椅、太阳伞,使游人在感受海水般巨大冲击力同时,也可体验到在海边度假的独特感受。欢乐水城堡专为儿童设计,针对孩子好动、亲水的特性,配以安全、新鲜、刺激的水上娱乐设备,既锻炼儿童的胆量,又提升智慧。飞跃彩虹滑道，高达25米,总长度约为120米,从上至下体验飞一般的感觉只需短短几秒,既紧张、刺激,又放松。亚洲最美漂流河，全程近一公里，耗时约半小时。两岸花草丛生，丛林密布，花廊与岩石交相辉映。让你穿梭在不同风格的景色之中，迂回流连，赏心悦目。蛟龙入海滑道，整个设备高达25米，犹如一座水上摩天轮，将为挑战它的玩水家们带来急速下落、回转、倒后等一系列前所未有的玩水体验，同时畅享超高运行时速的超凡水上滑行体验，全面挑战玩水家们的感官极限。魔法漩涡滑道，整个设备高达11米，旋涡深度高达4米，从十多米高的平台开始滑行，飞一般冲入巨大的喇叭型滑道，如同被龙卷风吸进去一般，在急速滑行中体检犹如风中滑行之美。海底总动员专为所有年龄儿童打造。\n拥有数吨高压水炮，流动水喷雾，以及水上互动游玩设施，以其多层次的“流动水上娱乐”而风靡全球。这里是充满欢乐童趣的水上乐园，如同梦幻般的童话世界，也许在这里会有爱丽丝梦游仙境的奇异体验。冲天回旋滑道，从高达11米的平台口滑出发，立即进入接近垂直的斜坡俯冲而下，在冲到坡底而惊魂未定时，在巨大惯性的作用下，又疯狂地冲上向另一面斜坡当中，一下一上，一上一下让你反复地体验失重与超重奥妙感受，为你带来难s忘的狂飙之旅，一切的烦恼和压力都被抛弃得无影无综，感觉生命的快乐、飞驰的无限快感。等等这些娱乐项目，会为您带来前所未有的感官体验。真沙海滩享受惬意的沙滩阳光浴，让细沙在指尖缓缓流去。躺在来自海边的高品质沙滩之中，看着性感热辣的阳光美女优雅走过，活泼欢笑的孩童嬉戏追逐，在美好的沙滩中，也许做的梦都是甜的……\n‍‍同时乐园为您提供100余间更淋室，1500门储物柜可供您租用，所有的储物柜都安装了先进的RFID电脑芯片锁定系统来保障您的财产安全，园内还设有多间餐厅和各类流动食摊，游乐之余，为您带来特色美食体验。"}}, {"title": "中国香山寿香谷", "address": "德阳市旌阳区和新镇长寿村", "image": "", "rank": 31, "time": 2, "location": {"lat": 31.0473840473456, "lng": 104.44406855437734}, "feature": {"sight_features": "特色1 集休闲度假、健康疗养、观光旅游等于一体", "sight_content": "中国香山寿香谷位于旌阳区和新镇葳螺山省级森林公园，是集休闲度假、健康疗养、观光旅游等于一体的城郊型生态旅游度假胜地，园区内种植有迷迭香、薰衣草、马鞭草、鼠尾草、洋甘菊、薄荷等观光花卉，园区分为芳香花园区、禅宗衍生区、大地叠彩区、花海长廊区、花卉休闲度假区等。\n‍‍‍‍\n\n‍‍“香宝宝儿童乐园”是德阳地区第一家大型户外亲子乐园，座落在崴螺山森林公园”中国香山·寿香谷“景区内，与自然生态完美结合。“香宝宝儿童乐园”集游玩、拓展、探险、亲子体验于一体，既可锻炼运动能力，壮实胆气，让孩子们变得更为勇敢，亦可增进亲情和友情。‍‍\n‍‍乐园主要游乐项目有:仿真恐龙、丛林复古小火车、丛林穿越、亲子厨房，攀爬长龙、丛林拓展、七彩滑道、射箭场、疯狂索桥，拓展广场:含有攀爬类项目8个，荡桥、秋千、蹦床、百米障碍赛道以及音乐广场等。‍‍\n‍‍‍‍"}}, {"title": "松林桃花", "address": "广汉市松林镇", "image": "", "rank": 32, "time": 1.0, "location": {"lat": 30.966025985829987, "lng": 104.45296589136876}, "feature": {"sight_features": "", "sight_content": ""}}, {"title": "炳灵寺", "address": "广汉市北郊", "image": "", "rank": 33, "time": 1.0, "location": {"lat": 30.9824152397429, "lng": 104.28842189310545}, "feature": {"sight_features": "", "sight_content": ""}}, {"title": "红豆村", "address": "德阳市什邡市师古镇东面", "image": "", "rank": 34, "time": 2, "location": {"lat": 31.1658201521179, "lng": 104.0581842532531}, "feature": {"sight_features": "", "sight_content": ""}}, {"title": "蓥华山水世界", "address": "德阳市什邡市蓥华山蓥钟路118号", "image": "", "rank": 35, "time": 2, "location": {"lat": 31.33500097868479, "lng": 103.97173580363597}, "feature": {"sight_features": "", "sight_content": "蓥华山·水世界是什邡首创山林生态水乐园，直接把水上世界搬进了蓥华山森林景区。满目的绿是真正的“森呼吸”，负氧离子含量让你倍感畅爽，刺激的体验项目更有海洋般的凉爽。"}}, {"title": "德阳市博物馆", "address": "南街文庙", "image": "", "rank": 36, "time": 2.5, "location": {"lat": 31.13588583490496, "lng": 104.39797553208365}, "feature": {"sight_features": "", "sight_content": ""}}, {"title": "龙居寺", "address": "四川什邡县湔底乡", "image": "", "rank": 37, "time": 1.0, "location": {"lat": 31.198007991667218, "lng": 104.02690629473516}, "feature": {"sight_features": "", "sight_content": ""}}, {"title": "西部花千谷", "address": "德阳市广汉市成德大道西高段", "image": "", "rank": 38, "time": 1.0, "location": {"lat": 30.9824152397429, "lng": 104.28842189310545}, "feature": {"sight_features": "", "sight_content": ""}}, {"title": "中江博物馆", "address": "德阳市中江县二环路附近", "image": "", "rank": 39, "time": 2.5, "location": {"lat": 31.033376799052935, "lng": 104.66409690629521}, "feature": {"sight_features": "", "sight_content": ""}}, {"title": "神瀑沟风景区", "address": "德阳市什邡市蓥华镇石门村6组", "image": "", "rank": 40, "time": 1.5, "location": {"lat": 31.318933377022617, "lng": 103.9464660474367}, "feature": {"sight_features": "特色1 避暑戏水的好地方", "sight_content": "神瀑沟景区位于什邡市蓥华镇石门村，这里植被丰茂，古藤吊涧，松林成阵。现在的神瀑沟是由以前的五龙沟改名而来，沟口海拔1280米，沟尾1580米，一条溪流贯穿峡谷。其中分布着大小不一的五个瀑布。"}}, {"title": "涌泉", "address": "德阳市广汉市双泉乡涌泉村", "image": "", "rank": 41, "time": 0.25, "location": {"lat": 31.012568268245644, "lng": 104.43125731105864}, "feature": {"sight_features": "", "sight_content": ""}}, {"title": "森海水上乐园", "address": "德阳市绵竹市新市镇剑南春森林公园", "image": "", "rank": 42, "time": 2, "location": {"lat": 31.230647299773853, "lng": 104.14884898961189}, "feature": {"sight_features": "", "sight_content": "森海水上乐园位于绵竹市新市镇剑南春森林公园，与剑南春森林酒店毗邻，注册资金2000万，规划总面积约220亩，开发建设项目有儿童戏水小品、雪橇滑梯、海浪池、水寨、漂流河、冲天回旋滑梯等，是目前德阳地区规模最大的水上乐园。\n园区设施和环境都由专业设计团队为森海量身打造，具有高度安全性、娱乐性和观赏性，除齐备时下最受追捧的各大水上游乐项目外，还拥有目前川内最大面积的主题乐园墙体彩绘，极具特色，为游客呈现一场独特的视觉盛宴。\n本乐园由绵竹市森海旅游开发有限责任公司开发建设，是一家集绿色生态回归、游园嬉水、文化旅游、休闲度假等于一体的大型水上乐园，让游客在体验刺激快乐的同时，舒缓工作、生活带来的压力，使其达到身心放松，留下美好回忆的目的。"}}, {"title": "孝泉舍利塔", "address": "四川省德阳市旌阳区孝泉镇", "image": "", "rank": 43, "time": 2, "location": {"lat": 31.25387769628146, "lng": 104.2866880017762}, "feature": {"sight_features": "", "sight_content": ""}}, {"title": "倒湾古镇", "address": "德阳市罗江县白马镇凤雏村15组", "image": "", "rank": 44, "time": 2.0, "location": {"lat": 31.29707124827608, "lng": 104.4846356620044}, "feature": {"sight_features": "", "sight_content": ""}}, {"title": "八卦谷", "address": "德阳市罗江县白马关风景区内", "image": "", "rank": 45, "time": 2, "location": {"lat": 31.295196642168943, "lng": 104.47438695642413}, "feature": {"sight_features": "", "sight_content": ""}}, {"title": "四川建筑职业技术学院", "address": "四川省德阳市旌阳区嘉陵江西路", "image": "", "rank": 46, "time": 2, "location": {"lat": 31.09483692322246, "lng": 104.37801116553139}, "feature": {"sight_features": "", "sight_content": ""}}, {"title": "广汉海立方海洋亲子乐园", "address": "广汉市台北路东二段10号广汉汉街38号楼", "image": "", "rank": 47, "time": 2, "location": {"lat": 30.951931298004702, "lng": 104.27992894450885}, "feature": {"sight_features": "特色1 亲子游玩好去处", "sight_content": "广汉海立方海洋亲子乐园涵盖泥巴坊、创意美劳、创意厨房等多种亲子体验项目。园内开设室内儿童攀爬、5D影院、淘气堡等多种互动娱乐设备，还有海龟、海狮、海豹互动舞台，更有紧张刺激的人鲨共舞和如梦如幻的美人鱼表演。\n园内开设室内儿童攀爬、5D影院、淘气堡等多种互动娱乐设备，还有海龟、海狮、海豹互动舞台，更有紧张刺激的人鲨共舞和如梦如幻的美人鱼表演。"}}, {"title": "三星堆考古遗址公园", "address": "德阳市广汉市向新路", "image": "", "rank": 48, "time": 2, "location": {"lat": 30.972946018090983, "lng": 104.20517740998801}, "feature": {"sight_features": "", "sight_content": ""}}, {"title": "白马关滑草场", "address": "德阳市罗江县白马关镇广济村三组白马关滑草场检票处", "image": "", "rank": 49, "time": 2, "location": {"lat": 31.295196642168943, "lng": 104.47438695642413}, "feature": {"sight_features": "", "sight_content": ""}}, {"title": "德阳花样年华", "address": "德阳市什邡市京什东路北段", "image": "", "rank": 50, "time": 2.5, "location": {"lat": 31.14949765326638, "lng": 104.17198773517528}, "feature": {"sight_features": "", "sight_content": ""}}, {"title": "欢乐奇兵乐园", "address": "广汉市金雁·欢乐水岸内（高铁站旁）", "image": "", "rank": 51, "time": 2, "location": {"lat": 30.98967560036914, "lng": 104.29729589391631}, "feature": {"sight_features": "", "sight_content": "欢乐奇兵乐园坐落于广汉高铁站旁金雁欢乐水岸内，是一个集西南顶尖水上游乐设备体验与园林式风光于一体的大型主题乐园，拥有豪华转马、大摆锤、迷你穿梭、过山车等多种丰富多彩的游乐设备。"}}, {"title": "四季东城", "address": "德阳市什邡市皂角街道城东村（四季东城农庄）", "image": "", "rank": 52, "time": 2, "location": {"lat": 31.143174990827784, "lng": 104.19746750262651}, "feature": {"sight_features": "", "sight_content": ""}}, {"title": "剑南老街", "address": "四川省德阳市绵竹市", "image": "", "rank": 53, "time": 2, "location": {"lat": 31.343592258210748, "lng": 104.22760930499648}, "feature": {"sight_features": "", "sight_content": ""}}, {"title": "南塔公园", "address": "湖南省郴州市香雪路", "image": "", "rank": 54, "time": 1.5, "location": {"lat": 25.786644576046818, "lng": 113.0382229508714}, "feature": {"sight_features": "", "sight_content": ""}}, {"title": "万兴花园酒店温泉", "address": "德阳市什邡市什邡湔氐镇双流村内", "image": "", "rank": 55, "time": 2, "location": {"lat": 31.21609406270112, "lng": 103.99400657766984}, "feature": {"sight_features": "", "sight_content": ""}}, {"title": "落凤坡", "address": "德阳市罗江县白马关镇白马关北1.5公里处", "image": "", "rank": 56, "time": 2, "location": {"lat": 31.410838429327107, "lng": 104.47438695642413}, "feature": {"sight_features": "", "sight_content": ""}}, {"title": "绵竹广场", "address": "四川省德阳绵竹市步行街绵竹广场", "image": "", "rank": 57, "time": 1.0, "location": {"lat": 31.348173567189207, "lng": 104.20451261270722}, "feature": {"sight_features": "", "sight_content": ""}}, {"title": "颐心谷", "address": "德阳市绵竹市遵道镇梨花广场", "image": "", "rank": 58, "time": 2, "location": {"lat": 31.383318323697992, "lng": 104.12064312724308}, "feature": {"sight_features": "", "sight_content": ""}}, {"title": "绵竹市人民公园", "address": "瑞祥横街30", "image": "", "rank": 59, "time": 2.5, "location": {"lat": 31.3539617633115, "lng": 104.20367330790313}, "feature": {"sight_features": "", "sight_content": ""}}, {"title": "诸葛双忠祠", "address": "德阳市绵竹市职中巷16号", "image": "", "rank": 60, "time": 2, "location": {"lat": 31.34919110839786, "lng": 104.19864248533524}, "feature": {"sight_features": "", "sight_content": ""}}]}