{"cityName": "调兵山", "days": 2, "cityImage": "", "spots": [{"title": "铁煤蒸汽机车博物馆", "address": "铁岭市调兵山市晓明镇政府对面", "image": "", "rank": 1, "time": null, "location": {"lat": 42.418285309119035, "lng": 123.67887903641818}, "feature": {"sight_features": "", "sight_content": ""}}, {"title": "竹溪源温泉", "address": "铁岭市调兵山市南工业园区南六路", "image": "", "rank": 2, "time": 2, "location": {"lat": 42.473738012058256, "lng": 123.57350868313209}, "feature": {"sight_features": "特色1 城在山中，园在林中，人在绿中的特色", "sight_content": "龙源温泉旅游度假小镇是以文化旅游为特色。\n以温泉为基础，集旅游度假、商务会议、餐饮住宿、健身休闲、温泉疗养、中外贵宾接待为一体的多功能综合休闲度假区。"}}, {"title": "豪骏马术俱乐部", "address": "铁岭市调兵山市城南经济开发区南天马路", "image": "", "rank": 3, "time": 2, "location": {"lat": 42.473738012058256, "lng": 123.57350868313209}, "feature": {"sight_features": "", "sight_content": ""}}, {"title": "小戴纯绿色牛奶草莓", "address": "施荒地村望山屯道口北走500米", "image": "", "rank": 4, "time": 2, "location": {"lat": 42.44572218755498, "lng": 123.57118877591527}, "feature": {"sight_features": "", "sight_content": ""}}, {"title": "河西浦有机果蔬种植园(南园区)", "address": "中央大街5号", "image": "", "rank": 5, "time": 2, "location": {"lat": 42.46112256562038, "lng": 123.56013842878605}, "feature": {"sight_features": "", "sight_content": ""}}, {"title": "郁金香垂钓园", "address": "调兵山街道郁金香垂钓园", "image": "", "rank": 6, "time": null, "location": {"lat": 42.47081390924898, "lng": 123.55751389539111}, "feature": {"sight_features": "", "sight_content": ""}}, {"title": "春晓公园", "address": "辽宁省铁岭市调兵山市晓南镇春晓公园", "image": "", "rank": 7, "time": 0.75, "location": {"lat": 42.357945092354946, "lng": 123.6040058398906}, "feature": {"sight_features": "", "sight_content": ""}}, {"title": "逗逗儿童世界", "address": "铁岭市调兵山市迎宾路铁岭市调兵山兴隆百货2层", "image": "", "rank": 8, "time": 2, "location": {"lat": 42.450550780328506, "lng": 123.55137404639993}, "feature": {"sight_features": "", "sight_content": ""}}, {"title": "晓明基督教堂", "address": "铁岭市调兵山市", "image": "", "rank": 9, "time": 2, "location": {"lat": 42.473738012058256, "lng": 123.57350868313209}, "feature": {"sight_features": "", "sight_content": ""}}, {"title": "调兵山市大明镇北街基督教会", "address": "辽宁省铁岭市调兵山市大明村镇柏线大明镇政府东北350米", "image": "", "rank": 10, "time": 1.0, "location": {"lat": 42.54520997788737, "lng": 123.64436578748739}, "feature": {"sight_features": "", "sight_content": ""}}, {"title": "普照寺", "address": "腾龙路东50米", "image": "", "rank": 11, "time": 0.75, "location": {"lat": 29.585672550823585, "lng": 120.9015537430757}, "feature": {"sight_features": "", "sight_content": ""}}, {"title": "调兵山市朝鲜族基督教会", "address": "团结村附近", "image": "", "rank": 12, "time": 1.0, "location": {"lat": 31.3785119852116, "lng": 120.95944057435092}, "feature": {"sight_features": "", "sight_content": ""}}, {"title": "孝文化广场", "address": "辽宁省铁岭市调兵山市兀术街街道古城街明月禅寺附近", "image": "", "rank": 13, "time": 2, "location": {"lat": 42.454424858093695, "lng": 123.5385974606061}, "feature": {"sight_features": "", "sight_content": ""}}, {"title": "圣梨岛宏运度假村", "address": "辽宁省铁岭市调兵山市s105", "image": "", "rank": 14, "time": 2, "location": {"lat": 42.473738012058256, "lng": 123.57350868313209}, "feature": {"sight_features": "", "sight_content": ""}}, {"title": "调兵山市基督教会", "address": "西山小区附近", "image": "", "rank": 15, "time": 1.0, "location": {"lat": 43.86918535107192, "lng": 126.56775702282887}, "feature": {"sight_features": "", "sight_content": ""}}, {"title": "新区万亩花海-儿童游乐场", "address": "新区万亩花海", "image": "", "rank": 16, "time": 2, "location": {"lat": 40.381413791933404, "lng": 116.85743767003744}, "feature": {"sight_features": "", "sight_content": ""}}, {"title": "中国·铁煤蒸汽机车博物馆", "address": "其他晓明镇政府对过(镇政府对面)", "image": "", "rank": 17, "time": 2, "location": {"lat": 42.418285309119035, "lng": 123.67887903641818}, "feature": {"sight_features": "", "sight_content": ""}}, {"title": "社区文化广场", "address": "辽宁省铁岭市调兵山市", "image": "", "rank": 18, "time": null, "location": {"lat": 42.473738012058256, "lng": 123.57350868313209}, "feature": {"sight_features": "", "sight_content": ""}}, {"title": "室内主题乐园(时代广场店)", "address": "生态路时代广场1楼(生态路与后兀线交汇处向东200米处)", "image": "", "rank": 19, "time": 2, "location": {"lat": 29.65870395486707, "lng": 91.13568646995216}, "feature": {"sight_features": "", "sight_content": ""}}, {"title": "有意思吧3d奇幻艺术体验馆", "address": "调兵山新时代购物广场3号楼2层东侧", "image": "", "rank": 20, "time": 2, "location": {"lat": 42.43597876510729, "lng": 123.54426668284908}, "feature": {"sight_features": "", "sight_content": ""}}, {"title": "惠都美术", "address": "迎宾路68号附近", "image": "", "rank": 21, "time": 2, "location": {"lat": 39.95358141471848, "lng": 119.60148386229567}, "feature": {"sight_features": "", "sight_content": ""}}, {"title": "创捷美术", "address": "中央大街附近", "image": "", "rank": 22, "time": 2, "location": {"lat": 22.540723318225652, "lng": 114.07211691104746}, "feature": {"sight_features": "", "sight_content": ""}}, {"title": "开心幼儿乐园", "address": "和平大街16号附近", "image": "", "rank": 23, "time": 2, "location": {"lat": 39.941387559776985, "lng": 119.59753973068288}, "feature": {"sight_features": "", "sight_content": ""}}, {"title": "恐怖城", "address": "生态路时代广场一楼(生态路与后兀线交汇处向东200米处)", "image": "", "rank": 24, "time": 2, "location": {"lat": 29.65870395486707, "lng": 91.13568646995216}, "feature": {"sight_features": "", "sight_content": ""}}, {"title": "兵山商业第一街", "address": "辽宁省调兵山市调兵山大街来福大厦附近", "image": "", "rank": 25, "time": 2, "location": {"lat": 42.45435354122669, "lng": 123.54973624142126}, "feature": {"sight_features": "", "sight_content": ""}}, {"title": "金都商业广场", "address": "辽宁省调兵山市中央大街", "image": "", "rank": 26, "time": 2, "location": {"lat": 42.445161974401024, "lng": 123.55546780427001}, "feature": {"sight_features": "", "sight_content": ""}}]}