{"cityName": "迭部", "days": 2, "cityImage": "", "spots": [{"title": "扎尕那", "address": "甘南藏族自治州迭部县扎尕那益哇镇", "image": "", "rank": 1, "time": 1.5, "location": {"lat": 34.24412418599444, "lng": 103.19821407194743}, "feature": {"sight_features": "", "sight_content": ""}}, {"title": "骨麻湖", "address": "甘南州迭部县桑坝乡黑拉村西北部的半山腰处", "image": "", "rank": 2, "time": null, "location": {"lat": 34.04425091132576, "lng": 103.80033761485689}, "feature": {"sight_features": "", "sight_content": ""}}, {"title": "古叠州城遗址", "address": "甘南州迭部县城东郊电尕乡然闹村", "image": "", "rank": 3, "time": 1.0, "location": {"lat": 34.061133813772905, "lng": 103.24917448629097}, "feature": {"sight_features": "", "sight_content": ""}}, {"title": "羊布水磨群", "address": "甘南藏族自治州迭部县羊布村", "image": "", "rank": 4, "time": 2.5, "location": {"lat": 34.06202005409746, "lng": 103.22844034557771}, "feature": {"sight_features": "", "sight_content": ""}}, {"title": "扎尕那山景藏家乐", "address": "益哇乡扎尕那达日村25号", "image": "", "rank": 5, "time": 2, "location": {"lat": 32.30821932043407, "lng": 100.91961656227356}, "feature": {"sight_features": "", "sight_content": ""}}, {"title": "桑坝乡", "address": "甘肃省甘南藏族自治州迭部县桑坝乡", "image": "", "rank": 6, "time": 2, "location": {"lat": 34.04425091132576, "lng": 103.80033761485689}, "feature": {"sight_features": "", "sight_content": ""}}, {"title": "牛路沟", "address": "甘南藏族自治州迭部县", "image": "", "rank": 7, "time": 2, "location": {"lat": 34.06202005409746, "lng": 103.22844034557771}, "feature": {"sight_features": "", "sight_content": ""}}, {"title": "迭部龙达雅珠农家乐", "address": "甘南迭部县益哇乡扎尕那业日村23号", "image": "", "rank": 8, "time": 1.5, "location": {"lat": 34.244124036786424, "lng": 103.19821398211688}, "feature": {"sight_features": "", "sight_content": ""}}, {"title": "腊子口战役纪念馆", "address": "腊子口战役纪念馆", "image": "", "rank": 9, "time": 2, "location": {"lat": 34.13936054655614, "lng": 103.92926550912496}, "feature": {"sight_features": "", "sight_content": ""}}, {"title": "白龙江激情漂流", "address": "313省道", "image": "", "rank": 10, "time": 2, "location": {"lat": 40.47363217982258, "lng": 116.99325005466613}, "feature": {"sight_features": "", "sight_content": ""}}, {"title": "西布古林场", "address": "313省道南150米", "image": "", "rank": 11, "time": null, "location": {"lat": 40.472603111787855, "lng": 116.99325005466613}, "feature": {"sight_features": "", "sight_content": ""}}, {"title": "山清水秀藏家乐", "address": "业日村38号", "image": "", "rank": 12, "time": 2, "location": {"lat": 34.24521764973528, "lng": 103.18756250419342}, "feature": {"sight_features": "", "sight_content": ""}}, {"title": "岗坚藏家乐", "address": "412县道西50米", "image": "", "rank": 13, "time": 2, "location": {"lat": 29.262821330847167, "lng": 88.89770654874306}, "feature": {"sight_features": "", "sight_content": ""}}, {"title": "达日村", "address": "甘肃省甘南藏族自治州迭部县扎尕那", "image": "", "rank": 14, "time": null, "location": {"lat": 34.24412418599444, "lng": 103.19821407194743}, "feature": {"sight_features": "", "sight_content": ""}}, {"title": "仙女湖", "address": "扎尕那景区内", "image": "", "rank": 15, "time": 1.0, "location": {"lat": 34.24345158937789, "lng": 103.19818634125633}, "feature": {"sight_features": "", "sight_content": ""}}, {"title": "仙女滩", "address": "扎尕那景区内", "image": "", "rank": 16, "time": 2.5, "location": {"lat": 34.24345158937789, "lng": 103.19818634125633}, "feature": {"sight_features": "", "sight_content": ""}}, {"title": "代巴村", "address": "甘肃省甘南藏族自治州迭部县扎尕那", "image": "", "rank": 17, "time": null, "location": {"lat": 34.24412418599444, "lng": 103.19821407194743}, "feature": {"sight_features": "", "sight_content": ""}}, {"title": "拉桑寺院", "address": "扎尕那村", "image": "", "rank": 18, "time": 2, "location": {"lat": 34.24554485752374, "lng": 103.1875105731519}, "feature": {"sight_features": "", "sight_content": ""}}, {"title": "东哇村", "address": "甘肃省甘南藏族自治州迭部县扎尕那东哇村", "image": "", "rank": 19, "time": 2, "location": {"lat": 34.06202005409746, "lng": 103.22844034557771}, "feature": {"sight_features": "", "sight_content": ""}}, {"title": "业日村", "address": "甘肃省甘南藏族自治州迭部县扎尕那", "image": "", "rank": 20, "time": 2, "location": {"lat": 34.24412418599444, "lng": 103.19821407194743}, "feature": {"sight_features": "", "sight_content": ""}}]}