{"cityName": "定远", "days": 2, "cityImage": "", "spots": [{"title": "令狐山风景区", "address": "滁州市定远县塔山北路", "image": "", "rank": 1, "time": 2, "location": {"lat": 32.388650189881865, "lng": 117.94132501362725}, "feature": {"sight_features": "", "sight_content": ""}}, {"title": "定远县档案馆", "address": "包公路", "image": "", "rank": 2, "time": 2, "location": {"lat": 31.738262892155127, "lng": 117.18437143383244}, "feature": {"sight_features": "", "sight_content": ""}}, {"title": "恩典堂", "address": "东兴路18号", "image": "", "rank": 3, "time": 2, "location": {"lat": 40.980188956072446, "lng": 117.9462705807141}, "feature": {"sight_features": "", "sight_content": ""}}, {"title": "定远县图书馆(炉桥镇分馆)", "address": "八一大道北150米", "image": "", "rank": 4, "time": 2, "location": {"lat": 26.861312436643637, "lng": 114.69637134005735}, "feature": {"sight_features": "", "sight_content": ""}}, {"title": "定远中学农场", "address": "一零一省道", "image": "", "rank": 5, "time": 2, "location": {"lat": 36.94585432668124, "lng": 105.2698966594025}, "feature": {"sight_features": "", "sight_content": ""}}, {"title": "定远县八千卉种植专业合作社", "address": "花园湖西大街附近", "image": "", "rank": 6, "time": 2, "location": {"lat": 32.530525987436086, "lng": 117.68408455089086}, "feature": {"sight_features": "", "sight_content": ""}}, {"title": "马场湖农场", "address": "013乡道附近", "image": "", "rank": 7, "time": 2, "location": {"lat": 40.115696897150926, "lng": 116.62995365726826}, "feature": {"sight_features": "", "sight_content": ""}}, {"title": "川流现代农业有限公司", "address": "定城镇定远县人民法院东大门对面", "image": "", "rank": 8, "time": 2, "location": {"lat": 32.53775288322596, "lng": 117.70928020317368}, "feature": {"sight_features": "", "sight_content": ""}}, {"title": "二龙清真古寺", "address": "安徽省滁州市定远县蓝云街二龙回族乡政府附近", "image": "", "rank": 9, "time": 2, "location": {"lat": 32.29835553185542, "lng": 117.70844155592924}, "feature": {"sight_features": "", "sight_content": ""}}, {"title": "陈铎祠遗址", "address": "安徽省滁州市定远县", "image": "", "rank": 10, "time": 2, "location": {"lat": 32.53704661348729, "lng": 117.70447068625293}, "feature": {"sight_features": "", "sight_content": ""}}, {"title": "定远大剧院", "address": "长征东路", "image": "", "rank": 11, "time": 2.0, "location": {"lat": 28.55552095959694, "lng": 102.1860561385027}, "feature": {"sight_features": "", "sight_content": ""}}, {"title": "吴氏宗祠", "address": "安徽省歙县连江镇东塘村大井路1号 245200", "image": "", "rank": 12, "time": 0.75, "location": {"lat": 29.866287675757313, "lng": 118.42146012978772}, "feature": {"sight_features": "", "sight_content": ""}}, {"title": "裕安水上花园", "address": "合蚌路与定滁路交汇口向南300米", "image": "", "rank": 13, "time": 2, "location": {"lat": 32.52868083955514, "lng": 117.69763174267659}, "feature": {"sight_features": "", "sight_content": ""}}, {"title": "金山滴水寺", "address": "安徽省定远县大金山腹地", "image": "", "rank": 14, "time": 2, "location": {"lat": 32.52274892901182, "lng": 118.03821701039146}, "feature": {"sight_features": "", "sight_content": ""}}, {"title": "计祠堂", "address": "滁州市定远县", "image": "", "rank": 15, "time": 2, "location": {"lat": 32.53704661348729, "lng": 117.70447068625293}, "feature": {"sight_features": "", "sight_content": ""}}, {"title": "鲁肃广场", "address": "东城路与鲁肃大道交叉口西北100米", "image": "", "rank": 16, "time": 2, "location": {"lat": 32.545264786159684, "lng": 117.69562795186364}, "feature": {"sight_features": "", "sight_content": ""}}, {"title": "定远县城乡规划展示馆", "address": "金山路", "image": "", "rank": 17, "time": 2, "location": {"lat": 38.83072747913637, "lng": 115.41979725460119}, "feature": {"sight_features": "", "sight_content": ""}}, {"title": "远卉植物园", "address": "滁州市定远县曲阳路与幸福路交叉口往北200米", "image": "", "rank": 18, "time": 2, "location": {"lat": 32.53167170488884, "lng": 117.68816723804383}, "feature": {"sight_features": "", "sight_content": ""}}, {"title": "定远五味蔬果采摘园", "address": "合蚌路西气东输正对面(南五里拐)", "image": "", "rank": 19, "time": 2, "location": {"lat": 31.917626613171894, "lng": 117.49426872403745}, "feature": {"sight_features": "", "sight_content": ""}}, {"title": "红燕唢呐艺术团", "address": "长征西路", "image": "", "rank": 20, "time": 2, "location": {"lat": 32.408919418675524, "lng": 119.43983981340511}, "feature": {"sight_features": "", "sight_content": ""}}, {"title": "定远县百佳艺术团", "address": "鲁肃大道", "image": "", "rank": 21, "time": 2, "location": {"lat": 32.528931914479294, "lng": 117.69817434435717}, "feature": {"sight_features": "", "sight_content": ""}}, {"title": "定远县黄梅戏剧团", "address": "曲阳路", "image": "", "rank": 22, "time": 2, "location": {"lat": 31.288902869060884, "lng": 121.49733463639835}, "feature": {"sight_features": "", "sight_content": ""}}, {"title": "定远县青年歌舞团", "address": "迎宾东路198号迎宾西路(交警队东200米)", "image": "", "rank": 23, "time": 2, "location": {"lat": 27.86337076845266, "lng": 112.89973122008793}, "feature": {"sight_features": "", "sight_content": ""}}, {"title": "小树刘", "address": "滁州市-定远县", "image": "", "rank": 24, "time": 2, "location": {"lat": 32.53704661348729, "lng": 117.70447068625293}, "feature": {"sight_features": "", "sight_content": ""}}, {"title": "定远县定城镇基督教堂", "address": "滁州市-定远县-恩典堂(东兴路北)", "image": "", "rank": 25, "time": 2, "location": {"lat": 32.519810445222056, "lng": 117.69827669010053}, "feature": {"sight_features": "", "sight_content": ""}}, {"title": "庞老家", "address": "滁州市-定远县-零五一县道", "image": "", "rank": 26, "time": 2, "location": {"lat": 32.53704661348729, "lng": 117.70447068625293}, "feature": {"sight_features": "", "sight_content": ""}}]}