{"cityName": "定襄", "days": 2, "cityImage": "", "spots": [{"title": "神汤都温泉乐活园", "address": "忻州市定襄县汤头温泉开发区大运高速公路白村宏道出口8公里", "image": "", "rank": 1, "time": 2, "location": {"lat": 38.73635070122627, "lng": 112.76049802430721}, "feature": {"sight_features": "", "sight_content": ""}}, {"title": "山西凤凰山生态植物园", "address": "山西省定襄县凤凰山", "image": "", "rank": 2, "time": 2, "location": {"lat": 38.612035423638396, "lng": 112.8658371426124}, "feature": {"sight_features": "", "sight_content": ""}}, {"title": "wx密室逃脱", "address": "忻阜路粮贸大楼西楼", "image": "", "rank": 3, "time": 2, "location": {"lat": 40.815918256335216, "lng": 114.9106030340208}, "feature": {"sight_features": "", "sight_content": ""}}, {"title": "续范亭将军纪念馆", "address": "定襄县宏道镇西社村", "image": "", "rank": 4, "time": 2, "location": {"lat": 38.64027583355076, "lng": 113.02831664257643}, "feature": {"sight_features": "", "sight_content": ""}}, {"title": "定襄帝汤温泉度假村", "address": "忻州定襄县上汤头村凤凰山景区", "image": "", "rank": 5, "time": 2, "location": {"lat": 38.60073240442815, "lng": 112.84125518750145}, "feature": {"sight_features": "", "sight_content": ""}}, {"title": "忻州白佛堂", "address": "山西省定襄县河边镇继成村 035404", "image": "", "rank": 6, "time": 7.5, "location": {"lat": 38.55653294716606, "lng": 113.18396862091863}, "feature": {"sight_features": "", "sight_content": ""}}, {"title": "西阁神庙", "address": "山西省忻州市定襄县宏忻线蒋村乡政府西150米", "image": "", "rank": 7, "time": 2, "location": {"lat": 38.537450862451905, "lng": 113.04706799575786}, "feature": {"sight_features": "", "sight_content": ""}}, {"title": "家世界儿童乐园", "address": "西门街9号附近", "image": "", "rank": 8, "time": 2, "location": {"lat": 29.271016109503474, "lng": 120.232936266504}, "feature": {"sight_features": "", "sight_content": ""}}, {"title": "薄一波故居", "address": "山西省忻州市定襄县宏忻线", "image": "", "rank": 9, "time": 2, "location": {"lat": 38.40146661833312, "lng": 112.95199886029722}, "feature": {"sight_features": "", "sight_content": ""}}, {"title": "哈哈乐儿童乐园", "address": "忻州市定襄县", "image": "", "rank": 10, "time": 2, "location": {"lat": 38.4799743058469, "lng": 112.96352861151779}, "feature": {"sight_features": "", "sight_content": ""}}, {"title": "财神庙街", "address": "山西省忻州市定襄县", "image": "", "rank": 11, "time": 2, "location": {"lat": 38.4799743058469, "lng": 112.96352861151779}, "feature": {"sight_features": "", "sight_content": ""}}, {"title": "定襄图书馆", "address": "城中街3", "image": "", "rank": 12, "time": 1.5, "location": {"lat": 38.49408906011116, "lng": 112.96686033682373}, "feature": {"sight_features": "", "sight_content": ""}}, {"title": "革命历史纪念馆", "address": "006乡道", "image": "", "rank": 13, "time": 2, "location": {"lat": 42.011747549379294, "lng": 118.25427947194045}, "feature": {"sight_features": "", "sight_content": ""}}, {"title": "力平画社", "address": "西城路05号", "image": "", "rank": 14, "time": 2, "location": {"lat": 39.73508202572729, "lng": 117.31012112500282}, "feature": {"sight_features": "", "sight_content": ""}}, {"title": "定兰彦军蔬菜种植合作社", "address": "杨芳乡兰台村兰台学校西30米", "image": "", "rank": 15, "time": 2, "location": {"lat": 38.494671329134164, "lng": 112.88106423307472}, "feature": {"sight_features": "", "sight_content": ""}}, {"title": "洪福寺", "address": "忻州市定襄县170县道西100米", "image": "", "rank": 16, "time": 2, "location": {"lat": 38.4799743058469, "lng": 112.96352861151779}, "feature": {"sight_features": "", "sight_content": ""}}]}