{"cityName": "定日", "days": 2, "cityImage": "", "spots": [{"title": "珠峰大本营", "address": "日喀则市定日县珠峰路", "image": "", "rank": 1, "time": 7.5, "location": {"lat": 28.48721026728231, "lng": 87.05795254787562}, "feature": {"sight_features": "", "sight_content": ""}}, {"title": "珠穆朗玛峰", "address": "日喀则市定日县正南方，喜马拉雅山中段之中尼边界", "image": "", "rank": 2, "time": 3.0, "location": {"lat": 28.66395198328889, "lng": 87.1295977393142}, "feature": {"sight_features": "", "sight_content": ""}}, {"title": "绒布寺", "address": "日喀则市定日县绒布沟东西侧度母山顶处（近珠穆朗玛峰大本营）", "image": "", "rank": 3, "time": 1.0, "location": {"lat": 28.137462903063188, "lng": 86.86067389660896}, "feature": {"sight_features": "", "sight_content": ""}}, {"title": "绒布冰川", "address": "日喀则市定日县巴松乡南面珠穆朗玛峰下绒布沟", "image": "", "rank": 4, "time": 1.0, "location": {"lat": 28.66395198328889, "lng": 87.1295977393142}, "feature": {"sight_features": "", "sight_content": ""}}, {"title": "卓奥友峰", "address": "日喀则市定日县中尼边境上", "image": "", "rank": 5, "time": 2, "location": {"lat": 28.66395198328889, "lng": 87.1295977393142}, "feature": {"sight_features": "", "sight_content": ""}}, {"title": "加乌拉山", "address": "日喀则市定日县扎西宗乡附近", "image": "", "rank": 6, "time": 1.5, "location": {"lat": 28.424625414314036, "lng": 87.0311996810238}, "feature": {"sight_features": "", "sight_content": ""}}, {"title": "章子峰", "address": "日喀则市定日县", "image": "", "rank": 7, "time": 1.0, "location": {"lat": 28.66395198328889, "lng": 87.1295977393142}, "feature": {"sight_features": "", "sight_content": ""}}, {"title": "孜布日神山", "address": "日喀则市定日县", "image": "", "rank": 8, "time": 1.0, "location": {"lat": 28.66395198328889, "lng": 87.1295977393142}, "feature": {"sight_features": "", "sight_content": ""}}, {"title": "门隆则峰", "address": "日喀则市定日县境内", "image": "", "rank": 9, "time": 1.0, "location": {"lat": 28.66395198328889, "lng": 87.1295977393142}, "feature": {"sight_features": "", "sight_content": ""}}, {"title": "拉布吉康峰", "address": "日喀则市聂拉木县与定日县交界处", "image": "", "rank": 10, "time": 1.0, "location": {"lat": 28.16083936054344, "lng": 85.98877040304578}, "feature": {"sight_features": "", "sight_content": ""}}, {"title": "绒布河谷", "address": "日喀则市定日县岗嘎镇附近", "image": "", "rank": 11, "time": 1.0, "location": {"lat": 28.582391703839658, "lng": 86.62622239731391}, "feature": {"sight_features": "", "sight_content": ""}}, {"title": "协格尔曲德寺", "address": "日喀则市定日县", "image": "", "rank": 12, "time": 0.75, "location": {"lat": 28.66395198328889, "lng": 87.1295977393142}, "feature": {"sight_features": "", "sight_content": ""}}, {"title": "汤松", "address": "日喀则市定日县", "image": "", "rank": 13, "time": 2, "location": {"lat": 28.66395198328889, "lng": 87.1295977393142}, "feature": {"sight_features": "", "sight_content": ""}}, {"title": "座卡香", "address": "日喀则市定日县", "image": "", "rank": 14, "time": 1.5, "location": {"lat": 28.66395198328889, "lng": 87.1295977393142}, "feature": {"sight_features": "", "sight_content": ""}}, {"title": "晓乌措", "address": "日喀则市定日县", "image": "", "rank": 15, "time": 2.0, "location": {"lat": 28.66395198328889, "lng": 87.1295977393142}, "feature": {"sight_features": "", "sight_content": ""}}, {"title": "排唐", "address": "日喀则市定日县", "image": "", "rank": 16, "time": 1.5, "location": {"lat": 28.66395198328889, "lng": 87.1295977393142}, "feature": {"sight_features": "", "sight_content": ""}}, {"title": "措休日玛", "address": "日喀则市定日县", "image": "", "rank": 17, "time": 2, "location": {"lat": 28.66395198328889, "lng": 87.1295977393142}, "feature": {"sight_features": "", "sight_content": ""}}, {"title": "珠穆朗玛峰自然保护区", "address": "西藏自治区定日县定日、聂拉木、吉隆和定结四县交界 858200", "image": "", "rank": 18, "time": 2.5, "location": {"lat": 28.16083936054344, "lng": 85.98877040304578}, "feature": {"sight_features": "", "sight_content": ""}}, {"title": "珠峰东坡大本营", "address": "日喀则市定日县", "image": "", "rank": 19, "time": 2, "location": {"lat": 28.66395198328889, "lng": 87.1295977393142}, "feature": {"sight_features": "", "sight_content": ""}}, {"title": "鲁鲁温泉", "address": "318国道", "image": "", "rank": 20, "time": 2, "location": {"lat": 31.023348267795328, "lng": 120.88254137011852}, "feature": {"sight_features": "", "sight_content": ""}}, {"title": "马卡鲁峰", "address": "日喀则市定日县", "image": "", "rank": 21, "time": 2.0, "location": {"lat": 28.66395198328889, "lng": 87.1295977393142}, "feature": {"sight_features": "", "sight_content": ""}}, {"title": "绒布德寺", "address": "西藏自治区日喀则市定日县扎西宗乡珠峰路", "image": "", "rank": 22, "time": 2, "location": {"lat": 28.424625414314036, "lng": 87.0311996810238}, "feature": {"sight_features": "", "sight_content": ""}}, {"title": "加曲莫寺", "address": "日喀则地区定日县", "image": "", "rank": 23, "time": 2, "location": {"lat": 28.66395198328889, "lng": 87.1295977393142}, "feature": {"sight_features": "", "sight_content": ""}}, {"title": "珠峰民族风情街", "address": "西藏自治区定日县上海西路", "image": "", "rank": 24, "time": 2, "location": {"lat": 28.9140412128659, "lng": 89.60646259493755}, "feature": {"sight_features": "", "sight_content": ""}}, {"title": "强秋塔林", "address": "日喀则市-定日县", "image": "", "rank": 25, "time": 2, "location": {"lat": 28.66395198328889, "lng": 87.1295977393142}, "feature": {"sight_features": "", "sight_content": ""}}, {"title": "加吾拉山", "address": "西藏自治区日喀则地区定日县", "image": "", "rank": 26, "time": 2, "location": {"lat": 28.66395198328889, "lng": 87.1295977393142}, "feature": {"sight_features": "", "sight_content": ""}}, {"title": "曲当乡", "address": "西藏自治区日喀则定日县", "image": "", "rank": 27, "time": 2, "location": {"lat": 28.66395198328889, "lng": 87.1295977393142}, "feature": {"sight_features": "", "sight_content": ""}}, {"title": "珠穆朗玛峰国家级自然保护区", "address": "日喀则市定日县318国道附近", "image": "", "rank": 28, "time": 2, "location": {"lat": 28.66395198328889, "lng": 87.1295977393142}, "feature": {"sight_features": "", "sight_content": ""}}]}