{"cityName": "定边", "days": 2, "cityImage": "", "spots": [{"title": "定边县治沙造林展览馆", "address": "陕西省定边县石光银治沙展馆附近", "image": "", "rank": 1, "time": 2, "location": {"lat": 37.639318272288016, "lng": 107.67395305090571}, "feature": {"sight_features": "", "sight_content": ""}}, {"title": "侏罗纪生态游乐园动漫水世界", "address": "十里沙林业示范园区内", "image": "", "rank": 2, "time": 0.75, "location": {"lat": 29.889466040913696, "lng": 122.42316583650486}, "feature": {"sight_features": "", "sight_content": ""}}, {"title": "罗蒙艺术馆", "address": "东关街41号", "image": "", "rank": 3, "time": 0.5, "location": {"lat": 37.071783453590236, "lng": 114.52789951413108}, "feature": {"sight_features": "", "sight_content": ""}}, {"title": "公益图书馆", "address": "二道西街6号附近", "image": "", "rank": 4, "time": 2, "location": {"lat": 37.60188479900897, "lng": 107.59911656468562}, "feature": {"sight_features": "", "sight_content": ""}}, {"title": "缤纷鸟少儿美术馆", "address": "自强路19号附近", "image": "", "rank": 5, "time": 2, "location": {"lat": 37.767460641693596, "lng": 114.77080966569406}, "feature": {"sight_features": "", "sight_content": ""}}, {"title": "逃吧真人密室逃脱主题乐园", "address": "定边镇新区自强路移动大厅南", "image": "", "rank": 6, "time": 2, "location": {"lat": 37.58513225500705, "lng": 107.60280052620719}, "feature": {"sight_features": "", "sight_content": ""}}, {"title": "定边月牙湖", "address": "陕西省榆林市定边县东环路马莲滩西860米", "image": "", "rank": 7, "time": 1.0, "location": {"lat": 37.59736094181066, "lng": 107.6306006185873}, "feature": {"sight_features": "", "sight_content": ""}}, {"title": "石光银治沙展馆", "address": "陕西省定边县东十线附近", "image": "", "rank": 8, "time": 2, "location": {"lat": 37.67819221837259, "lng": 107.79072911020111}, "feature": {"sight_features": "", "sight_content": ""}}, {"title": "寺庙", "address": "榆林市定边县", "image": "", "rank": 9, "time": 2, "location": {"lat": 37.60045986534103, "lng": 107.60756957446472}, "feature": {"sight_features": "", "sight_content": ""}}, {"title": "天主堂(银湖小区东北)", "address": "李园子路附近", "image": "", "rank": 10, "time": 2, "location": {"lat": 31.00420574385776, "lng": 121.4299112329905}, "feature": {"sight_features": "", "sight_content": ""}}, {"title": "弘法寺", "address": "陕西省榆林市定边县定莲路", "image": "", "rank": 11, "time": 1.5, "location": {"lat": 37.58746558168475, "lng": 107.4581688332003}, "feature": {"sight_features": "", "sight_content": ""}}, {"title": "图书馆(砖井镇西高圈村分馆)", "address": "307国道", "image": "", "rank": 12, "time": 2, "location": {"lat": 38.073000928506836, "lng": 114.40128804973918}, "feature": {"sight_features": "", "sight_content": ""}}, {"title": "独具一阁艺术画廊", "address": "二道西街79号附近", "image": "", "rank": 13, "time": 2, "location": {"lat": 37.60211209141188, "lng": 107.5956999685183}, "feature": {"sight_features": "", "sight_content": ""}}, {"title": "镇西关民族社区公共电子阅览室", "address": "职中巷", "image": "", "rank": 14, "time": 2, "location": {"lat": 38.85195736938076, "lng": 105.70489102721473}, "feature": {"sight_features": "", "sight_content": ""}}, {"title": "牡丹园", "address": "榆林市定边县西环路近福满家超市", "image": "", "rank": 15, "time": 2.5, "location": {"lat": 37.61060448476776, "lng": 107.58902533100844}, "feature": {"sight_features": "", "sight_content": ""}}, {"title": "三边古陶瓷博物馆", "address": "榆林市定边县沙石梁巷19号", "image": "", "rank": 16, "time": 2, "location": {"lat": 37.59712201156383, "lng": 107.61438798277712}, "feature": {"sight_features": "", "sight_content": ""}}, {"title": "采油厂展览馆", "address": "榆林市定边县南大街", "image": "", "rank": 17, "time": 2, "location": {"lat": 37.592053235729324, "lng": 107.60513253629415}, "feature": {"sight_features": "", "sight_content": ""}}, {"title": "富亿鲜花·仿真花艺术馆", "address": "木业北街11附近", "image": "", "rank": 18, "time": 2, "location": {"lat": 37.601157966460896, "lng": 107.60040495920879}, "feature": {"sight_features": "", "sight_content": ""}}, {"title": "七股潟湖", "address": "七股乡", "image": "", "rank": 19, "time": 2.0, "location": {"lat": 41.64941373289825, "lng": 112.18481023904728}, "feature": {"sight_features": "", "sight_content": ""}}, {"title": "金瓜石", "address": "新北市瑞芳镇（近九份）", "image": "", "rank": 20, "time": 1.5, "location": {"lat": 28.5393945064776, "lng": 121.43391287668312}, "feature": {"sight_features": "", "sight_content": ""}}, {"title": "乌来老街", "address": "新北市乌来区（近明月温泉会馆）", "image": "", "rank": 21, "time": 2, "location": {"lat": 44.97485663870472, "lng": 81.03114554648644}, "feature": {"sight_features": "", "sight_content": ""}}, {"title": "平溪村", "address": "平溪乡", "image": "", "rank": 22, "time": 2.0, "location": {"lat": 32.66645223420113, "lng": 106.11686666128308}, "feature": {"sight_features": "", "sight_content": ""}}, {"title": "儿童乐园", "address": "环南东路", "image": "", "rank": 23, "time": 2, "location": {"lat": 37.59705921525031, "lng": 107.60950983351877}, "feature": {"sight_features": "", "sight_content": ""}}, {"title": "定边县图书馆(新安边村分馆)", "address": "303省道附近", "image": "", "rank": 24, "time": 2, "location": {"lat": 38.25466494631471, "lng": 114.66726867564682}, "feature": {"sight_features": "", "sight_content": ""}}, {"title": "大饰界艺术馆", "address": "西环路东50米", "image": "", "rank": 25, "time": 2, "location": {"lat": 23.253262829749772, "lng": 116.43429766843917}, "feature": {"sight_features": "", "sight_content": ""}}, {"title": "定边县图书馆", "address": "南大街与职中巷交叉口北200米", "image": "", "rank": 26, "time": 2, "location": {"lat": 37.59483460370239, "lng": 107.6051721605502}, "feature": {"sight_features": "", "sight_content": ""}}, {"title": "定边县砖井镇王智德生态农业种植...", "address": "砖井镇西高圈7组9号", "image": "", "rank": 27, "time": 2, "location": {"lat": 37.51902351976082, "lng": 107.81274220619775}, "feature": {"sight_features": "", "sight_content": ""}}, {"title": "金天利步行街", "address": "陕西省定边县长城南街", "image": "", "rank": 28, "time": 2, "location": {"lat": 37.586533010174435, "lng": 107.61102908103456}, "feature": {"sight_features": "", "sight_content": ""}}, {"title": "海底涧村", "address": "榆林市-定边县", "image": "", "rank": 29, "time": 2, "location": {"lat": 37.60045986534103, "lng": 107.60756957446472}, "feature": {"sight_features": "", "sight_content": ""}}]}