{"cityName": "定州", "days": 2, "cityImage": "", "spots": [{"title": "定州贡院", "address": "保定市定州市中山东路草场胡同22号", "image": "", "rank": 1, "time": 1.0, "location": {"lat": 38.512918243399916, "lng": 115.03271829787754}, "feature": {"sight_features": "", "sight_content": ""}}, {"title": "开元寺塔", "address": "保定市定州市仓门口街", "image": "", "rank": 2, "time": 0.3, "location": {"lat": 38.51681838738497, "lng": 115.00926660872533}, "feature": {"sight_features": "", "sight_content": ""}}, {"title": "定州文庙", "address": "保定市定州市刀枪街1号", "image": "", "rank": 3, "time": 1.0, "location": {"lat": 38.52100100764589, "lng": 115.00745451720651}, "feature": {"sight_features": "", "sight_content": ""}}, {"title": "定州黄家营葡萄酒庄", "address": "定州市东亭镇黄家营生态园区黄家葡萄酒庄", "image": "", "rank": 4, "time": 2, "location": {"lat": 38.50226674012806, "lng": 115.16793624141128}, "feature": {"sight_features": "", "sight_content": ""}}, {"title": "天潮水上乐园", "address": "保定市定州市李亲顾镇汽车站北行1000米", "image": "", "rank": 5, "time": 2, "location": {"lat": 38.32164204980523, "lng": 115.10660877063484}, "feature": {"sight_features": "", "sight_content": "天潮乐园成立于2015年10月，位于定州市李亲故镇。投资1.8亿元，是定州一家集娱乐、餐饮、休闲于一体的大型水上游乐园。项目落成后将辐射周边县市多数消费人群。天潮水上乐园一期于2016年2月建设，同年7月投入运营。二期音乐广场、露天温泉、植物园将于2016年9月兴建，2017年7月投入运营。届时用地约10670万平方米的大型综合性游乐园落成，满足日接待12000人次同时游园不是梦想。\n天潮水上乐园引进美国、加拿大、瑞典生产的先机娱乐设备，邀请专业工程师安装测试，务必保障设备安全可靠。并斥巨资安装水源净化系统，保证游乐园娱乐用水达到国家饮用水标准。保证您与家人“安全外出，放心娱乐”。于此同时天潮乐园所有员工均经过严格培训，所有娱乐项目均设有安全员，保障您得到人身安全。“安全、责任、真诚、快乐”是我们天潮人不变的追求。\n天潮乐园主要娱乐设施有高速滑道、雪山滑道、登高滑道、组合滑道、海啸池、跳水池、休闲池、按摩池、冲浪池、漂流河、游泳池、露天温泉、儿童翻斗乐园、儿童戏水池及贵宾按摩池项目，另设有音乐广场、植物园、停车场等配套设施。天潮乐园针对目前在定州范围内的众多的娱乐场所多为规模小、区域分散、项目单一的现状。整合优势资源，实现规模化、综合化、集中化打造定州品牌游乐场。随着天潮水上乐园多样化的发展必将促进了本地区人员的生活向富裕迈入一大步，引导了本地区各个服务行业飞速发展。"}}, {"title": "东胜生态园滑雪场", "address": "保定市定州东亭村定安公路路南东胜生态园", "image": "", "rank": 6, "time": 2, "location": {"lat": 38.48810835710975, "lng": 115.12486133968187}, "feature": {"sight_features": "", "sight_content": ""}}, {"title": "东胜康佳温泉", "address": "保定市定州市东亭镇东亭村", "image": "", "rank": 7, "time": 2, "location": {"lat": 38.48269019217999, "lng": 115.1448460016505}, "feature": {"sight_features": "", "sight_content": ""}}, {"title": "中山百姓园温泉", "address": "定州市西城乡东湖村", "image": "", "rank": 8, "time": 2.5, "location": {"lat": 38.348251146587955, "lng": 115.16496742793812}, "feature": {"sight_features": "", "sight_content": ""}}, {"title": "定州博物馆", "address": "河北省定州市刀枪街", "image": "", "rank": 9, "time": 2.5, "location": {"lat": 38.52300012844213, "lng": 115.00670194649435}, "feature": {"sight_features": "", "sight_content": ""}}, {"title": "定州塔", "address": "河北省定州市仓门口街", "image": "", "rank": 10, "time": 2, "location": {"lat": 38.51681838738497, "lng": 115.00926660872533}, "feature": {"sight_features": "", "sight_content": ""}}, {"title": "中山汉墓", "address": "定州", "image": "", "rank": 11, "time": 2, "location": {"lat": 38.522198840134, "lng": 114.99649620776492}, "feature": {"sight_features": "", "sight_content": ""}}, {"title": "北疃烈士陵园", "address": "西城乡北疃烈士陵园", "image": "", "rank": 12, "time": null, "location": {"lat": 38.355533755262925, "lng": 115.1331283644427}, "feature": {"sight_features": "", "sight_content": ""}}, {"title": "定州南城门", "address": "河北省定州市定州市境内", "image": "", "rank": 13, "time": 2, "location": {"lat": 38.522198840134, "lng": 114.99649620776492}, "feature": {"sight_features": "", "sight_content": ""}}, {"title": "定州八景", "address": "河北省保定市定州市", "image": "", "rank": 14, "time": 2, "location": {"lat": 38.522198840134, "lng": 114.99649620776492}, "feature": {"sight_features": "", "sight_content": ""}}, {"title": "定州古城", "address": "古城定州位于保定西南50公里处", "image": "", "rank": 15, "time": 1.5, "location": {"lat": 26.883161684001312, "lng": 100.2324803392115}, "feature": {"sight_features": "", "sight_content": ""}}, {"title": "雪浪寒斋", "address": "河北省保定市定州市", "image": "", "rank": 16, "time": null, "location": {"lat": 38.522198840134, "lng": 114.99649620776492}, "feature": {"sight_features": "", "sight_content": ""}}, {"title": "定州碑林", "address": "河北省定州市定州市区中心", "image": "", "rank": 17, "time": 1.5, "location": {"lat": 38.522198840134, "lng": 114.99649620776492}, "feature": {"sight_features": "", "sight_content": ""}}, {"title": "平山胜迹", "address": "河北省保定市定州市（城北高头村东北）", "image": "", "rank": 18, "time": 3.5, "location": {"lat": 38.52624016963304, "lng": 115.05149047108577}, "feature": {"sight_features": "", "sight_content": ""}}, {"title": "众春园庶", "address": "河北省保定市定州市", "image": "", "rank": 19, "time": 2, "location": {"lat": 38.522198840134, "lng": 114.99649620776492}, "feature": {"sight_features": "", "sight_content": ""}}, {"title": "张寒晖文化广场", "address": "中山中路(近定州市政府)", "image": "", "rank": 20, "time": 2, "location": {"lat": 38.52225433376778, "lng": 114.99674782223997}, "feature": {"sight_features": "", "sight_content": ""}}, {"title": "定州市规划展览馆", "address": "中兴西路174号", "image": "", "rank": 21, "time": 2, "location": {"lat": 38.51751076335699, "lng": 114.98157274815821}, "feature": {"sight_features": "", "sight_content": ""}}, {"title": "绿柳庄园", "address": "王京村火车站斜对面107国道路东(王庄道口)", "image": "", "rank": 22, "time": 2, "location": {"lat": 34.86065436405871, "lng": 113.78309935032664}, "feature": {"sight_features": "", "sight_content": ""}}, {"title": "定州市图书馆", "address": "清风北路", "image": "", "rank": 23, "time": 1.5, "location": {"lat": 30.844488940622426, "lng": 106.12330070532877}, "feature": {"sight_features": "", "sight_content": ""}}, {"title": "定州市东坡大剧院", "address": "国际酒店三楼", "image": "", "rank": 24, "time": 2, "location": {"lat": 41.121864037709244, "lng": 122.07172912672402}, "feature": {"sight_features": "", "sight_content": ""}}, {"title": "王京绿柳垂钓园", "address": "王京镇107国道南450米", "image": "", "rank": 25, "time": 2, "location": {"lat": 38.666369467467895, "lng": 115.02391160530192}, "feature": {"sight_features": "", "sight_content": ""}}, {"title": "龙王庙", "address": "和风街附近", "image": "", "rank": 26, "time": 2, "location": {"lat": 23.130713529383648, "lng": 113.38895891802123}, "feature": {"sight_features": "", "sight_content": ""}}, {"title": "鲁卡奇儿童成长乐园", "address": "河北省保定市定州市博陵南街55", "image": "", "rank": 27, "time": 2, "location": {"lat": 38.52211586012525, "lng": 114.97656633344934}, "feature": {"sight_features": "", "sight_content": ""}}, {"title": "七彩虹游乐园", "address": "滨河街与车站南街交叉口北100米", "image": "", "rank": 28, "time": 2, "location": {"lat": 40.59070931228019, "lng": 115.07127230644994}, "feature": {"sight_features": "", "sight_content": ""}}, {"title": "萌萌哒儿童乐园（大世界店）", "address": "保定市定州市中山中路大世界6层", "image": "", "rank": 29, "time": 2, "location": {"lat": 38.52161402857413, "lng": 114.99842731398415}, "feature": {"sight_features": "", "sight_content": ""}}, {"title": "兴国寺法物流通处", "address": "河北省定州市北城区街道自来佛北街兴国寺", "image": "", "rank": 30, "time": 2, "location": {"lat": 38.52061403538357, "lng": 115.02217048351162}, "feature": {"sight_features": "", "sight_content": ""}}, {"title": "欢乐谷儿童乐园", "address": "中山中路时代广场五楼", "image": "", "rank": 31, "time": null, "location": {"lat": 38.52246282405747, "lng": 114.9929150320019}, "feature": {"sight_features": "", "sight_content": ""}}, {"title": "齐堡庙", "address": "河北省保定市定州市", "image": "", "rank": 32, "time": null, "location": {"lat": 38.522198840134, "lng": 114.99649620776492}, "feature": {"sight_features": "", "sight_content": ""}}, {"title": "海底世界水族馆", "address": "兴定西路56号附近", "image": "", "rank": 33, "time": 1.0, "location": {"lat": 38.53325362276342, "lng": 114.99632921277062}, "feature": {"sight_features": "", "sight_content": ""}}, {"title": "福源儿童乐园", "address": "中山中路和中心北街交汇处", "image": "", "rank": 34, "time": 2, "location": {"lat": 38.52165922398977, "lng": 115.00910636359863}, "feature": {"sight_features": "", "sight_content": ""}}, {"title": "鱼跃水族馆", "address": "河北省保定市定州市药王庙街", "image": "", "rank": 35, "time": 2.5, "location": {"lat": 38.526010596982914, "lng": 114.98451237838026}, "feature": {"sight_features": "", "sight_content": ""}}, {"title": "金指数国际广场", "address": "清风南街134号附近", "image": "", "rank": 36, "time": 2, "location": {"lat": 37.75257425741342, "lng": 115.67148344765751}, "feature": {"sight_features": "", "sight_content": ""}}, {"title": "定州古城项目贡院广场", "address": "保定市定州市", "image": "", "rank": 37, "time": 2, "location": {"lat": 38.522198840134, "lng": 114.99649620776492}, "feature": {"sight_features": "", "sight_content": ""}}, {"title": "苏东坡文化广场", "address": "清风北街", "image": "", "rank": 38, "time": 2, "location": {"lat": 38.53341282864959, "lng": 115.00272402691638}, "feature": {"sight_features": "", "sight_content": ""}}, {"title": "开元寺塔广场", "address": "河北省定州市文物旅游派出所附近定州开元寺塔", "image": "", "rank": 39, "time": 2, "location": {"lat": 38.51505556326203, "lng": 115.00899993864994}, "feature": {"sight_features": "", "sight_content": ""}}, {"title": "中山博物馆", "address": "河北省保定市定州市中山中路南50米", "image": "", "rank": 40, "time": null, "location": {"lat": 38.521261156744316, "lng": 114.99842731398415}, "feature": {"sight_features": "", "sight_content": ""}}, {"title": "少林寺定州武术协会", "address": "自来佛北街38", "image": "", "rank": 41, "time": 1.0, "location": {"lat": 38.52082856970567, "lng": 115.01853083344973}, "feature": {"sight_features": "", "sight_content": ""}}, {"title": "海乐水上世界(定州)", "address": "北城区定州职教中心（二职）北行100米", "image": "", "rank": 42, "time": 2, "location": {"lat": 38.54653298919319, "lng": 115.02130399238959}, "feature": {"sight_features": "", "sight_content": ""}}, {"title": "欢乐水世界", "address": "中山绿洲售楼部西行20路南", "image": "", "rank": 43, "time": 3.5, "location": {"lat": 28.24054813030942, "lng": 112.95802549581606}, "feature": {"sight_features": "", "sight_content": ""}}, {"title": "台湾亲子互动展", "address": "中山中路大世界购物中心6楼", "image": "", "rank": 44, "time": 2, "location": {"lat": 38.523082980886, "lng": 114.99286031621328}, "feature": {"sight_features": "", "sight_content": ""}}, {"title": "通达庄园(北门)", "address": "明月街附近", "image": "", "rank": 45, "time": 2, "location": {"lat": 45.80867787765907, "lng": 126.5192623252438}, "feature": {"sight_features": "", "sight_content": ""}}, {"title": "青少年文化艺术馆", "address": "中兴西路与明月街交叉口", "image": "", "rank": 46, "time": 2, "location": {"lat": 38.51686933159328, "lng": 114.98438319575979}, "feature": {"sight_features": "", "sight_content": ""}}, {"title": "得一庄饮品庄园", "address": "北城区大道观街", "image": "", "rank": 47, "time": 2, "location": {"lat": 34.531865095177714, "lng": 112.17549180967009}, "feature": {"sight_features": "", "sight_content": ""}}, {"title": "宪昌园林", "address": "北旺经济开发区清风南街48号江海国际北行50米", "image": "", "rank": 48, "time": 2, "location": {"lat": 34.53526132038018, "lng": 118.77354676050946}, "feature": {"sight_features": "", "sight_content": ""}}, {"title": "定瓷展览馆", "address": "中心北街与刀枪街交叉口西150米定州市人大常委会附近", "image": "", "rank": 49, "time": 2, "location": {"lat": 38.521094636839486, "lng": 115.00746909939986}, "feature": {"sight_features": "", "sight_content": ""}}, {"title": "飞龙马术俱乐部王庄骑马场", "address": "清风店镇飞龙马术俱乐部王庄骑马场", "image": "", "rank": 50, "time": 2, "location": {"lat": 38.62237524463736, "lng": 115.0486622496114}, "feature": {"sight_features": "", "sight_content": ""}}, {"title": "商贸步行街中心", "address": "河北省定州市中山路商业步行街", "image": "", "rank": 51, "time": 2, "location": {"lat": 38.66222906049726, "lng": 114.96165161435523}, "feature": {"sight_features": "", "sight_content": ""}}, {"title": "中山新天地步行街", "address": "河北省定州市商业街", "image": "", "rank": 52, "time": 2.5, "location": {"lat": 38.52721014363372, "lng": 114.99484119933742}, "feature": {"sight_features": "", "sight_content": ""}}, {"title": "定州宏海商贸公司体验店", "address": "保定市-定州市", "image": "", "rank": 53, "time": 2, "location": {"lat": 38.522198840134, "lng": 114.99649620776492}, "feature": {"sight_features": "", "sight_content": ""}}, {"title": "王灏庄园", "address": "河北省定州市兴华西路南侧", "image": "", "rank": 54, "time": 2, "location": {"lat": 38.53420250812245, "lng": 114.9768951815372}, "feature": {"sight_features": "", "sight_content": ""}}, {"title": "大道观玉皇殿", "address": "河北省定州市定州市西北隅", "image": "", "rank": 55, "time": 2, "location": {"lat": 38.522198840134, "lng": 114.99649620776492}, "feature": {"sight_features": "", "sight_content": ""}}, {"title": "晏阳初旧居", "address": "河北省定州市中山东路路南", "image": "", "rank": 56, "time": 2, "location": {"lat": 38.512918243399916, "lng": 115.03271829787754}, "feature": {"sight_features": "", "sight_content": ""}}, {"title": "净众院塔基地宫", "address": "河北省定州市市政府北侧", "image": "", "rank": 57, "time": 2, "location": {"lat": 38.522198840134, "lng": 114.99649620776492}, "feature": {"sight_features": "", "sight_content": ""}}]}