{"cityName": "定南", "days": 2, "cityImage": "", "spots": [{"title": "明骏九曲度假村", "address": "赣州市定南县天九镇九曲河畔", "image": "", "rank": 1, "time": 2, "location": {"lat": 24.753100893249528, "lng": 115.14403986333144}, "feature": {"sight_features": "", "sight_content": ""}}, {"title": "虎形围", "address": "赣州市定南县历市镇车步村方屋排", "image": "", "rank": 2, "time": 2, "location": {"lat": 24.85390932937119, "lng": 115.05803187359527}, "feature": {"sight_features": "", "sight_content": ""}}, {"title": "神仙寺", "address": "赣州定南县岭北镇神仙岭", "image": "", "rank": 3, "time": 2, "location": {"lat": 24.96493403563993, "lng": 115.07269120532635}, "feature": {"sight_features": "", "sight_content": ""}}, {"title": "九曲长滩", "address": "赣州市定南县鹅公镇九曲", "image": "", "rank": 4, "time": 2, "location": {"lat": 24.81600346724679, "lng": 115.30367505221832}, "feature": {"sight_features": "", "sight_content": ""}}, {"title": "溪霞怪石岭生态公园", "address": "江西省新建县溪霞镇境内", "image": "", "rank": 5, "time": 2, "location": {"lat": 28.868179951716254, "lng": 115.84247620053412}, "feature": {"sight_features": "", "sight_content": ""}}, {"title": "定南图书馆", "address": "建设西路19号", "image": "", "rank": 6, "time": 1.5, "location": {"lat": 28.124087918455935, "lng": 120.9658715893312}, "feature": {"sight_features": "", "sight_content": ""}}, {"title": "中国旅行社(定南店)", "address": "历市镇前程大道中沙村万象广场二楼", "image": "", "rank": 7, "time": 2, "location": {"lat": 24.788870335705425, "lng": 115.01909548332931}, "feature": {"sight_features": "", "sight_content": ""}}, {"title": "农业科技园管委会", "address": "历市镇龙腾路四经路(人财险公司对面)", "image": "", "rank": 8, "time": 2, "location": {"lat": 24.78459833534768, "lng": 115.03919992983954}, "feature": {"sight_features": "", "sight_content": ""}}, {"title": "厚田沙漠生态旅游景区", "address": "江西省新建县厚田乡南部", "image": "", "rank": 9, "time": 2, "location": {"lat": 28.44938088655131, "lng": 115.8043743962731}, "feature": {"sight_features": "", "sight_content": ""}}, {"title": "嫪氏水族馆", "address": "江西省赣州市定南县滨江路", "image": "", "rank": 10, "time": 2, "location": {"lat": 24.78482219277425, "lng": 115.04042652199604}, "feature": {"sight_features": "", "sight_content": ""}}, {"title": "瑞思贝克教育外教课堂", "address": "江西省赣州市定南县历市镇南兴路15号", "image": "", "rank": 11, "time": 2, "location": {"lat": 24.777093838946094, "lng": 115.03867840599962}, "feature": {"sight_features": "", "sight_content": ""}}, {"title": "萱乐儿儿童乐园", "address": "江西省赣州市定南县龙亭路81号", "image": "", "rank": 12, "time": 2, "location": {"lat": 24.786291100752553, "lng": 115.03539560600603}, "feature": {"sight_features": "", "sight_content": ""}}, {"title": "天九山庄", "address": "赣州231省道附近", "image": "", "rank": 13, "time": 2, "location": {"lat": 25.09055973620931, "lng": 115.40436058054163}, "feature": {"sight_features": "", "sight_content": ""}}, {"title": "定南华韵体育中心水上乐园", "address": "江西省赣州市定南县工业一路", "image": "", "rank": 14, "time": 2, "location": {"lat": 24.779326336903743, "lng": 115.06992916471472}, "feature": {"sight_features": "", "sight_content": ""}}, {"title": "祥福艺术馆", "address": "环城南路272号", "image": "", "rank": 15, "time": 2, "location": {"lat": 30.912458720154635, "lng": 121.47693596428456}, "feature": {"sight_features": "", "sight_content": ""}}, {"title": "定南县九龙商业街", "address": "江西省定南县工业大道", "image": "", "rank": 16, "time": 2, "location": {"lat": 24.77766855071061, "lng": 115.06366109608864}, "feature": {"sight_features": "", "sight_content": ""}}]}