{"cityName": "迪庆", "days": "4", "cityImage": "", "spots": [{"title": "普达措国家公园", "address": "迪庆藏族自治州香格里拉市建塘镇普达措国家公园", "image": "", "rank": 1, "time": 5.0, "location": {"lat": 27.910182074771615, "lng": 99.91462681290456}, "feature": {"sight_features": "特色1 园内风景优美，空气纯净。 特色2 沿着湖畔漫步，感觉轻松惬意。", "sight_content": "香格里拉普达措国家公园内有明镜般的高山湖泊、水美草丰的牧场、百花盛开的湿地、飞禽走兽时常出没的原始森林。碧塔海、属都湖两个美丽的淡水湖泊素有高原明珠之称，湖中盛产裂腹鱼、重唇鱼；秋冬季节大量的黄鸭等飞禽在湖边嬉戏，天然成趣。漫步在林间的牧场上，马儿叮咚的脖铃声、远处牧棚里悠悠冒起的炊烟，显得与周围的自然环境是那么和谐。每年夏季，满山的杜鹃花与许多不知名的野花竞相开放，小鸟们也纷纷前来凑热闹，景区鸟语花香，令人沉醉。原始森林里的各种林木千姿百态，气象万千。\n普达措国家公园景区雨量充沛、气候宜人。有时云雾飘渺，时隐时现，宛如仙境，有时则云海茫茫，有如腾云驾雾一般，情趣盎然。这样的自然条件，使得植物生长茂盛，植被丰富，俨然就是一个天然的植物园。此外，还有多处断层崖、林间小涧、深沟峡谷等独特小景交错分布，具有极高的地理科学价值与旅游观赏值"}}, {"title": "虎跳峡（香格里拉段）", "address": "迪庆州香格里拉县虎跳峡镇", "image": "", "rank": 2, "time": 7.5, "location": {"lat": 27.192684248840052, "lng": 100.05624444474297}, "feature": {"sight_features": "特色1 峡内礁石林立，有险滩21处，景色壮丽。 特色2 徒步神山，体验绝岭雄风。 特色3 壮观奇峡，约3900米下的水石咆哮。", "sight_content": "虎跳峡，以“险”而闻名天下。这里首先是山险。峡谷两岸，高山耸峙。东有玉龙山，终年披云戴雪，银峰插天，主峰海拔高达5596米，山腰怪石镲峨，古藤盘结，山脚壁立，直插江底，虎啸猿啼，狼豹出没；西有哈巴雪山，峥嵘突冗，山腰间有台地，山脚为陡峻悬崖。西岸山峰，高出江面3000米以上。国内三峡，世称壮观，它的江面与峰顶高差，仅1500米；美国的地狱峡谷，世界著名，最大高差，也仅2400米，它的深邃，可以想见！虎跳峡不仅深，而且窄，许多地方，双峰欲合，如门半开；身入谷中，看天一条缝，看江一条龙；头顶绝壁，脚临激流，令人心惊胆战。\n\n其次是水险，由于山岩的断层塌陷，造成无数石梁跌坎，加之两岸山坡陡峻，岩石壁立，山石风化，巨石常·崩塌谷底，形成江中礁石林立，犬牙交错，险滩密布，飞瀑荟萃。从上虎跳峡至下峡口，落差达210米，平均每公里14米，江流特急，不少段落，每秒达六至八米。因而江水态势，瞬息万变，或狂驰怒号，石乱水激，雪浪翻飞，或旋涡漫卷，飞瀑轰鸣，雾气空蒙。构成世上罕见的山水奇观。"}}, {"title": "松赞林寺", "address": "迪庆藏族自治州香格里拉市建塘镇尼旺路3号", "image": "", "rank": 3, "time": 0.75, "location": {"lat": 27.850926733743666, "lng": 99.70922294751973}, "feature": {"sight_features": "", "sight_content": ""}}, {"title": "香格里拉巴拉格宗风景名胜区", "address": "迪庆藏族自治州香格里拉市尼西乡巴拉社", "image": "", "rank": 4, "time": 7.5, "location": {"lat": 28.347639958140483, "lng": 99.46843747541492}, "feature": {"sight_features": "特色1 香格里拉的小江南。 特色2 走近神秘绝美的峡谷画廊,揭秘康巴部落的千年传奇,对话群峰之巅的灵性雪山,触摸千年菩提的佛性之手。 特色3 拥有非常壮阔的自然风光，可以在风光秀美的谷中漂流，也可以拜访原始的藏族古村。", "sight_content": "??‍‍行程线路：‍‍??\n峡谷画廊生态观光游--巴拉村文化体验--观赏神奇佛手--菩提树，游览以上景点大概需要4小时。\n备注：以上行程安排仅供参考，具体详细行程请以当天安排为准。\n景区总体概述：\n巴拉格宗大峡谷又名香格里拉大峡谷，位于香格里拉市区的西北侧，拥有非常壮阔的自然风光。据说《消失的地平线》里描述的蓝月亮峡谷就是这里，在当地人中也一直传说这里就是神仙居住的地方，真正的香巴拉。                                                                                                    香格里拉的巴格拉宗大峡谷风光瑰丽，岗曲河被新造山运动挤压在海拔仅一千多米的谷底，而两岸对峙的则是高达四五千米的壮丽峰峦，峡谷尽头海拔5545米的巴拉格宗雪山是康巴地区的三大神山之一。\n??特色景点：    ??\n巴拉村【世隔绝的世外桃源】\n巴拉为藏语译音，意为自巴塘而来的藏族村。相传，很久以前，格萨尔王手下一位大将厌倦了常年不断的战争生活。一日，梦见三位神女把他带到一个神山林立的仙境般的峡谷，那里没有战争，没有烦恼。于是，大将带领家人和手下走了九九八十一天，为寻找梦中乐土跑遍了康巴地区的山山水水。于是，他们在此定居了下来。由于大将一家是巴塘人，所以把这里起名为巴拉村，村后面的雪山便被人们称为巴拉格宗雪山。千百年来，他们日出而作，日落而息，世世代代过着与世隔绝的“世外桃源”般生活。\n大峡谷【上天无路，入地无门】\n香格里拉大峡谷国家公园由尼西巴拉格宗峡谷与格咱碧融峡谷两段景区构成。过去，游人们到此便要止步，因为江两岸是悬崖绝壁，再无顺河进入大峡谷之路，连巴拉村民也难以到达的谷中，望尘莫及的人们只能遐思冥想。在这“上天无路，入地无门”的两千多米长的峡谷绝壁上，蜿蜒穿行在香格里拉大峡谷中的悬崖栈道似一条飞腾在江面上的巨龙，朝着东面格咱碧融峡谷方向延伸。它的一草一木、山石水土都是大自然原汁原味的杰作，走在水平的栈道上，仿佛进入龙宫神界，又仿佛进入梦幻世界。；望脚下，江水奔流，绿波拍岸，在栈道上行走的你与水声相伴，宛如仙翁侠客穿越在深峡中的水面上，又似飞龙乘云、腾蛇游雾。正如孙髯翁诗言：“一线中分天作堑，两山峡斗石为门”。\n菩提树：这是一棵有着千年树龄的菩提树。它穿越千年时光，在巴拉格宗这片神奇的土地上，傍倚峭壁，栉风沐雨一千多年而依旧郁郁葱葱，生机勃勃，仿佛在与历史对话。据《金光明最胜王经》所载，菩提树有守护神，谓之菩提神树。上师说凤凰乃是此树的守护神。凤凰是人世间幸福的使者，每五百年，它就要背负着积累于人世间的所有不快和仇恨恩怨，投身于熊熊烈火中自焚，以生命和美丽的终结换取人世的祥和和幸福。因此此树又名“凤凰菩提”。\n格宗雪山：格宗雪山，位于云南迪庆藏族自治州香格里拉县和四川省甘孜藏族自治州得荣县交界，海拔5306米，是云南省第11高峰、香格里拉县第一高峰，目前无攀登记录。格宗雪山大致成东南西北走向，山脊呈排牙状，西南侧三条横向小山梁分别链接巴拉格宗雪山的格宗奔松峰。格宗奔松呈金字塔状，西南向的山体受气候影响，风蚀、雪蚀严重，积雪较少，山槽多为碎石；东北侧山体4500米以上可见积雪，向上多为雪岩或冰岩混合，4600米处有一鞍部，较为平缓。雪山主峰为锥体，坡度较大，攀爬难度较高。万壑绝壁，绿草葱茏，繁花如织，疑为仙人遗田。\n天然佛塔：天然佛塔位于巴拉格宗神山东北方，是景区的主要景观之一，天然而成的金字塔形山峰身披白雪巍峨耸立在天空下，形似藏族宗教中用来装藏舍利和经卷等物的建筑物——佛塔。因此被人们称作“天然佛塔”。在佛塔的前方，两座大山形似端坐诵经的喇嘛和展开的经书。此天然佛塔、经书、老喇嘛三座高山被人们形象的誉为“佛、法、僧、”三宝。\n峡谷漂流：低于香格里拉整体海拔的小江南，造就了不同的美景。\n情人谷酒店：这里有云南最好的峡谷酒店之一，位于香格里拉.巴拉格宗景区情人谷。\n佛塔：凡是对佛塔献哈达、供果、祈祷、磕长头者，佛便能给其禳祛灾难免除罪恶，使他一生幸福。所以，每天来此朝拜的信徒络绎不绝。\n‍‍‍‍????"}}, {"title": "独克宗古城", "address": "迪庆州香格里拉市康珠大道", "image": "", "rank": 5, "time": 2.5, "location": {"lat": 27.82352944640421, "lng": 99.72300996261785}, "feature": {"sight_features": "特色1 在独克宗古城的石板街上，重温茶马古道的沧桑。 特色2 古城布局犹如八瓣莲花，中心是月光广场，转起巨大的转经筒，在诵经声中感受藏人的虔诚。", "sight_content": "景区总体概述：﻿\n独克宗古城位于迪庆藏族自治州香格里拉县东南隅。“独克宗”是藏语发音，意为“月光城”和“建在石头上的城堡”，为唐代吐蕃王朝所建。古城依山而建，路面就地势铺筑石板，自然起伏。至今，石板路上甚至还能看出马蹄的印迹，这是岁月久远的马帮留下的信物。\n景区各区域介绍：\n独克宗古城的石板街就仿佛是一首从一千多年前唱过来的悠长谣曲，接着又要往无限岁月中唱过去。滇藏茶马古道的线路从云南普洱经大理、丽江、中甸（今香格里拉）、德钦、察隅、左贡、拉萨、亚东、日喀则、柏林山口，分别到缅甸，印度。沿途经过金沙江、澜沧江‘怒江、拉萨河、雅鲁藏布江，还要翻越5座5000米以上的雪山。马帮的一个来回，往往要一年的时间。对于穿越茶马古道的马帮来说，独克宗古城，是茶马古道上的重镇，这算是相当舒服的一段路。                                                                2001年，独克宗古城被批准为云南省历史文化名城。如今，在古城里游走，你会发现多了些时尚的色彩和活力。10多家个性突出的酒吧、客栈悄然进入了。 在榛子酒吧，高原阳光透过玻璃窗，心情马上如天气般明朗。藏族的房子由于主要靠火炉取暖，窗子开得很小。榛子酒吧的格子窗一个挨一个的，在古城显得有点特别。榛子夫妇是西安人，前年旅游到古城，迷上了，就不大想走了。在这里，人和狗都那么懒散，一起晒着太阳，感受时间流淌的痕迹，感觉非常满足。\n景区历史介绍：\n后来的古城就是环绕山顶上的寨堡建成的。与此呼应的是在奶子河边的一座山顶上建立的“尼旺宗”，为“日光城”，其寨堡已经没有了，原址上是一座白塔。"}}, {"title": "香格里拉", "address": "迪庆藏族自治州香格里拉市", "image": "", "rank": 6, "time": 1.0, "location": {"lat": 27.835760125320558, "lng": 99.70744457389884}, "feature": {"sight_features": "", "sight_content": "香格里拉地处青藏高原南缘，横断山脉腹地，是云南、四川、西藏三省区交汇处。这里有雪山、寺庙、河流，还有漫山遍野的牛羊，安居乐业的藏民。想要欣赏到香格里拉的美景，可以徒步穿越虎跳峡，或是在普达措国家公园里漫步。"}}, {"title": "梅里雪山", "address": "迪庆藏族自治州徳钦县梅里雪山景区", "image": "", "rank": 7, "time": 7.5, "location": {"lat": 28.45987985163101, "lng": 98.84613717888874}, "feature": {"sight_features": "特色1 感受冰川的奇美，享受无与伦比的美景。 特色2 藏区八大神山之首，其“日照金山”是很多游人梦寐以求的胜景。 徒步雨崩，观赏更瑰丽的风光、体验朝圣者转山的感受。 特色3 雪峰直指蓝天碧水深切峡谷。景区冰斗、冰川连绵海洋性现代冰川。", "sight_content": "梅里雪山属于横断山脉，位于云南迪庆藏族自治州德钦县和西藏的察隅县交界处，距离昆明849公里。梅里雪山属于怒山山脉中段，处于世界闻名的金沙江、澜沧江、怒江“三江并流”地区。梅里雪山北与西藏阿冬格尼山，南与碧罗雪山相连接，相传共有山峰有13座，称为太子十三峰。梅里雪山主峰卡瓦格博，位於东经98.6°，北纬28.4°，海拔6740米，是云南海拔最高的山峰。 在藏文经卷中，梅里雪山的13座高峰，均被奉为“修行于太子宫殿的神仙”，特别是主峰卡瓦格博，被一些人尊奉为“藏地八大神山之首”。\n梅里雪山以其巍峨壮丽、神秘莫测而闻名于世，早在30年代美国学者就称赞卡瓦格博峰是“世界最美之山”。卡瓦格博峰下，冰斗、冰川连绵，犹如玉龙伸延，冰雪耀眼夺目，是世界稀有的海洋性现代冰川。山下的取登贡寺、衮玛顶寺是藏民朝拜神山的寺宇。每年云南、西藏、四川、青海、甘肃的藏民都要前来朝拜，有浓郁的藏族习俗，是人们登临探险的旅游圣地。\n雪融化后从卡格博峰留下来，有人在笑农大本营放马，这是一个风景极美的地方。现在的笑农大本营已经是梅里雪山 雨崩六日游的一个重要旅游景点，喜欢徒步和探险的驴友们都到会大本营，站在雪山脚下，享受大自然的美景，怀念登山英雄，感悟人生。\n雪山观景有几个地方比较理想，一是214国道下了白茫雪山，可以看到了梅里雪山全景，但公路狭窄，不宜久留。二是雾农顶观景台，从中甸方向进入德钦的214国道上，离德钦县城约15km，建有13座白塔，地势开阔，颇为壮观。三是飞来寺烧香台，飞来寺村位于德钦往西藏的214国道上，离德钦县城约11km，当地藏民及过往行人均在此烧香祈褔，此乃观日出日落之佳境。现在飞来寺烧香台已经成为了一个功能齐全的旅游地，餐饮食宿酒吧都有，绝大部分游客都住在这里，观日出日落，去雨崩和明永也最为方便"}}, {"title": "飞来寺", "address": "迪庆藏族自治州德钦县云岭乡西当村梅里雪山景区飞来寺景区内", "image": "", "rank": 8, "time": 2.0, "location": {"lat": 28.44433324880668, "lng": 98.88377352974314}, "feature": {"sight_features": "", "sight_content": ""}}, {"title": "依拉草原", "address": "迪庆藏族自治州香格里拉市214国道西100米", "image": "", "rank": 9, "time": 1.5, "location": {"lat": 27.127576226813648, "lng": 100.06025567977606}, "feature": {"sight_features": "", "sight_content": ""}}, {"title": "白马雪山", "address": "云南省迪庆藏族自治州德钦县214国道白马雪山自然保护区", "image": "", "rank": 10, "time": 2.5, "location": {"lat": 28.262794424349142, "lng": 99.26209497509457}, "feature": {"sight_features": "", "sight_content": ""}}, {"title": "雨崩村", "address": "迪庆藏族自治州德钦县雨崩村", "image": "", "rank": 11, "time": 7.5, "location": {"lat": 28.399768005370934, "lng": 98.80186898789722}, "feature": {"sight_features": "特色1 梅里雪山脚下古朴原始的藏族村寨，拍摄神女峰的绝佳地点之一。 梅里转山的必经之地，也是徒步爱好者的天堂。 在神瀑沐浴圣水，在冰湖触摸千年冰雪，感觉非常神圣。", "sight_content": "雨崩是梅里雪山神女峰脚下的一个藏族村寨，分上下两村，相距约一公里。因身处大山深处，远离集镇，交通不便，民风淳朴，被誉为真正香格里拉的缩影。下雨崩旁边山上的神瀑，历来是藏传佛教徒朝觐的圣地，雨崩，也是梅里雪山转经的必经之地。"}}, {"title": "明永冰川", "address": "迪庆藏族自治州德钦县明永冰川景区", "image": "", "rank": 12, "time": 5.5, "location": {"lat": 28.469539790910652, "lng": 98.82373602749547}, "feature": {"sight_features": "", "sight_content": ""}}, {"title": "纳帕海", "address": "迪庆藏族自治州香格里拉市214国道", "image": "", "rank": 13, "time": 4.0, "location": {"lat": 27.127576226813648, "lng": 100.06115398528574}, "feature": {"sight_features": "", "sight_content": ""}}, {"title": "卡瓦格博峰", "address": "德钦县德钦县明永村梅里雪山的主峰", "image": "", "rank": 14, "time": 3.0, "location": {"lat": 28.44145789610988, "lng": 98.6916964416116}, "feature": {"sight_features": "", "sight_content": ""}}, {"title": "碧塔海", "address": "迪庆藏族自治州香格里拉县东25公里普达措国家公园内", "image": "", "rank": 15, "time": null, "location": {"lat": 27.881545269313058, "lng": 99.98791221938514}, "feature": {"sight_features": "特色1 湖畔长满栎树，五六月满山杜鹃花开特别壮观，还可以看到“杜鹃醉鱼”的奇观。", "sight_content": "碧塔海距离香格里拉县城32公里，海拔约3600米，是云南省海拔最高的湖泊。碧塔海是藏语，意为：栎树成毡的海子。"}}, {"title": "属都湖", "address": "迪庆藏族自治州香格里拉县东北35公里普达措国家公园内", "image": "", "rank": 16, "time": 1.5, "location": {"lat": 27.881545269313058, "lng": 99.98791221938514}, "feature": {"sight_features": "特色1 属都湖四面环山，原始森林被保护得很好，湖水清澈得能看到湖中金色的“属都裂腹鱼”。", "sight_content": "属都湖位于香格里拉县东北35公里处，四面环山，景色秀丽。湖中盛产“属都湖裂腹鱼“。鱼身呈金黄色，腹部有一条明显的裂纹，肉质鲜美细腻，为不可多得的美味。湖边林木茂盛，栖息着麋鹿、熊、云豹、藏马鸡等珍禽异兽。"}}, {"title": "东竹林寺", "address": "迪庆藏族自治州德钦县噶丹东竹林寺(214国道东)", "image": "", "rank": 17, "time": 1.5, "location": {"lat": 28.268326781826804, "lng": 99.2393189446426}, "feature": {"sight_features": "", "sight_content": ""}}, {"title": "扎雅土司庄园", "address": "迪庆藏族自治州香格里拉市建塘镇康珠大道157号", "image": "", "rank": 18, "time": 1.5, "location": {"lat": 27.835491964862648, "lng": 99.72316738796349}, "feature": {"sight_features": "", "sight_content": ""}}, {"title": "石卡雪山", "address": "迪庆藏族自治州香格里拉市建塘镇石卡路", "image": "", "rank": 19, "time": 3.0, "location": {"lat": 27.81530538173744, "lng": 99.69974981466568}, "feature": {"sight_features": "特色1 春季的石卡雪山，万亩杜鹃花盛开，漫山遍野的杜鹃花争奇斗艳，令人心醉。", "sight_content": "‍‍景点介绍：\n石卡雪山景区位于香格里拉县城西南，距离县城约7公里，与纳帕海相邻。在当地藏语中，石卡雪山意为“有马鹿的山”，虽称为雪山，其实仅在每年11月至来年4、5月间有积雪，其余时间则是山岩裸露，不过山间低矮处则草甸茂密、杜鹃花盛开，徜徉其间，非常惬意。\n‍‍"}}, {"title": "哈巴雪山", "address": "迪庆藏族自治州香格里拉市哈巴雪山", "image": "", "rank": 20, "time": 6.0, "location": {"lat": 27.350787163533184, "lng": 100.10951107161826}, "feature": {"sight_features": "特色1 玉龙雪山的“兄弟”，适合攀登的入门级雪山，山顶终年冰雪覆盖，周围环绕着大片冰川。", "sight_content": "哈巴为纳西语，意思是：金子的花朵。传说中，哈巴和玉龙是兄弟俩，和他们的妹妹金沙江，一起共同守护着山下的人民。"}}, {"title": "上虎跳", "address": "迪庆藏族自治州玉龙纳西族自治县（原丽江纳西族自治县）龙蟠乡东北，香格里拉县东环线", "image": "", "rank": 21, "time": 2.5, "location": {"lat": 27.175886524316788, "lng": 100.08457289975368}, "feature": {"sight_features": "", "sight_content": ""}}, {"title": "茨中天主教堂", "address": "迪庆藏族自治州德钦县境南部距升平镇80公里的茨中村", "image": "", "rank": 22, "time": 1.5, "location": {"lat": 28.487585807404937, "lng": 98.92234129315676}, "feature": {"sight_features": "", "sight_content": ""}}, {"title": "龟山公园", "address": "迪庆藏族自治州香格里拉县独克宗古城后面", "image": "", "rank": 23, "time": 2.0, "location": {"lat": 27.817349824002143, "lng": 99.71269795434999}, "feature": {"sight_features": "", "sight_content": ""}}, {"title": "《梦幻香格里拉》演出", "address": "迪庆州香格里拉县体育馆（文明街）", "image": "", "rank": 24, "time": 2, "location": {"lat": 27.82470829489985, "lng": 99.70822535320039}, "feature": {"sight_features": "", "sight_content": ""}}, {"title": "白水台", "address": "迪庆藏族自治州香格里拉市三坝乡白地村", "image": "", "rank": 25, "time": 1.5, "location": {"lat": 27.49577798005695, "lng": 100.06541211689324}, "feature": {"sight_features": "", "sight_content": ""}}, {"title": "奔子栏", "address": "迪庆藏族自治州德钦县东南部", "image": "", "rank": 26, "time": 1.5, "location": {"lat": 28.470086006822044, "lng": 98.92445265605383}, "feature": {"sight_features": "特色1 金沙江边的藏族小镇，茶马古道的重要驿站（免费参观无需证件）", "sight_content": "奔子栏是金沙江边的一个藏族小镇，藏语意为：美丽的沙洲。是茶马古道上的重要驿站。"}}, {"title": "塔城滇金丝猴国家公园", "address": "维西傈僳族自治县塔城镇境内", "image": "", "rank": 27, "time": 3.5, "location": {"lat": 27.498627440405755, "lng": 99.34406526841227}, "feature": {"sight_features": "特色1 景区内可以看到平日难得一见的国宝级珍稀动物滇金丝猴。", "sight_content": "香格里拉滇金丝猴国家公园区内有千年银杏树王、寺院及人工驯化的滇金丝猴等野生动物，风光秀丽奇特。滇金丝猴是国家一级保护动物，它们有着和人酷似的脸庞，白里透红，还有着厚厚的红唇，堪称世间最美的动物之一。 而香格里拉滇金丝猴国家公园的建立就是为了保护这一珍惜物种。除了建立公园外，近年来，当地政府组织专门的护林员对滇金丝猴的栖息环境和种群的分布进行定期的监控，向公园范围内村民宣传保护滇金丝猴和其他野生动物的重要性。经过多年努力，保护工作已经取得明显成效，滇金丝猴不仅已经和人类“友好相处”，猴群也不断“添丁增口”，目前几处主要栖息地的滇金丝猴总数量已达800只左右。除了猴群数量稳步提升外，当地生态建设也日趋改善。这种生态立县的思路已经成为了迪庆州维西县的一个重要发展方向。"}}, {"title": "香格里拉印经院", "address": "迪庆藏族自治州香格里拉市普达措国家公园18公里处(霞给村)香格里拉第一村印经院文化旅游景区内", "image": "", "rank": 28, "time": 1.5, "location": {"lat": 27.79786205102073, "lng": 99.8819923115688}, "feature": {"sight_features": "", "sight_content": ""}}, {"title": "中虎跳", "address": "迪庆藏族自治州玉龙纳西族自治县（原丽江纳西族自治县）龙蟠乡东北，香格里拉县东环线", "image": "", "rank": 29, "time": 3.5, "location": {"lat": 27.175886524316788, "lng": 100.08457289975368}, "feature": {"sight_features": "", "sight_content": ""}}, {"title": "月光广场", "address": "庆藏族自治州香格里拉县独克宗古城金龙街", "image": "", "rank": 30, "time": 1.5, "location": {"lat": 27.907357820428466, "lng": 99.83159925643882}, "feature": {"sight_features": "", "sight_content": ""}}, {"title": "下虎跳", "address": "迪庆藏族自治州玉龙纳西族自治县（原丽江纳西族自治县）龙蟠乡东北，香格里拉县东环线", "image": "", "rank": 31, "time": 3.5, "location": {"lat": 27.175886524316788, "lng": 100.08457289975368}, "feature": {"sight_features": "", "sight_content": ""}}, {"title": "冰湖", "address": "迪庆藏族自治州德钦县云岭乡境内梅里雪山将军峰脚下", "image": "", "rank": 32, "time": 3.5, "location": {"lat": 28.44145789610988, "lng": 98.6916964416116}, "feature": {"sight_features": "", "sight_content": ""}}, {"title": "德钦县", "address": "迪庆藏族自治州西北部", "image": "", "rank": 33, "time": 3.0, "location": {"lat": 27.82518468364326, "lng": 99.70952999013957}, "feature": {"sight_features": "", "sight_content": ""}}, {"title": "神瀑", "address": "云南省迪庆州德钦县雨崩村下村9公里处(近梅里雪山)", "image": "", "rank": 34, "time": 1.0, "location": {"lat": 27.75590535472987, "lng": 99.05454650591561}, "feature": {"sight_features": "", "sight_content": ""}}, {"title": "上雨崩", "address": "迪庆藏族自治州德钦县雨崩村", "image": "", "rank": 35, "time": 2, "location": {"lat": 28.399768005370934, "lng": 98.80186898789722}, "feature": {"sight_features": "", "sight_content": ""}}, {"title": "金沙江大拐弯", "address": "云南省迪庆藏族自治州德钦县奔子栏镇金沙江大拐弯", "image": "", "rank": 36, "time": 1.0, "location": {"lat": 28.222041892099988, "lng": 99.34022785639361}, "feature": {"sight_features": "", "sight_content": ""}}, {"title": "下雨崩", "address": "云南省迪庆藏族自治州德钦县 北 10 公里", "image": "", "rank": 37, "time": 7.5, "location": {"lat": 28.54943870360063, "lng": 98.92445265605383}, "feature": {"sight_features": "", "sight_content": ""}}, {"title": "弥里塘", "address": "迪庆藏族自治州香格里拉县东22公里处普达措国家公园内", "image": "", "rank": 38, "time": 0.3, "location": {"lat": 27.881545269313058, "lng": 99.98791221938514}, "feature": {"sight_features": "", "sight_content": ""}}, {"title": "天生桥", "address": "迪庆藏族自治州香格里拉市建塘镇四村", "image": "", "rank": 39, "time": 0.3, "location": {"lat": 27.823170749437303, "lng": 99.71181179932064}, "feature": {"sight_features": "", "sight_content": ""}}, {"title": "藏民家访", "address": "迪庆藏族自治州香格里拉县汪池路亚翔藏家", "image": "", "rank": 40, "time": 2, "location": {"lat": 27.81921826281136, "lng": 99.69849628322525}, "feature": {"sight_features": "", "sight_content": ""}}, {"title": "小中甸花海", "address": "迪庆藏族自治州香格里拉市小中甸镇214国道", "image": "", "rank": 41, "time": 1.0, "location": {"lat": 27.498342233157167, "lng": 99.87138056839645}, "feature": {"sight_features": "", "sight_content": ""}}, {"title": "笑农大本营", "address": "云南省迪庆藏族自治州德钦县雨崩村(近上雨崩)", "image": "", "rank": 42, "time": 1.0, "location": {"lat": 28.39956479298522, "lng": 98.80151606432351}, "feature": {"sight_features": "", "sight_content": ""}}, {"title": "拉姆央措湖", "address": "迪庆藏族自治州香格里拉市噶丹松赞林寺门口", "image": "", "rank": 43, "time": 1.5, "location": {"lat": 27.863524511906125, "lng": 99.71134641149034}, "feature": {"sight_features": "", "sight_content": ""}}, {"title": "缅茨姆峰", "address": "云南省迪庆州德钦县梅里雪山(卡瓦格博峰南侧)", "image": "", "rank": 44, "time": 2.5, "location": {"lat": 28.470125301324472, "lng": 98.82470041056183}, "feature": {"sight_features": "", "sight_content": ""}}, {"title": "三江并流风景区", "address": "迪庆藏族自治州及怒江僳僳族自治州境内境内及丽江纳西族自治县沿金沙江部分", "image": "", "rank": 45, "time": 3.0, "location": {"lat": 27.438010414604705, "lng": 100.21057854956292}, "feature": {"sight_features": "", "sight_content": ""}}, {"title": "碧沽天池", "address": "迪庆藏族自治州香格里拉市小中甸乡联合村", "image": "", "rank": 46, "time": 3.5, "location": {"lat": 27.617085101143946, "lng": 99.74701107517474}, "feature": {"sight_features": "", "sight_content": ""}}, {"title": "尼汝村", "address": "迪庆藏族自治州香格里拉县境内东北方，距县城75公里", "image": "", "rank": 47, "time": 1.5, "location": {"lat": 27.907357820428466, "lng": 99.83159925643882}, "feature": {"sight_features": "", "sight_content": ""}}, {"title": "迪庆藏族自治州民族博物馆", "address": "迪庆州香格里拉县建塘镇独克宗古城月光广场", "image": "", "rank": 48, "time": 1.5, "location": {"lat": 27.817543926486447, "lng": 99.71412403321104}, "feature": {"sight_features": "", "sight_content": ""}}, {"title": "达摩祖师洞", "address": "迪庆藏族自治州维西傈僳族自治县225省道 ‎", "image": "", "rank": 49, "time": 1.0, "location": {"lat": 27.417846919327435, "lng": 99.3555465955722}, "feature": {"sight_features": "", "sight_content": ""}}, {"title": "西当温泉", "address": "云南省迪庆藏族自治州德钦县西当村", "image": "", "rank": 50, "time": 2, "location": {"lat": 28.441726471806334, "lng": 98.83582149026323}, "feature": {"sight_features": "", "sight_content": ""}}, {"title": "千湖山", "address": "迪庆州香格里拉市小中甸乡团结村", "image": "", "rank": 51, "time": 2.0, "location": {"lat": 27.58814690600617, "lng": 99.79781342276566}, "feature": {"sight_features": "", "sight_content": ""}}, {"title": "香格里拉洋塘曲", "address": "迪庆州香格里拉小中甸镇", "image": "", "rank": 52, "time": 1.5, "location": {"lat": 27.55940843461382, "lng": 99.81915601813277}, "feature": {"sight_features": "", "sight_content": ""}}, {"title": "神湖", "address": "迪庆藏族自治州德钦县云岭乡雨崩村(近神瀑)", "image": "", "rank": 53, "time": 1.5, "location": {"lat": 28.36970894390019, "lng": 98.76132459753163}, "feature": {"sight_features": "", "sight_content": ""}}, {"title": "南宗垭口", "address": "迪庆州德钦县梅里雪山", "image": "", "rank": 54, "time": 2, "location": {"lat": 28.44145789610988, "lng": 98.6916964416116}, "feature": {"sight_features": "", "sight_content": ""}}, {"title": "萨马贡自然保护区", "address": "迪庆藏族自治州维西县塔城乡境内", "image": "", "rank": 55, "time": 2.5, "location": {"lat": 27.18317020402177, "lng": 99.29346568993421}, "feature": {"sight_features": "", "sight_content": ""}}, {"title": "雾浓顶观景台", "address": "迪庆藏族自治州德钦县214国道旁雾浓顶村", "image": "", "rank": 56, "time": 1.0, "location": {"lat": 28.319159428535947, "lng": 99.13023574560108}, "feature": {"sight_features": "", "sight_content": ""}}, {"title": "尼西汤堆村", "address": "迪庆藏族自治州香格里拉县尼西乡汤堆村", "image": "", "rank": 57, "time": 2.0, "location": {"lat": 28.053479175043023, "lng": 99.51295554715176}, "feature": {"sight_features": "", "sight_content": ""}}, {"title": "古城藏经堂", "address": "迪庆藏族自治州香格里拉县独克宗古城后面", "image": "", "rank": 58, "time": 1.0, "location": {"lat": 27.817349824002143, "lng": 99.71269795434999}, "feature": {"sight_features": "", "sight_content": ""}}, {"title": "迪庆红军长征博物馆", "address": "迪庆藏族自治州香格里拉县独克宗古城金龙街1号", "image": "", "rank": 59, "time": 2.5, "location": {"lat": 27.81774230086409, "lng": 99.71384482099423}, "feature": {"sight_features": "", "sight_content": ""}}, {"title": "大宝寺", "address": "迪庆藏族自治州香格里拉县城东15公里处一座小山峦上", "image": "", "rank": 60, "time": 2.5, "location": {"lat": 27.907357820428466, "lng": 99.83159925643882}, "feature": {"sight_features": "", "sight_content": ""}}]}