{"cityName": "东平", "days": 2, "cityImage": "", "spots": [{"title": "水浒影视城", "address": "泰安市东平县东平湖景区", "image": "", "rank": 1, "time": 2.5, "location": {"lat": 35.961609348180616, "lng": 116.20666046252045}, "feature": {"sight_features": "特色1 分为州县区、京城区、梁山区三大部分。 特色2 北接济南，西连黄河，东依泰山，南望曲阜。 特色3 水浒影视城是86集新版《水浒》拍摄地。", "sight_content": "水浒影视城是80集新版《水浒》拍摄基地，是山东省水浒之旅旅游带上的重要景点，主要建设了府邸衙门、英雄府院、街区铺面、市井商家、酒楼茶肆、宗教寺庙、牢城营、紫石街、水街、王爷府、太师府、太尉府、青楼、樊楼、瓮城、御龙坊、东京汴梁御道等仿宋代建筑，古风浓郁，工艺精湛，细致逼真，营造了北宋时期特定的历史氛围。\n\n在完成80集电视连续剧新版《水浒》的拍摄后，又陆续开拍了《剑侠情缘》、《卜案》、《刑名师爷》、《楚留香新传》等，水浒影视城已成为集文化体验、风情展示、休闲度假、影视拍摄、游客集散于一体的综合性旅游服务区，极大地提高了东平旅游的接待能力和服务水平。"}}, {"title": "腊山国家森林公园", "address": "泰安市东平县西山路64号文化产业园景区管委营销中心", "image": "", "rank": 2, "time": 2.5, "location": {"lat": 35.94810739623279, "lng": 116.46971014751524}, "feature": {"sight_features": "特色1 被誉为“小岱峰”", "sight_content": "腊山位于东平湖西岸，面积3.5平方公里，有大小山峰72座，依山傍水，山清水秀，石险、洞幽、树奇，绿荫掩映，秀丽多姿，共有大小景点50余处，其中著名的有“三清宫”、“老虎洞”、“马跑泉”、“泰山行宫”、“玉皇殿”、“瞰湖亭”。腊山被誉为“小岱峰”，其景色以奇、险、幽著称，山水相连，胜景重重，人文景观与自然景观交相辉映。尤其称绝的是奇松怪柏,满山险石兀立,松柏交错,长势奇特。腊山古代建筑依山势而建,悬崖族拥,翠柏虚掩,古往今来,众多文人墨客游腊山曾留下了许多麒麟送子图石刻,乃为国宝，实为罕见。\n看如今的腊山国家森林公园，邱祖阁、孔子二十四孝堂、跑马泉、老虎洞、药王庙等大批景点都被修复，“小岱峰”、“小洞庭”为数以万计的华夏子孙所倾心，赢得了五洲宾客的赞叹。明澈清新、林绕花环的腊山国家森林公园，以清秀的湖光山色、璀灿的文物古迹和特有的文化魅力，令中外游客领略八百年前八百里水泊梁山的风采胜景。\n位于山东省第二大淡水湖枣八百里水泊的腊山国家森林公园，依群水域的东平湖西畔，依傍着黄河，是国家旅游总局推出的“水浒”旅游热线的最主要景区, 更是游山嬉水的绝佳去处。公园占地面积10908亩，离京九铁路梁山站25公里、济南国际机场108公里，220国道横穿公园景区，水路相通。"}}, {"title": "水浒山寨水寨", "address": "泰安市东平县文化产业园景区管委营销中心", "image": "", "rank": 3, "time": 2.0, "location": {"lat": 35.93948003743885, "lng": 116.43660696245531}, "feature": {"sight_features": "特色1 诠释水浒文化的内涵和精髓", "sight_content": "东平水浒大寨新版水浒拍摄基地，依东平湖、六工山而建，总投资2亿元，占地面积620亩，其中山寨占地面积120亩，水寨占地面积400亩，忠义堂占地面积100亩。山寨建在湖平面22米高的的悬崖上，南北长136米，东西宽132米，气势雄伟，蔚为壮观，建有一关、二关、三关、忠义堂、议事厅、瓮城、点将台、擂石阵。\n水寨中有古战船10艘，瞭望台2个，水上平台3600平方米，是水军作战基地，并以吊桥和天桥平台与山寨连接，水寨周围有万亩天然湿地，芦苇丛生，是当年水浒英雄操练水军，奇袭官兵之处。\n水浒山寨一关是水浒英雄抗衡官兵的第一道关隘，设有正副寨门、瞭望台、钟鼓楼、箭楼，易守难攻，关城内有校场、擂石阵、瓮城、南北二门，是水浒英雄操练兵马、排兵布阵的场所，由两头蛇解珍和双尾蝎解宝把守。水浒山寨二关高出湖面66米，背依高山丛林，进可攻，退可守，是抵御官兵的第二道关隘，门楼高15米，建有点将台、瞭望台、南北角楼、演武场，从二关纵深，进入蜿蜒崎岖的216级山道台阶，寓含三十六天罡、七十二地煞，一百零八好汉。\n中途有断金亭一处。二关由水浒英雄花和尚鲁智深和行者武松把守。三关高出湖面160米，地处绝壁陡崖，林深树密，关门高14米，视野开阔，可俯瞰水陆全景，由水浒英雄马军八虎骑兼先锋使美髯公朱仝和步军头领插翅虎雷横把守。"}}, {"title": "东平湖聚义岛", "address": "泰安市东平县文化产业园景区管委营销中心", "image": "", "rank": 4, "time": 2.0, "location": {"lat": 35.93948003743885, "lng": 116.43660696245531}, "feature": {"sight_features": "", "sight_content": ""}}, {"title": "泰安东平湖度假山庄", "address": "山东省泰安市东平县银山镇银兴码头西", "image": "", "rank": 5, "time": 1.5, "location": {"lat": 36.04210522891481, "lng": 116.18737865274893}, "feature": {"sight_features": "", "sight_content": ""}}, {"title": "白佛山", "address": "东平镇焦村正北边", "image": "", "rank": 6, "time": 2, "location": {"lat": 35.94143128964493, "lng": 116.43650452957631}, "feature": {"sight_features": "", "sight_content": ""}}, {"title": "新龙泉山庄", "address": "银山街", "image": "", "rank": 7, "time": 2, "location": {"lat": 37.17118234817687, "lng": 117.37975679527146}, "feature": {"sight_features": "", "sight_content": ""}}, {"title": "东平博物馆", "address": "银山街与平湖路交叉口", "image": "", "rank": 8, "time": 2.5, "location": {"lat": 35.94583194831502, "lng": 116.46446404333697}, "feature": {"sight_features": "", "sight_content": ""}}, {"title": "怡荷园生态农庄", "address": "贯中大道", "image": "", "rank": 9, "time": 2, "location": {"lat": 35.93565647659696, "lng": 116.39275874185135}, "feature": {"sight_features": "", "sight_content": ""}}, {"title": "戴村坝高尔夫练习场", "address": "东依戴村坝", "image": "", "rank": 10, "time": 2, "location": {"lat": 35.89836117593307, "lng": 116.5599507516224}, "feature": {"sight_features": "", "sight_content": ""}}, {"title": "东平湖国家垂钓基地", "address": "贯中大道附近", "image": "", "rank": 11, "time": 2, "location": {"lat": 35.93565647659696, "lng": 116.39275874185135}, "feature": {"sight_features": "", "sight_content": ""}}, {"title": "泰安腊山", "address": "山东省东平县银山镇 271500", "image": "", "rank": 12, "time": 7.5, "location": {"lat": 36.04356087465009, "lng": 116.14552974131173}, "feature": {"sight_features": "", "sight_content": ""}}, {"title": "东平县工委纪念馆", "address": "关帝庙街西150米", "image": "", "rank": 13, "time": 2, "location": {"lat": 37.213464156948625, "lng": 112.189212317826}, "feature": {"sight_features": "", "sight_content": ""}}, {"title": "稻屯洼国家城市湿地公园", "address": "山东省泰安市东平县济广高速公路", "image": "", "rank": 14, "time": 2, "location": {"lat": 35.938366136989124, "lng": 116.41723725618455}, "feature": {"sight_features": "", "sight_content": ""}}, {"title": "洪顶山胜景", "address": "泰安市东平县", "image": "", "rank": 15, "time": 2, "location": {"lat": 35.94190801501926, "lng": 116.47759421565412}, "feature": {"sight_features": "", "sight_content": ""}}, {"title": "老湖渔村农家院", "address": "山东省泰安市东平县通天街", "image": "", "rank": 16, "time": 2, "location": {"lat": 35.97999274851367, "lng": 116.27838265574289}, "feature": {"sight_features": "", "sight_content": ""}}, {"title": "稻蒲荷香休闲农庄", "address": "山东省泰安市东平县", "image": "", "rank": 17, "time": 2, "location": {"lat": 35.94190801501926, "lng": 116.47759421565412}, "feature": {"sight_features": "", "sight_content": ""}}, {"title": "戴村坝博物馆", "address": "山东省泰安市东平县东平街道戴村坝景区北450米", "image": "", "rank": 18, "time": 2, "location": {"lat": 35.90035543774752, "lng": 116.56305655668581}, "feature": {"sight_features": "", "sight_content": ""}}, {"title": "尚书广场", "address": "后梯线东50米", "image": "", "rank": 19, "time": 2, "location": {"lat": 35.9871179645066, "lng": 116.42363413733129}, "feature": {"sight_features": "", "sight_content": ""}}, {"title": "龙泉湖", "address": "四川省成都市龙泉驿区", "image": "", "rank": 20, "time": 2.5, "location": {"lat": 30.56269784099964, "lng": 104.28139696435632}, "feature": {"sight_features": "", "sight_content": ""}}, {"title": "程公祠", "address": "山东省东平县斑鸠店镇斑鸠店村东部 271512", "image": "", "rank": 21, "time": 2, "location": {"lat": 36.1257036529416, "lng": 118.62727271799632}, "feature": {"sight_features": "", "sight_content": ""}}, {"title": "州城清真寺", "address": "山东省东平县", "image": "", "rank": 22, "time": 2, "location": {"lat": 35.94190801501926, "lng": 116.47759421565412}, "feature": {"sight_features": "", "sight_content": ""}}, {"title": "蔚氏家祠", "address": "山东省泰安市东平县益民路", "image": "", "rank": 23, "time": 2, "location": {"lat": 35.80399856752744, "lng": 116.40985214734965}, "feature": {"sight_features": "", "sight_content": ""}}, {"title": "淘淘乐儿童乐园", "address": "儒源广场三楼北区", "image": "", "rank": 24, "time": 2, "location": {"lat": 22.49802431427374, "lng": 114.14948392761134}, "feature": {"sight_features": "", "sight_content": ""}}, {"title": "白云观", "address": "山东省泰安市东平县银山镇昆山景区", "image": "", "rank": 25, "time": 1.0, "location": {"lat": 36.02189349463657, "lng": 116.16924730014911}, "feature": {"sight_features": "", "sight_content": ""}}, {"title": "东方度假村", "address": "山东省泰安市东平县东平湖风景名胜区附近", "image": "", "rank": 26, "time": 2, "location": {"lat": 35.949899271218925, "lng": 116.31474261598855}, "feature": {"sight_features": "", "sight_content": ""}}, {"title": "项羽墓", "address": "山东省东平县旧县乡旧县三村 271517", "image": "", "rank": 27, "time": 2.5, "location": {"lat": 36.121437153532106, "lng": 116.25015404019382}, "feature": {"sight_features": "", "sight_content": ""}}, {"title": "森森水族馆", "address": "山东省泰安市东平县S331", "image": "", "rank": 28, "time": 2, "location": {"lat": 35.94190801501926, "lng": 116.47759421565412}, "feature": {"sight_features": "", "sight_content": ""}}, {"title": "童趣丽舍儿童乐园", "address": "汶河街与西山路交叉口西南50米", "image": "", "rank": 29, "time": 2.5, "location": {"lat": 35.93082902822655, "lng": 116.47307481009102}, "feature": {"sight_features": "", "sight_content": ""}}, {"title": "华联国际星期六儿童乐园", "address": "山东省泰安市东平县西山路44华联国际三楼", "image": "", "rank": 30, "time": 2, "location": {"lat": 35.94136778764105, "lng": 116.47227930127379}, "feature": {"sight_features": "", "sight_content": ""}}, {"title": "东平烈士陵园", "address": "老湖镇水浒影视城附近", "image": "", "rank": 31, "time": 3.0, "location": {"lat": 35.94942619169635, "lng": 116.31774356274809}, "feature": {"sight_features": "", "sight_content": ""}}, {"title": "爱娃儿童乐园", "address": "山东省泰安市东平县汶河街", "image": "", "rank": 32, "time": 2, "location": {"lat": 35.93074323305809, "lng": 116.45892212535765}, "feature": {"sight_features": "", "sight_content": ""}}, {"title": "银山大堤沙场", "address": "山东省泰安市东平县G220(北郑线)", "image": "", "rank": 33, "time": 2, "location": {"lat": 35.94190801501926, "lng": 116.47759421565412}, "feature": {"sight_features": "", "sight_content": ""}}, {"title": "海滨农家乐", "address": "山东省泰安市东平县东平街道汶河街实验幼儿园东北200米", "image": "", "rank": 34, "time": 2, "location": {"lat": 35.9296015647479, "lng": 116.45842426917284}, "feature": {"sight_features": "", "sight_content": ""}}, {"title": "智慧星儿童乐园", "address": "泰安市东平县331省道旁", "image": "", "rank": 35, "time": 2, "location": {"lat": 35.946661636147994, "lng": 116.50806878092736}, "feature": {"sight_features": "", "sight_content": ""}}, {"title": "多彩108营地乐园", "address": "泰安市东平县老湖镇东平湖风景名胜区（大清河西侧）", "image": "", "rank": 36, "time": 2, "location": {"lat": 35.949899271218925, "lng": 116.31474261598855}, "feature": {"sight_features": "", "sight_content": "多彩108营地乐园是一座集休闲娱乐、旅游观光、住宿餐饮为一体的旅游度假乐园，位于东平县西侧，紧邻东平湖。\n\n\n多彩108营地乐园内有不同的娱乐休闲项目，如马术、电动船、碰碰球、观光小火车等，将静与动的项目相结合。"}}, {"title": "山东省东平县画院", "address": "龙山大街", "image": "", "rank": 37, "time": 2, "location": {"lat": 37.562263443411474, "lng": 112.1654688006543}, "feature": {"sight_features": "", "sight_content": ""}}, {"title": "龙泉湖滑雪场", "address": "龙山大街县委东行588米路南", "image": "", "rank": 38, "time": 2, "location": {"lat": 40.05116890716299, "lng": 117.41895739965841}, "feature": {"sight_features": "", "sight_content": ""}}, {"title": "春韵工艺美术社", "address": "331省道", "image": "", "rank": 39, "time": 2, "location": {"lat": 38.76243571351783, "lng": 115.64385441420583}, "feature": {"sight_features": "", "sight_content": ""}}, {"title": "艺馨阁画廊", "address": "331省道南50米", "image": "", "rank": 40, "time": 2, "location": {"lat": 38.76208403526126, "lng": 115.64385441420583}, "feature": {"sight_features": "", "sight_content": ""}}, {"title": "樱桃园", "address": "沙河站镇月河子", "image": "", "rank": 41, "time": 2, "location": {"lat": 35.871707692496074, "lng": 116.35895297678088}, "feature": {"sight_features": "", "sight_content": ""}}, {"title": "六工山水浒寨", "address": "山东省泰安市东平县", "image": "", "rank": 42, "time": 2, "location": {"lat": 35.94190801501926, "lng": 116.47759421565412}, "feature": {"sight_features": "", "sight_content": ""}}, {"title": "洪顶山刻经", "address": "山东省东平县屯村铺东北洪顶山上", "image": "", "rank": 43, "time": 2, "location": {"lat": 36.06022248067317, "lng": 116.23289866931376}, "feature": {"sight_features": "", "sight_content": ""}}, {"title": "东平湖", "address": "山东省东平县西部", "image": "", "rank": 44, "time": 3.0, "location": {"lat": 35.94190801501926, "lng": 116.47759421565412}, "feature": {"sight_features": "", "sight_content": ""}}, {"title": "山东水浒城", "address": "山东省泰安市斑鸠店镇侯河村", "image": "", "rank": 45, "time": 2, "location": {"lat": 36.07988669302446, "lng": 116.20621970802368}, "feature": {"sight_features": "", "sight_content": ""}}, {"title": "金汇小吃一条街", "address": "山东省东平县西山路", "image": "", "rank": 46, "time": 2, "location": {"lat": 35.93890761656583, "lng": 116.47238942544455}, "feature": {"sight_features": "", "sight_content": ""}}, {"title": "东平金泉水街", "address": "山东省东平县佛山街", "image": "", "rank": 47, "time": 2, "location": {"lat": 35.94083916237681, "lng": 116.46278992705297}, "feature": {"sight_features": "", "sight_content": ""}}, {"title": "东平环球国际影城", "address": "泰安市-东平县-西山路47号儒原城市广场3层", "image": "", "rank": 48, "time": 2.5, "location": {"lat": 35.93660789928645, "lng": 116.47297314795816}, "feature": {"sight_features": "", "sight_content": ""}}, {"title": "歪老婆山", "address": "泰安市-东平县", "image": "", "rank": 49, "time": 2, "location": {"lat": 35.94190801501926, "lng": 116.47759421565412}, "feature": {"sight_features": "", "sight_content": ""}}]}