{"cityName": "东至", "days": 2, "cityImage": "", "spots": [{"title": "仙寓山", "address": "池州市东至县洪方乡洪方村", "image": "", "rank": 1, "time": 4.5, "location": {"lat": 30.023893068924878, "lng": 117.18585580104359}, "feature": {"sight_features": "特色1 自然生态和悠久的古址文化于一体的生态文化旅游区", "sight_content": "池州仙寓山位于安徽省石台县境内，是黄山的西脉。比邻东至、祁门两县。仙寓山主峰海拔1376米，是皖南第四高峰。有着皖南山水的自然属性和文化上的徽派特点。仙寓山，顾名思义，就是神仙寓所所在的山，即神仙居住的地方，仙寓山曾出现过“七仙女下凡”的奇特天象。关于山水的文字、图片，总是带着某种欺骗性。而仙寓山的不同凡响，她的若有若无的仙气，仙寓山的一些传奇之处，却超出了现有文图的反映。\n\n仙寓山景区面积23.79平方公里，核心面积9.42平方公里，湖泊面积200亩。仙寓山有保护完好的原始森林, 有野山羊、猕猴、娃娃鱼、七彩山鸡、红豆衫、鹅掌秋等丰富的野生动植物，有清澈见底的瑶池碧水,有皖南最大的东坞瀑布群，仙寓山有鬼斧神工的奇峰异石,有保存完好的古徽道. 有抗金名将韩世忠、梁红玉的遗迹,不仅如此,群山中居住着一个历史悠久而古老的村寨----姚村,姚村周围环四大名山“东雀、西马、南虎、北象” 并有很多自然景观与人文景点分布其间,村中二条小河穿流而行,小桥相连,仙寓山还有保存完好的古油坊以及明清朝代的建筑.庭院天井,雕梁画栋,九十九口古井,九十九条巷弄,石板铺路,纵横交错,条块完美结合,仿佛进入迷宫一般。自然资源与人文资源交相辉映，仙寓山是观光、休闲、养生、户外运动的好场所。仙寓山文化遗存丰厚，是“戏曲鼻祖”、“戏曲活化石”傩戏、坐唱的发祥地之一，仙寓山是目连戏、徽剧、黄梅戏、山歌、民歌的盛行地，仙寓山是名人故里和红色革命老区，仙寓山也是佛道教圣地。如古徽道、崇德堂戏台、李菘祥墓陵、延庆禅林等。仙寓山中有条古徽道，是徽州连通当时安徽省会安庆的要道，一条全部用青石板铺就的古道，穿过山，通向林荫深处，一直望不见它的尽头。它是历史上一条重要的古道，也是清乾隆至民国时期安徽省省会所在地——安庆，通往本省徽州和浙江、江西、福建等省份的交通要道，清志称“徽饶通衢”。目前，仙寓山这条保存完好的古徽道，全长7.5公里。它北起石台县仙寓镇新店村，南至仙寓山的园通庵，与祁门县接壤，是我国目前保存最为完好、生态环境最优、风景最美、最长的以青石板铺就的，充满诗情画意的古徽道。一头经由池州、殷汇等地，一头通往屯溪、景德镇、上饶等地。"}}, {"title": "九天仙寓", "address": "池州市东至县葛公镇仙寓山村", "image": "", "rank": 2, "time": 4.5, "location": {"lat": 30.066317165519354, "lng": 117.19420433804639}, "feature": {"sight_features": "特色1 山高林深气温低", "sight_content": "九天仙寓景区地处东至、石台、祁门三县交界处，最高峰海拔1376米，座落在东至县境内。大自然的鬼斧神工造化了九天仙寓景区的神奇，吸引了众多游客和媒体记者。九天仙寓景区有数个相迭的多迭瀑，有高达百米单迭瀑，水流四季不断，这里山高林深气温低，冬季更有外冰内水的冰瀑奇观；旅游区生态完整，野生动植物资源丰富，蕴藏着娃娃鱼、麋鹿、云豹、猕猴、鸳鸯、白鹇、穿山甲、鹅掌秋、银杏、香果树、永瓣藤、皂夹树、双沟等珍稀动植物，随着海拔的变化，动植物物种分布 层次分明。同时这里还有古徽道、高潮村古建筑、同春茶号、韩世忠-梁红玉历史遗迹、红军洞等人文景观，雁落坡、红旗岭、鱼龙洞等自然景观。\n九天仙寓景区生态旅游区：九天仙寓景区生态旅游景区位于县东部葛公镇境内，属于黄山余脉，位于东至、石台、祁门三县交界处，海拔1376米，为黄湓河、秋浦河、尧渡河发源地。主要景区：红旗岭盘山公路。红旗岭盘山公路是231省道（兼国防战备公路）的一部分，为省内海拔最高的公路，环绕山体盘旋而上，洪方境内17公里，沿途有“八仙下棋”、“金鸡石”、“古徽道 ”、“仙女洞”、“金鸡窝”、“古茶园”等景点。\n九天仙寓东坞瀑布群有大小瀑布数十处，最大落差100多米，宽达30余米。在长达十几公里的东坞峡谷内，溪水蜿蜒其间，深潭瀑布相连相环，既有飞流直下的单迭瀑布，又有迭迭相接瀑布，让人目不暇接。有金钱吊蛤蟆瀑布景观，集静与动景于一身，一线溪水由数十米高的崖头直泻龙潭，潭中一巨石酷似蛤蟆端坐潭中翘首张嘴吸纳天赐甘露，夕阳西照，彩虹若隐若现，恰似金线悬吊起那巨大的蛤蟆；狮子戏珠，在半山腰与山顶间有一巨形石尊，形似狮子，在距石狮20-30米处对应有一相对较小长形石块，从远处看，极似一珠形珠体，“狮子戏珠”由此而得名。"}}, {"title": "南溪古寨", "address": "池州市东至县花园乡南溪村", "image": "", "rank": 3, "time": 2.5, "location": {"lat": 29.984762434547292, "lng": 117.10101633736689}, "feature": {"sight_features": "", "sight_content": ""}}, {"title": "金鸡窠漂流", "address": "池州市东至县洪方乡洪方村", "image": "", "rank": 4, "time": 2, "location": {"lat": 30.023893068924878, "lng": 117.18585580104359}, "feature": {"sight_features": "", "sight_content": ""}}, {"title": "升金湖国家级自然保护区", "address": "安徽省池州市东至县", "image": "", "rank": 5, "time": 2, "location": {"lat": 30.116534528265298, "lng": 117.03448128943805}, "feature": {"sight_features": "", "sight_content": ""}}, {"title": "龙源旅游度假区", "address": "池州市东至县大渡口镇", "image": "", "rank": 6, "time": 2, "location": {"lat": 30.46313040446264, "lng": 117.01940917194742}, "feature": {"sight_features": "", "sight_content": "龙源旅游度假区，成立于2010年，位于池州市东至县大渡口镇，毗邻具有世界影响的AAAA级景区升金湖自然湿地旁，为安徽\"三山三湖\"重要组成部分之一，位于黄山、九华山和庐山等中心位置。\n升金湖为鹤类保护区，是安徽省第一个以水禽及其栖息环境为保护对象的国家级自然保护区,亚洲重要湿地，具有很高的观赏价值。完善的基础设施和优越的地理位置，交通十分便捷。\n龙源旅游度假区是集乡村旅游、城郊旅游、乡村酒店和养生养老等为一体的旅游景区。曾先后荣获“安徽省五星级农家乐”、“国家休闲农业与乡村旅游示范点”、“国家AAAA级旅游景区”。\n龙源旅游度假区，现拥有2650亩耕地，规划面积5000余亩，其中核心区600亩内建有大雁、天鹅驯养场，猪、羊、鸡鸭观赏区，垂钓捕鱼中心，茭白基地,草莓、葡萄、桃李杏枣、石榴、樱桃等采摘区，建有篮球、网球、户外攀岩、游泳运动场，百果园、吊桥景观、鸟巢智能观光大棚、假山公园、凉亭、水上乐园、油菜花观赏基地等多种休闲娱乐设施。景区内各景点布局合理，错落有致，相互对应。\n度假区拥有10栋度假别墅及多功能会议厅，能同时容纳200人会议、餐饮和住宿。有完善的现代化各类客房配套设施，人性化设计，个性化服务，精心为您营造一个温馨舒适的环境。\n度假区内设有风格各异的豪华包间，菜品采用度假区自产的原生态无公害食材，让您品尝绿色健康环保美食，享受养生文化。"}}, {"title": "大历山", "address": "安徽省东至县尧渡镇 247210", "image": "", "rank": 7, "time": 2, "location": {"lat": 30.113152095748546, "lng": 117.06127588779982}, "feature": {"sight_features": "", "sight_content": ""}}, {"title": "响水滩休闲山庄", "address": "222省道附近", "image": "", "rank": 8, "time": 2, "location": {"lat": 36.77202196628758, "lng": 114.17537319703483}, "feature": {"sight_features": "", "sight_content": ""}}, {"title": "东至县玩具工业城", "address": "安徽省东至县梅城路118号 247200", "image": "", "rank": 9, "time": 2, "location": {"lat": 30.115193538073317, "lng": 117.04263952041858}, "feature": {"sight_features": "", "sight_content": ""}}, {"title": "洪家祠堂", "address": "池州市东至县", "image": "", "rank": 10, "time": 2, "location": {"lat": 30.116534528265298, "lng": 117.03448128943805}, "feature": {"sight_features": "", "sight_content": ""}}, {"title": "翻斗乐儿童乐园(东至汇金店)", "address": "尧城路汇金广场一楼", "image": "", "rank": 11, "time": 2, "location": {"lat": 30.103040220147648, "lng": 117.02832502211709}, "feature": {"sight_features": "", "sight_content": ""}}, {"title": "城堡探险(东至店)", "address": "其他尧渡镇东至新天地广场一楼中庭（永辉超市楼上）", "image": "", "rank": 12, "time": 2, "location": {"lat": 30.113152095748546, "lng": 117.06127588779982}, "feature": {"sight_features": "", "sight_content": ""}}, {"title": "绍华水族馆", "address": "尧城路69-38号附近", "image": "", "rank": 13, "time": null, "location": {"lat": 35.57317746043806, "lng": 119.54886967289809}, "feature": {"sight_features": "", "sight_content": ""}}, {"title": "双龙儿童游乐园", "address": "池州市东至县张溪镇XD16(张溪镇政府西北侧80米)", "image": "", "rank": 14, "time": 2, "location": {"lat": 30.270368585448004, "lng": 117.0744717361311}, "feature": {"sight_features": "", "sight_content": ""}}, {"title": "洋湖土地庙", "address": "安徽省池州市东至县枣子树村", "image": "", "rank": 15, "time": 2, "location": {"lat": 30.18037282449072, "lng": 117.18904506677363}, "feature": {"sight_features": "", "sight_content": ""}}, {"title": "观音寺(东至江堤店)", "address": "东至江堤附近", "image": "", "rank": 16, "time": 2, "location": {"lat": 30.47250945607915, "lng": 117.00625096082038}, "feature": {"sight_features": "", "sight_content": ""}}, {"title": "香口温泉", "address": "012县道", "image": "", "rank": 17, "time": 2, "location": {"lat": 40.15507522393554, "lng": 116.62437778513727}, "feature": {"sight_features": "", "sight_content": ""}}, {"title": "天台山森林公园", "address": "天台山路5号", "image": "", "rank": 18, "time": 1.5, "location": {"lat": 39.928103749888116, "lng": 119.57584758397375}, "feature": {"sight_features": "", "sight_content": ""}}, {"title": "久尊皇休闲中心", "address": "尧渡镇河西走廊商贸街32号", "image": "", "rank": 19, "time": 2, "location": {"lat": 31.262271716309176, "lng": 120.63911643290506}, "feature": {"sight_features": "", "sight_content": ""}}, {"title": "开心玩国主题乐园(东至店)", "address": "尧渡镇至德大道新天地广场东侧三楼", "image": "", "rank": 20, "time": 2, "location": {"lat": 39.94007711858131, "lng": 119.61299667057601}, "feature": {"sight_features": "", "sight_content": ""}}, {"title": "阳光生态葡萄采摘园", "address": "大渡口镇大联圩农业生态示范园", "image": "", "rank": 21, "time": 2, "location": {"lat": 32.20049115630753, "lng": 115.70180374333229}, "feature": {"sight_features": "", "sight_content": ""}}, {"title": "绿野生态农庄", "address": "008乡道", "image": "", "rank": 22, "time": 2, "location": {"lat": 41.737958580181754, "lng": 117.99106634564795}, "feature": {"sight_features": "", "sight_content": ""}}, {"title": "久尊皇水上乐园", "address": "济广高速公路", "image": "", "rank": 23, "time": 2, "location": {"lat": 27.464865747584554, "lng": 116.64660006559573}, "feature": {"sight_features": "", "sight_content": ""}}, {"title": "东至屯林牧园家庭农场", "address": "尧渡镇汪村村年塘组", "image": "", "rank": 24, "time": 2, "location": {"lat": 30.128822827623363, "lng": 116.95815119228861}, "feature": {"sight_features": "", "sight_content": ""}}, {"title": "天路书吧", "address": "官港镇中心小学路口", "image": "", "rank": 25, "time": 2, "location": {"lat": 39.124030230896054, "lng": 117.20190061452008}, "feature": {"sight_features": "", "sight_content": ""}}, {"title": "江心跑马俱乐部", "address": "江心村", "image": "", "rank": 26, "time": 2, "location": {"lat": 29.992285794397027, "lng": 121.37107944704508}, "feature": {"sight_features": "", "sight_content": ""}}, {"title": "升金湖", "address": "安徽省东至县境内", "image": "", "rank": 27, "time": 2, "location": {"lat": 30.116534528265298, "lng": 117.03448128943805}, "feature": {"sight_features": "", "sight_content": ""}}, {"title": "外屋村", "address": "池州市-东至县", "image": "", "rank": 28, "time": 2, "location": {"lat": 30.116534528265298, "lng": 117.03448128943805}, "feature": {"sight_features": "", "sight_content": ""}}]}