{"cityName": "东辽", "days": 2, "cityImage": "", "spots": [{"title": "鴜鹭湖梯田花海", "address": "辽源市东辽县金洲乡鴜鹭湖旅游度假区内", "image": "", "rank": 1, "time": 2, "location": {"lat": 43.042551656308646, "lng": 125.30925481203899}, "feature": {"sight_features": "", "sight_content": ""}}, {"title": "鴜鹭湖红叶岭", "address": "辽源市东辽县金洲乡（鴜鹭湖旅游度假区内)", "image": "", "rank": 2, "time": 2, "location": {"lat": 43.042551656308646, "lng": 125.30925481203899}, "feature": {"sight_features": "", "sight_content": ""}}, {"title": "鴜鹭湖关东体验馆", "address": "辽源市东辽县金洲乡（鴜鹭湖旅游度假区内)", "image": "", "rank": 3, "time": 2, "location": {"lat": 43.042551656308646, "lng": 125.30925481203899}, "feature": {"sight_features": "", "sight_content": ""}}, {"title": "鴜鹭湖采摘园", "address": "金州收费站下高速南行100米(德志村五组)", "image": "", "rank": 4, "time": 2, "location": {"lat": 43.0646024324378, "lng": 125.25791323319298}, "feature": {"sight_features": "", "sight_content": ""}}, {"title": "吉林寒葱顶国家森林公园", "address": "东辽县交界处", "image": "", "rank": 5, "time": 4.5, "location": {"lat": 42.931879101775785, "lng": 124.99758944369195}, "feature": {"sight_features": "", "sight_content": ""}}, {"title": "桃沅风景区", "address": "陶然镇乾德水库", "image": "", "rank": 6, "time": 2, "location": {"lat": 42.8347450363474, "lng": 124.80083605818163}, "feature": {"sight_features": "", "sight_content": ""}}, {"title": "寒葱顶国家森林公园", "address": "吉林省东丰县境内 136323", "image": "", "rank": 7, "time": 2, "location": {"lat": 42.68331077855281, "lng": 125.5373779009073}, "feature": {"sight_features": "", "sight_content": ""}}, {"title": "车家大院", "address": "安石镇朝阳村二组", "image": "", "rank": 8, "time": 2, "location": {"lat": 43.001174416437074, "lng": 125.3313179697034}, "feature": {"sight_features": "", "sight_content": ""}}, {"title": "北山公园", "address": "幸福桥北100米", "image": "", "rank": 9, "time": 1.0, "location": {"lat": 26.060626238855473, "lng": 119.3235104954777}, "feature": {"sight_features": "", "sight_content": ""}}, {"title": "龙潭寺", "address": "辽源市东辽县", "image": "", "rank": 10, "time": 1.0, "location": {"lat": 42.931879101775785, "lng": 124.99758944369195}, "feature": {"sight_features": "", "sight_content": ""}}, {"title": "海锋水族馆", "address": "吉林省辽源市东辽县东辽大街424号", "image": "", "rank": 11, "time": 2, "location": {"lat": 42.9240095595851, "lng": 125.01571985396927}, "feature": {"sight_features": "", "sight_content": ""}}, {"title": "鑫新湖儿童乐园", "address": "东辽大街附近", "image": "", "rank": 12, "time": 2, "location": {"lat": 42.92942924284846, "lng": 125.00435909198126}, "feature": {"sight_features": "", "sight_content": ""}}, {"title": "小树苗儿童成长乐园", "address": "东交大街东100米", "image": "", "rank": 13, "time": 2, "location": {"lat": 42.932182069004405, "lng": 125.00606235199093}, "feature": {"sight_features": "", "sight_content": ""}}, {"title": "东辽县白泉镇基督教会", "address": "东交大街与四白公路交叉口东南100米", "image": "", "rank": 14, "time": 2, "location": {"lat": 23.494386671660774, "lng": 116.51093198121578}, "feature": {"sight_features": "", "sight_content": ""}}, {"title": "老营基督教会", "address": "后沟附近", "image": "", "rank": 15, "time": 2, "location": {"lat": 40.882542859785204, "lng": 116.71072518706251}, "feature": {"sight_features": "", "sight_content": ""}}, {"title": "红叶岭森林公园", "address": "X072县道窑山顶子西行150米", "image": "", "rank": 16, "time": 2, "location": {"lat": 28.24054813030942, "lng": 112.95802549581606}, "feature": {"sight_features": "", "sight_content": ""}}, {"title": "白泉站广场", "address": "东交大街与站前路交叉口东150米", "image": "", "rank": 17, "time": 2, "location": {"lat": 42.931325293955425, "lng": 125.0078437403257}, "feature": {"sight_features": "", "sight_content": ""}}, {"title": "安恕教堂", "address": "童乐幼儿园附近", "image": "", "rank": 18, "time": 2, "location": {"lat": 39.70237905529804, "lng": 116.28569365347488}, "feature": {"sight_features": "", "sight_content": ""}}, {"title": "月龙湾", "address": "吉林省辽源市东辽县", "image": "", "rank": 19, "time": 2, "location": {"lat": 42.931879101775785, "lng": 124.99758944369195}, "feature": {"sight_features": "", "sight_content": ""}}, {"title": "凌云乡文官基督教堂", "address": "文官村附近", "image": "", "rank": 20, "time": 2, "location": {"lat": 41.89305138887206, "lng": 123.48788121737815}, "feature": {"sight_features": "", "sight_content": ""}}, {"title": "鸿银山庄", "address": "南环大路303国道路口附近", "image": "", "rank": 21, "time": 2, "location": {"lat": 42.87466216774506, "lng": 125.18171144101954}, "feature": {"sight_features": "", "sight_content": ""}}, {"title": "顺鑫度假村", "address": "206省道附近", "image": "", "rank": 22, "time": 2, "location": {"lat": 40.08163878542396, "lng": 117.10435023437643}, "feature": {"sight_features": "", "sight_content": ""}}, {"title": "夕阳红乐园", "address": "103省道", "image": "", "rank": 23, "time": 2, "location": {"lat": 39.16211906866746, "lng": 117.4666343312951}, "feature": {"sight_features": "", "sight_content": ""}}, {"title": "聚龙潭滑雪场", "address": "龙潭路", "image": "", "rank": 24, "time": 2, "location": {"lat": 31.23360770938446, "lng": 121.50276104666196}, "feature": {"sight_features": "", "sight_content": ""}}, {"title": "民俗博物馆", "address": "连泉路", "image": "", "rank": 25, "time": 1.5, "location": {"lat": 42.93369121866013, "lng": 124.9958952987883}, "feature": {"sight_features": "", "sight_content": ""}}, {"title": "仁爱三队", "address": "辽源市-东辽县", "image": "", "rank": 26, "time": 2, "location": {"lat": 42.931879101775785, "lng": 124.99758944369195}, "feature": {"sight_features": "", "sight_content": ""}}]}