{"cityName": "东兰", "days": 2, "cityImage": "", "spots": [{"title": "列宁岩", "address": "河池市东兰县武篆巴学村", "image": "", "rank": 1, "time": 2, "location": {"lat": 24.335416162185478, "lng": 107.31704264363646}, "feature": {"sight_features": "", "sight_content": ""}}, {"title": "红水河第一湾", "address": "河池市东兰县三石镇板文村南方向", "image": "", "rank": 2, "time": 2, "location": {"lat": 24.36131806802682, "lng": 107.5196154812414}, "feature": {"sight_features": "", "sight_content": ""}}, {"title": "韦拔群纪念馆", "address": "河池市东兰县烈士陵园内", "image": "", "rank": 3, "time": 2, "location": {"lat": 24.516871463380625, "lng": 107.38050415950381}, "feature": {"sight_features": "", "sight_content": ""}}, {"title": "龙滩水电站", "address": "广西壮族自治区天峨县红水河上游 547300", "image": "", "rank": 4, "time": 2, "location": {"lat": 24.969656768494243, "lng": 107.1985416850891}, "feature": {"sight_features": "", "sight_content": ""}}, {"title": "覃应机故居", "address": "河池市东兰县", "image": "", "rank": 5, "time": 2, "location": {"lat": 24.516871463380625, "lng": 107.38050415950381}, "feature": {"sight_features": "", "sight_content": ""}}, {"title": "广西农民运动讲习所旧址", "address": "广西壮族自治区河池市东兰县武篆镇895县道列宁岩景区", "image": "", "rank": 6, "time": 1.0, "location": {"lat": 24.34627898164222, "lng": 107.31952798998161}, "feature": {"sight_features": "", "sight_content": ""}}, {"title": "武夷候公园", "address": "323国道西50米", "image": "", "rank": 7, "time": 2, "location": {"lat": 24.97631276438632, "lng": 113.87779250417488}, "feature": {"sight_features": "", "sight_content": ""}}, {"title": "壮乡将军纪念馆", "address": "广西壮族自治区河池市东兰县X900", "image": "", "rank": 8, "time": 2, "location": {"lat": 24.516871463380625, "lng": 107.38050415950381}, "feature": {"sight_features": "", "sight_content": ""}}, {"title": "东兰建珉文化广场", "address": "广西壮族自治区河池市东兰县G323(瑞临线)", "image": "", "rank": 9, "time": 2, "location": {"lat": 24.516871463380625, "lng": 107.38050415950381}, "feature": {"sight_features": "", "sight_content": ""}}, {"title": "图书馆综合大楼", "address": "曲江路33号", "image": "", "rank": 10, "time": 2, "location": {"lat": 39.07019027445339, "lng": 117.27256211285058}, "feature": {"sight_features": "", "sight_content": ""}}, {"title": "铜鼓博物馆", "address": "陵园街与虎头街交叉口", "image": "", "rank": 11, "time": 2.5, "location": {"lat": 24.516720931319274, "lng": 107.38168975030194}, "feature": {"sight_features": "", "sight_content": ""}}, {"title": "弄官白头叶猴生态公园", "address": "广西壮族自治区崇左市江州区罗白乡和板利乡交界", "image": "", "rank": 12, "time": 2, "location": {"lat": 22.240312444608463, "lng": 107.54057983070078}, "feature": {"sight_features": "", "sight_content": ""}}, {"title": "名店城商业步行街", "address": "广西壮族自治区东兰县曲江路", "image": "", "rank": 13, "time": 2, "location": {"lat": 24.516993677206486, "lng": 107.38373226616643}, "feature": {"sight_features": "", "sight_content": ""}}]}