{"cityName": "东台", "days": 2, "cityImage": "", "spots": [{"title": "黄海森林公园", "address": "盐城市东台市沿海经济区花林路8号", "image": "", "rank": 1, "time": 2.5, "location": {"lat": 32.76862201429173, "lng": 120.85440249798482}, "feature": {"sight_features": "", "sight_content": ""}}, {"title": "西溪旅游文化景区", "address": "盐城市东台市惠阳路", "image": "", "rank": 2, "time": 12.0, "location": {"lat": 32.838527980572856, "lng": 120.32051138590008}, "feature": {"sight_features": "特色1 本土文化与佛学宗教文化的有机融合", "sight_content": "西溪景区由南向北依次分为三个片区：历史文化休闲区、现代文化休闲区和生态旅游休闲区。其中历史文化休闲片以千年古镇西溪为核心，拥有集海盐文化、佛教文化、孝贤文化等为一体的人文景观区；\n董永七仙女文化园\n\n东台按照“世界独特、中国唯一”理念设计并打造的董永七仙女文化园，整体定位为汉唐风格，围绕孝贤文化和爱情传说两大主题，彰显西溪古镇地方特色文化。\n海春轩塔\n建于唐修于宋，为“内唐外宋”两层砖结构塔抱塔，迄今己有1380余年，塔龄为江苏现存58座古塔之最，民间俗称“西溪宝塔”，又名“孝母塔”、“尉迟塔”，1982年定为省级文物保护单位。\n现代文化休闲片融合传统艺术与现代文化，建有艺术传播、精品鉴赏、休闲娱乐等设施；生态旅游休闲片以仙湖现代农业示范园为核心，游客可以了解现代农业技术，学习农业知识，进行农耕体验观光等。 目前景区的主要景点有董永七仙女文化园、泰山景观大道、东台市现代农业示范园、西溪古镇、海春塔苑（泰山寺的所在地）等。"}}, {"title": "董永七仙女文化园", "address": "盐城市东台市新桥路附近", "image": "", "rank": 3, "time": 2, "location": {"lat": 32.76498899437925, "lng": 120.65929951888288}, "feature": {"sight_features": "", "sight_content": ""}}, {"title": "泰山寺", "address": "江苏省盐城市东台市", "image": "", "rank": 4, "time": 1.0, "location": {"lat": 32.872716312488244, "lng": 120.32653706475246}, "feature": {"sight_features": "", "sight_content": ""}}, {"title": "安丰古街", "address": "盐城市东台市安丰镇通榆路151号", "image": "", "rank": 5, "time": 2.5, "location": {"lat": 32.73684360076467, "lng": 120.41367713358296}, "feature": {"sight_features": "特色1 范仲淹、郑板桥、王艮、吴嘉纪等生活旧居", "sight_content": "安丰古街是一个国家AAA级旅游景区。\n古街发展定位是人文历史与商业旅游融合的景区。历史上安丰七里长街拥有九坝十三巷七十二庙堂千家店铺，安丰古街是“七里长街”南段保留较为完好的一部分，全长900米，街面宽4.5米，街两侧店面为清式建筑，为盐城市文物保护单位。\n街内有省级文保单位鲍氏大楼、盐城市级文保单位吴氏家祠、袁承业宅、戈湘岚故居、安丰盐课司等。\n古街突出保护性修缮，挖掘盐文化特质，加大开发利用力度，通过古街巷道风貌整治、沿街房屋征收和立面改造等保护建设，弘扬了本土历史文化，改善了沿线居民的居住环境，也为特色文化旅游发展打下基础。\n目前，景区有鲍氏大院、稠州钱庄等10多个政府公益展馆、私家珍藏馆，重修了大悲庵寺庙、古戏台及广场，规划建设了南区游客服务中心仿古商业建筑群，先后引进了近40家商铺在古街经营。"}}, {"title": "永丰林农业生态园", "address": "盐城市东台市新曹镇", "image": "", "rank": 6, "time": 2, "location": {"lat": 32.91953403343583, "lng": 120.7395664399298}, "feature": {"sight_features": "", "sight_content": ""}}, {"title": "龙王古寺文化园", "address": "盐城市东台市弶港镇迎宾大道与港城大道路口东南侧", "image": "", "rank": 7, "time": 2, "location": {"lat": 32.75307390875997, "lng": 120.85348599909335}, "feature": {"sight_features": "", "sight_content": ""}}, {"title": "戈公振故居", "address": "江苏东台市城内兰香巷9号", "image": "", "rank": 8, "time": 2, "location": {"lat": 32.85232640101574, "lng": 120.32412067862556}, "feature": {"sight_features": "", "sight_content": ""}}, {"title": "海春塔苑", "address": "盐城市东台市惠阳路", "image": "", "rank": 9, "time": 2, "location": {"lat": 32.838527980572856, "lng": 120.32051138590008}, "feature": {"sight_features": "特色1 “世界独特、中国唯一”的古镇地方特色文化！ 特色2 本土文化与佛学宗教文化的有机融合。 特色3 集旅游、生态、休闲三大功能为一体的综合旅游区。", "sight_content": "西溪景区由南向北依次分为三个片区：历史文化休闲区、现代文化休闲区和生态旅游休闲区。其中历史文化休闲片以千年古镇西溪为核心，拥有集海盐文化、佛教文化、孝贤文化等为一体的人文景观区；\n董永七仙女文化园\n\n东台按照“世界独特、中国唯一”理念设计并打造的董永七仙女文化园，整体定位为汉唐风格，围绕孝贤文化和爱情传说两大主题，彰显西溪古镇地方特色文化。\n海春轩塔\n建于唐修于宋，为“内唐外宋”两层砖结构塔抱塔，迄今己有1380余年，塔龄为江苏现存58座古塔之最，民间俗称“西溪宝塔”，又名“孝母塔”、“尉迟塔”，1982年定为省级文物保护单位。\n现代文化休闲片融合传统艺术与现代文化，建有艺术传播、精品鉴赏、休闲娱乐等设施；生态旅游休闲片以仙湖现代农业示范园为核心，游客可以了解现代农业技术，学习农业知识，进行农耕体验观光等。 目前景区的主要景点有董永七仙女文化园、泰山景观大道、东台市现代农业示范园、西溪古镇、海春塔苑（泰山寺的所在地）等。"}}, {"title": "卢秉枢烈士故居", "address": "东台市梁垛镇公馆巷内", "image": "", "rank": 10, "time": 1.0, "location": {"lat": 32.77990233358854, "lng": 120.337354263873}, "feature": {"sight_features": "", "sight_content": ""}}, {"title": "东台市博物馆", "address": "东亭南路26-8", "image": "", "rank": 11, "time": 2.5, "location": {"lat": 31.583779511799154, "lng": 120.3624307263714}, "feature": {"sight_features": "", "sight_content": ""}}, {"title": "生态农业规划区植物园", "address": "弶时公路东延段", "image": "", "rank": 12, "time": 2, "location": {"lat": 32.79660376126107, "lng": 120.85542179985715}, "feature": {"sight_features": "", "sight_content": ""}}, {"title": "江苏格林沃德农业生态园", "address": "江苏省盐城市东台市新桥公路许河镇四联村村民委员会西南", "image": "", "rank": 13, "time": 2, "location": {"lat": 32.76456944675499, "lng": 120.63221673602877}, "feature": {"sight_features": "", "sight_content": ""}}, {"title": "夏日风暴水上世界", "address": "新204国道五烈段开放大道路南(嘉悦达物流园对面)", "image": "", "rank": 14, "time": 2, "location": {"lat": 33.425459452871564, "lng": 120.08928577617328}, "feature": {"sight_features": "", "sight_content": ""}}, {"title": "水浒农庄", "address": "东亭南路198号老年公寓对面", "image": "", "rank": 15, "time": 2, "location": {"lat": 32.839845398076946, "lng": 120.31562461111224}, "feature": {"sight_features": "", "sight_content": ""}}, {"title": "唐庄休闲垂钓中心", "address": "204国道", "image": "", "rank": 16, "time": 2, "location": {"lat": 31.674195505838682, "lng": 120.84129504740726}, "feature": {"sight_features": "", "sight_content": ""}}, {"title": "艺境画廊", "address": "钱江财富广场", "image": "", "rank": 17, "time": 2, "location": {"lat": 33.36804418994022, "lng": 120.15227501063464}, "feature": {"sight_features": "", "sight_content": ""}}, {"title": "江淮植物园", "address": "富安镇梁一村8组", "image": "", "rank": 18, "time": 2, "location": {"lat": 32.64540904979446, "lng": 120.4732834785231}, "feature": {"sight_features": "", "sight_content": ""}}, {"title": "植物园秀丰园", "address": "西溪植物园内西北角", "image": "", "rank": 19, "time": 2, "location": {"lat": 32.86549862829083, "lng": 120.28511598119574}, "feature": {"sight_features": "", "sight_content": ""}}, {"title": "哈哈周末", "address": "鼓楼路步行街文化大厦5楼", "image": "", "rank": 20, "time": 2, "location": {"lat": 32.85239325236686, "lng": 120.32391152525535}, "feature": {"sight_features": "", "sight_content": ""}}, {"title": "东台市图书馆", "address": "金海西路3", "image": "", "rank": 21, "time": 1.5, "location": {"lat": 34.855060461703545, "lng": 119.11930797294568}, "feature": {"sight_features": "", "sight_content": ""}}, {"title": "革命烈士纪念馆", "address": "二二六省道", "image": "", "rank": 22, "time": 2, "location": {"lat": 34.356864091588434, "lng": 119.92029932838331}, "feature": {"sight_features": "", "sight_content": ""}}, {"title": "东台市金丰园瓜果蔬菜专业合作社", "address": "三仓镇现代农业产业园展示中心", "image": "", "rank": 23, "time": 12.0, "location": {"lat": 34.067919222294044, "lng": 108.88199940309936}, "feature": {"sight_features": "", "sight_content": ""}}, {"title": "江苏省新曹农场玉谷草鸡孵化场", "address": "临海公路附近", "image": "", "rank": 24, "time": 2, "location": {"lat": 34.5478515500504, "lng": 119.57524678557071}, "feature": {"sight_features": "", "sight_content": ""}}, {"title": "东台唐洋高扬垂钓中心", "address": "唐洋镇唐四线", "image": "", "rank": 25, "time": 12.0, "location": {"lat": 32.64047256001257, "lng": 120.64335888459128}, "feature": {"sight_features": "", "sight_content": ""}}, {"title": "南山鱼台", "address": "梁垛镇204国道南山鱼台", "image": "", "rank": 26, "time": 2, "location": {"lat": 35.017887717822525, "lng": 116.65739284822328}, "feature": {"sight_features": "", "sight_content": ""}}, {"title": "汪河钓鱼场", "address": "溱东镇汪河钓鱼场", "image": "", "rank": 27, "time": 2, "location": {"lat": 32.658499569285055, "lng": 120.1811035999423}, "feature": {"sight_features": "", "sight_content": ""}}, {"title": "开发广场", "address": "盐城市东台市", "image": "", "rank": 28, "time": 2, "location": {"lat": 32.872716312488244, "lng": 120.32653706475246}, "feature": {"sight_features": "", "sight_content": ""}}, {"title": "梁垛剧院", "address": "政府东路与政府南路交叉口东南100米", "image": "", "rank": 29, "time": 2, "location": {"lat": 32.77539014437347, "lng": 120.38216705349289}, "feature": {"sight_features": "", "sight_content": ""}}, {"title": "剧场肉串", "address": "鼓楼西路111号", "image": "", "rank": 30, "time": 2, "location": {"lat": 32.85404883586581, "lng": 120.31791144541509}, "feature": {"sight_features": "", "sight_content": ""}}, {"title": "新东影剧院", "address": "新东镇附近", "image": "", "rank": 31, "time": 2, "location": {"lat": 32.682815830808984, "lng": 120.86186036507449}, "feature": {"sight_features": "", "sight_content": ""}}, {"title": "台南影剧院", "address": "孔高路附近", "image": "", "rank": 32, "time": 1.5, "location": {"lat": 32.7627877505699, "lng": 120.29883739125039}, "feature": {"sight_features": "", "sight_content": ""}}, {"title": "新曹镇影剧院", "address": "文明路附近", "image": "", "rank": 33, "time": 2, "location": {"lat": 40.08510519375547, "lng": 116.58114488673985}, "feature": {"sight_features": "", "sight_content": ""}}, {"title": "东台市佛教居士林", "address": "东亭南路26-48号", "image": "", "rank": 34, "time": 12.0, "location": {"lat": 31.583779511799154, "lng": 120.3624307263714}, "feature": {"sight_features": "", "sight_content": ""}}, {"title": "金墩社区反假货币宣传服务站", "address": "下坝路与宁树路交叉口", "image": "", "rank": 35, "time": 2, "location": {"lat": 32.853785788274955, "lng": 120.30849884307808}, "feature": {"sight_features": "", "sight_content": ""}}, {"title": "新桥社区反假货币宣传服务站", "address": "丁字街与宁树路交叉口", "image": "", "rank": 36, "time": 2, "location": {"lat": 32.85490905862451, "lng": 120.30979787009979}, "feature": {"sight_features": "", "sight_content": ""}}, {"title": "串场河海盐文化景区", "address": "江苏省盐城东进中路9号", "image": "", "rank": 37, "time": 2, "location": {"lat": 33.367247995034944, "lng": 120.16737818164847}, "feature": {"sight_features": "", "sight_content": ""}}, {"title": "红杏古庙", "address": "城东新区经八路", "image": "", "rank": 38, "time": 2, "location": {"lat": 29.998296725898644, "lng": 120.61229000681834}, "feature": {"sight_features": "", "sight_content": ""}}, {"title": "农民公园", "address": "富强路与幸福中路交叉口西北100米", "image": "", "rank": 39, "time": 2, "location": {"lat": 34.59750291491305, "lng": 119.16691543412577}, "feature": {"sight_features": "", "sight_content": ""}}, {"title": "曹撇镇劳动人民纪念堂", "address": "江苏省盐城市东台市东蹲线附近", "image": "", "rank": 40, "time": 2, "location": {"lat": 32.89964666989438, "lng": 120.70139539067426}, "feature": {"sight_features": "", "sight_content": ""}}, {"title": "湿地探险乐园", "address": "泰州市姜堰区", "image": "", "rank": 41, "time": 2, "location": {"lat": 32.515233674758576, "lng": 120.13339832586847}, "feature": {"sight_features": "", "sight_content": ""}}, {"title": "圆梦岛儿童游乐园", "address": "江苏省盐城市东台市庙桥南路", "image": "", "rank": 42, "time": 2, "location": {"lat": 32.678580845892036, "lng": 120.48746957483161}, "feature": {"sight_features": "", "sight_content": ""}}, {"title": "弶港文化展示馆", "address": "沿海经济区弶港镇", "image": "", "rank": 43, "time": 2, "location": {"lat": 32.76862201429173, "lng": 120.85440249798482}, "feature": {"sight_features": "", "sight_content": ""}}, {"title": "儿童水上主题俱乐部", "address": "三仓镇西转盘东城新苑对面向东50米", "image": "", "rank": 44, "time": 2, "location": {"lat": 23.091983999326395, "lng": 114.43437547620728}, "feature": {"sight_features": "", "sight_content": ""}}, {"title": "实感狩猎", "address": "盐城市东台市海陵北路9号德润广场F6", "image": "", "rank": 45, "time": 2, "location": {"lat": 32.86775232273335, "lng": 120.32529210314618}, "feature": {"sight_features": "", "sight_content": ""}}, {"title": "观音寺", "address": "惠阳路南50米", "image": "", "rank": 46, "time": 2.0, "location": {"lat": 30.860537983241763, "lng": 121.56421114332694}, "feature": {"sight_features": "", "sight_content": ""}}, {"title": "东台市观音禅寺", "address": "富安镇米市路海河桥北八号", "image": "", "rank": 47, "time": 12.0, "location": {"lat": 39.07984717124986, "lng": 117.32380992297425}, "feature": {"sight_features": "", "sight_content": ""}}, {"title": "吴氏家祠", "address": "江苏省盐城市东台市X306(弶张线)", "image": "", "rank": 48, "time": 2, "location": {"lat": 32.77457176956511, "lng": 120.66520704181491}, "feature": {"sight_features": "", "sight_content": ""}}, {"title": "卡奇乐儿童乐园", "address": "江苏省盐城市东台市弶张线", "image": "", "rank": 49, "time": 2, "location": {"lat": 32.77457176956511, "lng": 120.66520704181491}, "feature": {"sight_features": "", "sight_content": ""}}, {"title": "南沈灶劳动人民纪念堂", "address": "头富公路东50米", "image": "", "rank": 50, "time": 2, "location": {"lat": 32.73229288364982, "lng": 120.56106055882003}, "feature": {"sight_features": "", "sight_content": ""}}, {"title": "贝美嘉儿童乐园", "address": "江苏省盐城市东台市海陵南路", "image": "", "rank": 51, "time": 2, "location": {"lat": 32.84805852532334, "lng": 120.32552597339247}, "feature": {"sight_features": "", "sight_content": ""}}, {"title": "江苏省新曹农场河滨公园", "address": "健康路与建新中路交叉口西北50米", "image": "", "rank": 52, "time": 2, "location": {"lat": 34.38072613569415, "lng": 109.21522212022731}, "feature": {"sight_features": "", "sight_content": ""}}, {"title": "上海仙傲亲子游乐园", "address": "鼓楼西路199号1楼", "image": "", "rank": 53, "time": 2.0, "location": {"lat": 32.85531610897776, "lng": 120.31490817024766}, "feature": {"sight_features": "", "sight_content": ""}}, {"title": "耕乐园", "address": "永丰林农业生态园内", "image": "", "rank": 54, "time": 2, "location": {"lat": 27.324342103714045, "lng": 115.44740243988527}, "feature": {"sight_features": "", "sight_content": ""}}, {"title": "张謇纪念馆", "address": "江苏省盐城市东台市红兰南路", "image": "", "rank": 55, "time": null, "location": {"lat": 32.85270288660078, "lng": 120.32108241984835}, "feature": {"sight_features": "", "sight_content": ""}}, {"title": "五烈镇人口文化园", "address": "廉广线附近", "image": "", "rank": 56, "time": 2, "location": {"lat": 32.890531935469895, "lng": 120.25083797691866}, "feature": {"sight_features": "", "sight_content": ""}}, {"title": "阳光娱乐休闲广场", "address": "江苏省盐城市东台市X309号(富新线)", "image": "", "rank": 57, "time": 2, "location": {"lat": 32.872716312488244, "lng": 120.32653706475246}, "feature": {"sight_features": "", "sight_content": ""}}, {"title": "法治广场", "address": "政府南路南50米", "image": "", "rank": 58, "time": null, "location": {"lat": 22.87083878821925, "lng": 114.34276882073797}, "feature": {"sight_features": "", "sight_content": ""}}, {"title": "倾城演艺吧", "address": "宁树路与西环路交叉口西南150米", "image": "", "rank": 59, "time": 2, "location": {"lat": 31.909199228140412, "lng": 121.30903625505988}, "feature": {"sight_features": "", "sight_content": ""}}, {"title": "悦情游乐场", "address": "江苏省盐城市东台市北环路", "image": "", "rank": 60, "time": 2, "location": {"lat": 32.68936237457014, "lng": 120.48370813610191}, "feature": {"sight_features": "", "sight_content": ""}}]}