{"cityName": "东营", "days": "", "cityImage": "", "spots": [{"title": "黄河口生态旅游区", "address": "东营市垦利区黄河三角洲自然保护区大汶流管理站", "image": "", "rank": 1, "time": 3.0, "location": {"lat": 38.023868579074524, "lng": 118.87416489080024}, "feature": {"sight_features": "特色1 回归自然、进行科考、度假、观鸟、猎奇的理想场所", "sight_content": "黄河口湿地生态旅游区位于黄河入海口处，该旅游区位于黄河三角洲国家自然保护区和国家级森林公园内，以独有的黄河口湿地生态景观而闻名。"}}, {"title": "东营红色刘集旅游景区", "address": "东营市广饶县大王镇刘集后村", "image": "", "rank": 2, "time": 2, "location": {"lat": 36.9724556340733, "lng": 118.52845210421748}, "feature": {"sight_features": "", "sight_content": ""}}, {"title": "天鹅湖", "address": "东营市东营南二路东首", "image": "", "rank": 3, "time": 3.5, "location": {"lat": 37.38773768626907, "lng": 118.79635159962668}, "feature": {"sight_features": "", "sight_content": ""}}, {"title": "孙子文化旅游区", "address": "东营市广饶县城东新区中心（乐安大街1678号）", "image": "", "rank": 4, "time": 3.0, "location": {"lat": 37.05631318780117, "lng": 118.4705742811079}, "feature": {"sight_features": "", "sight_content": ""}}, {"title": "清风湖公园", "address": "东营市东营区胜利大街中段", "image": "", "rank": 5, "time": 1.0, "location": {"lat": 37.45484732016579, "lng": 118.58846268606544}, "feature": {"sight_features": "", "sight_content": ""}}, {"title": "东营河口宾馆温泉", "address": "东营市河口区海宁路285号", "image": "", "rank": 6, "time": 3.0, "location": {"lat": 37.8889054321219, "lng": 118.52175171707961}, "feature": {"sight_features": "", "sight_content": ""}}, {"title": "东营森林乐园", "address": "东营市西城区与东城区交界处，西一路与东青高速之间", "image": "", "rank": 7, "time": 2.5, "location": {"lat": 37.4536776926994, "lng": 118.55715724928025}, "feature": {"sight_features": "", "sight_content": ""}}, {"title": "孙子文化园", "address": "东营市广饶县乐安大街1678号", "image": "", "rank": 8, "time": 2, "location": {"lat": 37.05631318780117, "lng": 118.4705742811079}, "feature": {"sight_features": "特色1 集中展示孙子文化的精品板块 特色2 采用动静结合的手法实现文化与项目有效结合", "sight_content": "孙子文化园位于广饶县城东新区，被列入黄河三角洲高效生态经济区及山东半岛蓝色经济区“四个一批”重点调度推进项目，规划总面积1600亩，总建筑面积8万平方米，投资16个亿，于2011年6月开工建设文化园。坚持“以人为本、生态和谐、突出特色、文化融合”的规划设计理念，按照“一轴、两带、六分区”规划布局，依据AAAAA级景区标准进行开发建设。孙子文化博大精深，影响深远，是世界文化瑰宝。孙子文化园，依托孙武湖而建，充分结合周边环境，注重对和谐之美、生态之美的塑造，是集中展示孙子文化的精品板块，也是传承和弘扬孙子文化的基地。\n孙子文化园荣获2012年山东文化旅游景区；2012年环境教育基地等荣誉称号，是AAAA级旅游景区。\n景区风光1、兵圣天下（外广场）：孙子文化公园的大门，是用十三块巨石堆砌成一个汉字“兵”字，用来提示我们的公园，是以《孙子兵法》军事谋略思想为主题的，十三块巨石，暗指《孙子兵法》十三篇；巨石上方镶嵌的地球仪，寓意《孙子兵法》和孙子文化的影响已经波及全世界。“兵”字形大门气势恢宏，大门前方的广场上，是一尊以“势”命名的大型雕塑。“势”是《孙子兵法》十三篇的主要军事谋略思想之一，其中的第五篇《势篇》，就是专门讲“势”。大型雕塑“势”，采用的是世界著名的“麦比乌斯环”的造型。讲关于战争中交战双方“势”的变化。\n景区风光2、儿童乐园－智乐童趣（儿童游乐区）：是兵圣文化传播的基础教育园地，采用卡通城堡的形式渲染和谐、浪漫、欢快的和平氛围，设置旋转木马、飓风飞椅、桑巴气球、泡泡球城、儿童4D影院、爬山车、青蛙骑士、小兵训练营、超级碰撞、水上转转杯、反斗转盘等多种儿童项目及各种儿童摊位游戏、电子游戏等，全方位为游客提供其乐无穷的游乐体验。\n景区风光3、兵圣遗迹（西部景观带）：包括悟园、垂钓园、观象台、弈园、行军桥、九变桥、中山广场、军争桥、梅园、虚实桥、兵势桥、乐安园、军形桥、恩泽园。\n其他游乐项目\n\n飞行岛，站在园区制高点，伴着美妙的音乐，将园区景色尽收眼底，欣赏游乐设备的紧张刺激，远眺孙武湖水天一色的秀丽风光，感受时尚与自然的完美结合。\n波浪翻滚，又名“同舟共济”，瞬间提升、跌落、停止，加上360°的疯狂翻滚，音乐喷泉水幕同现，让你真正体会在惊涛骇浪中同舟共济，乘风破浪的顶级刺激。\nXD影院是集人工智能，动感座椅平台，立体成像数字内容，实景特效等高科技技术和唯美艺术于一体的新一代多媒体互动娱乐体验项目。\n旋转的士高：超级酷炫的摩托车座式座椅，激情动感的音乐，起伏飞旋之时，让您目眩神迷，天旋地转之间，带给您惊险万分的空中之旅~\n孙武传奇：顶尖的科技含量，华丽的视觉盛宴，孙武传奇集古今之博采，融华夏之文明，带您领略万世兵圣叱咤风云、鏖战沙场的壮丽场景~\n小火车：仿古火车古朴典雅，40分钟的环园之旅，带您欣赏盎然的田园风光，带您领略古镇的古韵流淌，去邂逅诗和远方。\n\n古代兵器馆：陈列古代不同时期不同兵种使用的各种兵器，并以现代手段复原制造过程，互动体验，寓教于乐，直观展现古代兵器演变史，在互动中学习和体验古代兵家文化的博大\n春秋古镇：春秋古镇按照春秋时期乐安古城的空间特点和生活风俗，复原的傍水民居群落，以体验式商业为主要内容，复原2500年前的民俗风情，充分展示古乐安城乐业安居的繁荣景象。"}}, {"title": "胜利电视观光塔", "address": "东营市西城西四路395号", "image": "", "rank": 9, "time": 1.0, "location": {"lat": 37.495204721865484, "lng": 118.5027596692249}, "feature": {"sight_features": "", "sight_content": ""}}, {"title": "水云轩SPA国际温泉会馆", "address": "东营市东城区庐山路1099号蓝海国际大饭店", "image": "", "rank": 10, "time": 2, "location": {"lat": 37.45282646270115, "lng": 118.58005907574844}, "feature": {"sight_features": "", "sight_content": ""}}, {"title": "孙武湖度假酒店温泉", "address": "东营市广饶县城东新区", "image": "", "rank": 11, "time": 2, "location": {"lat": 37.059638498906146, "lng": 118.41349864392043}, "feature": {"sight_features": "", "sight_content": ""}}, {"title": "东营孙武祠", "address": "东营市广饶县月河路270号", "image": "", "rank": 12, "time": 3.0, "location": {"lat": 37.06381137109993, "lng": 118.41199853210863}, "feature": {"sight_features": "", "sight_content": ""}}, {"title": "胜利油田科技展览中心", "address": "东营市东营区济南路67号 ‎", "image": "", "rank": 13, "time": 1.0, "location": {"lat": 37.468352198653285, "lng": 118.49985308586595}, "feature": {"sight_features": "", "sight_content": ""}}, {"title": "万象滑雪场", "address": "东营市东营区宁阳路与天目山路交叉口区政府东侧", "image": "", "rank": 14, "time": 2.5, "location": {"lat": 37.45429088631552, "lng": 118.60378971391405}, "feature": {"sight_features": "", "sight_content": ""}}, {"title": "东营历史博物馆", "address": "东营市广饶县月河路270号", "image": "", "rank": 15, "time": 3.0, "location": {"lat": 37.06381137109993, "lng": 118.41199853210863}, "feature": {"sight_features": "", "sight_content": ""}}, {"title": "新世纪广场", "address": "", "image": "", "rank": 16, "time": 1.0, "location": {"lat": 40.00895359221029, "lng": 119.7676452434602}, "feature": {"sight_features": "", "sight_content": ""}}, {"title": "东营园博园", "address": "东营市垦利区油建稻香村，德州路、东三路、北二路的交叉处。", "image": "", "rank": 17, "time": 0.75, "location": {"lat": 37.450382186640695, "lng": 118.66854758167025}, "feature": {"sight_features": "", "sight_content": ""}}, {"title": "新汇东海岸大酒店温泉", "address": "东营市垦利区垦利现代渔业示范区红光大道6号", "image": "", "rank": 18, "time": 2, "location": {"lat": 37.55378869406591, "lng": 118.92945600815992}, "feature": {"sight_features": "", "sight_content": ""}}, {"title": "蓝海御华水云轩SPA国际温泉会馆", "address": "东营市东城潍河路319号", "image": "", "rank": 19, "time": 2, "location": {"lat": 37.41774799149017, "lng": 118.74724321187168}, "feature": {"sight_features": "", "sight_content": ""}}, {"title": "黄河三角洲动物园", "address": "山东省北部黄河三角洲地区的东营市", "image": "", "rank": 20, "time": 2, "location": {"lat": 37.78426487189526, "lng": 118.8858330556287}, "feature": {"sight_features": "", "sight_content": ""}}, {"title": "东营傅家遗址", "address": "东营市广饶县傅家村", "image": "", "rank": 21, "time": 1.0, "location": {"lat": 36.98866367771153, "lng": 118.55359078865979}, "feature": {"sight_features": "", "sight_content": ""}}, {"title": "天宁寺", "address": "东营市垦利区胜坨镇天宁寺路9号", "image": "", "rank": 22, "time": 1.5, "location": {"lat": 37.554713255377386, "lng": 118.42891495704859}, "feature": {"sight_features": "", "sight_content": ""}}, {"title": "河口生态游乐园", "address": "东营市河口区仙河镇以北", "image": "", "rank": 23, "time": 1.0, "location": {"lat": 37.945093339138914, "lng": 118.86973852633206}, "feature": {"sight_features": "", "sight_content": ""}}, {"title": "万象游乐园", "address": "东营市东营区宁阳路与天目山路交叉口", "image": "", "rank": 24, "time": 4.5, "location": {"lat": 37.45429088631552, "lng": 118.60378971391405}, "feature": {"sight_features": "", "sight_content": ""}}, {"title": "欢乐海洋水上乐园", "address": "东营市广饶县乐安大街1678号", "image": "", "rank": 25, "time": null, "location": {"lat": 37.05631318780117, "lng": 118.4705742811079}, "feature": {"sight_features": "", "sight_content": ""}}, {"title": "东营乐土体验会所", "address": "东营市东营区西四路与淄博路交口胜利电视塔西侧", "image": "", "rank": 26, "time": 3.0, "location": {"lat": 37.473527380833744, "lng": 118.50071601430834}, "feature": {"sight_features": "", "sight_content": ""}}, {"title": "白云御温泉", "address": "东营市东营区北一路188号（近白云饭店）", "image": "", "rank": 27, "time": 2, "location": {"lat": 37.46310454510787, "lng": 118.49504609947182}, "feature": {"sight_features": "", "sight_content": "东营市白云御温泉是一家大型室内温泉浴。\n内设有洗浴间、温泉大厅、各色蒸房、石板浴、体育大厅、台球室、乒乓球室、餐厅等服务设施。"}}, {"title": "龙居桃花岛滑雪场", "address": "东营市东营区南二路西端向南2公里", "image": "", "rank": 28, "time": 2, "location": {"lat": 37.45484732016579, "lng": 118.58846268606544}, "feature": {"sight_features": "", "sight_content": ""}}, {"title": "沐青汤泉", "address": "东营市东营区黄河路宝龙城市广场18号", "image": "", "rank": 29, "time": 2, "location": {"lat": 37.454085493787325, "lng": 118.52101750413883}, "feature": {"sight_features": "特色1 以汗蒸、洗浴为主题的纯绿色健康场所", "sight_content": "沐青汤泉五店沐青汤泉东营店，坐落于东营市黄河路宝龙城市广场1区（1期）18号楼，营业面积近6000平方米，24小时营业，是以汗蒸、洗浴为主题的纯绿色健康场所，是集洗浴、餐饮、儿童乐园、健身、休闲、客房于一体的休闲会所，其经营模式是国内休闲会所中的新亮点。沐青既是年轻人工作之余放松休闲、朋友聚会的不错选择，也是孩子和老人娱乐身心的所在！\n沐青人秉承诚信是金、人和为鼎的经营理念，一切以您为中心，为您营造一个安心、舒心、有幸福感的健康休闲文化环境。"}}, {"title": "黄河大桥", "address": "山东省东营市垦利县城东北侧", "image": "", "rank": 30, "time": 0.75, "location": {"lat": 37.67000675558043, "lng": 118.81442278803439}, "feature": {"sight_features": "", "sight_content": ""}}, {"title": "东营动物园", "address": "中国山东省东营市东营区天目山路", "image": "", "rank": 31, "time": 1.0, "location": {"lat": 37.44603834400965, "lng": 118.60441506570159}, "feature": {"sight_features": "", "sight_content": ""}}, {"title": "体育公园", "address": "东营市东营区西二路与北一路交汇东320米", "image": "", "rank": 32, "time": 1.0, "location": {"lat": 37.46815131780945, "lng": 118.52561906602894}, "feature": {"sight_features": "", "sight_content": ""}}, {"title": "孤东海堤", "address": "东营市垦利县孤岛镇孤东油田海堤", "image": "", "rank": 33, "time": 2, "location": {"lat": 37.85958085747122, "lng": 118.77991132152228}, "feature": {"sight_features": "", "sight_content": ""}}, {"title": "串串红农家院", "address": "东营市垦利区", "image": "", "rank": 34, "time": 2, "location": {"lat": 37.57855513380944, "lng": 118.58143173866941}, "feature": {"sight_features": "", "sight_content": ""}}, {"title": "趣味大闯关", "address": "东城沂州路步行街(清风湖北门)", "image": "", "rank": 35, "time": 2, "location": {"lat": 39.93482727239599, "lng": 116.4224009776628}, "feature": {"sight_features": "", "sight_content": ""}}, {"title": "揽翠湖温泉高尔夫俱乐部", "address": "东营市东营区西城南二路揽翠湖旅游景区", "image": "", "rank": 36, "time": 2, "location": {"lat": 37.41148280572774, "lng": 118.5331907942403}, "feature": {"sight_features": "", "sight_content": ""}}, {"title": "黄河口渔家风情旅游区", "address": "东营市垦利区东南部红光渔港内", "image": "", "rank": 37, "time": 2, "location": {"lat": 37.533630593286915, "lng": 118.89254424129712}, "feature": {"sight_features": "", "sight_content": ""}}, {"title": "广饶县博物馆", "address": "月河路270", "image": "", "rank": 38, "time": 2, "location": {"lat": 37.06381137109993, "lng": 118.41199853210863}, "feature": {"sight_features": "", "sight_content": ""}}, {"title": "东营雪莲大剧院", "address": "东营市东营区胜利大街600号", "image": "", "rank": 39, "time": 3.0, "location": {"lat": 37.406786464765865, "lng": 118.68287518866039}, "feature": {"sight_features": "", "sight_content": ""}}, {"title": "红旗美术馆(孙武路展厅)", "address": "孙武路103-17", "image": "", "rank": 40, "time": null, "location": {"lat": 31.25177368999632, "lng": 120.50033540578067}, "feature": {"sight_features": "", "sight_content": ""}}, {"title": "灵湖度假村", "address": "陈官村", "image": "", "rank": 41, "time": 2, "location": {"lat": 32.33152521548952, "lng": 118.68094050477401}, "feature": {"sight_features": "", "sight_content": ""}}, {"title": "月河公园", "address": "月河路240", "image": "", "rank": 42, "time": 2, "location": {"lat": 37.06100458476779, "lng": 118.4116396294133}, "feature": {"sight_features": "", "sight_content": ""}}, {"title": "胜利公园", "address": "宽城区人民大街955号", "image": "", "rank": 43, "time": 1.5, "location": {"lat": 43.94950223980449, "lng": 125.33462450831948}, "feature": {"sight_features": "", "sight_content": ""}}, {"title": "东营盐生植物园", "address": "山东省东营市东营区东三路", "image": "", "rank": 44, "time": 3.0, "location": {"lat": 37.450382186640695, "lng": 118.66854758167025}, "feature": {"sight_features": "", "sight_content": ""}}, {"title": "广饶关帝庙", "address": "山东省,东营市,城西北隅, 257300", "image": "", "rank": 45, "time": 1.5, "location": {"lat": 37.43964182632334, "lng": 118.68138493513693}, "feature": {"sight_features": "", "sight_content": ""}}, {"title": "陶园农业生态园", "address": "山东东营垦利胜坨镇", "image": "", "rank": 46, "time": 2, "location": {"lat": 37.554713255377386, "lng": 118.42891495704859}, "feature": {"sight_features": "", "sight_content": ""}}, {"title": "绿岛庄园", "address": "胜坨镇", "image": "", "rank": 47, "time": 3.0, "location": {"lat": 37.554713255377386, "lng": 118.42891495704859}, "feature": {"sight_features": "", "sight_content": ""}}, {"title": "黄河口海水浴场", "address": "中兴路256号", "image": "", "rank": 48, "time": 2, "location": {"lat": 36.698663319924954, "lng": 114.21645131742919}, "feature": {"sight_features": "", "sight_content": ""}}, {"title": "《黄河口奇缘--天鹅》演出", "address": "东营市胜利大街600号雪莲大剧院（清风湖南）", "image": "", "rank": 49, "time": 2, "location": {"lat": 37.406786464765865, "lng": 118.68287518866039}, "feature": {"sight_features": "", "sight_content": ""}}, {"title": "东沐温泉", "address": "东营市东营区沂州路62号2栋", "image": "", "rank": 50, "time": 2, "location": {"lat": 37.43983186409153, "lng": 118.68810195042313}, "feature": {"sight_features": "", "sight_content": "东沐温泉是集各式养生汤泉、戏水泳池、韩式体验区、黄土房、玉石洞、韩式按摩等为一体的休闲场所。"}}, {"title": "义和镇年丰庄园", "address": "义和镇政府向西588米", "image": "", "rank": 51, "time": 2, "location": {"lat": 37.89393383444666, "lng": 118.35669107008019}, "feature": {"sight_features": "", "sight_content": ""}}, {"title": "逸园生态基地", "address": "牛庄镇辛河路与生产路西北150米处", "image": "", "rank": 52, "time": 2, "location": {"lat": 45.953359553026566, "lng": 128.038959711533}, "feature": {"sight_features": "", "sight_content": ""}}, {"title": "齐飞水上乐园", "address": "大渡河路669号", "image": "", "rank": 53, "time": null, "location": {"lat": 31.23513064895081, "lng": 121.40303728281151}, "feature": {"sight_features": "", "sight_content": ""}}, {"title": "广利河森林湿地公园", "address": "东营市东营区东城街道南二路", "image": "", "rank": 54, "time": 3.0, "location": {"lat": 37.41148280572774, "lng": 118.5331907942403}, "feature": {"sight_features": "", "sight_content": ""}}, {"title": "天心美术馆", "address": "月河路196-2", "image": "", "rank": 55, "time": 2, "location": {"lat": 37.058992974108435, "lng": 118.41076599855907}, "feature": {"sight_features": "", "sight_content": ""}}, {"title": "胜阳垂钓园", "address": "西二路", "image": "", "rank": 56, "time": 2, "location": {"lat": 37.91049739457261, "lng": 114.53367515952611}, "feature": {"sight_features": "", "sight_content": ""}}, {"title": "北京神州荣华书画院", "address": "中乐路241号", "image": "", "rank": 57, "time": 1.0, "location": {"lat": 37.45516806911024, "lng": 118.54501755939806}, "feature": {"sight_features": "", "sight_content": ""}}, {"title": "东营画院", "address": "沂河路163号", "image": "", "rank": 58, "time": 3.0, "location": {"lat": 37.42405743128695, "lng": 118.67135481513472}, "feature": {"sight_features": "", "sight_content": ""}}, {"title": "飞墨艺术馆", "address": "北二路", "image": "", "rank": 59, "time": 2, "location": {"lat": 40.13224759090539, "lng": 117.19930700439404}, "feature": {"sight_features": "", "sight_content": ""}}, {"title": "黄河口湿地博物馆", "address": "沂河路", "image": "", "rank": 60, "time": 2, "location": {"lat": 48.36883196758675, "lng": 134.2979835171273}, "feature": {"sight_features": "", "sight_content": ""}}]}