{"cityName": "东乡族", "days": 2, "cityImage": "", "spots": [{"title": "农家乐饭菜馆", "address": "折达公路附近", "image": "", "rank": 1, "time": 2, "location": {"lat": 35.639248021834014, "lng": 103.26722088883363}, "feature": {"sight_features": "", "sight_content": ""}}, {"title": "盛世旅游度假村", "address": "折达公路刘家峡水库旁", "image": "", "rank": 2, "time": 2, "location": {"lat": 35.85164750646194, "lng": 103.22924203294026}, "feature": {"sight_features": "", "sight_content": ""}}, {"title": "东乡人家农家乐", "address": "环城北路58号", "image": "", "rank": 3, "time": 2, "location": {"lat": 31.394823079042425, "lng": 120.96539658242455}, "feature": {"sight_features": "", "sight_content": ""}}, {"title": "伊哈池拱北", "address": "伊哈池村附近", "image": "", "rank": 4, "time": 2, "location": {"lat": 35.64776346472866, "lng": 103.40089025607499}, "feature": {"sight_features": "", "sight_content": ""}}, {"title": "百和清真老寺", "address": "临夏回族自治州东乡族自治县", "image": "", "rank": 5, "time": 2, "location": {"lat": 35.66932972862377, "lng": 103.3956132043736}, "feature": {"sight_features": "", "sight_content": ""}}, {"title": "五家清真大寺", "address": "甘肃省临夏回族自治州东乡族自治县五家乡人民政府东250米", "image": "", "rank": 6, "time": 2, "location": {"lat": 35.6080268968884, "lng": 103.21906116020567}, "feature": {"sight_features": "", "sight_content": ""}}, {"title": "东塬清真大寺", "address": "甘肃省临夏回族自治州东乡族自治县东塬乡中国邮政东北150米", "image": "", "rank": 7, "time": 2, "location": {"lat": 35.59837567607575, "lng": 103.20763747640821}, "feature": {"sight_features": "", "sight_content": ""}}, {"title": "锁南清真大寺", "address": "甘肃省临夏回族自治州东乡族自治县纳让路族自治县锁南镇政府", "image": "", "rank": 8, "time": 2, "location": {"lat": 35.67035111184181, "lng": 103.40196232081978}, "feature": {"sight_features": "", "sight_content": ""}}, {"title": "汪家清真大寺", "address": "甘肃省临夏回族自治州东乡族自治县唐汪镇汪家上寺(唐汪镇政府西北200米)", "image": "", "rank": 9, "time": 2, "location": {"lat": 35.80096238898959, "lng": 103.54724086655659}, "feature": {"sight_features": "", "sight_content": ""}}, {"title": "东乡族自治县图书馆", "address": "锁南镇东西大街71号", "image": "", "rank": 10, "time": 2, "location": {"lat": 35.67034602753653, "lng": 103.39760788816528}, "feature": {"sight_features": "", "sight_content": ""}}, {"title": "马场农家乐", "address": "213国道附近", "image": "", "rank": 11, "time": 2, "location": {"lat": 24.055864840380938, "lng": 102.20969505158318}, "feature": {"sight_features": "", "sight_content": ""}}, {"title": "杏满园生态园", "address": "唐汪镇", "image": "", "rank": 12, "time": 2, "location": {"lat": 35.832685858985585, "lng": 103.50927045922656}, "feature": {"sight_features": "", "sight_content": ""}}]}