{"cityName": "东方", "days": "", "cityImage": "", "spots": [{"title": "鱼鳞洲风景区", "address": "东方市八所镇西南海滨", "image": "", "rank": 1, "time": 1.5, "location": {"lat": 19.10110473128863, "lng": 108.65856652679174}, "feature": {"sight_features": "", "sight_content": ""}}, {"title": "大田坡鹿保护区", "address": "东方市大田坡鹿保护区（离市区20公里处）", "image": "", "rank": 2, "time": 2.0, "location": {"lat": 19.10110473128863, "lng": 108.65856652679174}, "feature": {"sight_features": "", "sight_content": ""}}, {"title": "白查村船形茅草屋", "address": "东方市白查村", "image": "", "rank": 3, "time": 1.0, "location": {"lat": 18.90908552031893, "lng": 108.95186611973791}, "feature": {"sight_features": "", "sight_content": ""}}, {"title": "俄贤岭", "address": "东方市广坝乡境内", "image": "", "rank": 4, "time": 4.0, "location": {"lat": 19.034770373018954, "lng": 108.99931961942266}, "feature": {"sight_features": "", "sight_content": ""}}, {"title": "汉马伏波井", "address": "东方市八所镇十所村富民路", "image": "", "rank": 5, "time": 2, "location": {"lat": 19.064544738216732, "lng": 108.65919538376718}, "feature": {"sight_features": "", "sight_content": ""}}, {"title": "白查村", "address": "海南省东方市江边乡", "image": "", "rank": 6, "time": 1.0, "location": {"lat": 18.900630049160398, "lng": 108.98321942990829}, "feature": {"sight_features": "", "sight_content": ""}}, {"title": "铁路博物馆", "address": "海南省东方市八所镇滨海西路", "image": "", "rank": 7, "time": null, "location": {"lat": 19.10110473128863, "lng": 108.65856652679174}, "feature": {"sight_features": "", "sight_content": ""}}, {"title": "牧歌高尔夫球会", "address": "高坡岭旅游渡假区", "image": "", "rank": 8, "time": 2, "location": {"lat": 39.72945360178938, "lng": 119.35307419546834}, "feature": {"sight_features": "", "sight_content": ""}}, {"title": "新街镇报英农场", "address": "029乡道附近", "image": "", "rank": 9, "time": 2, "location": {"lat": 31.686081170072438, "lng": 118.75696665396602}, "feature": {"sight_features": "", "sight_content": ""}}, {"title": "双龙农场", "address": "新龙镇龙北村", "image": "", "rank": 10, "time": 2, "location": {"lat": 18.95570658405785, "lng": 108.70171440864314}, "feature": {"sight_features": "", "sight_content": ""}}, {"title": "东方市图书馆", "address": "解放西路29号", "image": "", "rank": 11, "time": 1.5, "location": {"lat": 38.31057783085637, "lng": 116.85151783672669}, "feature": {"sight_features": "", "sight_content": ""}}, {"title": "白石岭", "address": "海南省琼海市市西南12公里 571400", "image": "", "rank": 12, "time": 3.0, "location": {"lat": 19.161842922922986, "lng": 110.4805445259504}, "feature": {"sight_features": "", "sight_content": ""}}, {"title": "天南货仓", "address": "永安西路与永安西路一巷交叉口西北100米", "image": "", "rank": 13, "time": 2, "location": {"lat": 40.21610010009476, "lng": 116.23762151502399}, "feature": {"sight_features": "", "sight_content": ""}}, {"title": "东方市城建档案室", "address": "东港路", "image": "", "rank": 14, "time": 1.5, "location": {"lat": 31.267624379934077, "lng": 121.22364083060222}, "feature": {"sight_features": "", "sight_content": ""}}, {"title": "鳄鱼漆", "address": "琼西路124附近", "image": "", "rank": 15, "time": 2, "location": {"lat": 19.128873220861063, "lng": 108.67432789523058}, "feature": {"sight_features": "", "sight_content": ""}}, {"title": "奇石馆", "address": "解放西路52号附近", "image": "", "rank": 16, "time": null, "location": {"lat": 38.309792142320795, "lng": 116.84214491703557}, "feature": {"sight_features": "", "sight_content": ""}}, {"title": "东方市东方女人街", "address": "海南省东方市东海路", "image": "", "rank": 17, "time": 1.5, "location": {"lat": 19.109163734215414, "lng": 108.66277474046038}, "feature": {"sight_features": "", "sight_content": ""}}, {"title": "东方市基督教会八所堂", "address": "东方市-东方市-八所镇利民路基督教会八所堂", "image": "", "rank": 18, "time": 1.5, "location": {"lat": 19.096819330779947, "lng": 108.65553890754599}, "feature": {"sight_features": "", "sight_content": ""}}, {"title": "大广坝水库旅游区", "address": "海南省东方市314省道附近", "image": "", "rank": 19, "time": 2, "location": {"lat": 18.949163265942275, "lng": 108.95211399277042}, "feature": {"sight_features": "", "sight_content": ""}}]}