{"cityName": "东源", "days": 2, "cityImage": "", "spots": [{"title": "新丰江国家森林公园桂山风景区", "address": "河源市东源县桂山大道18公里处", "image": "", "rank": 1, "time": 3.0, "location": {"lat": 23.79425787311432, "lng": 114.75350832520412}, "feature": {"sight_features": "特色1 都市人休闲度假的“世外桃源”", "sight_content": "新丰江国家森林公园桂山风景区是国家AAAA级景区，背靠河源第一高峰——桂山，面对华面最大的人工湖——万绿湖。风景区依山面湖，山环水抱，自然风光独厚。桂山风景区总面积达8平方公里，桂山主峰好汉顶海拨1056.2米，山体俊秀，层峰叠峦。景区内有瀑布20多个，各具特色，气势磅礴，美不胜收。桂山风景区树木终年常绿，四季花开果熟，素有“植物王国，动物乐园、旅游天堂”之称，与鼎湖山、西双版纳并称为北回归线上“沙漠带的东三奇”。这里有北回归线上广东最大也是世界上少有的原始次生常绿阔叶林，有131种走兽和112种飞禽、植物52个科目。良好的绿色生态，酿造了负离子含量成倍于都市的清新空气，被誉为天然“大氧吧”，是都市人休闲度假的“世外桃源”。桂山顶峰上长有3000亩的野生杜鹃花，每年四、五月间花开斗妍争艳，红遍满山，令人叹为观止。景区内花果山里近百种佳果，一年四季，尽可尝遍酸甜苦涩。\n\n景区内有一条18公里石峡清溪贯穿其中，溪中流水清澈，怪石千姿百怪，造形各异的亭台楼阁点缀其间。花、果、山、林、石、溪、藤、瀑形成八大特色，那“世外桃源”般的仙境让人流连忘返。景区内旅游服务配套设施如“休闲居”、“别墅区”，拥有上百间豪华舒适的三星级标准客房，依山而建，掩映在鸟语花香的葱郁山脚下，宁静清幽，内设多功能会议室、歌舞厅。富有农家特色的“清心阁”餐厅，客家风味，优雅舒适。桂山风景区距河源市区仅18公里，毗邻珠江三角洲，游客往返十分便利。\n\n桂山风景区的刺激开心娱乐区主要向游客提供丰富、刺激好玩的娱乐项目。在这里您可以挑战极限、享受激情，激情狂漂的漂流、高空速降的空中飞人等，让您玩得痛快、玩得开心、玩得刺激！"}}, {"title": "镜花缘", "address": "河源市东源县新港镇万绿湖旅游码头", "image": "", "rank": 2, "time": 2, "location": {"lat": 23.784600295773625, "lng": 114.63557267570386}, "feature": {"sight_features": "特色1 自然生态、园林、森林、奇石异洞", "sight_content": "‍‍广东河源镜花缘旅游区，有着得天独厚的地理位置，美景如画的自然风光，深厚的文化底蕴和精彩纷呈的游玩参与项目。是一个集观光娱乐、休闲度假、登山健身、团队拓展于一体的国家AAAA级旅游区。‍‍\n‍‍得天独厚的地理位置：景区背靠“华南第一湖”之称的万绿湖，面朝万绿湖最宽阔的湖面（达12公里），三面环水，整个景区处于原始次生森林之中，树大林密、花繁草丰，石奇水幽。美景如画的自然风光：景区依山傍水，湖光山色相交辉映，山青水绿，水天一色，蓝绿无垠。登山远眺，景象万千，既有大海磅礴的气势，又有湖面平如镜、绿树繁华相拥簇的美景，万绿湖无限风光尽收眼底。漫步于湖边、山顶、林间小道、听鸟语闻花香，享受天然氧吧，犹如穿行于万千画卷中，处处好像都有琼台玉洞，金殿瑶池，如此镜花水月般的人间仙境，每游玩一次都是人生的极品享受。"}}, {"title": "苏家围", "address": "河源市东源县义合镇苏围村", "image": "", "rank": 3, "time": 4.0, "location": {"lat": 23.84766518446, "lng": 114.89456097497867}, "feature": {"sight_features": "特色1 宋代大文豪苏东坡的后裔居住地", "sight_content": "苏家围位于河源市东源县义合镇苏围村，距离河源市区26公里，至今有800年的历史。由18座明清时期“府第式”的客家民居组成，其中有500多年的历史古老房子。苏家围是宋代大文豪苏东坡的后裔居住地，只要您置身其中，就会被它的古老、深沉、淳朴所吸引，苏家围人秉承了祖先的传统文化，将其交汇于岭南的天地中，至今都让人感受到浓浓的文化气息。\n\n地道的客家文化浓缩在这个小村庄里，八百多年的历史文化沉淀、纯朴的乡村风貌、原汁原味的客家美食“九大簋”菜肴、18座明清时期的“府第式”的客家民居、乡村性别男女、乡村农家乐、农耕农事长廊，让您体会的是客家的纯朴与自然。东江与久社河交汇于苏家围旁，营造了苏家围宁静、悠然的意境，古榕、老屋、江风、竹韵、牧歌和野趣，造就了一个南中国的画里乡村。苏家围客家乡村旅游区屡获殊荣，是“全国农业旅游示范点”、“广东省旅游扶贫示范单位”、“广东省古村落”、“广东省旅游特色村”、“承诺诚信单位”、“文明旅游区”，于2013年1月被国家旅游局评定为国家AAAA级旅游景区。"}}, {"title": "河源叶园温泉", "address": "河源市东源县黄田镇", "image": "", "rank": 4, "time": 3.0, "location": {"lat": 23.840339978799296, "lng": 115.00083250562237}, "feature": {"sight_features": "特色1 边泡温泉边听客家山歌 特色2 远离城市的喧嚣，寻找专属安逸 特色3 享受客家风，多个功能各异的露天温泉池", "sight_content": "叶园温泉度假酒店是由深圳市大田洋实业有限公司投资兴建，是一所集休闲度假、娱乐健身、观光旅游、商务会议于一体的综合型4A级旅游景区，总占地面积680余亩。 群山环绕酒店环境优雅，空气清新，鸟语花香，位于河源市东源县黄田镇。叶园温泉度假酒店交通极为便利，距河源市区30分钟车程；距惠州80分钟车程；距广州及深圳2小时车程，离梅河高速5公里，县级公路经门而过。这将是河源高端休闲、度假、娱乐的胜地。\n叶园温泉度假酒店的热水占地面积约3000平方米，有38处泉眼，水温常年保持在63摄氏度左右，日流量达600多吨，温泉主要含有多种有益人体的微量元素，属重碳酸钙低矿化水，对皮肤具有防病治病等保健作用。叶园温泉池区室内外温泉共60多个功能各异的露天温泉池。叶园温泉主要打造具有品味特色的客家文化、以寻找客家文化根源为主题。在此基础上我们根据游客的需求精心推出了动、静spa水疗区、山洞文化、旋涡池、冲浪池、客家围、儿童游乐区、别墅温泉区、游泳池等项目。温泉区还配有休息大厅、健身房、桌球室、乒乓球室、网吧、按摩室等功能。\n叶园温泉度假酒店群山环绕，空气清新，负氧离子含量极高，是名副其实的自然氧吧，清晨白雾笼罩，整个景区沉浸在乳白色的浓雾里，使游客仿佛在腾云驾雾，就像走进了美丽而又神秘的人间仙境。水墨画中景，美若仙境游，亲临叶园温泉，在山雾缭绕的仙境中尽享奢华养生！"}}, {"title": "万绿谷", "address": "河源市东源县回龙镇东星村万绿湖畔", "image": "", "rank": 5, "time": 5.0, "location": {"lat": 23.731851934437504, "lng": 114.51503551907466}, "feature": {"sight_features": "特色1 原生态自然渔村", "sight_content": "‍\n‍‍‍万绿谷休闲度假旅游区（简称“万绿谷”），位于河源市东源县新回龙镇东星村，该村被誉为“万绿湖环湖公路上第一个原生态自然渔村”。这里背倚巍峨雄壮、钟灵毓秀的南山（万绿湖第一高山，海拔‍‍约1001米），面朝水域壮美、清莹碧‍‍‍‍绿的万绿湖，拥有尘封了半个世纪旷世胜景与完好的原生态社会风貌保。\n\n\n‍\n‍‍万绿谷总占地面积约3万亩，由两个建在不同区域的景点组成，一是在原生态自然渔村上建设而成的叶屋坪度假区；另一个是基于国家森林公园的基础上打造的原生态体验区，是一个集客家文化、渔家水乡风情、客家美食、休闲度假体验于一体的旅游度假胜地。"}}, {"title": "东江画廊", "address": "河源市东源县木京水电站旁", "image": "", "rank": 6, "time": 1.0, "location": {"lat": 23.791046091384295, "lng": 114.76291529067097}, "feature": {"sight_features": "", "sight_content": ""}}, {"title": "河源万绿谷空中漂流", "address": "河源市东源县回龙镇东星村", "image": "", "rank": 7, "time": 2, "location": {"lat": 23.731851934437504, "lng": 114.51503551907466}, "feature": {"sight_features": "特色1 万绿谷空中漂流被誉为中国漂流的世纪杰作，刺激绝伦，巅峰体验。 特色2 河源区域连续四年接待量最大漂流景区；前卫的国际漂流航道设计理念，最刺激的“空中漂”落差80米，落差长度300多米，全程3.5公里，约90分钟。 特色3 万绿谷地处新丰江国家森林公园腹地，频临万绿湖畔，生态资源丰富，风光秀丽。", "sight_content": "万绿谷空中漂流位于中国优秀旅游城市河源，毗邻全国著名风景区万绿湖，距惠河高速公路市区出口26公里，广州180公里，深圳190公里，东莞170公里，交通极为便利，地理位置得天独厚。万绿谷空中漂流凭借天子山山脉延绵起伏，水源充沛的资源优势，前卫的国际漂流航道设计理念，打造出一条宛如高铁飞舟，刺激绝伦的漂流，被誉为中国漂流的世纪杰作。漂流全程3.5公里，约90分钟，最刺激的“空中漂”落差80米，落差长度300多米，漂流沿途集瀑布、碧潭、奇石、密林、珍稀植物于一体，尘封千年的旷世胜景叹为观止，奇峰耸立、悬崖对峙、滩多水急，浪遏飞舟，有惊无险，巅峰体验。"}}, {"title": "黄龙岩畲族风情旅游区", "address": "河源市东源县漳溪畲族乡上篮村黄龙岩", "image": "", "rank": 8, "time": 4.0, "location": {"lat": 24.065945686716617, "lng": 114.93236554072621}, "feature": {"sight_features": "特色1 广东省最美的溶洞之一", "sight_content": "黄龙岩畲族风情旅游区位于广东省河源市东源县漳溪畲族乡，是一个领略民族风情、观赏溶洞美景的最佳去处。畲族人自称为“山哈”，是广东所有民族中最接近自然的民族之一，漳溪畲族乡是广东省唯一的一个畲族乡，畲族人口近6000人均为蓝姓，是“广东畲族中心”，这里的畲族人民淳朴善良，畲族风情独特自然，每年农历四月初九的“招兵节”是当地畲族最为盛大的节日。畲族歌舞表演和畲族生产生活文化展将给您一种零距离体验少数民族风情的机会。\n漳溪乡蓝姓畲族的发祥地之一的黄龙岩是一个喀斯特溶洞，直入深达60米，实属国内溶洞之罕见，洞内面积3900多平方米，以“深、幽、奇、险”著称，洞内石钟乳基本上没有受到破坏各式石钟乳形似瑞狮迎宾、群猴候桃、无底酒壶、水帘仙洞、天宫胜景等，在灯光的照饰下，五彩缤纷，具有极高的观赏性。\n黄龙岩下面的狮湖碧波荡漾、水草青青，每年七月至十二月，更有一大群白鹭栖息于此，数量有五、六百之多，在绿水青山间形成一道“碧水青草白鹭洲”的诗意景象。"}}, {"title": "云溪温泉", "address": "河源市东源县康禾镇若坝村，近康禾乡政府", "image": "", "rank": 9, "time": 2, "location": {"lat": 23.78401495314311, "lng": 115.08918504399303}, "feature": {"sight_features": "", "sight_content": "云溪度假村位于河源市东源县康禾镇若坝村，是按精品温泉度假酒店标准设计装饰配置的一家住宿餐饮、休闲娱乐养生一体的综合性度假酒店。康泉温泉出口温度83度，属于偏硅酸温泉。温泉中含有有益人体健康的微量元素，易被人体吸收，能有效地维持人体的电解质平衡和生理机能。特别是偏硅酸对人体心血管、骨骼生长等具有保健功能。\n云溪温泉温泉源头来自康禾自然保护区，由天然泉眼直接引入，每天自然喷涌出的温泉水量可达13000多立方，平均水温83度，可以煮熟鸡蛋。温泉水富含偏硅酸和氢等矿物质离子，具备很高的医用价值。"}}, {"title": "万绿湖美思威尔顿酒店汤泉", "address": "河源市东源县新港镇港建路9号", "image": "", "rank": 10, "time": 2, "location": {"lat": 23.791185796838413, "lng": 114.64528038756718}, "feature": {"sight_features": "", "sight_content": "万绿湖美思威尔顿酒店汤泉内的温泉面积达13000平方米，有30多个不同内容的露天泡池，如中药池、情侣池、清水池、鱼疗池、儿童池、石板泉等，还有干蒸、湿蒸房。"}}, {"title": "康禾新田汤池温泉", "address": "康禾镇若坝新田村", "image": "", "rank": 11, "time": 2, "location": {"lat": 23.79107142338371, "lng": 115.10870873060142}, "feature": {"sight_features": "", "sight_content": ""}}, {"title": "绿溪原生态温泉山庄", "address": "黄田镇绿溪村", "image": "", "rank": 12, "time": 2, "location": {"lat": 28.078059781677613, "lng": 120.69287810888898}, "feature": {"sight_features": "", "sight_content": ""}}, {"title": "万怡生态农庄", "address": "404乡道附近", "image": "", "rank": 13, "time": 2, "location": {"lat": 40.07372236088606, "lng": 116.40287513960627}, "feature": {"sight_features": "", "sight_content": ""}}, {"title": "黄坑百果园", "address": "336乡道附近", "image": "", "rank": 14, "time": 2, "location": {"lat": 27.225699643440635, "lng": 112.8865482166315}, "feature": {"sight_features": "", "sight_content": ""}}, {"title": "云溪温泉", "address": "康禾镇若坝村云溪度假村", "image": "", "rank": 15, "time": 2, "location": {"lat": 29.479907141132852, "lng": 113.27840659691188}, "feature": {"sight_features": "", "sight_content": ""}}, {"title": "亲加友采摘园", "address": "南山村六角坑", "image": "", "rank": 16, "time": 2, "location": {"lat": 23.729640279874204, "lng": 114.47997735174494}, "feature": {"sight_features": "", "sight_content": ""}}, {"title": "奇松岛", "address": "广东省东源县万绿湖 517500", "image": "", "rank": 17, "time": 2, "location": {"lat": 23.784600295773625, "lng": 114.63557267570386}, "feature": {"sight_features": "", "sight_content": ""}}, {"title": "叶园温泉度假酒店分公司", "address": "广东省东源县黄田镇良田村", "image": "", "rank": 18, "time": 2, "location": {"lat": 23.836034674505026, "lng": 114.98347546542873}, "feature": {"sight_features": "", "sight_content": ""}}, {"title": "基督教安息日会", "address": "205国道南50米", "image": "", "rank": 19, "time": 2, "location": {"lat": 37.34030360479447, "lng": 118.07089300716441}, "feature": {"sight_features": "", "sight_content": ""}}, {"title": "苏家围景区-河源市义江古寺", "address": "东坡广场附近", "image": "", "rank": 20, "time": 2, "location": {"lat": 30.07876179170757, "lng": 103.85657607173282}, "feature": {"sight_features": "", "sight_content": ""}}, {"title": "黄村基督教福音堂", "address": "广东省河源市东源县黄村镇黄村大桥益生大楼附近", "image": "", "rank": 21, "time": 2, "location": {"lat": 23.83383018872632, "lng": 115.23008805403579}, "feature": {"sight_features": "", "sight_content": ""}}, {"title": "童话主题乐园", "address": "广东省河源市东源县灯塔镇镇东路千百购物中心东南150米", "image": "", "rank": 22, "time": null, "location": {"lat": 24.017491689380847, "lng": 114.80151328655653}, "feature": {"sight_features": "", "sight_content": ""}}, {"title": "河源万绿盆地农业大观园(优食农...", "address": "广东省河源市东源县骆湖镇神前村", "image": "", "rank": 23, "time": 2, "location": {"lat": 24.06377151430361, "lng": 114.86983321770518}, "feature": {"sight_features": "", "sight_content": ""}}, {"title": "禾溪福音堂", "address": "河源市东源县", "image": "", "rank": 24, "time": 2, "location": {"lat": 23.79425787311432, "lng": 114.75350832520412}, "feature": {"sight_features": "", "sight_content": ""}}, {"title": "金沟山庄", "address": "154县道051乡道路口附近", "image": "", "rank": 25, "time": 2, "location": {"lat": 23.8393811410564, "lng": 114.84323611002195}, "feature": {"sight_features": "", "sight_content": ""}}, {"title": "新回龙镇文化广场", "address": "广东省河源市东源县万绿湖风景区新回龙镇人民政府", "image": "", "rank": 26, "time": 2, "location": {"lat": 23.781119928846554, "lng": 114.63784176038739}, "feature": {"sight_features": "", "sight_content": ""}}, {"title": "黎顺村文化广场", "address": "广东省河源市东源县康禾镇黎顺村文化站北150米", "image": "", "rank": 27, "time": 2, "location": {"lat": 24.112423038400586, "lng": 115.25707512781872}, "feature": {"sight_features": "", "sight_content": ""}}, {"title": "渔家乐", "address": "锡场镇厚洞村", "image": "", "rank": 28, "time": 2, "location": {"lat": 23.88710398519583, "lng": 114.4462381035137}, "feature": {"sight_features": "", "sight_content": ""}}, {"title": "涧头文化广场", "address": "河源市东源县涧头街152号", "image": "", "rank": 29, "time": 2, "location": {"lat": 24.058474162203165, "lng": 114.70989106614765}, "feature": {"sight_features": "", "sight_content": ""}}, {"title": "林石村文化广场", "address": "广东省河源市东源县锡场镇林石希望小学西北100米", "image": "", "rank": 30, "time": 2, "location": {"lat": 23.994093492943787, "lng": 114.4335763966259}, "feature": {"sight_features": "", "sight_content": ""}}, {"title": "曾田福音堂", "address": "205国道附近", "image": "", "rank": 31, "time": 2, "location": {"lat": 37.34066223973322, "lng": 118.07089300716441}, "feature": {"sight_features": "", "sight_content": ""}}, {"title": "福寿园", "address": "广东省河源市东源县仙塘镇赤径长深高速公路南450米", "image": "", "rank": 32, "time": 2, "location": {"lat": 23.84743604273353, "lng": 114.79631458955495}, "feature": {"sight_features": "", "sight_content": ""}}, {"title": "天崇观", "address": "362乡道附近", "image": "", "rank": 33, "time": 2, "location": {"lat": 38.843283149435536, "lng": 100.48422992959767}, "feature": {"sight_features": "", "sight_content": ""}}, {"title": "新港镇全民健身广场", "address": "广东省河源市东源县新港镇万绿湖风景区纪律检查委员会", "image": "", "rank": 34, "time": 2, "location": {"lat": 23.780746322484042, "lng": 114.6397135883237}, "feature": {"sight_features": "", "sight_content": ""}}, {"title": "东方红文化广场", "address": "广东省河源市东源县", "image": "", "rank": 35, "time": 2, "location": {"lat": 23.79425787311432, "lng": 114.75350832520412}, "feature": {"sight_features": "", "sight_content": ""}}, {"title": "漳溪畲族文化展馆", "address": "中共漳溪畲族乡委员会旁", "image": "", "rank": 36, "time": 2, "location": {"lat": 24.108787745099292, "lng": 114.9316646755811}, "feature": {"sight_features": "", "sight_content": ""}}, {"title": "东源县展览馆", "address": "建设二路", "image": "", "rank": 37, "time": 2, "location": {"lat": 30.206033158560444, "lng": 120.26899478300511}, "feature": {"sight_features": "", "sight_content": ""}}, {"title": "奇幻4D画馆", "address": "宝晟商业城3楼(县公安局对面)", "image": "", "rank": 38, "time": 2, "location": {"lat": 23.757773463002735, "lng": 114.69622283578371}, "feature": {"sight_features": "", "sight_content": ""}}, {"title": "客家风情馆", "address": "万绿湖客家风情街", "image": "", "rank": 39, "time": 2, "location": {"lat": 23.784600295773625, "lng": 114.63557267570386}, "feature": {"sight_features": "", "sight_content": ""}}, {"title": "康乐餐厅", "address": "东源正扬实业有限公司附近", "image": "", "rank": 40, "time": 2, "location": {"lat": 23.79425787311432, "lng": 114.75350832520412}, "feature": {"sight_features": "", "sight_content": ""}}, {"title": "叶园温泉水上乐园", "address": "叶园温泉度假酒店内", "image": "", "rank": 41, "time": 2, "location": {"lat": 23.837052379507053, "lng": 114.98138881222131}, "feature": {"sight_features": "", "sight_content": ""}}, {"title": "湖边人家(山顶店)", "address": "环湖路万绿湖旅游风景区", "image": "", "rank": 42, "time": 2, "location": {"lat": 22.618319197658238, "lng": 114.14249960227357}, "feature": {"sight_features": "", "sight_content": ""}}, {"title": "东源县船塘镇三河合生家庭农场", "address": "船塘镇三河凹背河源富万家农业发展有限公司北侧", "image": "", "rank": 43, "time": 2, "location": {"lat": 24.231855712529487, "lng": 114.95180423415879}, "feature": {"sight_features": "", "sight_content": ""}}, {"title": "连平县绿丰原生态农场", "address": "三角镇新村村桔利塘", "image": "", "rank": 44, "time": 2, "location": {"lat": 22.713738909636017, "lng": 113.53019255838987}, "feature": {"sight_features": "", "sight_content": ""}}, {"title": "河源市青龙管乐团", "address": "229省道附近", "image": "", "rank": 46, "time": 3.0, "location": {"lat": 39.64350034548962, "lng": 117.03562195777462}, "feature": {"sight_features": "", "sight_content": ""}}, {"title": "三里长峡", "address": "广东省东源县锡场镇", "image": "", "rank": 47, "time": 2, "location": {"lat": 23.933023197404825, "lng": 114.46515094507042}, "feature": {"sight_features": "", "sight_content": ""}}, {"title": "万绿湖客家风情街", "address": "广东省东源县绿缘度假山庄附近", "image": "", "rank": 48, "time": 2, "location": {"lat": 23.778080402749893, "lng": 114.64055657168856}, "feature": {"sight_features": "", "sight_content": ""}}, {"title": "蝉子顶", "address": "河源市-东源县", "image": "", "rank": 49, "time": 2, "location": {"lat": 23.79425787311432, "lng": 114.75350832520412}, "feature": {"sight_features": "", "sight_content": ""}}, {"title": "镜花缘生态旅游度假风景区", "address": "广东河源东源县镜花缘生态旅游度假风景区", "image": "", "rank": 50, "time": null, "location": {"lat": 23.781515175537823, "lng": 114.63735553636079}, "feature": {"sight_features": "", "sight_content": ""}}, {"title": "七礤溪谷", "address": "广东省河源东源桂山风景区七礤水库", "image": "", "rank": 51, "time": 2, "location": {"lat": 23.728551566968907, "lng": 114.60215261338631}, "feature": {"sight_features": "", "sight_content": ""}}]}