{"cityName": "东明", "days": 2, "cityImage": "", "spots": [{"title": "天河垂钓乐园", "address": "陆圈镇陆圈镇陆圈村", "image": "", "rank": 1, "time": 2, "location": {"lat": 35.27059314477621, "lng": 115.232258015978}, "feature": {"sight_features": "", "sight_content": ""}}, {"title": "第9街区真人密室逃脱", "address": "南华路与沿河路西北角(大都会广场三楼)", "image": "", "rank": 2, "time": 2, "location": {"lat": 35.290619792616546, "lng": 115.09739372364558}, "feature": {"sight_features": "", "sight_content": ""}}, {"title": "西渔垂钓基地", "address": "西台集村", "image": "", "rank": 3, "time": 2, "location": {"lat": 35.064606645942575, "lng": 115.70719667105465}, "feature": {"sight_features": "", "sight_content": ""}}, {"title": "东明黄河国家湿地公园动物园", "address": "焦园乡新政府西300米", "image": "", "rank": 4, "time": 2, "location": {"lat": 27.705618043175203, "lng": 109.18572920377154}, "feature": {"sight_features": "", "sight_content": ""}}, {"title": "万福公园恐怖城", "address": "解放路万福公园内游乐场", "image": "", "rank": 5, "time": 2, "location": {"lat": 35.285759813795345, "lng": 115.09721035074521}, "feature": {"sight_features": "", "sight_content": ""}}, {"title": "天东瓜蔬专业合作社", "address": "106国道附近", "image": "", "rank": 6, "time": 2, "location": {"lat": 39.1725896711994, "lng": 116.39041588203045}, "feature": {"sight_features": "", "sight_content": ""}}, {"title": "东明县生产自救基地", "address": "262省道附近", "image": "", "rank": 7, "time": 2, "location": {"lat": 40.168144579279364, "lng": 118.33741477231128}, "feature": {"sight_features": "", "sight_content": ""}}, {"title": "五霸岗遗址", "address": "山东省菏泽市东明县", "image": "", "rank": 8, "time": 2, "location": {"lat": 35.29570169241104, "lng": 115.09641733472576}, "feature": {"sight_features": "", "sight_content": ""}}, {"title": "西关清真寺", "address": "山东省菏泽市东明县解放路第三人民医院西北300米", "image": "", "rank": 9, "time": 1.5, "location": {"lat": 35.30102072182178, "lng": 115.09299326540999}, "feature": {"sight_features": "", "sight_content": ""}}, {"title": "石化公园", "address": "山东省菏泽市东明县黄河路附近", "image": "", "rank": 10, "time": 1.5, "location": {"lat": 35.30071656057533, "lng": 115.12959014924239}, "feature": {"sight_features": "", "sight_content": ""}}, {"title": "济云武大郎", "address": "五四路明大购物广场", "image": "", "rank": 11, "time": 2, "location": {"lat": 27.715478343701573, "lng": 106.91458198473059}, "feature": {"sight_features": "", "sight_content": ""}}, {"title": "小顽星儿童主题乐园", "address": "五四路金座广场三层小顽星儿童主题乐园(五四路金座广场)", "image": "", "rank": 12, "time": 2, "location": {"lat": 38.92588871319683, "lng": 121.64329933573114}, "feature": {"sight_features": "", "sight_content": ""}}, {"title": "庄子书画院", "address": "菏泽市东明县南华路83号", "image": "", "rank": 13, "time": 2, "location": {"lat": 35.28825488037048, "lng": 115.09951577009078}, "feature": {"sight_features": "", "sight_content": ""}}, {"title": "毛泽东纪念馆", "address": "城武路", "image": "", "rank": 14, "time": 1.0, "location": {"lat": 36.065921000129244, "lng": 120.3131907601296}, "feature": {"sight_features": "", "sight_content": ""}}, {"title": "百花鱼村生态园", "address": "五四路", "image": "", "rank": 15, "time": 2, "location": {"lat": 35.2951275821961, "lng": 115.13635977058252}, "feature": {"sight_features": "", "sight_content": ""}}, {"title": "东润水上乐园", "address": "曙光路东段五得利转盘东200米路南", "image": "", "rank": 16, "time": 2, "location": {"lat": 28.5230343640505, "lng": 115.96036596728388}, "feature": {"sight_features": "", "sight_content": ""}}, {"title": "鳄鱼漆(东明总代理)", "address": "工业路劳动大厦北50米", "image": "", "rank": 17, "time": 2, "location": {"lat": 26.083036902136357, "lng": 119.32334979940168}, "feature": {"sight_features": "", "sight_content": ""}}, {"title": "云水庄园", "address": "106国道附近", "image": "", "rank": 18, "time": 2, "location": {"lat": 39.1725896711994, "lng": 116.39041588203045}, "feature": {"sight_features": "", "sight_content": ""}}, {"title": "东明县商业步行街", "address": "山东省东明县民主西街9号", "image": "", "rank": 19, "time": 2, "location": {"lat": 35.302242723463, "lng": 115.09848541367082}, "feature": {"sight_features": "", "sight_content": ""}}]}