{"cityName": "东丰", "days": 2, "cityImage": "", "spots": [{"title": "萨哇迪咔戏水王国", "address": "辽源市东丰县三合乡沙河村9组", "image": "", "rank": 1, "time": 2, "location": {"lat": 42.578967302082894, "lng": 125.67884696923066}, "feature": {"sight_features": "", "sight_content": ""}}, {"title": "金霖森林公园滑雪场", "address": "吉林省辽源市东丰县那丹伯镇建国村", "image": "", "rank": 2, "time": 2, "location": {"lat": 43.139997656281366, "lng": 125.48439273558836}, "feature": {"sight_features": "", "sight_content": ""}}, {"title": "辽源市公路处美化苗木基地", "address": "中安屯附近", "image": "", "rank": 3, "time": 2, "location": {"lat": 42.61614457942576, "lng": 125.64962327731226}, "feature": {"sight_features": "", "sight_content": ""}}, {"title": "仁合林场花木繁育基地", "address": "104省道附近", "image": "", "rank": 4, "time": 2, "location": {"lat": 37.84517653890577, "lng": 112.34866876283355}, "feature": {"sight_features": "", "sight_content": ""}}, {"title": "东丰县图书馆", "address": "西富胡同39", "image": "", "rank": 5, "time": 2, "location": {"lat": 42.682055745255916, "lng": 125.53449348683006}, "feature": {"sight_features": "", "sight_content": ""}}, {"title": "蓝汇蓝莓采摘园", "address": "沙河镇盈仓村", "image": "", "rank": 6, "time": 2, "location": {"lat": 43.017636735826166, "lng": 125.654105489434}, "feature": {"sight_features": "", "sight_content": ""}}, {"title": "西城基督教会", "address": "东药路与盈河街交叉口北100米", "image": "", "rank": 7, "time": 2, "location": {"lat": 42.68240507332008, "lng": 125.51872602428143}, "feature": {"sight_features": "", "sight_content": ""}}, {"title": "观音寺", "address": "吉林省辽源市东丰县政协北侧", "image": "", "rank": 8, "time": 2.0, "location": {"lat": 42.67433260565484, "lng": 125.5342149375626}, "feature": {"sight_features": "", "sight_content": ""}}, {"title": "儿童乐园", "address": "辽源市东丰县丰城商贸中心3楼新区", "image": "", "rank": 9, "time": 2, "location": {"lat": 42.680484279045096, "lng": 125.53710886110198}, "feature": {"sight_features": "", "sight_content": ""}}, {"title": "星期六儿童成长主题乐园(天星明...", "address": "东风路4223号天星明郡B区门企", "image": "", "rank": 10, "time": 2, "location": {"lat": 33.58063440325063, "lng": 119.06661579715524}, "feature": {"sight_features": "", "sight_content": ""}}, {"title": "皇家鹿苑乡村博物馆", "address": "吉林省辽源市东丰县靖西线小四平镇政府西北150米", "image": "", "rank": 11, "time": 2, "location": {"lat": 42.547364647241714, "lng": 125.14612165917235}, "feature": {"sight_features": "", "sight_content": ""}}, {"title": "东丰县西街基督教会", "address": "向阳路1628号", "image": "", "rank": 12, "time": 2, "location": {"lat": 36.70813256253556, "lng": 114.17567506205535}, "feature": {"sight_features": "", "sight_content": ""}}, {"title": "新世纪广场", "address": "辽源市东丰县北影胡同23号", "image": "", "rank": 13, "time": 1.0, "location": {"lat": 42.68589687820103, "lng": 125.53905866420295}, "feature": {"sight_features": "", "sight_content": ""}}, {"title": "江城森林植物园", "address": "三合乡", "image": "", "rank": 14, "time": 2.0, "location": {"lat": 37.287621742382534, "lng": 115.20218375270781}, "feature": {"sight_features": "", "sight_content": ""}}, {"title": "农民画院", "address": "南榆线", "image": "", "rank": 15, "time": 2, "location": {"lat": 42.604049297963954, "lng": 125.44987002929714}, "feature": {"sight_features": "", "sight_content": ""}}, {"title": "中国农民画馆", "address": "药业大街63号", "image": "", "rank": 16, "time": 2, "location": {"lat": 42.69639743027113, "lng": 125.53018972758939}, "feature": {"sight_features": "", "sight_content": ""}}, {"title": "诗词楹联学会暨画乡诗社", "address": "东风路332号", "image": "", "rank": 17, "time": 2, "location": {"lat": 28.226590053449286, "lng": 112.99936177931897}, "feature": {"sight_features": "", "sight_content": ""}}, {"title": "解方将军纪念馆(西北门店)", "address": "柳西线", "image": "", "rank": 18, "time": 2, "location": {"lat": 24.964765927571904, "lng": 118.61997450843894}, "feature": {"sight_features": "", "sight_content": ""}}, {"title": "蚂蚁水库冰雪大世界", "address": "三合乡三合卫生院西南一公里", "image": "", "rank": 19, "time": 2, "location": {"lat": 30.473105043953563, "lng": 120.04259355266373}, "feature": {"sight_features": "", "sight_content": ""}}, {"title": "东丰县牛奶草莓采摘园", "address": "裕民村五组", "image": "", "rank": 20, "time": 2, "location": {"lat": 39.00254878868946, "lng": 117.39650665101392}, "feature": {"sight_features": "", "sight_content": ""}}, {"title": "孙家绿色葡萄采摘园", "address": "猴石镇保安村五组", "image": "", "rank": 21, "time": 2, "location": {"lat": 42.60240160150335, "lng": 125.28402926145388}, "feature": {"sight_features": "", "sight_content": ""}}, {"title": "东丰农业站", "address": "东丰镇惠民西区1号楼", "image": "", "rank": 22, "time": 2, "location": {"lat": 42.68232371495422, "lng": 125.52052932767745}, "feature": {"sight_features": "", "sight_content": ""}}, {"title": "疯行天下合作社", "address": "东丰镇武装部后街广电家属楼", "image": "", "rank": 23, "time": 2, "location": {"lat": 41.11864604535175, "lng": 122.05693795607824}, "feature": {"sight_features": "", "sight_content": ""}}, {"title": "莎哇迪咔室内水上乐园", "address": "辽源市-东丰县-御圣园宾馆东南500米", "image": "", "rank": 24, "time": 2, "location": {"lat": 42.56659210894812, "lng": 125.67458742009568}, "feature": {"sight_features": "", "sight_content": ""}}]}