{"cityName": "东港", "days": "", "cityImage": "", "spots": [{"title": "小岛", "address": "丹东市东港市菩萨庙镇小岛村", "image": "", "rank": 1, "time": 3.0, "location": {"lat": 39.79300306117302, "lng": 123.5979356185595}, "feature": {"sight_features": "", "sight_content": ""}}, {"title": "大鹿岛", "address": "丹东市东港市大孤山镇大鹿岛村", "image": "", "rank": 2, "time": 4.5, "location": {"lat": 39.90247450071467, "lng": 123.61381306155}, "feature": {"sight_features": "", "sight_content": ""}}, {"title": "大孤山", "address": "丹东市东港市正堂路", "image": "", "rank": 3, "time": 3.5, "location": {"lat": 39.90623791476022, "lng": 123.60477025386263}, "feature": {"sight_features": "", "sight_content": ""}}, {"title": "獐岛", "address": "丹东市东港市北井子镇", "image": "", "rank": 4, "time": 1.5, "location": {"lat": 39.890717905101205, "lng": 123.91272449936818}, "feature": {"sight_features": "", "sight_content": ""}}, {"title": "鸭绿江口湿地", "address": "丹东市东港市新城区二道沟", "image": "", "rank": 5, "time": 3.5, "location": {"lat": 40.04919328754918, "lng": 124.028061815491}, "feature": {"sight_features": "", "sight_content": ""}}, {"title": "东港市革命烈士纪念碑", "address": "丹东市东港市太平湖公园", "image": "", "rank": 6, "time": 0.4, "location": {"lat": 39.88769830449482, "lng": 124.16485936997587}, "feature": {"sight_features": "", "sight_content": ""}}, {"title": "北黄海温泉", "address": "丹东市东港市椅圈镇枣山村", "image": "", "rank": 7, "time": 2, "location": {"lat": 39.88505615608054, "lng": 123.82674563985468}, "feature": {"sight_features": "特色1 同被列为全世界仅存的五处海水温泉之一", "sight_content": "北黄海温泉度假酒店是采用雍容华丽的汉唐古韵风格，度假村占地面积5万多平米，集餐饮.客房.休闲.洗浴.室内外温泉和水上乐园一体的休闲娱乐.疗养度假场所。"}}, {"title": "铁甲水库", "address": "丹东市东港市汤池镇万宝村", "image": "", "rank": 8, "time": 2.5, "location": {"lat": 40.05818561956183, "lng": 124.20501119545717}, "feature": {"sight_features": "", "sight_content": ""}}, {"title": "大孤山国家森林公园", "address": "丹东市东港市孤山镇", "image": "", "rank": 9, "time": 5.5, "location": {"lat": 39.96112382648671, "lng": 123.57959456462314}, "feature": {"sight_features": "", "sight_content": ""}}, {"title": "大鹿岛甲午海战古战场", "address": "丹东市东港市孤山镇大鹿岛西南海域", "image": "", "rank": 10, "time": 1.5, "location": {"lat": 39.76144235394398, "lng": 123.74142682109432}, "feature": {"sight_features": "", "sight_content": ""}}, {"title": "金沙谷风景区", "address": "丹东市东港市黑沟镇大洋河棋盘地", "image": "", "rank": 11, "time": 2, "location": {"lat": 40.173635089979655, "lng": 123.59576384281958}, "feature": {"sight_features": "", "sight_content": ""}}, {"title": "东港迟家99草莓", "address": "丹东市东港市合隆乡犸木林村三组", "image": "", "rank": 12, "time": 2, "location": {"lat": 40.037345525617184, "lng": 123.95710342449455}, "feature": {"sight_features": "", "sight_content": ""}}, {"title": "大城山谷休闲旅游度假村", "address": "黑沟镇黑沟村后彭家堡", "image": "", "rank": 13, "time": 1.75, "location": {"lat": 40.11165986071941, "lng": 123.6026903945391}, "feature": {"sight_features": "", "sight_content": ""}}, {"title": "古韵街", "address": "大孤山镇正堂路", "image": "", "rank": 14, "time": 2, "location": {"lat": 39.90623791476022, "lng": 123.60477025386263}, "feature": {"sight_features": "", "sight_content": ""}}, {"title": "心之恋草莓基地", "address": "黄土坎镇石灰窑村201国道旁", "image": "", "rank": 15, "time": 2, "location": {"lat": 39.91684251311302, "lng": 123.68913686159598}, "feature": {"sight_features": "", "sight_content": ""}}, {"title": "铭星草莓", "address": "合隆满族镇合隆满足乡政府北50米", "image": "", "rank": 16, "time": 2, "location": {"lat": 45.15297279607401, "lng": 130.92354361886126}, "feature": {"sight_features": "", "sight_content": ""}}, {"title": "辽宁省东港市图书馆", "address": "银河路16号", "image": "", "rank": 17, "time": 2, "location": {"lat": 39.86969812578178, "lng": 124.15710014743847}, "feature": {"sight_features": "", "sight_content": ""}}, {"title": "太平湖娱乐园", "address": "滨河路", "image": "", "rank": 18, "time": 2, "location": {"lat": 39.008473205380874, "lng": 117.67714324450333}, "feature": {"sight_features": "", "sight_content": ""}}, {"title": "仙悦楼温泉", "address": "三河镇商业街1-7号", "image": "", "rank": 19, "time": 2, "location": {"lat": 30.82669684052831, "lng": 104.16761131739175}, "feature": {"sight_features": "", "sight_content": ""}}, {"title": "东港市示范繁殖农场1", "address": "黄龙线东港市示范繁殖农场附近", "image": "", "rank": 20, "time": 3.0, "location": {"lat": 39.9854333559478, "lng": 124.04785585343721}, "feature": {"sight_features": "", "sight_content": ""}}, {"title": "东港市黄土坎农场", "address": "黄土坎农场186", "image": "", "rank": 21, "time": 3.0, "location": {"lat": 39.841650809790046, "lng": 123.72956016039223}, "feature": {"sight_features": "", "sight_content": ""}}, {"title": "文化宫二人转剧场", "address": "东港路与育才街交叉口北50米", "image": "", "rank": 22, "time": 2, "location": {"lat": 39.89180363845419, "lng": 124.1550710306983}, "feature": {"sight_features": "", "sight_content": ""}}, {"title": "舒洋温泉二部", "address": "大东街59-11-2号", "image": "", "rank": 23, "time": 2, "location": {"lat": 39.88080367422216, "lng": 124.14712793400605}, "feature": {"sight_features": "", "sight_content": ""}}, {"title": "北疆硅藻泥", "address": "前阳东路付氏窗帘东侧", "image": "", "rank": 24, "time": 4.5, "location": {"lat": 39.96301154170627, "lng": 124.2145795594781}, "feature": {"sight_features": "", "sight_content": ""}}, {"title": "天然垂钓场", "address": "孤山镇大鹿岛内", "image": "", "rank": 25, "time": 2, "location": {"lat": 40.120801680113864, "lng": 124.3959755589051}, "feature": {"sight_features": "", "sight_content": ""}}, {"title": "大鹿岛港客运站-侯船厅", "address": "丹东市东港市孤山镇大鹿岛大鹿岛港大鹿岛港客运站内", "image": "", "rank": 26, "time": 2, "location": {"lat": 39.82113113406866, "lng": 123.70365752370692}, "feature": {"sight_features": "", "sight_content": ""}}, {"title": "獐岛隆泰度假村", "address": "獐岛村委会西100米(近海滨浴场)", "image": "", "rank": 27, "time": null, "location": {"lat": 22.526267027237505, "lng": 113.3829636090835}, "feature": {"sight_features": "", "sight_content": ""}}, {"title": "北井子镇", "address": "丹东市东港市北井子镇", "image": "", "rank": 28, "time": 2, "location": {"lat": 39.890717905101205, "lng": 123.91272449936818}, "feature": {"sight_features": "", "sight_content": ""}}, {"title": "金宝贝儿童洗游乐园", "address": "中兴路与南大街交叉口西北100米", "image": "", "rank": 29, "time": 2, "location": {"lat": 39.90130760025327, "lng": 123.59498464723039}, "feature": {"sight_features": "", "sight_content": ""}}, {"title": "仁达休闲广场", "address": "辽宁省丹东市东港市人民大街68", "image": "", "rank": 30, "time": 2, "location": {"lat": 39.884041844532604, "lng": 124.17633860408777}, "feature": {"sight_features": "", "sight_content": ""}}, {"title": "星星泉宝贝洗游乐园", "address": "兴工街21-6-2附近", "image": "", "rank": 31, "time": 2, "location": {"lat": 39.88443364442121, "lng": 124.15039774180812}, "feature": {"sight_features": "", "sight_content": ""}}, {"title": "大鹿岛客运有限公司公汽乘降站鹿...", "address": "丹东市东港市孤山镇大鹿岛内", "image": "", "rank": 32, "time": null, "location": {"lat": 39.76144235394398, "lng": 123.74142682109432}, "feature": {"sight_features": "", "sight_content": ""}}, {"title": "大鹿岛客运有限公司公汽乘降站宾...", "address": "孤山镇大鹿岛内", "image": "", "rank": 33, "time": 2, "location": {"lat": 40.120801680113864, "lng": 124.3959755589051}, "feature": {"sight_features": "", "sight_content": ""}}, {"title": "枣山村文化广场", "address": "枣儿山村邱家屯89", "image": "", "rank": 34, "time": 2, "location": {"lat": 39.88516368902128, "lng": 123.82660590124617}, "feature": {"sight_features": "", "sight_content": ""}}, {"title": "丹东馨艺度假山庄", "address": "丹东市东港市十字街镇盛山村（集龙线）", "image": "", "rank": 35, "time": 2, "location": {"lat": 40.056691701216984, "lng": 124.2031323310932}, "feature": {"sight_features": "", "sight_content": "馨艺度假山庄占地1000亩，有特色水果采摘区、梨园、苹果园、桃园、李园、杏园、板栗园和大樱桃采摘大棚。生态观光区有牡丹园、玫瑰园、月季园、郁金香园、水上葡萄长廊、蔷薇长廊、松林栈道、荷花池、垂钓园等。"}}, {"title": "大鹿沟生态园", "address": "G16丹锡高速", "image": "", "rank": 36, "time": 2, "location": {"lat": 42.151648153513236, "lng": 119.2485778188841}, "feature": {"sight_features": "", "sight_content": ""}}, {"title": "江海书画艺术馆", "address": "滨海公路", "image": "", "rank": 37, "time": 2, "location": {"lat": 39.1052907391223, "lng": 122.02339772562499}, "feature": {"sight_features": "", "sight_content": ""}}, {"title": "康盈温泉", "address": "商业街", "image": "", "rank": 38, "time": 2, "location": {"lat": 31.240362260345663, "lng": 121.28040310109898}, "feature": {"sight_features": "", "sight_content": ""}}, {"title": "零海岸泥螺滩", "address": "滨海公路附近", "image": "", "rank": 39, "time": 2, "location": {"lat": 39.1052907391223, "lng": 122.02339772562499}, "feature": {"sight_features": "", "sight_content": ""}}, {"title": "绿野生态园", "address": "椅圈镇高桥村", "image": "", "rank": 40, "time": 2, "location": {"lat": 39.8914651601644, "lng": 123.74847462878648}, "feature": {"sight_features": "", "sight_content": ""}}, {"title": "东港市海洋红农场", "address": "孤山镇中大街128号", "image": "", "rank": 41, "time": 3.0, "location": {"lat": 39.90449581611203, "lng": 123.59416306240081}, "feature": {"sight_features": "", "sight_content": ""}}, {"title": "真人密室逃脱", "address": "东港联营胡同", "image": "", "rank": 42, "time": 2, "location": {"lat": 39.888913501736496, "lng": 124.15686768034539}, "feature": {"sight_features": "", "sight_content": ""}}, {"title": "伟业蓝莓", "address": "龙王庙镇沙坨村东岗一组", "image": "", "rank": 43, "time": 2, "location": {"lat": 40.3236263400835, "lng": 119.50170478528344}, "feature": {"sight_features": "", "sight_content": ""}}, {"title": "果宴", "address": "椅圈鎮椅山村东侧", "image": "", "rank": 44, "time": 2, "location": {"lat": 39.87345143252325, "lng": 123.77176417738735}, "feature": {"sight_features": "", "sight_content": ""}}, {"title": "东港市真贵真原生态草莓种植基地", "address": "椅圈镇椅山村", "image": "", "rank": 45, "time": 3.0, "location": {"lat": 39.87345143252325, "lng": 123.77176417738735}, "feature": {"sight_features": "", "sight_content": ""}}, {"title": "东港市合唱团", "address": "银河路18", "image": "", "rank": 46, "time": 3.0, "location": {"lat": 23.380160248972533, "lng": 103.39244782502304}, "feature": {"sight_features": "", "sight_content": ""}}, {"title": "东港市江源食用菌专业合作社", "address": "丹东市-东港市-孙家店村孙家99", "image": "", "rank": 47, "time": 3.0, "location": {"lat": 40.00463263129885, "lng": 124.09867209783116}, "feature": {"sight_features": "", "sight_content": ""}}, {"title": "丹国圈", "address": "丹东市-东港市-孤山镇大鹿岛内", "image": "", "rank": 48, "time": 2, "location": {"lat": 39.76144235394398, "lng": 123.74142682109432}, "feature": {"sight_features": "", "sight_content": ""}}, {"title": "大鹿岛-凉亭", "address": "丹东市-东港市-孤山镇大鹿岛内", "image": "", "rank": 49, "time": 2, "location": {"lat": 39.76144235394398, "lng": 123.74142682109432}, "feature": {"sight_features": "", "sight_content": ""}}]}