{"cityName": "洞口", "days": 2, "cityImage": "", "spots": [{"title": "山门镇", "address": "邵阳市洞口县", "image": "", "rank": 1, "time": 2, "location": {"lat": 27.06597543779858, "lng": 110.58257909625085}, "feature": {"sight_features": "", "sight_content": ""}}, {"title": "半江生态旅游温泉度假村温泉", "address": "邵阳市洞口县毓兰镇半江风景区东南350米", "image": "", "rank": 2, "time": 2, "location": {"lat": 26.98739026374102, "lng": 110.5347757065701}, "feature": {"sight_features": "", "sight_content": ""}}, {"title": "望江楼农家乐", "address": "双洲东路南50米", "image": "", "rank": 3, "time": 2, "location": {"lat": 27.055741895069104, "lng": 110.59859495284397}, "feature": {"sight_features": "", "sight_content": ""}}, {"title": "半江生态旅游度假村", "address": "又兰镇三阳村半江水库景区内", "image": "", "rank": 4, "time": 2, "location": {"lat": 26.98751995076109, "lng": 110.49088753384308}, "feature": {"sight_features": "", "sight_content": ""}}, {"title": "回龙洲风景区", "address": "湖南省洞口县洞口县城东面 422300", "image": "", "rank": 5, "time": 2, "location": {"lat": 27.06597543779858, "lng": 110.58257909625085}, "feature": {"sight_features": "", "sight_content": ""}}, {"title": "建兴城遗址", "address": "湖南省洞口县黄桥镇尧王村 422314", "image": "", "rank": 6, "time": 2, "location": {"lat": 26.969719902457143, "lng": 110.81329371738836}, "feature": {"sight_features": "", "sight_content": ""}}, {"title": "大坪桥", "address": "湖南省洞口县宝瑶河中游 422300", "image": "", "rank": 7, "time": 2, "location": {"lat": 27.06597543779858, "lng": 110.58257909625085}, "feature": {"sight_features": "", "sight_content": ""}}, {"title": "回澜桥", "address": "湖南省洞口县城南 422300", "image": "", "rank": 8, "time": 2, "location": {"lat": 27.06597543779858, "lng": 110.58257909625085}, "feature": {"sight_features": "", "sight_content": ""}}, {"title": "邵阳青云塔", "address": "湖南省洞口县洞口镇大胜村 422300", "image": "", "rank": 9, "time": 2, "location": {"lat": 27.080295155270278, "lng": 110.6634759504167}, "feature": {"sight_features": "", "sight_content": ""}}, {"title": "石嘴大桥", "address": "湖南省洞口县黄桥镇西 422314", "image": "", "rank": 10, "time": 2, "location": {"lat": 27.019725589739412, "lng": 110.86832803523542}, "feature": {"sight_features": "", "sight_content": ""}}, {"title": "月溪江口风景区", "address": "湖南省洞口县境内 422300", "image": "", "rank": 11, "time": 2, "location": {"lat": 27.06597543779858, "lng": 110.58257909625085}, "feature": {"sight_features": "", "sight_content": ""}}, {"title": "高顶山", "address": "湖南省洞口县那溪瑶族乡 422300", "image": "", "rank": 12, "time": 2, "location": {"lat": 27.06597543779858, "lng": 110.58257909625085}, "feature": {"sight_features": "", "sight_content": ""}}, {"title": "总顶界", "address": "湖南省洞口县那溪瑶族乡 422300", "image": "", "rank": 13, "time": 2, "location": {"lat": 27.06597543779858, "lng": 110.58257909625085}, "feature": {"sight_features": "", "sight_content": ""}}, {"title": "刘世玉墓", "address": "湖南省洞口县石江镇江洲村 422302", "image": "", "rank": 14, "time": 2, "location": {"lat": 27.067951504169883, "lng": 110.75201913975889}, "feature": {"sight_features": "", "sight_content": ""}}, {"title": "王隆中墓", "address": "湖南省洞口县石江镇水口村 422302", "image": "", "rank": 15, "time": 2, "location": {"lat": 27.179695955492537, "lng": 110.71040587902327}, "feature": {"sight_features": "", "sight_content": ""}}, {"title": "桐山瀑布群", "address": "湖南省洞口县桐山乡 422317", "image": "", "rank": 16, "time": 2, "location": {"lat": 27.30362654998546, "lng": 110.67556113021824}, "feature": {"sight_features": "", "sight_content": ""}}, {"title": "向阳革命烈士墓", "address": "湖南省洞口县竹市镇向阳村前家山 422304", "image": "", "rank": 17, "time": 2.5, "location": {"lat": 27.095528423233162, "lng": 110.69905565685752}, "feature": {"sight_features": "", "sight_content": ""}}, {"title": "麦园洞", "address": "湖南省衡南县花桥乡石丘村 421165", "image": "", "rank": 18, "time": 2, "location": {"lat": 26.848212136423683, "lng": 113.01016430731038}, "feature": {"sight_features": "", "sight_content": ""}}, {"title": "南山草原1888m有机鲜奶体验屋", "address": "湖南省邵阳市洞口县双龙路87", "image": "", "rank": 19, "time": 2, "location": {"lat": 27.06721467111167, "lng": 110.592685510235}, "feature": {"sight_features": "", "sight_content": ""}}, {"title": "太婆山", "address": "湖南省洞口县县城西北部江口乡 422300", "image": "", "rank": 20, "time": 0.4, "location": {"lat": 27.06597543779858, "lng": 110.58257909625085}, "feature": {"sight_features": "", "sight_content": ""}}, {"title": "刘钺墓", "address": "湖南省洞口县花园乡新店村 422300", "image": "", "rank": 21, "time": 2, "location": {"lat": 26.94352107288789, "lng": 110.61365452189997}, "feature": {"sight_features": "", "sight_content": ""}}, {"title": "石柱溶洞群", "address": "湖南省洞口县石柱乡 422321", "image": "", "rank": 22, "time": 2.5, "location": {"lat": 27.29111511801459, "lng": 110.7561475578474}, "feature": {"sight_features": "", "sight_content": ""}}, {"title": "白花山", "address": "湖南省洞口县那溪瑶族乡 422300", "image": "", "rank": 23, "time": 2.0, "location": {"lat": 27.06597543779858, "lng": 110.58257909625085}, "feature": {"sight_features": "", "sight_content": ""}}, {"title": "罗溪民俗园", "address": "湖南省邵阳市洞口县X069", "image": "", "rank": 24, "time": 2, "location": {"lat": 27.06597543779858, "lng": 110.58257909625085}, "feature": {"sight_features": "", "sight_content": ""}}, {"title": "栗山祠堂", "address": "邵阳市洞口县二二一省道", "image": "", "rank": 25, "time": 2, "location": {"lat": 27.027333654378207, "lng": 110.55006762324447}, "feature": {"sight_features": "", "sight_content": ""}}, {"title": "皇殿庵", "address": "花古乡苗竹村", "image": "", "rank": 26, "time": 2, "location": {"lat": 27.02052010045768, "lng": 110.57146053270318}, "feature": {"sight_features": "", "sight_content": ""}}, {"title": "朱家祠堂", "address": "邵阳市洞口县零二六乡道", "image": "", "rank": 27, "time": 2, "location": {"lat": 27.06597543779858, "lng": 110.58257909625085}, "feature": {"sight_features": "", "sight_content": ""}}, {"title": "袁也烈故居", "address": "湖南省邵阳市洞口县X060", "image": "", "rank": 28, "time": 2, "location": {"lat": 27.06597543779858, "lng": 110.58257909625085}, "feature": {"sight_features": "", "sight_content": ""}}, {"title": "哆唻米儿童乐园", "address": "湖南省邵阳市洞口县G320(沪瑞线)", "image": "", "rank": 29, "time": 2, "location": {"lat": 27.06597543779858, "lng": 110.58257909625085}, "feature": {"sight_features": "", "sight_content": ""}}, {"title": "漂移车神游乐场", "address": "洞口镇雪峰广场", "image": "", "rank": 30, "time": 2, "location": {"lat": 26.870200274554403, "lng": 100.22686836957376}, "feature": {"sight_features": "", "sight_content": ""}}, {"title": "罗溪国家森林公园", "address": "邵阳市洞口县", "image": "", "rank": 31, "time": 2, "location": {"lat": 27.06597543779858, "lng": 110.58257909625085}, "feature": {"sight_features": "", "sight_content": ""}}, {"title": "玉竹农家乐", "address": "069县道附近", "image": "", "rank": 32, "time": 2, "location": {"lat": 37.02854860036221, "lng": 120.8911308811676}, "feature": {"sight_features": "", "sight_content": ""}}, {"title": "林艳农家乐园", "address": "梨园东路东150米", "image": "", "rank": 33, "time": 2, "location": {"lat": 27.05370338352947, "lng": 110.60418238167348}, "feature": {"sight_features": "", "sight_content": ""}}, {"title": "妈特爱(洞口店)", "address": "洞缓路与益民路交叉口南100米", "image": "", "rank": 34, "time": 2, "location": {"lat": 27.06048381190406, "lng": 110.58016499002413}, "feature": {"sight_features": "", "sight_content": ""}}, {"title": "木瓜桥", "address": "湖南省武冈市邓元泰镇木瓜村东", "image": "", "rank": 35, "time": 2, "location": {"lat": 26.69777312441269, "lng": 110.53237197936524}, "feature": {"sight_features": "", "sight_content": ""}}, {"title": "洞口金龙山", "address": "湖南省洞口县竹市镇金龙村", "image": "", "rank": 36, "time": 2, "location": {"lat": 27.116705411991553, "lng": 110.72806590598736}, "feature": {"sight_features": "", "sight_content": ""}}, {"title": "长塘河", "address": "湖南省洞口县洞口塘上游", "image": "", "rank": 37, "time": 2, "location": {"lat": 27.06597543779858, "lng": 110.58257909625085}, "feature": {"sight_features": "", "sight_content": ""}}, {"title": "古楼河", "address": "湖南省洞口县洞口塘上游", "image": "", "rank": 38, "time": 2, "location": {"lat": 27.06597543779858, "lng": 110.58257909625085}, "feature": {"sight_features": "", "sight_content": ""}}, {"title": "瓦盖墙守节牌坊", "address": "湖南省洞口县花园镇福田村", "image": "", "rank": 39, "time": 2, "location": {"lat": 26.931329032600203, "lng": 110.59068219642293}, "feature": {"sight_features": "", "sight_content": ""}}, {"title": "尹吴氏牌坊", "address": "湖南省洞口县山门镇大合村", "image": "", "rank": 40, "time": 2, "location": {"lat": 27.225887408202738, "lng": 110.72040433644787}, "feature": {"sight_features": "", "sight_content": ""}}, {"title": "山门拦河坝", "address": "湖南省洞口县山门镇里仁村", "image": "", "rank": 41, "time": null, "location": {"lat": 27.225988523694056, "lng": 110.6925941318518}, "feature": {"sight_features": "", "sight_content": ""}}, {"title": "秀云山南岳殿", "address": "湖南省洞口县山门镇秀云山顶", "image": "", "rank": 42, "time": 2, "location": {"lat": 27.196129515512123, "lng": 110.68686024598692}, "feature": {"sight_features": "", "sight_content": ""}}, {"title": "水东桥", "address": "湖南省洞口县水东乡", "image": "", "rank": 43, "time": 2, "location": {"lat": 27.153493204351314, "lng": 110.75653849501539}, "feature": {"sight_features": "", "sight_content": ""}}, {"title": "五龙拱圣 Wulong Gongsheng Stat...", "address": "湖南省洞口县岩山乡月塘村张氏宗祠", "image": "", "rank": 44, "time": 2, "location": {"lat": 27.180829722136714, "lng": 110.71888509971225}, "feature": {"sight_features": "", "sight_content": ""}}, {"title": "半江", "address": "湖南省洞口县又兰镇", "image": "", "rank": 45, "time": 2, "location": {"lat": 26.98485173958577, "lng": 110.53227533786189}, "feature": {"sight_features": "", "sight_content": ""}}, {"title": "山门", "address": "湖南省洞口县城北", "image": "", "rank": 46, "time": 0.5, "location": {"lat": 27.06597543779858, "lng": 110.58257909625085}, "feature": {"sight_features": "", "sight_content": ""}}, {"title": "雪峰山", "address": "湖南省洞口县洞口县境内", "image": "", "rank": 47, "time": 3.0, "location": {"lat": 27.06597543779858, "lng": 110.58257909625085}, "feature": {"sight_features": "", "sight_content": ""}}, {"title": "高沙抗日烈士陵园", "address": "邵阳市-洞口县-高沙镇中国传统村落红鹅村八支祠往里300米", "image": "", "rank": 48, "time": 2, "location": {"lat": 26.96960813792083, "lng": 110.70980126821183}, "feature": {"sight_features": "", "sight_content": ""}}, {"title": "枯茅岭", "address": "邵阳市-洞口县", "image": "", "rank": 49, "time": 2, "location": {"lat": 27.06597543779858, "lng": 110.58257909625085}, "feature": {"sight_features": "", "sight_content": ""}}, {"title": "上万金山", "address": "邵阳市-洞口县", "image": "", "rank": 50, "time": 2, "location": {"lat": 27.06597543779858, "lng": 110.58257909625085}, "feature": {"sight_features": "", "sight_content": ""}}, {"title": "长畲界", "address": "邵阳市-洞口县-零三一乡道", "image": "", "rank": 51, "time": 2, "location": {"lat": 27.06597543779858, "lng": 110.58257909625085}, "feature": {"sight_features": "", "sight_content": ""}}, {"title": "中长水坑", "address": "邵阳市-洞口县-零零一乡道", "image": "", "rank": 52, "time": 2, "location": {"lat": 27.06597543779858, "lng": 110.58257909625085}, "feature": {"sight_features": "", "sight_content": ""}}, {"title": "小长水坑", "address": "邵阳市-洞口县-零零一乡道", "image": "", "rank": 53, "time": 2, "location": {"lat": 27.06597543779858, "lng": 110.58257909625085}, "feature": {"sight_features": "", "sight_content": ""}}, {"title": "蔡锷公馆", "address": "邵阳市洞口县山门镇回龙街", "image": "", "rank": 54, "time": 2, "location": {"lat": 27.196129515512123, "lng": 110.68686024598692}, "feature": {"sight_features": "", "sight_content": ""}}]}