{"cityName": "都昌", "days": 2, "cityImage": "", "spots": [{"title": "南山", "address": "九江市都昌县", "image": "", "rank": 1, "time": 2.5, "location": {"lat": 29.278965044766643, "lng": 116.21055204664913}, "feature": {"sight_features": "", "sight_content": ""}}, {"title": "老爷庙", "address": "九江市都昌县多宝乡龙头山首", "image": "", "rank": 2, "time": 2, "location": {"lat": 29.41695720427977, "lng": 116.10755701438588}, "feature": {"sight_features": "", "sight_content": ""}}, {"title": "都昌老吴草莓", "address": "老收费站志平驾校对面", "image": "", "rank": 3, "time": 2, "location": {"lat": 29.32775514543871, "lng": 116.2674790142559}, "feature": {"sight_features": "", "sight_content": ""}}, {"title": "都昌县城乡建设档案室", "address": "广苑路", "image": "", "rank": 4, "time": 2, "location": {"lat": 29.09307214610499, "lng": 119.65422273335888}, "feature": {"sight_features": "", "sight_content": ""}}, {"title": "东风农场(675乡道)", "address": "675乡道附近", "image": "", "rank": 5, "time": 2, "location": {"lat": 32.996807782686375, "lng": 119.77427428807279}, "feature": {"sight_features": "", "sight_content": ""}}, {"title": "安英农家乐", "address": "蔡岭镇慈济中学旁", "image": "", "rank": 6, "time": 2, "location": {"lat": 29.489668405272642, "lng": 116.40427091116747}, "feature": {"sight_features": "", "sight_content": ""}}, {"title": "君好农业红心火龙果九江采摘基地", "address": "蔡岭镇北炎村", "image": "", "rank": 7, "time": 2, "location": {"lat": 29.533970643727816, "lng": 116.37916546673225}, "feature": {"sight_features": "", "sight_content": ""}}, {"title": "都昌县影剧院", "address": "图书馆附近", "image": "", "rank": 8, "time": 2, "location": {"lat": 23.100931760317003, "lng": 113.27528273950196}, "feature": {"sight_features": "", "sight_content": ""}}, {"title": "都昌银芳文词戏剧团办事处", "address": "东风大道", "image": "", "rank": 9, "time": 2, "location": {"lat": 38.72513690268422, "lng": 117.53077213289339}, "feature": {"sight_features": "", "sight_content": ""}}, {"title": "都昌县城乡规划展览馆", "address": "江西省都昌县城乡建设档案室旁", "image": "", "rank": 10, "time": 2, "location": {"lat": 29.286757028270543, "lng": 116.22602050820363}, "feature": {"sight_features": "", "sight_content": ""}}, {"title": "大神庙", "address": "江西省九江市都昌县幸福路", "image": "", "rank": 11, "time": 1.5, "location": {"lat": 29.27717986979577, "lng": 116.20197621410088}, "feature": {"sight_features": "", "sight_content": ""}}, {"title": "西湖滨水公园", "address": "九江市都昌县", "image": "", "rank": 12, "time": 2, "location": {"lat": 29.278965044766643, "lng": 116.21055204664913}, "feature": {"sight_features": "", "sight_content": ""}}, {"title": "山下祠堂", "address": "九江市都昌县景湖线", "image": "", "rank": 13, "time": 2, "location": {"lat": 29.278965044766643, "lng": 116.21055204664913}, "feature": {"sight_features": "", "sight_content": ""}}, {"title": "太源祥寺", "address": "江西省九江市都昌县汪墩乡源潭垅村", "image": "", "rank": 14, "time": 2, "location": {"lat": 29.372653285469678, "lng": 116.2977882778307}, "feature": {"sight_features": "", "sight_content": ""}}, {"title": "都昌县莲花寺(大神庙)", "address": "阳光府邸小区", "image": "", "rank": 15, "time": 2, "location": {"lat": 33.944555781446915, "lng": 118.27242290764768}, "feature": {"sight_features": "", "sight_content": ""}}, {"title": "蔡岭镇文化广场", "address": "712乡道附近", "image": "", "rank": 16, "time": 2, "location": {"lat": 40.446718608640225, "lng": 116.81791941404249}, "feature": {"sight_features": "", "sight_content": ""}}, {"title": "都昌县丁仙能仁寺", "address": "丁仙脑", "image": "", "rank": 17, "time": 2, "location": {"lat": 29.291613532903003, "lng": 116.41025919805104}, "feature": {"sight_features": "", "sight_content": ""}}, {"title": "都昌县图书馆", "address": "沿湖路85号", "image": "", "rank": 18, "time": 2, "location": {"lat": 29.266104470407537, "lng": 116.19584130579204}, "feature": {"sight_features": "", "sight_content": ""}}, {"title": "鄱阳湖花海", "address": "大沔池附近鄱阳湖畔", "image": "", "rank": 19, "time": 2, "location": {"lat": 29.266080230561485, "lng": 116.25726960954506}, "feature": {"sight_features": "", "sight_content": ""}}, {"title": "张岭商店农场", "address": "G56杭瑞高速附近", "image": "", "rank": 20, "time": 2, "location": {"lat": 29.523585591880604, "lng": 118.1931793201066}, "feature": {"sight_features": "", "sight_content": ""}}, {"title": "江西鄱湖三宝农业有限公司", "address": "北炎乡牌垅村北侧", "image": "", "rank": 21, "time": 2, "location": {"lat": 29.52233500942916, "lng": 116.3757298865308}, "feature": {"sight_features": "", "sight_content": ""}}, {"title": "福禄农庄", "address": "北山乡福如汪村", "image": "", "rank": 22, "time": 2, "location": {"lat": 29.29367955879303, "lng": 116.19219794483129}, "feature": {"sight_features": "", "sight_content": ""}}, {"title": "江西龚老汉万户农业开发有限公司", "address": "万户镇西湖村内", "image": "", "rank": 23, "time": 2, "location": {"lat": 29.281523963119486, "lng": 116.48836207504776}, "feature": {"sight_features": "", "sight_content": ""}}, {"title": "九江候鸟保护区", "address": "江西省永修县境内", "image": "", "rank": 24, "time": 4.5, "location": {"lat": 29.02800561626137, "lng": 115.81540658684771}, "feature": {"sight_features": "", "sight_content": ""}}, {"title": "金都步行街", "address": "江西省都昌县西湖路", "image": "", "rank": 25, "time": 2, "location": {"lat": 29.270772919594275, "lng": 116.1961345136087}, "feature": {"sight_features": "", "sight_content": ""}}, {"title": "都昌县东街步行街", "address": "江西省都昌县东街步行街", "image": "", "rank": 26, "time": 2, "location": {"lat": 29.27341114955765, "lng": 116.20156234409154}, "feature": {"sight_features": "", "sight_content": ""}}, {"title": "港南高家", "address": "九江市-都昌县", "image": "", "rank": 27, "time": 2, "location": {"lat": 29.278965044766643, "lng": 116.21055204664913}, "feature": {"sight_features": "", "sight_content": ""}}, {"title": "高莲花垄", "address": "九江市-都昌县", "image": "", "rank": 28, "time": 2, "location": {"lat": 29.278965044766643, "lng": 116.21055204664913}, "feature": {"sight_features": "", "sight_content": ""}}, {"title": "刘高舍", "address": "九江市-都昌县", "image": "", "rank": 29, "time": 2, "location": {"lat": 29.278965044766643, "lng": 116.21055204664913}, "feature": {"sight_features": "", "sight_content": ""}}, {"title": "刘公山", "address": "九江市-都昌县", "image": "", "rank": 30, "time": 2, "location": {"lat": 29.278965044766643, "lng": 116.21055204664913}, "feature": {"sight_features": "", "sight_content": ""}}, {"title": "帅家村", "address": "九江市-都昌县", "image": "", "rank": 31, "time": 2, "location": {"lat": 29.278965044766643, "lng": 116.21055204664913}, "feature": {"sight_features": "", "sight_content": ""}}]}