{"cityName": "都兰", "days": 2, "cityImage": "", "spots": [{"title": "都兰狩猎场", "address": "都兰县南部，青藏高原北部的山地向高原主体过渡地段上的柴达木盆地东南部。", "image": "", "rank": 1, "time": 1.0, "location": {"lat": 36.307611028682054, "lng": 98.10270479377708}, "feature": {"sight_features": "", "sight_content": ""}}, {"title": "海寺花海", "address": "青海省海西蒙古族藏族自治州都兰县(都兰县东109国道17公里处)", "image": "", "rank": 2, "time": 1.5, "location": {"lat": 36.371014679695676, "lng": 96.04749901581656}, "feature": {"sight_features": "", "sight_content": ""}}, {"title": "香日德班禅行辕", "address": "青海省都兰县诺木洪乡东南方向", "image": "", "rank": 3, "time": 2, "location": {"lat": 36.44071930648656, "lng": 96.46279140672615}, "feature": {"sight_features": "", "sight_content": ""}}, {"title": "诺木洪农场", "address": "青海省海西蒙古族藏族自治州都兰县诺木洪乡", "image": "", "rank": 4, "time": 2, "location": {"lat": 36.44071930648656, "lng": 96.46279140672615}, "feature": {"sight_features": "", "sight_content": ""}}, {"title": "农家乐馍馍店", "address": "109国道北50米", "image": "", "rank": 5, "time": 2, "location": {"lat": 39.79105761598749, "lng": 109.99633110015151}, "feature": {"sight_features": "", "sight_content": ""}}, {"title": "都兰热水吐蕃墓葬群", "address": "青海省都兰县热水乡 816100", "image": "", "rank": 6, "time": 2, "location": {"lat": 36.22613168559259, "lng": 98.17284117863865}, "feature": {"sight_features": "", "sight_content": ""}}, {"title": "霍鲁逊湖风景区", "address": "青海省都兰县诺木洪乡田格里村西北 816100", "image": "", "rank": 7, "time": 2, "location": {"lat": 36.44071930648656, "lng": 96.46279140672615}, "feature": {"sight_features": "", "sight_content": ""}}, {"title": "科肖图自然风景区", "address": "青海省都兰县县城西南 816000", "image": "", "rank": 8, "time": 2, "location": {"lat": 36.307611028682054, "lng": 98.10270479377708}, "feature": {"sight_features": "", "sight_content": ""}}, {"title": "塔温搭里哈遗址", "address": "青海省都兰县巴隆乡 816000", "image": "", "rank": 9, "time": 2, "location": {"lat": 36.05135591370199, "lng": 97.51250585497}, "feature": {"sight_features": "", "sight_content": ""}}, {"title": "海西香加", "address": "青海省都兰县香日德镇 816104", "image": "", "rank": 10, "time": 2.5, "location": {"lat": 35.99969376024766, "lng": 97.89429641439368}, "feature": {"sight_features": "", "sight_content": ""}}, {"title": "海西沟里乡", "address": "青海省都兰县沟里乡 816100", "image": "", "rank": 11, "time": 2.5, "location": {"lat": 35.66550488877425, "lng": 98.4159519631441}, "feature": {"sight_features": "", "sight_content": ""}}, {"title": "都兰贝壳梁景区", "address": "青海省海西蒙古族藏族自治州都兰县", "image": "", "rank": 12, "time": 2, "location": {"lat": 36.307611028682054, "lng": 98.10270479377708}, "feature": {"sight_features": "", "sight_content": ""}}, {"title": "查汗乌苏", "address": "海西蒙古族藏族自治州都兰县", "image": "", "rank": 13, "time": 2, "location": {"lat": 36.307611028682054, "lng": 98.10270479377708}, "feature": {"sight_features": "", "sight_content": ""}}, {"title": "国际狩猎场", "address": "蒙古族藏族自治州都兰县西南135KM", "image": "", "rank": 14, "time": null, "location": {"lat": 36.30662943371702, "lng": 98.10270479377708}, "feature": {"sight_features": "", "sight_content": ""}}, {"title": "鲁芒沟岩画", "address": "天棚乡鲁芒沟", "image": "", "rank": 15, "time": 1.0, "location": {"lat": 37.245587081924675, "lng": 99.24231738691512}, "feature": {"sight_features": "", "sight_content": ""}}, {"title": "英得尔甘丹旦杰郎寺院", "address": "海西蒙古族藏族自治州-都兰县", "image": "", "rank": 16, "time": 2, "location": {"lat": 36.307611028682054, "lng": 98.10270479377708}, "feature": {"sight_features": "", "sight_content": ""}}, {"title": "英得尔羊场畜牧站", "address": "海西蒙古族藏族自治州-都兰县-察汉乌苏镇", "image": "", "rank": 17, "time": 2, "location": {"lat": 36.306779218643534, "lng": 98.0961309042245}, "feature": {"sight_features": "", "sight_content": ""}}, {"title": "香日德", "address": "青海省海西蒙古族藏族自治州都兰县香日德镇", "image": "", "rank": 18, "time": 2, "location": {"lat": 35.99969376024766, "lng": 97.89429641439368}, "feature": {"sight_features": "", "sight_content": ""}}]}