{"cityName": "杜尔伯特", "days": 2, "cityImage": "", "spots": [{"title": "黑龙江省连环湖国际温泉旅游度假...", "address": "大庆市杜尔伯特蒙古族自治县连环湖镇", "image": "", "rank": 1, "time": 2, "location": {"lat": 46.763521091187776, "lng": 124.23353373224776}, "feature": {"sight_features": "特色1 最佳国际生态旅游区", "sight_content": "大庆连环湖温泉城集温泉与自然湖水相结合、室内温泉与室外温泉相结合、冰雪与温泉相结合、蒙医药与温泉相结合、动态温泉与静态温泉 相结 合、大众温泉与私密温泉相结合、温泉与园林相结合 、人与自然相结合8大特色于一体，建有文化广场、温泉养生与沙滩洗浴、水上综合娱乐、特色别 墅度假、 休闲健身等5大功能区，是已知的目前东北高寒地区标准最高、功能最全的室外温泉疗养、休 闲养生的度假景区之一。\n\n冬日的连环湖被厚厚的白雪所覆盖，数十个雪地温 泉池冒着腾腾地热气。放眼望去，勇敢者从长长的雪道飞驰而下，雪地摩托、雪地卡丁从冰面 上呼啸而过。冰帆迎风飞舞，鱼儿在冰面上跳跃，冰 上飞碟从高空飞 落，冰尜在冰面上自由的旋转。天冷了，下雪了，到连环湖体验雪地温泉与冰雪 运动冰火两重天的惊险刺激，这是勇敢者的游戏。"}}, {"title": "连环湖景区", "address": "大庆市杜尔伯特蒙古族自治县连环湖镇", "image": "", "rank": 2, "time": 3.0, "location": {"lat": 46.763521091187776, "lng": 124.23353373224776}, "feature": {"sight_features": "", "sight_content": ""}}, {"title": "阿木塔蒙古风情岛", "address": "大庆市杜尔伯特蒙古族自治县胡吉吐莫镇北15公里处", "image": "", "rank": 3, "time": 7.5, "location": {"lat": 46.549490187716, "lng": 124.15157477192479}, "feature": {"sight_features": "特色1 大庆正宗的烤全羊！", "sight_content": "阿木塔蒙古风情岛，坐落在杜尔伯特蒙古族自治县，距大庆主城区1小时车程，哈尔滨2.5小时车程、齐齐哈尔1.5 小时车程，距长春3小时车程。全岛占地面积5000亩，水域面积10万亩。阿木塔蒙古风情岛是一个亲近自然，观光休闲，祈福养心的旅游圣地。在这里，你可以观赏到草原湖泊的美景，体验蒙古风情及各类户外娱乐项目，入住豪华蒙古别墅，品尝特色烤全羊和野生全鱼宴。\n阿木塔的草原属原生态草甸草原，有“七彩草原”的美称。夏季百鸟欢歌，芳草茵茵，繁花遍野，绚丽多姿。阿木 塔被阿木塔湖三面环抱，水色秀丽，碧波荡漾。水上栖息着220多种水禽，每年迁徙时成千上万只大雁在岛上休息，起飞时遮天蔽日的景象壮观至极。成群的鸥鸟落到草原上休息，局部草原白 茫茫一片。阿木塔湖内盛产40种野生淡水鱼，尤以鲤、草、鲢、鳙、鲫、黑鱼为多。"}}, {"title": "连环湖狩猎场", "address": "大庆市杜尔伯特蒙古族自治县境内", "image": "", "rank": 4, "time": 2.0, "location": {"lat": 46.86876775845202, "lng": 124.44935879141454}, "feature": {"sight_features": "", "sight_content": ""}}, {"title": "吉禾民族赛马场", "address": "大庆市杜尔伯特蒙古族自治县县城西郊", "image": "", "rank": 5, "time": 2.5, "location": {"lat": 46.86876775845202, "lng": 124.44935879141454}, "feature": {"sight_features": "", "sight_content": ""}}, {"title": "阿木塔半岛旅游度假村", "address": "黑龙江省大庆市杜尔伯特蒙古族自治县", "image": "", "rank": 6, "time": 2, "location": {"lat": 46.86876775845202, "lng": 124.44935879141454}, "feature": {"sight_features": "", "sight_content": ""}}, {"title": "杜尔伯特博物馆", "address": "黑龙江省大庆市杜尔伯特蒙古族自治县呼格吉乐街", "image": "", "rank": 7, "time": 2.5, "location": {"lat": 46.86957098331733, "lng": 124.45268459958211}, "feature": {"sight_features": "", "sight_content": ""}}, {"title": "大庆珰奈湿地", "address": "黑龙江省杜尔伯特蒙古族自治县烟筒屯镇", "image": "", "rank": 8, "time": 2.0, "location": {"lat": 47.00983906813721, "lng": 124.17215414448016}, "feature": {"sight_features": "", "sight_content": ""}}, {"title": "寿山度假村", "address": "黑龙江省大庆市杜尔伯特蒙古族自治县", "image": "", "rank": 9, "time": 2, "location": {"lat": 46.86876775845202, "lng": 124.44935879141454}, "feature": {"sight_features": "", "sight_content": ""}}, {"title": "五马沙坨风景区", "address": "黑龙江省大庆市杜尔伯特蒙古族自治县", "image": "", "rank": 10, "time": 1.0, "location": {"lat": 46.86876775845202, "lng": 124.44935879141454}, "feature": {"sight_features": "", "sight_content": ""}}, {"title": "沙地植物园", "address": "寿山度假村", "image": "", "rank": 11, "time": 0.5, "location": {"lat": 46.71340912777809, "lng": 124.46898504565432}, "feature": {"sight_features": "", "sight_content": ""}}, {"title": "杜尔伯特温泉别墅", "address": "杜尔伯特县连环湖温泉景区", "image": "", "rank": 12, "time": 2, "location": {"lat": 46.78232091782092, "lng": 124.2133511852531}, "feature": {"sight_features": "", "sight_content": ""}}, {"title": "四季采摘园", "address": "028乡道附近", "image": "", "rank": 13, "time": 2, "location": {"lat": 38.49443500611887, "lng": 112.88216180520445}, "feature": {"sight_features": "", "sight_content": ""}}, {"title": "大庆九八抗洪抢险第三道防线纪念", "address": "201省道附近", "image": "", "rank": 14, "time": 2.0, "location": {"lat": 38.686331107748025, "lng": 113.87626234527481}, "feature": {"sight_features": "", "sight_content": ""}}, {"title": "文化体育广场(思格腾路)", "address": "思格腾路附近", "image": "", "rank": 15, "time": 2, "location": {"lat": 46.87050092700849, "lng": 124.4553807099601}, "feature": {"sight_features": "", "sight_content": ""}}, {"title": "湖滨公园", "address": "盘锦市胜利街281号", "image": "", "rank": 16, "time": 1.5, "location": {"lat": 41.19107555735446, "lng": 122.04751588110963}, "feature": {"sight_features": "", "sight_content": ""}}, {"title": "胡吉吐莫敖包", "address": "大庆市杜尔伯特蒙古族自治县胡吉吐莫镇", "image": "", "rank": 17, "time": 2, "location": {"lat": 46.45644291703413, "lng": 124.15157477192479}, "feature": {"sight_features": "", "sight_content": ""}}, {"title": "激情广场", "address": "连环湖景区内", "image": "", "rank": 18, "time": 2, "location": {"lat": 46.782337238698545, "lng": 124.21413668515038}, "feature": {"sight_features": "", "sight_content": ""}}, {"title": "印象草原度假村", "address": "大庆杜尔伯特县一心乡西二合屯，杜连旅游沿线", "image": "", "rank": 19, "time": 2, "location": {"lat": 46.82649718554689, "lng": 124.41325750991821}, "feature": {"sight_features": "", "sight_content": ""}}, {"title": "天奇度假村", "address": "黑龙江省大庆市杜尔伯特蒙古族自治县y034", "image": "", "rank": 20, "time": 2, "location": {"lat": 46.86876775845202, "lng": 124.44935879141454}, "feature": {"sight_features": "", "sight_content": ""}}, {"title": "松林公园", "address": "二零一省道附近", "image": "", "rank": 21, "time": 2, "location": {"lat": 29.260670158858183, "lng": 119.27289340543204}, "feature": {"sight_features": "", "sight_content": ""}}, {"title": "连环湖水禽狩猎场", "address": "白音诺掠乡北面", "image": "", "rank": 22, "time": 2, "location": {"lat": 39.92976931809883, "lng": 116.36095935201878}, "feature": {"sight_features": "", "sight_content": ""}}, {"title": "九八抗洪纪念馆", "address": "巴彦呼硕路", "image": "", "rank": 23, "time": 2, "location": {"lat": 46.34891250024373, "lng": 124.05864089967773}, "feature": {"sight_features": "", "sight_content": ""}}, {"title": "蒿城书画院", "address": "思格腾路文苑社区居委会附近", "image": "", "rank": 24, "time": 2, "location": {"lat": 46.86331035325538, "lng": 124.4482611519119}, "feature": {"sight_features": "", "sight_content": ""}}, {"title": "红军美术", "address": "思格腾路", "image": "", "rank": 25, "time": 2, "location": {"lat": 46.87050092700849, "lng": 124.4553807099601}, "feature": {"sight_features": "", "sight_content": ""}}, {"title": "杜尔伯特珰奈湿地展览馆", "address": "烟筒屯镇珰奈村附近", "image": "", "rank": 26, "time": 2.5, "location": {"lat": 47.084034013741366, "lng": 124.34325731535796}, "feature": {"sight_features": "", "sight_content": ""}}, {"title": "四季温泉会馆-健身中心", "address": "连环湖景区内附近", "image": "", "rank": 27, "time": 2, "location": {"lat": 46.782337238698545, "lng": 124.21413668515038}, "feature": {"sight_features": "", "sight_content": ""}}, {"title": "陈福畜牧庄园", "address": "杜尔伯特他拉哈镇", "image": "", "rank": 28, "time": 2, "location": {"lat": 46.165838548431836, "lng": 124.15061911769274}, "feature": {"sight_features": "", "sight_content": ""}}, {"title": "葡萄采摘园", "address": "塔拉街西50米", "image": "", "rank": 29, "time": 2, "location": {"lat": 43.953805782977554, "lng": 116.10022491742504}, "feature": {"sight_features": "", "sight_content": ""}}, {"title": "当奈湿地生态村", "address": "黑龙江省杜尔伯特蒙古族自治县烟筒屯镇", "image": "", "rank": 30, "time": 2, "location": {"lat": 47.00983906813721, "lng": 124.17215414448016}, "feature": {"sight_features": "", "sight_content": ""}}]}