{"cityName": "都江堰", "days": 2, "cityImage": "", "spots": [{"title": "都江堰景区", "address": "成都市都江堰市公园路", "image": "", "rank": 1, "time": 2.5, "location": {"lat": 30.999886482058113, "lng": 103.62450101712933}, "feature": {"sight_features": "特色1 中国目前保存最完整的古代水利工程之一。 特色2 被誉为世界水利文化的鼻祖", "sight_content": "都江堰坐落在成都平原西部的岷江上，位于四川省都江堰市城西。都江堰不仅是举世闻名的中国古代水利工程，也是风景名胜区。都江堰附近景色秀丽，文物古迹众多，主要有伏龙观、二王庙、安澜索桥、玉垒关、离堆公园、玉垒山公园、玉女峰、灵岩寺、普照寺、翠月湖、都江堰水利等工程。\n\n1982年，都江堰作为四川青城山-都江堰风景名胜区的重要组成部分，被国务院批准列入第一批国家级风景名胜区名单。2000年联合国世界遗产委员会第24届大会上，根据联合国《保护世界文化和自然遗产公约》第一条第二款有关文化遗产定义的规定，由于都江堰水利工程历史悠久、规模宏大、布局合理、运行科学，且与环境和谐结合，在历史和科学方面具有突出的普遍价值，因此都江堰被确定为世界文化遗产。2007年5月8日，成都市青城山--都江堰旅游景区经国家旅游局正式批准为国家5a级旅游景区。\n\n发源地之一，属道教名山。位于四川省都江堰市西南，古名“天仓山”，又名“丈人山”。东距成都市68公里，处于都江堰水利工程西南10公里处。主峰老霄顶海拔1260米。在四川名山中与剑门之险、峨嵋之秀、夔门之雄齐名，有“青城天下幽”之美誉。青城山是中国著名的历史名山和国家重点风景名胜区，并于2000年同都江堰共同作为一项世界文化遗产被列入世界遗产名录。2008年汶川地震中青城山受到比较大的影响。\n\n青城山位于四川省都江堰市西南、成都平原西北部、青城山-都江堰风景区内，距成都68公里，距都江堰市区16公里。古称丈人山，为邛崃山脉的分支。青城山靠岷山雪岭，面向川西平原。主峰老霄顶海拔1260米（2007年测到的数据）。全山林木青翠，四季常青，诸峰环峙，状若城廓，故名青城山。丹梯千级，曲径通幽，以幽洁取胜，自古就有“青城天下幽”的美誉。与剑门之险、峨眉之秀、夔门之雄齐名。青城山背靠千里岷江，俯瞰成都平原，景区面积200平方公里。古人记述中，青城山有“三十六峰”“八大洞”“七十二小洞”“一百八景”之说。\n\n攻略游记：\n\nhttps://m.ctrip.com/webapp/you/travels/Chengdu104/3054658 ?都江堰 —— 应邀而来遇见你?"}}, {"title": "青城山", "address": "都江堰市西南部青城山风景区", "image": "", "rank": 2, "time": 4.0, "location": {"lat": 30.896451897054277, "lng": 103.56826722425564}, "feature": {"sight_features": "特色1 “青城天下幽”，道教发源地 特色2 世界自然文化遗产", "sight_content": "青城山为中国道教发源地之一，属道教名山。位于四川省都江堰市西南，古名“天仓山”，又名“丈人山”。东距成都市68公里，处于都江堰水利工程西南10公里处。主峰老霄顶海拔1260米。在四川名山中与剑门之险、峨嵋之秀、夔门之雄齐名，有“青城天下幽”之美誉。青城山是中国历史名山和重点风景名胜区，并于2000年同都江堰共同作为一项世界文化遗产被列入世界遗产名录。2008年汶川地震中青城山受到比较大的影响。\n\n青城山位于四川省都江堰市西南、成都平原西北部、青城山-都江堰风景区内，距成都68公里，距都江堰市区16公里。古称丈人山，为邛崃山脉的分支。青城山靠岷山雪岭，面向川西平原。主峰老霄顶海拔1260米（2007年测到的数据）。全山林木青翠，四季常青，诸峰环峙，状若城廓，故名青城山。丹梯千级，曲径通幽，以幽洁取胜，自古就有“青城天下幽”的美誉。与剑门之险、峨眉之秀、夔门之雄齐名。青城山背靠千里岷江，俯瞰成都平原，景区面积200平方公里。古人记述中，青城山有“三十六峰”“八大洞”“七十二小洞”“一百八景”之说。\n\n都江堰坐落在成都平原西部的岷江上，位于四川省都江堰市城西。都江堰不仅是举世闻名的中国古代水利工程，也是风景名胜区。都江堰附近景色秀丽，文物古迹众多，主要有伏龙观、二王庙、安澜索桥、玉垒关、离堆公园、玉垒山公园、玉女峰、灵岩寺、普照寺、翠月湖、都江堰水利等工程。\n\n1982年，都江堰作为四川青城山-都江堰风景名胜区的重要组成部分，2000年联合国世界遗产委员会第24届大会上，根据联合国《保护世界文化和自然遗产公约》第一条第二款有关文化遗产定义的规定，由于都江堰水利工程历史悠久、规模宏大、布局合理、运行科学，且与环境和谐结合，在历史和科学方面具有突出的普遍价值，因此都江堰被确定为世界文化遗产。2007年5月8日，成都市青城山--都江堰旅游景区经国家旅游局正式批准为国家5a级旅游景区。"}}, {"title": "青城后山", "address": "成都市都江堰市驿道街66号", "image": "", "rank": 3, "time": 4.0, "location": {"lat": 30.948063670499696, "lng": 103.49081563220243}, "feature": {"sight_features": "特色1 农家乐小住，随性散步游山，呼吸清新的空气，感受山中的清幽。", "sight_content": "青城后山位于青城山（前山）后，山脚有泰安古镇和泰安寺。青城后山的宫殿香火虽不如前山旺盛，但清幽洁净更胜一筹，这里特别适合休闲徒步游，比起热闹的前山，更能悠然的体会“青城天下幽”。找个顺眼的农家乐，小住两天，呼吸清新的空气，感受山中的清幽，相当的惬意。\n青城后山景区位于青城山后，都江堰市泰安乡境内。以水秀、林幽、山雄、石怪为奇观的自然风景区。景区内有神秘的溶洞、雄奇的蓥华、秀丽的味江，罕见的古墓群和大蜀王遗址、名庵古寺。此处集山、水、洞、廊、林为一体，可与青城前山媲美。景区全程20余里，有上山索道可使游客节省一半路程，便能欣赏到青城后山大部分景观。近年还新建了各类宾馆，为游客开辟了许多全新的旅游项目。\n\n\n\n\n主要景点：三潭雾泉、白云万佛洞、五龙沟、飞泉沟、泰安古镇、通灵沟、金鞭岩。"}}, {"title": "都江堰鱼嘴分水堤", "address": "成都市都江堰市都江堰景区内", "image": "", "rank": 4, "time": 0.75, "location": {"lat": 31.00667268295621, "lng": 103.6186436124583}, "feature": {"sight_features": "特色1 用鹅卵石堆砌的像鱼的嘴一样的大坝，是都江堰最重要的部分。", "sight_content": "都江堰鱼嘴分水堤位于成都市都江堰景区内，是都江堰水利工程较为重要的部分。水堤是由鹅卵石堆砌的，外形像鱼的嘴一样，把岷江分为内江和外江，内江用于灌溉，外江用于排洪，古人的智慧，在这个工程上得到了充分的体现。"}}, {"title": "南桥", "address": "成都市都江堰市花园路都江堰景区大门外侧", "image": "", "rank": 5, "time": 0.75, "location": {"lat": 31.00667268295621, "lng": 103.6186436124583}, "feature": {"sight_features": "", "sight_content": ""}}, {"title": "泰安古镇", "address": "成都市都江堰市青城后山泰安古镇中段驿道街232号", "image": "", "rank": 6, "time": 1.0, "location": {"lat": 30.926808252484758, "lng": 103.49745289541211}, "feature": {"sight_features": "", "sight_content": ""}}, {"title": "宝瓶口", "address": "成都市都江堰市都江堰风景区内", "image": "", "rank": 7, "time": 0.4, "location": {"lat": 30.994256893542204, "lng": 103.65353360443186}, "feature": {"sight_features": "", "sight_content": ""}}, {"title": "安澜索桥", "address": "成都市都江堰市都江堰景区内", "image": "", "rank": 8, "time": 0.35, "location": {"lat": 31.00667268295621, "lng": 103.6186436124583}, "feature": {"sight_features": "特色1 横跨在都江堰内江和外江的分水处，走在桥面上，摇摇晃晃很刺激。", "sight_content": "安澜索桥是都江堰景区内的一座铁索桥，横跨在都江堰景区内的外江与内江分水处。安澜索桥又叫“夫妻桥”，始建于宋代以前，后来毁于战火，清朝嘉庆八年重修。如今的安澜索桥的桥面上有钢索连接两岸，两岸的桥墩也已经换成了混凝土桩。因为是铁索桥，游客走在桥面上会晃来晃去的，很有意思。"}}, {"title": "二王庙", "address": "成都市都江堰市都江堰景区内，岷江东岸", "image": "", "rank": 9, "time": 1.0, "location": {"lat": 31.00667268295621, "lng": 103.6186436124583}, "feature": {"sight_features": "", "sight_content": ""}}, {"title": "离堆公园", "address": "成都市都江堰市公园路青城山，都江堰风景名胜区内", "image": "", "rank": 10, "time": 1.5, "location": {"lat": 31.013680961503045, "lng": 103.61415737053804}, "feature": {"sight_features": "", "sight_content": ""}}, {"title": "建福宫", "address": "成都市都江堰市青城山前山景区丈人峰下", "image": "", "rank": 11, "time": 0.75, "location": {"lat": 30.91009696027086, "lng": 103.56970173640926}, "feature": {"sight_features": "", "sight_content": ""}}, {"title": "飞沙堰", "address": "成都市都江堰市公园路青城山·都江堰风景名胜区内", "image": "", "rank": 12, "time": 0.75, "location": {"lat": 31.013680961503045, "lng": 103.61415737053804}, "feature": {"sight_features": "", "sight_content": ""}}, {"title": "虹口自然保护区", "address": "成都市都江堰市虹口乡境内", "image": "", "rank": 13, "time": 3.5, "location": {"lat": 31.122188754013525, "lng": 103.67361517110739}, "feature": {"sight_features": "", "sight_content": ""}}, {"title": "龙隐峡栈道", "address": "成都市都江堰市青城后山五龙沟中段", "image": "", "rank": 14, "time": 0.4, "location": {"lat": 30.92182406499359, "lng": 103.48771700370172}, "feature": {"sight_features": "", "sight_content": ""}}, {"title": "泰安寺", "address": "成都市都江堰市青城后山泰安古镇内", "image": "", "rank": 15, "time": 0.4, "location": {"lat": 30.926726071776734, "lng": 103.49784618164912}, "feature": {"sight_features": "", "sight_content": ""}}, {"title": "翠映湖", "address": "成都市都江堰市青城山青城后山内", "image": "", "rank": 16, "time": 0.25, "location": {"lat": 30.895931946000932, "lng": 103.60957783150582}, "feature": {"sight_features": "", "sight_content": ""}}, {"title": "赵公山", "address": "成都市都江堰市玉堂镇境内", "image": "", "rank": 17, "time": 2, "location": {"lat": 30.977402314100747, "lng": 103.57397314587189}, "feature": {"sight_features": "", "sight_content": ""}}, {"title": "伏龙观", "address": "成都市都江堰市都江堰景区内", "image": "", "rank": 18, "time": 0.3, "location": {"lat": 31.00667268295621, "lng": 103.6186436124583}, "feature": {"sight_features": "", "sight_content": ""}}, {"title": "龙池国家森林公园", "address": "成都市都江堰市龙池镇", "image": "", "rank": 19, "time": 3.0, "location": {"lat": 31.064433803221657, "lng": 103.56451982424443}, "feature": {"sight_features": "", "sight_content": ""}}, {"title": "玉垒山公园", "address": "成都市都江堰市都江堰景区内", "image": "", "rank": 20, "time": 1.0, "location": {"lat": 31.00667268295621, "lng": 103.6186436124583}, "feature": {"sight_features": "", "sight_content": ""}}, {"title": "都江堰博物馆", "address": "成都市都江堰市都江堰景区内", "image": "", "rank": 21, "time": 0.4, "location": {"lat": 31.00667268295621, "lng": 103.6186436124583}, "feature": {"sight_features": "", "sight_content": ""}}, {"title": "熊猫谷", "address": "成都市都江堰市玉堂镇熊猫谷附近", "image": "", "rank": 22, "time": 2.5, "location": {"lat": 30.96815223554312, "lng": 103.59672680313436}, "feature": {"sight_features": "特色1 这里有参加野化训练的熊猫宝宝。", "sight_content": "熊猫谷内有几只萌哒哒的熊猫宝宝，这些熊猫有些是来这里参加野化过渡训练的，它们来到这里，接受圈养大熊猫野化训练，然后接受评估，根据评估的结果，确定是否适合放归自然。\n熊猫谷位于都江堰市玉堂镇白马村，全名：成都大熊猫繁育研究基地都江堰繁育野放研究中心。这里有半原生态的野放过渡实验区，大熊猫暂时会住在外形似碉堡的兽舍里，今后逐步适应野外生活。喜欢大熊猫的游客，可以到这里来看看国宝。"}}, {"title": "秦堰楼", "address": "成都市都江堰市都江堰景区内", "image": "", "rank": 23, "time": 0.4, "location": {"lat": 31.00667268295621, "lng": 103.6186436124583}, "feature": {"sight_features": "", "sight_content": ""}}, {"title": "上清宫", "address": "成都市都江堰市青城山景区内", "image": "", "rank": 24, "time": 2.0, "location": {"lat": 30.901804184546872, "lng": 103.5963132592098}, "feature": {"sight_features": "", "sight_content": ""}}, {"title": "天师洞", "address": "成都市都江堰市青城山景区内", "image": "", "rank": 25, "time": 0.4, "location": {"lat": 30.901804184546872, "lng": 103.5963132592098}, "feature": {"sight_features": "", "sight_content": ""}}, {"title": "老君阁", "address": "成都市都江堰市青城山景区内，彭祖峰顶", "image": "", "rank": 26, "time": 0.75, "location": {"lat": 30.901804184546872, "lng": 103.5963132592098}, "feature": {"sight_features": "", "sight_content": ""}}, {"title": "月城湖", "address": "成都市都江堰市青城山旅游区月城湖", "image": "", "rank": 27, "time": 0.75, "location": {"lat": 30.90334156930864, "lng": 103.5794910476534}, "feature": {"sight_features": "", "sight_content": ""}}, {"title": "朝阳洞", "address": "成都市都江堰市青城山景区内", "image": "", "rank": 28, "time": 0.3, "location": {"lat": 30.901804184546872, "lng": 103.5963132592098}, "feature": {"sight_features": "", "sight_content": ""}}, {"title": "全真观", "address": "成都市都江堰市青城山景区内", "image": "", "rank": 29, "time": 0.5, "location": {"lat": 30.901804184546872, "lng": 103.5963132592098}, "feature": {"sight_features": "", "sight_content": ""}}, {"title": "五洞天", "address": "成都市都江堰市青城山前山景区内（天然图画坊与天师洞之间）", "image": "", "rank": 30, "time": 0.25, "location": {"lat": 30.908799066642494, "lng": 103.56770501526069}, "feature": {"sight_features": "", "sight_content": ""}}, {"title": "飞泉沟", "address": "成都市都江堰市青城后山景区内", "image": "", "rank": 31, "time": 1.0, "location": {"lat": 30.92446871952633, "lng": 103.49132296012054}, "feature": {"sight_features": "", "sight_content": ""}}, {"title": "天然图画坊", "address": "成都市都江堰市青城山前山景区内", "image": "", "rank": 32, "time": 2, "location": {"lat": 30.91009696027086, "lng": 103.56970173640926}, "feature": {"sight_features": "", "sight_content": ""}}, {"title": "天然阁", "address": "成都市都江堰市青城山景区内", "image": "", "rank": 33, "time": 0.25, "location": {"lat": 30.901804184546872, "lng": 103.5963132592098}, "feature": {"sight_features": "", "sight_content": ""}}, {"title": "又一村", "address": "成都市都江堰市青城后山内五龙沟之上的桃花溪", "image": "", "rank": 34, "time": 1.5, "location": {"lat": 30.92446871952633, "lng": 103.49132296012054}, "feature": {"sight_features": "", "sight_content": ""}}, {"title": "祖师殿", "address": "成都市都江堰市青城山青城前山内", "image": "", "rank": 35, "time": 0.4, "location": {"lat": 30.903518716514025, "lng": 103.57934767270417}, "feature": {"sight_features": "", "sight_content": ""}}, {"title": "圆明宫", "address": "成都市都江堰市青城山景区内", "image": "", "rank": 36, "time": 0.5, "location": {"lat": 30.901804184546872, "lng": 103.5963132592098}, "feature": {"sight_features": "", "sight_content": ""}}, {"title": "百丈桥", "address": "成都市都江堰市青城后山内", "image": "", "rank": 37, "time": 0.2, "location": {"lat": 30.92446871952633, "lng": 103.49132296012054}, "feature": {"sight_features": "", "sight_content": ""}}, {"title": "白云万佛洞", "address": "成都市都江堰市青城后山", "image": "", "rank": 38, "time": 0.65, "location": {"lat": 30.92446871952633, "lng": 103.49132296012054}, "feature": {"sight_features": "", "sight_content": ""}}, {"title": "三潭雾泉", "address": "成都市都江堰市青城后山景区内", "image": "", "rank": 39, "time": 0.25, "location": {"lat": 30.92446871952633, "lng": 103.49132296012054}, "feature": {"sight_features": "", "sight_content": ""}}, {"title": "熊猫乐园", "address": "成都市都江堰市观音院（怀中路青城山镇与大观镇之间）", "image": "", "rank": 40, "time": 2.0, "location": {"lat": 30.867835083910077, "lng": 103.58389072885474}, "feature": {"sight_features": "特色1 美山美水领略过，祖国的国宝可不能错过。", "sight_content": "中国大熊猫保护研究中心都江堰基地(又名“熊猫乐园”)位处都江堰市大观镇，由香港特区政府援建，距市区18公里，占地760亩，是成都周边拥有最多熊猫的一处基地，\n目前有30多只大熊猫生活在这里，包括即将要到韩国的两只熊宝宝。熊猫乐园呈现的是川西林盘民居风格，园区内竹林婆娑，加上成片的草坪和蜿蜒步道，步入其中顿觉神清气爽。\n值得一提的是，乐园整体是按照绿色建筑三星奖的标准设计，同时紧邻大熊猫栖息地世界遗产区域，拥有适宜大熊猫生活的气候和自然环境。这里，有方竹、拐棍竹、箭竹等可供大熊猫的食用竹，可以说衣食无忧。"}}, {"title": "卧铁", "address": "成都市都江堰市离堆公园内", "image": "", "rank": 41, "time": 0.15000000000000002, "location": {"lat": 31.002543363891096, "lng": 103.61989525835588}, "feature": {"sight_features": "", "sight_content": ""}}, {"title": "灌县古城", "address": "成都市都江堰市灌县古城", "image": "", "rank": 42, "time": 3.0, "location": {"lat": 31.00117800260163, "lng": 103.62949030833857}, "feature": {"sight_features": "", "sight_content": ""}}, {"title": "都江堰青城道温泉", "address": "都江堰市青城山镇青城大道88号青城山风景区，毗临青城前山山门（青城豪生国际酒店内）", "image": "", "rank": 43, "time": 7.5, "location": {"lat": 30.900200086832054, "lng": 103.60622587186825}, "feature": {"sight_features": "特色1 吐纳青城气息，享受自然温暖 特色2 典型的碳酸盐泉", "sight_content": "青城道温泉依山而建，错落雅致，返朴求真，占地60余亩，是青城山首种保健疗效，是典型的碳酸盐泉。家以养生、健康为主题的大型温泉休闲会所。\n传说中太阳洗浴的地方，由五星级青城(豪生)国际酒店2008年年末钜献，位于青城山前山新山门对面。温泉攫取青城山地层深处优质矿泉，以奥运水立方选用的高纯度水过滤技术，打造60余亩全生态有水休闲、养生为一体的休闲养生大型温泉。温泉依山而建，全天然奇石造就了自然野趣，数十亩名木与青城山幽绿浑然一体，吐纳青城气息，享受自然温暖。特设大型室内恒温景观汤池，生态、休闲，情趣无限;专辟50座全生态露天泉池，根据科学康疗和养生原理，提供36℃—42℃不同水温，营造不同风格和养生效果的私密个性空间。\n青城道温泉设350平方米室内景观汤池、40余座全生态露天汤池、4幢vip温泉别墅。特设高级水疗、传统足道、道家木桶药浴、牛奶浴、玫瑰花浴、牡丹花浴、茉莉花浴、户外森林spa、地暖肩颈舒压等养生服务项目。 问道青城山，养生道温泉。青城道温泉将优美的园林风光、浓郁的道家养生文化和五星级酒店的服务融为一体，是您养生、度假、休闲的理想之地。"}}, {"title": "玉垒阁", "address": "成都市都江堰市城西公园路都江堰风景名胜区内", "image": "", "rank": 44, "time": 2, "location": {"lat": 31.013680961503045, "lng": 103.61415737053804}, "feature": {"sight_features": "", "sight_content": ""}}, {"title": "松茂古道", "address": "成都市都江堰市都江堰风景区", "image": "", "rank": 45, "time": 0.5, "location": {"lat": 30.994256893542204, "lng": 103.65353360443186}, "feature": {"sight_features": "", "sight_content": ""}}, {"title": "狐巴巴星球", "address": "成都市都江堰市莲花湖旅游公路188号", "image": "", "rank": 46, "time": 2, "location": {"lat": 31.085663882789206, "lng": 103.74817997126864}, "feature": {"sight_features": "特色1 集水、陆、空极限运动为一体的冒险园。", "sight_content": "狐巴巴冒险园是集水、陆、空极限运动为一体的冒险园，在自然山林浅水区块，融合水上流线+丛林探险游线，创建出的高空中飞索主题游乐、水上欢畅以及陆地极限探索等功能的运动营地，将唤醒热爱户外探险人的活力。在自然野趣中度假，一起探索户外运动生命力。\n入园福利：入园门票即可参加大草坪组织各类活动、跳跳狐乐园蹦床等项目、儿童平衡车、小天飞狐（身高1.2米以下）户外儿童乐园。\n项目介绍：\n1.树顶飞索\n这是一个毕生难忘的生态冒险之旅，你将会在旅程中收获很多。狐巴巴是都江堰的一个秘境，从一棵树到另一棵树，以后您会知道，这里不只有美食，美景和悠悠历史，还有探险与心跳。\n2.山地自行车训练营/赛道\n可以一人一车，顺着山路寻找与众不同；可以与亲密友人，沿着湖边亦或林径小道，慢慢骑行，享受亲密甜蜜时光；也可以带着家人，在山林中偶遇不经意的花草；当然，得天独厚的地形赋予了开辟国际型赛道的优势，覆盖初级至中级需求，亦可以进行拓展训练。\n3.射箭\n射箭之先，需行端，志正，凝神，射不动心。在狐巴巴冒险乐园享受的不仅仅是力量的较劲，更是精神上的比拼。弓拉如满月，箭射似流星。沉着冷静，拉弓搭建，将精神力灌入箭羽，离弦破风，百步穿杨。\n4、冒险塔（攀岩&自由落体）\n勇者们遇崖而降，逢岩而攀。速降逐渐以其特有的魅力吸引了一批勇者。走进悬崖峭壁、森林溪流中去体验飞翔的感觉，7米，11米两种自由落体挑战，11米攀岩墙，分高中低三个难度挑战。\n5、飞狐网阵\n引领户外冒险的新时尚运动，感受飞跃的丛林紧张感；感受同伴的尖叫声此起披伏\n每个人都在为你尖叫。狐巴巴冒险园将风靡欧洲数十年的“攀爬网阵”升级为更独特的飞狐网阵，三种不同难度的路线给你带来不同的刺激体验。\n6、跳跳狐\n弹跳而起，如空中飞舞，跃起投篮，圆了灌篮梦！专业娱乐相结合的蹦床作为室内活动。\n7、儿童挑战塔\n结合天空步道理念为小勇士们打造的专业拓展训练系统，多个特点各异的拓展平台和顶级的安全设备。登上狐巴巴儿童挑战塔身体将会受到挑战，精神和意志更是会受到考验；只有全身心投入的小勇士才能完成挑战，小勇士们，准备好挑战自我了么？\n8、小飞天狐乐园\nHubabaKids的极趣体验，挑战！探险！勇往直前！欢乐无限，做一个小小的飞天狐\n包含1条儿童小飞索+2个攀爬网+4个穿越攀爬项目\n9、儿童平衡车\n狐巴巴冒险园不仅提供成人赛道，也为小小勇士们准备了儿童平衡车赛道。全长100米的专用赛道设有不同起伏的坡道和弯道障碍，并由专业教练将为小勇士们细致讲解专用平衡车的骑行动作。让小小勇士们马上就能成为熟练骑手，在赛道上穿越尘土，自由驰骋！"}}, {"title": "灵岩山", "address": "成都市都江堰市百花岭路54号", "image": "", "rank": 47, "time": 3.5, "location": {"lat": 31.01238253064499, "lng": 103.6217823790458}, "feature": {"sight_features": "", "sight_content": ""}}, {"title": "都江堰水文化广场", "address": "成都市都江堰市都江堰大道与太平街交叉", "image": "", "rank": 48, "time": 0.75, "location": {"lat": 30.99541851833536, "lng": 103.63246798539221}, "feature": {"sight_features": "", "sight_content": ""}}, {"title": "玉垒关", "address": "成都市都江堰市都江堰景区 ‎", "image": "", "rank": 49, "time": 1.0, "location": {"lat": 31.00667268295621, "lng": 103.6186436124583}, "feature": {"sight_features": "", "sight_content": ""}}, {"title": "掷笔槽", "address": "成都市都江堰市青城山景区内", "image": "", "rank": 50, "time": 0.25, "location": {"lat": 30.901804184546872, "lng": 103.5963132592098}, "feature": {"sight_features": "", "sight_content": ""}}, {"title": "都江堰城隍庙", "address": "。成都市都江堰市都江堰景区玉垒山南麓、玉垒山广场北侧", "image": "", "rank": 51, "time": 1.0, "location": {"lat": 31.00667268295621, "lng": 103.6186436124583}, "feature": {"sight_features": "", "sight_content": ""}}, {"title": "清溪园", "address": "成都市都江堰市离堆公园东南角", "image": "", "rank": 52, "time": 0.3, "location": {"lat": 31.002543363891096, "lng": 103.61989525835588}, "feature": {"sight_features": "", "sight_content": ""}}, {"title": "青城外山", "address": "成都市都江堰市大观镇", "image": "", "rank": 53, "time": 4.0, "location": {"lat": 30.859616861223692, "lng": 103.5580703697677}, "feature": {"sight_features": "", "sight_content": ""}}, {"title": "成都乌木艺术博物馆", "address": "成都市都江堰市青城大道", "image": "", "rank": 54, "time": 2.0, "location": {"lat": 30.97077336599799, "lng": 103.63314808800229}, "feature": {"sight_features": "特色1 从乌木中感受千万年的历史变迁", "sight_content": "成都乌木艺术博物馆由台湾艺术家卢泓杰先生斥巨资创办，是中国四川第一家正式批准成立的非国有博物馆，是世界首家以研究乌木文化、对乌木实施挖掘保护及艺术创作和收藏的大型公益性主题博物馆，是重要的世界环保文化教育基地。\n经过多年的研究发现，乌木是四川特有的物品，堪称“植物木乃伊”，而熊猫是“动物的木乃伊”，所以乌木和熊猫一样是国宝，也是北纬30度的神奇现象，具有极高的科研价值、文化艺术价值、收藏价值。\n博物馆成立至今近三十年，2008年后落户于都江堰中兴镇花木城，占地80余亩，建筑面积13000平方米。馆内有千余件乌木藏品，是陈列规模和藏品价值都堪称世界之最的乌木王国。博物馆现为拟特A级景区，具有完善的接待能力，成熟的规划及运营。\n乌木文化以自然为载体、主张天、地、人和谐，遵循自然法则，而以无极、太极：五行、八卦、河图、洛书为表现的多元化华夏文化，引领我们走进更古文明。它们所体现的人和自然共和谐的景象，见证了中华民族的伟大复兴。博物馆将永远致力于把乌木及其文化推广在成都都江堰、在中国乃至世界，弘扬乌木及中华优秀传统文化，福报天下大众,声振五湖四海。"}}, {"title": "鸳鸯井", "address": "成都市都江堰市青城山彭祖峰东坡上的上清宫右侧", "image": "", "rank": 55, "time": 0.15000000000000002, "location": {"lat": 30.91009696027086, "lng": 103.56970173640926}, "feature": {"sight_features": "", "sight_content": ""}}, {"title": "华希昆虫博物馆", "address": "成都市都江堰市青城山脚下", "image": "", "rank": 56, "time": 1.0, "location": {"lat": 30.91009696027086, "lng": 103.56970173640926}, "feature": {"sight_features": "", "sight_content": ""}}, {"title": "奎光塔", "address": "成都市都江堰市奎光路", "image": "", "rank": 57, "time": 1.0, "location": {"lat": 30.990844749690407, "lng": 103.62575150780603}, "feature": {"sight_features": "", "sight_content": ""}}, {"title": "都江堰水果侠星球", "address": "成都市都江堰市玉堂镇鑫玉大道130号（都汶高速路口）", "image": "", "rank": 58, "time": 4.0, "location": {"lat": 30.980827729842773, "lng": 103.60871167729243}, "feature": {"sight_features": "特色1 拜水都江堰，欢乐水果侠。 特色2 “寓教于乐”、“增进家庭互动”。 特色3 全家人尽情享受缤纷欢乐时光。", "sight_content": "水果侠主题世界是都江堰新打造的大型室外主题乐园，位于都江堰市玉堂镇，紧邻都汶高速都江堰出口，交通方便快捷。\n由魔法动物森林、香蕉侠攀爬王国、菠萝菠萝水世界和水果江湖小镇四大乐园组成，满足不同年龄层游玩需求。"}}, {"title": "茶溪谷", "address": "成都市都江堰市向峨乡石碑村", "image": "", "rank": 59, "time": 1.0, "location": {"lat": 31.07370079482977, "lng": 103.70431309735078}, "feature": {"sight_features": "特色1 体验新农村生活，释放自我（免费游览无需证件） 特色2 生态的盛宴，亲子的乐园。 特色3 让人放松的茶溪谷。", "sight_content": "茶溪谷位于都江堰市向峨乡石碑村，处于成都市1小时经济圈内，距都江堰城区6公里，占地1200亩。独特的区位优势，使之成为休闲农业与乡村旅游相互承接的典范。是一家集体验、观光、度假、教育于一体的——茶乡圣地。充分彰显乡村风情与历史文化的和谐统一。\n家庭农场、户外运动、品茗休闲、科普教育等是其独特的亮点。茶餐饮、农家菜、农夫超市、自助烧烤等让您快乐、时尚、惬意。具备日接待上千人的优质服务团队。在翠绿的树林、潺潺的山溪水旁，当地主、做农夫的快乐，在山村里自然的劳动、运动,享受亲情，加密友情、收获爱情。\n茶溪谷是现代快节奏生活之外的一块净地，让您当起快乐的农夫、自主的场主。这里是您生态的盛宴、亲子的乐园、梦想的田园、养生的圣殿、有机的菜园。走进茶溪谷，追寻历史的脚印。体验新农村生活，忘情于山水，融入于自然，自由穿行，释放自我。"}}, {"title": "青城湾湿地庄园", "address": "成都市都江堰市柳街镇金龙村", "image": "", "rank": 60, "time": 2, "location": {"lat": 30.791244118027272, "lng": 103.64934859848469}, "feature": {"sight_features": "", "sight_content": ""}}]}