{"cityName": "寻甸", "days": null, "cityImage": "", "spots": [{"title": "凤龙湾景区薰衣草庄园", "address": "昆明市寻甸回族彝族自治县", "image": "", "rank": 1, "time": 2.0, "location": {"lat": 25.563893580433085, "lng": 103.26357387134848}, "feature": {"sight_features": "", "sight_content": ""}}, {"title": "天湖岛高尔夫俱乐部", "address": "昆明市寻甸县河口乡北大营", "image": "", "rank": 2, "time": 2, "location": {"lat": 25.608735203103887, "lng": 103.43813578158448}, "feature": {"sight_features": "", "sight_content": ""}}, {"title": "红军长征柯渡纪念馆", "address": "昆明市寻甸回族彝族自治县", "image": "", "rank": 3, "time": 0.75, "location": {"lat": 25.563893580433085, "lng": 103.26357387134848}, "feature": {"sight_features": "", "sight_content": ""}}, {"title": "北大营草原", "address": "昆明市寻甸回族彝族自治县河口乡北大营村，东南距县城30km，有柏油路直达景区", "image": "", "rank": 4, "time": 2, "location": {"lat": 25.606069596423687, "lng": 103.43605122232721}, "feature": {"sight_features": "", "sight_content": ""}}, {"title": "柯渡镇红军长征纪念馆", "address": "丹桂村", "image": "", "rank": 5, "time": 2, "location": {"lat": 31.873658230647955, "lng": 119.0354823688074}, "feature": {"sight_features": "", "sight_content": ""}}, {"title": "新弘圣蓝莓基地", "address": "207省道附近", "image": "", "rank": 6, "time": 2, "location": {"lat": 41.663861161619536, "lng": 118.91663300242887}, "feature": {"sight_features": "", "sight_content": ""}}, {"title": "三月三大鱼谷", "address": "峨云路16", "image": "", "rank": 7, "time": 2, "location": {"lat": 25.548209610847866, "lng": 103.25763301140263}, "feature": {"sight_features": "", "sight_content": ""}}, {"title": "海会寺", "address": "昆明市寻甸回族彝族自治县", "image": "", "rank": 8, "time": 1.0, "location": {"lat": 25.563893580433085, "lng": 103.26357387134848}, "feature": {"sight_features": "", "sight_content": ""}}, {"title": "清水海", "address": "昆明市寻甸回族彝族自治县仁德镇西14公里", "image": "", "rank": 9, "time": 2, "location": {"lat": 25.554089848951214, "lng": 103.13844220902047}, "feature": {"sight_features": "", "sight_content": ""}}, {"title": "玉皇宫", "address": "零零三县道", "image": "", "rank": 10, "time": null, "location": {"lat": 31.44174429957116, "lng": 119.87229581149033}, "feature": {"sight_features": "", "sight_content": ""}}, {"title": "省建农场", "address": "大河桥--中建", "image": "", "rank": 11, "time": 2, "location": {"lat": 35.941419025756154, "lng": 113.6244011254746}, "feature": {"sight_features": "", "sight_content": ""}}, {"title": "小街清真寺", "address": "云南省昆明市寻甸回族彝族自治县小街村委会清真寺", "image": "", "rank": 12, "time": null, "location": {"lat": 25.590561098845466, "lng": 103.50127053972099}, "feature": {"sight_features": "", "sight_content": ""}}, {"title": "凤龙湾战斗水库纪念碑", "address": "凤龙新村", "image": "", "rank": 13, "time": 2, "location": {"lat": 25.502516291642767, "lng": 103.35554973577212}, "feature": {"sight_features": "", "sight_content": ""}}, {"title": "横山庄", "address": "129乡道附近", "image": "", "rank": 14, "time": 2, "location": {"lat": 31.37019131410693, "lng": 118.64916262666347}, "feature": {"sight_features": "", "sight_content": ""}}, {"title": "丰乐度假山庄", "address": "075乡道附近", "image": "", "rank": 15, "time": 2, "location": {"lat": 44.419359189264945, "lng": 126.73968859038585}, "feature": {"sight_features": "", "sight_content": ""}}, {"title": "聂鼠龙清真寺", "address": "麦塘线东50米", "image": "", "rank": 16, "time": null, "location": {"lat": 25.472091588359287, "lng": 103.2711030037067}, "feature": {"sight_features": "", "sight_content": ""}}, {"title": "白家村清真寺", "address": "昆明市寻甸回族彝族自治县", "image": "", "rank": 17, "time": 2, "location": {"lat": 25.563893580433085, "lng": 103.26357387134848}, "feature": {"sight_features": "", "sight_content": ""}}, {"title": "寻甸仁德好朋友儿童乐园", "address": "月秀路美丽约定美容美体会所北侧", "image": "", "rank": 18, "time": 2, "location": {"lat": 28.02682737480574, "lng": 120.67024831898075}, "feature": {"sight_features": "", "sight_content": ""}}, {"title": "知鸟游乐园", "address": "昆明市寻甸回族彝族自治县广场西路7号", "image": "", "rank": 19, "time": 2, "location": {"lat": 25.55773699242216, "lng": 103.262786955722}, "feature": {"sight_features": "", "sight_content": ""}}, {"title": "寻甸河滨文化公园", "address": "云南省昆明市寻甸回族彝族自治县易天线河滨文化公园(公园尚居西100米)", "image": "", "rank": 20, "time": 0.75, "location": {"lat": 25.434152198238227, "lng": 103.25886913458059}, "feature": {"sight_features": "", "sight_content": ""}}, {"title": "小不点游乐园", "address": "昆明市寻甸回族彝族自治县宜居瑞麟21栋", "image": "", "rank": 21, "time": 2, "location": {"lat": 25.572821903695637, "lng": 103.27126625276698}, "feature": {"sight_features": "", "sight_content": ""}}, {"title": "丹桂清真寺", "address": "云南省昆明市寻甸回族彝族自治县柯渡镇板大线红军长征纪念馆", "image": "", "rank": 22, "time": 2, "location": {"lat": 25.56411144177598, "lng": 102.86938015635323}, "feature": {"sight_features": "", "sight_content": ""}}, {"title": "古城清真寺", "address": "云南省昆明市寻甸回族彝族自治县仁德街道县白线凤梧佳苑东南250米", "image": "", "rank": 23, "time": 2, "location": {"lat": 25.569777161351645, "lng": 103.27662236433453}, "feature": {"sight_features": "", "sight_content": ""}}, {"title": "甸沙休闲广场", "address": "明德街与80县道交叉口南200米", "image": "", "rank": 24, "time": 2, "location": {"lat": 37.09984237447802, "lng": 113.94698441993906}, "feature": {"sight_features": "", "sight_content": ""}}, {"title": "丰乐度假村", "address": "213国道附近", "image": "", "rank": 25, "time": 2, "location": {"lat": 24.055864840380938, "lng": 102.20969505158318}, "feature": {"sight_features": "", "sight_content": ""}}, {"title": "昌隆鱼庄", "address": "云南省昆明市寻甸回族彝族自治县", "image": "", "rank": 26, "time": 2, "location": {"lat": 25.563893580433085, "lng": 103.26357387134848}, "feature": {"sight_features": "", "sight_content": ""}}, {"title": "李家箐旅游山庄", "address": "李马段附近", "image": "", "rank": 27, "time": 2, "location": {"lat": 29.868777721048115, "lng": 121.2142076983298}, "feature": {"sight_features": "", "sight_content": ""}}, {"title": "童梦奇境游乐园", "address": "昆明市寻甸回族彝族自治县龙泉小区15号", "image": "", "rank": 28, "time": null, "location": {"lat": 25.563444648516562, "lng": 103.27254066531899}, "feature": {"sight_features": "", "sight_content": ""}}, {"title": "凤龙湾阿拉丁小镇", "address": "昆明市寻甸回族彝族自治县", "image": "", "rank": 29, "time": 3.0, "location": {"lat": 25.563893580433085, "lng": 103.26357387134848}, "feature": {"sight_features": "", "sight_content": ""}}, {"title": "回龙山娱乐山庄", "address": "回龙村", "image": "", "rank": 30, "time": 2, "location": {"lat": 35.26130487569098, "lng": 110.45809727361979}, "feature": {"sight_features": "", "sight_content": ""}}, {"title": "寻甸县图书馆", "address": "文苑路58号", "image": "", "rank": 31, "time": 2, "location": {"lat": 45.81259410954112, "lng": 126.57121812766903}, "feature": {"sight_features": "", "sight_content": ""}}, {"title": "金色农家乐", "address": "213国道附近", "image": "", "rank": 32, "time": 2, "location": {"lat": 24.055864840380938, "lng": 102.20969505158318}, "feature": {"sight_features": "", "sight_content": ""}}, {"title": "农大农场", "address": "026乡道附近", "image": "", "rank": 33, "time": 2, "location": {"lat": 45.75376621177619, "lng": 120.29702071223088}, "feature": {"sight_features": "", "sight_content": ""}}, {"title": "乡村生态园", "address": "024乡道与207省道交叉口东南150米", "image": "", "rank": 34, "time": null, "location": {"lat": 32.6964297419708, "lng": 119.82976531434065}, "feature": {"sight_features": "", "sight_content": ""}}, {"title": "边城", "address": "西门河埂路5", "image": "", "rank": 35, "time": 12.0, "location": {"lat": 25.561817744789945, "lng": 103.2625982010734}, "feature": {"sight_features": "", "sight_content": ""}}, {"title": "東亚农庄", "address": "鸡街镇东海水库", "image": "", "rank": 36, "time": 2, "location": {"lat": 25.640271965634792, "lng": 102.81569275778739}, "feature": {"sight_features": "", "sight_content": ""}}, {"title": "花道人间", "address": "竹园村委会西南侧", "image": "", "rank": 37, "time": 2, "location": {"lat": 31.672793561905753, "lng": 119.21083246313516}, "feature": {"sight_features": "", "sight_content": ""}}, {"title": "凤龙湾薰衣草庄园", "address": "凤龙湾景区内(寻甸县与马龙县的交界处)", "image": "", "rank": 38, "time": 2, "location": {"lat": 25.49617179206637, "lng": 103.34245551544241}, "feature": {"sight_features": "", "sight_content": ""}}, {"title": "52区真人密室逃脱", "address": "广场北路68号", "image": "", "rank": 39, "time": 2, "location": {"lat": 28.685301894615503, "lng": 115.9111491379006}, "feature": {"sight_features": "", "sight_content": ""}}, {"title": "大陡坞", "address": "昆明市-寻甸回族彝族自治县", "image": "", "rank": 40, "time": 2, "location": {"lat": 25.563893580433085, "lng": 103.26357387134848}, "feature": {"sight_features": "", "sight_content": ""}}, {"title": "昆明观音山", "address": "昆明市晋宁县晋城镇杨户村", "image": "", "rank": 41, "time": 2.0, "location": {"lat": 24.66398889155231, "lng": 102.71238745798753}, "feature": {"sight_features": "", "sight_content": ""}}]}