{"cityName": "敦化", "days": 2, "cityImage": "", "spots": [{"title": "六鼎山文化旅游区", "address": "敦化市六鼎山文化旅游区管委会", "image": "", "rank": 1, "time": 7.5, "location": {"lat": 43.37829127451678, "lng": 128.23861239315394}, "feature": {"sight_features": "特色1 参观释迦牟尼青铜坐像，登临大佛脚下祈福许愿。 特色2 关中地区历代各族人民智慧结晶的聚集地。", "sight_content": "六鼎山，一座见证了满清文化发源的千年名山；一座孕育了古渤海文化、萨满文化、龙兴文化、二十四石神秘文化、佛教文化的龙脉之地。一千多年来，历经了无数风雨沧桑世事更迭，它曾有过盛世开篇的雄伟激情，也曾有过山河破碎的扼腕悲壮，在千年之后的今天它又迎来了改革开放的朝气勃发。凄婉的陵墓里，沉寂着古渤海早期王族和贵族；贞慧公主的墓志碑上，刻记着：“大兴宝历孝感……法王（渤海第三代王大钦茂第二女也）。生于深宫、绰质绝伦、温如昆风之片玉……早受女师之教每慕曹家之风。”墓中石狮造型雄浑生动，一派唐风，仿佛固执的要向人们讲诉，那段吸收了汉民族文化后灿烂的渤海文明。六鼎山就这样见证着历史，感受着变迁。\n\n\n是国家aaaa级景区，东北亚著名的佛教旅游胜地。是省级文化旅游开发区，是吉林省第一家文化旅游区试点单位。景区内的金鼎大佛像体总高48米，坐落于云龙山顶峰，背倚牡丹江，前拥正觉寺，远望长白山，与香港天坛大佛遥相对应，分处神州南北，共佑中华大地，是世界第一高释迦牟尼青铜坐佛。大佛基座是佛教文化艺术馆，馆内设有万佛殿、客堂、功德堂、法堂、展览大厅等，万佛殿美仑美奂、工艺精湛，功德堂内的如来金佛仪态庄严、满愿众生，整体建筑是佛教建筑艺术的最高体现；正觉寺是世界上最大的尼众道场之一，寺院内的观音殿和玉佛苑造型独特，巧夺天工，属世界独创，千手观音和独体缅玉玉佛工艺精湛，世界唯一；清祖祠是长白山满族历史文化与民俗文化的展示中心，也是海内外满族人寻根祭祖的圣地和人文精神的家园；渤海古墓群为渤海国早期王室贵族的陵寝，是国务院第一批公布的全国重点文物保护单位。"}}, {"title": "敦化金鼎大佛", "address": "延边朝鲜族自治州敦化市佑安路附近", "image": "", "rank": 2, "time": 7.5, "location": {"lat": 43.332182153167025, "lng": 128.2483702205866}, "feature": {"sight_features": "", "sight_content": ""}}, {"title": "渤海广场", "address": "延边朝鲜族自治州敦化市翰章大街与团结路交汇处", "image": "", "rank": 3, "time": 1.0, "location": {"lat": 43.3650048986295, "lng": 128.23485513513808}, "feature": {"sight_features": "", "sight_content": ""}}, {"title": "正觉寺", "address": "延边朝鲜族自治州敦化市菩提大路10号", "image": "", "rank": 4, "time": 0.75, "location": {"lat": 43.32581897135442, "lng": 128.25447371605208}, "feature": {"sight_features": "", "sight_content": ""}}, {"title": "南湖公园", "address": "延边朝鲜族自治州敦化市南环路与六顶山路交汇处", "image": "", "rank": 5, "time": 2.5, "location": {"lat": 43.36068418603234, "lng": 128.23337056311328}, "feature": {"sight_features": "", "sight_content": ""}}, {"title": "老白山原始生态景区", "address": "延边朝鲜族自治州敦化市黄泥河林业局团北林场", "image": "", "rank": 6, "time": null, "location": {"lat": 43.56405397719439, "lng": 128.02276555996127}, "feature": {"sight_features": "", "sight_content": ""}}, {"title": "雁鸣湖神龙温泉度假村", "address": "敦化市延边朝鲜族自治洲敦化市雁鸣湖镇", "image": "", "rank": 7, "time": 2, "location": {"lat": 43.695194111006934, "lng": 128.609516114119}, "feature": {"sight_features": "特色1 原生高温弱碱性富矿氯化物高温温泉 特色2 湖山环绕，长白山边的世外桃源", "sight_content": "雁鸣湖温泉是大自然馈赠给人类的宝藏，隆泰集团锦上添花，将这里开发建设成规模庞大、风景怡人、设施先进、功能齐全的长白山雁鸣湖温泉度假村，长白山雁鸣湖温泉度假村地处东北地区生态环境极佳的湿地核心区，交通便利，环境优异。\n拥有雁鸣湖地区的灵山秀水、黑土地有机食品、原生高温弱碱性富矿氯化物高温温泉等珍稀资源，并规划了温泉养生、中西医结合疗养、有氧运动、膳食调理、儒释道清心养神的“五位一体”疗养方案，建设了东北地区的玉池温泉群等完善的基础设施，为游客提供修心养性、强身健体的绝佳去处。同时，度假村也愿与有识之士开展多种形式的合作，互惠互利，同谋大业，共同开发、建设、保护雁鸣湖温泉，共享这得天独厚的优质资源。"}}, {"title": "清祖祠", "address": "延边朝鲜族自治州敦化市六鼎山文化旅游区内。", "image": "", "rank": 8, "time": 1.0, "location": {"lat": 43.37829127451678, "lng": 128.23861239315394}, "feature": {"sight_features": "", "sight_content": ""}}, {"title": "寒葱岭枫叶红色旅游观光休闲区", "address": "延边朝鲜族自治州敦化市江源镇寒葱岭林场内", "image": "", "rank": 9, "time": 1.5, "location": {"lat": 43.01619401827562, "lng": 128.00674266873241}, "feature": {"sight_features": "", "sight_content": ""}}, {"title": "南山公园", "address": "延边朝鲜族自治州敦化市西林派出所斜对面", "image": "", "rank": 10, "time": 2.5, "location": {"lat": 43.30466165808262, "lng": 128.50679674213865}, "feature": {"sight_features": "", "sight_content": ""}}, {"title": "佛教文化馆", "address": "延边朝鲜族自治州敦化市六鼎山文化旅游区内", "image": "", "rank": 11, "time": 1.0, "location": {"lat": 43.37829127451678, "lng": 128.23861239315394}, "feature": {"sight_features": "", "sight_content": ""}}, {"title": "皇家鹿苑", "address": "延边市敦化市沙河沿镇鹿场", "image": "", "rank": 12, "time": 2, "location": {"lat": 43.48256043449566, "lng": 128.40770784582602}, "feature": {"sight_features": "", "sight_content": ""}}, {"title": "敦化市烈士陵园", "address": "延边朝鲜族自治州敦化市北山公园内", "image": "", "rank": 13, "time": 1.0, "location": {"lat": 43.38601428093979, "lng": 128.23477540962577}, "feature": {"sight_features": "", "sight_content": ""}}, {"title": "雁鸣湖国家级自然保护区", "address": "延边朝鲜族自治州敦化市境内（长白山脉张广才岭南麓）", "image": "", "rank": 14, "time": 1.5, "location": {"lat": 43.37829127451678, "lng": 128.23861239315394}, "feature": {"sight_features": "", "sight_content": ""}}, {"title": "深山红色旅游景区", "address": "延边朝鲜族自治州敦化市江源镇保中桥林场", "image": "", "rank": 15, "time": 1.5, "location": {"lat": 43.182639688274705, "lng": 128.0290226090757}, "feature": {"sight_features": "", "sight_content": ""}}, {"title": "渤海国古墓群", "address": "延边朝鲜族自治州敦化市六鼎山文化旅游区内", "image": "", "rank": 16, "time": 0.6, "location": {"lat": 43.37829127451678, "lng": 128.23861239315394}, "feature": {"sight_features": "", "sight_content": ""}}, {"title": "陈翰章烈士陵园", "address": "延边朝鲜族自治州敦化市翰章乡翰章村", "image": "", "rank": 17, "time": 1.0, "location": {"lat": 43.35742160595324, "lng": 128.16218201097396}, "feature": {"sight_features": "", "sight_content": ""}}, {"title": "敖东城遗址", "address": "延边朝鲜族自治州敦化市区东南部", "image": "", "rank": 18, "time": 1.0, "location": {"lat": 43.37829127451678, "lng": 128.23861239315394}, "feature": {"sight_features": "", "sight_content": ""}}, {"title": "黄泥河保护区", "address": "延边朝鲜族自治州敦化市黄泥河镇", "image": "", "rank": 19, "time": 1.0, "location": {"lat": 43.56480244534529, "lng": 128.03374547005714}, "feature": {"sight_features": "", "sight_content": ""}}, {"title": "敦化市博物馆", "address": "延边朝鲜族自治州敦化市六顶山路", "image": "", "rank": 20, "time": 1.0, "location": {"lat": 43.34161569336543, "lng": 128.23713555104808}, "feature": {"sight_features": "", "sight_content": ""}}, {"title": "北山公园", "address": "延边朝鲜族自治州敦化市敖东大街与敦一青县道交汇处", "image": "", "rank": 21, "time": 1.0, "location": {"lat": 43.38652323834313, "lng": 128.23627299360587}, "feature": {"sight_features": "", "sight_content": ""}}, {"title": "大石头亚光湖国家湿地公园", "address": "吉林省延边朝鲜族自治州敦化市", "image": "", "rank": 22, "time": 2, "location": {"lat": 43.37829127451678, "lng": 128.23861239315394}, "feature": {"sight_features": "", "sight_content": ""}}, {"title": "般若天阶", "address": "吉林省延边朝鲜族自治州敦化市江南镇六鼎山风景区", "image": "", "rank": 23, "time": 2, "location": {"lat": 43.32357964084258, "lng": 128.24540554740352}, "feature": {"sight_features": "", "sight_content": ""}}, {"title": "玉佛苑", "address": "延边朝鲜族自治州敦化市六鼎山文化旅游区内", "image": "", "rank": 24, "time": 1.0, "location": {"lat": 43.37829127451678, "lng": 128.23861239315394}, "feature": {"sight_features": "", "sight_content": ""}}, {"title": "哈尔巴岭旅游度假区", "address": "延边朝鲜族自治州敦化市大石头镇哈尔巴岭村", "image": "", "rank": 25, "time": 1.5, "location": {"lat": 43.27431433699569, "lng": 128.64034892632455}, "feature": {"sight_features": "", "sight_content": ""}}, {"title": "俄韩3D画展", "address": "延边朝鲜族自治州敦化市六鼎山不夜城俄韩超市", "image": "", "rank": 26, "time": 2, "location": {"lat": 43.37829127451678, "lng": 128.23861239315394}, "feature": {"sight_features": "", "sight_content": ""}}, {"title": "黄泥河净土寺", "address": "延边朝鲜族自治州敦化市黄泥河镇长青街", "image": "", "rank": 27, "time": 1.0, "location": {"lat": 43.56480244534529, "lng": 128.03374547005714}, "feature": {"sight_features": "", "sight_content": ""}}, {"title": "灵山寺", "address": "延边朝鲜族自治州敦化市大石头镇民强村", "image": "", "rank": 28, "time": 1.0, "location": {"lat": 43.29749944991884, "lng": 128.45479703772688}, "feature": {"sight_features": "", "sight_content": ""}}, {"title": "雪乡文化展览馆", "address": "雪韵大街z036号", "image": "", "rank": 29, "time": 1.5, "location": {"lat": 35.763564195334055, "lng": 115.03314195223062}, "feature": {"sight_features": "", "sight_content": ""}}, {"title": "敦化图书馆", "address": "新宾路与华康大街交汇处", "image": "", "rank": 30, "time": 1.5, "location": {"lat": 43.36393430587155, "lng": 128.24889851854851}, "feature": {"sight_features": "", "sight_content": ""}}, {"title": "百草沟遗址", "address": "吉林省汪清县百草沟镇安田村 133212", "image": "", "rank": 31, "time": 2, "location": {"lat": 43.24201706367482, "lng": 129.61366772447266}, "feature": {"sight_features": "", "sight_content": ""}}, {"title": "二人转教化大戏院", "address": "站北街东100米", "image": "", "rank": 32, "time": 2, "location": {"lat": 40.86830823738537, "lng": 122.75284708433227}, "feature": {"sight_features": "", "sight_content": ""}}, {"title": "敦化大戏院", "address": "敦化火车站前", "image": "", "rank": 33, "time": 7.5, "location": {"lat": 43.386356294092664, "lng": 128.2470615628315}, "feature": {"sight_features": "", "sight_content": ""}}, {"title": "民众乐剧院", "address": "渤海街道火车站站前二楼", "image": "", "rank": 34, "time": 2, "location": {"lat": 40.678764125936254, "lng": 122.26543743172509}, "feature": {"sight_features": "", "sight_content": ""}}, {"title": "站北广场", "address": "站北街北段", "image": "", "rank": 35, "time": 2, "location": {"lat": 43.38818841051378, "lng": 128.2442856946022}, "feature": {"sight_features": "", "sight_content": ""}}, {"title": "金水湾度假村", "address": "G201国道旁新设村东200米老啤酒厂南成专驾校练车场对面", "image": "", "rank": 36, "time": 2, "location": {"lat": 41.1820805161815, "lng": 107.64186353624088}, "feature": {"sight_features": "", "sight_content": ""}}, {"title": "南湖水上乐园(水上乐园店)", "address": "吉林省延边州敦化市南环路敦化市第三中学东侧小桥南行100米", "image": "", "rank": 37, "time": 2, "location": {"lat": 43.35994503458813, "lng": 128.23014137219485}, "feature": {"sight_features": "", "sight_content": ""}}, {"title": "观音殿", "address": "吉林省延边朝鲜族自治州敦化市江南镇六鼎山风景区大雄宝殿", "image": "", "rank": 38, "time": 2, "location": {"lat": 43.32357964084258, "lng": 128.24540554740352}, "feature": {"sight_features": "", "sight_content": ""}}, {"title": "福智庵", "address": "吉林省延边朝鲜族自治州敦化市宫仁线", "image": "", "rank": 39, "time": 2, "location": {"lat": 43.37829127451678, "lng": 128.23861239315394}, "feature": {"sight_features": "", "sight_content": ""}}, {"title": "江东二十四块石遗址", "address": "吉林省延边朝鲜族自治州敦化市华康大街北50米", "image": "", "rank": 40, "time": 2, "location": {"lat": 43.36517398847036, "lng": 128.2604998772945}, "feature": {"sight_features": "", "sight_content": ""}}, {"title": "大雄宝殿", "address": "延边朝鲜族自治州敦化市", "image": "", "rank": 41, "time": 2, "location": {"lat": 43.37829127451678, "lng": 128.23861239315394}, "feature": {"sight_features": "", "sight_content": ""}}, {"title": "儿童乐园", "address": "吉林省延边朝鲜族自治州敦化市江南镇敖东大街北山公园西北400米", "image": "", "rank": 42, "time": 2, "location": {"lat": 43.38601428093979, "lng": 128.23118218758586}, "feature": {"sight_features": "", "sight_content": ""}}, {"title": "地藏殿", "address": "吉林省延边朝鲜族自治州敦化市江南镇六鼎山风景区正觉寺附近", "image": "", "rank": 43, "time": 2.5, "location": {"lat": 43.32357964084258, "lng": 128.24540554740352}, "feature": {"sight_features": "", "sight_content": ""}}, {"title": "雁鸣湖湿地西区", "address": "榆树川西行1300米", "image": "", "rank": 44, "time": 2, "location": {"lat": 42.53711964057751, "lng": 124.7692710048159}, "feature": {"sight_features": "", "sight_content": ""}}, {"title": "敦化市汇锦生态度假村", "address": "江源镇马号西村江源镇镇政府西侧", "image": "", "rank": 45, "time": 7.5, "location": {"lat": 43.18382657548545, "lng": 128.0241247051809}, "feature": {"sight_features": "", "sight_content": ""}}, {"title": "同心广场", "address": "大石头火车站附近", "image": "", "rank": 46, "time": null, "location": {"lat": 43.31172482240496, "lng": 128.50796309572468}, "feature": {"sight_features": "", "sight_content": ""}}, {"title": "法治文化广场", "address": "翰章大街敦化检察院对面", "image": "", "rank": 47, "time": 2, "location": {"lat": 43.36368483447273, "lng": 128.24631096120498}, "feature": {"sight_features": "", "sight_content": ""}}, {"title": "翰章广场", "address": "敖东大街与南环路交汇处", "image": "", "rank": 48, "time": 2, "location": {"lat": 43.373809292815686, "lng": 128.23543752097308}, "feature": {"sight_features": "", "sight_content": ""}}, {"title": "保中广场", "address": "学府街北环路交汇处", "image": "", "rank": 49, "time": 2, "location": {"lat": 29.707118140262413, "lng": 105.71688093779584}, "feature": {"sight_features": "", "sight_content": ""}}, {"title": "鹿鸣山庄烤全羊度假村", "address": "晖乌线302国道路边", "image": "", "rank": 50, "time": 2, "location": {"lat": 45.75877779746667, "lng": 122.5732323727896}, "feature": {"sight_features": "", "sight_content": ""}}, {"title": "老白山广场", "address": "黄泥河火车站前", "image": "", "rank": 51, "time": 2, "location": {"lat": 43.56447687316556, "lng": 128.02187186275856}, "feature": {"sight_features": "", "sight_content": ""}}, {"title": "金鼎宝贝亲子早教乐园", "address": "天利国际步行街108号(近老市宾馆高层步行街)", "image": "", "rank": 52, "time": 2, "location": {"lat": 37.116774132968686, "lng": 79.93286321642144}, "feature": {"sight_features": "", "sight_content": ""}}, {"title": "长白山书画社", "address": "敖东西路", "image": "", "rank": 53, "time": 4.5, "location": {"lat": 43.36606353759149, "lng": 128.2166949963382}, "feature": {"sight_features": "", "sight_content": ""}}, {"title": "双峰滑雪场", "address": "长汀镇双峰林场内", "image": "", "rank": 54, "time": 2, "location": {"lat": 27.4629826585733, "lng": 112.18146049665532}, "feature": {"sight_features": "", "sight_content": ""}}, {"title": "酷宝儿童乐园", "address": "朝鲜族自治州敦化市敖东商贸城北街万客隆北门对面", "image": "", "rank": 55, "time": 2, "location": {"lat": 43.373413898739955, "lng": 128.2374958892356}, "feature": {"sight_features": "", "sight_content": ""}}, {"title": "欢乐qq农场", "address": "120县道东200米", "image": "", "rank": 56, "time": 2, "location": {"lat": 43.9521982119716, "lng": 87.21534765357225}, "feature": {"sight_features": "", "sight_content": ""}}, {"title": "续源山庄", "address": "大石头镇二河村东山", "image": "", "rank": 57, "time": 2, "location": {"lat": 47.34498713557338, "lng": 130.32336109407026}, "feature": {"sight_features": "", "sight_content": ""}}, {"title": "江南度假区钓鱼", "address": "雁鸣湖镇雁丹线江南度假区钓鱼", "image": "", "rank": 58, "time": 2, "location": {"lat": 22.78704575358756, "lng": 108.27949435764451}, "feature": {"sight_features": "", "sight_content": ""}}, {"title": "橙天国际影城(敦化云幕店)", "address": "延边朝鲜族自治州-敦化市-民主街翰章大街1385号中关村电子城四层", "image": "", "rank": 59, "time": 2, "location": {"lat": 43.374225380448635, "lng": 128.2396619733118}, "feature": {"sight_features": "", "sight_content": ""}}, {"title": "琵琶顶子", "address": "延边朝鲜族自治州-敦化市", "image": "", "rank": 60, "time": 2, "location": {"lat": 43.37829127451678, "lng": 128.23861239315394}, "feature": {"sight_features": "", "sight_content": ""}}]}