{"cityName": "多伦", "days": "", "cityImage": "", "spots": [{"title": "多伦湖景区", "address": "多伦县大河口乡多伦湖景区", "image": "", "rank": 1, "time": 3.5, "location": {"lat": 42.20489017473756, "lng": 116.66760795987238}, "feature": {"sight_features": "特色1 国家AAAA级景区，集灌溉、发电、供水、防洪拦沙、水产养殖、旅游观光为一体的综合性水利枢纽工程！ 特色2 这里夏季温热多雨，秋季凉爽宜人，四季气温变化分明，自然景观丰富多彩，特别适于休闲、避暑、度假、旅游！ 特色3 多伦湖景区内有大片的原始榆树林，这里的榆树大部分在百年以上！", "sight_content": "多伦湖景区位于内蒙古自治区锡林郭勒盟境内，在多伦县城东南，紧依国道G510，主入口距多伦县城16公里。是滦河干流的上游。水域面积2万亩，处于高山、沙地、草原之中，东西两岸各17公里长。沿库区两岸及库区内湖心岛、半岛、沙半岛和山、水、沙、草、林浑然一体，构成一幅既壮观又秀美的立体画卷。2011年多伦湖被旅游休闲杂志评为中国最美的两个秋景之一。"}}, {"title": "塞纳湾小镇度假区", "address": "锡林浩特市多伦县多伦湖景区大坝下南行1.3公里处", "image": "", "rank": 2, "time": 2, "location": {"lat": 42.20489017473756, "lng": 116.66760795987238}, "feature": {"sight_features": "", "sight_content": ""}}, {"title": "三道沟林场", "address": "锡林郭勒盟多伦县三道沟林场村", "image": "", "rank": 3, "time": 1.5, "location": {"lat": 41.99846556695209, "lng": 116.66927646174695}, "feature": {"sight_features": "", "sight_content": ""}}, {"title": "吐力根天堂草原漂流", "address": "锡林郭勒盟多伦县蔡木山乡铁公泡子村", "image": "", "rank": 4, "time": 2, "location": {"lat": 42.318846356005196, "lng": 116.75013486397216}, "feature": {"sight_features": "", "sight_content": ""}}, {"title": "滦源湖景区", "address": "锡林郭勒盟锡林浩特市多伦县大河口电站", "image": "", "rank": 5, "time": 2, "location": {"lat": 42.24045114165351, "lng": 116.71245071157423}, "feature": {"sight_features": "", "sight_content": ""}}, {"title": "多伦湖", "address": "内蒙古自治区锡林郭勒盟多伦县", "image": "", "rank": 6, "time": null, "location": {"lat": 42.20892086421072, "lng": 116.49250878203628}, "feature": {"sight_features": "", "sight_content": ""}}, {"title": "观音洞", "address": "锡林郭勒盟多伦县西环线与509乡道交叉口北50米", "image": "", "rank": 7, "time": 2.5, "location": {"lat": 42.145678412047786, "lng": 116.69503930502708}, "feature": {"sight_features": "", "sight_content": ""}}, {"title": "双山水库", "address": "内蒙古自治区锡林郭勒盟伦县双山水库", "image": "", "rank": 8, "time": 2, "location": {"lat": 43.93942266533856, "lng": 116.05439144074573}, "feature": {"sight_features": "", "sight_content": ""}}, {"title": "万胜永风电场", "address": "河北省承德市丰宁满族自治县北部", "image": "", "rank": 9, "time": 2, "location": {"lat": 41.21533638000358, "lng": 116.65239270009364}, "feature": {"sight_features": "", "sight_content": ""}}, {"title": "清水湾温泉", "address": "锡林郭勒盟多伦县北一环阿迪斯酒店西100米", "image": "", "rank": 10, "time": 2, "location": {"lat": 42.202392455254916, "lng": 116.49419101361227}, "feature": {"sight_features": "特色1 清水湾温泉以温泉，汗蒸为主要特色。 特色2 为顾客提供一站式的休闲服务。 特色3 温泉，汗蒸，洗浴，儿童戏水园综合体。", "sight_content": "清水湾温泉以温泉，汗蒸为主要特色，为顾客提供一站式的休闲服务，如温泉，汗蒸，洗浴，儿童戏水园，特色餐饮，客房商务等。"}}, {"title": "苏伦旅游基地", "address": "铁公泡子村半截沟苏伦旅游基地", "image": "", "rank": 11, "time": 2, "location": {"lat": 42.318846356005196, "lng": 116.75013486397216}, "feature": {"sight_features": "", "sight_content": ""}}, {"title": "多伦湖原中园农家院", "address": "锡林郭勒盟多伦县后九号村(多伦湖景区)", "image": "", "rank": 12, "time": null, "location": {"lat": 42.20489017473756, "lng": 116.66760795987238}, "feature": {"sight_features": "", "sight_content": ""}}, {"title": "多伦红旗飘旅游度假村", "address": "锡林浩特锡林郭勒多伦县东308国道大河口乡多伦湖", "image": "", "rank": 13, "time": 2, "location": {"lat": 42.180003479597715, "lng": 116.75422442136568}, "feature": {"sight_features": "", "sight_content": ""}}, {"title": "中国科学院植物研究所多伦植物园", "address": "南一环附近", "image": "", "rank": 14, "time": 2, "location": {"lat": 34.45084443613665, "lng": 113.04129981707821}, "feature": {"sight_features": "", "sight_content": ""}}, {"title": "巴音珠日和敖包", "address": "内蒙古自治区锡林郭勒盟多伦县", "image": "", "rank": 15, "time": 2, "location": {"lat": 42.20892086421072, "lng": 116.49250878203628}, "feature": {"sight_features": "", "sight_content": ""}}, {"title": "多伦马具博物馆", "address": "内蒙古自治区锡林郭勒盟多伦县东盛路", "image": "", "rank": 16, "time": 2, "location": {"lat": 42.19529716947889, "lng": 116.48755856352349}, "feature": {"sight_features": "", "sight_content": ""}}, {"title": "清真北寺", "address": "内蒙古自治区锡林郭勒盟多伦县二道街", "image": "", "rank": 17, "time": 2, "location": {"lat": 42.19602886572354, "lng": 116.48944647651886}, "feature": {"sight_features": "", "sight_content": ""}}, {"title": "多伦县可汗大营生态旅游度假村", "address": "多伦县大河口乡大河口村五城功组", "image": "", "rank": 18, "time": 2, "location": {"lat": 42.25099494950866, "lng": 116.65007015724845}, "feature": {"sight_features": "", "sight_content": ""}}, {"title": "滦河榆木川度假村", "address": "内蒙古自治区锡林郭勒盟多伦县大河口乡滦河村2组", "image": "", "rank": 19, "time": 2, "location": {"lat": 41.99215759519309, "lng": 116.68426722958891}, "feature": {"sight_features": "", "sight_content": ""}}, {"title": "多伦原生态马术度假村", "address": "多伦南菜园村109号", "image": "", "rank": 20, "time": 2, "location": {"lat": 42.186504235069854, "lng": 116.50297365226125}, "feature": {"sight_features": "", "sight_content": ""}}, {"title": "多伦撅尾巴湖生态旅游度假村", "address": "大河口北行18公里乌兰布统西口收费站(近撅尾巴河营子)", "image": "", "rank": 21, "time": 2, "location": {"lat": 36.9357478590324, "lng": 98.48673569929515}, "feature": {"sight_features": "", "sight_content": ""}}, {"title": "镇政府小广场", "address": "内蒙古自治区锡林郭勒盟多伦县政府西路", "image": "", "rank": 22, "time": 2, "location": {"lat": 42.21082858042156, "lng": 116.49016333779042}, "feature": {"sight_features": "", "sight_content": ""}}, {"title": "多伦湖百顺农家院", "address": "西山湾大桥东头路北", "image": "", "rank": 23, "time": 2, "location": {"lat": 42.20582491868803, "lng": 116.65270427735979}, "feature": {"sight_features": "", "sight_content": ""}}, {"title": "多伦县西山湾山水人家度假村", "address": "内蒙古自治区锡林郭勒盟多伦县其他西山湾山水人家度假村", "image": "", "rank": 24, "time": 2, "location": {"lat": 42.086098465353665, "lng": 116.693882866039}, "feature": {"sight_features": "", "sight_content": ""}}, {"title": "多伦县七夕桥", "address": "多伦县文化广场对面", "image": "", "rank": 25, "time": 2, "location": {"lat": 42.20892086421072, "lng": 116.49250878203628}, "feature": {"sight_features": "", "sight_content": ""}}, {"title": "内蒙古多伦县图书馆", "address": "政府东路", "image": "", "rank": 26, "time": null, "location": {"lat": 37.72157086093532, "lng": 112.48577013591988}, "feature": {"sight_features": "", "sight_content": ""}}, {"title": "牧海画廊", "address": "东仓路", "image": "", "rank": 27, "time": 2, "location": {"lat": 42.20608385212561, "lng": 116.4856322847981}, "feature": {"sight_features": "", "sight_content": ""}}, {"title": "大宝治沙生态园", "address": "503县道", "image": "", "rank": 28, "time": null, "location": {"lat": 41.81394038633942, "lng": 116.18693830518454}, "feature": {"sight_features": "", "sight_content": ""}}, {"title": "多伦画苑", "address": "龙泽南街", "image": "", "rank": 29, "time": 2, "location": {"lat": 42.21003768425825, "lng": 116.49180308580392}, "feature": {"sight_features": "", "sight_content": ""}}, {"title": "呼很淖", "address": "内蒙古自治区多伦县城东北40公里", "image": "", "rank": 30, "time": 2, "location": {"lat": 42.20892086421072, "lng": 116.49250878203628}, "feature": {"sight_features": "", "sight_content": ""}}, {"title": "曲家湾西山", "address": "锡林郭勒盟-多伦县", "image": "", "rank": 31, "time": 2, "location": {"lat": 42.20892086421072, "lng": 116.49250878203628}, "feature": {"sight_features": "", "sight_content": ""}}, {"title": "姑娘湖", "address": "内蒙古自治区锡林郭勒盟多伦县姑娘湖", "image": "", "rank": 32, "time": 2, "location": {"lat": 42.20892086421072, "lng": 116.49250878203628}, "feature": {"sight_features": "", "sight_content": ""}}, {"title": "蔡木山", "address": "内蒙古自治区锡林郭勒盟多伦县", "image": "", "rank": 33, "time": 2, "location": {"lat": 42.20892086421072, "lng": 116.49250878203628}, "feature": {"sight_features": "", "sight_content": ""}}, {"title": "砧子山", "address": "内蒙古自治区", "image": "", "rank": 34, "time": 0.75, "location": {"lat": 40.823156232446166, "lng": 111.77260583081977}, "feature": {"sight_features": "", "sight_content": ""}}]}