{"cityName": "独山", "days": 2, "cityImage": "", "spots": [{"title": "贵州紫林山国际旅游度假区", "address": "黔南布依族苗族自治州独山县紫林山国家森林公园内", "image": "", "rank": 1, "time": 2, "location": {"lat": 25.821061387840558, "lng": 107.51630680825254}, "feature": {"sight_features": "", "sight_content": ""}}, {"title": "净心谷", "address": "黔南州独山县净心影山镇翁奇村", "image": "", "rank": 2, "time": 0.75, "location": {"lat": 25.97392006653134, "lng": 107.58707910715447}, "feature": {"sight_features": "", "sight_content": "净心谷景区位于贵州省独山县影山镇，总占地面积208平方公里，净心谷景区由人文景观和自然景观两部分组成，人文景观是由三族文化（布依族、水族、苗族）、三府文化（诰命府、翰林府、尹珍府）以及儒学文化园汇集而成。东汉时期这里就出了一位历史名人，尹珍，尹珍开创了南中之学，是贵州汉文化的传播人，西南汉文化的开拓者。这里也是贵州“影山文化”的发源地，仅在清朝就出了两位翰林院士，万民钦与莫与俦，同时这里也是儒释道三教交汇之地，在这里可以修身养性，回归自然，这也是我们前方八个大字“翰林故里，净心府地”的来源。\n目前对外开放景点主要有大观园（诰命府、尹珍府、翰林府、影山老街、后花园）、儒学文化园（令公祠、大成殿、杨家大院、奎文阁、友芝书院、老戏楼）、水司楼、茶天堂。不知道大家是不是第一次来独山县呀？独山县，隶属于贵州省黔南布依族苗族自治州，地处贵州最南端，与广西南丹县接壤，是贵州省乃至大西南进入两广出海口的必经之地，素有\"贵州南大门\"、\"西南门户\"之称，独山县总人口35万人，世居少数民族11个，主要民族有水族、苗族、布依族、壮族等，以水族居多，其中水族占全县总人口的47%，在这里大家可以领略到不同的少数民族风情。\n《净心谷》文化广场占地面积180亩，广场中央伫立9.9米高的汉白玉德胜碑，由12米高的整块原石经人工雕琢而成，目前是国内最大的汉白玉一体碑。碑上刻有“净心谷”三个字，寓意着来到这里返噗归真，修身养性，回归自然。九门牌楼它一字排开九个门洞，被称为九门牌楼，是用五莲红花岗岩打造的，高24米，宽36米，九是三教的吉祥数字，九九归一同时也是阿拉伯最大的数字，汉文化中代表不可超越。大家请看牌楼中间悬挂有一块巨大的青铜龙匾，两边的耳门门楼上分别雕刻有福、禄、寿、喜等祥瑞图案，象征着吉祥如意、富贵绵长。\n\n\n新贵茶业，外观是岭南的建筑风格，整个建筑外形像一个茶壶盖。这是一家由本地企业家投资兴建，致力于现代茶产业创新和整合的新型企业，该企业引进了两条（一红一绿）国内最先进的全智能、全柔性化茶叶自动化生产线，目标成为中国最大的自有生态茶园基地的企业。"}}, {"title": "翠泉森林探险乐园", "address": "黔南布依族苗族自治州独山县", "image": "", "rank": 3, "time": 2, "location": {"lat": 25.828287807074048, "lng": 107.5514977810688}, "feature": {"sight_features": "", "sight_content": ""}}, {"title": "奎文阁风景区", "address": "独山县", "image": "", "rank": 4, "time": 2, "location": {"lat": 25.828287807074048, "lng": 107.5514977810688}, "feature": {"sight_features": "", "sight_content": ""}}, {"title": "紫薇金龟龙宫游乐园", "address": "黔南市独山县高新区（独山紫薇城）", "image": "", "rank": 5, "time": 2, "location": {"lat": 25.84459649969389, "lng": 107.55274990216958}, "feature": {"sight_features": "", "sight_content": ""}}, {"title": "深河桥抗日文化园", "address": "麻万镇", "image": "", "rank": 6, "time": 2, "location": {"lat": 25.888773664079185, "lng": 107.56276075980342}, "feature": {"sight_features": "", "sight_content": ""}}, {"title": "独山县烈士陵园", "address": "独山县", "image": "", "rank": 7, "time": 2, "location": {"lat": 25.828287807074048, "lng": 107.5514977810688}, "feature": {"sight_features": "", "sight_content": ""}}, {"title": "林园山庄", "address": "独山县", "image": "", "rank": 8, "time": 2, "location": {"lat": 25.828287807074048, "lng": 107.5514977810688}, "feature": {"sight_features": "", "sight_content": ""}}, {"title": "莫冈楼烈士故居", "address": "独山县", "image": "", "rank": 9, "time": 2, "location": {"lat": 25.828287807074048, "lng": 107.5514977810688}, "feature": {"sight_features": "", "sight_content": ""}}, {"title": "生态梨园山庄", "address": "独山县", "image": "", "rank": 10, "time": 2, "location": {"lat": 25.828287807074048, "lng": 107.5514977810688}, "feature": {"sight_features": "", "sight_content": ""}}, {"title": "紫林山国家森林公园", "address": "中国 贵州独山县", "image": "", "rank": 11, "time": null, "location": {"lat": 25.828287807074048, "lng": 107.5514977810688}, "feature": {"sight_features": "", "sight_content": ""}}, {"title": "独山盛典实景演出", "address": "黔南布依族苗族自治州独山县影山镇翁奇村净心谷内", "image": "", "rank": 12, "time": 2, "location": {"lat": 25.97392006653134, "lng": 107.58707910715447}, "feature": {"sight_features": "", "sight_content": ""}}, {"title": "独山天洞景区", "address": "黔南布依族苗族自治州独山县基长镇天洞景区", "image": "", "rank": 13, "time": 2, "location": {"lat": 25.80153206070755, "lng": 107.57319495019686}, "feature": {"sight_features": "", "sight_content": "天洞景区包括天洞、天塔、天王广场、铁皮石斛主题观光园、名人植物园、御花园、天一湖、布依民族风情寨、百岁泉、千岁泉、万寿湖、游客接待中心、游客步道、门楼等项目。\n此处地形平坦，以扑朔迷离的溶洞奇观为引领，以平地起花海，百花争艳为主题，以人间故事为线索，以人的养生长寿为内涵，打造以天庭文化为主题的特色文化休闲景区。"}}, {"title": "麒龙点金国家森林探险度假村", "address": "黔南布依族苗族自治州独山县", "image": "", "rank": 14, "time": 2, "location": {"lat": 25.828287807074048, "lng": 107.5514977810688}, "feature": {"sight_features": "", "sight_content": ""}}, {"title": "麻尾", "address": "940县道", "image": "", "rank": 15, "time": 2, "location": {"lat": 25.436706696483775, "lng": 107.6890756054708}, "feature": {"sight_features": "", "sight_content": ""}}, {"title": "京荣养马场", "address": "210国道附近", "image": "", "rank": 16, "time": 2, "location": {"lat": 30.75468488618663, "lng": 107.2576735785458}, "feature": {"sight_features": "", "sight_content": ""}}, {"title": "杨梅汤", "address": "南通南路与四通路交叉口北50米", "image": "", "rank": 17, "time": 2, "location": {"lat": 25.827932327103408, "lng": 107.54505387363074}, "feature": {"sight_features": "", "sight_content": ""}}, {"title": "独山县图书馆", "address": "坡头南巷", "image": "", "rank": 18, "time": 2, "location": {"lat": 25.83344583807504, "lng": 107.55163975645799}, "feature": {"sight_features": "", "sight_content": ""}}, {"title": "莫友芝纪念馆", "address": "影山路与迎春巷交叉口北100米", "image": "", "rank": 19, "time": 2, "location": {"lat": 25.838582241261598, "lng": 107.55743305355439}, "feature": {"sight_features": "", "sight_content": ""}}, {"title": "闽江水族馆", "address": "贵州省黔南布依族苗族自治州独山县南通北路118号", "image": "", "rank": 20, "time": 2, "location": {"lat": 25.832520435754976, "lng": 107.55129654805836}, "feature": {"sight_features": "", "sight_content": ""}}, {"title": "中南广场", "address": "黔南布依族苗族自治州独山县市场路市场北巷22号", "image": "", "rank": 21, "time": 2, "location": {"lat": 25.8326309042872, "lng": 107.5474739068772}, "feature": {"sight_features": "", "sight_content": ""}}, {"title": "南方度假村", "address": "312省道附近", "image": "", "rank": 22, "time": 2, "location": {"lat": 36.622905905946894, "lng": 114.42321002791304}, "feature": {"sight_features": "", "sight_content": ""}}, {"title": "大河口景区", "address": "黔南布依族苗族独山县影山路", "image": "", "rank": 23, "time": 2, "location": {"lat": 25.83760334026716, "lng": 107.55840689218455}, "feature": {"sight_features": "", "sight_content": "大河口景区拥有良好的生态环境，森林覆盖率高，山水相映，原始次森林与景区紧密共存，更有惊险刺激的U型栈道和悬崖餐厅，是一个天然的旅游胜地。"}}, {"title": "家美乐画廊", "address": "中华北路", "image": "", "rank": 24, "time": 2, "location": {"lat": 38.524051813458655, "lng": 114.5744208269326}, "feature": {"sight_features": "", "sight_content": ""}}, {"title": "紫金仙府溶洞温泉", "address": "紫林山国家森林公园内", "image": "", "rank": 25, "time": 2, "location": {"lat": 25.821061387840558, "lng": 107.51630680825254}, "feature": {"sight_features": "", "sight_content": ""}}, {"title": "翠泉生态园", "address": "紫林山国家森林公园", "image": "", "rank": 26, "time": 2, "location": {"lat": 25.821061387840558, "lng": 107.51630680825254}, "feature": {"sight_features": "", "sight_content": ""}}, {"title": "乐悠游儿童乐园独山店(独山店)", "address": "盛源国际内湘里人家旁边", "image": "", "rank": 27, "time": 2, "location": {"lat": 40.040722349741785, "lng": 116.29463800238685}, "feature": {"sight_features": "", "sight_content": ""}}, {"title": "龙源温泉", "address": "213省道国际温泉城南大门旁", "image": "", "rank": 28, "time": 2, "location": {"lat": 25.810254620765694, "lng": 107.53916317506452}, "feature": {"sight_features": "", "sight_content": ""}}, {"title": "济生农业科技有限公司", "address": "布依族苗族自治州独山县现代农业示范园区1单元23号", "image": "", "rank": 29, "time": 2, "location": {"lat": 25.828287807074048, "lng": 107.5514977810688}, "feature": {"sight_features": "", "sight_content": ""}}, {"title": "飞凤湖国际旅游度假区", "address": "黔南布依族苗族自治州独山县西面独山林场后山", "image": "", "rank": 30, "time": 2, "location": {"lat": 25.845644357376322, "lng": 107.58757157440436}, "feature": {"sight_features": "", "sight_content": "飞凤湖国际旅游度假区位于贵州省独山县县城西面独山林场后山，距县城约4公里，度假区内有森林探险、康体娱乐、露营基地等，是集景点游玩、酒店住宿、餐饮美食于一体的度假区。"}}, {"title": "凯胜步行街", "address": "贵州省独山县中南路9号", "image": "", "rank": 31, "time": 2, "location": {"lat": 25.831506964959893, "lng": 107.54749457239545}, "feature": {"sight_features": "", "sight_content": ""}}, {"title": "深沟森林公园", "address": "独山县翁台乡", "image": "", "rank": 32, "time": 2, "location": {"lat": 25.828287807074048, "lng": 107.5514977810688}, "feature": {"sight_features": "", "sight_content": ""}}]}