{"cityName": "都匀", "days": 2, "cityImage": "", "spots": [{"title": "斗篷山", "address": "黔南布依族苗族自治州都匀市茶园路", "image": "", "rank": 1, "time": 3.0, "location": {"lat": 26.36844965764544, "lng": 107.38798708033168}, "feature": {"sight_features": "", "sight_content": ""}}, {"title": "西山公园", "address": "黔南布依族苗族自治州都匀市民族路89号", "image": "", "rank": 2, "time": 1.5, "location": {"lat": 26.263830964211706, "lng": 107.51715237514404}, "feature": {"sight_features": "", "sight_content": ""}}, {"title": "螺丝壳", "address": "黔南布依族苗族自治州都匀市", "image": "", "rank": 3, "time": 2.5, "location": {"lat": 26.266117957788534, "lng": 107.52540443143744}, "feature": {"sight_features": "", "sight_content": ""}}, {"title": "剑江风光", "address": "都匀市文明路63号", "image": "", "rank": 4, "time": 1.0, "location": {"lat": 26.324124572758087, "lng": 107.45947079946845}, "feature": {"sight_features": "", "sight_content": ""}}, {"title": "石板古街", "address": "黔南布依族苗族自治州都匀市广惠路中段", "image": "", "rank": 5, "time": 2, "location": {"lat": 26.271608534381894, "lng": 107.52514754750236}, "feature": {"sight_features": "", "sight_content": ""}}, {"title": "百子桥", "address": "贵州省黔南布依族苗族自治州都匀市广惠路南端", "image": "", "rank": 6, "time": 2, "location": {"lat": 26.266117957788534, "lng": 107.52540443143744}, "feature": {"sight_features": "", "sight_content": ""}}, {"title": "榔木水寨", "address": "黔南布依族苗族自治州都匀市东部奉合水族乡", "image": "", "rank": 7, "time": 2, "location": {"lat": 26.079042910724148, "lng": 107.65875668241684}, "feature": {"sight_features": "", "sight_content": ""}}, {"title": "风啭河漂流景区", "address": "都匀市沙寨乡凤啭村", "image": "", "rank": 8, "time": 2, "location": {"lat": 25.90419731240017, "lng": 107.46510791986385}, "feature": {"sight_features": "", "sight_content": ""}}, {"title": "都匀茶博园", "address": "黔南布依族苗族自治州都匀市", "image": "", "rank": 9, "time": 2, "location": {"lat": 26.266117957788534, "lng": 107.52540443143744}, "feature": {"sight_features": "", "sight_content": ""}}, {"title": "文峰园", "address": "贵州省黔南布依族苗族自治州都匀市", "image": "", "rank": 10, "time": 2, "location": {"lat": 26.266117957788534, "lng": 107.52540443143744}, "feature": {"sight_features": "", "sight_content": ""}}, {"title": "张忡摩崖", "address": "贵州省黔南布依族苗族自治州都匀市", "image": "", "rank": 11, "time": 2, "location": {"lat": 26.266117957788534, "lng": 107.52540443143744}, "feature": {"sight_features": "", "sight_content": ""}}, {"title": "东山公园", "address": "贵州省黔南布依族苗族自治州都匀市", "image": "", "rank": 12, "time": 2, "location": {"lat": 26.266117957788534, "lng": 107.52540443143744}, "feature": {"sight_features": "", "sight_content": ""}}, {"title": "斗篷山温泉", "address": "黔南州都匀市茶博园路（原305厂）", "image": "", "rank": 13, "time": 2, "location": {"lat": 26.266117957788534, "lng": 107.52540443143744}, "feature": {"sight_features": "", "sight_content": ""}}, {"title": "南沙洲民族文化公园", "address": "黔南布依族苗族自治州都匀市沙州路", "image": "", "rank": 14, "time": 2, "location": {"lat": 26.266117957788534, "lng": 107.52540443143744}, "feature": {"sight_features": "", "sight_content": ""}}, {"title": "归兰山", "address": "黔南布依族苗族自治州都匀市阳和水族乡嘎埽水族村寨（901县道）", "image": "", "rank": 15, "time": 2, "location": {"lat": 26.068428639691827, "lng": 107.70030203305255}, "feature": {"sight_features": "", "sight_content": ""}}, {"title": "打拉河布依族村", "address": "贵州省黔南布依族苗族自治州都匀市平浪镇", "image": "", "rank": 16, "time": 2, "location": {"lat": 26.070361393868914, "lng": 107.41406645232932}, "feature": {"sight_features": "", "sight_content": ""}}, {"title": "基督教堂", "address": "贵州省黔南布依族苗族自治州都匀市广惠路", "image": "", "rank": 17, "time": 2.0, "location": {"lat": 26.271608534381894, "lng": 107.52514754750236}, "feature": {"sight_features": "", "sight_content": ""}}, {"title": "都匀南沙洲绿地公园", "address": "贵州省黔南布依族苗族自治州都匀市剑江中路", "image": "", "rank": 18, "time": 2, "location": {"lat": 26.264988406469, "lng": 107.52157607344002}, "feature": {"sight_features": "", "sight_content": ""}}, {"title": "清真寺", "address": "都匀市", "image": "", "rank": 19, "time": 1.0, "location": {"lat": 26.266117957788534, "lng": 107.52540443143744}, "feature": {"sight_features": "", "sight_content": ""}}, {"title": "九龙洞景区", "address": "贵州省铜仁市六龙山区 554400", "image": "", "rank": 20, "time": 1.0, "location": {"lat": 27.674466140440288, "lng": 109.34547674732175}, "feature": {"sight_features": "", "sight_content": ""}}, {"title": "凤啭河", "address": "贵州省都匀市凤啭河休闲度假中心", "image": "", "rank": 21, "time": 2, "location": {"lat": 26.266117957788534, "lng": 107.52540443143744}, "feature": {"sight_features": "", "sight_content": ""}}, {"title": "罗甸奇石文化艺术馆", "address": "斗篷山路", "image": "", "rank": 22, "time": 2, "location": {"lat": 26.29176986704841, "lng": 107.52337721641068}, "feature": {"sight_features": "", "sight_content": ""}}, {"title": "黔桂奇石文化根雕艺术馆", "address": "环城西路", "image": "", "rank": 23, "time": 2, "location": {"lat": 36.613902946668574, "lng": 114.48863807649496}, "feature": {"sight_features": "", "sight_content": ""}}, {"title": "杉木寨中央公园", "address": "贵州省黔南布依族苗族自治州都匀市黔南大道", "image": "", "rank": 24, "time": 2, "location": {"lat": 26.243647386985913, "lng": 107.59396717276874}, "feature": {"sight_features": "", "sight_content": ""}}, {"title": "都匀三线博物馆", "address": "贵州省黔南布依族苗族自治州都匀市G75(兰海高速)", "image": "", "rank": 25, "time": 2, "location": {"lat": 26.266117957788534, "lng": 107.52540443143744}, "feature": {"sight_features": "", "sight_content": ""}}, {"title": "未知时空", "address": "女人街筑匀大厦C栋八楼八号(近人民广场、步行街)", "image": "", "rank": 26, "time": 2, "location": {"lat": 26.26299584500625, "lng": 107.5241535230491}, "feature": {"sight_features": "", "sight_content": ""}}, {"title": "良亩生态园", "address": "贵州省黔南州都匀市墨冲镇良亩乡布依良田坝里直行500米", "image": "", "rank": 27, "time": 2, "location": {"lat": 26.031759973889177, "lng": 107.4935153943187}, "feature": {"sight_features": "", "sight_content": ""}}, {"title": "都匀秦汉影视城", "address": "黔南布依族苗族自治州都匀市都凯大道", "image": "", "rank": 28, "time": 2, "location": {"lat": 26.266117957788534, "lng": 107.52540443143744}, "feature": {"sight_features": "", "sight_content": ""}}, {"title": "小堡布依族寨", "address": "贵州省黔南布依族苗族自治州都匀市河阳乡包阳村", "image": "", "rank": 29, "time": null, "location": {"lat": 26.108761689253786, "lng": 107.47239159024154}, "feature": {"sight_features": "", "sight_content": ""}}, {"title": "黑瞳(黑瞳club)", "address": "迎宾路25号渔水湾地下室(渔水湾，都匀二小，城市名品)", "image": "", "rank": 30, "time": 2, "location": {"lat": 26.259964381363506, "lng": 107.52529654494572}, "feature": {"sight_features": "", "sight_content": ""}}, {"title": "健康亲子儿童娱乐园", "address": "花园路1号", "image": "", "rank": 31, "time": 2, "location": {"lat": 39.98598297070833, "lng": 116.37197483680946}, "feature": {"sight_features": "", "sight_content": ""}}, {"title": "都匀市青少年图书借阅中心", "address": "普安路与民族路交叉口北50米", "image": "", "rank": 32, "time": 2, "location": {"lat": 26.265172998820262, "lng": 107.52715372690898}, "feature": {"sight_features": "", "sight_content": ""}}, {"title": "都匀市休闲观光生态蓝莓园", "address": "平浪镇石龙乡小冲内", "image": "", "rank": 33, "time": 2, "location": {"lat": 26.106243764332177, "lng": 107.27586341897054}, "feature": {"sight_features": "", "sight_content": ""}}, {"title": "都匀文峰塔", "address": "贵州省都匀市文峰公园 558004", "image": "", "rank": 34, "time": 2, "location": {"lat": 26.266117957788534, "lng": 107.52540443143744}, "feature": {"sight_features": "", "sight_content": ""}}, {"title": "张中摩崖", "address": "贵州省都匀市市东北角红叶山 558000", "image": "", "rank": 35, "time": 2, "location": {"lat": 26.266117957788534, "lng": 107.52540443143744}, "feature": {"sight_features": "", "sight_content": ""}}, {"title": "都匀东田乐园", "address": "贵州省黔南布依族苗族自治州都匀市X922", "image": "", "rank": 36, "time": 2, "location": {"lat": 26.266117957788534, "lng": 107.52540443143744}, "feature": {"sight_features": "", "sight_content": ""}}, {"title": "公园黄记恒", "address": "斗篷山路59号附近", "image": "", "rank": 37, "time": 2, "location": {"lat": 26.28281048955058, "lng": 107.52195687817101}, "feature": {"sight_features": "", "sight_content": ""}}, {"title": "都匀三江堰公园", "address": "沙包堡办事处灵智广场往", "image": "", "rank": 38, "time": 2, "location": {"lat": 26.307860694856814, "lng": 107.52271014731546}, "feature": {"sight_features": "", "sight_content": ""}}, {"title": "世纪广场", "address": "黔南布依族苗族自治州都匀市剑江南路181号", "image": "", "rank": 39, "time": 2.5, "location": {"lat": 26.24151406967916, "lng": 107.5222971028489}, "feature": {"sight_features": "", "sight_content": ""}}, {"title": "人民广场", "address": "黔南布依族苗族自治州都匀市新华路126号", "image": "", "rank": 40, "time": 1.5, "location": {"lat": 26.263379340688097, "lng": 107.52298969639685}, "feature": {"sight_features": "", "sight_content": ""}}, {"title": "时光机主题乐园", "address": "贵州省黔南布依族苗族自治州都匀市剑江中路90号", "image": "", "rank": 41, "time": 2, "location": {"lat": 26.2646688340269, "lng": 107.52128201762295}, "feature": {"sight_features": "", "sight_content": ""}}, {"title": "运动天地", "address": "剑江中路171号", "image": "", "rank": 42, "time": 2, "location": {"lat": 26.263060002554177, "lng": 107.5214744795784}, "feature": {"sight_features": "", "sight_content": ""}}, {"title": "都匀老火车站文化广场", "address": "贵州省黔南布依族苗族自治州都匀市", "image": "", "rank": 43, "time": 2, "location": {"lat": 26.266117957788534, "lng": 107.52540443143744}, "feature": {"sight_features": "", "sight_content": ""}}, {"title": "文峰塔", "address": "文峰园内", "image": "", "rank": 44, "time": 2.0, "location": {"lat": 26.258047698174323, "lng": 107.52693192539729}, "feature": {"sight_features": "", "sight_content": ""}}, {"title": "杉木湖景区", "address": "黔南布依族苗族自治州都匀市都匀经济开发区黔南大道杉木寨", "image": "", "rank": 45, "time": 2, "location": {"lat": 26.243647386985913, "lng": 107.59396717276874}, "feature": {"sight_features": "", "sight_content": ""}}, {"title": "西山大桥", "address": "中国贵州省黔南布依族苗族自治州都匀市民族路6号", "image": "", "rank": 46, "time": 2, "location": {"lat": 26.2643291249722, "lng": 107.51980814621389}, "feature": {"sight_features": "", "sight_content": ""}}, {"title": "东田都匀乐园", "address": "黔南布依族苗族自治州都匀市甘塘镇", "image": "", "rank": 47, "time": 2, "location": {"lat": 26.285045798572312, "lng": 107.48634929236952}, "feature": {"sight_features": "", "sight_content": "东田·都匀乐园地处风景秀丽的都匀市绿茵湖畔。园内摩天轮总高约七十米，共有24个座舱，每舱可乘坐2至6人。还有碰碰车、豪华转马、高空飞翔、古堡惊魂、丛林飞鼠、海盗船、激流勇进、小火车、等17个大、中型游乐项目，其中有老少皆宜的摩天轮、碰碰车、也有惊险刺激的高空飞翔、激流勇进，还有让你吓破胆的鬼屋等，是一个大型综合性游乐园。"}}, {"title": "文化会展中心", "address": "文明路63号", "image": "", "rank": 48, "time": 1.5, "location": {"lat": 37.07352422015923, "lng": 115.03101424825732}, "feature": {"sight_features": "", "sight_content": ""}}, {"title": "黔南档案", "address": "环城东路", "image": "", "rank": 49, "time": null, "location": {"lat": 39.747552383033195, "lng": 117.33256211265966}, "feature": {"sight_features": "", "sight_content": ""}}, {"title": "都匀市图书馆", "address": "民族路", "image": "", "rank": 50, "time": 2, "location": {"lat": 39.34528038851077, "lng": 115.88837222720782}, "feature": {"sight_features": "", "sight_content": ""}}, {"title": "州民族博物馆", "address": "工人路", "image": "", "rank": 51, "time": 2, "location": {"lat": 40.32773040044298, "lng": 120.35325743523163}, "feature": {"sight_features": "", "sight_content": ""}}, {"title": "州图书馆", "address": "工人路2号附25号", "image": "", "rank": 52, "time": 2.5, "location": {"lat": 40.32801963981358, "lng": 120.35286693823322}, "feature": {"sight_features": "", "sight_content": ""}}, {"title": "开心水上乐园", "address": "小围寨南郊体育场内(1路终点站前行50米左转)", "image": "", "rank": 53, "time": 2, "location": {"lat": 40.05189138740657, "lng": 113.22645661564142}, "feature": {"sight_features": "", "sight_content": ""}}, {"title": "黑瞳", "address": "州医院旁中大逸峰小区2栋1单元2305号(23楼5号)", "image": "", "rank": 54, "time": 2, "location": {"lat": 31.0707038541628, "lng": 121.1512778212629}, "feature": {"sight_features": "", "sight_content": ""}}, {"title": "幸运星儿童乐园", "address": "金麒麟百货三楼", "image": "", "rank": 55, "time": 2, "location": {"lat": 26.261497974070654, "lng": 107.52639251539637}, "feature": {"sight_features": "", "sight_content": ""}}, {"title": "凯欣梦幻科技馆", "address": "工人路乐福商场2楼(原金麒麟百货，多纳多入口二楼)", "image": "", "rank": 56, "time": 2, "location": {"lat": 26.265038841342708, "lng": 107.52177609283973}, "feature": {"sight_features": "", "sight_content": ""}}, {"title": "来客冰杨梅", "address": "兰溪路与影山路交叉口东南200米", "image": "", "rank": 57, "time": 2, "location": {"lat": 23.494386671660774, "lng": 116.51093198121578}, "feature": {"sight_features": "", "sight_content": ""}}, {"title": "都匀茶文化博览园", "address": "黔南布依族苗族自治州都匀市匀东镇", "image": "", "rank": 58, "time": 2, "location": {"lat": 26.21414541643799, "lng": 107.64903817112466}, "feature": {"sight_features": "", "sight_content": ""}}, {"title": "金图海洋公园", "address": "黔南布依族苗族自治州都匀市西山大道北段", "image": "", "rank": 59, "time": 2, "location": {"lat": 26.266117957788534, "lng": 107.52540443143744}, "feature": {"sight_features": "", "sight_content": "金图海洋公园位于都匀市西山大道，是集旅游观光、主题展览、家庭娱乐、休闲购物、社交餐饮等为一体的海洋文化体验中心。"}}]}