{"cityName": "额济纳旗", "days": 2, "cityImage": "", "spots": [{"title": "额济纳胡杨林旅游区", "address": "阿拉善盟额济纳旗达来呼布镇", "image": "", "rank": 1, "time": 6.0, "location": {"lat": 41.96029761181317, "lng": 101.0624033405766}, "feature": {"sight_features": "", "sight_content": ""}}, {"title": "怪树林", "address": "阿拉善盟额济纳旗达来呼布镇", "image": "", "rank": 2, "time": 1.5, "location": {"lat": 41.96029761181317, "lng": 101.0624033405766}, "feature": {"sight_features": "", "sight_content": ""}}, {"title": "黑城遗址", "address": "额济纳旗达来呼布镇西南约26公里处的戈壁上", "image": "", "rank": 3, "time": 1.5, "location": {"lat": 41.96029761181317, "lng": 101.0624033405766}, "feature": {"sight_features": "", "sight_content": ""}}, {"title": "居延海", "address": "阿拉善盟额济纳旗达来呼布镇北40公里处", "image": "", "rank": 4, "time": 4.5, "location": {"lat": 41.96029761181317, "lng": 101.0624033405766}, "feature": {"sight_features": "特色1 戈壁中的一汪湖水，芦苇丛中不时有天鹅、大雁等鸟类栖息。 在空寂的荒野湖边，观看壮丽的日出或者日落。 特色2 固沙，肥土，成为旅游胜地，蓝天、碧水、野鸟、芦苇荡让人感慨大自然的力量", "sight_content": "‍‍居延海是我国第二大内陆河黑河的尾闾湖。发源于祁连山深处的黑河，流经青海、甘肃、内蒙古三省区800余公里后，汇入巴丹吉林沙漠西北缘两片戈壁洼地，形成东、西两大湖泊，总称居延海。位于内蒙古自治区阿拉善盟额济纳旗北部，形状狭长弯曲，有如新月，额济纳河汇入湖中，是居延海最主要的补给水源。居延是匈奴语，《水经注》中将其译为弱水流沙，在汉代时曾称其为居延泽，魏晋时称之为北海，唐代起称之为居延海。湖中生长着鲤鱼、鲫鱼、大头鱼、草鱼等鱼类，天鹅、大雁、鹤、水鸭等常来此栖息。居延海是一个奇特的游移湖。它的位置忽东忽西，忽南忽北，湖面时大时小，时时变化着。“居延”是西夏语，为“流动的沙漠”之意。此湖后因湖面缩小分裂成两个湖泊，西湖名嘎顺诺尔，亦称嘎顺湖，蒙古语意为“苦海”，即西居延海。\n东湖名苏古诺尔，也称苏古湖，蒙古语意为“苔草湖”，即东居延海。位于阿拉善盟额济纳旗达来呼布镇东北约40公里的巴丹吉林沙漠北缘，为古弱水的归宿地。居延海位于东经101度24分，北纬42度33分左右，地处于内蒙古自治区额济纳旗北部。历史上的居延海，由东、西、北三个湖泊组成。居延海的湖面因额济纳河的改道而时有变动，自元代以后分为了亦集乃、哈班哈巴儿、塔剌失三个海子（湖泊），清代以来又分成了东部的苏泊诺尔（蒙古语，意思是母鹿湖）和西部的嘎顺诺尔（蒙古语，意思是苦湖）。两湖之间相距约35公里，平均水深1.5米，湖面上碧波荡漾，湖畔芦苇丛生，湖中生长着鲤鱼、鲫鱼、大头鱼、草鱼等鱼类，天鹅、大雁、鹤、水鸭等常来此栖息。\n因主要补给水源额济纳河注入湖中的水量减少，居延海已逐渐干涸。历史上的居延海水量充足，湖畔是美丽的草原，有着肥沃的土地，丰美的水草，是我国最早的农垦区之一，早在汉代就开始了这里的农垦历史。居延海还是穿越云南巴丹吉林沙漠和大戈壁通往漠北的重要通道，是兵家必争必守之地。《史记·匈奴列传》中记载：“（汉）使强弩都尉路博德筑城居延泽上。”后又在这里设郡立县，南北朝时期柔然占领这里，隋唐时这里属于突厥，宋代时这里在西夏国的统治之下，是当时西 夏政治、经济、文化中心之一。在漫漫黄沙中的这片绿洲上，碧水边，有过许多传说，也曾发生过许多动人的故事。"}}, {"title": "大漠胡杨旅游区", "address": "阿拉善盟额济纳旗达来呼布镇酒航路83公里处", "image": "", "rank": 5, "time": 2, "location": {"lat": 41.96029761181317, "lng": 101.0624033405766}, "feature": {"sight_features": "", "sight_content": ""}}, {"title": "神树", "address": "阿拉善盟额济纳旗达来呼布镇北28公里处", "image": "", "rank": 6, "time": 1.0, "location": {"lat": 41.96029761181317, "lng": 101.0624033405766}, "feature": {"sight_features": "", "sight_content": ""}}, {"title": "八道桥", "address": "阿拉善盟额济纳旗", "image": "", "rank": 7, "time": 1.5, "location": {"lat": 41.96029761181317, "lng": 101.0624033405766}, "feature": {"sight_features": "", "sight_content": ""}}, {"title": "策克口岸", "address": "阿拉善盟额济纳旗76公里处", "image": "", "rank": 8, "time": 2, "location": {"lat": 41.96029761181317, "lng": 101.0624033405766}, "feature": {"sight_features": "特色1 内蒙古第三大口岸 特色2 中国策克口岸位于内蒙古额济纳旗境内 特色3 策克口岸为中蒙双边性常年开放陆路口岸", "sight_content": "中国策克口岸位于内蒙古额济纳旗境内，距额济纳旗府达来呼布镇77公里，东距巴盟甘其毛道口岸800km，西距新疆老爷庙口岸1200km，与蒙古国南戈壁省西伯库伦口岸对应。对外辐射蒙古国南戈壁、巴音洪格尔、戈壁阿尔泰、前杭盖、后杭盖五个畜产品、矿产品资源较为富集的省区。是阿拉善盟对外开放的唯一国际通道，是内蒙古、陕、甘、宁、青五省区所共有的陆路口岸，同时也是内蒙古第三大口岸。根据中蒙两国政府协定，1992年自治区人民政府批准策克口岸为季节性开放口岸。2005年6月29日，国务院批准策克口岸为中蒙双边性常年开放陆路口岸。\n策克口岸是中蒙边境众多口岸之一，每年按季节开放4次，分别是3月1日、6月1日，9月1月和12月1日，每次20天，口岸上因此建了很多颇为简陋的铺面房。开关时，来自内蒙古自治区中部、东部甚至宁夏、甘肃、河北等地的商人把各种货物一车车载到这里，而蒙古国的商人和牧民则运来一车车的毛皮，然后运走一车车的日用品，策克一时之间成为一个人头攒动，车水马龙的大集贸市场。"}}, {"title": "弱水金沙湾", "address": "阿拉善盟额济纳旗航天路", "image": "", "rank": 9, "time": 2, "location": {"lat": 40.9631500746511, "lng": 100.22625474098805}, "feature": {"sight_features": "", "sight_content": ""}}, {"title": "额济纳胡杨英雄影视城", "address": "内蒙古阿拉善盟额济纳达来呼布镇", "image": "", "rank": 10, "time": 2, "location": {"lat": 40.813727471049965, "lng": 105.15989887662083}, "feature": {"sight_features": "", "sight_content": ""}}, {"title": "二道桥", "address": "内蒙古自治区阿拉善盟额济纳旗", "image": "", "rank": 11, "time": 2, "location": {"lat": 41.96029761181317, "lng": 101.0624033405766}, "feature": {"sight_features": "", "sight_content": ""}}, {"title": "东风革命烈士陵园", "address": "布格音阿日拉酒泉卫星发射中心内", "image": "", "rank": 12, "time": 2, "location": {"lat": 39.73846908071564, "lng": 98.50068521606795}, "feature": {"sight_features": "", "sight_content": ""}}, {"title": "聂荣臻墓", "address": "布格音阿日拉东风革命烈士陵园内", "image": "", "rank": 13, "time": 2, "location": {"lat": 46.828385151991114, "lng": 130.41056077772154}, "feature": {"sight_features": "", "sight_content": ""}}, {"title": "问天阁", "address": "布格音阿日拉酒泉卫星发射中心内", "image": "", "rank": 14, "time": 2, "location": {"lat": 39.73846908071564, "lng": 98.50068521606795}, "feature": {"sight_features": "", "sight_content": ""}}, {"title": "基地历史展览馆", "address": "布格音阿日拉酒泉卫星发射中心内", "image": "", "rank": 15, "time": 2, "location": {"lat": 39.73846908071564, "lng": 98.50068521606795}, "feature": {"sight_features": "", "sight_content": ""}}, {"title": "胡杨采种基地", "address": "312省道南50米", "image": "", "rank": 16, "time": 2, "location": {"lat": 36.622543842120564, "lng": 114.42321002791304}, "feature": {"sight_features": "", "sight_content": ""}}, {"title": "小院子农家乐", "address": "温图高勒路附近", "image": "", "rank": 17, "time": null, "location": {"lat": 41.9713458917415, "lng": 101.07770067493657}, "feature": {"sight_features": "", "sight_content": ""}}, {"title": "拥军广场", "address": "新华街与芒来胡同交汇处西南100米", "image": "", "rank": 18, "time": 2, "location": {"lat": 21.612090656864616, "lng": 110.28820210352386}, "feature": {"sight_features": "", "sight_content": ""}}, {"title": "新居延海公园", "address": "内蒙古阿拉善盟额济纳旗航天路", "image": "", "rank": 19, "time": 2, "location": {"lat": 40.9631500746511, "lng": 100.22625474098805}, "feature": {"sight_features": "", "sight_content": ""}}, {"title": "额济纳旗二号山生态旅游度假村", "address": "阿拉善阿拉善盟额济纳旗达镇二号山", "image": "", "rank": 20, "time": 2, "location": {"lat": 41.937288080356254, "lng": 101.04071707776858}, "feature": {"sight_features": "", "sight_content": ""}}, {"title": "胡杨风情度假村", "address": "内蒙古自治区阿拉善盟额济纳旗", "image": "", "rank": 21, "time": 2, "location": {"lat": 41.96029761181317, "lng": 101.0624033405766}, "feature": {"sight_features": "", "sight_content": ""}}, {"title": "额济纳旗胡杨小筑度假村", "address": "阿拉善盟额济纳旗吉日格朗图嘎查胡杨林景区", "image": "", "rank": 22, "time": 2, "location": {"lat": 42.10886690650009, "lng": 101.11768011109899}, "feature": {"sight_features": "", "sight_content": ""}}, {"title": "阿拉腾陶来广场", "address": "古日乃路", "image": "", "rank": 23, "time": 2, "location": {"lat": 41.96393365366418, "lng": 101.06913084037137}, "feature": {"sight_features": "", "sight_content": ""}}, {"title": "人民公社度假村", "address": "内蒙古自治区阿拉善盟额济纳旗s315", "image": "", "rank": 24, "time": 2, "location": {"lat": 41.96029761181317, "lng": 101.0624033405766}, "feature": {"sight_features": "", "sight_content": ""}}, {"title": "东方红度假村", "address": "吉日嘎郎图苏木附近", "image": "", "rank": 25, "time": 2, "location": {"lat": 41.952675205813755, "lng": 101.13761624660397}, "feature": {"sight_features": "", "sight_content": ""}}, {"title": "额济纳宾馆胡杨旅游度假村", "address": "居延东街与环城东路交叉口西150米", "image": "", "rank": 26, "time": 2, "location": {"lat": 41.9587624917064, "lng": 101.08455016821281}, "feature": {"sight_features": "", "sight_content": ""}}, {"title": "阿德格哈日敖包", "address": "阿拉善盟额济纳旗", "image": "", "rank": 27, "time": 2, "location": {"lat": 41.96029761181317, "lng": 101.0624033405766}, "feature": {"sight_features": "", "sight_content": ""}}, {"title": "七道桥", "address": "阿拉善盟阿拉善左旗额济纳旗达来呼布镇", "image": "", "rank": 28, "time": 2, "location": {"lat": 40.813727471049965, "lng": 105.15989887662083}, "feature": {"sight_features": "", "sight_content": ""}}, {"title": "额济纳艺术馆", "address": "古日乃路", "image": "", "rank": 29, "time": 2, "location": {"lat": 41.96393365366418, "lng": 101.06913084037137}, "feature": {"sight_features": "", "sight_content": ""}}, {"title": "刘家面馆", "address": "苏泊淖尔路15附近", "image": "", "rank": 30, "time": 2, "location": {"lat": 41.963773428303234, "lng": 101.07711942905127}, "feature": {"sight_features": "", "sight_content": ""}}, {"title": "内蒙古额济纳旗胡杨林国家级自然...", "address": "内蒙古自治区阿拉善左旗额济纳旗", "image": "", "rank": 31, "time": 2, "location": {"lat": 38.83909413743562, "lng": 105.67259866528437}, "feature": {"sight_features": "", "sight_content": ""}}, {"title": "富士商贸街", "address": "内蒙古自治区额济纳旗赛汉陶来路", "image": "", "rank": 32, "time": 2, "location": {"lat": 41.97359270723721, "lng": 101.05989600999987}, "feature": {"sight_features": "", "sight_content": ""}}, {"title": "金胡杨国际风情商业街", "address": "内蒙古自治区额济纳旗温图高勒路", "image": "", "rank": 33, "time": 2, "location": {"lat": 41.9713458917415, "lng": 101.07770067493657}, "feature": {"sight_features": "", "sight_content": ""}}, {"title": "额济纳旗商业步行街", "address": "内蒙古自治区额济纳旗步行街", "image": "", "rank": 34, "time": 2, "location": {"lat": 41.96029761181317, "lng": 101.0624033405766}, "feature": {"sight_features": "", "sight_content": ""}}, {"title": "吉利格桃来", "address": "阿拉善盟-额济纳旗", "image": "", "rank": 35, "time": 2, "location": {"lat": 41.96029761181317, "lng": 101.0624033405766}, "feature": {"sight_features": "", "sight_content": ""}}, {"title": "苏亥那马格", "address": "阿拉善盟-额济纳旗", "image": "", "rank": 36, "time": 2, "location": {"lat": 41.96029761181317, "lng": 101.0624033405766}, "feature": {"sight_features": "", "sight_content": ""}}, {"title": "苏海那木格", "address": "阿拉善盟-额济纳旗", "image": "", "rank": 37, "time": 2, "location": {"lat": 41.96029761181317, "lng": 101.0624033405766}, "feature": {"sight_features": "", "sight_content": ""}}, {"title": "乌兰吉格德", "address": "阿拉善盟-额济纳旗", "image": "", "rank": 38, "time": 2, "location": {"lat": 41.96029761181317, "lng": 101.0624033405766}, "feature": {"sight_features": "", "sight_content": ""}}, {"title": "川吉图呼勒", "address": "阿拉善盟-额济纳旗", "image": "", "rank": 39, "time": 2, "location": {"lat": 41.96029761181317, "lng": 101.0624033405766}, "feature": {"sight_features": "", "sight_content": ""}}, {"title": "那马格布郎", "address": "阿拉善盟-额济纳旗", "image": "", "rank": 40, "time": 2, "location": {"lat": 41.96029761181317, "lng": 101.0624033405766}, "feature": {"sight_features": "", "sight_content": ""}}, {"title": "巴润呼和乌拉", "address": "阿拉善盟-额济纳旗", "image": "", "rank": 41, "time": 2, "location": {"lat": 41.96029761181317, "lng": 101.0624033405766}, "feature": {"sight_features": "", "sight_content": ""}}, {"title": "勃恩吉格德", "address": "阿拉善盟-额济纳旗", "image": "", "rank": 42, "time": 2, "location": {"lat": 41.96029761181317, "lng": 101.0624033405766}, "feature": {"sight_features": "", "sight_content": ""}}, {"title": "哈拉金敖尔布格高勒", "address": "阿拉善盟-额济纳旗", "image": "", "rank": 43, "time": 2, "location": {"lat": 41.96029761181317, "lng": 101.0624033405766}, "feature": {"sight_features": "", "sight_content": ""}}, {"title": "那仁希尔格布郎", "address": "阿拉善盟-额济纳旗", "image": "", "rank": 44, "time": 2, "location": {"lat": 41.96029761181317, "lng": 101.0624033405766}, "feature": {"sight_features": "", "sight_content": ""}}, {"title": "敖如拉干乌布勒金", "address": "阿拉善盟-额济纳旗", "image": "", "rank": 45, "time": 2, "location": {"lat": 41.96029761181317, "lng": 101.0624033405766}, "feature": {"sight_features": "", "sight_content": ""}}, {"title": "哈日查日音乌布勒金", "address": "阿拉善盟-额济纳旗", "image": "", "rank": 46, "time": 2, "location": {"lat": 41.96029761181317, "lng": 101.0624033405766}, "feature": {"sight_features": "", "sight_content": ""}}, {"title": "多尔博勒金", "address": "阿拉善盟-额济纳旗", "image": "", "rank": 47, "time": 2, "location": {"lat": 41.96029761181317, "lng": 101.0624033405766}, "feature": {"sight_features": "", "sight_content": ""}}, {"title": "马鬃山苏木", "address": "阿拉善盟-额济纳旗-呼鲁赤古特--马鬃山", "image": "", "rank": 48, "time": 2, "location": {"lat": 41.96029761181317, "lng": 101.0624033405766}, "feature": {"sight_features": "", "sight_content": ""}}, {"title": "阿格塔音哈沙", "address": "阿拉善盟-额济纳旗", "image": "", "rank": 49, "time": 2, "location": {"lat": 41.96029761181317, "lng": 101.0624033405766}, "feature": {"sight_features": "", "sight_content": ""}}, {"title": "勃温陶来", "address": "阿拉善盟-额济纳旗", "image": "", "rank": 50, "time": null, "location": {"lat": 41.96029761181317, "lng": 101.0624033405766}, "feature": {"sight_features": "", "sight_content": ""}}, {"title": "胡龙音扎德盖", "address": "阿拉善盟-额济纳旗", "image": "", "rank": 51, "time": 2, "location": {"lat": 41.96029761181317, "lng": 101.0624033405766}, "feature": {"sight_features": "", "sight_content": ""}}, {"title": "英的日图柴达木", "address": "阿拉善盟-额济纳旗", "image": "", "rank": 52, "time": 2, "location": {"lat": 41.96029761181317, "lng": 101.0624033405766}, "feature": {"sight_features": "", "sight_content": ""}}, {"title": "包温吉柯赛", "address": "阿拉善盟-额济纳旗", "image": "", "rank": 53, "time": 2, "location": {"lat": 41.96029761181317, "lng": 101.0624033405766}, "feature": {"sight_features": "", "sight_content": ""}}, {"title": "嘎顺陶来", "address": "阿拉善盟-额济纳旗", "image": "", "rank": 54, "time": 2, "location": {"lat": 41.96029761181317, "lng": 101.0624033405766}, "feature": {"sight_features": "", "sight_content": ""}}, {"title": "嘎顺浩来", "address": "阿拉善盟-额济纳旗", "image": "", "rank": 55, "time": 2, "location": {"lat": 41.96029761181317, "lng": 101.0624033405766}, "feature": {"sight_features": "", "sight_content": ""}}, {"title": "阿给音乌素", "address": "阿拉善盟-额济纳旗", "image": "", "rank": 56, "time": 2, "location": {"lat": 41.96029761181317, "lng": 101.0624033405766}, "feature": {"sight_features": "", "sight_content": ""}}, {"title": "伊和阿给图", "address": "阿拉善盟-额济纳旗", "image": "", "rank": 57, "time": 2, "location": {"lat": 41.96029761181317, "lng": 101.0624033405766}, "feature": {"sight_features": "", "sight_content": ""}}, {"title": "和布特喇嘛音阿日格", "address": "阿拉善盟-额济纳旗", "image": "", "rank": 58, "time": 2, "location": {"lat": 41.96029761181317, "lng": 101.0624033405766}, "feature": {"sight_features": "", "sight_content": ""}}, {"title": "呼热格其古特呼都格", "address": "阿拉善盟-额济纳旗", "image": "", "rank": 59, "time": 2, "location": {"lat": 41.96029761181317, "lng": 101.0624033405766}, "feature": {"sight_features": "", "sight_content": ""}}, {"title": "毛日图赉", "address": "阿拉善盟-额济纳旗", "image": "", "rank": 60, "time": 2, "location": {"lat": 41.96029761181317, "lng": 101.0624033405766}, "feature": {"sight_features": "", "sight_content": ""}}]}