{"cityName": "恩平", "days": 2, "cityImage": "", "spots": [{"title": "锦江温泉", "address": "江门市恩平市大田镇", "image": "", "rank": 1, "time": 0.5, "location": {"lat": 22.27022116404999, "lng": 112.23751924569883}, "feature": {"sight_features": "特色1 以动感温泉为主题旅游景区。 特色2 专家惊叹推崇的温泉仙境，江门新八景。 特色3 水质资源异常丰富清澈，晶莹爽滑。", "sight_content": "锦江温泉在中国第一个温泉之乡、中国第一个国家地热地质公园恩平市，镶嵌着一颗璀璨的温泉明珠，她令到旅游行家们都赞赏有加，让中国地矿热权威部门和专家都惊叹推崇的“温泉仙境”，江门新八景之一的大型温泉度假区——锦江温泉。\n锦江温泉拥有悠久的发展史，根据《恩平县志》记载，早在380多年前，大约明朝时代，在锦江温泉一带已经有丰富的自溢温泉，造福于当地村民。在改革开放的今日使锦江温泉终于得到合理的开发和利用。\n锦江温泉水质资源异常丰富，日涌水量超6200立方米，远景开发量近10000立方米，水温接近70度，水质清澈，晶莹爽滑。富含几十种对人体健康有益的微量元素，硅酸、氟、氡均达到国家命名标准，全国罕有，被专家誉为“三料”温泉。锦江温泉是集住宿、饮食、娱乐、保健、商务、会务、休闲和大型露天温泉融为一体的中国温泉文化经典之度假胜地。"}}, {"title": "金山温泉度假村", "address": "江门市恩平市那吉镇", "image": "", "rank": 2, "time": 2, "location": {"lat": 22.1298765496455, "lng": 112.17215967047599}, "feature": {"sight_features": "特色1 有“天下第二泉”之称 特色2 日夜蒸腾不息，白烟缭绕不散的温泉奇观令人神往 特色3 山清水秀、空气清新、地下热资源丰富、乡土文化洋溢四周", "sight_content": "金山温泉度假村地处丽富饶的珠江三角洲恩平市那吉镇，沿三二五国道 进入侨乡恩平，留意相关的指示牌，便可到达。这里山清水秀、空气清新、地下热资源丰富、乡土文化洋溢四周，恬静、优美的大自然景色及其独特的的旅游资源成为南方一个旅游新景点。\n金山温泉度假村以天然温泉取胜，泉涌区自然水温常年达摄氏80度以上，露天泉涌300多处，日流量2000多立方米，素有“天下第二泉”之称。那日夜蒸腾不息，白烟缭绕不散的温泉奇观令人神往。金山温泉建有大小、功能各异的温泉泳池，红男绿女俱入水中尽情浸浴，仿佛置身于如梦如幻的世界中，尘世俗类，瞬间即逝，其乐无穷。这里山清水秀、空气清新、地下热资源丰富、乡土文化洋溢四周，恬静、优美的大自然景色及其独特的的旅游资源成为南方一个旅游新景点。\n金山温泉度假村以天然温泉取胜，据专家考证，金山温泉无论水质、水温或者出水量均居国内温泉前列，泉涌区自然水温常年达80℃以上，露天泉涌300多处，日流量2000多立方米，含48种矿物元素，当今世界上惟独秘鲁有一处温泉超过它，所以金山温泉又有“天下第二泉”之美称。"}}, {"title": "帝都温泉", "address": "恩平市良西镇", "image": "", "rank": 3, "time": 2, "location": {"lat": 22.330652888525755, "lng": 112.31269493310748}, "feature": {"sight_features": "特色1 含多种对人体有益的微量元素", "sight_content": "在中国第一个温泉之乡——恩平市，有一座被环岭群峰拥抱着的温泉山，山下的三十多处自喷温泉，日流量为6000立方米，其温泉水温高达73℃，水质晶莹幼滑，并含有偏硅酸、氟、氢、硫等多种有益于人体健康的元素，是世界少有的滑温泉，这就是帝都温泉。\n恩平帝都温泉位于广东省恩平市良西镇，距广州市160多公里。珠三角绿道网三号线西起点从这里开始。二百多万平方米原生态自然园区，龙脉环抱，钟灵毓秀，王者气势。十五万平方米温泉园林水区，山林绿野，景色优美，空气清新，运用中国传统文化以及地方文化进行设计建造的大、中、小温泉浴池80多个，温内有目前世界最大的温泉瀑布群、温泉舞台和温泉浴池,也是目前世界最大的山水文化温泉。其特点是在世界最大的温泉园林中增进健康；在山林绿野，返朴归真的自然环境中怡养健康；在传统和现代相结合的养生文化中感悟健康；在疗效神奇的温泉滑水中得到健康；在阴阳平衡生态中恢复体能、享受健康。\n恩平帝都温泉是以温泉康乐为主题的综合区，温泉浴区可同时接待6000人进行游泳健身、沐浴康乐、理疗按摩、休闲品茗等活动；风阁食府可同时接待1000人就餐，会议厅可满足50-500人的会议、会展、培训活动需要；玉树宫、风池宫客房可接待近600人住宿。是游乐、休闲、度假、会议、学习的最佳绿色景区。2005年9月被国家评为“地热国家地质公园”，被世界养生组织授予“世界温泉养生基地”、2009年6月被中国医师协会、养生专业委员会授予“健康之都”，2010年5月被中国矿业联合会授予“中国5a级温泉度假区”。"}}, {"title": "恩平歇马举人村", "address": "江门市恩平市圣堂镇的歇马村", "image": "", "rank": 4, "time": 1.0, "location": {"lat": 22.246195449319526, "lng": 112.38209160288412}, "feature": {"sight_features": "特色1 明清两朝共考取了285名举人", "sight_content": "‍‍‍‍‍‍‍‍‍‍\n自古以来就是恩平人心目中的名村，在五邑地区，也有“恩平歇马梁，开平沙岗张”的说法，如今这里已经成为国家历史文化名村。\n村得名于村庄形似站立的马，有“马头”、“马尾”、“马肚”、“马骨”等，水塘边这两块石头是歇马村的标志。\n歇马之所以闻名恩平甚至五邑，除了它具有“只见水入不见水出”的所谓风水格局外，还因为这里是第一举人村、著名风水村、教育文化村、功名碑林村、绿色生态村、健康长寿村、侨乡民俗村、全国文明村和中国历史文化名村，一座小村庄竟有如此荣耀。"}}, {"title": "泉林度假区", "address": "江门市恩平市东成镇泉林路", "image": "", "rank": 5, "time": 2, "location": {"lat": 22.22936100386873, "lng": 112.41231615085954}, "feature": {"sight_features": "特色1 在青山绿水的怀抱中沐浴汤池 特色2 集温泉、酒店、地产、乐园、高尔夫练习场等于一体的地方 特色3 全身心都沉浸于回归大自然的无穷畅快之中，五邑地区民俗风情。", "sight_content": "【水禾田温泉】-泡在稻田里的温泉\n在青山绿水的怀抱中，沐浴场地；看月光洒满山涧之时，稻浪起伏、稻香弥漫；与三五好友对影清泉，惬意悠适。\n汲取天地精华，为您的健康保驾护航。秉承“师法自然，天人合一”的设计理念，为您开启集天然、农耕、养生于一体的全新温泉之旅。\n温泉有4大主题池区身心体验别样浪漫：自然灵秀区、温馨情侣区、百里香汤区、禾绿稻香区。\n【那金谷】\n\n利用原有金矿遗址和山林地貌，建设集淘金体验、考古体验、主题文化演出、溯溪探险、那文化博物馆、文化艺术街区、黄金度假酒店及金谷餐厅等项目于一体的华侨淘金文化发祥地。"}}, {"title": "河东名人山庄", "address": "江门市恩平市牛江镇西坑水库湖畔", "image": "", "rank": 6, "time": null, "location": {"lat": 22.40181329662964, "lng": 112.35188656340945}, "feature": {"sight_features": "", "sight_content": ""}}, {"title": "七星坑自然保护区", "address": "江门市恩平市那吉镇境内，位于恩平市、阳春市、河阳东县三地交界处，距恩平市区57公里。", "image": "", "rank": 7, "time": 13.5, "location": {"lat": 22.1298765496455, "lng": 112.17215967047599}, "feature": {"sight_features": "", "sight_content": ""}}, {"title": "香家堡梦幻花世界", "address": "江门市恩平市新楼村香家堡梦幻花世界", "image": "", "rank": 8, "time": 2, "location": {"lat": 22.25693857350551, "lng": 112.27749482182926}, "feature": {"sight_features": "特色1 十里花廊，赏花品花", "sight_content": "‍‍‍‍‍‍‍‍‍‍‍‍‍‍\n经过接近两年的精心打造，位于广东恩平市恩城往大田方向新楼路段的香家堡梦幻花世界正式浪漫开园。原广州市委常委、广州警备区司令吴新源，以及恩平市的有关负责人，广东省恩平商会众多企业家、省内外几十家旅行社的负责人及众多游客一起见证了香家堡的浪漫开园。\n恩平香家堡梦幻花世界规模超过1000亩，计划分三期建设，一期是以亲子活动为核心主题的自然生态乐园，提供传统民俗文化、农耕文化、户外拓展、牧场养殖、手工益智DIY等众多体验项目。重点面向珠三角城市群六千万消费者，不断满足人民群众日益增长的“观光旅游、农业体验、亲子游学、休闲娱乐、田园度假、运动养生、民俗文化”等多方面多层次的需求，项目以“田园、古堡、美食、艺术、花海、奇石”为设计元素，致力打造成为中国温泉之乡恩平的新时代旅游新亮点。\n恩平香家堡梦幻花世界的目标是把景区倾力打造成为珠三角甚至是华南地区的户外亲子游自驾游目的地。随着自驾车家庭游渐成出游大军，离沈海高速恩平出口仅8公里的香家堡凭值便利的交通、完善的配套、足够大的停车场。"}}, {"title": "恩平天然温泉乐园", "address": "恩平市那吉镇温泉乐园", "image": "", "rank": 9, "time": 2, "location": {"lat": 22.12593530555526, "lng": 112.18040310752801}, "feature": {"sight_features": "", "sight_content": ""}}, {"title": "花海欢乐世界", "address": "江门市恩平市良西镇新松里", "image": "", "rank": 10, "time": 2, "location": {"lat": 22.328529067322727, "lng": 112.34297892824662}, "feature": {"sight_features": "特色1 绿色生态园", "sight_content": "‍‍‍‍\n花海欢乐世界毗邻恒大泉都，规划用地700亩，计划投资2.5亿元，是一个以樱花、紫薇、杜鹃、四季时花观赏，融合养生文化、田园生活情趣，集自然观光、生态农业、花卉观赏、文化艺术品鉴、休闲游玩、科普教育、爱国主义教育、餐饮美食于一体的高品位绿色生态园。\n来到花海欢乐世界，你首先会被这一片锦绣花海所深深吸引。一只巨大的金凤昂首振翅，好似正在引吭高歌，金凤的后面，拖着长长的裙摆，而裙摆是由几十种鲜花构成，图案华丽，色彩缤纷，令人不得不发出由衷的赞叹。这个观花长城是一个具有历史文化教育内涵的景点，分别由五个烽火台和一个展览馆拼建而成，整座长城的设计匠心独运，既考虑到游客的观光视野，又融合了传统的建筑艺术，从空中俯看，长城沿山蜿蜒而上，雄伟壮观，气势磅礴。"}}, {"title": "恩平博物馆", "address": "广东省恩平市鳌峰山顶", "image": "", "rank": 11, "time": 2.5, "location": {"lat": 22.189035201534217, "lng": 112.3114375784788}, "feature": {"sight_features": "", "sight_content": ""}}, {"title": "星期六儿童成长主题乐园", "address": "美华东路侨星国际大厦二楼", "image": "", "rank": 12, "time": 2, "location": {"lat": 22.188216586188126, "lng": 112.3404947946139}, "feature": {"sight_features": "", "sight_content": ""}}, {"title": "泉林度假乐园", "address": "广东省江门恩平市东成镇青南角", "image": "", "rank": 13, "time": 2, "location": {"lat": 22.22936100386873, "lng": 112.41231615085954}, "feature": {"sight_features": "", "sight_content": ""}}, {"title": "铸铜动物园", "address": "广东省恩平市恩平县", "image": "", "rank": 14, "time": 2, "location": {"lat": 22.189035201534217, "lng": 112.3114375784788}, "feature": {"sight_features": "", "sight_content": ""}}, {"title": "七星坑原始森林", "address": "广东省恩平市市西部", "image": "", "rank": 15, "time": 2, "location": {"lat": 22.189035201534217, "lng": 112.3114375784788}, "feature": {"sight_features": "", "sight_content": ""}}, {"title": "(金马国旅)", "address": "大田镇325国道旁", "image": "", "rank": 16, "time": 2, "location": {"lat": 23.010828411485836, "lng": 113.10968514930308}, "feature": {"sight_features": "", "sight_content": ""}}, {"title": "大槐影剧院", "address": "恩江路附近", "image": "", "rank": 17, "time": 2, "location": {"lat": 30.341729734839642, "lng": 113.01014114544724}, "feature": {"sight_features": "", "sight_content": ""}}, {"title": "龙泉山庄", "address": "鑫泽路附近", "image": "", "rank": 18, "time": 2, "location": {"lat": 22.12351790057731, "lng": 112.18251759383334}, "feature": {"sight_features": "", "sight_content": ""}}, {"title": "大田影剧院", "address": "长堤路", "image": "", "rank": 19, "time": 2, "location": {"lat": 30.030983819206394, "lng": 114.37197227881109}, "feature": {"sight_features": "", "sight_content": ""}}, {"title": "西门湿地公园", "address": "江门市恩平市恩平市黄冈实验中学附近", "image": "", "rank": 20, "time": 2, "location": {"lat": 22.189035201534217, "lng": 112.3114375784788}, "feature": {"sight_features": "", "sight_content": ""}}, {"title": "天天乐儿童乐园", "address": "广东省江门市恩平市锦江河畔恩东大桥南侧中澳豪庭c区好万家购物广场1号铺位", "image": "", "rank": 21, "time": 2, "location": {"lat": 22.18774550671636, "lng": 112.33868931821746}, "feature": {"sight_features": "", "sight_content": ""}}, {"title": "湖园", "address": "江门市恩平市", "image": "", "rank": 22, "time": 2, "location": {"lat": 22.189035201534217, "lng": 112.3114375784788}, "feature": {"sight_features": "", "sight_content": ""}}, {"title": "蒲桥祠堂", "address": "广湛公路南200米", "image": "", "rank": 23, "time": 2, "location": {"lat": 22.82800401432319, "lng": 113.03046565250696}, "feature": {"sight_features": "", "sight_content": ""}}, {"title": "恩平市府广场", "address": "新塔路与桥峰路交叉口北150米", "image": "", "rank": 24, "time": 2, "location": {"lat": 22.18963722392798, "lng": 112.31286376154327}, "feature": {"sight_features": "", "sight_content": ""}}, {"title": "宝宝儿童乐园", "address": "广东省江门市恩平市新塔路与解放路交叉口东100米", "image": "", "rank": 25, "time": 2, "location": {"lat": 22.18879665248321, "lng": 112.31245542509588}, "feature": {"sight_features": "", "sight_content": ""}}, {"title": "沙湖影剧院", "address": "长堤东路10号附近", "image": "", "rank": 26, "time": 2, "location": {"lat": 23.02710796026121, "lng": 113.15728215419131}, "feature": {"sight_features": "", "sight_content": ""}}, {"title": "圣堂影剧院", "address": "圣桥街附近", "image": "", "rank": 27, "time": 2, "location": {"lat": 22.293507243208595, "lng": 112.39446170543059}, "feature": {"sight_features": "", "sight_content": ""}}, {"title": "白马翠绿度假山荘", "address": "江门恩平市恩城南联白马山(近居委会)", "image": "", "rank": 28, "time": null, "location": {"lat": 22.12851555871326, "lng": 112.30482757974183}, "feature": {"sight_features": "", "sight_content": ""}}, {"title": "东成影剧院", "address": "东成人民医院附近", "image": "", "rank": 29, "time": 2, "location": {"lat": 22.250879861187027, "lng": 112.39081293128085}, "feature": {"sight_features": "", "sight_content": ""}}, {"title": "梦泉山庄", "address": "广东省江门市恩平市那吉镇南堤路金山温泉度假村", "image": "", "rank": 30, "time": 2, "location": {"lat": 22.124720778002214, "lng": 112.18367628936448}, "feature": {"sight_features": "", "sight_content": ""}}, {"title": "冯如纪念馆", "address": "恩城北部鳌峰山顶(近恩平市博物馆)", "image": "", "rank": 31, "time": 2, "location": {"lat": 22.18810117781723, "lng": 112.31112776278988}, "feature": {"sight_features": "", "sight_content": ""}}, {"title": "举人村文化展馆", "address": "秋官第旁", "image": "", "rank": 32, "time": 2, "location": {"lat": 22.245168043841623, "lng": 112.38181280837937}, "feature": {"sight_features": "", "sight_content": ""}}, {"title": "芳源画廊", "address": "富源西路13号", "image": "", "rank": 33, "time": 2, "location": {"lat": 22.19374732624752, "lng": 112.31914521941297}, "feature": {"sight_features": "", "sight_content": ""}}, {"title": "恩平市档案馆", "address": "锦江大道中路", "image": "", "rank": 34, "time": 1.0, "location": {"lat": 22.20312074012516, "lng": 112.34271284835803}, "feature": {"sight_features": "", "sight_content": ""}}, {"title": "恩平科学馆", "address": "南堤中路70号", "image": "", "rank": 35, "time": 1.5, "location": {"lat": 41.758231016302894, "lng": 123.50652015481145}, "feature": {"sight_features": "", "sight_content": ""}}, {"title": "艺多丽工艺画廊", "address": "桥峰路51号", "image": "", "rank": 36, "time": 2, "location": {"lat": 22.189075657315133, "lng": 112.31315353693459}, "feature": {"sight_features": "", "sight_content": ""}}, {"title": "张朝植伉俪纪念馆", "address": "文澜大道", "image": "", "rank": 37, "time": 2, "location": {"lat": 22.318145789885286, "lng": 112.46583666043118}, "feature": {"sight_features": "", "sight_content": ""}}, {"title": "欣欣艺术画坊", "address": "稔岗路11号", "image": "", "rank": 38, "time": 2, "location": {"lat": 22.191952008773296, "lng": 112.31038228599655}, "feature": {"sight_features": "", "sight_content": ""}}, {"title": "宝利画廊", "address": "富源西路25号(近华莱士)", "image": "", "rank": 39, "time": 2, "location": {"lat": 22.193657139540626, "lng": 112.31824835119211}, "feature": {"sight_features": "", "sight_content": ""}}, {"title": "胡灿芳是不是明星", "address": "飞鹅塘小学前300米", "image": "", "rank": 40, "time": 2, "location": {"lat": 22.20034476607856, "lng": 112.33907146905923}, "feature": {"sight_features": "", "sight_content": ""}}, {"title": "艺希堂画廊", "address": "腾飞街龙晖豪苑商铺10、11号", "image": "", "rank": 41, "time": null, "location": {"lat": 22.19942139269816, "lng": 112.33595176541401}, "feature": {"sight_features": "", "sight_content": ""}}, {"title": "七彩画廊", "address": "沙湖镇金宝大道21号", "image": "", "rank": 42, "time": 2, "location": {"lat": 22.394312682632194, "lng": 112.45169780781072}, "feature": {"sight_features": "", "sight_content": ""}}, {"title": "八方画廊", "address": "富源西路55号之一", "image": "", "rank": 43, "time": 2, "location": {"lat": 22.192936448212535, "lng": 112.3177797528179}, "feature": {"sight_features": "", "sight_content": ""}}, {"title": "绿色家园自由农场", "address": "牛江镇西坑水库二副坎", "image": "", "rank": 44, "time": 2, "location": {"lat": 22.40181329662964, "lng": 112.35188656340945}, "feature": {"sight_features": "", "sight_content": ""}}, {"title": "中山公园游乐场", "address": "中山公园游乐场", "image": "", "rank": 46, "time": 2.5, "location": {"lat": 23.052338231177355, "lng": 113.12047820286627}, "feature": {"sight_features": "", "sight_content": ""}}, {"title": "玉带天池", "address": "广东省恩平市朗底镇", "image": "", "rank": 47, "time": 2, "location": {"lat": 22.34261384495046, "lng": 112.23127684076287}, "feature": {"sight_features": "", "sight_content": ""}}, {"title": "郑锦波旧居", "address": "广东省恩平市牛江镇东边朗村", "image": "", "rank": 48, "time": null, "location": {"lat": 22.38031534058818, "lng": 112.41276878454823}, "feature": {"sight_features": "", "sight_content": ""}}, {"title": "番开园艺", "address": "江门市-恩平市-下塘劳大道与276省道交叉口北50米", "image": "", "rank": 49, "time": 2, "location": {"lat": 22.234833904463297, "lng": 112.29541355718693}, "feature": {"sight_features": "", "sight_content": ""}}, {"title": "石仔颈", "address": "江门市-恩平市", "image": "", "rank": 50, "time": 2, "location": {"lat": 22.189035201534217, "lng": 112.3114375784788}, "feature": {"sight_features": "", "sight_content": ""}}, {"title": "石仔地", "address": "江门市-恩平市", "image": "", "rank": 51, "time": 2, "location": {"lat": 22.189035201534217, "lng": 112.3114375784788}, "feature": {"sight_features": "", "sight_content": ""}}, {"title": "恩平地热公园", "address": "广东省恩平市那吉镇", "image": "", "rank": 52, "time": 2, "location": {"lat": 22.1298765496455, "lng": 112.17215967047599}, "feature": {"sight_features": "", "sight_content": ""}}, {"title": "仙人塞海", "address": "广东省恩平市那吉镇", "image": "", "rank": 53, "time": 2, "location": {"lat": 22.1298765496455, "lng": 112.17215967047599}, "feature": {"sight_features": "", "sight_content": ""}}]}