{"cityName": "二连浩特", "days": 2, "cityImage": "", "spots": [{"title": "白垩纪恐龙地质公园", "address": "锡林郭勒盟二连浩特市东北约10公里", "image": "", "rank": 1, "time": 2.5, "location": {"lat": 43.648800184052014, "lng": 111.95836319332828}, "feature": {"sight_features": "", "sight_content": ""}}, {"title": "二连浩特国门景区", "address": "锡林郭勒盟二连浩特市二零八国道", "image": "", "rank": 2, "time": 0.75, "location": {"lat": 43.648800184052014, "lng": 111.95836319332828}, "feature": {"sight_features": "特色1 与蒙古国扎门乌德隔界相望 特色2 是欧亚大路桥中的重要战略枢纽 特色3 二连浩特口岸也是国务院首批批准的全国13个沿边开放城市之一", "sight_content": "二连浩特市国门旅游景区位于中国正北方，位于内蒙古自治区锡林郭勒盟西部，东西南三面与美丽富饶的苏尼特草原相邻，北与蒙古国扎门乌德隔界相望，与蒙古共和国扎门乌德口岸隔界相望，过货能力350万吨，也是欧亚大路桥中的重要战略枢纽。二连浩特口岸也是国务院首批批准的全国13个沿边开放城市之一、换轮库和先进的H986火车检验系统。年进口原油300多万吨、木材300多万立方米、铜矿粉50多万吨、铁矿石300多万吨、钼矿粉5000多吨。蒙古国70%的果蔬和日用品经由该市运入。改革开放以来，二连口岸的客货运量逐年增加。2002年，进出口运量达到421万吨。出入境人员近80万人次。出入境车辆11.3万辆次。2005年该市进出口货运量达到854万吨，货值22.4亿美元。目前、铁路部已批准投资3.8亿元对二连铁路站场进行改扩建，并于今年开工建设，工程完工后，二连铁路口岸过货能力将达到1000万吨。"}}, {"title": "伊林驿站博物馆", "address": "内蒙古锡林郭勒盟二连浩特市恐龙化石原地埋藏馆以北", "image": "", "rank": 3, "time": 2, "location": {"lat": 43.648800184052014, "lng": 111.95836319332828}, "feature": {"sight_features": "", "sight_content": ""}}, {"title": "二连浩特城市规划展厅", "address": "建设路", "image": "", "rank": 4, "time": 1.0, "location": {"lat": 39.08959553212996, "lng": 117.0126917080218}, "feature": {"sight_features": "", "sight_content": ""}}, {"title": "中国古生物博物馆", "address": "社区建设管理局新华大街南150米", "image": "", "rank": 5, "time": 2, "location": {"lat": 40.82957998054125, "lng": 111.68813199505261}, "feature": {"sight_features": "", "sight_content": ""}}, {"title": "二连浩特市图书馆", "address": "建设路与成吉思汗大街交叉口北100米", "image": "", "rank": 6, "time": 1.5, "location": {"lat": 43.64047807147726, "lng": 111.99125251789715}, "feature": {"sight_features": "", "sight_content": ""}}, {"title": "淘气乐园", "address": "华联商厦购物中心3楼", "image": "", "rank": 7, "time": 2, "location": {"lat": 43.653025306191175, "lng": 111.99112559990486}, "feature": {"sight_features": "", "sight_content": ""}}, {"title": "二连浩特市诺明塔拉度假村", "address": "二连浩特市口岸加工区天鹅湖东天联公司西侧", "image": "", "rank": 8, "time": 1.0, "location": {"lat": 43.648800184052014, "lng": 111.95836319332828}, "feature": {"sight_features": "", "sight_content": ""}}, {"title": "山地越野", "address": "锡林郭勒盟二连浩特市国门金街北区6号", "image": "", "rank": 9, "time": 2.5, "location": {"lat": 43.663379165374195, "lng": 111.98373304771052}, "feature": {"sight_features": "", "sight_content": ""}}, {"title": "欢乐天地儿童游乐城", "address": "内蒙古自治区锡林郭勒盟二连浩特市肯特街", "image": "", "rank": 10, "time": 2, "location": {"lat": 43.64425778649335, "lng": 111.98239790611241}, "feature": {"sight_features": "", "sight_content": ""}}, {"title": "街心公园", "address": "新华大街与诚信路交叉口西50米", "image": "", "rank": 11, "time": 2, "location": {"lat": 43.65795524853833, "lng": 111.98135169909173}, "feature": {"sight_features": "", "sight_content": ""}}, {"title": "奔奔塔拉度假村", "address": "成吉思汗大街满二线", "image": "", "rank": 12, "time": 2, "location": {"lat": 43.644579375702264, "lng": 112.00321915640926}, "feature": {"sight_features": "", "sight_content": ""}}, {"title": "阿尔善图呼都格", "address": "二连浩特市", "image": "", "rank": 13, "time": 2, "location": {"lat": 43.648800184052014, "lng": 111.95836319332828}, "feature": {"sight_features": "", "sight_content": ""}}, {"title": "敖包廷勃日和", "address": "锡林郭勒盟二连浩特市", "image": "", "rank": 14, "time": 2, "location": {"lat": 43.648800184052014, "lng": 111.95836319332828}, "feature": {"sight_features": "", "sight_content": ""}}, {"title": "奇门密室", "address": "察哈尔街龙峰宾馆斜对面", "image": "", "rank": 15, "time": 2, "location": {"lat": 43.66314087110935, "lng": 111.97877823975489}, "feature": {"sight_features": "", "sight_content": ""}}, {"title": "贝美嘉儿童乐园", "address": "前进路百货大楼四楼", "image": "", "rank": 16, "time": 2, "location": {"lat": 50.42918499830212, "lng": 124.13653803239995}, "feature": {"sight_features": "", "sight_content": ""}}, {"title": "二连浩特市乌兰牧骑", "address": "建设路附近", "image": "", "rank": 17, "time": 1.0, "location": {"lat": 39.08959553212996, "lng": 117.0126917080218}, "feature": {"sight_features": "", "sight_content": ""}}, {"title": "欧亚中蒙商业街", "address": "内蒙古自治区二连浩特市诚信路", "image": "", "rank": 18, "time": 2, "location": {"lat": 43.646440836722554, "lng": 111.991399875933}, "feature": {"sight_features": "", "sight_content": ""}}, {"title": "准恩格尔", "address": "锡林郭勒盟-二连浩特市", "image": "", "rank": 19, "time": 2, "location": {"lat": 43.648800184052014, "lng": 111.95836319332828}, "feature": {"sight_features": "", "sight_content": ""}}, {"title": "东大会浴都", "address": "锡林郭勒盟二连浩特市锡林街1号友谊路东", "image": "", "rank": 20, "time": 2, "location": {"lat": 43.65970941628848, "lng": 111.99345918112816}, "feature": {"sight_features": "特色1 营业面积超过6000平米 特色2 环境温馨舒适，具有异国风情 特色3 缓解疲劳，放松身心的绿色聚会养生会所", "sight_content": "东大会浴都位于二连浩特市友谊路一号，会所内集各类SPA水疗、餐饮、汗蒸、茶艺、棋牌室等休闲设施，并包含商务客房，窑洞，蒙古包等特色区域。内有韩式玉石休息区、天然保健盐浴、风格独特的盐浴房、健身区、儿童乐园等，是一家以玉石韩式汗蒸为主的沐浴休闲会所。"}}, {"title": "二连浩特恐龙故里", "address": "内蒙古自治区二连浩特市前进路", "image": "", "rank": 21, "time": 1.0, "location": {"lat": 43.64963147520112, "lng": 111.99484143885027}, "feature": {"sight_features": "", "sight_content": ""}}]}