{"cityName": "洱源", "days": 2, "cityImage": "", "spots": [{"title": "大理西湖", "address": "大理白族自治州洱源县", "image": "", "rank": 1, "time": 3.5, "location": {"lat": 26.12009334188815, "lng": 99.96920972145332}, "feature": {"sight_features": "特色1 划船游湖、品三道茶、吃湖水煮鱼，享受悠闲假日。", "sight_content": "洱源西湖，是云南省省级风景名胜区，国家湿地公园，待评国家AAAA级景区，位于苍山第一峰（由北向南）云弄峰山麓。远望西湖，湖光山色、绿岛小屿，芦苇青翠、柳暗花明，渔家隐居、炊烟袅袅，鹭欧群集、四鸟归巢……必定会引起您无尽的乡愁情怀！ 整个西湖由六村七岛自然构成，方圆约5平方公里。如果能驾驶飞机鸟瞰西湖全景，一幅浓缩了的岛国风貌定会映入眼底。她西接山麓，东、北连田畴，南部是浅湖出口区，南北稍长约3公里，东西宽为2公里半，湖岸全长13公里。所以，要想把西湖游个遍，得花一整天。若想更亲密地感触西湖，那就得在湖里多待几日了。 “才饮长沙水，又食武昌鱼。万里长江横渡，极目楚天舒。不管风吹浪打，胜似闲庭信步……”。如果说，在这首“水调歌头·游泳”里体现的是一种万里豪迈，那么，在洱源西湖，你所体验到的，则是一种渔家小户的闲适与宁静。“才饮西湖水，又食西湖鱼”，在西湖的美食中，西湖鱼是一个重要特色，当地的湖水煮活鱼可谓一大美食。"}}, {"title": "大理地热国", "address": "大理白族自治州大理市洱源县茈碧湖镇滨河路", "image": "", "rank": 2, "time": 3.5, "location": {"lat": 26.122053015215382, "lng": 99.97323601657828}, "feature": {"sight_features": "特色1 在露天温泉池享受舒心温泉理疗之余，欣赏周边田园风光，非常惬意。", "sight_content": "大理地热国占地1000亩，总投资3.47亿人民币，是以温泉沐浴文化为特色的休闲度假型旅游风景区，它位于云南省大理白族自治州，地处洱源县国家级风景区芷碧湖畔，是到大理苍山、洱海、丽江古城、玉龙雪山和迪庆香格里拉的必经之地，其风光秀丽，景色怡人。\n32个各具特色的露天温泉池点缀在芦苇及花木之间，若隐若现，形态各异。有怡情养性、净化心灵的养心池，有强身健体、润肤养颜的药池、牛奶池，还有小鱼会来啃脚的“亲亲鱼疗馆”等，有的温泉池形如山涧小溪——似儿时乡间的乐园，有的温泉池四周奇石林立——犹如瑶池仙境。"}}, {"title": "茈碧湖", "address": "大理白族自治州洱源县茈碧湖镇茈碧路", "image": "", "rank": 3, "time": 1.5, "location": {"lat": 26.117393516150763, "lng": 99.95729977949742}, "feature": {"sight_features": "", "sight_content": ""}}, {"title": "下山口普陀泉SPA温泉度假村", "address": "大理白族自治州洱源县214国道旁边", "image": "", "rank": 4, "time": 2, "location": {"lat": 26.296102501975426, "lng": 100.00169087934368}, "feature": {"sight_features": "特色1 相传此泉乃观音当年玉净瓶遗留之处", "sight_content": "大理洱源县下山口一处神奇的水域——普陀泉，相传此泉乃观音当年玉净瓶遗留之处，水色清澈如碧玉，甚有仙水之气度。笔者有幸前往，完美体验这里的“珍稀医疗热矿泉”之后，不得不感叹，普陀泉水可能是世界上最好的温泉水。\n首先，普陀泉水是活水，这是好水的第一保证，因为它绝对没有任何污染。普陀泉水是来自天上，变成雨水顺苍山而下，经过苍山巍峨山脉的层层深度净化、过滤之后，在几千米深的岩石间汲取精华，遇地热，泉水喷涌而出，恒温就这样经年不衰地滋润着当地的人们。其次，经专业机构认证，普陀泉水是弱碱性水，弱碱性水已经非常难得了，但是普陀泉的弱碱性矿泉水竟然是极品的。\n素有“温泉之乡”的洱源县下山口，有名为普陀的温泉，当地人称为普陀仙泉，传说当年观音菩萨把手中的玉净瓶遗留在此处。普陀泉水色常年清澈如碧玉，日涌万方，取之不尽。徐霞客途径普陀泉，留下感悟：“土人言普陀崆中，有热水洞……水自洞底涌出如沸。人入洞门，为热气所蒸，无不浃汗，有疾者辄愈。”"}}, {"title": "九气台温泉", "address": "大理白族自治州洱源县大理古城茈碧湖畔九气台村", "image": "", "rank": 5, "time": 2, "location": {"lat": 26.138454737130065, "lng": 99.9659024040075}, "feature": {"sight_features": "", "sight_content": ""}}, {"title": "梨园村", "address": "大理白族自治州洱源县茈碧湖旁", "image": "", "rank": 6, "time": 4.0, "location": {"lat": 26.162149322262596, "lng": 99.94830935290558}, "feature": {"sight_features": "", "sight_content": ""}}, {"title": "凤羽镇", "address": "大理白族自治州洱源县", "image": "", "rank": 7, "time": 7.5, "location": {"lat": 26.12009334188815, "lng": 99.96920972145332}, "feature": {"sight_features": "", "sight_content": ""}}, {"title": "下沙坪", "address": "大理白族自治州洱源县221省道旁", "image": "", "rank": 8, "time": 2, "location": {"lat": 25.93407529473298, "lng": 100.10703987987301}, "feature": {"sight_features": "", "sight_content": ""}}, {"title": "鸡鸣寺", "address": "大理白族自治州洱源县鸡鸣寺", "image": "", "rank": 9, "time": 1.5, "location": {"lat": 26.042709539207774, "lng": 99.7965146903886}, "feature": {"sight_features": "", "sight_content": ""}}, {"title": "大理双廊水云天客栈", "address": "双廊镇玉玑岛", "image": "", "rank": 10, "time": 3.5, "location": {"lat": 25.911343315902666, "lng": 100.20045682575797}, "feature": {"sight_features": "", "sight_content": ""}}, {"title": "丽源温泉", "address": "牛街乡214国道东侧", "image": "", "rank": 11, "time": null, "location": {"lat": 26.296102501975426, "lng": 100.00169087934368}, "feature": {"sight_features": "", "sight_content": ""}}, {"title": "北海观音阁", "address": "大理白族自治州洱源县", "image": "", "rank": 12, "time": 2, "location": {"lat": 26.12009334188815, "lng": 99.96920972145332}, "feature": {"sight_features": "", "sight_content": ""}}, {"title": "温泉城", "address": "214国道", "image": "", "rank": 13, "time": 2, "location": {"lat": 28.319159428535947, "lng": 99.13023574560108}, "feature": {"sight_features": "", "sight_content": ""}}, {"title": "火焰山温泉城", "address": "三营镇仕登村火焰山", "image": "", "rank": 14, "time": 2, "location": {"lat": 26.23891380874353, "lng": 100.00034355313007}, "feature": {"sight_features": "", "sight_content": ""}}, {"title": "洱源县图书馆", "address": "文康路31号", "image": "", "rank": 15, "time": 2, "location": {"lat": 22.268819205200238, "lng": 113.47605743447664}, "feature": {"sight_features": "", "sight_content": ""}}, {"title": "下山口温泉山庄", "address": "214国道", "image": "", "rank": 16, "time": 2, "location": {"lat": 28.319159428535947, "lng": 99.13023574560108}, "feature": {"sight_features": "", "sight_content": ""}}, {"title": "地热温泉", "address": "214国道", "image": "", "rank": 17, "time": 1.5, "location": {"lat": 28.319159428535947, "lng": 99.13023574560108}, "feature": {"sight_features": "", "sight_content": ""}}, {"title": "洱海源温泉宾馆", "address": "茈碧湖镇九气台村", "image": "", "rank": 18, "time": 2, "location": {"lat": 26.121908456705448, "lng": 99.96206954729608}, "feature": {"sight_features": "", "sight_content": ""}}, {"title": "温泉会馆", "address": "宁昌路007号", "image": "", "rank": 19, "time": 2, "location": {"lat": 22.262476968665037, "lng": 113.47159977304595}, "feature": {"sight_features": "", "sight_content": ""}}, {"title": "下山口溸泉温泉度假行馆", "address": "下山口温泉山庄旁", "image": "", "rank": 20, "time": 2, "location": {"lat": 26.0798535771458, "lng": 100.04150436073641}, "feature": {"sight_features": "", "sight_content": ""}}, {"title": "茈碧湖梨园村", "address": "云南省洱源县茈碧湖北岸 671200", "image": "", "rank": 21, "time": 2, "location": {"lat": 26.162149322262596, "lng": 99.94830935290558}, "feature": {"sight_features": "", "sight_content": ""}}, {"title": "观音庙", "address": "大理白族自治州巍山彝族回族自治县", "image": "", "rank": 22, "time": 0.5, "location": {"lat": 25.23343872979941, "lng": 100.31346033514549}, "feature": {"sight_features": "", "sight_content": ""}}, {"title": "南诏民族村", "address": "二一四国道旁", "image": "", "rank": 23, "time": 2, "location": {"lat": 28.319159428535947, "lng": 99.13023574560108}, "feature": {"sight_features": "", "sight_content": ""}}, {"title": "洱源基督教福音堂", "address": "茈碧湖镇宁湖路", "image": "", "rank": 24, "time": 2, "location": {"lat": 26.114887267621434, "lng": 99.95511665187148}, "feature": {"sight_features": "", "sight_content": ""}}, {"title": "弥勒寺", "address": "大理白族自治州洱源县", "image": "", "rank": 25, "time": 1.0, "location": {"lat": 26.12009334188815, "lng": 99.96920972145332}, "feature": {"sight_features": "", "sight_content": ""}}, {"title": "景帝祠", "address": "环海路西50米", "image": "", "rank": 26, "time": 2, "location": {"lat": 27.341763031281825, "lng": 120.51883417867766}, "feature": {"sight_features": "", "sight_content": ""}}, {"title": "戏台", "address": "环海路东50米", "image": "", "rank": 27, "time": 2, "location": {"lat": 25.923101139408338, "lng": 100.19699066903361}, "feature": {"sight_features": "", "sight_content": ""}}, {"title": "特特拉TTLA游乐园", "address": "云南省大理白族自治州洱源县施晃路", "image": "", "rank": 28, "time": 2, "location": {"lat": 26.120642984868603, "lng": 99.96921959383089}, "feature": {"sight_features": "", "sight_content": ""}}, {"title": "文笔湖村本主庙", "address": "邓川镇大丽线", "image": "", "rank": 29, "time": 2, "location": {"lat": 26.190779426340935, "lng": 100.16044772306931}, "feature": {"sight_features": "", "sight_content": ""}}, {"title": "右所街清真寺", "address": "右所镇右所村", "image": "", "rank": 30, "time": 2, "location": {"lat": 26.02929877332619, "lng": 100.0744018841288}, "feature": {"sight_features": "", "sight_content": ""}}, {"title": "德源城遗址", "address": "邓川镇", "image": "", "rank": 31, "time": 2, "location": {"lat": 25.97445624516248, "lng": 100.05310354198602}, "feature": {"sight_features": "", "sight_content": ""}}, {"title": "渔文化广场", "address": "大理白族自治州洱源县双廊镇岛依旁", "image": "", "rank": 32, "time": 2, "location": {"lat": 25.916434529853767, "lng": 100.20042662382843}, "feature": {"sight_features": "", "sight_content": ""}}, {"title": "永昌天然温泉", "address": "214国道", "image": "", "rank": 33, "time": 2, "location": {"lat": 28.319159428535947, "lng": 99.13023574560108}, "feature": {"sight_features": "", "sight_content": ""}}, {"title": "文化馆", "address": "文康路31号", "image": "", "rank": 34, "time": 2, "location": {"lat": 22.268819205200238, "lng": 113.47605743447664}, "feature": {"sight_features": "", "sight_content": ""}}, {"title": "海源温泉", "address": "牛街村", "image": "", "rank": 35, "time": 2, "location": {"lat": 26.94293316018162, "lng": 104.07389217183187}, "feature": {"sight_features": "", "sight_content": ""}}, {"title": "金钟山温泉野营", "address": "214国道牛街乡金钟山温泉小镇", "image": "", "rank": 36, "time": 2, "location": {"lat": 26.296102501975426, "lng": 100.00169087934368}, "feature": {"sight_features": "", "sight_content": ""}}, {"title": "源之源温泉庄", "address": "牛街交警中队旁", "image": "", "rank": 37, "time": 2, "location": {"lat": 30.299003264625252, "lng": 120.20384856430235}, "feature": {"sight_features": "", "sight_content": ""}}, {"title": "炼渡温泉", "address": "大理州洱源县牛街镇炼渡村里", "image": "", "rank": 38, "time": 2, "location": {"lat": 26.259257887801798, "lng": 99.99501491803312}, "feature": {"sight_features": "", "sight_content": ""}}, {"title": "白族歌舞苑", "address": "内西湖线", "image": "", "rank": 39, "time": 2, "location": {"lat": 29.550212724104117, "lng": 119.525529783753}, "feature": {"sight_features": "", "sight_content": ""}}, {"title": "杨家村", "address": "云南省大理白族自治州大理市杨家村", "image": "", "rank": 40, "time": 1.5, "location": {"lat": 25.79875189807729, "lng": 100.14995768322574}, "feature": {"sight_features": "", "sight_content": ""}}]}