{"cityName": "峨山", "days": 2, "cityImage": "", "spots": [{"title": "天子苑动漫水世界", "address": "玉溪市峨山县小街镇天子苑温泉酒店", "image": "", "rank": 1, "time": 2, "location": {"lat": 24.153450414623443, "lng": 102.48640261747724}, "feature": {"sight_features": "", "sight_content": ""}}, {"title": "高香万亩生态茶文化园（云茶山庄...", "address": "玉溪市峨山县双江镇昆洛路150公理以北7公里处", "image": "", "rank": 2, "time": 2, "location": {"lat": 24.177761006072018, "lng": 102.40827348031556}, "feature": {"sight_features": "", "sight_content": ""}}, {"title": "大龙潭温泉", "address": "大龙潭乡司城村(大龙潭水库旁)", "image": "", "rank": 3, "time": 2, "location": {"lat": 24.437748338518574, "lng": 102.11715417006177}, "feature": {"sight_features": "", "sight_content": ""}}, {"title": "凤窝庄园", "address": "河西路", "image": "", "rank": 4, "time": 2, "location": {"lat": 40.052217178193615, "lng": 113.23389920794419}, "feature": {"sight_features": "", "sight_content": ""}}, {"title": "普华寺", "address": "云南省峨山彝族自治县峨山县城东南 653200", "image": "", "rank": 5, "time": 2.5, "location": {"lat": 24.174774239092528, "lng": 102.4125645060742}, "feature": {"sight_features": "", "sight_content": ""}}, {"title": "登云寺", "address": "云南省峨山彝族自治县双江镇 653200", "image": "", "rank": 6, "time": 2, "location": {"lat": 24.178081930967334, "lng": 102.41356890146459}, "feature": {"sight_features": "", "sight_content": ""}}, {"title": "小街大鱼洞", "address": "云南省峨山彝族自治县小街镇 653201", "image": "", "rank": 7, "time": 2, "location": {"lat": 24.158697260822716, "lng": 102.46570565673758}, "feature": {"sight_features": "", "sight_content": ""}}, {"title": "云茶山庄", "address": "云南省峨山彝族自治县境内 653200", "image": "", "rank": 8, "time": 2, "location": {"lat": 24.174774239092528, "lng": 102.4125645060742}, "feature": {"sight_features": "", "sight_content": ""}}, {"title": "天运温泉度假村", "address": "小街街道小街天子山", "image": "", "rank": 9, "time": 2, "location": {"lat": 24.154672028813277, "lng": 102.48637695019391}, "feature": {"sight_features": "", "sight_content": ""}}, {"title": "嘟嘟儿童乐园", "address": "云南省玉溪市峨山彝族自治县向阳路", "image": "", "rank": 10, "time": 2.5, "location": {"lat": 24.174065854379528, "lng": 102.41444917169454}, "feature": {"sight_features": "", "sight_content": ""}}, {"title": "大白邑清真寺", "address": "玉溪市峨山彝族自治县", "image": "", "rank": 11, "time": 7.5, "location": {"lat": 24.174774239092528, "lng": 102.4125645060742}, "feature": {"sight_features": "", "sight_content": ""}}, {"title": "峨山县革命遗址甸中小学革命据点...", "address": "云南省玉溪市峨山彝族自治县甸中镇县革命遗址甸中小学革命据点旧址", "image": "", "rank": 12, "time": 1.5, "location": {"lat": 24.413750075900367, "lng": 102.2375833961823}, "feature": {"sight_features": "", "sight_content": ""}}, {"title": "飞马山庄", "address": "213国道附近", "image": "", "rank": 13, "time": 2, "location": {"lat": 24.055864840380938, "lng": 102.20969505158318}, "feature": {"sight_features": "", "sight_content": ""}}, {"title": "文明清真大寺", "address": "小街镇文明村", "image": "", "rank": 14, "time": 2, "location": {"lat": 24.152457787719523, "lng": 102.4627179806463}, "feature": {"sight_features": "", "sight_content": ""}}, {"title": "陷窝中心度假村", "address": "董家庄附近", "image": "", "rank": 15, "time": 2, "location": {"lat": 39.6065532881473, "lng": 116.85449312698256}, "feature": {"sight_features": "", "sight_content": ""}}, {"title": "启蒙书店", "address": "大河边老倌烧烤盘启蒙书店", "image": "", "rank": 16, "time": 2, "location": {"lat": 39.48835964546201, "lng": 116.01807251599406}, "feature": {"sight_features": "", "sight_content": ""}}, {"title": "锦屏山景区 Mt. Jingpin Scenic ...", "address": "云南省峨山彝族自治县化念镇", "image": "", "rank": 17, "time": 3.5, "location": {"lat": 24.140261929343566, "lng": 102.18811889858016}, "feature": {"sight_features": "", "sight_content": ""}}, {"title": "瑞竹寺 Ruizhu Temple", "address": "云南省峨山彝族自治县双江镇", "image": "", "rank": 18, "time": 2, "location": {"lat": 24.178081930967334, "lng": 102.41356890146459}, "feature": {"sight_features": "", "sight_content": ""}}]}