{"cityName": "鄂托克前旗", "days": 2, "cityImage": "", "spots": [{"title": "大沙头生态文化旅游区", "address": "鄂尔多斯市鄂托克前旗敖勒召其镇，昂敖线旁", "image": "", "rank": 1, "time": 7.5, "location": {"lat": 38.157526637657725, "lng": 107.47763847865396}, "feature": {"sight_features": "", "sight_content": ""}}, {"title": "鄂尔多斯文化旅游村", "address": "鄂尔多斯市鄂托克前旗上海庙镇敖银公路旁", "image": "", "rank": 2, "time": 3.0, "location": {"lat": 38.363934621838226, "lng": 106.66251890742674}, "feature": {"sight_features": "", "sight_content": ""}}, {"title": "天和生态园", "address": "214省道附近", "image": "", "rank": 3, "time": 2, "location": {"lat": 40.25674691410845, "lng": 116.28095415138388}, "feature": {"sight_features": "", "sight_content": ""}}, {"title": "酷口意式冰淇淋店", "address": "吉拉东街附近", "image": "", "rank": 4, "time": 2, "location": {"lat": 38.18724094336232, "lng": 107.49148722441295}, "feature": {"sight_features": "", "sight_content": ""}}, {"title": "圣火文化公园", "address": "内蒙古自治区鄂尔多斯市鄂托克前旗陶伦南路143号", "image": "", "rank": 5, "time": 2, "location": {"lat": 38.183312504826475, "lng": 107.4905372582514}, "feature": {"sight_features": "", "sight_content": ""}}, {"title": "红遍天海洋水族馆", "address": "内蒙古自治区鄂尔多斯市鄂托克前旗查罕陶勒亥街安祥小区", "image": "", "rank": 6, "time": 2, "location": {"lat": 38.18369159917692, "lng": 107.48639335876437}, "feature": {"sight_features": "", "sight_content": ""}}, {"title": "鄂托克前旗广场", "address": "鄂尔多斯市鄂托克前旗", "image": "", "rank": 7, "time": 0.75, "location": {"lat": 38.18821674128391, "lng": 107.48458472302686}, "feature": {"sight_features": "", "sight_content": ""}}, {"title": "公园路与西环路交叉口", "address": "内蒙古自治区鄂尔多斯市鄂托克前旗", "image": "", "rank": 8, "time": 2, "location": {"lat": 38.18821674128391, "lng": 107.48458472302686}, "feature": {"sight_features": "", "sight_content": ""}}, {"title": "天主堂", "address": "二道川北路与北环西路交叉口西南50米", "image": "", "rank": 9, "time": 0.4, "location": {"lat": 38.197058967143796, "lng": 107.48115167874074}, "feature": {"sight_features": "", "sight_content": ""}}, {"title": "沙景湾生态旅游村", "address": "628县道附近", "image": "", "rank": 10, "time": 2, "location": {"lat": 18.4358625996212, "lng": 109.66873622498255}, "feature": {"sight_features": "", "sight_content": ""}}, {"title": "内蒙古上海庙赛马场", "address": "内蒙古自治区鄂尔多斯市鄂托克前旗", "image": "", "rank": 11, "time": 2, "location": {"lat": 38.18821674128391, "lng": 107.48458472302686}, "feature": {"sight_features": "", "sight_content": ""}}, {"title": "鹰骏公园", "address": "上海庙镇", "image": "", "rank": 12, "time": 2, "location": {"lat": 38.363934621838226, "lng": 106.66251890742674}, "feature": {"sight_features": "", "sight_content": ""}}, {"title": "巴彦尔吉", "address": "鄂尔多斯市-鄂托克前旗", "image": "", "rank": 13, "time": 2, "location": {"lat": 38.18821674128391, "lng": 107.48458472302686}, "feature": {"sight_features": "", "sight_content": ""}}, {"title": "双梁子壕", "address": "鄂尔多斯市-鄂托克前旗", "image": "", "rank": 14, "time": 2, "location": {"lat": 38.18821674128391, "lng": 107.48458472302686}, "feature": {"sight_features": "", "sight_content": ""}}, {"title": "红山湖", "address": "灵河镇水洞沟内", "image": "", "rank": 15, "time": 1.5, "location": {"lat": 39.152967020881995, "lng": 114.4728795395099}, "feature": {"sight_features": "", "sight_content": ""}}]}