{"cityName": "鄂州", "days": "", "cityImage": "", "spots": [{"title": "莲花山", "address": "鄂州市南郊洋澜湖畔", "image": "", "rank": 1, "time": 3.0, "location": {"lat": 30.37382591896449, "lng": 114.886449326299}, "feature": {"sight_features": "", "sight_content": ""}}, {"title": "鄂州西山风景区", "address": "鄂州市鄂城区西山街", "image": "", "rank": 2, "time": null, "location": {"lat": 30.377708309784506, "lng": 114.87587003710462}, "feature": {"sight_features": "", "sight_content": ""}}, {"title": "龙蟠矶", "address": "鄂州市东门外大江中", "image": "", "rank": 3, "time": 1.0, "location": {"lat": 30.39657217331699, "lng": 114.90160738827099}, "feature": {"sight_features": "", "sight_content": ""}}, {"title": "鄂州市博物馆", "address": "鄂州市鄂城区", "image": "", "rank": 4, "time": 1.0, "location": {"lat": 30.406389456291524, "lng": 114.89859968176249}, "feature": {"sight_features": "", "sight_content": ""}}, {"title": "梁子岛生态旅游区", "address": "鄂州市梁子湖区梁子岛生态旅游区", "image": "", "rank": 5, "time": 2, "location": {"lat": 30.26233742113006, "lng": 114.58004777671488}, "feature": {"sight_features": "", "sight_content": ""}}, {"title": "武汉恒大酒店运动中心", "address": "鄂州市红莲湖旅游度假区恒大世纪旅游城", "image": "", "rank": 6, "time": 2.0, "location": {"lat": 30.40210149686086, "lng": 114.631457636661}, "feature": {"sight_features": "", "sight_content": ""}}, {"title": "湖北红莲湖高尔夫球场", "address": "鄂州市华容区红莲湖旅游度假区", "image": "", "rank": 7, "time": 2, "location": {"lat": 30.40210149686086, "lng": 114.631457636661}, "feature": {"sight_features": "", "sight_content": ""}}, {"title": "湖北梁子湖高尔夫球场", "address": "鄂州市梁子湖国家生态旅游度假区梁子半岛", "image": "", "rank": 8, "time": 2, "location": {"lat": 30.234763258522282, "lng": 114.56370592953843}, "feature": {"sight_features": "", "sight_content": ""}}, {"title": "亿邦环球主题乐园", "address": "鄂州市鄂城区滨湖西路特2号(小桥转盘向南400米，近鄂州火车站)", "image": "", "rank": 9, "time": 2, "location": {"lat": 30.36774013658729, "lng": 114.87259326473992}, "feature": {"sight_features": "", "sight_content": ""}}, {"title": "梁子湖水岸度假营地景区", "address": "鄂州市梁子湖国家生态旅游度假区梁子半岛", "image": "", "rank": 10, "time": 2, "location": {"lat": 30.234763258522282, "lng": 114.56370592953843}, "feature": {"sight_features": "", "sight_content": ""}}, {"title": "恒大世纪摩托艇", "address": "鄂州市红莲湖旅游度假区恒大世纪旅游城游艇码头", "image": "", "rank": 11, "time": 2, "location": {"lat": 30.40210149686086, "lng": 114.631457636661}, "feature": {"sight_features": "", "sight_content": ""}}, {"title": "涂镇蓝莓园", "address": "鄂州市梁子湖区涂家垴镇张远村", "image": "", "rank": 12, "time": 2, "location": {"lat": 30.07941003587932, "lng": 114.60511775336194}, "feature": {"sight_features": "", "sight_content": ""}}, {"title": "梁子湖海狼行水上运动基地", "address": "鄂州市鄂州市梁子湖区梁子湖国家生态旅游度假村梁子半岛", "image": "", "rank": 13, "time": 2, "location": {"lat": 30.259338590603278, "lng": 114.57588037306417}, "feature": {"sight_features": "", "sight_content": ""}}, {"title": "梁子湖全地形车", "address": "鄂州市梁子湖国家生态旅游度假区梁子半岛高尔夫俱乐部水手酒吧", "image": "", "rank": 14, "time": 2, "location": {"lat": 30.234763258522282, "lng": 114.56370592953843}, "feature": {"sight_features": "", "sight_content": ""}}, {"title": "梁子湖帆船", "address": "鄂州市梁子湖国家生态旅游度假区梁子半岛高尔夫俱乐部水手酒吧", "image": "", "rank": 15, "time": 2, "location": {"lat": 30.234763258522282, "lng": 114.56370592953843}, "feature": {"sight_features": "", "sight_content": ""}}, {"title": "恒大世纪帆船", "address": "鄂州市红莲湖旅游度假区恒大世纪旅游城游艇码头", "image": "", "rank": 16, "time": 2, "location": {"lat": 30.40210149686086, "lng": 114.631457636661}, "feature": {"sight_features": "", "sight_content": ""}}, {"title": "梁子湖摩托艇", "address": "鄂州市梁子湖国家生态旅游度假区梁子半岛高尔夫俱乐部水手酒吧", "image": "", "rank": 17, "time": 2, "location": {"lat": 30.234763258522282, "lng": 114.56370592953843}, "feature": {"sight_features": "", "sight_content": ""}}, {"title": "香水世界", "address": "豪威城市广场奥特莱斯馆一楼", "image": "", "rank": 18, "time": 2, "location": {"lat": 30.402593798780032, "lng": 114.8163201144069}, "feature": {"sight_features": "", "sight_content": ""}}, {"title": "乐活小镇水上娱乐园", "address": "葛洪大道511号", "image": "", "rank": 19, "time": 2.0, "location": {"lat": 30.5449256384481, "lng": 114.66100745138804}, "feature": {"sight_features": "", "sight_content": ""}}, {"title": "德胜采摘园", "address": "临江得胜五组", "image": "", "rank": 20, "time": 2, "location": {"lat": 41.817678643991684, "lng": 126.92458151350212}, "feature": {"sight_features": "", "sight_content": ""}}, {"title": "游乐场", "address": "滨湖北路万联购物广场二楼(上楼梯右边直走)", "image": "", "rank": 21, "time": 2, "location": {"lat": 30.39746719206622, "lng": 114.89586606084136}, "feature": {"sight_features": "", "sight_content": ""}}, {"title": "元隆草莓采摘园(东南门)", "address": "239省道附近", "image": "", "rank": 22, "time": 2, "location": {"lat": 31.924010648137532, "lng": 119.82352882833763}, "feature": {"sight_features": "", "sight_content": ""}}, {"title": "葛仙楼", "address": "湖北省鄂州市华容区人民路", "image": "", "rank": 23, "time": 2, "location": {"lat": 30.534772698362556, "lng": 114.69032222052581}, "feature": {"sight_features": "", "sight_content": ""}}, {"title": "西山省级风景名胜区-西山公园广...", "address": "寒溪路西", "image": "", "rank": 24, "time": 2, "location": {"lat": 28.923926355973716, "lng": 109.76069222427813}, "feature": {"sight_features": "", "sight_content": ""}}, {"title": "恒大世纪旅游城", "address": "G50沪渝高速", "image": "", "rank": 25, "time": 2, "location": {"lat": 31.142863565834382, "lng": 121.19512411320491}, "feature": {"sight_features": "", "sight_content": ""}}, {"title": "花湖经济开发区", "address": "鄂州市鄂城区花湖大道", "image": "", "rank": 26, "time": 2, "location": {"lat": 30.406389456291524, "lng": 114.89859968176249}, "feature": {"sight_features": "", "sight_content": ""}}, {"title": "葛店", "address": "鄂州市华容区", "image": "", "rank": 27, "time": 2, "location": {"lat": 30.540599527838044, "lng": 114.73642634228239}, "feature": {"sight_features": "", "sight_content": ""}}, {"title": "万达汉秀剧场(鄂州接待处)", "address": "南浦路银泰百货麦当劳旁", "image": "", "rank": 28, "time": 2, "location": {"lat": 39.633180513305966, "lng": 118.18446738974086}, "feature": {"sight_features": "", "sight_content": ""}}, {"title": "鄂州市群众艺术馆", "address": "湖北省鄂州市鄂州大剧院旁", "image": "", "rank": 29, "time": 2, "location": {"lat": 30.403170486452066, "lng": 114.90558892083371}, "feature": {"sight_features": "", "sight_content": ""}}, {"title": "鄂州东正休闲山庄", "address": "新庙镇月陂村胡伞湾", "image": "", "rank": 30, "time": 2, "location": {"lat": 30.35929795116197, "lng": 114.91517563364296}, "feature": {"sight_features": "", "sight_content": ""}}, {"title": "手机卖场文化广场", "address": "湖北省鄂州市鄂城区南浦路117-1", "image": "", "rank": 31, "time": 2, "location": {"lat": 30.40251864542177, "lng": 114.89177325517512}, "feature": {"sight_features": "", "sight_content": ""}}, {"title": "龙王寺", "address": "碧黄线与036乡道交叉口北50米", "image": "", "rank": 32, "time": 2, "location": {"lat": 48.39353581856098, "lng": 129.90220447944986}, "feature": {"sight_features": "", "sight_content": ""}}, {"title": "东井教堂", "address": "鄂州市梁子湖区", "image": "", "rank": 33, "time": 2, "location": {"lat": 30.105906774051476, "lng": 114.69150657525594}, "feature": {"sight_features": "", "sight_content": ""}}, {"title": "东升教堂", "address": "314省道东100米", "image": "", "rank": 34, "time": 2, "location": {"lat": 40.19306973684933, "lng": 117.32569522729042}, "feature": {"sight_features": "", "sight_content": ""}}, {"title": "上李湾仙籽堂", "address": "汽李路东50米", "image": "", "rank": 35, "time": 2, "location": {"lat": 30.272984070889528, "lng": 115.88674379335222}, "feature": {"sight_features": "", "sight_content": ""}}, {"title": "葛店中国药谷广场", "address": "葛店高新技术开发区广场西路12号", "image": "", "rank": 36, "time": 2, "location": {"lat": 38.50179782255856, "lng": 106.23566042165226}, "feature": {"sight_features": "", "sight_content": ""}}, {"title": "云港寺", "address": "滨港大道与车湾港路交叉口北50米", "image": "", "rank": 37, "time": 2, "location": {"lat": 30.3409415215249, "lng": 114.68580969777955}, "feature": {"sight_features": "", "sight_content": ""}}, {"title": "阳光儿童乐园", "address": "湖北省鄂州市梁子湖区滨港大道147号", "image": "", "rank": 38, "time": 2, "location": {"lat": 30.33985625459257, "lng": 114.69655072508438}, "feature": {"sight_features": "", "sight_content": ""}}, {"title": "小平果儿童乐园", "address": "洪山路与迎宾大道交叉口西50米", "image": "", "rank": 39, "time": 2, "location": {"lat": 40.09022363082665, "lng": 114.15469279026227}, "feature": {"sight_features": "", "sight_content": ""}}, {"title": "花儿朵朵儿童乐园", "address": "竹林广场步行街9栋2楼", "image": "", "rank": 40, "time": 2, "location": {"lat": 31.4707878758284, "lng": 104.75488769018823}, "feature": {"sight_features": "", "sight_content": ""}}, {"title": "星期六儿童乐园", "address": "鄂州市鄂城区滨湖北路8号万联购物广场2层", "image": "", "rank": 41, "time": 2, "location": {"lat": 30.39746719206622, "lng": 114.89586606084136}, "feature": {"sight_features": "", "sight_content": ""}}, {"title": "多多岛儿童游乐园", "address": "鄂黄大桥桥头", "image": "", "rank": 42, "time": 2, "location": {"lat": 31.604748723488218, "lng": 116.4736555771795}, "feature": {"sight_features": "", "sight_content": ""}}, {"title": "奔驰马场", "address": "鄂州市鄂城区", "image": "", "rank": 43, "time": 2, "location": {"lat": 30.406389456291524, "lng": 114.89859968176249}, "feature": {"sight_features": "", "sight_content": ""}}, {"title": "大山普度寺", "address": "湖北省鄂州市鄂城区泽杜路18号", "image": "", "rank": 44, "time": 2, "location": {"lat": 30.35510270689012, "lng": 114.82068953978036}, "feature": {"sight_features": "", "sight_content": ""}}, {"title": "童梦游乐园", "address": "湖北省鄂州市鄂城区凤凰路15", "image": "", "rank": 45, "time": 2, "location": {"lat": 30.40707982124081, "lng": 114.90577709787195}, "feature": {"sight_features": "", "sight_content": ""}}, {"title": "鄂州市普照寺", "address": "泽林镇团结村沙咀", "image": "", "rank": 46, "time": 0.75, "location": {"lat": 30.341258555898854, "lng": 114.82526080182562}, "feature": {"sight_features": "", "sight_content": ""}}, {"title": "乐园水族馆", "address": "古城路宜安居家居建材广场", "image": "", "rank": 47, "time": 2, "location": {"lat": 30.386438225419877, "lng": 114.89435014873393}, "feature": {"sight_features": "", "sight_content": ""}}, {"title": "儿童游乐园", "address": "湖北省鄂州市鄂城区S112(燕矶大道)", "image": "", "rank": 48, "time": 2, "location": {"lat": 30.39470583726965, "lng": 115.01460309231926}, "feature": {"sight_features": "", "sight_content": ""}}, {"title": "江滩公园", "address": "湖北省鄂州市鄂城区文苑路11", "image": "", "rank": 49, "time": 1.5, "location": {"lat": 30.374113983131576, "lng": 114.9101080003119}, "feature": {"sight_features": "", "sight_content": ""}}, {"title": "李家祠堂", "address": "鄂州市鄂城区沙杨公路", "image": "", "rank": 50, "time": 2, "location": {"lat": 30.406389456291524, "lng": 114.89859968176249}, "feature": {"sight_features": "", "sight_content": ""}}, {"title": "鄂州市基督教忠心堂", "address": "鄂州市鄂城区司徒路12号", "image": "", "rank": 51, "time": 2, "location": {"lat": 30.403794242222247, "lng": 114.91746444781118}, "feature": {"sight_features": "", "sight_content": ""}}, {"title": "基督教三一圣堂", "address": "湖北省鄂州市鄂城区武昌大道305-3", "image": "", "rank": 52, "time": 2, "location": {"lat": 30.409029214102304, "lng": 114.88503077703427}, "feature": {"sight_features": "", "sight_content": ""}}, {"title": "官柳游园", "address": "官柳南路与滨湖西路交汇处", "image": "", "rank": 53, "time": 2, "location": {"lat": 30.39182996567192, "lng": 114.88130137816718}, "feature": {"sight_features": "", "sight_content": ""}}, {"title": "吉祥寺", "address": "经济开发区旭光大道1619楼惠和机械公司", "image": "", "rank": 54, "time": 2, "location": {"lat": 30.40296497127086, "lng": 114.81930476051468}, "feature": {"sight_features": "", "sight_content": ""}}, {"title": "五通古寺", "address": "鄂州市华容区", "image": "", "rank": 55, "time": 2, "location": {"lat": 30.540599527838044, "lng": 114.73642634228239}, "feature": {"sight_features": "", "sight_content": ""}}, {"title": "圣寿寺", "address": "湖北省鄂州市华容区何庄村车站路湾10号", "image": "", "rank": 56, "time": 1.0, "location": {"lat": 30.51402198093761, "lng": 114.72251957317391}, "feature": {"sight_features": "", "sight_content": ""}}, {"title": "八角古寺", "address": "湖北省鄂州市华容区S38(黄鄂高速公路)", "image": "", "rank": 57, "time": 2, "location": {"lat": 30.504479346854506, "lng": 114.74208325055343}, "feature": {"sight_features": "", "sight_content": ""}}, {"title": "果果儿童乐园", "address": "湖北省鄂州市华容区", "image": "", "rank": 58, "time": 2, "location": {"lat": 30.540599527838044, "lng": 114.73642634228239}, "feature": {"sight_features": "", "sight_content": ""}}, {"title": "芭芘海洋游乐园", "address": "湖北省鄂州市华容区三江大道197号", "image": "", "rank": 59, "time": 2, "location": {"lat": 30.542619799950906, "lng": 114.78390376655346}, "feature": {"sight_features": "", "sight_content": ""}}, {"title": "大乘寺", "address": "湖北省鄂州市华容区G316(福兰线)", "image": "", "rank": 60, "time": 1.5, "location": {"lat": 30.540599527838044, "lng": 114.73642634228239}, "feature": {"sight_features": "", "sight_content": ""}}]}