{"cityName": "法库", "days": 2, "cityImage": "", "spots": [{"title": "圣迹山", "address": "沈阳市法库县西南45公里处（京沈公路旁）", "image": "", "rank": 1, "time": 1.0, "location": {"lat": 42.20979301994054, "lng": 123.41462107571583}, "feature": {"sight_features": "", "sight_content": ""}}, {"title": "药王山风景区", "address": "沈阳市法库县冯贝堡镇内", "image": "", "rank": 2, "time": 1.5, "location": {"lat": 42.31970857573083, "lng": 123.47192353594289}, "feature": {"sight_features": "", "sight_content": ""}}, {"title": "财湖风景区", "address": "沈阳市法库县", "image": "", "rank": 3, "time": 1.5, "location": {"lat": 42.50960654990291, "lng": 123.41462107571583}, "feature": {"sight_features": "", "sight_content": ""}}, {"title": "财宫", "address": "沈阳市法库县南15公里处财湖景区内", "image": "", "rank": 4, "time": 0.4, "location": {"lat": 42.40982884047173, "lng": 123.41462107571583}, "feature": {"sight_features": "", "sight_content": ""}}, {"title": "五龙山旅游风景区", "address": "沈阳市法库县五龙山迎宾广场西行300米", "image": "", "rank": 5, "time": 1.5, "location": {"lat": 42.311004415597495, "lng": 123.202719944374}, "feature": {"sight_features": "特色1 五龙山得山水之奇绝，汇田园之芬芳，融佛道于一地！ 特色2 五龙山景区分为朝阳洞景区、鼓山景区、发人都城遗址和万亩葡萄长廊观光区四大景区！ 特色3 独具特色的神奇之旅、田园之旅、文化之旅和红色之旅，更是展示以“三农”为主题的农业旅游示范基地！", "sight_content": "五龙山地跨法库县西南四镇，核心区隶属于丁家房镇，南距沈阳绕城高速公路三台子口60公里，东北距法库县城30公里，分别由G101国道和S106省道沈环线相联。五龙山风景区是21世纪崛起的集佛教朝觐和乡村休闲为一体的辽宁旅游名胜。\n菩提，是五龙山风景区的基本特色。菩提，即佛树菩提树。菩提树生长之处，必是佛教发达之地。五龙山是我国目前纬度最高、数量最多的北方佛树小叶菩提树的自然生长地，被辽宁省佛教协会誉为“中国北方菩提圣境”。五龙山主峰菩提山上建有千余年的辽代倒座观音庙，今称五观音寺。五观音寺前就是举世无双的天下奇观避风台。避风台踞龙山之巅而无劲风之吹，神异之极。"}}, {"title": "巴尔虎山自然公园", "address": "沈阳市法库县", "image": "", "rank": 6, "time": null, "location": {"lat": 42.50960654990291, "lng": 123.41462107571583}, "feature": {"sight_features": "", "sight_content": ""}}, {"title": "财湖空中飞行体验", "address": "沈阳市法库县财湖旅游度假区", "image": "", "rank": 7, "time": 2, "location": {"lat": 42.390181583934215, "lng": 123.37901143682535}, "feature": {"sight_features": "", "sight_content": ""}}, {"title": "财湖机场", "address": "沈阳市法库县十间房镇尚屯村锐翔飞行培训中心", "image": "", "rank": 8, "time": 2, "location": {"lat": 42.39103813061366, "lng": 123.38781259583902}, "feature": {"sight_features": "", "sight_content": ""}}, {"title": "白鹤楼", "address": "沈阳市法库县", "image": "", "rank": 9, "time": 2, "location": {"lat": 42.50960654990291, "lng": 123.41462107571583}, "feature": {"sight_features": "", "sight_content": ""}}, {"title": "爱新觉罗皇家博物馆", "address": "沈阳市法库县大孤家子镇半拉山村", "image": "", "rank": 10, "time": 2, "location": {"lat": 42.328869478171256, "lng": 123.38753686455597}, "feature": {"sight_features": "", "sight_content": "沈阳爱新觉罗皇家博物院坐落于沈阳法库县大孤家子镇，其前身为辽代皇室酿酒作坊，1635年更名为“祖家坊烧锅”，所酿“祖家坊白酒”为清廷特供御酒；2002年更名为“沈阳爱新觉罗祖家坊酒业有限公司”，2011年爱新觉罗皇家博物院被评为国家AAAA级旅游景区。沈阳爱新觉罗皇家博物院处处展示着满族历史、满族风情、满族故事与传说以及满族传统酿酒工艺。博物院有四项非物质文化遗产（酒海、古法造纸、石锅、泥窖池）、五项殊荣（辽宁老字号、上海世博金奖、满族酿酒传人、皇家第一酒窖、国家AAAA级旅游景区）。"}}, {"title": "秀水河子战役纪念馆", "address": "沈阳市法库县秀水河子镇", "image": "", "rank": 11, "time": 1.0, "location": {"lat": 42.3651824679162, "lng": 123.03687165951021}, "feature": {"sight_features": "", "sight_content": ""}}, {"title": "金星书画苑", "address": "兴法路200", "image": "", "rank": 12, "time": 2, "location": {"lat": 42.50931087264075, "lng": 123.41497655317225}, "feature": {"sight_features": "", "sight_content": ""}}, {"title": "二人转演艺大舞台", "address": "龙山路与吉祥街交汇处北", "image": "", "rank": 13, "time": 2, "location": {"lat": 42.51486308674213, "lng": 123.4230539743857}, "feature": {"sight_features": "", "sight_content": ""}}, {"title": "金沙河广场", "address": "晓东街与白鹤大道交叉口东南100米", "image": "", "rank": 14, "time": 2, "location": {"lat": 42.508366969882374, "lng": 123.43544257843654}, "feature": {"sight_features": "", "sight_content": ""}}, {"title": "987广场", "address": "沈阳市法库县", "image": "", "rank": 15, "time": 2, "location": {"lat": 42.50960654990291, "lng": 123.41462107571583}, "feature": {"sight_features": "", "sight_content": ""}}, {"title": "法库玫瑰花谷", "address": "沈阳市法库县法库镇东沟村辽代风情小镇旁", "image": "", "rank": 16, "time": 2, "location": {"lat": 42.486990902339095, "lng": 123.4455572056313}, "feature": {"sight_features": "", "sight_content": ""}}, {"title": "法库县葡萄科普工作站", "address": "辽宁省法库县106省道", "image": "", "rank": 17, "time": 2, "location": {"lat": 42.494819498248276, "lng": 123.48065928663745}, "feature": {"sight_features": "", "sight_content": ""}}, {"title": "法库县树莓科普工作站", "address": "辽宁省法库县101国道", "image": "", "rank": 18, "time": 2, "location": {"lat": 42.29314774065521, "lng": 123.13345270872045}, "feature": {"sight_features": "", "sight_content": ""}}, {"title": "东北航空历史纪念馆", "address": "辽宁省沈阳市法库县财湖机场内", "image": "", "rank": 19, "time": 2, "location": {"lat": 42.39878538706736, "lng": 123.38500179071187}, "feature": {"sight_features": "", "sight_content": ""}}, {"title": "慈恩寺村文化休闲广场", "address": "辽宁省沈阳市法库县", "image": "", "rank": 20, "time": 1.0, "location": {"lat": 42.50960654990291, "lng": 123.41462107571583}, "feature": {"sight_features": "", "sight_content": ""}}, {"title": "儿童乐园", "address": "辽宁省沈阳市法库县G203(明沈线)", "image": "", "rank": 21, "time": 2, "location": {"lat": 42.50960654990291, "lng": 123.41462107571583}, "feature": {"sight_features": "", "sight_content": ""}}, {"title": "法库县柏家沟基督教会", "address": "沈阳市通安驾校练车场附近", "image": "", "rank": 22, "time": 2, "location": {"lat": 41.816440646865615, "lng": 123.48400493567881}, "feature": {"sight_features": "", "sight_content": ""}}, {"title": "鱼梁画院", "address": "宝山街附近", "image": "", "rank": 23, "time": 2.0, "location": {"lat": 22.908819284313974, "lng": 114.07850079640629}, "feature": {"sight_features": "", "sight_content": ""}}, {"title": "法库基督教堂", "address": "边门街西150米", "image": "", "rank": 24, "time": 1.0, "location": {"lat": 42.511418487960526, "lng": 123.41964497055163}, "feature": {"sight_features": "", "sight_content": ""}}, {"title": "亲亲比目鱼儿童乐园", "address": "石桥街惠丰商厦5层", "image": "", "rank": 25, "time": 2, "location": {"lat": 42.51030175260668, "lng": 123.42085283753018}, "feature": {"sight_features": "", "sight_content": ""}}, {"title": "双和广场", "address": "边门街西50米", "image": "", "rank": 26, "time": 2, "location": {"lat": 42.511418487960526, "lng": 123.42054327606161}, "feature": {"sight_features": "", "sight_content": ""}}, {"title": "法库县工商业联合会(中共法库县...", "address": "兴法路260号附近", "image": "", "rank": 27, "time": null, "location": {"lat": 42.50920443486215, "lng": 123.4328399690859}, "feature": {"sight_features": "", "sight_content": ""}}, {"title": "百姓观赏鱼", "address": "龙山路12号附近", "image": "", "rank": 28, "time": 2, "location": {"lat": 31.662512187916235, "lng": 119.04637669913396}, "feature": {"sight_features": "", "sight_content": ""}}, {"title": "东北瓷都书画苑", "address": "边门南街", "image": "", "rank": 29, "time": 2, "location": {"lat": 42.49136170394944, "lng": 123.41667602233267}, "feature": {"sight_features": "", "sight_content": ""}}, {"title": "法库县图书馆县残联图书流通站", "address": "兴法路204号", "image": "", "rank": 30, "time": 2, "location": {"lat": 42.510087356433296, "lng": 123.41633854602036}, "feature": {"sight_features": "", "sight_content": ""}}, {"title": "法库县图书馆", "address": "法库镇吉祥街", "image": "", "rank": 31, "time": 2, "location": {"lat": 42.51486308674213, "lng": 123.4230539743857}, "feature": {"sight_features": "", "sight_content": ""}}, {"title": "三面船生态园", "address": "三面船镇三面船村东1000米", "image": "", "rank": 32, "time": null, "location": {"lat": 42.20533849658769, "lng": 123.32251517884436}, "feature": {"sight_features": "", "sight_content": ""}}, {"title": "华溪绿洲温泉洗浴中心", "address": "其他大东门南128米", "image": "", "rank": 33, "time": 2, "location": {"lat": 40.618692503093634, "lng": 115.07849901437933}, "feature": {"sight_features": "", "sight_content": ""}}, {"title": "白鹤大剧院", "address": "白鹤大道与金牛街交叉口东南150米", "image": "", "rank": 34, "time": 2, "location": {"lat": 42.50599133315136, "lng": 123.44486459591361}, "feature": {"sight_features": "", "sight_content": ""}}, {"title": "辉山乳业登仕堡牧场", "address": "101国道西100米", "image": "", "rank": 35, "time": 2, "location": {"lat": 42.37729533175982, "lng": 122.5371871552789}, "feature": {"sight_features": "", "sight_content": ""}}, {"title": "法库县剧团", "address": "兴法路附近", "image": "", "rank": 36, "time": 2, "location": {"lat": 42.5090216523098, "lng": 123.41266233402591}, "feature": {"sight_features": "", "sight_content": ""}}, {"title": "沈阳叶茂台辽墓", "address": "辽宁省法库县叶茂台村西北山岗", "image": "", "rank": 37, "time": 3.0, "location": {"lat": 42.33816241602306, "lng": 122.90292886154619}, "feature": {"sight_features": "", "sight_content": ""}}, {"title": "辽宁省沈阳市法库县步行街", "address": "辽宁省法库县兴法路", "image": "", "rank": 38, "time": 2, "location": {"lat": 42.5090216523098, "lng": 123.41266233402591}, "feature": {"sight_features": "", "sight_content": ""}}, {"title": "大佛寺", "address": "沈阳市沈河区大南街三段慈恩寺巷14号", "image": "", "rank": 39, "time": 1.5, "location": {"lat": 41.790648021502584, "lng": 123.46626655940062}, "feature": {"sight_features": "", "sight_content": ""}}]}