{"cityName": "方城", "days": 2, "cityImage": "", "spots": [{"title": "七峰山生态旅游区", "address": "方城县杨集乡磨沟村", "image": "", "rank": 1, "time": 2, "location": {"lat": 33.34337041178011, "lng": 113.00425385325359}, "feature": {"sight_features": "特色1 楚国长城遗址、高空百米索桥 特色2 是生态旅游、避暑休闲的理想去处", "sight_content": "七峰山生态旅游区是集高山滑雪，旅游观光，养生度假为一体的大型四季旅游圣地。景区位于河南省南阳市方城县境内，横跨杨集、拐河两乡镇。地跨长江、淮河两大流域。距县城15公里，主景区面积约40平方公里。因景区内有被誉为“长城之祖”的楚国长城，所以七峰山景区又有“天下第一古长城”的美称。七峰山山系方圆约105平方公里，形成于1.5亿年前。七峰山又称七顶山，古称七石山。《魏书·地理志》载：“七峰山古称七石山，因山有七峰列峙，如笔架然，故名。”七峰山山势险峻，巍峨壮阔，常年云雾缭绕。位于七峰山景区的主峰名为 云秀峰，海拔768余米，为方城县最高峰。\n景区内山势峭拔、壁立千丈、层峦叠嶂。具有代表性的景点有：紧贴悬崖峭壁的长达千米的绝壁栈道、悬空百米索桥、七峰登天梯、云端观景台等，适合具有探险精神的你;景区内谷深林密、飞瀑流泉：玉女湖、龙湖、汉化长廊、青帘廊道、蝴蝶谷等，适合喜欢幽静清雅的你；景区内石奇洞幽：当年著名地质学家李四光亲临考察参观的神仙洞，历史悠久，供奉了七十余尊神灵。\n有春看百花争艳：每年的三、四月份，整个七峰山谷开满葛藤花，金色的花海宛如仙境，吸引了无数的游客和摄影爱好者。被专家誉为“中原少见的万亩滕海”。葛根有解酒的功效，还有降血脂去火的功能，是一种非常好的中医药材。夏季避暑休闲：七峰山山谷内温度比常温低3—5摄氏度，是您与家人、朋友避暑度假的完美选择！秋季硕果满枝：七峰山山谷内柿子、核桃、山楂、野韭菜、蕨菜等成熟之时，也是红叶漫山红遍的时候。若您在这个时候来到七峰山，一定会有意想不到的收获！冬季高山滑雪：在冬季的七峰山您可以找到中原最美的滑雪场，童话世界般银装素裹，美轮美奂。\n自开放以来七峰山生态旅游区获得了“伏牛山世界地质公园”；“七峰山省级森林公园”；“天下第一古长城”；“中原最美滑雪场”；“中原最大葛藤海”等美称。七峰山生态旅游区历史底蕴深厚，自然景观迷人。畅游七峰山水，寻觅长城之祖；最美滑雪圣地，避暑休闲天堂。交通便捷、设施齐全，是生态旅游、避暑休闲、探寻历史、冬季滑雪的理想去处。"}}, {"title": "三贤山", "address": "南阳市方城县广阳镇北边，位于广阳镇北5公里许。", "image": "", "rank": 2, "time": 1.5, "location": {"lat": 33.297625639620854, "lng": 112.72329660062933}, "feature": {"sight_features": "", "sight_content": ""}}, {"title": "望花湖风景游览区", "address": "南阳市方城县239省道附近", "image": "", "rank": 3, "time": 2, "location": {"lat": 33.4310785682842, "lng": 113.05424929344542}, "feature": {"sight_features": "", "sight_content": ""}}, {"title": "石川景区", "address": "杨集乡大河口村", "image": "", "rank": 4, "time": 2, "location": {"lat": 33.4086336778929, "lng": 112.94777114261797}, "feature": {"sight_features": "", "sight_content": ""}}, {"title": "德云山风情植物园", "address": "南阳市方城县二郎庙镇庄科村", "image": "", "rank": 5, "time": 2, "location": {"lat": 33.18718206171915, "lng": 113.1085075211636}, "feature": {"sight_features": "", "sight_content": ""}}, {"title": "河南省方城县图书馆", "address": "文化广场旁", "image": "", "rank": 6, "time": 2, "location": {"lat": 24.698973449076544, "lng": 108.05758981030165}, "feature": {"sight_features": "", "sight_content": ""}}, {"title": "望花湖葡萄采摘基地", "address": "S239二郎庙二中西南330米", "image": "", "rank": 7, "time": 2, "location": {"lat": 40.83600637438218, "lng": 114.87980957837627}, "feature": {"sight_features": "", "sight_content": ""}}, {"title": "大华庄园", "address": "凤瑞路196号", "image": "", "rank": 8, "time": 2, "location": {"lat": 33.26073440212112, "lng": 113.01730108951452}, "feature": {"sight_features": "", "sight_content": ""}}, {"title": "核心机械密室逃脱体验馆", "address": "文化广场(碧水鑫苑楼下)", "image": "", "rank": 9, "time": 2, "location": {"lat": 33.26292576752028, "lng": 113.00911283267233}, "feature": {"sight_features": "", "sight_content": ""}}, {"title": "方城县水上乐园", "address": "城关镇", "image": "", "rank": 10, "time": null, "location": {"lat": 33.8523792245012, "lng": 113.47977737169182}, "feature": {"sight_features": "", "sight_content": ""}}, {"title": "绿色农场", "address": "裕州北路(财政宾馆对面绿色农场)", "image": "", "rank": 11, "time": 2, "location": {"lat": 33.26391448956108, "lng": 113.01766281827896}, "feature": {"sight_features": "", "sight_content": ""}}, {"title": "方城垭口游乐园", "address": "239省道国际学校对面", "image": "", "rank": 12, "time": 2, "location": {"lat": 31.724437002142214, "lng": 119.5818295153478}, "feature": {"sight_features": "", "sight_content": ""}}, {"title": "西峰山庄", "address": "河南省南阳市方城县S331", "image": "", "rank": 13, "time": 2, "location": {"lat": 33.26053945583183, "lng": 113.01850275279521}, "feature": {"sight_features": "", "sight_content": ""}}, {"title": "博望三元宫", "address": "博望镇敬老院西500米", "image": "", "rank": 14, "time": 2, "location": {"lat": 33.17450597044636, "lng": 112.74355828025452}, "feature": {"sight_features": "", "sight_content": ""}}, {"title": "益智儿童乐园", "address": "滨河西路与240省道交叉口西150米", "image": "", "rank": 15, "time": 2, "location": {"lat": 31.78845753730818, "lng": 119.70188674421337}, "feature": {"sight_features": "", "sight_content": ""}}, {"title": "虹桥公园", "address": "河南省南阳市方城县南环路602号", "image": "", "rank": 16, "time": 2, "location": {"lat": 33.25447311836261, "lng": 113.00624100026204}, "feature": {"sight_features": "", "sight_content": ""}}, {"title": "未来星儿童乐园", "address": "龙泉路南100米", "image": "", "rank": 17, "time": 2.5, "location": {"lat": 24.76281897891803, "lng": 103.29368548435524}, "feature": {"sight_features": "", "sight_content": ""}}, {"title": "古缯国博物馆", "address": "南阳市方城县", "image": "", "rank": 18, "time": 2, "location": {"lat": 33.26053945583183, "lng": 113.01850275279521}, "feature": {"sight_features": "", "sight_content": ""}}, {"title": "卡卡兔游乐场", "address": "广宁路与广阳大道交叉口东南", "image": "", "rank": 19, "time": 2, "location": {"lat": 33.28691143670831, "lng": 112.71095768275451}, "feature": {"sight_features": "", "sight_content": ""}}, {"title": "七峰时代广场", "address": "威海路附近", "image": "", "rank": 20, "time": 2, "location": {"lat": 39.06686496138193, "lng": 117.64178286562915}, "feature": {"sight_features": "", "sight_content": ""}}, {"title": "琴韵广场", "address": "顺城街579号", "image": "", "rank": 21, "time": 2, "location": {"lat": 33.26731235550025, "lng": 113.0118717310122}, "feature": {"sight_features": "", "sight_content": ""}}, {"title": "城关清真大寺", "address": "河南省南阳市方城县清真寺街49号", "image": "", "rank": 22, "time": 2, "location": {"lat": 33.26626554647224, "lng": 113.01548309882342}, "feature": {"sight_features": "", "sight_content": ""}}, {"title": "裕景广场", "address": "河南省南阳市方城县张骞大道162号", "image": "", "rank": 23, "time": 2, "location": {"lat": 33.25793572807067, "lng": 113.02536627580692}, "feature": {"sight_features": "", "sight_content": ""}}, {"title": "楚长城遗址", "address": "河南省南阳市方城县四里店乡东彭沟鲁艾线南", "image": "", "rank": 24, "time": 2, "location": {"lat": 33.47061364811044, "lng": 112.92789585922652}, "feature": {"sight_features": "", "sight_content": ""}}, {"title": "杜凤瑞烈士纪念馆", "address": "331省道", "image": "", "rank": 25, "time": 2, "location": {"lat": 38.76243571351783, "lng": 115.64385441420583}, "feature": {"sight_features": "", "sight_content": ""}}, {"title": "方城科技馆", "address": "裕州南路391号", "image": "", "rank": 26, "time": 2.5, "location": {"lat": 33.25592703633019, "lng": 113.01505716816418}, "feature": {"sight_features": "", "sight_content": ""}}, {"title": "国禄图书馆", "address": "顺城街276号", "image": "", "rank": 27, "time": 2, "location": {"lat": 33.26514242576562, "lng": 113.0106275778809}, "feature": {"sight_features": "", "sight_content": ""}}, {"title": "方城县博物馆", "address": "释之路", "image": "", "rank": 28, "time": 2, "location": {"lat": 33.26311930430199, "lng": 113.00193437363018}, "feature": {"sight_features": "", "sight_content": ""}}, {"title": "大寺森林公园", "address": "二朗庙乡", "image": "", "rank": 29, "time": 2, "location": {"lat": 33.177098176556164, "lng": 113.13180090642733}, "feature": {"sight_features": "", "sight_content": ""}}, {"title": "水魔方欢乐水世界", "address": "人民北路与快速通道交叉口向西两公里路北(红土河村内)", "image": "", "rank": 30, "time": 2, "location": {"lat": 39.63066079909864, "lng": 118.20639924927531}, "feature": {"sight_features": "", "sight_content": ""}}, {"title": "华夏苗木花卉专业合作社", "address": "103省道附近", "image": "", "rank": 31, "time": 2, "location": {"lat": 39.16211906866746, "lng": 117.4666343312951}, "feature": {"sight_features": "", "sight_content": ""}}, {"title": "树袋熊儿童乐园(方城旗舰店)", "address": "文卫街与裕州北路交叉口东北50米", "image": "", "rank": 32, "time": 2, "location": {"lat": 33.26682257331291, "lng": 113.01890456484983}, "feature": {"sight_features": "", "sight_content": ""}}, {"title": "卡帝乐鳄鱼(裕州北路)", "address": "裕州北路389号附近", "image": "", "rank": 33, "time": null, "location": {"lat": 33.263960801311946, "lng": 113.01740080142612}, "feature": {"sight_features": "", "sight_content": ""}}, {"title": "竹天下生态馆", "address": "凤瑞路与建设路交汇处以南", "image": "", "rank": 34, "time": 2, "location": {"lat": 33.25963803206492, "lng": 113.02301877983128}, "feature": {"sight_features": "", "sight_content": ""}}, {"title": "古缯国博物馆景区", "address": "八里桥古缯国博物馆景区", "image": "", "rank": 35, "time": 2, "location": {"lat": 35.54383885237103, "lng": 106.68984278919159}, "feature": {"sight_features": "", "sight_content": ""}}, {"title": "裕良果业", "address": "S103凤凰山村西侧", "image": "", "rank": 36, "time": 2, "location": {"lat": 40.16196696832719, "lng": 118.63056359914735}, "feature": {"sight_features": "", "sight_content": ""}}, {"title": "鄂城寺", "address": "河南省南阳市卧龙区石桥镇小石桥村", "image": "", "rank": 37, "time": 2, "location": {"lat": 33.17226758302508, "lng": 112.62471139050426}, "feature": {"sight_features": "", "sight_content": ""}}]}