{"cityName": "方山", "days": 2, "cityImage": "", "spots": [{"title": "北武当山", "address": "吕梁市方山县北武当镇", "image": "", "rank": 1, "time": 4.0, "location": {"lat": 37.74460787562949, "lng": 111.35461119051237}, "feature": {"sight_features": "特色1 素有“三晋第一名山”之称 特色2 雄浑壮阔，清雄独绝，景色盛宴 特色3 兼有泰山之雄、黄山之奇、华山之险以及峨嵋之秀和青城山之幽", "sight_content": "北武当山，又名真武山，古称龙王山，座落在吕梁山脉中段，山西省方山县北武当镇东北侧，这里群峰耸峙、怪石嵯峨，松奇林幽，溪水绵延，共由72峰、36岩、24涧组成，景区规划总面积80平方公里，已开发开放的景区约20平方公里。主峰香炉峰海拨2280米，比五岳之首的泰山（海拔1545米）高753米，比湖北的南武当（海拔1612米）高668米。从近处看，北武当山北靠烧炉山、针子岩（海拔2061米，为老君炼丹、炼铁处）；南偎骨脊山（海拔2535米，大禹治水始于此）；东临孝文山（海拔2831米，北魏孝文帝避忧于此山）；西倚运顶山（海拔2405米，有华北小西藏之称），可谓群峰捧立，标奇孕秀。从远处看，泰山在左，华山在右，常山为靠，嵩山为抱，衡山为朝，北武当正好处于各名山环卫之中，众星捧月，卓然不群。当你登上北武当山巅，举目眺望，天穹之下，群峰连绵起伏，层峦叠障，浩瀚壮阔，衬托出北武当山的雄伟气势，不由您不赞叹它的“雄浑壮阔”、“清雄独绝”。据最新考古资料证明：北武当山道教至今已有4500多年的历史，这比湖北南武当的历史最少要早3200年。南武当山始建于唐贞观年间，鼎盛于明，而我们北武当山始建于夏禹，鼎盛于唐。\n\n\n据史料记载，早在史前时代，炎、黄部落长期在黄河流域生息、繁衍。炎黄之后，黄河流域又相继出现了尧、舜、禹几位杰出的部落首领，许多史料、文物证明尧、舜、禹都曾在我们吕梁活动过。据《史记·夏本记》记载：在尧、舜、禹的时期，洪水泛滥，威胁着中原各族，尧派夏部落首领之一的鲧去治水，鲧用堵塞法治水失败，被舜放逐而死，后来舜又派鲧的儿子禹去治水，禹接受了父亲鲧治水失败的教训，改用疏导法使洪水归于大海，变水患为水利。禹因治水有功，舜将帝位禅让于禹（公元前2581年－－公元前2537年，在位45年）。禹在位期间，为了祭父，将鲧放逐而死的羽山，改名为骨脊山，并将他的父亲鲧分封为水神，在北武当山建玄天庙供奉，称为“玄武大帝”。宋大中祥符年间（1012年），宋真宗赵恒为避圣祖赵玄朗名讳，改“玄武”为“真武”，封为“镇天真武灵应佑圣帝君”，俗称真武大帝。这是历史记载中北武当山的来历。那么大家要问：禹为什么封他的父亲为水神，建庙称玄天庙呢？这既是因为，禹和他的父亲鲧都是“司治水之职”，虽一成一败，但都与水有关。其次，之所以禹分封他的父亲鲧为“玄武大帝”与道教的起源有直接的关系。可以说玄武的起源也是道教的起源。\n\n\n北武当道庙始建于上古时代，鼎盛于唐，据史料记载，当时仅北武当主道场，即有住山道士80多人，在家居士1000多人，遇到法事，有各方道士800余人云集北武当，至今在北武当山主峰以北的真人谷尚有供1000余人吃饭所用碾米用的石槽、石杵。可是由于历史久远，北武当主峰道庙在经过几次较大的毁损，特别是清康熙五十九年正月初四被天火焚山，各殿、庙、碑文、石刻几尽被毁，虽后来几次修复、增建，规模远不如前。其二、中国道教特别是对真武神的信仰在明朝达到鼎盛阶段。据史料记载，明朝初年神宗朱元璋的儿子燕王朱棣，在发动“靖难事变”夺取王位的过程中，传说真武神曾经屡次显灵相助，因此明成祖朱棣取得帝位之后，极端崇拜道教，甚至自称是真武帝君转世。由于帝王的提倡，明永乐年间宫廷和民间普遍建立真武庙，各种道家宫、观在全国各地迅速漫延。明成祖永乐十年（1412年）命工部侍郎郭进琎、隆平候张信、附马尉沭昕督军夫三十余万，大兴土木，历时七载建成南武当八宫、二观、三十六庵堂、七十二岩庙、三十九架桥梁、十二座亭阁的庞大建筑群；明嘉靖三十一年，作为皇家庙宇的南武当又一次得到大规模的维修、增建。相反正是在这全国上下大举兴建道家宇庙的时期，由于人为的原因，作为道教发源圣地的北武当却没有得到较大规模的发展。\n\n\n北武当山不仅有悠久的道教历史，更有绚丽的自然风光。漫漫无际的黄土丘陵中，忽然冒出几座由花岗岩整体浇铸而成的石山，突兀争奇，悬崖峭壁，怪石嶙峋，古树参天，群峰拱翠，尤如“黄海里的翠岛”，不能谓之不奇。特别值得称道的是北武当山主 峰香炉峰造型奇特，整山由一块花岗岩构成，独峰耸立，势如刀削，从山脚到山顶，悬崖峭壁随处可见。主要有千仞壁、千尺崖、舍身崖、鹰嘴崖等都十分雄伟壮观，其中有的崖面光滑如洗，面积达十几万平方米，在国内风景区并不多见。由于北武当山山体为整体性灰白色细粒黑云母太古代花岗岩组成，石质坚硬，所以，历经数千年来的风雨侵蚀，自然界的鬼斧神工，造就了北武当石自天成的各种山石景观。如：天壶倾露、巨蟒探头、仙鱼出峡、石龟下蛋、石虎、石蛤蟆、仙狗石、仙猪石、飞来石等多达数十处，而且大都形象逼真，栩栩如生，各具形态，呼之欲出。其中有许多是北武当山自然景观中的重要组成部分，如“龟蛇斗智”、“九龙出洞”、“石猪受难”、“古猿望日”、“仙龟望海”、“石羊献圣”等石自天成的怪石景观，在民间都流传着许多美丽动人的传说，成为北武当山绚丽的自然景观中不可或缺的重要组成部分。\n除此之外，碧浪漂流也位于北武当山脚下，漂流全程约9公里，漂流全程弯曲险要，有滑道200余米，激流险滩达二十多处，漂流时长约1个半小时左右，让您浪遏飞舟、高歌猛进！该段漂流全程水位落差200多米，平均水深1米左右，漂流时间为1个半小时左右。漂流时全部使用4人橡皮船，一路飞流直下，沿途经过数十个急流险滩，非常刺激好玩！由于经过了精心设计，有惊无险，河道两岸更有数名安全员为您保驾护航，让您在漂流的过程中玩的刺激！玩的开心！\n还有北武当山滑道，是山西吕梁地区第一条玻璃滑道，也是山西省最长的玻璃滑道。全长598米，采用全架空、全透明、全封闭的时尚设计，滑道位于下山道台阶最陡峭的一段，安全、舒适、方便、快捷、刺激，是您来北武当山观光旅游首选的快速通道和娱乐项目！\n快来吧，北武当山玻璃滑道祝您一路顺风、万事如意！"}}, {"title": "南阳沟", "address": "吕梁市方山县积翠乡南阳沟", "image": "", "rank": 2, "time": 1.0, "location": {"lat": 37.96557619110766, "lng": 111.41782848857322}, "feature": {"sight_features": "", "sight_content": ""}}, {"title": "神龙沟旅游区", "address": "吕梁市方山县", "image": "", "rank": 3, "time": 1.0, "location": {"lat": 37.90102023915963, "lng": 111.25037044293047}, "feature": {"sight_features": "", "sight_content": ""}}, {"title": "国际能源方山汽车露营地", "address": "吕梁市方山县峪口镇南村", "image": "", "rank": 4, "time": 2, "location": {"lat": 37.73337441254981, "lng": 111.2273605772586}, "feature": {"sight_features": "", "sight_content": ""}}, {"title": "富民剧院", "address": "山西省吕梁市方山县武当线", "image": "", "rank": 5, "time": 2, "location": {"lat": 37.77067698800619, "lng": 111.35105282631947}, "feature": {"sight_features": "", "sight_content": ""}}, {"title": "室内儿童游乐场", "address": "府前路与方正街交叉口西100米", "image": "", "rank": 6, "time": 2, "location": {"lat": 37.90127325257686, "lng": 111.24853116599202}, "feature": {"sight_features": "", "sight_content": ""}}, {"title": "财神殿", "address": "吕梁市方山县境内北武当山风景区内", "image": "", "rank": 7, "time": 2, "location": {"lat": 37.7461497727249, "lng": 111.35495571133647}, "feature": {"sight_features": "", "sight_content": ""}}, {"title": "虎仙庙", "address": "山西省吕梁市方山县", "image": "", "rank": 8, "time": 2, "location": {"lat": 37.90102023915963, "lng": 111.25037044293047}, "feature": {"sight_features": "", "sight_content": ""}}, {"title": "马坊广场", "address": "104省道附近", "image": "", "rank": 9, "time": 2, "location": {"lat": 37.84517653890577, "lng": 112.34866876283355}, "feature": {"sight_features": "", "sight_content": ""}}, {"title": "积翠公园", "address": "209国道附近", "image": "", "rank": 10, "time": 2, "location": {"lat": 29.50537463467816, "lng": 109.42537798613527}, "feature": {"sight_features": "", "sight_content": ""}}, {"title": "天池水上乐园", "address": "陕西省吕梁市方山县北武当风景区内", "image": "", "rank": 11, "time": 2.0, "location": {"lat": 37.90102023915963, "lng": 111.25037044293047}, "feature": {"sight_features": "", "sight_content": ""}}, {"title": "北武当碧浪漂流", "address": "北武当镇派出所对面", "image": "", "rank": 12, "time": 2, "location": {"lat": 30.881485535368633, "lng": 120.96093281251493}, "feature": {"sight_features": "", "sight_content": ""}}]}