{"cityName": "繁峙", "days": 2, "cityImage": "", "spots": [{"title": "繁峙县图书馆", "address": "文博巷与永丰街交叉口西北50米", "image": "", "rank": 1, "time": 2, "location": {"lat": 39.1941437479413, "lng": 113.27737735272889}, "feature": {"sight_features": "", "sight_content": ""}}, {"title": "学生文化广场(实验店)", "address": "山西省忻州市繁峙县永丰街永丰小区西区", "image": "", "rank": 2, "time": 2, "location": {"lat": 39.193829433634434, "lng": 113.2749555246672}, "feature": {"sight_features": "", "sight_content": ""}}, {"title": "北台顶-庙", "address": "忻州市五台县台怀镇五台山风景名胜区北台顶内", "image": "", "rank": 3, "time": 2, "location": {"lat": 39.08634890911708, "lng": 113.58085528169177}, "feature": {"sight_features": "", "sight_content": ""}}, {"title": "兰若寺", "address": "山西省忻州市繁峙县东山乡兰若寺", "image": "", "rank": 4, "time": null, "location": {"lat": 39.171879611091036, "lng": 113.51022525010498}, "feature": {"sight_features": "", "sight_content": ""}}, {"title": "儿童乐园", "address": "石龙街与锦里巷交叉口西南50米", "image": "", "rank": 5, "time": 2, "location": {"lat": 39.19827214794035, "lng": 113.2674543493706}, "feature": {"sight_features": "", "sight_content": ""}}, {"title": "文慧", "address": "迎宾街与108国道交叉口东150米", "image": "", "rank": 6, "time": 2, "location": {"lat": 37.21726982151948, "lng": 112.20696869704494}, "feature": {"sight_features": "", "sight_content": ""}}, {"title": "菩沱庵", "address": "忻州市繁峙县", "image": "", "rank": 7, "time": 2, "location": {"lat": 39.19523743073412, "lng": 113.27140827251347}, "feature": {"sight_features": "", "sight_content": ""}}, {"title": "睿智学生文化广场", "address": "山西省忻州市繁峙县砂河镇和谐街和谐居附近(砂河四中东北)", "image": "", "rank": 8, "time": 2, "location": {"lat": 39.276950955533124, "lng": 113.55136168130662}, "feature": {"sight_features": "", "sight_content": ""}}, {"title": "旭云寺", "address": "忻州市五台县", "image": "", "rank": 9, "time": 2, "location": {"lat": 38.73418159056545, "lng": 113.26145109491867}, "feature": {"sight_features": "", "sight_content": ""}}, {"title": "大雄宝殿", "address": "忻州市繁峙县台怀镇五台山风景名胜区法雷寺内", "image": "", "rank": 10, "time": 2, "location": {"lat": 38.98354625360706, "lng": 113.6026954969964}, "feature": {"sight_features": "", "sight_content": ""}}, {"title": "繁峙县卧云寺", "address": "山西省忻州市繁峙县岩头乡富家庄卧云寺", "image": "", "rank": 11, "time": 2, "location": {"lat": 39.031606742309194, "lng": 113.52710133663602}, "feature": {"sight_features": "", "sight_content": ""}}, {"title": "鼓楼", "address": "鼓楼巷和奶奶庙巷的交叉口附近", "image": "", "rank": 12, "time": 1.0, "location": {"lat": 39.194545808304845, "lng": 113.28141849145541}, "feature": {"sight_features": "", "sight_content": ""}}, {"title": "圣水头公园", "address": "山西省忻州市繁峙县滹源大街", "image": "", "rank": 13, "time": 2, "location": {"lat": 39.19626686866354, "lng": 113.28612334949612}, "feature": {"sight_features": "", "sight_content": ""}}, {"title": "一村文化广场", "address": "山西省忻州市繁峙县砂河镇金砂线砂河第四小学", "image": "", "rank": 14, "time": 2, "location": {"lat": 39.278625084148224, "lng": 113.56850010808046}, "feature": {"sight_features": "", "sight_content": ""}}, {"title": "青峰寺", "address": "山西省忻州市繁峙县神沟村", "image": "", "rank": 15, "time": 2, "location": {"lat": 39.36090741909621, "lng": 113.77330431867301}, "feature": {"sight_features": "", "sight_content": ""}}, {"title": "繁峙县崇福寺", "address": "山西省忻州市繁峙县砂高线", "image": "", "rank": 16, "time": 2, "location": {"lat": 39.187296905224855, "lng": 113.3302154887918}, "feature": {"sight_features": "", "sight_content": ""}}, {"title": "永泉寺", "address": "山西省忻州市繁峙县砂河镇金光大街日丰小区附近", "image": "", "rank": 17, "time": 2, "location": {"lat": 39.27758844347666, "lng": 113.56643698059537}, "feature": {"sight_features": "", "sight_content": ""}}, {"title": "七彩儿童游乐园", "address": "和谐街北50米", "image": "", "rank": 18, "time": 2, "location": {"lat": 39.52305575119207, "lng": 118.10919375287118}, "feature": {"sight_features": "", "sight_content": ""}}, {"title": "繁峙县基督教会", "address": "奶奶庙巷与鼓楼巷交叉口东南100米", "image": "", "rank": 19, "time": 2, "location": {"lat": 39.194545808304845, "lng": 113.28231679696539}, "feature": {"sight_features": "", "sight_content": ""}}, {"title": "五台山风景名胜区-吉祥寺", "address": "台怀镇五台山风景名胜区内", "image": "", "rank": 20, "time": 7.5, "location": {"lat": 38.98354625360706, "lng": 113.6026954969964}, "feature": {"sight_features": "", "sight_content": ""}}, {"title": "繁峙县展览馆", "address": "向阳路", "image": "", "rank": 21, "time": 2, "location": {"lat": 40.04285042449234, "lng": 116.68176773133793}, "feature": {"sight_features": "", "sight_content": ""}}, {"title": "五台山金矿石", "address": "东风小区", "image": "", "rank": 22, "time": 7.5, "location": {"lat": 36.622284615170436, "lng": 114.48821773509262}, "feature": {"sight_features": "", "sight_content": ""}}, {"title": "伯强马场", "address": "205省道附近", "image": "", "rank": 23, "time": 2, "location": {"lat": 40.38230240600069, "lng": 116.84666042934258}, "feature": {"sight_features": "", "sight_content": ""}}, {"title": "忻州圭峰寺 Xinzhou Guifeng Tem...", "address": "山西省繁峙县岩头乡安头村", "image": "", "rank": 24, "time": 7.5, "location": {"lat": 39.11713596126447, "lng": 113.25810157418056}, "feature": {"sight_features": "", "sight_content": ""}}, {"title": "法云寺", "address": "从鸿门岩到北台顶的路上", "image": "", "rank": 25, "time": 2, "location": {"lat": 39.06309096721354, "lng": 113.66899838555179}, "feature": {"sight_features": "", "sight_content": ""}}, {"title": "公主寺", "address": "忻州市繁峙县039乡道附近", "image": "", "rank": 26, "time": 2, "location": {"lat": 39.19523743073412, "lng": 113.27140827251347}, "feature": {"sight_features": "", "sight_content": ""}}]}