{"cityName": "范县", "days": 2, "cityImage": "", "spots": [{"title": "杏坛公园", "address": "濮阳市范县黄河路与杏坛路交叉口东南角", "image": "", "rank": 1, "time": 0.4, "location": {"lat": 35.86225784722923, "lng": 115.50632959158008}, "feature": {"sight_features": "", "sight_content": ""}}, {"title": "郑板桥纪念馆", "address": "濮阳市范县辛庄镇毛楼", "image": "", "rank": 2, "time": 2, "location": {"lat": 35.66558699255481, "lng": 115.43501068992144}, "feature": {"sight_features": "", "sight_content": ""}}, {"title": "释佛寺", "address": "濮阳市范县101省道附近", "image": "", "rank": 3, "time": 7.5, "location": {"lat": 35.815871458206814, "lng": 115.55436198540198}, "feature": {"sight_features": "", "sight_content": ""}}, {"title": "板桥画廊", "address": "杏坛路与板桥路交叉口北100米", "image": "", "rank": 4, "time": 2, "location": {"lat": 35.85803881360525, "lng": 115.50676852072006}, "feature": {"sight_features": "", "sight_content": ""}}, {"title": "王菜园垂钓园", "address": "王菜园村", "image": "", "rank": 5, "time": 2, "location": {"lat": 34.76949606992648, "lng": 116.48433408960729}, "feature": {"sight_features": "", "sight_content": ""}}, {"title": "儿童欢乐园", "address": "濮阳市范县", "image": "", "rank": 6, "time": 2, "location": {"lat": 35.85765508771859, "lng": 115.51058621044251}, "feature": {"sight_features": "", "sight_content": ""}}, {"title": "红庙通达沙场", "address": "101省道附近", "image": "", "rank": 7, "time": 2, "location": {"lat": 41.03241923348195, "lng": 111.82384508727836}, "feature": {"sight_features": "", "sight_content": ""}}, {"title": "三教堂", "address": "河南省濮阳市范县", "image": "", "rank": 8, "time": 2, "location": {"lat": 35.85765508771859, "lng": 115.51058621044251}, "feature": {"sight_features": "", "sight_content": ""}}, {"title": "范县卡卡兔儿童乐园", "address": "好又多购物广场二楼", "image": "", "rank": 9, "time": 2, "location": {"lat": 39.73503404430632, "lng": 116.43535142958979}, "feature": {"sight_features": "", "sight_content": ""}}, {"title": "廉政文化广场", "address": "中原路40号附近", "image": "", "rank": 10, "time": 2, "location": {"lat": 31.316726852984072, "lng": 121.53862396099437}, "feature": {"sight_features": "", "sight_content": ""}}, {"title": "棒棒糖亲子儿童乐园", "address": "采油二厂院内油田第八小学向南50米路南(佳惠超市向西20米路南)", "image": "", "rank": 11, "time": 2, "location": {"lat": 28.240535092355, "lng": 117.04163120254645}, "feature": {"sight_features": "", "sight_content": ""}}, {"title": "青岛啤酒广场", "address": "濮城镇采油二厂", "image": "", "rank": 12, "time": 2, "location": {"lat": 39.1837293836513, "lng": 116.33547009576644}, "feature": {"sight_features": "", "sight_content": ""}}, {"title": "朵朵开儿童乐园", "address": "新区黄河路商贸城南门", "image": "", "rank": 13, "time": 2, "location": {"lat": 35.862332698621124, "lng": 115.51220499829353}, "feature": {"sight_features": "", "sight_content": ""}}, {"title": "富民专业合作社(S259路店)", "address": "李马桥1号", "image": "", "rank": 14, "time": 2, "location": {"lat": 30.334800723042505, "lng": 114.23169545144194}, "feature": {"sight_features": "", "sight_content": ""}}, {"title": "男人代码旗舰店", "address": "城关镇范县新区金水街与黄河路交叉路口", "image": "", "rank": 15, "time": null, "location": {"lat": 35.86965070402694, "lng": 115.5107178121997}, "feature": {"sight_features": "", "sight_content": ""}}, {"title": "草莓采摘基地", "address": "龙王庄乡孟楼村东街", "image": "", "rank": 16, "time": 2, "location": {"lat": 35.829504382646896, "lng": 115.60064949982164}, "feature": {"sight_features": "", "sight_content": ""}}, {"title": "范武子陵园", "address": "濮阳市-范县-高码头镇中范庄村", "image": "", "rank": 17, "time": 2, "location": {"lat": 35.88837005279241, "lng": 115.66951405206423}, "feature": {"sight_features": "", "sight_content": ""}}]}