{"cityName": "肥城", "days": 2, "cityImage": "", "spots": [{"title": "牛山森林公园", "address": "泰安市泰山区环山公路附近", "image": "", "rank": 1, "time": 3.0, "location": {"lat": 36.23948360861702, "lng": 117.10905664828228}, "feature": {"sight_features": "特色1 雄鹰石远远望去，似一只苍鹰，昂首耸背", "sight_content": "牛山，又名郁葱山。是国家森林公园、省级地质公园。总面积19平方公里，森林覆盖率达93%以上，是一处集旅游、观光、度假、休闲为一体的综合性森林公园。纵观整个山景，可谓山清水秀，林茂境仙，峰峦如聚，峭壁若屏，苍松掩翠柏，瘦藤攀古树，景色迷人。\n牛山寺，规模宏大，远近闻名，始建于唐代，宋、明、清历代均有重修，1936年又重建了王母大殿。牛山寺大体分为资圣院、关帝庙、同川书院等几大建筑，为佛、道两教之圣地。相传盛时僧、道达500多人。解放后，仍有高僧主持寺庙事务。虽历经战乱和“文化大革命”破坏，牛山寺仍有王母大殿、关帝庙、吕仙洞等建筑及石刻、碑文多处，为牛山森林公园主要景点之一。寺内古树参天，位于其间的银杏、古柏，据传植于宋朝，现仍枝繁叶茂。\n龙神庙,此庙始建于元、明两代并塑有龙王像而得名“龙神庙”。庙内四周画有神意求安的壁画，梁的上方有精工细雕的二龙戏珠，下方是“八角琉璃井”即落石泉，因井口用条石砌成八角形故名。又因《西游记》中第三十八回，有乌鸡国国王托梦在八角琉璃井中被救一事，被人附会，俗称八角琉璃井。龙沼泉水每当早春下雨时节，在寒雨笼罩下，水面升起缕缕水汽如烟似雾飘向山下，四周景物在翻卷弥漫的雾气中朦朦胧胧、变化莫测，雾滴凝结在周边的山石树木上，又显得附近的霏霏小雨较别处大了许多，似是龙王对此地格外眷顾\n雌鹰石。相传这本是恩爱的一对神鹰，在山半腰的密林中筑巢而居，已产下了鹰卵，两只苍鹰轮换孵卵。时逢春季大旱，雌鹰口渴难耐，乘夜色下山到溪中饮水，由于贪嘴，延误了时间，远处一声雄鸡啼鸣，雌鹰自知为时已晚欲要起飞，却因喝得太饱无法动弹，雌鹰自知事错，难以挽回，只得靠在山石上低下了头。巢中的雄鹰牵挂着雌鹰，起身探望之际，阳光升起两只鹰和鹰卵一起被化为巨石定在了密林和溪中，千百年来它们夫妻各居一方，默默相对、两两相望一直到今天。\n蜗牛戏水：山溪中有几块巨石，其上有数只酷似蜗牛的图案，每当雨季时，山溪流水在此倾注而下，恰似一道白练横卧在巨石间，巨石上有天然形成的几个形似蜗牛的图案，像是正将其触角伸入溪水中嬉戏的样子，其地质体发育于古元古代浅红色花岗斑岩与深灰色花岗闪长岩接触带附近的花岗闪长岩岩体内；多组节理构造所分割的约1米见方的岩块经千万年的球形风化作用，形成卷心状构造，形似蜗牛展布于水沟两侧的岩面上，故名 “蜗牛戏水”。\n穆柯寨，相传为北宋时期穆桂英屯兵的地方，依山造势，长达3600多米。有石拱寨门三座，墙顶外沿筑有掩体，内侧设通道、排水口以及上下墙的斜坡道，属于典型的冷兵器时代军事防御工程，是牛山也是肥城市最为雄伟壮观，最富有传奇色彩的古迹；据负责公园规划设计的专家介绍，像这样建于山巅、保存又比较完整的大规模古寨墙在省内也属罕见，堪称\"山东第一寨\"。"}}, {"title": "翦云山风景区", "address": "泰安市肥城市潮泉镇柳沟村", "image": "", "rank": 2, "time": 2, "location": {"lat": 36.24679797040629, "lng": 116.88402256436774}, "feature": {"sight_features": "特色1 形似一把剪刀裁剪着空中的浮云", "sight_content": "区内植被茂密，古木参天，枝藤缠绕。松树密布，空气清新怡人。\n景区历史积累深厚，是古肥子国发源地，齐长城齐鲁争霸的要塞，被誉为“肥国仙山圣境，泰岳养心天堂”。\n植被覆盖率达95%以上，被誉为“天然氧吧”。景区内农业景观独特，山村乡土气息浓厚。"}}, {"title": "云蒙山", "address": "泰安市肥城市孙北镇东坞村北", "image": "", "rank": 3, "time": null, "location": {"lat": 35.99031950917941, "lng": 116.73724171136044}, "feature": {"sight_features": "", "sight_content": ""}}, {"title": "安驾汤泉", "address": "泰安市肥城市安驾庄镇东赵村", "image": "", "rank": 4, "time": 2, "location": {"lat": 35.96662727297438, "lng": 116.80695750688734}, "feature": {"sight_features": "特色1 水温常年高达60°以上，富含多种营养矿物质", "sight_content": "温泉度假村位于肥城南部的安庄镇，是一处集住宿、餐饮、温泉洗浴为一体的综合性度假村。这里绿杨垂柳，五谷飘香、风景怡人，是您健身、娱乐的理想之地。\n该温泉经国家鉴定，水中富含偏硅酸、偏硼酸、氟、锶、锂等57种人体所需的微量元素。\n\n安驾汤泉水温常年高达60°以上，沐浴其中，给人一种“温泉水滑洗凝脂，侍儿扶起娇无力”的美妙感觉。"}}, {"title": "春秋古城", "address": "泰安市肥城市康王路以西、龙山路以南。", "image": "", "rank": 5, "time": 2, "location": {"lat": 36.187565634857926, "lng": 116.785740940183}, "feature": {"sight_features": "", "sight_content": ""}}, {"title": "泰山牡丹文化产业园", "address": "泰安市肥城市肥城市现代农业高新技术产业示范区（肥城会展中心南侧）", "image": "", "rank": 6, "time": 1.0, "location": {"lat": 36.18881122431525, "lng": 116.77540081764421}, "feature": {"sight_features": "", "sight_content": ""}}, {"title": "刘台桃花源风景区", "address": "泰安市肥城市仪阳镇大栲山村", "image": "", "rank": 7, "time": 3.0, "location": {"lat": 36.14811359690517, "lng": 116.77321573799969}, "feature": {"sight_features": "", "sight_content": ""}}, {"title": "春燕火龙果 采摘园", "address": "老城镇毛小庄村", "image": "", "rank": 8, "time": 2, "location": {"lat": 36.224705029194816, "lng": 116.7959096031491}, "feature": {"sight_features": "", "sight_content": ""}}, {"title": "大风车儿童乐园", "address": "文化南路上海花苑红旗超市二楼", "image": "", "rank": 9, "time": 2, "location": {"lat": 34.85457820027427, "lng": 119.14387142026823}, "feature": {"sight_features": "", "sight_content": ""}}, {"title": "龙岗农业生态园", "address": "朝阳路南150米", "image": "", "rank": 10, "time": 2, "location": {"lat": 47.74181587122113, "lng": 128.90305519291553}, "feature": {"sight_features": "", "sight_content": ""}}, {"title": "肥城市福坊蔬菜专业合作社", "address": "250省道西50米", "image": "", "rank": 11, "time": null, "location": {"lat": 34.132194006766184, "lng": 118.00114721991147}, "feature": {"sight_features": "", "sight_content": ""}}, {"title": "天天儿童图书馆", "address": "龙山中路南50米", "image": "", "rank": 12, "time": 2, "location": {"lat": 24.485594749183118, "lng": 118.14604378104683}, "feature": {"sight_features": "", "sight_content": ""}}, {"title": "恒昌农业", "address": "潮泉镇政府东行1000米路北", "image": "", "rank": 13, "time": 2, "location": {"lat": 36.22602944205708, "lng": 116.85073271950756}, "feature": {"sight_features": "", "sight_content": ""}}, {"title": "肥城桃第二特管园", "address": "仪阳镇肥城桃第二特管园", "image": "", "rank": 14, "time": 2, "location": {"lat": 36.16182167729497, "lng": 116.80003797362878}, "feature": {"sight_features": "", "sight_content": ""}}, {"title": "肥城夏威夷温泉", "address": "山东省肥城市安驾庄镇东赵村 271604", "image": "", "rank": 15, "time": 3.0, "location": {"lat": 35.96662727297438, "lng": 116.80695750688734}, "feature": {"sight_features": "", "sight_content": ""}}, {"title": "肥城剪云山", "address": "山东省肥城市潮泉镇 271614", "image": "", "rank": 16, "time": 3.0, "location": {"lat": 36.246091325766116, "lng": 116.85741064182126}, "feature": {"sight_features": "", "sight_content": ""}}, {"title": "陆房战斗烈士陵园", "address": "山东省肥城市安临站镇东陆房村", "image": "", "rank": 17, "time": 2, "location": {"lat": 36.05762587374199, "lng": 116.73996857432923}, "feature": {"sight_features": "", "sight_content": ""}}, {"title": "泰安栲山游乐园", "address": "肥城市仪阳镇大栲山村", "image": "", "rank": 18, "time": 1.5, "location": {"lat": 36.14811359690517, "lng": 116.77321573799969}, "feature": {"sight_features": "", "sight_content": ""}}, {"title": "小博士儿童乐园（鼎盛财源店）", "address": "盛源小区南邻鼎盛财源购物广场2楼", "image": "", "rank": 19, "time": 2, "location": {"lat": 36.17368104143541, "lng": 116.79738797327265}, "feature": {"sight_features": "", "sight_content": ""}}, {"title": "海洋宝贝主题乐园", "address": "新城街道新城路盛世佳和1楼北首德克士东临", "image": "", "rank": 20, "time": 2, "location": {"lat": 36.19051014001568, "lng": 116.77791939680255}, "feature": {"sight_features": "", "sight_content": ""}}, {"title": "范蠡公园", "address": "江南水街", "image": "", "rank": 21, "time": 2, "location": {"lat": 22.798026563738315, "lng": 108.31125570602487}, "feature": {"sight_features": "", "sight_content": ""}}, {"title": "肥城市龙山小学幼儿园刘庄园", "address": "肥城市新城办事处中心小学附近", "image": "", "rank": 22, "time": 3.0, "location": {"lat": 36.191566536615305, "lng": 116.79188175934412}, "feature": {"sight_features": "", "sight_content": ""}}, {"title": "海贝乐儿童乐园", "address": "泰安市肥城市新城路73号新合作购物中心F3", "image": "", "rank": 23, "time": 2, "location": {"lat": 36.18945198132906, "lng": 116.77787025949114}, "feature": {"sight_features": "", "sight_content": ""}}, {"title": "市民广场", "address": "福山路与钢厂路交叉口南50米", "image": "", "rank": 24, "time": 1.0, "location": {"lat": 36.21073051252095, "lng": 116.53077587003219}, "feature": {"sight_features": "", "sight_content": ""}}, {"title": "淘气堡游乐场", "address": "凤山大街银座广场2楼西北角", "image": "", "rank": 25, "time": 2, "location": {"lat": 27.782354626049052, "lng": 120.66877636275905}, "feature": {"sight_features": "", "sight_content": ""}}, {"title": "纪念碑广场", "address": "文化路南50米", "image": "", "rank": 26, "time": 2.0, "location": {"lat": 23.55507155987498, "lng": 116.81657276294897}, "feature": {"sight_features": "", "sight_content": ""}}, {"title": "祥惠时代广场", "address": "新城路甲31-5号", "image": "", "rank": 27, "time": 2, "location": {"lat": 36.19034539430003, "lng": 116.793921228157}, "feature": {"sight_features": "", "sight_content": ""}}, {"title": "民俗博物馆", "address": "331省道西50米", "image": "", "rank": 28, "time": 1.5, "location": {"lat": 38.76243571351783, "lng": 115.64340526145084}, "feature": {"sight_features": "", "sight_content": ""}}, {"title": "张店新村基督教会", "address": "山东省泰安市肥城市S329", "image": "", "rank": 29, "time": 2, "location": {"lat": 36.18881122431525, "lng": 116.77540081764421}, "feature": {"sight_features": "", "sight_content": ""}}, {"title": "益智游乐园", "address": "纸厂路西50米", "image": "", "rank": 30, "time": 2, "location": {"lat": 38.9022932063804, "lng": 115.43198769694806}, "feature": {"sight_features": "", "sight_content": ""}}, {"title": "穆庄社区基督教堂", "address": "山东省泰安市肥城市康王西路", "image": "", "rank": 31, "time": 2, "location": {"lat": 36.207786579912025, "lng": 116.70893018490773}, "feature": {"sight_features": "", "sight_content": ""}}, {"title": "安庄一村文体广场", "address": "安驾庄镇中心小学附近", "image": "", "rank": 32, "time": 2, "location": {"lat": 35.96392125887965, "lng": 116.78050305370353}, "feature": {"sight_features": "", "sight_content": ""}}, {"title": "佛光普照", "address": "山东省泰安市肥城市四坡路", "image": "", "rank": 33, "time": 2, "location": {"lat": 35.97937576252592, "lng": 116.944328413847}, "feature": {"sight_features": "", "sight_content": ""}}, {"title": "安临站村文体广场", "address": "泰安市肥城市", "image": "", "rank": 34, "time": 2, "location": {"lat": 36.18881122431525, "lng": 116.77540081764421}, "feature": {"sight_features": "", "sight_content": ""}}, {"title": "肥城马家埠民俗博物馆", "address": "山东省泰安市肥城市S331", "image": "", "rank": 35, "time": 3.0, "location": {"lat": 36.18881122431525, "lng": 116.77540081764421}, "feature": {"sight_features": "", "sight_content": ""}}, {"title": "泰安毛公山红色文化博物馆", "address": "泰安市肥城市S104", "image": "", "rank": 36, "time": 2, "location": {"lat": 36.18881122431525, "lng": 116.77540081764421}, "feature": {"sight_features": "", "sight_content": ""}}, {"title": "肥城汗蒸时代", "address": "泰安市肥城市三源家电北188米路西", "image": "", "rank": 37, "time": 3.0, "location": {"lat": 36.19719548221397, "lng": 116.77570494436445}, "feature": {"sight_features": "", "sight_content": "肥城汗蒸时代是一家集洗浴、汗蒸、足疗、健身、儿童乐园、乒乓球、台球、棋艺、茶艺等与一体的休闲场所。\n全场地暖供热，让你一年四季都享受春天般的感受。"}}, {"title": "华东抗战地道纪念馆", "address": "泰安市肥城市仪阳乡刘台村", "image": "", "rank": 38, "time": 2, "location": {"lat": 36.13922963295447, "lng": 116.77006757783147}, "feature": {"sight_features": "", "sight_content": ""}}, {"title": "文宝斋艺术馆", "address": "康王西路", "image": "", "rank": 39, "time": 2, "location": {"lat": 36.207786579912025, "lng": 116.70893018490773}, "feature": {"sight_features": "", "sight_content": ""}}, {"title": "3D魔画艺术展(新城路店)", "address": "丰园小区西行100米路北，大山名饮二楼(特钢小区北门斜对过)", "image": "", "rank": 40, "time": 2, "location": {"lat": 38.02529752686573, "lng": 114.84879895018824}, "feature": {"sight_features": "", "sight_content": ""}}, {"title": "天和水上乐园", "address": "龙山路春秋古城院内西北角", "image": "", "rank": 41, "time": 2, "location": {"lat": 37.52376801399345, "lng": 111.15283386794589}, "feature": {"sight_features": "", "sight_content": ""}}, {"title": "刘家有机生态园", "address": "仪阳镇刘台桃花源景区内", "image": "", "rank": 42, "time": 2, "location": {"lat": 36.13940512023332, "lng": 116.77069639438338}, "feature": {"sight_features": "", "sight_content": ""}}, {"title": "肥城仪阳必捷滑雪场", "address": "仪阳镇西鲍村东1000米", "image": "", "rank": 43, "time": 3.0, "location": {"lat": 36.16182167729497, "lng": 116.80003797362878}, "feature": {"sight_features": "", "sight_content": ""}}, {"title": "国电石横电厂", "address": "石横镇", "image": "", "rank": 44, "time": 2, "location": {"lat": 36.20637504476873, "lng": 116.52952907228944}, "feature": {"sight_features": "", "sight_content": ""}}, {"title": "好奇而已", "address": "新城路39号(质量监督局对面)", "image": "", "rank": 45, "time": 2, "location": {"lat": 31.391151676751132, "lng": 121.27333305944713}, "feature": {"sight_features": "", "sight_content": ""}}, {"title": "儿童乐园", "address": "龙山路与泰西大街交叉口", "image": "", "rank": 46, "time": 2, "location": {"lat": 36.18715582844785, "lng": 116.79000294169202}, "feature": {"sight_features": "", "sight_content": ""}}, {"title": "肥城市博物馆", "address": "新城路与军民街交叉口", "image": "", "rank": 47, "time": 2.5, "location": {"lat": 36.19037800816229, "lng": 116.77437725780376}, "feature": {"sight_features": "", "sight_content": ""}}, {"title": "蟠桃园采摘", "address": "仪阳镇大栲山村", "image": "", "rank": 48, "time": 2, "location": {"lat": 36.14811359690517, "lng": 116.77321573799969}, "feature": {"sight_features": "", "sight_content": ""}}, {"title": "彭氏古今书画艺术馆", "address": "火炬街7号附近", "image": "", "rank": 49, "time": 2, "location": {"lat": 41.20481682569395, "lng": 123.21925921035574}, "feature": {"sight_features": "", "sight_content": ""}}, {"title": "乐视tv·超级电视", "address": "新城路73号新合作购物中心F4", "image": "", "rank": 50, "time": 2, "location": {"lat": 36.18967153715266, "lng": 116.77721503545217}, "feature": {"sight_features": "", "sight_content": ""}}, {"title": "集贤斋画廊", "address": "凤山城1号楼沿街09号", "image": "", "rank": 51, "time": 2, "location": {"lat": 24.553217796777115, "lng": 107.04841983631258}, "feature": {"sight_features": "", "sight_content": ""}}, {"title": "毛泽东书法艺术馆", "address": "春秋达到万家兴酒楼旁", "image": "", "rank": 52, "time": 2, "location": {"lat": 24.380020332430174, "lng": 116.1486593854222}, "feature": {"sight_features": "", "sight_content": ""}}, {"title": "桃乡书店", "address": "新兴街18号", "image": "", "rank": 53, "time": 2, "location": {"lat": 41.782015086339904, "lng": 123.41108545122862}, "feature": {"sight_features": "", "sight_content": ""}}, {"title": "姜堂村", "address": "泰安市-肥城市-府前街与潮汶公路交叉口东北200米", "image": "", "rank": 54, "time": 2, "location": {"lat": 36.01330971792295, "lng": 116.88573629682303}, "feature": {"sight_features": "", "sight_content": ""}}, {"title": "王瓜店镇", "address": "泰安市-肥城市", "image": "", "rank": 55, "time": 2, "location": {"lat": 36.18881122431525, "lng": 116.77540081764421}, "feature": {"sight_features": "", "sight_content": ""}}, {"title": "栲山跑马场", "address": "泰安市肥城市大栲山村（刘台桃花风景区往北200米路东）", "image": "", "rank": 56, "time": 2, "location": {"lat": 36.14811359690517, "lng": 116.77321573799969}, "feature": {"sight_features": "", "sight_content": ""}}]}