{"cityName": "肥东", "days": 2, "cityImage": "", "spots": [{"title": "岱山湖", "address": "合肥市肥东县古城镇", "image": "", "rank": 1, "time": 2.5, "location": {"lat": 32.15738501907451, "lng": 117.8648765198116}, "feature": {"sight_features": "特色1 如江南村女般纯美娇秀", "sight_content": "合肥岱山湖位于肥东县境内，离合肥约50余公里，从市内乘车约一个小时即可到达。湖面7500亩，相当于杭州西湖的面积。岱山湖原为解放后当地乡民修建的一座水库，因离城较远，四周全为乡村田野，至今未遭任何污染，给人以清纯自然的亲切感。与浩瀚的巢湖相比，岱山湖如江南村女般的纯美娇秀。立于岸边，放眼望去，只见万亩湖面清波荡漾，四周群峰丘坡叠翠。湖面东部开阔，西部曲折蜿蜒，并天然形成众多的港汊。\n\n\n岱山湖，这个拥有近8000亩水面的皖东水上世界，是夏日人们戏水避暑的乐园。景区为了更好让游客体验亲水的快乐，特意从桂林漓江引进时尚、清爽的水上游船项目竹筏漂流，一组分为10个和20个不等的座位，5人即可发船，全竹制靠背椅，坐躺皆宜。乘竹筏游船飞渡在水面上，不时激起滚滚浪花，全然没有了夏日的炎热，让人感到无比惬意。在拓展基地，水上自行车大行其道，不用学驾驭就能自如掌握，让你像鱼儿一样在水面上自由嬉戏，另外基地还有水上情侣船，水上皮划艇以及沙滩摩托车，真人cs，高空滑索等项目，在这里你可以肆意的撒野，玩耍。\n在岱山湖的湖心有一座占地面积180亩的快乐王国——天鹅岛。这里是游客们的最爱，天鹅岛里面树木茂盛，物种丰富，玩乐项目多样，并且大多全是免费的，岛内道路是自然形成的林荫小道，游船项目有闯迷宫，攀绳索，穿时光隧道，走秋千桥，钢丝桥，波浪桥，走梅花桩，玩跷跷板等等。 如果你幸运的话还可以找到野花野果，甚至和松鼠、野兔来一次亲密接触，如果你真的遇见了还请你手下留情，不要打扰它们甚至占为己有。\n岱山湖不仅自然风光优美，更兼具人杰地灵、佛光普照。在岱山湖的对岸矗立着一座皇家御赐寺庙演法禅寺，至今仍留有明代皇家御赐碑所记“昔明太祖微时，行游南京，路由此山，爱山水之环抱，称赏久之”，朱元璋登基后，遂赦建寺。后来演法禅寺经三起三落，毁于战乱之中。\n现如今的演法禅寺经过新长江集团及安徽省宗教主管部门的大力支持，得以重光再现，至今寺院内仍保留御赐龙头石碑及民国时期的碑文，大殿内设一体五尊佛像，建设了福田园广场、吉祥钟亭、一苇渡江、心经大坝等人文自然景观，构建成岱山湖特有的禅宗文化园。"}}, {"title": "渡江战役总前委旧址", "address": "合肥市肥东县‎撮镇瑶岗村团结路", "image": "", "rank": 2, "time": 2, "location": {"lat": 31.828290908803353, "lng": 117.47337809041962}, "feature": {"sight_features": "", "sight_content": ""}}, {"title": "六家畈古民居群", "address": "合肥市肥东县长临河镇六家畈", "image": "", "rank": 3, "time": 1.5, "location": {"lat": 31.659109971414473, "lng": 117.479063915145}, "feature": {"sight_features": "", "sight_content": ""}}, {"title": "吴复墓石刻", "address": "合肥市肥东县萧纡乡享堂任村", "image": "", "rank": 4, "time": 0.75, "location": {"lat": 32.07578594701602, "lng": 117.60432365881229}, "feature": {"sight_features": "", "sight_content": ""}}, {"title": "大城头遗址", "address": "合肥市肥东县阚集乡大程村", "image": "", "rank": 5, "time": 1.0, "location": {"lat": 31.74258054291966, "lng": 117.66897756297692}, "feature": {"sight_features": "", "sight_content": ""}}, {"title": "大陈墩遗址", "address": "合肥市肥东县龙城乡仓村", "image": "", "rank": 6, "time": 1.0, "location": {"lat": 31.89389035448661, "lng": 117.47540062527533}, "feature": {"sight_features": "", "sight_content": ""}}, {"title": "四顶山", "address": "合肥市肥东县东郊六家畈镇", "image": "", "rank": 7, "time": 3.5, "location": {"lat": 31.658692436577923, "lng": 117.47666794121422}, "feature": {"sight_features": "", "sight_content": ""}}, {"title": "龙城遗址", "address": "合肥市肥东县龙城乡龙城村", "image": "", "rank": 8, "time": 1.0, "location": {"lat": 31.90500671402412, "lng": 117.57396737701876}, "feature": {"sight_features": "", "sight_content": ""}}, {"title": "蔡永祥纪念馆", "address": "合肥市肥东县长临河镇大蔡村", "image": "", "rank": 9, "time": 0.75, "location": {"lat": 31.61673454730714, "lng": 117.48006363934708}, "feature": {"sight_features": "", "sight_content": ""}}, {"title": "振湖塔", "address": "合肥市肥东县长临河镇六家畈潜溪村濒临巢湖处", "image": "", "rank": 10, "time": 0.25, "location": {"lat": 31.659109971414473, "lng": 117.479063915145}, "feature": {"sight_features": "", "sight_content": ""}}, {"title": "昂氏宗祠", "address": "合肥市肥东县店埠镇昂集村", "image": "", "rank": 11, "time": 0.75, "location": {"lat": 31.861792460189598, "lng": 117.53060846881591}, "feature": {"sight_features": "", "sight_content": ""}}, {"title": "浮搓山森林公园", "address": "合肥市肥东县石塘、包公两镇辖区", "image": "", "rank": 12, "time": 2, "location": {"lat": 31.939850270411963, "lng": 117.64187244645122}, "feature": {"sight_features": "", "sight_content": ""}}, {"title": "安徽国际高尔夫学校", "address": "合马路合肥艺术中学旁", "image": "", "rank": 13, "time": 2, "location": {"lat": 31.828068438111554, "lng": 117.45429674470908}, "feature": {"sight_features": "", "sight_content": ""}}, {"title": "华盛大运城小海螺水上乐园", "address": "合马路64号", "image": "", "rank": 14, "time": 2, "location": {"lat": 30.007929217002175, "lng": 106.23129268060164}, "feature": {"sight_features": "", "sight_content": ""}}, {"title": "九度空间", "address": "裕溪路888号，合肥浙商城一期市场6栋301室(绕城高速龙塘出入口对面)", "image": "", "rank": 15, "time": 2, "location": {"lat": 31.836661428706094, "lng": 117.43140543919502}, "feature": {"sight_features": "", "sight_content": ""}}, {"title": "龙栖地湿地公园", "address": "安徽省合肥市肥东县龙栖路", "image": "", "rank": 16, "time": 2, "location": {"lat": 31.823207008840203, "lng": 117.39261196123809}, "feature": {"sight_features": "", "sight_content": ""}}, {"title": "腾辉广场", "address": "裕溪路与105省道交叉口北100米", "image": "", "rank": 17, "time": 1.5, "location": {"lat": 31.83841775968308, "lng": 117.41365146384165}, "feature": {"sight_features": "", "sight_content": ""}}, {"title": "肥东县庐剧团", "address": "唐杨路与包公大道交口文化广电大厦5层", "image": "", "rank": 18, "time": 2, "location": {"lat": 31.897651208446597, "lng": 117.4748332186847}, "feature": {"sight_features": "", "sight_content": ""}}, {"title": "宋氏故居", "address": "安徽省合肥市义兴镇宋村", "image": "", "rank": 19, "time": 2, "location": {"lat": 31.82755912631123, "lng": 117.35607448234906}, "feature": {"sight_features": "", "sight_content": ""}}, {"title": "东盛保龄球馆", "address": "梁园路北苑市场内", "image": "", "rank": 20, "time": 2, "location": {"lat": 40.03481929941709, "lng": 116.43021312925917}, "feature": {"sight_features": "", "sight_content": ""}}, {"title": "中国人民解放军渡江战役纪念馆", "address": "撮镇镇瑶岗村肥东渡江战役总前委旧址", "image": "", "rank": 21, "time": 2, "location": {"lat": 31.84910609818305, "lng": 117.46330071954758}, "feature": {"sight_features": "", "sight_content": ""}}, {"title": "防虎山", "address": "国家森林公园紫蓬山余脉", "image": "", "rank": 22, "time": 2, "location": {"lat": 40.84911586971793, "lng": 111.59617656255745}, "feature": {"sight_features": "", "sight_content": ""}}, {"title": "语林生态园", "address": "西大路", "image": "", "rank": 23, "time": 2, "location": {"lat": 38.89670935026771, "lng": 116.24469883474707}, "feature": {"sight_features": "", "sight_content": ""}}, {"title": "青龙厂新四军第四支队东进抗日纪...", "address": "青龙乡境内", "image": "", "rank": 24, "time": 2, "location": {"lat": 32.19067761891354, "lng": 117.39253864513557}, "feature": {"sight_features": "", "sight_content": ""}}, {"title": "肥东向阳采摘基地", "address": "杨店乡向阳村", "image": "", "rank": 25, "time": 2.5, "location": {"lat": 32.074413678055016, "lng": 117.57805147630799}, "feature": {"sight_features": "", "sight_content": ""}}, {"title": "大明黔国公吴復国公祠", "address": "八斗镇大吴村", "image": "", "rank": 26, "time": 2, "location": {"lat": 39.489529744161196, "lng": 116.03084207075067}, "feature": {"sight_features": "", "sight_content": ""}}, {"title": "清水湾垂钓基地", "address": "三合村006县道与元疃大街交口北320米006县道路东", "image": "", "rank": 27, "time": 2, "location": {"lat": 32.11784221076512, "lng": 117.3951119041503}, "feature": {"sight_features": "", "sight_content": ""}}, {"title": "排头垂约中心", "address": "合店路辅路附近", "image": "", "rank": 28, "time": 2, "location": {"lat": 31.88233029889906, "lng": 117.48414549826236}, "feature": {"sight_features": "", "sight_content": ""}}, {"title": "合肥市镇南社区文化艺术中心", "address": "撮镇路同心大厦附近", "image": "", "rank": 29, "time": 2.5, "location": {"lat": 31.888168980899845, "lng": 117.47596592893275}, "feature": {"sight_features": "", "sight_content": ""}}, {"title": "长芬庐剧院", "address": "安乐路附近", "image": "", "rank": 30, "time": 2, "location": {"lat": 40.16164452943171, "lng": 116.61967586994541}, "feature": {"sight_features": "", "sight_content": ""}}, {"title": "合肥德仁景观杨店苗木基地", "address": "101省道附近", "image": "", "rank": 31, "time": 2, "location": {"lat": 41.03241923348195, "lng": 111.82384508727836}, "feature": {"sight_features": "", "sight_content": ""}}, {"title": "龙城野生甲鱼馆", "address": "包公大道中共青春社区委员会附近", "image": "", "rank": 32, "time": 2, "location": {"lat": 31.895663327229908, "lng": 117.49008998646615}, "feature": {"sight_features": "", "sight_content": ""}}, {"title": "星宝贝儿童主题乐园", "address": "郑东路", "image": "", "rank": 33, "time": 2, "location": {"lat": 31.826061082091538, "lng": 117.4765333723539}, "feature": {"sight_features": "", "sight_content": ""}}, {"title": "华伦鳄鱼", "address": "合马路附近", "image": "", "rank": 34, "time": 2, "location": {"lat": 30.007929217002175, "lng": 106.23129268060164}, "feature": {"sight_features": "", "sight_content": ""}}, {"title": "合肥浪腾鱼饵渔具有限公司", "address": "瑞泰玻璃西侧", "image": "", "rank": 35, "time": 2.5, "location": {"lat": 23.05838513269254, "lng": 114.1470188335639}, "feature": {"sight_features": "", "sight_content": ""}}, {"title": "教堂", "address": "古河路与龙脊山路交叉口东100米", "image": "", "rank": 36, "time": 2, "location": {"lat": 33.933586807330904, "lng": 116.79021834457366}, "feature": {"sight_features": "", "sight_content": ""}}, {"title": "梁园基督教堂", "address": "南街59", "image": "", "rank": 37, "time": 2, "location": {"lat": 34.44562759613168, "lng": 115.750108595012}, "feature": {"sight_features": "", "sight_content": ""}}, {"title": "家家果园(杨店向阳店)", "address": "安徽省合肥市肥东县杨店乡向阳村附近", "image": "", "rank": 38, "time": 7.5, "location": {"lat": 32.09948712548784, "lng": 117.54364186578216}, "feature": {"sight_features": "", "sight_content": ""}}, {"title": "水上运动中心", "address": "为民路与安乐路交叉口西北200米", "image": "", "rank": 39, "time": 2, "location": {"lat": 31.898214871484157, "lng": 117.45360962812958}, "feature": {"sight_features": "", "sight_content": ""}}, {"title": "冠瑞高电位治疗机休息厅", "address": "龙泉路中心大市场", "image": "", "rank": 40, "time": 2, "location": {"lat": 31.88794437998341, "lng": 117.47516495123156}, "feature": {"sight_features": "", "sight_content": ""}}, {"title": "公园路16", "address": "安徽省合肥市肥东县公园路18", "image": "", "rank": 41, "time": 2, "location": {"lat": 31.873651225350585, "lng": 117.44390106287281}, "feature": {"sight_features": "", "sight_content": ""}}, {"title": "城南公园", "address": "新安江路和桂王路交口新城家园东门", "image": "", "rank": 42, "time": 1.5, "location": {"lat": 31.873473741104704, "lng": 117.46017890129013}, "feature": {"sight_features": "", "sight_content": ""}}, {"title": "儿童乐园", "address": "圣行街124号附近", "image": "", "rank": 43, "time": 2, "location": {"lat": 31.828858782092922, "lng": 117.4748983826647}, "feature": {"sight_features": "", "sight_content": ""}}, {"title": "合肥沁心园生态农庄", "address": "八斗镇合蚌路29K路西", "image": "", "rank": 44, "time": null, "location": {"lat": 31.886654943541153, "lng": 117.4904456346006}, "feature": {"sight_features": "", "sight_content": ""}}, {"title": "安徽票证博物馆", "address": "安徽省合肥市肥东县养正路", "image": "", "rank": 45, "time": 2, "location": {"lat": 31.657720598989187, "lng": 117.47534097060301}, "feature": {"sight_features": "", "sight_content": ""}}, {"title": "甘露寺(甘露寺路)", "address": "甘露寺路附近", "image": "", "rank": 46, "time": 2, "location": {"lat": 31.852568943950274, "lng": 117.65622440409248}, "feature": {"sight_features": "", "sight_content": ""}}, {"title": "爽爽乐儿童乐园", "address": "龙泉路与新街交口处工商银行对面庐商购物二楼", "image": "", "rank": 47, "time": 2, "location": {"lat": 25.117593848785667, "lng": 99.17471230664033}, "feature": {"sight_features": "", "sight_content": ""}}, {"title": "河滨游园", "address": "公园路与沿河西路交叉口东南150米", "image": "", "rank": 48, "time": 2, "location": {"lat": 31.89181834447874, "lng": 117.47159529713501}, "feature": {"sight_features": "", "sight_content": ""}}, {"title": "孙氏宗祠", "address": "安徽省合肥市肥东县大众路附近", "image": "", "rank": 49, "time": 2, "location": {"lat": 31.910683901390023, "lng": 117.40568036786497}, "feature": {"sight_features": "", "sight_content": ""}}, {"title": "孙祠堂", "address": "合肥市肥东县零零六县道", "image": "", "rank": 50, "time": 2, "location": {"lat": 31.89389035448661, "lng": 117.47540062527533}, "feature": {"sight_features": "", "sight_content": ""}}, {"title": "毕祠堂", "address": "合肥市肥东县", "image": "", "rank": 51, "time": 2, "location": {"lat": 31.89389035448661, "lng": 117.47540062527533}, "feature": {"sight_features": "", "sight_content": ""}}, {"title": "肥东县大润泽生态农庄", "address": "肥东县中大街", "image": "", "rank": 52, "time": 2, "location": {"lat": 32.10944702278652, "lng": 117.54543192007021}, "feature": {"sight_features": "", "sight_content": ""}}, {"title": "百荷农庄", "address": "张大郢", "image": "", "rank": 53, "time": 2, "location": {"lat": 32.44308941303905, "lng": 118.6845812471754}, "feature": {"sight_features": "", "sight_content": ""}}, {"title": "秋实农庄", "address": "团结路上张村境内", "image": "", "rank": 54, "time": null, "location": {"lat": 31.826450999197434, "lng": 117.46349262006215}, "feature": {"sight_features": "", "sight_content": ""}}, {"title": "儿童乐园", "address": "合肥市肥东县公园路与塘杨路交叉口星光国际广场F2", "image": "", "rank": 55, "time": 2, "location": {"lat": 31.8935865341781, "lng": 117.47370283504792}, "feature": {"sight_features": "", "sight_content": ""}}, {"title": "肥东县市民文化广场", "address": "安徽省合肥市肥东县店埠人民路风景御园(共和花园附近)", "image": "", "rank": 56, "time": 2.5, "location": {"lat": 31.893616199146784, "lng": 117.4872805216108}, "feature": {"sight_features": "", "sight_content": ""}}, {"title": "陈大郢生育文化广场", "address": "祥和路西100米", "image": "", "rank": 57, "time": 2.5, "location": {"lat": 38.00303720038654, "lng": 114.6073840101805}, "feature": {"sight_features": "", "sight_content": ""}}, {"title": "滙景生态园", "address": "〇二二县道", "image": "", "rank": 58, "time": 2, "location": {"lat": 31.6459504276921, "lng": 119.10873741977238}, "feature": {"sight_features": "", "sight_content": ""}}, {"title": "肥东县世昌水稻种植专业合作社", "address": "包公大道附近", "image": "", "rank": 59, "time": 2, "location": {"lat": 31.897348294220837, "lng": 117.41921945064686}, "feature": {"sight_features": "", "sight_content": ""}}, {"title": "建华生态湿地百荷园", "address": "撮镇建华社区", "image": "", "rank": 60, "time": 2, "location": {"lat": 38.540905343690426, "lng": 114.96145877690802}, "feature": {"sight_features": "", "sight_content": ""}}]}