{"cityName": "肥乡", "days": 2, "cityImage": "", "spots": [{"title": "鼎圣丰采摘园", "address": "希望街北希望街于祥安路交叉口西行168米(肥乡县第五中学西南方向)", "image": "", "rank": 1, "time": 2, "location": {"lat": 36.562726951721444, "lng": 114.79658014906256}, "feature": {"sight_features": "", "sight_content": ""}}, {"title": "逸夫图书馆", "address": "广安路", "image": "", "rank": 2, "time": 2, "location": {"lat": 36.619570270555776, "lng": 114.53020424986615}, "feature": {"sight_features": "", "sight_content": ""}}, {"title": "鼎圣丰家庭农场", "address": "希望街北头西行500米309国道路北,东佛寺旁", "image": "", "rank": 3, "time": 2, "location": {"lat": 36.57298009885405, "lng": 114.79351428625534}, "feature": {"sight_features": "", "sight_content": ""}}, {"title": "肥乡曙光花卉苗木专业合作社", "address": "九鼎街与邯馆公路交叉口东北100米", "image": "", "rank": 4, "time": 2, "location": {"lat": 42.85646580255288, "lng": 124.414086267546}, "feature": {"sight_features": "", "sight_content": ""}}, {"title": "肥乡县图书馆", "address": "希望街与广安路交叉口东南100米", "image": "", "rank": 5, "time": 2, "location": {"lat": 36.55421004755034, "lng": 114.7964379077749}, "feature": {"sight_features": "", "sight_content": ""}}, {"title": "钓鱼王垂钓俱乐部(河北邯郸肥乡...", "address": "广安路", "image": "", "rank": 6, "time": 2, "location": {"lat": 36.619570270555776, "lng": 114.53020424986615}, "feature": {"sight_features": "", "sight_content": ""}}, {"title": "肥乡小营钓鱼台", "address": "073乡道", "image": "", "rank": 7, "time": 2, "location": {"lat": 43.72162953753833, "lng": 127.43564826898586}, "feature": {"sight_features": "", "sight_content": ""}}, {"title": "兴福寺", "address": "河北省邯郸市肥乡区东漳堡乡北大靳村小学西南500米", "image": "", "rank": 8, "time": 1.0, "location": {"lat": 36.555032131914174, "lng": 114.99027349009046}, "feature": {"sight_features": "", "sight_content": ""}}, {"title": "肥乡县毛主席纪念馆", "address": "河北省邯郸市肥乡区金源商贸一条街", "image": "", "rank": 9, "time": 2, "location": {"lat": 36.5591273209304, "lng": 114.79904240805865}, "feature": {"sight_features": "", "sight_content": ""}}, {"title": "窦默墓", "address": "河北省邯郸市肥乡区", "image": "", "rank": 10, "time": 2, "location": {"lat": 36.553825253669615, "lng": 114.80654708225521}, "feature": {"sight_features": "", "sight_content": ""}}, {"title": "永安公墓", "address": "河北省邯郸市肥乡区北西落堡村", "image": "", "rank": 11, "time": 2.5, "location": {"lat": 36.58778540572224, "lng": 114.83921217629421}, "feature": {"sight_features": "", "sight_content": ""}}, {"title": "光腚猴星期八儿童之家儿童乐园", "address": "河北省邯郸市肥乡区S234", "image": "", "rank": 12, "time": 2, "location": {"lat": 36.553825253669615, "lng": 114.80654708225521}, "feature": {"sight_features": "", "sight_content": ""}}, {"title": "梦幻天使亲子乐园", "address": "其他长安街口美食林超市三楼", "image": "", "rank": 13, "time": 2, "location": {"lat": 37.90492788357053, "lng": 114.51740853465645}, "feature": {"sight_features": "", "sight_content": ""}}, {"title": "平原广场", "address": "邯郸市肥乡区井堂街南93号", "image": "", "rank": 14, "time": 0.75, "location": {"lat": 36.55230534762988, "lng": 114.80522493195137}, "feature": {"sight_features": "", "sight_content": ""}}, {"title": "肥乡区三里堤水上乐园", "address": "河北省邯郸市肥乡区井堂街", "image": "", "rank": 15, "time": 2, "location": {"lat": 36.56247431278365, "lng": 114.80661984859475}, "feature": {"sight_features": "", "sight_content": ""}}, {"title": "金石齐书画店", "address": "广安路", "image": "", "rank": 16, "time": 2, "location": {"lat": 36.619570270555776, "lng": 114.53020424986615}, "feature": {"sight_features": "", "sight_content": ""}}, {"title": "红遍天书画院", "address": "广安路", "image": "", "rank": 17, "time": 2, "location": {"lat": 36.619570270555776, "lng": 114.53020424986615}, "feature": {"sight_features": "", "sight_content": ""}}, {"title": "园区大型水上游乐场", "address": "河北工业园振兴西路(园水上游乐场)", "image": "", "rank": 18, "time": 2, "location": {"lat": 22.517159336568465, "lng": 113.00388053181247}, "feature": {"sight_features": "", "sight_content": ""}}, {"title": "林宗苹果采摘园", "address": "高开区姚寨乡西河东堡村幸福大道路南", "image": "", "rank": 19, "time": 2, "location": {"lat": 36.59644697925262, "lng": 114.70221231083222}, "feature": {"sight_features": "", "sight_content": ""}}]}