{"cityName": "费县", "days": 2, "cityImage": "", "spots": [{"title": "云瀑洞天旅游区", "address": "临沂市费县南张庄乡", "image": "", "rank": 1, "time": 2.5, "location": {"lat": 35.388134997220696, "lng": 118.01683531626996}, "feature": {"sight_features": "特色1 天然地质博物馆", "sight_content": "临沂云瀑洞天景区位于山东费县南张庄乡境内，共有指动石、天蒙湖、石瀑洞天、水上乐园四个园区。云瀑洞天景区现为国家4a级旅游区、沂蒙山国家地质公园核心景区，有“天然地质博物馆”之美誉。\n一泓秀水环抱着一座奇山，山上松苍石怪、飞瀑流泉，水上游船点点、曲桥回旋，醉石林就位于这山水之间，但见巨石峻岩：峥嵘壁立、洞天相连；或立如砥柱、峭如剑峰；或隐如伏虎、突如惊龙；或一石耸立、直插苍穹；或数石共拱、如兽相争；或天开一线，地裂山崩；或飞流直下、云蒸雾腾。时而高崖仰止疑无路、时而曲径通幽别有天，举首望云间仙犬吠、低头见石上清溪流。人在其中穿行，只见处处是路而不知该走哪条，处处是门而不只该进哪个，让人不辨东西南北，不知何去何从，宛如一处天然大迷宫。在云瀑洞天景区石石都透出它神秘的气息、石石都显现出它内在的精灵。“四两举千吨，功夫妙入神。善能因势动，一指运乾坤”。这指动石，让人惊叹之余更领悟了一种人生的哲理、生命的智慧。\n“天公造化几多年，阴刻阳雕蕴万千，若欲明了山水意，犹须洞天问神仙”。激情假日快乐相伴，要玩就到云瀑洞天景区，山上松苍石怪、飞瀑流泉，湖上游船点点、曲桥回旋，在这山水之间无数巨石峻岩：峥嵘壁立、洞天相连，与湖水相依为伴，于是水中有了石的身影，石中有了水的柔情，而天蒙湖上的凌空飞渡、迎风踏浪、云中漫步、勇往直前、水上漂、转秋千、过险桥等水上冲关项目，挑战你的极限，表现你的非凡，让你的激情释放到极点。"}}, {"title": "中华奇石城", "address": "临沂市费县县城北1公里处", "image": "", "rank": 2, "time": 2.5, "location": {"lat": 35.27230412851695, "lng": 117.98442508318213}, "feature": {"sight_features": "", "sight_content": ""}}, {"title": "沂蒙山银座天蒙旅游区", "address": "临沂市费县薛庄镇谭家庄村", "image": "", "rank": 3, "time": 4.5, "location": {"lat": 35.47123192977771, "lng": 118.09441797828353}, "feature": {"sight_features": "特色1 集奇、秀、险于一身的沂蒙山小调诞生地 特色2 世界最长、跨度最大的人行悬索桥与江北最长悬崖栈道交相辉映 特色3 世界最先进的索道设备配有360°透明玻璃吊厢", "sight_content": "‍\n‍沂蒙山银座天蒙旅游区地处沂蒙山山脉东段，是沂蒙山旅游区的重要组成部分，位于临沂费县，总面积约240平方公里，核心片区96平方公里。2011年12月18日鲁商集团与费县人民政府签订了沂蒙山银座天蒙旅游区正式合作开发协议。沂蒙山银座天蒙旅游区作为鲁商集团第一个旅游景区项目，拟投资50亿元，将建设成为集山地生态旅游、运动休闲旅游、民俗体验旅游、生态农业旅游和休闲度假旅游于一体的综合型人文生态旅游度假区。\n‍\n\n‍‍\n‍‍沂蒙山银座天蒙旅游区旅游资源丰富，集山岳景观、森林景观、瀑布景观、人文景观于一体，景区内峰峦叠嶂、群山环抱、林木繁茂、溪洞纵横、山清水秀，森林覆盖率高达98%以上，是“沂蒙山区好风光”的典型代表和核心景区。现沂蒙山旅游区为国家AAAAA级旅游景区、国家地质公园、国家森林公园、省级风景名胜区。沂蒙山银座天蒙旅游区项目是省重点项目、省服务业重点项目和省文化产业重点项目，入选2015年中国旅游投资优选项目名录,成为山东省入选的19个项目之一。\n‍\n\n\n‍‍‍‍‍‍沂蒙山小调活态博物馆1940年抗大一分校文工团团长袁成隆组织团员李林、阮若珊在此创作了享誉国内外的《沂蒙山小调》。为了更好地保护和弘扬这一宝贵的文化资源，依托沂蒙山小调诞生地，以恢复1940年抗大一分校文工团在此生活时期的村落场景为核心，将上白石屋村建成一个活态博物馆，每个院落就是一个展馆，具有文化展示和体验功能。主要建设抗大一分校文工团旧址、沂蒙精神馆、沂蒙历史馆、沂蒙风俗馆、沂蒙物产馆、沂蒙声音馆、沂蒙味道馆和沂蒙人家等。并依托村西的打谷场，打造一台原生态的演艺，聘请当地村民，演唱各种版本的沂蒙山小调。‍‍\n\n\n‍‍索桥为双塔单跨吊悬索桥，桥跨布置38+420+47.5米，全长505.5米、主跨420米。大桥主梁宽4米、人行道宽2.4米，桥面距离谷底的高度为143米，宽跨比1:120。2015年7月8日下午，沂蒙山银座天蒙旅游区人行索桥最后一片主梁完成拼装，大桥顺利合拢，实现全桥贯通。\n‍\n\n\n‍‍‍‍登山游步道全长12公里，有悬空栈道、自然石步道、木栈道、松针路等样式，沿线根据沂蒙文化设计景观节点和休憩平台。全景索道从奥地利多贝玛亚引进的索道，长约1278米，高差529米，运量每小时1600人，并配备了目前国内唯一的水晶吊箱，可以让游客360度的感受沂蒙山美景。\n\n\n‍\n玉皇宫以玉皇顶的明代玉皇庙遗存和沂蒙山的玉皇信仰为基础，扩建玉皇庙为玉皇宫，打造沂蒙山祈福文化核心体验地。由南天门、钟鼓楼、东西配殿、玉皇殿、北天门、接仙台、祈雨亭、王母池等组成。\n\n‍\n\n\n‍‍东蒙圣境蒙山深厚的历史和文化底蕴培养了孝圣王祥、宗圣曾子、算圣刘洪、书圣王羲之、亚圣颜真卿等一大批杰出的历史先贤；孔圣人也曾登东山而发出小鲁的感叹，诗仙李白、诗圣杜甫二人于天宝四年携手同游蒙山，清朝康乾二帝两位圣主驻跸费县多次作诗咏颂蒙山，乾隆皇帝的御笔手书“东蒙圣境”可谓对先前所有圣贤登临蒙山的总结。\n‍"}}, {"title": "沂蒙石林", "address": "临沂市费县费城镇八里庄村", "image": "", "rank": 4, "time": 2.0, "location": {"lat": 35.236537494630895, "lng": 117.91625212108049}, "feature": {"sight_features": "", "sight_content": ""}}, {"title": "大青山胜利突围纪念馆", "address": "临沂市费县薛庄镇驻地北11公里", "image": "", "rank": 5, "time": 2, "location": {"lat": 35.44277414858115, "lng": 118.07797014273488}, "feature": {"sight_features": "", "sight_content": ""}}, {"title": "东方郡滑雪场", "address": "临沂市费县开发区327国道与岩滨路交汇处", "image": "", "rank": 6, "time": 2, "location": {"lat": 35.29419220460331, "lng": 117.9403436148576}, "feature": {"sight_features": "", "sight_content": ""}}, {"title": "颜真卿故里", "address": "临沂市费县方城镇诸满六村", "image": "", "rank": 7, "time": 2, "location": {"lat": 35.323596875794664, "lng": 118.18000748254492}, "feature": {"sight_features": "", "sight_content": ""}}, {"title": "银光公园", "address": "山东省临沂市费县和平路", "image": "", "rank": 8, "time": 2, "location": {"lat": 35.273564357440485, "lng": 117.98366287095692}, "feature": {"sight_features": "", "sight_content": ""}}, {"title": "芍药山核桃园", "address": "山东省费县芍药山乡 273419", "image": "", "rank": 9, "time": 2, "location": {"lat": 35.16545074294513, "lng": 117.96399445115492}, "feature": {"sight_features": "", "sight_content": ""}}, {"title": "玉环山庄炒鸡店", "address": "山东省临沂市费县马庄镇楼泉村", "image": "", "rank": 10, "time": 2, "location": {"lat": 35.14378426367855, "lng": 117.98851607696615}, "feature": {"sight_features": "", "sight_content": ""}}, {"title": "许家崖航空飞行营地", "address": "临沂市费县许家崖景区", "image": "", "rank": 11, "time": 2, "location": {"lat": 35.27230412851695, "lng": 117.98442508318213}, "feature": {"sight_features": "", "sight_content": ""}}, {"title": "欢乐基地", "address": "和平路32号蓝色港湾负一楼超市南", "image": "", "rank": 12, "time": 2, "location": {"lat": 25.11710929687117, "lng": 117.03404984809576}, "feature": {"sight_features": "", "sight_content": ""}}, {"title": "钓鱼人垂钓俱乐部", "address": "钟山路四季沐歌太阳能对面", "image": "", "rank": 13, "time": 2, "location": {"lat": 31.955162415250776, "lng": 119.17862227639625}, "feature": {"sight_features": "", "sight_content": ""}}, {"title": "照永蓝莓采摘园", "address": "田石公路水湖村路西", "image": "", "rank": 14, "time": 2, "location": {"lat": 34.426012497510435, "lng": 118.47282378093546}, "feature": {"sight_features": "", "sight_content": ""}}, {"title": "天景湖垂钓园", "address": "费城街道234省道天景湖垂钓园", "image": "", "rank": 15, "time": 2, "location": {"lat": 35.17227382891431, "lng": 117.88187874819894}, "feature": {"sight_features": "", "sight_content": ""}}, {"title": "临沂仙人洞", "address": "山东省费县费县城南15公里处许家崖乡以东 273400", "image": "", "rank": 16, "time": 2, "location": {"lat": 35.27230412851695, "lng": 117.98442508318213}, "feature": {"sight_features": "", "sight_content": ""}}, {"title": "费县探沂镇基督教中心堂", "address": "临沂市费县", "image": "", "rank": 17, "time": 4.5, "location": {"lat": 35.27230412851695, "lng": 117.98442508318213}, "feature": {"sight_features": "", "sight_content": ""}}, {"title": "儿童乐园", "address": "山东省临沂市费县方马公路", "image": "", "rank": 18, "time": 2, "location": {"lat": 35.295437085339366, "lng": 118.1162677515588}, "feature": {"sight_features": "", "sight_content": ""}}, {"title": "费城遗址", "address": "山东省临沂市费县和平路66号-7", "image": "", "rank": 19, "time": 1.5, "location": {"lat": 35.2699414967452, "lng": 117.98241260934813}, "feature": {"sight_features": "", "sight_content": ""}}, {"title": "金色童年儿童游乐园", "address": "烟墩街160号附近", "image": "", "rank": 20, "time": 2, "location": {"lat": 23.126700943453866, "lng": 113.30602176590719}, "feature": {"sight_features": "", "sight_content": ""}}, {"title": "费县极地海洋水族馆", "address": "郭家园社区231号", "image": "", "rank": 21, "time": 4.5, "location": {"lat": 29.43977404296728, "lng": 103.81527991132813}, "feature": {"sight_features": "", "sight_content": ""}}, {"title": "塔山森林公园", "address": "山东省临沂市费县马田公路附近", "image": "", "rank": 22, "time": 2, "location": {"lat": 35.437118214071305, "lng": 118.05233235975122}, "feature": {"sight_features": "", "sight_content": ""}}, {"title": "韩书凡艺术馆", "address": "山东省费县城北石林忙台路", "image": "", "rank": 23, "time": 2, "location": {"lat": 35.27230412851695, "lng": 117.98442508318213}, "feature": {"sight_features": "", "sight_content": ""}}, {"title": "道德广场", "address": "山东省临沂市费县234省道附近", "image": "", "rank": 24, "time": 2, "location": {"lat": 35.46062221230347, "lng": 117.97791991400106}, "feature": {"sight_features": "", "sight_content": ""}}, {"title": "站前广场", "address": "站前路104号附近", "image": "", "rank": 25, "time": 2, "location": {"lat": 43.67394745085269, "lng": 126.50703186499857}, "feature": {"sight_features": "", "sight_content": ""}}, {"title": "卧龙农场山庄", "address": "山东省临沂市费县卧龙村", "image": "", "rank": 26, "time": 2, "location": {"lat": 35.39371693378182, "lng": 118.11374334958414}, "feature": {"sight_features": "", "sight_content": ""}}, {"title": "大青山生态蓝莓基地", "address": "山东省临沂市费县转山前村", "image": "", "rank": 27, "time": 2, "location": {"lat": 35.44896526427147, "lng": 118.10746673986722}, "feature": {"sight_features": "", "sight_content": ""}}, {"title": "中共苏鲁豫皖边区特委纪念馆", "address": "临沂费县石井镇高桥村", "image": "", "rank": 28, "time": 2, "location": {"lat": 35.056417112993245, "lng": 117.75018583543554}, "feature": {"sight_features": "", "sight_content": ""}}, {"title": "费县石井镇基督教中心堂", "address": "石井镇S240", "image": "", "rank": 29, "time": 4.5, "location": {"lat": 34.97759409720556, "lng": 112.09847366529665}, "feature": {"sight_features": "", "sight_content": ""}}, {"title": "荣昌山庄", "address": "青岛理工大学(临沂南门)附近", "image": "", "rank": 30, "time": 1.5, "location": {"lat": 35.261453584748814, "lng": 118.03815858010957}, "feature": {"sight_features": "", "sight_content": ""}}, {"title": "红色沂蒙生态山庄", "address": "马田公路附近", "image": "", "rank": 31, "time": 2, "location": {"lat": 35.437118214071305, "lng": 118.05233235975122}, "feature": {"sight_features": "", "sight_content": ""}}, {"title": "龙岗山庄", "address": "山东省临沂市费县汶泗公路附近", "image": "", "rank": 32, "time": 2, "location": {"lat": 35.38716482473852, "lng": 118.01999129618765}, "feature": {"sight_features": "", "sight_content": ""}}, {"title": "樱桃山庄", "address": "马田公路", "image": "", "rank": 33, "time": 2, "location": {"lat": 35.437118214071305, "lng": 118.05233235975122}, "feature": {"sight_features": "", "sight_content": ""}}, {"title": "金牛山庄", "address": "山东省临沂市费县山城公路沂蒙山国家地质公园指动石景区", "image": "", "rank": 34, "time": 2, "location": {"lat": 35.414071278674214, "lng": 118.07188596263447}, "feature": {"sight_features": "", "sight_content": ""}}, {"title": "顺和山庄", "address": "上白石屋附近", "image": "", "rank": 35, "time": 2, "location": {"lat": 35.48166900560235, "lng": 118.0741010744288}, "feature": {"sight_features": "", "sight_content": ""}}, {"title": "蜂情人家", "address": "石马子附近", "image": "", "rank": 36, "time": 2, "location": {"lat": 35.460941934957035, "lng": 118.01808066055439}, "feature": {"sight_features": "", "sight_content": ""}}, {"title": "东流战斗遗址", "address": "342省道附近", "image": "", "rank": 37, "time": 2, "location": {"lat": 39.949125182860705, "lng": 114.7774709989999}, "feature": {"sight_features": "", "sight_content": ""}}, {"title": "天蒙度假村", "address": "塔城公路附近", "image": "", "rank": 38, "time": 2, "location": {"lat": 46.74972344280648, "lng": 82.99698554675065}, "feature": {"sight_features": "", "sight_content": ""}}, {"title": "沂蒙山小调诞生地", "address": "垛南公路", "image": "", "rank": 39, "time": 2, "location": {"lat": 35.42267454447863, "lng": 118.09337508960341}, "feature": {"sight_features": "", "sight_content": ""}}, {"title": "漂流度假村", "address": "垛南公路附近", "image": "", "rank": 40, "time": 2, "location": {"lat": 35.42267454447863, "lng": 118.09337508960341}, "feature": {"sight_features": "", "sight_content": ""}}, {"title": "海之韵生态水族馆", "address": "建设路", "image": "", "rank": 41, "time": 2, "location": {"lat": 39.08959553212996, "lng": 117.0126917080218}, "feature": {"sight_features": "", "sight_content": ""}}, {"title": "费县实验中学美术教学基地PAE美...", "address": "幸福路", "image": "", "rank": 42, "time": 4.5, "location": {"lat": 39.711873989517485, "lng": 116.72200968560766}, "feature": {"sight_features": "", "sight_content": ""}}, {"title": "电子图书馆", "address": "和平路12号", "image": "", "rank": 43, "time": 2, "location": {"lat": 40.29244258576463, "lng": 116.68696746139256}, "feature": {"sight_features": "", "sight_content": ""}}, {"title": "农村生态园", "address": "探沂镇肖山后", "image": "", "rank": 44, "time": 2, "location": {"lat": 35.26164900709785, "lng": 118.05601257639164}, "feature": {"sight_features": "", "sight_content": ""}}, {"title": "颜真卿纪念馆", "address": "南外环路颜真卿公园内", "image": "", "rank": 45, "time": 1.0, "location": {"lat": 35.265536488391184, "lng": 117.98377157041516}, "feature": {"sight_features": "", "sight_content": ""}}, {"title": "紫薇人家农家特色采摘园", "address": "大田庄乡五圣堂村", "image": "", "rank": 46, "time": 2, "location": {"lat": 35.49032612242079, "lng": 118.00599223517106}, "feature": {"sight_features": "", "sight_content": ""}}, {"title": "老赶农家乐", "address": "石林旅游区", "image": "", "rank": 47, "time": 2, "location": {"lat": 24.77770196131961, "lng": 103.2965081767583}, "feature": {"sight_features": "", "sight_content": ""}}, {"title": "柿子树画廊", "address": "文化路与沂蒙路交叉口西南150米", "image": "", "rank": 48, "time": 2, "location": {"lat": 35.280807244925725, "lng": 117.96563983962871}, "feature": {"sight_features": "", "sight_content": ""}}, {"title": "蓝莓采摘园", "address": "费城街道办事处王家庄村", "image": "", "rank": 49, "time": 2, "location": {"lat": 35.33332013276451, "lng": 117.90759737059375}, "feature": {"sight_features": "", "sight_content": ""}}, {"title": "蒙山红苹果采摘园", "address": "薛庄镇青山峪村", "image": "", "rank": 50, "time": 2, "location": {"lat": 29.77854366872022, "lng": 111.37739655935086}, "feature": {"sight_features": "", "sight_content": ""}}, {"title": "利山涧百合生态园", "address": "南坡村利山涧", "image": "", "rank": 51, "time": 2, "location": {"lat": 35.23534608545561, "lng": 117.94533369208416}, "feature": {"sight_features": "", "sight_content": ""}}, {"title": "奶油草莓采摘园费县", "address": "费城街道王家庄村", "image": "", "rank": 52, "time": 2, "location": {"lat": 35.33332013276451, "lng": 117.90759737059375}, "feature": {"sight_features": "", "sight_content": ""}}, {"title": "指动石旅游区", "address": "山东省费县张庄乡", "image": "", "rank": 53, "time": 2, "location": {"lat": 35.388373356552854, "lng": 118.01366106481822}, "feature": {"sight_features": "", "sight_content": ""}}, {"title": "八卦连环洞", "address": "山东省费县玉环山西侧", "image": "", "rank": 54, "time": 2, "location": {"lat": 35.192219119460525, "lng": 117.92260938515764}, "feature": {"sight_features": "", "sight_content": ""}}, {"title": "河东崖", "address": "临沂市-费县", "image": "", "rank": 55, "time": 2, "location": {"lat": 35.27230412851695, "lng": 117.98442508318213}, "feature": {"sight_features": "", "sight_content": ""}}, {"title": "费县中华奇石城游乐园", "address": "临沂市-费县-费城街道210县道沂蒙百草园东200米中华奇石城内", "image": "", "rank": 56, "time": 4.5, "location": {"lat": 35.34007470945193, "lng": 117.94570065976635}, "feature": {"sight_features": "", "sight_content": ""}}, {"title": "费县中华奇石城游乐园", "address": "临沂市-费县-费城街道210县道沂蒙百草园东200米中华奇石城内", "image": "", "rank": 57, "time": 4.5, "location": {"lat": 35.34007470945193, "lng": 117.94570065976635}, "feature": {"sight_features": "", "sight_content": ""}}, {"title": "世界第一人行玻璃悬索桥", "address": "临沂市蒙阴县垛庄镇黄姑庵村西南方向约4.15公里", "image": "", "rank": 58, "time": 2, "location": {"lat": 35.50194746430443, "lng": 118.06743366767942}, "feature": {"sight_features": "", "sight_content": ""}}]}