{"cityName": "丰顺", "days": 2, "cityImage": "", "spots": [{"title": "龙归寨瀑布", "address": "梅州市丰顺县横东管理区龙归寨瀑布旅游风景区", "image": "", "rank": 1, "time": 2.5, "location": {"lat": 23.810871275666074, "lng": 116.28543288413864}, "feature": {"sight_features": "特色1 赏青山绿水，观壮美瀑布，感受原生态之美。", "sight_content": "龙归寨瀑布保留着原生态的自然美景，这里山清水秀，环境清幽。最为著名的当属景区内那落差高达115米的飞瀑，气势磅礴，十分壮观。游玩龙归寨瀑布以赏景为主，可以在山脚感受“疑似银河落九天”的壮丽，也可以沿着登山栈道向上，在不同高度欣赏不同视角下的龙归寨瀑布，领略它的多种风情。"}}, {"title": "万佛园", "address": "梅州市丰顺县汤坑镇", "image": "", "rank": 2, "time": null, "location": {"lat": 23.768095045711476, "lng": 116.17720157516113}, "feature": {"sight_features": "", "sight_content": ""}}, {"title": "鹿湖温泉度假村", "address": "梅州市丰顺县留隍镇江山御景附近", "image": "", "rank": 3, "time": 2, "location": {"lat": 23.921651434691263, "lng": 116.4847602409541}, "feature": {"sight_features": "特色1 拥有天然的温泉资源 特色2 酒店设计采用东南亚园林式建筑风格 特色3 21个各具特色的温泉池。", "sight_content": "韩江鹿湖温泉度假村项目位于该县留隍镇东留鹿湖，由该县留隍籍杰出乡贤朱氏家族企业广东珠光集团有限公司、广东新南方集团有限公司和广东珠江投资集团有限公司投资建设。\n总面积约5平方公里。西面临韩江，西南距县城汤坑50公里，东南距潮州市40公里，距汕头市65公里，有沿江公路和韩江航道与潮汕构成十分便捷的交通体系。该项目拥有自然出露的天然温泉资源，平均水温65℃，日溢流量约900吨，该温泉属于矿泉水类型，为放射性氡泉，富含多种微量元素，能够促进机体代谢，消除疲劳，增强免疫力和调节心血管功能，有镇静、止痛、消炎、止痒等多种作用。\n韩江鹿湖温泉度假村项目投资规模约20亿元，包括3万多平方米园林式温泉区、100栋温泉配套单体建筑以及集大型商务、会议、疗养、休闲为一体的东南亚风格、超五星级酒店等重点项目。有韩江鹿湖温泉度假村、潮客风情街、生态湿地公园、惠仁寺、韩江水上旅游项目，以及大型商务、会议、疗养、休闲为一体的超五星级酒店，大型温泉度假区等国家4A级旅游景"}}, {"title": "丰顺金德宝凯悦国际温泉", "address": "梅州市丰顺县汤坑镇金河大桥西侧(汕梅高速丰顺出口直行800米)", "image": "", "rank": 4, "time": 2.5, "location": {"lat": 23.744339072898686, "lng": 116.20191219186721}, "feature": {"sight_features": "特色1 巴厘岛风情温泉 特色2 从整体基调到装饰细节都渗透着浓郁的巴厘岛风情 特色3 国际水疗会所，综合性的国际温泉酒店。", "sight_content": "金德宝凯悦国际温泉度假酒店温泉储量丰富，水质好，流量大，温度高达92℃，富含硫磺、镁、钙和氡等多种矿物质元素。\n温泉池旁边的假山上有个舞台，游客在冲浪、漂流、泡温泉。"}}, {"title": "千江温泉", "address": "梅州市丰顺汤坑镇雄风大道金河桥旁", "image": "", "rank": 5, "time": 2, "location": {"lat": 23.749086998373844, "lng": 116.19312195535313}, "feature": {"sight_features": "特色1 依山傍水，绿柳成荫", "sight_content": "千江温泉距广深梅汕高速丰顺出口500米，酒店是以古罗马建筑风格，总占地面积10万余平方米，建筑面积4w平方米的大型综合温泉度假酒店。\n千江温泉宛若一座天然大氧吧，温泉区有儿童乐池，游泳池，水疗池及各种特色小泡池，温泉区以崭新的面貌提供更好的服务，配套齐全，是你举办各式活动、度假的理想之选。温泉区酒店拥有各类豪华客房238间、大小不同商务会议室，中西餐及宴会厅同时可供1000人宴会用餐，装修情调高雅的各式包厢，为宾客提供舒适的用餐环境，还设有购物中心，商务中心。"}}, {"title": "丰顺珠光御景温泉", "address": "梅州市丰顺县汤南镇丰顺新区G235阳光路段", "image": "", "rank": 6, "time": 2, "location": {"lat": 23.726423247464535, "lng": 116.16853819106298}, "feature": {"sight_features": "", "sight_content": "‍‍\n‍‍‍‍‍‍‍‍珠光御景温泉酒店由香港上市公司广东珠光集团投资兴建，是以潮客家文化为主题的集商务、旅游、养生、度假于一体的精品温泉酒店。酒店地处丰顺新区，位于丰顺县南部，是梅州、揭阳、潮州、汕头四个地级市的交汇核心位置。广梅汕铁路、汕梅高速公路穿境而过，半小时车程可直达潮汕机场、高铁潮汕站，1小时车程可直达潮州、揭阳、汕头三大港口,3.5小时可直达广州市区。\n酒店拥有客房、温泉、SPA、西餐厅等设施，精心打造多样化的山水田园风光，客潮融汇的历史人文特色，让你远离世俗喧嚣，感受精致的优雅与舒适，使身心重获新生。"}}, {"title": "金日温泉度假村", "address": "梅州市丰顺县丰良镇", "image": "", "rank": 7, "time": 2, "location": {"lat": 23.952306174198803, "lng": 116.25487790166792}, "feature": {"sight_features": "", "sight_content": ""}}, {"title": "惠仁圣寺", "address": "丰顺县留隍镇", "image": "", "rank": 8, "time": 1.5, "location": {"lat": 23.91883800911402, "lng": 116.4718983062597}, "feature": {"sight_features": "", "sight_content": ""}}, {"title": "御逸温泉度假村", "address": "梅州市丰顺县汤南镇206国道揭丰交界处", "image": "", "rank": 9, "time": 2, "location": {"lat": 23.887842862383245, "lng": 116.19453849331134}, "feature": {"sight_features": "", "sight_content": ""}}, {"title": "维纳斯酒店华茂温泉", "address": "梅州市丰顺县汤坑镇金河大道1号维纳斯国际酒店14楼", "image": "", "rank": 10, "time": 2, "location": {"lat": 23.739809692399483, "lng": 116.1969645704797}, "feature": {"sight_features": "", "sight_content": ""}}, {"title": "新新温泉城", "address": "汤坑镇邓屋村", "image": "", "rank": 11, "time": 2, "location": {"lat": 23.741725220071412, "lng": 116.19763557133571}, "feature": {"sight_features": "", "sight_content": ""}}, {"title": "瑶池温泉", "address": "金河一横街瑶池温泉", "image": "", "rank": 12, "time": 2, "location": {"lat": 44.97485663870472, "lng": 81.03114554648644}, "feature": {"sight_features": "", "sight_content": ""}}, {"title": "丰顺温泉旅游区", "address": "境内", "image": "", "rank": 13, "time": 2, "location": {"lat": 39.02791335253634, "lng": 111.10395246312886}, "feature": {"sight_features": "", "sight_content": ""}}, {"title": "密室私人影咖", "address": "河滨路与滨河二横街交叉口西50米", "image": "", "rank": 14, "time": 2, "location": {"lat": 23.759108976647354, "lng": 116.19101536515323}, "feature": {"sight_features": "", "sight_content": ""}}, {"title": "梅州丰顺温泉", "address": "广东省丰顺县汤坑镇进华路216号 514300", "image": "", "rank": 15, "time": 4.5, "location": {"lat": 23.7752924319563, "lng": 116.17763358135984}, "feature": {"sight_features": "", "sight_content": ""}}, {"title": "丰顺富豪温泉度假村", "address": "梅州市丰顺县城206国道金河湾", "image": "", "rank": 16, "time": 2, "location": {"lat": 23.887842862383245, "lng": 116.19453849331134}, "feature": {"sight_features": "", "sight_content": ""}}, {"title": "千江欢乐岛", "address": "梅州市丰顺县市政大道千江购物广场2层", "image": "", "rank": 17, "time": 2, "location": {"lat": 23.74640232048835, "lng": 116.18881543382446}, "feature": {"sight_features": "", "sight_content": ""}}, {"title": "开心宝贝乐园", "address": "东兴路50号附近", "image": "", "rank": 18, "time": 2, "location": {"lat": 40.98156646712459, "lng": 117.94583796576354}, "feature": {"sight_features": "", "sight_content": ""}}, {"title": "丰顺影剧院", "address": "丰顺县图书馆(丰顺县文化大楼西)附近", "image": "", "rank": 19, "time": 2, "location": {"lat": 23.77193973358275, "lng": 116.18966698253236}, "feature": {"sight_features": "", "sight_content": ""}}, {"title": "李坚真故居", "address": "164乡道附近", "image": "", "rank": 20, "time": 2, "location": {"lat": 24.256137514468495, "lng": 116.8591487466824}, "feature": {"sight_features": "", "sight_content": ""}}, {"title": "灵秀", "address": "334省道万江古榕庙附近", "image": "", "rank": 21, "time": 2, "location": {"lat": 23.921954577605074, "lng": 116.46607025641805}, "feature": {"sight_features": "", "sight_content": ""}}, {"title": "赤帝古庙", "address": "282乡道附近", "image": "", "rank": 22, "time": 2, "location": {"lat": 32.16712282525383, "lng": 119.03994007605314}, "feature": {"sight_features": "", "sight_content": ""}}, {"title": "金凤凰广场", "address": "梅州市丰顺县新兴路5号", "image": "", "rank": 23, "time": 2, "location": {"lat": 23.923720834426984, "lng": 116.4772783558725}, "feature": {"sight_features": "", "sight_content": ""}}, {"title": "大峰祖师庙红狮古庙", "address": "新兴路216号", "image": "", "rank": 24, "time": 2, "location": {"lat": 46.248050185849266, "lng": 130.5847054098357}, "feature": {"sight_features": "", "sight_content": ""}}, {"title": "丁日昌纪念图书馆", "address": "汤坑路1号汤坑中学附近", "image": "", "rank": 25, "time": 2, "location": {"lat": 23.760733031314253, "lng": 116.19354676402865}, "feature": {"sight_features": "", "sight_content": ""}}, {"title": "谢仙娘宫", "address": "建设南路288附近", "image": "", "rank": 26, "time": 2, "location": {"lat": 39.24102341912217, "lng": 117.82695333011407}, "feature": {"sight_features": "", "sight_content": ""}}, {"title": "丰顺火车站广场", "address": "广东省梅州市丰顺县汤坑镇站前街丰顺站西50米", "image": "", "rank": 27, "time": 2, "location": {"lat": 23.757287442177855, "lng": 116.19678864171473}, "feature": {"sight_features": "", "sight_content": ""}}, {"title": "徐氏宗祠", "address": "广东省梅州市丰顺县汤坑镇埔头寨", "image": "", "rank": 28, "time": 2, "location": {"lat": 23.78354578611008, "lng": 116.20428378039584}, "feature": {"sight_features": "", "sight_content": ""}}, {"title": "丰良公园", "address": "广东省梅州市丰顺县丰良镇137乡道丰良公园", "image": "", "rank": 29, "time": null, "location": {"lat": 23.962563231229684, "lng": 116.19105127132278}, "feature": {"sight_features": "", "sight_content": ""}}, {"title": "白沙古庙", "address": "广东省梅州市丰顺县", "image": "", "rank": 30, "time": 1.0, "location": {"lat": 23.745738303254953, "lng": 116.18845382094152}, "feature": {"sight_features": "", "sight_content": ""}}, {"title": "徐氏宗祠", "address": "广东省梅州市丰顺县汤坑镇埔头寨", "image": "", "rank": 31, "time": 2, "location": {"lat": 23.78354578611008, "lng": 116.20428378039584}, "feature": {"sight_features": "", "sight_content": ""}}, {"title": "小胜村文化广场", "address": "人民街43号附近", "image": "", "rank": 32, "time": 2, "location": {"lat": 41.22099007860747, "lng": 123.091324875219}, "feature": {"sight_features": "", "sight_content": ""}}, {"title": "坚真文化广场", "address": "梅州市丰顺县", "image": "", "rank": 33, "time": 2, "location": {"lat": 23.745738303254953, "lng": 116.18845382094152}, "feature": {"sight_features": "", "sight_content": ""}}, {"title": "基督教潘田堂", "address": "334省道附近", "image": "", "rank": 34, "time": 2, "location": {"lat": 38.85002562691257, "lng": 115.58014640777708}, "feature": {"sight_features": "", "sight_content": ""}}, {"title": "宝贝乐园", "address": "广东省梅州市丰顺县顺发路118号", "image": "", "rank": 35, "time": 2, "location": {"lat": 23.760444247228598, "lng": 116.18884656370358}, "feature": {"sight_features": "", "sight_content": ""}}, {"title": "陈南寺", "address": "203乡道附近", "image": "", "rank": 36, "time": 2, "location": {"lat": 40.22814030651341, "lng": 116.72793974433003}, "feature": {"sight_features": "", "sight_content": ""}}, {"title": "曾氏宗祠", "address": "颖川路165号", "image": "", "rank": 37, "time": 2, "location": {"lat": 22.976966443368603, "lng": 113.32343811312889}, "feature": {"sight_features": "", "sight_content": ""}}, {"title": "崇和善堂", "address": "224省道附近", "image": "", "rank": 38, "time": 2, "location": {"lat": 40.07033678730361, "lng": 116.8104973444274}, "feature": {"sight_features": "", "sight_content": ""}}, {"title": "揭岭飞泉", "address": "121乡道附近", "image": "", "rank": 39, "time": 2, "location": {"lat": 31.273809264028447, "lng": 118.48671476501953}, "feature": {"sight_features": "", "sight_content": ""}}, {"title": "南礤基督教堂", "address": "228省道附近", "image": "", "rank": 40, "time": 2, "location": {"lat": 39.03858546081583, "lng": 117.03749267899916}, "feature": {"sight_features": "", "sight_content": ""}}, {"title": "中山基督教堂", "address": "东山路126号附近", "image": "", "rank": 41, "time": 1.0, "location": {"lat": 29.464698228226933, "lng": 119.90878286077627}, "feature": {"sight_features": "", "sight_content": ""}}, {"title": "汤西儿童游乐中心", "address": "汤西路附近", "image": "", "rank": 42, "time": 2, "location": {"lat": 32.06315126557318, "lng": 119.06667382769119}, "feature": {"sight_features": "", "sight_content": ""}}, {"title": "大峰祖师(314乡道)", "address": "314乡道附近", "image": "", "rank": 43, "time": 2, "location": {"lat": 26.805330441887186, "lng": 113.33036952827214}, "feature": {"sight_features": "", "sight_content": ""}}, {"title": "净水古寺", "address": "梅州市丰顺县大龙华镇松坑村", "image": "", "rank": 44, "time": 2, "location": {"lat": 24.066547184769014, "lng": 116.27591823879037}, "feature": {"sight_features": "", "sight_content": ""}}, {"title": "丰顺县图书馆", "address": "东山西路(丰顺县文化大楼西)", "image": "", "rank": 45, "time": 2, "location": {"lat": 23.77193973358275, "lng": 116.18966698253236}, "feature": {"sight_features": "", "sight_content": ""}}, {"title": "丰顺广场大型游乐场", "address": "站前街", "image": "", "rank": 46, "time": 2, "location": {"lat": 40.13207753428518, "lng": 116.65640857307939}, "feature": {"sight_features": "", "sight_content": ""}}, {"title": "流动图书馆(丰顺分馆)", "address": "东山路", "image": "", "rank": 47, "time": 2, "location": {"lat": 49.59462222100006, "lng": 117.47174086587414}, "feature": {"sight_features": "", "sight_content": ""}}, {"title": "福盛楼", "address": "东兴路与206国道交叉口西北100米", "image": "", "rank": 48, "time": 2, "location": {"lat": 22.783639194845577, "lng": 113.18063152184668}, "feature": {"sight_features": "", "sight_content": ""}}, {"title": "温泉饭庄", "address": "117乡道与228省道交叉口西北100米", "image": "", "rank": 49, "time": 2, "location": {"lat": 39.754319199493544, "lng": 118.4675874287618}, "feature": {"sight_features": "", "sight_content": ""}}, {"title": "金源温泉大厦", "address": "汤西镇陈修试大道", "image": "", "rank": 50, "time": 2, "location": {"lat": 23.763855155925253, "lng": 116.16829975293325}, "feature": {"sight_features": "", "sight_content": ""}}, {"title": "丰顺县图书馆少年儿童阅览室", "address": "五一路39号附近", "image": "", "rank": 51, "time": 2, "location": {"lat": 23.100931760317003, "lng": 113.27528273950196}, "feature": {"sight_features": "", "sight_content": ""}}, {"title": "丰顺县东升商业街", "address": "广东省丰顺县汤坑路", "image": "", "rank": 52, "time": null, "location": {"lat": 23.768065705616557, "lng": 116.18438969278175}, "feature": {"sight_features": "", "sight_content": ""}}, {"title": "栅仔", "address": "梅州市-丰顺县", "image": "", "rank": 53, "time": 2, "location": {"lat": 23.745738303254953, "lng": 116.18845382094152}, "feature": {"sight_features": "", "sight_content": ""}}, {"title": "丰顺县埔寨农场", "address": "梅州市-丰顺县-224省道附近", "image": "", "rank": 54, "time": 2, "location": {"lat": 23.855923492059084, "lng": 116.28421633234282}, "feature": {"sight_features": "", "sight_content": ""}}]}