{"cityName": "丰城", "days": 2, "cityImage": "", "spots": [{"title": "大桥公园", "address": "宜春市丰城市宝塔桥东街7号(南京长江大桥旁)", "image": "", "rank": 1, "time": 2, "location": {"lat": 28.166614024368958, "lng": 115.7774784214485}, "feature": {"sight_features": "", "sight_content": ""}}, {"title": "厚板塘古村", "address": "宜春市丰城市", "image": "", "rank": 2, "time": 2, "location": {"lat": 28.166614024368958, "lng": 115.7774784214485}, "feature": {"sight_features": "", "sight_content": ""}}, {"title": "丰城市博物馆", "address": "宜春市丰城市红大街320号", "image": "", "rank": 3, "time": 1.0, "location": {"lat": 28.199132333700266, "lng": 115.79019321729363}, "feature": {"sight_features": "", "sight_content": ""}}, {"title": "孔庙", "address": "江西省宜春市丰城市东方红大街82", "image": "", "rank": 4, "time": 2.5, "location": {"lat": 28.20455097375025, "lng": 115.80169646149108}, "feature": {"sight_features": "", "sight_content": ""}}, {"title": "龙光书院", "address": "江西省宜春丰城市荣塘", "image": "", "rank": 5, "time": 2, "location": {"lat": 28.131943286647196, "lng": 115.93046079925615}, "feature": {"sight_features": "", "sight_content": ""}}, {"title": "剑匣亭", "address": "宜春市丰城市沙湖公园", "image": "", "rank": 6, "time": 2, "location": {"lat": 28.20190031381373, "lng": 115.80180830573721}, "feature": {"sight_features": "", "sight_content": ""}}, {"title": "洪州窑遗址", "address": "宜春市丰城市669乡道东50米", "image": "", "rank": 7, "time": 2, "location": {"lat": 28.28567074237202, "lng": 115.86631203296199}, "feature": {"sight_features": "", "sight_content": ""}}, {"title": "桥头公园", "address": "卢湾区爱辉路桥头公园附近(爱辉路长江西路)", "image": "", "rank": 8, "time": 2, "location": {"lat": 31.213348379555082, "lng": 121.48123797847695}, "feature": {"sight_features": "", "sight_content": ""}}, {"title": "茜瑞乐园飞扬水世界", "address": "宜春市丰城市龙津大道1号（茜瑞乐园）", "image": "", "rank": 9, "time": 1.5, "location": {"lat": 28.166614024368958, "lng": 115.7774784214485}, "feature": {"sight_features": "", "sight_content": ""}}, {"title": "绿欣园葡萄", "address": "桥东镇观建村内", "image": "", "rank": 10, "time": 2, "location": {"lat": 28.032257238603233, "lng": 115.77461794721404}, "feature": {"sight_features": "", "sight_content": ""}}, {"title": "童烁湾乐园", "address": "建设路八宝堂旁", "image": "", "rank": 11, "time": 2, "location": {"lat": 22.847742511071157, "lng": 108.31775294226782}, "feature": {"sight_features": "", "sight_content": ""}}, {"title": "森禾南方观赏植物基因资源开发示...", "address": "新梅路39号附近", "image": "", "rank": 12, "time": null, "location": {"lat": 25.43122393618407, "lng": 119.00560775191019}, "feature": {"sight_features": "", "sight_content": ""}}, {"title": "江西省恒衍禽业董家原种基地", "address": "董家镇蓝塘村季塘组", "image": "", "rank": 13, "time": 2, "location": {"lat": 28.260271629220583, "lng": 115.53321030062845}, "feature": {"sight_features": "", "sight_content": ""}}, {"title": "介山村富硒大米", "address": "董家镇界山村", "image": "", "rank": 14, "time": 2, "location": {"lat": 28.2779505906373, "lng": 115.56108734993408}, "feature": {"sight_features": "", "sight_content": ""}}, {"title": "中国生态硒谷展示中心", "address": "江西省丰城市中国生态硒谷培训中心", "image": "", "rank": 15, "time": 2, "location": {"lat": 28.27044188943666, "lng": 115.54657186476258}, "feature": {"sight_features": "", "sight_content": ""}}, {"title": "白马寨明清古建筑群", "address": "江西省丰城市张巷镇南部 331100", "image": "", "rank": 16, "time": 1.0, "location": {"lat": 25.46682236529132, "lng": 115.97097529221777}, "feature": {"sight_features": "", "sight_content": ""}}, {"title": "龙山公园", "address": "丰厚一级公路西50米", "image": "", "rank": 17, "time": 2, "location": {"lat": 28.357823909625097, "lng": 115.82816613357843}, "feature": {"sight_features": "", "sight_content": ""}}, {"title": "智力梦幻儿童乐园（丰城天下店）", "address": "解放南路丰城天下3楼", "image": "", "rank": 18, "time": 2, "location": {"lat": 28.19750317501199, "lng": 115.79691703493191}, "feature": {"sight_features": "", "sight_content": ""}}, {"title": "奇奇乐", "address": "宜春市丰城市人民路恒丰时代广场3层", "image": "", "rank": 19, "time": 2, "location": {"lat": 28.19542614711254, "lng": 115.79287002488192}, "feature": {"sight_features": "", "sight_content": ""}}, {"title": "智力梦幻儿童乐园(尚庄店)", "address": "高丰路尚庄街粤华购物广场", "image": "", "rank": 20, "time": 2, "location": {"lat": 39.02148006155678, "lng": 117.67265620848099}, "feature": {"sight_features": "", "sight_content": ""}}, {"title": "莲珠寺", "address": "宜春市丰城市", "image": "", "rank": 21, "time": 2, "location": {"lat": 28.166614024368958, "lng": 115.7774784214485}, "feature": {"sight_features": "", "sight_content": ""}}, {"title": "智力梦幻儿童乐园(新城店)", "address": "洪洲窑南路23号(丰跃名城售楼部往前100米)", "image": "", "rank": 22, "time": 2, "location": {"lat": 28.161013830255428, "lng": 115.77596443351199}, "feature": {"sight_features": "", "sight_content": ""}}, {"title": "书剑文化广场", "address": "剑邑大道东50米", "image": "", "rank": 23, "time": 2, "location": {"lat": 28.19264414819839, "lng": 115.79586062675422}, "feature": {"sight_features": "", "sight_content": ""}}, {"title": "书院文化广场", "address": "江西省宜春市丰城市解放北路47号", "image": "", "rank": 24, "time": 2, "location": {"lat": 28.20233250529858, "lng": 115.79246503192762}, "feature": {"sight_features": "", "sight_content": ""}}, {"title": "瓷文化广场", "address": "东方红大街与人民路交叉口东北150米", "image": "", "rank": 25, "time": 2, "location": {"lat": 28.19783683977065, "lng": 115.79010836066028}, "feature": {"sight_features": "", "sight_content": ""}}, {"title": "铁路天府庙", "address": "221省道附近", "image": "", "rank": 26, "time": 2, "location": {"lat": 40.48669646295935, "lng": 116.04420851897628}, "feature": {"sight_features": "", "sight_content": ""}}, {"title": "剑邑大桥纪念馆", "address": "东方红大街132号", "image": "", "rank": 27, "time": 2, "location": {"lat": 28.202993060865733, "lng": 115.79847200087086}, "feature": {"sight_features": "", "sight_content": ""}}, {"title": "老年乐园", "address": "唐泉段", "image": "", "rank": 28, "time": 2, "location": {"lat": 28.18336404599827, "lng": 115.63170427791508}, "feature": {"sight_features": "", "sight_content": ""}}, {"title": "丰城市图书馆", "address": "东方红大街161号", "image": "", "rank": 29, "time": 1.5, "location": {"lat": 28.202131881181373, "lng": 115.7978395866056}, "feature": {"sight_features": "", "sight_content": ""}}, {"title": "矿务局会展中心", "address": "上塘镇", "image": "", "rank": 30, "time": 2, "location": {"lat": 33.35990472208311, "lng": 118.05685943684337}, "feature": {"sight_features": "", "sight_content": ""}}, {"title": "丰城湖快乐王国游乐城", "address": "新城大道328号(丰水湖景区)", "image": "", "rank": 31, "time": 2, "location": {"lat": 28.161918556266897, "lng": 115.77704831277049}, "feature": {"sight_features": "", "sight_content": ""}}, {"title": "霞高产油茶合作社", "address": "白土镇岗霞村23号", "image": "", "rank": 32, "time": 2, "location": {"lat": 28.156285373057646, "lng": 116.03079255690363}, "feature": {"sight_features": "", "sight_content": ""}}, {"title": "御江骑马场", "address": "小港镇北港洲", "image": "", "rank": 33, "time": 2, "location": {"lat": 29.950081315349276, "lng": 121.75255101536123}, "feature": {"sight_features": "", "sight_content": ""}}, {"title": "鳄鱼(陵园巷)", "address": "建设路恒丰时代广场a23-a24号", "image": "", "rank": 34, "time": 2, "location": {"lat": 28.196097550874768, "lng": 115.79342441143231}, "feature": {"sight_features": "", "sight_content": ""}}, {"title": "逸风画廊", "address": "月湖路194号附近", "image": "", "rank": 35, "time": 2, "location": {"lat": 30.6498779488014, "lng": 117.49806277767999}, "feature": {"sight_features": "", "sight_content": ""}}, {"title": "晶绿源葡萄", "address": "拖船镇源溪村105国道耀华学校往樟树方向2公里", "image": "", "rank": 36, "time": 2, "location": {"lat": 28.014701252810983, "lng": 115.49059997557372}, "feature": {"sight_features": "", "sight_content": ""}}, {"title": "江西省宜春市丰城金马步行街", "address": "江西省丰城市解放北路", "image": "", "rank": 37, "time": 2, "location": {"lat": 28.201163209559937, "lng": 115.79289017117958}, "feature": {"sight_features": "", "sight_content": ""}}, {"title": "乡村奇迹休闲山庄", "address": "宜春市-丰城市", "image": "", "rank": 38, "time": 2, "location": {"lat": 28.166614024368958, "lng": 115.7774784214485}, "feature": {"sight_features": "", "sight_content": ""}}, {"title": "罗卜陈家", "address": "宜春市-丰城市", "image": "", "rank": 39, "time": 2, "location": {"lat": 28.166614024368958, "lng": 115.7774784214485}, "feature": {"sight_features": "", "sight_content": ""}}, {"title": "吴坊村", "address": "宜春市-丰城市", "image": "", "rank": 40, "time": 2, "location": {"lat": 28.166614024368958, "lng": 115.7774784214485}, "feature": {"sight_features": "", "sight_content": ""}}]}