{"cityName": "凤翔", "days": 2, "cityImage": "", "spots": [{"title": "凤翔东湖", "address": "宝鸡市凤翔县城东关", "image": "", "rank": 1, "time": 3.0, "location": {"lat": 34.52761627989884, "lng": 107.40737949664961}, "feature": {"sight_features": "", "sight_content": ""}}, {"title": "秦公一号大墓", "address": "宝鸡市凤翔县石连路", "image": "", "rank": 2, "time": 1.0, "location": {"lat": 34.48680304488288, "lng": 107.37472887610897}, "feature": {"sight_features": "", "sight_content": ""}}, {"title": "小灵山水世界", "address": "宝鸡市凤翔县雍城大道西段（新中医院西隔壁）", "image": "", "rank": 3, "time": 2, "location": {"lat": 34.52342281965198, "lng": 107.39161404361042}, "feature": {"sight_features": "特色1 西北地区最大的室内水上乐园", "sight_content": "小灵山水世界项目位于宝鸡市副中心---凤翔县雍城大道西段\n项目有四大特点：\n一是规模大：投资2.6亿，占地55亩，建筑面积35000平方是目前西北地区最大的室内水上乐园。\n二是乐趣多；顺应人们乐水亲水，崇尚自然等天性，贯穿人的视觉、听觉、触觉和感觉，既有园林绿化、亭台楼阁、小桥流水、假山瀑布等室内景观，又有梦幻组合滑梯、皮筏螺旋梯、封闭螺旋滑梯、环流河漂流池、互动水寨、造浪池、游泳池、儿童水寨等体验项目。还有餐饮、住宿、休闲等配套服务中心。\n三是全天候：每年可四季运行。四是环保型：顺应生态文明建设趋势。\n“双循环”用水，采用世界一流设备和技术，内部用水实行封闭净化循环，每天检测水质并公示，努力让每一位顾客能玩的即尽兴有放心。"}}, {"title": "苏文忠公祠", "address": "宝鸡市凤翔东湖", "image": "", "rank": 4, "time": 1.0, "location": {"lat": 34.52761627989884, "lng": 107.40737949664961}, "feature": {"sight_features": "", "sight_content": ""}}, {"title": "宝鸡先秦陵园博物馆", "address": "陕西省宝鸡市凤翔县", "image": "", "rank": 5, "time": 2.5, "location": {"lat": 34.52761627989884, "lng": 107.40737949664961}, "feature": {"sight_features": "", "sight_content": ""}}, {"title": "雍城遗址", "address": "宝鸡市凤翔县城南", "image": "", "rank": 6, "time": 1.0, "location": {"lat": 34.52761627989884, "lng": 107.40737949664961}, "feature": {"sight_features": "", "sight_content": ""}}, {"title": "凤翔县博物馆", "address": "宝鸡市凤翔县城关镇东环路", "image": "", "rank": 7, "time": 1.5, "location": {"lat": 34.52485102732768, "lng": 107.41843233747493}, "feature": {"sight_features": "", "sight_content": ""}}, {"title": "灵山秘境", "address": "宝鸡市凤翔县雍州灵山风景区", "image": "", "rank": 8, "time": 1.0, "location": {"lat": 34.550991103072214, "lng": 107.24829996266793}, "feature": {"sight_features": "", "sight_content": ""}}, {"title": "玉燕山蝴蝶谷", "address": "宝鸡市凤翔县范家寨镇燕家庄村", "image": "", "rank": 9, "time": 2, "location": {"lat": 34.63270974440619, "lng": 107.42569822230422}, "feature": {"sight_features": "", "sight_content": "玉燕山蝴蝶谷景区位于凤翔县范家寨镇，这里依山傍水，风景优美，是宝鸡市2016年十佳休闲旅游目的地。玉燕山蝴蝶谷采用新技术和设备饲养蝴蝶，引进珍贵蝴蝶数千种，让游客尽情感受蝴蝶之美。"}}, {"title": "聚贤农家乐", "address": "宝鸡东湖路中段新庄57号", "image": "", "rank": 10, "time": 2, "location": {"lat": 34.52349362110865, "lng": 107.41199596771628}, "feature": {"sight_features": "", "sight_content": ""}}, {"title": "凤翔县鑫海农业家庭农场", "address": "彪角镇下郭店村", "image": "", "rank": 11, "time": 2, "location": {"lat": 34.45293059976335, "lng": 107.45025480747097}, "feature": {"sight_features": "", "sight_content": ""}}, {"title": "官帽头村", "address": "彪角镇(近南务村)", "image": "", "rank": 12, "time": 2, "location": {"lat": 34.46589864329416, "lng": 107.49848572501398}, "feature": {"sight_features": "", "sight_content": ""}}, {"title": "页沟垂钓鱼库", "address": "渭北环线附近", "image": "", "rank": 13, "time": 2, "location": {"lat": 34.30520393203516, "lng": 107.96731114879002}, "feature": {"sight_features": "", "sight_content": ""}}, {"title": "凤翔县灶爷庙", "address": "辛巷和灶爷庙巷的交叉口附近", "image": "", "rank": 14, "time": 2, "location": {"lat": 34.52634474512039, "lng": 107.39801744645516}, "feature": {"sight_features": "", "sight_content": ""}}, {"title": "宝贝乐园", "address": "军仓巷附近", "image": "", "rank": 15, "time": 2, "location": {"lat": 34.53550424540127, "lng": 107.40106118220106}, "feature": {"sight_features": "", "sight_content": ""}}, {"title": "卡乐奇儿童游乐园", "address": "东关街51号（与太白巷交叉路口路北第一家）", "image": "", "rank": 16, "time": 2, "location": {"lat": 39.63066079909864, "lng": 118.20639924927531}, "feature": {"sight_features": "", "sight_content": ""}}, {"title": "陕西省凤翔县基督教会", "address": "陕西省宝鸡市凤翔县西大街3号", "image": "", "rank": 17, "time": 2, "location": {"lat": 34.529925394058374, "lng": 107.39701960869468}, "feature": {"sight_features": "", "sight_content": ""}}, {"title": "雷神殿", "address": "西关街附近", "image": "", "rank": 18, "time": 2, "location": {"lat": 39.73377262013731, "lng": 117.30860675708259}, "feature": {"sight_features": "", "sight_content": ""}}, {"title": "天主教堂", "address": "宝鸡市凤翔县", "image": "", "rank": 19, "time": 1.0, "location": {"lat": 34.52761627989884, "lng": 107.40737949664961}, "feature": {"sight_features": "", "sight_content": ""}}, {"title": "宝宝家儿童乐园", "address": "县医院南100米", "image": "", "rank": 20, "time": 2, "location": {"lat": 40.468030495880164, "lng": 115.98097607548452}, "feature": {"sight_features": "", "sight_content": ""}}, {"title": "卡奇乐儿童乐园", "address": "凤翔县财政局附近", "image": "", "rank": 21, "time": 2, "location": {"lat": 34.52556637296998, "lng": 107.40517054633276}, "feature": {"sight_features": "", "sight_content": ""}}, {"title": "孔子庙", "address": "雍辉路和文昌巷的交叉口附近", "image": "", "rank": 22, "time": 1.0, "location": {"lat": 34.524327176696744, "lng": 107.40678105809513}, "feature": {"sight_features": "", "sight_content": ""}}, {"title": "乐淘淘儿童乐园(凤翔店)", "address": "其他秦凤路凤鸣幼儿园正对面", "image": "", "rank": 23, "time": 2, "location": {"lat": 34.53338390225623, "lng": 107.40863832629636}, "feature": {"sight_features": "", "sight_content": ""}}, {"title": "北极宫", "address": "凤鸣路与北大街交叉口西北50米", "image": "", "rank": 24, "time": 1.0, "location": {"lat": 34.53316399845757, "lng": 107.40371917747623}, "feature": {"sight_features": "", "sight_content": ""}}, {"title": "关帝庙", "address": "陕西省宝鸡市凤翔县", "image": "", "rank": 25, "time": 0.5, "location": {"lat": 34.52761627989884, "lng": 107.40737949664961}, "feature": {"sight_features": "", "sight_content": ""}}, {"title": "千王海游乐园", "address": "凤马尹路", "image": "", "rank": 26, "time": 2, "location": {"lat": 34.484931382262886, "lng": 107.27601857334844}, "feature": {"sight_features": "", "sight_content": ""}}, {"title": "关中社区图书室", "address": "关中路34号陕西省凤翔县关中中学附近", "image": "", "rank": 27, "time": 2, "location": {"lat": 34.53793147815004, "lng": 107.39941161660666}, "feature": {"sight_features": "", "sight_content": ""}}, {"title": "3d艺术馆", "address": "文化路文化广场西口(圣帝之星西10米处)", "image": "", "rank": 28, "time": 2, "location": {"lat": 36.388864074565696, "lng": 120.4330110411542}, "feature": {"sight_features": "", "sight_content": ""}}, {"title": "凤翔县商业步行街", "address": "陕西省凤翔县商业步行街", "image": "", "rank": 29, "time": 2, "location": {"lat": 34.522147544997296, "lng": 107.40272546563297}, "feature": {"sight_features": "", "sight_content": ""}}]}