{"cityName": "丰县", "days": 2, "cityImage": "", "spots": [{"title": "汉皇祖陵", "address": "徐州市丰县赵庄镇金刘寨村", "image": "", "rank": 1, "time": 2, "location": {"lat": 34.74363011379229, "lng": 116.52570857626058}, "feature": {"sight_features": "", "sight_content": ""}}, {"title": "丰县欧亚葡萄优新品种示范园", "address": "307县道东50米", "image": "", "rank": 2, "time": 2, "location": {"lat": 34.230589100612704, "lng": 117.3794371628998}, "feature": {"sight_features": "", "sight_content": ""}}, {"title": "顺丰浅水藕种植专业合作社欢口镇...", "address": "238省道西50米", "image": "", "rank": 3, "time": 2, "location": {"lat": 32.02406130021086, "lng": 119.88484114380181}, "feature": {"sight_features": "", "sight_content": ""}}, {"title": "欢口镇葡萄观光园", "address": "301县道附近", "image": "", "rank": 4, "time": 2, "location": {"lat": 39.31527850746868, "lng": 115.9545874528234}, "feature": {"sight_features": "", "sight_content": ""}}, {"title": "荆轲之墓", "address": "江苏省丰县便集村 221000", "image": "", "rank": 5, "time": 2, "location": {"lat": 34.80104124257691, "lng": 116.42592027095586}, "feature": {"sight_features": "", "sight_content": ""}}, {"title": "佐罗骑马场", "address": "北苑路佳和肉鸭产业园附近(河滨嘉苑东北)", "image": "", "rank": 6, "time": 2, "location": {"lat": 34.71224902687488, "lng": 116.62067063819597}, "feature": {"sight_features": "", "sight_content": ""}}, {"title": "杜茂坤收藏馆", "address": "江苏省丰县西城南路", "image": "", "rank": 7, "time": 2, "location": {"lat": 34.701847395237166, "lng": 116.58846883085086}, "feature": {"sight_features": "", "sight_content": ""}}, {"title": "栖凤园游乐场", "address": "栖凤园公园南侧", "image": "", "rank": 8, "time": 2, "location": {"lat": 37.61450794235829, "lng": 114.61168289970698}, "feature": {"sight_features": "", "sight_content": ""}}, {"title": "江苏华强生态园", "address": "322省道附近", "image": "", "rank": 9, "time": 2, "location": {"lat": 37.241368479814305, "lng": 113.95062838725721}, "feature": {"sight_features": "", "sight_content": ""}}, {"title": "大型儿童乐园", "address": "江苏省徐州市丰县长顺路", "image": "", "rank": 10, "time": 2, "location": {"lat": 34.48584113410547, "lng": 116.85579074007138}, "feature": {"sight_features": "", "sight_content": ""}}, {"title": "丰县南都山区度假村", "address": "徐州徐州市丰县王沟苗城河畔", "image": "", "rank": 11, "time": 2, "location": {"lat": 34.699769765634095, "lng": 116.60258246804032}, "feature": {"sight_features": "", "sight_content": ""}}, {"title": "名仕广场", "address": "解放东路168号", "image": "", "rank": 12, "time": 2, "location": {"lat": 41.09486212199117, "lng": 123.0072976266463}, "feature": {"sight_features": "", "sight_content": ""}}, {"title": "华夏牡丹(丰县店)", "address": "江苏省徐州市丰县金山路与青年路交叉口东南100米", "image": "", "rank": 13, "time": 2, "location": {"lat": 34.66655499618066, "lng": 116.60513457914674}, "feature": {"sight_features": "", "sight_content": ""}}, {"title": "万亩梨园", "address": "江苏省徐州市丰县大沙河镇果都路大沙河附近", "image": "", "rank": 14, "time": 2, "location": {"lat": 34.546425894826676, "lng": 116.6326951060236}, "feature": {"sight_features": "", "sight_content": ""}}, {"title": "儿童乐园", "address": "江苏省徐州市丰县和谐大道", "image": "", "rank": 15, "time": 2, "location": {"lat": 34.57725930565213, "lng": 116.61250264083795}, "feature": {"sight_features": "", "sight_content": ""}}, {"title": "梁寨镇程子书院景区", "address": "和宋线北50米", "image": "", "rank": 16, "time": 2, "location": {"lat": 34.58495905101004, "lng": 116.72741872713424}, "feature": {"sight_features": "", "sight_content": ""}}, {"title": "天师府", "address": "江苏省徐州市丰县费楼村", "image": "", "rank": 17, "time": 2, "location": {"lat": 34.61428110654912, "lng": 116.50022094953445}, "feature": {"sight_features": "", "sight_content": ""}}, {"title": "儿童游乐园", "address": "套楼街大棚南侧红艳服装城二楼", "image": "", "rank": 18, "time": 2, "location": {"lat": 34.61647510887091, "lng": 116.68672168410671}, "feature": {"sight_features": "", "sight_content": ""}}, {"title": "三教堂狗肉", "address": "江苏省徐州市丰县向阳路", "image": "", "rank": 19, "time": 2, "location": {"lat": 34.69495133156286, "lng": 116.60135384571298}, "feature": {"sight_features": "", "sight_content": ""}}, {"title": "首马公园", "address": "临府街与人民路交叉口北50米", "image": "", "rank": 20, "time": 2, "location": {"lat": 34.70047229189389, "lng": 116.60340928280459}, "feature": {"sight_features": "", "sight_content": ""}}, {"title": "兽马公园", "address": "江苏省徐州市丰县人民路", "image": "", "rank": 21, "time": 2, "location": {"lat": 34.70091879071403, "lng": 116.6096108759267}, "feature": {"sight_features": "", "sight_content": ""}}, {"title": "龙雾桥遗址公园", "address": "北环路", "image": "", "rank": 22, "time": 2, "location": {"lat": 38.0818836383811, "lng": 114.69308879219136}, "feature": {"sight_features": "", "sight_content": ""}}, {"title": "丰县飞龙湖公园", "address": "中阳大道东段", "image": "", "rank": 23, "time": 2, "location": {"lat": 34.69663522977676, "lng": 116.61108636698108}, "feature": {"sight_features": "", "sight_content": ""}}, {"title": "栖枫公园游乐场", "address": "凤城镇新城花园(经一路)", "image": "", "rank": 24, "time": 2, "location": {"lat": 34.698690256126504, "lng": 116.64505323955156}, "feature": {"sight_features": "", "sight_content": ""}}, {"title": "儿童乐园", "address": "招商城来来百货2楼", "image": "", "rank": 25, "time": 2, "location": {"lat": 34.700221698809294, "lng": 116.61530959492939}, "feature": {"sight_features": "", "sight_content": ""}}, {"title": "东关基督教清心堂", "address": "河滨路14号", "image": "", "rank": 26, "time": 2, "location": {"lat": 34.686715828629616, "lng": 116.6223291877438}, "feature": {"sight_features": "", "sight_content": ""}}, {"title": "天主教会", "address": "北苑东路附近", "image": "", "rank": 27, "time": 2, "location": {"lat": 32.10768565226228, "lng": 118.83292051651361}, "feature": {"sight_features": "", "sight_content": ""}}, {"title": "儿童游乐园", "address": "徐州市丰县", "image": "", "rank": 28, "time": 2, "location": {"lat": 34.699769765634095, "lng": 116.60258246804032}, "feature": {"sight_features": "", "sight_content": ""}}, {"title": "大沙河湿地公园", "address": "徐州市丰县大沙河镇二坝村", "image": "", "rank": 29, "time": 0.75, "location": {"lat": 34.499007209440904, "lng": 116.60839956214991}, "feature": {"sight_features": "", "sight_content": ""}}, {"title": "南部山区度假村", "address": "015乡道附近", "image": "", "rank": 30, "time": 3.0, "location": {"lat": 43.53131954756652, "lng": 127.36397615539731}, "feature": {"sight_features": "", "sight_content": ""}}, {"title": "梨树湾度假村", "address": "254省道附近", "image": "", "rank": 31, "time": 2, "location": {"lat": 42.28777717636898, "lng": 117.52502760300462}, "feature": {"sight_features": "", "sight_content": ""}}, {"title": "丰县城市·开发区规划展厅", "address": "河滨路", "image": "", "rank": 32, "time": 2, "location": {"lat": 38.99720400410777, "lng": 117.71439608000217}, "feature": {"sight_features": "", "sight_content": ""}}, {"title": "丰县图书馆", "address": "人民路279号", "image": "", "rank": 33, "time": 1.5, "location": {"lat": 34.699769765634095, "lng": 116.60258246804032}, "feature": {"sight_features": "", "sight_content": ""}}, {"title": "丰县城建档案馆", "address": "工农南路52号", "image": "", "rank": 34, "time": 2, "location": {"lat": 30.335349859786984, "lng": 107.35419058755623}, "feature": {"sight_features": "", "sight_content": ""}}, {"title": "申花名都", "address": "群益中学体育场", "image": "", "rank": 35, "time": null, "location": {"lat": 34.693721763167744, "lng": 116.6014129640969}, "feature": {"sight_features": "", "sight_content": ""}}, {"title": "果品展览馆", "address": "林果路售票处旁", "image": "", "rank": 36, "time": 2, "location": {"lat": 38.84802725154606, "lng": 121.42698116792553}, "feature": {"sight_features": "", "sight_content": ""}}, {"title": "娥墓堌", "address": "董庄村附近", "image": "", "rank": 37, "time": 2, "location": {"lat": 38.275231526090046, "lng": 116.21673998124096}, "feature": {"sight_features": "", "sight_content": ""}}, {"title": "名家画廊", "address": "果都街小资旁", "image": "", "rank": 38, "time": 2, "location": {"lat": 34.698947394682094, "lng": 116.60104888087369}, "feature": {"sight_features": "", "sight_content": ""}}, {"title": "红富士采摘园～大沙河", "address": "中国江苏省徐州市丰县宋楼镇", "image": "", "rank": 39, "time": 2, "location": {"lat": 34.581551250857885, "lng": 116.61527074141947}, "feature": {"sight_features": "", "sight_content": ""}}, {"title": "梦幻侏罗纪公园", "address": "河滨路360号", "image": "", "rank": 40, "time": 2, "location": {"lat": 34.709509381708244, "lng": 116.6225504071536}, "feature": {"sight_features": "", "sight_content": ""}}, {"title": "徐州大学生共创高新技术种植专业...", "address": "026县道附近", "image": "", "rank": 41, "time": 2.5, "location": {"lat": 40.53873065177745, "lng": 111.1010501485177}, "feature": {"sight_features": "", "sight_content": ""}}, {"title": "蓝迪尼斯水世界", "address": "大庆路凤鸣花园小区南门斜对面(五门桥超市西38米)", "image": "", "rank": 42, "time": 2, "location": {"lat": 34.45143728319534, "lng": 107.6361888693682}, "feature": {"sight_features": "", "sight_content": ""}}, {"title": "古丰画廊", "address": "吴架子街与大同路交叉口东南50米", "image": "", "rank": 43, "time": 2, "location": {"lat": 34.70440290359597, "lng": 116.59603786863721}, "feature": {"sight_features": "", "sight_content": ""}}, {"title": "丁宁桃园", "address": "321省道", "image": "", "rank": 44, "time": 2, "location": {"lat": 37.11728765273746, "lng": 114.47042757060345}, "feature": {"sight_features": "", "sight_content": ""}}, {"title": "丰县文庙", "address": "江苏省丰县解放路西段", "image": "", "rank": 45, "time": 1.0, "location": {"lat": 34.699769765634095, "lng": 116.60258246804032}, "feature": {"sight_features": "", "sight_content": ""}}, {"title": "来来百货流行女人街", "address": "江苏省丰县支农路", "image": "", "rank": 46, "time": 2, "location": {"lat": 34.69965459962287, "lng": 116.61495123211567}, "feature": {"sight_features": "", "sight_content": ""}}, {"title": "果都商业街", "address": "江苏省丰县果都街206号", "image": "", "rank": 47, "time": 2, "location": {"lat": 34.69512969157908, "lng": 116.60033729175719}, "feature": {"sight_features": "", "sight_content": ""}}, {"title": "江苏省徐州市丰县华地街", "address": "江苏省丰县人民路与支农路交汇处", "image": "", "rank": 48, "time": 2, "location": {"lat": 34.69965459962287, "lng": 116.61495123211567}, "feature": {"sight_features": "", "sight_content": ""}}]}