{"cityName": "封丘", "days": 2, "cityImage": "", "spots": [{"title": "封丘县图书馆", "address": "世纪大道附近", "image": "", "rank": 1, "time": 2, "location": {"lat": 35.36022836725064, "lng": 111.24461191295032}, "feature": {"sight_features": "", "sight_content": ""}}, {"title": "新乡陈桥驿宋太祖黄袍加身处", "address": "陈桥村(封丘县城东南侧)", "image": "", "rank": 2, "time": 2.5, "location": {"lat": 34.944661417376935, "lng": 114.4953420891939}, "feature": {"sight_features": "", "sight_content": ""}}, {"title": "封丘县绿凯种植专业合作社", "address": "洛寨村封丘县绿凯种植专业合作社", "image": "", "rank": 3, "time": null, "location": {"lat": 34.98630656466527, "lng": 114.31116132382152}, "feature": {"sight_features": "", "sight_content": ""}}, {"title": "佛灵斋", "address": "河南省新乡市封丘县北干道", "image": "", "rank": 4, "time": 2, "location": {"lat": 35.0498365250037, "lng": 114.43895852094418}, "feature": {"sight_features": "", "sight_content": ""}}, {"title": "华清温泉", "address": "振兴路与幸福路交口北100米路西", "image": "", "rank": 5, "time": 2, "location": {"lat": 33.61985765098844, "lng": 119.94877267199736}, "feature": {"sight_features": "", "sight_content": ""}}, {"title": "浩浩游乐园", "address": "南街186封丘县公安局巡防队附近", "image": "", "rank": 6, "time": 2, "location": {"lat": 35.04496680659395, "lng": 114.42745432292217}, "feature": {"sight_features": "", "sight_content": ""}}, {"title": "居厢镇桑村无公害草莓采摘园", "address": "封黄路与赵陈路交叉口向西200米路北(居厢镇农民创业园)", "image": "", "rank": 7, "time": 2, "location": {"lat": 23.32128661222331, "lng": 113.24099968675924}, "feature": {"sight_features": "", "sight_content": ""}}, {"title": "京水湾温泉中心", "address": "219省道附近", "image": "", "rank": 8, "time": 2, "location": {"lat": 40.151047949015684, "lng": 115.89871895858025}, "feature": {"sight_features": "", "sight_content": ""}}, {"title": "金银花种植园", "address": "黄德镇贾庄村1号", "image": "", "rank": 9, "time": 2, "location": {"lat": 35.20627056741787, "lng": 114.4802264829369}, "feature": {"sight_features": "", "sight_content": ""}}, {"title": "宏基沙石", "address": "311省道北50米", "image": "", "rank": 10, "time": 2, "location": {"lat": 40.42639379978996, "lng": 117.19514906888342}, "feature": {"sight_features": "", "sight_content": ""}}, {"title": "封丘县人民影剧院", "address": "城关镇东大街", "image": "", "rank": 11, "time": 2, "location": {"lat": 37.21250765954506, "lng": 112.19524899193785}, "feature": {"sight_features": "", "sight_content": ""}}, {"title": "草原情生态园", "address": "213省道东50米", "image": "", "rank": 12, "time": 2, "location": {"lat": 39.999164912284996, "lng": 116.42377269017653}, "feature": {"sight_features": "", "sight_content": ""}}, {"title": "新天地温泉游泳健身馆", "address": "振兴路666号妇幼保健院对面(近疾病控制中心)", "image": "", "rank": 13, "time": 2, "location": {"lat": 44.97485663870472, "lng": 81.03114554648644}, "feature": {"sight_features": "", "sight_content": ""}}]}