{"cityName": "凤阳", "days": 2, "cityImage": "", "spots": [{"title": "狼巷迷谷", "address": "滁州市凤阳县殷涧镇城东南30公里处", "image": "", "rank": 1, "time": 3.0, "location": {"lat": 32.688044490551626, "lng": 117.64796908335414}, "feature": {"sight_features": "特色1 有黄山的清秀和华山的险峻 特色2 有诗云：三月莺啼花满山，天风飞暖树无间。", "sight_content": "狼巷迷谷风景区主要景点有：禅窟古刹、禅窟洞天、玉泉净心、摩崖石刻、谷中黄山、天落石、狼牙巷、瘦人谷、响石谷、千层岩、摩腹巷等五十多处。天然溶洞“禅窟”洞内景观千姿百态，您即可领略大自然的神奇又可在洞内对佛教文化寻根问祖。还真实记载了历代文人墨客对禅窟寺的钟爱。有诗云：三月莺啼花满山，天风飞暖树无间。\n\n狼巷迷谷内地形奇特、沟壑纵横、明谷暗涧、沟沟相连、谷谷相通，谷深处抬头望天如一线，谷浅处举目观山如层峦。其岩石千姿百态、形神兼备，有的似鳄鱼探路、有的如野狼挡道、有的层层叠叠如天书万页。生长在岩石上的树木更具有特色，他们虽历经沧桑，不那么挺拔高大，歪曲的身材即能经得风霜雪雨，不屈不挠，倔强地生长，显示出顽强的生命力。"}}, {"title": "小岗村", "address": "滁州市凤阳县小溪河镇", "image": "", "rank": 2, "time": 3.0, "location": {"lat": 32.81227221518137, "lng": 117.84227675935081}, "feature": {"sight_features": "特色1 中国农村改革的发源地，农家乐旅游示范村 特色2 安徽历史文化名村，包产到户。", "sight_content": "1978年冬，小岗村18位农民以“托孤”的方式，冒险在土地承包责任书按下鲜红手印，实施了“大包干”。这一“按”竟成了中国农村改革的第一份宣言，它改变了中国农村发展史，掀开了中国改革开放的序幕。自强不息的小岗人创造出了小岗村精神，那就是“自力更生的奋发图强精神，实事求是的和谐求真精神，敢为人先的突破创新精神”。小岗村也由普普通通的小村庄一跃而为中国农村改革第一村。\n\n客观地说，小岗村30年来变化很大，进步明显。“大包干”虽然激发了农民种田积极性，迅速实现了丰衣足食愿望。调整产业结构，发展现代农业；以“纪念馆”带动旅游业，把小岗村旅游列入旅游发展规划，与县内的皇陵、皇城、韭山洞等景点连线、捆绑推介；着力办好工业园，实现小岗村跨越发展。"}}, {"title": "明皇陵", "address": "滁州市凤阳县西南7公里处的太平乡", "image": "", "rank": 3, "time": 1.0, "location": {"lat": 32.82789908933174, "lng": 117.5385853687445}, "feature": {"sight_features": "特色1 气势磅礴，雄伟壮观 特色2 明皇陵不仅数量居历代帝王陵墓之冠，而且雕刻技艺上也有独到之处。 特色3 被国务院列为全国重点文物保护单位。", "sight_content": "太祖朱元璋即帝位以后，建都南京，而以临濠（今凤阳）为中都。明皇陵墓中安葬着朱元璋父母及兄嫂、侄儿的遗骨。到洪武十二年，皇陵的总体格局基本形式，外有城垣，内有护所、祭祀设施；又在陵前竖起高大的皇陵碑和成双成对的石像生。它经过精心的设计、规划、施工，建成后的皇陵，气象巍峨，被誉为“重门列戟园陵肃”，“壮哉斯陵从古无”。\n明皇陵碑额篆有“大明皇陵之碑”6个大字，因碑文系朱元璋亲自撰写，又名“御制皇陵碑”。朱元璋为了让子孙后代了解艰辛家世和开创江山的艰难，秉笔直书，历述家世实情与戎马生涯，一改历代帝陵碑刻粉饰夸功、谀墓不实的恶习。皇皇大著，堪称一绝。碑文长达1105字，是研究朱元璋家史与元末明初历史的珍贵史料。"}}, {"title": "韭山洞", "address": "滁州市凤阳县城南30多公里韭山山腹", "image": "", "rank": 4, "time": 1.0, "location": {"lat": 32.88097672525767, "lng": 117.5385853687445}, "feature": {"sight_features": "特色1 典型的北方溶洞", "sight_content": "韭山洞东西主洞长一千四百七十二米，侧洞与北山的蝙蝠洞相通,长约四千多米，被专家誉为江北第一洞，其特点是深、大、险、奇、古。全洞分为虎踞龙蟠、摘星揽月、峡谷幽深、清流碧影、玉溪泛舟五大景区，重要景点二十多处。其中“虎踞龙蟠”是王惟忠备战屯兵的主要地段，“摘星揽月”是古人所谓“石形如器物者甚众”的景区，后三个景区曲折盘旋，奥妙无穷，在开发前从无先人涉足。\n\n韭山洞距今已有五亿年的地质历史，为喀斯特溶洞。早在一千五百多年前《水经注》中就有记载。唐代有很多人入洞探奇,据南宋《濠梁志》述：“洞水长流不绝,其石形如器物甚众,左右多唐人诗刻石,深崖中有石观音及石老人像”。韭山洞主洞长1472米，支洞长 400米。全洞分为虎踞龙蟠、摘星揽月、峡谷幽深、清流碧影、玉溪泛舟五大景区。"}}, {"title": "明中都鼓楼", "address": "滁州市凤阳县府城镇鼓楼广场", "image": "", "rank": 5, "time": 1.0, "location": {"lat": 32.86873175457889, "lng": 117.56982277505683}, "feature": {"sight_features": "特色1 中国最大的鼓楼", "sight_content": "明中都鼓楼位于县城中央，是中都城重要附属建筑。鼓楼台二雄伟壮观，高17米，南北长61.5米，东西宽34.4米。门额上＂万世根本”四个苍劲有力的大字，在数百米之外也能历历在目。1995年，县委、县政府组织重建鼓楼，＂层檐三覆，栋宇百尺，巍乎翼然，琼绝尘埃，制度宏大，规模壮丽”的原貌，不久将重现于世人面前。并且在鼓楼四周进行整体规划建设，已形成繁荣的仿古商业旅游区。\n鼓楼建成600多年来，几经沧桑，屡废屡建。台基一直保存完好，基上柱础排列整齐。1986年被列为安徽省重点文物保护单位。1998年，基上楼宇已按旧制重新恢复，再现了当年“谯楼归市”的盛况。楼内布置了《朱元璋?凤阳》展览馆，突出地展示了朱元璋与凤阳的特殊关系以及凤阳在明朝历史上所占有的重要地位。"}}, {"title": "明中都皇城遗址", "address": "滁州市凤阳县", "image": "", "rank": 6, "time": null, "location": {"lat": 32.88097672525767, "lng": 117.5385853687445}, "feature": {"sight_features": "", "sight_content": ""}}, {"title": "沈浩同志先进事迹陈列室", "address": "小岗村", "image": "", "rank": 7, "time": 2, "location": {"lat": 39.8778612550386, "lng": 123.86881226281866}, "feature": {"sight_features": "", "sight_content": ""}}, {"title": "大包干纪念馆", "address": "小溪河镇小岗村", "image": "", "rank": 8, "time": 2, "location": {"lat": 32.83854869817182, "lng": 117.79222219628352}, "feature": {"sight_features": "", "sight_content": ""}}, {"title": "小岗奶油草莓采摘园", "address": "小岗村大包干纪念馆对面", "image": "", "rank": 9, "time": 2, "location": {"lat": 32.83854869817182, "lng": 117.79222219628352}, "feature": {"sight_features": "", "sight_content": ""}}, {"title": "健民蓝莓采摘园", "address": "总铺镇黄泥铺交警中队向南500米，园艺场5队", "image": "", "rank": 10, "time": 2, "location": {"lat": 32.73498229810516, "lng": 117.72859234512907}, "feature": {"sight_features": "", "sight_content": ""}}, {"title": "明中都西华门遗址", "address": "东华路", "image": "", "rank": 11, "time": 2, "location": {"lat": 38.04820461529442, "lng": 114.50565090219243}, "feature": {"sight_features": "", "sight_content": ""}}, {"title": "吴窑古村", "address": "滁州市凤阳县殷涧镇吴窑村", "image": "", "rank": 12, "time": 2, "location": {"lat": 32.688044490551626, "lng": 117.64796908335414}, "feature": {"sight_features": "", "sight_content": ""}}, {"title": "明陈府墓", "address": "安徽省滁州市凤阳县", "image": "", "rank": 13, "time": 2, "location": {"lat": 32.88097672525767, "lng": 117.5385853687445}, "feature": {"sight_features": "", "sight_content": ""}}, {"title": "凤阳山国家地质公园博物馆", "address": "安徽省滁州市凤阳县山国家地质公园核心区", "image": "", "rank": 14, "time": 2, "location": {"lat": 32.88097672525767, "lng": 117.5385853687445}, "feature": {"sight_features": "", "sight_content": ""}}, {"title": "清真寺", "address": "安徽省滁州市凤阳县楼西街163号", "image": "", "rank": 15, "time": 1.0, "location": {"lat": 32.8691957849379, "lng": 117.562577312305}, "feature": {"sight_features": "", "sight_content": ""}}, {"title": "童星乐园", "address": "东华路88号帝城酒店向南30米", "image": "", "rank": 16, "time": 2, "location": {"lat": 32.87680358692966, "lng": 117.57065121575408}, "feature": {"sight_features": "", "sight_content": ""}}, {"title": "凤书画苑", "address": "楼西街62号", "image": "", "rank": 17, "time": 2, "location": {"lat": 28.770648056037817, "lng": 104.62892713911322}, "feature": {"sight_features": "", "sight_content": ""}}, {"title": "凤书佗品陈列馆", "address": "楼西街", "image": "", "rank": 18, "time": 2, "location": {"lat": 28.771616591696226, "lng": 104.62665780088902}, "feature": {"sight_features": "", "sight_content": ""}}, {"title": "朱元璋纪念馆", "address": "楼西街62号", "image": "", "rank": 19, "time": 2, "location": {"lat": 28.770648056037817, "lng": 104.62892713911322}, "feature": {"sight_features": "", "sight_content": ""}}, {"title": "马宗禹万里普法纪念馆", "address": "楼西街", "image": "", "rank": 20, "time": 2, "location": {"lat": 28.771616591696226, "lng": 104.62665780088902}, "feature": {"sight_features": "", "sight_content": ""}}, {"title": "凤阳县图书馆", "address": "禁垣南路", "image": "", "rank": 21, "time": 2, "location": {"lat": 32.874616757996996, "lng": 117.56227683719666}, "feature": {"sight_features": "", "sight_content": ""}}, {"title": "大王府(游乐)", "address": "大王府村", "image": "", "rank": 22, "time": 2, "location": {"lat": 32.81697339152691, "lng": 117.62554572224803}, "feature": {"sight_features": "", "sight_content": ""}}, {"title": "草莓大棚采摘园", "address": "总铺镇黄泥铺村", "image": "", "rank": 23, "time": 2, "location": {"lat": 32.74502625569692, "lng": 117.72162194352438}, "feature": {"sight_features": "", "sight_content": ""}}, {"title": "食来运转", "address": "七都镇伍村村光明组", "image": "", "rank": 24, "time": 2, "location": {"lat": 22.754465883635365, "lng": 113.94256006193123}, "feature": {"sight_features": "", "sight_content": ""}}, {"title": "凤阳县图书馆", "address": "凤凰路东100米", "image": "", "rank": 25, "time": 2, "location": {"lat": 39.967235147563706, "lng": 116.46465841149679}, "feature": {"sight_features": "", "sight_content": ""}}, {"title": "珠城快乐时光(新城区西长安街店)", "address": "府城镇中都西苑26号楼840-852号", "image": "", "rank": 26, "time": 2, "location": {"lat": 32.874366364910294, "lng": 117.52484183342516}, "feature": {"sight_features": "", "sight_content": ""}}, {"title": "蚂蚁山老公鸡", "address": "凤翔大道东山东北侧", "image": "", "rank": 27, "time": 2, "location": {"lat": 47.34498713557338, "lng": 130.32336109407026}, "feature": {"sight_features": "", "sight_content": ""}}, {"title": "汇禾农业", "address": "留守司路94号附近", "image": "", "rank": 28, "time": 2, "location": {"lat": 32.8644778776177, "lng": 117.5563486738989}, "feature": {"sight_features": "", "sight_content": ""}}, {"title": "安徽省凤阳花鼓艺术团", "address": "尚贤路", "image": "", "rank": 29, "time": 2, "location": {"lat": 30.388852246235196, "lng": 120.1746520613968}, "feature": {"sight_features": "", "sight_content": ""}}, {"title": "凤阳明中都", "address": "安徽省凤阳县城西北", "image": "", "rank": 30, "time": null, "location": {"lat": 32.88097672525767, "lng": 117.5385853687445}, "feature": {"sight_features": "", "sight_content": ""}}, {"title": "凤阳古花铺廊", "address": "安徽省凤阳县花铺廊街", "image": "", "rank": 31, "time": 1.0, "location": {"lat": 32.869177847934736, "lng": 117.56943119290536}, "feature": {"sight_features": "", "sight_content": ""}}, {"title": "鼓楼", "address": "安徽省滁州市凤阳县", "image": "", "rank": 32, "time": 1.0, "location": {"lat": 32.88097672525767, "lng": 117.5385853687445}, "feature": {"sight_features": "", "sight_content": ""}}]}