{"cityName": "奉新", "days": 2, "cityImage": "", "spots": [{"title": "八仙飞瀑潭景区（萝卜潭）", "address": "宜春市奉新县罗市镇南店前村境内", "image": "", "rank": 1, "time": 2, "location": {"lat": 28.709213593798307, "lng": 115.0894848579484}, "feature": {"sight_features": "特色1 江南第一瀑布群，是不可多得的天然氧吧", "sight_content": "萝卜潭景区位于江西省奉新县罗市镇境内，距县城30公里，距省会南昌80公里，景区内有江南第一瀑布群——八仙潭，又称萝卜潭。\n景区内八潭八瀑，连贯而泻，蔚为壮观，全长约3.5公里，落差达五百米，被誉为“江南第一瀑布群”。景区内有“试剑石”“仙人脚”“神龟偷窥”“大象饮水”“玉印潭”等众多景点。此外，景区生态环境优美，漫山竹海、处处花树、满目葱茏，林中负离子含量达65000个/cm3，四季气候宜人，是不可多得的天然氧吧。\n萝卜潭传说——当年铁拐李、吕洞宾、何仙姑等八仙过海后，游玩至奉新罗市的一处山谷时感到饥渴难耐，正巧看到一对夫妇在地里忙活，于是向前询问是否有解饥渴的食物，那对夫妇回答说：“这里正闹干旱，很多庄家都枯死了，更何谈解饥渴的食物？”但看到八仙饥渴难耐的样子，淳朴的夫妇有些于心不忍，就在山谷里找来了八个萝卜送给他们吃，八位仙人吃过后顿生清凉，非常感激，于是就在此施法下了一场大雨，解除了此地的旱情。没想到八位仙人走后，山谷里的八个萝卜坑竟慢慢渗出水来，八股清泉顺势飞流直下，形成了今天独具特色、雄伟壮观的八潭八瀑，由此得名“萝卜潭瀑布”。"}}, {"title": "仰天峡漂流", "address": "宜春市奉新县罗市镇和仰山乡", "image": "", "rank": 2, "time": 2, "location": {"lat": 28.767065612879758, "lng": 115.03744539904346}, "feature": {"sight_features": "特色1 仰天峡漂流景区因其前所未有的惊险刺激，又仰天长啸之意，故取“仰天峡”之名！", "sight_content": "仰天峡漂流景区位于江西省奉新县罗市镇和仰山乡，景区交通便利，临近百丈寺，仰天峡漂流河道长3.9公里，落差近200米，属于大落差强刺激的双人自助漂流，是由全国最著名的生态旅游及漂流景区开发商投资开发。\n\n\n仰天峡漂流河道两岸奇峰陡立，苔藓满石，起伏跌宕，险峻无比。无论是两岸风景的优美程度，还是河道的惊险刺激程度，在国内都是一流的。\n\n\n特别是在漂流河道的中部，有一段约一公里的连续险滩区，几十个大落差和特大落差接二连三的展现在游客面前，考验着游客的心理承受极限，其惊险性和趣味性在全国都是极少见的。"}}, {"title": "澡溪乡博物馆", "address": "宜春市奉新县澡溪乡223省道", "image": "", "rank": 3, "time": 1.0, "location": {"lat": 28.62686755807286, "lng": 115.02443448217691}, "feature": {"sight_features": "", "sight_content": ""}}, {"title": "圆梦山庄风车谷亲子乐园", "address": "宜春市奉新县会埠镇东田组", "image": "", "rank": 4, "time": 2, "location": {"lat": 28.671608843291764, "lng": 115.27428602718052}, "feature": {"sight_features": "", "sight_content": ""}}, {"title": "宋应星纪念馆(狮山西大道店)", "address": "冯川镇冯田社区宁波大道宋应星公园", "image": "", "rank": 5, "time": 1.5, "location": {"lat": 28.684118282833943, "lng": 115.4257434846736}, "feature": {"sight_features": "", "sight_content": ""}}, {"title": "九仙温泉度假村", "address": "澡溪乡九仙村", "image": "", "rank": 6, "time": 2, "location": {"lat": 28.806089678138903, "lng": 114.9554772131505}, "feature": {"sight_features": "", "sight_content": ""}}, {"title": "一路惊喜", "address": "南门路80号", "image": "", "rank": 7, "time": 2, "location": {"lat": 31.864553836968756, "lng": 120.5498353071165}, "feature": {"sight_features": "", "sight_content": ""}}, {"title": "星河大剧院", "address": "江西省宜春市奉新县潦河西路33号", "image": "", "rank": 8, "time": 2, "location": {"lat": 28.699263022056023, "lng": 115.39651699993301}, "feature": {"sight_features": "", "sight_content": ""}}, {"title": "青云峡漂流", "address": "314省道", "image": "", "rank": 9, "time": 2, "location": {"lat": 40.19306973684933, "lng": 117.32479692178045}, "feature": {"sight_features": "", "sight_content": ""}}, {"title": "贝乐欣儿童乐园", "address": "工业园区锦绣江南旁", "image": "", "rank": 10, "time": 2.0, "location": {"lat": 39.121391658098084, "lng": 117.24710966466654}, "feature": {"sight_features": "", "sight_content": ""}}, {"title": "喜来乐儿童乐园", "address": "宜春市奉新县奉新中大道375-2号鹏泰购物广场1层", "image": "", "rank": 11, "time": 2, "location": {"lat": 28.709613591993357, "lng": 115.39752081771294}, "feature": {"sight_features": "", "sight_content": ""}}, {"title": "鬼祠堂", "address": "宜春市奉新县", "image": "", "rank": 12, "time": 2, "location": {"lat": 28.69402895145841, "lng": 115.40655109852699}, "feature": {"sight_features": "", "sight_content": ""}}, {"title": "金穗广场", "address": "宜春市奉新县冯川西路2号", "image": "", "rank": 13, "time": 2, "location": {"lat": 28.707939150412052, "lng": 115.3968747317435}, "feature": {"sight_features": "", "sight_content": ""}}, {"title": "奉新县凤形虎脚山度假村", "address": "澡溪乡九仙村虎脚里西北侧100米", "image": "", "rank": 14, "time": 2, "location": {"lat": 28.806089678138903, "lng": 114.9554772131505}, "feature": {"sight_features": "", "sight_content": ""}}, {"title": "华林广场", "address": "宜春市奉新县冯川西路253号", "image": "", "rank": 15, "time": 2, "location": {"lat": 28.705693191494344, "lng": 115.39226915122867}, "feature": {"sight_features": "", "sight_content": ""}}, {"title": "奉新图书馆", "address": "狮山西大道520号", "image": "", "rank": 16, "time": 2, "location": {"lat": 28.710279965540675, "lng": 115.38556560385423}, "feature": {"sight_features": "", "sight_content": ""}}, {"title": "树人画院", "address": "迎宾路227号", "image": "", "rank": 17, "time": 2, "location": {"lat": 28.708674484125886, "lng": 115.39245021997534}, "feature": {"sight_features": "", "sight_content": ""}}, {"title": "八大山人耕香艺术馆", "address": "回兰路(奉新县房地产管理局)", "image": "", "rank": 18, "time": 2, "location": {"lat": 28.699512321636696, "lng": 115.38992764964647}, "feature": {"sight_features": "", "sight_content": ""}}, {"title": "南昌动物园", "address": "潦河西路387号", "image": "", "rank": 19, "time": 1.0, "location": {"lat": 28.70036173438172, "lng": 115.38760510043582}, "feature": {"sight_features": "", "sight_content": ""}}, {"title": "九仙峡漂流", "address": "澡溪乡双草园", "image": "", "rank": 20, "time": 2, "location": {"lat": 28.792484460415416, "lng": 114.95630262296469}, "feature": {"sight_features": "", "sight_content": ""}}, {"title": "奉新剧院", "address": "西门街附近", "image": "", "rank": 21, "time": 2, "location": {"lat": 39.00402465412309, "lng": 112.30816988869645}, "feature": {"sight_features": "", "sight_content": ""}}, {"title": "奉新岗前葡萄采摘园", "address": "干洲镇政府西北50米", "image": "", "rank": 22, "time": 2, "location": {"lat": 28.821389231133388, "lng": 115.44490828745118}, "feature": {"sight_features": "", "sight_content": ""}}, {"title": "宫保路商业步行街", "address": "江西省奉新县宫保路商业步行街", "image": "", "rank": 23, "time": 2, "location": {"lat": 28.705118454445056, "lng": 115.39712023903192}, "feature": {"sight_features": "", "sight_content": ""}}, {"title": "九云岭度假村", "address": "宜春市-奉新县-澡溪乡九仙村村民委员会西1000米", "image": "", "rank": 24, "time": 2, "location": {"lat": 28.806089678138903, "lng": 114.9554772131505}, "feature": {"sight_features": "", "sight_content": ""}}]}