{"cityName": "丰镇", "days": 2, "cityImage": "", "spots": [{"title": "深蓝真人密室逃脱", "address": "迎宾大街丽苑小区1号楼", "image": "", "rank": 1, "time": 2, "location": {"lat": 40.44102698066672, "lng": 113.1264465735029}, "feature": {"sight_features": "", "sight_content": ""}}, {"title": "天创农牧业", "address": "隆盛庄镇富家乡村(中国邮政储蓄银行北60米)", "image": "", "rank": 2, "time": 2, "location": {"lat": 39.906791391878315, "lng": 116.36567271521605}, "feature": {"sight_features": "", "sight_content": ""}}, {"title": "滨河公园", "address": "乌兰察布市丰镇市", "image": "", "rank": 3, "time": 2.0, "location": {"lat": 40.44180480884355, "lng": 113.1166012178763}, "feature": {"sight_features": "", "sight_content": ""}}, {"title": "迪斯尼游乐园", "address": "迎宾大街", "image": "", "rank": 4, "time": null, "location": {"lat": 38.02261673381787, "lng": 114.95683195556528}, "feature": {"sight_features": "", "sight_content": ""}}, {"title": "淘气堡儿童乐园", "address": "旧六南十字路口向东200米路南", "image": "", "rank": 5, "time": 2, "location": {"lat": 23.479395964532443, "lng": 113.1982638531536}, "feature": {"sight_features": "", "sight_content": ""}}, {"title": "百老汇休闲广场", "address": "马桥街66号", "image": "", "rank": 6, "time": 2, "location": {"lat": 40.447488871688385, "lng": 113.16489017853152}, "feature": {"sight_features": "", "sight_content": ""}}, {"title": "红钻靓点休闲广场", "address": "电厂路益康斜对面", "image": "", "rank": 7, "time": 2, "location": {"lat": 39.88571498804234, "lng": 116.39505757392261}, "feature": {"sight_features": "", "sight_content": ""}}, {"title": "开心哈乐儿童乐园", "address": "迎宾大街丰镇市劳动力市场北100米路东", "image": "", "rank": 8, "time": 2, "location": {"lat": 40.444183746127, "lng": 113.12143422907936}, "feature": {"sight_features": "", "sight_content": ""}}, {"title": "北山公园", "address": "乌兰察布市丰镇市体育路附近", "image": "", "rank": 9, "time": 1.0, "location": {"lat": 40.454391184966624, "lng": 113.17115001778288}, "feature": {"sight_features": "", "sight_content": ""}}, {"title": "灵岩寺", "address": "乌兰察布市丰镇市208国道西50米", "image": "", "rank": 10, "time": 2.0, "location": {"lat": 40.583481157229606, "lng": 113.1801899293333}, "feature": {"sight_features": "", "sight_content": ""}}, {"title": "杀猪菜农家院", "address": "内蒙古自治区乌兰察布市丰镇市S102", "image": "", "rank": 11, "time": 2, "location": {"lat": 40.44180480884355, "lng": 113.1166012178763}, "feature": {"sight_features": "", "sight_content": ""}}, {"title": "丰镇温州商业街", "address": "内蒙古自治区丰镇市温州商业街", "image": "", "rank": 12, "time": 2, "location": {"lat": 40.446027802999005, "lng": 113.16804853806049}, "feature": {"sight_features": "", "sight_content": ""}}]}