{"cityName": "凤城", "days": 2, "cityImage": "", "spots": [{"title": "凤凰山", "address": "凤城市凤山路附近凤凰山国家风景名胜景区", "image": "", "rank": 1, "time": 5.5, "location": {"lat": 40.42253743225071, "lng": 124.07769878058095}, "feature": {"sight_features": "", "sight_content": ""}}, {"title": "大梨树生态旅游区", "address": "丹东市凤城市西南郊10公里处", "image": "", "rank": 2, "time": 2, "location": {"lat": 40.45918048245619, "lng": 124.07242172438802}, "feature": {"sight_features": "特色1 漫步于全国最大的村级集体果园 特色2 大梨树生态旅游区由花果山、干字文化广场、药王谷、葡萄城、展览馆、影视城、餐饮娱乐区组成，是集赏花摘果、休闲娱乐、度假避暑、会议接待为一体的综合性旅游区！ 特色3 大梨树生态旅游区是全国首批农业旅游示范点，全国休闲农业与乡村旅游示范点，享有“中国最美的乡村”、“中国十佳和谐乡村”、“中国农业公园”、“乡村旅游第一村”的美誉！", "sight_content": "大梨树国家AAAA级旅游景区位于辽宁省凤城市西南郊10公里处，距丹阜高速公路凤城出口5公里，是全国首批农业旅游示范点、全国休闲农业与乡村旅游示范点、中国美丽乡村。 景区由休闲农业体验区、民族村落观光区、旅游综合服务区三大功能区组成。\n休闲农业体验区紧紧依托2.6万亩花果山，几百万株果树，精心打造出闻名省内外的赏花摘果体验游，每年四月到十月，是辽宁省跨时最长、品种最多、参与性最好的休闲农业游目的地之一。花果山上，干字文化广场宏伟壮观，辽宁省爱国主义教育基地——大梨树村史馆是辽宁省规模最大的村史馆之一。药王谷供奉着十三位神医药圣，可谓一步一景，一步一重天，流传着许多美丽的故事与传说。特别是阴阳泉水，一凉一热，号称一绝。\n民族村落观光区紧紧依托大梨树河两岸满族村落，建设成北方水乡，被国家民委命名为首批“中国少数民族特色村寨”。徜徉在复原清末民初县城的影视城中，体验影视剧拍摄，过一把明星瘾！在知青城中，看一场老电影，吃一顿忆苦思甜饭，进行一场劳作体验等，大梨树知青节已经成为影响全国的怀旧节日。民俗文化体验馆有摄影艺术、剪纸等7个门类，由经验丰富的艺术家现场指导，成就自己喜爱的作品。\n旅游综合服务区里，拥有“中国三星级饭店”庄稼院酒店、“省三星农家乐”青年点饭店，品尝满族特色食品、农家食品，欣赏知青艺术团特色演出，举行篝火晚会，您可以尽享乡村休闲度假的惬意。这里有高、中、低挡的客房和火炕随时恭候您的光临，日可接待2万人游览，500人会议，500人住宿，3000人就餐。\n大梨树景区，真诚欢迎四海宾客的到来！"}}, {"title": "蒲石河森林公园", "address": "丹东市凤城市赛马镇东甸村", "image": "", "rank": 3, "time": 4.5, "location": {"lat": 40.993579786506, "lng": 124.29762534100993}, "feature": {"sight_features": "", "sight_content": ""}}, {"title": "老牛背", "address": "丹东市凤城市区东南约4公里处凤凰山景区内", "image": "", "rank": 4, "time": 0.4, "location": {"lat": 40.45918048245619, "lng": 124.07242172438802}, "feature": {"sight_features": "", "sight_content": ""}}, {"title": "玉龙湖", "address": "丹东市凤城市玉龙镇", "image": "", "rank": 5, "time": 3.5, "location": {"lat": 40.18532583402044, "lng": 124.01624665105058}, "feature": {"sight_features": "", "sight_content": ""}}, {"title": "大梨树村村史展览馆", "address": "丹东市凤城市大梨树村", "image": "", "rank": 6, "time": 1.0, "location": {"lat": 40.407801092103966, "lng": 123.9695733656178}, "feature": {"sight_features": "", "sight_content": ""}}, {"title": "鸡冠山风景名胜区", "address": "丹东市凤城市西北部（距凤城市区46公里）", "image": "", "rank": 7, "time": 2.5, "location": {"lat": 40.45918048245619, "lng": 124.07242172438802}, "feature": {"sight_features": "", "sight_content": ""}}, {"title": "丹东天沐君澜温泉", "address": "丹东市凤城市东汤镇", "image": "", "rank": 8, "time": 1.0, "location": {"lat": 40.44402491609952, "lng": 124.34332334064207}, "feature": {"sight_features": "特色1 “中国真山水温泉\"", "sight_content": "天沐君澜温泉位于丹东凤城市东汤镇，是一家集养生温泉、住宿、餐饮、娱乐、商务会议于一体温泉度假酒店。\n设有室内综合性洗浴中心、户外大型温泉泡疗区等，室内外共设特色温泉泡疗池近30个，四大美人汤、太极八卦汤、亲亲鱼疗、足浴泡汤长廊、日式温泉、森林泡疗池等各式特色温泉泡疗池。"}}, {"title": "烽火台", "address": "丹东市凤城市区东南约4公里处凤凰山景区内", "image": "", "rank": 9, "time": 0.3, "location": {"lat": 40.45918048245619, "lng": 124.07242172438802}, "feature": {"sight_features": "", "sight_content": ""}}, {"title": "御水温泉", "address": "丹东市凤城市迎宾街8号", "image": "", "rank": 10, "time": 2, "location": {"lat": 40.46376681744904, "lng": 124.07283315280311}, "feature": {"sight_features": "", "sight_content": ""}}, {"title": "攒云峰", "address": "丹东市凤城市区东南约4公里处凤凰山景区内", "image": "", "rank": 11, "time": 0.4, "location": {"lat": 40.45918048245619, "lng": 124.07242172438802}, "feature": {"sight_features": "", "sight_content": ""}}, {"title": "箭眼峰", "address": "丹东市凤城市区东南约4公里处凤凰山景区内", "image": "", "rank": 12, "time": 0.4, "location": {"lat": 40.45918048245619, "lng": 124.07242172438802}, "feature": {"sight_features": "", "sight_content": ""}}, {"title": "百步紧", "address": "丹东市凤城市区东南约4公里处凤凰山景区内", "image": "", "rank": 13, "time": 0.4, "location": {"lat": 40.45918048245619, "lng": 124.07242172438802}, "feature": {"sight_features": "", "sight_content": ""}}, {"title": "双龙背", "address": "丹东市凤城市区东南约4公里处凤凰山景区内", "image": "", "rank": 14, "time": 0.35, "location": {"lat": 40.45918048245619, "lng": 124.07242172438802}, "feature": {"sight_features": "", "sight_content": ""}}, {"title": "聚仙台", "address": "丹东市凤城市区东南约4公里处凤凰山景区内", "image": "", "rank": 15, "time": 0.4, "location": {"lat": 40.45918048245619, "lng": 124.07242172438802}, "feature": {"sight_features": "", "sight_content": ""}}, {"title": "凤凰山解放纪念塔", "address": "丹东市凤城市区东南约4公里处凤凰山景区内", "image": "", "rank": 16, "time": 0.4, "location": {"lat": 40.45918048245619, "lng": 124.07242172438802}, "feature": {"sight_features": "", "sight_content": ""}}, {"title": "天下绝", "address": "丹东市凤城市区东南约4公里处凤凰山景区内", "image": "", "rank": 17, "time": 0.3, "location": {"lat": 40.45918048245619, "lng": 124.07242172438802}, "feature": {"sight_features": "", "sight_content": ""}}, {"title": "丹东市光荣院", "address": "丹东市凤城市凤山区凤凰山脚下", "image": "", "rank": 18, "time": 1.0, "location": {"lat": 40.456130925024176, "lng": 124.06426129615224}, "feature": {"sight_features": "", "sight_content": ""}}, {"title": "凤凰山玻璃栈道", "address": "凤城市凤凰山景区内", "image": "", "rank": 19, "time": 2, "location": {"lat": 40.45918048245619, "lng": 124.07242172438802}, "feature": {"sight_features": "", "sight_content": ""}}, {"title": "凤凰洞", "address": "凤城市凤凰山景区", "image": "", "rank": 20, "time": 2, "location": {"lat": 40.45918048245619, "lng": 124.07242172438802}, "feature": {"sight_features": "", "sight_content": ""}}, {"title": "紫阳观", "address": "凤城市凤凰山", "image": "", "rank": 21, "time": 2, "location": {"lat": 40.42253743225071, "lng": 124.07769878058095}, "feature": {"sight_features": "", "sight_content": ""}}, {"title": "丹东清真寺", "address": "丹东市凤城市振兴街", "image": "", "rank": 22, "time": 1.0, "location": {"lat": 40.463723036383755, "lng": 124.07949149115836}, "feature": {"sight_features": "", "sight_content": ""}}, {"title": "新开岭战役纪念碑", "address": "丹东市凤城市爱阳镇富国村庙东堡后山岗", "image": "", "rank": 23, "time": 0.4, "location": {"lat": 40.90861344316291, "lng": 124.47605223052298}, "feature": {"sight_features": "", "sight_content": ""}}, {"title": "神马峰", "address": "丹东市凤城市区东南约4公里处凤凰山景区内", "image": "", "rank": 24, "time": 0.35, "location": {"lat": 40.45918048245619, "lng": 124.07242172438802}, "feature": {"sight_features": "", "sight_content": ""}}, {"title": "水沐年华", "address": "丹东市凤城天河湾F区水沐年华温泉（汗蒸会馆）", "image": "", "rank": 25, "time": 2, "location": {"lat": 40.454682156923916, "lng": 124.07189989871728}, "feature": {"sight_features": "", "sight_content": ""}}, {"title": "乾汤沐谷温泉", "address": "东汤镇197-24号", "image": "", "rank": 26, "time": 2, "location": {"lat": 40.44402491609952, "lng": 124.34332334064207}, "feature": {"sight_features": "", "sight_content": ""}}, {"title": "山清水秀温泉", "address": "东汤镇", "image": "", "rank": 27, "time": 2, "location": {"lat": 40.44402491609952, "lng": 124.34332334064207}, "feature": {"sight_features": "", "sight_content": ""}}, {"title": "山水庄园", "address": "大梨树", "image": "", "rank": 28, "time": 2, "location": {"lat": 43.22263643664887, "lng": 127.55642192703802}, "feature": {"sight_features": "", "sight_content": ""}}, {"title": "毛泽东像章陈列馆", "address": "五味子街", "image": "", "rank": 29, "time": 0.75, "location": {"lat": 40.40853173168335, "lng": 123.96902232705187}, "feature": {"sight_features": "", "sight_content": ""}}, {"title": "叆河温泉旅游度假山庄(东汤)", "address": "凤城东汤镇房木村内", "image": "", "rank": 30, "time": 2, "location": {"lat": 40.42526465756048, "lng": 124.36277220918758}, "feature": {"sight_features": "", "sight_content": ""}}, {"title": "钓友之家垂钓", "address": "三〇四国道附近", "image": "", "rank": 31, "time": 2, "location": {"lat": 27.60954250670255, "lng": 120.54159695642845}, "feature": {"sight_features": "", "sight_content": ""}}, {"title": "安阳温泉", "address": "闫土线东汤镇御圣泉南行200米", "image": "", "rank": 32, "time": 0.7, "location": {"lat": 40.42493336644882, "lng": 124.30503062758318}, "feature": {"sight_features": "", "sight_content": ""}}, {"title": "御圣泉温泉度假区", "address": "东汤镇东汤街御圣泉宾馆", "image": "", "rank": 33, "time": 2, "location": {"lat": 40.425073373831275, "lng": 124.31177553743706}, "feature": {"sight_features": "", "sight_content": ""}}, {"title": "水仙岛凤凰温泉商务宾馆", "address": "东汤镇宝达养生郡4号楼二层", "image": "", "rank": 34, "time": 2, "location": {"lat": 40.42125045586764, "lng": 124.31290592466706}, "feature": {"sight_features": "", "sight_content": ""}}, {"title": "东汤镇东方情温泉", "address": "东汤镇附近", "image": "", "rank": 35, "time": 2, "location": {"lat": 40.44402491609952, "lng": 124.34332334064207}, "feature": {"sight_features": "", "sight_content": ""}}, {"title": "清泉水足吧", "address": "聚宝小区32号楼", "image": "", "rank": 36, "time": 2, "location": {"lat": 45.696550768723796, "lng": 126.711882701426}, "feature": {"sight_features": "", "sight_content": ""}}, {"title": "康佳乐苹果园", "address": "凤山区老爷庙村六组", "image": "", "rank": 37, "time": 2, "location": {"lat": 39.542678277462954, "lng": 118.8880939738176}, "feature": {"sight_features": "", "sight_content": ""}}, {"title": "北山垂钓园", "address": "309省道附近", "image": "", "rank": 38, "time": 2, "location": {"lat": 40.709016096764906, "lng": 116.52743651721413}, "feature": {"sight_features": "", "sight_content": ""}}, {"title": "嘉惠蓝莓园", "address": "凤二线附近", "image": "", "rank": 39, "time": 2, "location": {"lat": 40.43489807850188, "lng": 123.87849220985852}, "feature": {"sight_features": "", "sight_content": ""}}, {"title": "百花院", "address": "草大线", "image": "", "rank": 40, "time": 2, "location": {"lat": 33.0185721742104, "lng": 120.6519834879451}, "feature": {"sight_features": "", "sight_content": ""}}, {"title": "啤酒广场", "address": "香吧佬熟食城附近", "image": "", "rank": 41, "time": 2, "location": {"lat": 39.7131688562072, "lng": 119.16947036501315}, "feature": {"sight_features": "", "sight_content": ""}}, {"title": "凤城城东教会", "address": "福海家园城东社区", "image": "", "rank": 42, "time": 4.5, "location": {"lat": 39.89203959128431, "lng": 116.03235786428178}, "feature": {"sight_features": "", "sight_content": ""}}, {"title": "大仙堂", "address": "丹东市凤城市市区东南3公里处中国凤凰山国家级风景名胜区内", "image": "", "rank": 43, "time": 2, "location": {"lat": 40.42253743225071, "lng": 124.07769878058095}, "feature": {"sight_features": "", "sight_content": ""}}, {"title": "斗母宫", "address": "丹东市凤城市市区东南3公里处中国凤凰山国家级风景名胜区西山景区内", "image": "", "rank": 44, "time": 1.5, "location": {"lat": 40.42253743225071, "lng": 124.07769878058095}, "feature": {"sight_features": "", "sight_content": ""}}, {"title": "年年有鱼水族馆", "address": "邓铁梅路42号附近", "image": "", "rank": 45, "time": 2, "location": {"lat": 40.465387251927694, "lng": 124.07844405435746}, "feature": {"sight_features": "", "sight_content": ""}}, {"title": "果果水上乐园", "address": "辽宁省丹东市凤城市平安村9队", "image": "", "rank": 46, "time": 2, "location": {"lat": 40.47019506196472, "lng": 124.17851537889787}, "feature": {"sight_features": "", "sight_content": ""}}, {"title": "圣龙达水族馆", "address": "富民路121-21号附近", "image": "", "rank": 47, "time": 2, "location": {"lat": 26.796422791222106, "lng": 112.09562818762939}, "feature": {"sight_features": "", "sight_content": ""}}, {"title": "李白山庄", "address": "辽宁省丹东市凤城市东汤镇闫土线圣泉湾温泉公寓A区附近", "image": "", "rank": 48, "time": 2, "location": {"lat": 40.427479671311644, "lng": 124.31147806446573}, "feature": {"sight_features": "", "sight_content": ""}}, {"title": "射手座音乐厅", "address": "通远路34号附近", "image": "", "rank": 49, "time": 2, "location": {"lat": 34.30844106067566, "lng": 109.06042997746161}, "feature": {"sight_features": "", "sight_content": ""}}, {"title": "通远堡镇", "address": "丹东市凤城市通远堡镇", "image": "", "rank": 50, "time": 2, "location": {"lat": 40.80219046766693, "lng": 123.93194539234815}, "feature": {"sight_features": "", "sight_content": ""}}, {"title": "古城墙遗址", "address": "丹东市凤城市市区东南3公里处中国凤凰山国家级风景名胜区东山景区内", "image": "", "rank": 51, "time": 2, "location": {"lat": 40.42253743225071, "lng": 124.07769878058095}, "feature": {"sight_features": "", "sight_content": ""}}, {"title": "彩虹岛儿童乐园", "address": "龙源路地下商场A区(烟草胡同口地下街)", "image": "", "rank": 52, "time": 2.5, "location": {"lat": 22.83160035272014, "lng": 108.32206623971496}, "feature": {"sight_features": "", "sight_content": ""}}, {"title": "鲁卡奇儿童乐园", "address": "天河湾小区商业街8号D1（第三医院斜对面）", "image": "", "rank": 53, "time": 2, "location": {"lat": 24.320796413079623, "lng": 116.11551114226714}, "feature": {"sight_features": "", "sight_content": ""}}, {"title": "三官殿", "address": "丹东市凤城市市区东南3公里处中国凤凰山国家级风景名胜区紫阳观内", "image": "", "rank": 54, "time": 2, "location": {"lat": 40.42253743225071, "lng": 124.07769878058095}, "feature": {"sight_features": "", "sight_content": ""}}, {"title": "财神殿", "address": "丹东市凤城市市区东南3公里处中国凤凰山国家级风景名胜区朝阳寺内", "image": "", "rank": 55, "time": 2, "location": {"lat": 40.42253743225071, "lng": 124.07769878058095}, "feature": {"sight_features": "", "sight_content": ""}}, {"title": "溥仪行宫旧址", "address": "辽宁省丹东市凤城市青城子中心卫生院附近", "image": "", "rank": 56, "time": 2, "location": {"lat": 40.74052158606057, "lng": 123.621600030948}, "feature": {"sight_features": "", "sight_content": ""}}, {"title": "美格林开心乐园", "address": "凤山街道邓铁梅路家家福超市二楼", "image": "", "rank": 57, "time": 2, "location": {"lat": 40.463983950869476, "lng": 124.07607116597998}, "feature": {"sight_features": "", "sight_content": ""}}, {"title": "烈士陵园", "address": "凤城市通庄街", "image": "", "rank": 58, "time": 2, "location": {"lat": 40.78910816831141, "lng": 123.9252735722238}, "feature": {"sight_features": "", "sight_content": ""}}, {"title": "凤城市鸡冠山基督教聚会点", "address": "前街99", "image": "", "rank": 59, "time": 4.5, "location": {"lat": 40.5252220215487, "lng": 123.93047337414289}, "feature": {"sight_features": "", "sight_content": ""}}]}