{"cityName": "凤冈", "days": 2, "cityImage": "", "spots": [{"title": "茶海之心景区", "address": "遵义市凤冈县永安镇田坝村", "image": "", "rank": 1, "time": 2, "location": {"lat": 28.083992052886725, "lng": 107.58068854019926}, "feature": {"sight_features": "", "sight_content": ""}}, {"title": "百里桂花水世界", "address": "遵义市凤冈县龙泉镇柏梓村羊红坝", "image": "", "rank": 2, "time": 2, "location": {"lat": 28.014711379295726, "lng": 107.7399756123452}, "feature": {"sight_features": "", "sight_content": ""}}, {"title": "仙人岭莓好食代草莓庄园", "address": "贵州省遵义市凤冈县X360", "image": "", "rank": 3, "time": 2, "location": {"lat": 27.960695338964733, "lng": 107.72354763025206}, "feature": {"sight_features": "", "sight_content": ""}}, {"title": "罗家祠堂", "address": "遵义市湄潭县", "image": "", "rank": 4, "time": 2, "location": {"lat": 27.754498364959613, "lng": 107.47259853018687}, "feature": {"sight_features": "", "sight_content": ""}}, {"title": "何家祠堂", "address": "遵义市凤冈县", "image": "", "rank": 5, "time": 2, "location": {"lat": 27.960695338964733, "lng": 107.72354763025206}, "feature": {"sight_features": "", "sight_content": ""}}, {"title": "凤冈·茶海之心景区", "address": "遵义市凤冈县永安镇田坝村", "image": "", "rank": 6, "time": 2, "location": {"lat": 28.083992052886725, "lng": 107.58068854019926}, "feature": {"sight_features": "", "sight_content": ""}}, {"title": "尚泉山庄", "address": "石径乡两河口村黑鸡沟", "image": "", "rank": 7, "time": 2, "location": {"lat": 27.982398008515265, "lng": 107.82244681428969}, "feature": {"sight_features": "", "sight_content": ""}}, {"title": "凤冈县锌硒茶乡艺术团", "address": "龙凤大道", "image": "", "rank": 8, "time": 2, "location": {"lat": 29.37485077248831, "lng": 118.06331942133855}, "feature": {"sight_features": "", "sight_content": ""}}, {"title": "金港城商业步行街", "address": "贵州省凤冈县和平路凤凰街附近", "image": "", "rank": 9, "time": 2, "location": {"lat": 27.97130777691563, "lng": 107.73276198105151}, "feature": {"sight_features": "", "sight_content": ""}}, {"title": "蚂蟥田", "address": "遵义市-凤冈县", "image": "", "rank": 10, "time": 2, "location": {"lat": 27.960695338964733, "lng": 107.72354763025206}, "feature": {"sight_features": "", "sight_content": ""}}, {"title": "毛鸡凼", "address": "遵义市-凤冈县", "image": "", "rank": 11, "time": 2, "location": {"lat": 27.960695338964733, "lng": 107.72354763025206}, "feature": {"sight_features": "", "sight_content": ""}}, {"title": "风冈县知青茶山景区", "address": "遵义市-凤冈县-352县道东50米", "image": "", "rank": 12, "time": 2, "location": {"lat": 27.88921109610721, "lng": 107.69853566079325}, "feature": {"sight_features": "", "sight_content": ""}}, {"title": "万佛山峡谷探险旅游景区", "address": "遵义市-凤冈县", "image": "", "rank": 13, "time": 2, "location": {"lat": 27.960695338964733, "lng": 107.72354763025206}, "feature": {"sight_features": "", "sight_content": ""}}, {"title": "九龙景区", "address": "遵义市凤冈县进化镇临江村", "image": "", "rank": 14, "time": 2.5, "location": {"lat": 27.839653863366266, "lng": 107.6779500423266}, "feature": {"sight_features": "", "sight_content": "凤冈九龙景区位于遵义市凤冈县，景区内有九龙庙、九龙洞、玻璃观景台、人工栈道等景点。"}}]}