{"cityName": "丰宁", "days": 2, "cityImage": "", "spots": [{"title": "丰宁坝上草原", "address": "承德市丰宁满族自治县大滩镇榆树沟", "image": "", "rank": 1, "time": 4.5, "location": {"lat": 41.56326813158973, "lng": 116.10746191274913}, "feature": {"sight_features": "特色1 距离北京近的天然草原", "sight_content": "位于河北丰宁坝上草原旅游自然保护区内，地处美丽的坝上草原腹地，相邻点将台、黄花岛、白桦林、小松林、闪电湖等旅游景点。坝上草原今日风情度假村为您提供吃、住、玩、行一条龙的服务，来坝上草原旅游、度假，呼吸新鲜空气，感受农家风情，这里是您最佳选择！\n游坝上丰宁坝上草原风景区是您感受自然，避暑度假的理想目的地，愿您踏上快乐的轻帆，来此挥洒工作的疲惫，享受人间的世外桃园吧！欢迎八方来客享受完美的坝上草原之旅，丰宁满族自治县今日风情度假村将给您生命过程增加无限的留恋！"}}, {"title": "千松坝森林公园", "address": "承德市丰宁满族自治县大滩镇千松坝国家森林公园（二道河子东行5公里）", "image": "", "rank": 2, "time": 2, "location": {"lat": 41.543709302846395, "lng": 116.24894618579154}, "feature": {"sight_features": "", "sight_content": ""}}, {"title": "情人谷", "address": "承德市丰宁县满族自治县大滩镇东沟村", "image": "", "rank": 3, "time": 1.5, "location": {"lat": 41.58289497725765, "lng": 116.02283232428113}, "feature": {"sight_features": "", "sight_content": ""}}, {"title": "喇嘛山风景区", "address": "河北省丰宁县城西北28公里处", "image": "", "rank": 4, "time": 2.25, "location": {"lat": 41.21533638000358, "lng": 116.65239270009364}, "feature": {"sight_features": "", "sight_content": ""}}, {"title": "丰宁坝上白桦林", "address": "河北省丰宁满族自治县大滩镇", "image": "", "rank": 5, "time": 2.0, "location": {"lat": 41.58289497725765, "lng": 116.02283232428113}, "feature": {"sight_features": "", "sight_content": ""}}, {"title": "中国马镇满韵骑风奇幻秀", "address": "承德市丰宁满族自治县大滩镇北-中国马镇", "image": "", "rank": 6, "time": 2, "location": {"lat": 41.58289497725765, "lng": 116.02283232428113}, "feature": {"sight_features": "", "sight_content": "《满韵骑风》以满族文化为背景，以先进的AR交互结合舞蹈剧的艺术手段为内涵支撑，充分展现萨满文化、图腾文化、马背文化之民族特点，是一台恢宏大气、惊险激越、又富有民族文化气息的视听饕餮盛宴。\n第一篇章《神火祭天地》\n天体宇宙混沌未开，大地裂变萨满出现，火山迸发，幻化出嶙峋山石，蛮荒的大地。\n‍第二篇章《满乡人意好》\n驯马的勇士归来人们欢拥而迎，夜色降临，萤火点点，草原精灵们一一出现。\n‍第三篇章《炫炫海东青》\n练习飞翔的雏鹰展翅出巢，远处飞来6只神鹰，雏鹰跟随着神鹰在空中翩翩起舞。\n‍第四篇章《卫国展雄风》\n号声响、战鼓擂，在震天威武的战鼓声中，声声催促大战来到。"}}, {"title": "京北第一天路白桦林狂欢谷", "address": "承德市丰宁满族自治县大滩镇二道河子", "image": "", "rank": 7, "time": 2.0, "location": {"lat": 41.12280000603198, "lng": 117.32111459232547}, "feature": {"sight_features": "", "sight_content": ""}}, {"title": "白音庄园", "address": "承德市丰宁县大滩镇白音庄园（距大滩镇6公里）", "image": "", "rank": 8, "time": 2, "location": {"lat": 41.63175909087867, "lng": 115.99481097925391}, "feature": {"sight_features": "", "sight_content": ""}}, {"title": "柳树沟森林公园", "address": "承德市丰宁满族自治县大滩镇二道河子", "image": "", "rank": 9, "time": 2.0, "location": {"lat": 41.12280000603198, "lng": 117.32111459232547}, "feature": {"sight_features": "", "sight_content": ""}}, {"title": "云雾山森林公园", "address": "河北省丰宁县城南20千米处", "image": "", "rank": 10, "time": 2, "location": {"lat": 41.21533638000358, "lng": 116.65239270009364}, "feature": {"sight_features": "", "sight_content": ""}}, {"title": "中国马镇舞马世界主题乐园", "address": "承德市丰宁满族自治县大滩镇北", "image": "", "rank": 11, "time": 1.5, "location": {"lat": 41.58289497725765, "lng": 116.02283232428113}, "feature": {"sight_features": "", "sight_content": "中国马镇舞马世界主题乐园是中国马镇草原旅游度假区以马文化&满文化为主题的特色主题乐园，景区以世界名马+精彩演艺+丰富娱乐项目为核心，打造坝上最豪华、最具体验感的主题乐园。\n广场区：天马广场、迎宾广场、民歌广场、英雄广场、八旗广场、喷泉广场。为打造最难忘的草原之旅。\n\n\n名马展示区：皇家马厩+皇马大巡游。中国马镇最华丽的项目之一，伴随哒哒的马蹄声，让您享受皇家贵族的优雅与乐趣。\n\n\n皇家牧场区：滑草、草原瞭望塔-热气球、萌马骑乘。趣味运动、浪漫合影、加上黄金时段的烟火秀，感受中国马镇的轻松和愉悦。\n\n\n亲子游乐区：太空飞车、海盗船、空中芭蕾、豪华转马等亲子游乐项目，带您找回欢乐童年。\n\n\n卡丁车区：儿童卡丁车、成人卡丁车。在中国马镇风景的簇拥中，享受加速的疾驰感受，风驰电掣，妙不可言地速度与激情。\n\n\n演艺区：《战神赵子龙》是由中国马镇原创，室外大型史诗级马战演艺，情景化再现历史英雄人物——战神赵子龙的英勇战役。一天多场次巡回演出，上百名名专业演员倾情演艺，惊心动魄的沙场厮杀，近距离的视觉效果，恍如穿越历史时空。"}}, {"title": "佛珠洞", "address": "河北省丰宁满族自治县喇嘛山风景区内", "image": "", "rank": 12, "time": 1.5, "location": {"lat": 41.37757805221718, "lng": 116.50057464475273}, "feature": {"sight_features": "", "sight_content": ""}}, {"title": "皇家鹿苑湿地公园", "address": "承德市丰宁县大滩镇", "image": "", "rank": 13, "time": 2, "location": {"lat": 41.58289497725765, "lng": 116.02283232428113}, "feature": {"sight_features": "特色1 别具特色", "sight_content": "皇家鹿苑湿地公园坐落于河北丰宁大滩镇，走进这片大草原，就会感受到那“草如毯、云如絮、风如情语、花如人面”的自然之美。置身高低仰望，似有天穹压落，云欲擦身之感。皇家鹿苑湿地公园有最具特色的文化旅游产品，大小共40多个项目，户外独特自由的旅行方式，皇家鹿苑多种精彩体验，带你走进草原腹地，一次领略湿地公园，草原湖泊等地貌，深度体验草原骑马，射箭篝火晚会，热气球，动力伞等，还有皇家鹿苑独有的彩虹滑梯、滑道废人精彩而又刺激......100%纯玩。\n皇家鹿苑湿地公园，欢迎您前来观光、旅游、独家、独特的塞外风情，让您度过一个完美的假期。"}}, {"title": "坝上草原嘉年华", "address": "承德市丰宁满族自治县大滩镇向北三公里", "image": "", "rank": 14, "time": 1.0, "location": {"lat": 41.603126516507714, "lng": 116.02283232428113}, "feature": {"sight_features": "", "sight_content": "京北第一草原”，著名的滦河就发源于此地，潺潺的河水浇灌得这里碧草连天、百花争艳，蒙古语称此地为“海留图”，意为水草丰美的地方。\n\n坝上草原嘉年华位于丰宁坝上草原附近，除了带你领略草原美景外，还有多种多样的娱乐活动，如滑草、高山滑水（暂未开放）、儿童乐园、碰碰车、旋转木马、欢乐杯、超级秋千、大力水手、果虫滑车、弹跳 飞人、射箭、高尔夫、拓展、真人CS等草原特色项目。\n走进这片大草原，就会感受到那“草如毯、云如絮、风如情语、花如人面”的自然之美，置身高地仰望，似有天穹压落，云欲擦身之感，放眼沼泽、滩地组成的旷垠原野，氤氲流升，繁花铺地，禽鸟飞鸣，骏马奔驰，不由会唱起那首北朝民歌“天苍苍，野茫茫，风吹草底现牛羊”。"}}, {"title": "滦河源度假村", "address": "丰宁满族自治县", "image": "", "rank": 15, "time": 2, "location": {"lat": 41.21533638000358, "lng": 116.65239270009364}, "feature": {"sight_features": "", "sight_content": ""}}, {"title": "福成游乐景区", "address": "承德市丰宁满族自治区大滩子镇狐山子村丰宁坝上草原", "image": "", "rank": 16, "time": 1.0, "location": {"lat": 41.585142499169464, "lng": 115.945314424705}, "feature": {"sight_features": "", "sight_content": ""}}, {"title": "龙行绿野游乐场", "address": "承德市丰宁满族自治县大滩镇抬头沟村", "image": "", "rank": 17, "time": 2, "location": {"lat": 41.607565220576284, "lng": 116.06463087221991}, "feature": {"sight_features": "", "sight_content": ""}}, {"title": "心怡度假庄园", "address": "张承高速公路", "image": "", "rank": 18, "time": 2, "location": {"lat": 41.17755432632113, "lng": 115.46746939467629}, "feature": {"sight_features": "", "sight_content": ""}}, {"title": "白云湖山庄", "address": "神龙湖度假村向南50米", "image": "", "rank": 19, "time": 2, "location": {"lat": 41.546921528543756, "lng": 116.1282495439623}, "feature": {"sight_features": "", "sight_content": ""}}, {"title": "九龙松", "address": "承德市丰宁满族自治县五道营乡", "image": "", "rank": 20, "time": 1.5, "location": {"lat": 41.273994003711984, "lng": 116.50188411277938}, "feature": {"sight_features": "", "sight_content": ""}}, {"title": "广丰佳苑农家院", "address": "大滩镇北梁村4组73号", "image": "", "rank": 21, "time": 2, "location": {"lat": 41.65648311146094, "lng": 116.05544837353419}, "feature": {"sight_features": "", "sight_content": ""}}, {"title": "燕山大峡谷", "address": "河北省承德市丰宁满族自治县", "image": "", "rank": 22, "time": 2, "location": {"lat": 41.21533638000358, "lng": 116.65239270009364}, "feature": {"sight_features": "", "sight_content": ""}}, {"title": "冰臼遗址公园", "address": "河北省丰宁满族自治县喇嘛山风景区内", "image": "", "rank": 23, "time": 2, "location": {"lat": 41.37757805221718, "lng": 116.50057464475273}, "feature": {"sight_features": "", "sight_content": ""}}, {"title": "甘露禅院", "address": "承德市丰宁满族自治县土城镇四间房村喇嘛山景区", "image": "", "rank": 24, "time": 0.75, "location": {"lat": 41.34505652748189, "lng": 116.53601261835857}, "feature": {"sight_features": "", "sight_content": ""}}, {"title": "海留图游乐园", "address": "承德市丰宁县大滩镇孤山子村", "image": "", "rank": 25, "time": 2, "location": {"lat": 41.561628245822405, "lng": 116.06659652726903}, "feature": {"sight_features": "", "sight_content": ""}}, {"title": "盛迪民俗游乐园", "address": "承德市丰宁县大滩镇村西", "image": "", "rank": 26, "time": 2, "location": {"lat": 41.58289497725765, "lng": 116.02283232428113}, "feature": {"sight_features": "", "sight_content": ""}}, {"title": "承德京北第一草原星河骑马度假村", "address": "承德承德丰宁大滩镇孤山子村界牌石组", "image": "", "rank": 27, "time": 4.5, "location": {"lat": 41.58008521913629, "lng": 116.05367027299758}, "feature": {"sight_features": "", "sight_content": ""}}, {"title": "坝上草原崔阿姨农家院", "address": "大滩镇北梁村王营子(近大滩草原)", "image": "", "rank": 28, "time": 4.5, "location": {"lat": 41.65648311146094, "lng": 116.05544837353419}, "feature": {"sight_features": "", "sight_content": ""}}, {"title": "丰宁假日农家乐", "address": "孤山子村(近半虎线)", "image": "", "rank": 29, "time": 2.0, "location": {"lat": 40.31495573144518, "lng": 117.93805964165779}, "feature": {"sight_features": "", "sight_content": ""}}, {"title": "游客人家", "address": "大滩镇孤山子村榆树沟(s244省道海流图娱乐场北侧)", "image": "", "rank": 30, "time": 2, "location": {"lat": 41.561628245822405, "lng": 116.06659652726903}, "feature": {"sight_features": "", "sight_content": ""}}, {"title": "福茂农业", "address": "黄旗镇西村黄旗中心卫生院西行100米", "image": "", "rank": 31, "time": 2, "location": {"lat": 41.467093137983355, "lng": 116.68638663950743}, "feature": {"sight_features": "", "sight_content": ""}}, {"title": "逍遥庄园不讲信用", "address": "丰宁坝上草原农家院大滩镇西四合泉村", "image": "", "rank": 32, "time": 2, "location": {"lat": 41.43187729276962, "lng": 116.0672909587503}, "feature": {"sight_features": "", "sight_content": ""}}, {"title": "九月庄园", "address": "滨河路", "image": "", "rank": 33, "time": 2, "location": {"lat": 39.008473205380874, "lng": 117.67714324450333}, "feature": {"sight_features": "", "sight_content": ""}}, {"title": "爱心庄园拓展露营基地", "address": "大滩镇东山湾", "image": "", "rank": 34, "time": 2, "location": {"lat": 41.567648788855614, "lng": 116.03046199140127}, "feature": {"sight_features": "", "sight_content": ""}}, {"title": "小曼庄园", "address": "中学对面胡同内10米(塞北园)", "image": "", "rank": 35, "time": 2, "location": {"lat": 34.66142109289655, "lng": 112.41742647960184}, "feature": {"sight_features": "", "sight_content": ""}}, {"title": "草原人游乐场", "address": "244省道", "image": "", "rank": 36, "time": 2, "location": {"lat": 41.647500974269505, "lng": 115.6109952071258}, "feature": {"sight_features": "", "sight_content": ""}}, {"title": "聚财源农家乐", "address": "宁风巷", "image": "", "rank": 37, "time": 2, "location": {"lat": 41.23090180443937, "lng": 116.64069721150649}, "feature": {"sight_features": "", "sight_content": ""}}, {"title": "冬阁艺术馆", "address": "爱民街25号", "image": "", "rank": 38, "time": 2, "location": {"lat": 41.21538076687079, "lng": 116.65331462834361}, "feature": {"sight_features": "", "sight_content": ""}}, {"title": "丰宁图书馆", "address": "宁丰路333号", "image": "", "rank": 39, "time": 1.5, "location": {"lat": 41.2130516597131, "lng": 116.65800050339229}, "feature": {"sight_features": "", "sight_content": ""}}, {"title": "洪汤寺温泉", "address": "洪汤寺", "image": "", "rank": 40, "time": 2, "location": {"lat": 41.12856980424599, "lng": 116.50778343957195}, "feature": {"sight_features": "", "sight_content": ""}}, {"title": "天下第一冰臼洞", "address": "二四四省道", "image": "", "rank": 41, "time": 2, "location": {"lat": 41.647500974269505, "lng": 115.6109952071258}, "feature": {"sight_features": "", "sight_content": ""}}, {"title": "青青草原", "address": "大摊镇元山子村", "image": "", "rank": 42, "time": 2, "location": {"lat": 41.079973937415794, "lng": 114.83095355967295}, "feature": {"sight_features": "", "sight_content": ""}}, {"title": "王府山庄", "address": "半虎线", "image": "", "rank": 43, "time": 2, "location": {"lat": 40.907593506316914, "lng": 117.01195681775866}, "feature": {"sight_features": "", "sight_content": ""}}, {"title": "大摊果子农家乐", "address": "张家口大摊镇", "image": "", "rank": 44, "time": 2, "location": {"lat": 40.7732372026915, "lng": 114.89257223145165}, "feature": {"sight_features": "", "sight_content": ""}}, {"title": "坝上草原金秀庄园", "address": "大滩镇抬头沟村", "image": "", "rank": 45, "time": 4.5, "location": {"lat": 41.607565220576284, "lng": 116.06463087221991}, "feature": {"sight_features": "", "sight_content": ""}}, {"title": "可野营地马场", "address": "大摊镇西四合泉村", "image": "", "rank": 46, "time": 2, "location": {"lat": 41.43187729276962, "lng": 116.0672909587503}, "feature": {"sight_features": "", "sight_content": ""}}, {"title": "丰宁满族自治县凤伟农家乐", "address": "承德市丰宁满族自治县大滩镇坝上草原抬头沟村", "image": "", "rank": 47, "time": 2.0, "location": {"lat": 41.60553966710332, "lng": 115.98735152934994}, "feature": {"sight_features": "", "sight_content": ""}}, {"title": "承德丰宁坝上裕燕农家院", "address": "承德丰宁满族自治县大滩镇北梁村四组56号", "image": "", "rank": 48, "time": 4.5, "location": {"lat": 41.65648311146094, "lng": 116.05544837353419}, "feature": {"sight_features": "", "sight_content": ""}}, {"title": "云起旅游度假庄园", "address": "颁金山庄向西50米", "image": "", "rank": 49, "time": 2, "location": {"lat": 41.56330308786824, "lng": 116.0694864991625}, "feature": {"sight_features": "", "sight_content": ""}}, {"title": "丰宁满族自治县云静度假村", "address": "河北省承德市丰宁满族自治县大滩镇扎拉营村", "image": "", "rank": 50, "time": 2, "location": {"lat": 41.60441646741029, "lng": 115.98712908554971}, "feature": {"sight_features": "", "sight_content": ""}}, {"title": "丰宁民族文化广场", "address": "河北省承德市丰宁满族自治县大阁镇G111(旧)民族文化广场", "image": "", "rank": 51, "time": 2.0, "location": {"lat": 40.93877864205986, "lng": 117.33901618173178}, "feature": {"sight_features": "", "sight_content": ""}}, {"title": "骑马假日", "address": "河北省承德市丰宁满族自治县大滩镇京北第一草原（S244省道旁）", "image": "", "rank": 52, "time": 2, "location": {"lat": 41.63505205262463, "lng": 115.95014021173516}, "feature": {"sight_features": "", "sight_content": ""}}, {"title": "小白桦度假村", "address": "晓平度假城斜对面", "image": "", "rank": 53, "time": 2, "location": {"lat": 41.59677317623256, "lng": 116.01905316647523}, "feature": {"sight_features": "", "sight_content": ""}}, {"title": "坝上草原马术俱乐部", "address": "大滩镇元山子村", "image": "", "rank": 54, "time": 4.5, "location": {"lat": 41.6412047605964, "lng": 116.00099657535148}, "feature": {"sight_features": "", "sight_content": ""}}, {"title": "秀莲剪纸艺术馆", "address": "河北省丰宁满族自治县福兴快餐附近", "image": "", "rank": 55, "time": 2, "location": {"lat": 41.21657970820609, "lng": 116.66079410237572}, "feature": {"sight_features": "", "sight_content": ""}}, {"title": "丰宁九号院度假村", "address": "丰宁大滩镇北庙牧场大汉行宫风景区对面", "image": "", "rank": 56, "time": 2, "location": {"lat": 41.63831659851111, "lng": 115.97654087348673}, "feature": {"sight_features": "", "sight_content": ""}}, {"title": "承德草原乐野旅游度假庄园", "address": "承德市二道河子村前街", "image": "", "rank": 57, "time": 4.5, "location": {"lat": 41.02673226399846, "lng": 117.97727026933762}, "feature": {"sight_features": "", "sight_content": ""}}, {"title": "燕京山庄度假村（丰宁坝上）", "address": "河北承德丰宁大滩镇扎拉营生态旅游村", "image": "", "rank": 58, "time": 2, "location": {"lat": 41.60608377967676, "lng": 115.99064550785836}, "feature": {"sight_features": "", "sight_content": ""}}, {"title": "承德丰宁坝上草原纵马欢歌度假庄...", "address": "承德市丰宁满族自治县北庙牧场京北第一草原大汗行宫对面", "image": "", "rank": 59, "time": 4.5, "location": {"lat": 41.63505205262463, "lng": 115.95014021173516}, "feature": {"sight_features": "", "sight_content": ""}}, {"title": "高山索道", "address": "承德市丰宁满族自治县大滩镇", "image": "", "rank": 60, "time": 2, "location": {"lat": 41.58289497725765, "lng": 116.02283232428113}, "feature": {"sight_features": "", "sight_content": ""}}]}