{"cityName": "封开", "days": 2, "cityImage": "", "spots": [{"title": "封开国家地质公园", "address": "肇庆市封开县河儿口镇龙山景区", "image": "", "rank": 1, "time": 4.5, "location": {"lat": 23.521110289633633, "lng": 111.81026039967257}, "feature": {"sight_features": "特色1 能看到石灰岩、沙页岩、花岗岩等形成的多种地质地貌，很壮观，适合拍照。 这里有多个溶洞，结合五彩灯光效果，看喀斯特地貌的奇观。", "sight_content": "龙山景区是省级风景名胜区，素有“广东小桂林”美誉，占地面积129.3公顷。景区内有山青水秀，鸟语花香，山水映辉所衬托出的一片片迷人景色；有独一无二，鬼斧神工所雕的石灰石溶岩神奇景观；还有多种或轻松写意或紧张刺激的旅游运动，进入景区会使你有如回归大自然的怀抱，重拾清新、梦幻、生动的感觉。\n大斑石景区位于广东省封开县杏花镇古广信河畔，是一个集攀登揽胜、健身娱乐、休闲美食于一体的生态旅游景区。景区内有大斑石、天下第一石棋盘、盘古神坛、圣妃泉、圣妃宫、石趣园、如意榕、柳叶塘、鸳鸯亭、投石问路、石畔回廊、攀岩胜地、白马远眺、刘三妹对歌台等景点以及登石攀岩、健身道、祈福许愿等项目。\n杨池古村，山青水秀，景色怡人，民风淳朴，村民知书达礼，热情好客，实属是当今罕有的\"世外桃源\"。杨池，座落在广东省封开县罗董镇，是一个峰峦环抱、绿树掩映的美丽山村，村中石板砌道，曲径相连，奇花异卉；村前禾田绿畴，果树飘香，小溪流过；整个环境清雅和谐，民风淳朴，文风浓厚，一幅世外桃源般的景致。\n封开山明水秀峰亦奇。千层峰乃奇峰也。它位于渔涝镇罗源村黄岗河畔，深山野岭之中。一进入千层峰所在地，河水潺潺，山峦竞秀。千层峰，矗立河边，其状与通常所见的山峰不同：此峰由无数色彩斑谰的页岩重迭构成，故有此名。由重重叠叠的色彩斑澜的砂页岩和局部钙质页岩构成，属砂岩峰林地貌，形成于三亿八千万年前的泥盘纪。它还是我国最古老的造山运动――嘉理东造山运动所造成的山峰，是广东两个嘉理东造山运动的标准地之一。这里群峰耸立，苍翠欲滴，主峰高233米，如倚天长剑，直插云霄，奇伟险峻。山虽不高，但却集“黄山之奇、华山之险、庐山之秀、峨眉之幽”于一身。"}}, {"title": "龙山景区", "address": "肇庆市封开县河儿口镇", "image": "", "rank": 2, "time": 2.0, "location": {"lat": 23.52165998120341, "lng": 111.80367979439019}, "feature": {"sight_features": "", "sight_content": ""}}, {"title": "大斑石", "address": "肇庆市封开县封开国家地质公园内，位于杏花镇斑石村", "image": "", "rank": 3, "time": 0.75, "location": {"lat": 23.51582807674657, "lng": 111.80828067266829}, "feature": {"sight_features": "", "sight_content": ""}}, {"title": "千层峰", "address": "肇庆市封开县封开国家地质公园内，渔涝镇东南8公里的黄岗河畔。", "image": "", "rank": 4, "time": 1.5, "location": {"lat": 23.51582807674657, "lng": 111.80828067266829}, "feature": {"sight_features": "", "sight_content": ""}}, {"title": "黄岩洞景区", "address": "肇庆市封开县封开国家地质公园内，位于渔涝镇狮子岩西南山麓", "image": "", "rank": 5, "time": 1.5, "location": {"lat": 23.51582807674657, "lng": 111.80828067266829}, "feature": {"sight_features": "", "sight_content": ""}}, {"title": "杨池古村", "address": "肇庆市封开县八一七县道杨池段", "image": "", "rank": 6, "time": 3.5, "location": {"lat": 23.31775455274194, "lng": 111.64351444355759}, "feature": {"sight_features": "", "sight_content": ""}}, {"title": "黑石顶自然保护区", "address": "肇庆市封开县东南部七星镇内", "image": "", "rank": 7, "time": 2.5, "location": {"lat": 23.46437348210015, "lng": 111.94550974073582}, "feature": {"sight_features": "", "sight_content": ""}}, {"title": "黄岩洞陈列馆", "address": "肇庆市封开县封开国家地质公园黄岩洞景区，位于渔涝镇狮子岩西南山麓", "image": "", "rank": 8, "time": 1.5, "location": {"lat": 23.51582807674657, "lng": 111.80828067266829}, "feature": {"sight_features": "", "sight_content": ""}}, {"title": "娇姨农场", "address": "千层峰地质公园", "image": "", "rank": 9, "time": 2, "location": {"lat": 23.486195324328506, "lng": 111.8049469710913}, "feature": {"sight_features": "", "sight_content": ""}}, {"title": "封开县图书馆", "address": "江口镇府前路封开文化中心五楼", "image": "", "rank": 10, "time": 2, "location": {"lat": 23.425171338445843, "lng": 111.5154927482523}, "feature": {"sight_features": "", "sight_content": ""}}, {"title": "莲都画廊建材店", "address": "266省道西50米", "image": "", "rank": 11, "time": 2, "location": {"lat": 39.9902091890959, "lng": 119.72454238825993}, "feature": {"sight_features": "", "sight_content": ""}}, {"title": "封开影剧院", "address": "河堤一路与红卫路交汇处向南100米", "image": "", "rank": 12, "time": 2, "location": {"lat": 21.612090656864616, "lng": 110.28820210352386}, "feature": {"sight_features": "", "sight_content": ""}}, {"title": "泰新桥", "address": "广东省封开县平凤镇新村 526500", "image": "", "rank": 13, "time": 0.75, "location": {"lat": 23.33417390062603, "lng": 111.45133518215737}, "feature": {"sight_features": "", "sight_content": ""}}, {"title": "封开县华昇曲艺社", "address": "东方二路附近", "image": "", "rank": 14, "time": 2, "location": {"lat": 41.841646378317165, "lng": 123.52059502652494}, "feature": {"sight_features": "", "sight_content": ""}}, {"title": "丰寿寺", "address": "广东省肇庆市封开县铜佛头山顶", "image": "", "rank": 15, "time": 2, "location": {"lat": 23.29555810439721, "lng": 111.97104124788106}, "feature": {"sight_features": "", "sight_content": ""}}, {"title": "潼潼儿童乐园", "address": "广东省肇庆市封开县江口镇三元一路教师村附近", "image": "", "rank": 16, "time": 2, "location": {"lat": 23.41834733600226, "lng": 111.51508655156863}, "feature": {"sight_features": "", "sight_content": ""}}, {"title": "广信北帝庙", "address": "东方二路21号附近", "image": "", "rank": 17, "time": 2, "location": {"lat": 23.444191413781418, "lng": 111.51203748168562}, "feature": {"sight_features": "", "sight_content": ""}}, {"title": "古镇宫", "address": "广东省肇庆市封开县S351", "image": "", "rank": 18, "time": 2, "location": {"lat": 23.429768921261136, "lng": 111.51852585255149}, "feature": {"sight_features": "", "sight_content": ""}}, {"title": "莲都文化广场", "address": "肇庆市封开县", "image": "", "rank": 19, "time": 2, "location": {"lat": 23.429768921261136, "lng": 111.51852585255149}, "feature": {"sight_features": "", "sight_content": ""}}, {"title": "白垢森林公园", "address": "805乡道附近", "image": "", "rank": 20, "time": 2, "location": {"lat": 39.85924996648715, "lng": 116.69059628597473}, "feature": {"sight_features": "", "sight_content": ""}}, {"title": "封州广场", "address": "江口镇大塘一路", "image": "", "rank": 21, "time": 2, "location": {"lat": 23.452370981317593, "lng": 111.50833400791676}, "feature": {"sight_features": "", "sight_content": ""}}, {"title": "革命烈士纪念碑", "address": "河堤二路附近", "image": "", "rank": 22, "time": 0.4, "location": {"lat": 23.44874977946758, "lng": 111.50374222138873}, "feature": {"sight_features": "", "sight_content": ""}}, {"title": "封开县林业局麒麟山森林公园护林...", "address": "广东省肇庆市封开县", "image": "", "rank": 23, "time": 2, "location": {"lat": 23.429768921261136, "lng": 111.51852585255149}, "feature": {"sight_features": "", "sight_content": ""}}, {"title": "卧龙山庄", "address": "800乡道", "image": "", "rank": 24, "time": 2, "location": {"lat": 23.408584516108437, "lng": 113.42189185800665}, "feature": {"sight_features": "", "sight_content": ""}}, {"title": "封开县城建档案室", "address": "大塘一路26号", "image": "", "rank": 25, "time": 2, "location": {"lat": 23.44587061311545, "lng": 111.50779618881491}, "feature": {"sight_features": "", "sight_content": ""}}, {"title": "莫宣卿状元故里", "address": "河儿口镇西村", "image": "", "rank": 26, "time": 2, "location": {"lat": 23.518573561219615, "lng": 111.78747335868998}, "feature": {"sight_features": "", "sight_content": ""}}, {"title": "封开县文化馆蓓蕾幼儿园", "address": "江口镇江口河堤路", "image": "", "rank": 27, "time": 2, "location": {"lat": 27.70592169504263, "lng": 108.84540005923948}, "feature": {"sight_features": "", "sight_content": ""}}, {"title": "风雅颂画廊", "address": "康怡花园01", "image": "", "rank": 28, "time": 2, "location": {"lat": 23.437204381824472, "lng": 111.51822578078242}, "feature": {"sight_features": "", "sight_content": ""}}, {"title": "声韵曲艺社", "address": "东方二路附近", "image": "", "rank": 29, "time": 2, "location": {"lat": 41.841646378317165, "lng": 123.52059502652494}, "feature": {"sight_features": "", "sight_content": ""}}, {"title": "封开县山茶花民间艺术团", "address": "东堤路19号附近", "image": "", "rank": 30, "time": 2, "location": {"lat": 23.4396946701991, "lng": 111.51052870302276}, "feature": {"sight_features": "", "sight_content": ""}}, {"title": "封开古城墙 Fengkai Ancient Cit...", "address": "广东省封开县江口镇", "image": "", "rank": 31, "time": 2, "location": {"lat": 23.462666889065005, "lng": 111.53531432374737}, "feature": {"sight_features": "", "sight_content": ""}}, {"title": "肇庆黑石顶保护区 Heishiding Na...", "address": "广东省封开县河儿口镇", "image": "", "rank": 32, "time": 2.5, "location": {"lat": 23.52165998120341, "lng": 111.80367979439019}, "feature": {"sight_features": "", "sight_content": ""}}, {"title": "状元墓", "address": "广东省封开县河儿口镇西村", "image": "", "rank": 33, "time": 2, "location": {"lat": 23.518573561219615, "lng": 111.78747335868998}, "feature": {"sight_features": "", "sight_content": ""}}, {"title": "肇庆封开龙山", "address": "广东省封开县龙山风景区", "image": "", "rank": 34, "time": 2, "location": {"lat": 23.429768921261136, "lng": 111.51852585255149}, "feature": {"sight_features": "", "sight_content": ""}}, {"title": "肇庆小三峡", "address": "广东省德庆县西江", "image": "", "rank": 35, "time": 2.5, "location": {"lat": 23.146921323714025, "lng": 111.86664936222822}, "feature": {"sight_features": "", "sight_content": ""}}, {"title": "肇庆岭南奇境封开", "address": "广东省封开县河儿口镇", "image": "", "rank": 36, "time": 2.5, "location": {"lat": 23.52165998120341, "lng": 111.80367979439019}, "feature": {"sight_features": "", "sight_content": ""}}, {"title": "清溪庄水上乐园", "address": "肇庆市-封开县-南丰镇万禄村", "image": "", "rank": 37, "time": 2, "location": {"lat": 23.75080695083792, "lng": 111.80636228465912}, "feature": {"sight_features": "", "sight_content": ""}}]}