{"cityName": "分宜", "days": 2, "cityImage": "", "spots": [{"title": "中国洞都", "address": "新余市分宜县东北部洞村乡境内", "image": "", "rank": 1, "time": 2.5, "location": {"lat": 28.01027387268829, "lng": 114.827342072639}, "feature": {"sight_features": "", "sight_content": ""}}, {"title": "严嵩故里", "address": "江西省新余市分宜县城郊东南角", "image": "", "rank": 2, "time": 2, "location": {"lat": 27.820731344374416, "lng": 114.69847247035635}, "feature": {"sight_features": "", "sight_content": ""}}, {"title": "分宜县图书馆", "address": "天工北大道47附近", "image": "", "rank": 3, "time": 2, "location": {"lat": 27.819582612339754, "lng": 114.90406321890423}, "feature": {"sight_features": "", "sight_content": ""}}, {"title": "长治古城", "address": "山西省屯留县屯留县境内 046100", "image": "", "rank": 4, "time": 1.5, "location": {"lat": 36.34260975107634, "lng": 112.75036278967234}, "feature": {"sight_features": "", "sight_content": ""}}, {"title": "东湖百菜园", "address": "岭北东路118号(分宜县体育馆)", "image": "", "rank": 5, "time": 2, "location": {"lat": 27.827525966972804, "lng": 114.69980944270065}, "feature": {"sight_features": "", "sight_content": ""}}, {"title": "桥边沙场", "address": "江西省新余市分宜县X291", "image": "", "rank": 6, "time": 2, "location": {"lat": 27.820731344374416, "lng": 114.69847247035635}, "feature": {"sight_features": "", "sight_content": ""}}, {"title": "金栗禅寺", "address": "江西省新余市分宜县分宜镇石门森林公园北350米", "image": "", "rank": 7, "time": 2, "location": {"lat": 27.80466793570312, "lng": 114.67303406898395}, "feature": {"sight_features": "", "sight_content": ""}}, {"title": "清风亭", "address": "江西省新余市分宜县钤山西路", "image": "", "rank": 8, "time": 2, "location": {"lat": 27.81939145486191, "lng": 114.67805986373423}, "feature": {"sight_features": "", "sight_content": ""}}, {"title": "基督教堂", "address": "307县道附近", "image": "", "rank": 9, "time": 2.0, "location": {"lat": 34.230589100612704, "lng": 117.37898801014482}, "feature": {"sight_features": "", "sight_content": ""}}, {"title": "基督教堂", "address": "303县道附近", "image": "", "rank": 10, "time": 2.0, "location": {"lat": 31.672789553142973, "lng": 120.34790344096838}, "feature": {"sight_features": "", "sight_content": ""}}, {"title": "天工美食文化广场", "address": "钤东办事处东环大道美食文化广场", "image": "", "rank": 11, "time": 2, "location": {"lat": 27.81868711373427, "lng": 114.70373312708215}, "feature": {"sight_features": "", "sight_content": ""}}, {"title": "圣集寺", "address": "圣集寺(东南门)附近", "image": "", "rank": 12, "time": 2, "location": {"lat": 27.74210134877204, "lng": 114.75270806345269}, "feature": {"sight_features": "", "sight_content": ""}}, {"title": "钤山镇湿地公园", "address": "239省道附近", "image": "", "rank": 13, "time": 2, "location": {"lat": 31.924010648137532, "lng": 119.82352882833763}, "feature": {"sight_features": "", "sight_content": ""}}, {"title": "石门森林公园", "address": "259乡道附近", "image": "", "rank": 14, "time": 2.5, "location": {"lat": 40.175047081771666, "lng": 116.88441827602962}, "feature": {"sight_features": "", "sight_content": ""}}, {"title": "严氏宗祠", "address": "介桥村附近", "image": "", "rank": 15, "time": null, "location": {"lat": 27.8010694299792, "lng": 114.69103969114543}, "feature": {"sight_features": "", "sight_content": ""}}, {"title": "基督教堂", "address": "新余市分宜县", "image": "", "rank": 16, "time": 2.0, "location": {"lat": 27.820731344374416, "lng": 114.69847247035635}, "feature": {"sight_features": "", "sight_content": ""}}, {"title": "金塘广场", "address": "559县道附近", "image": "", "rank": 17, "time": 2, "location": {"lat": 23.9908809227253, "lng": 117.01825823550703}, "feature": {"sight_features": "", "sight_content": ""}}, {"title": "新世纪广场", "address": "220乡道附近", "image": "", "rank": 18, "time": 1.0, "location": {"lat": 34.57398676576256, "lng": 117.11938445505251}, "feature": {"sight_features": "", "sight_content": ""}}, {"title": "东谊友好生态园", "address": "324省道", "image": "", "rank": 19, "time": 2, "location": {"lat": 34.101022772229115, "lng": 117.56430801824291}, "feature": {"sight_features": "", "sight_content": ""}}, {"title": "桃园洞", "address": "302县道", "image": "", "rank": 20, "time": 2, "location": {"lat": 39.16745502495015, "lng": 116.01802722522686}, "feature": {"sight_features": "", "sight_content": ""}}, {"title": "游乐场", "address": "钤山西路432号", "image": "", "rank": 21, "time": 2, "location": {"lat": 27.81951378822864, "lng": 114.6756592832936}, "feature": {"sight_features": "", "sight_content": ""}}, {"title": "童星乐园", "address": "府前路梦时代广场北", "image": "", "rank": 22, "time": 2, "location": {"lat": 27.815537225865036, "lng": 114.68269586845268}, "feature": {"sight_features": "", "sight_content": ""}}, {"title": "奥乐奥儿童乐园", "address": "金豪财富广场青龙商厦3楼奥乐奥儿童乐园", "image": "", "rank": 23, "time": 2, "location": {"lat": 31.35802349893344, "lng": 121.58352031997585}, "feature": {"sight_features": "", "sight_content": ""}}, {"title": "勇士乐园", "address": "金豪财富广场二楼", "image": "", "rank": 24, "time": 4.0, "location": {"lat": 27.822834479572286, "lng": 114.68606857804812}, "feature": {"sight_features": "", "sight_content": ""}}, {"title": "阳光儿童水上乐园(钤山西路店)", "address": "钤山西路钤山公园游乐场往北100米", "image": "", "rank": 25, "time": 2, "location": {"lat": 27.82128761637732, "lng": 114.67555552361739}, "feature": {"sight_features": "", "sight_content": ""}}, {"title": "嘟嘟冒险岛(钤阳西路店)", "address": "钤阳西路家家乐超市2楼", "image": "", "rank": 26, "time": 2, "location": {"lat": 27.81355938477233, "lng": 114.68133032460334}, "feature": {"sight_features": "", "sight_content": ""}}, {"title": "分宜大路葡萄生态园", "address": "X308集贤小学东北侧", "image": "", "rank": 27, "time": 2, "location": {"lat": 27.95145263435464, "lng": 114.78595063946592}, "feature": {"sight_features": "", "sight_content": ""}}, {"title": "万年桥", "address": "江西省分宜县钤阳湖南部", "image": "", "rank": 28, "time": 0.5, "location": {"lat": 27.820731344374416, "lng": 114.69847247035635}, "feature": {"sight_features": "", "sight_content": ""}}, {"title": "下麻田", "address": "新余市-分宜县-岭南路", "image": "", "rank": 29, "time": 2, "location": {"lat": 27.820731344374416, "lng": 114.69847247035635}, "feature": {"sight_features": "", "sight_content": ""}}]}