{"cityName": "佛坪", "days": 2, "cityImage": "", "spots": [{"title": "佛坪自然保护区", "address": "汉中市佛坪县黄家弯路89号", "image": "", "rank": 1, "time": 2.0, "location": {"lat": 33.530693101587694, "lng": 107.99742428443454}, "feature": {"sight_features": "", "sight_content": ""}}, {"title": "佛坪熊猫谷", "address": "汉中市佛坪县城北20公里处108国道旁", "image": "", "rank": 2, "time": 3.0, "location": {"lat": 33.59180879007452, "lng": 107.99181517499969}, "feature": {"sight_features": "特色1 “秦岭之窗，熊猫家园”", "sight_content": "﻿    佛坪熊猫谷景区地处秦岭大熊猫走廊带和观音山自然保护区境内，珍稀野生动植物资源极其丰富。景区内峰岭叠嶂，溪水清澈，奇石灵异，林木葱郁，山花堆聚，时而碧潭映石，时而飞瀑跌雪，时而峭壁陡立，时而曲径通幽。\n触耳溪鸣鸟叫，使人心旷神怡。三叠泉、二龙戏珠、女儿滩、双心池等景点浑然天成，三圣峰、母女峰、栖云峰等天趣神功。\n秦岭大熊猫野化基地中，熊猫憨态可掬；金丝猴大峡谷里，金丝猴群在树枝灵俏飞跃；红腹锦鸡园内红腹锦鸡等雉鸡美丽惊艳。景区集秦岭山水之幽、静、秀、奇和珍稀动植物于一谷。\n“秦岭之窗、熊猫家园”的美名远扬，是踏青、休闲、避暑、养生、摄影、娱乐的最佳去处。"}}, {"title": "观音山大熊猫自然保护区", "address": "陕西省汉中市佛坪县108国道", "image": "", "rank": 3, "time": 2, "location": {"lat": 33.59180879007452, "lng": 107.99181517499969}, "feature": {"sight_features": "", "sight_content": ""}}, {"title": "东山公园", "address": "新街", "image": "", "rank": 4, "time": 2, "location": {"lat": 39.62751344073718, "lng": 118.17853449237306}, "feature": {"sight_features": "", "sight_content": ""}}, {"title": "佛坪县绿苑农家乐", "address": "108国道", "image": "", "rank": 5, "time": 2, "location": {"lat": 36.13357010619177, "lng": 111.55186297208911}, "feature": {"sight_features": "", "sight_content": ""}}, {"title": "秦岭", "address": "陕西省佛坪县境内 723400", "image": "", "rank": 6, "time": 3.0, "location": {"lat": 33.530693101587694, "lng": 107.99742428443454}, "feature": {"sight_features": "", "sight_content": ""}}, {"title": "观音寺", "address": "汉中市佛坪县", "image": "", "rank": 7, "time": 2.0, "location": {"lat": 33.530693101587694, "lng": 107.99742428443454}, "feature": {"sight_features": "", "sight_content": ""}}, {"title": "六·九抗洪纪念碑", "address": "河堤街4号斜对面", "image": "", "rank": 8, "time": 2, "location": {"lat": 45.80919714306764, "lng": 126.72961710090581}, "feature": {"sight_features": "", "sight_content": ""}}, {"title": "人口文化公园", "address": "陕西省汉中市佛坪县黄家湾路73", "image": "", "rank": 9, "time": 2, "location": {"lat": 33.52011856816417, "lng": 107.99257734230963}, "feature": {"sight_features": "", "sight_content": ""}}, {"title": "佛坪国家自然保护区避暑山庄", "address": "振兴北路", "image": "", "rank": 10, "time": 2.0, "location": {"lat": 39.79256486320377, "lng": 116.40393575814224}, "feature": {"sight_features": "", "sight_content": ""}}, {"title": "秦岭人与自然博物馆", "address": "黄家湾路佛坪国家级自然保护区管理局院内", "image": "", "rank": 11, "time": 2, "location": {"lat": 33.51776852579938, "lng": 107.99351067993788}, "feature": {"sight_features": "", "sight_content": ""}}, {"title": "佛坪县图书馆", "address": "袁家庄镇河堤街55号", "image": "", "rank": 12, "time": 2, "location": {"lat": 33.52865958877814, "lng": 107.99470303228196}, "feature": {"sight_features": "", "sight_content": ""}}, {"title": "汉中佛坪大熊猫保护区", "address": "陕西省佛坪县境内", "image": "", "rank": 13, "time": 2.5, "location": {"lat": 33.530693101587694, "lng": 107.99742428443454}, "feature": {"sight_features": "", "sight_content": ""}}]}