{"cityName": "福安", "days": 2, "cityImage": "", "spots": [{"title": "廉村", "address": "宁德市福安市溪潭镇", "image": "", "rank": 1, "time": 2, "location": {"lat": 27.00689345037506, "lng": 119.62489615133364}, "feature": {"sight_features": "", "sight_content": ""}}, {"title": "福安狮峰寺", "address": "福建省福安市溪柄镇", "image": "", "rank": 2, "time": 2, "location": {"lat": 27.012254606245147, "lng": 119.7450849792218}, "feature": {"sight_features": "", "sight_content": ""}}, {"title": "天马山风景区", "address": "福建省宁德市福安市", "image": "", "rank": 3, "time": null, "location": {"lat": 27.094323508059915, "lng": 119.65440636047963}, "feature": {"sight_features": "", "sight_content": ""}}, {"title": "赛歧欢乐水世界", "address": "104国道赛歧高速收费站对面", "image": "", "rank": 4, "time": 2, "location": {"lat": 33.07291536884964, "lng": 112.61451301698173}, "feature": {"sight_features": "", "sight_content": ""}}, {"title": "福安图书馆", "address": "漫洪路", "image": "", "rank": 5, "time": 1.5, "location": {"lat": 27.088290930789988, "lng": 119.64957311751535}, "feature": {"sight_features": "", "sight_content": ""}}, {"title": "御兰芳温泉", "address": "新华南路54-14号（土地局斜对面）", "image": "", "rank": 6, "time": 2, "location": {"lat": 27.086539696359978, "lng": 119.6568630463875}, "feature": {"sight_features": "", "sight_content": ""}}, {"title": "绿森美农业", "address": "鹤西路101-1号", "image": "", "rank": 7, "time": 2, "location": {"lat": 31.803406571941235, "lng": 119.84792313102079}, "feature": {"sight_features": "", "sight_content": ""}}, {"title": "福安市中茗天富农业有限公司", "address": "新华南路114号附近", "image": "", "rank": 8, "time": 2, "location": {"lat": 30.698102914411866, "lng": 121.01849074274425}, "feature": {"sight_features": "", "sight_content": ""}}, {"title": "自然乐园农场", "address": "溪柄水田村自然乐园农场", "image": "", "rank": 9, "time": 2, "location": {"lat": 37.51697896548747, "lng": 122.11073920320725}, "feature": {"sight_features": "", "sight_content": ""}}, {"title": "陈从潮故居", "address": "莲池广场城南社区后巷路余氏宗祠", "image": "", "rank": 10, "time": 2, "location": {"lat": 27.092823038670687, "lng": 119.6540590126882}, "feature": {"sight_features": "", "sight_content": ""}}, {"title": "永镇城隍庙", "address": "福建省宁德市福安市城南街道广场南路天马山庄南250米", "image": "", "rank": 11, "time": 2, "location": {"lat": 27.081782741725863, "lng": 119.65931075463011}, "feature": {"sight_features": "", "sight_content": ""}}, {"title": "天马仙宫", "address": "104国道烟雾境界附近", "image": "", "rank": 12, "time": 2, "location": {"lat": 27.080224097798126, "lng": 119.66335556832314}, "feature": {"sight_features": "", "sight_content": ""}}, {"title": "福安城关基督教堂", "address": "福建省宁德市福安市城南街道陆厝巷4号", "image": "", "rank": 13, "time": 2, "location": {"lat": 27.080616786902855, "lng": 119.66301666640011}, "feature": {"sight_features": "", "sight_content": ""}}, {"title": "东方康宁宝贝乐儿童乐园", "address": "福建省宁德市福安市冠后路109号", "image": "", "rank": 14, "time": 2, "location": {"lat": 27.096519813788937, "lng": 119.65511266935611}, "feature": {"sight_features": "", "sight_content": ""}}, {"title": "芙蓉宝殿", "address": "福建省宁德市福安市下浦线", "image": "", "rank": 15, "time": 2.0, "location": {"lat": 27.065377941313596, "lng": 119.56318804697368}, "feature": {"sight_features": "", "sight_content": ""}}, {"title": "崇福寺", "address": "福建省宁德市福安市坂中松潭", "image": "", "rank": 16, "time": 1.5, "location": {"lat": 27.256574110031288, "lng": 119.73766527035605}, "feature": {"sight_features": "", "sight_content": ""}}, {"title": "卡奇乐儿童主题乐园", "address": "福建省宁德市福安市新华中路171号", "image": "", "rank": 17, "time": 2, "location": {"lat": 27.09916199251961, "lng": 119.65312425394093}, "feature": {"sight_features": "", "sight_content": ""}}, {"title": "鹤山道观", "address": "中兴东路南200米", "image": "", "rank": 18, "time": 2, "location": {"lat": 37.285666076895225, "lng": 114.71556966371453}, "feature": {"sight_features": "", "sight_content": ""}}, {"title": "水尾庵", "address": "福建省宁德市福安市穆云畲族乡桂林下浦线姐妹庵", "image": "", "rank": 19, "time": 2, "location": {"lat": 27.064218254052754, "lng": 119.5643138330825}, "feature": {"sight_features": "", "sight_content": ""}}, {"title": "消防主题公园", "address": "福建省宁德市新华中路", "image": "", "rank": 20, "time": 2, "location": {"lat": 27.09885013904643, "lng": 119.65473709590727}, "feature": {"sight_features": "", "sight_content": ""}}, {"title": "官庄庵", "address": "福建省宁德市福安市南山下", "image": "", "rank": 21, "time": 2, "location": {"lat": 27.40491626750003, "lng": 119.71792540113692}, "feature": {"sight_features": "", "sight_content": ""}}, {"title": "妈祖庙", "address": "广福宫附近", "image": "", "rank": 22, "time": 1.0, "location": {"lat": 24.344111094132625, "lng": 116.70974430983846}, "feature": {"sight_features": "", "sight_content": ""}}, {"title": "洋边安庆宫", "address": "宁德市福安市新阳东路6弄", "image": "", "rank": 23, "time": 2, "location": {"lat": 27.10136629893056, "lng": 119.66120904844335}, "feature": {"sight_features": "", "sight_content": ""}}, {"title": "修全寺", "address": "104国道西50米", "image": "", "rank": 24, "time": 2, "location": {"lat": 39.73874726467032, "lng": 116.4684721028614}, "feature": {"sight_features": "", "sight_content": ""}}, {"title": "贝美嘉儿童乐园艺术中心", "address": "福建省宁德市福安市城北街道世纪大道御品诚大厦", "image": "", "rank": 25, "time": 2, "location": {"lat": 27.095109996177943, "lng": 119.66969235282917}, "feature": {"sight_features": "", "sight_content": ""}}, {"title": "阳泉宫", "address": "开泰巷28号", "image": "", "rank": 26, "time": 2, "location": {"lat": 23.195465700478152, "lng": 113.2059306921532}, "feature": {"sight_features": "", "sight_content": ""}}, {"title": "京阳宫", "address": "福建省宁德市福安市阳头街道茶厂路荣宏外滩旁", "image": "", "rank": 27, "time": 2, "location": {"lat": 27.081257228142135, "lng": 119.64801611960932}, "feature": {"sight_features": "", "sight_content": ""}}, {"title": "湖山城隍庙", "address": "福建省宁德市福安市中兴西路福安电力大厦(京都商贸城南)", "image": "", "rank": 28, "time": 1.5, "location": {"lat": 27.092843576617433, "lng": 119.65068557905853}, "feature": {"sight_features": "", "sight_content": ""}}, {"title": "玉池寺", "address": "福建省福安市赛岐开发区大留", "image": "", "rank": 29, "time": 2, "location": {"lat": 26.960032104838916, "lng": 119.64950834070503}, "feature": {"sight_features": "", "sight_content": ""}}, {"title": "鳌峰庙", "address": "宁德市福安市", "image": "", "rank": 30, "time": 2, "location": {"lat": 27.094323508059915, "lng": 119.65440636047963}, "feature": {"sight_features": "", "sight_content": ""}}, {"title": "金钟寺", "address": "钟山西路附近", "image": "", "rank": 31, "time": 2, "location": {"lat": 24.52826393920339, "lng": 111.30103562789}, "feature": {"sight_features": "", "sight_content": ""}}, {"title": "美嘉儿童乐园甘棠部", "address": "福建省宁德市福安市G104", "image": "", "rank": 32, "time": 2, "location": {"lat": 27.094323508059915, "lng": 119.65440636047963}, "feature": {"sight_features": "", "sight_content": ""}}, {"title": "福安宝源寺", "address": "301省道", "image": "", "rank": 33, "time": 2, "location": {"lat": 38.13474737719127, "lng": 114.42863974573754}, "feature": {"sight_features": "", "sight_content": ""}}, {"title": "皇冠休闲广场", "address": "冠后路 附近", "image": "", "rank": 34, "time": 2, "location": {"lat": 27.095235943644795, "lng": 119.6552480089625}, "feature": {"sight_features": "", "sight_content": ""}}, {"title": "福善禅寺", "address": "福建省宁德市福安市康厝乡沃里", "image": "", "rank": 35, "time": 2, "location": {"lat": 27.057423806624076, "lng": 119.54371846440783}, "feature": {"sight_features": "", "sight_content": ""}}, {"title": "红太阳儿童体验乐园", "address": "新华中路闽东世纪城8号楼一层（少年艺术幼儿园隔壁）", "image": "", "rank": 36, "time": 2, "location": {"lat": 27.10030824054348, "lng": 119.65521824899928}, "feature": {"sight_features": "", "sight_content": ""}}, {"title": "慈林禅寺", "address": "真空宫附近", "image": "", "rank": 37, "time": 2, "location": {"lat": 26.969851808763835, "lng": 119.70342761078733}, "feature": {"sight_features": "", "sight_content": ""}}, {"title": "保清宫", "address": "阮家坑村附近", "image": "", "rank": 38, "time": 2, "location": {"lat": 27.16223488374272, "lng": 119.67594604766879}, "feature": {"sight_features": "", "sight_content": ""}}, {"title": "妈祖庙", "address": "104国道附近", "image": "", "rank": 39, "time": 1.0, "location": {"lat": 39.73874726467032, "lng": 116.46892125561638}, "feature": {"sight_features": "", "sight_content": ""}}, {"title": "白云山庵", "address": "福建省宁德市福安市", "image": "", "rank": 40, "time": 2, "location": {"lat": 27.094323508059915, "lng": 119.65440636047963}, "feature": {"sight_features": "", "sight_content": ""}}, {"title": "宁德柏柱洋", "address": "福建省福安市溪柄镇", "image": "", "rank": 41, "time": 2, "location": {"lat": 27.012254606245147, "lng": 119.7450849792218}, "feature": {"sight_features": "", "sight_content": ""}}, {"title": "田园一号", "address": "宁德市福安市溪潭镇双峰村", "image": "", "rank": 42, "time": 2, "location": {"lat": 27.035505872508946, "lng": 119.61394046584607}, "feature": {"sight_features": "特色1 亲子户外乐园", "sight_content": "福安市双峰村田园一号景区位于福建省宁德市福安市溪潭镇双峰村，占地45亩，双峰村自然风光宜人，地理位置优越，交通便利，距中国廉文化第一村廉村仅1.8公里，距福安市区不到10公里，距福安新规划的高铁站4公里左右。\n田园一号景区，是以为儿童成长提供体验式教育为理念，以自然科学体验为主题，而打造的亲子户外乐园。通过不同的活动体验，培养孩子的独立意识、协作能力以及创造性等，让孩子在实践中学习到知识，寻找到自然本真的快乐。"}}, {"title": "柳青书画", "address": "金沙花园5号楼223店", "image": "", "rank": 43, "time": 2, "location": {"lat": 31.752079889505097, "lng": 119.5857287469563}, "feature": {"sight_features": "", "sight_content": ""}}, {"title": "闽东革命纪念馆", "address": "新华北路2号", "image": "", "rank": 44, "time": 2, "location": {"lat": 28.462440365229195, "lng": 119.48997674710444}, "feature": {"sight_features": "", "sight_content": ""}}, {"title": "中升丰田福安展厅", "address": "世纪大道鹤兴中路18号", "image": "", "rank": 45, "time": 2, "location": {"lat": 27.09105542706372, "lng": 119.66496396547382}, "feature": {"sight_features": "", "sight_content": ""}}, {"title": "福安3D魔幻画展", "address": "中宝·富春江南大道南一号(中宝富春江南营销中心二楼)", "image": "", "rank": 46, "time": 2, "location": {"lat": 27.801716597238435, "lng": 114.38489144405352}, "feature": {"sight_features": "", "sight_content": ""}}, {"title": "地质公园博物馆", "address": "周宁隧道", "image": "", "rank": 47, "time": 2, "location": {"lat": 27.099504046537092, "lng": 119.44428301354027}, "feature": {"sight_features": "", "sight_content": ""}}, {"title": "廉村枫叶红水上乐园", "address": "溪潭镇廉村", "image": "", "rank": 48, "time": 2, "location": {"lat": 27.027834745179494, "lng": 119.62781231062836}, "feature": {"sight_features": "", "sight_content": ""}}, {"title": "棠溪水上拓展", "address": "潭头镇棠溪村", "image": "", "rank": 49, "time": 2, "location": {"lat": 27.239038107083104, "lng": 119.68597196988603}, "feature": {"sight_features": "", "sight_content": ""}}, {"title": "福安游乐园", "address": "秦溪洋游乐园", "image": "", "rank": 50, "time": 4.5, "location": {"lat": 24.92158349701297, "lng": 117.90006598631635}, "feature": {"sight_features": "", "sight_content": ""}}, {"title": "刘解放根艺", "address": "富阳东路中国人民银行旁", "image": "", "rank": 51, "time": 2, "location": {"lat": 27.086794836832414, "lng": 119.6548173352503}, "feature": {"sight_features": "", "sight_content": ""}}, {"title": "五显剧场", "address": "下浦线", "image": "", "rank": 52, "time": 2, "location": {"lat": 27.065377941313596, "lng": 119.56318804697368}, "feature": {"sight_features": "", "sight_content": ""}}, {"title": "南江影剧场", "address": "南塘村附近", "image": "", "rank": 53, "time": 2, "location": {"lat": 29.21410033351751, "lng": 119.49284600047866}, "feature": {"sight_features": "", "sight_content": ""}}, {"title": "新坦洋天湖茶庄园(中国红茶文化...", "address": "城阳镇占洋村红岭茶场旁", "image": "", "rank": 54, "time": 2, "location": {"lat": 27.12132279540482, "lng": 119.69555306468948}, "feature": {"sight_features": "", "sight_content": ""}}, {"title": "福建省福安蟾溪国有林场", "address": "穆阳镇穆阳镇风情街15-1号", "image": "", "rank": 55, "time": 2, "location": {"lat": 27.060416975515764, "lng": 119.54733566491554}, "feature": {"sight_features": "", "sight_content": ""}}, {"title": "福安市民族茶文化艺术团", "address": "广场路", "image": "", "rank": 56, "time": 2, "location": {"lat": 39.36754798377137, "lng": 117.89038980393971}, "feature": {"sight_features": "", "sight_content": ""}}, {"title": "凯兴小区商业街", "address": "福建省福安市棠兴路与世纪大道交叉口", "image": "", "rank": 57, "time": 2, "location": {"lat": 27.092212862601066, "lng": 119.66658079861152}, "feature": {"sight_features": "", "sight_content": ""}}, {"title": "甘棠镇红歌大合唱俱乐部", "address": "宁德市-福安市", "image": "", "rank": 58, "time": 2, "location": {"lat": 27.094323508059915, "lng": 119.65440636047963}, "feature": {"sight_features": "", "sight_content": ""}}, {"title": "福安市甘棠镇老年人学习活动中心", "address": "宁德市-福安市-G104(京福线)", "image": "", "rank": 59, "time": 2, "location": {"lat": 27.094323508059915, "lng": 119.65440636047963}, "feature": {"sight_features": "", "sight_content": ""}}, {"title": "白云小镇晓阳村", "address": "宁德市-福安市-晓阳镇村支部委员会附近", "image": "", "rank": 60, "time": 2, "location": {"lat": 27.176443625405053, "lng": 119.4665280304529}, "feature": {"sight_features": "", "sight_content": ""}}]}