{"cityName": "扶风", "days": 2, "cityImage": "", "spots": [{"title": "法门寺", "address": "宝鸡市扶风县城北约10公里的法门镇，距西安约120公里", "image": "", "rank": 1, "time": 1.0, "location": {"lat": 34.48445258885242, "lng": 107.88390692090205}, "feature": {"sight_features": "特色1 成为继兵马俑之后的“陕西第二个文化符号”。 特色2 宝塔金函舍利塔，旷世奇珍现佛光。 特色3 法门寺佛塔被誉为“护国真身宝塔”。 特色4 寺中供奉现今世上仅存的释迦牟尼佛“指骨真身舍利”。 特色5 法门寺珍宝馆拥有出土于法门寺地宫的两千多件大唐国宝重器", "sight_content": "法门寺，一座中国富传奇色彩的寺院，久负盛名的中国佛教圣地，被誉为关中塔庙之祖。两千年来，由于供奉的佛骨舍利和独特的地理位置，奠定了它在中国佛教界举足轻重的地位。\n如今的陕西法门寺文化景区，荟萃中国佛教、亚洲佛教和世界佛教的文化精华，体现佛文化的优秀精神和普世价值，成为集世界僧众朝拜、文化交流、观光旅游、休闲度假为一体的综合文化旅游景区，继兵马俑之后的\"陕西第二个文化符号\"。\n1981年8月24日，宝塔半边倒塌。1986年政府决定重建，87年2月底重修宝塔。适逢四月初八佛诞日，“从地涌出多宝龛，照古腾今无与并”，在沉寂了1113年之后，2499多件大唐国宝重器，簇拥着佛祖真身指骨舍利重回人间。地宫内出土的稀世珍宝，不论在中国社会政治史、文化史、科技史、中外交流史、美术史等方面的研究上，都具有极其重要的价值。2002年应台湾星云大师等邀请，佛指舍利到台湾瞻礼供奉。2004年应香港佛教领袖觉光长老等邀请，佛指舍利在香港瞻礼供奉，盛况空前、影响极大。\n合十舍利塔位于法门寺文化景区的北端，塔高148米，是景区的核心建筑，寓意佛之彼岸。也许在中国的大江南北，你见过许多的佛寺古塔，但可以说法门寺的舍利塔造型奇特。—整个塔的造型像两只合十祷告的双手，庄严肃穆，气势恢宏，其中供奉着释迦牟尼指骨舍利。舍利是梵文音译，意为骨身，或灵骨。在佛教文化中，它扮演着至高无上的角色。每逢初一、十五和重大佛教节日佛指舍利都会升至主塔一层以供信众瞻仰圣物。"}}, {"title": "合十舍利塔", "address": "宝鸡市扶风县法门镇公园路20号(近法门寺)", "image": "", "rank": 2, "time": 2, "location": {"lat": 34.44074629700675, "lng": 107.90809212141843}, "feature": {"sight_features": "", "sight_content": ""}}, {"title": "扶风城隍庙", "address": "宝鸡市扶风县东大街005号", "image": "", "rank": 3, "time": 1.0, "location": {"lat": 34.36466225314292, "lng": 107.8871852203861}, "feature": {"sight_features": "", "sight_content": ""}}, {"title": "野河山景区", "address": "宝鸡市扶风县涧沟桥旁野河山景区", "image": "", "rank": 4, "time": 2, "location": {"lat": 34.53433664972664, "lng": 107.90891299389175}, "feature": {"sight_features": "特色1 中国古代四大美女之一杨贵妃的故里", "sight_content": "贵妃故里野河山生态旅游景区，地处陕西省扶风县北部，距佛教圣地法门寺8公里。景区内沟壑纵横，谷狭幽深，封神台遗址、财神赵公明及三霄姊妹修道处，大唐杨玉环出生地。宰相杨国忠之父杨殉夫妇埋葬地等，贵妃梁、杨家坪、杨家湾、五虎岭、拴马石名胜古迹，记录着大唐的历史和杨家的兴衰，真乃仙山奇阁，风光无限，让人留恋忘返。\n野河山是中国古代四大美女之一杨贵妃的故里，道不完的优美传说和看不够的奇山妙景，会让游客尽享视觉和精神的双重愉悦。\n对了，此处还有姜子牙的封神台，游人穿梭于神话传说和现实遗迹并存的时空隧道，与天上、地下、人间各路“神仙”如此零距离接触，真的别有一番感受。"}}, {"title": "东方大佛宫", "address": "宝鸡扶风县", "image": "", "rank": 5, "time": 1.0, "location": {"lat": 34.381463351226095, "lng": 107.90645306510017}, "feature": {"sight_features": "", "sight_content": ""}}, {"title": "《法门往事》演出", "address": "宝鸡市扶风县城北约10公里的法门镇法门寺景区内", "image": "", "rank": 6, "time": 2, "location": {"lat": 34.44074629700675, "lng": 107.90809212141843}, "feature": {"sight_features": "", "sight_content": ""}}, {"title": "贤山寺", "address": "扶风县南15里的午井乡南官村，宝鸡峡渠道南侧的塬边", "image": "", "rank": 7, "time": 2, "location": {"lat": 34.29816031070586, "lng": 107.87713001340593}, "feature": {"sight_features": "", "sight_content": ""}}, {"title": "法门寺珍宝馆", "address": "法门镇陕西法门寺文化景区内(城北10公里处的)", "image": "", "rank": 8, "time": 2, "location": {"lat": 34.42996217083057, "lng": 107.91047190429072}, "feature": {"sight_features": "", "sight_content": ""}}, {"title": "杨珣碑", "address": "陕西省宝鸡市扶风县石碑村", "image": "", "rank": 9, "time": 2, "location": {"lat": 34.45832048791047, "lng": 107.92953649121365}, "feature": {"sight_features": "", "sight_content": ""}}, {"title": "中国法门寺民俗饮食第一家", "address": "209省道附近", "image": "", "rank": 10, "time": 2, "location": {"lat": 39.99809006691208, "lng": 116.08348027993928}, "feature": {"sight_features": "", "sight_content": ""}}, {"title": "西部兰花生态园", "address": "陕西省宝鸡市眉县槐芽镇西部兰花生态园。", "image": "", "rank": 11, "time": 2, "location": {"lat": 34.23259090450569, "lng": 107.93211335602669}, "feature": {"sight_features": "", "sight_content": ""}}, {"title": "乡水肴农家乐", "address": "法门镇宝塔村", "image": "", "rank": 12, "time": 2, "location": {"lat": 34.443526437432936, "lng": 107.90743039544417}, "feature": {"sight_features": "", "sight_content": ""}}, {"title": "美阳新农村23号农家乐餐饮", "address": "法门镇美阳新农村23号农家乐(008号农家乐隔壁)", "image": "", "rank": 13, "time": 2, "location": {"lat": 34.42543853870302, "lng": 107.90010530329872}, "feature": {"sight_features": "", "sight_content": ""}}, {"title": "法门灵境园", "address": "渭北环线(近野河山森林公园)", "image": "", "rank": 14, "time": 2, "location": {"lat": 34.30520393203516, "lng": 107.96731114879002}, "feature": {"sight_features": "", "sight_content": ""}}, {"title": "法云阁", "address": "宝鸡市扶风县法门镇宝塔路法门寺内", "image": "", "rank": 15, "time": 2, "location": {"lat": 34.44074629700675, "lng": 107.90809212141843}, "feature": {"sight_features": "", "sight_content": ""}}, {"title": "法门寺历史文化陈列", "address": "法门镇宝塔路法门寺博物馆内", "image": "", "rank": 16, "time": 2, "location": {"lat": 34.4437157077287, "lng": 107.91006364599576}, "feature": {"sight_features": "", "sight_content": ""}}, {"title": "百合广场", "address": "陕西省宝鸡市扶风县s104", "image": "", "rank": 17, "time": 2, "location": {"lat": 34.381463351226095, "lng": 107.90645306510017}, "feature": {"sight_features": "", "sight_content": ""}}, {"title": "法门寺-广场", "address": "法门镇崇正路", "image": "", "rank": 18, "time": 2, "location": {"lat": 34.44351231138478, "lng": 107.91148085678527}, "feature": {"sight_features": "", "sight_content": ""}}, {"title": "大雄宝殿", "address": "法门寺寺院内", "image": "", "rank": 19, "time": 2, "location": {"lat": 34.44074629700675, "lng": 107.90809212141843}, "feature": {"sight_features": "", "sight_content": ""}}, {"title": "明五火星殿", "address": "崇正路与黄法路交叉口西北50米", "image": "", "rank": 20, "time": 2, "location": {"lat": 34.44351231138478, "lng": 107.91148085678527}, "feature": {"sight_features": "", "sight_content": ""}}, {"title": "阿育王弘法", "address": "法门镇宝塔路法门寺内", "image": "", "rank": 21, "time": 2, "location": {"lat": 34.44074629700675, "lng": 107.90809212141843}, "feature": {"sight_features": "", "sight_content": ""}}, {"title": "宝鸡关中风情民俗度假村", "address": "宝鸡扶风县城新区东大街", "image": "", "rank": 22, "time": 3.0, "location": {"lat": 34.383832532656236, "lng": 107.90281489724238}, "feature": {"sight_features": "", "sight_content": ""}}, {"title": "卡奇乐儿童游乐园", "address": "莲花商场2楼", "image": "", "rank": 23, "time": 2, "location": {"lat": 29.546901719866867, "lng": 106.523029958968}, "feature": {"sight_features": "", "sight_content": ""}}, {"title": "积福寺", "address": "宝鸡市扶风县", "image": "", "rank": 24, "time": 2, "location": {"lat": 34.381463351226095, "lng": 107.90645306510017}, "feature": {"sight_features": "", "sight_content": ""}}, {"title": "孔雀寺", "address": "南阳环线东窑村附近", "image": "", "rank": 25, "time": 1.0, "location": {"lat": 40.00239325861532, "lng": 116.61418258263319}, "feature": {"sight_features": "", "sight_content": ""}}, {"title": "天泰乐园", "address": "南一路", "image": "", "rank": 26, "time": 2, "location": {"lat": 39.75725766048575, "lng": 116.40417891417259}, "feature": {"sight_features": "", "sight_content": ""}}, {"title": "汇香坊香薰图书馆", "address": "东大街北100米", "image": "", "rank": 27, "time": 2, "location": {"lat": 22.61834338451153, "lng": 114.14733733676542}, "feature": {"sight_features": "", "sight_content": ""}}, {"title": "扶风县召公镇文化中心演唱团", "address": "渭北环线附近天绎路", "image": "", "rank": 28, "time": 2, "location": {"lat": 34.450399330778616, "lng": 107.99478245776025}, "feature": {"sight_features": "", "sight_content": ""}}, {"title": "关中风情园", "address": "宝鸡市扶风县关中风情园", "image": "", "rank": 31, "time": 2, "location": {"lat": 34.384389449621295, "lng": 107.91340669174777}, "feature": {"sight_features": "", "sight_content": ""}}, {"title": "泾渭湿地自然保护区", "address": "陕西省高陵县北郊", "image": "", "rank": 32, "time": 2, "location": {"lat": 34.51376243060155, "lng": 109.07377497778617}, "feature": {"sight_features": "", "sight_content": ""}}]}