{"cityName": "福贡", "days": 2, "cityImage": "", "spots": [{"title": "石月亮观景台", "address": "福贡县石月亮乡石月亮村228省道", "image": "", "rank": 1, "time": 1.0, "location": {"lat": 27.255263320324918, "lng": 98.8983423859399}, "feature": {"sight_features": "", "sight_content": ""}}, {"title": "知子罗", "address": "云南省怒江傈僳族自治州福贡县知子罗村", "image": "", "rank": 2, "time": 2, "location": {"lat": 26.544553722645468, "lng": 98.92178760458975}, "feature": {"sight_features": "", "sight_content": ""}}, {"title": "飞来石", "address": "云南省怒江傈僳族自治州福贡县", "image": "", "rank": 3, "time": 0.5, "location": {"lat": 26.908055208498066, "lng": 98.87564942449333}, "feature": {"sight_features": "", "sight_content": ""}}, {"title": "石月亮", "address": "云南省怒江傈僳族自治州福贡县", "image": "", "rank": 4, "time": 1.0, "location": {"lat": 26.908055208498066, "lng": 98.87564942449333}, "feature": {"sight_features": "", "sight_content": ""}}, {"title": "老虎跳", "address": "云南省怒江傈僳族自治州贡山独龙族怒族自治县", "image": "", "rank": 5, "time": 2, "location": {"lat": 27.74706787527189, "lng": 98.6723994486867}, "feature": {"sight_features": "", "sight_content": ""}}, {"title": "干地衣比湖", "address": "云南省福贡县上帕镇驻地东 673400", "image": "", "rank": 6, "time": 2, "location": {"lat": 26.907598255623977, "lng": 98.87485108242075}, "feature": {"sight_features": "", "sight_content": ""}}, {"title": "马吊桥", "address": "云南省福贡县上帕镇腊竹底村 673400", "image": "", "rank": 7, "time": 2, "location": {"lat": 26.95377927109137, "lng": 98.87068766455297}, "feature": {"sight_features": "", "sight_content": ""}}, {"title": "匹河影剧院", "address": "匹河乡匹河村", "image": "", "rank": 8, "time": 2, "location": {"lat": 26.533674908167413, "lng": 98.90376831021844}, "feature": {"sight_features": "", "sight_content": ""}}, {"title": "鹿马登影剧院", "address": "228省道鹿马登边防派出所附近", "image": "", "rank": 9, "time": 2, "location": {"lat": 27.031869172078387, "lng": 98.87309814701527}, "feature": {"sight_features": "", "sight_content": ""}}, {"title": "基督教堂", "address": "匹河怒族乡知子罗村", "image": "", "rank": 10, "time": 2.0, "location": {"lat": 26.543542282756636, "lng": 98.92462810859446}, "feature": {"sight_features": "", "sight_content": ""}}, {"title": "达门教堂", "address": "228省道附近", "image": "", "rank": 11, "time": 2, "location": {"lat": 39.03858546081583, "lng": 117.03749267899916}, "feature": {"sight_features": "", "sight_content": ""}}, {"title": "亚坪村", "address": "怒江傈僳族自治州福贡县亚坪公路", "image": "", "rank": 12, "time": 2, "location": {"lat": 27.12758715851449, "lng": 98.8604955495283}, "feature": {"sight_features": "", "sight_content": ""}}, {"title": "老姆登村", "address": "怒江傈僳族自治州福贡县", "image": "", "rank": 13, "time": 1.5, "location": {"lat": 26.908055208498066, "lng": 98.87564942449333}, "feature": {"sight_features": "", "sight_content": ""}}, {"title": "福贡县图书馆", "address": "娃底街24号", "image": "", "rank": 14, "time": 2, "location": {"lat": 26.90976107018126, "lng": 98.8730166644174}, "feature": {"sight_features": "", "sight_content": ""}}, {"title": "腊乌岩瀑布", "address": "云南省福贡县腊乌村", "image": "", "rank": 15, "time": 2, "location": {"lat": 26.89069967348195, "lng": 98.87664415860793}, "feature": {"sight_features": "", "sight_content": ""}}, {"title": "姥姆登基督教堂", "address": "云南省贡山独龙族怒族自治县匹河乡老姆登村", "image": "", "rank": 16, "time": 2, "location": {"lat": 27.74706787527189, "lng": 98.6723994486867}, "feature": {"sight_features": "", "sight_content": ""}}]}