{"cityName": "扶沟", "days": 2, "cityImage": "", "spots": [{"title": "雾烟山风景区", "address": "周口市扶沟县012乡道", "image": "", "rank": 1, "time": 2.5, "location": {"lat": 34.103612911750574, "lng": 114.30724085267757}, "feature": {"sight_features": "", "sight_content": ""}}, {"title": "兰若寺", "address": "周口市扶沟县汴岗镇郑湾陈湾永登高速公路北450米", "image": "", "rank": 2, "time": 1.5, "location": {"lat": 33.97837817169172, "lng": 114.67827289927963}, "feature": {"sight_features": "", "sight_content": ""}}, {"title": "扶沟县众生缘蔬菜专业合作社", "address": "311国道附近", "image": "", "rank": 3, "time": 2, "location": {"lat": 34.27017932961585, "lng": 117.14276864732531}, "feature": {"sight_features": "", "sight_content": ""}}, {"title": "吕潭学校旧址", "address": "河南扶沟县吕潭镇 461300", "image": "", "rank": 4, "time": 2, "location": {"lat": 34.10996445278208, "lng": 114.5088232142026}, "feature": {"sight_features": "", "sight_content": ""}}, {"title": "常乐农庄", "address": "周口市扶沟县", "image": "", "rank": 5, "time": 2, "location": {"lat": 34.065906253969246, "lng": 114.4015098413696}, "feature": {"sight_features": "", "sight_content": ""}}, {"title": "翟楼今小凹农民博物馆", "address": "311国道十里店路口向南两公里路西", "image": "", "rank": 6, "time": 2, "location": {"lat": 34.07872209659196, "lng": 114.33111153218064}, "feature": {"sight_features": "", "sight_content": ""}}, {"title": "扶沟县万鹤赉文化旅游城", "address": "河南省周口市扶沟县", "image": "", "rank": 7, "time": 2, "location": {"lat": 34.065906253969246, "lng": 114.4015098413696}, "feature": {"sight_features": "", "sight_content": ""}}, {"title": "小蚂蚁儿童乐园", "address": "河南省周口市扶沟县S102", "image": "", "rank": 8, "time": 2, "location": {"lat": 34.065906253969246, "lng": 114.4015098413696}, "feature": {"sight_features": "", "sight_content": ""}}, {"title": "包屯镇基督教会", "address": "河南省周口市扶沟县包屯镇小太阳幼儿园南150米", "image": "", "rank": 9, "time": 2, "location": {"lat": 34.056311321100964, "lng": 114.39993919101593}, "feature": {"sight_features": "", "sight_content": ""}}, {"title": "城郊乡中心教堂", "address": "鸿昌大道南200米", "image": "", "rank": 10, "time": 2, "location": {"lat": 34.047474026315655, "lng": 114.40745710982894}, "feature": {"sight_features": "", "sight_content": ""}}, {"title": "白潭教会", "address": "关帝庙附近", "image": "", "rank": 11, "time": 2, "location": {"lat": 39.97840002957503, "lng": 116.56776707584784}, "feature": {"sight_features": "", "sight_content": ""}}, {"title": "扶沟县图书馆", "address": "昌盛西路", "image": "", "rank": 12, "time": 2, "location": {"lat": 31.69918700287378, "lng": 120.10429415080324}, "feature": {"sight_features": "", "sight_content": ""}}, {"title": "政协书画院", "address": "桐丘北路", "image": "", "rank": 13, "time": 2, "location": {"lat": 34.06594230942686, "lng": 114.40174105263159}, "feature": {"sight_features": "", "sight_content": ""}}, {"title": "扶沟县水上市场", "address": "昌盛东路天成机电附近", "image": "", "rank": 14, "time": 2, "location": {"lat": 39.89044979331433, "lng": 124.15054075294361}, "feature": {"sight_features": "", "sight_content": ""}}, {"title": "无极ROOM密室逃脱", "address": "支亭路与文化路交叉口向西80米", "image": "", "rank": 15, "time": null, "location": {"lat": 34.0504255879623, "lng": 114.38896269268437}, "feature": {"sight_features": "", "sight_content": ""}}, {"title": "大程书院", "address": "河南省扶沟县书院街", "image": "", "rank": 16, "time": 2, "location": {"lat": 34.06207191559057, "lng": 114.3989686033531}, "feature": {"sight_features": "", "sight_content": ""}}]}