{"cityName": "府谷", "days": 2, "cityImage": "", "spots": [{"title": "府谷老城", "address": "榆林市府谷县（距离府谷新县城约1公里）", "image": "", "rank": 1, "time": 6.0, "location": {"lat": 39.033795629849784, "lng": 111.0736281151979}, "feature": {"sight_features": "", "sight_content": ""}}, {"title": "孤山堡", "address": "榆林市府谷县孤山镇", "image": "", "rank": 2, "time": 1.0, "location": {"lat": 39.105624958310166, "lng": 110.91862185861898}, "feature": {"sight_features": "", "sight_content": ""}}, {"title": "府谷文庙", "address": "榆林市府谷县府谷老城文庙街", "image": "", "rank": 3, "time": 1.0, "location": {"lat": 39.033795629849784, "lng": 111.0736281151979}, "feature": {"sight_features": "", "sight_content": ""}}, {"title": "麻镇大庙", "address": "榆林市府谷县麻镇政府东北方向300米", "image": "", "rank": 4, "time": 2, "location": {"lat": 39.37975558313909, "lng": 111.0663042366632}, "feature": {"sight_features": "", "sight_content": ""}}, {"title": "明长城遗址", "address": "陕西省府谷县府谷县东北起 719400", "image": "", "rank": 5, "time": 1.5, "location": {"lat": 39.033795629849784, "lng": 111.0736281151979}, "feature": {"sight_features": "", "sight_content": ""}}, {"title": "中峰寺", "address": "陕西省榆林市府谷县边府线", "image": "", "rank": 6, "time": 0.25, "location": {"lat": 39.26131299058808, "lng": 110.77189028934689}, "feature": {"sight_features": "", "sight_content": ""}}, {"title": "娘娘庙", "address": "陕西省榆林市府谷县府庙路木瓜镇政府南300米", "image": "", "rank": 7, "time": 1.5, "location": {"lat": 39.18865897209145, "lng": 110.97704400635911}, "feature": {"sight_features": "", "sight_content": ""}}, {"title": "清泉寺", "address": "榆林市府谷县", "image": "", "rank": 8, "time": 1.5, "location": {"lat": 39.033795629849784, "lng": 111.0736281151979}, "feature": {"sight_features": "", "sight_content": ""}}, {"title": "中共委档案馆", "address": "河滨东路147号", "image": "", "rank": 9, "time": 2, "location": {"lat": 39.03368156391539, "lng": 111.07297810133089}, "feature": {"sight_features": "", "sight_content": ""}}, {"title": "府谷县图书馆", "address": "二道街富昌路86号", "image": "", "rank": 10, "time": 2, "location": {"lat": 39.03359748571222, "lng": 111.0816135121983}, "feature": {"sight_features": "", "sight_content": ""}}, {"title": "榆林府谷杜松自然保护区", "address": "陕西省府谷县西北部", "image": "", "rank": 11, "time": 2, "location": {"lat": 39.033795629849784, "lng": 111.0736281151979}, "feature": {"sight_features": "", "sight_content": ""}}, {"title": "五虎山", "address": "陕西省榆林市府谷县", "image": "", "rank": 12, "time": 2.5, "location": {"lat": 39.033795629849784, "lng": 111.0736281151979}, "feature": {"sight_features": "", "sight_content": ""}}, {"title": "友谊桥", "address": "陕西省榆林市府谷县大桥路", "image": "", "rank": 13, "time": 1.5, "location": {"lat": 39.032697188558494, "lng": 111.0766204274449}, "feature": {"sight_features": "", "sight_content": ""}}]}