{"cityName": "富锦", "days": 2, "cityImage": "", "spots": [{"title": "青少年科技活动馆", "address": "正大街", "image": "", "rank": 1, "time": 2, "location": {"lat": 37.80004907126463, "lng": 115.39053598656331}, "feature": {"sight_features": "", "sight_content": ""}}, {"title": "五顶山森林公园", "address": "砚山镇石砬山林场", "image": "", "rank": 2, "time": 2, "location": {"lat": 47.20939255735593, "lng": 132.2851859850087}, "feature": {"sight_features": "", "sight_content": ""}}, {"title": "富锦市城建档案馆", "address": "正大街", "image": "", "rank": 3, "time": 2, "location": {"lat": 37.80004907126463, "lng": 115.39053598656331}, "feature": {"sight_features": "", "sight_content": ""}}, {"title": "富锦博物馆", "address": "佳木斯市富锦市清真路附近", "image": "", "rank": 4, "time": 2.5, "location": {"lat": 47.268170298602726, "lng": 132.04701861884186}, "feature": {"sight_features": "", "sight_content": ""}}, {"title": "添津千层大麻花(富锦总店)", "address": "南五街与向阳路交叉口南50米", "image": "", "rank": 5, "time": 2, "location": {"lat": 47.26218834506432, "lng": 132.04447955921617}, "feature": {"sight_features": "", "sight_content": ""}}, {"title": "创业农场一区", "address": "306省道附近", "image": "", "rank": 6, "time": 2, "location": {"lat": 44.29269479672118, "lng": 120.43504383645545}, "feature": {"sight_features": "", "sight_content": ""}}, {"title": "红卫农场第一管理区党支部", "address": "红卫农场第一管理区附近", "image": "", "rank": 7, "time": 2, "location": {"lat": 47.30958791015709, "lng": 133.30146080044648}, "feature": {"sight_features": "", "sight_content": ""}}, {"title": "艺峰创意美术馆", "address": "中央大街附近", "image": "", "rank": 8, "time": 2, "location": {"lat": 22.540723318225652, "lng": 114.07211691104746}, "feature": {"sight_features": "", "sight_content": ""}}, {"title": "潘多拉真人密室逃脱", "address": "建三江国际购物广场三楼", "image": "", "rank": 9, "time": 2, "location": {"lat": 37.87539311844007, "lng": 112.57706491501759}, "feature": {"sight_features": "", "sight_content": ""}}, {"title": "湿地山庄", "address": "佳木斯富锦市G1011哈同高速", "image": "", "rank": 10, "time": 2, "location": {"lat": 47.160569285514846, "lng": 131.94849053286185}, "feature": {"sight_features": "", "sight_content": ""}}, {"title": "大兴文化广场", "address": "佳木斯市富锦市", "image": "", "rank": 11, "time": 1.0, "location": {"lat": 47.25593257184771, "lng": 132.04453879527813}, "feature": {"sight_features": "", "sight_content": ""}}, {"title": "亿隆啤酒广场", "address": "佳抚路与欣园街交叉口北150米", "image": "", "rank": 12, "time": 2, "location": {"lat": 47.26718690307274, "lng": 132.6492412556325}, "feature": {"sight_features": "", "sight_content": ""}}, {"title": "沿江啤酒广场", "address": "西平路与进思大街交叉口东50米", "image": "", "rank": 13, "time": 2, "location": {"lat": 47.25759221365201, "lng": 132.02793648262235}, "feature": {"sight_features": "", "sight_content": ""}}, {"title": "金麦子啤酒广场", "address": "黑龙江省佳木斯市富锦市", "image": "", "rank": 14, "time": 2, "location": {"lat": 47.25593257184771, "lng": 132.04453879527813}, "feature": {"sight_features": "", "sight_content": ""}}, {"title": "啤酒广场", "address": "黑龙江省佳木斯市富锦市向阳路26", "image": "", "rank": 15, "time": 2, "location": {"lat": 47.24700360593663, "lng": 132.05232710943952}, "feature": {"sight_features": "", "sight_content": ""}}, {"title": "富锦国家湿地公园管理处", "address": "横头山附近", "image": "", "rank": 16, "time": 2, "location": {"lat": 43.53080730339175, "lng": 125.3766605691334}, "feature": {"sight_features": "", "sight_content": ""}}, {"title": "富锦国家湿地", "address": "黑龙江省佳木斯市富锦市锦山镇黑龙江富锦国家湿地公园", "image": "", "rank": 17, "time": 4.5, "location": {"lat": 46.92874212430985, "lng": 131.74394867778207}, "feature": {"sight_features": "", "sight_content": ""}}, {"title": "天主教", "address": "黑龙江省佳木斯市富锦市北二街", "image": "", "rank": 18, "time": 2, "location": {"lat": 47.27117815608707, "lng": 132.05210997372657}, "feature": {"sight_features": "", "sight_content": ""}}, {"title": "教育博物馆", "address": "正大街", "image": "", "rank": 19, "time": 1.25, "location": {"lat": 37.80004907126463, "lng": 115.39053598656331}, "feature": {"sight_features": "", "sight_content": ""}}, {"title": "传奇密室", "address": "档案馆楼下西40米(新开路与中央大街路口西侧)", "image": "", "rank": 20, "time": 2, "location": {"lat": 47.25511760923627, "lng": 132.04220272215534}, "feature": {"sight_features": "", "sight_content": ""}}, {"title": "城阳美术", "address": "迎宾路121号附近", "image": "", "rank": 21, "time": 2, "location": {"lat": 39.960209640809204, "lng": 119.59910665127207}, "feature": {"sight_features": "", "sight_content": ""}}, {"title": "效永书画苑", "address": "南六街附近", "image": "", "rank": 22, "time": 2, "location": {"lat": 39.819600699497876, "lng": 119.42830241670634}, "feature": {"sight_features": "", "sight_content": ""}}, {"title": "绿野田园", "address": "同三高速公路收费站道南", "image": "", "rank": 23, "time": 2, "location": {"lat": 37.54224429901079, "lng": 121.26417164758496}, "feature": {"sight_features": "", "sight_content": ""}}, {"title": "富锦市步行街", "address": "黑龙江省富锦市新开路与文明街交叉口", "image": "", "rank": 24, "time": 3.0, "location": {"lat": 47.256697390671405, "lng": 132.04120564705622}, "feature": {"sight_features": "", "sight_content": ""}}]}