{"cityName": "阜康", "days": 2, "cityImage": "", "spots": [{"title": "天山天池", "address": "昌吉回族自治州阜康市", "image": "", "rank": 1, "time": 5.0, "location": {"lat": 44.16313732134573, "lng": 87.99367790506243}, "feature": {"sight_features": "特色1 “早知天池美，何必下苏杭”，世界看新疆的窗口。 特色2 “山不在高，有仙则名，水不在深，有龙则灵”。天池之胜，不仅因西王母“瑶池盛会”名传千古，更因其得天独厚的自然景观蜚声中外！ 特色3 “瑶池扬波连四海，博峰翘首望五洲”", "sight_content": "天山天池风景区位于天山东部博格达山半山腰，新疆维吾尔自治区阜康市境内。距乌鲁木齐市67公里。交通、电讯十分便利。景区以天池为中心，规划面积548平方公里，形成八大景区。\n天池景区的景观资源是欧亚大陆腹地干旱区自然景观的代表。风景区内自然风光和生态环境地域突变强烈，在短短80公里的直线距离内，囊括了高山冰川、湿地草甸、森林峡谷、湖泊山岳和戈壁沙漠等自然景观，形成完整的植物垂直景观带谱，为国内外罕见。以远古瑶池神话及宗教和民族风情为文化内涵的人文景观，以其独特的意蕴，增添了景区的文化底蕴。\n天池景区是全国重点风景名胜区；联合国教科文组织批准的“博格达峰人与生物圈”国际保护区；国家森林公园；国家地质公园；国家水利风景区；5A级景区；全国文明风景旅游区；“新疆天山”世界自然遗产博格达提名地。天池景区以天池为核心，包括分布其间的历史遗存和人文胜迹，计有五个景群、十多个景点。景区以湖光山色景观为主要特征，景观类型有湖泊、潭池、瀑布、峰峦、寺庙和遗址等，辅以丰富的神话传说和宗教文化内涵，易于从事水上观光、访古礼佛等游赏活动。\n天池景区由海北景群（包括天池、飞龙潭、潜龙渊、定海神针、诗赋园、王母娘娘梳妆镜、鹿鼎春、天池古窑址、兄妹杨、石门一线等景点）；海西景群（包括海西松林、福寿寺遗址、仙女湾、“西王母之山”遗墨、会仙台、消灾门、窥浴石等景点）；海东景群（包括王母祖庙、王母镇海像、居仙洞、王母灵泉、达摩险径等景点）；海南景群（包括高山植物园、湖滩林地等景点）；飞龙涧景群（包括时来运转、双松迎客、山鬼情歌等景点）构成。"}}, {"title": "天山", "address": "乌鲁木齐市", "image": "", "rank": 2, "time": 2, "location": {"lat": 43.830763204290484, "lng": 87.62443993536046}, "feature": {"sight_features": "", "sight_content": ""}}, {"title": "定海神针", "address": "昌吉回族自治州阜康市天山天池招待所附近", "image": "", "rank": 3, "time": 7.5, "location": {"lat": 44.16313732134573, "lng": 87.99367790506243}, "feature": {"sight_features": "", "sight_content": ""}}, {"title": "西小天池", "address": "昌吉回族自治州阜康市天山天池风景区内", "image": "", "rank": 4, "time": null, "location": {"lat": 43.89228786316304, "lng": 88.13492147885022}, "feature": {"sight_features": "", "sight_content": ""}}, {"title": "东小天池", "address": "乌鲁木齐市昌吉自治州阜康市天山天池风景区内东北山谷", "image": "", "rank": 5, "time": 1.0, "location": {"lat": 43.89228786316304, "lng": 88.13492147885022}, "feature": {"sight_features": "", "sight_content": ""}}, {"title": "西王母祖庙", "address": "昌吉回族自治州阜康市天山天池风景名胜区天池东岸", "image": "", "rank": 6, "time": 1.5, "location": {"lat": 43.89401598996629, "lng": 88.13929430772357}, "feature": {"sight_features": "", "sight_content": ""}}, {"title": "天山天池国际滑雪场", "address": "昌吉市阜康市天池风景区脚下", "image": "", "rank": 7, "time": 2, "location": {"lat": 44.112206373506666, "lng": 88.07052425838845}, "feature": {"sight_features": "", "sight_content": ""}}, {"title": "灯杆山", "address": "昌吉回族自治州阜康市天山天池西岸4公里处", "image": "", "rank": 8, "time": 1.0, "location": {"lat": 43.89401598996629, "lng": 88.13929430772357}, "feature": {"sight_features": "", "sight_content": ""}}, {"title": "五江温泉城", "address": "昌吉回族自治州阜康市五江天山温泉国际度假城内", "image": "", "rank": 9, "time": 2, "location": {"lat": 44.16313732134573, "lng": 87.99367790506243}, "feature": {"sight_features": "特色1 是集休闲、温泉疗养、娱乐、购物、旅居于一体的文化旅游综合体", "sight_content": "理疗汤池，雕琢生命；干湿蒸房，乐享天堂。\n来自天山3046米的天然含硒疗养温泉才更加滋养新疆人。泉水历经1.95亿年时光，经过地热、高温、高压地壳运动，由原始海洋转化而成，蕴含丰富矿物元素及人体必需微量元素-硒！温泉出水口温度66℃，日出水量逾2000立方米。66余个汤池，盐浴池1个，鱼疗池1个，是西北第一家地区富含“硒元素”温泉，而“硒元素”具有显著的抗氧化、延缓衰老等保健作用，对心血管、消化、泌尿等系统疾病有明显的防治作用，具备防癌抑瘤的辅助作用。还被称为人体年轻的密码、能够增强人体免疫力，富硒温泉水PH值呈弱碱性，极易被人体吸收，因此又被称为养生泉。再加上各种名贵中草药古法炮制，加料入池，药效溶于泉水之中，具有补气养血、清热泻火、预防感冒、舒筋活络、润燥祛湿之功效，尽享草本汤疗之乐！\n功能齐全的室内上水上娱乐设备，满足365天水上娱乐盛宴\n室内水乐园是温泉的第一主打区域，\n在这里有多种妙趣横生的娱乐项目。\n无论是参与性，还是互动性都特别强的彩虹滑梯；\n在造浪池里，与浪花嬉戏，享受巨浪翻滚拍打；与音乐追逐，在沙滩休憩；\n动漫主题，夏威夷风情等多种风格，多种水上娱乐项目相结合的亲子水寨；\n爬在漂流河上，闭上眼睛将生活和工作中的烦恼抛去九霄云，就这么悠哉哉漂着。"}}, {"title": "黄竹山庄", "address": "111省道", "image": "", "rank": 10, "time": 2, "location": {"lat": 39.202879057298865, "lng": 117.06713361675914}, "feature": {"sight_features": "", "sight_content": ""}}, {"title": "天池生态馆", "address": "111省道", "image": "", "rank": 11, "time": 2, "location": {"lat": 39.202879057298865, "lng": 117.06713361675914}, "feature": {"sight_features": "", "sight_content": ""}}, {"title": "图书馆", "address": "天池街231号", "image": "", "rank": 12, "time": 1.0, "location": {"lat": 44.163428766905895, "lng": 87.98824235427074}, "feature": {"sight_features": "", "sight_content": ""}}, {"title": "享雅书画苑", "address": "天山街152号", "image": "", "rank": 13, "time": 2, "location": {"lat": 46.89197427528221, "lng": 130.32618112838827}, "feature": {"sight_features": "", "sight_content": ""}}, {"title": "X密室逃脱", "address": "迎宾路与乌奇路十字东南角", "image": "", "rank": 14, "time": 2, "location": {"lat": 44.156139663518985, "lng": 87.98052349843888}, "feature": {"sight_features": "", "sight_content": ""}}, {"title": "杜氏农庄农家乐", "address": "111省道", "image": "", "rank": 15, "time": 2, "location": {"lat": 39.202879057298865, "lng": 117.06713361675914}, "feature": {"sight_features": "", "sight_content": ""}}, {"title": "福寿观", "address": "天池西岸", "image": "", "rank": 16, "time": 7.5, "location": {"lat": 39.9090759312646, "lng": 116.67167733952753}, "feature": {"sight_features": "", "sight_content": ""}}, {"title": "公园6号1期", "address": "新疆维吾尔自治区昌吉回族自治州阜康市博峰西路", "image": "", "rank": 17, "time": 2, "location": {"lat": 44.15642575051765, "lng": 87.9422712110144}, "feature": {"sight_features": "", "sight_content": ""}}, {"title": "休闲度假村", "address": "水磨沟口村旁", "image": "", "rank": 18, "time": 2, "location": {"lat": 44.124433175319645, "lng": 87.97250988099123}, "feature": {"sight_features": "", "sight_content": ""}}, {"title": "乡村别墅度假村", "address": "205县道附近", "image": "", "rank": 19, "time": 2, "location": {"lat": 34.6470038759388, "lng": 116.5143281737209}, "feature": {"sight_features": "", "sight_content": ""}}, {"title": "蟠桃园度假村", "address": "109乡道附近", "image": "", "rank": 20, "time": 2, "location": {"lat": 39.67846005806434, "lng": 119.10031177581783}, "feature": {"sight_features": "", "sight_content": ""}}, {"title": "阜康回族清真大寺", "address": "博峰街办事处阜康市步行街", "image": "", "rank": 21, "time": 5.0, "location": {"lat": 44.16366189561593, "lng": 87.99268168425185}, "feature": {"sight_features": "", "sight_content": ""}}, {"title": "坂干梁清真寺", "address": "新疆维吾尔自治区昌吉回族自治州阜康市城关镇坂干梁村博峰路瑶池园西400米", "image": "", "rank": 22, "time": 2, "location": {"lat": 44.16270196245657, "lng": 87.99772540163602}, "feature": {"sight_features": "", "sight_content": ""}}, {"title": "果园度假村", "address": "准东路东200米", "image": "", "rank": 23, "time": 2, "location": {"lat": 44.153829302645654, "lng": 87.89445457733021}, "feature": {"sight_features": "", "sight_content": ""}}, {"title": "绿野农家小院", "address": "新疆维吾尔自治区昌吉回族自治州阜康市S111", "image": "", "rank": 24, "time": 2, "location": {"lat": 44.16313732134573, "lng": 87.99367790506243}, "feature": {"sight_features": "", "sight_content": ""}}, {"title": "冰湖庄园", "address": "冰湖水管所", "image": "", "rank": 25, "time": 2, "location": {"lat": 44.19660946926348, "lng": 88.00475292145755}, "feature": {"sight_features": "", "sight_content": ""}}, {"title": "梦溪园", "address": "新疆维吾尔自治区昌吉回族自治州阜康市军垦路", "image": "", "rank": 26, "time": 2.0, "location": {"lat": 44.15592411101564, "lng": 87.90447293051838}, "feature": {"sight_features": "", "sight_content": ""}}, {"title": "天山野生植物馆", "address": "111省道", "image": "", "rank": 27, "time": 2, "location": {"lat": 39.202879057298865, "lng": 117.06713361675914}, "feature": {"sight_features": "", "sight_content": ""}}, {"title": "维医药文化博览中心", "address": "111省道", "image": "", "rank": 28, "time": 2, "location": {"lat": 39.202879057298865, "lng": 117.06713361675914}, "feature": {"sight_features": "", "sight_content": ""}}, {"title": "特特乐儿童乐园", "address": "民族巷步行街乐惠超市二层", "image": "", "rank": 31, "time": 2, "location": {"lat": 44.160943520899046, "lng": 87.99013220823484}, "feature": {"sight_features": "", "sight_content": ""}}, {"title": "淘气包儿童游乐场", "address": "团结西路隆盛百货三楼", "image": "", "rank": 32, "time": 2, "location": {"lat": 44.15975170134489, "lng": 87.98120793384594}, "feature": {"sight_features": "", "sight_content": ""}}, {"title": "阜康市山水庄园", "address": "水磨河路万通进口汽车修理厂东北侧", "image": "", "rank": 33, "time": 5.0, "location": {"lat": 44.14648365389674, "lng": 87.98291877546427}, "feature": {"sight_features": "", "sight_content": ""}}, {"title": "九龙果业采摘园", "address": "九运街镇303省道", "image": "", "rank": 34, "time": 2, "location": {"lat": 44.17652304282775, "lng": 88.08232960587677}, "feature": {"sight_features": "", "sight_content": ""}}, {"title": "梧桐沟", "address": "新疆维吾尔自治区阜康市境内", "image": "", "rank": 35, "time": 2, "location": {"lat": 44.16313732134573, "lng": 87.99367790506243}, "feature": {"sight_features": "", "sight_content": ""}}, {"title": "阜康康乾街", "address": "新疆维吾尔自治区阜康市迎宾路旁", "image": "", "rank": 36, "time": 5.0, "location": {"lat": 44.156139663518985, "lng": 87.98052349843888}, "feature": {"sight_features": "", "sight_content": ""}}, {"title": "二二二团七连", "address": "昌吉回族自治州-阜康市-三零六乡道", "image": "", "rank": 37, "time": 2, "location": {"lat": 44.16313732134573, "lng": 87.99367790506243}, "feature": {"sight_features": "", "sight_content": ""}}, {"title": "二二二团农一队", "address": "昌吉回族自治州-阜康市", "image": "", "rank": 38, "time": 2, "location": {"lat": 44.16313732134573, "lng": 87.99367790506243}, "feature": {"sight_features": "", "sight_content": ""}}, {"title": "二二二团四连", "address": "昌吉回族自治州-阜康市", "image": "", "rank": 39, "time": 2, "location": {"lat": 44.16313732134573, "lng": 87.99367790506243}, "feature": {"sight_features": "", "sight_content": ""}}, {"title": "二二二团五连", "address": "昌吉回族自治州-阜康市", "image": "", "rank": 40, "time": 2, "location": {"lat": 44.16313732134573, "lng": 87.99367790506243}, "feature": {"sight_features": "", "sight_content": ""}}, {"title": "二二二团八连", "address": "昌吉回族自治州-阜康市", "image": "", "rank": 41, "time": 2, "location": {"lat": 44.16313732134573, "lng": 87.99367790506243}, "feature": {"sight_features": "", "sight_content": ""}}, {"title": "铁瓦寺", "address": "天池景区内", "image": "", "rank": 42, "time": 2, "location": {"lat": 25.772374748617572, "lng": 119.0063599785711}, "feature": {"sight_features": "", "sight_content": ""}}]}