{"cityName": "浮梁", "days": 2, "cityImage": "", "spots": [{"title": "瑶里景区", "address": "景德镇市东北43公里处", "image": "", "rank": 1, "time": 2.5, "location": {"lat": 29.274247711040953, "lng": 117.5708478155487}, "feature": {"sight_features": "特色1 在景德镇陶瓷的发祥地看看古窑口 特色2 漫步欣赏瓷茶古镇的老徽派建筑，尝尝当地特色的碱水粑。", "sight_content": "【景点介绍】\n瑶里，古名“窑里”，因是景德镇陶瓷发祥地而得名，远在唐代中叶，这里就有生产陶瓷的手工作坊。瑶里位于举世闻名的瓷都东北端，地处四大世界文化遗产(黄山、庐山、三清山和西递宏村)的中心，素有“瓷之源，茶之乡，林之海”的美称，是国家重点风景名胜区、AAAA级旅游景区、国家历史文化名镇、国家矿山公园、国家森林公园、国家重点文物保护单位、国家自然与文化双遗产。这片古老而又神奇的地方，既有深厚的文化积淀，又是人们享受大自然的绿色仙境。她集山岳、林海、瀑布、峡谷等自然风光和古镇、古窑址等人文景观为一体，山水、人文俱美，原始、古朴、清静，一年四季气候适宜，是享受大自然洗礼的绿色家园，是访古探幽、感悟天人合一的佳境。\n中国瑶里主要开发景区有千年古镇、绕南古窑文明遗址、汪胡冰臼大峡谷（原始森林、冰臼奇观、南山大瀑布）、高岭土世界矿山公园（东埠古村落、石群、千年古樟树）、瑶河漂流等五大景区。\n酒店有：梅岭度假山庄、假日酒店。\n·千年古镇·\n瑶里千年镇是江西省首批历史文化名城，从西汉建镇开始，迄今已有两千多年历史。这里荟萃了明清古建筑群和革命旧址等众多人文景观。古镇南踞象山，北卧狮山，一条逶迤清亮的瑶河贯穿东西，沿河错落有致地分布着数百幢明清古建筑，信步在古镇青石铺就的街巷中，会使您仿佛走进了明清社会的历史画卷。开国元帅陈毅曾在此工作和生活过，并领导了新四军改编。\n主要景点:\n明清商业街、程氏宗祠、狮冈胜览、宏毅祠、陈毅旧居、瑶河赏鱼。\n·汪胡冰臼大峡谷·\n中国瑶里汪胡冰臼大峡谷全长3000多米，是在第四纪冰川后期，冰川融水携带冰碎屑、岩屑物质，沿冰川裂隙自上向下以滴水穿石的方式，对下覆基岩进行强烈冲击和研磨，形成看似我国古代用于舂米的石臼。它是古冰川遗迹之一。\n主要景点:\n原始森林、冰臼奇观。\n·绕南古窑文明遗址·\n绕南古窑文明遗址集中反映了景德镇东河流域悠久灿烂的陶瓷文化，这里保存了多处宋、元、明等时期的古窑遗址，以及大量的古矿洞、古水碓等瓷业遗迹，对研究景德镇古代瓷业生产状况具有重要价值。其中，绕南堆积物是世界上已发现的最具代表性的陶瓷生产断面特征遗址。此外，丰富的陶瓷文化体验活动还可以使游客亲身感受到瓷文化悠久而迷人的魅力。\n主要景点：\n古淘洗池、古矿坑、釉果加工坊、陶瓷手工制坯作坊、古龙窑遗址（一号至五号）\n·高岭国家矿山公园·\n由高岭和东埠两个景区构成。高岭—东埠是江西省首批历史文化名村。其中，高岭是中国古代著名的瓷用原料产区和享誉世界的“高岭土”命名地，现为全国重点文物保护单位。东埠是明清之际高岭土、釉果等景德镇制瓷原料的集散地，被誉为“海上丝绸之路的源头”。这里现今仍保存着较为完整的古街巷、古店铺、古码头，是《闪闪的红星》等电影的外景拍摄地。\n主要景点:\n东埠古码头、东埠古街、金鸡石、高岭古道、二号古矿坑、接夫亭、聚秀亭、古樟树、龙口瀑布、一号古矿坑\n·瑶河漂流·\n位于江西瑶里风景区，电影《闪闪的红星》里就有“小小竹排江中游”的美丽镜头。两岸风光旖旎，古木村舍，稻田牧童，一派田园风光，水流时缓时急，既可感受惊险刺激的冲滩，又可以随波荡漾，怡然自得，轻松惬意。更加上瑶里秀美如画的自然风光和众多著名人文景观，带给游客拥抱清凉、体验动感、洗去尘埃、陶冶情操、升华心灵，体味瑶里的全新感受三爪仑原始森林激情漂。\n\n\n·梅岭山庄·\n梅岭度假山庄地处4A景区腹地，空气清新、天然氧吧，依山而建，临水而居，令您流连忘返；徽州古道直通旺胡景区的原始森林，它向游客叙述古老的传说。拥有木屋、竹楼、景观房、别墅区的吊脚楼客房、夜晚群星璀璨，与山庄夜景相互映辉，仿佛来到人间仙境。\n\n·假日酒店·\n\n瑶里假日酒店位于瑶里旅游接待中心，徽派建筑，飞檐翘角，粉墙黛瓦，掩映在青山绿水之中。拥有配置规格达四星级标准的客房、会议和餐饮娱乐于一体，四面环山、瑶河相伴，与古民居相连，还有大型生态停车场，一盏30米高的灯塔，照亮你回家的路。\n\n【景区导览图】"}}, {"title": "浮梁古县衙景区", "address": "景德镇市浮梁县浮梁古县衙景区", "image": "", "rank": 2, "time": 2.0, "location": {"lat": 29.375784259796973, "lng": 117.24921387021618}, "feature": {"sight_features": "特色1 江南唯一保存完整的清代五品县衙", "sight_content": "浮梁古城位于景德镇市郊，距离景德镇市区8公里。建于唐元和十二年（公元817年），历经唐、宋、元、明、清诸朝，是历代浮梁县治之所在。景德镇历史上一直隶属于浮梁县管辖，唐代诗人白居易 曾叹“商人重利轻别离，前月浮梁买茶去”充分体现了浮梁古城瓷茶文化源远流长。\n浮梁古县衙为江南唯一保存较完整的清代县衙，也是全国仅存的几处古县衙之一， 1987年定为省级重点文物保护单位，与东侧按察院配套，可全面反映封建社会统治体制。唐朝元和 11年（公元816 年），因水灾，迁浮梁县城于现在浮梁旧城处，历经唐、宋、元、明、清诸代至民国四年，长达1100余年。\n在一千多年的历史，浮梁以瓷茶互利、农工商并举的经济格局在各个时代发挥着重要的作用， 多次被钦点为五品县衙，唐朝天宝元年（公元742年），新昌改名为浮梁，为上邑（即五品官衔）；县衙内存有一块乾隆33年的“奉旨碑”--- “特调浮梁正堂加五级”；明间背檀坊下书有“钦加同知衔 ，赏戴花翎权知浮梁事张，毛公建” ，钦赐五品，为中国品位最高的县衙。\n县衙城门楼高 15.6米，由城墙、主楼和角楼组成。主楼座落在8米高的城墙之上，更显其巍峨高大，雄伟壮观。城墙巍巍耸立，外涂朱红，下筑券门洞 ，洞顶甚高，底阔3米多。城墙内外两侧，各有砖砌台阶，曲折通上墙顶。墙顶四周砖砌围廊，中部为主楼。门楼面阔5间，进深3米，重檐三滴水，歇山顶。三层檐下，四周有红色廊柱。上两层廊柱间置木栏板。楼内无柱，梁架结构简洁，联结严实。城墙两侧各有一角楼互为对称。\n主楼与角楼是城内唯一的高层木结构建筑。登上城门楼可一览古县衙美景，令人心旷神怡。历史文化长廊以贴地文化瓷砖展示千余年来浮梁的典故、历史和相关事迹 ，充分展示浮梁文化的发展历程，突出不同时代的文化内涵，以多个板块表现浮梁瓷、茶文化的源远流长和由古代文化走向现代文化的演变过程和发展趋势。在这里既可以享受茶文化的熏陶，也感受瓷术的丰富。两边铺筑雨花石健康道，以精湛的陶瓷艺术、深厚的文化底蕴和美丽的园林景观构成了世界独特的风景线。\n千年瓷坛从 2003年1月8日策划和筹建到竣工开坛，历时1年零9个月。它的主体结构由水车、水碓、古驿道、古码头、古窑、瓷鼎、瓷龙柱、擎天瓷柱八大部分组成，占地面积5476平方米，整个造型为外圆内方，体现了“天地合一”的儒教文化色彩。精益斋陶瓷博物馆陈列展出的藏品，既有艺术陶瓷名作，还有木雕、名砚、象牙雕塑、鸡血石、古代铜器等杂件，具有浓厚的民族艺术特色。博物馆的藏品，是中外来宾考察、研究中国陶瓷的重要基地，凝集了陶瓷艺术家的聪明才智。\n巍峨耸立的宋代红塔有“江西第一塔”之称， 1959年列为全省重点文物保护单位。全塔共七层，从地坪至复盆顶塔高37.8米。塔身皆用大型青砖实砌，每层均用青砖叠砌出外挑平台，不设钩栏。红 塔反映了北宋初期塔的建筑外貌和艺术造型的时代特征，是座具有融合中国古塔特殊风格和江南建筑特色的佛塔。素有浮梁“古代城徽”之誉，也是古老浮梁的象征、历史的见证。千年奇桂由四棵桂花树镶嵌而成。最老的一棵桂花树已生长一千二百年。在千年桂花树的哺育下，三棵小桂花相依生长，美仑美奂。其中有棵小桂花树竟由千年桂花树的腹中生长，此种生长方式非常独特，世上少有，可谓\" 母子连心、姐妹携手、四代同根、千年奇桂\"……"}}, {"title": "绕南村", "address": "景德镇市浮梁县瑶里镇东北", "image": "", "rank": 3, "time": 2.5, "location": {"lat": 29.550738122981674, "lng": 117.67024578731379}, "feature": {"sight_features": "", "sight_content": ""}}, {"title": "瑶里千年古镇", "address": "景德镇市浮梁县瑶里镇", "image": "", "rank": 4, "time": 4.5, "location": {"lat": 29.550738122981674, "lng": 117.67024578731379}, "feature": {"sight_features": "", "sight_content": ""}}, {"title": "皇窑景区", "address": "景德镇市浮梁县高岭大道668号", "image": "", "rank": 5, "time": 2.5, "location": {"lat": 29.330340881788423, "lng": 117.31018906597521}, "feature": {"sight_features": "特色1 天下客游景德镇，谁人不来皇窑行 特色2 充分领略千年瓷都的迷人瓷韵 特色3 亲眼目睹从泥变瓷的神奇过程", "sight_content": "景德镇皇窑景区占地210多亩，地处景德镇陶瓷发祥地的南河之滨；南、北邻近盈田、白虎湾等唐、五代、宋、元窑址，毗邻景德镇陶瓷学院。园区分6个院落：有全面展示御窑传统制瓷工艺的宋、元、明、清作坊；有规模化的现代高新技术制瓷生产线；有皇窑陶瓷文化研究院、国际陶瓷文化交流中心、古陶瓷鉴定咨询服务部、古陶瓷鉴定高级研修班、皇窑陶瓷艺术博物馆；有全国知名书画家陶瓷创业园；有全国高等美术院校陶瓷专业大学生实习基地、有美术类大学毕业生就业孵化基地、有全国中小学生陶吧夏令营营地；有儒、道、佛陶瓷艺术创作与展示区。皇窑景区是一个全景再现、活态传承、真实演绎历代皇家御窑制瓷技艺为核心内容的皇窑陶瓷文化旅游景区。\n“天下客游景德镇 ，谁人不来皇窑行”。今天，皇窑人怀着对历史的敬畏，对先人的感恩和对后人的负责，确立“承千年瓷艺，传千古瓷魂”的发展思路，坚持“体验御窑工艺，尽享皇家瓷艺”的发展模式，着力开发传统制瓷工艺游、现代陶瓷工业游、古今陶瓷艺术游、陶瓷体验文化游、陶瓷珍品鉴赏游、陶瓷文化交流游、古瓷鉴定研修游，着力打造一个既有历史厚重感，又有现实体验感的梦想瓷苑；一个亲身参与、趣味横生的开心瓷苑。让每一个来皇窑的人都能在这里祭祖朝圣，寻根问源，放飞梦想；都能来这里遨游皇家的园林，穿越时空的隧道，重温历史的记忆，感悟御窑的工艺，鉴赏皇窑的瓷艺，尽享皇窑的温情。"}}, {"title": "金竹山寨", "address": "景德镇市浮梁县鹅湖镇", "image": "", "rank": 6, "time": 2, "location": {"lat": 29.503024932923445, "lng": 117.50494743525647}, "feature": {"sight_features": "", "sight_content": ""}}, {"title": "高岭国家矿山公园", "address": "景德镇市浮梁县069乡道西50米", "image": "", "rank": 7, "time": 3.5, "location": {"lat": 29.35778823752936, "lng": 117.22146608078525}, "feature": {"sight_features": "", "sight_content": ""}}, {"title": "玉田水库", "address": "景德镇市浮梁县", "image": "", "rank": 8, "time": 1.5, "location": {"lat": 29.35778823752936, "lng": 117.22146608078525}, "feature": {"sight_features": "", "sight_content": ""}}, {"title": "狮冈胜览", "address": "景德镇市浮梁县瑶里古镇内", "image": "", "rank": 9, "time": 2, "location": {"lat": 29.550206494481095, "lng": 117.5894526991123}, "feature": {"sight_features": "", "sight_content": ""}}, {"title": "明清商业街", "address": "景德镇市浮梁县瑶里古镇内", "image": "", "rank": 10, "time": 2, "location": {"lat": 29.550206494481095, "lng": 117.5894526991123}, "feature": {"sight_features": "", "sight_content": ""}}, {"title": "程氏宗祠", "address": "景德镇瑶里镇", "image": "", "rank": 11, "time": 2, "location": {"lat": 29.550738122981674, "lng": 117.67024578731379}, "feature": {"sight_features": "", "sight_content": ""}}, {"title": "汪湖生态游览区", "address": "景德镇市浮梁县S205", "image": "", "rank": 12, "time": 4.5, "location": {"lat": 29.35778823752936, "lng": 117.22146608078525}, "feature": {"sight_features": "", "sight_content": ""}}, {"title": "红塔", "address": "景德镇市浮梁县", "image": "", "rank": 13, "time": 2, "location": {"lat": 29.35778823752936, "lng": 117.22146608078525}, "feature": {"sight_features": "", "sight_content": ""}}, {"title": "湖田古瓷窑遗址", "address": "景德镇市浮梁县", "image": "", "rank": 14, "time": 2, "location": {"lat": 29.35778823752936, "lng": 117.22146608078525}, "feature": {"sight_features": "", "sight_content": ""}}, {"title": "绕南陶瓷主题园区", "address": "景德镇市浮梁县S205东100米瑶里景区", "image": "", "rank": 15, "time": 2, "location": {"lat": 29.56233455135185, "lng": 117.59006737184373}, "feature": {"sight_features": "", "sight_content": ""}}, {"title": "高岭山", "address": "景德镇市浮梁县瑶里镇", "image": "", "rank": 16, "time": 2, "location": {"lat": 29.550738122981674, "lng": 117.67024578731379}, "feature": {"sight_features": "", "sight_content": ""}}, {"title": "诸仙洞", "address": "景德镇市浮梁县寿安镇", "image": "", "rank": 17, "time": 2, "location": {"lat": 29.228541403153365, "lng": 117.32954285426594}, "feature": {"sight_features": "", "sight_content": ""}}, {"title": "魁星阁", "address": "景德镇市浮梁县县衙路浮梁古县衙景区内", "image": "", "rank": 18, "time": 0.25, "location": {"lat": 29.375784259796973, "lng": 117.24921387021618}, "feature": {"sight_features": "", "sight_content": ""}}, {"title": "梅岭休闲度假区", "address": "景德镇市浮梁县瑶里镇梅岭村", "image": "", "rank": 19, "time": 2, "location": {"lat": 29.54902862155219, "lng": 117.64984494310403}, "feature": {"sight_features": "", "sight_content": ""}}, {"title": "浮梁县博物馆", "address": "景德镇市浮梁县朝阳东大道26号", "image": "", "rank": 20, "time": 1.0, "location": {"lat": 29.357816893550204, "lng": 117.22425389018875}, "feature": {"sight_features": "", "sight_content": ""}}, {"title": "瑶里博物馆", "address": "景德镇市瑶里镇", "image": "", "rank": 21, "time": 2.5, "location": {"lat": 29.550738122981674, "lng": 117.67024578731379}, "feature": {"sight_features": "", "sight_content": ""}}, {"title": "复源桥", "address": "景德镇市浮梁县瑶里古镇内", "image": "", "rank": 22, "time": 2, "location": {"lat": 29.550206494481095, "lng": 117.5894526991123}, "feature": {"sight_features": "", "sight_content": ""}}, {"title": "宏毅祠", "address": "景德镇市浮梁县瑶里古镇内", "image": "", "rank": 23, "time": 2, "location": {"lat": 29.550206494481095, "lng": 117.5894526991123}, "feature": {"sight_features": "", "sight_content": ""}}, {"title": "瓷宫", "address": "景德镇浮梁县新平村031乡道北50", "image": "", "rank": 24, "time": 2, "location": {"lat": 29.390554257865546, "lng": 117.27332145353532}, "feature": {"sight_features": "", "sight_content": ""}}, {"title": "张氏宗祠", "address": "江西省景德镇市浮梁县瑶里古镇内", "image": "", "rank": 25, "time": 2, "location": {"lat": 29.550206494481095, "lng": 117.5894526991123}, "feature": {"sight_features": "", "sight_content": ""}}, {"title": "高际禅林寺", "address": "景德镇市浮梁县瑶里镇境内", "image": "", "rank": 26, "time": 2, "location": {"lat": 29.550738122981674, "lng": 117.67024578731379}, "feature": {"sight_features": "", "sight_content": ""}}, {"title": "龙窑", "address": "江西省景德镇市浮梁县瑶里镇瑶里汪湖区", "image": "", "rank": 27, "time": 0.75, "location": {"lat": 29.550738122981674, "lng": 117.67024578731379}, "feature": {"sight_features": "", "sight_content": ""}}, {"title": "郑家山", "address": "瑶里通往婺源石城的郑家山坳中", "image": "", "rank": 28, "time": 1.5, "location": {"lat": 29.353058419695238, "lng": 117.8516986260637}, "feature": {"sight_features": "", "sight_content": ""}}, {"title": "南山瀑布", "address": "江西省景德镇市浮梁县瑶里镇瑶里风景区汪胡生态游览区内", "image": "", "rank": 29, "time": 2, "location": {"lat": 29.552942260250475, "lng": 117.62841416198334}, "feature": {"sight_features": "", "sight_content": ""}}, {"title": "陈毅故居", "address": "瑶里镇", "image": "", "rank": 30, "time": 1.5, "location": {"lat": 29.550738122981674, "lng": 117.67024578731379}, "feature": {"sight_features": "", "sight_content": ""}}, {"title": "诸仙洞野生动物园", "address": "寿安镇诸仙洞风景区", "image": "", "rank": 31, "time": 2, "location": {"lat": 29.2270243749287, "lng": 117.32881538580317}, "feature": {"sight_features": "", "sight_content": ""}}, {"title": "曹源洞", "address": "江西省萍乡市湘东区泉田乡甘泉村 337016", "image": "", "rank": 32, "time": 2, "location": {"lat": 27.665380585431574, "lng": 113.77587790976168}, "feature": {"sight_features": "", "sight_content": ""}}, {"title": "白虎湾古瓷遗址", "address": "江西省浮梁县白虎湾村 333403", "image": "", "rank": 33, "time": 2, "location": {"lat": 29.33130417277644, "lng": 117.30422053911795}, "feature": {"sight_features": "", "sight_content": ""}}, {"title": "浮梁廉史馆", "address": "景德镇浮梁古县衙景区浮梁古县衙内", "image": "", "rank": 34, "time": 2.0, "location": {"lat": 29.375784259796973, "lng": 117.24921387021618}, "feature": {"sight_features": "", "sight_content": ""}}, {"title": "希尔乐儿童乐园浮梁店", "address": "江西省景德镇市浮梁县高岭南路6号", "image": "", "rank": 35, "time": 2, "location": {"lat": 29.355917749621444, "lng": 117.22086037943093}, "feature": {"sight_features": "", "sight_content": ""}}, {"title": "森林公园", "address": "利发路东100米", "image": "", "rank": 36, "time": 2.5, "location": {"lat": 29.36369212940039, "lng": 117.22928133871947}, "feature": {"sight_features": "", "sight_content": ""}}, {"title": "浮梁县宝积寺", "address": "江西省景德镇市浮梁县X096", "image": "", "rank": 37, "time": 2, "location": {"lat": 29.35778823752936, "lng": 117.22146608078525}, "feature": {"sight_features": "", "sight_content": ""}}, {"title": "宝积禅寺", "address": "江西省景德镇市浮梁县", "image": "", "rank": 38, "time": 2, "location": {"lat": 29.35778823752936, "lng": 117.22146608078525}, "feature": {"sight_features": "", "sight_content": ""}}, {"title": "大型露天采矿遗址", "address": "景德镇市浮梁县069乡道附近高岭国家矿山公园高岭瓷土矿遗址内", "image": "", "rank": 39, "time": 2, "location": {"lat": 29.488398755762987, "lng": 117.54081645535959}, "feature": {"sight_features": "", "sight_content": ""}}, {"title": "瑶河大漂流", "address": "景德镇市浮梁县瑶里镇瑶里风景区内", "image": "", "rank": 40, "time": 2, "location": {"lat": 29.552942260250475, "lng": 117.62841416198334}, "feature": {"sight_features": "", "sight_content": ""}}, {"title": "五华山宗教文化旅游区", "address": "江西省景德镇市珠山区瑶里", "image": "", "rank": 41, "time": 2, "location": {"lat": 29.31530995202228, "lng": 117.27355684101954}, "feature": {"sight_features": "", "sight_content": ""}}, {"title": "宝相寺", "address": "景德镇市浮梁县", "image": "", "rank": 42, "time": 1.5, "location": {"lat": 29.35778823752936, "lng": 117.22146608078525}, "feature": {"sight_features": "", "sight_content": ""}}, {"title": "景德镇瑶里人家原生态度假村", "address": "景德镇浮梁县瑶里镇南泊村128号", "image": "", "rank": 43, "time": 3.5, "location": {"lat": 29.528233350190305, "lng": 117.55296033673126}, "feature": {"sight_features": "", "sight_content": ""}}, {"title": "居士林", "address": "032乡道附近", "image": "", "rank": 44, "time": 2, "location": {"lat": 31.71938258658872, "lng": 118.55763481723513}, "feature": {"sight_features": "", "sight_content": ""}}, {"title": "春湖圣岛", "address": "江西省景德镇市浮梁县三贤湖公园西侧", "image": "", "rank": 45, "time": 2, "location": {"lat": 29.361696929023278, "lng": 117.21590990669932}, "feature": {"sight_features": "", "sight_content": ""}}, {"title": "二号龙窑遗址", "address": "景德镇市浮梁县087县道附近绕南陶瓷主题园区内", "image": "", "rank": 46, "time": 2, "location": {"lat": 29.4887071685819, "lng": 117.51082196342519}, "feature": {"sight_features": "", "sight_content": ""}}, {"title": "天宝龙窑", "address": "景德镇市浮梁县鹅湖镇柳溪村", "image": "", "rank": 47, "time": 2, "location": {"lat": 29.445006162255634, "lng": 117.48760929630905}, "feature": {"sight_features": "特色1 见证着陶瓷行业百年来的变迁", "sight_content": "天宝龙窑建于1974年，位于江西省景德镇市浮梁县鹅湖镇柳溪村（原天宝乡柳溪村，故名天宝龙窑）。其结构为东西朝向；窑体内部长66米，宽2米，高1.8米;外围长66米，宽6米，高2.5米;投柴口73个;烟囱口径60公分，宽1米5，高4米。坡度30度。天宝龙窑位于高领山脉的西南部，与瑶里·东埠·高领所属同一区域。自然生态极佳，拥有天然高温陶土。天宝龙窑远处高峦雾霭·钟林俊秀，近处绿草青青·羊牛成群，呼吸吞吐之间尽是新鲜的空气。"}}, {"title": "图书馆", "address": "朝阳东大道", "image": "", "rank": 48, "time": 1.0, "location": {"lat": 29.3590566202771, "lng": 117.23302069709851}, "feature": {"sight_features": "", "sight_content": ""}}, {"title": "瑶里漂流", "address": "瑶里镇瑶里漂流", "image": "", "rank": 49, "time": 2, "location": {"lat": 29.550738122981674, "lng": 117.67024578731379}, "feature": {"sight_features": "", "sight_content": ""}}, {"title": "景德镇美术馆", "address": "民福路99号", "image": "", "rank": 50, "time": 3.0, "location": {"lat": 31.3544892170118, "lng": 104.21393323870905}, "feature": {"sight_features": "", "sight_content": ""}}, {"title": "快乐酷宝店", "address": "洪源镇洪源街52号", "image": "", "rank": 51, "time": 2, "location": {"lat": 29.322113992934664, "lng": 117.16124956065019}, "feature": {"sight_features": "", "sight_content": ""}}, {"title": "金地美景步行街", "address": "江西省浮梁县金地美景步行街", "image": "", "rank": 52, "time": 2, "location": {"lat": 29.354502441847597, "lng": 117.22333066478592}, "feature": {"sight_features": "", "sight_content": ""}}, {"title": "塘坞口", "address": "景德镇市-浮梁县", "image": "", "rank": 53, "time": 2, "location": {"lat": 29.35778823752936, "lng": 117.22146608078525}, "feature": {"sight_features": "", "sight_content": ""}}]}