{"cityName": "富宁", "days": 2, "cityImage": "", "spots": [{"title": "富宁县多多岛儿童乐园", "address": "云南省文山壮族苗族自治州富宁县东风路", "image": "", "rank": 1, "time": 2, "location": {"lat": 23.63110841726181, "lng": 105.63457921735527}, "feature": {"sight_features": "", "sight_content": ""}}, {"title": "清华洞旅游区", "address": "富宁县城西郊5公里许", "image": "", "rank": 2, "time": 2, "location": {"lat": 23.631380409520464, "lng": 105.63749017905431}, "feature": {"sight_features": "", "sight_content": ""}}, {"title": "普阳瀑布", "address": "云南省富宁县木央乡普阳村 663414", "image": "", "rank": 3, "time": 2, "location": {"lat": 23.47737465193423, "lng": 105.28033301991785}, "feature": {"sight_features": "", "sight_content": ""}}, {"title": "百越公园", "address": "富州路普厅小区", "image": "", "rank": 4, "time": 2, "location": {"lat": 42.269544739419565, "lng": 123.83295063306315}, "feature": {"sight_features": "", "sight_content": ""}}, {"title": "宏文游乐园", "address": "富州广场", "image": "", "rank": 5, "time": 2, "location": {"lat": 26.790703528736984, "lng": 117.83385518397895}, "feature": {"sight_features": "", "sight_content": ""}}, {"title": "欢乐谷电游竞技场", "address": "文化路8", "image": "", "rank": 6, "time": 2, "location": {"lat": 23.63179747873463, "lng": 105.63119512353413}, "feature": {"sight_features": "", "sight_content": ""}}, {"title": "富宁县图书馆", "address": "文华社区滨河路155号", "image": "", "rank": 7, "time": null, "location": {"lat": 41.79327395327041, "lng": 123.44210029336777}, "feature": {"sight_features": "", "sight_content": ""}}, {"title": "文化馆", "address": "东风路43号", "image": "", "rank": 8, "time": 2, "location": {"lat": 40.69092299471869, "lng": 122.28172899984384}, "feature": {"sight_features": "", "sight_content": ""}}, {"title": "花果山林场(马市街)", "address": "马市路122号", "image": "", "rank": 9, "time": 2, "location": {"lat": 31.27607358373468, "lng": 120.5538002416883}, "feature": {"sight_features": "", "sight_content": ""}}]}