{"cityName": "阜宁", "days": 2, "cityImage": "", "spots": [{"title": "金沙湖旅游度假区", "address": "盐城市阜宁县金沙湖开发管理委员会", "image": "", "rank": 1, "time": 2, "location": {"lat": 33.71569264458428, "lng": 119.8149675276748}, "feature": {"sight_features": "特色1 著名的东园新石器文化遗址（凭有效证件免费参观）", "sight_content": "金沙湖旅游景区位于阜宁县城南新区南部，区域面积22.61平方公里，其中水域面积约一万亩。金沙湖的形成是由长江和淮河大量泥沙的入海，在浅海湾底部逐步堆积而形成了沙堤。沙堤上的黄沙沙质纯净、沙粒均匀，是工业、建筑业的理想材料。1970年，为了发展经济，区域内建立了阜宁县唯一合法的采沙企业——施庄沙矿。经过30多年的黄沙开采，形成了如今水域宽广的金沙湖。\n金沙湖的快乐滑沙场是长三角地区唯一的滑沙场，是用金沙湖地区的特有沙子堆积成的滑沙场高达30米左右，滑沙坡道长达60——80米 等，利用斜坡的坡度产生的人体前引力，让人从高处下滑，产生速度，体验惊险、刺激的快感，让人在惊险之中娱悦身心，减轻压力。同时，登上滑 沙场的高峰，还有一览众山小的感觉，金沙湖的美景和周边的田园美景尽收眼底。快乐滑沙重在体验，玩了都说奇，玩后都说好。\n金沙湖沙雕艺术园占地面积达20000多平方米，以金沙为原料，以大美金沙湖为背景，以世界迪斯尼乐园和新四军在盐阜为主题，由国内外30多位 沙雕艺术大师精心创作了80多座沙雕作品，沙雕最大高度达27.75米，不仅是我国现有沙雕项目中规模最大、内容最多、品位最高的沙雕艺术园，其内 容、高度、长度、用沙量也堪称世界之最。湖中产出的鱼、虾、蚌、蟹味道鲜美，纯净的湖水加上优良的土质，区域内产出的绿色农产品驰名大江南北。区域内自然景观别致独特，千亩连片的沙塘，烟波浩渺，水清见底，珍禽、候鸟随处可见。春天桃红柳绿，莺蝶翻飞；夏天莲叶碧天，清香溢远；金秋时节，蓝天碧水，硕果飘香。\n另外，在1978年东园新石器文化遗址的发现，改写了盐城市的成陆史。这里还有“千年古镇——喻口”、“巢城遗址”、“南北朝古井”、“汉代墓群”、“镇街石”、“圣旨石”、“百年石榴树”等风物遗迹。"}}, {"title": "白天鹅公园", "address": "江苏省盐城市阜宁县", "image": "", "rank": 2, "time": 2, "location": {"lat": 33.765078727087015, "lng": 119.80958074885365}, "feature": {"sight_features": "", "sight_content": ""}}, {"title": "金沙湖滑雪场", "address": "盐城市阜宁县金沙湖景区", "image": "", "rank": 3, "time": 2, "location": {"lat": 33.765078727087015, "lng": 119.80958074885365}, "feature": {"sight_features": "", "sight_content": ""}}, {"title": "荷叶亭", "address": "盐城阜宁县通榆北路", "image": "", "rank": 4, "time": 2, "location": {"lat": 33.79203423536156, "lng": 119.79241270494713}, "feature": {"sight_features": "", "sight_content": ""}}, {"title": "盐城抗击623特大龙卷风纪念馆", "address": "苏州路420号", "image": "", "rank": 5, "time": 3.0, "location": {"lat": 33.759130180167624, "lng": 119.78802076744603}, "feature": {"sight_features": "", "sight_content": ""}}, {"title": "阜宁县马家荡梦里水乡休闲农庄", "address": "江苏省盐城市阜宁县阜杨线", "image": "", "rank": 6, "time": 2, "location": {"lat": 33.67646561602349, "lng": 119.67711323623205}, "feature": {"sight_features": "", "sight_content": ""}}, {"title": "建设公园", "address": "肇工北街108(近建设西路)", "image": "", "rank": 7, "time": 1.0, "location": {"lat": 41.83531308262795, "lng": 123.35238790727338}, "feature": {"sight_features": "", "sight_content": ""}}, {"title": "白天鹅公园游乐场", "address": "白天鹅公园", "image": "", "rank": 8, "time": 2, "location": {"lat": 33.76889527913262, "lng": 119.79882760250918}, "feature": {"sight_features": "", "sight_content": ""}}, {"title": "阜宁县文化馆", "address": "胜利路70号", "image": "", "rank": 9, "time": 2, "location": {"lat": 36.76179593709754, "lng": 112.70623653124848}, "feature": {"sight_features": "", "sight_content": ""}}, {"title": "向阳社区图书阅览室", "address": "汶河路104号", "image": "", "rank": 10, "time": 2, "location": {"lat": 33.794903059556084, "lng": 119.79995949979075}, "feature": {"sight_features": "", "sight_content": ""}}, {"title": "海盗船", "address": "江苏省盐城市阜宁县石字街567-、569-、571号", "image": "", "rank": 11, "time": 2, "location": {"lat": 33.78936567221356, "lng": 119.80633121850185}, "feature": {"sight_features": "", "sight_content": ""}}, {"title": "盐城泰鳄湖生态公园", "address": "合利社区合利居委会六组", "image": "", "rank": 12, "time": 3.0, "location": {"lat": 33.822034646199754, "lng": 119.92224173438754}, "feature": {"sight_features": "", "sight_content": ""}}, {"title": "阜宁规划馆", "address": "江苏省阜宁县香港路", "image": "", "rank": 13, "time": 2, "location": {"lat": 33.75745385315611, "lng": 119.82262821867401}, "feature": {"sight_features": "", "sight_content": ""}}, {"title": "芦蒲烈士陵园", "address": "盐城市阜宁县童营干渠附近", "image": "", "rank": 14, "time": 2, "location": {"lat": 33.75403157450473, "lng": 119.53271903813419}, "feature": {"sight_features": "", "sight_content": ""}}, {"title": "华中局第一次扩大会议旧址", "address": "盐城市阜宁县羊寨镇单家港村", "image": "", "rank": 15, "time": 2, "location": {"lat": 33.86541790914586, "lng": 119.60209637550088}, "feature": {"sight_features": "", "sight_content": ""}}, {"title": "天主教堂", "address": "盐城市阜宁县", "image": "", "rank": 16, "time": 1.0, "location": {"lat": 33.765078727087015, "lng": 119.80958074885365}, "feature": {"sight_features": "", "sight_content": ""}}, {"title": "宝林寺", "address": "益林镇三里桥", "image": "", "rank": 17, "time": 2.5, "location": {"lat": 33.60546065647991, "lng": 119.62722616761695}, "feature": {"sight_features": "", "sight_content": ""}}, {"title": "儿童乐园", "address": "江苏省盐城市阜宁县星辰大道44附近", "image": "", "rank": 18, "time": 2, "location": {"lat": 33.597148755854114, "lng": 119.61986268908043}, "feature": {"sight_features": "", "sight_content": ""}}, {"title": "人民公园护法亭", "address": "江苏省盐城市阜宁县凯发大道附近", "image": "", "rank": 19, "time": 2, "location": {"lat": 33.59450618408833, "lng": 119.63174591723104}, "feature": {"sight_features": "", "sight_content": ""}}, {"title": "东沟太平庵", "address": "东沟镇沿河路125号", "image": "", "rank": 20, "time": 2, "location": {"lat": 33.59580093005115, "lng": 119.60850145997352}, "feature": {"sight_features": "", "sight_content": ""}}, {"title": "新区基督教会", "address": "刘阳路附近", "image": "", "rank": 21, "time": 2, "location": {"lat": 33.7749957025793, "lng": 119.82887058588321}, "feature": {"sight_features": "", "sight_content": ""}}, {"title": "东园新石器文化遗址", "address": "江苏阜宁县施庄镇东园村", "image": "", "rank": 22, "time": 2, "location": {"lat": 33.71225275427887, "lng": 119.8391873614618}, "feature": {"sight_features": "", "sight_content": ""}}, {"title": "巢城遗址", "address": "江苏省阜宁县金沙湖景区的喻口村", "image": "", "rank": 23, "time": 2, "location": {"lat": 33.74551290304213, "lng": 119.77773224686223}, "feature": {"sight_features": "", "sight_content": ""}}, {"title": "板湖法治文化公园-法宣亭", "address": "江苏省盐城市阜宁县府前街1号中共板湖镇委员会附近", "image": "", "rank": 24, "time": 2, "location": {"lat": 33.69257624621078, "lng": 119.59302635095315}, "feature": {"sight_features": "", "sight_content": ""}}, {"title": "三甲基督教会", "address": "硕东线南50米", "image": "", "rank": 25, "time": 2, "location": {"lat": 33.621508868328675, "lng": 119.74190592320815}, "feature": {"sight_features": "", "sight_content": ""}}, {"title": "许湾基督教会", "address": "射阜淮公路南200米", "image": "", "rank": 26, "time": 2, "location": {"lat": 33.67790348579256, "lng": 119.71485856503182}, "feature": {"sight_features": "", "sight_content": ""}}, {"title": "郭墅镇张庄中心教会", "address": "向阳路112号附近", "image": "", "rank": 27, "time": null, "location": {"lat": 39.39629495858314, "lng": 115.73706159500541}, "feature": {"sight_features": "", "sight_content": ""}}, {"title": "立新基督教会", "address": "江苏省盐城市阜宁县羊寨镇立新村黄苏公路东", "image": "", "rank": 28, "time": 2, "location": {"lat": 33.861454962857884, "lng": 119.65528286905074}, "feature": {"sight_features": "", "sight_content": ""}}, {"title": "基督教坎东教会", "address": "吕庄路西150米", "image": "", "rank": 29, "time": 2, "location": {"lat": 32.485618981097005, "lng": 119.58313268804943}, "feature": {"sight_features": "", "sight_content": ""}}, {"title": "奇趣玩国儿童乐园", "address": "阜城大街249", "image": "", "rank": 30, "time": 2, "location": {"lat": 33.78916014873487, "lng": 119.79538087433522}, "feature": {"sight_features": "", "sight_content": ""}}, {"title": "薛庄基督教会", "address": "殷马公路北50米", "image": "", "rank": 31, "time": 2, "location": {"lat": 33.75731089652103, "lng": 119.66364230519429}, "feature": {"sight_features": "", "sight_content": ""}}, {"title": "迷失儿童乐园", "address": "香港路623", "image": "", "rank": 32, "time": 2, "location": {"lat": 33.766040616964766, "lng": 119.80943969782079}, "feature": {"sight_features": "", "sight_content": ""}}, {"title": "马集基督堂", "address": "马集大街132号附近", "image": "", "rank": 33, "time": 2, "location": {"lat": 33.74812538400826, "lng": 119.55643021662}, "feature": {"sight_features": "", "sight_content": ""}}, {"title": "陈集教会", "address": "殷马公路南50米", "image": "", "rank": 34, "time": 2, "location": {"lat": 33.75656052509758, "lng": 119.66364230519429}, "feature": {"sight_features": "", "sight_content": ""}}, {"title": "阜宁县城东基督教会", "address": "江苏省盐城市阜宁县阜城街道阜阳路东郊幼儿园北150米", "image": "", "rank": 35, "time": 2, "location": {"lat": 33.79038283868314, "lng": 119.81898983432458}, "feature": {"sight_features": "", "sight_content": ""}}, {"title": "真耶稣教会阜城教会", "address": "江苏省盐城市阜宁县哈尔滨路", "image": "", "rank": 36, "time": 2, "location": {"lat": 33.77010989493565, "lng": 119.80753873334464}, "feature": {"sight_features": "", "sight_content": ""}}, {"title": "马家荡海洋度假村", "address": "阜宁县马家荡益马路1号", "image": "", "rank": 37, "time": 2, "location": {"lat": 33.492342598600445, "lng": 119.62393881860318}, "feature": {"sight_features": "", "sight_content": ""}}, {"title": "小勇士儿童拓展乐园", "address": "江苏省盐城市阜宁县上海路409号阜宁新苏国际购物中心1楼", "image": "", "rank": 38, "time": 2, "location": {"lat": 33.76575027404545, "lng": 119.80052776605974}, "feature": {"sight_features": "", "sight_content": ""}}, {"title": "光明林", "address": "江苏省盐城市阜宁县城河路盐城市阜宁工商行政管理局附近", "image": "", "rank": 39, "time": 2, "location": {"lat": 33.79243421354466, "lng": 119.79639506125599}, "feature": {"sight_features": "", "sight_content": ""}}, {"title": "市民广场", "address": "江苏省盐城市阜宁县阜城街道南京路市民广场", "image": "", "rank": 40, "time": 1.0, "location": {"lat": 33.75915092641239, "lng": 119.80564531014326}, "feature": {"sight_features": "", "sight_content": ""}}, {"title": "河滨度假村", "address": "阜城东大街436", "image": "", "rank": 41, "time": 2, "location": {"lat": 33.78688097684095, "lng": 119.82008428394437}, "feature": {"sight_features": "", "sight_content": ""}}, {"title": "新建基督教会", "address": "沟雪线北50米", "image": "", "rank": 42, "time": 1.0, "location": {"lat": 33.685830964725824, "lng": 119.9388259641533}, "feature": {"sight_features": "", "sight_content": ""}}, {"title": "阜宁县城基督教会", "address": "澳门路138号", "image": "", "rank": 43, "time": 2, "location": {"lat": 31.25307127889811, "lng": 121.45229703324833}, "feature": {"sight_features": "", "sight_content": ""}}, {"title": "阜宁华祥水上乐园", "address": "向阳路166号", "image": "", "rank": 44, "time": 2, "location": {"lat": 38.69211074497532, "lng": 115.7799984693983}, "feature": {"sight_features": "", "sight_content": ""}}, {"title": "阜宁县西郊植物园", "address": "阜城西大街129号", "image": "", "rank": 45, "time": 2, "location": {"lat": 33.78956339433113, "lng": 119.7792493734787}, "feature": {"sight_features": "", "sight_content": ""}}, {"title": "市民广场(新兴路)", "address": "益林镇鑫鑫花苑", "image": "", "rank": 46, "time": 2, "location": {"lat": 33.59790401201039, "lng": 119.62360114556198}, "feature": {"sight_features": "", "sight_content": ""}}, {"title": "阜宁新沟法治文化广场", "address": "新胜街与毓鑫街交叉口北100米", "image": "", "rank": 47, "time": 2, "location": {"lat": 33.76739059337111, "lng": 119.73364123493995}, "feature": {"sight_features": "", "sight_content": ""}}, {"title": "阜宁县西郊度假村", "address": "盐城阜城镇新桥村居委会三组", "image": "", "rank": 48, "time": 2, "location": {"lat": 33.77333334563532, "lng": 119.81017866100109}, "feature": {"sight_features": "", "sight_content": ""}}, {"title": "新四军军部旧址", "address": "停翅湾小学西100米", "image": "", "rank": 49, "time": 1.5, "location": {"lat": 33.23631854873526, "lng": 118.83755184465511}, "feature": {"sight_features": "", "sight_content": ""}}, {"title": "福寿园", "address": "通榆北路639号", "image": "", "rank": 50, "time": 2, "location": {"lat": 32.56109020982656, "lng": 120.48797874449912}, "feature": {"sight_features": "", "sight_content": ""}}, {"title": "芦蒲烈士塔", "address": "江苏省盐城市阜宁县童营干渠附近", "image": "", "rank": 51, "time": 2, "location": {"lat": 33.75403157450473, "lng": 119.53271903813419}, "feature": {"sight_features": "", "sight_content": ""}}, {"title": "龙湖新城文化广场", "address": "协鑫大道附近", "image": "", "rank": 52, "time": 2, "location": {"lat": 34.29702591516362, "lng": 117.32447181513503}, "feature": {"sight_features": "", "sight_content": ""}}, {"title": "明星书画社", "address": "振兴中路", "image": "", "rank": 53, "time": 2, "location": {"lat": 31.165988320986173, "lng": 121.49900202167916}, "feature": {"sight_features": "", "sight_content": ""}}, {"title": "森风奥迪阜宁城市展厅", "address": "阜东大桥南50米", "image": "", "rank": 54, "time": null, "location": {"lat": 33.78856473382998, "lng": 119.82617761508301}, "feature": {"sight_features": "", "sight_content": ""}}, {"title": "益林规划展览馆", "address": "新兴路", "image": "", "rank": 55, "time": 2, "location": {"lat": 34.52592020197193, "lng": 112.18613598975959}, "feature": {"sight_features": "", "sight_content": ""}}, {"title": "阜宁中心动漫水上乐园", "address": "北京路和济南路交界处阜宁中心", "image": "", "rank": 56, "time": 2, "location": {"lat": 33.749542455306965, "lng": 119.82193830566946}, "feature": {"sight_features": "", "sight_content": ""}}, {"title": "天逸温泉", "address": "沟墩大桥南200米兴达加油站旁", "image": "", "rank": 57, "time": 2, "location": {"lat": 33.670536036364, "lng": 119.89961792359333}, "feature": {"sight_features": "", "sight_content": ""}}, {"title": "安军美术馆", "address": "窑桥路50号", "image": "", "rank": 58, "time": null, "location": {"lat": 33.793199985690904, "lng": 119.80878326466258}, "feature": {"sight_features": "", "sight_content": ""}}, {"title": "3D魔幻艺术展", "address": "阜城大街66号(大汉宾馆四楼)", "image": "", "rank": 59, "time": null, "location": {"lat": 33.786454439566825, "lng": 119.8095128845673}, "feature": {"sight_features": "", "sight_content": ""}}, {"title": "青年书画社", "address": "射河东路599-12号", "image": "", "rank": 60, "time": 2, "location": {"lat": 33.786522053152105, "lng": 119.8110158817364}, "feature": {"sight_features": "", "sight_content": ""}}]}