{"cityName": "富平", "days": 2, "cityImage": "", "spots": [{"title": "富平陶艺村", "address": "渭南市富平县乔山路一号", "image": "", "rank": 1, "time": 2.5, "location": {"lat": 34.77559458916512, "lng": 109.18901136205719}, "feature": {"sight_features": "特色1 陶艺中的博物馆", "sight_content": "富平陶艺村位于西安东北方向，车程75公里左右，是国家aaaa级景区，也是国内首家以陶艺为主题，集餐饮住宿、休闲娱乐、果林观光、薰衣草园、玩泥赏陶、棋牌娱乐为一体的国际陶文化旅游中心，是省级园林式管理单位、三星级旅游涉外饭店。\n富乐国际陶艺博物馆群是国内首家以现代陶艺为主题的陶艺博物馆，由富陶集团和北京乐陶苑许以祺博士共同合作兴建的博物馆群为主，十多座世界不同地区、国家的分馆和一座陶艺文献中心组成，馆内已收藏展出来自50多个国家和地区的500余位陶艺家的近万件不同风格的陶艺作品，旨在推动当今世界陶艺事业的发展，促进国内外陶艺家的互动，陶艺资讯的交流，举办团体及个人陶艺家作品展，收藏和永久陈列高水准的陶艺作品。富乐国际陶艺博物馆群的设计理念是：简约、质朴、独特、新颖；同时，充分考虑所在国家的文化背景和建筑风格，将建筑学的结构、线条、空间、美观元素完美的结合。\n富乐国际陶艺博物馆目前已经成为国际国内最大、收藏作品最多、档次最高的现代陶艺博物馆群。前国际陶艺家协会主席和现任主席对本博物馆群评价甚高，在他们第二次来到富平陶艺村时亲笔写下了“又回到了富平陶艺天堂”的感言。"}}, {"title": "唐简陵", "address": "渭南市富平县庄里镇三条村", "image": "", "rank": 2, "time": 0.35, "location": {"lat": 34.89390516021121, "lng": 109.07872474261335}, "feature": {"sight_features": "", "sight_content": ""}}, {"title": "唐丰陵", "address": "渭南市富平县曹村镇陵村虎头山上", "image": "", "rank": 3, "time": 1.0, "location": {"lat": 34.939576321875, "lng": 109.21224223334215}, "feature": {"sight_features": "", "sight_content": ""}}, {"title": "唐定陵", "address": "渭南市富平县北十二公里的宫里镇三凤村北的凤凰山", "image": "", "rank": 4, "time": 1.5, "location": {"lat": 34.87789698657715, "lng": 109.16174197150455}, "feature": {"sight_features": "", "sight_content": ""}}, {"title": "唐元陵", "address": "渭南市富平县雷庄路西100米", "image": "", "rank": 5, "time": 0.35, "location": {"lat": 34.83021932649312, "lng": 109.07420522296546}, "feature": {"sight_features": "", "sight_content": ""}}, {"title": "中华郡水上乐园", "address": "渭南市富平县富阎友谊路东100米", "image": "", "rank": 6, "time": 2, "location": {"lat": 34.75726044025601, "lng": 109.18643744727943}, "feature": {"sight_features": "", "sight_content": "景区介绍：\n位于渭南富平的中华郡水上乐园迎来开园。冲天回旋、急速龙卷风、四彩滑梯、四彩滑梯、竞速滑梯、蚩尤部落主题造浪池、奇幻漂流、儿童水寨、魔法池塘等众多水上游乐项目，将为游客在炎热中带来独一无二的清凉之旅。水上乐园中的众多高级游乐项目设施,将为各种不同人群提供多种多样的游乐体验。\n冲天回旋：惊险刺激，享受从高空俯冲滑翔的快感，旋转、加速，仿佛陷入巨大的漩涡之中，在保证安全的同时彻底呐喊释放；急速龙卷风：急剧滑落让你飞速冲上几乎垂直的滑道壁，短暂失重，再自由落体，带来前所未有的紧张和刺激；四彩滑梯：颜色似彩虹的滑道可以自由选择，疾驰滑行加直道俯冲；竞速滑梯：在倾角超过60度的滑道上急速下滑，不断自主加速，犹如蛟龙入水般风驰电掣；蚩尤部落主题造浪池：阳光和清凉可并存，置身其中，忘记火热，感受清凉；奇幻漂流：感受随波逐流的慵懒惬意，清洗自己一身的疲惫，享受难得的悠闲自在；大型儿童水寨：可爱逗趣的卡通人物、梦幻斑斓的喷水设备、新颖安全的儿童滑道等可供大人和孩子尽情挥洒热情；魔法池塘：充满孩童的欢笑声与亲子戏水的场面。"}}, {"title": "凹凸盒子科幻世界", "address": "渭南市富平县阎富友谊路东100米中华郡景区", "image": "", "rank": 7, "time": 2, "location": {"lat": 34.70598686915615, "lng": 109.20287790684155}, "feature": {"sight_features": "", "sight_content": ""}}, {"title": "金粟山森林公园", "address": "渭南市富平县美原镇金粟村北(美原镇北六公里)", "image": "", "rank": 8, "time": 2, "location": {"lat": 35.00281295514668, "lng": 109.33314702782926}, "feature": {"sight_features": "", "sight_content": ""}}, {"title": "习仲勋故居", "address": "淡村镇中合村", "image": "", "rank": 9, "time": 2, "location": {"lat": 34.73023079275777, "lng": 109.08787036136636}, "feature": {"sight_features": "", "sight_content": ""}}, {"title": "富平县昌平公园", "address": "陕西省渭南市富平县频阳大道昌平公园(状元府邸北150米)", "image": "", "rank": 10, "time": 2, "location": {"lat": 34.738322645888154, "lng": 109.19149082629868}, "feature": {"sight_features": "", "sight_content": ""}}, {"title": "伊甸樱桃园", "address": "淡村镇云槐村", "image": "", "rank": 11, "time": 2, "location": {"lat": 34.74275681232406, "lng": 109.08824981998667}, "feature": {"sight_features": "", "sight_content": ""}}, {"title": "富平县图书馆", "address": "育英巷2号", "image": "", "rank": 12, "time": 2, "location": {"lat": 29.528669982389975, "lng": 108.80071828120487}, "feature": {"sight_features": "", "sight_content": ""}}, {"title": "怀德公园", "address": "鼎州大道1号附近", "image": "", "rank": 13, "time": 2, "location": {"lat": 34.77212972582818, "lng": 109.16972771345426}, "feature": {"sight_features": "", "sight_content": ""}}, {"title": "靖和公园壹号", "address": "南韩大街附近", "image": "", "rank": 14, "time": 2, "location": {"lat": 34.754962154591276, "lng": 109.197908179828}, "feature": {"sight_features": "", "sight_content": ""}}, {"title": "天香薰衣草园", "address": "陕西省渭南市富平县X315", "image": "", "rank": 15, "time": 2, "location": {"lat": 34.75726044025601, "lng": 109.18643744727943}, "feature": {"sight_features": "", "sight_content": ""}}, {"title": "涝池天主堂", "address": "金庄路附近", "image": "", "rank": 16, "time": 2, "location": {"lat": 39.949683915604965, "lng": 116.28658569150733}, "feature": {"sight_features": "", "sight_content": ""}}, {"title": "富四方仲庄世界柿产业文化主题公...", "address": "陕西省渭南市富平县淡水镇肖郭村", "image": "", "rank": 17, "time": 2, "location": {"lat": 34.780393341146286, "lng": 109.08216957985421}, "feature": {"sight_features": "", "sight_content": ""}}, {"title": "富平陶艺嬉雪乐园", "address": "渭南市富平县乔山路1号", "image": "", "rank": 18, "time": 2.5, "location": {"lat": 34.77559458916512, "lng": 109.18901136205719}, "feature": {"sight_features": "", "sight_content": ""}}, {"title": "富乐国际陶艺博物馆群", "address": "乔山路", "image": "", "rank": 19, "time": 2, "location": {"lat": 34.77578993397053, "lng": 109.18880256621259}, "feature": {"sight_features": "", "sight_content": ""}}, {"title": "富平书画艺术交流中心", "address": "东新街东区小学附近", "image": "", "rank": 20, "time": 2.5, "location": {"lat": 34.756459101999866, "lng": 109.20395521050405}, "feature": {"sight_features": "", "sight_content": ""}}, {"title": "富平动漫水世界", "address": "金龙大街南段天豪酒店对面", "image": "", "rank": 21, "time": 2, "location": {"lat": 34.745517879213644, "lng": 109.1943877205344}, "feature": {"sight_features": "", "sight_content": ""}}, {"title": "富平依果动漫游乐场", "address": "金龙大道天豪酒店对面", "image": "", "rank": 22, "time": 2.5, "location": {"lat": 34.745517879213644, "lng": 109.1943877205344}, "feature": {"sight_features": "", "sight_content": ""}}, {"title": "农家乐", "address": "106省道蓝光中学南400米", "image": "", "rank": 23, "time": 2, "location": {"lat": 34.72913602753704, "lng": 109.18805516884184}, "feature": {"sight_features": "", "sight_content": ""}}, {"title": "富平福苑生态观光园", "address": "富平淡村镇都村村", "image": "", "rank": 24, "time": 2.5, "location": {"lat": 34.73675682195126, "lng": 109.10359411775867}, "feature": {"sight_features": "", "sight_content": ""}}, {"title": "荆山阳光马术俱乐部", "address": "荆山路168号", "image": "", "rank": 25, "time": 2, "location": {"lat": 36.64802582550182, "lng": 117.08780379901839}, "feature": {"sight_features": "", "sight_content": ""}}, {"title": "富平县红玛瑙葡萄专业合作社", "address": "淡村镇街道", "image": "", "rank": 26, "time": 2, "location": {"lat": 34.72470156748571, "lng": 109.06341019671981}, "feature": {"sight_features": "", "sight_content": ""}}, {"title": "御果庄园", "address": "曹村镇马坡村南600米十字向东150米路北", "image": "", "rank": 27, "time": 2, "location": {"lat": 34.93467179042702, "lng": 109.20506727589488}, "feature": {"sight_features": "", "sight_content": ""}}, {"title": "双丰合作社", "address": "城关镇南韩大街印象酒店北", "image": "", "rank": 28, "time": 2, "location": {"lat": 25.590533073980936, "lng": 112.37016187574935}, "feature": {"sight_features": "", "sight_content": ""}}, {"title": "御马轩马场", "address": "城关镇385乡道御马轩马场", "image": "", "rank": 29, "time": 2, "location": {"lat": 45.49944679019821, "lng": 119.6324354315293}, "feature": {"sight_features": "", "sight_content": ""}}, {"title": "西魏文帝永陵", "address": "陕西省富平县留古乡何家村", "image": "", "rank": 30, "time": 2, "location": {"lat": 34.7493956235345, "lng": 109.28917568726872}, "feature": {"sight_features": "", "sight_content": ""}}, {"title": "银座国际娱乐会所", "address": "渭南市-富平县-城关镇富昌路秦正华府西门", "image": "", "rank": 31, "time": 2, "location": {"lat": 34.756892843446884, "lng": 109.20750298098008}, "feature": {"sight_features": "", "sight_content": ""}}, {"title": "盖前堡", "address": "渭南市-富平县-二二零县道", "image": "", "rank": 32, "time": null, "location": {"lat": 34.91985768506152, "lng": 109.33039719339197}, "feature": {"sight_features": "", "sight_content": ""}}]}