{"cityName": "福清", "days": 2, "cityImage": "", "spots": [{"title": "石竹山风景区", "address": "福清市宏路镇石竹山风景区", "image": "", "rank": 1, "time": 1.0, "location": {"lat": 25.72914098210295, "lng": 119.29778230703603}, "feature": {"sight_features": "特色1 欣赏明媚秀丽山水，体验道教经典文化。", "sight_content": "石竹山风景区位于福清城区以西10公里处，是福建省首批省级风景区之一，也是国家首批水利风景区，2004年评为国家4A级风景区。景区内空气清新、鸟语花香，四季如春，平均气温19℃；石竹山东北起自太城山，向西南伸展，经狮子岩、马坝、天子峰，至状元峰；西南侧为无患溪（今为石竹湖）。全山面积13.31平方公里，海拔534米，山上“石能留影常来鹤，竹欲摩空尽作龙”，因了翠竹满山与奇石嶙峋而得名。山下石竹湖碧波万顷，与石竹山交相辉应。\n石竹山胜景形成于6700万年前的白垩纪晚期。那时候石竹山所处的位置还是一片汪洋大海。由于地质结构很不稳定，地震和火山喷发经常发生。火山喷发的岩浆不断堆积，形成了今天的石竹山。从东面看石竹山，就像一条巨龙逶迤，石竹山下原本只有一条龙江与无患溪绕山而过。\n石竹山岩壑奇绝，有一线天，二塔，三岩（普陀岩、虎迹岩、石竹岩），四泉（濯缨泉、仙泉、无尽泉、洗耳泉），五仙（仙桥、仙井、仙床、仙棋盘、仙坪），六洞（日月洞、通天洞、青龙洞、牛胶洞、紫云洞、桃源洞），七峰（天子峰、玉女峰、状元峰、探花峰、象王峰、紫帽峰、狮子峰），十二石（鸳鸯石、纱帽石、出米石、龟蛇石、斗石、鹤影石、双鲤石、伏虎石、宝所石、仙桃石、醉石、幡桃石）等108个胜景。"}}, {"title": "天生农庄", "address": "福州市福清市新厝镇棉亭村天生农庄", "image": "", "rank": 2, "time": 2, "location": {"lat": 25.53666607187108, "lng": 119.27100049606203}, "feature": {"sight_features": "特色1 素有“小西溪湿地”之称", "sight_content": "福建天生农庄，是集商务考察、特色农业旅游、科普教育、休闲度假和酒店服务为一体的大型旅游度假景区。现 已被授予“福州优秀景区”、“福建省4星级乡村旅游示范点”、“省级水乡渔村 ”、“全国科普教育基地”、“全国农业旅游示范点”、“国家AAAA级旅游景区 ”。景区距福清市30公里，距莆田市40公里，位于324国道福厦线72.5公里处，距福泉高速公路渔溪出口3公里 ，交通便捷。这里有华东最大的木化石公园、福园（灵壁名石、缅甸黄龙玉、千年紫薇、百年樱桃）、葵园、玫瑰园（省内品种最齐全）、太空种子植物园、民族园、省（市）花展示园、民古街、翠竹园、桃园、观音山、观音阁、农家乐一条 街、美食购物一条街、宣传国学优良传统美德的“孔子堂”等。景区投巨资修建了独具特色的天生生态度假村，度假村由宾馆主楼、二十六座独具风格的台湾木屋别墅、七座休 闲岛屿别墅、一幢康乐中心和特色水上酒楼组成。整体设置床位170个，餐位1000个，500人会议室二个，100人会议 室一个，小会议室三个；餐饮主要以绿色无公害的花、果宴及养殖立体农业为特色的天生农家菜为主。宜人的气候、 优雅的环境、高质量的服务是商务考察、旅游度假、学生素质教育、会议培训和农家特色餐饮的绝佳去处。天生农庄水上乐园是目前为止福州地区规模最大、最新奇、最好玩、并具有国际标准的水上游乐园之一。园内有超 级冲浪池、魔幻水屋、水上蹦床、水上滑梯、水上跷跷板、旱喷广场、热带沙漠、游泳池、水上陀螺、尖峰极速等多 项刺激好玩的游乐项目，非常适宜于炎炎夏日的休闲娱乐活动。"}}, {"title": "福清天生农庄海水温泉", "address": "福州福清市新厝镇棉亭村天生农庄", "image": "", "rank": 3, "time": 2, "location": {"lat": 25.53666607187108, "lng": 119.27100049606203}, "feature": {"sight_features": "特色1 用海水医疗养生", "sight_content": "福建天生农庄，是集商务考察、特色农业旅游、科普教育、休闲度假和酒店服务为一体的大型旅游度假景区。\n天生海水温泉，海水温泉作为特色的温泉，近些年在国内也受到众多温泉爱好者的追捧。据海洋专家研究表明，温暖的海水浴，有利于过度疲劳者的睡眠，能够减轻腿沉、静脉曲张患者的痛苦。海水温泉的保健功效主要有三部分：1、首先它可以降低神经末梢的兴奋性，缓解肌肉、肌腱和韧带痉挛及僵直状态，产生镇痛效果；2、海水温泉有活跃单核巨噬细胞系统吞噬功能，起到抗炎消肿、解痉镇痛作用；3、它还能改善局部的血液循环、促进新陈代谢，并能减少炎症产物及代谢产物的堆积，加速组织再生能力和细胞活力，有利于水肿的消退及组织的修复。\n温泉票费用包含： 温泉票、天生农庄大门票、茶水，免费的wif、免费提供储物柜、提供免费洗浴（沐浴露+洗发水）"}}, {"title": "福庐山公园", "address": "福州市福清市龙田镇西南约五华里的福庐山", "image": "", "rank": 4, "time": 2.5, "location": {"lat": 25.609927474745053, "lng": 119.46399662978087}, "feature": {"sight_features": "", "sight_content": ""}}, {"title": "东方第一漂", "address": "福州市福清市一都镇后溪村", "image": "", "rank": 5, "time": 2.0, "location": {"lat": 25.78581094935477, "lng": 119.13887763186757}, "feature": {"sight_features": "特色1 叠水激流白浪翻滚，时急时缓", "sight_content": "东方第一漂漂道全长6公里，漂流时间2.5个小时。从起漂点开始，途经龙潭、和尚潭、姜母潭、龟岩潭、水花潭，最后到达与永泰县交界处的观音潭。沿途经过50多个大小弯道，14道叠水激流，19处险滩，8处缓冲区。随艇漂流而下，时而叠水激流白浪翻滚，时而水流平缓波澜不兴。从起漂码头驾艇漂流，途经酷似盘旋起伏的海龙的龙潭、水流湍急跌宕起伏惊险异常的和尚潭、遥相对望的龟岩潭、平缓漂荡的水茫潭，最后到达深达9米的观音潭。一路的漂流，时而惊险刺激，时而悠闲随意，既可以与家人共历生命的激情与豪迈，又可以悠闲共赏两岸的茂林修竹、斑斓花草。\n景区内还有仙女瀑布、龙飞瀑布、天池、丁岩峰等旅游景点。仙女瀑布落差十多米，宽8米，一年四季，长流不断。龙飞瀑布岩石如龙头，巨大的流水从龙的嘴巴喷飞而出，倾注到下边深潭里，瀑布高达15米，喷珠溅玉，发出巨大的声响，壮观异常，使人想起李白的诗句“飞流直下三千尺，疑是银河落九天”描述的壮观。丁岩峰为大后溪最高峰，在丁岩峰上有一天池，传说天池是天上陨石掉到丁岩峰附近砸出的巨大石坑，天池宽40多米，深达十多米，天池的水不仅清甜，而且富含多种矿物质，饮后不仅可以治病，还能延年益寿。\n景区还设有水上乐园、cs真人战基地以及烧烤露营等项目。其中，水上乐园设有水上碰碰船、水上单车、划船、水上滚筒、水鸟、水上步行球等娱乐项目，在这里您可以和家人一起体验随心所欲驾驶的刺激，更可以让您和家人零距离体验到水上步行活动的乐趣，极大提高您和家人的平衡能力和协调能力。 cs真人战，参加者手持高仿真镭射枪，身穿迷彩军服，在天然的丛林与特别搭建的掩体中穿梭，与“敌人”展开激烈的“战斗”，完成如“歼灭”、“攻山”、“vip”等精心设计的任务，让您和家人亲身体验只有在电影或电子游戏中才能看到的场景，提升您和家人间的协作能力，增进您和家人的感情。在经历极限挑战的刺激与体育运动的劳累后，您和家人可自租一烧烤炉，在这郊园田野，漫烟升腾，在绿意盎然的青翠山林里，畅意呼吸清新的空气，感受家的温馨与惬意，体味家的温暖与幸福。"}}, {"title": "石竹湖", "address": "福州市福清市宏路镇石竹山风景区内", "image": "", "rank": 6, "time": 1.0, "location": {"lat": 25.72914098210295, "lng": 119.29778230703603}, "feature": {"sight_features": "", "sight_content": ""}}, {"title": "灵石山国家森林公园", "address": "福州市福清市东张镇三星村内", "image": "", "rank": 7, "time": 3.5, "location": {"lat": 25.68898758365188, "lng": 119.22606023241362}, "feature": {"sight_features": "", "sight_content": "灵石山位于东张镇的三星村内，灵石山以其茂密的森林，优美的风景和悠久的佛教文化而闻名遐迩。著名的有三峰、九叠峰、留雪峰、报雨峰，其中尤以九叠峰挺拔，峻峭，势若插天；还有报雨峰，山巅有石，当地人以峰鸣为雨候，“久晴鸣必雨，久雨鸣必晴”。山中有灵石寺，座落于万绿丛中，始建于唐，初为草庵，后由唐懿宗赐额“灵石俱胝院”。明万历四十年，高僧性麟大举募修，规模乃大，它依山建造，以山为门，大雄宝殿为轴，布局严谨，气势壮观。该寺现全部由尼姑管理，堪称一奇。 灵石山于1992年被国家林业部授予“国家森林公园”，公园内动植物品种丰富，可谓天然生物博馆。"}}, {"title": "目屿岛", "address": "福州市福清市沙埔镇南部的一个滨海小岛，与牛头尾隔海相望", "image": "", "rank": 8, "time": 3.5, "location": {"lat": 25.37493842557055, "lng": 119.50222827062873}, "feature": {"sight_features": "", "sight_content": ""}}, {"title": "福清奇乐儿儿童主题乐园", "address": "福州市福清市成龙步行街1号楼2层", "image": "", "rank": 9, "time": 2.5, "location": {"lat": 25.727314085754855, "lng": 119.38595925722193}, "feature": {"sight_features": "", "sight_content": ""}}, {"title": "玉融公园", "address": "福州市福清市龙江路和天宝路交叉处", "image": "", "rank": 10, "time": 1.0, "location": {"lat": 25.722205008941042, "lng": 119.37923755599142}, "feature": {"sight_features": "", "sight_content": ""}}, {"title": "麦咭乐园", "address": "福州市福清市裕荣汇三层北侧", "image": "", "rank": 11, "time": 2, "location": {"lat": 25.72702975715047, "lng": 119.35852751143202}, "feature": {"sight_features": "", "sight_content": ""}}, {"title": "福庐寺", "address": "福州市福清市龙田镇西南约五华里的福庐山上（福庐北路）", "image": "", "rank": 12, "time": 1.0, "location": {"lat": 25.62920462265492, "lng": 119.44948469471275}, "feature": {"sight_features": "", "sight_content": ""}}, {"title": "万福寺", "address": "福州市福清市渔溪镇，再向西北10公里联华村黄檗山", "image": "", "rank": 13, "time": 2.0, "location": {"lat": 25.63597091297764, "lng": 119.2747475547159}, "feature": {"sight_features": "", "sight_content": ""}}, {"title": "大姆山草场", "address": "福州市福清市近郊南岭镇东北", "image": "", "rank": 14, "time": 4.5, "location": {"lat": 25.772413685172488, "lng": 119.50700038210647}, "feature": {"sight_features": "", "sight_content": ""}}, {"title": "永鸿水世界", "address": "福州市福清市岑兜村则徐路中国石油南侧120米路西", "image": "", "rank": 15, "time": 3.0, "location": {"lat": 25.68350160598738, "lng": 119.44071433320806}, "feature": {"sight_features": "特色1 超刺激水上乐园！ 特色2 超好玩的娱乐项目！ 特色3 炎炎夏日，一起来冰凉一下吧！", "sight_content": "福建永鸿水世界位于福清市岑兜村则徐路中国石油南侧120米路西，是以北欧“维京文化”为主线打造的主题水上乐园，充满冒险精神、探索乐趣与无穷精彩的欢乐天地。园区有“激情造浪池”、“彩虹竞技滑道”、“飓风大喇叭”、“急弯暴风谷”、“亲子欢乐水寨”和“嘉年华SHOW”等游乐项目。\n足不出海就可让你感受犹如置身于大海中冲浪般的快感，劲歌热舞、风情表演、动感音乐、摇滚激情、铺天盖地的巨浪、狂欢尖叫、欢笑喝彩，嗨爆全场彩虹悬空，趴在飞毯似的滑板上体验一把从“彩虹”上飞驰而下的感觉！尽情享受风驰电擎的竞赛快感。乘坐滑具通过连续的封闭空间，随着大浪俯冲直下，伴随尖叫声迎来一个又一个急弯、旋转、摆动，整个过程让你肾上腺素直线飙升，无法控制地尖叫。\n采用高科技“连锁反应”原理，高于屋顶的木桶每隔8分钟注满水后，约1吨水倾泻而下，气势滂沱！缤纷多彩的阶梯和滑道矗立在碧波荡漾的水中，结合童趣十足的玩水设施，让一家大小尽享嬉水的欢乐，各种玩法、各种透心凉。"}}, {"title": "大化山", "address": "福州市福清市镜洋镇西边村", "image": "", "rank": 16, "time": 1.0, "location": {"lat": 25.827399495301137, "lng": 119.2968912831908}, "feature": {"sight_features": "", "sight_content": ""}}, {"title": "九龙寺", "address": "福清市渔溪镇井头村附近", "image": "", "rank": 17, "time": 1.0, "location": {"lat": 25.604770124890226, "lng": 119.26687729353532}, "feature": {"sight_features": "", "sight_content": ""}}, {"title": "龙潭山水风景区", "address": "福州市福清市东张镇三星村灵石山国家森林公园内", "image": "", "rank": 18, "time": 1.5, "location": {"lat": 25.673983699343395, "lng": 119.22934498083185}, "feature": {"sight_features": "", "sight_content": ""}}, {"title": "灵石寺", "address": "福州市福清市东张镇三星村灵石山国家森林公园内", "image": "", "rank": 19, "time": 1.0, "location": {"lat": 25.673983699343395, "lng": 119.22934498083185}, "feature": {"sight_features": "", "sight_content": ""}}, {"title": "柯屿海上乐园", "address": "福州市福清市江镜镇柯屿垦区西堤内（江阴工业区旁）", "image": "", "rank": 20, "time": 3.5, "location": {"lat": 25.431695773858305, "lng": 119.3076827566346}, "feature": {"sight_features": "", "sight_content": ""}}, {"title": "弥勒岩", "address": "福州市福清市海口镇牛宅村", "image": "", "rank": 21, "time": 1.5, "location": {"lat": 25.713639563890027, "lng": 119.47612713987503}, "feature": {"sight_features": "", "sight_content": ""}}, {"title": "永鸿野生动物世界", "address": "福州市福清市海口镇岑兜村", "image": "", "rank": 22, "time": 1.0, "location": {"lat": 25.67312443711942, "lng": 119.45151236248547}, "feature": {"sight_features": "特色1 集观光旅游、科普、表演为一体的综合性野生动物园 特色2 珍稀动物的世界王国", "sight_content": "福建永鸿野生动物世界坐落于三福之地，福建省福州市福清市。永鸿野生动物世界以“保护动物 保护环境”为宗旨。是福建省极具特色的以野生动物科普教育、观赏、展示为主体，集观光旅游、表演等为一体的综合性动物王国。园区为动物创造一个接近自然的生活环境，为游客营造一个妙趣横生的野生动物世界。园内的珍稀动物有近百种上千只，国家一级保护动物：非洲白狮、金钱豹、孟加拉白虎，东北虎，陆地上最大哺乳动物亚洲象，美丽的丹顶鹤等等；国家二级保护动物有：马达加斯加的国宝节尾狐猴、亚洲狼、棕熊、马鹿、鹦鹉等珍稀动物；此外，还有深受小朋友喜爱的南美洲羊驼，美国矮马、南非长颈鹿、“湿地之神”丹顶鹤等等，动物的品种和数量还会陆续增多，倾力打造独具特色的动物王国！游客如同置身动物王国，体验有惊无险的奇妙之旅！园区预计首年接待游客量约30万人次。\n您可以漫步园区，在寓教于乐中近距离观赏。不仅可以观赏到漂亮的长颈鹿、美丽的孔雀、聪明活泼的节尾狐猴、亭亭玉立的丹顶鹤等众多珍稀野生动物，更有诸多特色的动物行为展示和互动体验。园区较大，您还可以选择乘坐游览车进行观赏。开启观赏新模式，使您身临其境般的感受一群群斑马、羚羊、梅花鹿等食草动物在悠闲觅食；又能领略东北虎、非洲狮、亚洲象、黑熊等大型猛兽“部落”展现野性雄姿！\n科普教育小课堂\n永鸿野生动物世界设有科普长廊展示区，定期开展《科普教育活动》，让大朋友们和小朋友更多的了解野生动物，不仅看到了许多自己没有见过的野生动物，而且还能和可爱的动物们进行亲密接触，近距离互动。在活动中，小朋友们不仅学到了动物科普知识，了解动物的特性，更加懂得如何保护动物，爱护动物。也增强了小朋友们团结友爱的意识，让每个宝贝们都满载而归。\n动物幼儿展示区\n这里居住着可爱的细尾獴，萌萌的小海狸鼠，可爱的小香猪，垂耳兔等等；\n我们刚出生的动物宝宝也会在这里度过快乐的童年，并有专业的育幼师来精心呵护它们的成长，更有诸多特色的动物行为展示和互动体验，等你来揭晓。\n休闲娱乐\n除了观赏可爱的动物，您还可以停下来稍坐休息，欣赏海狮表演的精彩演出，让您不虚此行。"}}, {"title": "柯屿村", "address": "福州市福清市江镜镇柯屿村", "image": "", "rank": 23, "time": 2.5, "location": {"lat": 25.565910457891125, "lng": 119.36945778295842}, "feature": {"sight_features": "", "sight_content": ""}}, {"title": "东壁岛度假区", "address": "福州市福清市龙田镇东壁岛度假村", "image": "", "rank": 24, "time": 2, "location": {"lat": 25.63110872793471, "lng": 119.53924610939393}, "feature": {"sight_features": "", "sight_content": ""}}, {"title": "银河汇水疗会所", "address": "福清市清昌大道101号创元千禧大酒店1号楼4-5楼", "image": "", "rank": 25, "time": 2, "location": {"lat": 25.72149738297359, "lng": 119.35968058716391}, "feature": {"sight_features": "", "sight_content": ""}}, {"title": "龙江游船码头", "address": "福州市福清市清盛大道龙江湿地公园内（观音浦大桥旁）", "image": "", "rank": 26, "time": 2, "location": {"lat": 25.7050612257131, "lng": 119.34319250124572}, "feature": {"sight_features": "", "sight_content": ""}}, {"title": "福州师范大学福清分校", "address": "玉屏街道校园新村1号", "image": "", "rank": 27, "time": 3.0, "location": {"lat": 39.03182303578201, "lng": 117.68917273835031}, "feature": {"sight_features": "", "sight_content": ""}}, {"title": "瑞岩弥勒造像", "address": "福建省,福清市,海口镇, 350313", "image": "", "rank": 28, "time": 2, "location": {"lat": 25.690687953329636, "lng": 119.46011096348516}, "feature": {"sight_features": "", "sight_content": ""}}, {"title": "东营村", "address": "福州福清市龙田镇东营村", "image": "", "rank": 29, "time": 2, "location": {"lat": 25.62031076243759, "lng": 119.49860730711924}, "feature": {"sight_features": "", "sight_content": ""}}, {"title": "永鸿赛车公园", "address": "福州市福清市305省道(大真线)与则徐路交汇处福清永鸿文化城内", "image": "", "rank": 30, "time": 2, "location": {"lat": 25.546713707279977, "lng": 119.51111701981651}, "feature": {"sight_features": "", "sight_content": "永鸿赛车公园位于福清市海口镇永鸿文化城内，赛道采用F1方程式赛车专用计时设备，让顾客体验最专业最安全的竞技过程。"}}, {"title": "海仔温泉", "address": "福州市福清市江镜镇南宵村", "image": "", "rank": 31, "time": 2, "location": {"lat": 25.590892226618582, "lng": 119.44093640870294}, "feature": {"sight_features": "特色1 含丰富矿物质，有活络筋骨、美容养颜功效", "sight_content": "福清海仔温泉位于福清市南宵村，以室内为主，有沐浴区、泡池区、三人木桶间等，环境干净、舒适。在福清海仔温泉这里疲劳尽洗、烦恼顿消，回归自然的感觉油然而生，浪漫的情怀瞬间苏醒，其美、其情、其趣、其韵，无以胜数，唯有阁下亲临，方能感受其名不虚传。\n‍‍福清海仔温泉中含有丰富的矿物质元素和浮游离子，通过皮肤的吸收渗透，对人体的健康确有诸多好处，今天，就让我们来一场养生保保健的健康之旅吧。‍‍"}}, {"title": "民树生态园", "address": "三星村园尾111号", "image": "", "rank": 32, "time": 2, "location": {"lat": 19.231918343370673, "lng": 110.51323483361766}, "feature": {"sight_features": "", "sight_content": ""}}, {"title": "渔溪草莓园", "address": "渔溪镇车站苏田村门亭直走", "image": "", "rank": 33, "time": 2, "location": {"lat": 25.601013669926353, "lng": 119.29055396239639}, "feature": {"sight_features": "", "sight_content": ""}}, {"title": "暗影城密室逃脱", "address": "清昌大道与西环东路交叉口向北150米", "image": "", "rank": 34, "time": 2, "location": {"lat": 25.720647587036293, "lng": 119.35579752146265}, "feature": {"sight_features": "", "sight_content": ""}}, {"title": "农业职业技术学院图书馆", "address": "南郊相思岭青口镇馆口村", "image": "", "rank": 35, "time": 2, "location": {"lat": 40.05189138740657, "lng": 113.22645661564142}, "feature": {"sight_features": "", "sight_content": ""}}, {"title": "瀚源画苑", "address": "西环路", "image": "", "rank": 36, "time": null, "location": {"lat": 39.04489408100302, "lng": 117.25170447040091}, "feature": {"sight_features": "", "sight_content": ""}}, {"title": "永鸿植物园", "address": "305省道", "image": "", "rank": 37, "time": 2, "location": {"lat": 38.97180225572126, "lng": 112.6319987223776}, "feature": {"sight_features": "", "sight_content": ""}}, {"title": "漈头革命历史纪念馆", "address": "洪宽三路", "image": "", "rank": 38, "time": 2, "location": {"lat": 25.775998603005057, "lng": 119.42797747857284}, "feature": {"sight_features": "", "sight_content": ""}}, {"title": "大后溪漂流", "address": "一都镇后溪村", "image": "", "rank": 39, "time": 2, "location": {"lat": 25.78581094935477, "lng": 119.13887763186757}, "feature": {"sight_features": "", "sight_content": ""}}, {"title": "金凤凰开心农场", "address": "福清过观音浦大桥直行到小南洋标示上山3.8公里", "image": "", "rank": 40, "time": 2, "location": {"lat": 25.72634329903456, "lng": 119.39046524748903}, "feature": {"sight_features": "", "sight_content": ""}}, {"title": "龙田影剧院", "address": "中街商场2楼", "image": "", "rank": 41, "time": 2, "location": {"lat": 41.12243158829692, "lng": 121.14654671563349}, "feature": {"sight_features": "", "sight_content": ""}}, {"title": "原生态垂钓园", "address": "港头镇西芦村永嘉粘结剂厂东北300米", "image": "", "rank": 42, "time": 2, "location": {"lat": 25.53630957520615, "lng": 119.50702464713488}, "feature": {"sight_features": "", "sight_content": ""}}, {"title": "福建港西园林生态发展有限公司", "address": "城头镇港西村", "image": "", "rank": 43, "time": 2, "location": {"lat": 25.702257086442305, "lng": 119.58998375203898}, "feature": {"sight_features": "", "sight_content": ""}}, {"title": "富林休闲山庄", "address": "清盛大道", "image": "", "rank": 44, "time": 2, "location": {"lat": 25.71494394621449, "lng": 119.3632291301815}, "feature": {"sight_features": "", "sight_content": ""}}, {"title": "江镜华侨影剧院", "address": "江镜中心小学附近新江路", "image": "", "rank": 45, "time": 2, "location": {"lat": 25.560153479212556, "lng": 119.43355233921}, "feature": {"sight_features": "", "sight_content": ""}}, {"title": "北涧寺戏院", "address": "千指庵附近", "image": "", "rank": 46, "time": 2, "location": {"lat": 25.767811450892637, "lng": 119.37982293228528}, "feature": {"sight_features": "", "sight_content": ""}}, {"title": "坑边影剧院", "address": "垄上村附近", "image": "", "rank": 47, "time": 2, "location": {"lat": 31.048954264481853, "lng": 117.90902419774375}, "feature": {"sight_features": "", "sight_content": ""}}, {"title": "谜屋", "address": "成龙步行街3号楼2112室", "image": "", "rank": 48, "time": 2, "location": {"lat": 25.726713549734807, "lng": 119.3859197317795}, "feature": {"sight_features": "", "sight_content": ""}}, {"title": "东山雕花楼", "address": "福建省福清东山镇", "image": "", "rank": 49, "time": 1.5, "location": {"lat": 25.72634329903456, "lng": 119.39046524748903}, "feature": {"sight_features": "", "sight_content": ""}}, {"title": "安旺影剧院", "address": "安福寺附近X178", "image": "", "rank": 50, "time": 2, "location": {"lat": 29.053386643100634, "lng": 120.45472325709633}, "feature": {"sight_features": "", "sight_content": ""}}, {"title": "前华剧院", "address": "江镜镇前华村民委员会附近", "image": "", "rank": 51, "time": 2, "location": {"lat": 25.550384033214694, "lng": 119.41204234011961}, "feature": {"sight_features": "", "sight_content": ""}}, {"title": "一都万利亭休闲山庄", "address": "一都镇万利亭山庄", "image": "", "rank": 52, "time": 2, "location": {"lat": 29.67365246857892, "lng": 121.5918095210188}, "feature": {"sight_features": "", "sight_content": ""}}, {"title": "中国移动通信秉强店(秉强店)", "address": "X174东张中心小学旁", "image": "", "rank": 53, "time": 2, "location": {"lat": 37.710269643473374, "lng": 114.56936976823648}, "feature": {"sight_features": "", "sight_content": ""}}, {"title": "龙翔国防教育基地", "address": "清市镜洋镇甘厝口龙翔军旅文化创意园区内", "image": "", "rank": 54, "time": 2, "location": {"lat": 25.756964888522752, "lng": 119.30112409785411}, "feature": {"sight_features": "", "sight_content": ""}}, {"title": "海洋心", "address": "西门融侨精品街1-22号", "image": "", "rank": 55, "time": 2, "location": {"lat": 25.72364793369382, "lng": 119.37460573468174}, "feature": {"sight_features": "", "sight_content": ""}}, {"title": "天然奇石馆", "address": "桔围路与清展街交叉口东南150米", "image": "", "rank": 56, "time": 2, "location": {"lat": 25.73051636700188, "lng": 119.37697521398904}, "feature": {"sight_features": "", "sight_content": ""}}, {"title": "欧阳画廊", "address": "龙旺名城6号楼15店", "image": "", "rank": 57, "time": 2, "location": {"lat": 36.60111684820757, "lng": 114.48582352812875}, "feature": {"sight_features": "", "sight_content": ""}}, {"title": "鑫艺画廊", "address": "西门街12号楼", "image": "", "rank": 58, "time": 2, "location": {"lat": 28.852124751849153, "lng": 121.12347974015752}, "feature": {"sight_features": "", "sight_content": ""}}, {"title": "精艺画廊", "address": "中环街与景绣街交叉口西150米", "image": "", "rank": 59, "time": 2, "location": {"lat": 25.721306241873933, "lng": 119.36935453801127}, "feature": {"sight_features": "", "sight_content": ""}}, {"title": "苏田影剧院", "address": "渔溪镇苏田村", "image": "", "rank": 60, "time": 2, "location": {"lat": 25.601013669926353, "lng": 119.29055396239639}, "feature": {"sight_features": "", "sight_content": ""}}]}