{"cityName": "福泉", "days": 2, "cityImage": "", "spots": [{"title": "黔南蛤蚌河", "address": "福泉市仙桥乡", "image": "", "rank": 1, "time": 2.5, "location": {"lat": 26.774617730470105, "lng": 107.33537735283495}, "feature": {"sight_features": "特色1 有“贵州九寨沟”之美称", "sight_content": "蛤蚌河自然生态游区位于贵州省福泉市仙桥乡，由蛤蚌河河谷及其支流峡谷形成，面积40余平方公里。蛤蚌河景区内原始植被保存完好，林木四季葱郁，珍稀动、植物品种繁多，奇花异草，四季争艳，香气弥漫，因而被誉为动植物的科普园和中药材的宝库。蛤蚌河河水全程清澈纯净，水深多数深不过膝，水色浅则无色，深则呈绿，绿色由浅入深，由深变浅，循环往复变化。水流缓、急、回旋相交织，各形状绿滩镶嵌河道，又恰似镶在带上的绿色宝石。水势水色极其喜人，令人如痴如醉，也因此而有“贵州九寨沟”之美称。沿途河谷时窄时阔，窄时幽深不见日月，浓荫林木蔽天，偶有猴群弹枝飞跃而过；阔时豪迈奔放，远处奇景一览无余，近处岸边芦苇连片，河岸芦苇躬身拂水，情景别致。\n\n\n蛤蚌河河道蜿蜒迷惑至极，奇峰异岭萦绕，峰回水转，仿佛玩迷藏一般。蛤蚌河岸旁，或远或近，岩溶钟乳千姿百态，星罗棋布；悬崖绝壁似一幅幅美妙的画壁，气势恢弘；山上泉珠在草丛间翻滚而下，岩上泉水珠帘串堕而落，争奇斗妍；银练飞瀑，似悬挂着的白色飘带；溶洞、洞厅交错争奇，洞口似物似型，形象逼真，洞中钟乳层层叠叠，色彩斑斓。蛤蚌河床中：大小粒径沙滩择址分布，河水环绕，滩上各型卵石洁净，玩味无穷；奇型巨石匍匐水中，行动状栩栩如生。蛤蚌河谷里：野猴顽皮，百鸟争鸣，昆虫花姿招展，自然天成、鬼斧神工开凿雕塑的“夜郎神妍（亦称姊妹石）”景点，其惟妙惟肖的塑型，其地质专家叹为观止的地质构造乃其似乎有规律的数字等，一一蕴藏着科学难以解答的玄奥。\n\n\n置身于蛤蚌河生态游区，人与自然相对达到完美的和谐，亦无论是涉水、扁水游、岸边陆上游等，伴随那时而粗狂、时而淙淙、时而柔和低沉、时而又回旋悠扬的河水声，还伴随那河谷窄处幽深，阔处豪情万丈，蜿蜒曲折处迷茫不知途的境界，一切恰似共谱一曲抑扬顿挫的优美乐章。"}}, {"title": "洒金谷景区", "address": "黔南布依族苗族自治州福泉市北1.1公里", "image": "", "rank": 2, "time": 1.0, "location": {"lat": 26.781254001205532, "lng": 107.52643281158493}, "feature": {"sight_features": "", "sight_content": ""}}, {"title": "洒金谷风景名胜区", "address": "黔南布依族苗族自治州福泉市", "image": "", "rank": 3, "time": 1.5, "location": {"lat": 26.69252570078387, "lng": 107.52643281158493}, "feature": {"sight_features": "", "sight_content": ""}}, {"title": "梦归平越演出", "address": "黔南布依族苗族自治州福泉市猪场街福泉剧院", "image": "", "rank": 4, "time": 2, "location": {"lat": 26.701076103729854, "lng": 107.51409916676755}, "feature": {"sight_features": "", "sight_content": ""}}, {"title": "烈士陵园", "address": "黔南布依族苗族自治州福泉市藜峨公园东南150米(园林路东)", "image": "", "rank": 5, "time": 2, "location": {"lat": 26.711380423894926, "lng": 107.51792267571182}, "feature": {"sight_features": "", "sight_content": ""}}, {"title": "黄丝镇江边景点", "address": "黄丝镇江边景点", "image": "", "rank": 6, "time": 2, "location": {"lat": 26.58777505253372, "lng": 107.41261291406546}, "feature": {"sight_features": "", "sight_content": ""}}, {"title": "洒金公园", "address": "福泉市", "image": "", "rank": 7, "time": 2, "location": {"lat": 26.69252570078387, "lng": 107.52643281158493}, "feature": {"sight_features": "", "sight_content": ""}}, {"title": "宏博山庄", "address": "916县道西", "image": "", "rank": 8, "time": 2, "location": {"lat": 30.270484946449336, "lng": 120.17355913889641}, "feature": {"sight_features": "", "sight_content": ""}}, {"title": "福泉市图书馆", "address": "洒金北路", "image": "", "rank": 9, "time": null, "location": {"lat": 26.714789001486935, "lng": 107.51790452365238}, "feature": {"sight_features": "", "sight_content": ""}}, {"title": "中山场", "address": "福泉市城厢镇新华北路", "image": "", "rank": 10, "time": 2, "location": {"lat": 26.712280430456893, "lng": 107.51665423868806}, "feature": {"sight_features": "", "sight_content": ""}}, {"title": "福泉市人民广场", "address": "贵州省黔南布依族苗族自治州福泉市葛镜东路", "image": "", "rank": 11, "time": 1.5, "location": {"lat": 26.69252570078387, "lng": 107.52643281158493}, "feature": {"sight_features": "", "sight_content": ""}}, {"title": "牛场商业文化广场", "address": "贵州省黔南布依族苗族自治州福泉市S205", "image": "", "rank": 12, "time": 2, "location": {"lat": 26.69252570078387, "lng": 107.52643281158493}, "feature": {"sight_features": "", "sight_content": ""}}, {"title": "福泉剧院", "address": "贵州省黔南布依族苗族自治州福泉市X916(猪场街)", "image": "", "rank": 13, "time": 2.0, "location": {"lat": 26.701076103729854, "lng": 107.51409916676755}, "feature": {"sight_features": "", "sight_content": ""}}, {"title": "福泉市档案馆", "address": "毓秀路", "image": "", "rank": 14, "time": 1.0, "location": {"lat": 41.92461520575012, "lng": 123.4223190392073}, "feature": {"sight_features": "", "sight_content": ""}}, {"title": "维多利亚演艺", "address": "迎宾路", "image": "", "rank": 15, "time": 2.0, "location": {"lat": 40.19033466276813, "lng": 117.30191343601585}, "feature": {"sight_features": "", "sight_content": ""}}, {"title": "百信草莓园", "address": "龙昌镇半边街", "image": "", "rank": 16, "time": 2, "location": {"lat": 26.766589218791577, "lng": 107.49987746342993}, "feature": {"sight_features": "", "sight_content": ""}}, {"title": "黎峨山庄", "address": "东山路53号", "image": "", "rank": 17, "time": 2, "location": {"lat": 43.53529344996757, "lng": 125.69457831091472}, "feature": {"sight_features": "", "sight_content": ""}}, {"title": "葛镜桥", "address": "贵州省福泉市城东南", "image": "", "rank": 18, "time": 2, "location": {"lat": 26.69252570078387, "lng": 107.52643281158493}, "feature": {"sight_features": "", "sight_content": ""}}, {"title": "天成商业街", "address": "贵州省福泉市洒金北路近憨苞鸭剔骨鸡", "image": "", "rank": 19, "time": 2, "location": {"lat": 26.714789001486935, "lng": 107.51790452365238}, "feature": {"sight_features": "", "sight_content": ""}}, {"title": "龙享歌城", "address": "黔南布依族苗族自治州-福泉市-马场平办事处", "image": "", "rank": 20, "time": 2, "location": {"lat": 26.69252570078387, "lng": 107.52643281158493}, "feature": {"sight_features": "", "sight_content": ""}}, {"title": "福泉古城文化旅游景区", "address": "黔南布依族苗族自治州福泉市新华北路东", "image": "", "rank": 21, "time": 2, "location": {"lat": 26.712280430456893, "lng": 107.51665423868806}, "feature": {"sight_features": "", "sight_content": "福泉古城文化旅游景区由沙河河滨大道休闲体验区、古城核心区和洒金谷峡谷风光游览区三个板块组成。一个板块是沙河湿地公园，包括北门城门楼、雄正楼、小西门水城、沙河湿地和太极水。二个板块包括了古城文化旅游景区的核心景点，主要有福泉山、福泉山广场、文庙、水街广场、南门城门楼、万山府邸、三丰主题文化馆、平越驿站、游客服务中心、演绎中心和明清特色古街。第三个板块是峡谷游览区，包括省级风景名胜区洒金谷。"}}]}