{"cityName": "富顺", "days": 2, "cityImage": "", "spots": [{"title": "刘光第墓", "address": "自贡市富顺县芝童路西湖村", "image": "", "rank": 1, "time": 2, "location": {"lat": 29.128713441382313, "lng": 105.1940527376122}, "feature": {"sight_features": "", "sight_content": ""}}, {"title": "欢乐圣果园", "address": "自贡市富顺县狮市镇马安村（马安小学后山）", "image": "", "rank": 2, "time": 2, "location": {"lat": 29.28054657929984, "lng": 105.04475862436283}, "feature": {"sight_features": "", "sight_content": ""}}, {"title": "金竹花田", "address": "自贡市富顺县泸富路", "image": "", "rank": 3, "time": 2, "location": {"lat": 29.077233189387943, "lng": 105.12217420152595}, "feature": {"sight_features": "", "sight_content": ""}}, {"title": "赵化古镇", "address": "富顺县赵化镇", "image": "", "rank": 4, "time": 1.5, "location": {"lat": 29.01398633393243, "lng": 105.11442890362481}, "feature": {"sight_features": "", "sight_content": ""}}, {"title": "青山岭森林公园", "address": "自贡市富顺县沪富路", "image": "", "rank": 5, "time": null, "location": {"lat": 29.186886257830583, "lng": 104.98149440602947}, "feature": {"sight_features": "", "sight_content": ""}}, {"title": "福源灏民居", "address": "自贡市富顺县东湖镇棬坝村境内", "image": "", "rank": 6, "time": 2, "location": {"lat": 29.198072597039577, "lng": 105.01121250822294}, "feature": {"sight_features": "", "sight_content": ""}}, {"title": "红馆真人密室逃脱", "address": "富达路366号", "image": "", "rank": 7, "time": 2, "location": {"lat": 29.191675863679794, "lng": 104.99903468986935}, "feature": {"sight_features": "", "sight_content": ""}}, {"title": "五条沟自然风景生态旅游区", "address": "李桥镇慈云村五隆场", "image": "", "rank": 8, "time": null, "location": {"lat": 29.023248596314225, "lng": 104.79004338922798}, "feature": {"sight_features": "", "sight_content": ""}}, {"title": "富顺西湖", "address": "自贡市，富顺县城内西北角", "image": "", "rank": 9, "time": 4.5, "location": {"lat": 29.186886257830583, "lng": 104.98149440602947}, "feature": {"sight_features": "", "sight_content": ""}}, {"title": "富顺文庙", "address": "自贡市富顺县城中心、大南门附近", "image": "", "rank": 10, "time": null, "location": {"lat": 29.186886257830583, "lng": 104.98149440602947}, "feature": {"sight_features": "", "sight_content": ""}}, {"title": "涛涛啤酒广场", "address": "四川省自贡市富顺县富世镇远达·北湖上城东门", "image": "", "rank": 11, "time": 2, "location": {"lat": 29.186160208351424, "lng": 105.00539220716462}, "feature": {"sight_features": "", "sight_content": ""}}, {"title": "雪花啤酒广场", "address": "四川省自贡市富顺县吉祥路116-、118号", "image": "", "rank": 12, "time": 2, "location": {"lat": 29.18817240113838, "lng": 104.99295004704167}, "feature": {"sight_features": "", "sight_content": ""}}, {"title": "外滩哈尔滨啤酒广场", "address": "富顺县餐饮街", "image": "", "rank": 13, "time": 2, "location": {"lat": 29.186886257830583, "lng": 104.98149440602947}, "feature": {"sight_features": "", "sight_content": ""}}, {"title": "周家祠堂", "address": "自贡市富顺县二零七省道", "image": "", "rank": 14, "time": 2, "location": {"lat": 29.186886257830583, "lng": 104.98149440602947}, "feature": {"sight_features": "", "sight_content": ""}}, {"title": "白塔", "address": "自贡市富顺县", "image": "", "rank": 15, "time": 0.25, "location": {"lat": 29.186886257830583, "lng": 104.98149440602947}, "feature": {"sight_features": "", "sight_content": ""}}, {"title": "石贡寺", "address": "泸富路东50米", "image": "", "rank": 16, "time": 2, "location": {"lat": 28.919424693856307, "lng": 105.53970337122085}, "feature": {"sight_features": "", "sight_content": ""}}, {"title": "同心寺", "address": "富顺县童寺镇墨香村十一组", "image": "", "rank": 17, "time": 2, "location": {"lat": 29.113473947469174, "lng": 105.16229858376066}, "feature": {"sight_features": "", "sight_content": ""}}, {"title": "滥祠堂", "address": "自贡市富顺县釜江大道东段", "image": "", "rank": 18, "time": 2, "location": {"lat": 29.1861343135156, "lng": 104.99495445229492}, "feature": {"sight_features": "", "sight_content": ""}}, {"title": "天天乐儿童乐园", "address": "四川省自贡市富顺县印花庄巷98号", "image": "", "rank": 19, "time": 2, "location": {"lat": 29.186803562554744, "lng": 104.97990251883576}, "feature": {"sight_features": "", "sight_content": ""}}, {"title": "郭家祠堂", "address": "自贡市富顺县零四六乡道", "image": "", "rank": 20, "time": 2, "location": {"lat": 29.186886257830583, "lng": 104.98149440602947}, "feature": {"sight_features": "", "sight_content": ""}}, {"title": "富顺革命烈士纪念碑", "address": "四川省自贡市富顺县马门口街", "image": "", "rank": 21, "time": 2.0, "location": {"lat": 29.18582956101761, "lng": 105.00671870616499}, "feature": {"sight_features": "", "sight_content": ""}}, {"title": "张家祠堂", "address": "自贡市富顺县福代路", "image": "", "rank": 22, "time": 2, "location": {"lat": 29.130218543712385, "lng": 105.1911863399512}, "feature": {"sight_features": "", "sight_content": ""}}, {"title": "天池湖度假村", "address": "四川省自贡市富顺县童寺镇宝庆乡石仁村6组", "image": "", "rank": 23, "time": 2, "location": {"lat": 29.104588361439138, "lng": 105.14101858321978}, "feature": {"sight_features": "", "sight_content": ""}}, {"title": "富顺牡丹主题公园", "address": "五余村", "image": "", "rank": 24, "time": 2.0, "location": {"lat": 30.759238125958568, "lng": 120.22989944026119}, "feature": {"sight_features": "", "sight_content": ""}}, {"title": "山林生态园", "address": "山林村", "image": "", "rank": 25, "time": 2, "location": {"lat": 47.21232463942541, "lng": 122.29381146333154}, "feature": {"sight_features": "", "sight_content": ""}}, {"title": "平安度假村", "address": "土地村六组", "image": "", "rank": 26, "time": 2, "location": {"lat": 31.96552387689633, "lng": 120.42778250064525}, "feature": {"sight_features": "", "sight_content": ""}}, {"title": "避暑山庄", "address": "四川省自贡市富顺县", "image": "", "rank": 27, "time": 7.5, "location": {"lat": 29.186886257830583, "lng": 104.98149440602947}, "feature": {"sight_features": "", "sight_content": ""}}, {"title": "圣水生态山庄", "address": "富顺县人民医院附近", "image": "", "rank": 28, "time": 2, "location": {"lat": 29.196388712765273, "lng": 104.99708131635187}, "feature": {"sight_features": "", "sight_content": ""}}, {"title": "福农橘园", "address": "唐家村六组(富顺高速路出口1公里处)", "image": "", "rank": 29, "time": 2, "location": {"lat": 29.18390081983556, "lng": 105.0435871360629}, "feature": {"sight_features": "", "sight_content": ""}}, {"title": "高峰农家乐", "address": "吉安路与富州大道交叉口西", "image": "", "rank": 30, "time": 2, "location": {"lat": 29.19163320060921, "lng": 104.99634806729314}, "feature": {"sight_features": "", "sight_content": ""}}, {"title": "瑞祥欢乐谷", "address": "釜江大道西段443号瑞祥商贸城旁边", "image": "", "rank": 31, "time": 2, "location": {"lat": 29.18356084909916, "lng": 104.95628486872138}, "feature": {"sight_features": "", "sight_content": ""}}, {"title": "自贡市金鑫歌舞团", "address": "金山路127号", "image": "", "rank": 32, "time": 2.5, "location": {"lat": 30.186937808515033, "lng": 120.25437859508622}, "feature": {"sight_features": "", "sight_content": ""}}, {"title": "金竹鱼村巴马溏", "address": "泸富路", "image": "", "rank": 33, "time": 2, "location": {"lat": 28.919424693856307, "lng": 105.53925421846601}, "feature": {"sight_features": "", "sight_content": ""}}, {"title": "云南省民族艺术团", "address": "新华街", "image": "", "rank": 34, "time": 2, "location": {"lat": 39.02127929745047, "lng": 117.67844309976273}, "feature": {"sight_features": "", "sight_content": ""}}, {"title": "木桥沟人工湖", "address": "四川省富顺县县西镇中和乡", "image": "", "rank": 35, "time": null, "location": {"lat": 29.186886257830583, "lng": 104.98149440602947}, "feature": {"sight_features": "", "sight_content": ""}}]}