{"cityName": "阜新", "days": "", "cityImage": "", "spots": [{"title": "海棠山风景区", "address": "阜新市阜新蒙古族自治县大板镇大板村西北2公里处", "image": "", "rank": 1, "time": 2.5, "location": {"lat": 41.940434147840456, "lng": 121.86407605698632}, "feature": {"sight_features": "特色1 被誉为“佛教艺术名山”。 特色2 种种奇观异象等待您来探寻。", "sight_content": "阜新海棠山风景名胜区，是国家aaaa级旅游景区、国家森林公园，国家级自然保护区。人民日报、中央电视台以及香港文汇报等国内外多家媒体对阜新海棠山风景名胜区曾发表过专题报道，誉之为“佛教艺术名山”。原国务委员司马义·艾买提视察后题字赞美海棠山“含秀藏奇”。\n人们称赞海棠山的奇松怪石可与黄山媲美，雄浑之势可与泰山齐名，在这里您可以坐在蒙古包里品尝蒙古馅饼、喇嘛炖肉、手把羊肉等蒙古族风味食品，欣赏民族歌舞表演；可以坐在农家火炕上品尝风味小吃，到采摘园体验劳动收获的喜悦；一展您的歌喉，放松您的心情。"}}, {"title": "海州露天矿国家矿山公园", "address": "阜新市太平区煤城路与太平大街交汇处", "image": "", "rank": 2, "time": 1.0, "location": {"lat": 42.015157319152244, "lng": 121.68702214030964}, "feature": {"sight_features": "", "sight_content": ""}}, {"title": "瑞应寺", "address": "辽宁省阜新蒙古族自治县佛寺镇佛寺村", "image": "", "rank": 3, "time": 1.0, "location": {"lat": 41.945222702781045, "lng": 121.45563974123743}, "feature": {"sight_features": "特色1 国家4A级风景区、省级重点文物保护单位", "sight_content": "瑞应寺始建于清康熙八年（公元1669年），集万千能工巧匠之技，仿西藏布达拉宫之势，依山傍水而建；历时近二百年，多次扩建而成。在方圆十里山谷中，庙宇清静，佛像万尊。寺庙僧院鳞次栉比，石板铺路错落有致。寺庙院内苍松古柏掩映，钟鼓之声和鸣；红墙碧瓦，廊檐高耸，禅境幽远，古意盎然。\n瑞应寺鼎盛时期，曾拥有僧众五千，俗云：有名的喇嘛三千六，无名的喇嘛赛牛毛。平日晨鼓暮钟，香火缭绕；逢重大法会，钟鼓齐鸣，经声不绝，万民涌动，云集祈愿。\n瑞应寺已传七世活佛，薪火相传，高僧辈出。瑞应寺一世、二世、三世、四世、五世活佛，曾分别多次朝觐康熙、嘉庆、道光及咸丰皇帝。康熙43年，康熙皇帝钦赐用满、蒙、藏、汉四种文字雕刻的金龙镶边“瑞应寺”大匾，瑞应寺遂成为东蒙地区政教合一的最大的喇嘛寺庙。"}}, {"title": "天水谷温泉", "address": "阜新市阜新县东梁镇项家店", "image": "", "rank": 4, "time": 2, "location": {"lat": 41.90754030760701, "lng": 121.55351885448586}, "feature": {"sight_features": "特色1 含有钙、钠、碘、偏硅酸等多种珍贵矿物质", "sight_content": "天水谷温泉度假村，坐落于辽宁省阜新市东梁镇，距市区20公里，共投资数亿元，规划建设占地面积285亩，总建筑面积17777㎡。严格按照国家标准规划设计，集健康娱乐、修身养性、旅游度假村为一体的多功能温泉度假村。 水质：天水谷温泉源自1900米深处，经过46亿年的净化，被专家誉为“国内一流，实属罕见，泉水精品”，是中国最好的温泉。天水谷温泉度假村，风景秀丽，环境幽美，是您休闲、养生、旅游的绝好去处。\n服务设施：主体楼高三层，主分四个区域：大堂，温泉部，餐饮部，房务部。 大堂主要设有：大堂休闲区、茶吧、商场、商务中心、健身中心、会议中心、医务室等。 温泉设施：内部设有：休息大厅，淋浴区，游泳池，多个特色室内泡池，天体浴，竹林浴，玛瑙房等。 外部设有：42个室外泡池，戏水池等。 餐饮设施：中餐厅，西餐厅 客房设施：拥有百余间标准客房、大床房、豪华套房、麻雀房。"}}, {"title": "巨龙湖", "address": "阜新市彰武县境内，位于羊息牧河支流二道河上", "image": "", "rank": 5, "time": 1.0, "location": {"lat": 42.392706534363775, "lng": 122.54544932020693}, "feature": {"sight_features": "", "sight_content": ""}}, {"title": "宝力根寺", "address": "阜新市蒙古族自治县大板镇衙门村", "image": "", "rank": 6, "time": 1.0, "location": {"lat": 41.983583300419106, "lng": 121.91479438607966}, "feature": {"sight_features": "", "sight_content": ""}}, {"title": "玉龙湖公园", "address": "阜新市细河区北苑街道人民大街", "image": "", "rank": 7, "time": 0.75, "location": {"lat": 42.047068041440625, "lng": 121.66413659652711}, "feature": {"sight_features": "", "sight_content": ""}}, {"title": "乌兰山", "address": "阜新市阜新蒙古族自治县旧庙镇", "image": "", "rank": 8, "time": 1.0, "location": {"lat": 42.38962597509076, "lng": 121.62358347821178}, "feature": {"sight_features": "", "sight_content": ""}}, {"title": "宝地斯帕温泉度假区", "address": "阜新市东梁镇温泉规划区", "image": "", "rank": 9, "time": 2, "location": {"lat": 41.91455679812721, "lng": 121.60047293135666}, "feature": {"sight_features": "特色1 碱性泉，世上的温泉多为酸性泉，极少数为中性泉，极其罕见碱性泉。 特色2 古水泉，阜新宝地国际温泉城的温泉自地下1888米开采。 特色3 汤泉，阜新宝地斯帕温泉度假区的温泉在经过亿万年的沉积过程中，将丰富的矿物质融入在泉里。", "sight_content": "宝地斯帕温泉度假区位于阜新市东梁镇温泉规划区;项目总占地面积约1500亩，拟规划建筑面积约120万平方米。宝地斯帕温泉度假区是集、温泉养生、旅游度假、休闲娱乐、运动等一站式体验为一体的全新温泉旅游圣地。度假区由温泉养生圣境、乡梦庄园绿野圣境、百亩花海漫步童话圣境、 阜新文化之窗四大部分组成。\n温泉养生圣境占地面积约160亩，温泉区包括酒店区、室内温泉区、室外温泉区、游泳馆、水上乐园、滨湖商业街、文化主题餐饮、休闲娱乐区、文化广场、蒙医理疗区等10大功能区。宝地斯帕温泉采自地下深层1888米流淌了3000年的古水温泉，度假区拥有3眼碳酸氢钠温泉井，水量绝对充足，泉眼水温常年保持82度，被誉为泉中极品。室内泡池共设有欢乐斯帕区、亲子乐园区、斯帕特色区、五行养生区等八个功能区域。在温润的温泉池里舒展身心，忘记世间琐事，一切烦忧随着温泉的水汽细碎散开。\n室外温泉区占地2万平方米的室外温泉区涵盖露天原汤泡池、私密汤屋、水上乐园、游泳馆四部分。露天温泉泡池特设鸟语、莺歌、醉荫等12个泡池。掩映于林荫深处的露天泡池，极富返朴归真的野趣。阳光洒落大地，清澈盈然的千年古水温泉于绿意萦绕的丛林中映射细碎鳞光。置身于宛如人间仙境的露天泡池，听蝉声鸣叫，闻四溢花香，静享禅意生活。位于露天泡池西侧的私密汤屋打造10席私人温泉度假行宫。汲取中式庭院神髓。翠竹影壁，掩映门前，“庭院深深，深几许”的意境油然而生。一户一席专属泡池，尽享专属尊崇。豪华套房设计，构建尊贵醇美的私属领地。“短短横墙，矮矮疏窗，有些风，有些月；倚栏临水，好听丝竹，煮些茶，读些书”，至简则至美的诗意生活画卷尽展眼前。\n欢乐无限的水上乐园，拥有900平方米仿真冲浪池，多种不同浪型的人工造浪，使您身在阜新也能感受到与大海的气息。700平充满异国风情的特色水寨，让你瞬间置身欢乐的水乡世界。全长280米刺激的漂流河谷，围绕整个水上乐园戏水区，使您在体验漂流刺激的同时，观赏整个水上乐园的无限风光。"}}, {"title": "关山", "address": "阜新市阜新蒙古族自治县大巴镇", "image": "", "rank": 10, "time": 2.0, "location": {"lat": 42.11044149557741, "lng": 122.02849143137517}, "feature": {"sight_features": "", "sight_content": ""}}, {"title": "那木斯莱湿地", "address": "阜新彰武县四合城乡", "image": "", "rank": 11, "time": 1.0, "location": {"lat": 42.72391772189419, "lng": 122.68132990598654}, "feature": {"sight_features": "", "sight_content": ""}}, {"title": "“万人坑”死难矿工纪念馆", "address": "阜新市太平区孙家湾南山", "image": "", "rank": 12, "time": 1.0, "location": {"lat": 41.98526634140659, "lng": 121.699505777897}, "feature": {"sight_features": "", "sight_content": ""}}, {"title": "章古台沙地森林公园", "address": "阜新彰武县章古台镇", "image": "", "rank": 13, "time": 1.0, "location": {"lat": 42.7166858897813, "lng": 122.49540848055292}, "feature": {"sight_features": "", "sight_content": ""}}, {"title": "三塔沟", "address": "阜新市阜新蒙古族自治县大板镇境内", "image": "", "rank": 14, "time": 1.0, "location": {"lat": 41.95294008367118, "lng": 121.85661359865719}, "feature": {"sight_features": "", "sight_content": ""}}, {"title": "查海遗址博物馆", "address": "阜新市沙拉乡查海村西五里", "image": "", "rank": 15, "time": 1.0, "location": {"lat": 42.186428108751116, "lng": 121.81307559887804}, "feature": {"sight_features": "", "sight_content": ""}}, {"title": "千佛山风景区", "address": "辽宁省阜新市彰武县大四家子镇", "image": "", "rank": 16, "time": 3.5, "location": {"lat": 42.573155007635094, "lng": 122.90536602637785}, "feature": {"sight_features": "", "sight_content": ""}}, {"title": "懿州古塔", "address": "阜蒙县塔营子分驻地，在懿州古城中部稍西", "image": "", "rank": 17, "time": 1.0, "location": {"lat": 42.258181979873314, "lng": 121.89537882849908}, "feature": {"sight_features": "", "sight_content": ""}}, {"title": "海州庙", "address": "阜新市海州区新华路122号附近", "image": "", "rank": 18, "time": 1.0, "location": {"lat": 42.0118548342258, "lng": 121.65706735571463}, "feature": {"sight_features": "", "sight_content": ""}}, {"title": "大清沟", "address": "阜新市彰武县大冷乡", "image": "", "rank": 19, "time": 1.0, "location": {"lat": 42.596041704979875, "lng": 122.34172450632876}, "feature": {"sight_features": "", "sight_content": ""}}, {"title": "亚太温泉", "address": "阜新市太平区阿金立交桥南300米（水泉高速出口2.5公里）", "image": "", "rank": 20, "time": 2, "location": {"lat": 42.062638340216324, "lng": 121.76534309985912}, "feature": {"sight_features": "特色1 洗浴过程中体验原生态的美感 特色2 这里是真正的人工热带雨林 特色3 体验清雅自在的自然感觉。", "sight_content": "亚太温泉度假村位于中国东北部的辽宁省阜新市。附近环境清静，拥有很好的位置环境，是集温泉，餐饮，住宿，旅游，观光，度假等于一体的综合服务性休闲度假庄园。在游乐设施上，设有东北地区大的室内热带植物生态观光园，近百种热带植物丛生其中，能为来往游客提供一种非常清雅自在的自然感觉，是真正的人工热带雨林。\n在感受自然的同时，游泳爱好者还可亲身体验到我们所打造的拥有国际比赛标准的游泳池及跳台，在阜新地区绝无仅有。"}}, {"title": "黄家沟水上乐园", "address": "阜新市细河区黄家沟村内", "image": "", "rank": 21, "time": 2, "location": {"lat": 42.07286913016245, "lng": 121.6101755875598}, "feature": {"sight_features": "", "sight_content": ""}}, {"title": "塔子沟", "address": "阜新市太平区水泉镇南部", "image": "", "rank": 22, "time": 1.0, "location": {"lat": 42.01506911814003, "lng": 121.74355373044295}, "feature": {"sight_features": "", "sight_content": ""}}, {"title": "东郊湖风景区", "address": "阜新市新邱区城区东北", "image": "", "rank": 23, "time": 1.0, "location": {"lat": 42.09393451476494, "lng": 121.79936338567522}, "feature": {"sight_features": "", "sight_content": ""}}, {"title": "阿尔善温泉", "address": "阜新市阜蒙县东梁镇吐呼噜村", "image": "", "rank": 24, "time": 2, "location": {"lat": 41.91455679812721, "lng": 121.60047293135666}, "feature": {"sight_features": "", "sight_content": ""}}, {"title": "阜新人民公园", "address": "民族街40", "image": "", "rank": 25, "time": null, "location": {"lat": 42.02527724877503, "lng": 121.66353038493507}, "feature": {"sight_features": "", "sight_content": ""}}, {"title": "三一八公园", "address": "新华路与矿工大街交汇处", "image": "", "rank": 26, "time": 2, "location": {"lat": 42.015626066142495, "lng": 121.66356293413692}, "feature": {"sight_features": "", "sight_content": ""}}, {"title": "辽宁工程技术大学图书馆", "address": "人民大街阜新市图书馆旁", "image": "", "rank": 27, "time": 2, "location": {"lat": 42.047068041440625, "lng": 121.66413659652711}, "feature": {"sight_features": "", "sight_content": ""}}, {"title": "圣经寺", "address": "阜新市彰武县", "image": "", "rank": 28, "time": 1.0, "location": {"lat": 42.392706534363775, "lng": 122.54544932020693}, "feature": {"sight_features": "", "sight_content": ""}}, {"title": "乌兰木图山风景区", "address": "辽宁省阜新蒙古族自治县八家子乡", "image": "", "rank": 29, "time": 2, "location": {"lat": 42.291674853532534, "lng": 121.5248956169195}, "feature": {"sight_features": "", "sight_content": ""}}, {"title": "辽宁绿维农业有机庄园", "address": "大冷镇蛤蟆屯", "image": "", "rank": 30, "time": 2, "location": {"lat": 42.621561450862345, "lng": 122.33727252667894}, "feature": {"sight_features": "", "sight_content": ""}}, {"title": "寺庙", "address": "瑞应古寺附近", "image": "", "rank": 31, "time": 2, "location": {"lat": 41.942924464106284, "lng": 121.45445323596391}, "feature": {"sight_features": "", "sight_content": ""}}, {"title": "黄家沟滑雪场", "address": "阜新市细河区黄家沟村内", "image": "", "rank": 32, "time": 2, "location": {"lat": 42.07286913016245, "lng": 121.6101755875598}, "feature": {"sight_features": "", "sight_content": ""}}, {"title": "云水瑶汤泉", "address": "阜新市太平区玛瑙城西振兴路22-603号", "image": "", "rank": 33, "time": 2, "location": {"lat": 42.00588520400032, "lng": 121.66693056112089}, "feature": {"sight_features": "", "sight_content": ""}}, {"title": "丽水金尊洗浴休闲俱乐部", "address": "阜新市海州区滨河路5-1-5", "image": "", "rank": 34, "time": 1.5, "location": {"lat": 42.017459762352374, "lng": 121.67051008400178}, "feature": {"sight_features": "", "sight_content": "丽水金尊洗浴休闲俱乐部位于阜新市滨河路上，丽水金尊以茶艺传承三国文化，提供独特的茶浴，体现传统茶道与经典洗浴的完美融合。"}}, {"title": "蓉瑞书画阁", "address": "滨河路21号", "image": "", "rank": 35, "time": 2, "location": {"lat": 39.93333479841547, "lng": 119.57876102679356}, "feature": {"sight_features": "", "sight_content": ""}}, {"title": "科学技术馆", "address": "矿工大街29号", "image": "", "rank": 36, "time": 2, "location": {"lat": 42.013740025902386, "lng": 121.64118546206949}, "feature": {"sight_features": "", "sight_content": ""}}, {"title": "矿山公园高尔夫俱乐部有限公司", "address": "太平大街3号太平地税一楼", "image": "", "rank": 37, "time": 2, "location": {"lat": 42.01687774964628, "lng": 121.68530405556413}, "feature": {"sight_features": "", "sight_content": ""}}, {"title": "煤炭博物馆", "address": "市环线", "image": "", "rank": 38, "time": 1.5, "location": {"lat": 42.068944545257764, "lng": 121.82896039629577}, "feature": {"sight_features": "", "sight_content": ""}}, {"title": "清河游乐园", "address": "204省道清河游乐园", "image": "", "rank": 39, "time": 4.5, "location": {"lat": 41.800347709598604, "lng": 121.44879410887826}, "feature": {"sight_features": "", "sight_content": ""}}, {"title": "大班温泉", "address": "新都路13号", "image": "", "rank": 40, "time": 2, "location": {"lat": 42.004946883281576, "lng": 121.62894100012078}, "feature": {"sight_features": "", "sight_content": ""}}, {"title": "格澜云天温泉会馆", "address": "工业街29-3-1门", "image": "", "rank": 41, "time": 2, "location": {"lat": 42.035981463501145, "lng": 121.67630006904767}, "feature": {"sight_features": "", "sight_content": ""}}, {"title": "阜新市城市建设档案馆", "address": "中华路61号", "image": "", "rank": 42, "time": 2.5, "location": {"lat": 39.43078775353804, "lng": 118.92148421150493}, "feature": {"sight_features": "", "sight_content": ""}}, {"title": "阜新市博物馆", "address": "工业街44-2号", "image": "", "rank": 43, "time": null, "location": {"lat": 42.03264988695529, "lng": 121.67986952911023}, "feature": {"sight_features": "", "sight_content": ""}}, {"title": "马利画廊", "address": "园林路40号", "image": "", "rank": 44, "time": 2, "location": {"lat": 42.025478605044604, "lng": 121.66595926828822}, "feature": {"sight_features": "", "sight_content": ""}}, {"title": "天水谷温泉会馆二部", "address": "东门外国土资源局南50米", "image": "", "rank": 45, "time": 2, "location": {"lat": 43.61462732934034, "lng": 118.08495035293741}, "feature": {"sight_features": "", "sight_content": ""}}, {"title": "酷贝拉阜新金玛广场欢乐园", "address": "迎宾大街2号金玛购物广场3楼", "image": "", "rank": 46, "time": 2, "location": {"lat": 38.98040178956857, "lng": 121.55676242727552}, "feature": {"sight_features": "", "sight_content": ""}}, {"title": "阜新矿业集团房地产物业总公司花...", "address": "蒙台梭利双语幼儿园附近", "image": "", "rank": 47, "time": 2, "location": {"lat": 30.6114119775577, "lng": 114.37813000857344}, "feature": {"sight_features": "", "sight_content": ""}}, {"title": "兴城汤上温泉(阜新办事处)", "address": "通达路118号附近", "image": "", "rank": 48, "time": 2.5, "location": {"lat": 42.001868149054765, "lng": 121.62996099997649}, "feature": {"sight_features": "", "sight_content": ""}}, {"title": "鑫瑞采摘园", "address": "阜塔线", "image": "", "rank": 49, "time": 2, "location": {"lat": 42.01290734173127, "lng": 121.74036641852739}, "feature": {"sight_features": "", "sight_content": ""}}, {"title": "塔子沟垂钓园", "address": "塔新路1-17-46附1栋", "image": "", "rank": 50, "time": 2, "location": {"lat": 42.0115432704119, "lng": 121.74298948319282}, "feature": {"sight_features": "", "sight_content": ""}}, {"title": "阜新市图书馆", "address": "人民大街", "image": "", "rank": 51, "time": 1.5, "location": {"lat": 39.92619647066753, "lng": 122.57765015199226}, "feature": {"sight_features": "", "sight_content": ""}}, {"title": "巨玫瑰葡萄采摘园", "address": "民主村南边", "image": "", "rank": 52, "time": 2, "location": {"lat": 39.33498484877474, "lng": 117.57219745645212}, "feature": {"sight_features": "", "sight_content": ""}}, {"title": "佛寺水库", "address": "阜新市阜新蒙古族自治县", "image": "", "rank": 53, "time": 1.5, "location": {"lat": 42.0713681538371, "lng": 121.76357399585217}, "feature": {"sight_features": "", "sight_content": ""}}, {"title": "抚顺平顶山惨案纪念馆", "address": "辽宁省阜新市太平区孙家湾南山 123003", "image": "", "rank": 54, "time": 2.0, "location": {"lat": 41.98526634140659, "lng": 121.699505777897}, "feature": {"sight_features": "", "sight_content": ""}}, {"title": "辽西地质古生物博物馆", "address": "辽宁省阜新市细河区中华路47号辽宁工程技术大学", "image": "", "rank": 55, "time": 2, "location": {"lat": 42.026492872312986, "lng": 121.67290070313344}, "feature": {"sight_features": "", "sight_content": ""}}, {"title": "二人转剧场", "address": "中华路69号工人文化宫", "image": "", "rank": 56, "time": 2, "location": {"lat": 42.0214616876935, "lng": 121.65949392638026}, "feature": {"sight_features": "", "sight_content": ""}}, {"title": "三一八公园-北中门", "address": "矿工大街与新华路交汇处东85米", "image": "", "rank": 57, "time": 2, "location": {"lat": 42.01092673567765, "lng": 121.64262987444813}, "feature": {"sight_features": "", "sight_content": ""}}, {"title": "榆公汤泉", "address": "凯旋城西200米", "image": "", "rank": 58, "time": 2, "location": {"lat": 29.61148603798567, "lng": 115.91177707141797}, "feature": {"sight_features": "", "sight_content": ""}}, {"title": "花季生态园", "address": "G2512阜锦高速", "image": "", "rank": 59, "time": 2, "location": {"lat": 41.7591419024347, "lng": 121.38843137420258}, "feature": {"sight_features": "", "sight_content": ""}}, {"title": "贝贝诺儿童乐园", "address": "文化路48号(京都商场2楼)", "image": "", "rank": 60, "time": 2, "location": {"lat": 24.33728864301921, "lng": 109.41607208902133}, "feature": {"sight_features": "", "sight_content": ""}}]}