{"cityName": "阜阳", "days": "", "cityImage": "", "spots": [{"title": "阜阳生态园", "address": "阜阳市颍泉区欧阳修路666号", "image": "", "rank": 1, "time": 3.0, "location": {"lat": 32.936460310455274, "lng": 115.79843920380559}, "feature": {"sight_features": "特色1 人与自然交流对话的理想场所 特色2 以观光农业为主的十四个主题景观组成", "sight_content": "2019年阜阳生态乐园第十届迎春灯会持续亮灯四十天，打造阜阳不夜天！更有全息盛典、电音派对等你好看！\n灯会时间：1月28日-3月8日。\n以“筑梦新时代 彩灯迎新春”为主题，将实际非物质遗产彩灯传统工艺与现代光影完美结合。\n七大主题灯区 六十多组动静结合花灯\n甚至比上届灯会规模还要再大6万平方，等你来赏。\n阜阳生态园坐落在阜城西北部，与泉河一堤之隔，地处古颍州西湖遗址。\n阜阳生态园建园风格独特，以高品位、生态性、知识性、趣味性为建园原则。这里可看、可赏、可吃、可学、可玩、可乐，是人与自然交流对话的理想场所，是人们休闲娱乐、放飞心情的理想选择。\n“欧公故居•生态仙境”---阜阳生态园是一家以生态农业观光为主线的集“农业示范、科普教育、生态环保、休闲娱乐”为一体的综合类旅游景区，是皖北地区颇具人气的旅游胜地。"}}, {"title": "八里河风景区", "address": "阜阳市颍上县八里河镇八里河风景区", "image": "", "rank": 2, "time": 3.0, "location": {"lat": 32.56561417697949, "lng": 116.31472450345456}, "feature": {"sight_features": "特色1 绝美的湿地风光给你带来足够美妙的享受。 特色2 融合多种建筑风格，游玩内容丰富。 特色3 碧波万顷，古色古香，让人如痴如醉。", "sight_content": "‍‍‍‍‍‍\n﻿颍上县南部的八里河镇。南临淮水，东濒颍河，北距颍城8公里，西迄阜阳60公里，东南距合肥170公里。其主园区即\"世界风光\"、\"锦绣中华\"、\"碧波游览区\"占地面积3600亩。风光秀丽，景色迷人，交通方便，信息快捷，宾馆山庄，设施齐全，娱乐休闲，服务一流。恰似桃源圣地，犹如蓬莱仙境。享有\"天下第一农民公园\"之美称。真可谓物华天宝禅光射牛斗之墟，人杰地灵佳声震欧美之邦。\n“飞流直下三千尺，疑是银河落九天”，此话用来形容位于锦绣中华园内南侧的“九天瀑布”同样宏伟壮观。九天瀑布长90米，高20米，加上9.9米高的观世音像及底座，约高32.9米，立体框架1750米。远远望去，奔流飞泻的瀑布气势磅礴，撼人心魄。高9.9米的观士音像，立于假山之上，堪称一绝。相信李白来到这里也会诗兴大发。“不到长城非好汉”，在这里你同样能登上“长城”。“张公山”临湖矗立，巍巍“长城”盘旋而上，富有塞外风光的神韵；登上烽火台，尽可包揽南湖公园的卓越丰姿。“锦绣中华”还有九龙壁、白雀寺等景点，集东方建筑艺术之特色，融中国传统文化之精华，观后令人回味不绝。\n走出“锦绣中华门，来到“碧波游览区”。3000亩的湖面上，错落有致地分布着12个小岛，由软、硬桥连接。穿过既刺激又让人心惊胆颤的步云桥，便到达环湖堤。三十余间小木屋和部分动物之家，点缀在环湖岛上。堤上孔雀拖着艳丽的尾翼在悠闲地散步；湖中成群的黑天鹅浮在水面上，似乎在欣赏自己的倩影，野鸭和鸳鸯在戏水玩耍；湖心的鸟岛上，林木茂盛，百鸟翔集，雁鸣鹤舞，真是鸟类的乐园。据导游小姐介绍，这里每年都吸引大批南方来的候鸟，由于环境、气候、水质都不错，它们也不会飞走。在另一小岛上还有鸟语林，用胶织网覆盖，饲养鸟类近百种，有国家一级保护动物绿孔雀、白尾海雕等；二级保护动物鸳鸯、红腹锦鸡等。\n八里河风景区，恰似桃源圣地，蓬莱仙境，给久居喧嚣都市的人们一方净土。烟波浩淼的湖水，景色锦绣的公园，百鸟竞飞的鸟语林，以及连心桥、度假村、无不如诗如画。中西建筑交相辉映，创意精妙，布局严整，美不胜收。八里河风景区不仅有风景园林，还盛产武昌鱼、桂鱼、甲鱼、银鱼、鳗鱼等三十多种水产品。它既是136种鸟类、水禽栖息地，皖北重要的珍稀渔品生产基地，也是阜阳水资源保护区，省级湿地自然保护区。八里河镇94年被联合国授予环境保护“全球五百佳”。\n‍‍‍‍‍‍"}}, {"title": "迪沟风景区", "address": "阜阳市颍上县迪沟旅游风景区", "image": "", "rank": 3, "time": 4.0, "location": {"lat": 32.659028468804394, "lng": 116.26347689904284}, "feature": {"sight_features": "特色1 *1、生态旅游与佛教文化为一体的旅游风景区。", "sight_content": "迪沟风景区位于阜阳市东边，紧邻迪沟镇。风景区包含了西边的竹音寺和东边的迪沟生态园，两者中间仅224省道一路之隔，相距约150米。竹音寺据说祈福灵验；生态园里有大片水面，植被茂盛，还有小孩子喜欢的动物园。\n2005年被命名为“AAAA级风景区”，2007年被国家林业局命名为“迪沟国家湿地公园”。景区先后荣获全国环境优美乡镇、国家园林城镇、国家首批农业旅游示范点、全国发展改革试点镇、安徽省最佳旅游乡镇、安徽省十大旅游休闲基地等称号。\n景区分为生态旅游，佛教文化与迪沟小城镇风光。现有水域面积达到1000公顷，规划总面积约3000公顷。生态资源丰富、自然景观质朴、汇集了生态环境、度假休闲、旅游观光、科普教育等功能于一体。大量水生植物、鸟类、鱼类、两栖类和湿地兽类在此繁衍，形成了较为完备的生态系统。\n佛教文化发源地竹音寺，重建于1999年4月1日，占地面积630亩，有金水观鱼，儿童乐园，休闲茶吧，千年古井，放生池，观音庙遗址等景点。重修了清道光年间留下来的观音庙，进行精品改造，2000年元旦落成。整个寺庙座西向东，有天王殿，大雄宝殿俩大正殿，有普贤，济公，观圣，观音，娘娘五大偏殿。全世界独一无二的用香樟木整体雕刻的五百罗汉堂于2003年元旦正式向游人开放。五百罗汉都是香樟木整体雕刻，给佛教寺院文化确实增添了佛的灵感和新意。\n园内湖、岛、山、园错落有致，有18个品种的世界名猴园。百只珍禽鸟岛，独具特色的狮虎山，园内有国家珍惜保护动物（一级）东方白鹳、黑天鹅、白天鹅、白鹭、金丝猴、东北虎、非洲狮、黑熊、棕熊、牦牛、梅花鹿、马鹿、鸵鸟、孔雀、鹦鹉等多种野生动物。有香樟，桂花，枇杷，深山含笑，紫藤，木瓜，乌柏，马尼拉等几百个品种的古树名木，奇花异草。"}}, {"title": "五里湖生态湿地公园", "address": "阜阳市颍上县城区西侧，北端距S12滁新高速1公里，南端至八里河风景区", "image": "", "rank": 4, "time": 3.0, "location": {"lat": 32.676472470717044, "lng": 116.27282313906032}, "feature": {"sight_features": "", "sight_content": ""}}, {"title": "颍州西湖", "address": "阜阳市颍州区西湖镇", "image": "", "rank": 5, "time": 2.0, "location": {"lat": 32.9480341434107, "lng": 115.61231606925953}, "feature": {"sight_features": "", "sight_content": ""}}, {"title": "文峰塔", "address": "阜阳市颍州区清河东路279号文峰公园内", "image": "", "rank": 6, "time": null, "location": {"lat": 32.897734621564226, "lng": 115.82718564127774}, "feature": {"sight_features": "", "sight_content": ""}}, {"title": "尤家花园", "address": "阜阳市颍上县十八里铺乡花园村102省道", "image": "", "rank": 7, "time": 1.5, "location": {"lat": 32.675842607629725, "lng": 116.18042792583154}, "feature": {"sight_features": "", "sight_content": ""}}, {"title": "奎星楼", "address": "安徽省阜阳市颍州区临泉路95号", "image": "", "rank": 8, "time": 1.0, "location": {"lat": 32.901672117259736, "lng": 115.82104300035304}, "feature": {"sight_features": "", "sight_content": ""}}, {"title": "江心洲滨河公园", "address": "阜阳市颍上县颍上城区东面的江心洲滨河公园", "image": "", "rank": 9, "time": 1.5, "location": {"lat": 32.65307428837447, "lng": 116.27839203944224}, "feature": {"sight_features": "", "sight_content": ""}}, {"title": "竹音寺", "address": "安徽省阜阳市颍上县迪沟镇新阳光大酒店(汤店阳光医院西南)", "image": "", "rank": 10, "time": 1.0, "location": {"lat": 32.815980602981085, "lng": 116.38665969389645}, "feature": {"sight_features": "", "sight_content": ""}}, {"title": "颍东欢乐城游乐园", "address": "阜阳市颍东开发区阜蚌路112号阜阳东高速入口处", "image": "", "rank": 11, "time": 2, "location": {"lat": 32.97025509205916, "lng": 115.90955800269418}, "feature": {"sight_features": "", "sight_content": ""}}, {"title": "太和环球嘉年华游乐园", "address": "安徽太和县沙颍河三桥南往西500米", "image": "", "rank": 12, "time": 2, "location": {"lat": 33.20837943746748, "lng": 115.56859348296929}, "feature": {"sight_features": "特色1 大型游乐园", "sight_content": "太和环球嘉年华游乐园是首家落地安徽的世界级品牌游乐园，是皖西北地区最大的主题乐园之一。太和环球嘉年华游乐园坐落于安徽省阜阳市太和县沙颍河三桥南往西500米，临近沙颍河国家湿地公园，是与经济强县地位相匹配的文化娱乐中心。乐园一期项目总投资4.5亿元人民币，占地约151亩，它以时尚、欢乐、动感、梦幻的人文魅力，传播着世界最流行的狂欢气息，已逐渐成为皖西北地区体验旅游的重要标志！\n游乐园的外围是太和盛世商业街，这条街鳞次栉比，有意式餐厅、也有中式茶馆；有西式快餐，也有东方美食；有精品超市，也有购物驿站。它应有尽有，精品店的商品琳琅满目，美食店的菜品唇齿留香，它会是购物的圣地，也将是吃货的天堂。\n太和环球嘉年华的太和之眼、急速飞车、激流勇进、水寨等项目与太和的自然景色、人文历史、风俗民情完美地结合一起，是以自然生态环境为特色的精品旅游项目。乐园中心设置标志性建筑——精灵城堡，将远古的精灵神话缔造出永不落幕的狂欢盛典。身临其境，用声光电的现代高科技手段，打造“特色突出、规模宏大、技术先进、效果震撼”的世界级大型文化娱乐体验项目。在颖水泽国，感受欢乐海洋的魅力。天旋地转的身体感受，光怪陆离的声光影像，体验前所未有的太空惊险。伴着欢乐动感的音乐，身体随着圆盘旋转，感受着翻江倒海带来的魔力。在未来世界，让我们乘坐安徽最高的超级摩天轮，到达108米的高空，换个角度看美丽太和；穿梭在蓝天白云之间的急速飞车，急速翻转漂移的疯狂快感，将在这里得到共鸣，再次考验您的胆量与勇气。\n在这里，最刺激、最惊险、最新奇的游乐设施正等着你来挑战。让我们抛开生活和工作的烦恼，释放热情，肆意尖叫，一起感受太和第一园的狂欢与热辣，享受淋漓尽致的快感吧！"}}, {"title": "阜阳博物馆", "address": "安徽省阜阳市颍州区清河东路339号", "image": "", "rank": 13, "time": 2.5, "location": {"lat": 32.89519290031282, "lng": 115.82605808011685}, "feature": {"sight_features": "", "sight_content": ""}}, {"title": "锦怡花海景区", "address": "阜阳市颍东区插花镇闸南村", "image": "", "rank": 14, "time": 2, "location": {"lat": 33.033885738264026, "lng": 116.03025356565854}, "feature": {"sight_features": "", "sight_content": ""}}, {"title": "阜阳海洋文化科技馆", "address": "阜阳市颍州区西二环路汽车西站北侧20米", "image": "", "rank": 15, "time": 7.5, "location": {"lat": 32.88962541654979, "lng": 115.81341119616408}, "feature": {"sight_features": "", "sight_content": ""}}, {"title": "淮上公园", "address": "", "image": "", "rank": 16, "time": 1.0, "location": {"lat": 32.63999935532339, "lng": 116.23105960976523}, "feature": {"sight_features": "", "sight_content": ""}}, {"title": "张庄公园", "address": "阜阳市颍上县小张庄公园", "image": "", "rank": 17, "time": 1.0, "location": {"lat": 32.75237305611588, "lng": 116.4271363053281}, "feature": {"sight_features": "", "sight_content": ""}}, {"title": "阜阳师范学院", "address": "安徽省阜阳市清河东路741号", "image": "", "rank": 18, "time": 7.5, "location": {"lat": 32.89778835018567, "lng": 115.81150566470274}, "feature": {"sight_features": "", "sight_content": ""}}, {"title": "摩卡水王国", "address": "阜阳市颍东区阜蚌路112号", "image": "", "rank": 19, "time": 2, "location": {"lat": 32.97025509205916, "lng": 115.90955800269418}, "feature": {"sight_features": "特色1 高品质配套设施的原生态水上主题乐园", "sight_content": "安徽顶级水世界。由国际顶尖规划机构精心设计，以颍东欢乐城、翡翠湖温泉为原址，致力于打造热带海岛风的水上娱乐王国。由大型冲浪地、惊险刺激与悠闲徜徉结合的漂流河、各种刺激的滑道组合、大喇叭，大型水寨、儿童戏水区等项目组成，日接待量达1万人，自然生态的主题包装，完善、高品质的配套设施，打造阜阳城区唯一一座原生态“水上主题乐园”，将于2017年7月8日全面投运。\n7月8日，颍东*摩卡水王国即将开幕，白天加夜晚，狂欢到天亮！水世界中央大舞台每天晚上上演精彩绚丽的演出，点燃你身体的每一个细胞，让你止不住最疯狂的尖叫。\n享受水公园清凉的同时，欣赏着造浪池舞台上演的精彩演出，恍惚感觉自己已置身在异域国度享受着热情奔放的假期。夜幕下的颍东*摩卡水王国，流光溢彩，灯红酒绿，娇艳的姑娘们穿着性感的服装，在灯光的衬托下，更显神秘和性感，劲爆的音乐响彻上空，绚烂的灯光摇曳多姿，火辣的美女激情热舞，华丽的舞台把整个水世界的夜空都映得五彩斑斓，满天星光。啤酒嘉年华广场，每天下午六点半至九点半，最劲爽酣畅的啤酒，最动感热情的爵士舞蹈，让你畅爽一夏。\n浪漫夜空，乘着凉风，在休息区小憩一番，享用着园区内的美食小吃，欣赏着热辣的舞姿，感受水世界的互动激情，给视觉、听觉、味觉最丰盛的享受！阳光、沙滩、海浪、比基尼、水上游乐，让我们一起远离都市的喧嚣，开启一场奇妙的仲夏欢畅清凉之旅，举起双臂，随浪狂欢，纵情嗨歌，尽情释放心中的激情，体验驾驭惊涛骇浪的阵阵快感！"}}, {"title": "八里河水世界", "address": "阜阳市颍上县八里河镇八里河旅游区（河北岸）", "image": "", "rank": 20, "time": 2, "location": {"lat": 32.578068265446106, "lng": 116.29163399240552}, "feature": {"sight_features": "特色1 千米梦幻漂流河，先进人工真沙滩。", "sight_content": "颍上八里河水世界有限公司八里河水世界，是华东新崛起的一流水上主题乐园,以天下第一农民公园、国家5A级风景区八里河为背景，由传中城集团投资开发建设，按国家5A级风景区规划建造，具有一定标志性水上主题乐园，智立方旅游管理咨询有限公司本着“以客为尊”的服务理念经营管理。乐园总占地约8万平方米，总投资额约3.8亿元人民币，将成为辐射华东四省，主题包装最精致、游乐设施最先进的顶级水上主题乐园之一，乐园由室内休闲区、绿色生态长廊观赏区、激情冲浪区、沙滩休闲区、魔幻滑道区、儿童戏水区、奇幻漂流河、SPA水疗区等区域组成，可同时容纳上万人狂欢，占地8000平方米的大型海啸?冲浪池，让你享受浪花强力冲击时的无限快感。\n引进世界先进的人工真沙滩，让您轻松领略黄金海岸风情，千米梦幻漂流河，让您感受徜徉海洋中的美妙乐趣，安徽省首台刺激的尖峰极速滑道等众多世界先进水上设备，让您尽情领略跌宕起伏的海上探险，更有异域风情水上表演、互动主题游戏等精彩呈现，给您带来前所未有的感官体验，阳光、沙滩、海浪、比基尼、水上游乐，让我们一起远离都市的喧嚣，开启一场奇妙的仲夏欢畅清凉之旅，在这个富有激情，时尚动感的水上乐园中尽情狂欢！仲夏之初，让我们开启水上狂欢盛典，八里河水世界与您不见不散！\n颍上八里河水世界由室内休闲区、绿色生态长廊观赏区、激情冲浪区、沙滩休闲区、魔幻滑道区、儿童戏水区、奇幻漂流河、SPA水疗区等区域组成，占地8000平方米的大型海啸‍冲浪池，让你享受浪花强力冲击时的无限快感。人工真沙滩让你您轻松领略黄金海岸风情。千米梦幻漂流河感受徜徉海洋中的美妙乐趣，还有尖峰极速滑道等众多世界先进水上设备，让你尽情领略跌宕起伏的海上探险。更有异域风情水上表演、互动主题游戏等精彩呈现，给您带来前所未有的感官体验，阳光、沙滩、海浪、比基尼、水上游乐，开启一场奇妙的仲夏欢畅清凉之旅。"}}, {"title": "刘邓大军会合纪念碑", "address": "阜阳市临泉县韦寨镇", "image": "", "rank": 21, "time": 1.0, "location": {"lat": 32.96952947776129, "lng": 115.19001955615303}, "feature": {"sight_features": "", "sight_content": ""}}, {"title": "姜尚温泉", "address": "阜阳市临泉县牛庄乡102国道路北（牛庄乡中心学校西650米路北）", "image": "", "rank": 22, "time": 2, "location": {"lat": 33.01903282859098, "lng": 115.34504417319826}, "feature": {"sight_features": "", "sight_content": "姜尚温泉的热水取自1368米深处的天然地下水，井底温度70℃，出水温度56℃，偏硅酸含量29.9mg/L(国际标准为25mg/L) ,属优质类偏硅酸型复合温泉，姜尚温泉设有符合国家标准的室内游泳馆、男女浴池、室外露天温泉、石板浴、单人温泉间、情侣温泉间、海洋沙滩、儿童水上乐园等。\n露天温泉占地20亩，奇花异草散布其间，根据地形设置香木池、梅花池、真艾（爱）池、芭蕉池等15个露天温泉池。大雪纷飞之际在露天温泉享受别具一番意想不到的情趣。朋友间围坐在池边的石桌上划拳行令，仿佛置身于瑶池仙境，不是神仙，胜似神仙。\n\n石板浴由温泉水将石板自然温热。\n海洋沙滩温度上下基本一致。三伏酷夏埋没于沙丘之中，不亚于海南著名沙滩浴。姜尚温泉以回归自然、放飞身心、返璞归真为特征，为顾客提供良好的休闲健身养生的舒适场所。"}}, {"title": "文峰公园儿童游乐场", "address": "临泉路文峰公园内西门向北20米", "image": "", "rank": 23, "time": 2, "location": {"lat": 32.897734621564226, "lng": 115.82718564127774}, "feature": {"sight_features": "", "sight_content": ""}}, {"title": "绿叶欢乐水世界", "address": "阜阳市临泉县018县道泉河二桥处（临泉化肥厂东北沙滩）", "image": "", "rank": 24, "time": 2, "location": {"lat": 32.614061739119826, "lng": 115.24447937261071}, "feature": {"sight_features": "", "sight_content": "临泉绿叶欢乐水世界是皖西北一家室内外温控的水主题科技乐园，汇聚各水上娱乐活动设施，大型水寨、造浪池、音乐喷泉、大型滑梯、舞台表演等。洒满灿烂阳光的细腻沙滩，荡漾明澈碧波的巨大泳池、复制汹涌波涛的人造海浪，以及让人眼花缭乱的水上项目，共同将酷暑赶走，开启一段难忘的趣味之旅。"}}, {"title": "湿地水城浴场", "address": "阜阳市太和县镜湖西路悦澜湾S2商铺西侧", "image": "", "rank": 25, "time": 2, "location": {"lat": 33.16431189802797, "lng": 115.61983588080224}, "feature": {"sight_features": "特色1 造型气派典雅，环境优雅，内部格调温馨舒适低调奢华 特色2 打造一座新时代人文主义的精神家园", "sight_content": "湿地水城坐落在安徽太和县国家沙颍河湿地公园附近（镜湖西路与民安路交叉口）是集沐浴、餐饮、咖啡厅、棋牌、客房、保健按摩、会务于一体的高端休闲会所，营业面积近8000平方米,融入湿地文化的超前设计，造型气派典雅，环境优雅，内部格调温馨舒适低调奢华。恪守以人为尊，精心为您打造一座新时代人文主义的精神家园。"}}, {"title": "颖东欢乐城温泉", "address": "济广高速交叉口", "image": "", "rank": 26, "time": null, "location": {"lat": 44.97485663870472, "lng": 81.03114554648644}, "feature": {"sight_features": "", "sight_content": ""}}, {"title": "传中城欢乐水世界", "address": "阜阳市颍上县八里河镇度假区", "image": "", "rank": 27, "time": 2, "location": {"lat": 32.57990684543934, "lng": 116.29032436897202}, "feature": {"sight_features": "", "sight_content": ""}}, {"title": "界首植物园", "address": "大桥南路406号", "image": "", "rank": 28, "time": 3.5, "location": {"lat": 30.400846256981136, "lng": 119.98196255736573}, "feature": {"sight_features": "", "sight_content": ""}}, {"title": "一亩田农家乐", "address": "临沂商城北大门路西", "image": "", "rank": 29, "time": 2, "location": {"lat": 32.94567316148806, "lng": 115.8430331796778}, "feature": {"sight_features": "", "sight_content": ""}}, {"title": "华夏丝绸博物馆", "address": "经济技术开发区新安大道京九丝绸股份有限公司内", "image": "", "rank": 30, "time": 2, "location": {"lat": 39.06883436780937, "lng": 117.72669530355309}, "feature": {"sight_features": "", "sight_content": ""}}, {"title": "华夏翰墨文化园", "address": "安徽省界首市华夏画佛第一村（司营村）", "image": "", "rank": 31, "time": 2, "location": {"lat": 33.204777636762664, "lng": 115.31461294757266}, "feature": {"sight_features": "", "sight_content": ""}}, {"title": "阜阳市政府", "address": "安徽省阜南市颍州区清河东路539号", "image": "", "rank": 32, "time": 4.5, "location": {"lat": 32.8961673434217, "lng": 115.82073726117441}, "feature": {"sight_features": "", "sight_content": ""}}, {"title": "老杨家葡萄采摘园", "address": "老大桥南五百米路西(太和颍河大桥)", "image": "", "rank": 33, "time": 2, "location": {"lat": 41.11510930713197, "lng": 121.11045324939532}, "feature": {"sight_features": "", "sight_content": ""}}, {"title": "长官天池水上乐园游泳馆", "address": "S237省道长官镇东南约2公里东蔡庄村附近", "image": "", "rank": 34, "time": 2, "location": {"lat": 40.06017375393749, "lng": 118.94694423599766}, "feature": {"sight_features": "", "sight_content": ""}}, {"title": "沙颍河国家湿地公园", "address": "阜阳市太和县椿樱大道与文明路交叉口西侧", "image": "", "rank": 35, "time": 2, "location": {"lat": 33.17008908010386, "lng": 115.63161010317242}, "feature": {"sight_features": "", "sight_content": ""}}, {"title": "木一博览园", "address": "安徽省阜阳市临泉县", "image": "", "rank": 36, "time": 2, "location": {"lat": 33.04595952836284, "lng": 115.26761550051185}, "feature": {"sight_features": "", "sight_content": ""}}, {"title": "老泰和农家小院", "address": "安徽省阜阳市太和县城关镇文明东路岸香怡景商务宾馆西", "image": "", "rank": 37, "time": 2, "location": {"lat": 33.16447585596383, "lng": 115.64332207836063}, "feature": {"sight_features": "", "sight_content": ""}}, {"title": "阜阳5D星空艺术体验馆", "address": "阜阳市颍州大美阳光花卉2楼花博园旁（十二里庙南）", "image": "", "rank": 38, "time": 2.0, "location": {"lat": 32.91219441397599, "lng": 115.82271375877104}, "feature": {"sight_features": "", "sight_content": ""}}, {"title": "程文炳宅院", "address": "阜阳颍东区袁寨镇", "image": "", "rank": 39, "time": 2.0, "location": {"lat": 32.875226023417994, "lng": 115.91712739441292}, "feature": {"sight_features": "", "sight_content": ""}}, {"title": "颍上飞龙度假村", "address": "阜阳市颍上县尤家花园南大门向东五百米", "image": "", "rank": 40, "time": 3.0, "location": {"lat": 32.63930509343331, "lng": 116.23518095908904}, "feature": {"sight_features": "", "sight_content": ""}}, {"title": "大梦草堂", "address": "鼓楼办事处青云社区东城墙路华侨世界小区1#119-121号", "image": "", "rank": 41, "time": 2, "location": {"lat": 32.906150315345286, "lng": 115.82260211915889}, "feature": {"sight_features": "", "sight_content": ""}}, {"title": "益生园", "address": "袁寨镇政府向北2公里铁路北", "image": "", "rank": 42, "time": 2, "location": {"lat": 32.873017355137314, "lng": 115.94733563096688}, "feature": {"sight_features": "", "sight_content": ""}}, {"title": "子胥生态农业旅游观光园", "address": "伍明镇政府南侧200米", "image": "", "rank": 43, "time": 2, "location": {"lat": 33.059794372554315, "lng": 115.87366681150094}, "feature": {"sight_features": "", "sight_content": ""}}, {"title": "陈庄水上乐园", "address": "经七路3幢", "image": "", "rank": 44, "time": 2, "location": {"lat": 38.16298125651204, "lng": 112.73147777073935}, "feature": {"sight_features": "", "sight_content": ""}}, {"title": "老泉河生态农庄", "address": "阜阳店里阜太路国家农业科技园区内", "image": "", "rank": 45, "time": 2, "location": {"lat": 32.959156797185976, "lng": 115.80859286506966}, "feature": {"sight_features": "", "sight_content": "老泉河生态农庄是由安徽礼仕农业科技有限公司与省外一家拟上市农业公司合力打造的现代农业项目，是阜阳市及颍泉区农业重点招商项目，2015年10月经颍泉区政府同意区发改委备案。项目位于阜阳国家农业科技园核心区，涉及颍泉区中市办、宁老庄镇的中北、枣树行、兴隆等两镇（办）三个村（社区）。项目规划总占地700亩，项目已于2017年5月1日试运营，2018年5月1日培训中心建成，项目进入整体运营阶段。试运营一年多来已接待本市、合肥、宿州、亳州以及南京等地游客3万多人次。\n\n\n一、运营项目\n农庄位于阜阳市颍泉区阜阳国家农业科技园，其中一期占地730亩。\n项目主要内容包括：生态种植示范区、青少年科技实验体验馆、中小学生自然教育田间课堂、农耕文化和孝文化教育基地、农事体验区、成人和儿童拓展区、真人CS基地、培训中心和农家菜餐饮区、亲子农场、水上游乐与垂钓休闲区等。\n二、项目特色\n老泉河生态农庄按照“追求自然、乐享田园”的目标建设运营 ，种植方面按照生物多样性原则，在品牌选择上不单一追求产量，而是考虑到教育、观赏效果，目前种植近20个稀有品种。体验式互动项目更是追求原生态，30多种“玩”的项目几乎没有电动的。可以说这里是开展中小学生自然教育的最佳场所。\n中华民族农耕文化源远流长，为让青少年和广大游客了解农耕，我们建立了农耕文化展示教育基地，目前的农耕文化长廊展有1000余件老旧农具和生活用具，并且全是原物。常言道“百善孝为先”，孝文化也是我国传统文化的一个重要组成部分，并且与社会主义核心价值观一脉相承，我们建立了阜阳第一家孝文化教育基地，并被安徽省和谐传统文化研究院设立为阜阳分院。农耕体验项目：翻地、种菜、采摘、推碾子、拉磨、推独轮车等很受游客欢迎。让游客感受田园生活，即有让孩子在体验中增长知识的项目，也有励志及培养合作、担当精神的项目。\n基地以老泉河农乐园为依托，开展青少年各类户外活动、夏令营、亲子游、青少年军训、会议接待、企事业单位拓展训练等。\n我们有一支针对于户外拓展、亲子互动、传统文化教育的专业团队。活动带队老师12人、外聘教练15人、以退伍军人、幼教老师、心理老师组成。\n我们是体验式教育的践行者，立志于发展体验式教育，以全新的培训和教育形式，让学生参与其中，在实践中不断产生新经验、新认知，并由此发展学生适应自然与社会的能力，形成积极的人生态度。\n我们始终注重在做好项目的同时按好村企关系，扩大宣传颍泉、维护阜阳的和颍泉形象。\n我们坚信，有颍泉区委、区政府的大力支持、有魅力颍泉招商引资和发展现代农业的良好环境，有礼仕人的情怀与坚守，老泉河生态农庄一定会在不久的将来会成为阜阳现代农业的一面旗帜，成为颍泉大地上一颗耀眼的明珠！"}}, {"title": "颖东欢乐城游乐场", "address": "兴业路28号", "image": "", "rank": 46, "time": 2, "location": {"lat": 39.955118995704176, "lng": 116.8694729013617}, "feature": {"sight_features": "", "sight_content": ""}}, {"title": "J-ROOM真人密室逃生俱乐部", "address": "清河东路儿童购物广场对面全友家私楼上5栋10楼3单元1005室(临近莲池路口车站)", "image": "", "rank": 47, "time": 2, "location": {"lat": 32.8917075514561, "lng": 115.83867585897111}, "feature": {"sight_features": "", "sight_content": ""}}, {"title": "古树农庄", "address": "双清路488号", "image": "", "rank": 48, "time": 2, "location": {"lat": 40.004352346932535, "lng": 116.34372394455148}, "feature": {"sight_features": "", "sight_content": ""}}, {"title": "LIFE IDEA", "address": "人民东路29号香港财富广场3层", "image": "", "rank": 49, "time": 2, "location": {"lat": 32.91244429617083, "lng": 115.83387038532345}, "feature": {"sight_features": "", "sight_content": ""}}, {"title": "毗河生态旅游带", "address": "安徽省阜阳市颍泉区境内 236064", "image": "", "rank": 50, "time": 2, "location": {"lat": 32.931313576024976, "lng": 115.81542555643966}, "feature": {"sight_features": "", "sight_content": ""}}, {"title": "哈米兔", "address": "安徽省阜阳市颍州区人民东路86号", "image": "", "rank": 51, "time": 2, "location": {"lat": 32.91059227759859, "lng": 115.83558366143956}, "feature": {"sight_features": "", "sight_content": ""}}, {"title": "华祠堂", "address": "安徽省阜阳市颍东区口孜镇026县道华祠幼儿园东南", "image": "", "rank": 52, "time": 2, "location": {"lat": 32.83978201358952, "lng": 116.03052858368703}, "feature": {"sight_features": "", "sight_content": ""}}, {"title": "掩龙生态牡丹园", "address": "安徽省阜阳市颍州区三合镇", "image": "", "rank": 53, "time": 2, "location": {"lat": 32.84550510717306, "lng": 115.70801962759677}, "feature": {"sight_features": "", "sight_content": ""}}, {"title": "青莲庵", "address": "西城墙路与颍河西路交叉口东北150米", "image": "", "rank": 54, "time": 1.0, "location": {"lat": 32.907696170284524, "lng": 115.81364068267949}, "feature": {"sight_features": "", "sight_content": ""}}, {"title": "大白鲸游乐园", "address": "东方数码广场", "image": "", "rank": 55, "time": 2, "location": {"lat": 32.904801297299684, "lng": 115.82885061640486}, "feature": {"sight_features": "", "sight_content": ""}}, {"title": "浪潮VR虚拟现实体验馆(香港财富...", "address": "人民路与颍州路交口向东100米路北（香港财富广场负一楼沃尔玛超市入口处）", "image": "", "rank": 56, "time": 2, "location": {"lat": 32.91244429617083, "lng": 115.83387038532345}, "feature": {"sight_features": "", "sight_content": ""}}, {"title": "颍畔", "address": "人民东路与河滨中路交叉口北100米", "image": "", "rank": 57, "time": 2, "location": {"lat": 32.910741082018056, "lng": 115.84109161089432}, "feature": {"sight_features": "", "sight_content": ""}}, {"title": "奇趣儿童乐园", "address": "颍河东路96号、苏果一楼", "image": "", "rank": 58, "time": 2, "location": {"lat": 32.90696896192747, "lng": 115.8594518685609}, "feature": {"sight_features": "", "sight_content": ""}}, {"title": "天天游乐园", "address": "安徽省阜阳市颍州区S102", "image": "", "rank": 59, "time": 2, "location": {"lat": 32.88962541654979, "lng": 115.81341119616408}, "feature": {"sight_features": "", "sight_content": ""}}, {"title": "皖新文化广场", "address": "安徽省阜阳市颍州区阜王路与润河路交叉口东北角", "image": "", "rank": 60, "time": 2, "location": {"lat": 32.857080220525546, "lng": 115.80835274441363}, "feature": {"sight_features": "", "sight_content": ""}}]}