{"cityName": "抚远", "days": 2, "cityImage": "", "spots": [{"title": "东极广场", "address": "佳木斯市抚远水道与乌苏里江交汇处", "image": "", "rank": 1, "time": 2, "location": {"lat": 48.36044862157318, "lng": 134.96087829106253}, "feature": {"sight_features": "", "sight_content": ""}}, {"title": "东极宝塔", "address": "佳木斯市抚远市黑瞎子岛", "image": "", "rank": 2, "time": 2, "location": {"lat": 48.37094469627278, "lng": 134.31448962575448}, "feature": {"sight_features": "", "sight_content": ""}}, {"title": "鱼展馆", "address": "迎宾路", "image": "", "rank": 3, "time": 2, "location": {"lat": 40.19033466276813, "lng": 117.30191343601585}, "feature": {"sight_features": "", "sight_content": ""}}, {"title": "东明寺", "address": "佳木斯市抚远县", "image": "", "rank": 4, "time": 0.3, "location": {"lat": 47.92610519989178, "lng": 134.29604416395506}, "feature": {"sight_features": "", "sight_content": ""}}, {"title": "佳木斯乌苏里江", "address": "黑龙江省抚远县境内", "image": "", "rank": 5, "time": 2.0, "location": {"lat": 47.92610519989178, "lng": 134.29604416395506}, "feature": {"sight_features": "", "sight_content": ""}}, {"title": "莽吉塔站故城", "address": "黑龙江省抚远县抚远镇", "image": "", "rank": 6, "time": 2, "location": {"lat": 48.37682790222006, "lng": 134.29688608692982}, "feature": {"sight_features": "", "sight_content": ""}}, {"title": "抚远鱼文化体验馆", "address": "佳木斯市抚远市佛山路与沿江路交叉口（气象局斜对面）", "image": "", "rank": 7, "time": 2, "location": {"lat": 48.37506474554283, "lng": 134.29614181925547}, "feature": {"sight_features": "", "sight_content": ""}}, {"title": "前锋农场第七管理区开心菜园", "address": "306省道北50米", "image": "", "rank": 8, "time": 2, "location": {"lat": 44.29301741368919, "lng": 120.43504383645545}, "feature": {"sight_features": "", "sight_content": ""}}, {"title": "前哨农场(740村道)", "address": "740村道附近", "image": "", "rank": 9, "time": 2, "location": {"lat": 48.01928768263232, "lng": 134.40886308737794}, "feature": {"sight_features": "", "sight_content": ""}}, {"title": "莲花生态园", "address": "210省道附近", "image": "", "rank": 10, "time": null, "location": {"lat": 40.05575635085877, "lng": 116.1217342607595}, "feature": {"sight_features": "", "sight_content": ""}}, {"title": "前哨农场十三连", "address": "401乡道", "image": "", "rank": 11, "time": 2, "location": {"lat": 47.37847367944935, "lng": 133.7966669840186}, "feature": {"sight_features": "", "sight_content": ""}}, {"title": "前哨农场七连", "address": "401乡道", "image": "", "rank": 12, "time": 2, "location": {"lat": 47.37847367944935, "lng": 133.7966669840186}, "feature": {"sight_features": "", "sight_content": ""}}, {"title": "前哨农场八连", "address": "寒海公路", "image": "", "rank": 13, "time": 2, "location": {"lat": 47.93611859226359, "lng": 134.38147219471676}, "feature": {"sight_features": "", "sight_content": ""}}, {"title": "前哨农场一连", "address": "寒海公路", "image": "", "rank": 14, "time": 2, "location": {"lat": 47.93611859226359, "lng": 134.38147219471676}, "feature": {"sight_features": "", "sight_content": ""}}, {"title": "醉鲜楼啤酒广场", "address": "佳木斯市抚远县", "image": "", "rank": 15, "time": 2, "location": {"lat": 47.92610519989178, "lng": 134.29604416395506}, "feature": {"sight_features": "", "sight_content": ""}}, {"title": "梦幻岛儿童乐园", "address": "黑龙江省佳木斯市抚远市瓦其卡里黑龙江省前锋农场附近", "image": "", "rank": 16, "time": 2, "location": {"lat": 47.602166305651025, "lng": 133.89646593334595}, "feature": {"sight_features": "", "sight_content": ""}}, {"title": "秀水广场", "address": "黑龙江省佳木斯市抚远市x207", "image": "", "rank": 17, "time": 1.5, "location": {"lat": 48.37094469627278, "lng": 134.31448962575448}, "feature": {"sight_features": "", "sight_content": ""}}, {"title": "董公农庄", "address": "210省道附近", "image": "", "rank": 18, "time": 2, "location": {"lat": 40.05575635085877, "lng": 116.1217342607595}, "feature": {"sight_features": "", "sight_content": ""}}, {"title": "富哥啤酒广场", "address": "嵩山街86", "image": "", "rank": 19, "time": 2, "location": {"lat": 48.37097909259804, "lng": 134.30592560053097}, "feature": {"sight_features": "", "sight_content": ""}}, {"title": "黑瞎子岛植物园", "address": "黑龙江省佳木斯市抚远市通江乡北大荒现代生态园北", "image": "", "rank": 20, "time": 2, "location": {"lat": 48.30753446862199, "lng": 134.72982358485586}, "feature": {"sight_features": "", "sight_content": ""}}, {"title": "苏联海军英雄烈士纪念碑", "address": "和平路128号", "image": "", "rank": 21, "time": 2, "location": {"lat": 40.59509449702914, "lng": 110.0365084878144}, "feature": {"sight_features": "", "sight_content": ""}}, {"title": "圈河岛", "address": "黑龙江省佳木斯市抚远市", "image": "", "rank": 22, "time": 2, "location": {"lat": 48.37094469627278, "lng": 134.31448962575448}, "feature": {"sight_features": "", "sight_content": ""}}, {"title": "创新美术", "address": "泰山街138号", "image": "", "rank": 23, "time": 2, "location": {"lat": 48.3705705451612, "lng": 134.30210846057147}, "feature": {"sight_features": "", "sight_content": ""}}, {"title": "前哨农场基督教会(北门)", "address": "306省道", "image": "", "rank": 24, "time": 2, "location": {"lat": 44.29269479672118, "lng": 120.43504383645545}, "feature": {"sight_features": "", "sight_content": ""}}, {"title": "抚远市青少年校外活动中心", "address": "佳木斯市-抚远市-迎宾路5", "image": "", "rank": 25, "time": 2, "location": {"lat": 48.370181685142626, "lng": 134.3117082006073}, "feature": {"sight_features": "", "sight_content": ""}}]}