{"cityName": "富源", "days": 2, "cityImage": "", "spots": [{"title": "古敢水族乡", "address": "云南省曲靖富源县", "image": "", "rank": 1, "time": 2, "location": {"lat": 25.68027950213305, "lng": 104.2614742433964}, "feature": {"sight_features": "", "sight_content": ""}}, {"title": "富源县锦辉魔芋种植专业合作社", "address": "富村镇魔芋交易市场(百姓医院)", "image": "", "rank": 2, "time": 2, "location": {"lat": 25.36972254176987, "lng": 104.4738550814884}, "feature": {"sight_features": "", "sight_content": ""}}, {"title": "华龙生态园", "address": "墨红镇老屋基村", "image": "", "rank": 3, "time": 2, "location": {"lat": 29.176461232742188, "lng": 121.3335683621991}, "feature": {"sight_features": "", "sight_content": ""}}, {"title": "龙泉农家乐", "address": "320国道附近", "image": "", "rank": 4, "time": 2, "location": {"lat": 27.256565251327487, "lng": 111.28158164529765}, "feature": {"sight_features": "", "sight_content": ""}}, {"title": "多乐原风景区", "address": "多乐屯508号", "image": "", "rank": 5, "time": 2, "location": {"lat": 25.714089223582643, "lng": 104.19747315673143}, "feature": {"sight_features": "", "sight_content": ""}}, {"title": "回龙寺", "address": "曲靖市富源县", "image": "", "rank": 6, "time": 0.5, "location": {"lat": 25.68027950213305, "lng": 104.2614742433964}, "feature": {"sight_features": "", "sight_content": ""}}, {"title": "卡奇乐儿童乐园", "address": "云南省曲靖市富源县富村镇S204(光明市场内)", "image": "", "rank": 7, "time": 2, "location": {"lat": 25.40396480631227, "lng": 104.48309845294565}, "feature": {"sight_features": "", "sight_content": ""}}, {"title": "广场儿童游乐园", "address": "云南省曲靖市富源县中安街道金城路金城广场附近", "image": "", "rank": 8, "time": 2, "location": {"lat": 25.67782778727814, "lng": 104.26530739026049}, "feature": {"sight_features": "", "sight_content": ""}}, {"title": "富源自由梦儿童游乐园", "address": "金城路295号", "image": "", "rank": 9, "time": 2, "location": {"lat": 34.39147789963426, "lng": 113.75296919538593}, "feature": {"sight_features": "", "sight_content": ""}}, {"title": "金城广场", "address": "曲靖市富源县金城路252号", "image": "", "rank": 10, "time": 0.75, "location": {"lat": 25.67772280946367, "lng": 104.26517548846928}, "feature": {"sight_features": "", "sight_content": ""}}, {"title": "龙峰山庄", "address": "兴营路西段139营上派出所附近", "image": "", "rank": 11, "time": 2, "location": {"lat": 25.480258845557913, "lng": 104.32509753959454}, "feature": {"sight_features": "", "sight_content": ""}}, {"title": "小洞天休闲山庄", "address": "富源县德鑫科技福利焦化厂附近", "image": "", "rank": 12, "time": 2, "location": {"lat": 25.68027950213305, "lng": 104.2614742433964}, "feature": {"sight_features": "", "sight_content": ""}}, {"title": "富源县东门基督教堂", "address": "云南省曲靖市富源县东门桥东门2组224号", "image": "", "rank": 13, "time": 2, "location": {"lat": 25.68027950213305, "lng": 104.2614742433964}, "feature": {"sight_features": "", "sight_content": ""}}, {"title": "富源县图书馆", "address": "中安街275号", "image": "", "rank": 14, "time": null, "location": {"lat": 25.67868752051177, "lng": 104.26380875975498}, "feature": {"sight_features": "", "sight_content": ""}}, {"title": "会泽会馆", "address": "云南省会泽县白龙路401号", "image": "", "rank": 15, "time": 2, "location": {"lat": 26.424215045560672, "lng": 103.3034872919241}, "feature": {"sight_features": "", "sight_content": ""}}]}