{"cityName": "抚州", "days": "", "cityImage": "", "spots": [{"title": "大觉山", "address": "抚州市资溪县建设路60号", "image": "", "rank": 1, "time": 3.0, "location": {"lat": 27.7144068424735, "lng": 117.08023197329774}, "feature": {"sight_features": "特色1 神山圣水，觉者天堂", "sight_content": "‍‍‍‍‍‍‍‍‍‍‍‍‍‍\n大觉山，以大觉文化为主题的景区，位于江西省东部，抚州市资溪县境内，武夷山脉西麓，主峰海拔1647米，景区总规划面积204平方公里，分别为东区和西区，东区以30万亩原始森林为核心的原始森林旅游区；西区以宗教文化、峡谷漂流为主体的综合型旅游景区。森林覆盖率高达97.43%，空气中负氧离子平均每立方厘米达三万个，是天然氧吧，种植物基因库，被国家林业局定为华南虎野化放归基地。\n在海拔300米至1200米之间打造百度观光车，独轨观光车与索道、隧道、游步道为一体形成了30公里游览环线。在景区范围内乘坐环线游览观光，串联起规划中的山顶寺庙及沿线崖壁景观。隐藏着山峰、湖泊、亭台、洞穴、轩阁、天湖、天路、天桥、天岩、天泉、天门、天台、天街、天界构成奇妙的“九天”景观；大觉山“九天”之下的莲花峰、神龟峰、笔架峰、翠屏峰、将军峰、文曲峰、叠罗峰、金刚峰等8座山峰拔地而起，构成“八地”景观。置身“九天八地，百景观”，饱览全景，美不胜收顿悟确实是“神山圣水，觉者天堂”。\n登上大觉山，就来到高山洞穴中的大觉岩寺，梵音袅袅，香烟缭绕。大觉岩寺始建于东晋咸和年元年（公元326年），距今已有1700年的历史，唐代高僧——杭州灵隐寺的大觉禅师避世离尘，曾云游至此，参禅礼佛，大觉岩寺由此得名。大觉岩为一巨大的花岗岩洞，岩洞前低后高，深69米，宽99米，高19米，实属罕见，寺院由大雄宝殿、地藏殿、观音殿、伽蓝殿等七部分组成，形成三教合一的综合型寺庙。寺庙西侧的“八仙洞”“读书岩”，特为奇妙。坐落在深山峡谷中的大觉山古镇，古往今来，见证了无数朝圣信徒的脚步，激发了历代文人墨客的豪情，如今的大觉山古镇，凌空而建，以建筑为形，文化为魂，融入一河三街六巷九府，再现大宋风骨，成为禅修静养，休闲度假的胜地，续写着千年繁华，电视剧《天仙配后传》便是在此取景拍摄。"}}, {"title": "名人雕塑园", "address": "抚州市临川区行政中心南广场正对面", "image": "", "rank": 2, "time": 2.5, "location": {"lat": 27.955078039362917, "lng": 116.36446376013367}, "feature": {"sight_features": "", "sight_content": ""}}, {"title": "梦湖景区", "address": "抚州市临川区梦湖西路", "image": "", "rank": 3, "time": 2.5, "location": {"lat": 27.98620814974588, "lng": 116.34420049231102}, "feature": {"sight_features": "", "sight_content": ""}}, {"title": "流坑古村", "address": "抚州市乐安县牛田镇流坑村", "image": "", "rank": 4, "time": 2.5, "location": {"lat": 27.26884200884625, "lng": 115.78194505425633}, "feature": {"sight_features": "", "sight_content": ""}}, {"title": "王安石纪念馆", "address": "抚州市临川区赣东大道1085号", "image": "", "rank": 5, "time": 1.0, "location": {"lat": 27.97581056571809, "lng": 116.36679782733948}, "feature": {"sight_features": "", "sight_content": ""}}, {"title": "临川金山寺", "address": "抚州市临川区云山镇金山岭上", "image": "", "rank": 6, "time": 1.0, "location": {"lat": 28.197236305561237, "lng": 116.29914190116595}, "feature": {"sight_features": "", "sight_content": ""}}, {"title": "麻姑山", "address": "抚州市南城县麻姑山路西100米", "image": "", "rank": 7, "time": 2, "location": {"lat": 27.53892531942621, "lng": 116.56638256754788}, "feature": {"sight_features": "", "sight_content": ""}}, {"title": "梦湖合家欢乐园", "address": "抚州市临川区临川大道梦湖合家欢乐园", "image": "", "rank": 8, "time": 2, "location": {"lat": 27.971163697073344, "lng": 116.34829909294474}, "feature": {"sight_features": "", "sight_content": ""}}, {"title": "东华山", "address": "抚州市黎川县华山垦殖场洲湖村", "image": "", "rank": 9, "time": 1.0, "location": {"lat": 27.453909128253873, "lng": 117.01016842845988}, "feature": {"sight_features": "", "sight_content": ""}}, {"title": "源野山庄", "address": "抚州市崇仁县208省道附近（源野山庄）", "image": "", "rank": 10, "time": 2, "location": {"lat": 27.88901473933495, "lng": 116.26355261070364}, "feature": {"sight_features": "", "sight_content": ""}}, {"title": "法水（天沐）温泉", "address": "抚州市资溪县嵩市镇法水村烧水塘", "image": "", "rank": 11, "time": 2, "location": {"lat": 27.77786099170086, "lng": 116.96211501430493}, "feature": {"sight_features": "", "sight_content": ""}}, {"title": "梦山", "address": "抚州市临川区", "image": "", "rank": 12, "time": 2.5, "location": {"lat": 27.9404589928642, "lng": 116.31848983160644}, "feature": {"sight_features": "", "sight_content": ""}}, {"title": "军峰山", "address": "江西省抚州市", "image": "", "rank": 13, "time": null, "location": {"lat": 27.954892253419565, "lng": 116.36453876864373}, "feature": {"sight_features": "", "sight_content": ""}}, {"title": "大觉山漂流", "address": "抚州市资溪县建设路60号大觉山旅游风景区内", "image": "", "rank": 14, "time": 2, "location": {"lat": 27.7144068424735, "lng": 117.08023197329774}, "feature": {"sight_features": "特色1 点燃生命激情，尽享自然精华！", "sight_content": "大觉山漂流(又名大觉山大峡谷漂流)全长3.6公里，落差188米，途径一峪、三弯、六潭、九瀑等急流飞舟，搏击自然，惊险刺激。被称为“点燃生命激情，尽享自然精华”。乘坐橡皮艇，从清凉的水花中一跃而过，一路漂荡、一路欢叫，绿树茵茵，新鲜自然的空气扑面而来，深深吸一口带有野花幽香的山间空气，让肺部感受清新和凉爽。"}}, {"title": "东华山水景区", "address": "抚州市黎川县华山垦殖场洲湖村", "image": "", "rank": 15, "time": 4.0, "location": {"lat": 27.453909128253873, "lng": 117.01016842845988}, "feature": {"sight_features": "", "sight_content": ""}}, {"title": "醉仙湖", "address": "江西省抚州市", "image": "", "rank": 16, "time": 2, "location": {"lat": 27.954892253419565, "lng": 116.36453876864373}, "feature": {"sight_features": "", "sight_content": ""}}, {"title": "灵谷峰", "address": "抚州市临川区东南郊", "image": "", "rank": 17, "time": 2, "location": {"lat": 27.9404589928642, "lng": 116.31848983160644}, "feature": {"sight_features": "", "sight_content": ""}}, {"title": "中国桔都沁温泉度假山庄", "address": "抚州市南丰县傅坊乡石咀村近906县道", "image": "", "rank": 18, "time": 2, "location": {"lat": 26.944332956549196, "lng": 116.58129045592194}, "feature": {"sight_features": "特色1 青山环抱，绿树成荫，环境优美，交通便利", "sight_content": "桔都沁温泉度假山庄，整个景区占地面积507.25亩，是由江西恒隆投资有限公司出资6.4亿元精心打造的高品质温 泉养生休闲度假型综合景区，由中国沁温泉酒店集团经营管理，坐落在被誉为华夏桔都、傩舞之乡的江西省抚州市南丰县境内，毗邻福建省建宁县，青山环抱，绿树成荫，环境优美，交通便 利，距离南丰县城30公里，昌福铁路（向莆铁路）穿境而过，京福、鹰瑞高速公路和206国道联通四方，可从南丰高速出口直接抵达酒店。\n桔都沁温泉具备良好的自然温泉资源，水量丰富，自然涌出水量400T/天，泵抽流量1200T/天，水温常年恒定在68 ℃-70℃，为高热泉，PH值7-8，属于重碳酸氢钙钠泉，含有硫化氢、锂、氟、铁、锶、可溶性二氧化硅、硅酸及二氧化碳等二十多种人体所需的微量矿物元素，具有较高的医疗价值，对关节 炎、风湿病、皮肤病等具有显著的康复与辅助疗效，常泡浴温泉还能够起到消除疲劳、祛病强身、美容养颜、抵抗衰老等保健作用。"}}, {"title": "文昌里", "address": "抚州市临川区横街", "image": "", "rank": 19, "time": 1.5, "location": {"lat": 28.005856672145278, "lng": 116.37559109383803}, "feature": {"sight_features": "", "sight_content": ""}}, {"title": "汤溪温泉", "address": "抚州市崇仁县马鞍镇汤溪村", "image": "", "rank": 20, "time": 2, "location": {"lat": 27.74826202271127, "lng": 115.88602158077694}, "feature": {"sight_features": "特色1 山环水抱，绿水荡漾，山峦起伏，绿野满目，空气清新； 特色2 “人间净土，天然养吧”之美誉", "sight_content": "抚州汤溪温泉生态旅游度假区坐落于理学之邦---崇仁县马鞍镇汤溪村，景区距南昌市区仅150公里，距抚州市区60公里，位于215省道上地理位置得天独厚，交通十分便利。\n汤溪温泉水出于怪石横生之地，有3个大泉眼，1个小泉眼，地下温泉储水量异常丰富，水温52度，水质清澈，晶莹爽滑。因温泉中含的有益人体健康的微量元素硅酸、氡、硒、氟同时达到和符合国家命名标准，在热矿泉开发利用中极为难得，尤其是“氡”，在一般温泉中罕见少有，被当地老百姓称誉为“圣泉灵水”。\n汤溪温泉区域占地面积6万平方米，可同时接待温泉人数1500人。温泉以理学文化为底蕴，整个园区分九大区，他们分别是理学圣贤、仙赐圣汤、天人一理、心缘相山、巴山秀色、草庐天下、秋水长天、牡丹新亭、四仙宗祠，具有形态及功能各异的温泉池多达56个，1158个更衣柜（免费拖鞋、毛巾、客服），56个冲凉位，其中《爱莲说》让你感受到文化的洗涤；仙赐圣汤曼妙的表演，水疗的设备及热气腾腾的温泉，让你仿佛置身于神话的境界；巴山秀色的飞流瀑布，冷、热泉浴相得益彰，让你身心同时感受到刺激与放松；牡丹新亭的幽静与私密，让你远离城市的喧嚣，感受到来自帝王般的享受；园区茂密的竹林以及绿油油的草地，将整个园区衬托的一片生机盎然，让你感受到青春的气息，美食坊美味的食物，让你抵不住来自吃的诱惑；红酒浴、茶浴，让你品味到“暗香浮动”；名花池“浪漫怡人”；外形古朴却集高科技于一身的药薰汗蒸房、冰蒸房、竹炭房、森林浴房、玉石房，让你养生又养颜；温度适宜的养生玉塌，可以让你自然入睡；露天园区同时有鱼疗，矿沙等特色温泉区；室内具备影视厅、棋牌室、乒乓球、台球、网吧、书吧、健身房、按摩保健区，以及休息大厅等，\n汤溪水质类型为重碳酸—钾钠—钙型水，矿化度0.628—0.790克/升，总硬度19-20德国度，PH值6.5，属弱酸性水。特殊元素含量：氡最高为16马赫，氟为2—7毫克/升，游离二氧化碳高达629.85毫克/升，专家命名为高氟碳酸气氡热矿水，同时水中含有多种有益人体健康金属元素，含量普遍高于一般地下水。\n走近汤溪，尽享悠然世外、人水合一的写意心情，这里将构成情趣妙生、动静皆宜的全新温泉天地。"}}, {"title": "驿前古镇", "address": "抚州市广昌县驿前镇", "image": "", "rank": 21, "time": 2, "location": {"lat": 26.591844313234745, "lng": 116.32778761791994}, "feature": {"sight_features": "", "sight_content": ""}}, {"title": "莲花第一村", "address": "广昌县姚西村", "image": "", "rank": 22, "time": 2.0, "location": {"lat": 26.545303742981464, "lng": 116.30481076408483}, "feature": {"sight_features": "", "sight_content": ""}}, {"title": "金竹瀑布景区", "address": "抚州市乐安县南部金竹畲族乡", "image": "", "rank": 23, "time": 2, "location": {"lat": 27.116141390449542, "lng": 115.94449257745309}, "feature": {"sight_features": "特色1 飞瀑奇观，养心洗肺 特色2 26处自然绝妙飞瀑群，总落差400多米", "sight_content": "赏心悦目：\n景区占地面积60多平方公里，现有飞瀑区、漂流区、原始森林探秘区、畲乡风情互动区、休闲养生度假区、水上游乐区六大板块，夏季凉爽宜人，为避暑养心胜地（清凉地），冬季雪景诱人，是江南赏雪佳境；\n深谷中目前发现自然绝美大小瀑布26处，总落差400多米，全国罕见，瀑布之多、总落差之大；人们赞叹道：“庐山三叠素以落差之美，黄果树瀑布以面积宽为美，而金竹瀑布两者兼而有之”。\n清爽空气：\n空气是景区最珍贵的养生资源，大气中的尘埃悬浮物相当稀少，PM2.5日均浓度15微克/立方厘米。植被覆盖率达90%，森林覆盖率达85.5%，置身养心谷中即置身“天然氧吧”有瀑布的地方负氧离子必高，负氧离子平均达8000个每立方厘米，最高可达40000个每立方厘米。神清气爽、心旷神怡、延年益寿，以自然之道，养自然之生，“长寿之乡”实至名归。\n更是您避暑、避霾、避噪，养身、养心、养老的人间仙境！\n峡谷漂流：\n上游的4A级漂流！\n湿身夏季，人生一漂；\n河道全长3.5公里，总落差160米，时长90多分钟，\n男人心跳，女人尖叫，清凉欣喜，畅爽嗨嗨！"}}, {"title": "大浪淘沙水上乐园", "address": "玉茗路344号", "image": "", "rank": 24, "time": 1.0, "location": {"lat": 27.936189841781513, "lng": 116.31069522770778}, "feature": {"sight_features": "", "sight_content": ""}}, {"title": "御龙湾国际旅游度假区", "address": "抚州市资溪县马头山镇永胜村", "image": "", "rank": 25, "time": 2, "location": {"lat": 27.827427311903215, "lng": 117.12700030303125}, "feature": {"sight_features": "", "sight_content": "御龙湾国际旅游度假区位于江西省资溪县境内，紧邻马头山国家森林公园，是进出原始森林的门户。景区距武夷山风景区120公里，距龙虎山风景区60公里，距大觉山风景区30公里，属于武夷山脉核心区。\n景区依托30万亩原始森林，将打造一个令人身心合一的休闲旅游胜地，远离城市的喧嚣，在青山绿水间，尽情吐纳清新自然的纯净空去，收获自由闲适的度假心情。\n御龙湾定位为国际级度假区，36项游乐项目星罗棋布：星河金沙、星际罗盘、温泉中心、航母休闲岛、纯净漂流、水上娱乐、拓展运动、竹林烧烤、养生休闲等，在森林覆盖率达94.1%、负氧离子含量高达27万个单位/cm3，的纯净环境中，能享受到全年度假、四季养生、老幼皆宜的休闲旅游目的。"}}, {"title": "法水森林温泉", "address": "抚州市资溪县嵩市镇法水村烧水塘", "image": "", "rank": 26, "time": 2, "location": {"lat": 27.77786099170086, "lng": 116.96211501430493}, "feature": {"sight_features": "特色1 冷泉、热泉两个泉眼成双成对，隔不盈尺", "sight_content": "‍‍\n法水森林温泉是半山自涌的冷热鸳鸯泉，泡于此泉，给人于此生不羡仙的绝佳享受。法水森林温泉又名为高山“鸳鸯泉”。两个相隔尺许的泉眼，一眼出水温热宜人，一眼冷泉长年恒温16度，温泉水里含有多种矿物质，水质属优质碳酸型、（里面富硒、含氡、含硫等元素、）可治疗消化系统、神经系统、刺激大脑的记忆力、等多种疾病，冬可御寒，夏可避暑，饮用此泉水，大都身体强壮，皮肤滑润，极少有呼吸道和肠道疾病。\n温泉主要以室内温泉和露天温泉为主。恰肤润体的花香池，轻松惬意的鱼疗，激情四射的海浪池，动感十足的三彩滑道,舒经按体的SPA池等等。让您洗去风尘消除疲惫的同时，不知不觉地祛病美体，领略其独特神奇的效力。是您紧张工作之余和商务恰谈的旅游度假首选之地。"}}, {"title": "汤显祖纪念馆", "address": "文昌大道1325号", "image": "", "rank": 27, "time": 2, "location": {"lat": 27.973003117500166, "lng": 116.3869031847315}, "feature": {"sight_features": "", "sight_content": ""}}, {"title": "万年桥", "address": "南城县206国道南", "image": "", "rank": 28, "time": 0.5, "location": {"lat": 27.51904606943906, "lng": 116.62403722190564}, "feature": {"sight_features": "", "sight_content": ""}}, {"title": "抚州市博物馆", "address": "迎宾大道586号", "image": "", "rank": 29, "time": 2.5, "location": {"lat": 24.51314010938545, "lng": 117.72261725634189}, "feature": {"sight_features": "", "sight_content": ""}}, {"title": "百越文化村", "address": "抚州市资溪县沙桐工业园区", "image": "", "rank": 30, "time": 2, "location": {"lat": 27.71184578573218, "lng": 117.06657027361484}, "feature": {"sight_features": "", "sight_content": ""}}, {"title": "正觉古寺", "address": "抚州市临川区横街143号", "image": "", "rank": 31, "time": 2, "location": {"lat": 28.005856672145278, "lng": 116.37559109383803}, "feature": {"sight_features": "", "sight_content": ""}}, {"title": "古樟林风景区", "address": "乐安县牛田镇古樟林", "image": "", "rank": 32, "time": 2, "location": {"lat": 27.299077215799205, "lng": 115.7656912536015}, "feature": {"sight_features": "", "sight_content": ""}}, {"title": "金华庙", "address": "抚州市临川区", "image": "", "rank": 33, "time": 1.0, "location": {"lat": 27.9404589928642, "lng": 116.31848983160644}, "feature": {"sight_features": "", "sight_content": ""}}, {"title": "舒同博物馆", "address": "恒安西路10号", "image": "", "rank": 34, "time": 2, "location": {"lat": 29.767630667041253, "lng": 121.44923297769289}, "feature": {"sight_features": "", "sight_content": ""}}, {"title": "三翁花园", "address": "抚州市抚州高新技术产业开发区王安石大道以南汤显祖大道以东玉茗大道以西", "image": "", "rank": 35, "time": 2, "location": {"lat": 27.942133060472425, "lng": 116.37962772576446}, "feature": {"sight_features": "", "sight_content": ""}}, {"title": "大码头生态度假区", "address": "抚州市乐安县新陂村大马头垦殖场", "image": "", "rank": 36, "time": 2, "location": {"lat": 27.43407986449759, "lng": 115.83749627865299}, "feature": {"sight_features": "", "sight_content": ""}}, {"title": "抚河源头", "address": "抚州市广昌县驿前乡血木岭", "image": "", "rank": 37, "time": 2, "location": {"lat": 26.848454446680922, "lng": 116.34256064638275}, "feature": {"sight_features": "", "sight_content": ""}}, {"title": "何源太山", "address": "抚州市金溪县何源村", "image": "", "rank": 38, "time": 2, "location": {"lat": 27.9657726240948, "lng": 116.998712303261}, "feature": {"sight_features": "", "sight_content": ""}}, {"title": "竹桥古村", "address": "抚州市金溪县付秀段与942县道交叉口东200米", "image": "", "rank": 39, "time": 2, "location": {"lat": 28.009628800719046, "lng": 116.75095431584094}, "feature": {"sight_features": "", "sight_content": ""}}, {"title": "阳光马术", "address": "凤冈镇", "image": "", "rank": 40, "time": 2, "location": {"lat": 27.551732182748392, "lng": 116.2287759992698}, "feature": {"sight_features": "", "sight_content": ""}}, {"title": "农家乐", "address": "208省道立伟超市旁", "image": "", "rank": 41, "time": 2, "location": {"lat": 40.72813384839902, "lng": 120.91102331770276}, "feature": {"sight_features": "", "sight_content": ""}}, {"title": "明清古建筑群", "address": "抚州市广昌县驿前镇", "image": "", "rank": 42, "time": 3.0, "location": {"lat": 26.591844313234745, "lng": 116.32778761791994}, "feature": {"sight_features": "", "sight_content": ""}}, {"title": "河源公园", "address": "江西省抚州市广昌县白家丰桥", "image": "", "rank": 43, "time": 3.0, "location": {"lat": 26.83077523115249, "lng": 116.33059854880895}, "feature": {"sight_features": "", "sight_content": ""}}, {"title": "莲花广场", "address": "抚州市广昌县解放北路380号", "image": "", "rank": 44, "time": 1.0, "location": {"lat": 26.85518369513568, "lng": 116.33545786509065}, "feature": {"sight_features": "", "sight_content": ""}}, {"title": "罗里石蜜桔生态园", "address": "白舍镇(近昌厦公路)", "image": "", "rank": 45, "time": 2, "location": {"lat": 27.232107292701784, "lng": 116.52850243095104}, "feature": {"sight_features": "", "sight_content": ""}}, {"title": "宜黄草莓园", "address": "潭坊乡瞿家源附近", "image": "", "rank": 46, "time": 2, "location": {"lat": 27.588001965223615, "lng": 116.26291673347062}, "feature": {"sight_features": "", "sight_content": ""}}, {"title": "百鹭洲公园", "address": "抚州市宜黄县", "image": "", "rank": 47, "time": 2.5, "location": {"lat": 27.56056346070013, "lng": 116.24254169398493}, "feature": {"sight_features": "", "sight_content": ""}}, {"title": "绿野山庄", "address": "江西省抚州市宜黄县X936江西汉达绿野农业发展有限公司", "image": "", "rank": 48, "time": 2, "location": {"lat": 27.56056346070013, "lng": 116.24254169398493}, "feature": {"sight_features": "", "sight_content": ""}}, {"title": "仙洞古寺", "address": "城西马路21号", "image": "", "rank": 49, "time": 7.5, "location": {"lat": 27.55537379322598, "lng": 116.2278299649918}, "feature": {"sight_features": "", "sight_content": ""}}, {"title": "宜黄县基督教会", "address": "西马路78", "image": "", "rank": 50, "time": 1.5, "location": {"lat": 27.549500455105594, "lng": 116.22623872098482}, "feature": {"sight_features": "", "sight_content": ""}}, {"title": "万达宝贝王（抚州万达广场店）", "address": "抚州市临川区迎宾大道万达广场2号门", "image": "", "rank": 51, "time": 2, "location": {"lat": 27.962827554083134, "lng": 116.35417438916468}, "feature": {"sight_features": "", "sight_content": ""}}, {"title": "龙湾温泉(临川大道店)", "address": "临川大道443号", "image": "", "rank": 52, "time": 2, "location": {"lat": 27.978143848216543, "lng": 116.37161299819351}, "feature": {"sight_features": "", "sight_content": ""}}, {"title": "冒险家探险乐园", "address": "东信百货楼下德克士旁", "image": "", "rank": 53, "time": 2, "location": {"lat": 24.91798244610207, "lng": 103.15568471795655}, "feature": {"sight_features": "", "sight_content": ""}}, {"title": "小勇士探险乐园(东乡店)", "address": "好又多超市入口处", "image": "", "rank": 54, "time": 2, "location": {"lat": 28.25397739799852, "lng": 116.60954171504868}, "feature": {"sight_features": "", "sight_content": ""}}, {"title": "生态园农家乐", "address": "孝桥下璜村", "image": "", "rank": 55, "time": 2, "location": {"lat": 28.03048543789791, "lng": 116.37190548916239}, "feature": {"sight_features": "", "sight_content": ""}}, {"title": "舒同纪念馆", "address": "龙山大道", "image": "", "rank": 56, "time": 2, "location": {"lat": 23.020267325536718, "lng": 113.34659801198278}, "feature": {"sight_features": "", "sight_content": ""}}, {"title": "六易美术馆", "address": "瑶坪路", "image": "", "rank": 57, "time": 2, "location": {"lat": 27.99185920352839, "lng": 116.37073436018467}, "feature": {"sight_features": "", "sight_content": ""}}, {"title": "牡丹亭书画社", "address": "赣东大道703号", "image": "", "rank": 58, "time": 2, "location": {"lat": 27.98762144945841, "lng": 116.36666922951594}, "feature": {"sight_features": "", "sight_content": ""}}, {"title": "抚州市书画院", "address": "河滨路", "image": "", "rank": 59, "time": 1.0, "location": {"lat": 38.99720400410777, "lng": 117.71439608000217}, "feature": {"sight_features": "", "sight_content": ""}}, {"title": "革命烈士纪念馆", "address": "022乡道", "image": "", "rank": 60, "time": 2, "location": {"lat": 44.94424451484579, "lng": 124.49739371199831}, "feature": {"sight_features": "", "sight_content": ""}}]}