{"cityName": "盖州", "days": 2, "cityImage": "", "spots": [{"title": "思拉堡温泉小镇", "address": "营口市盖州市双台镇思拉堡虹溪谷村温泉假日酒店", "image": "", "rank": 1, "time": 2, "location": {"lat": 40.249296893171206, "lng": 122.2535036154997}, "feature": {"sight_features": "特色1 自古以来的旅游胜地，因山海泉而得名。 特色2 集温泉、酒店、高尔夫、滑雪、赛马、游艇、国际会展中心、酒庄、农业旅游等多功能于一体的旅游、度假、养生、休闲、生态人居度假城。", "sight_content": "营口思拉堡温泉小镇位于营口盖州双台乡思拉堡村，小镇是集温泉，球场，滑雪场，马术，酒庄，游艇及别墅等多种业态齐全的综合旅游项目区。思拉堡温泉又名虹溪谷温泉，是2011年新开发利用的一处地热资源，营口思拉堡温泉于2011年10月全新开业。其面积、储量、水温居辽宁省之首。思拉堡温泉（虹溪谷温泉）依山而造，叠岩起伏，曲径通幽，层林尽染。\n虹溪谷为森林小溪，山谷温泉，温泉水品质纯正，富含氡、硅酸、钾、钍等各种有利于人体美容、养生、保健、长寿的微量元素。温泉水温高达97度，其储量、面积、水温、水质居全国之首。思拉堡温泉汤浴区约49个泡池分布在三脊四沟中，朝向坐北朝东南，分为一阳一阴两片区域，即空中泡池区和洞天世界两个功能分区，山体至高点分布了景区重要的景观及建筑标志性构筑物。"}}, {"title": "翰鼎奇妙亚特兰蒂斯海乐园", "address": "营口盖州市北海新区北海浴场南门北侧", "image": "", "rank": 2, "time": 2, "location": {"lat": 40.41129160323121, "lng": 122.21556413862498}, "feature": {"sight_features": "特色1 翰鼎奇妙亚特兰蒂斯海乐园是辽宁省内靠海最近的海乐园。 特色2 以神秘的玛雅文明为主题，再现波塞冬海神家族的盛况。 特色3 得天独厚，位于团山国家级海洋公园旁，依靠大海，西临沙滩。", "sight_content": "翰鼎奇妙亚特兰蒂斯海乐园坐落于美丽的滨海之城辽宁省盖州市北海，位于团山风景区海岸线东侧。由营口北海圣和龙翔置业发展有限公司投资新建，并全权委托北海翰鼎文化发展有限公司管理，华夏海乐园占地面积约210亩，计划总投资10亿人民币，分为一期、二期工程。一期工程已于2015年6月动工兴建，于2016年6月正式对外营业。\n\n\n翰鼎奇妙亚特兰蒂斯海乐园依海而建，园区建设以海神波塞冬长子亚特兰蒂斯的故事为主题，再现玛雅文明为主要设计理念，通过新奇刺激的大型水上设备，将亚特兰蒂斯时代波塞冬家族戏水游乐的场景再现无余。同时，盖州北海地区清澈的海水及细腻的沙滩，也带给您完全不同的戏水体验。\n翰鼎奇妙亚特兰蒂斯海乐园除了拥有不一样的大喇叭滑道、疯狂海啸池、彩虹滑梯、疯狂水寨、儿童综合戏水区、超级巨蟒滑道、暴风谷滑道、情侣趣味滑梯等设备以外，还为您精心准备了装备一流的房车，高空游览的热气球，海上直升机等，让您欢乐嬉戏之余，尽情体验上天入海的奇妙之旅，一边享受疯狂演绎的巅峰冲击，一边品尝丰盛鲜美的海鲜大餐以及海边的奇妙住宿......翰鼎奇妙亚特兰蒂斯海乐园，这里每天不同！"}}, {"title": "北海浴场", "address": "营口市盖州市团山镇", "image": "", "rank": 3, "time": 1.0, "location": {"lat": 40.41219987422634, "lng": 122.29655704593081}, "feature": {"sight_features": "", "sight_content": ""}}, {"title": "白沙湾海水浴场", "address": "营口市盖州市归州镇", "image": "", "rank": 4, "time": 2.5, "location": {"lat": 40.10978171754268, "lng": 122.00825876072982}, "feature": {"sight_features": "", "sight_content": ""}}, {"title": "青龙山", "address": "营口市盖州市熊岳镇城东8公里陈屯镇太平沟村境内", "image": "", "rank": 5, "time": 3.0, "location": {"lat": 40.158030289529094, "lng": 122.21544909982477}, "feature": {"sight_features": "", "sight_content": ""}}, {"title": "熊岳植物园", "address": "营口市鲅鱼圈区熊岳镇古城东南", "image": "", "rank": 6, "time": null, "location": {"lat": 40.19177149640931, "lng": 122.13983408260704}, "feature": {"sight_features": "", "sight_content": ""}}, {"title": "石棚古迹", "address": "营口盖州市熊岳城南二台镇石棚山", "image": "", "rank": 7, "time": 1.5, "location": {"lat": 40.09349176090951, "lng": 122.09248641766858}, "feature": {"sight_features": "", "sight_content": ""}}, {"title": "思拉堡虹溪谷滑雪场", "address": "辽宁省营口盖州市双台乡思拉堡村", "image": "", "rank": 8, "time": 2, "location": {"lat": 40.244778721127865, "lng": 122.26356329514302}, "feature": {"sight_features": "", "sight_content": ""}}, {"title": "仙人岛国家森林公园", "address": "营口市盖州市九龙地镇西海边", "image": "", "rank": 9, "time": 3.5, "location": {"lat": 40.40616745726758, "lng": 122.35559128287593}, "feature": {"sight_features": "", "sight_content": ""}}, {"title": "鲅鱼圈华庭温泉", "address": "营口市盖州市双台子镇思拉堡桥北温泉住宅楼10号", "image": "", "rank": 10, "time": 3.5, "location": {"lat": 40.24080070747212, "lng": 122.25112464020407}, "feature": {"sight_features": "特色1 还富含铀、镭、钍、氡等微量元素", "sight_content": "温泉度假、商务为一体的经济酒店，坐落于盖州市双台镇温泉旅游区，拥有客房、温泉游泳馆、温泉室内外泡池、中西餐厅、自助餐厅、茶吧等服务项目。酒店安心的睡眠系统个、现代的卫浴系统、便捷的商旅配套和典雅的酒店氛围，保障您出门在外也有在家一般的感受。"}}, {"title": "辽南国际射击娱乐中心（游泳馆）", "address": "辽宁省盖州市双台子镇泉城市场桥（右转100米）", "image": "", "rank": 11, "time": 2, "location": {"lat": 40.2384021217961, "lng": 122.25407332804056}, "feature": {"sight_features": "", "sight_content": ""}}, {"title": "清河石门漂流", "address": "营口市盖州市榜式堡镇石门西村", "image": "", "rank": 12, "time": 2, "location": {"lat": 40.41193043660754, "lng": 122.72276154463302}, "feature": {"sight_features": "", "sight_content": ""}}, {"title": "赤山", "address": "营口市盖州市万福镇贵马子沟村", "image": "", "rank": 13, "time": 2.5, "location": {"lat": 40.1180391601035, "lng": 122.60578335851311}, "feature": {"sight_features": "", "sight_content": ""}}, {"title": "营口北海海洋公园", "address": "营口市盖州市团山办事处西侧辽东湾海滨", "image": "", "rank": 14, "time": 3.5, "location": {"lat": 40.51574001988225, "lng": 122.52335103161064}, "feature": {"sight_features": "", "sight_content": ""}}, {"title": "虹溪谷欢乐大世界", "address": "营口市盖州市双台镇思拉堡村", "image": "", "rank": 15, "time": 1.0, "location": {"lat": 40.24470676025459, "lng": 122.26345397405736}, "feature": {"sight_features": "特色1 营口地区四季畅玩的温泉水上乐园。 特色2 营口地区较大大的室内、室外一体化水上乐园。 特色3 园内所有设备均引进国内较先进设备，精彩绝伦，挑战青春活力。", "sight_content": "虹溪谷欢乐大世界坐落于中国·虹溪谷温泉旅游度假区，项目占地553855平方米，总投资6亿元人民币，是营口地区最大的室内、室外一体化水上乐园。园内所有设备均引进国内最先进设备，精彩绝伦，挑战青春活力。不论是休闲旅游，还是重拾激情，亦或是寻找刺激，都会给爱玩水的您和您的家人及朋友带来全新体验。虹溪谷水上乐园主要包括接待中心、室内水乐园、室外水乐园三部分。接待中心同时可接待10000余人，内设有7000余个电子储物柜、豪华淋浴室、商品购物中心，让您的游玩更便捷、更安全。\n室内水乐园是营口地区唯一一个四季均可畅游的水乐园，主要由三个主题场馆组成：\n一号馆梦幻海底世界，内设有十余项休闲游玩项目：一层海浪池、巨兽碗、水上闯关等富有挑战性的娱乐项目，让您体验到前所未有的水上生活。儿童组滑梯、电玩城、淘气堡等儿童娱乐区，不仅增加了亲子间的互动，同时让您找回童年的感觉，尽享天伦之乐；二层休息大厅、汗蒸房、网咖、茶艺、客房、吸烟区等休闲设施为您带来多一份的选择，在为您消除激烈碰撞后的疲劳的同时，您可在此尽情享受游玩带来的惬意；三层餐饮小食街，各种美食琳琅满目，让您无忧畅玩一整天。想要刺激当然选高空滑索和玻璃栈道，玩得就是一个心跳。\n如果您觉得还不够，一号馆负一层的恐龙馆，将会把您带回史前世界，穿越侏罗纪，探索与发现神秘的恐龙世界。\n二号馆儿童欢乐世界，内设有大型儿童水寨、儿童组滑梯、儿童索道，让您和您的孩子体验不一样的挑战，更能锻炼孩子的胆量和体魄，同时让您和您的孩子增加更多的互动。陪伴孩子的成长，不错过孩子成长过程中的每一个欢乐瞬间是每一位家长的心愿，而虹溪谷水乐园儿童欢乐世界为每一个家庭创造了这样一个欢快的亲子乐园。\n三号馆热带雨林世界，绝对是每一位想要挑战极限、挑战自我的游客的游乐圣地。漂流河、冲天回旋、彩虹滑梯、滑板冲浪、大喇叭、玻璃栈道每一项游乐设施都会让您心跳加速，激情澎湃的冒险将在这里起航。如果您累了，可以在木质庭院里休息，与家人、朋友一同聆听欢声笑语。如果还不够，您还可以在榕树泉里体验虹溪谷特有的矿质温泉，享受不一样的“水”文化。室外水乐园设有大型海啸池、成人水寨、激流勇进等绝富挑战性的娱乐项目，绝对让您High翻天。酷玩盛夏，冰爽能量，秀出您的个性与青春，体验一场惊心动魄的水上冒险之旅。\n园区另设有特色商业区、礼堂、演艺馆、酒店等项目，主题鲜明，绝对是您出行游玩的首选之地！"}}, {"title": "清华池温泉", "address": "营口市盖州市双台子温泉一条街御景山对面", "image": "", "rank": 16, "time": 2, "location": {"lat": 40.22326442427867, "lng": 122.28185818695584}, "feature": {"sight_features": "特色1 修身养性，避暑纳凉绝佳去处。 特色2 温泉可去除体内湿气，对人体有着各种疗效。 特色3 游泳健身，增强免疫力。", "sight_content": "清华池温泉位于盖州市思拉堡温泉小镇，是集休闲、娱乐、聚会、旅游、度假、疗养为主的多功能综合性度假胜地，酒店拥有客房、公寓、别墅、天然温泉大型娱乐场所。内设各种温泉药浴（灵芝浴、牛奶浴、红酒浴、柠檬浴、人参浴、芦荟浴）、对人体有着各种疗效。\n通过游泳锻炼、可增强对疾病的抵抗力、并获得良好的治疗效果，另有汗蒸、儿童戏水池、让您置身自然之境、给您带来舒适温暖放松的感觉、是您理想的度假场所、全体员工期待您的光临！"}}, {"title": "名泉好客温泉会馆", "address": "营口市盖州市鲅鱼圈双台镇", "image": "", "rank": 17, "time": 2, "location": {"lat": 40.22689957959816, "lng": 122.2845749511741}, "feature": {"sight_features": "", "sight_content": ""}}, {"title": "久鼎温泉会馆", "address": "熊岳外环紫金湾岗东行500米道北(新时代幼儿园)", "image": "", "rank": 18, "time": 2, "location": {"lat": 40.621894026234784, "lng": 109.81254873866266}, "feature": {"sight_features": "", "sight_content": ""}}, {"title": "白沙湾黄金海岸", "address": "辽宁省营口市盖州市", "image": "", "rank": 19, "time": 2, "location": {"lat": 40.40616745726758, "lng": 122.35559128287593}, "feature": {"sight_features": "", "sight_content": ""}}, {"title": "仙人岛海滨", "address": "辽宁省盖州市九垄地镇", "image": "", "rank": 20, "time": 2, "location": {"lat": 40.16184114902816, "lng": 122.12487840078168}, "feature": {"sight_features": "", "sight_content": ""}}, {"title": "营口小亮农家院", "address": "营口营口市白沙湾黄金海岸", "image": "", "rank": 21, "time": 3.5, "location": {"lat": 40.135532526047406, "lng": 122.01713473960942}, "feature": {"sight_features": "", "sight_content": ""}}, {"title": "绣龙森林公园", "address": "红旗大街", "image": "", "rank": 22, "time": 2, "location": {"lat": 40.389008403578586, "lng": 118.02390662004106}, "feature": {"sight_features": "", "sight_content": ""}}, {"title": "沈阳铁路局熊岳城疗养院", "address": "辽宁省营口市鲅鱼圈区熊岳城温泉度假村", "image": "", "rank": 23, "time": 3.0, "location": {"lat": 40.2323398507732, "lng": 122.12757349697273}, "feature": {"sight_features": "", "sight_content": ""}}, {"title": "星海欢乐灯会", "address": "营口市盖州市团山国家海洋公园", "image": "", "rank": 24, "time": 2, "location": {"lat": 40.51574001988225, "lng": 122.52335103161064}, "feature": {"sight_features": "", "sight_content": ""}}, {"title": "绿森游乐中心", "address": "营口市盖州市双台镇绿森基地", "image": "", "rank": 25, "time": 2, "location": {"lat": 40.22689957959816, "lng": 122.2845749511741}, "feature": {"sight_features": "", "sight_content": ""}}, {"title": "营口御水环林温泉度假村", "address": "辽宁省营口市盖州市滨海公路白沙湾(海滨浴场南门入口处)", "image": "", "rank": 26, "time": 3.5, "location": {"lat": 40.38625639021964, "lng": 122.21978288043556}, "feature": {"sight_features": "", "sight_content": ""}}, {"title": "福隆温泉会馆", "address": "兴隆胡同南100米(兴隆大家庭)", "image": "", "rank": 27, "time": 2, "location": {"lat": 40.42345402963516, "lng": 117.50742737263927}, "feature": {"sight_features": "", "sight_content": ""}}, {"title": "钰澜湾温泉休闲会馆", "address": "双台镇董屯村名泉河畔小区门市(双台信用社东邻)", "image": "", "rank": 28, "time": 2, "location": {"lat": 40.241236024512006, "lng": 122.24497798475204}, "feature": {"sight_features": "", "sight_content": ""}}, {"title": "碧海温泉会馆", "address": "熊岳镇外环南大桥紫金湾交通岗东行500米路北", "image": "", "rank": 29, "time": 2, "location": {"lat": 41.19352127356302, "lng": 122.06004059281814}, "feature": {"sight_features": "", "sight_content": ""}}, {"title": "鲜源 近海·人家", "address": "滨海公路", "image": "", "rank": 30, "time": 2, "location": {"lat": 39.1052907391223, "lng": 122.02339772562499}, "feature": {"sight_features": "", "sight_content": ""}}, {"title": "海之缘温泉会馆", "address": "双台子镇泉城市场东行1千5百米加油站对面", "image": "", "rank": 31, "time": 2, "location": {"lat": 41.20607161751199, "lng": 122.04639299922216}, "feature": {"sight_features": "", "sight_content": ""}}, {"title": "友惠温泉之家", "address": "双台镇思拉堡温泉小镇东", "image": "", "rank": 32, "time": 2, "location": {"lat": 40.249213481897065, "lng": 122.25531591722199}, "feature": {"sight_features": "", "sight_content": ""}}, {"title": "恒源温泉度假村", "address": "双台镇", "image": "", "rank": 33, "time": 2, "location": {"lat": 32.66262894345418, "lng": 114.44758914653816}, "feature": {"sight_features": "", "sight_content": ""}}, {"title": "途家斯维登温泉度假公寓(营口奕...", "address": "双台镇双台镇思拉堡村(奕丰泉天下)", "image": "", "rank": 34, "time": 2, "location": {"lat": 40.24470676025459, "lng": 122.26345397405736}, "feature": {"sight_features": "", "sight_content": ""}}, {"title": "龙泉温泉会馆", "address": "双台子御景山温泉斜对面", "image": "", "rank": 35, "time": 2, "location": {"lat": 41.20607161751199, "lng": 122.04639299922216}, "feature": {"sight_features": "", "sight_content": ""}}, {"title": "瑶池温泉会馆", "address": "熊岳镇外环南大桥紫金湾交通岗东行500米路北", "image": "", "rank": 36, "time": 2, "location": {"lat": 41.19352127356302, "lng": 122.06004059281814}, "feature": {"sight_features": "", "sight_content": ""}}, {"title": "恒大葡萄苗圃", "address": "熊岳镇金星村", "image": "", "rank": 37, "time": 2, "location": {"lat": 40.18025876425258, "lng": 122.14419380807759}, "feature": {"sight_features": "", "sight_content": ""}}, {"title": "寿星楼温泉公寓", "address": "泉城综合市场桥北圣亨隆洗浴院内东50米", "image": "", "rank": 38, "time": 2, "location": {"lat": 40.24056404707356, "lng": 122.25521974553241}, "feature": {"sight_features": "", "sight_content": ""}}, {"title": "营口鑫如家温泉宾馆", "address": "双台镇名泉河畔1号楼侧1号门市", "image": "", "rank": 39, "time": 3.5, "location": {"lat": 40.24164302161361, "lng": 122.24395795884547}, "feature": {"sight_features": "", "sight_content": ""}}, {"title": "天泉垂钓山庄", "address": "高屯镇天泉垂钓山庄", "image": "", "rank": 40, "time": 2, "location": {"lat": 40.45241643867776, "lng": 122.60460762931248}, "feature": {"sight_features": "", "sight_content": ""}}, {"title": "德源温泉会馆", "address": "紫金湾港东行500米路南", "image": "", "rank": 41, "time": 2, "location": {"lat": 25.15844342525646, "lng": 118.68582300440156}, "feature": {"sight_features": "", "sight_content": ""}}, {"title": "多佳温泉住宿", "address": "盖州思拉堡温泉小镇", "image": "", "rank": 42, "time": 2, "location": {"lat": 40.40616745726758, "lng": 122.35559128287593}, "feature": {"sight_features": "", "sight_content": ""}}, {"title": "景德镇大花瓶", "address": "辽宁省营口市盖州市西城街道红旗大街客运站交通局", "image": "", "rank": 43, "time": 3.5, "location": {"lat": 40.414174911065594, "lng": 122.35848977609545}, "feature": {"sight_features": "", "sight_content": ""}}, {"title": "慈航普渡", "address": "胜利街与长征大街交叉口东北150米", "image": "", "rank": 44, "time": 2, "location": {"lat": 40.40413787932047, "lng": 122.37001046521004}, "feature": {"sight_features": "", "sight_content": ""}}, {"title": "龙王庙", "address": "南仙线", "image": "", "rank": 45, "time": 2, "location": {"lat": 40.18002879259532, "lng": 122.01982002001614}, "feature": {"sight_features": "", "sight_content": ""}}, {"title": "复兴堂", "address": "305国道北50米", "image": "", "rank": 46, "time": 0.25, "location": {"lat": 42.63653183109475, "lng": 119.59940510698962}, "feature": {"sight_features": "", "sight_content": ""}}, {"title": "宝安讲寺", "address": "辽宁省营口市盖州市", "image": "", "rank": 47, "time": 2, "location": {"lat": 40.40616745726758, "lng": 122.35559128287593}, "feature": {"sight_features": "", "sight_content": ""}}, {"title": "盖州市天主教会", "address": "科教幼儿园附近", "image": "", "rank": 48, "time": 2.5, "location": {"lat": 31.845979455876336, "lng": 117.33705205470032}, "feature": {"sight_features": "", "sight_content": ""}}, {"title": "榜式堡基督教堂", "address": "营口市盖州市", "image": "", "rank": 49, "time": 2, "location": {"lat": 40.40616745726758, "lng": 122.35559128287593}, "feature": {"sight_features": "", "sight_content": ""}}, {"title": "营口水上湾度假村", "address": "辽宁省营口市盖州市白沙湾黄金海岸滨海东路150米", "image": "", "rank": 50, "time": 2, "location": {"lat": 40.135532526047406, "lng": 122.01713473960942}, "feature": {"sight_features": "", "sight_content": ""}}, {"title": "盖州香雪人家农家院", "address": "辽宁省营口市盖州市归州满族镇房身村4号", "image": "", "rank": 51, "time": 2.5, "location": {"lat": 40.1309750577284, "lng": 122.03965498925291}, "feature": {"sight_features": "", "sight_content": ""}}, {"title": "付家大院", "address": "王家大院西南130米", "image": "", "rank": 52, "time": 2, "location": {"lat": 39.59832332667028, "lng": 115.81262062982375}, "feature": {"sight_features": "", "sight_content": ""}}, {"title": "白沙湾舒馨缘度假村", "address": "盖州市白沙湾滨海公路营口渔村农家院东南侧80米", "image": "", "rank": 53, "time": 2, "location": {"lat": 40.38625639021964, "lng": 122.21978288043556}, "feature": {"sight_features": "", "sight_content": ""}}, {"title": "盖州白沙湾大森渡假村", "address": "营口盖州市白沙湾老道口西300米", "image": "", "rank": 54, "time": 2.5, "location": {"lat": 40.13255063291321, "lng": 122.00998280932559}, "feature": {"sight_features": "", "sight_content": ""}}, {"title": "白沙湾御水环林温泉度假村", "address": "滨海路附近", "image": "", "rank": 55, "time": 2, "location": {"lat": 39.11012042376985, "lng": 117.36242054275989}, "feature": {"sight_features": "", "sight_content": ""}}, {"title": "汐水格庭度假村", "address": "归州镇白沙湾村辽东湾大街黄金海岸浴场东行80米道南", "image": "", "rank": 56, "time": 2, "location": {"lat": 42.202689872246964, "lng": 116.4859846496259}, "feature": {"sight_features": "", "sight_content": ""}}, {"title": "白沙湾海韵度假村", "address": "辽宁省营口市盖州市滨海公路", "image": "", "rank": 57, "time": 2, "location": {"lat": 40.38625639021964, "lng": 122.21978288043556}, "feature": {"sight_features": "", "sight_content": ""}}, {"title": "营口林海度假村", "address": "营口白沙湾", "image": "", "rank": 58, "time": 3.5, "location": {"lat": 40.13255063291321, "lng": 122.00998280932559}, "feature": {"sight_features": "", "sight_content": ""}}, {"title": "盖州圣水人家度假村", "address": "盖州市万福镇孙家窝棚村圣水人家", "image": "", "rank": 59, "time": 2.5, "location": {"lat": 40.131340650935364, "lng": 122.48408631965097}, "feature": {"sight_features": "", "sight_content": ""}}, {"title": "海月馨度假村", "address": "海月馨度假村", "image": "", "rank": 60, "time": 2, "location": {"lat": 40.1961795917501, "lng": 122.03666408105744}, "feature": {"sight_features": "", "sight_content": ""}}]}