{"cityName": "甘德", "days": 2, "cityImage": "", "spots": [{"title": "东吉多卡寺", "address": "果洛州甘德县东吉乡的赛日滩，距县城12公里。", "image": "", "rank": 1, "time": 1.5, "location": {"lat": 33.975003677602174, "lng": 99.90751069557831}, "feature": {"sight_features": "", "sight_content": ""}}, {"title": "龙恩寺", "address": "果洛州甘德县城东南部的下贡麻乡隆什加沟口", "image": "", "rank": 2, "time": 1.0, "location": {"lat": 33.85308691958485, "lng": 100.12621619920894}, "feature": {"sight_features": "", "sight_content": ""}}, {"title": "格萨尔酥油花展示馆", "address": "果洛州甘德县", "image": "", "rank": 3, "time": 1.0, "location": {"lat": 33.975003677602174, "lng": 99.90751069557831}, "feature": {"sight_features": "", "sight_content": ""}}, {"title": "夏日乎寺", "address": "果洛州甘德县岗龙乡黄河西岸的隆木切沟口", "image": "", "rank": 4, "time": 1.0, "location": {"lat": 33.75125781787703, "lng": 100.25212196736845}, "feature": {"sight_features": "", "sight_content": ""}}, {"title": "官仓峡景区", "address": "果洛州甘德县岗龙乡", "image": "", "rank": 5, "time": 2.0, "location": {"lat": 33.76135562662321, "lng": 100.26589932568687}, "feature": {"sight_features": "", "sight_content": ""}}, {"title": "格萨尔文化艺术研究院", "address": "果洛州甘德县柯曲镇德尔文村", "image": "", "rank": 6, "time": 1.5, "location": {"lat": 33.97601402634179, "lng": 99.90754152183018}, "feature": {"sight_features": "", "sight_content": ""}}, {"title": "格萨尔文化宫殿", "address": "果洛州甘德县柯曲镇阿东地区", "image": "", "rank": 7, "time": 1.5, "location": {"lat": 33.97601402634179, "lng": 99.90754152183018}, "feature": {"sight_features": "", "sight_content": ""}}, {"title": "赛西多卡石经墙", "address": "果洛州甘德县岗龙乡，赛西多卡草原", "image": "", "rank": 8, "time": 1.0, "location": {"lat": 33.76135562662321, "lng": 100.26589932568687}, "feature": {"sight_features": "", "sight_content": ""}}, {"title": "果洛马背藏戏", "address": "果洛州甘德县", "image": "", "rank": 9, "time": 2, "location": {"lat": 33.975003677602174, "lng": 99.90751069557831}, "feature": {"sight_features": "", "sight_content": ""}}, {"title": "安加拉.加毛山", "address": "果洛州甘德县柯曲镇东部", "image": "", "rank": 10, "time": 1.5, "location": {"lat": 33.97601402634179, "lng": 99.90754152183018}, "feature": {"sight_features": "", "sight_content": ""}}, {"title": "德尔文村", "address": "果洛州甘德县柯曲镇境内", "image": "", "rank": 11, "time": 2.0, "location": {"lat": 33.97601402634179, "lng": 99.90754152183018}, "feature": {"sight_features": "", "sight_content": ""}}, {"title": "果洛州甘德县格萨尔文化博物馆", "address": "勤西路东50米", "image": "", "rank": 12, "time": 2, "location": {"lat": 33.975003677602174, "lng": 99.90751069557831}, "feature": {"sight_features": "", "sight_content": ""}}, {"title": "下日乎寺", "address": "青海省果洛藏族自治州甘德县", "image": "", "rank": 13, "time": 2, "location": {"lat": 33.975003677602174, "lng": 99.90751069557831}, "feature": {"sight_features": "", "sight_content": ""}}, {"title": "日马巴地", "address": "果洛藏族自治州-甘德县", "image": "", "rank": 14, "time": 2, "location": {"lat": 33.975003677602174, "lng": 99.90751069557831}, "feature": {"sight_features": "", "sight_content": ""}}]}