{"cityName": "刚察", "days": 2, "cityImage": "", "spots": [{"title": "青海湖鸟岛", "address": "海北藏族自治州刚察县青海湖布哈河口以北4公里处", "image": "", "rank": 1, "time": 6.0, "location": {"lat": 37.3273200722536, "lng": 100.15360607139486}, "feature": {"sight_features": "", "sight_content": ""}}, {"title": "青海湖仙女湾", "address": "海北藏族自治州刚察县仙女湾景区", "image": "", "rank": 2, "time": 2.0, "location": {"lat": 37.3273200722536, "lng": 100.15360607139486}, "feature": {"sight_features": "特色1 动植物品种繁多，湿地景观独具特色", "sight_content": "仙女湾位于青海湖北岸，这里动植物品种繁多，湿地景观独具特色，尤其是数十种鸟类钟爱的迁徙栖息之地。据刚察县旅游局局长李海莲介绍，往年游客来青海湖观鸟，主要是5月前后，而一到冬季，仙女湾一带基本没有游客。随着在仙女湾湿地迁徙鸟和冬候鸟数量的增多，“十一”以后，游客明显增加了很多。通过近一年的建设，青海湖仙女湾景区游客服务中心工程建设已竣工，并顺利通过专家组的验收。\n有关历史文献资料记载，有诗为证：《瑶池》“瑶池阿母绮窗开，黄竹歌声动地哀。八骏日行三万里，穆王何事不重来。”中原天子，西部女王，他们之间的感情非常的深，而这首诗却告诉我们西王母迟迟未能等到心上人的到来，现在只有这些天鹅仙女们的化身每年飞到这里，向世人展示，在无限蓝天下，仙子们在这里驻足、栖息，冰清玉洁、婀娜多姿，给冬日的青海湖增添了几份灵气，形成靓丽风景。\n“仙女湾”便得名于此。朋友们这里也有这样的传说，传说中六世达赖喇嘛途径青海湖边，被这里透明的湖光大自然吸引，仿佛听到神在呼唤，便踏浪入海，而女性的青海湖顿显神灵，仙女奏琴吹唢，仙鹤结群飞舞，大师就这样消失了，也有人说他随从仙子们赴天上仙境了。这足见她的魅力是无穷的，仙女湾也由此而出名了。\n每年的6月——10月间，仙女湾湿地在不同的季节绽放出不同颜色的花卉，红的、黄的，就像自然亲手编织的地毯，展现在你的眼帘，可称为是“花的海洋”一点也不逊色，同时这里还以浓郁的宗教文化和历史传说引导当地的信教群众年年择吉日到此煨桑、祭海。"}}, {"title": "沙柳河景区", "address": "海北藏族自治州刚察县沙柳河镇南大街65号南侧", "image": "", "rank": 3, "time": 1.0, "location": {"lat": 37.329901486474846, "lng": 100.1415721740543}, "feature": {"sight_features": "", "sight_content": ""}}, {"title": "观鱼台", "address": "海北藏族自治州刚察县境内，青海湖旁", "image": "", "rank": 4, "time": 0.25, "location": {"lat": 37.3273200722536, "lng": 100.15360607139486}, "feature": {"sight_features": "", "sight_content": ""}}, {"title": "沙陀寺", "address": "海北藏族自治州刚察县泉吉乡年乃索麻村", "image": "", "rank": 5, "time": 0.25, "location": {"lat": 37.054782146747485, "lng": 99.72656017034522}, "feature": {"sight_features": "", "sight_content": ""}}, {"title": "布哈河", "address": "青海省青海湖盆地西北部", "image": "", "rank": 6, "time": 2, "location": {"lat": 37.1967375040408, "lng": 99.89655802749532}, "feature": {"sight_features": "", "sight_content": ""}}, {"title": "刚察大寺", "address": "青海省海北藏族自治州刚察县南1.6公里", "image": "", "rank": 7, "time": 2, "location": {"lat": 37.2124482120556, "lng": 100.15360607139486}, "feature": {"sight_features": "", "sight_content": ""}}, {"title": "门源县文化馆", "address": "东大街48号", "image": "", "rank": 8, "time": 2, "location": {"lat": 22.61729942596652, "lng": 114.14733751642652}, "feature": {"sight_features": "", "sight_content": ""}}, {"title": "青海湖农场塘渠大队五中队", "address": "526乡道附近", "image": "", "rank": 9, "time": 6.0, "location": {"lat": 33.12895927165667, "lng": 120.29998513014964}, "feature": {"sight_features": "", "sight_content": ""}}, {"title": "鸬鹚岛", "address": "青海湖鸟岛景区内", "image": "", "rank": 10, "time": 2, "location": {"lat": 36.98677274046785, "lng": 99.8780152635482}, "feature": {"sight_features": "", "sight_content": ""}}, {"title": "烈士陵园", "address": "北大街6号", "image": "", "rank": 11, "time": 2, "location": {"lat": 39.724769739081324, "lng": 116.18413406487404}, "feature": {"sight_features": "", "sight_content": ""}}, {"title": "海北藏家风情园度假村", "address": "刚察县海北藏族自治州海北藏族自治州刚察县仙女湾景区50米处", "image": "", "rank": 12, "time": 4.0, "location": {"lat": 37.3273200722536, "lng": 100.15360607139486}, "feature": {"sight_features": "", "sight_content": ""}}, {"title": "职工文化休闲广场", "address": "学苑路与学院巷交叉口南150米", "image": "", "rank": 13, "time": null, "location": {"lat": 37.32955260221681, "lng": 100.15084401371449}, "feature": {"sight_features": "", "sight_content": ""}}, {"title": "青海湖蒙古大营度假村", "address": "海北刚察县315国道228.7公里三岔路口向左(环湖西路)2公里处或黑马河往鸟岛方向(环湖西路)73.8公里处", "image": "", "rank": 14, "time": 6.0, "location": {"lat": 35.5369152318625, "lng": 119.62853712862734}, "feature": {"sight_features": "", "sight_content": ""}}, {"title": "北向阳遗址", "address": "315国道附近", "image": "", "rank": 15, "time": 2, "location": {"lat": 37.09130242955409, "lng": 80.01089741457416}, "feature": {"sight_features": "", "sight_content": ""}}, {"title": "措温波藏城民族文化展览馆", "address": "南大街119号", "image": "", "rank": 16, "time": 2, "location": {"lat": 39.70291079149445, "lng": 115.99072965213549}, "feature": {"sight_features": "", "sight_content": ""}}, {"title": "祥和生态园", "address": "南大街119号", "image": "", "rank": 17, "time": null, "location": {"lat": 39.70291079149445, "lng": 115.99072965213549}, "feature": {"sight_features": "", "sight_content": ""}}, {"title": "青海湖鸟岛 The Birds Island", "address": "青海省刚察县青海湖西北角,布哈河三角洲附近", "image": "", "rank": 18, "time": 6.0, "location": {"lat": 37.3273200722536, "lng": 100.15360607139486}, "feature": {"sight_features": "", "sight_content": ""}}, {"title": "扎却乎", "address": "海北藏族自治州-刚察县", "image": "", "rank": 19, "time": 2, "location": {"lat": 37.3273200722536, "lng": 100.15360607139486}, "feature": {"sight_features": "", "sight_content": ""}}, {"title": "嘛呢多石邹", "address": "海北藏族自治州-刚察县", "image": "", "rank": 20, "time": 2, "location": {"lat": 37.3273200722536, "lng": 100.15360607139486}, "feature": {"sight_features": "", "sight_content": ""}}, {"title": "湟鱼家园原驻民体验区", "address": "海北藏族自治州刚察县南大街蕃域藏城林卡酒店斜对面", "image": "", "rank": 21, "time": 2, "location": {"lat": 37.32758905060327, "lng": 100.13688961644786}, "feature": {"sight_features": "", "sight_content": ""}}, {"title": "刚察草原", "address": "青海省海北藏族自治州刚察县", "image": "", "rank": 22, "time": 10.5, "location": {"lat": 37.3273200722536, "lng": 100.15360607139486}, "feature": {"sight_features": "", "sight_content": ""}}]}