{"cityName": "甘南", "days": 2, "cityImage": "", "spots": [{"title": "拉卜楞寺", "address": "甘南藏族自治州夏河县城西", "image": "", "rank": 1, "time": 3.5, "location": {"lat": 35.20832432554126, "lng": 102.52857708038411}, "feature": {"sight_features": "", "sight_content": ""}}, {"title": "郎木寺", "address": "甘南藏族自治州碌曲县郎木寺镇郎木寺院内", "image": "", "rank": 2, "time": 1.5, "location": {"lat": 34.095643381184544, "lng": 102.64528241698503}, "feature": {"sight_features": "", "sight_content": ""}}, {"title": "桑科草原", "address": "甘南藏族自治州夏河县拉卜楞寺西南10公里处", "image": "", "rank": 3, "time": 3.5, "location": {"lat": 35.12464031248723, "lng": 102.51695681230714}, "feature": {"sight_features": "", "sight_content": ""}}, {"title": "扎尕那", "address": "甘南藏族自治州迭部县扎尕那益哇镇", "image": "", "rank": 4, "time": 1.5, "location": {"lat": 34.24412418599444, "lng": 103.19821407194743}, "feature": {"sight_features": "", "sight_content": ""}}, {"title": "尕海", "address": "甘南藏族自治州碌曲县尕海乡", "image": "", "rank": 5, "time": 1.5, "location": {"lat": 34.2641742715361, "lng": 102.37393720219896}, "feature": {"sight_features": "", "sight_content": ""}}, {"title": "米拉日巴佛阁", "address": "甘南藏族自治州合作市那吾路", "image": "", "rank": 6, "time": 1.5, "location": {"lat": 35.01199273903465, "lng": 102.9238163710215}, "feature": {"sight_features": "", "sight_content": ""}}, {"title": "贡唐宝塔", "address": "甘南藏族自治州夏河县人民东街拉卜楞寺西南角", "image": "", "rank": 7, "time": 1.0, "location": {"lat": 35.19841412629267, "lng": 102.51695681230714}, "feature": {"sight_features": "", "sight_content": ""}}, {"title": "冶力关风景区", "address": "甘南藏族自治州临潭县冶力关镇", "image": "", "rank": 8, "time": 2.0, "location": {"lat": 34.956072671080676, "lng": 103.66062551712794}, "feature": {"sight_features": "", "sight_content": ""}}, {"title": "黄河第一湾", "address": "甘南藏族自治州玛曲县境内", "image": "", "rank": 9, "time": 1.0, "location": {"lat": 34.003358168342224, "lng": 102.07860004025919}, "feature": {"sight_features": "", "sight_content": ""}}, {"title": "冶海", "address": "甘南州临潭县八角乡与冶力关乡交界处", "image": "", "rank": 10, "time": 1.0, "location": {"lat": 35.0328187950398, "lng": 103.70516938282391}, "feature": {"sight_features": "", "sight_content": ""}}, {"title": "大峪沟风景区", "address": "甘南藏族自治州卓尼县大峪沟", "image": "", "rank": 11, "time": 1.0, "location": {"lat": 34.59491643280379, "lng": 103.51361578396147}, "feature": {"sight_features": "", "sight_content": ""}}, {"title": "冶力关国家森林公园", "address": "甘南藏族自治州临潭县冶力关镇冶力关国家森林公园", "image": "", "rank": 12, "time": 3.0, "location": {"lat": 34.95568052056052, "lng": 103.60325598402169}, "feature": {"sight_features": "特色1 它展示着原始图腾崇拜的自然地文景观，象征着青年男女坚贞不渝的爱情，又代表着世世代代生命的延续，所以人们又戏称为“阴阳石”、“栓马桩”。 特色2 此景是由地壳运动、漫长的岁月风化、水流的自然切割而形成的一种特殊的丹霞地貌景观。 特色3 冶力关国家森林公园黄捻子景区里的牧场，仿佛带你走入藏家的毡房，在牧场的不远处你就能闻到奶茶的飘香和清新的草香。", "sight_content": "洮河林业局冶力关国家森林公园自2000年筹建，2001年被评为省级森林公园；2002年被评为国家级森林公园。2005年被国家旅游局评为国家AAAA级旅游景区，现享有AAAA级风景区，国家森林公园、国家级地质公园、省级自然保护区、国家级水利风景区、国家重大遗产地保护区六顶桂冠。\n公园自创建以来主要经营洮林宾馆、青崖宫宾馆、黄捻子宾馆、莲花山大酒店、香子沟宾馆、冶力关生态园的住宿、停车、餐饮、日用百货、林副土特产品的销售及旅游、娱乐服务等项目。经过九年时间的开发建设，现已初具规模，基础设施、接待能力、经营水平、景区开发都有了很大的进步，外在形象和市场品位有了较快的提升，展现出良好的市场前景，为当地农牧民群众脱贫致富创造了良好的平台，已经成为林区实施可持续发展的支柱产业之一，也成为甘肃省新兴的生态旅游热点景区。\n公园总面积7.94万公顷，森林覆盖率63%。地处青藏高原东北边缘，向黄土高原过渡的褶皱地带,是祖国西部青藏高原和黄土高原过渡带上国有林区地域蕴藏的一颗光彩夺目的璀璨明珠。园内海拔在2100~4100米之间，年均气温5.9℃，气候湿润，夏无酷暑，清爽宜人。"}}, {"title": "腊子口", "address": "甘南藏族自治州迭部县腊子口乡", "image": "", "rank": 13, "time": 2.5, "location": {"lat": 34.12952389777382, "lng": 103.90138851011523}, "feature": {"sight_features": "", "sight_content": ""}}, {"title": "禅定寺", "address": "甘南藏族自治州卓尼县禅定路寺台子村附近", "image": "", "rank": 14, "time": 1.0, "location": {"lat": 34.59963268181061, "lng": 103.51602998630767}, "feature": {"sight_features": "", "sight_content": ""}}, {"title": "赤壁幽谷", "address": "甘南州临潭县冶力关镇西北", "image": "", "rank": 15, "time": 1.0, "location": {"lat": 34.956072671080676, "lng": 103.66062551712794}, "feature": {"sight_features": "", "sight_content": ""}}, {"title": "甘加草原", "address": "甘南藏族自治州夏河县甘加乡（县城以北约33公里）", "image": "", "rank": 16, "time": 2.5, "location": {"lat": 35.40585619516133, "lng": 102.5251361615519}, "feature": {"sight_features": "", "sight_content": ""}}, {"title": "洮河流珠", "address": "甘南州临洮县境内", "image": "", "rank": 17, "time": 1.0, "location": {"lat": 34.98913990996821, "lng": 102.91758468825803}, "feature": {"sight_features": "", "sight_content": ""}}, {"title": "则岔石林", "address": "甘南藏族自治州碌曲县拉仁关乡则岔村", "image": "", "rank": 18, "time": 2.5, "location": {"lat": 34.35628315787432, "lng": 102.69508672740844}, "feature": {"sight_features": "", "sight_content": ""}}, {"title": "当周草原", "address": "甘南藏族自治州合作市G213（知合玛路）", "image": "", "rank": 19, "time": 1.0, "location": {"lat": 34.9712265561396, "lng": 102.91170421330489}, "feature": {"sight_features": "", "sight_content": ""}}, {"title": "玛曲草原", "address": "甘肃省玛曲县境内", "image": "", "rank": 20, "time": 1.0, "location": {"lat": 34.003358168342224, "lng": 102.07860004025919}, "feature": {"sight_features": "", "sight_content": ""}}, {"title": "八角城", "address": "甘南藏族自治州夏河县城北35公里处", "image": "", "rank": 21, "time": 3.5, "location": {"lat": 35.20832432554126, "lng": 102.52857708038411}, "feature": {"sight_features": "", "sight_content": ""}}, {"title": "麻路小镇", "address": "甘南州卓尼县西南部", "image": "", "rank": 22, "time": 1.0, "location": {"lat": 34.59491643280379, "lng": 103.51361578396147}, "feature": {"sight_features": "", "sight_content": ""}}, {"title": "康多峡", "address": "甘南州卓尼县康多乡和杓哇土族乡境内", "image": "", "rank": 23, "time": 1.0, "location": {"lat": 35.03797626984111, "lng": 103.54530512508093}, "feature": {"sight_features": "", "sight_content": ""}}, {"title": "九龙峡", "address": "甘南州迭部县旺藏乡", "image": "", "rank": 24, "time": 1.0, "location": {"lat": 33.95960511426999, "lng": 103.61473690065982}, "feature": {"sight_features": "", "sight_content": ""}}, {"title": "将军睡千年", "address": "甘南州临潭县冶力关东南", "image": "", "rank": 25, "time": 1.0, "location": {"lat": 34.69863941152157, "lng": 103.36053329624235}, "feature": {"sight_features": "", "sight_content": ""}}, {"title": "红石崖", "address": "甘南州碌曲县郎木寺镇境内，郎木寺东侧", "image": "", "rank": 26, "time": 2, "location": {"lat": 34.095643381184544, "lng": 102.64528241698503}, "feature": {"sight_features": "", "sight_content": ""}}, {"title": "虎头山", "address": "甘南州迭部县城西南部", "image": "", "rank": 27, "time": 1.0, "location": {"lat": 34.06202005409746, "lng": 103.22844034557771}, "feature": {"sight_features": "", "sight_content": ""}}, {"title": "九巅峡", "address": "卓尼县藏霞巴哇乡境内", "image": "", "rank": 28, "time": 1.0, "location": {"lat": 34.59491643280379, "lng": 103.51361578396147}, "feature": {"sight_features": "", "sight_content": ""}}, {"title": "吉祥花滩", "address": "甘南州玛曲县欧拉秀玛乡境内", "image": "", "rank": 29, "time": 1.0, "location": {"lat": 34.247856498494144, "lng": 101.12887554714435}, "feature": {"sight_features": "", "sight_content": ""}}, {"title": "峰迭古城址", "address": "甘南州舟曲县嶂迭乡（县城以东17公里）", "image": "", "rank": 30, "time": 1.0, "location": {"lat": 33.790814973644174, "lng": 104.37748996238638}, "feature": {"sight_features": "", "sight_content": ""}}, {"title": "贡赛尔喀木道湿地景区", "address": "甘南藏族自治州玛曲县格萨尔广场东侧", "image": "", "rank": 31, "time": 2, "location": {"lat": 34.00386347698736, "lng": 102.08107135956463}, "feature": {"sight_features": "", "sight_content": ""}}, {"title": "格萨尔广场", "address": "甘南州玛曲县城中心地带", "image": "", "rank": 32, "time": 1.0, "location": {"lat": 34.003358168342224, "lng": 102.07860004025919}, "feature": {"sight_features": "", "sight_content": ""}}, {"title": "贡巴寺", "address": "甘南藏族自治州卓尼县刀告乡", "image": "", "rank": 33, "time": 1.0, "location": {"lat": 34.50735254853255, "lng": 103.13423102054104}, "feature": {"sight_features": "", "sight_content": ""}}, {"title": "甘丹赛赤寺", "address": "甘南藏族自治州碌曲县郎木寺镇内", "image": "", "rank": 34, "time": 1.5, "location": {"lat": 34.09586330084268, "lng": 102.64351596477596}, "feature": {"sight_features": "", "sight_content": ""}}, {"title": "茨日那革命遗址", "address": "甘南州迭部县旺藏乡政府驻地东南侧", "image": "", "rank": 35, "time": 1.0, "location": {"lat": 33.95960511426999, "lng": 103.61473690065982}, "feature": {"sight_features": "", "sight_content": ""}}, {"title": "岗岔溶洞", "address": "甘南州合作市东北27公里处的岗岔行政村（佐盖曼玛乡）", "image": "", "rank": 36, "time": 1.5, "location": {"lat": 34.99648739663243, "lng": 103.06024952338473}, "feature": {"sight_features": "", "sight_content": ""}}, {"title": "西大寺", "address": "甘南藏族自治州临潭县城关镇", "image": "", "rank": 37, "time": 2.0, "location": {"lat": 34.6847644363048, "lng": 103.37345051984852}, "feature": {"sight_features": "", "sight_content": ""}}, {"title": "达尔宗湖", "address": "甘南州夏河县王格尔塘乡达宗村（距离夏河县城约17公里）", "image": "", "rank": 38, "time": 2.0, "location": {"lat": 35.24306364783084, "lng": 102.8353850629064}, "feature": {"sight_features": "", "sight_content": ""}}, {"title": "苏维埃政府遗址", "address": "甘南藏族自治州临潭县新城北街", "image": "", "rank": 39, "time": 1.0, "location": {"lat": 34.69863941152157, "lng": 103.36053329624235}, "feature": {"sight_features": "", "sight_content": ""}}, {"title": "藏王坟", "address": "甘南州卓尼县洮砚乡，下达勿村北1公里处", "image": "", "rank": 40, "time": 1.0, "location": {"lat": 34.808420538595946, "lng": 103.83339530523426}, "feature": {"sight_features": "", "sight_content": ""}}, {"title": "东蛙村", "address": "甘南藏族自治州迭部县扎尕那", "image": "", "rank": 41, "time": 2.5, "location": {"lat": 34.24412418599444, "lng": 103.19821407194743}, "feature": {"sight_features": "", "sight_content": ""}}, {"title": "俄界会议遗址", "address": "甘南藏族自治州迭部县达拉乡593乡道附近", "image": "", "rank": 42, "time": 1.0, "location": {"lat": 33.87313940548567, "lng": 103.34659856737485}, "feature": {"sight_features": "", "sight_content": ""}}, {"title": "翠峰山", "address": "甘南州舟曲县城以北", "image": "", "rank": 43, "time": 1.0, "location": {"lat": 33.790814973644174, "lng": 104.37748996238638}, "feature": {"sight_features": "", "sight_content": ""}}, {"title": "合作寺", "address": "甘肃省甘南合作市东约1公里", "image": "", "rank": 44, "time": 2, "location": {"lat": 35.00593542819599, "lng": 102.91757157299759}, "feature": {"sight_features": "", "sight_content": ""}}, {"title": "泉滩遗址", "address": "甘南州临潭县冶力关乡", "image": "", "rank": 45, "time": 1.0, "location": {"lat": 34.96835760985158, "lng": 103.66838636739494}, "feature": {"sight_features": "", "sight_content": ""}}, {"title": "沙滩森林公园", "address": "甘南州舟曲县武坪乡", "image": "", "rank": 46, "time": 1.0, "location": {"lat": 33.62647311455654, "lng": 104.34780752650505}, "feature": {"sight_features": "", "sight_content": ""}}, {"title": "西仓寺", "address": "甘南州碌曲县县城东十公里处", "image": "", "rank": 47, "time": 1.0, "location": {"lat": 34.59708727156553, "lng": 102.49442413370862}, "feature": {"sight_features": "", "sight_content": ""}}, {"title": "白石崖", "address": "甘南州夏河县甘加乡境内，夏河县城北30公里。", "image": "", "rank": 48, "time": 0.75, "location": {"lat": 35.40585619516133, "lng": 102.5251361615519}, "feature": {"sight_features": "", "sight_content": ""}}, {"title": "白石崖洞", "address": "甘南州夏河县甘加乡境内，白石崖上", "image": "", "rank": 49, "time": 0.75, "location": {"lat": 35.40585619516133, "lng": 102.5251361615519}, "feature": {"sight_features": "", "sight_content": ""}}, {"title": "德尔隆寺", "address": "甘肃省夏河县王格尔塘乡洒索玛村S312省道旁", "image": "", "rank": 50, "time": 1.0, "location": {"lat": 35.22236397388688, "lng": 102.81041676546}, "feature": {"sight_features": "", "sight_content": ""}}, {"title": "美仁大草原", "address": "甘南州合作市东", "image": "", "rank": 51, "time": 0.75, "location": {"lat": 35.00593542819599, "lng": 102.91757157299759}, "feature": {"sight_features": "", "sight_content": ""}}, {"title": "佐海黑教寺", "address": "甘南州夏河县甘加乡境内", "image": "", "rank": 52, "time": 0.75, "location": {"lat": 35.40585619516133, "lng": 102.5251361615519}, "feature": {"sight_features": "", "sight_content": ""}}, {"title": "阿万仓", "address": "甘南州玛曲县境内黄河的臂弯里，草原距离玛曲县城50公里", "image": "", "rank": 53, "time": 0.4, "location": {"lat": 33.96850615067505, "lng": 102.12486062527627}, "feature": {"sight_features": "", "sight_content": ""}}, {"title": "合作森林公园", "address": "甘南州合作市南郊约2公里处", "image": "", "rank": 54, "time": 3.0, "location": {"lat": 35.00593542819599, "lng": 102.91757157299759}, "feature": {"sight_features": "", "sight_content": ""}}, {"title": "察干尼玛外香寺", "address": "甘南藏族自治州玛曲县城正北方3千米处", "image": "", "rank": 55, "time": 1.0, "location": {"lat": 34.003358168342224, "lng": 102.07860004025919}, "feature": {"sight_features": "", "sight_content": ""}}, {"title": "尼巴村", "address": "甘南藏族自治州卓尼县尼巴乡尼巴村", "image": "", "rank": 56, "time": 1.0, "location": {"lat": 34.46298114012978, "lng": 103.08906215609159}, "feature": {"sight_features": "", "sight_content": ""}}, {"title": "红教寺", "address": "甘南藏族自治州夏河县城西拉卜楞寺西侧", "image": "", "rank": 57, "time": 0.4, "location": {"lat": 35.19841412629267, "lng": 102.51695681230714}, "feature": {"sight_features": "", "sight_content": ""}}, {"title": "拉尕山", "address": "甘南州舟曲县立节乡东南部的白龙江南岸", "image": "", "rank": 58, "time": 2.5, "location": {"lat": 33.901548861503244, "lng": 104.07605200528747}, "feature": {"sight_features": "", "sight_content": ""}}, {"title": "杨土司革命纪念馆", "address": "甘南壮族自治州州卓尼县城内中医医院旁边的小巷内", "image": "", "rank": 59, "time": 1.0, "location": {"lat": 34.59491643280379, "lng": 103.51361578396147}, "feature": {"sight_features": "", "sight_content": ""}}, {"title": "骨麻湖", "address": "甘南州迭部县桑坝乡黑拉村西北部的半山腰处", "image": "", "rank": 60, "time": 0.75, "location": {"lat": 34.04425091132576, "lng": 103.80033761485689}, "feature": {"sight_features": "", "sight_content": ""}}]}