{"cityName": "甘泉", "days": 2, "cityImage": "", "spots": [{"title": "雨岔大峡谷", "address": "延安市甘泉县下寺湾镇张家沟", "image": "", "rank": 1, "time": 2.5, "location": {"lat": 36.4694387363979, "lng": 109.07910380867415}, "feature": {"sight_features": "", "sight_content": ""}}, {"title": "劳山森林公园", "address": "延安市甘泉县东沟乡直罗沟", "image": "", "rank": 2, "time": 4.5, "location": {"lat": 36.206397561653546, "lng": 109.23864554419664}, "feature": {"sight_features": "特色1 号称“天然氧吧”", "sight_content": "劳山森林公园地处甘泉县南东沟乡直罗沟，占地面积达29000亩。园内自然资源和人文景观丰富，动植物种类繁多，生长着600余种植物，栖息着60余种动物，森林覆盖率达89%，堪称黄土高原上的“植物王国”，号称“天然氧吧”。\n劳山森林公园，位于甘泉县城南30公里东沟乡村直罗沟内，总面积52万亩，森林覆盖率高达85%以上，陕北黄土高原保护最完好的一个天然次生林植物群落。\n现先期开辟出核心公园2.9万亩，主沟纵深达30余公里。公园以森林资源为主体，以自然景观及人文景观为依托，是集森林旅游观光、娱乐休闲为一体的国家级森林公园，其面积之大，森林植被之好，自然景观之秀，堪称陕北第一。公园距210国道15公里，距延安仅60公里。"}}, {"title": "火车站广场", "address": "太皇路西50米", "image": "", "rank": 3, "time": 2, "location": {"lat": 33.6082200535484, "lng": 119.05106244572494}, "feature": {"sight_features": "", "sight_content": ""}}, {"title": "劳山垂钓休闲山庄", "address": "210国道附近", "image": "", "rank": 4, "time": 2, "location": {"lat": 30.75468488618663, "lng": 107.2576735785458}, "feature": {"sight_features": "", "sight_content": ""}}, {"title": "延安周恩来遇险处", "address": "陕西省甘泉县湫燕山沟 716100", "image": "", "rank": 5, "time": 2.5, "location": {"lat": 36.28268861905286, "lng": 109.35752350453788}, "feature": {"sight_features": "", "sight_content": ""}}, {"title": "甘泉县青少年活动中心图书阅览大...", "address": "中心街65", "image": "", "rank": 6, "time": 2, "location": {"lat": 32.20804454790021, "lng": 112.57776559780689}, "feature": {"sight_features": "", "sight_content": ""}}, {"title": "甘泉县图书馆", "address": "中心街44号", "image": "", "rank": 7, "time": 2, "location": {"lat": 40.66887108370553, "lng": 122.26240731249412}, "feature": {"sight_features": "", "sight_content": ""}}, {"title": "芦芋子沟", "address": "延安市-甘泉县", "image": "", "rank": 8, "time": 2, "location": {"lat": 36.28268861905286, "lng": 109.35752350453788}, "feature": {"sight_features": "", "sight_content": ""}}, {"title": "刑咀沟", "address": "延安市-甘泉县", "image": "", "rank": 9, "time": 2, "location": {"lat": 36.28268861905286, "lng": 109.35752350453788}, "feature": {"sight_features": "", "sight_content": ""}}, {"title": "龙嘴", "address": "陕西省延安市宜川县", "image": "", "rank": 10, "time": 2, "location": {"lat": 36.056397437854244, "lng": 110.17541306458482}, "feature": {"sight_features": "", "sight_content": ""}}]}