{"cityName": "甘孜县", "days": 2, "cityImage": "", "spots": [{"title": "甘孜寺", "address": "甘孜藏族自治州甘孜县城边的山坡上", "image": "", "rank": 1, "time": 2.5, "location": {"lat": 31.628956694034013, "lng": 99.99921035085072}, "feature": {"sight_features": "", "sight_content": ""}}, {"title": "德贡波", "address": "甘孜藏族自治州甘孜县", "image": "", "rank": 2, "time": 1.5, "location": {"lat": 31.628956694034013, "lng": 99.99921035085072}, "feature": {"sight_features": "", "sight_content": ""}}, {"title": "白塔公园", "address": "甘孜州甘孜县城南侧，距离县城约有3公里。", "image": "", "rank": 3, "time": 0.5, "location": {"lat": 31.628956694034013, "lng": 99.99921035085072}, "feature": {"sight_features": "", "sight_content": ""}}, {"title": "扎曲河", "address": "甘孜州甘孜县城西北部扎科乡境内", "image": "", "rank": 4, "time": 3.0, "location": {"lat": 31.900568216369102, "lng": 99.65196064348956}, "feature": {"sight_features": "", "sight_content": ""}}, {"title": "朱德总司令和五世格活佛纪念馆", "address": "川藏路476号", "image": "", "rank": 5, "time": 2, "location": {"lat": 30.604922271580527, "lng": 103.98985968143563}, "feature": {"sight_features": "", "sight_content": ""}}, {"title": "扎日拥康神山", "address": "甘孜州甘孜县城以西36公里处来马乡境内的一条山沟中，就在川藏公路G317北侧", "image": "", "rank": 6, "time": 2, "location": {"lat": 30.046707152271708, "lng": 101.9662813091246}, "feature": {"sight_features": "", "sight_content": ""}}, {"title": "奶龙神山", "address": "甘孜藏族自治州甘孜县东北部的东谷区四通达乡境内", "image": "", "rank": 7, "time": 2, "location": {"lat": 31.761052230716132, "lng": 100.21688538218}, "feature": {"sight_features": "", "sight_content": ""}}, {"title": "大金寺", "address": "甘孜藏族自治州甘孜县", "image": "", "rank": 8, "time": 1.5, "location": {"lat": 31.628956694034013, "lng": 99.99921035085072}, "feature": {"sight_features": "", "sight_content": ""}}, {"title": "东谷寺", "address": "甘孜藏族自治州甘孜县", "image": "", "rank": 9, "time": 1.5, "location": {"lat": 31.628956694034013, "lng": 99.99921035085072}, "feature": {"sight_features": "", "sight_content": ""}}, {"title": "菩提庄园", "address": "317国道旁", "image": "", "rank": 10, "time": 2, "location": {"lat": 31.408980835514807, "lng": 103.11125800875102}, "feature": {"sight_features": "", "sight_content": ""}}, {"title": "白利寺", "address": "甘孜州甘孜县城西10公里的生康乡境内", "image": "", "rank": 11, "time": 2, "location": {"lat": 31.629096816880043, "lng": 99.8852586170787}, "feature": {"sight_features": "", "sight_content": ""}}, {"title": "孔玛寺", "address": "甘孜州甘孜县斯俄乡斯俄八村", "image": "", "rank": 12, "time": 2, "location": {"lat": 31.65344077216937, "lng": 100.06842771797217}, "feature": {"sight_features": "", "sight_content": ""}}, {"title": "十八军窑洞群", "address": "甘孜州甘孜县斯俄乡布绒朗山上，背靠着布绒朗山，夹在317国道与甘孜县城之间。", "image": "", "rank": 13, "time": 2, "location": {"lat": 31.62386438756842, "lng": 99.90317161047345}, "feature": {"sight_features": "", "sight_content": ""}}, {"title": "孜苏寺", "address": "甘孜州甘孜县拖坝乡境内", "image": "", "rank": 14, "time": 2, "location": {"lat": 31.626915937742346, "lng": 100.10435582233544}, "feature": {"sight_features": "", "sight_content": ""}}, {"title": "达通玛草原", "address": "甘孜州甘孜县城西的西北部，距离县城约100公里。", "image": "", "rank": 15, "time": 2, "location": {"lat": 31.628956694034013, "lng": 99.99921035085072}, "feature": {"sight_features": "", "sight_content": ""}}, {"title": "吉里龙石棺葬墓群", "address": "甘孜州甘孜县仁果乡境内，距离县城约20公里。", "image": "", "rank": 16, "time": 2, "location": {"lat": 31.679932815600964, "lng": 99.78400290457085}, "feature": {"sight_features": "", "sight_content": ""}}, {"title": "千米石刻经墙", "address": "甘孜州达通玛区西北部的大德乡境内，离县城120公里。", "image": "", "rank": 17, "time": 2, "location": {"lat": 32.37434092456862, "lng": 99.59617754396479}, "feature": {"sight_features": "", "sight_content": ""}}, {"title": "甘孜古镇", "address": "在甘孜寺脚下，与甘孜新城隔空相望。", "image": "", "rank": 18, "time": 2, "location": {"lat": 31.638453114635983, "lng": 99.99283049438999}, "feature": {"sight_features": "", "sight_content": ""}}, {"title": "甘孜县图书馆", "address": "清河街92号", "image": "", "rank": 19, "time": 1.5, "location": {"lat": 38.85486562979918, "lng": 115.51529669367231}, "feature": {"sight_features": "", "sight_content": ""}}, {"title": "卓德温泉", "address": "317国道", "image": "", "rank": 20, "time": 2, "location": {"lat": 31.408980835514807, "lng": 103.11125800875102}, "feature": {"sight_features": "", "sight_content": ""}}]}