{"cityName": "高碑店", "days": 2, "cityImage": "", "spots": [{"title": "百国极乐寺", "address": "保定市高碑店市北城街道北大街188号", "image": "", "rank": 1, "time": 0.25, "location": {"lat": 39.36287045358322, "lng": 115.8932872644836}, "feature": {"sight_features": "", "sight_content": ""}}, {"title": "白沟公园", "address": "保定市高碑店市友谊路20号", "image": "", "rank": 2, "time": 1.0, "location": {"lat": 39.12420960760007, "lng": 116.02916349617642}, "feature": {"sight_features": "", "sight_content": ""}}, {"title": "冀康现代休闲农庄", "address": "高碑店市肖官营镇政府北行600米京白路西侧", "image": "", "rank": 3, "time": 2, "location": {"lat": 39.41684310479965, "lng": 116.07429518425234}, "feature": {"sight_features": "特色1 园区集吃、住、行、游、娱、购、学、奇、种、养10大要素为一体。 特色2 建设有星空酒店度假区、科技长廊景区、以色列温室主题馆景区，另有花海景区、百果园景区、航天科技作物大田种植景区。", "sight_content": "冀康现代休闲农庄,是京南第一个“农业+旅游+电商”模式的现代农业园区。园区集吃、住、行、游、娱、购、学、奇、种、养10大要素为一体，建设有星空酒店度假区、科技长廊景区、以色列温室主题馆景区，另有花海景区、百果园景区、航天科技作物大田种植景区、冀康无公害果蔬采摘乐园、冀康户外拓展基地、休闲体育场、家庭农场康养小镇等10大分子景区。农庄按照国家4A景景区进行打造，配套建设有游客集散中心、中能昊龙•冀康生态酒店、大型生态停车场、3A旅游厕所等设施。"}}, {"title": "诚天水上乐园", "address": "保定市高碑店市112线亚威桥西行800米路北", "image": "", "rank": 4, "time": 2, "location": {"lat": 39.31814055919547, "lng": 115.8832154568176}, "feature": {"sight_features": "特色1 专门的游泳训练，国标泳池知名教练。 特色2 引进先进的水循环处理系统。", "sight_content": "‍‍诚天水上乐园位于保定 高碑店，占地共计三亩，设施齐全，环境优美，还有专门的游泳训练，国标泳池知名教练，而戏水区各类彩虹滑梯和儿童滑梯尽情欢乐，也是保定最具人气的水上乐园。\n园内水处理系统引进先进的水循环处理系统，不仅能够使水质完全符合国家质检部门的要求，更能在不刺激眼睛和皮肤的情况下，使园内用水变的更纯净，更安全。"}}, {"title": "开善寺", "address": "保定市高碑店市旧城址东北隅", "image": "", "rank": 5, "time": 2.5, "location": {"lat": 39.33233544746168, "lng": 115.88056905507335}, "feature": {"sight_features": "", "sight_content": ""}}, {"title": "京南体育小镇悦动世界景区", "address": "河北省保定市高碑店市京南体育小镇", "image": "", "rank": 6, "time": 2, "location": {"lat": 39.33233544746168, "lng": 115.88056905507335}, "feature": {"sight_features": "", "sight_content": ""}}, {"title": "华哲院葡萄采摘园(柳京南园)", "address": "辛桥乡柳庄子村", "image": "", "rank": 7, "time": 2, "location": {"lat": 38.31156806931614, "lng": 116.85296500690326}, "feature": {"sight_features": "", "sight_content": ""}}, {"title": "旺角欢乐世界", "address": "亚威路68号(近亚威面粉厂)", "image": "", "rank": 8, "time": 2, "location": {"lat": 39.330600772426806, "lng": 115.86611352280677}, "feature": {"sight_features": "", "sight_content": ""}}, {"title": "华典生态园", "address": "112国道附近", "image": "", "rank": 9, "time": 2, "location": {"lat": 39.26831909597096, "lng": 117.3328898504419}, "feature": {"sight_features": "", "sight_content": ""}}, {"title": "紫云画廊", "address": "白沟镇航天医院西行50米右转街道直行200米路西", "image": "", "rank": 10, "time": 2, "location": {"lat": 30.55368108041606, "lng": 104.26886728591666}, "feature": {"sight_features": "", "sight_content": ""}}, {"title": "乐岛田园动漫水世界", "address": "龚辛庄村", "image": "", "rank": 11, "time": 2, "location": {"lat": 39.37072459097739, "lng": 115.89281749651546}, "feature": {"sight_features": "", "sight_content": ""}}, {"title": "欢乐谷", "address": "保定市高碑店市", "image": "", "rank": 12, "time": 4.5, "location": {"lat": 39.33233544746168, "lng": 115.88056905507335}, "feature": {"sight_features": "", "sight_content": ""}}, {"title": "英林剧场", "address": "河北省保定市高碑店市富民路", "image": "", "rank": 13, "time": 2, "location": {"lat": 39.141693972265784, "lng": 116.04179243647664}, "feature": {"sight_features": "", "sight_content": ""}}, {"title": "高碑店市世纪广场", "address": "河北省保定市高碑店市迎宾路与幸福南路交叉口", "image": "", "rank": 14, "time": 2.5, "location": {"lat": 39.33203979929423, "lng": 115.8817042266785}, "feature": {"sight_features": "", "sight_content": ""}}, {"title": "白沟英林二人转剧场", "address": "白沟富民路与五一路交叉口", "image": "", "rank": 15, "time": 2, "location": {"lat": 34.51589116114547, "lng": 113.75235392528111}, "feature": {"sight_features": "", "sight_content": ""}}, {"title": "白沟", "address": "保定市高碑店市", "image": "", "rank": 16, "time": 2, "location": {"lat": 39.33233544746168, "lng": 115.88056905507335}, "feature": {"sight_features": "", "sight_content": ""}}, {"title": "威富乐儿童乐园", "address": "河北省保定市高碑店市富民路世纪金鼎购物中心1层", "image": "", "rank": 17, "time": 2, "location": {"lat": 39.11668101176356, "lng": 116.03883982663827}, "feature": {"sight_features": "", "sight_content": ""}}, {"title": "仁德寺", "address": "河北省保定市高碑店市东一环", "image": "", "rank": 18, "time": 2, "location": {"lat": 39.33233544746168, "lng": 115.88056905507335}, "feature": {"sight_features": "", "sight_content": ""}}, {"title": "生态水族馆", "address": "团结东路425号附近", "image": "", "rank": 19, "time": 2, "location": {"lat": 34.269242181586925, "lng": 108.90227673479977}, "feature": {"sight_features": "", "sight_content": ""}}, {"title": "麦悠悠亲子儿童乐园(金都店)", "address": "河北省保定市高碑店市兴文街55号(第三中学)", "image": "", "rank": 20, "time": 2, "location": {"lat": 39.32875791286015, "lng": 115.89926767951796}, "feature": {"sight_features": "", "sight_content": ""}}, {"title": "儿童乐园", "address": "团结东路1-27号附近", "image": "", "rank": 21, "time": 2, "location": {"lat": 39.326090575126834, "lng": 115.91319976646895}, "feature": {"sight_features": "", "sight_content": ""}}, {"title": "中国高碑店市毛泽东纪念馆", "address": "河北省保定市高碑店市京广北大街140附近", "image": "", "rank": 22, "time": 2, "location": {"lat": 39.34814099312164, "lng": 115.87897958273568}, "feature": {"sight_features": "", "sight_content": ""}}, {"title": "高碑店市规划馆", "address": "和平路与新昌北大街交叉口东南100米", "image": "", "rank": 23, "time": 2, "location": {"lat": 39.33837591374112, "lng": 115.88893587259327}, "feature": {"sight_features": "", "sight_content": ""}}, {"title": "宜佳旺阳光商厦-儿童乐园", "address": "河北省保定市高碑店市迎宾路193号宜家旺阳光商厦2层", "image": "", "rank": 24, "time": 2, "location": {"lat": 39.332204008835774, "lng": 115.89266204384866}, "feature": {"sight_features": "", "sight_content": ""}}, {"title": "天奕商厦-游乐园", "address": "天奕商厦", "image": "", "rank": 25, "time": 2, "location": {"lat": 39.83266988405428, "lng": 118.12506242301006}, "feature": {"sight_features": "", "sight_content": ""}}, {"title": "蓝鲸儿童乐园", "address": "五一路185号", "image": "", "rank": 26, "time": 2, "location": {"lat": 39.135811526340596, "lng": 116.0547976482092}, "feature": {"sight_features": "", "sight_content": ""}}, {"title": "世纪广场", "address": "东大街高碑店一中", "image": "", "rank": 27, "time": 2.5, "location": {"lat": 39.333692556036056, "lng": 115.88325398514093}, "feature": {"sight_features": "", "sight_content": ""}}, {"title": "智趣乐园高碑店旗舰店", "address": "河北省保定市高碑店市世纪大道与五一南大街交叉口西北角(德庄火锅)", "image": "", "rank": 28, "time": 2, "location": {"lat": 39.31963643528902, "lng": 115.89098125315473}, "feature": {"sight_features": "", "sight_content": ""}}, {"title": "华贸广场", "address": "河北省保定市高碑店市世纪西路55", "image": "", "rank": 29, "time": 2, "location": {"lat": 39.3193220084315, "lng": 115.90556568507552}, "feature": {"sight_features": "", "sight_content": ""}}, {"title": "高碑店开善寺", "address": "河北省保定市高碑店市迎宾路16号", "image": "", "rank": 30, "time": 2, "location": {"lat": 39.33272864560072, "lng": 115.87913176625739}, "feature": {"sight_features": "", "sight_content": ""}}, {"title": "兴煜泉洗浴汗蒸会所", "address": "保定市高碑店市迎宾路228号东环岛西侧50米路北", "image": "", "rank": 31, "time": 2, "location": {"lat": 39.33195285153302, "lng": 115.90926901781162}, "feature": {"sight_features": "", "sight_content": "兴煜泉洗浴汗蒸会所成立于2018年，地理位置交通方便，营业面积2500平米，是一家以负离子汗蒸、VR动感娱乐、保健养生、足疗棋牌室为主的中式养生会馆，室内装潢将古色古香的装饰与文化复古风格相融合、带给您温馨并舒适的消费体验。"}}, {"title": "东方书画社", "address": "兴华南街", "image": "", "rank": 32, "time": 1.5, "location": {"lat": 46.192327853612504, "lng": 123.35910816689045}, "feature": {"sight_features": "", "sight_content": ""}}, {"title": "尚彤书画装饰艺术馆", "address": "五一路", "image": "", "rank": 33, "time": 2, "location": {"lat": 39.136777843528634, "lng": 116.05177708605055}, "feature": {"sight_features": "", "sight_content": ""}}, {"title": "步行街游乐场", "address": "广场步行街金世纪家具城西门", "image": "", "rank": 34, "time": 2, "location": {"lat": 39.329886350533265, "lng": 115.88437876874116}, "feature": {"sight_features": "", "sight_content": ""}}, {"title": "天艺阁画廊", "address": "白沟新城富强中路340号", "image": "", "rank": 35, "time": 2, "location": {"lat": 39.11999469464512, "lng": 116.03145076166592}, "feature": {"sight_features": "", "sight_content": ""}}, {"title": "欢乐水世界", "address": "白沟镇京白路国际小商品城对过路南", "image": "", "rank": 36, "time": 3.5, "location": {"lat": 39.6129869967351, "lng": 118.20604028639353}, "feature": {"sight_features": "", "sight_content": ""}}, {"title": "植物公园", "address": "世纪大道北面", "image": "", "rank": 37, "time": null, "location": {"lat": 31.233682586336403, "lng": 121.52405636242052}, "feature": {"sight_features": "", "sight_content": ""}}, {"title": "溪树水上嘉年华", "address": "新昌北大街与迎宾路交叉口向北200米路东(隆基泰和未来城市体验空间内)", "image": "", "rank": 38, "time": 2, "location": {"lat": 26.795697341164775, "lng": 114.91559111543528}, "feature": {"sight_features": "", "sight_content": ""}}, {"title": "七彩东方画廊", "address": "燕赵大街163号", "image": "", "rank": 39, "time": 2, "location": {"lat": 39.327641333144776, "lng": 115.8697390766586}, "feature": {"sight_features": "", "sight_content": ""}}, {"title": "雪世界冰雪嘉年华", "address": "白沟镇亲大桥南行1公里", "image": "", "rank": 40, "time": 2, "location": {"lat": 31.290644553892204, "lng": 121.62362402502758}, "feature": {"sight_features": "", "sight_content": ""}}, {"title": "小海豚水上乐园", "address": "迎宾路乐平胡同内", "image": "", "rank": 41, "time": 2, "location": {"lat": 39.335096378294985, "lng": 115.89714684488689}, "feature": {"sight_features": "", "sight_content": ""}}, {"title": "悦泉斋画廊", "address": "政府大街东50米", "image": "", "rank": 42, "time": 2, "location": {"lat": 37.14731494551887, "lng": 117.32524214085561}, "feature": {"sight_features": "", "sight_content": ""}}, {"title": "高碑店市图书馆", "address": "文苑路与文教胡同交汇北侧10米", "image": "", "rank": 43, "time": 1.5, "location": {"lat": 39.32771294096093, "lng": 115.88342778210455}, "feature": {"sight_features": "", "sight_content": ""}}, {"title": "蒙古大营骑士俱乐部", "address": "G112栗各庄顺新街", "image": "", "rank": 44, "time": 2, "location": {"lat": 39.36685520235072, "lng": 115.832044657527}, "feature": {"sight_features": "", "sight_content": ""}}, {"title": "幸福营滑雪场", "address": "老112线幸福营村内(长城汽车东厂)", "image": "", "rank": 45, "time": 2, "location": {"lat": 40.36115240751151, "lng": 116.80046449267813}, "feature": {"sight_features": "", "sight_content": ""}}, {"title": "海拓安防技术有限公司", "address": "燕赵大街85号", "image": "", "rank": 46, "time": 2, "location": {"lat": 39.32978648890599, "lng": 115.86953452710415}, "feature": {"sight_features": "", "sight_content": ""}}, {"title": "苗圃樱桃采摘", "address": "北大街335号附近", "image": "", "rank": 47, "time": 2, "location": {"lat": 38.06735703003586, "lng": 117.23774276362234}, "feature": {"sight_features": "", "sight_content": ""}}, {"title": "旺角欢乐谷", "address": "亚威路68号(新海一汽大众4S店)", "image": "", "rank": 48, "time": 2, "location": {"lat": 23.033212913013738, "lng": 113.10092920919504}, "feature": {"sight_features": "", "sight_content": ""}}, {"title": "保定·白沟风情街", "address": "河北省高碑店市兴隆大街白沟国际箱包城附近", "image": "", "rank": 49, "time": 7.5, "location": {"lat": 39.122117949482885, "lng": 116.03741858694856}, "feature": {"sight_features": "", "sight_content": ""}}, {"title": "外城家居城泳奥游泳馆", "address": "保定市-高碑店市-河北保定白沟城外城家居城泳奥游泳馆", "image": "", "rank": 50, "time": 2, "location": {"lat": 39.11512536710749, "lng": 116.04845465012185}, "feature": {"sight_features": "", "sight_content": ""}}, {"title": "宜博电竞馆(鼎盛店)", "address": "保定市-高碑店市-津保路222附近", "image": "", "rank": 51, "time": 2, "location": {"lat": 39.114765777530536, "lng": 116.03942957678184}, "feature": {"sight_features": "", "sight_content": ""}}, {"title": "未来城市体验空间", "address": "保定市-高碑店市-东盛街道朝阳街隆基泰和西250米", "image": "", "rank": 52, "time": 2, "location": {"lat": 39.335519514344846, "lng": 115.90993850155226}, "feature": {"sight_features": "", "sight_content": ""}}]}