{"cityName": "高平", "days": null, "cityImage": "", "spots": [{"title": "丹朱岭工业旅游景区", "address": "山西省高平市寺庄镇釜山工业园区", "image": "", "rank": 1, "time": 1.5, "location": {"lat": 35.91595906199675, "lng": 112.83970724990428}, "feature": {"sight_features": "特色1 被称为“小长春”", "sight_content": "丹朱岭景区位于高平市寺庄镇釜山村西北部，傍临釜山水库，三面环山，森林茂密，可利用土地一千余亩。该景区东临花果山，西眺发鸠山，南拥泫水河，周边环境意浓，酷夏庇荫不胜凉，这里惬意的美景曾被全国政协常委、中华民族文化促进会主席高占祥同志称为“小长春”。用一句话来形容，可谓是：半面矿山半面水，一片矿山一片诗。当人们离开了城市的喧嚣，结束了整天的忙碌后，无论是驱车还是徒步旅行于此，都可以感受到一种难得的惬意和清新。\n滨湖公园是在原来的釜山水库基础上改建而成的，它充分利用釜山水库这一水文自然景观资源，形成了一个集水上娱乐、游览观光、休闲、垂钓于一体的现代化多功能水上游乐场所，这在高平市仅此一家。滨湖公园北沿釜山园区“一衣带水”，新雅别致的农家小院点缀湖畔，周围山势苍茫、林木蓊郁，湖面寒暑易节、七色辉映、是镶嵌在釜山园区的一颗耀眼的明珠。\n釜山工业园是原145造币厂的旧址，145造币厂在20世纪80年代初迁至石家庄，在釜山宾馆对面有一个音乐喷泉，喷泉中有两个孩子，一个男孩和一个女孩手捧一条大鱼，两个孩子象征着未来和希望，也暗喻着爱情、幸福和美好，而中间的那条大鱼则代表着年年有余，象征着财富和吉祥，这个塑像是由原145造币厂为陶冶职工情操修建的，我们把它保留下来，希望可以为我们带来财富和吉祥。\n业园内保留有原造币厂的主工房，也就是印钱的地方，附近有存钱的山洞，我们可以想象，在这里造钱、存钱应该是非常的安全。因为这里本身的环境就非常隐秘，加上这森严壁垒的山洞，真是连鸟儿也有翅难进。常言到“远看一片林，近看小山村。听得机声响，不见做工人。”就是对原145厂的神秘描绘。现在它的外型还保持原来的样子，只不过根据我们的生产需要，里面已经焕然一新。"}}, {"title": "长平之战大粮山景区", "address": "晋城市高平市米西村", "image": "", "rank": 2, "time": 2, "location": {"lat": 35.77041605984001, "lng": 112.98117767017743}, "feature": {"sight_features": "", "sight_content": ""}}, {"title": "魁星乐园", "address": "羊团线", "image": "", "rank": 3, "time": 2, "location": {"lat": 35.899328944836356, "lng": 112.97374764516874}, "feature": {"sight_features": "", "sight_content": ""}}, {"title": "原村", "address": "原村乡(近二阶路)", "image": "", "rank": 4, "time": 2, "location": {"lat": 35.769046722394755, "lng": 112.82247118181301}, "feature": {"sight_features": "", "sight_content": ""}}, {"title": "高平海豚儿童阅读体验馆", "address": "南城街道康乐西街安平巷2号", "image": "", "rank": 5, "time": 2, "location": {"lat": 35.791405458186816, "lng": 112.93071378791639}, "feature": {"sight_features": "", "sight_content": ""}}, {"title": "东沟快乐垂钓园", "address": "东沟村", "image": "", "rank": 6, "time": 2, "location": {"lat": 40.35762707796421, "lng": 115.9908569025008}, "feature": {"sight_features": "", "sight_content": ""}}, {"title": "雨丰种植专业合作社", "address": "建董线北诗镇化壁村内", "image": "", "rank": 7, "time": 2, "location": {"lat": 35.80097981183732, "lng": 113.09957821258081}, "feature": {"sight_features": "", "sight_content": ""}}, {"title": "米山湿地公园", "address": "米双线附近", "image": "", "rank": 8, "time": 2, "location": {"lat": 35.76797266728823, "lng": 113.05007613435131}, "feature": {"sight_features": "", "sight_content": ""}}, {"title": "紫峰广场", "address": "石河线与米双线交汇处西北角", "image": "", "rank": 9, "time": 2, "location": {"lat": 35.70062640125582, "lng": 113.0302146803732}, "feature": {"sight_features": "", "sight_content": ""}}, {"title": "吉祥寺", "address": "晋城市高平市", "image": "", "rank": 10, "time": 2, "location": {"lat": 35.80433679857751, "lng": 112.93041239923134}, "feature": {"sight_features": "", "sight_content": ""}}, {"title": "永兴时代广场-开心哈乐儿童乐园", "address": "建设南路158号（永兴时代购物广场一楼）", "image": "", "rank": 11, "time": 3.0, "location": {"lat": 26.132968478532568, "lng": 113.1225331638553}, "feature": {"sight_features": "", "sight_content": ""}}, {"title": "西珏山菩提禅寺", "address": "山西省晋城市高平市柿庄镇", "image": "", "rank": 12, "time": 2, "location": {"lat": 35.90689347586749, "lng": 112.72521716343677}, "feature": {"sight_features": "", "sight_content": ""}}, {"title": "开心儿童乐园", "address": "长平西街22号", "image": "", "rank": 13, "time": 2, "location": {"lat": 35.80453655780348, "lng": 112.93404835096946}, "feature": {"sight_features": "", "sight_content": ""}}, {"title": "三甲镇烈士陵园", "address": "圪旦村附近", "image": "", "rank": 14, "time": 2, "location": {"lat": 35.851259915217256, "lng": 112.97275208551103}, "feature": {"sight_features": "", "sight_content": ""}}, {"title": "陈区文化广场", "address": "山西省晋城市高平市", "image": "", "rank": 15, "time": 2, "location": {"lat": 35.80433679857751, "lng": 112.93041239923134}, "feature": {"sight_features": "", "sight_content": ""}}, {"title": "雪海娱乐园", "address": "207国道", "image": "", "rank": 16, "time": 2, "location": {"lat": 38.67484937592033, "lng": 114.04837902844483}, "feature": {"sight_features": "", "sight_content": ""}}, {"title": "颠九宫真人密室逃脱", "address": "太洛路龙渠加油站北200米(新新幼儿园东南角150米)", "image": "", "rank": 17, "time": 2, "location": {"lat": 40.54130379806712, "lng": 117.13439495417501}, "feature": {"sight_features": "", "sight_content": ""}}, {"title": "果则沟水上乐园", "address": "东城办果则沟村", "image": "", "rank": 18, "time": 2, "location": {"lat": 39.93482727239599, "lng": 116.4224009776628}, "feature": {"sight_features": "", "sight_content": ""}}, {"title": "冰雪王国·主题乐园", "address": "七佛山森林公园", "image": "", "rank": 19, "time": 2, "location": {"lat": 35.80431457053557, "lng": 112.97877562998951}, "feature": {"sight_features": "", "sight_content": ""}}, {"title": "高平市图书馆", "address": "东城街道神龙路", "image": "", "rank": 20, "time": 1.5, "location": {"lat": 35.25428882414588, "lng": 115.48813269591534}, "feature": {"sight_features": "", "sight_content": ""}}, {"title": "黄河少儿艺术团", "address": "康乐西街", "image": "", "rank": 21, "time": 2, "location": {"lat": 35.791405458186816, "lng": 112.93071378791639}, "feature": {"sight_features": "", "sight_content": ""}}, {"title": "高平市文工团", "address": "泫氏东街57号附近", "image": "", "rank": 22, "time": 2, "location": {"lat": 35.79639217473841, "lng": 112.94323053704484}, "feature": {"sight_features": "", "sight_content": ""}}, {"title": "游仙寺", "address": "山西省高平市游仙山麓", "image": "", "rank": 23, "time": 2, "location": {"lat": 35.80433679857751, "lng": 112.93041239923134}, "feature": {"sight_features": "", "sight_content": ""}}, {"title": "高平圣姑庙", "address": "山西省高平市原村乡上董峰村", "image": "", "rank": 24, "time": 2, "location": {"lat": 35.769046722394755, "lng": 112.82247118181301}, "feature": {"sight_features": "", "sight_content": ""}}, {"title": "五龙泉", "address": "山西省平定县娘子关镇", "image": "", "rank": 25, "time": 2, "location": {"lat": 37.967044756080504, "lng": 113.81197677960655}, "feature": {"sight_features": "", "sight_content": ""}}, {"title": "高平资圣寺", "address": "山西省高平市马村镇大周村", "image": "", "rank": 26, "time": 2, "location": {"lat": 35.69987026549803, "lng": 112.79703187494027}, "feature": {"sight_features": "", "sight_content": ""}}, {"title": "晋城金峰寺", "address": "山西省高平市境内", "image": "", "rank": 27, "time": 3.0, "location": {"lat": 35.80433679857751, "lng": 112.93041239923134}, "feature": {"sight_features": "", "sight_content": ""}}, {"title": "七佛山", "address": "晋城市高平市", "image": "", "rank": 28, "time": 2, "location": {"lat": 35.80433679857751, "lng": 112.93041239923134}, "feature": {"sight_features": "", "sight_content": ""}}, {"title": "高平仙翁庙", "address": "山西省高平市寺庄镇伯方村", "image": "", "rank": 29, "time": 2, "location": {"lat": 35.84950598271897, "lng": 112.86564931860825}, "feature": {"sight_features": "", "sight_content": ""}}, {"title": "崇明寺", "address": "山西省高平市圣佛山东麓", "image": "", "rank": 30, "time": 2, "location": {"lat": 35.80433679857751, "lng": 112.93041239923134}, "feature": {"sight_features": "", "sight_content": ""}}, {"title": "定林寺", "address": "山西省高平市七佛山南麓", "image": "", "rank": 31, "time": 1.0, "location": {"lat": 35.802988675189646, "lng": 112.98876440098911}, "feature": {"sight_features": "", "sight_content": ""}}, {"title": "高平羊头山炎帝文化旅游区", "address": "山西省高平市神农镇故关村", "image": "", "rank": 32, "time": 2, "location": {"lat": 35.91627856217657, "lng": 113.00797589320193}, "feature": {"sight_features": "", "sight_content": ""}}]}