{"cityName": "皋兰", "days": 2, "cityImage": "", "spots": [{"title": "什川梨园", "address": "兰州市皋兰县什川镇", "image": "", "rank": 1, "time": 1.0, "location": {"lat": 36.177985575947154, "lng": 104.07384848882066}, "feature": {"sight_features": "", "sight_content": ""}}, {"title": "东湖公园", "address": "兰州市皋兰县", "image": "", "rank": 2, "time": 2.5, "location": {"lat": 36.33814214867315, "lng": 103.95346415996974}, "feature": {"sight_features": "", "sight_content": ""}}, {"title": "皋兰县档案馆", "address": "兰泉路17号", "image": "", "rank": 3, "time": 2, "location": {"lat": 19.515564268018533, "lng": 109.59437422450117}, "feature": {"sight_features": "", "sight_content": ""}}, {"title": "葡萄苑生态休闲农庄", "address": "124县道葡萄苑生态农庄", "image": "", "rank": 4, "time": 2, "location": {"lat": 45.72067912919303, "lng": 118.85283818479043}, "feature": {"sight_features": "", "sight_content": ""}}, {"title": "千佛山", "address": "兰州市城关区", "image": "", "rank": 5, "time": 3.5, "location": {"lat": 36.0631814753695, "lng": 103.83147490052859}, "feature": {"sight_features": "", "sight_content": ""}}, {"title": "大明寺", "address": "甘肃省兰州市皋兰县什川镇盐什公路世界第一古梨园西北", "image": "", "rank": 6, "time": 1.5, "location": {"lat": 36.15607018386325, "lng": 104.00019102213976}, "feature": {"sight_features": "", "sight_content": ""}}, {"title": "营磐坪艺苑", "address": "梨花中路西50米", "image": "", "rank": 7, "time": 2, "location": {"lat": 24.865291467147113, "lng": 102.85104505998505}, "feature": {"sight_features": "", "sight_content": ""}}, {"title": "一方家园度假村", "address": "什川镇上车街552号", "image": "", "rank": 8, "time": 2, "location": {"lat": 36.16097801376137, "lng": 104.00894234046882}, "feature": {"sight_features": "", "sight_content": ""}}, {"title": "畅和园度假村", "address": "什川镇上车村下车街76号", "image": "", "rank": 9, "time": 2, "location": {"lat": 34.383590275914955, "lng": 119.34222257507726}, "feature": {"sight_features": "", "sight_content": ""}}, {"title": "宏泰港湾度假村", "address": "什川镇泥湾村滨河路", "image": "", "rank": 10, "time": 2, "location": {"lat": 36.1603037061013, "lng": 104.00318867660961}, "feature": {"sight_features": "", "sight_content": ""}}, {"title": "皋兰县什川镇阳光体育休闲中心", "address": "甘肃省兰州市皋兰县滨河路", "image": "", "rank": 11, "time": 2, "location": {"lat": 36.1603037061013, "lng": 104.00318867660961}, "feature": {"sight_features": "", "sight_content": ""}}, {"title": "名藩广场", "address": "甘肃省兰州市皋兰县育才路", "image": "", "rank": 12, "time": 2, "location": {"lat": 36.33595709424319, "lng": 103.95686328783303}, "feature": {"sight_features": "", "sight_content": ""}}, {"title": "什川印象", "address": "滨河路北50米", "image": "", "rank": 13, "time": 2, "location": {"lat": 22.535934361525495, "lng": 114.07505832799819}, "feature": {"sight_features": "", "sight_content": ""}}, {"title": "绿岛儿童游乐园", "address": "兰州城关区皋兰县四道观隧道", "image": "", "rank": 14, "time": null, "location": {"lat": 36.33814214867315, "lng": 103.95346415996974}, "feature": {"sight_features": "", "sight_content": ""}}, {"title": "水车园度假村", "address": "北庄村附近", "image": "", "rank": 15, "time": 2, "location": {"lat": 40.37359075243857, "lng": 116.3501402260329}, "feature": {"sight_features": "", "sight_content": ""}}, {"title": "碧海蓝天度假村", "address": "滨河路东50米", "image": "", "rank": 16, "time": 2, "location": {"lat": 31.860233915135026, "lng": 117.31188034315763}, "feature": {"sight_features": "", "sight_content": ""}}, {"title": "石洞寺文化广场", "address": "梨花南路与金城路交叉口东100米", "image": "", "rank": 17, "time": 2, "location": {"lat": 36.32800028365566, "lng": 103.96323371118758}, "feature": {"sight_features": "", "sight_content": ""}}, {"title": "晶梨园度假村", "address": "上车村附近", "image": "", "rank": 18, "time": 2, "location": {"lat": 34.39182844174126, "lng": 119.33768607655692}, "feature": {"sight_features": "", "sight_content": ""}}, {"title": "乡镇青年科技图书站", "address": "109国道", "image": "", "rank": 19, "time": 2, "location": {"lat": 39.790711104970946, "lng": 109.99633110015151}, "feature": {"sight_features": "", "sight_content": ""}}, {"title": "众鑫生态园", "address": "109国道", "image": "", "rank": 20, "time": 2, "location": {"lat": 39.790711104970946, "lng": 109.99633110015151}, "feature": {"sight_features": "", "sight_content": ""}}, {"title": "皋兰县图书馆(兰泉路店)", "address": "兰泉路4号", "image": "", "rank": 21, "time": 2, "location": {"lat": 19.515564268018533, "lng": 109.59437422450117}, "feature": {"sight_features": "", "sight_content": ""}}, {"title": "龙山国际滑雪场", "address": "什川镇龙山风景区", "image": "", "rank": 22, "time": 2, "location": {"lat": 36.377613723158824, "lng": 120.55340604546778}, "feature": {"sight_features": "", "sight_content": ""}}, {"title": "团庄剧场", "address": "团庄村附近X124", "image": "", "rank": 23, "time": 2, "location": {"lat": 33.13028985294436, "lng": 119.61269415721249}, "feature": {"sight_features": "", "sight_content": ""}}, {"title": "黑石文化剧场", "address": "黑石乡附近甘土公路", "image": "", "rank": 24, "time": 2, "location": {"lat": 36.518305557018, "lng": 103.89070665060112}, "feature": {"sight_features": "", "sight_content": ""}}, {"title": "西岔剧场", "address": "西岔镇附近X124", "image": "", "rank": 25, "time": 2, "location": {"lat": 36.529593589291, "lng": 103.77826422369611}, "feature": {"sight_features": "", "sight_content": ""}}, {"title": "丝绸古道", "address": "甘肃省兰州市城关区滨河路南段", "image": "", "rank": 26, "time": 1.0, "location": {"lat": 36.0631814753695, "lng": 103.83147490052859}, "feature": {"sight_features": "", "sight_content": ""}}, {"title": "兰州新区职教园区图书馆", "address": "兰州市-皋兰县-124县道东200米", "image": "", "rank": 27, "time": 1.0, "location": {"lat": 36.37388417931497, "lng": 103.91714162582655}, "feature": {"sight_features": "", "sight_content": ""}}]}