{"cityName": "高密", "days": 2, "cityImage": "", "spots": [{"title": "红高粱影视城", "address": "潍坊市高密市疏港物流园区沙口子村", "image": "", "rank": 1, "time": 1.5, "location": {"lat": 36.469695637678456, "lng": 119.96036781536753}, "feature": {"sight_features": "", "sight_content": ""}}, {"title": "凤凰公园", "address": "潍坊市高密市古城路", "image": "", "rank": 2, "time": 3.5, "location": {"lat": 36.37789893744246, "lng": 119.7500590886439}, "feature": {"sight_features": "", "sight_content": ""}}, {"title": "南湖植物园", "address": "高密市朝阳大街中段", "image": "", "rank": 3, "time": 2, "location": {"lat": 36.388956706464846, "lng": 119.76241099601636}, "feature": {"sight_features": "", "sight_content": ""}}, {"title": "莫言旧居", "address": "潍坊市高密市东北乡平安庄村西北方向", "image": "", "rank": 4, "time": 1.5, "location": {"lat": 36.3734374950795, "lng": 119.88349908704788}, "feature": {"sight_features": "", "sight_content": ""}}, {"title": "小康河", "address": "高密市境内", "image": "", "rank": 5, "time": 2, "location": {"lat": 36.388956706464846, "lng": 119.76241099601636}, "feature": {"sight_features": "", "sight_content": ""}}, {"title": "文体公园", "address": "高密市康成大街", "image": "", "rank": 6, "time": 2, "location": {"lat": 36.368589761467426, "lng": 119.77941592650669}, "feature": {"sight_features": "", "sight_content": ""}}, {"title": "白羊山风景区", "address": "白羊山景区‎ 山东省潍坊市高密市", "image": "", "rank": 7, "time": 2, "location": {"lat": 36.388956706464846, "lng": 119.76241099601636}, "feature": {"sight_features": "", "sight_content": ""}}, {"title": "柳河公园", "address": "山东潍坊高密柳河公园", "image": "", "rank": 8, "time": 3.0, "location": {"lat": 36.42595374205574, "lng": 119.71348195675306}, "feature": {"sight_features": "", "sight_content": ""}}, {"title": "银月公园", "address": "山东潍坊高密平安大道银月公园", "image": "", "rank": 9, "time": 2, "location": {"lat": 36.33094628992994, "lng": 119.80972001675009}, "feature": {"sight_features": "", "sight_content": ""}}, {"title": "高密山水户外旅行", "address": "利群路新贵领地", "image": "", "rank": 10, "time": 2.5, "location": {"lat": 36.390416484418836, "lng": 119.77362373522246}, "feature": {"sight_features": "", "sight_content": ""}}, {"title": "胶河明珠采摘园", "address": "柏城镇三真大道升恒庄南头", "image": "", "rank": 11, "time": 2, "location": {"lat": 36.33653298354529, "lng": 119.79107086917635}, "feature": {"sight_features": "", "sight_content": ""}}, {"title": "高密秀园", "address": "安泰路西赵家庄", "image": "", "rank": 12, "time": 0.5, "location": {"lat": 36.72246916682719, "lng": 116.83893468036341}, "feature": {"sight_features": "", "sight_content": ""}}, {"title": "高密葡萄宋园艺场", "address": "葡萄宋酒业有限公司附近", "image": "", "rank": 13, "time": 2.5, "location": {"lat": 36.35732522195997, "lng": 119.71614853174414}, "feature": {"sight_features": "", "sight_content": ""}}, {"title": "密水街道阳光园艺花木场", "address": "山东海悦庄园葡萄酒有限公司附近", "image": "", "rank": 14, "time": 2, "location": {"lat": 37.6561339472746, "lng": 116.80039482100108}, "feature": {"sight_features": "", "sight_content": ""}}, {"title": "高密市奇顺源葡萄种植专业合作社", "address": "阚家镇盛水屯村东", "image": "", "rank": 15, "time": 2.5, "location": {"lat": 36.40905985741711, "lng": 119.55461406624445}, "feature": {"sight_features": "", "sight_content": ""}}, {"title": "高密市基督教三自爱国运动委员会...", "address": "健康路527号附近", "image": "", "rank": 16, "time": 2.5, "location": {"lat": 36.42964352052601, "lng": 119.19758554523733}, "feature": {"sight_features": "", "sight_content": ""}}, {"title": "北胶新河湿地公园", "address": "潍坊市高密市", "image": "", "rank": 17, "time": 7.5, "location": {"lat": 36.388956706464846, "lng": 119.76241099601636}, "feature": {"sight_features": "", "sight_content": ""}}, {"title": "高密大剧院", "address": "人民大街西483", "image": "", "rank": 18, "time": 2.0, "location": {"lat": 36.38874174191102, "lng": 119.77584151049263}, "feature": {"sight_features": "", "sight_content": ""}}, {"title": "高密市红高粱少儿艺术团", "address": "昌安大道", "image": "", "rank": 19, "time": 2.5, "location": {"lat": 36.44308329630196, "lng": 119.75701875909095}, "feature": {"sight_features": "", "sight_content": ""}}, {"title": "旺乡园餐饮娱乐中心", "address": "夷安大道附近", "image": "", "rank": 20, "time": 2, "location": {"lat": 36.416325512704525, "lng": 119.78428493281153}, "feature": {"sight_features": "", "sight_content": ""}}, {"title": "高密市凤城艺术团", "address": "人民大街", "image": "", "rank": 21, "time": 2.5, "location": {"lat": 39.92619647066753, "lng": 122.57765015199226}, "feature": {"sight_features": "", "sight_content": ""}}, {"title": "高密民间艺术展厅", "address": "山东省高密市人民大街", "image": "", "rank": 22, "time": 2.5, "location": {"lat": 36.388616310422954, "lng": 119.77252398110865}, "feature": {"sight_features": "", "sight_content": ""}}, {"title": "凤都绿地烧烤", "address": "高密市密水街道利群路凤都国际大酒店旁", "image": "", "rank": 23, "time": 2, "location": {"lat": 36.36321170946985, "lng": 119.77176837681876}, "feature": {"sight_features": "", "sight_content": ""}}, {"title": "运动源运动休闲广场", "address": "人民大街168号附近", "image": "", "rank": 24, "time": 2, "location": {"lat": 38.98570649046719, "lng": 116.10919050227926}, "feature": {"sight_features": "", "sight_content": ""}}, {"title": "菲达广场", "address": "山东省潍坊市高密市高密市密水街道凤凰大街向阳中学西南150米", "image": "", "rank": 25, "time": 0.75, "location": {"lat": 36.37574087348839, "lng": 119.77277211105661}, "feature": {"sight_features": "", "sight_content": ""}}, {"title": "财神观音", "address": "山东省潍坊市高密市石庵路", "image": "", "rank": 26, "time": 2, "location": {"lat": 36.34855965947578, "lng": 119.73300486453702}, "feature": {"sight_features": "", "sight_content": ""}}, {"title": "佛光普照", "address": "山东省潍坊市高密市凤凰大街283号", "image": "", "rank": 27, "time": 2, "location": {"lat": 36.37817958391618, "lng": 119.75327091711343}, "feature": {"sight_features": "", "sight_content": ""}}, {"title": "城阴城遗址", "address": "山东省潍坊市高密市", "image": "", "rank": 28, "time": 2, "location": {"lat": 36.388956706464846, "lng": 119.76241099601636}, "feature": {"sight_features": "", "sight_content": ""}}, {"title": "高密雷音寺", "address": "醴泉街道康庄土辛庄村", "image": "", "rank": 29, "time": 1.0, "location": {"lat": 36.45882775760726, "lng": 119.65899462879082}, "feature": {"sight_features": "", "sight_content": ""}}, {"title": "长陵古园", "address": "兴源街南200米", "image": "", "rank": 30, "time": 2, "location": {"lat": 39.938723258560714, "lng": 119.60415424610214}, "feature": {"sight_features": "", "sight_content": ""}}, {"title": "孩子王国儿童乐园", "address": "供销大厦2楼（顺河路与人民大街交汇处）", "image": "", "rank": 31, "time": 2, "location": {"lat": 22.263299532548608, "lng": 113.47073605229839}, "feature": {"sight_features": "", "sight_content": ""}}, {"title": "官河公园", "address": "山东省潍坊市高密市凤凰西街", "image": "", "rank": 32, "time": 2, "location": {"lat": 36.377174543813865, "lng": 119.58702995147056}, "feature": {"sight_features": "", "sight_content": ""}}, {"title": "家纺园", "address": "山东省潍坊市高密市凤凰大街", "image": "", "rank": 33, "time": null, "location": {"lat": 36.378011651080314, "lng": 119.75980781534341}, "feature": {"sight_features": "", "sight_content": ""}}, {"title": "醴园", "address": "醴泉大街南100米", "image": "", "rank": 34, "time": 2, "location": {"lat": 36.41590573824149, "lng": 119.76704016193649}, "feature": {"sight_features": "", "sight_content": ""}}, {"title": "龙神寺", "address": "龙王官庄村附近", "image": "", "rank": 35, "time": 2, "location": {"lat": 36.23149812151009, "lng": 118.2971430742478}, "feature": {"sight_features": "", "sight_content": ""}}, {"title": "星期六儿童成长主题乐园", "address": "健康路956号凤城国际", "image": "", "rank": 36, "time": 2, "location": {"lat": 36.379212179471075, "lng": 119.77719308868608}, "feature": {"sight_features": "", "sight_content": ""}}, {"title": "天喜花卉园", "address": "山东省潍坊市高密市柏城镇大吕小学附近", "image": "", "rank": 37, "time": 2, "location": {"lat": 36.354751856170715, "lng": 119.81982571299146}, "feature": {"sight_features": "", "sight_content": ""}}, {"title": "萌娃当家儿童主题乐园", "address": "山东省潍坊市高密市密水大街", "image": "", "rank": 38, "time": 2, "location": {"lat": 36.36049598373953, "lng": 119.76155863524001}, "feature": {"sight_features": "", "sight_content": ""}}, {"title": "淘趣堡儿童主题乐园", "address": "山东省潍坊市高密市人民大街357号", "image": "", "rank": 39, "time": 2.5, "location": {"lat": 36.38893984636912, "lng": 119.76420824707898}, "feature": {"sight_features": "", "sight_content": ""}}, {"title": "五龙河农场", "address": "凤凰大街西行过西外环三公里路北(导航输入李村生态园即可直接到达)", "image": "", "rank": 40, "time": 2, "location": {"lat": 35.28861511729863, "lng": 113.8462973447004}, "feature": {"sight_features": "", "sight_content": ""}}, {"title": "密水游园", "address": "山东省潍坊市高密市高密市密水街道昌安大道盛鑫精品客房附近", "image": "", "rank": 41, "time": 2, "location": {"lat": 36.38534764552732, "lng": 119.75774797655478}, "feature": {"sight_features": "", "sight_content": ""}}, {"title": "苏州街广场", "address": "人民大街与苏州街交叉口西南50米", "image": "", "rank": 42, "time": 2, "location": {"lat": 36.388309201690255, "lng": 119.76431911100434}, "feature": {"sight_features": "", "sight_content": ""}}, {"title": "银鹰休闲广场", "address": "朝阳街道人民大街1399号(近银鹰商务酒店)", "image": "", "rank": 43, "time": 2, "location": {"lat": 36.38797473318665, "lng": 119.79728073030236}, "feature": {"sight_features": "", "sight_content": ""}}, {"title": "胶河湿地公园", "address": "山东省潍坊市高密市S805(胶河大道)", "image": "", "rank": 44, "time": 2, "location": {"lat": 36.4090353739037, "lng": 119.85603759116702}, "feature": {"sight_features": "", "sight_content": ""}}, {"title": "基督教堂(孙家官庄店)", "address": "井沟镇孙家官庄村55号", "image": "", "rank": 45, "time": 2, "location": {"lat": 36.31397960381373, "lng": 119.58796055465685}, "feature": {"sight_features": "", "sight_content": ""}}, {"title": "梧桐广场", "address": "利群路75号", "image": "", "rank": 46, "time": 2.0, "location": {"lat": 36.3893072358263, "lng": 119.77236359225306}, "feature": {"sight_features": "", "sight_content": ""}}, {"title": "天香牡丹园", "address": "潍坊市高密市柏城镇大吕村", "image": "", "rank": 47, "time": 2.5, "location": {"lat": 36.351421173068864, "lng": 119.8159094522054}, "feature": {"sight_features": "", "sight_content": ""}}, {"title": "高密画院", "address": "华琪路", "image": "", "rank": 48, "time": 1.0, "location": {"lat": 36.36530128960106, "lng": 119.8148353608834}, "feature": {"sight_features": "", "sight_content": ""}}, {"title": "春华植物园", "address": "醴泉大街西2618号", "image": "", "rank": 49, "time": 2, "location": {"lat": 36.416446243833605, "lng": 119.75139232583433}, "feature": {"sight_features": "", "sight_content": ""}}, {"title": "崧霖画艺", "address": "220省道", "image": "", "rank": 50, "time": 2, "location": {"lat": 40.38775563397051, "lng": 115.90384459998963}, "feature": {"sight_features": "", "sight_content": ""}}, {"title": "白羊山艺术馆", "address": "柏城镇小河崖幼儿园北侧", "image": "", "rank": 51, "time": 2, "location": {"lat": 36.343343221569064, "lng": 119.81057239908577}, "feature": {"sight_features": "", "sight_content": ""}}, {"title": "颐安书画社", "address": "青年路366号", "image": "", "rank": 52, "time": 2, "location": {"lat": 29.114439273871387, "lng": 119.64951384372459}, "feature": {"sight_features": "", "sight_content": ""}}, {"title": "三人行书画社", "address": "昌安大道1799号附近", "image": "", "rank": 53, "time": 2, "location": {"lat": 36.37016233826251, "lng": 119.75697202564508}, "feature": {"sight_features": "", "sight_content": ""}}, {"title": "高密市图书馆", "address": "人民大街", "image": "", "rank": 54, "time": 1.5, "location": {"lat": 39.92619647066753, "lng": 122.57765015199226}, "feature": {"sight_features": "", "sight_content": ""}}, {"title": "康成书画苑", "address": "康成小学西学府公寓门头房", "image": "", "rank": 55, "time": 2, "location": {"lat": 36.36768385116059, "lng": 119.7775972360356}, "feature": {"sight_features": "", "sight_content": ""}}, {"title": "凤凰公园动物园", "address": "朝阳街道天翔街19号东南", "image": "", "rank": 56, "time": 6.0, "location": {"lat": 36.38727565415055, "lng": 119.74689034290662}, "feature": {"sight_features": "", "sight_content": ""}}, {"title": "金孚隆游乐场", "address": "金孚隆超市广场(原大力群)", "image": "", "rank": 57, "time": 2, "location": {"lat": 36.393800008218, "lng": 119.77357738625136}, "feature": {"sight_features": "", "sight_content": ""}}, {"title": "妙妙图书馆", "address": "人民大街西1813号(第一实验小学)", "image": "", "rank": 58, "time": 2, "location": {"lat": 36.38816960811079, "lng": 119.75887186813765}, "feature": {"sight_features": "", "sight_content": ""}}, {"title": "高密市金华园葡萄种植园", "address": "初家镇交警五中队北500米", "image": "", "rank": 59, "time": 2.5, "location": {"lat": 27.62382662768544, "lng": 120.26162465995615}, "feature": {"sight_features": "", "sight_content": ""}}, {"title": "奔腾布料", "address": "朝阳大街299附近", "image": "", "rank": 60, "time": 2, "location": {"lat": 36.35717260153352, "lng": 119.78545500897557}, "feature": {"sight_features": "", "sight_content": ""}}]}