{"cityName": "翼城", "days": 2, "cityImage": "", "spots": [{"title": "草莓", "address": "唐兴镇封比绵山路", "image": "", "rank": 1, "time": 2, "location": {"lat": 35.778403599092805, "lng": 111.67879838251571}, "feature": {"sight_features": "", "sight_content": ""}}, {"title": "翼城县博物馆", "address": "石坊东街", "image": "", "rank": 2, "time": 2, "location": {"lat": 35.733048771344464, "lng": 111.72559413932849}, "feature": {"sight_features": "", "sight_content": ""}}, {"title": "翼城温泉水上乐园", "address": "唐兴镇翔翼西街222号南", "image": "", "rank": 3, "time": 2, "location": {"lat": 35.7435736817726, "lng": 111.70102699098724}, "feature": {"sight_features": "", "sight_content": ""}}, {"title": "未来星儿童成长乐园", "address": "临汾市翼城县红旗街鼎尚时代广场5层", "image": "", "rank": 4, "time": 2, "location": {"lat": 35.74432254853153, "lng": 111.72248759945117}, "feature": {"sight_features": "", "sight_content": ""}}, {"title": "南卫基督教堂", "address": "山西省临汾市翼城县", "image": "", "rank": 5, "time": 2, "location": {"lat": 35.744429075038624, "lng": 111.72537553219112}, "feature": {"sight_features": "", "sight_content": ""}}, {"title": "奎星楼", "address": "陵下村", "image": "", "rank": 6, "time": 1.0, "location": {"lat": 35.74137266890244, "lng": 111.68820698110505}, "feature": {"sight_features": "", "sight_content": ""}}, {"title": "翼城影剧院", "address": "新华路红旗街路口附近", "image": "", "rank": 7, "time": 2, "location": {"lat": 41.94674035199345, "lng": 126.4261946780546}, "feature": {"sight_features": "", "sight_content": ""}}, {"title": "佛光普照", "address": "山西省临汾市翼城县唐兴镇八一南路得薇苑北", "image": "", "rank": 8, "time": 2, "location": {"lat": 35.742931714269815, "lng": 111.70845892669175}, "feature": {"sight_features": "", "sight_content": ""}}, {"title": "四牌坊", "address": "城关", "image": "", "rank": 9, "time": 1.0, "location": {"lat": 29.65833125291544, "lng": 91.14510035237143}, "feature": {"sight_features": "", "sight_content": ""}}, {"title": "乔泽神庙", "address": "西南线附近", "image": "", "rank": 10, "time": 2, "location": {"lat": 32.0272275139114, "lng": 119.93437123928183}, "feature": {"sight_features": "", "sight_content": ""}}, {"title": "里砦文化广场", "address": "山西省临汾市翼城县营里线里砦镇中心幼儿园附近", "image": "", "rank": 11, "time": 2, "location": {"lat": 35.76368416413833, "lng": 111.6477371509817}, "feature": {"sight_features": "", "sight_content": ""}}, {"title": "桐封公园", "address": "绛源南路", "image": "", "rank": 12, "time": 2, "location": {"lat": 35.732263817097994, "lng": 111.7163486640367}, "feature": {"sight_features": "", "sight_content": ""}}, {"title": "七色光儿童乐园", "address": "绛源南路与解放街交叉口东150米", "image": "", "rank": 13, "time": 2, "location": {"lat": 35.74197944729893, "lng": 111.71719795979466}, "feature": {"sight_features": "", "sight_content": ""}}, {"title": "绵山", "address": "临汾市翼城县绵山路", "image": "", "rank": 14, "time": 4.5, "location": {"lat": 35.778403599092805, "lng": 111.67879838251571}, "feature": {"sight_features": "", "sight_content": ""}}, {"title": "同成图书馆", "address": "唐霸大道附近", "image": "", "rank": 15, "time": 2, "location": {"lat": 35.749332162342306, "lng": 111.69858356406787}, "feature": {"sight_features": "", "sight_content": ""}}, {"title": "三红瓜果店", "address": "翔翼西街56号附近", "image": "", "rank": 16, "time": 2, "location": {"lat": 35.74688982534419, "lng": 111.70692785028902}, "feature": {"sight_features": "", "sight_content": ""}}, {"title": "小强沙场", "address": "临汾市-翼城县-唐尧北路东50米", "image": "", "rank": 17, "time": 2, "location": {"lat": 35.74599533929096, "lng": 111.72373667439838}, "feature": {"sight_features": "", "sight_content": ""}}]}