{"cityName": "高唐", "days": 2, "cityImage": "", "spots": [{"title": "孙大石美术馆", "address": "高唐北湖北岸", "image": "", "rank": 1, "time": 2, "location": {"lat": 36.85159108409526, "lng": 116.23560427567926}, "feature": {"sight_features": "", "sight_content": ""}}, {"title": "高唐文庙", "address": "聊城市高唐县南湖路与鼓楼西路交叉口北100米", "image": "", "rank": 2, "time": 2, "location": {"lat": 36.861892150420104, "lng": 116.23328691695517}, "feature": {"sight_features": "", "sight_content": ""}}, {"title": "梁村塔", "address": "聊城市高唐县梁村镇", "image": "", "rank": 3, "time": 2, "location": {"lat": 36.97032787435113, "lng": 116.26446055884747}, "feature": {"sight_features": "", "sight_content": ""}}, {"title": "王懋德墓", "address": "高唐县三十里铺乡石门村东南100米处", "image": "", "rank": 4, "time": 2, "location": {"lat": 36.819059354530125, "lng": 116.13603728949623}, "feature": {"sight_features": "", "sight_content": ""}}, {"title": "赛石花朝园", "address": "聊城市高唐县滨湖南路", "image": "", "rank": 5, "time": 2, "location": {"lat": 36.85932101462886, "lng": 116.22314123264401}, "feature": {"sight_features": "", "sight_content": ""}}, {"title": "李苦禅艺术馆", "address": "聊城市高唐县鼓楼路文化广场", "image": "", "rank": 6, "time": 2, "location": {"lat": 36.86451489080914, "lng": 116.23440740036693}, "feature": {"sight_features": "", "sight_content": ""}}, {"title": "日月垂钓", "address": "郭庄砖瓦厂东南", "image": "", "rank": 7, "time": 2, "location": {"lat": 34.06340094269369, "lng": 116.97789462329561}, "feature": {"sight_features": "", "sight_content": ""}}, {"title": "希河农家乐喜宴厅", "address": "姜店镇姜店街", "image": "", "rank": 8, "time": 2, "location": {"lat": 36.81034526961581, "lng": 116.2510230357916}, "feature": {"sight_features": "", "sight_content": ""}}, {"title": "爱心之家读书社", "address": "春长南路与福源路交叉口南150米", "image": "", "rank": 9, "time": 2, "location": {"lat": 36.86017824598907, "lng": 116.24663871291959}, "feature": {"sight_features": "", "sight_content": ""}}, {"title": "钓鱼王垂钓俱乐部", "address": "时风东路与时风西路交叉口东北150米", "image": "", "rank": 10, "time": 2, "location": {"lat": 36.85775002359147, "lng": 116.24317584219563}, "feature": {"sight_features": "", "sight_content": ""}}, {"title": "三味书坊", "address": "南湖路与鼓楼西路交叉口西南100米", "image": "", "rank": 11, "time": 2, "location": {"lat": 36.861892150420104, "lng": 116.23328691695517}, "feature": {"sight_features": "", "sight_content": ""}}, {"title": "高唐清平森林游乐园", "address": "002乡道清平森林公园内", "image": "", "rank": 12, "time": 2, "location": {"lat": 36.80548722041141, "lng": 116.08740309835555}, "feature": {"sight_features": "", "sight_content": ""}}, {"title": "聚兴广场", "address": "人和路与官道街交叉口向东288米路北", "image": "", "rank": 13, "time": 2, "location": {"lat": 27.855115878009787, "lng": 120.72109614867794}, "feature": {"sight_features": "", "sight_content": ""}}, {"title": "海宝宝", "address": "高唐管道街北首路西", "image": "", "rank": 14, "time": 2, "location": {"lat": 36.86388790894442, "lng": 116.24345501668371}, "feature": {"sight_features": "", "sight_content": ""}}, {"title": "琉璃寺抗日战斗纪念馆", "address": "高唐县琉璃寺镇徐庙村", "image": "", "rank": 15, "time": 2, "location": {"lat": 36.683054285661605, "lng": 116.36416148687356}, "feature": {"sight_features": "", "sight_content": ""}}, {"title": "南关清真寺", "address": "山东省聊城市高唐县鱼丘湖街道时风西路华泰缔景苑附近", "image": "", "rank": 16, "time": 1.0, "location": {"lat": 36.86444158748861, "lng": 116.23412553545384}, "feature": {"sight_features": "", "sight_content": ""}}, {"title": "开心玩国游乐园", "address": "山东省聊城市高唐县S316", "image": "", "rank": 17, "time": 2, "location": {"lat": 36.85159108409526, "lng": 116.23560427567926}, "feature": {"sight_features": "", "sight_content": ""}}, {"title": "人民英雄永垂不朽", "address": "滨湖北路与金城西路交叉口西南200米", "image": "", "rank": 18, "time": 2, "location": {"lat": 36.87161414771881, "lng": 116.2257193631695}, "feature": {"sight_features": "", "sight_content": ""}}, {"title": "高唐县万寿园", "address": "308国道北50米", "image": "", "rank": 19, "time": 2, "location": {"lat": 37.9719607226598, "lng": 114.57704960751596}, "feature": {"sight_features": "", "sight_content": ""}}, {"title": "摩天轮", "address": "金城西路南200米", "image": "", "rank": 20, "time": 2, "location": {"lat": 22.717694784374917, "lng": 113.3404737297298}, "feature": {"sight_features": "", "sight_content": ""}}, {"title": "李苦禅先生少年读书处", "address": "北湖路1067号", "image": "", "rank": 21, "time": 2, "location": {"lat": 36.867099074454615, "lng": 116.2335006579716}, "feature": {"sight_features": "", "sight_content": ""}}, {"title": "大觉寺", "address": "南湖路东100米", "image": "", "rank": 22, "time": 1.0, "location": {"lat": 32.70059270546331, "lng": 119.4553824642202}, "feature": {"sight_features": "", "sight_content": ""}}, {"title": "高唐县御临度假村", "address": "聊城市高唐县", "image": "", "rank": 23, "time": 2, "location": {"lat": 36.85159108409526, "lng": 116.23560427567926}, "feature": {"sight_features": "", "sight_content": ""}}, {"title": "养生水水上乐园", "address": "山东省聊城市高唐县清平镇清平森林公园内", "image": "", "rank": 24, "time": 2, "location": {"lat": 36.80548722041141, "lng": 116.08740309835555}, "feature": {"sight_features": "", "sight_content": ""}}, {"title": "义合广场", "address": "官道北路西150米", "image": "", "rank": 25, "time": 2, "location": {"lat": 36.88423952501622, "lng": 116.23869410078596}, "feature": {"sight_features": "", "sight_content": ""}}, {"title": "高唐县图书馆", "address": "金城西路127号", "image": "", "rank": 26, "time": 2, "location": {"lat": 36.87284262166632, "lng": 116.23113906848081}, "feature": {"sight_features": "", "sight_content": ""}}, {"title": "亿通博雅书画院", "address": "鼓楼西路35号", "image": "", "rank": 27, "time": 2, "location": {"lat": 32.853552328860765, "lng": 120.31857735928965}, "feature": {"sight_features": "", "sight_content": ""}}, {"title": "程辛木美术馆", "address": "北湖路1067号", "image": "", "rank": 28, "time": 2, "location": {"lat": 36.867099074454615, "lng": 116.2335006579716}, "feature": {"sight_features": "", "sight_content": ""}}, {"title": "山东省高唐县档案馆", "address": "金城西路39号", "image": "", "rank": 29, "time": 2, "location": {"lat": 36.87240264116984, "lng": 116.23963089419551}, "feature": {"sight_features": "", "sight_content": ""}}, {"title": "海之缘水族", "address": "金城东路", "image": "", "rank": 30, "time": 2, "location": {"lat": 29.93659721489966, "lng": 120.35212379995241}, "feature": {"sight_features": "", "sight_content": ""}}, {"title": "兰香齐画廊", "address": "鼓楼西路240附近", "image": "", "rank": 31, "time": 2, "location": {"lat": 36.866244239077496, "lng": 116.23063494481843}, "feature": {"sight_features": "", "sight_content": ""}}, {"title": "李奇茂美术馆", "address": "普利小区西对过双海湖北岸", "image": "", "rank": 32, "time": 2, "location": {"lat": 30.855575377044936, "lng": 104.43265012566711}, "feature": {"sight_features": "", "sight_content": ""}}, {"title": "漫玩周边潮玩店", "address": "金城东路天齐庙商城10127号", "image": "", "rank": 33, "time": 2, "location": {"lat": 36.86899949557603, "lng": 116.24646370324353}, "feature": {"sight_features": "", "sight_content": ""}}, {"title": "翰墨书香画廊", "address": "鼓楼西路285号附近", "image": "", "rank": 34, "time": 2, "location": {"lat": 32.8563097725801, "lng": 120.31242971570157}, "feature": {"sight_features": "", "sight_content": ""}}, {"title": "巩德春美术馆", "address": "鱼邱湖街道东岸", "image": "", "rank": 35, "time": 2, "location": {"lat": 36.84330454172551, "lng": 116.27038711866989}, "feature": {"sight_features": "", "sight_content": ""}}, {"title": "开心城堡", "address": "鱼丘湖街道办事处周官屯金玉金地超市北邻", "image": "", "rank": 36, "time": 2, "location": {"lat": 36.861855263618615, "lng": 116.25890910535517}, "feature": {"sight_features": "", "sight_content": ""}}, {"title": "君艺斋画廊", "address": "泉林西路南200米", "image": "", "rank": 37, "time": 2, "location": {"lat": 36.8812241314951, "lng": 116.22769825025881}, "feature": {"sight_features": "", "sight_content": ""}}, {"title": "土坷垃农家乐", "address": "308国道南50米", "image": "", "rank": 38, "time": 2, "location": {"lat": 37.97124957524875, "lng": 114.57704960751596}, "feature": {"sight_features": "", "sight_content": ""}}, {"title": "唐家果汇", "address": "姜店镇栾官屯村西南侧", "image": "", "rank": 39, "time": 2, "location": {"lat": 36.765552035797334, "lng": 116.255254052947}, "feature": {"sight_features": "", "sight_content": ""}}, {"title": "北湖公园", "address": "北湖路", "image": "", "rank": 40, "time": 1.5, "location": {"lat": 31.616096628146266, "lng": 120.23653756584419}, "feature": {"sight_features": "", "sight_content": ""}}, {"title": "鱼邱湖", "address": "聊城市高唐县南湖路与时风西路交叉口北150米", "image": "", "rank": 41, "time": 2, "location": {"lat": 36.861892150420104, "lng": 116.23328691695517}, "feature": {"sight_features": "", "sight_content": ""}}]}