{"cityName": "高台", "days": 2, "cityImage": "", "spots": [{"title": "中国工农红军西路军纪念馆", "address": "张掖市高台县高火公路", "image": "", "rank": 1, "time": 2.5, "location": {"lat": 39.37830874494725, "lng": 99.82899403298701}, "feature": {"sight_features": "", "sight_content": ""}}, {"title": "垂钓园", "address": "人民西路附近", "image": "", "rank": 2, "time": 2, "location": {"lat": 38.068096142457165, "lng": 114.64707710966499}, "feature": {"sight_features": "", "sight_content": ""}}, {"title": "稻谷香休闲农家乐", "address": "西环路附近", "image": "", "rank": 3, "time": 2, "location": {"lat": 39.04489408100302, "lng": 117.25170447040091}, "feature": {"sight_features": "", "sight_content": ""}}, {"title": "众合农家乐", "address": "西环路附近", "image": "", "rank": 4, "time": 2, "location": {"lat": 39.04489408100302, "lng": 117.25170447040091}, "feature": {"sight_features": "", "sight_content": ""}}, {"title": "甘肃绿洲有机农业有限公司", "address": "城关镇解放南路554号甘肃绿洲", "image": "", "rank": 5, "time": 2, "location": {"lat": 35.59580108850531, "lng": 103.22084364537149}, "feature": {"sight_features": "", "sight_content": ""}}, {"title": "景辉生态庄园", "address": "南华镇智号村二社", "image": "", "rank": 6, "time": 2, "location": {"lat": 39.329344437712344, "lng": 99.81401777098243}, "feature": {"sight_features": "", "sight_content": ""}}, {"title": "高台影剧院", "address": "文化路200", "image": "", "rank": 7, "time": 2.5, "location": {"lat": 39.38597627626285, "lng": 99.82574085641316}, "feature": {"sight_features": "", "sight_content": ""}}, {"title": "天天乐儿童乐园", "address": "北环路与西城河路交叉口东北200米", "image": "", "rank": 8, "time": 2, "location": {"lat": 39.38876331268729, "lng": 99.8245358217919}, "feature": {"sight_features": "", "sight_content": ""}}, {"title": "半节红墩", "address": "酒泉市金塔县", "image": "", "rank": 9, "time": 2, "location": {"lat": 39.99002925409325, "lng": 98.9083682361721}, "feature": {"sight_features": "", "sight_content": ""}}, {"title": "五里墩", "address": "高台县其他中国甘肃省张掖市高台县", "image": "", "rank": 10, "time": 2, "location": {"lat": 39.38364604680699, "lng": 99.82575950433726}, "feature": {"sight_features": "", "sight_content": ""}}, {"title": "八里墩", "address": "张掖市高台县", "image": "", "rank": 11, "time": 2, "location": {"lat": 39.38364604680699, "lng": 99.82575950433726}, "feature": {"sight_features": "", "sight_content": ""}}, {"title": "黑河湿地公园", "address": "甘肃省高台县的黑河沿岸，东起黑河大桥，西至大湖湾水库", "image": "", "rank": 12, "time": 3.0, "location": {"lat": 39.414052014825955, "lng": 99.759891546564}, "feature": {"sight_features": "", "sight_content": ""}}, {"title": "红色记忆博物馆", "address": "张掖市高台县大湖湾旅游风景区", "image": "", "rank": 13, "time": null, "location": {"lat": 39.41434391542851, "lng": 99.75907383163455}, "feature": {"sight_features": "", "sight_content": "高台红色记忆博物馆是精心打造的又一红色教育基地，博物馆展出近五万枚毛泽东像章，近百尊毛泽东塑像和三十多幅油画及红色藏品，是一个将像章上所表现的重大历史事件浓缩为中国共产党历史进行党史教育和传统教育的一个展览。"}}, {"title": "高台县图书馆", "address": "高台服务区", "image": "", "rank": 14, "time": 2, "location": {"lat": 39.28700939486796, "lng": 99.81868966839737}, "feature": {"sight_features": "", "sight_content": ""}}, {"title": "爱心树绘本图书馆", "address": "312国道", "image": "", "rank": 15, "time": 2, "location": {"lat": 31.33241303413939, "lng": 120.99854638594724}, "feature": {"sight_features": "", "sight_content": ""}}, {"title": "甘肃省图书馆流通站", "address": "高台服务区", "image": "", "rank": 16, "time": 2, "location": {"lat": 39.28700939486796, "lng": 99.81868966839737}, "feature": {"sight_features": "", "sight_content": ""}}, {"title": "高台县大湖湾风景区", "address": "甘肃省高台县城西8公里", "image": "", "rank": 17, "time": 2, "location": {"lat": 39.409217380291764, "lng": 99.75253002813012}, "feature": {"sight_features": "", "sight_content": ""}}]}