{"cityName": "高雄", "days": "2", "cityImage": "", "spots": [{"title": "驳二艺术特区", "address": "台湾高雄市盐埕区大勇路1号", "image": "", "rank": 1, "time": 2.5, "location": {"lat": 22.6284092545543, "lng": 120.29417084348742}, "feature": {"sight_features": "", "sight_content": ""}}, {"title": "西子湾风景区", "address": "台湾高雄市鼓山区莲海路70号", "image": "", "rank": 2, "time": 2.0, "location": {"lat": 22.646734974038647, "lng": 120.27781564390328}, "feature": {"sight_features": "", "sight_content": ""}}, {"title": "六合夜市", "address": "台湾高雄市新兴区六合二路与中山一路口", "image": "", "rank": 3, "time": 2.0, "location": {"lat": 22.63403298965101, "lng": 120.30657701389842}, "feature": {"sight_features": "", "sight_content": ""}}, {"title": "打狗英国领事馆", "address": "高雄市鼓山区莲海路20号", "image": "", "rank": 4, "time": 2.5, "location": {"lat": 22.59379198998211, "lng": 113.16817194986805}, "feature": {"sight_features": "", "sight_content": ""}}, {"title": "爱河", "address": "高雄市中正四路底中正大桥两侧", "image": "", "rank": 5, "time": 2.0, "location": {"lat": 34.50807521830073, "lng": 119.28491804964585}, "feature": {"sight_features": "", "sight_content": ""}}, {"title": "旗津岛", "address": "台湾高雄市旗津区", "image": "", "rank": 6, "time": 2.5, "location": {"lat": 22.587556730885296, "lng": 120.29969163781085}, "feature": {"sight_features": "", "sight_content": ""}}, {"title": "美丽岛光之穹顶", "address": "高雄市新兴区中山一路115号", "image": "", "rank": 7, "time": 0.35, "location": {"lat": 45.8223103285433, "lng": 130.93837086994796}, "feature": {"sight_features": "", "sight_content": ""}}, {"title": "高雄85大楼", "address": "台湾高雄市苓雅区自强三路5号", "image": "", "rank": 8, "time": 2.0, "location": {"lat": 22.614464392117053, "lng": 120.31090689137035}, "feature": {"sight_features": "", "sight_content": ""}}, {"title": "瑞丰夜市", "address": "台湾高雄市鼓山区裕诚路", "image": "", "rank": 9, "time": 2.5, "location": {"lat": 22.646734974038647, "lng": 120.27781564390328}, "feature": {"sight_features": "", "sight_content": ""}}, {"title": "高雄之眼", "address": "高雄市前镇区中华五路789号", "image": "", "rank": 10, "time": 1.0, "location": {"lat": 21.625760356016055, "lng": 110.29746222837885}, "feature": {"sight_features": "", "sight_content": ""}}, {"title": "台湾中山大学", "address": "高雄市鼓山区莲海路70号", "image": "", "rank": 11, "time": 1.5, "location": {"lat": 22.59379198998211, "lng": 113.16817194986805}, "feature": {"sight_features": "", "sight_content": ""}}, {"title": "真爱码头", "address": "高雄市盐埕区公园二路11号", "image": "", "rank": 12, "time": 1.5, "location": {"lat": 41.87351146610917, "lng": 123.94085943153392}, "feature": {"sight_features": "", "sight_content": ""}}, {"title": "高雄港", "address": "高雄市鼓山区临海二路62号", "image": "", "rank": 13, "time": 1.5, "location": {"lat": 28.8640493290829, "lng": 121.15158529413057}, "feature": {"sight_features": "", "sight_content": ""}}, {"title": "旗津灯塔", "address": "高雄市旗津区旗下巷34号", "image": "", "rank": 14, "time": 2.0, "location": {"lat": 38.29551022664259, "lng": 109.75510103680755}, "feature": {"sight_features": "", "sight_content": ""}}, {"title": "打狗铁道故事馆", "address": "高雄市鼓山区鼓山一路32号", "image": "", "rank": 15, "time": 1.5, "location": {"lat": 30.607022895804395, "lng": 114.29349244944063}, "feature": {"sight_features": "", "sight_content": ""}}, {"title": "佛光山", "address": "台湾高雄市大树区统岭里统岭路1号", "image": "", "rank": 16, "time": 1.5, "location": {"lat": 22.71351117790796, "lng": 120.43667436625338}, "feature": {"sight_features": "", "sight_content": ""}}, {"title": "莲池潭", "address": "高雄市左营区莲潭路", "image": "", "rank": 17, "time": 2.5, "location": {"lat": 30.607022895804395, "lng": 114.29349244944063}, "feature": {"sight_features": "", "sight_content": ""}}, {"title": "佛光山佛陀纪念馆", "address": "高雄市大树区统岭里统岭路1号", "image": "", "rank": 18, "time": 1.5, "location": {"lat": 26.984597803744073, "lng": 112.0223716392133}, "feature": {"sight_features": "", "sight_content": ""}}, {"title": "旗津风车公园", "address": "高雄市旗津区旗津二路700号", "image": "", "rank": 19, "time": 2.0, "location": {"lat": 30.607022895804395, "lng": 114.29349244944063}, "feature": {"sight_features": "", "sight_content": ""}}, {"title": "玫瑰圣母堂", "address": "高雄市苓雅区五福三路151号", "image": "", "rank": 20, "time": 0.4, "location": {"lat": 21.949513856372224, "lng": 111.57745190923949}, "feature": {"sight_features": "", "sight_content": ""}}, {"title": "高雄市历史博物馆", "address": "高雄市盐埕区中正四路272号 ‎", "image": "", "rank": 21, "time": 1.5, "location": {"lat": 30.607022895804395, "lng": 114.29349244944063}, "feature": {"sight_features": "", "sight_content": ""}}, {"title": "旗津天后宫", "address": "", "image": "", "rank": 22, "time": 1.5, "location": {"lat": 41.26827550906315, "lng": 125.36512957106478}, "feature": {"sight_features": "", "sight_content": ""}}, {"title": "城市光廊", "address": "高雄市前金区中华三路6号", "image": "", "rank": 23, "time": 2.0, "location": {"lat": 27.80523658569132, "lng": 113.19386931115955}, "feature": {"sight_features": "", "sight_content": ""}}, {"title": "台湾糖业博物馆", "address": "高雄市桥头区糖厂路24号", "image": "", "rank": 24, "time": 1.5, "location": {"lat": 31.330479193906267, "lng": 118.869677593371}, "feature": {"sight_features": "", "sight_content": ""}}, {"title": "高雄旗津贝壳馆", "address": "高雄市旗津区旗津三路990号2F", "image": "", "rank": 25, "time": 1.5, "location": {"lat": 30.607022895804395, "lng": 114.29349244944063}, "feature": {"sight_features": "", "sight_content": ""}}, {"title": "龙虎塔", "address": "台湾高雄市左营区莲潭路9号", "image": "", "rank": 26, "time": 2.0, "location": {"lat": 22.685064282899088, "lng": 120.3074465116487}, "feature": {"sight_features": "", "sight_content": ""}}, {"title": "中央公园", "address": "高雄市前金区中华三路（中华三路、民生二路、中山路、五福三路间）", "image": "", "rank": 27, "time": 2.5, "location": {"lat": 27.80502630324895, "lng": 113.1947462675405}, "feature": {"sight_features": "", "sight_content": ""}}, {"title": "旗津海岸公园", "address": "高雄市旗津区旗津三路990号", "image": "", "rank": 28, "time": 3.0, "location": {"lat": 30.607022895804395, "lng": 114.29349244944063}, "feature": {"sight_features": "", "sight_content": ""}}, {"title": "旗后炮台古迹故事馆", "address": "高雄市旗津区旗后山顶", "image": "", "rank": 29, "time": 1.0, "location": {"lat": 30.607022895804395, "lng": 114.29349244944063}, "feature": {"sight_features": "", "sight_content": ""}}, {"title": "高雄港渔人码头", "address": "高雄市鼓山区蓬莱路17号", "image": "", "rank": 30, "time": 2.0, "location": {"lat": 30.76680768419818, "lng": 120.71941875886704}, "feature": {"sight_features": "", "sight_content": ""}}, {"title": "梦时代购物中心", "address": "高雄市前镇区中华五路789号", "image": "", "rank": 31, "time": 3.0, "location": {"lat": 21.625760356016055, "lng": 110.29746222837885}, "feature": {"sight_features": "", "sight_content": ""}}, {"title": "高雄左营高铁站", "address": "高雄市左营区高铁路107号", "image": "", "rank": 32, "time": 0.75, "location": {"lat": 31.044761365064044, "lng": 119.97969250395597}, "feature": {"sight_features": "", "sight_content": ""}}, {"title": "旗津轮渡站", "address": "804台湾高雄市鼓山区滨海二路1号", "image": "", "rank": 33, "time": 1.0, "location": {"lat": 22.646734974038647, "lng": 120.27781564390328}, "feature": {"sight_features": "", "sight_content": ""}}, {"title": "高雄中央公园站", "address": "台湾高雄市前金区中华三路34号", "image": "", "rank": 34, "time": 1.0, "location": {"lat": 24.086956718804895, "lng": 121.97387097871568}, "feature": {"sight_features": "", "sight_content": ""}}, {"title": "光荣码头", "address": "台湾高雄市苓雅区海边路及新田路口", "image": "", "rank": 35, "time": 1.5, "location": {"lat": 22.626910856984264, "lng": 120.3364140400634}, "feature": {"sight_features": "", "sight_content": ""}}, {"title": "眷村文化馆", "address": "台湾高雄市左营区龟山巷157-2号", "image": "", "rank": 36, "time": 2.0, "location": {"lat": 22.685064282899088, "lng": 120.3074465116487}, "feature": {"sight_features": "", "sight_content": ""}}, {"title": "高雄市立美术馆", "address": "台湾高雄市鼓山区美术馆路80号", "image": "", "rank": 37, "time": 1.0, "location": {"lat": 22.646734974038647, "lng": 120.27781564390328}, "feature": {"sight_features": "", "sight_content": ""}}, {"title": "科学工艺博物馆", "address": "高雄市三民区九如一路720号", "image": "", "rank": 38, "time": 2.0, "location": {"lat": 30.607022895804395, "lng": 114.29349244944063}, "feature": {"sight_features": "", "sight_content": ""}}, {"title": "美浓小镇", "address": "高雄市美浓区", "image": "", "rank": 39, "time": 2.0, "location": {"lat": 30.607022895804395, "lng": 114.29349244944063}, "feature": {"sight_features": "", "sight_content": ""}}, {"title": "高雄凤山青年夜市", "address": "高雄市凤山区博爱路", "image": "", "rank": 40, "time": 2.5, "location": {"lat": 30.607022895804395, "lng": 114.29349244944063}, "feature": {"sight_features": "", "sight_content": ""}}, {"title": "高雄义大世界", "address": "高雄市大树区学城路一段12号", "image": "", "rank": 41, "time": 4.0, "location": {"lat": 41.75489059881644, "lng": 123.5152313817656}, "feature": {"sight_features": "", "sight_content": ""}}, {"title": "净园休闲农场", "address": "高雄市小港區明聖街135巷10弄12號", "image": "", "rank": 42, "time": 3.5, "location": {"lat": 30.607022895804395, "lng": 114.29349244944063}, "feature": {"sight_features": "", "sight_content": ""}}, {"title": "凯旋观光夜市", "address": "高雄市前镇区凯旋4路758号", "image": "", "rank": 43, "time": 2.0, "location": {"lat": 34.67089874884722, "lng": 112.43616578560808}, "feature": {"sight_features": "", "sight_content": ""}}, {"title": "旗津海水浴场", "address": "805台湾高雄市旗津区庙前路1号 ‎", "image": "", "rank": 44, "time": 2, "location": {"lat": 29.954176236792282, "lng": 121.70670824213333}, "feature": {"sight_features": "", "sight_content": ""}}, {"title": "澄清湖", "address": "台湾高雄市鸟松区", "image": "", "rank": 45, "time": 1.5, "location": {"lat": 22.67061400504301, "lng": 120.37859329166}, "feature": {"sight_features": "", "sight_content": ""}}, {"title": "情人观景台", "address": "高雄市鼓山区忠义路30号", "image": "", "rank": 46, "time": 1.5, "location": {"lat": 23.025774120693598, "lng": 113.13358843010184}, "feature": {"sight_features": "", "sight_content": ""}}, {"title": "义大游乐世界", "address": "高雄市大树区学城路一段10号", "image": "", "rank": 47, "time": 3.0, "location": {"lat": 41.75489059881644, "lng": 123.5152313817656}, "feature": {"sight_features": "特色1 亚洲最大的乐园VR主题馆，真实触感等比例呈现，逼真零死角 特色2 搭乘义大摩天轮，将美丽的高雄夜景尽收眼底 特色3 游玩后，可到义大世界购物广场享受免税的购物乐趣", "sight_content": "大人小孩都爱的缤纷世界！当下全台湾最时髦的游乐场，游乐设施与表演数量排行台湾之冠，也是全台唯一希腊情境主题乐园。‍\n大人小孩都爱的缤纷世界！当下全台湾最时髦的游乐场，游乐设施与表演数量排行台湾之冠，也是全台唯一希腊情境主题乐园。\n这里有着全台湾第一座飞行模拟器，带你遨游台湾22处绝美景观；2017年全新开张的VR主题馆，体验刺激斗智的VR游戏；还有各式充满异国风情的商店设施让你如亲临古希腊。\n新颖、安全的游乐设施不仅可满足小朋友的需求，样式纷呈的主题场馆也是大朋友必定造访的天堂！\n义大世界结合了文化艺术、购物美食、休闲渡假等多元主题，将希腊特有蓝白相间的山城景观及神话故事中的著名场景重现。\n园区内共分为三大区域，以高空轻轨列车串连各区，让你省去不少体力，更可以眺望整个园区的美丽景观。\n义大皇家剧院表演节目人气超高，一定要看准表演时刻提早去排队卡位！\n临走前别忘了带着手上的优惠券到超大超好逛的义大世界购物广场，绝对可以让你满载而归！"}}, {"title": "新堀江商圈", "address": "高雄市新兴区五福二路211号", "image": "", "rank": 48, "time": 2.5, "location": {"lat": 45.8223103285433, "lng": 130.93837086994796}, "feature": {"sight_features": "", "sight_content": ""}}, {"title": "旗津海产街", "address": "805台湾海岸路10号 ‎", "image": "", "rank": 49, "time": 2.0, "location": {"lat": 20.06944141130116, "lng": 110.34205743671151}, "feature": {"sight_features": "", "sight_content": ""}}, {"title": "春秋阁", "address": "813台湾高雄市左营区莲潭路36号", "image": "", "rank": 50, "time": 2.0, "location": {"lat": 22.685064282899088, "lng": 120.3074465116487}, "feature": {"sight_features": "", "sight_content": ""}}, {"title": "二二八和平公园", "address": "803台湾高雄市盐埕区河西路150号", "image": "", "rank": 51, "time": 2.0, "location": {"lat": 22.6284092545543, "lng": 120.29417084348742}, "feature": {"sight_features": "", "sight_content": ""}}, {"title": "南华商圈", "address": "高雄市前金区中正路、中山路圆环旁", "image": "", "rank": 52, "time": 2.0, "location": {"lat": 30.290217054665437, "lng": 104.12505550509448}, "feature": {"sight_features": "", "sight_content": ""}}, {"title": "劳工博物馆", "address": "803台湾大勇路3号", "image": "", "rank": 53, "time": 2.0, "location": {"lat": 24.086956718804895, "lng": 121.97387097871568}, "feature": {"sight_features": "", "sight_content": ""}}, {"title": "南区分局", "address": "高雄市盐埕区公园二路11号", "image": "", "rank": 54, "time": 1.5, "location": {"lat": 41.87351146610917, "lng": 123.94085943153392}, "feature": {"sight_features": "", "sight_content": ""}}, {"title": "寿山动物园", "address": "804台湾高雄市鼓山区万寿路350号", "image": "", "rank": 55, "time": 2.0, "location": {"lat": 22.646734974038647, "lng": 120.27781564390328}, "feature": {"sight_features": "", "sight_content": ""}}, {"title": "旗后炮台", "address": "高雄是旗津区旗后山山顶(近旗下巷)", "image": "", "rank": 56, "time": 1.0, "location": {"lat": 28.006164094508808, "lng": 104.14465186391429}, "feature": {"sight_features": "", "sight_content": ""}}, {"title": "寿山风景区", "address": "高雄市鼓山区万寿路350号", "image": "", "rank": 57, "time": 2.0, "location": {"lat": 31.165220465119912, "lng": 121.11647387258431}, "feature": {"sight_features": "", "sight_content": ""}}, {"title": "高雄孔庙", "address": "813高雄市左营区莲潭路400号", "image": "", "rank": 58, "time": 2.0, "location": {"lat": 23.141502453005057, "lng": 113.5297227446083}, "feature": {"sight_features": "", "sight_content": ""}}, {"title": "高雄市忠烈祠", "address": "804台湾高雄市鼓山区忠义路30号", "image": "", "rank": 59, "time": 2.0, "location": {"lat": 22.646734974038647, "lng": 120.27781564390328}, "feature": {"sight_features": "", "sight_content": ""}}, {"title": "元亨寺", "address": "高雄市鼓山区元亨街7号", "image": "", "rank": 60, "time": 1.5, "location": {"lat": 19.246242858771502, "lng": 110.47346077885375}, "feature": {"sight_features": "", "sight_content": ""}}]}