{"cityName": "高阳", "days": 2, "cityImage": "", "spots": [{"title": "欢乐城温泉水上乐园", "address": "保定市高阳县S331省道保沧公路38号（原西演镇第二中学旧址)", "image": "", "rank": 1, "time": 2, "location": {"lat": 38.70625773408686, "lng": 115.78544721513012}, "feature": {"sight_features": "", "sight_content": ""}}, {"title": "亚奥水上乐园", "address": "六合屯村内", "image": "", "rank": 2, "time": 2, "location": {"lat": 48.43735525524316, "lng": 123.98377051574423}, "feature": {"sight_features": "", "sight_content": ""}}, {"title": "布里留法学校旧址", "address": "河北省高阳县西演镇布里村 071500", "image": "", "rank": 3, "time": 2, "location": {"lat": 38.62518709295867, "lng": 115.87383092832438}, "feature": {"sight_features": "", "sight_content": ""}}, {"title": "唐代风动碑", "address": "河北省正定县解放街西侧 050800", "image": "", "rank": 4, "time": 2, "location": {"lat": 38.14841215989286, "lng": 114.12331663796901}, "feature": {"sight_features": "", "sight_content": ""}}, {"title": "南关大庙", "address": "河北省保定市高阳县南关大街31号附近", "image": "", "rank": 5, "time": 2, "location": {"lat": 38.689654831350005, "lng": 115.78863232844296}, "feature": {"sight_features": "", "sight_content": ""}}, {"title": "普佑佛堂", "address": "河北省保定市高阳县高阳镇福康街东园小区南100米", "image": "", "rank": 6, "time": 2, "location": {"lat": 38.68790450539052, "lng": 115.77206233008224}, "feature": {"sight_features": "", "sight_content": ""}}, {"title": "儿童乐园", "address": "保定市高阳县", "image": "", "rank": 7, "time": 2, "location": {"lat": 38.70625773408686, "lng": 115.78544721513012}, "feature": {"sight_features": "", "sight_content": ""}}, {"title": "星期六儿童成长主题乐园", "address": "河北省保定市高阳县高阳镇文化路明珠花园C区", "image": "", "rank": 8, "time": 2, "location": {"lat": 38.68831223577564, "lng": 115.78658469448213}, "feature": {"sight_features": "", "sight_content": ""}}, {"title": "墨墨家儿童乐园", "address": "县第一幼儿园北行100米路东（明珠花园第二个红绿灯南50米路东）", "image": "", "rank": 9, "time": 2, "location": {"lat": 27.850296692548845, "lng": 105.05762525899164}, "feature": {"sight_features": "", "sight_content": ""}}, {"title": "超级宝堡儿童乐园(商贸城店)", "address": "福康街，原商贸城服装大厅东门北行50米路东", "image": "", "rank": 10, "time": 2, "location": {"lat": 40.63189926313826, "lng": 109.80739322500185}, "feature": {"sight_features": "", "sight_content": ""}}, {"title": "佟麟阁广场", "address": "河北省保定市高阳县高阳镇朝阳路东园小区(高阳宾馆南)", "image": "", "rank": 11, "time": 2, "location": {"lat": 38.695293833555716, "lng": 115.80003059064364}, "feature": {"sight_features": "", "sight_content": ""}}, {"title": "颛顼公园", "address": "河北省保定市高阳县高阳镇高阳纺织城北250米", "image": "", "rank": 12, "time": 2, "location": {"lat": 38.68790450539052, "lng": 115.77206233008224}, "feature": {"sight_features": "", "sight_content": ""}}, {"title": "嘟嘟岛儿童乐园", "address": "平安路91", "image": "", "rank": 13, "time": 2, "location": {"lat": 39.85358781004445, "lng": 118.16967952396104}, "feature": {"sight_features": "", "sight_content": ""}}, {"title": "儿童乐园", "address": "河北省保定市高阳县平安路91号", "image": "", "rank": 14, "time": 2, "location": {"lat": 38.70157244498063, "lng": 115.78503409071422}, "feature": {"sight_features": "", "sight_content": ""}}, {"title": "南无阿弥陀佛", "address": "花市街1胡同46号附近", "image": "", "rank": 15, "time": 2, "location": {"lat": 38.69429372812694, "lng": 115.79145086034495}, "feature": {"sight_features": "", "sight_content": ""}}, {"title": "大众水族馆", "address": "河北省保定市高阳县织鑫大街29", "image": "", "rank": 16, "time": 2, "location": {"lat": 38.68998882606526, "lng": 115.77986576452192}, "feature": {"sight_features": "", "sight_content": ""}}, {"title": "星期六儿童水上主题乐园", "address": "河北省保定市高阳县高阳镇平安路富安里北(高阳人民公园南)", "image": "", "rank": 17, "time": 2, "location": {"lat": 38.68790450539052, "lng": 115.77206233008224}, "feature": {"sight_features": "", "sight_content": ""}}, {"title": "高蠡暴动纪念馆", "address": "G45大广高速与G45大广高速出口交叉口", "image": "", "rank": 18, "time": 2, "location": {"lat": 46.515285978951205, "lng": 125.0528009974096}, "feature": {"sight_features": "", "sight_content": ""}}, {"title": "高阳纺织博物馆", "address": "诚信路", "image": "", "rank": 19, "time": 1.5, "location": {"lat": 39.0188851135942, "lng": 117.35159816400976}, "feature": {"sight_features": "", "sight_content": ""}}, {"title": "硕达电力", "address": "都曹口村2区43号", "image": "", "rank": 20, "time": 2, "location": {"lat": 38.561102872764494, "lng": 115.9066395769737}, "feature": {"sight_features": "", "sight_content": ""}}, {"title": "水世界幻想曲", "address": "建新大街76号附近", "image": "", "rank": 21, "time": 2, "location": {"lat": 30.83311836523198, "lng": 121.18839450696571}, "feature": {"sight_features": "", "sight_content": ""}}]}