{"cityName": "高邑", "days": 2, "cityImage": "", "spots": [{"title": "绿洲农业生态园", "address": "西后线西50米", "image": "", "rank": 1, "time": null, "location": {"lat": 37.70805159910378, "lng": 114.71131796936291}, "feature": {"sight_features": "", "sight_content": ""}}, {"title": "高邑县教师图书馆", "address": "凤中路446号", "image": "", "rank": 2, "time": null, "location": {"lat": 37.60930937349499, "lng": 114.62563414661619}, "feature": {"sight_features": "", "sight_content": ""}}, {"title": "海茂美食休闲广场", "address": "石家庄市高邑县", "image": "", "rank": 3, "time": 2, "location": {"lat": 37.62187956155255, "lng": 114.61841307285897}, "feature": {"sight_features": "", "sight_content": ""}}, {"title": "中兴公园", "address": "中兴大街与刘秀路交汇处", "image": "", "rank": 4, "time": 2, "location": {"lat": 37.611594851429295, "lng": 114.61602490071152}, "feature": {"sight_features": "", "sight_content": ""}}, {"title": "赵南星祠堂", "address": "河北省石家庄市高邑县旧城大街", "image": "", "rank": 5, "time": 2, "location": {"lat": 37.611547034513414, "lng": 114.62634178318847}, "feature": {"sight_features": "", "sight_content": ""}}, {"title": "民心公园", "address": "河北省石家庄市高邑县", "image": "", "rank": 6, "time": 2, "location": {"lat": 37.62187956155255, "lng": 114.61841307285897}, "feature": {"sight_features": "", "sight_content": ""}}, {"title": "乐宝贝儿童乐园", "address": "河北省石家庄市高邑县新城大街", "image": "", "rank": 7, "time": 2, "location": {"lat": 37.5975976600217, "lng": 114.61326356437047}, "feature": {"sight_features": "", "sight_content": ""}}, {"title": "凤凰城广场", "address": "河北省石家庄市高邑县高邑镇兴华路国土局附近(高邑站东50米)", "image": "", "rank": 8, "time": 0.75, "location": {"lat": 37.61143625382846, "lng": 114.604455801913}, "feature": {"sight_features": "", "sight_content": ""}}, {"title": "东关村生育文化园", "address": "凤中路附近", "image": "", "rank": 9, "time": 0.5, "location": {"lat": 27.63298668705214, "lng": 120.33024631395938}, "feature": {"sight_features": "", "sight_content": ""}}, {"title": "高邑县千秋放歌合唱团", "address": "千秋路149附近", "image": "", "rank": 10, "time": 2, "location": {"lat": 37.60353359419029, "lng": 114.6140234395042}, "feature": {"sight_features": "", "sight_content": ""}}]}