{"cityName": "高邮", "days": 2, "cityImage": "", "spots": [{"title": "盂城驿", "address": "扬州市高邮市南门外馆驿巷13号", "image": "", "rank": 1, "time": 1.0, "location": {"lat": 32.77667806970873, "lng": 119.44450010381455}, "feature": {"sight_features": "特色1 全国规模最大、保存最完好的古代驿站", "sight_content": "盂城驿在高邮市区南门大街馆驿巷内，始建于明洪武八年（1375年），但绝大部分建筑为清代重建。盂城驿始建于明洪武八年（1375年），位于高邮市南门外。盂城驿是目前全国规模最大、保存最完好的古代驿站。盂城，高邮的别称，取宋代高邮籍词人秦少游“吾乡如覆盂，地处扬楚脊”诗句而名之。\n\n驿原规模宏大，除驿站本身的牌楼、照壁、鼓楼、厅房、库房、廊房、马房等外，临里运河堤有迎饯宾客的皇华厅，驿内有秦邮公馆，驿北有驿丞宅等房屋。由于历经战火、水灾等破坏，现尚有息厅、敞厅、后厅、秦邮公馆门楼、驿丞宅及监房等建筑；驿站东南有驿马饮水地的遗址。在国内像这样大规模的古驿实属少见，对研究我国古代邮政史、交通史、水利史具有科学、艺术、历史和文物价值．高邮市的文物、规划部门已经对该驿进行规划保护，并举办“古盂城驿”史料展览！"}}, {"title": "文游台", "address": "扬州市高邮市人民路507号", "image": "", "rank": 2, "time": 1.5, "location": {"lat": 32.79934508458815, "lng": 119.4543751196925}, "feature": {"sight_features": "特色1 四壁有名家书法", "sight_content": "文游台在高邮市区东北、泰山庙（又名东岳庙）后的东山上。据方志记载，始建于北宋，经多次重修，大部分为清嘉庆十九年（1814年）重建。因宋代苏轼路过高邮时，曾和孙觉、王巩、秦观等文人在此饮酒论文而得名。后又将其诗文刻石嵌于壁上。此台筑于山顶，山南坡有3个平台和石阶。顶上是一座面问5间，进深4间，重檐歇山板瓦顶的二层楼厅。下有一座面阔进深各5间、单檐歇山板瓦顶的殿堂。上二层平台的前侧为花坛，下二层平台上为绿化台。\n始建于北宋太平兴国年间（976年），是筑在东山顶端的高台建筑，登高四望，自然景观尽收眼底。文游台四壁有名家书法，具有较高的艺术价值。西侧为明代建造的四贤祠，东西两侧博物馆，为了解高邮的历史文化提供了一个窗口。现存石刻内容有“苏武生日祝寿图”、“苏轼画像”和秦观、秦少章、黄庭坚、米芾、阮元等人的诗文和书法，还有陈深、龚啸、陈有宗、宋江等人的题字。其中大部分是后代按照真迹手卷刻成的。此台不仅布局紧凑，建筑造型亦较优美。它和城西的镇国寺塔，城东的查楼、净土寺塔，遥相对应，构成了一组古朴而美丽的三角立体轮廓。"}}, {"title": "高邮湖", "address": "扬州市高邮市境内", "image": "", "rank": 3, "time": 1.5, "location": {"lat": 32.787147020528316, "lng": 119.46561561653884}, "feature": {"sight_features": "", "sight_content": ""}}, {"title": "高邮湖芦苇荡湿地公园", "address": "扬州市高邮市界首镇大码头西3000米", "image": "", "rank": 4, "time": 1.0, "location": {"lat": 32.99074614418153, "lng": 119.45442970612511}, "feature": {"sight_features": "特色1 气候宜人，风景绝美，四季竞秀，妙趣天成 特色2 生态旅游景区，被誉为天然氧吧 特色3 水乡芦苇一幅画,自然纯朴,清新淡雅", "sight_content": "扬州市神奇高邮湖旅游投资开发有限公司，由贵州久常商贸集团有限公司及贵州黔东南常乐燃气有限公司总经理刘爱林先生出资于2012年12月注册成立，注册资本1.2亿元人民币，项目规划投入3.87亿元。\n\n高邮湖界首芦苇荡水寨湿地公园位于界首芦苇荡核心部位，界首芦苇荡总面积约35平方公里，荡区内河道纵横交错，水质清澈透明，生物丰富多样，芦苇摇曳成片，滩地绿草如茵，渔民放歌高唱，这如诗如画的风景，令人赏心悦目，流连忘返。\n是人们回归自然、返璞归真的绝佳去处，也是发展休闲农业、开发乡村旅游，实现生态度假的绝好境地。\n高邮湖界首芦苇荡水寨湿地公园以“低碳化、原生态，个性化、活人文，品质化、高标准，体验化、互动性”为主要特征，集休闲、娱乐为一体。\n市场定位：以自驾游、自助游、近郊游休闲客源为基础，重点拓展融合长江三角洲旅游度假客源市场。而大运河的申遗成功，将给高邮湖的旅游前景带来明确的市场需求。\n目前，景区不仅完善了亮化工程，也引进了安全监控系统；目前规划景区入口处建设一条架空休闲步行栈道——环湖芦苇大道，景区还引进先进的游乐船只参与性项目，开设儿童乐园水上设施、捕鱼大亨等活动区域、水上真人CS项目等，使游客参与项目更多，娱乐性更强！"}}, {"title": "镇国寺", "address": "扬州市高邮市菊花巷（近府前街）高邮湖上", "image": "", "rank": 5, "time": 1.5, "location": {"lat": 32.78648675826128, "lng": 119.44290510578834}, "feature": {"sight_features": "", "sight_content": ""}}, {"title": "净土寺塔", "address": "扬州市高邮市文游中路340号", "image": "", "rank": 6, "time": 0.25, "location": {"lat": 32.77930482495575, "lng": 119.45522222178839}, "feature": {"sight_features": "", "sight_content": ""}}, {"title": "高邮市烈士陵园", "address": "扬州市高邮市通湖路92号", "image": "", "rank": 7, "time": 1.0, "location": {"lat": 32.79265717239022, "lng": 119.44411694058232}, "feature": {"sight_features": "", "sight_content": ""}}, {"title": "高邮蝶园广场", "address": "扬州市高邮市蝶园路（近高邮市城管局）", "image": "", "rank": 8, "time": 0.75, "location": {"lat": 32.78079278687315, "lng": 119.4483303320853}, "feature": {"sight_features": "", "sight_content": ""}}, {"title": "龙虬庄文化遗址", "address": "扬州市高邮市龙虬镇北首", "image": "", "rank": 9, "time": 1.5, "location": {"lat": 32.86753071602568, "lng": 119.52318223697569}, "feature": {"sight_features": "", "sight_content": ""}}, {"title": "奎楼", "address": "扬州市高邮市枇杷路与孟城路交叉口", "image": "", "rank": 10, "time": 0.25, "location": {"lat": 32.79326868564236, "lng": 119.44877876619589}, "feature": {"sight_features": "", "sight_content": ""}}, {"title": "王氏纪念馆", "address": "扬州市高邮市西后街21号", "image": "", "rank": 11, "time": 0.75, "location": {"lat": 32.78400421209265, "lng": 119.44140041082181}, "feature": {"sight_features": "", "sight_content": ""}}, {"title": "东湖湿地公园", "address": "扬州市高邮市江苏东湖湿地公园(东湖路南)", "image": "", "rank": 12, "time": 7.5, "location": {"lat": 32.89399677073008, "lng": 119.46422606367769}, "feature": {"sight_features": "", "sight_content": ""}}, {"title": "高邮湖郊野公园", "address": "扬州市高邮市高邮湖郊野公园", "image": "", "rank": 13, "time": 1.5, "location": {"lat": 32.911177437653315, "lng": 119.34720742416575}, "feature": {"sight_features": "", "sight_content": ""}}, {"title": "同兴当铺", "address": "扬州市高邮市人民路19号", "image": "", "rank": 14, "time": 2, "location": {"lat": 32.79744672916621, "lng": 119.44002289255957}, "feature": {"sight_features": "", "sight_content": "同兴当铺开设于清朝中期，是清代高邮州规模最大的当铺。\n据说，这个当铺是和珅家的私产，是官当。\n当初接待典当市民的柜房，设在最东面，还有专门接待宾客的客房，设备十分齐全。\n在2006年时，当铺被定为全国重点文物保护单位。现在当铺原址中，住着很多市民，目前高邮正在准备重修当铺，把它打造成古城文化的亮点，因为在全国，规模这么大的当铺，还十分罕见。"}}, {"title": "高邮湖湿地", "address": "江苏省高邮市界首镇", "image": "", "rank": 15, "time": 2, "location": {"lat": 32.99074614418153, "lng": 119.45442970612511}, "feature": {"sight_features": "", "sight_content": ""}}, {"title": "清水潭旅游度假区", "address": "扬州市高邮市东湖路", "image": "", "rank": 16, "time": 2, "location": {"lat": 32.89650232236475, "lng": 119.45904139910476}, "feature": {"sight_features": "特色1 感受与自然交融，与自然对话的奇妙幻境", "sight_content": "清水潭旅游度假区位于江苏省中部高邮市北郊，以“休闲、度假、养生”为主题，所打造的凸显水乡生态特色和里下河文化内涵的多功能旅游胜地。\n区内风光旖旎，气候宜人，树木丛生，水草丰美，鱼翔浅底，百鸟婉转，岸芷汀兰，郁郁青青，自然湿地景观与农耕文明交相辉映，池塘沟洼纵横交错，村落古镇与水乡风貌浑然一体。"}}, {"title": "绿洋湖自然保护区", "address": "零二三县道", "image": "", "rank": 17, "time": 2, "location": {"lat": 37.095668295454416, "lng": 121.61555570544556}, "feature": {"sight_features": "", "sight_content": ""}}, {"title": "连标葡萄采摘休闲观光园", "address": "穿乡路与孟陵路交叉口往北", "image": "", "rank": 18, "time": 2, "location": {"lat": 32.982501873538034, "lng": 119.4350244170748}, "feature": {"sight_features": "", "sight_content": ""}}, {"title": "恒生欧洲城第二街区", "address": "通汉路423号", "image": "", "rank": 19, "time": 2, "location": {"lat": 32.78382319265911, "lng": 119.48318906482372}, "feature": {"sight_features": "", "sight_content": ""}}, {"title": "神居山垂钓中心", "address": "连山路", "image": "", "rank": 20, "time": 2, "location": {"lat": 38.88787537043576, "lng": 121.5755787881318}, "feature": {"sight_features": "", "sight_content": ""}}, {"title": "爱孩乐主题乐园", "address": "通湖路189", "image": "", "rank": 21, "time": 2, "location": {"lat": 32.794475174486536, "lng": 119.44822545491701}, "feature": {"sight_features": "", "sight_content": ""}}, {"title": "星辰文化园", "address": "马奔路37号附近", "image": "", "rank": 22, "time": 2, "location": {"lat": 32.885042426461325, "lng": 119.51472412960746}, "feature": {"sight_features": "", "sight_content": ""}}, {"title": "高邮民歌展演场馆", "address": "扬州市高邮市盂城驿景区内", "image": "", "rank": 23, "time": 2, "location": {"lat": 32.776491876972855, "lng": 119.44612247859949}, "feature": {"sight_features": "", "sight_content": ""}}, {"title": "百岁巷", "address": "扬州市高邮市百岁巷", "image": "", "rank": 24, "time": 2, "location": {"lat": 32.78457692654219, "lng": 119.44356109608192}, "feature": {"sight_features": "", "sight_content": ""}}, {"title": "加州阳光海岸", "address": "扬州市高邮市秦邮路146号加洲城市广场5楼", "image": "", "rank": 25, "time": 2, "location": {"lat": 32.80577924827949, "lng": 119.4628394419874}, "feature": {"sight_features": "", "sight_content": ""}}, {"title": "欢乐牧场", "address": "扬州市高邮市通湖路323号世贸国际购物中心F4", "image": "", "rank": 26, "time": 2, "location": {"lat": 32.795473822588896, "lng": 119.46537747574814}, "feature": {"sight_features": "", "sight_content": ""}}, {"title": "高邮州公田碑", "address": "人民路507号", "image": "", "rank": 27, "time": 2, "location": {"lat": 32.787147020528316, "lng": 119.46561561653884}, "feature": {"sight_features": "", "sight_content": ""}}, {"title": "极乐庵", "address": "西后街4", "image": "", "rank": 28, "time": 2, "location": {"lat": 32.782338094522494, "lng": 119.44226326650146}, "feature": {"sight_features": "", "sight_content": ""}}, {"title": "钱币博物馆", "address": "馆驿巷13号附近", "image": "", "rank": 29, "time": 2, "location": {"lat": 30.869581215389434, "lng": 120.1085932757924}, "feature": {"sight_features": "", "sight_content": ""}}, {"title": "高邮湖新民滩郊野公园", "address": "江苏省扬州市高邮市S333(旧)", "image": "", "rank": 30, "time": 2, "location": {"lat": 32.787147020528316, "lng": 119.46561561653884}, "feature": {"sight_features": "", "sight_content": ""}}, {"title": "吉姆考拉游乐园（人民店）", "address": "车逻镇人民路25号", "image": "", "rank": 31, "time": 2, "location": {"lat": 32.72130033933763, "lng": 119.45895636281028}, "feature": {"sight_features": "", "sight_content": ""}}, {"title": "车逻坝旧址", "address": "扬州市高邮市", "image": "", "rank": 32, "time": 2, "location": {"lat": 32.787147020528316, "lng": 119.46561561653884}, "feature": {"sight_features": "", "sight_content": ""}}, {"title": "万寿寺", "address": "恒丰西路与陈堡路交叉口东南50米", "image": "", "rank": 33, "time": 1.0, "location": {"lat": 32.66322996627839, "lng": 119.56191127229195}, "feature": {"sight_features": "", "sight_content": ""}}, {"title": "甘露古寺", "address": "孙巷路东200米", "image": "", "rank": 34, "time": 2, "location": {"lat": 32.47670985123079, "lng": 119.34963294516139}, "feature": {"sight_features": "", "sight_content": ""}}, {"title": "高邮抗日战争最后一役纪念馆", "address": "熙和巷68", "image": "", "rank": 35, "time": 2.5, "location": {"lat": 32.78965236387288, "lng": 119.4428835464561}, "feature": {"sight_features": "", "sight_content": ""}}, {"title": "高邮明清大运河故道", "address": "江苏省扬州市高邮市高邮街道湖滨路西堤风景区附近", "image": "", "rank": 36, "time": 2, "location": {"lat": 32.794352809097504, "lng": 119.4323379509048}, "feature": {"sight_features": "", "sight_content": ""}}, {"title": "小博士教娱亲子馆", "address": "洞庭湖路秦邮茗都北苑5幢107室", "image": "", "rank": 37, "time": 2, "location": {"lat": 32.82960294593461, "lng": 119.46905836252446}, "feature": {"sight_features": "", "sight_content": ""}}, {"title": "杨家坞遗址", "address": "江苏省扬州市高邮市高邮街道西塔社区高公桥路杨家坞", "image": "", "rank": 38, "time": 2, "location": {"lat": 32.7898255811698, "lng": 119.43709531490256}, "feature": {"sight_features": "", "sight_content": ""}}, {"title": "汪曾祺故居", "address": "竺家巷9号", "image": "", "rank": 39, "time": 1.5, "location": {"lat": 29.8715049758059, "lng": 121.56203431785595}, "feature": {"sight_features": "", "sight_content": ""}}, {"title": "龙音寺", "address": "江苏省扬州市高邮市南龙路", "image": "", "rank": 40, "time": 0.75, "location": {"lat": 32.75805376025995, "lng": 119.5633165221436}, "feature": {"sight_features": "", "sight_content": ""}}, {"title": "千纤草生态美肌园", "address": "年合路与264省道交叉口东100米", "image": "", "rank": 41, "time": 2, "location": {"lat": 39.87568999240048, "lng": 117.7208952143668}, "feature": {"sight_features": "", "sight_content": ""}}, {"title": "马棚鹏来庙(土地庙)", "address": "江苏省扬州市高邮市马横公路", "image": "", "rank": 42, "time": 2, "location": {"lat": 32.911864367404235, "lng": 119.57917162517437}, "feature": {"sight_features": "", "sight_content": ""}}, {"title": "张轩烈士纪念碑", "address": "澄营线东50米", "image": "", "rank": 43, "time": 2, "location": {"lat": 32.926103715753875, "lng": 119.51652348809482}, "feature": {"sight_features": "", "sight_content": ""}}, {"title": "龙王寺", "address": "江苏省扬州市高邮市X203(安大公路)", "image": "", "rank": 44, "time": 2, "location": {"lat": 33.065257520248196, "lng": 119.59010790187672}, "feature": {"sight_features": "", "sight_content": ""}}, {"title": "高邮市三垛镇护国龙王寺", "address": "扬州市高邮市三垛镇周胡路与胡秦路交叉口", "image": "", "rank": 45, "time": 2.5, "location": {"lat": 32.877275062932526, "lng": 119.67556673053387}, "feature": {"sight_features": "", "sight_content": ""}}, {"title": "普渡桥", "address": "湖滨路北100米", "image": "", "rank": 46, "time": 0.4, "location": {"lat": 39.94730247095221, "lng": 116.47243876936622}, "feature": {"sight_features": "", "sight_content": ""}}, {"title": "安琪游乐园-欢乐海洋岛", "address": "杨桥路南150米", "image": "", "rank": 47, "time": 2, "location": {"lat": 30.233624750217626, "lng": 119.98943160531194}, "feature": {"sight_features": "", "sight_content": ""}}, {"title": "充气城堡", "address": "扬州市高邮市通湖路323号世贸国际购物中心F1", "image": "", "rank": 48, "time": 2, "location": {"lat": 32.79529392032506, "lng": 119.4646661076148}, "feature": {"sight_features": "", "sight_content": ""}}, {"title": "古关帝庙", "address": "江苏省扬州市高邮市佳禾巷", "image": "", "rank": 49, "time": 2, "location": {"lat": 32.79622817890312, "lng": 119.44536870864945}, "feature": {"sight_features": "", "sight_content": ""}}, {"title": "汉留镇人口文化园", "address": "朝阳路与汉留大道交叉口西150米", "image": "", "rank": 50, "time": 2, "location": {"lat": 32.765144874084626, "lng": 119.6808505347978}, "feature": {"sight_features": "", "sight_content": ""}}, {"title": "高邮胜利广场", "address": "江苏省扬州市高邮市熙和巷侵华日军投降处", "image": "", "rank": 51, "time": 2, "location": {"lat": 32.78945878404437, "lng": 119.44235746012232}, "feature": {"sight_features": "", "sight_content": ""}}, {"title": "法治文人口文化风光带", "address": "迎驾中路与龙腾街交叉口西100米", "image": "", "rank": 52, "time": 2, "location": {"lat": 32.651171372653614, "lng": 119.31238041149321}, "feature": {"sight_features": "", "sight_content": ""}}, {"title": "海潮市民广场", "address": "海潮东路028", "image": "", "rank": 53, "time": 2, "location": {"lat": 26.077704100519792, "lng": 119.32708764313196}, "feature": {"sight_features": "", "sight_content": ""}}, {"title": "大淖河人口文化广场", "address": "国雄路256号附近", "image": "", "rank": 54, "time": 2, "location": {"lat": 32.80261505053538, "lng": 119.44711028138912}, "feature": {"sight_features": "", "sight_content": ""}}, {"title": "宝宝乐儿童乐园", "address": "江苏省扬州市高邮市S333(秦邮路)", "image": "", "rank": 55, "time": 2, "location": {"lat": 32.80648868716634, "lng": 119.48214383246453}, "feature": {"sight_features": "", "sight_content": ""}}, {"title": "好印象美食休闲中心", "address": "江苏省扬州市高邮市送桥镇送驾南路送桥中心小学附近", "image": "", "rank": 56, "time": null, "location": {"lat": 32.642288332691486, "lng": 119.31871798920508}, "feature": {"sight_features": "", "sight_content": ""}}, {"title": "周巷镇生育文化广场", "address": "兴周西路1-80号附近", "image": "", "rank": 57, "time": 2, "location": {"lat": 33.01041661105869, "lng": 119.58138884945816}, "feature": {"sight_features": "", "sight_content": ""}}, {"title": "临泽生态度假村", "address": "三零一县道与西河路交叉口附近", "image": "", "rank": 58, "time": 4.0, "location": {"lat": 37.010180275942915, "lng": 122.53924247828574}, "feature": {"sight_features": "", "sight_content": ""}}, {"title": "高邮湖滩郊野公园", "address": "江苏省扬州市高邮市", "image": "", "rank": 59, "time": 2.5, "location": {"lat": 32.787147020528316, "lng": 119.46561561653884}, "feature": {"sight_features": "", "sight_content": ""}}, {"title": "邮都文化广场", "address": "扬州市高邮市海潮东路18号", "image": "", "rank": 60, "time": 2, "location": {"lat": 32.78605585467227, "lng": 119.47293988493816}, "feature": {"sight_features": "", "sight_content": ""}}]}