{"cityName": "高州", "days": 2, "cityImage": "", "spots": [{"title": "高州仙人洞风景区", "address": "茂名市高州市深镇镇仙人洞村", "image": "", "rank": 1, "time": 4.5, "location": {"lat": 22.226231754087802, "lng": 111.16351919997467}, "feature": {"sight_features": "特色1 南亚热带湿润性季风气候 特色2 山上还有珍稀的禾雀花", "sight_content": "仙人洞景区位于广东茂名高州市的东北部，座落在“粤西第一峰”之称的大田顶南麓，是国家AAA级旅游景区、广东省重点旅游扶贫企业、广东省休闲农业和乡村旅游示范点，也是南国避暑圣地和原生态旅游目的地，“绿野、净土、仙人家”是其真实的写照。根据季节和生态变化，景区每年全力打造三次主题活动：3-5月：野生禾雀花杜鹃花观赏节；6-9月：观瀑避暑节；10-11月：丰收节，推介景区的美景和仙人洞的特色。\n仙人洞景区共分为三大板块：1、雀花广场区：百瀑梯、飞来瀑、茶田花事、雀花舞台、牛马神石、雀花长廊、帐蓬露营、自助烧烤等；2、天河谷景区：溯溪探险，神龟探水、一线天瀑布、阴元潭、仙女瀑、彩虹瀑、腾龙瀑、飞天瀑、天河大瀑布、玻璃观瀑台、5D 玻璃吊桥、3D炫彩石壁画、竹海大观、天门滑道、禾雀花观赏区等；3、仙人洞山庄：农家美食，避暑山庄等，是一个集观赏性、参与性、休闲性于一体的综合性旅游区。\n景区内常年溪水潺潺，飞瀑流泉，连环叠瀑，响彻山谷。溪边长满了野生禾雀花藤，曼长百米，径大160㎝,据专家证实属千年古藤。花似禾花雀，串串吊挂在藤曼上，活灵活现，一藤成景，人称 “天然翡翠鸟”。仙乳峰的野生杜鹃，素有“花中西施”之美誉，花开时节，万亩绽放，红的、紫的、黄的、粉的……，漫山遍野，十分娇艳；故又有“杜鹃花王国”之称。\n仙人洞还是有名的长寿村和“空调村”，由于地广人稀，自然生态保存良好，森林密布，空气清新，冷暖气流交汇，夏季气温20℃—25℃之间，负离子含量高，是一个天然的大氧吧、理想的养生之地和南国少有的避暑圣地。"}}, {"title": "乐天温泉度假村", "address": "茂名市高州市乐天大道1号", "image": "", "rank": 2, "time": 2, "location": {"lat": 21.892842735815208, "lng": 110.83636944860922}, "feature": {"sight_features": "特色1 巴厘岛风情与自然巧妙结合，浪漫幽静", "sight_content": "酒店建地面积46389平方米，规划总建筑面积71190平方米，布局严格遵循“回归自然、融入现代”的建筑理念，是现代都市人追求品味生活的“世外桃源”，独具匠心地打造出集休闲、度假、商务与一体的奢华优雅，气度超凡的现代花园式酒店。\n酒店主体建筑拥有308间豪华客房，是集“自然与智能”于一体的时尚创意空间，拥有国际一流设计风格的商务套房、豪华套房，独具匠心的室内装修，舒适惬意，配备免费枕头备选单、高速上网，酒店设有涵盖个性化服务及贴身管家服务的行政会所，带给您意想不到的私人空间\n乐天温泉由巴厘岛风情与自然巧妙结合、人泉合一，泉区布局幽闲浪漫，清静宜人的优美环境独具一格，打造引领新时代健康养生的风向标。露天浴池57个包括：桑拿浴、蒸气浴、冰蒸浴、花果植物养身区、药浴养生区、无边际游泳区、空中温泉区、SPA理疗服务区等项目，使温泉医疗保健作用达到了效果。\n景区内有大型户外温泉、百余款自助美食大餐、户外游泳池、儿童乐园、亲子戏水池、健身房、多功能休息大厅等十几项目。"}}, {"title": "玉湖风景区", "address": "茂名市高州市长坡镇玉湖风景区", "image": "", "rank": 3, "time": 2.5, "location": {"lat": 22.053761778812145, "lng": 111.02520455485124}, "feature": {"sight_features": "特色1 青山绿水、风光秀丽、空气清新", "sight_content": "茂名市玉湖风景区位于“三个代表”重要思想发源地，全国水果第一县（市）——高州市东北部。玉湖风景区距广州、深圳、香港等大城市450公里范围内，距茂名市区58公里，高州城区25公里，是高州红色之旅的必经地，为高州三大自然生态风景旅游区的中心点，玉湖风景区所依托的高州水库是是一宗以灌溉、防洪、供水为主，结合发电等综合利用的大型水利枢纽工程。\n玉湖国家水利风景区位于历史文化名城高州市境内，景区主要依托石骨库区和良德库区，总库容为12.8亿立方米、水面40多平方公里的高州水库，因水色碧绿如玉，被人们称为玉湖。景区内宽阔的水面具有调节气温的作用，在小范围内形成了冬暖夏凉的小气候，全年平均气温23摄氏度，气候十分宜人，是天然的“超级氧吧”。\n景区四面群山环抱、青山绵绵、绿水柔柔、形态各异、景致万千，可谓一库一特色，一岛一风景，登高远眺，百岛浮洋、美景天成。景区内以亭台、花草点缀，用神话、人物雕像造景和名人书法、碑刻怡情，既有天然之美，又有人工之巧，自然与文明结合，青山与绿水一色，仿如一幅岭南山水画卷。景区内有大坝雄姿、日月同辉、龟蛇锁坝、七星伴月、千岛迷宫、小鸟天堂、龙子与仙女等工程景观、自然景观和人文景观相结合，是现代人养生、休闲、度假、会议的好去处，是茂名市的“后花园”。\n玉湖风景区以青山绿水、风光秀丽、空气清新而闻名于南粤大地。长1公里、高50米的主坝拔地而起，巍然屹立在长坡圩旁，气势磅礴，雄伟壮观。云开山脉如一条巨大的青色蛟龙盘踞在库区周围，库岸群山环绕，峰峦叠嶂，亚热带灌木四季绿色葱翠，春夏之交山花烂漫，花香醉人，百鸟齐鸣。40多平方公里的库区水面，形似山羊，色似碧玉，湖中百岛浮立，千姿百态，似飞禽、走兽，像星座、月亮；水道九曲十八湾，犹如水上迷宫。景区基础设施齐全，景点组合紧凑，形成保护与开发相结合、人与自然和谐发展的良好局面，是理想的旅游、会议、休闲度假胜地。"}}, {"title": "古郡水城", "address": "茂名市高州市南塘镇南塘村委会平乐塘村", "image": "", "rank": 4, "time": 1.5, "location": {"lat": 22.065022443640363, "lng": 110.79485731192143}, "feature": {"sight_features": "特色1 刺激大脑神经的水上设备，趣味不停的超梦幻水城，与“水”共舞。", "sight_content": "古郡水城水上乐园，位于高州市南塘镇平乐塘村委会，占地面积：220亩。\n由高州市明丰旅游开发有限公司投资0.8亿元打造的生态休闲文化旅游主题乐园。"}}, {"title": "冼太庙", "address": "茂名市高州市光明路18号", "image": "", "rank": 5, "time": 2, "location": {"lat": 21.92170159005854, "lng": 110.86463656103157}, "feature": {"sight_features": "", "sight_content": ""}}, {"title": "鳄人谷生态旅游区", "address": "茂名市高州市分界镇良种繁育场内", "image": "", "rank": 6, "time": 1.0, "location": {"lat": 21.802258681725345, "lng": 110.96834225895304}, "feature": {"sight_features": "特色1 亲子互动、集体旅游的特色基地！", "sight_content": "广东鳄人谷生态旅游区位于广东省茂名市高州分界镇宏益鳄鱼世界产业园内，距离茂名城区25公里，临近汕湛高速、包茂高速交通便捷区位优越。景区规划用地2200亩，计划总投资12亿元，分三期建设，规划建成集鳄鱼驯养繁育科普、鳄鱼产业链的展示、鳄鱼主题观光游乐于一体，融合一二三产业的综合性生态旅游区。\n项目一期建设计划2018年完成，规划内容包括综合服务区、繁育养殖区、人鳄互动体验区、湿地生态区、加工产业区等五个功能区，集科普教育、游乐、餐饮、购物于一体，是休闲娱乐、旅游度假、商务会议的最佳场所，更是亲子互动、团体旅游的首选基地。"}}, {"title": "高州市博物馆", "address": "广东茂名高州市高州市博物馆", "image": "", "rank": 7, "time": 2.5, "location": {"lat": 21.926454556248068, "lng": 110.85361394729199}, "feature": {"sight_features": "", "sight_content": ""}}, {"title": "冼夫人纪念馆", "address": "茂名市高州市518乡道南塘镇大石垌村委会安涌村", "image": "", "rank": 8, "time": 2, "location": {"lat": 22.033099860639055, "lng": 110.80474031193548}, "feature": {"sight_features": "", "sight_content": ""}}, {"title": "丁颖荔枝森林公园", "address": "广东省茂名市高州市", "image": "", "rank": 9, "time": 2, "location": {"lat": 21.924048896771122, "lng": 110.85947386452162}, "feature": {"sight_features": "", "sight_content": ""}}, {"title": "瀛州公园", "address": "上海市近郊崇明城桥镇鳌山路1号(崇明东门路崇明南门路)", "image": "", "rank": 10, "time": 2, "location": {"lat": 31.62154443842042, "lng": 121.41263621616893}, "feature": {"sight_features": "", "sight_content": ""}}, {"title": "三官山", "address": "广东省高州市新垌镇 525245", "image": "", "rank": 11, "time": 2.5, "location": {"lat": 21.929720480655, "lng": 111.09859395816068}, "feature": {"sight_features": "", "sight_content": ""}}, {"title": "三官山飘流", "address": "新洞镇(近钢铁村)", "image": "", "rank": 12, "time": 2, "location": {"lat": 30.099232967640337, "lng": 117.13987209085248}, "feature": {"sight_features": "", "sight_content": ""}}, {"title": "名园农业有限公司", "address": "679乡道南冲林场西南300米路西", "image": "", "rank": 13, "time": 2, "location": {"lat": 31.909199228140412, "lng": 121.30903625505988}, "feature": {"sight_features": "", "sight_content": ""}}, {"title": "宏益鳄鱼主题公园", "address": "良种繁育场内(储良候车亭)", "image": "", "rank": 14, "time": 2, "location": {"lat": 36.098098640497476, "lng": 120.37827389263303}, "feature": {"sight_features": "", "sight_content": ""}}, {"title": "坑垌林场", "address": "东方大道与280省道交叉口东200米", "image": "", "rank": 15, "time": 2, "location": {"lat": 31.627570891307233, "lng": 120.38091029623695}, "feature": {"sight_features": "", "sight_content": ""}}, {"title": "辉玲休闲农庄", "address": "283省道附近", "image": "", "rank": 16, "time": 2, "location": {"lat": 38.27824086170247, "lng": 116.9258252193593}, "feature": {"sight_features": "", "sight_content": ""}}, {"title": "九斗种农场", "address": "207国道附近", "image": "", "rank": 17, "time": 2, "location": {"lat": 38.67484937592033, "lng": 114.04837902844483}, "feature": {"sight_features": "", "sight_content": ""}}, {"title": "谈朋剧场", "address": "616县道附近", "image": "", "rank": 18, "time": 2, "location": {"lat": 39.92563598139063, "lng": 106.79329075341514}, "feature": {"sight_features": "", "sight_content": ""}}, {"title": "高凉岭", "address": "广东省高州市曹江镇 525200", "image": "", "rank": 19, "time": 2, "location": {"lat": 21.999540387957683, "lng": 110.9493003506573}, "feature": {"sight_features": "", "sight_content": ""}}, {"title": "文光塔", "address": "广东省高州市城东镇 643000", "image": "", "rank": 20, "time": 2.5, "location": {"lat": 21.924048896771122, "lng": 110.85947386452162}, "feature": {"sight_features": "", "sight_content": ""}}, {"title": "高州观山", "address": "广东省高州市城西侧 525200", "image": "", "rank": 21, "time": 2.5, "location": {"lat": 21.924048896771122, "lng": 110.85947386452162}, "feature": {"sight_features": "", "sight_content": ""}}, {"title": "麒麟瀑布", "address": "广东省高州市大坡镇平云山 525200", "image": "", "rank": 22, "time": 2, "location": {"lat": 22.067449145340987, "lng": 111.24282280242073}, "feature": {"sight_features": "", "sight_content": ""}}, {"title": "分界影剧院", "address": "南方路与南苑路交叉口北150米", "image": "", "rank": 23, "time": 2, "location": {"lat": 21.77566094008686, "lng": 110.97455165116152}, "feature": {"sight_features": "", "sight_content": ""}}, {"title": "荷花影剧院", "address": "幸福路18号附近", "image": "", "rank": 24, "time": 2, "location": {"lat": 39.150082736917454, "lng": 116.06558972891108}, "feature": {"sight_features": "", "sight_content": ""}}, {"title": "建库纪念碑", "address": "广东省茂名市高州市长坡镇茂名市玉湖风景区内", "image": "", "rank": 25, "time": 2, "location": {"lat": 22.053761778812145, "lng": 111.02520455485124}, "feature": {"sight_features": "", "sight_content": ""}}, {"title": "菠萝蜜果场", "address": "石鼓镇丽山村管理区", "image": "", "rank": 26, "time": 2, "location": {"lat": 21.8544939329008, "lng": 110.78538231418511}, "feature": {"sight_features": "", "sight_content": ""}}, {"title": "平云山", "address": "广东省高州市大坡镇 525200", "image": "", "rank": 27, "time": 1.0, "location": {"lat": 22.067449145340987, "lng": 111.24282280242073}, "feature": {"sight_features": "", "sight_content": ""}}, {"title": "高州三塔", "address": "广东省高州市市区内 525200", "image": "", "rank": 28, "time": 1.5, "location": {"lat": 21.924048896771122, "lng": 110.85947386452162}, "feature": {"sight_features": "", "sight_content": ""}}, {"title": "天然水族馆", "address": "广东省茂名市高州市光明路116号", "image": "", "rank": 29, "time": 2, "location": {"lat": 21.918980214321447, "lng": 110.86715089569553}, "feature": {"sight_features": "", "sight_content": ""}}, {"title": "嘟啦啦儿童乐园", "address": "广东省茂名市高州市艮龙路", "image": "", "rank": 30, "time": 2, "location": {"lat": 21.926870126064355, "lng": 110.86627031285525}, "feature": {"sight_features": "", "sight_content": ""}}, {"title": "烈士陵园", "address": "茂名市高州市河西路92号", "image": "", "rank": 31, "time": null, "location": {"lat": 21.92637734644404, "lng": 110.85134788271158}, "feature": {"sight_features": "", "sight_content": ""}}, {"title": "信愿寺", "address": "广东省茂名市高州市新垌镇新垌村委会大坪村", "image": "", "rank": 32, "time": 2, "location": {"lat": 21.91838483358273, "lng": 111.0675135307465}, "feature": {"sight_features": "", "sight_content": ""}}, {"title": "新垌邓氏纪念馆", "address": "新垌镇中心小学附近", "image": "", "rank": 33, "time": 2, "location": {"lat": 39.124030230896054, "lng": 117.20190061452008}, "feature": {"sight_features": "", "sight_content": ""}}, {"title": "新安庙", "address": "614县道附近", "image": "", "rank": 34, "time": 2, "location": {"lat": 23.907560888128454, "lng": 109.68128438515562}, "feature": {"sight_features": "", "sight_content": ""}}, {"title": "贡园", "address": "广东省茂名市高州市元坝大道", "image": "", "rank": 35, "time": 2, "location": {"lat": 21.785038971337404, "lng": 111.00337682510211}, "feature": {"sight_features": "", "sight_content": ""}}, {"title": "石鼓公园", "address": "人民路与公园路交叉口南100米", "image": "", "rank": 36, "time": null, "location": {"lat": 42.913288460074924, "lng": 129.51090554104832}, "feature": {"sight_features": "", "sight_content": ""}}, {"title": "中祠堂", "address": "茂名市高州市", "image": "", "rank": 37, "time": 2, "location": {"lat": 21.924048896771122, "lng": 110.85947386452162}, "feature": {"sight_features": "", "sight_content": ""}}, {"title": "水上迷宫", "address": "茂名市高州市长坡镇茂名市玉湖风景区内", "image": "", "rank": 38, "time": 2, "location": {"lat": 22.053761778812145, "lng": 111.02520455485124}, "feature": {"sight_features": "", "sight_content": ""}}, {"title": "高州市潭头普济寺", "address": "广东省茂名市高州市g207", "image": "", "rank": 39, "time": 2.5, "location": {"lat": 21.924048896771122, "lng": 110.85947386452162}, "feature": {"sight_features": "", "sight_content": ""}}, {"title": "秀川广场", "address": "广东省茂名市高州市中山路33号", "image": "", "rank": 40, "time": 2, "location": {"lat": 21.924149567800693, "lng": 110.86210895390371}, "feature": {"sight_features": "", "sight_content": ""}}, {"title": "十里冼圣庙", "address": "615县道附近", "image": "", "rank": 41, "time": 2, "location": {"lat": 40.82859755434959, "lng": 125.64834162801064}, "feature": {"sight_features": "", "sight_content": ""}}, {"title": "中华第一冼太庙", "address": "广东省茂名市高州市曹江镇冼太庙", "image": "", "rank": 42, "time": 2, "location": {"lat": 22.029554960492042, "lng": 110.96859288529193}, "feature": {"sight_features": "", "sight_content": ""}}, {"title": "迴龙庵", "address": "北江大路西100米", "image": "", "rank": 43, "time": null, "location": {"lat": 21.93763514636522, "lng": 110.86472751446443}, "feature": {"sight_features": "", "sight_content": ""}}, {"title": "天师庙", "address": "207国道", "image": "", "rank": 44, "time": 2.0, "location": {"lat": 38.67484937592033, "lng": 114.04837902844483}, "feature": {"sight_features": "", "sight_content": ""}}, {"title": "造贤古庙", "address": "629县道附近", "image": "", "rank": 45, "time": 2, "location": {"lat": 22.418198458830847, "lng": 111.08461276085207}, "feature": {"sight_features": "", "sight_content": ""}}, {"title": "天师庙", "address": "207国道", "image": "", "rank": 46, "time": 2.0, "location": {"lat": 38.67484937592033, "lng": 114.04837902844483}, "feature": {"sight_features": "", "sight_content": ""}}, {"title": "冼太夫人纪念馆", "address": "高州市石板镇283省道附近", "image": "", "rank": 47, "time": 1.0, "location": {"lat": 22.12173469150851, "lng": 110.75239665624257}, "feature": {"sight_features": "", "sight_content": ""}}, {"title": "康平庙", "address": "633乡道附近", "image": "", "rank": 48, "time": 2, "location": {"lat": 30.928797374902725, "lng": 121.84097613079723}, "feature": {"sight_features": "", "sight_content": ""}}, {"title": "云径庙", "address": "113省道附近", "image": "", "rank": 49, "time": 2, "location": {"lat": 30.339048049978164, "lng": 114.30804465644788}, "feature": {"sight_features": "", "sight_content": ""}}, {"title": "杨郡庙", "address": "612县道附近", "image": "", "rank": 50, "time": 2, "location": {"lat": 25.287489694560985, "lng": 117.37624340145892}, "feature": {"sight_features": "", "sight_content": ""}}, {"title": "观音阁", "address": "挂榜路438号附近", "image": "", "rank": 51, "time": 1.0, "location": {"lat": 21.91387513531178, "lng": 110.85226648992578}, "feature": {"sight_features": "", "sight_content": ""}}, {"title": "瀛洲公园", "address": "沿江路71号", "image": "", "rank": 52, "time": 1.5, "location": {"lat": 22.886221154515255, "lng": 112.91200606541985}, "feature": {"sight_features": "", "sight_content": ""}}, {"title": "金山文化广场", "address": "632县道附近", "image": "", "rank": 53, "time": 2, "location": {"lat": 39.703559980223346, "lng": 118.99031444578212}, "feature": {"sight_features": "", "sight_content": ""}}, {"title": "石骨冼太庙", "address": "茂名市高州市280省道附近", "image": "", "rank": 54, "time": 2, "location": {"lat": 22.083450557944655, "lng": 111.03914655459893}, "feature": {"sight_features": "", "sight_content": ""}}, {"title": "高州市城市建设档案馆", "address": "文明路21号", "image": "", "rank": 55, "time": 2.5, "location": {"lat": 47.95744503373289, "lng": 123.6654758737147}, "feature": {"sight_features": "", "sight_content": ""}}, {"title": "浩大旅业", "address": "山美新武装部旁边(即高州市新武装部斜对面)", "image": "", "rank": 56, "time": 2, "location": {"lat": 21.924048896771122, "lng": 110.85947386452162}, "feature": {"sight_features": "", "sight_content": ""}}, {"title": "冰岛の恋", "address": "坡头二街与文明路交叉口东50米", "image": "", "rank": 57, "time": 2, "location": {"lat": 21.914490646731597, "lng": 110.86052845542724}, "feature": {"sight_features": "", "sight_content": ""}}, {"title": "中山纪念堂", "address": "中山路59号", "image": "", "rank": 58, "time": 2.0, "location": {"lat": 41.80142455948104, "lng": 123.41126700775523}, "feature": {"sight_features": "", "sight_content": ""}}, {"title": "大吉利画廊", "address": "大井镇沿江路15号", "image": "", "rank": 59, "time": 2, "location": {"lat": 22.096575721168065, "lng": 110.89154251782699}, "feature": {"sight_features": "", "sight_content": ""}}, {"title": "广东省胜利农场", "address": "南塘镇", "image": "", "rank": 60, "time": 2, "location": {"lat": 26.088538118864623, "lng": 115.23824916767597}, "feature": {"sight_features": "", "sight_content": ""}}]}