{"cityName": "噶尔", "days": 2, "cityImage": "", "spots": [{"title": "那木如", "address": "阿里地区噶尔县那木如村", "image": "", "rank": 1, "time": 7.5, "location": {"lat": 31.91461739179595, "lng": 80.15879116875574}, "feature": {"sight_features": "", "sight_content": ""}}, {"title": "扎达布日寺", "address": "阿里地区噶尔县门士镇象泉河畔", "image": "", "rank": 2, "time": 0.75, "location": {"lat": 32.49715682360169, "lng": 80.10287714605373}, "feature": {"sight_features": "", "sight_content": ""}}, {"title": "水上飘豆花庄", "address": "狄三路与迎宾大道交叉口东50米", "image": "", "rank": 3, "time": 2, "location": {"lat": 32.49969145026763, "lng": 80.10135972838627}, "feature": {"sight_features": "", "sight_content": ""}}, {"title": "热拉札塘", "address": "阿里地区噶尔县", "image": "", "rank": 4, "time": 2, "location": {"lat": 32.49715682360169, "lng": 80.10287714605373}, "feature": {"sight_features": "", "sight_content": ""}}, {"title": "雪域山庄", "address": "滨河路", "image": "", "rank": 5, "time": 2, "location": {"lat": 39.008473205380874, "lng": 117.67714324450333}, "feature": {"sight_features": "", "sight_content": ""}}, {"title": "永鑫彩钢大棚", "address": "孔雀路和迎宾大道的交叉口附近", "image": "", "rank": 6, "time": 2, "location": {"lat": 23.100931760317003, "lng": 113.27528273950196}, "feature": {"sight_features": "", "sight_content": ""}}, {"title": "永久钢构大棚", "address": "迎宾大道38附近", "image": "", "rank": 7, "time": 2, "location": {"lat": 30.63992292971057, "lng": 119.68670546373885}, "feature": {"sight_features": "", "sight_content": ""}}, {"title": "翔宇家居饰品画廊", "address": "象泉路与迎宾大道交叉口西南50米", "image": "", "rank": 8, "time": 2, "location": {"lat": 26.201180692209295, "lng": 119.56873551917414}, "feature": {"sight_features": "", "sight_content": ""}}, {"title": "桑它垃", "address": "阿里地区-噶尔县", "image": "", "rank": 9, "time": 2, "location": {"lat": 32.49715682360169, "lng": 80.10287714605373}, "feature": {"sight_features": "", "sight_content": ""}}, {"title": "阿里暗夜公园", "address": "阿里地区噶尔县", "image": "", "rank": 10, "time": 3.5, "location": {"lat": 32.49715682360169, "lng": 80.10287714605373}, "feature": {"sight_features": "", "sight_content": ""}}]}