{"cityName": "格尔木", "days": 2, "cityImage": "", "spots": [{"title": "察尔汗盐湖", "address": "海西蒙古族藏族自治州格尔木市察尔汗镇", "image": "", "rank": 1, "time": 2.5, "location": {"lat": 36.41237104695386, "lng": 94.93331021042529}, "feature": {"sight_features": "", "sight_content": ""}}, {"title": "柴达木盆地", "address": "海西蒙古族藏族自治州格尔木市", "image": "", "rank": 2, "time": 1.5, "location": {"lat": 36.41237104695386, "lng": 94.93331021042529}, "feature": {"sight_features": "", "sight_content": ""}}, {"title": "昆仑山口", "address": "海西蒙古族藏族自治州格尔木市109国道附近", "image": "", "rank": 3, "time": 3.5, "location": {"lat": 36.140346041020905, "lng": 94.81432425579564}, "feature": {"sight_features": "", "sight_content": ""}}, {"title": "玉珠峰", "address": "海西蒙古族藏族自治州格尔木市南昆仑山口以东10公里处", "image": "", "rank": 4, "time": 3.0, "location": {"lat": 36.41237104695386, "lng": 94.93331021042529}, "feature": {"sight_features": "", "sight_content": ""}}, {"title": "昆仑公园", "address": "海西蒙古族藏族自治州格尔木市昆仑中路11号", "image": "", "rank": 5, "time": 1.0, "location": {"lat": 36.41485904359906, "lng": 94.90978951793532}, "feature": {"sight_features": "", "sight_content": ""}}, {"title": "盐湖钾肥厂", "address": "海西蒙古族藏族自治州格尔木市察尔汗镇", "image": "", "rank": 6, "time": 2.5, "location": {"lat": 36.41237104695386, "lng": 94.93331021042529}, "feature": {"sight_features": "", "sight_content": ""}}, {"title": "万丈盐桥", "address": "海西蒙古族藏族自治州格尔木市察尔汗盐湖之上", "image": "", "rank": 7, "time": 1.5, "location": {"lat": 37.09509421558535, "lng": 95.21831971291691}, "feature": {"sight_features": "", "sight_content": ""}}, {"title": "西王母瑶池", "address": "海西蒙古族藏族自治州格尔木市", "image": "", "rank": 8, "time": 1.5, "location": {"lat": 36.41237104695386, "lng": 94.93331021042529}, "feature": {"sight_features": "", "sight_content": ""}}, {"title": "三岔河特大桥", "address": "海西蒙古族藏族自治州格尔木市", "image": "", "rank": 9, "time": 1.0, "location": {"lat": 36.41237104695386, "lng": 94.93331021042529}, "feature": {"sight_features": "", "sight_content": ""}}, {"title": "将军楼公园", "address": "格尔木市交通巷与开拓街交叉口 ‎", "image": "", "rank": 10, "time": 1.0, "location": {"lat": 36.42419517915318, "lng": 94.89415529385656}, "feature": {"sight_features": "", "sight_content": ""}}, {"title": "纳赤台清泉（昆仑泉）", "address": "格尔木市昆仑河北岸", "image": "", "rank": 11, "time": 1.0, "location": {"lat": 35.88588488682435, "lng": 94.46695844334563}, "feature": {"sight_features": "", "sight_content": ""}}, {"title": "格尔木水电站", "address": "格尔木市30公里格尔木河下游", "image": "", "rank": 12, "time": 1.0, "location": {"lat": 36.29762272724571, "lng": 94.7855083676296}, "feature": {"sight_features": "", "sight_content": ""}}, {"title": "格尔木河", "address": "", "image": "", "rank": 13, "time": 1.0, "location": {"lat": 36.29762272724571, "lng": 94.7855083676296}, "feature": {"sight_features": "", "sight_content": ""}}, {"title": "蒙古族风情园", "address": "格尔木市中心西10公里处", "image": "", "rank": 14, "time": 1.0, "location": {"lat": 36.41237104695386, "lng": 94.93331021042529}, "feature": {"sight_features": "", "sight_content": ""}}, {"title": "各拉丹东冰川", "address": "体育巷7号", "image": "", "rank": 15, "time": 2, "location": {"lat": 41.1116698953328, "lng": 122.99814777687435}, "feature": {"sight_features": "", "sight_content": ""}}, {"title": "昆仑花园广场", "address": "青海省格尔木市八一中路28号", "image": "", "rank": 16, "time": 1.5, "location": {"lat": 36.41237206961579, "lng": 94.90929429109073}, "feature": {"sight_features": "", "sight_content": ""}}, {"title": "昆仑神泉", "address": "青海省海西蒙古族藏族自治州格尔木市纳赤台镇", "image": "", "rank": 17, "time": 2, "location": {"lat": 35.88058957285004, "lng": 94.57195142567343}, "feature": {"sight_features": "", "sight_content": ""}}, {"title": "西大滩", "address": "玉珠峰的北侧", "image": "", "rank": 18, "time": null, "location": {"lat": 35.74986853858388, "lng": 94.31178857029941}, "feature": {"sight_features": "", "sight_content": ""}}, {"title": "昆仑山地质博物馆", "address": "青年巷61号", "image": "", "rank": 19, "time": 2, "location": {"lat": 36.42611021583374, "lng": 94.89249271810344}, "feature": {"sight_features": "", "sight_content": ""}}, {"title": "格尔木昆仑旅游区", "address": "青海省玉树藏族自治州治多县", "image": "", "rank": 20, "time": 2, "location": {"lat": 33.85795326771854, "lng": 95.61979357436996}, "feature": {"sight_features": "", "sight_content": ""}}, {"title": "玉珠峰登山大本营", "address": "玉珠峰南坡海拔4900米处", "image": "", "rank": 21, "time": 2, "location": {"lat": 30.69387427507437, "lng": 104.0486095301275}, "feature": {"sight_features": "", "sight_content": ""}}, {"title": "玉珠峰铁塔", "address": "玉珠峰顶点", "image": "", "rank": 22, "time": 2, "location": {"lat": 34.280456970655074, "lng": 117.21761074990599}, "feature": {"sight_features": "", "sight_content": ""}}, {"title": "高山草甸带", "address": "玉珠峰北侧", "image": "", "rank": 23, "time": 2, "location": {"lat": 39.76659984601474, "lng": 118.35465459711618}, "feature": {"sight_features": "", "sight_content": ""}}, {"title": "格勒戈壁", "address": "青海省海西蒙古族藏族自治州格尔木市格勒戈壁", "image": "", "rank": 24, "time": 2, "location": {"lat": 36.964806977813495, "lng": 93.05540144947688}, "feature": {"sight_features": "", "sight_content": ""}}, {"title": "终极密室", "address": "文体街39号", "image": "", "rank": 25, "time": 2, "location": {"lat": 38.9808771405955, "lng": 121.63124045597536}, "feature": {"sight_features": "", "sight_content": ""}}, {"title": "开心岛农家乐园", "address": "盐桥北路38号", "image": "", "rank": 26, "time": 2, "location": {"lat": 36.44554776506197, "lng": 94.88820143991953}, "feature": {"sight_features": "", "sight_content": ""}}, {"title": "格尔木科技馆", "address": "昆仑中路1-7号", "image": "", "rank": 27, "time": 2.5, "location": {"lat": 36.41856638338555, "lng": 94.90990090781857}, "feature": {"sight_features": "", "sight_content": ""}}, {"title": "徽园农家乐", "address": "星园路附近", "image": "", "rank": 28, "time": 2, "location": {"lat": 31.78881102805913, "lng": 119.92626147188358}, "feature": {"sight_features": "", "sight_content": ""}}, {"title": "青钾影剧院", "address": "青海省海西蒙古族藏族自治州格尔木市江源南路3-附6号", "image": "", "rank": 29, "time": 2, "location": {"lat": 36.40209767043058, "lng": 94.91681768058429}, "feature": {"sight_features": "", "sight_content": ""}}, {"title": "唐古拉山口", "address": "西藏自治区那曲市安多县和西藏两省的分界线,距青海省格尔木市604", "image": "", "rank": 30, "time": 2, "location": {"lat": 32.271268023108426, "lng": 91.6888906779995}, "feature": {"sight_features": "", "sight_content": ""}}, {"title": "格尔木", "address": "海西蒙古族藏族自治州格尔木市", "image": "", "rank": 31, "time": 4.5, "location": {"lat": 36.41237104695386, "lng": 94.93331021042529}, "feature": {"sight_features": "", "sight_content": ""}}, {"title": "格尔木NODE星球", "address": "大巴发车地点：格尔木盐湖广场、奥林匹克广场、盐湖酒店、中浩希尔顿逸林酒店。活动地点：格尔木市无人区戈壁。", "image": "", "rank": 32, "time": 4.5, "location": {"lat": 36.41237104695386, "lng": 94.93331021042529}, "feature": {"sight_features": "特色1 大型户外、体育、文化、艺术、科技嘉年华活动 特色2 四条无人区精品徒步线路，千架无人机表演，电子烟花秀，篝火晚会、少林寺表演，大型公共艺术装置……国内首例大型户外互动活动，活出你从未见过的精彩。", "sight_content": "NODE星球·昆仑文化旅游节818戈壁极限嘉年华是一次大型的徒步文旅活动，届时，圣洁的昆仑山脚下将蔓延开NODE星球的属地，配合艺术装置、无人机表演等先锋体验活动，热爱旅行的你将感受到都市生活所体验不到的灵魂归属感。整体场地海拔2800米，周围地貌丰富多样，风光惊艳，且不会产生严重的高原反应。具体分布而言，NODE星球由主城区、18洞高尔夫球场、月光矩阵、无人机飞行表演区、以及高处的焰火场地组成。图片左侧这个五彩斑斓、以我们logo为灵感的巨大彗星，就是NODE星球的主城区\n\n\n在沙山环绕的戈壁之中，NODE星球·昆仑文化旅游节818戈壁极限嘉年华主打戈壁徒步旅行活动。此外，我们还将在活动营地为大家带来无人机表演、大型艺术装置、烟火表演等丰富多彩的互动型观赏体验，满足你内心对美的渴望。\n\n\n若从空中俯瞰我们的主城区，它就是一项大型地景艺术，NODE这颗彗星拖着长长彗尾，向着昆仑飞去。城区设计融合了易经八卦理念，以北半球星座命名道路功能区，让你感到自己真正的来到了异星。而环形的场地设计，方便星球所有成员参与任何一项营区活动。主城区整体由天幕、艺术装置区、星河环线、主舞台疯狂NODE、生活营地区、自主创作环岛区以及彗尾组成。\n\n\n中间紫色的圆形区域，叫【天幕】这是一个功能性与颜值并存的艺术空间，是给NODE成员们提供的互动平台，成员们可以在这里完成营地任务、参与营地活动、拍照、交友。而天幕则被4个浅蓝色【艺术装置区】包围。你们都知道，艺术装置是咱星球的主打内容，在这里，新锐艺术家们创作自己的装置作品，你也可以加入其中，与艺术家互动，和装置趣味拍照。环绕着艺术装置的圆环——【星河环线】，是NODE星球的活动演艺大道，每天的花车表演和我们大管家“嘻嘻福”的巡游，都会在这条环线举行，到时候别忘了和大管家打招呼哦！\n坐落在生活营地区之中的三个环岛：天王岛、海王岛、冥王岛，是NODE星球成员的【自主创作环岛区】，纵使你不是专职的艺术家，你也可以在这里放飞自己的想象力，利用各种材料，挥洒你的创造力，创作自己的艺术装置！说不定从NODE星球回家后，你已经是一名小有名气的艺术家了～\n\n\n【焰火区】则是由浏阳市盛虹花景焰火燃放有限公司重磅打造，NODE星球的主题庆典焰火秀！这场焰火秀将持续10分钟，注定给你带来终生难忘的绚丽回忆！\n而【无人机表演区域】，则是在夜晚开始闪耀，由吉尼斯世界纪录的保持者——亿航白鹭打造的专属于NODE星球的无人机灯光秀，而且你还可以带上VR眼睛，感受全沉浸式的无人机表演！\n除了风光各异的四条徒步线路（沙山线、山地线、牧场线、沙漠线）之外，营地每晚都会上演酷炫的营地表演。据介绍，亿航白鹭将以全球领先的无人机应用技术打造极具科技感的“星幕”艺术，展示世界级的千架无人机编队表演，以“全球空域造景媒体”为NODE星球带来不一样的科技文化体验，让星球“子民”们感受科技之美。\n在远离城市喧嚣的NODE星球上，你可以卸掉城市里的“身份和腔调”，以一种自己重新认识自己的姿态和目的，远离一切“城市病”。在这里你还看不到一张人民币和任何电子支付的影子，你将使用NODE星球的虚拟货币——“戈币”，来维持生存。进入星球前每个人会得到50个“基本戈币”，为你的基本生存提供保障，而如果你还想要在沙漠中豪气撸串儿、尽兴畅饮，或是获取其他生活上的便利，就必须通过徒步、完成营地任务的方式亲自赚取。这种别具一格的游戏规则，能让参与者迅速融入到NODE星球中，全身心去感受这颗异星的原始力量。\n除了我们介绍详尽的主城区，在全景图上出现的【18洞高尔夫球场】，是白马控股和高尔夫频道联手，邀请国际著名高尔夫球场设计师，为你联手打造的“只存在两天的沙漠高尔夫球场”！"}}, {"title": "格尔木河西清真大寺", "address": "青海省海西蒙古族藏族自治州格尔木市金峰西路46-附6号", "image": "", "rank": 33, "time": 4.5, "location": {"lat": 36.420581167088294, "lng": 94.89768035966082}, "feature": {"sight_features": "", "sight_content": ""}}, {"title": "游乐园", "address": "海西蒙古族藏族自治州格尔木市八一路华联商场2层", "image": "", "rank": 34, "time": 2, "location": {"lat": 36.4115560120912, "lng": 94.91451432195157}, "feature": {"sight_features": "", "sight_content": ""}}, {"title": "哈利路亚基督教会", "address": "昆仑南路65号附近", "image": "", "rank": 35, "time": 2, "location": {"lat": 31.43274307511152, "lng": 119.50824200959832}, "feature": {"sight_features": "", "sight_content": ""}}, {"title": "格尔木站-站前广场", "address": "青海省海西蒙古族藏族自治州格尔木市江源南路25附近", "image": "", "rank": 36, "time": 2, "location": {"lat": 36.39028531035876, "lng": 94.91417998611534}, "feature": {"sight_features": "", "sight_content": ""}}, {"title": "丽园度假村", "address": "知青路附近", "image": "", "rank": 37, "time": 2, "location": {"lat": 47.58408665753843, "lng": 132.11300291346717}, "feature": {"sight_features": "", "sight_content": ""}}, {"title": "河东清真大寺", "address": "青海省海西蒙古族藏族自治州格尔木市金源北巷文海商务宾馆东南", "image": "", "rank": 38, "time": 2, "location": {"lat": 36.418825609428986, "lng": 94.91880638884773}, "feature": {"sight_features": "", "sight_content": ""}}, {"title": "昆仑山地质公园博物馆", "address": "青海省海西蒙古族藏族自治州格尔木市泰山中路昆仑山世界地质公园博物馆", "image": "", "rank": 39, "time": 2, "location": {"lat": 36.40888932581217, "lng": 94.92473606399363}, "feature": {"sight_features": "", "sight_content": ""}}, {"title": "长江源水生态保护站", "address": "青海省海西蒙古族藏族自治州格尔木市G109", "image": "", "rank": 40, "time": 2, "location": {"lat": 36.41237104695386, "lng": 94.93331021042529}, "feature": {"sight_features": "", "sight_content": ""}}, {"title": "安聚农家乐", "address": "盐桥北路38号", "image": "", "rank": 41, "time": 2, "location": {"lat": 36.44554776506197, "lng": 94.88820143991953}, "feature": {"sight_features": "", "sight_content": ""}}, {"title": "金隆农家乐", "address": "格茫公路", "image": "", "rank": 42, "time": 2, "location": {"lat": 36.434092286990015, "lng": 94.83958963724707}, "feature": {"sight_features": "", "sight_content": ""}}, {"title": "天然居生态园", "address": "树林巷", "image": "", "rank": 43, "time": 2, "location": {"lat": 36.614423648287016, "lng": 101.8099777888977}, "feature": {"sight_features": "", "sight_content": ""}}, {"title": "格尔木市图书馆", "address": "昆仑中路1号", "image": "", "rank": 44, "time": 1.5, "location": {"lat": 36.60493218908685, "lng": 101.80784557632904}, "feature": {"sight_features": "", "sight_content": ""}}, {"title": "家佳乐游乐园", "address": "八一中路11号", "image": "", "rank": 45, "time": 2, "location": {"lat": 33.90880592753741, "lng": 117.96246124397152}, "feature": {"sight_features": "", "sight_content": ""}}, {"title": "3d魔幻艺术展", "address": "柴达木路世邦广场B1楼", "image": "", "rank": 46, "time": 2, "location": {"lat": 22.252182509406616, "lng": 113.53700740671528}, "feature": {"sight_features": "", "sight_content": ""}}, {"title": "鲁卡其儿童乐园", "address": "柴达木路世邦广场3楼北侧", "image": "", "rank": 47, "time": 2, "location": {"lat": 22.252182509406616, "lng": 113.53700740671528}, "feature": {"sight_features": "", "sight_content": ""}}, {"title": "马尔萨民族风情园", "address": "金鱼湖民族风情园内", "image": "", "rank": 48, "time": 2, "location": {"lat": 27.932168130802772, "lng": 101.28750753207936}, "feature": {"sight_features": "", "sight_content": ""}}, {"title": "格尔木那棱格勒生态畜牧业专业合...", "address": "中山路43号附近", "image": "", "rank": 49, "time": 4.5, "location": {"lat": 31.050466317408766, "lng": 121.7604736102659}, "feature": {"sight_features": "", "sight_content": ""}}, {"title": "格尔木市图书馆图书流动站", "address": "察尔汗北路与金峰东路交叉口西南200米", "image": "", "rank": 50, "time": 4.5, "location": {"lat": 36.422375187761055, "lng": 94.93072901937292}, "feature": {"sight_features": "", "sight_content": ""}}, {"title": "青海格尔木昆仑山国家地质公园", "address": "青海省格尔木市南部", "image": "", "rank": 51, "time": 2, "location": {"lat": 36.41237104695386, "lng": 94.93331021042529}, "feature": {"sight_features": "", "sight_content": ""}}, {"title": "玉珠峰", "address": "青海省格尔木市昆仑山口", "image": "", "rank": 52, "time": 3.0, "location": {"lat": 36.41237104695386, "lng": 94.93331021042529}, "feature": {"sight_features": "", "sight_content": ""}}, {"title": "荣盛步行街", "address": "青海省格尔木市荣盛步行街", "image": "", "rank": 53, "time": 2, "location": {"lat": 36.41226684922198, "lng": 94.91187448502399}, "feature": {"sight_features": "", "sight_content": ""}}, {"title": "昆仑玉文化陈列馆", "address": "青海省格尔木市昆仑中路", "image": "", "rank": 54, "time": 2, "location": {"lat": 36.40886554457601, "lng": 94.90946579108717}, "feature": {"sight_features": "", "sight_content": ""}}, {"title": "柴达木路商业街", "address": "青海省格尔木市文体街", "image": "", "rank": 55, "time": 2, "location": {"lat": 36.39870165901683, "lng": 94.91269619561635}, "feature": {"sight_features": "", "sight_content": ""}}, {"title": "龙舟啤酒广场", "address": "海西蒙古族藏族自治州-格尔木市-建兴巷红伟玉石市场后院", "image": "", "rank": 56, "time": 2, "location": {"lat": 36.409808036852006, "lng": 94.92859589322755}, "feature": {"sight_features": "", "sight_content": ""}}, {"title": "阿卡扎秀日", "address": "海西蒙古族藏族自治州-格尔木市", "image": "", "rank": 57, "time": 2, "location": {"lat": 36.41237104695386, "lng": 94.93331021042529}, "feature": {"sight_features": "", "sight_content": ""}}, {"title": "金鱼湖", "address": "青海省海西蒙古族藏族自治州格尔木市阿拉尔村", "image": "", "rank": 58, "time": 2, "location": {"lat": 36.44743626574172, "lng": 94.80841459489648}, "feature": {"sight_features": "", "sight_content": ""}}, {"title": "儿童公园", "address": "格尔木", "image": "", "rank": 59, "time": 1.0, "location": {"lat": 36.41237104695386, "lng": 94.93331021042529}, "feature": {"sight_features": "", "sight_content": ""}}, {"title": "无极龙凤宫", "address": "海西蒙古族藏族自治州格尔木市109国道北200米", "image": "", "rank": 60, "time": 2.5, "location": {"lat": 36.1418033735614, "lng": 94.81432425579564}, "feature": {"sight_features": "", "sight_content": ""}}]}