{"cityName": "个旧", "days": 2, "cityImage": "", "spots": [{"title": "丫沙底瀑布温泉", "address": "红河州个旧市贾沙乡丫沙底瀑布温泉", "image": "", "rank": 1, "time": 2, "location": {"lat": 23.34772471410671, "lng": 103.06244680256304}, "feature": {"sight_features": "特色1 云南省惟一的氡气高温医疗矿泉", "sight_content": "红河州个旧市丫沙底瀑布温泉成是云南省惟一的氡气高温医疗矿泉，于2013年6月份被评为国家级2A景区。源头水温高达93℃—97℃，是一个典型的医疗热矿泉，富有多种对人体有益及必需的矿物质，如偏硅酸、氟、硫、氢、硼酸、铁、碘、锌等，特别是含有一种惰性气体——氡气，这些元素对人体有舒筋活血，刺激兴奋的作用，对心血管也有较强的保健作用，对人体痉挛、神经痛、风湿痛、皮肤病、肠胃病均有疗效，同时还有改善体质、增强抵抗力和预防疾病的作用。因此，丫沙底热矿泉被称为“天医神泉”\n丫沙底瀑布温泉建在天然的龙潭形成的瀑布小溪中，采用日式露天风格，依山就势而建，浑然天成，不仅保留了天然温泉对人体的治疗，健康保养，而且又充分展示日式泡浴的个性特点，让你尽情领略大自然露天浴的风韵，20多个温泉浴池或大或小，或隐或现，尽显自然风范。\n为了让游客在景区体验到人与自然和谐相处的乐趣，以及增强人们的生态环保意识，景区养殖了孔雀、鹅、锦鸡、珍珠鸡、锦鲤、猫等动物。在惊喜的同时，更多体会到温馨、陶醉、神秘和几多浪漫，步入瀑布温泉，胜似天上人间。"}}, {"title": "沙甸大清真寺", "address": "红河哈尼族彝族自治州个旧市沙甸镇", "image": "", "rank": 2, "time": 1.0, "location": {"lat": 23.543390191884406, "lng": 103.23158048706178}, "feature": {"sight_features": "", "sight_content": ""}}, {"title": "金湖公园", "address": "团结湖公园西，白家庄东里23号", "image": "", "rank": 3, "time": 3.0, "location": {"lat": 39.933616974125506, "lng": 116.47087897503462}, "feature": {"sight_features": "", "sight_content": ""}}, {"title": "宝华公园", "address": "云南省红河个旧市东侧老阴山下", "image": "", "rank": 4, "time": 2, "location": {"lat": 23.37093241252846, "lng": 103.17936062146131}, "feature": {"sight_features": "", "sight_content": ""}}, {"title": "个旧绿水河旅游度假区", "address": "云南省红河市个旧蔓耗镇", "image": "", "rank": 5, "time": 2, "location": {"lat": 23.02550889411212, "lng": 103.35507778132852}, "feature": {"sight_features": "", "sight_content": ""}}, {"title": "个碧石铁路公司旧址", "address": "云南省红河哈尼族彝族自治州个旧市金湖南路 ‎", "image": "", "rank": 6, "time": 2, "location": {"lat": 23.367463023167517, "lng": 103.16446370139751}, "feature": {"sight_features": "", "sight_content": ""}}, {"title": "加级寨梨花谷", "address": "红河州个旧市加级寨梨花谷", "image": "", "rank": 7, "time": 1.5, "location": {"lat": 23.446745852626336, "lng": 103.12268869985657}, "feature": {"sight_features": "", "sight_content": ""}}, {"title": "贾沙温泉", "address": "贾沙乡尼格村", "image": "", "rank": 8, "time": 2, "location": {"lat": 23.36361875284531, "lng": 102.94920009043338}, "feature": {"sight_features": "", "sight_content": ""}}, {"title": "清水河热带雨林度假区", "address": "牛棚段", "image": "", "rank": 9, "time": 1.5, "location": {"lat": 23.3179124526451, "lng": 113.51953412848358}, "feature": {"sight_features": "", "sight_content": ""}}, {"title": "富源温泉生态休闲庄园", "address": "倘甸庆丰车行对面", "image": "", "rank": 10, "time": 2, "location": {"lat": 39.33421929873188, "lng": 115.86918801653334}, "feature": {"sight_features": "", "sight_content": ""}}, {"title": "中国移动通信新冠路天盈特约代理...", "address": "新冠路和顺门诊部附近", "image": "", "rank": 11, "time": 2, "location": {"lat": 23.365771293935968, "lng": 103.16007629554242}, "feature": {"sight_features": "", "sight_content": ""}}, {"title": "个旧魁星阁", "address": "云南省个旧大屯镇 661017", "image": "", "rank": 12, "time": 2, "location": {"lat": 23.400771981471188, "lng": 103.2751784981261}, "feature": {"sight_features": "", "sight_content": ""}}, {"title": "石榴坝古墓", "address": "云南省个旧倘甸乡倘甸村 661012", "image": "", "rank": 13, "time": 2, "location": {"lat": 23.56195231028182, "lng": 103.17639900341628}, "feature": {"sight_features": "", "sight_content": ""}}, {"title": "烈士墓", "address": "红河哈尼族彝族自治州个旧市东侧老阴山下宝华公园内", "image": "", "rank": 14, "time": 0.75, "location": {"lat": 23.35894269025116, "lng": 103.16724037091439}, "feature": {"sight_features": "", "sight_content": ""}}, {"title": "儿童乐园", "address": "云南省红河哈尼族彝族自治州个旧市工人文化宫内", "image": "", "rank": 15, "time": 2, "location": {"lat": 23.367341845345404, "lng": 103.16583957037038}, "feature": {"sight_features": "", "sight_content": ""}}, {"title": "猕猴", "address": "红河哈尼族彝族自治州个旧市东侧老阴山下宝华公园动物展区内", "image": "", "rank": 16, "time": 1.0, "location": {"lat": 23.35894269025116, "lng": 103.16724037091439}, "feature": {"sight_features": "", "sight_content": ""}}, {"title": "大雄宝殿", "address": "红河哈尼族彝族自治州个旧市东侧老阴山下宝华公园老阴山旅游区内", "image": "", "rank": 17, "time": 2, "location": {"lat": 23.35894269025116, "lng": 103.16724037091439}, "feature": {"sight_features": "", "sight_content": ""}}, {"title": "伽蓝殿", "address": "红河哈尼族彝族自治州个旧市宝华佛寺内", "image": "", "rank": 18, "time": 2, "location": {"lat": 23.35611908561817, "lng": 103.16695365964317}, "feature": {"sight_features": "", "sight_content": ""}}, {"title": "沙甸爱国红色博物馆", "address": "云南省红河哈尼族彝族自治州个旧市鸡石高速公路", "image": "", "rank": 19, "time": 2, "location": {"lat": 23.553353865414174, "lng": 103.20155093695824}, "feature": {"sight_features": "", "sight_content": ""}}, {"title": "团坡头清真寺", "address": "云南省红河哈尼族彝族自治州个旧市沙甸镇新沙甸正道路宁乡静里附近", "image": "", "rank": 20, "time": 1.5, "location": {"lat": 23.52668494349168, "lng": 103.23744418615757}, "feature": {"sight_features": "", "sight_content": ""}}, {"title": "凤尾村清真寺", "address": "云南省红河哈尼族彝族自治州个旧市沙甸镇正道路第十三中学附近", "image": "", "rank": 21, "time": 2, "location": {"lat": 23.54108068006443, "lng": 103.24343446188952}, "feature": {"sight_features": "", "sight_content": ""}}, {"title": "金鸡寨清真寺", "address": "云南省红河哈尼族彝族自治州个旧市沙甸镇穆斯林大街金鸡小区", "image": "", "rank": 22, "time": 2, "location": {"lat": 23.535992119591082, "lng": 103.24217036457969}, "feature": {"sight_features": "", "sight_content": ""}}, {"title": "个旧市工人疗养院-长廊", "address": "130县道附近个旧市工人疗养院内", "image": "", "rank": 23, "time": 2, "location": {"lat": 23.358434065995645, "lng": 102.94734049651981}, "feature": {"sight_features": "", "sight_content": ""}}, {"title": "荒漠麻蜥", "address": "红河哈尼族彝族自治州个旧市东侧老阴山下宝华公园动物展区两栖爬行动物馆内", "image": "", "rank": 24, "time": null, "location": {"lat": 23.35894269025116, "lng": 103.16724037091439}, "feature": {"sight_features": "", "sight_content": ""}}, {"title": "矿王殿", "address": "红河哈尼族彝族自治州个旧市宝华山寺内", "image": "", "rank": 25, "time": 2, "location": {"lat": 23.34916519143909, "lng": 103.1787086960004}, "feature": {"sight_features": "", "sight_content": ""}}, {"title": "怀源芳圃", "address": "金湖南路14号对面", "image": "", "rank": 26, "time": 2, "location": {"lat": 23.367273014926436, "lng": 103.16583200034987}, "feature": {"sight_features": "", "sight_content": ""}}, {"title": "大屯扬帆度假村", "address": "云南省红河哈尼族彝族自治州个旧市G326(红河大道)", "image": "", "rank": 27, "time": 2, "location": {"lat": 23.383715535529912, "lng": 103.33948770537751}, "feature": {"sight_features": "", "sight_content": ""}}, {"title": "吉米瑞儿童主题乐园", "address": "人民路90号锡花大厦1楼（钟表眼镜店旁）", "image": "", "rank": 28, "time": 2, "location": {"lat": 33.87723855435054, "lng": 115.80088180608048}, "feature": {"sight_features": "", "sight_content": ""}}, {"title": "仙人洞", "address": "个旧公路管理段", "image": "", "rank": 29, "time": 1.5, "location": {"lat": 23.357742833086373, "lng": 103.1577618365493}, "feature": {"sight_features": "", "sight_content": ""}}, {"title": "个碧石铁路陈列馆", "address": "金湖西路357", "image": "", "rank": 30, "time": 2, "location": {"lat": 23.370711720529997, "lng": 103.16107191808119}, "feature": {"sight_features": "", "sight_content": ""}}, {"title": "空心山观音寺", "address": "云南省红河哈尼族彝族自治州个旧市红土坡段", "image": "", "rank": 31, "time": 2, "location": {"lat": 23.39053803775123, "lng": 103.28118119832155}, "feature": {"sight_features": "", "sight_content": ""}}, {"title": "哈尼族彝族自治州群众艺术馆", "address": "青年路69号2幢", "image": "", "rank": 32, "time": 2, "location": {"lat": 39.94454706622515, "lng": 116.5223596133702}, "feature": {"sight_features": "", "sight_content": ""}}, {"title": "知青山庄", "address": "乌杨段", "image": "", "rank": 33, "time": 2, "location": {"lat": 29.345294878531856, "lng": 115.2656229538961}, "feature": {"sight_features": "", "sight_content": ""}}, {"title": "攀枝花温泉", "address": "323国道", "image": "", "rank": 34, "time": 0.7, "location": {"lat": 24.97631276438632, "lng": 113.87824165692972}, "feature": {"sight_features": "", "sight_content": ""}}, {"title": "小魔星欢乐堡", "address": "哈尼族彝族自治州金湖东路40幢1楼5号商铺", "image": "", "rank": 35, "time": 2, "location": {"lat": 30.873169310617097, "lng": 120.38555916289522}, "feature": {"sight_features": "", "sight_content": ""}}, {"title": "咪咪儿童乐园", "address": "金湖东路个旧四中西南60米", "image": "", "rank": 36, "time": 2, "location": {"lat": 23.383906678325257, "lng": 103.16528136512329}, "feature": {"sight_features": "", "sight_content": ""}}, {"title": "云雾茶直销点", "address": "金湖南路金康门诊部对面", "image": "", "rank": 37, "time": 2, "location": {"lat": 23.367161263978105, "lng": 103.16271882648736}, "feature": {"sight_features": "", "sight_content": ""}}, {"title": "爱乐堡儿童乐园", "address": "紫竹园内23幢一层", "image": "", "rank": 38, "time": 2, "location": {"lat": 31.885787829164567, "lng": 117.34331128579885}, "feature": {"sight_features": "", "sight_content": ""}}, {"title": "乍甸牧童生态园", "address": "个旧至鸡街新公路乍甸中段", "image": "", "rank": 39, "time": 2, "location": {"lat": 23.473349176411222, "lng": 103.18152228677201}, "feature": {"sight_features": "", "sight_content": ""}}, {"title": "个旧市国营乍甸农场", "address": "212省道附近", "image": "", "rank": 40, "time": 2, "location": {"lat": 40.390563512510504, "lng": 116.26044547726889}, "feature": {"sight_features": "", "sight_content": ""}}, {"title": "御锦庄园", "address": "绿海小区", "image": "", "rank": 41, "time": 2, "location": {"lat": 37.855654883369596, "lng": 118.81192127955624}, "feature": {"sight_features": "", "sight_content": ""}}, {"title": "鳄鱼", "address": "人民路与邮电巷交叉口西北50米", "image": "", "rank": 42, "time": 2, "location": {"lat": 23.367530635071493, "lng": 103.16050416833804}, "feature": {"sight_features": "", "sight_content": ""}}, {"title": "红河州艺术剧院", "address": "金湖西路418号附近", "image": "", "rank": 43, "time": 2, "location": {"lat": 23.36878908370475, "lng": 103.1608231503364}, "feature": {"sight_features": "", "sight_content": ""}}, {"title": "锡都图书馆", "address": "宝华路15号附近", "image": "", "rank": 44, "time": null, "location": {"lat": 23.119612402457044, "lng": 113.24809666140455}, "feature": {"sight_features": "", "sight_content": ""}}, {"title": "锡都高尔夫练习场", "address": "金湖东路66号附41", "image": "", "rank": 45, "time": 2, "location": {"lat": 23.379379390285607, "lng": 103.1664062376554}, "feature": {"sight_features": "", "sight_content": ""}}, {"title": "红河州业余黄梅戏艺术团(个旧分...", "address": "中山路61", "image": "", "rank": 46, "time": 2, "location": {"lat": 45.73421696920917, "lng": 126.68145187015632}, "feature": {"sight_features": "", "sight_content": ""}}, {"title": "个旧市中山社区歌舞队", "address": "中山路61", "image": "", "rank": 47, "time": 2, "location": {"lat": 45.73421696920917, "lng": 126.68145187015632}, "feature": {"sight_features": "", "sight_content": ""}}, {"title": "红河州歌舞团", "address": "中山路61号精诚大楼内", "image": "", "rank": 48, "time": 2, "location": {"lat": 23.36527364400935, "lng": 103.16369699944161}, "feature": {"sight_features": "", "sight_content": ""}}, {"title": "天然居温泉", "address": "鸡街镇倘甸乡温水塘村", "image": "", "rank": 49, "time": 2, "location": {"lat": 23.5597510631894, "lng": 103.17446672490902}, "feature": {"sight_features": "", "sight_content": ""}}, {"title": "宝华山寺", "address": "云南省个旧市区东南隅宝华山上", "image": "", "rank": 50, "time": 2, "location": {"lat": 23.34916519143909, "lng": 103.1787086960004}, "feature": {"sight_features": "", "sight_content": ""}}, {"title": "个旧云庙", "address": "云南省个旧五一路", "image": "", "rank": 51, "time": 2, "location": {"lat": 23.364941534583274, "lng": 103.1665186084882}, "feature": {"sight_features": "", "sight_content": ""}}, {"title": "黑马井汉墓群", "address": "云南省个旧卡房镇黑马井村", "image": "", "rank": 52, "time": 2, "location": {"lat": 23.260167195630103, "lng": 103.15360606954955}, "feature": {"sight_features": "", "sight_content": ""}}, {"title": "鸡街火车站", "address": "云南省个旧鸡街北部", "image": "", "rank": 53, "time": 2, "location": {"lat": 23.364941534583274, "lng": 103.1665186084882}, "feature": {"sight_features": "", "sight_content": ""}}, {"title": "凌云阁", "address": "云南省个旧宝华路", "image": "", "rank": 54, "time": 2, "location": {"lat": 23.353067393285812, "lng": 103.16538128903497}, "feature": {"sight_features": "", "sight_content": ""}}]}