{"cityName": "合江", "days": 2, "cityImage": "", "spots": [{"title": "泸州法王寺", "address": "泸州市合江县二里乡凤凰山风景区", "image": "", "rank": 1, "time": 2.5, "location": {"lat": 28.67391714341869, "lng": 105.70520043654169}, "feature": {"sight_features": "", "sight_content": ""}}, {"title": "佛宝自怀景区", "address": "泸州市合江县445乡道西50米", "image": "", "rank": 2, "time": 2, "location": {"lat": 28.81779304283959, "lng": 105.8384319588538}, "feature": {"sight_features": "", "sight_content": ""}}, {"title": "电子阅览室", "address": "文化街16号附近", "image": "", "rank": 3, "time": 2, "location": {"lat": 39.263822466561166, "lng": 117.82539302823989}, "feature": {"sight_features": "", "sight_content": ""}}, {"title": "十七驳石桥", "address": "贵州省赤水市市东 564706", "image": "", "rank": 4, "time": 2, "location": {"lat": 28.596118908732613, "lng": 105.70348859502005}, "feature": {"sight_features": "", "sight_content": ""}}, {"title": "夜宴啤酒广场", "address": "合江镇枣林桥社区新华中路581号1栋2号门市", "image": "", "rank": 5, "time": 2, "location": {"lat": 28.81968856403778, "lng": 105.8389334972744}, "feature": {"sight_features": "", "sight_content": ""}}, {"title": "来一炮啤酒广场", "address": "符阳路110", "image": "", "rank": 6, "time": 2, "location": {"lat": 28.824352502751484, "lng": 105.83458535088165}, "feature": {"sight_features": "", "sight_content": ""}}, {"title": "仁友溪", "address": "贵州省赤水市赤水河 564706", "image": "", "rank": 7, "time": 2, "location": {"lat": 28.330367308442334, "lng": 105.96837954122265}, "feature": {"sight_features": "", "sight_content": ""}}, {"title": "笔架山风景名胜区", "address": "泸州市合江县境内", "image": "", "rank": 8, "time": 1.0, "location": {"lat": 28.81779304283959, "lng": 105.8384319588538}, "feature": {"sight_features": "", "sight_content": ""}}, {"title": "琴蛙湖湿地公园", "address": "泸州市合江县福宝玉兰山景区", "image": "", "rank": 9, "time": 2, "location": {"lat": 28.666698556286782, "lng": 106.13860209237204}, "feature": {"sight_features": "", "sight_content": ""}}, {"title": "丁祠堂", "address": "泸州市合江县合叙路", "image": "", "rank": 10, "time": 2, "location": {"lat": 28.81953022852527, "lng": 105.70704695022872}, "feature": {"sight_features": "", "sight_content": ""}}, {"title": "罗祠堂", "address": "泸州市合江县三二五乡道", "image": "", "rank": 11, "time": 2, "location": {"lat": 28.81779304283959, "lng": 105.8384319588538}, "feature": {"sight_features": "", "sight_content": ""}}, {"title": "快乐小屋儿童乐园", "address": "四川省泸州市合江县兴教街附8号", "image": "", "rank": 12, "time": 2, "location": {"lat": 28.818282013611313, "lng": 105.83493967671028}, "feature": {"sight_features": "", "sight_content": ""}}, {"title": "天悦儿童乐园", "address": "四川省泸州市合江县滨江路北100米", "image": "", "rank": 13, "time": 2, "location": {"lat": 28.81233911705735, "lng": 105.84798909405269}, "feature": {"sight_features": "", "sight_content": ""}}, {"title": "欢乐岛儿童乐园", "address": "四川省泸州市合江县佛荫镇合叙路佛荫客运站东南200米", "image": "", "rank": 14, "time": 2, "location": {"lat": 28.836834069268615, "lng": 105.72170441348432}, "feature": {"sight_features": "", "sight_content": ""}}, {"title": "卡奇乐儿童乐园", "address": "四川省泸州市合江县新华北路", "image": "", "rank": 15, "time": 2, "location": {"lat": 28.82354552261128, "lng": 105.83491400313882}, "feature": {"sight_features": "", "sight_content": ""}}, {"title": "开心宝贝游乐园", "address": "但家巷14", "image": "", "rank": 16, "time": 2, "location": {"lat": 28.818748749014162, "lng": 105.84116851902965}, "feature": {"sight_features": "", "sight_content": ""}}, {"title": "佛荫镇卫生院康复疗养区", "address": "308省道附近", "image": "", "rank": 17, "time": 2, "location": {"lat": 40.337133976011295, "lng": 116.52614205897426}, "feature": {"sight_features": "", "sight_content": ""}}, {"title": "滨河休闲广场", "address": "安康路与安溪街交叉口东南200米", "image": "", "rank": 18, "time": 2, "location": {"lat": 28.585770461328426, "lng": 105.69686972731277}, "feature": {"sight_features": "", "sight_content": ""}}, {"title": "少岷广场", "address": "泸州市合江县建设路下段295号", "image": "", "rank": 19, "time": 2, "location": {"lat": 28.811646505020477, "lng": 105.84150923912304}, "feature": {"sight_features": "", "sight_content": ""}}, {"title": "福田寺", "address": "324乡道附近", "image": "", "rank": 20, "time": 2, "location": {"lat": 34.68564445088469, "lng": 116.78432009305278}, "feature": {"sight_features": "", "sight_content": ""}}, {"title": "江南钓鱼村", "address": "合江镇马街魏家祠九社45号马街郭石坝", "image": "", "rank": 21, "time": 2, "location": {"lat": 28.805392185984804, "lng": 105.86386577257994}, "feature": {"sight_features": "", "sight_content": ""}}, {"title": "合江县基督教礼拜堂", "address": "长江路349号附近", "image": "", "rank": 22, "time": 2, "location": {"lat": 29.92020424856374, "lng": 121.85891444984499}, "feature": {"sight_features": "", "sight_content": ""}}, {"title": "干锅起义", "address": "其他踏水桥中段33.35号", "image": "", "rank": 23, "time": 2, "location": {"lat": 29.1516181033313, "lng": 105.87456806315106}, "feature": {"sight_features": "", "sight_content": ""}}, {"title": "袁祠堂", "address": "泸州市合江县三七七乡道", "image": "", "rank": 24, "time": 2, "location": {"lat": 28.81779304283959, "lng": 105.8384319588538}, "feature": {"sight_features": "", "sight_content": ""}}, {"title": "金家祠堂", "address": "泸州市合江县零零六县道", "image": "", "rank": 25, "time": 2, "location": {"lat": 28.81779304283959, "lng": 105.8384319588538}, "feature": {"sight_features": "", "sight_content": ""}}, {"title": "曹祠堂", "address": "泸州市合江县泰安--二里公路", "image": "", "rank": 26, "time": 2, "location": {"lat": 28.81779304283959, "lng": 105.8384319588538}, "feature": {"sight_features": "", "sight_content": ""}}, {"title": "杨家祠堂", "address": "泸州市合江县太伏--白沙", "image": "", "rank": 27, "time": 2.0, "location": {"lat": 28.81779304283959, "lng": 105.8384319588538}, "feature": {"sight_features": "", "sight_content": ""}}, {"title": "城西湿地公园", "address": "四川省泸州市合江县S308", "image": "", "rank": 28, "time": 2, "location": {"lat": 28.81779304283959, "lng": 105.8384319588538}, "feature": {"sight_features": "", "sight_content": ""}}, {"title": "尧坝古镇", "address": "泸州市合江县尧灞古镇(兴尧路东)", "image": "", "rank": 29, "time": 4.5, "location": {"lat": 28.743978006643033, "lng": 105.65320776228597}, "feature": {"sight_features": "", "sight_content": ""}}, {"title": "汉文化广场", "address": "泸州市合江县百花亭街5号", "image": "", "rank": 30, "time": 2, "location": {"lat": 28.810008861805777, "lng": 105.84877100611747}, "feature": {"sight_features": "", "sight_content": ""}}, {"title": "云台寺", "address": "中国四川省泸州市合江县324乡道", "image": "", "rank": 31, "time": 2, "location": {"lat": 28.816476995462374, "lng": 105.80671054554318}, "feature": {"sight_features": "", "sight_content": ""}}, {"title": "尧坝古镇", "address": "泸州市合江县尧灞古镇(兴尧路东)", "image": "", "rank": 32, "time": 4.5, "location": {"lat": 28.743978006643033, "lng": 105.65320776228597}, "feature": {"sight_features": "", "sight_content": ""}}, {"title": "合江艺术展览馆", "address": "泸州市合江县滨江路9幢-2单元", "image": "", "rank": 33, "time": 1.0, "location": {"lat": 28.819681320734627, "lng": 105.84060999039257}, "feature": {"sight_features": "", "sight_content": ""}}, {"title": "合江县档案馆", "address": "符阳路7号", "image": "", "rank": 34, "time": 2, "location": {"lat": 28.822142509720187, "lng": 105.83096479430458}, "feature": {"sight_features": "", "sight_content": ""}}, {"title": "温州人家杨梅", "address": "虎头乡河坝村农村商业银行东北侧", "image": "", "rank": 35, "time": 3.0, "location": {"lat": 29.513591898198225, "lng": 106.9967977220627}, "feature": {"sight_features": "", "sight_content": ""}}, {"title": "荔枝文化广场", "address": "荔城大道", "image": "", "rank": 36, "time": 2, "location": {"lat": 25.488208654357827, "lng": 119.03235764249618}, "feature": {"sight_features": "", "sight_content": ""}}, {"title": "梦源荔枝农场", "address": "合江镇柿子田村", "image": "", "rank": 37, "time": 2, "location": {"lat": 28.781140949225577, "lng": 105.8482654029461}, "feature": {"sight_features": "", "sight_content": ""}}, {"title": "老泸州城", "address": "四川省合江县焦滩乡老泸村", "image": "", "rank": 38, "time": 2, "location": {"lat": 28.884322979097718, "lng": 105.65142494654434}, "feature": {"sight_features": "", "sight_content": ""}}, {"title": "自怀原始森林", "address": "中国重庆市江津区境内", "image": "", "rank": 39, "time": 2, "location": {"lat": 29.295884374464997, "lng": 106.26559760837834}, "feature": {"sight_features": "", "sight_content": ""}}, {"title": "河坝头", "address": "泸州市-合江县-五通镇河坝头", "image": "", "rank": 40, "time": 2, "location": {"lat": 28.567984234852155, "lng": 105.62814570870178}, "feature": {"sight_features": "", "sight_content": ""}}, {"title": "河坝头", "address": "泸州市-合江县-三二二乡道", "image": "", "rank": 41, "time": 2, "location": {"lat": 28.774420938309998, "lng": 105.86883915120376}, "feature": {"sight_features": "", "sight_content": ""}}, {"title": "合江虎头河坝鱼种场", "address": "泸州市-合江县-208省道西50米", "image": "", "rank": 42, "time": 1.0, "location": {"lat": 28.72775091636595, "lng": 105.95603101956773}, "feature": {"sight_features": "", "sight_content": ""}}, {"title": "河坝头", "address": "泸州市-合江县", "image": "", "rank": 43, "time": 2, "location": {"lat": 28.81779304283959, "lng": 105.8384319588538}, "feature": {"sight_features": "", "sight_content": ""}}, {"title": "河坝头", "address": "泸州市-合江县-三二八乡道", "image": "", "rank": 44, "time": 2, "location": {"lat": 28.85257161526333, "lng": 105.9787315591196}, "feature": {"sight_features": "", "sight_content": ""}}, {"title": "河坝头", "address": "泸州市-合江县-凤鸣镇河坝头", "image": "", "rank": 45, "time": 2, "location": {"lat": 28.758334539093966, "lng": 105.75662901266611}, "feature": {"sight_features": "", "sight_content": ""}}, {"title": "水木花卉种植园", "address": "泸州市-合江县-宏宇花苑A区东北60米(川江路)", "image": "", "rank": 46, "time": 2, "location": {"lat": 28.869382143784176, "lng": 105.93114189967551}, "feature": {"sight_features": "", "sight_content": ""}}, {"title": "汪家屋基", "address": "泸州市-合江县", "image": "", "rank": 47, "time": 2, "location": {"lat": 28.81779304283959, "lng": 105.8384319588538}, "feature": {"sight_features": "", "sight_content": ""}}, {"title": "汪垇村", "address": "泸州市-合江县", "image": "", "rank": 48, "time": 2, "location": {"lat": 28.81779304283959, "lng": 105.8384319588538}, "feature": {"sight_features": "", "sight_content": ""}}, {"title": "汪家大岩", "address": "泸州市-合江县", "image": "", "rank": 49, "time": 2, "location": {"lat": 28.81779304283959, "lng": 105.8384319588538}, "feature": {"sight_features": "", "sight_content": ""}}]}