{"cityName": "耿马", "days": 2, "cityImage": "", "spots": [{"title": "耿马总佛寺", "address": "临沧市耿马傣族佤族自治县甘东西路", "image": "", "rank": 1, "time": 1.5, "location": {"lat": 23.545881464891085, "lng": 99.40612068822466}, "feature": {"sight_features": "", "sight_content": ""}}, {"title": "惠民农家乐", "address": "泰兴木业对面", "image": "", "rank": 2, "time": 2, "location": {"lat": 32.17747402371212, "lng": 120.05859939046078}, "feature": {"sight_features": "", "sight_content": ""}}, {"title": "勐库农场", "address": "314省道附近", "image": "", "rank": 3, "time": 2, "location": {"lat": 40.19306973684933, "lng": 117.32479692178045}, "feature": {"sight_features": "", "sight_content": ""}}, {"title": "福荣公社胶厂一队", "address": "崇刚牛场路", "image": "", "rank": 4, "time": 2, "location": {"lat": 39.292246176020875, "lng": 117.11604172370745}, "feature": {"sight_features": "", "sight_content": ""}}, {"title": "永鑫彩钢大棚", "address": "甘东西路64号附近", "image": "", "rank": 5, "time": 2, "location": {"lat": 23.545560016711104, "lng": 99.40786763642392}, "feature": {"sight_features": "", "sight_content": ""}}, {"title": "耿马金叶烤烟综合服务专业合作社", "address": "耿马镇新城村", "image": "", "rank": 6, "time": 2, "location": {"lat": 23.568051975172896, "lng": 99.3879953938032}, "feature": {"sight_features": "", "sight_content": ""}}, {"title": "民生农家乐", "address": "团结路15号", "image": "", "rank": 7, "time": 2, "location": {"lat": 39.743780735311475, "lng": 118.71233614131377}, "feature": {"sight_features": "", "sight_content": ""}}, {"title": "石佛洞", "address": "云南省耿马傣族佤族自治县四排山乡石佛洞村 677502", "image": "", "rank": 8, "time": 1.0, "location": {"lat": 23.369303913885812, "lng": 99.43848844223085}, "feature": {"sight_features": "", "sight_content": ""}}, {"title": "勐简佛寺", "address": "大寨公路附近", "image": "", "rank": 9, "time": 2, "location": {"lat": 23.64363509184211, "lng": 102.47519835288904}, "feature": {"sight_features": "", "sight_content": ""}}, {"title": "孟定工艺佛寺", "address": "中缅路附近", "image": "", "rank": 10, "time": 2, "location": {"lat": 22.811429768383086, "lng": 108.40323914406224}, "feature": {"sight_features": "", "sight_content": ""}}, {"title": "双鳄鱼", "address": "青年路10号附近", "image": "", "rank": 11, "time": 2, "location": {"lat": 36.630216621311696, "lng": 114.4874373447571}, "feature": {"sight_features": "", "sight_content": ""}}, {"title": "滇缅铁路博物馆", "address": "孟定镇", "image": "", "rank": 12, "time": 2, "location": {"lat": 23.560141928380407, "lng": 99.08912574525606}, "feature": {"sight_features": "", "sight_content": ""}}, {"title": "同护佛寺", "address": "云南省耿马傣族佤族自治县贺派乡", "image": "", "rank": 13, "time": 2, "location": {"lat": 23.48480085041726, "lng": 99.37404905254498}, "feature": {"sight_features": "", "sight_content": ""}}, {"title": "南汀河", "address": "云南省耿马傣族佤族自治县勐简乡", "image": "", "rank": 14, "time": 2, "location": {"lat": 23.722989606861525, "lng": 99.34389793745174}, "feature": {"sight_features": "", "sight_content": ""}}, {"title": "景戈商业步行街", "address": "云南省耿马傣族佤族自治县景戈商业步行街", "image": "", "rank": 15, "time": 2, "location": {"lat": 23.53707726457526, "lng": 99.41400673442966}, "feature": {"sight_features": "", "sight_content": ""}}, {"title": "花桃树岭岗", "address": "临沧市-耿马傣族佤族自治县", "image": "", "rank": 16, "time": 2, "location": {"lat": 23.543490995100633, "lng": 99.40394217609244}, "feature": {"sight_features": "", "sight_content": ""}}, {"title": "稻城亚丁KTV", "address": "临沧市-耿马傣族佤族自治县-南木弄岔路口", "image": "", "rank": 17, "time": 4.5, "location": {"lat": 23.75645067891515, "lng": 99.36592561743107}, "feature": {"sight_features": "", "sight_content": ""}}, {"title": "半个箐尖山包", "address": "临沧市-耿马傣族佤族自治县", "image": "", "rank": 18, "time": 2, "location": {"lat": 23.543490995100633, "lng": 99.40394217609244}, "feature": {"sight_features": "", "sight_content": ""}}, {"title": "芒当山", "address": "临沧市-耿马傣族佤族自治县", "image": "", "rank": 19, "time": 2, "location": {"lat": 23.543490995100633, "lng": 99.40394217609244}, "feature": {"sight_features": "", "sight_content": ""}}, {"title": "甘东公园", "address": "震新路团结广场", "image": "", "rank": 20, "time": 2, "location": {"lat": 41.68412858730565, "lng": 125.76582669109929}, "feature": {"sight_features": "", "sight_content": ""}}]}