{"cityName": "共和", "days": 2, "cityImage": "", "spots": [{"title": "青海湖二郎剑景区", "address": "海南藏族自治州共和县湖景区内", "image": "", "rank": 1, "time": 3.0, "location": {"lat": 36.28870331786534, "lng": 100.62662348005355}, "feature": {"sight_features": "特色1 乘游船徜徉在景色优美的青海湖上，悠闲惬意。 特色2 以草原、沙滩、动物为主的生态自然资源。 特色3 南岸以堤，阔仅百步，北亘数十里，直奔海腹而没，名为海带。", "sight_content": "二郎剑又名为“海带”，藏族人称之为“海虎”。位于青海湖东南岸，为一狭长的陆地提带，宽约百步，长约25公里，自南向北没入海中，开头酷似一把长剑。古籍上曾有这样的记载：“南岸一堤，阔仅百步，北亘数十里，直奔海腹而没，名为海带”。\n\n\n二郎剑景区位于青海湖东南部，因距离西宁约151km，这里又被称为151基地，景区大门位于109国道边，现在已成为青海湖重要的景点之一。二郎剑已经建成了观鸟台、观鹿园、观海桥、观海亭为组合的观赏区，以码头广场“吉祥四瑞”雕塑为组合的休闲区。\n\n\n二郎剑以其蜿蜒深入青海湖中的特殊地理位置，以草原、沙滩、动物为主的生态自然资源，以民间文化活动为内容，成为青海湖旅游区一颗耀眼的明珠。\n游玩二郎剑景区一般是先从大门处步行游览湖边的广场和街道，参观湖泊和藏式建筑等，然后乘坐游船，最后游玩半岛区域的娱乐项目。"}}, {"title": "黑马河乡", "address": "海南藏族自治州共和县109国道", "image": "", "rank": 2, "time": 2.0, "location": {"lat": 36.748645988551026, "lng": 99.60594603248721}, "feature": {"sight_features": "", "sight_content": ""}}, {"title": "橡皮山", "address": "海南藏族自治州共和县的黑马河乡，位于青海湖与茶卡盐湖之间", "image": "", "rank": 3, "time": null, "location": {"lat": 37.1967375040408, "lng": 99.89655802749532}, "feature": {"sight_features": "", "sight_content": ""}}, {"title": "青海湖环湖西路", "address": "海南藏族自治州共和县", "image": "", "rank": 4, "time": 2, "location": {"lat": 36.28870331786534, "lng": 100.62662348005355}, "feature": {"sight_features": "", "sight_content": ""}}, {"title": "尕日拉寺", "address": "海南藏族自治州共和县石乃亥乡尕日拉村", "image": "", "rank": 5, "time": 0.75, "location": {"lat": 36.879798806203, "lng": 99.65941116513507}, "feature": {"sight_features": "", "sight_content": ""}}, {"title": "泉湾", "address": "海南藏族自治州共和县石乃亥乡青海湖西南侧", "image": "", "rank": 6, "time": 2.0, "location": {"lat": 37.1967375040408, "lng": 99.89655802749532}, "feature": {"sight_features": "", "sight_content": ""}}, {"title": "湖东种羊场", "address": "海南藏族自治州共和县，青海湖东畔，东靠湟源县，北接海晏县，南邻共和县。", "image": "", "rank": 7, "time": 1.0, "location": {"lat": 37.1967375040408, "lng": 99.89655802749532}, "feature": {"sight_features": "", "sight_content": ""}}, {"title": "青海湖洱海", "address": "海南藏族自治州共和县环湖东路6公里处", "image": "", "rank": 8, "time": 1.5, "location": {"lat": 36.61200229770126, "lng": 100.78787378007976}, "feature": {"sight_features": "", "sight_content": ""}}, {"title": "伏俟城遗址", "address": "海南州共和县石乃亥乡铁卜加村", "image": "", "rank": 9, "time": 1.5, "location": {"lat": 37.04061146993393, "lng": 99.5854864112429}, "feature": {"sight_features": "", "sight_content": ""}}, {"title": "青海湖藏族民俗博物馆", "address": "海南藏族自治州共和县境内，青海湖码头附近", "image": "", "rank": 10, "time": 0.75, "location": {"lat": 37.1967375040408, "lng": 99.89655802749532}, "feature": {"sight_features": "", "sight_content": ""}}, {"title": "青海湖热气球", "address": "海南藏族自治州共和县江西沟乡青海湖二郎剑景区内", "image": "", "rank": 11, "time": 6.0, "location": {"lat": 36.589254785282954, "lng": 100.5085449262772}, "feature": {"sight_features": "", "sight_content": ""}}, {"title": "龙羊峡生态旅游度假景区", "address": "海南藏族自治州共和县龙羊峡镇", "image": "", "rank": 12, "time": 2, "location": {"lat": 36.20418218551046, "lng": 100.84909217410966}, "feature": {"sight_features": "特色1 高原特色养身度假旅游景区", "sight_content": "龙羊峡生态旅游景区位于青海省海南州境内，沿黄河河道西自黄河上游的羊曲电站，东至黄河下游的拉西瓦电站。\n景区划分为黄河大峡谷和土林地貌极限挑战区、龙羊湖水上游乐区、龙羊大坝工业遗迹和1978龙羊小镇文化体验核心区、温泉养生度假区、神秘沙漠探险区、高原漫游运动六大区域。\n龙羊峡生态旅游核心区——龙羊峡镇是青海省精品旅游路线的中心节点，距西宁147公里，距贵德县100公里，距离青海湖116公里，距共和县47公里，公路四通八达，交通十分便利。\n龙羊峡土林景观为国内最大的亚丹霞土林地质景观之一，第三系地层风化形成的土林。具有非常高的地质研究价值及特殊地貌观赏价值，独特的景观让人流连忘返。游客可以随着木栈道前行，从不同的角度欣赏土林景观带给您原始景观的震撼。"}}, {"title": "甲乙寺", "address": "海南州共和县倒淌河镇西偏北27公里的甲乙农业点", "image": "", "rank": 13, "time": 0.75, "location": {"lat": 36.52914309914334, "lng": 100.7187482134933}, "feature": {"sight_features": "", "sight_content": ""}}, {"title": "龙羊湖景区", "address": "海南藏族自治州共和县龙羊峡镇", "image": "", "rank": 14, "time": 2, "location": {"lat": 36.20418218551046, "lng": 100.84909217410966}, "feature": {"sight_features": "特色1 不同角度欣赏土林景观带来原始的震撼", "sight_content": "龙羊峡生态旅游景区位于青海省海南州境内，沿黄河河道西自黄河上游的羊曲电站，东至黄河下游的拉西瓦电站。\n景区划分为黄河大峡谷和土林地貌极限挑战区、龙羊湖水上游乐区、龙羊大坝工业遗迹和1978龙羊小镇文化体验核心区、温泉养生度假区、神秘沙漠探险区、高原漫游运动六大区域。\n龙羊湖位于海南藏族自治州共和县与贵南县的交界处，面积为383平方公里，庞大的优质水源，属于国家一级地表水，适明度达5米，是青藏高原上永不封冻的湖泊，俗语所说的“高峡出平湖”就是出自该寓意。"}}, {"title": "黄河大峡谷景区", "address": "龙羊峡镇拉西瓦水库，距离龙羊峡镇20公里左右", "image": "", "rank": 15, "time": null, "location": {"lat": 36.20418218551046, "lng": 100.84909217410966}, "feature": {"sight_features": "特色1 物种丰富，演绎天人合一的和谐画面", "sight_content": "龙羊峡生态旅游景区位于青海省海南州境内，沿黄河河道西自黄河上游的羊曲电站，东至黄河下游的拉西瓦电站。\n景区划分为黄河大峡谷和土林地貌极限挑战区、龙羊湖水上游乐区、龙羊大坝工业遗迹和1978龙羊小镇文化体验核心区、温泉养生度假区、神秘沙漠探险区、高原漫游运动六大区域。\n龙羊峡位于青海省海南藏族自治州共和县龙羊峡水电站与贵德县拉西瓦水电站之间，沿途峡谷风光，深深体会到大自然的鬼斧神工，两岸壁立千仞。\n由于处于两个大坝的中间，河流平缓，遥遥望去，它那蜿蜒曲折，陡峭幽深的地层，像亿万卷图书，层层叠叠堆放在一起;随着大峡谷的迂回盘曲，酷似一条纽带，在大地上蜿蜒飘舞。"}}, {"title": "明珠特色旅游度假村", "address": "青海省海南藏族自治州共和县环湖西路黑马河诚洁环湖度假第e栈", "image": "", "rank": 16, "time": 2, "location": {"lat": 36.538342714385934, "lng": 100.06487598956205}, "feature": {"sight_features": "", "sight_content": ""}}, {"title": "青海湖尕日拉尼玛度假村", "address": "海南藏族自治州共和县黑马河乡青海湖环湖西路11.5公里处", "image": "", "rank": 17, "time": 6.0, "location": {"lat": 36.81584395456031, "lng": 99.77243905367315}, "feature": {"sight_features": "", "sight_content": ""}}, {"title": "青海湖鸟岛度假村", "address": "海南藏族鸟岛镇向公村（环湖西路50.9公里处）", "image": "", "rank": 18, "time": 6.0, "location": {"lat": 36.93604034176559, "lng": 99.59743210396545}, "feature": {"sight_features": "", "sight_content": ""}}, {"title": "海贝儿儿童乐园", "address": "海南州共和县德洋广场二楼", "image": "", "rank": 19, "time": 2, "location": {"lat": 36.28447480046024, "lng": 100.6279154535804}, "feature": {"sight_features": "", "sight_content": ""}}, {"title": "青海湖骑马场", "address": "青海湖109国道青海湖藏人第一家东600米", "image": "", "rank": 20, "time": 6.0, "location": {"lat": 36.50287788960389, "lng": 100.79230901441657}, "feature": {"sight_features": "", "sight_content": ""}}, {"title": "青藏高原动物观赏园", "address": "109国道", "image": "", "rank": 21, "time": null, "location": {"lat": 39.790711104970946, "lng": 109.99633110015151}, "feature": {"sight_features": "", "sight_content": ""}}, {"title": "民族博物馆", "address": "人民路", "image": "", "rank": 22, "time": 2.0, "location": {"lat": 23.37490057686854, "lng": 103.40661159663834}, "feature": {"sight_features": "", "sight_content": ""}}, {"title": "建州五十周年成就展览馆", "address": "团结南路28号", "image": "", "rank": 23, "time": 2, "location": {"lat": 28.55021010899594, "lng": 115.94951519310017}, "feature": {"sight_features": "", "sight_content": ""}}, {"title": "哈图滩高原明珠牧家乐", "address": "青海省海南藏族自治州共和县青海湖倒淌河甲乙村109国道2097处", "image": "", "rank": 24, "time": 2, "location": {"lat": 36.748645988551026, "lng": 99.60594603248721}, "feature": {"sight_features": "", "sight_content": ""}}, {"title": "青海湖广润旅游度假村", "address": "西海春农家院旁", "image": "", "rank": 25, "time": 6.0, "location": {"lat": 36.56959880564834, "lng": 100.54750217520997}, "feature": {"sight_features": "", "sight_content": ""}}, {"title": "海心山度假村", "address": "藏族青海湖109国道(近青海湖二郎剑景区)", "image": "", "rank": 26, "time": 2, "location": {"lat": 36.589254785282954, "lng": 100.5085449262772}, "feature": {"sight_features": "", "sight_content": ""}}, {"title": "塘格木影剧院", "address": "四二六抗震救灾纪念碑附近", "image": "", "rank": 27, "time": 2, "location": {"lat": 36.08296585918375, "lng": 100.10029936480505}, "feature": {"sight_features": "", "sight_content": ""}}, {"title": "海南影剧院", "address": "团结南路146附近", "image": "", "rank": 28, "time": 2, "location": {"lat": 36.50371424782652, "lng": 101.57307777061096}, "feature": {"sight_features": "", "sight_content": ""}}, {"title": "龙羊峡水电站", "address": "青海省共和县黄河 813000", "image": "", "rank": 29, "time": 2, "location": {"lat": 36.03487856977173, "lng": 100.73695902211377}, "feature": {"sight_features": "", "sight_content": ""}}, {"title": "蓝宝石旅游之家", "address": "共和环湖西路五百米处", "image": "", "rank": 30, "time": 2, "location": {"lat": 36.538342714385934, "lng": 100.06487598956205}, "feature": {"sight_features": "", "sight_content": ""}}, {"title": "清真海湖明珠度假村", "address": "青海省海南藏族自治州共和县环湖西路", "image": "", "rank": 31, "time": 2, "location": {"lat": 36.538342714385934, "lng": 100.06487598956205}, "feature": {"sight_features": "", "sight_content": ""}}, {"title": "圣湖人家", "address": "共和县黑马河镇", "image": "", "rank": 32, "time": 2, "location": {"lat": 36.73555992615814, "lng": 99.78443197121464}, "feature": {"sight_features": "", "sight_content": ""}}, {"title": "雪花啤酒文化广场", "address": "共和县团结南路312", "image": "", "rank": 33, "time": 2, "location": {"lat": 36.27906915934231, "lng": 100.62853624197597}, "feature": {"sight_features": "", "sight_content": ""}}, {"title": "龙羊峡滨水遗记主题公园", "address": "青海省海南藏族自治州共和县332县道", "image": "", "rank": 34, "time": 2, "location": {"lat": 36.28870331786534, "lng": 100.62662348005355}, "feature": {"sight_features": "", "sight_content": ""}}, {"title": "青海湖渔场", "address": "青海省海南藏族自治州共和县青海湖景区内", "image": "", "rank": 35, "time": 6.0, "location": {"lat": 36.55775543937503, "lng": 100.6532974458667}, "feature": {"sight_features": "", "sight_content": ""}}, {"title": "白家大院度假村", "address": "海南藏族自治州共和县", "image": "", "rank": 36, "time": 2, "location": {"lat": 36.28870331786534, "lng": 100.62662348005355}, "feature": {"sight_features": "", "sight_content": ""}}, {"title": "青海湖温馨缘度假村", "address": "海南州共和县(109国道2104公里处和青海湖二郎剑景区以东约10公里处）", "image": "", "rank": 37, "time": 2, "location": {"lat": 36.589254785282954, "lng": 100.5085449262772}, "feature": {"sight_features": "", "sight_content": ""}}, {"title": "金海湾度假村", "address": "海南藏族自治州共和县二郎剑景区以东莫热村环岛东150米", "image": "", "rank": 38, "time": 2, "location": {"lat": 36.631285900696206, "lng": 100.133109973557}, "feature": {"sight_features": "", "sight_content": ""}}, {"title": "共和丝绸之路度假村", "address": "海南藏族自治州共和县109国道2145公里处", "image": "", "rank": 39, "time": 2, "location": {"lat": 36.748645988551026, "lng": 99.60594603248721}, "feature": {"sight_features": "", "sight_content": ""}}, {"title": "芦花源生态旅游度假村", "address": "青海湖二郎剑景区G109旁附近", "image": "", "rank": 40, "time": 2, "location": {"lat": 36.589254785282954, "lng": 100.5085449262772}, "feature": {"sight_features": "", "sight_content": ""}}, {"title": "江西沟莫热宽河驿马房车度假营地", "address": "江西沟京拉线傲行悦途骑行俱乐部西南250米", "image": "", "rank": 41, "time": 2, "location": {"lat": 36.74999980351042, "lng": 99.76149612142527}, "feature": {"sight_features": "", "sight_content": ""}}, {"title": "福地圣水合作社", "address": "环湖西路南50米", "image": "", "rank": 42, "time": 2, "location": {"lat": 31.167335504753574, "lng": 121.42786959836303}, "feature": {"sight_features": "", "sight_content": ""}}, {"title": "哈达合作俱乐部", "address": "环湖西路东50米", "image": "", "rank": 43, "time": 2, "location": {"lat": 31.16772174332374, "lng": 121.42831875111803}, "feature": {"sight_features": "", "sight_content": ""}}, {"title": "共和扎纳部落度假村", "address": "共和县青海湖石乃亥乡尕日拉村", "image": "", "rank": 44, "time": 2.0, "location": {"lat": 36.879798806203, "lng": 99.65941116513507}, "feature": {"sight_features": "", "sight_content": ""}}, {"title": "共和丝绸之路旅游度假村", "address": "共和石乃亥乡尕日拉村", "image": "", "rank": 45, "time": 2, "location": {"lat": 36.879798806203, "lng": 99.65941116513507}, "feature": {"sight_features": "", "sight_content": ""}}, {"title": "青海湖广场", "address": "海南藏族自治州共和县新建街1号", "image": "", "rank": 46, "time": 0.75, "location": {"lat": 36.28915321974513, "lng": 100.62644318384957}, "feature": {"sight_features": "", "sight_content": ""}}, {"title": "玉龙公司北山湾度假村", "address": "青海省海南藏族自治州共和县", "image": "", "rank": 47, "time": 2.5, "location": {"lat": 36.28870331786534, "lng": 100.62662348005355}, "feature": {"sight_features": "", "sight_content": ""}}, {"title": "青海湖莲禅墅", "address": "青海省海南藏族自治州黑马河乡109国道茶卡方向12公里处", "image": "", "rank": 48, "time": 2, "location": {"lat": 36.748645988551026, "lng": 99.60594603248721}, "feature": {"sight_features": "", "sight_content": ""}}, {"title": "湖二郞剑景区郞剑庄园", "address": "湖国道109——2103.5公里处左拐", "image": "", "rank": 49, "time": 2, "location": {"lat": 24.061303159940607, "lng": 115.60494538181634}, "feature": {"sight_features": "", "sight_content": ""}}, {"title": "倒淌河镇雪域藏獒观赏园", "address": "109国道", "image": "", "rank": 50, "time": 2, "location": {"lat": 39.790711104970946, "lng": 109.99633110015151}, "feature": {"sight_features": "", "sight_content": ""}}, {"title": "海南藏族自治州图书馆", "address": "团结南路28号", "image": "", "rank": 51, "time": 2, "location": {"lat": 28.55021010899594, "lng": 115.94951519310017}, "feature": {"sight_features": "", "sight_content": ""}}, {"title": "青海湖金运海岸观赏园", "address": "109国道20996处", "image": "", "rank": 52, "time": 6.0, "location": {"lat": 39.999808001176106, "lng": 115.77008834684273}, "feature": {"sight_features": "", "sight_content": ""}}, {"title": "赛马场", "address": "倒淌河镇京拉线赛马场", "image": "", "rank": 53, "time": 1.0, "location": {"lat": 36.55545386273359, "lng": 101.19792924390019}, "feature": {"sight_features": "", "sight_content": ""}}, {"title": "青海省格萨尔歌舞剧团", "address": "文化街43赛乾路", "image": "", "rank": 54, "time": 2, "location": {"lat": 36.28401429163289, "lng": 100.62612585832649}, "feature": {"sight_features": "", "sight_content": ""}}, {"title": "海南民族歌舞团", "address": "文化街43号赛乾路", "image": "", "rank": 55, "time": 2, "location": {"lat": 36.28401429163289, "lng": 100.62612585832649}, "feature": {"sight_features": "", "sight_content": ""}}, {"title": "切海大哇", "address": "海南藏族自治州-共和县-\"海南藏族自治州共和县\"", "image": "", "rank": 56, "time": 2, "location": {"lat": 36.28870331786534, "lng": 100.62662348005355}, "feature": {"sight_features": "", "sight_content": ""}}, {"title": "茶卡盐湖观光塔", "address": "茶卡盐湖售票处广场前", "image": "", "rank": 57, "time": 2, "location": {"lat": 35.0214253278287, "lng": 111.00437711461986}, "feature": {"sight_features": "", "sight_content": ""}}, {"title": "黑马河", "address": "海南藏族自治州共和县", "image": "", "rank": 58, "time": 2.0, "location": {"lat": 36.28870331786534, "lng": 100.62662348005355}, "feature": {"sight_features": "", "sight_content": ""}}, {"title": "洛合垭口", "address": "海南藏族自治州共和县306县道从二郎剑景区出发约9.4公里处", "image": "", "rank": 59, "time": null, "location": {"lat": 36.631285900696206, "lng": 100.133109973557}, "feature": {"sight_features": "", "sight_content": ""}}]}