{"cityName": "巩义", "days": 2, "cityImage": "", "spots": [{"title": "北宋皇陵", "address": "郑州市巩义市杜甫路84附1", "image": "", "rank": 1, "time": 3.0, "location": {"lat": 34.74514274198621, "lng": 112.99138150000763}, "feature": {"sight_features": "", "sight_content": ""}}, {"title": "康百万庄园", "address": "巩义市康店镇庄园路59号", "image": "", "rank": 2, "time": 3.0, "location": {"lat": 34.769868722592605, "lng": 112.95646478614007}, "feature": {"sight_features": "特色1 全国三大庄园之首 特色2 豫商文化家园深厚的文化底蕴! 特色3 被誉为豫商精神家园，中原古建典范。 特色4 康百万庄园保持儒家中庸、留余的处世态度，大胆开拓、勇于创新。", "sight_content": "全国重点文物保护单位，国家aaaa旅游景区——康百万庄园座落于河南省巩义市（原巩县），位于巩义市康店镇，距市区4公里，始建于明末清初。由于它背依邙山，面临洛水，因而有“金龟探水”的美称，是全国三大庄园（刘文彩庄园、牟二黑庄园）之一。被誉为豫商精神家园，中原古建典范。\n康百万庄园是公元十七、十八世纪华北黄土高原封建堡垒式建筑的代表。它依“天人合一、师法自然”的传统文化选址，靠山筑窑洞，临街建楼房，濒河设码头，据险垒寨墙，建成了一个各成系统、功能齐全、布局谨慎、等级森严的、集农、官、商为一体的大型地主庄园；它的石雕、木雕、砖雕，被誉为中原艺术的奇葩。全庄园由十九部分组成，占地240余亩，保存下来的主要有住宅区、栈房区、作坊区、南大院、祠堂区等十大部分、33个庭院、53座楼房、97间平房、73孔窑洞，共571间，建筑面积64300平方米。\n\n康百万家族，以财取天下之抱负，利逐四海之气概，秉诚诚实、守信、勤俭、拼搏的原则，保持儒家中庸、留余的处世态度，大胆开拓、勇于创新，富裕十二代、四百多年，成为豫商成功的典范。而如今的康百万庄园以豫商文化家园深厚的文化底蕴、独特的建筑风格吸引着中外游人。\n公元二十世纪六七十年代，河南康百万庄园、四川刘文彩庄园、山东牟二黑庄园，被称为全国三大庄园，康百万庄园作为三大庄园之首，比山西乔家大院大19倍，且对外开放，轰动河南、闻名全国。"}}, {"title": "竹林长寿山", "address": "郑州市巩义市竹林镇", "image": "", "rank": 3, "time": 2, "location": {"lat": 34.711203235650515, "lng": 113.13981648649286}, "feature": {"sight_features": "", "sight_content": "竹林长寿山景区，是国家AAA级景区，景区位于巩义市竹林镇，（竹林镇是全国农业旅游示范点，曾接待过三任党的总书记和二十多位国家级领导人。）景区总面积8.8平方公里，这里自然环境优美，旅游资源十分丰富，拥有五龙潭、笔架山、桃树沟、杏树岭、天井等景点。\n\n长寿山原名叫“龙龟山”，又叫“三树岭”。因这里有久居仙山的自然景观神龙、寿龟、天然鸿福，还有树龄超过千年、峥嵘苍劲的三棵老橿树而得名。在这里望远山近景，登山间步道，或采摘野果，或林间小憩，都会使您心旷神怡，流连忘返。尤其是深秋季节，那漫山遍野的红叶红的妖娆、红的壮观、红的热烈、红的让人无法拒绝，吸引了无数的游人来到这里拍照留念，观光游览。五龙潭路线以四季不断地山泉、五个相偎相依代表五十年风雨爱情的碧绿湖面以及五十六个民族动人的金婚故事，图片和互动游戏等追求幸福爱情，婚姻的文化内涵吸引着广大游客。\n\n长寿山滑道按照5A级标准建设，全长586米，采用全透明封闭式建筑风格，依山而建上下落差187米，穿越其中，惊险刺激又能领略沿途风光，是您休闲娱乐的乐园。\n\n竹林长寿山景区自开发以来得到各级领导的大力支持，2009年10月，原全国政协副主席杨汝岱游览长寿山后题词：层林尽染醉嘉宾 漫山红遍恋游人。如此美妙的仙山美景、旅游胜地，千百年来却像一位俊秀的村姑“养在深闺人未识”。随着近年来长寿山景区的巨资开发和红叶节的成功举办，才终于掀开了这美丽仙山红盖头的一角，露出了她美丽的容光。\n从中央到省市对竹林的发展有着高度的评价。竹林的发展，是河南农村的一个奇迹，是河南“三化”协调发展的一个缩影，也是河南新型城镇化进程的一个典范。"}}, {"title": "浮戏山雪花洞景区", "address": "郑州市巩义市新中镇", "image": "", "rank": 4, "time": 3.5, "location": {"lat": 34.68301526086462, "lng": 113.2016513462722}, "feature": {"sight_features": "特色1 典型的喀斯特地貌 特色2 山青，水秀，洞奇", "sight_content": "国家“AAA”级浮戏山雪花洞风景名胜区位于郑州市西南58公里的巩义市新中镇，面积34.55平方公里，分为七个景区，126处景观，特色是山青、水秀、洞奇、寨古、庙幽。\n\n浮戏山雪花洞景区森林覆盖率为89%，5公里以上的大峡谷18条；玉仙河贯穿全境，以小龙池为代表的日流量1.2万吨的溶泉30多个；以秦建玉仙圣母庙为中心的庙宇200多座；以将军寨为首的30多座古城寨堡被国防科工委誉为“中国军事历史博物馆”、“中华第一城堡群”；雪花洞在108座溶洞中独占鳌头，被洞穴研究会会长朱学稳教授誉为“天下第一雪花洞”。\n\n浮戏山雪花洞景区属典型的喀斯特地貌，沿玉仙河南下依次可见新生界、中生界、古生界、元古界、太古界，专家称景区是研究地质的“博物馆”。\n‍"}}, {"title": "巩义石窟寺", "address": "郑州市巩义市寺湾村", "image": "", "rank": 5, "time": 3.0, "location": {"lat": 34.81995051952409, "lng": 113.02968584522455}, "feature": {"sight_features": "特色1 历代曾相继在此凿龛造像", "sight_content": "石窟寺创建于北魏孝文帝时期，是北魏举办礼佛活动的大型皇家石窟之一，东魏、西魏、北齐、隋、唐、宋历代相继在此凿龛造像，留下了大量珍贵的造像、碑刻等。历经1500多年的风雨，石窟寺现存洞窟5个，千佛龛1个，摩崖大佛3尊，佛像7743尊，造像题记及其它碑刻186篇。其翩翩飞天，自然生动，超凡脱俗；帝后礼佛图构图完美、保存完整，充分表现了北魏皇室前往礼佛的宏大场面，是北魏石刻艺术的代表作，堪称国宝，具有很高的历史、艺术和科学价值。\n巩义石窟是北魏皇室开凿的一座石窟，孝文帝创建了寺院，宣武帝时开始凿石为窟，刻佛千万像，后来的东西魏、唐、宋时以陆续在这里刻了一些小龛。由此证明，巩义石窟是继洛阳龙门石窟之后开凿的一个石窟。初建寺称“希玄寺”，唐初改称“净土寺”，宋代改称石窟寺。 　　这里的规模虽比不上云岗、龙门那样雄伟庞大，气势磅礴，但小世巧玲珑，惟妙惟肖则是举世罕见的。这里洞窟门两侧石壁上有三层绝美的浮雕--帝后礼佛图，左侧以皇帝为主，后随文武大臣；右侧以皇后为主，嫔妃依次排列。帝后前由僧人引导、侍女掺扶。象这样的帝后礼佛图，构图之协调，刀法之熟练，造型之逼真，匠心之独运，实乃*，堪称国家之珍宝，艺术之绝品，令人叹为观止！"}}, {"title": "永昭陵", "address": "郑州市巩义市杜甫路84号", "image": "", "rank": 6, "time": 1.5, "location": {"lat": 34.745091648795416, "lng": 112.99276144908458}, "feature": {"sight_features": "", "sight_content": ""}}, {"title": "杜甫故里", "address": "巩义市站街镇杜甫前街中段（南瑶湾村）", "image": "", "rank": 7, "time": 2.0, "location": {"lat": 34.79935704558562, "lng": 113.07881611929498}, "feature": {"sight_features": "", "sight_content": ""}}, {"title": "青龙山慈云寺", "address": "郑州市巩义市大峪沟镇民权村", "image": "", "rank": 8, "time": 2.5, "location": {"lat": 34.6920250495255, "lng": 113.09214187068777}, "feature": {"sight_features": "特色1 享有中华第一寺之誉", "sight_content": "青龙山慈云寺,位于巩义市大峪沟镇民权村，距巩义市区20余公里。这里四山旁围、一水中流、峰恋联亘、林木掩映、环境十分幽静，是休闲度假的理想境地。\n慈云寺始建于汉代，是巩义第一丛林。据寺内碑载：“东汉明帝永平七年(公元64年)，有僧摩腾，竺法兰始建白马寺于洛阳城西，既而云游其山，因其山月之秀，遂开慈云禅寺”。所以称慈云，是说佛之慈心广大如云，荫庇整个世界。"}}, {"title": "巩义博物馆", "address": "郑州市巩义市杜甫路82号", "image": "", "rank": 9, "time": 1.5, "location": {"lat": 34.745382972928866, "lng": 112.99499500039612}, "feature": {"sight_features": "", "sight_content": ""}}, {"title": "杜甫陵园", "address": "郑州市巩义市城区西北5公里处的康店镇康店村西部邙岭上", "image": "", "rank": 10, "time": 2.0, "location": {"lat": 34.78644232518034, "lng": 112.93478347748693}, "feature": {"sight_features": "", "sight_content": ""}}, {"title": "巩义盘龙山景区", "address": "巩义市涉村镇洪河村", "image": "", "rank": 11, "time": 4.0, "location": {"lat": 34.64242119232894, "lng": 113.11760237936717}, "feature": {"sight_features": "", "sight_content": ""}}, {"title": "九莲洞", "address": "郑州市巩义市涉村镇东北部", "image": "", "rank": 12, "time": 1.0, "location": {"lat": 34.61848522975701, "lng": 113.11177425496423}, "feature": {"sight_features": "", "sight_content": ""}}, {"title": "御皇宫商务酒店温泉", "address": "郑州市巩义市建设路宋城御街3号楼", "image": "", "rank": 13, "time": 2, "location": {"lat": 34.75452685358706, "lng": 112.99309175602062}, "feature": {"sight_features": "", "sight_content": ""}}, {"title": "杨树沟风景区", "address": "郑州市巩义市新中镇", "image": "", "rank": 14, "time": 3.5, "location": {"lat": 34.68301526086462, "lng": 113.2016513462722}, "feature": {"sight_features": "", "sight_content": ""}}, {"title": "永熙陵", "address": "郑州市巩义市西村镇滹沱村东北", "image": "", "rank": 15, "time": 1.0, "location": {"lat": 34.675624969082655, "lng": 112.95773688645411}, "feature": {"sight_features": "", "sight_content": ""}}, {"title": "永裕陵", "address": "郑州市巩义市芝田镇八陵村东南", "image": "", "rank": 16, "time": 1.0, "location": {"lat": 34.66787155710297, "lng": 112.92413100154604}, "feature": {"sight_features": "", "sight_content": ""}}, {"title": "汇馨芳香世界", "address": "巩义市孝义街道办西沟村白沙滩", "image": "", "rank": 17, "time": 3.5, "location": {"lat": 34.776015572753614, "lng": 112.98754506714073}, "feature": {"sight_features": "", "sight_content": ""}}, {"title": "永昌陵", "address": "郑州市巩义市西村镇以北", "image": "", "rank": 18, "time": 1.0, "location": {"lat": 34.62151314427602, "lng": 112.96748998969808}, "feature": {"sight_features": "", "sight_content": ""}}, {"title": "嵩北森林公园", "address": "郑州市巩义市巩登路", "image": "", "rank": 19, "time": 2.5, "location": {"lat": 34.57515603491165, "lng": 113.03525159884228}, "feature": {"sight_features": "", "sight_content": ""}}, {"title": "永泰陵", "address": "郑州市巩义市芝田镇八陵村西南", "image": "", "rank": 20, "time": 1.0, "location": {"lat": 34.66787155710297, "lng": 112.92413100154604}, "feature": {"sight_features": "", "sight_content": ""}}, {"title": "永厚陵", "address": "郑州市巩义市新华路，永昭陵西北约200米的地方", "image": "", "rank": 21, "time": 1.0, "location": {"lat": 34.75014941737592, "lng": 112.99258721284957}, "feature": {"sight_features": "", "sight_content": ""}}, {"title": "永定陵", "address": "郑州市巩义市蔡庄村北1公里", "image": "", "rank": 22, "time": 1.0, "location": {"lat": 34.70238639956572, "lng": 112.98710796335754}, "feature": {"sight_features": "", "sight_content": ""}}, {"title": "万洋洗浴温泉", "address": "郑州市巩义市杜甫路与永安路交叉口万洋国际商贸城内", "image": "", "rank": 23, "time": 2, "location": {"lat": 34.7483859569779, "lng": 112.97666895714482}, "feature": {"sight_features": "", "sight_content": ""}}, {"title": "紫龙峡", "address": "郑州市巩义市新中镇浮戏山雪花洞景区内", "image": "", "rank": 24, "time": 0.6, "location": {"lat": 34.6581865150186, "lng": 113.28023235358884}, "feature": {"sight_features": "", "sight_content": ""}}, {"title": "老庙景区", "address": "郑州市巩义市新中镇浮戏山雪花洞景区内", "image": "", "rank": 25, "time": 1.0, "location": {"lat": 34.6581865150186, "lng": 113.28023235358884}, "feature": {"sight_features": "", "sight_content": ""}}, {"title": "浮戏山古寨群", "address": "郑州市巩义市新中镇浮戏山雪花洞景区内", "image": "", "rank": 26, "time": 2.5, "location": {"lat": 34.6581865150186, "lng": 113.28023235358884}, "feature": {"sight_features": "", "sight_content": ""}}, {"title": "豫西抗日先遣支队司令部旧址", "address": "郑州市巩义市涉村镇上庄村", "image": "", "rank": 27, "time": 1.0, "location": {"lat": 34.6153144352476, "lng": 113.0949951737503}, "feature": {"sight_features": "", "sight_content": ""}}, {"title": "探路者中岳嵩顶滑雪度假区", "address": "郑州市巩义市夹津口镇嵩山北坡", "image": "", "rank": 28, "time": 2, "location": {"lat": 34.63184329103811, "lng": 113.03655415530633}, "feature": {"sight_features": "", "sight_content": ""}}, {"title": "藏獒文化风情园", "address": "郑州市巩义市涉村镇北坡村", "image": "", "rank": 29, "time": 2, "location": {"lat": 34.60669438542964, "lng": 113.1230735441096}, "feature": {"sight_features": "", "sight_content": ""}}, {"title": "青龙山后寺河风景区", "address": "郑州市巩义市北山口镇东南部", "image": "", "rank": 30, "time": 2.5, "location": {"lat": 34.71736068917571, "lng": 113.03355775037944}, "feature": {"sight_features": "", "sight_content": ""}}, {"title": "宋陵冰雪乐园", "address": "郑州市巩义市西村镇永安路与宋陵东街交叉口西1000米（滹沱村委南300米原砖瓦厂）", "image": "", "rank": 31, "time": 2, "location": {"lat": 34.675090279708755, "lng": 112.96009018727996}, "feature": {"sight_features": "", "sight_content": ""}}, {"title": "张诰庄园", "address": "郑州市巩义市新中镇新中村琉璃庙沟", "image": "", "rank": 32, "time": 1.5, "location": {"lat": 34.703991015693106, "lng": 113.20428653087554}, "feature": {"sight_features": "", "sight_content": ""}}, {"title": "巩义窑址", "address": "郑州市巩义市东约5公里的白河两岸", "image": "", "rank": 33, "time": 1.0, "location": {"lat": 34.754096888696935, "lng": 113.02843100495258}, "feature": {"sight_features": "", "sight_content": ""}}, {"title": "巩县兵工厂德式水塔", "address": "友谊路第四小学边", "image": "", "rank": 34, "time": 1.0, "location": {"lat": 40.1547064713487, "lng": 117.12824503697567}, "feature": {"sight_features": "", "sight_content": ""}}, {"title": "宋陵公园", "address": "河南省郑州市巩义市杜甫路新华路交叉口北侧150米 ‎", "image": "", "rank": 35, "time": 2, "location": {"lat": 34.74617946517909, "lng": 112.99019298252976}, "feature": {"sight_features": "", "sight_content": ""}}, {"title": "灵官殿景区", "address": "巩义市新中镇", "image": "", "rank": 36, "time": 2, "location": {"lat": 34.68301526086462, "lng": 113.2016513462722}, "feature": {"sight_features": "", "sight_content": ""}}, {"title": "五指山", "address": "河南省,巩义市,涉村镇, 450000", "image": "", "rank": 37, "time": 5.5, "location": {"lat": 34.61848522975701, "lng": 113.11177425496423}, "feature": {"sight_features": "", "sight_content": ""}}, {"title": "机械迷城真人密室逃脱", "address": "新华路93号(新华书店对面佰盛步行街北二楼)", "image": "", "rank": 38, "time": 2, "location": {"lat": 40.33355283816561, "lng": 116.65085928360506}, "feature": {"sight_features": "", "sight_content": ""}}, {"title": "丰华台农业体验园葡萄采摘园", "address": "小关镇丰门沟村", "image": "", "rank": 39, "time": 2, "location": {"lat": 34.70114056340607, "lng": 113.18211544719395}, "feature": {"sight_features": "", "sight_content": ""}}, {"title": "西村幸福乐园", "address": "西村镇西村", "image": "", "rank": 40, "time": 2, "location": {"lat": 27.756708400749687, "lng": 114.24204836899135}, "feature": {"sight_features": "", "sight_content": ""}}, {"title": "文化馆大河之舞艺术中心", "address": "新华路222号", "image": "", "rank": 41, "time": 2, "location": {"lat": 39.11919969914826, "lng": 117.21577922354746}, "feature": {"sight_features": "", "sight_content": ""}}, {"title": "塞外桃园广场", "address": "思源路", "image": "", "rank": 42, "time": 2, "location": {"lat": 39.884256334117005, "lng": 116.48993807510752}, "feature": {"sight_features": "", "sight_content": ""}}, {"title": "桐乐园", "address": "陇海路", "image": "", "rank": 43, "time": 2, "location": {"lat": 38.0254781939755, "lng": 114.70775890718663}, "feature": {"sight_features": "", "sight_content": ""}}, {"title": "香玉故里", "address": "石关镇南河渡村", "image": "", "rank": 44, "time": 2, "location": {"lat": 34.81415764136753, "lng": 113.04926435452636}, "feature": {"sight_features": "", "sight_content": ""}}, {"title": "田园牧歌生态园", "address": "孝义街道办西沟村白沙滩", "image": "", "rank": 45, "time": 2, "location": {"lat": 34.776015572753614, "lng": 112.98754506714073}, "feature": {"sight_features": "", "sight_content": ""}}, {"title": "巴布豆儿童城(朗曼店)", "address": "桐本路朗曼假日广场二楼B40(进门右拐)", "image": "", "rank": 46, "time": 2, "location": {"lat": 34.751647186362526, "lng": 112.99881619261174}, "feature": {"sight_features": "", "sight_content": ""}}, {"title": "巴布豆益智天地(星月店)", "address": "育英街星月时代广场东南角", "image": "", "rank": 47, "time": 2, "location": {"lat": 34.76084890798799, "lng": 112.99149016712687}, "feature": {"sight_features": "", "sight_content": ""}}, {"title": "巩义市图书馆", "address": "广场东街附近", "image": "", "rank": 48, "time": 1.5, "location": {"lat": 38.43291002909001, "lng": 115.34456448524237}, "feature": {"sight_features": "", "sight_content": ""}}, {"title": "西村镇坞罗村垂钓鱼塘", "address": "西村镇坞罗小学南(237省道西200米)", "image": "", "rank": 49, "time": 2, "location": {"lat": 34.691301042295805, "lng": 112.99940504714473}, "feature": {"sight_features": "", "sight_content": ""}}, {"title": "海上桥村文化剧场", "address": "河南省郑州市巩义市大峪沟镇海上桥文化中心", "image": "", "rank": 50, "time": 2, "location": {"lat": 34.749328494088246, "lng": 113.08052562791778}, "feature": {"sight_features": "", "sight_content": ""}}, {"title": "柏茂庄园(豫西抗日纪念馆)", "address": "河南省郑州市巩义市新中镇豫西抗日根据地纪念馆", "image": "", "rank": 51, "time": 1.5, "location": {"lat": 34.701903562324496, "lng": 113.20410431499268}, "feature": {"sight_features": "", "sight_content": ""}}, {"title": "柏茂剧场", "address": "驻家河附近X052", "image": "", "rank": 52, "time": 2, "location": {"lat": 31.024713017616868, "lng": 114.26342330651185}, "feature": {"sight_features": "", "sight_content": ""}}, {"title": "小树林啤酒广场", "address": "孝康路伊洛河桥头广场(南广场)", "image": "", "rank": 53, "time": 2, "location": {"lat": 34.77243975247538, "lng": 112.95957795371545}, "feature": {"sight_features": "", "sight_content": ""}}, {"title": "宝弘时代广场", "address": "河南省郑州市巩义市新华路250", "image": "", "rank": 54, "time": 2, "location": {"lat": 34.75905599125259, "lng": 112.99056953872497}, "feature": {"sight_features": "", "sight_content": ""}}, {"title": "鲁庄文化剧场", "address": "郑州市巩义市", "image": "", "rank": 55, "time": 2, "location": {"lat": 34.754096888696935, "lng": 113.02843100495258}, "feature": {"sight_features": "", "sight_content": ""}}, {"title": "文化广场", "address": "郑州市巩义市杜甫路84号永昭陵内", "image": "", "rank": 56, "time": 1.5, "location": {"lat": 34.75014941737592, "lng": 112.99258721284957}, "feature": {"sight_features": "", "sight_content": ""}}, {"title": "维雪啤酒激情广场", "address": "沿黄快速通道西50米", "image": "", "rank": 57, "time": 2, "location": {"lat": 34.92192175354489, "lng": 113.42954187731856}, "feature": {"sight_features": "", "sight_content": ""}}, {"title": "兴华园", "address": "新华路101号附近", "image": "", "rank": 58, "time": 2, "location": {"lat": 39.566691661241414, "lng": 118.1082540184094}, "feature": {"sight_features": "", "sight_content": ""}}, {"title": "乐安东园", "address": "交通路98附近", "image": "", "rank": 59, "time": 2, "location": {"lat": 28.242073092393582, "lng": 114.93869840772192}, "feature": {"sight_features": "", "sight_content": ""}}, {"title": "海盛游园", "address": "新华路街道新兴路与建设路交叉口", "image": "", "rank": 60, "time": 2, "location": {"lat": 34.76107932700448, "lng": 112.99502045927258}, "feature": {"sight_features": "", "sight_content": ""}}]}