{"cityName": "工布江达", "days": 2, "cityImage": "", "spots": [{"title": "巴松措", "address": "林芝市工布江达县", "image": "", "rank": 1, "time": 2.0, "location": {"lat": 29.891367616240817, "lng": 93.25241979667781}, "feature": {"sight_features": "特色1 藏传佛教红教神湖，湖水碧绿，周围青山悠悠，风光优美 特色2 巴松措湖水清澈见底，四周环绕的雪山倒映其中。淳朴古老的人文原生态也是巴松措引人入胜的地方 特色3 湖水碧绿柔美，周围青山依依", "sight_content": "藏东南最大的冰川偃塞湖和红教神湖，以湖心岛和千年古寺、湖周6000米以上数座未登雪峰、中国十大最美古村落错高村以及结巴村等湖滨村落，良好而丰富的生态资源、巴河野鱼和松茸等美食等闻名。目前，巴松措是除纳木措和羊湖以外最具盛名的湖泊旅游目的地。\n湖心岛：在巴松措神话传说中，湖心岛下是巴松措龙女的宫殿，湖心岛上的措宗寺是藏东南宁玛派千年古寺。围绕这座千年古寺，您除了可以体验到生殖崇拜、古天葬台、措宗寺壁画等宗教文化，还可以近距离的感受湖心岛独特而多样化的生态资源，包括桃抱松共生树以及报春百合等数十种原生态植物资源\n结巴村：相传该村‍‍为工布王的夏宫所在地，所以村名意为大王。该村紧临巴松措，村落布局和建筑以及民俗古朴有致，是最佳观山观湖旅馆的集中地。\n巴松错三塔：巴松措东南方向有阿玛觉姆达增、杰钦那拉嘎布（燃烧的火焰峰）和林布岗增嘎布三座雪峰。船行巴松措时看此三峰宛若雪塔耸天，故称巴松措三塔。\n‍‍错高村：错高意为湖头，是巴松措东面四沟的中心。该村因村落传统布局与自然高度合一、建筑式样保持藏东南最古朴风格，以及村落内多手工艺传承和宗教设施等，而被评为中国十大最美村落。\n\n\n环湖游艇\n湖心岛生态小世界朝圣，宁玛派圣地古寺祈福\n乘豪华游艇，畅游神湖之上，观雪山古村美景\n针对户外爱好者散客，船游还可与巴松措徒步（景区入口经湖西北角布热村至求子洞段9公里湖岸生态徒步道）以及营地入住等灵活结合，详情可现场咨询。"}}, {"title": "米拉山口", "address": "林芝市工布江达县与拉萨墨竹工卡县交界处", "image": "", "rank": 2, "time": 1.0, "location": {"lat": 29.891367616240817, "lng": 93.25241979667781}, "feature": {"sight_features": "", "sight_content": ""}}, {"title": "尼洋河", "address": "林芝市境内（主要位于工布江达县、巴宜区）", "image": "", "rank": 3, "time": 3.0, "location": {"lat": 29.891367616240817, "lng": 93.25241979667781}, "feature": {"sight_features": "", "sight_content": ""}}, {"title": "中流砥柱", "address": "林芝市工布江达县尼洋河中流", "image": "", "rank": 4, "time": 0.75, "location": {"lat": 29.891367616240817, "lng": 93.25241979667781}, "feature": {"sight_features": "", "sight_content": ""}}, {"title": "秀巴千年古堡群", "address": "林芝市工布江达县巴河镇秀巴村", "image": "", "rank": 5, "time": 2.0, "location": {"lat": 30.01225304752462, "lng": 93.75235362451278}, "feature": {"sight_features": "", "sight_content": ""}}, {"title": "太昭古城", "address": "林芝市工布江达县太昭村", "image": "", "rank": 6, "time": 3.5, "location": {"lat": 29.891367616240817, "lng": 93.25241979667781}, "feature": {"sight_features": "", "sight_content": ""}}, {"title": "扎西岛", "address": "林芝市工布江达县错高乡境的巴松措景区内", "image": "", "rank": 7, "time": 0.75, "location": {"lat": 30.111651240207124, "lng": 94.12588019814316}, "feature": {"sight_features": "", "sight_content": ""}}, {"title": "结巴村", "address": "林芝市工布江达县结巴村", "image": "", "rank": 8, "time": 2.0, "location": {"lat": 29.891367616240817, "lng": 93.25241979667781}, "feature": {"sight_features": "", "sight_content": ""}}, {"title": "新措", "address": "林芝市工布江达县，结巴村到新措大约60公里、距离巴松错2小时的步行。", "image": "", "rank": 9, "time": 2.5, "location": {"lat": 29.891367616240817, "lng": 93.25241979667781}, "feature": {"sight_features": "", "sight_content": ""}}, {"title": "错高村", "address": "林芝市工布江达县错高村", "image": "", "rank": 10, "time": 3.0, "location": {"lat": 29.891367616240817, "lng": 93.25241979667781}, "feature": {"sight_features": "", "sight_content": ""}}, {"title": "帕嘎寺", "address": "林芝市工布江达县娘蒲乡", "image": "", "rank": 11, "time": 2.5, "location": {"lat": 30.364658371415018, "lng": 93.04037329056636}, "feature": {"sight_features": "", "sight_content": ""}}, {"title": "阿沛新村", "address": "林芝市工布江达县阿沛村", "image": "", "rank": 12, "time": 2.0, "location": {"lat": 29.891367616240817, "lng": 93.25241979667781}, "feature": {"sight_features": "", "sight_content": ""}}, {"title": "邦杰塘草原", "address": "林芝市工布江达县", "image": "", "rank": 13, "time": 2.5, "location": {"lat": 29.891367616240817, "lng": 93.25241979667781}, "feature": {"sight_features": "", "sight_content": ""}}, {"title": "加兴沟水帘瀑布", "address": "林芝市工布江达县", "image": "", "rank": 14, "time": 2.0, "location": {"lat": 29.891367616240817, "lng": 93.25241979667781}, "feature": {"sight_features": "", "sight_content": ""}}, {"title": "嘎拉村", "address": "林芝市工布江达县嘎拉村", "image": "", "rank": 15, "time": 2.5, "location": {"lat": 29.891367616240817, "lng": 93.25241979667781}, "feature": {"sight_features": "", "sight_content": ""}}, {"title": "地龙村原始森林", "address": "林芝市工布江达县娘蒲乡", "image": "", "rank": 16, "time": 1.0, "location": {"lat": 30.364658371415018, "lng": 93.04037329056636}, "feature": {"sight_features": "", "sight_content": ""}}, {"title": "茶马古驿站", "address": "林芝市工布江达县太昭村", "image": "", "rank": 17, "time": 2, "location": {"lat": 29.891367616240817, "lng": 93.25241979667781}, "feature": {"sight_features": "", "sight_content": ""}}, {"title": "错宗工巴寺", "address": "林芝地区工布江达县错高乡巴松措境内的扎西岛上", "image": "", "rank": 18, "time": 0.4, "location": {"lat": 30.01009012096771, "lng": 93.91953615087255}, "feature": {"sight_features": "", "sight_content": ""}}, {"title": "布如沟温泉群", "address": "林芝市工布江达县娘蒲乡", "image": "", "rank": 19, "time": 2, "location": {"lat": 30.364658371415018, "lng": 93.04037329056636}, "feature": {"sight_features": "", "sight_content": ""}}, {"title": "鹦哥嘴", "address": "林芝市工布江达县太昭村附近的唐蕃古道上", "image": "", "rank": 20, "time": 0.25, "location": {"lat": 29.891367616240817, "lng": 93.25241979667781}, "feature": {"sight_features": "", "sight_content": ""}}, {"title": "求子洞", "address": "林芝市工布江达县错高乡境内", "image": "", "rank": 21, "time": 0.25, "location": {"lat": 30.111651240207124, "lng": 94.12588019814316}, "feature": {"sight_features": "", "sight_content": ""}}, {"title": "阿沛庄园", "address": "林芝市工布江达县阿沛村内", "image": "", "rank": 22, "time": 0.25, "location": {"lat": 29.891367616240817, "lng": 93.25241979667781}, "feature": {"sight_features": "", "sight_content": ""}}, {"title": "藏王避雨石", "address": "林芝市工布江达县太昭村附近的唐蕃古道上", "image": "", "rank": 23, "time": 0.25, "location": {"lat": 29.891367616240817, "lng": 93.25241979667781}, "feature": {"sight_features": "", "sight_content": ""}}, {"title": "工布江达县", "address": "西藏自治区林芝地区", "image": "", "rank": 24, "time": 2, "location": {"lat": 29.666940625813243, "lng": 94.34998545824439}, "feature": {"sight_features": "", "sight_content": ""}}, {"title": "扎西曲林寺", "address": "林芝市工布江达县318国道", "image": "", "rank": 25, "time": 2, "location": {"lat": 29.891367616240817, "lng": 93.25241979667781}, "feature": {"sight_features": "", "sight_content": ""}}, {"title": "湖心岛", "address": "西藏自治区林芝地区工布江达县", "image": "", "rank": 26, "time": 4.5, "location": {"lat": 30.02521562915902, "lng": 93.24209815829475}, "feature": {"sight_features": "", "sight_content": ""}}, {"title": "太昭陈列馆", "address": "林芝市工布江达县太昭村内", "image": "", "rank": 27, "time": 0.75, "location": {"lat": 29.891367616240817, "lng": 93.25241979667781}, "feature": {"sight_features": "", "sight_content": ""}}, {"title": "娘蒲巴嘎自然风景区", "address": "林芝市工布江达县西北约50公里，是尼洋河北侧的一条支流", "image": "", "rank": 28, "time": 2.0, "location": {"lat": 29.891367616240817, "lng": 93.25241979667781}, "feature": {"sight_features": "", "sight_content": ""}}, {"title": "唐蕃古道", "address": "林芝地区工布江达县太昭村", "image": "", "rank": 29, "time": 1.0, "location": {"lat": 30.004721393347687, "lng": 93.08809134034117}, "feature": {"sight_features": "", "sight_content": ""}}, {"title": "巴河镇", "address": "西藏自治区林芝地区工布江达县", "image": "", "rank": 30, "time": 2, "location": {"lat": 30.02521562915902, "lng": 93.24209815829475}, "feature": {"sight_features": "", "sight_content": ""}}, {"title": "巴松措漂流", "address": "巴松措景区内", "image": "", "rank": 31, "time": 2, "location": {"lat": 29.987186377468575, "lng": 93.86653548887472}, "feature": {"sight_features": "", "sight_content": ""}}, {"title": "林则野生猕猴乐园", "address": "林芝地区工布江达县", "image": "", "rank": 32, "time": 2, "location": {"lat": 30.02521562915902, "lng": 93.24209815829475}, "feature": {"sight_features": "", "sight_content": ""}}, {"title": "民俗文化村", "address": "西藏自治区林芝地区工布江达县", "image": "", "rank": 33, "time": 2.0, "location": {"lat": 30.02521562915902, "lng": 93.24209815829475}, "feature": {"sight_features": "", "sight_content": ""}}, {"title": "珍珠神泉", "address": "林芝市工布江达县", "image": "", "rank": 34, "time": 0.5, "location": {"lat": 29.891367616240817, "lng": 93.25241979667781}, "feature": {"sight_features": "", "sight_content": ""}}, {"title": "望乡崖", "address": "林芝市工布江达县太昭村附近的唐蕃古道上", "image": "", "rank": 35, "time": 0.25, "location": {"lat": 29.891367616240817, "lng": 93.25241979667781}, "feature": {"sight_features": "", "sight_content": ""}}, {"title": "经堂", "address": "林芝市工布江达县太昭村附近的唐蕃古道上", "image": "", "rank": 36, "time": 7.5, "location": {"lat": 29.891367616240817, "lng": 93.25241979667781}, "feature": {"sight_features": "", "sight_content": ""}}, {"title": "色季拉景区", "address": "林芝县", "image": "", "rank": 37, "time": 2, "location": {"lat": 29.783255836828253, "lng": 94.38041563578176}, "feature": {"sight_features": "", "sight_content": ""}}, {"title": "松多温泉", "address": "松多镇松多温泉", "image": "", "rank": 38, "time": 3.0, "location": {"lat": 44.97485663870472, "lng": 81.03114554648644}, "feature": {"sight_features": "", "sight_content": ""}}, {"title": "甲噶东赞生态景区", "address": "阿沛新村", "image": "", "rank": 39, "time": 1.5, "location": {"lat": 29.831361157892797, "lng": 106.44278612439919}, "feature": {"sight_features": "", "sight_content": ""}}, {"title": "达切拉观光台", "address": "西藏自治区林芝市工布江达县", "image": "", "rank": 40, "time": 2, "location": {"lat": 29.891367616240817, "lng": 93.25241979667781}, "feature": {"sight_features": "", "sight_content": ""}}, {"title": "莲花生修行洞", "address": "扎日乡马其墩后面的桑多白山的半山腰", "image": "", "rank": 41, "time": 2, "location": {"lat": 41.93962720532889, "lng": 126.42963008937573}, "feature": {"sight_features": "", "sight_content": ""}}, {"title": "藏宝阁", "address": "318国道附近", "image": "", "rank": 42, "time": 2, "location": {"lat": 31.023348267795328, "lng": 120.88254137011852}, "feature": {"sight_features": "", "sight_content": ""}}, {"title": "钟措弄巴湖", "address": "西藏自治区工布江达县措高乡措果村", "image": "", "rank": 43, "time": 2, "location": {"lat": 29.891367616240817, "lng": 93.25241979667781}, "feature": {"sight_features": "", "sight_content": ""}}, {"title": "公众村生态园", "address": "西藏自治区林芝县公众村", "image": "", "rank": 44, "time": 2, "location": {"lat": 29.70763615888654, "lng": 94.34759862367464}, "feature": {"sight_features": "", "sight_content": ""}}, {"title": "工布旅游文化商品街", "address": "西藏自治区工布江达县318国道附近", "image": "", "rank": 45, "time": 2, "location": {"lat": 29.60908954309582, "lng": 94.41316714745398}, "feature": {"sight_features": "", "sight_content": ""}}, {"title": "莫四东波", "address": "林芝市-工布江达县", "image": "", "rank": 46, "time": 2, "location": {"lat": 29.891367616240817, "lng": 93.25241979667781}, "feature": {"sight_features": "", "sight_content": ""}}, {"title": "松赞干布神石", "address": "林芝地区太昭古城唐蕃古道入口处沿古道向西行", "image": "", "rank": 47, "time": 2, "location": {"lat": 30.002876002063775, "lng": 93.0892903051121}, "feature": {"sight_features": "", "sight_content": ""}}, {"title": "格萨尔古堡", "address": "西藏自治区林芝工布江达县巴河镇318国道靠近林芝段", "image": "", "rank": 48, "time": 1.5, "location": {"lat": 29.60908954309582, "lng": 94.41316714745398}, "feature": {"sight_features": "", "sight_content": ""}}, {"title": "秀巴古堡", "address": "工布江达县巴河镇秀巴村", "image": "", "rank": 49, "time": 2, "location": {"lat": 29.866474546353334, "lng": 93.6718600520564}, "feature": {"sight_features": "", "sight_content": ""}}, {"title": "赛卧村小吊桥", "address": "西藏林芝工布江达镇赛卧村", "image": "", "rank": 50, "time": 2, "location": {"lat": 31.4999714869281, "lng": 98.21726912070346}, "feature": {"sight_features": "", "sight_content": ""}}]}