{"cityName": "共青城", "days": "", "cityImage": "", "spots": [{"title": "富华山景区", "address": "九江市共青城市富华大道", "image": "", "rank": 1, "time": 2.0, "location": {"lat": 29.241388015364475, "lng": 115.82844039433529}, "feature": {"sight_features": "", "sight_content": ""}}, {"title": "共青城市南湖影剧院", "address": "共青大道1号附近", "image": "", "rank": 2, "time": 2, "location": {"lat": 27.65944700117072, "lng": 106.89281849999487}, "feature": {"sight_features": "", "sight_content": ""}}, {"title": "华中希望读书社(航天分社)", "address": "共青大道", "image": "", "rank": 3, "time": 2, "location": {"lat": 27.626696230793435, "lng": 106.87377432437603}, "feature": {"sight_features": "", "sight_content": ""}}, {"title": "珍珠湖公园", "address": "共青城市南湖大道中央公馆1号", "image": "", "rank": 4, "time": 2, "location": {"lat": 29.250260991719596, "lng": 115.81337488927647}, "feature": {"sight_features": "", "sight_content": ""}}, {"title": "海盗传奇儿童乐园", "address": "江西省九江市共青城市茶山街道富华大道88号天虹商场二楼", "image": "", "rank": 5, "time": 2, "location": {"lat": 29.238955760233246, "lng": 115.83233722028034}, "feature": {"sight_features": "", "sight_content": ""}}, {"title": "宝贝屋儿童乐园", "address": "九江市共青城市", "image": "", "rank": 6, "time": 2, "location": {"lat": 29.248741173715608, "lng": 115.82142002359062}, "feature": {"sight_features": "", "sight_content": ""}}, {"title": "佳贝爱儿童乐园", "address": "富华大道88号中航城新街", "image": "", "rank": 7, "time": 2, "location": {"lat": 29.238955760233246, "lng": 115.83233722028034}, "feature": {"sight_features": "", "sight_content": ""}}, {"title": "蕊城葡萄采摘园(老虎头)", "address": "江益镇老虎头村", "image": "", "rank": 8, "time": 2, "location": {"lat": 42.5358288586708, "lng": 123.82954889113083}, "feature": {"sight_features": "", "sight_content": ""}}, {"title": "耀邦陵园", "address": "共青城富华山(近鄱阳湖)", "image": "", "rank": 9, "time": 2, "location": {"lat": 29.248741173715608, "lng": 115.82142002359062}, "feature": {"sight_features": "", "sight_content": ""}}, {"title": "帅家村", "address": "九江市-共青城市", "image": "", "rank": 10, "time": 2, "location": {"lat": 29.248741173715608, "lng": 115.82142002359062}, "feature": {"sight_features": "", "sight_content": ""}}]}