{"cityName": "贡山", "days": 2, "cityImage": "", "spots": [{"title": "秋那桶村", "address": "云南省怒江傈僳族自治州贡山独龙族怒族自治县秋那桶村", "image": "", "rank": 1, "time": 3.0, "location": {"lat": 28.077422119819115, "lng": 98.5859460880619}, "feature": {"sight_features": "", "sight_content": ""}}, {"title": "雾里村", "address": "怒江州贡山县（前往秋那桶途中的怒江对面）", "image": "", "rank": 2, "time": 4.0, "location": {"lat": 28.098302783465897, "lng": 98.58045173266622}, "feature": {"sight_features": "", "sight_content": ""}}, {"title": "普化寺", "address": "怒江州贡山县丙中洛乡坎桶村", "image": "", "rank": 3, "time": 1.0, "location": {"lat": 28.021127465542115, "lng": 98.62783785045468}, "feature": {"sight_features": "", "sight_content": ""}}, {"title": "重丁教堂", "address": "怒江州贡山县丙中洛乡重丁村（丙中洛乡东部）", "image": "", "rank": 4, "time": 1.0, "location": {"lat": 28.021127465542115, "lng": 98.62783785045468}, "feature": {"sight_features": "", "sight_content": ""}}, {"title": "独龙江", "address": "云南省贡山独龙族怒族自治县贡山县西北 673500", "image": "", "rank": 5, "time": 1.0, "location": {"lat": 27.74706787527189, "lng": 98.6723994486867}, "feature": {"sight_features": "", "sight_content": ""}}, {"title": "贡山县城", "address": "云南省怒江州贡山县茨开镇", "image": "", "rank": 6, "time": 3.5, "location": {"lat": 27.738228642412846, "lng": 98.67615997114355}, "feature": {"sight_features": "", "sight_content": ""}}, {"title": "普华寺", "address": "石门关附近", "image": "", "rank": 7, "time": 2.5, "location": {"lat": 32.01605591031875, "lng": 119.03774434070867}, "feature": {"sight_features": "", "sight_content": ""}}, {"title": "尼大当", "address": "怒江州贡山县丙中洛乡北部", "image": "", "rank": 8, "time": 2, "location": {"lat": 28.021127465542115, "lng": 98.62783785045468}, "feature": {"sight_features": "", "sight_content": ""}}, {"title": "嘎娃嘎普雪山", "address": "云南省怒江傈僳族自治州贡山独龙族怒族自治县丙中洛乡", "image": "", "rank": 9, "time": 2, "location": {"lat": 28.021127465542115, "lng": 98.62783785045468}, "feature": {"sight_features": "", "sight_content": ""}}, {"title": "民族文化旅游广场", "address": "石门北路35号附近", "image": "", "rank": 10, "time": 2, "location": {"lat": 27.74633406345997, "lng": 98.67461850044826}, "feature": {"sight_features": "", "sight_content": ""}}, {"title": "月各基督教福音堂", "address": "228省道附近", "image": "", "rank": 11, "time": 2, "location": {"lat": 39.03858546081583, "lng": 117.03749267899916}, "feature": {"sight_features": "", "sight_content": ""}}, {"title": "天主堂", "address": "茨开镇石门路104号", "image": "", "rank": 12, "time": 0.4, "location": {"lat": 27.738963972631005, "lng": 98.67632401071266}, "feature": {"sight_features": "", "sight_content": ""}}, {"title": "纹面独龙庄园", "address": "石门南路84号附近", "image": "", "rank": 13, "time": 2, "location": {"lat": 39.96492906321205, "lng": 116.122606257596}, "feature": {"sight_features": "", "sight_content": ""}}, {"title": "三江明珠广场", "address": "石门北路50号附近", "image": "", "rank": 14, "time": 2, "location": {"lat": 27.74633406345997, "lng": 98.67461850044826}, "feature": {"sight_features": "", "sight_content": ""}}, {"title": "天主堂", "address": "怒江傈僳族自治州贡山独龙族怒族自治县", "image": "", "rank": 15, "time": 0.4, "location": {"lat": 27.74706787527189, "lng": 98.6723994486867}, "feature": {"sight_features": "", "sight_content": ""}}, {"title": "高黎贡山国家级自然保护区", "address": "贡山县贡山县怒江西岸", "image": "", "rank": 16, "time": 2.0, "location": {"lat": 27.74706787527189, "lng": 98.6723994486867}, "feature": {"sight_features": "", "sight_content": ""}}, {"title": "独龙江巴坡农家乐", "address": "州贡山县独龙江乡巴坡村米里旺小组", "image": "", "rank": 17, "time": 2, "location": {"lat": 27.741695235527146, "lng": 98.3561572489047}, "feature": {"sight_features": "", "sight_content": ""}}, {"title": "四季桶村", "address": "云南省怒江僳僳族自治州丙中洛乡甲生行政村", "image": "", "rank": 18, "time": 1.5, "location": {"lat": 28.021127465542115, "lng": 98.62783785045468}, "feature": {"sight_features": "", "sight_content": ""}}, {"title": "独龙江乡", "address": "云南省怒江傈僳族自治州贡山独龙族怒族自治县", "image": "", "rank": 19, "time": 2, "location": {"lat": 27.74706787527189, "lng": 98.6723994486867}, "feature": {"sight_features": "", "sight_content": ""}}]}