{"cityName": "贡嘎", "days": 2, "cityImage": "", "spots": [{"title": "多吉扎寺", "address": "山南市贡嘎县", "image": "", "rank": 1, "time": 1.0, "location": {"lat": 29.295585920340546, "lng": 90.9905823724984}, "feature": {"sight_features": "", "sight_content": ""}}, {"title": "夏珠林寺", "address": "山南市贡嘎县", "image": "", "rank": 2, "time": 2, "location": {"lat": 29.295585920340546, "lng": 90.9905823724984}, "feature": {"sight_features": "", "sight_content": ""}}, {"title": "雅鲁藏布江水葬台", "address": "山南市贡嘎县307省道旁", "image": "", "rank": 3, "time": 0.35, "location": {"lat": 29.295585920340546, "lng": 90.9905823724984}, "feature": {"sight_features": "", "sight_content": ""}}, {"title": "土旦热麦寺", "address": "山南市贡嘎县", "image": "", "rank": 4, "time": 2, "location": {"lat": 29.295585920340546, "lng": 90.9905823724984}, "feature": {"sight_features": "", "sight_content": ""}}, {"title": "昌果沟文化遗址", "address": "山南市贡嘎县昌果乡", "image": "", "rank": 5, "time": 1.0, "location": {"lat": 29.402371965604754, "lng": 91.11895534568173}, "feature": {"sight_features": "", "sight_content": ""}}, {"title": "贡嘎曲德寺", "address": "山南市贡嘎县", "image": "", "rank": 6, "time": 2, "location": {"lat": 29.295585920340546, "lng": 90.9905823724984}, "feature": {"sight_features": "", "sight_content": ""}}, {"title": "加若拉山口", "address": "西藏自治区山南市贡嘎县", "image": "", "rank": 7, "time": 0.25, "location": {"lat": 29.295585920340546, "lng": 90.9905823724984}, "feature": {"sight_features": "", "sight_content": ""}}, {"title": "顿布曲果寺", "address": "山南市贡嘎县", "image": "", "rank": 8, "time": 2, "location": {"lat": 29.295585920340546, "lng": 90.9905823724984}, "feature": {"sight_features": "", "sight_content": ""}}, {"title": "贡嘎县无公害蔬菜生产基地", "address": "101省道附近", "image": "", "rank": 9, "time": 2, "location": {"lat": 41.03241923348195, "lng": 111.82384508727836}, "feature": {"sight_features": "", "sight_content": ""}}, {"title": "姐德秀森林公园", "address": "西藏自治区贡嘎县姐德秀镇 850700", "image": "", "rank": 10, "time": 2, "location": {"lat": 29.295585920340546, "lng": 90.9905823724984}, "feature": {"sight_features": "", "sight_content": ""}}, {"title": "拉萨贡嘎龙港度假村", "address": "甲竹林机场友谊路(近民航生活区)", "image": "", "rank": 11, "time": 2.0, "location": {"lat": 29.28974131801236, "lng": 90.90802055039241}, "feature": {"sight_features": "", "sight_content": ""}}, {"title": "萨隆寺", "address": "西藏自治区山南市贡嘎县羊卓雍措旅游景区", "image": "", "rank": 12, "time": 2, "location": {"lat": 29.295585920340546, "lng": 90.9905823724984}, "feature": {"sight_features": "", "sight_content": ""}}, {"title": "布久拉", "address": "西藏自治区山南市贡嘎县", "image": "", "rank": 13, "time": 2, "location": {"lat": 29.295585920340546, "lng": 90.9905823724984}, "feature": {"sight_features": "", "sight_content": ""}}, {"title": "甘巴拉", "address": "西藏自治区浪卡子县与贡嘎县界上", "image": "", "rank": 16, "time": 0.3, "location": {"lat": 28.97399201780357, "lng": 90.4046468834624}, "feature": {"sight_features": "", "sight_content": ""}}, {"title": "安目措湖", "address": "西藏自治区昌都县雅鲁藏布江流域", "image": "", "rank": 17, "time": 2, "location": {"lat": 31.448479903273466, "lng": 97.24405212797693}, "feature": {"sight_features": "", "sight_content": ""}}, {"title": "邦宗", "address": "山南市-贡嘎县", "image": "", "rank": 18, "time": 2, "location": {"lat": 29.295585920340546, "lng": 90.9905823724984}, "feature": {"sight_features": "", "sight_content": ""}}, {"title": "雅鲁藏布江", "address": "林芝地区米林县派镇", "image": "", "rank": 19, "time": 1.0, "location": {"lat": 29.510417453303127, "lng": 94.8582966155948}, "feature": {"sight_features": "", "sight_content": ""}}]}