{"cityName": "巩留", "days": null, "cityImage": "", "spots": [{"title": "野核桃沟自然保护区", "address": "伊犁哈萨克自治州巩留县", "image": "", "rank": 1, "time": 2, "location": {"lat": 43.48848555953649, "lng": 82.23822560940913}, "feature": {"sight_features": "", "sight_content": ""}}, {"title": "巩留县一个吃饭的地方农家乐", "address": "东环路3号", "image": "", "rank": 2, "time": 2, "location": {"lat": 39.72982677718057, "lng": 117.33354731036331}, "feature": {"sight_features": "", "sight_content": ""}}, {"title": "阿伊布拉克农家乐", "address": "塔什干巴依萨孜村", "image": "", "rank": 3, "time": 2, "location": {"lat": 43.47897491596603, "lng": 82.24758848056497}, "feature": {"sight_features": "", "sight_content": ""}}, {"title": "老毕庭院餐厅", "address": "东环路3号", "image": "", "rank": 4, "time": 2, "location": {"lat": 39.72982677718057, "lng": 117.33354731036331}, "feature": {"sight_features": "", "sight_content": ""}}, {"title": "巩留林场", "address": "737县道附近", "image": "", "rank": 5, "time": 6.5, "location": {"lat": 26.38594434190837, "lng": 118.52441869713543}, "feature": {"sight_features": "", "sight_content": ""}}, {"title": "西天山自然保护区", "address": "新疆维吾尔自治区巩留县东部", "image": "", "rank": 6, "time": 2, "location": {"lat": 43.48848555953649, "lng": 82.23822560940913}, "feature": {"sight_features": "", "sight_content": ""}}, {"title": "七十三团场", "address": "伊犁哈萨克自治州-巩留县-南岗路4附近", "image": "", "rank": 7, "time": 2, "location": {"lat": 43.57950967819292, "lng": 82.01718669945528}, "feature": {"sight_features": "", "sight_content": ""}}, {"title": "七十三团场九连", "address": "伊犁哈萨克自治州-巩留县-二二零省道", "image": "", "rank": 8, "time": 2, "location": {"lat": 43.40442794207484, "lng": 81.88894583220564}, "feature": {"sight_features": "", "sight_content": ""}}]}