{"cityName": "珙县", "days": 2, "cityImage": "", "spots": [{"title": "龙茶花海", "address": "宜宾市珙县巡场镇龙塘村龙塘垇", "image": "", "rank": 1, "time": 2, "location": {"lat": 28.489555018395126, "lng": 104.68396693191386}, "feature": {"sight_features": "", "sight_content": ""}}, {"title": "龙抱山自然风景区", "address": "罗镇新联村", "image": "", "rank": 2, "time": null, "location": {"lat": 31.36811923097891, "lng": 121.2803028726617}, "feature": {"sight_features": "", "sight_content": ""}}, {"title": "怡园休闲山庄", "address": "兴达街195", "image": "", "rank": 3, "time": 2, "location": {"lat": 28.455200924981003, "lng": 104.72074206200492}, "feature": {"sight_features": "", "sight_content": ""}}, {"title": "童之林货仓", "address": "环城路78号附近", "image": "", "rank": 4, "time": null, "location": {"lat": 31.398217235801823, "lng": 121.2644503908864}, "feature": {"sight_features": "", "sight_content": ""}}, {"title": "芙蓉山风景区", "address": "四川省珙县巡场镇 644501", "image": "", "rank": 5, "time": 2.0, "location": {"lat": 28.461077253193363, "lng": 104.71810979330212}, "feature": {"sight_features": "", "sight_content": ""}}, {"title": "珙县恐龙化石", "address": "四川省珙县石碑乡 644500", "image": "", "rank": 6, "time": 2, "location": {"lat": 28.083191590177783, "lng": 104.99221230106558}, "feature": {"sight_features": "", "sight_content": ""}}, {"title": "农夫山庄", "address": "309省道附近", "image": "", "rank": 7, "time": 2, "location": {"lat": 40.709016096764906, "lng": 116.52743651721413}, "feature": {"sight_features": "", "sight_content": ""}}, {"title": "兴太实业科技生态庄", "address": "苦塘坳隧道", "image": "", "rank": 8, "time": 2, "location": {"lat": 28.42320306994208, "lng": 104.74512457981004}, "feature": {"sight_features": "", "sight_content": ""}}, {"title": "兰亭会所", "address": "雪盛雅居二楼兰亭会所", "image": "", "rank": 9, "time": 2, "location": {"lat": 28.45873257637206, "lng": 104.71788298643212}, "feature": {"sight_features": "", "sight_content": ""}}, {"title": "龙吟阁茶楼", "address": "四方街与芙蓉巷交叉口北侧", "image": "", "rank": 10, "time": 2, "location": {"lat": 28.448064112107154, "lng": 104.71832201977539}, "feature": {"sight_features": "", "sight_content": ""}}, {"title": "僰人悬棺", "address": "宜宾市珙县洛表镇麻塘村", "image": "", "rank": 11, "time": 2.0, "location": {"lat": 28.0201085512454, "lng": 104.8247092009653}, "feature": {"sight_features": "", "sight_content": "僰人悬棺分布在四川省宜宾市珙县、兴文、筠连等县境内。我国古代的南方民族中，百越、干越、僚人、僰人（都掌人）都有悬棺葬的习俗，而较有名的就是川南的僰人悬棺和福建的船形悬棺，僰人悬棺被称为巴蜀一绝。僰人悬棺的核心部分，在珙县洛表镇西南麻塘坝和曹营乡海棠村邓家河北岸的苏麻湾，两地共有悬棺265具，是目前国内悬棺保存数量较多也是较完整的地区。"}}, {"title": "底洞老酒", "address": "四川省宜宾市珙县商业街293号", "image": "", "rank": 12, "time": 2, "location": {"lat": 28.46346526770426, "lng": 104.71738486075581}, "feature": {"sight_features": "", "sight_content": ""}}, {"title": "美乐星儿童乐园", "address": "四川省宜宾市珙县三官路二幼儿园对面", "image": "", "rank": 13, "time": 2, "location": {"lat": 28.387334792422397, "lng": 104.798639289023}, "feature": {"sight_features": "", "sight_content": ""}}, {"title": "新祠堂", "address": "宜宾市珙县零一零乡道", "image": "", "rank": 14, "time": 1.5, "location": {"lat": 28.44431976524751, "lng": 104.71557459549268}, "feature": {"sight_features": "", "sight_content": ""}}, {"title": "隘口牌坊", "address": "宜宾市珙县", "image": "", "rank": 15, "time": 2, "location": {"lat": 28.44431976524751, "lng": 104.71557459549268}, "feature": {"sight_features": "", "sight_content": ""}}, {"title": "奇灵寺", "address": "四川省宜宾市珙县新华街", "image": "", "rank": 16, "time": 2, "location": {"lat": 28.38651770549373, "lng": 104.79540463820474}, "feature": {"sight_features": "", "sight_content": ""}}, {"title": "双三公园", "address": "民生路与滨河东街北一段交叉口西南50米", "image": "", "rank": 17, "time": 2, "location": {"lat": 28.458478645476667, "lng": 104.7174538425342}, "feature": {"sight_features": "", "sight_content": ""}}, {"title": "金狮洞度假村", "address": "文鑫路68号附近", "image": "", "rank": 18, "time": 2, "location": {"lat": 28.460579478674408, "lng": 104.7205028791799}, "feature": {"sight_features": "", "sight_content": ""}}, {"title": "金沙广场", "address": "走马街", "image": "", "rank": 19, "time": 2, "location": {"lat": 30.658616690649712, "lng": 104.0818421933504}, "feature": {"sight_features": "", "sight_content": ""}}, {"title": "古僰悬棺陈列馆", "address": "僰人悬棺管理处附近", "image": "", "rank": 20, "time": 2, "location": {"lat": 28.03614524508773, "lng": 104.82975749018385}, "feature": {"sight_features": "", "sight_content": ""}}, {"title": "儿童乐园", "address": "祥风路", "image": "", "rank": 21, "time": 2, "location": {"lat": 28.379865488256872, "lng": 104.79995124805039}, "feature": {"sight_features": "", "sight_content": ""}}, {"title": "快活林农家乐", "address": "025乡道", "image": "", "rank": 22, "time": 2, "location": {"lat": 35.24978900115878, "lng": 110.66699072270737}, "feature": {"sight_features": "", "sight_content": ""}}, {"title": "珙县商业步行街", "address": "四川省珙县新桥街", "image": "", "rank": 23, "time": 2, "location": {"lat": 28.455752713794187, "lng": 104.71900755264205}, "feature": {"sight_features": "", "sight_content": ""}}]}