{"cityName": "广汉", "days": 2, "cityImage": "", "spots": [{"title": "三星堆博物馆", "address": "德阳市广汉丰富南兴镇真武村", "image": "", "rank": 1, "time": 2.5, "location": {"lat": 31.00659812864588, "lng": 104.21497247128575}, "feature": {"sight_features": "特色1 通天神树等青铜器造型诡异奇特，堪称奇观。 特色2 馆藏文物丰富。 特色3 20世纪人类的考古发现。", "sight_content": "三星堆博物馆位于全国重点文物保护单位三星堆遗址东北角，地处历史文化名城四川省广汉市城西鸭子河畔，南距成都38公里，北距德阳26公里，是我国一座大型现代化的专题性遗址博物馆。博物馆于1992年8月奠基，1997年10月正式开放。三星堆古遗址分布面积12平方公里，距今已有5000至3000年历史，是迄今在西南地区发现的范围大、延续时间长、文化内涵丰富的古城、古国、古蜀文化遗址。现有保存最完整的东、西、南城墙和月亮湾内城墙。三星堆古遗址被称为20世纪人类伟大的考古发现之一，昭示了长江流域与黄河流域一样，同属中华文明的母体，被誉为“长江文明之源”。\n三星堆博物馆现有两个展馆，其展示面积近12000平方米，分为第一展馆（综合馆，陈列金、铜、玉、石、陶等类文物）和第二展馆（青铜专馆）。两大展馆陈列规模宏大，布局考究，内容与展线节奏动静结合，波澜起伏，以其融知识性、故事性、观赏性、趣味性于一炉的诠释方式，有力的揭示了三星堆文物的深刻内涵，集中反映了三星堆文明的辉煌灿烂，给人以身临其境、故国神游的感觉。\n三星堆博物馆占地面积约33公顷，绿化面积达80％以上，馆区内环境优美、布局动静得宜，曲径敞道，垂柳依依、古蜀奇葩、湖光岛影无处不体现了人文与自然完美结合、飘逸自然、浑然天成的川西园林特色。博物馆主体建筑外形追求与地貌、史迹及文物造型艺术相结合的神韵，融原始意味和现代气息为一体。一展馆建筑为半弧形斜坡生态式建筑，张扬人与自然和谐共生的人文精神，二展馆建筑为三部一体的变形螺旋式建筑，其整体具有“堆列三星”与“人类历史演进历程”的双重象征，馆外还有气势灰宏的仿古祭祀台和供现代文体活动的大型表演场与展馆建筑遥相呼应，表达了三星堆文化苍古雄浑、博大精深的历史意蕴。"}}, {"title": "金雁湖", "address": "广汉市，雒城镇北门外", "image": "", "rank": 2, "time": 1.0, "location": {"lat": 30.98562073318045, "lng": 104.29005873599893}, "feature": {"sight_features": "", "sight_content": ""}}, {"title": "段家大院子", "address": "德阳市广汉市段家大院子", "image": "", "rank": 3, "time": 1.5, "location": {"lat": 31.043586891226383, "lng": 104.23577077257173}, "feature": {"sight_features": "", "sight_content": ""}}, {"title": "房湖公园", "address": "德阳市广汉市雒城镇西南", "image": "", "rank": 4, "time": 1.0, "location": {"lat": 30.98562073318045, "lng": 104.29005873599893}, "feature": {"sight_features": "", "sight_content": ""}}, {"title": "广汉白马寺", "address": "广汉市城西，鸭子河畔", "image": "", "rank": 5, "time": 1.0, "location": {"lat": 30.9824152397429, "lng": 104.28842189310545}, "feature": {"sight_features": "", "sight_content": ""}}, {"title": "龙居寺", "address": "广汉市新丰镇龙居村", "image": "", "rank": 6, "time": 1.0, "location": {"lat": 30.925270920825405, "lng": 104.2643565094763}, "feature": {"sight_features": "", "sight_content": ""}}, {"title": "金龙湖", "address": "德阳市广汉市东部金鱼镇龙马村", "image": "", "rank": 7, "time": 2.5, "location": {"lat": 31.02148832017264, "lng": 104.37876349100617}, "feature": {"sight_features": "", "sight_content": ""}}, {"title": "易家河坝欢乐水世界", "address": "德阳市广汉市三水镇友谊村", "image": "", "rank": 8, "time": 2.5, "location": {"lat": 30.949429857415414, "lng": 104.38167031151777}, "feature": {"sight_features": "", "sight_content": "欢乐水世界总占地4万余平米，位于美丽的易家河坝旅游风景区内。园区以泰式东南亚风格进行总体规划设计，泰式建筑、热带植物、天然海沙沙滩、东南亚特色美食、还有各种特色主题水上游乐设备。包括乘风破浪造浪池、欢乐水城堡、飞跃彩虹竞速滑道、蛟龙入海翻滚滑道、魔法漩涡、冲天回旋、海底总动员、真沙海滩，以及亚洲最美人工漂流河——花海奇幻漂流。\n‍‍\n‍‍乘风破浪造浪池，利用高气压推动水流，会产生像海浪一样的壮观场面，最大浪可高达1.5米，池海旁边设置沙滩、躺椅、太阳伞,使游人在感受海水般巨大冲击力同时,也可体验到在海边度假的独特感受。欢乐水城堡专为儿童设计,针对孩子好动、亲水的特性,配以安全、新鲜、刺激的水上娱乐设备,既锻炼儿童的胆量,又提升智慧。飞跃彩虹滑道，高达25米,总长度约为120米,从上至下体验飞一般的感觉只需短短几秒,既紧张、刺激,又放松。亚洲最美漂流河，全程近一公里，耗时约半小时。两岸花草丛生，丛林密布，花廊与岩石交相辉映。让你穿梭在不同风格的景色之中，迂回流连，赏心悦目。蛟龙入海滑道，整个设备高达25米，犹如一座水上摩天轮，将为挑战它的玩水家们带来急速下落、回转、倒后等一系列前所未有的玩水体验，同时畅享超高运行时速的超凡水上滑行体验，全面挑战玩水家们的感官极限。魔法漩涡滑道，整个设备高达11米，旋涡深度高达4米，从十多米高的平台开始滑行，飞一般冲入巨大的喇叭型滑道，如同被龙卷风吸进去一般，在急速滑行中体检犹如风中滑行之美。海底总动员专为所有年龄儿童打造。\n拥有数吨高压水炮，流动水喷雾，以及水上互动游玩设施，以其多层次的“流动水上娱乐”而风靡全球。这里是充满欢乐童趣的水上乐园，如同梦幻般的童话世界，也许在这里会有爱丽丝梦游仙境的奇异体验。冲天回旋滑道，从高达11米的平台口滑出发，立即进入接近垂直的斜坡俯冲而下，在冲到坡底而惊魂未定时，在巨大惯性的作用下，又疯狂地冲上向另一面斜坡当中，一下一上，一上一下让你反复地体验失重与超重奥妙感受，为你带来难s忘的狂飙之旅，一切的烦恼和压力都被抛弃得无影无综，感觉生命的快乐、飞驰的无限快感。等等这些娱乐项目，会为您带来前所未有的感官体验。真沙海滩享受惬意的沙滩阳光浴，让细沙在指尖缓缓流去。躺在来自海边的高品质沙滩之中，看着性感热辣的阳光美女优雅走过，活泼欢笑的孩童嬉戏追逐，在美好的沙滩中，也许做的梦都是甜的……\n‍‍同时乐园为您提供100余间更淋室，1500门储物柜可供您租用，所有的储物柜都安装了先进的RFID电脑芯片锁定系统来保障您的财产安全，园内还设有多间餐厅和各类流动食摊，游乐之余，为您带来特色美食体验。"}}, {"title": "松林桃花", "address": "广汉市松林镇", "image": "", "rank": 9, "time": 1.0, "location": {"lat": 30.966025985829987, "lng": 104.45296589136876}, "feature": {"sight_features": "", "sight_content": ""}}, {"title": "炳灵寺", "address": "广汉市北郊", "image": "", "rank": 10, "time": 1.0, "location": {"lat": 30.9824152397429, "lng": 104.28842189310545}, "feature": {"sight_features": "", "sight_content": ""}}, {"title": "西部花千谷", "address": "德阳市广汉市成德大道西高段", "image": "", "rank": 11, "time": 1.0, "location": {"lat": 30.9824152397429, "lng": 104.28842189310545}, "feature": {"sight_features": "", "sight_content": ""}}, {"title": "涌泉", "address": "德阳市广汉市双泉乡涌泉村", "image": "", "rank": 12, "time": 0.25, "location": {"lat": 31.012568268245644, "lng": 104.43125731105864}, "feature": {"sight_features": "", "sight_content": ""}}, {"title": "广汉海立方海洋亲子乐园", "address": "广汉市台北路东二段10号广汉汉街38号楼", "image": "", "rank": 13, "time": 2, "location": {"lat": 30.951931298004702, "lng": 104.27992894450885}, "feature": {"sight_features": "特色1 亲子游玩好去处", "sight_content": "广汉海立方海洋亲子乐园涵盖泥巴坊、创意美劳、创意厨房等多种亲子体验项目。园内开设室内儿童攀爬、5D影院、淘气堡等多种互动娱乐设备，还有海龟、海狮、海豹互动舞台，更有紧张刺激的人鲨共舞和如梦如幻的美人鱼表演。\n园内开设室内儿童攀爬、5D影院、淘气堡等多种互动娱乐设备，还有海龟、海狮、海豹互动舞台，更有紧张刺激的人鲨共舞和如梦如幻的美人鱼表演。"}}, {"title": "三星堆考古遗址公园", "address": "德阳市广汉市向新路", "image": "", "rank": 14, "time": 2, "location": {"lat": 30.972946018090983, "lng": 104.20517740998801}, "feature": {"sight_features": "", "sight_content": ""}}, {"title": "欢乐奇兵乐园", "address": "广汉市金雁·欢乐水岸内（高铁站旁）", "image": "", "rank": 15, "time": 2, "location": {"lat": 30.98967560036914, "lng": 104.29729589391631}, "feature": {"sight_features": "", "sight_content": "欢乐奇兵乐园坐落于广汉高铁站旁金雁欢乐水岸内，是一个集西南顶尖水上游乐设备体验与园林式风光于一体的大型主题乐园，拥有豪华转马、大摆锤、迷你穿梭、过山车等多种丰富多彩的游乐设备。"}}, {"title": "广汉市火车站广场", "address": "四川省德阳市广汉市雒城镇西湖路西二段广汉站附近", "image": "", "rank": 16, "time": 2.5, "location": {"lat": 30.982894097708474, "lng": 104.26969531518996}, "feature": {"sight_features": "", "sight_content": ""}}, {"title": "中国民航飞行学院", "address": "四川省德阳市广汉市南昌路四段", "image": "", "rank": 17, "time": 2, "location": {"lat": 30.961933724675905, "lng": 104.31243638682915}, "feature": {"sight_features": "", "sight_content": ""}}, {"title": "雒城", "address": "四川省广汉市辖区内", "image": "", "rank": 18, "time": 2, "location": {"lat": 30.9824152397429, "lng": 104.28842189310545}, "feature": {"sight_features": "", "sight_content": ""}}, {"title": "金鱼镇", "address": "中国广汉市城区以东5公里", "image": "", "rank": 19, "time": 2, "location": {"lat": 30.9824152397429, "lng": 104.28842189310545}, "feature": {"sight_features": "", "sight_content": ""}}, {"title": "贵旺水世界", "address": "北京大道三段16号", "image": "", "rank": 20, "time": 2, "location": {"lat": 31.009907693008202, "lng": 104.31068655956017}, "feature": {"sight_features": "", "sight_content": ""}}, {"title": "浪度水上世界", "address": "高雄路一段18号浪度家具博览园内(广汉成绵高速出口)", "image": "", "rank": 21, "time": 2, "location": {"lat": 30.94490338125174, "lng": 104.28323098890245}, "feature": {"sight_features": "", "sight_content": ""}}, {"title": "国土档案馆", "address": "西安路3号", "image": "", "rank": 22, "time": null, "location": {"lat": 38.92998350196356, "lng": 121.59831309050375}, "feature": {"sight_features": "", "sight_content": ""}}, {"title": "城市农家乐", "address": "北海路9号", "image": "", "rank": 23, "time": 2, "location": {"lat": 38.2943367536327, "lng": 116.95139054502053}, "feature": {"sight_features": "", "sight_content": ""}}, {"title": "天作之莓采摘基地", "address": "三星堆快速通道", "image": "", "rank": 24, "time": 2, "location": {"lat": 38.345483138218604, "lng": 106.2189095086042}, "feature": {"sight_features": "", "sight_content": ""}}, {"title": "张家小園", "address": "深圳路东一段与厦门路交叉口旁", "image": "", "rank": 25, "time": 2, "location": {"lat": 30.956691118572483, "lng": 104.29095052520073}, "feature": {"sight_features": "", "sight_content": ""}}, {"title": "彩虹乐园水上乐园", "address": "高新区新丰镇高雄路一段浪度彩虹乐园内", "image": "", "rank": 26, "time": 2, "location": {"lat": 30.94490338125174, "lng": 104.28323098890245}, "feature": {"sight_features": "", "sight_content": ""}}, {"title": "广汉万福寺", "address": "四川省德阳市广汉市广大路", "image": "", "rank": 27, "time": 2.5, "location": {"lat": 30.934933602373345, "lng": 104.30059280449393}, "feature": {"sight_features": "", "sight_content": ""}}, {"title": "文物保护修复展示中心", "address": "德阳市广汉市三星堆博物馆内", "image": "", "rank": 28, "time": 2, "location": {"lat": 31.007075323839793, "lng": 104.2294378507773}, "feature": {"sight_features": "", "sight_content": ""}}, {"title": "广汉抗日英雄纪念碑", "address": "四川省德阳市广汉市西安路", "image": "", "rank": 29, "time": 2.5, "location": {"lat": 31.012904973072907, "lng": 104.2380661650312}, "feature": {"sight_features": "", "sight_content": ""}}, {"title": "天恩堂广汉市基督教会", "address": "四川省德阳市广汉市书院街2段-18号", "image": "", "rank": 30, "time": null, "location": {"lat": 30.98716547469248, "lng": 104.29179550150656}, "feature": {"sight_features": "", "sight_content": ""}}, {"title": "儿童成长乐园", "address": "广汉市新区保定路西一段171号（金领·格兰维亚楼盘正对面）", "image": "", "rank": 31, "time": 2, "location": {"lat": 30.997945785452753, "lng": 104.28397688969622}, "feature": {"sight_features": "", "sight_content": ""}}, {"title": "周家祠堂", "address": "德阳市广汉市广青公路", "image": "", "rank": 32, "time": 2, "location": {"lat": 30.9824152397429, "lng": 104.28842189310545}, "feature": {"sight_features": "", "sight_content": ""}}, {"title": "王家祠堂", "address": "四川省德阳市广汉市北外乡雒新路东350米", "image": "", "rank": 33, "time": 2, "location": {"lat": 31.031310282000888, "lng": 104.30766499129933}, "feature": {"sight_features": "", "sight_content": ""}}, {"title": "亲亲宝贝", "address": "小汉镇德盛街中段", "image": "", "rank": 34, "time": 2, "location": {"lat": 31.0578650931655, "lng": 104.34823610447063}, "feature": {"sight_features": "", "sight_content": ""}}, {"title": "遇见网咖", "address": "福州路五段43号", "image": "", "rank": 35, "time": 2, "location": {"lat": 30.336252813595525, "lng": 121.23071366149267}, "feature": {"sight_features": "", "sight_content": ""}}, {"title": "思乡源", "address": "南兴镇回龙村(三星堆右侧150米)", "image": "", "rank": 36, "time": 2, "location": {"lat": 30.994425835894557, "lng": 104.21611297074087}, "feature": {"sight_features": "", "sight_content": ""}}, {"title": "青白江野钓", "address": "东莞路二段附近", "image": "", "rank": 37, "time": 2, "location": {"lat": 30.912353063073372, "lng": 104.24806339447545}, "feature": {"sight_features": "", "sight_content": ""}}, {"title": "小桥流水夜啤酒广场", "address": "雒城镇湖南路二段1号附50号", "image": "", "rank": 38, "time": 2, "location": {"lat": 30.989501651219957, "lng": 104.28140429987334}, "feature": {"sight_features": "", "sight_content": ""}}, {"title": "逸天香美食休闲广场", "address": "四川省德阳市广汉市兴华东街南兴镇政府东南250米", "image": "", "rank": 39, "time": 2, "location": {"lat": 30.96725431076389, "lng": 104.21174544438527}, "feature": {"sight_features": "", "sight_content": ""}}, {"title": "土公园", "address": "德阳市广汉市九高路", "image": "", "rank": 40, "time": 2, "location": {"lat": 31.001651095443076, "lng": 104.33578674711983}, "feature": {"sight_features": "", "sight_content": ""}}, {"title": "校史陈列馆", "address": "凌云大道东50米", "image": "", "rank": 41, "time": 2, "location": {"lat": 30.955758246324145, "lng": 104.31436701514984}, "feature": {"sight_features": "", "sight_content": ""}}, {"title": "陈家祠堂", "address": "德阳市广汉市", "image": "", "rank": 42, "time": 1.5, "location": {"lat": 30.9824152397429, "lng": 104.28842189310545}, "feature": {"sight_features": "", "sight_content": ""}}, {"title": "东禅寺", "address": "四川省德阳市广汉市兴隆镇东升村", "image": "", "rank": 43, "time": 1.5, "location": {"lat": 31.09740409793091, "lng": 104.26739539257584}, "feature": {"sight_features": "", "sight_content": ""}}, {"title": "石鼓寺", "address": "北京大道东100米", "image": "", "rank": 44, "time": 0.75, "location": {"lat": 31.31764248644248, "lng": 104.02585928732428}, "feature": {"sight_features": "", "sight_content": ""}}, {"title": "旋转木马", "address": "德阳市广汉市福州路二段1号华地财富广场F3", "image": "", "rank": 45, "time": null, "location": {"lat": 30.97409525028315, "lng": 104.2939017363774}, "feature": {"sight_features": "", "sight_content": ""}}, {"title": "胡家祠堂", "address": "四川省德阳市广汉市", "image": "", "rank": 46, "time": 2, "location": {"lat": 30.9824152397429, "lng": 104.28842189310545}, "feature": {"sight_features": "", "sight_content": ""}}, {"title": "慧灯古寺", "address": "四川省德阳市广汉市航天大道", "image": "", "rank": 47, "time": 2, "location": {"lat": 31.009882045392427, "lng": 104.25025444156348}, "feature": {"sight_features": "", "sight_content": ""}}, {"title": "马家祠堂", "address": "德阳市广汉市洛水--小汉", "image": "", "rank": 48, "time": 2, "location": {"lat": 30.9824152397429, "lng": 104.28842189310545}, "feature": {"sight_features": "", "sight_content": ""}}, {"title": "憩园休闲广场", "address": "四川省德阳市广汉市兴华西街", "image": "", "rank": 49, "time": 2, "location": {"lat": 30.967081251959627, "lng": 104.20301933520373}, "feature": {"sight_features": "", "sight_content": ""}}, {"title": "可可休闲广场", "address": "武昌路北3段42号", "image": "", "rank": 50, "time": 2, "location": {"lat": 39.1182107809874, "lng": 117.20322863614874}, "feature": {"sight_features": "", "sight_content": ""}}, {"title": "北新广场", "address": "广汉市武昌路北二段", "image": "", "rank": 51, "time": 2, "location": {"lat": 30.991178576302033, "lng": 104.29035244147694}, "feature": {"sight_features": "", "sight_content": ""}}, {"title": "行政广场", "address": "德阳市广汉市天津路", "image": "", "rank": 52, "time": 2, "location": {"lat": 31.002127519986757, "lng": 104.28534555156445}, "feature": {"sight_features": "", "sight_content": ""}}, {"title": "雒城印象", "address": "四川省德阳市广汉市大同路二段与天津路交汇处", "image": "", "rank": 53, "time": 2, "location": {"lat": 31.00197556530546, "lng": 104.27760500120539}, "feature": {"sight_features": "", "sight_content": ""}}, {"title": "三水水魔方水上世界", "address": "和兴镇国防村二社(花果新村里面)", "image": "", "rank": 54, "time": 2, "location": {"lat": 30.95913865583115, "lng": 104.3495452994124}, "feature": {"sight_features": "", "sight_content": ""}}, {"title": "金雁欢乐水岸", "address": "大同路城际客运站广汉客运站旁", "image": "", "rank": 55, "time": 2, "location": {"lat": 31.012702096194214, "lng": 104.28480226088354}, "feature": {"sight_features": "", "sight_content": ""}}, {"title": "康之源草莓采摘园", "address": "雒城镇小汉镇峰昌村草莓基地", "image": "", "rank": 56, "time": 2, "location": {"lat": 31.071252352359025, "lng": 104.30345795261292}, "feature": {"sight_features": "", "sight_content": ""}}, {"title": "潜水小鹿", "address": "书院街三段50号", "image": "", "rank": 57, "time": 2, "location": {"lat": 30.987288667556285, "lng": 104.28953031227421}, "feature": {"sight_features": "", "sight_content": ""}}, {"title": "广汉田园阳光生态园", "address": "竹木村17社(四川师范大学广汉校区)", "image": "", "rank": 58, "time": null, "location": {"lat": 30.99263411341103, "lng": 104.26460447862756}, "feature": {"sight_features": "", "sight_content": ""}}, {"title": "广汉市小舞星艺术团(马牧河分部)", "address": "佛山路西三段", "image": "", "rank": 59, "time": 2.5, "location": {"lat": 30.973432823052978, "lng": 104.27317515490502}, "feature": {"sight_features": "", "sight_content": ""}}]}