{"cityName": "广南", "days": 2, "cityImage": "", "spots": [{"title": "三腊瀑布", "address": "云南省文山州广南县八宝镇三腊村", "image": "", "rank": 1, "time": 2.0, "location": {"lat": 23.761591303763236, "lng": 105.50502416215514}, "feature": {"sight_features": "", "sight_content": ""}}, {"title": "广南八宝风景区", "address": "文山壮族苗族自治州广南县八宝镇", "image": "", "rank": 2, "time": 2.0, "location": {"lat": 23.749275725823697, "lng": 105.44176492043432}, "feature": {"sight_features": "", "sight_content": ""}}, {"title": "莲湖公园", "address": "陕西省商洛市商州区江滨北路", "image": "", "rank": 3, "time": 1.0, "location": {"lat": 33.86212489656308, "lng": 109.96496747113535}, "feature": {"sight_features": "", "sight_content": ""}}, {"title": "民族博物馆", "address": "云南省文山壮族苗族自治州广南县莲城西路9", "image": "", "rank": 4, "time": 2.0, "location": {"lat": 24.053473326951256, "lng": 105.07026244842717}, "feature": {"sight_features": "", "sight_content": ""}}, {"title": "峰岩洞村", "address": "云南省广南县南屏镇安王村 663307", "image": "", "rank": 5, "time": 2, "location": {"lat": 23.816922982685476, "lng": 105.21353998355929}, "feature": {"sight_features": "", "sight_content": ""}}, {"title": "汤那洞", "address": "云南文山壮族苗族自治州广南县", "image": "", "rank": 6, "time": 2, "location": {"lat": 24.05219851092113, "lng": 105.06158238459233}, "feature": {"sight_features": "", "sight_content": ""}}, {"title": "麻栏楼", "address": "云南文山壮族苗族自治州广南县", "image": "", "rank": 7, "time": 2, "location": {"lat": 24.05219851092113, "lng": 105.06158238459233}, "feature": {"sight_features": "", "sight_content": ""}}, {"title": "珠琳镇", "address": "文山州广南县珠琳镇", "image": "", "rank": 8, "time": 1.0, "location": {"lat": 23.996440837549248, "lng": 104.66943464842932}, "feature": {"sight_features": "", "sight_content": ""}}, {"title": "坝美世外农家农家乐", "address": "坝美风景区(近法利村)", "image": "", "rank": 9, "time": 2, "location": {"lat": 24.319998685967093, "lng": 105.04876040023888}, "feature": {"sight_features": "", "sight_content": ""}}, {"title": "欢乐岛儿童主题游乐园", "address": "宁秀路", "image": "", "rank": 10, "time": 2, "location": {"lat": 24.0580202706635, "lng": 105.06365893545599}, "feature": {"sight_features": "", "sight_content": ""}}, {"title": "阿用土司衙署", "address": "云南省广南县杨柳井乡阿用街西侧 663300", "image": "", "rank": 11, "time": 2, "location": {"lat": 23.97583742987856, "lng": 99.64331337576553}, "feature": {"sight_features": "", "sight_content": ""}}, {"title": "广南峰岩洞", "address": "云南省广南县南屏镇 663300", "image": "", "rank": 12, "time": 2.0, "location": {"lat": 23.76496771235987, "lng": 105.20761118426319}, "feature": {"sight_features": "", "sight_content": ""}}, {"title": "仙人洞旧时代石器遗址", "address": "云南省西畴县小新寨 663500", "image": "", "rank": 13, "time": 2, "location": {"lat": 23.439792716555484, "lng": 104.68987421589469}, "feature": {"sight_features": "", "sight_content": ""}}, {"title": "护国寺", "address": "文山壮族苗族自治州广南县莲城镇东门", "image": "", "rank": 14, "time": 0.75, "location": {"lat": 24.05560717147766, "lng": 105.03988267415798}, "feature": {"sight_features": "", "sight_content": ""}}, {"title": "柯仲平纪念馆", "address": "莲城西路10", "image": "", "rank": 15, "time": 2, "location": {"lat": 24.05371312500461, "lng": 105.07021228704753}, "feature": {"sight_features": "", "sight_content": ""}}, {"title": "珠琳清真寺", "address": "云南省文山壮族苗族自治州广南县珠琳镇第二中学附近", "image": "", "rank": 16, "time": 2, "location": {"lat": 23.999723852761644, "lng": 104.66582161426257}, "feature": {"sight_features": "", "sight_content": ""}}, {"title": "水泊山庄", "address": "红河谷山庄附近", "image": "", "rank": 17, "time": 2, "location": {"lat": 23.861088887996125, "lng": 100.09833206558436}, "feature": {"sight_features": "", "sight_content": ""}}, {"title": "红河谷山庄", "address": "沙文线西50米", "image": "", "rank": 18, "time": null, "location": {"lat": 24.006333952893712, "lng": 105.06744014499041}, "feature": {"sight_features": "", "sight_content": ""}}, {"title": "广南县图书馆(铜鼓路店)", "address": "莲城西路67号图书馆隔壁(近铜鼓路)", "image": "", "rank": 19, "time": 2, "location": {"lat": 24.055830560260098, "lng": 105.06057080275788}, "feature": {"sight_features": "", "sight_content": ""}}, {"title": "秀景农家乐(一店)", "address": "坝美旅游区千年古榕树背后", "image": "", "rank": 20, "time": 2, "location": {"lat": 23.29163464093167, "lng": 102.30594578753747}, "feature": {"sight_features": "", "sight_content": ""}}, {"title": "坝美兄弟农家乐", "address": "坝美镇世外桃源停车场(售票大厅对面)", "image": "", "rank": 21, "time": 2, "location": {"lat": 29.382090001666292, "lng": 105.94780755184719}, "feature": {"sight_features": "", "sight_content": ""}}, {"title": "小苹果水上乐园", "address": "小区10号", "image": "", "rank": 22, "time": 2, "location": {"lat": 23.055915122083434, "lng": 112.4734787825547}, "feature": {"sight_features": "", "sight_content": ""}}, {"title": "艺美佳画廊", "address": "莲湖西路莲湖公园大门", "image": "", "rank": 23, "time": 2, "location": {"lat": 22.826812697931405, "lng": 114.10903543585042}, "feature": {"sight_features": "", "sight_content": ""}}, {"title": "坝美世外桃源", "address": "云南省广南县坝美村", "image": "", "rank": 24, "time": 2, "location": {"lat": 24.319852363957175, "lng": 105.04886399552517}, "feature": {"sight_features": "", "sight_content": ""}}, {"title": "广南莲城", "address": "云南省广南县莲城镇", "image": "", "rank": 25, "time": 2.0, "location": {"lat": 24.05560717147766, "lng": 105.03988267415798}, "feature": {"sight_features": "", "sight_content": ""}}, {"title": "薄竹箐", "address": "文山壮族苗族自治州-广南县-阿博线", "image": "", "rank": 26, "time": 2, "location": {"lat": 23.973349448444075, "lng": 104.59311776807407}, "feature": {"sight_features": "", "sight_content": ""}}, {"title": "河野风景名胜区", "address": "文山壮族苗族自治州-广南县-八宝镇河野村", "image": "", "rank": 27, "time": 2, "location": {"lat": 23.699382606304443, "lng": 105.43072573924623}, "feature": {"sight_features": "", "sight_content": ""}}, {"title": "坝美村", "address": "云南省文山州广南县坝美村", "image": "", "rank": 28, "time": 2, "location": {"lat": 24.319852363957175, "lng": 105.04886399552517}, "feature": {"sight_features": "", "sight_content": ""}}, {"title": "狮子洞", "address": "云南省文山广南县坝美镇", "image": "", "rank": 29, "time": 2, "location": {"lat": 24.26609164186671, "lng": 105.09069457971954}, "feature": {"sight_features": "", "sight_content": ""}}]}