{"cityName": "广昌", "days": 2, "cityImage": "", "spots": [{"title": "明清古建筑群", "address": "抚州市广昌县驿前镇", "image": "", "rank": 1, "time": 3.0, "location": {"lat": 26.591844313234745, "lng": 116.32778761791994}, "feature": {"sight_features": "", "sight_content": ""}}, {"title": "河源公园", "address": "江西省抚州市广昌县白家丰桥", "image": "", "rank": 2, "time": 3.0, "location": {"lat": 26.83077523115249, "lng": 116.33059854880895}, "feature": {"sight_features": "", "sight_content": ""}}, {"title": "莲花广场", "address": "抚州市广昌县解放北路380号", "image": "", "rank": 3, "time": 1.0, "location": {"lat": 26.85518369513568, "lng": 116.33545786509065}, "feature": {"sight_features": "", "sight_content": ""}}, {"title": "南印寺", "address": "江西省抚州市广昌县", "image": "", "rank": 4, "time": 2, "location": {"lat": 26.848454446680922, "lng": 116.34256064638275}, "feature": {"sight_features": "", "sight_content": ""}}, {"title": "洞藏老酒(广昌总经销)", "address": "江西省抚州市广昌县沿江路194号", "image": "", "rank": 5, "time": 2, "location": {"lat": 26.84646373190704, "lng": 116.33580132411754}, "feature": {"sight_features": "", "sight_content": ""}}, {"title": "定心禅寺", "address": "抚州市广昌县", "image": "", "rank": 6, "time": 2, "location": {"lat": 26.848454446680922, "lng": 116.34256064638275}, "feature": {"sight_features": "", "sight_content": ""}}, {"title": "奉先思孝", "address": "抚州市广昌县驿前镇明清古建筑群内", "image": "", "rank": 7, "time": 2, "location": {"lat": 26.591844313234745, "lng": 116.32778761791994}, "feature": {"sight_features": "", "sight_content": ""}}, {"title": "桑榆康乐园", "address": "松仔山3号体委幼儿园附近", "image": "", "rank": 8, "time": 2, "location": {"lat": 26.83920373754508, "lng": 116.33025898124153}, "feature": {"sight_features": "", "sight_content": ""}}, {"title": "大风车儿童乐园", "address": "盱江镇怡和花园步行街", "image": "", "rank": 9, "time": 2, "location": {"lat": 26.84100293686267, "lng": 116.33291688578697}, "feature": {"sight_features": "", "sight_content": ""}}, {"title": "宝贝嘟嘟乐儿童游乐园", "address": "爱莲名苑B14", "image": "", "rank": 10, "time": 2, "location": {"lat": 26.849129399258953, "lng": 116.33482866136929}, "feature": {"sight_features": "", "sight_content": ""}}, {"title": "太平天国军山寨", "address": "江西省广昌县苦竹镇潘田村", "image": "", "rank": 11, "time": 2, "location": {"lat": 26.906038257130422, "lng": 116.22409707531072}, "feature": {"sight_features": "", "sight_content": ""}}, {"title": "龙凤岩", "address": "江西省广昌县苦竹镇大陵村", "image": "", "rank": 12, "time": 2, "location": {"lat": 26.906038257130422, "lng": 116.22409707531072}, "feature": {"sight_features": "", "sight_content": ""}}, {"title": "明代雯峰书院", "address": "江西省广昌县甘竹镇龙溪村", "image": "", "rank": 13, "time": 2, "location": {"lat": 26.94069454028899, "lng": 116.39194697972758}, "feature": {"sight_features": "", "sight_content": ""}}, {"title": "广昌县商业步行街", "address": "江西省广昌县清音路", "image": "", "rank": 14, "time": 2, "location": {"lat": 26.847583803419127, "lng": 116.33334746338049}, "feature": {"sight_features": "", "sight_content": ""}}, {"title": "广昌县怡和商业步行街", "address": "江西省广昌县盱江路16号", "image": "", "rank": 15, "time": 2, "location": {"lat": 26.84108876218066, "lng": 116.33415008048897}, "feature": {"sight_features": "", "sight_content": ""}}, {"title": "古镇步行街", "address": "江西省广昌县驿前镇", "image": "", "rank": 16, "time": 2, "location": {"lat": 26.591844313234745, "lng": 116.32778761791994}, "feature": {"sight_features": "", "sight_content": ""}}]}