{"cityName": "冠县", "days": 2, "cityImage": "", "spots": [{"title": "武训公园", "address": "聊城市冠县清泉街道振兴路", "image": "", "rank": 1, "time": 0.4, "location": {"lat": 36.49100350098272, "lng": 115.46652039239655}, "feature": {"sight_features": "", "sight_content": ""}}, {"title": "清逸生态园", "address": "北环路老冠临路北300米", "image": "", "rank": 2, "time": null, "location": {"lat": 38.0818836383811, "lng": 114.69308879219136}, "feature": {"sight_features": "", "sight_content": ""}}, {"title": "欢乐城堡儿童乐园", "address": "聊城市冠县", "image": "", "rank": 3, "time": 2, "location": {"lat": 36.49024322539373, "lng": 115.44939579503601}, "feature": {"sight_features": "", "sight_content": ""}}, {"title": "益智堡儿童乐园", "address": "兴华路万方购物广场1楼电梯口（武训公园南邻）", "image": "", "rank": 4, "time": 2, "location": {"lat": 36.48843784756139, "lng": 115.47473817204933}, "feature": {"sight_features": "", "sight_content": ""}}, {"title": "益智儿童乐园", "address": "山东省聊城市冠县班桑路", "image": "", "rank": 5, "time": 2, "location": {"lat": 36.42657750421113, "lng": 115.59884267776297}, "feature": {"sight_features": "", "sight_content": ""}}, {"title": "星期天亲子儿童游乐园", "address": "怡心帝景对面路口东侧路南", "image": "", "rank": 6, "time": 2, "location": {"lat": 36.48679044910763, "lng": 115.4753743547064}, "feature": {"sight_features": "", "sight_content": ""}}, {"title": "洋洋水族馆", "address": "冠宜春路与红旗路交叉口东100米", "image": "", "rank": 7, "time": 2, "location": {"lat": 36.48693296245277, "lng": 115.44999054424976}, "feature": {"sight_features": "", "sight_content": ""}}, {"title": "星期六儿童乐园", "address": "冠宜春路与和平路交叉口诚信商厦二楼北(诚信商厦)", "image": "", "rank": 8, "time": 2, "location": {"lat": 36.48702574300446, "lng": 115.45175228125322}, "feature": {"sight_features": "", "sight_content": ""}}, {"title": "冠县基督教中心教堂", "address": "团结东路南50米", "image": "", "rank": 9, "time": 2, "location": {"lat": 38.81154776458995, "lng": 115.48133129072964}, "feature": {"sight_features": "", "sight_content": ""}}, {"title": "双龙儿童乐园", "address": "冠宜春路与红旗路交叉口东80米路南华联大卖场三楼", "image": "", "rank": 10, "time": 2, "location": {"lat": 36.486500517953765, "lng": 115.4498825409783}, "feature": {"sight_features": "", "sight_content": ""}}, {"title": "海蓝水族馆", "address": "兴贸路16号附近", "image": "", "rank": 11, "time": 2, "location": {"lat": 32.403763575482095, "lng": 119.59832940590414}, "feature": {"sight_features": "", "sight_content": ""}}, {"title": "萧城遗址", "address": "山东省聊城市冠县冠北路", "image": "", "rank": 12, "time": 2, "location": {"lat": 36.58547558521194, "lng": 115.4390413526091}, "feature": {"sight_features": "", "sight_content": ""}}, {"title": "南无观世音菩萨", "address": "聊城市冠县兰沃乡韩路村中华第一梨园内", "image": "", "rank": 13, "time": 2, "location": {"lat": 36.59395093869665, "lng": 115.626059525528}, "feature": {"sight_features": "", "sight_content": ""}}, {"title": "义学第一家", "address": "堠码路与武训东路交叉口西南150米", "image": "", "rank": 14, "time": 2, "location": {"lat": 36.66567556952445, "lng": 115.70094983208062}, "feature": {"sight_features": "", "sight_content": ""}}, {"title": "万寿寺", "address": "山东聊城市冠县兰沃乡韩路村中华第一梨园内", "image": "", "rank": 15, "time": 1.0, "location": {"lat": 36.59395093869665, "lng": 115.626059525528}, "feature": {"sight_features": "", "sight_content": ""}}, {"title": "淘气堡儿童游乐园", "address": "山东省聊城市冠县北馆陶镇中学北100米", "image": "", "rank": 16, "time": 2, "location": {"lat": 36.65728964568521, "lng": 115.42711271421666}, "feature": {"sight_features": "", "sight_content": ""}}, {"title": "金水湾温泉养生会馆", "address": "建设路中信花园楼下(建设路和振兴路交叉路口)", "image": "", "rank": 17, "time": 2, "location": {"lat": 36.49105426901753, "lng": 115.46133459955192}, "feature": {"sight_features": "", "sight_content": ""}}, {"title": "大卫美术", "address": "冠宜春路", "image": "", "rank": 18, "time": 2, "location": {"lat": 36.48596520508172, "lng": 115.45578315683927}, "feature": {"sight_features": "", "sight_content": ""}}, {"title": "冠县图书馆", "address": "滨河西路24号", "image": "", "rank": 19, "time": 1.5, "location": {"lat": 40.846999300747676, "lng": 122.7503130570141}, "feature": {"sight_features": "", "sight_content": ""}}, {"title": "京路发第68水上乐园", "address": "北环老临清路口东88米路南(天宇驾校东临)", "image": "", "rank": 20, "time": 2, "location": {"lat": 36.8442891866943, "lng": 115.71146960045022}, "feature": {"sight_features": "", "sight_content": ""}}, {"title": "奇屿岛儿童乐园", "address": "房管局对面清泉湖广场", "image": "", "rank": 21, "time": 2, "location": {"lat": 27.56661103444779, "lng": 119.7256970535251}, "feature": {"sight_features": "", "sight_content": ""}}, {"title": "农家风情", "address": "东古城镇李才村", "image": "", "rank": 22, "time": 2, "location": {"lat": 36.51298187819986, "lng": 115.35674009117545}, "feature": {"sight_features": "", "sight_content": ""}}, {"title": "动漫水世界", "address": "齐鲁银行北行100米(新城名都北邻)", "image": "", "rank": 23, "time": null, "location": {"lat": 36.70858467621804, "lng": 117.12315573921062}, "feature": {"sight_features": "", "sight_content": ""}}, {"title": "武训先生纪念馆", "address": "柳林镇堠码路附近", "image": "", "rank": 24, "time": 2, "location": {"lat": 36.68586767367192, "lng": 115.76390216594825}, "feature": {"sight_features": "", "sight_content": ""}}, {"title": "冠县金田地樱桃油桃专业合作社", "address": "329省道附近", "image": "", "rank": 25, "time": 2, "location": {"lat": 37.006006509118556, "lng": 114.74389772886998}, "feature": {"sight_features": "", "sight_content": ""}}, {"title": "犇犇生态园", "address": "堠码路附近", "image": "", "rank": 26, "time": 2, "location": {"lat": 36.68586767367192, "lng": 115.76390216594825}, "feature": {"sight_features": "", "sight_content": ""}}, {"title": "水上乐园", "address": "冠宜春路与建设路交叉口西100米路南", "image": "", "rank": 27, "time": 2, "location": {"lat": 36.48520267989123, "lng": 115.45987067418098}, "feature": {"sight_features": "", "sight_content": ""}}, {"title": "聊城星星园生态农业科技有限公司", "address": "店子镇里固九甲村农场路1号", "image": "", "rank": 28, "time": 2.5, "location": {"lat": 36.59809190279105, "lng": 115.4860649646145}, "feature": {"sight_features": "", "sight_content": ""}}, {"title": "瑞馨生态葡萄", "address": "班桑路南", "image": "", "rank": 29, "time": 2, "location": {"lat": 36.42657750421113, "lng": 115.59884267776297}, "feature": {"sight_features": "", "sight_content": ""}}, {"title": "秘密", "address": "七一大桥", "image": "", "rank": 30, "time": null, "location": {"lat": 36.53773450279137, "lng": 115.31560575931381}, "feature": {"sight_features": "", "sight_content": ""}}, {"title": "Let's go蹦床公园", "address": "聊城市-冠县", "image": "", "rank": 31, "time": 2, "location": {"lat": 36.49024322539373, "lng": 115.44939579503601}, "feature": {"sight_features": "", "sight_content": ""}}, {"title": "高三里庄村", "address": "聊城市-冠县", "image": "", "rank": 32, "time": 2, "location": {"lat": 36.49024322539373, "lng": 115.44939579503601}, "feature": {"sight_features": "", "sight_content": ""}}, {"title": "北馆陶东街村", "address": "聊城市-冠县-北馆陶镇政府", "image": "", "rank": 33, "time": null, "location": {"lat": 36.66120309401608, "lng": 115.42273939019731}, "feature": {"sight_features": "", "sight_content": ""}}]}