{"cityName": "广宁", "days": 2, "cityImage": "", "spots": [{"title": "竹海大观", "address": "肇庆市广宁县南街镇平头沙", "image": "", "rank": 1, "time": 2.0, "location": {"lat": 23.596254829148414, "lng": 112.40033287483503}, "feature": {"sight_features": "特色1 景区内翠竹绵延浩如烟海，构成一幅气势雄伟、景色奇特的天然竹林美景。", "sight_content": "﻿广宁竹海大观旅游区位于全国著名的竹子之乡——广东肇庆市广宁县，面积达104万亩。景区占地面积8.13平方公里，空气负离子达9.8万个/立方厘米，竹子制氧量是常绿阔叶林的1.5倍，源源不断地输送大量的新鲜纯氧，使您置身于浓浓的纯氧和竹林精气之中，堪称南中国氧吧。\n竹海大观旅游区内翠竹绵延浩如烟海，构成一幅气势雄伟，景色奇特的天然竹林美景。全年四季均可观竹，构成四景：春看竹雾、夏赏竹绿、秋览竹浪、冬观竹翠。景区内有万亩竹海“空气维生素”吸吮区和“竹林精气熏蒸区”，特色民族竹寨、竹林茶寮、竹生态园、竹水车、竹吉普车等。美丽清澈的绥江曲折回环蜿蜒而过，诠释着水的灵性，秀丽之水增添了竹的灵秀与峻逸。\n平湖戏水区民俗歌舞表演坐最原始的水上工具——竹排，沿绥江游览连绵百里的翠竹廊，翠绿的色彩与水天融于一色。大家正在细心欣赏两岸美景时，突然传来艄公高歌一曲《竹海一声笑》，令人觉得置身于世外桃源之中。\n驰名竹筒饭遍地竹林的阿里山区，竹简饭为其特色小吃，尤其广为当地邹族族人所运用；传统的做法是以桂竹的竹筒内装生糯米，再以高丽菜或山酥塞住筒口后炭烤，一会即可闻到浓浓的竹香，待烤熟后即拨开竹筒，长条的白饭外围裹着一层透明的竹膜，桂竹的清香混合着饭香扑鼻而来，香嫩可口。  竹笋以其味美鲜嫰清香爽口而引人胃口，凡食者莫不对其赞叹不已，唐代诗人白居易《食笋》诗云：“置之炊甑中，与饭同时熟。紫箨圻，素肌擘新玉。每日逐加餐，经时不思肉。久为京洛客，此味常不足。且食物踟蹰，南风吹作竹。”竹笋是妇女美容佳品排毒洗肠上品。\n竹林迷宫，神龟锁江；财击福音；卧波栈道；逍遥垂钓，金沙碧水；两个全国景观（竹大水车和彩霞石龙龟），20多个多姿多彩的参与性、竞赛性、趣味性游乐项目令人乐而忘返。  忘忧岛上，碧幽绝尘、清雅绝俗。修竹满岛、金沙  碧水、蛙声鸟鸣、景观奇绝、古朴野趣、回归自然。全岛空气清新如洗，蓝天白云，翠竹掩映，犹如人间仙境。夜宿竹林小屋、下榻竹乡船屋，感受亲切周到的个性化服务，体会宾至如归的温馨。"}}, {"title": "宝锭山风景区", "address": "肇庆市广宁县南街镇碧翠湖", "image": "", "rank": 2, "time": 4.0, "location": {"lat": 23.649613531435875, "lng": 112.4689313193188}, "feature": {"sight_features": "", "sight_content": ""}}, {"title": "万竹园", "address": "肇庆市广宁县城南街镇的古琴岗上", "image": "", "rank": 3, "time": 1.0, "location": {"lat": 23.66248774400698, "lng": 112.30623008437138}, "feature": {"sight_features": "", "sight_content": ""}}, {"title": "翠竹公园", "address": "肇庆市广宁县南东一路34附近", "image": "", "rank": 4, "time": 2.0, "location": {"lat": 23.63362281306586, "lng": 112.4443474481303}, "feature": {"sight_features": "", "sight_content": ""}}, {"title": "民兴农机合作社", "address": "260省道东50米", "image": "", "rank": 5, "time": 2, "location": {"lat": 36.10888534051102, "lng": 115.51648574204872}, "feature": {"sight_features": "", "sight_content": ""}}, {"title": "建业农场直销点", "address": "南街镇五一东路37号", "image": "", "rank": 6, "time": 2, "location": {"lat": 23.63453179509187, "lng": 112.45123389050651}, "feature": {"sight_features": "", "sight_content": ""}}, {"title": "富笃牌坊", "address": "广东省肇庆市怀集县658乡道", "image": "", "rank": 7, "time": 2, "location": {"lat": 23.917842129185328, "lng": 112.19146878783033}, "feature": {"sight_features": "", "sight_content": ""}}, {"title": "86BAR", "address": "明珠新城首层商铺", "image": "", "rank": 8, "time": 2, "location": {"lat": 43.6054086257578, "lng": 121.32468647256994}, "feature": {"sight_features": "", "sight_content": ""}}, {"title": "乐贝儿主题乐园（广宁店）", "address": "广宁县南街镇新环城东路百花广场2楼", "image": "", "rank": 9, "time": 2, "location": {"lat": 23.639194312729998, "lng": 112.45143438780474}, "feature": {"sight_features": "", "sight_content": ""}}, {"title": "广宁县南街镇基督教堂", "address": "广东省肇庆市广宁县圣堂二路58号", "image": "", "rank": 10, "time": 2, "location": {"lat": 23.637064490900464, "lng": 112.43818649974133}, "feature": {"sight_features": "", "sight_content": ""}}, {"title": "精灵岛儿童乐园", "address": "广东省肇庆市广宁县环城东路16号", "image": "", "rank": 11, "time": 2, "location": {"lat": 23.63999689089865, "lng": 112.45155221764016}, "feature": {"sight_features": "", "sight_content": ""}}, {"title": "广宁县黄国英山师技艺纪念馆", "address": "广东省肇庆市广宁县朝阳东路38号", "image": "", "rank": 12, "time": 2, "location": {"lat": 23.638759331716166, "lng": 112.4495153997275}, "feature": {"sight_features": "", "sight_content": ""}}, {"title": "烈士陵园", "address": "环城西路14号附近", "image": "", "rank": 13, "time": 2, "location": {"lat": 40.863117194026664, "lng": 122.75376681712358}, "feature": {"sight_features": "", "sight_content": ""}}, {"title": "会真堂", "address": "广东省肇庆市广宁县S350", "image": "", "rank": 14, "time": 2, "location": {"lat": 23.64103572633298, "lng": 112.4474238750093}, "feature": {"sight_features": "", "sight_content": ""}}, {"title": "欧阳氏宗祠", "address": "广东省肇庆市广宁县南街镇广宁本策小学", "image": "", "rank": 15, "time": 2, "location": {"lat": 23.61501763902268, "lng": 112.40971327920454}, "feature": {"sight_features": "", "sight_content": ""}}, {"title": "逍遥庙", "address": "260省道附近", "image": "", "rank": 16, "time": 2, "location": {"lat": 36.10888534051102, "lng": 115.51603658929373}, "feature": {"sight_features": "", "sight_content": ""}}, {"title": "金德山庄", "address": "350省道与728乡道交叉口西北100米", "image": "", "rank": 17, "time": 2, "location": {"lat": 39.754319199493544, "lng": 118.4675874287618}, "feature": {"sight_features": "", "sight_content": ""}}, {"title": "碧翠湖渡假村", "address": "人民路附近", "image": "", "rank": 18, "time": 2, "location": {"lat": 23.37490057686854, "lng": 103.40661159663834}, "feature": {"sight_features": "", "sight_content": ""}}, {"title": "江屯文化广场", "address": "康乐路与建设一路交叉口东100米", "image": "", "rank": 19, "time": 2, "location": {"lat": 24.363224665401383, "lng": 114.13949644119194}, "feature": {"sight_features": "", "sight_content": ""}}, {"title": "碑角广场", "address": "肇庆市广宁县", "image": "", "rank": 20, "time": 2, "location": {"lat": 23.64103572633298, "lng": 112.4474238750093}, "feature": {"sight_features": "", "sight_content": ""}}, {"title": "坑口文化广场", "address": "473乡道附近", "image": "", "rank": 21, "time": 2, "location": {"lat": 40.055537172347606, "lng": 116.80744876501818}, "feature": {"sight_features": "", "sight_content": ""}}, {"title": "云鼎山庄", "address": "肇庆四连线往怀集方向1000米", "image": "", "rank": 22, "time": 2, "location": {"lat": 23.917842129185328, "lng": 112.19146878783033}, "feature": {"sight_features": "", "sight_content": ""}}, {"title": "木格影剧院", "address": "木格客运站附近", "image": "", "rank": 23, "time": 2, "location": {"lat": 22.844529341407853, "lng": 109.72646861330928}, "feature": {"sight_features": "", "sight_content": ""}}, {"title": "广宁县图书馆", "address": "沿江路", "image": "", "rank": 24, "time": 2, "location": {"lat": 23.121864282887806, "lng": 113.28399612328477}, "feature": {"sight_features": "", "sight_content": ""}}, {"title": "广宁科技馆", "address": "南街镇五二路", "image": "", "rank": 25, "time": 2.5, "location": {"lat": 23.649613531435875, "lng": 112.4689313193188}, "feature": {"sight_features": "", "sight_content": ""}}, {"title": "澎湃故居", "address": "418县道", "image": "", "rank": 26, "time": 2, "location": {"lat": 33.91839135609921, "lng": 101.98717140375913}, "feature": {"sight_features": "", "sight_content": ""}}, {"title": "江屯镇科普画廊", "address": "260省道", "image": "", "rank": 27, "time": 2, "location": {"lat": 36.10888534051102, "lng": 115.51603658929373}, "feature": {"sight_features": "", "sight_content": ""}}, {"title": "竹文化博览馆", "address": "碧翠湖度假村旅业部附近", "image": "", "rank": 28, "time": 2, "location": {"lat": 23.613474632251616, "lng": 112.43471132492795}, "feature": {"sight_features": "", "sight_content": ""}}, {"title": "国土资源局档案室", "address": "德胜街", "image": "", "rank": 29, "time": 2, "location": {"lat": 45.782839164101745, "lng": 126.65679151273689}, "feature": {"sight_features": "", "sight_content": ""}}, {"title": "百盈广场", "address": "南坤大道北(近百盈花园)", "image": "", "rank": 30, "time": 2, "location": {"lat": 23.64300961821955, "lng": 112.43999635178392}, "feature": {"sight_features": "", "sight_content": ""}}, {"title": "华威小学篮球场", "address": "黄洞华威小学(近古水太和)", "image": "", "rank": 31, "time": 2, "location": {"lat": 29.158413728159044, "lng": 114.87841126637312}, "feature": {"sight_features": "", "sight_content": ""}}, {"title": "广宁县文化馆", "address": "南街镇新宁南路3号", "image": "", "rank": 32, "time": 2, "location": {"lat": 23.640042575997438, "lng": 112.44662734751387}, "feature": {"sight_features": "", "sight_content": ""}}, {"title": "广宁县博物馆", "address": "南街镇环城东路11号", "image": "", "rank": 33, "time": 2, "location": {"lat": 23.63894290139738, "lng": 112.45105275977677}, "feature": {"sight_features": "", "sight_content": ""}}, {"title": "广宁县腾丰农机专业合作社(西门)", "address": "人民路东50米", "image": "", "rank": 34, "time": 2, "location": {"lat": 29.95872023397983, "lng": 120.98508785243823}, "feature": {"sight_features": "", "sight_content": ""}}, {"title": "初心农趣园", "address": "广宁第一中学红星加油站方向50米右侧", "image": "", "rank": 35, "time": 2, "location": {"lat": 23.654516682213664, "lng": 112.45434456438477}, "feature": {"sight_features": "", "sight_content": ""}}, {"title": "广东广宁圣堂醒狮武术团", "address": "圣堂二路附近", "image": "", "rank": 36, "time": 2, "location": {"lat": 23.636578799869916, "lng": 112.43739695028312}, "feature": {"sight_features": "", "sight_content": ""}}, {"title": "下村醒师武术团", "address": "环城东路附近", "image": "", "rank": 37, "time": 2, "location": {"lat": 39.747552383033195, "lng": 117.33256211265966}, "feature": {"sight_features": "", "sight_content": ""}}, {"title": "广宁县下村星韵艺术团", "address": "环城东路附近", "image": "", "rank": 38, "time": 2, "location": {"lat": 39.747552383033195, "lng": 117.33256211265966}, "feature": {"sight_features": "", "sight_content": ""}}]}