{"cityName": "广水", "days": 2, "cityImage": "", "spots": [{"title": "高桂三潭风景区", "address": "随州市广水市蔡河镇", "image": "", "rank": 1, "time": 2, "location": {"lat": 31.759993572445524, "lng": 113.90378593652402}, "feature": {"sight_features": "", "sight_content": ""}}, {"title": "印台广场", "address": "随州市广水市东正街20栋楼", "image": "", "rank": 2, "time": 2, "location": {"lat": 31.621971842321262, "lng": 113.83608410422167}, "feature": {"sight_features": "", "sight_content": ""}}, {"title": "随州市广水浒杰水泊梁山度假村", "address": "湖北省随州市广水市长岭镇徐家河风景旅游区近三一六国道", "image": "", "rank": 3, "time": 7.5, "location": {"lat": 31.552004667454728, "lng": 113.57075834303082}, "feature": {"sight_features": "", "sight_content": ""}}, {"title": "亲亲乐园", "address": "东大街印台广场二楼", "image": "", "rank": 4, "time": 2, "location": {"lat": 31.620840788989963, "lng": 113.83479107788078}, "feature": {"sight_features": "", "sight_content": ""}}, {"title": "波涛休闲山庄", "address": "东晨大道附近", "image": "", "rank": 5, "time": 2, "location": {"lat": 31.729641082858162, "lng": 113.8310268723701}, "feature": {"sight_features": "", "sight_content": ""}}, {"title": "广水市图书馆", "address": "广安路24号", "image": "", "rank": 6, "time": 1.5, "location": {"lat": 31.623091385079285, "lng": 113.83922745037066}, "feature": {"sight_features": "", "sight_content": ""}}, {"title": "星原休闲垂钓", "address": "中心客运站南1500米", "image": "", "rank": 7, "time": 2, "location": {"lat": 41.27572955778994, "lng": 123.17440668329334}, "feature": {"sight_features": "", "sight_content": ""}}, {"title": "乔玉富硒葡萄园", "address": "城西路杨河村", "image": "", "rank": 8, "time": 2, "location": {"lat": 31.6091847849898, "lng": 113.7615833891755}, "feature": {"sight_features": "", "sight_content": ""}}, {"title": "大贵寺", "address": "湖北省随州市广水市", "image": "", "rank": 9, "time": 2, "location": {"lat": 31.6224760380074, "lng": 113.83259337884046}, "feature": {"sight_features": "", "sight_content": ""}}, {"title": "黄家祠堂", "address": "随州市广水市杨平线", "image": "", "rank": 10, "time": 2, "location": {"lat": 31.452128345151227, "lng": 113.70863521338252}, "feature": {"sight_features": "", "sight_content": ""}}, {"title": "童辉儿童乐园", "address": "湖北省随州市广水市东大街4栋", "image": "", "rank": 11, "time": 2, "location": {"lat": 31.621289992867407, "lng": 113.83708528996678}, "feature": {"sight_features": "", "sight_content": ""}}, {"title": "朝阳寺", "address": "随州市广水市", "image": "", "rank": 12, "time": 2, "location": {"lat": 31.6224760380074, "lng": 113.83259337884046}, "feature": {"sight_features": "", "sight_content": ""}}, {"title": "公园路与桐柏大道交叉口", "address": "广水市", "image": "", "rank": 13, "time": 2, "location": {"lat": 31.6224760380074, "lng": 113.83259337884046}, "feature": {"sight_features": "", "sight_content": ""}}, {"title": "中华山森林公园", "address": "中华山林场", "image": "", "rank": 14, "time": 2, "location": {"lat": 31.658226479956372, "lng": 113.98848478255023}, "feature": {"sight_features": "", "sight_content": ""}}, {"title": "竹林公园", "address": "余店镇沿河路", "image": "", "rank": 15, "time": 1.5, "location": {"lat": 31.78770597646308, "lng": 113.64540863402915}, "feature": {"sight_features": "", "sight_content": ""}}, {"title": "滨河公园植物园", "address": "滨河西路7号", "image": "", "rank": 16, "time": 2, "location": {"lat": 31.613599438477422, "lng": 113.8518152303124}, "feature": {"sight_features": "", "sight_content": ""}}, {"title": "广水市科技馆", "address": "航空北路238号", "image": "", "rank": 17, "time": 2.5, "location": {"lat": 31.6356673195549, "lng": 113.8317698123489}, "feature": {"sight_features": "", "sight_content": ""}}, {"title": "双龙泉生态园", "address": "304省道", "image": "", "rank": 18, "time": 2, "location": {"lat": 38.007414201086036, "lng": 114.44892402313616}, "feature": {"sight_features": "", "sight_content": ""}}, {"title": "轻工超市童梦楼儿童游乐园(南门...", "address": "四贤路广水市一医院隔壁(轻工超市2楼)", "image": "", "rank": 19, "time": 2, "location": {"lat": 31.62181725455647, "lng": 113.83039585407138}, "feature": {"sight_features": "", "sight_content": ""}}, {"title": "妙妙城堡儿童乐园", "address": "国际现代城二期127号(故乡老屋往实验二小50米)", "image": "", "rank": 20, "time": 0.4, "location": {"lat": 35.406916349215116, "lng": 119.52855703958777}, "feature": {"sight_features": "", "sight_content": ""}}, {"title": "高贵三潭", "address": "广水城北(近平靖关)", "image": "", "rank": 21, "time": 2, "location": {"lat": 31.86763802183918, "lng": 113.93995791017223}, "feature": {"sight_features": "", "sight_content": ""}}, {"title": "徐家河风景区", "address": "长岭镇", "image": "", "rank": 22, "time": 2, "location": {"lat": 46.048492263593076, "lng": 126.65098714581973}, "feature": {"sight_features": "", "sight_content": ""}}, {"title": "萌宝贝儿童乐园", "address": "公园路百盛广场一楼", "image": "", "rank": 23, "time": 2, "location": {"lat": 30.659862740715464, "lng": 117.48480481587954}, "feature": {"sight_features": "", "sight_content": ""}}, {"title": "淘气宝贝儿童乐园", "address": "长岭镇南街27号1幢(中国农业银行后身)", "image": "", "rank": 24, "time": 2, "location": {"lat": 35.47954017483247, "lng": 118.84452970219552}, "feature": {"sight_features": "", "sight_content": ""}}, {"title": "神州休闲山庄", "address": "黄杨线附近", "image": "", "rank": 25, "time": 2, "location": {"lat": 33.12494671874936, "lng": 118.39811152572135}, "feature": {"sight_features": "", "sight_content": ""}}, {"title": "崇明森林公园虹桥农家乐", "address": "崇明建设镇虹桥村239号(东平国家森林公园2号门东侧)", "image": "", "rank": 26, "time": 2.0, "location": {"lat": 31.687534241901528, "lng": 121.47787839096797}, "feature": {"sight_features": "", "sight_content": ""}}, {"title": "小星星游乐园", "address": "永阳大道中百仓储1楼", "image": "", "rank": 27, "time": 2, "location": {"lat": 30.68229449874736, "lng": 114.37625558633022}, "feature": {"sight_features": "", "sight_content": ""}}, {"title": "雅歌画廊(分店)", "address": "督察巷与航空南路交叉口南50米", "image": "", "rank": 28, "time": 2, "location": {"lat": 31.62056499654632, "lng": 113.83006816839085}, "feature": {"sight_features": "", "sight_content": ""}}, {"title": "应山剧院", "address": "东正街15号", "image": "", "rank": 29, "time": 2, "location": {"lat": 26.41460443922103, "lng": 112.40241215744572}, "feature": {"sight_features": "", "sight_content": ""}}, {"title": "老周农庄", "address": "竹林湾北行320米路西", "image": "", "rank": 30, "time": 2, "location": {"lat": 31.27952757176728, "lng": 119.3872094302541}, "feature": {"sight_features": "", "sight_content": ""}}, {"title": "应山城南草莓园", "address": "应山城南村利源驾校东南角", "image": "", "rank": 31, "time": 2, "location": {"lat": 37.73963280502981, "lng": 107.37298698357256}, "feature": {"sight_features": "", "sight_content": ""}}, {"title": "老地方农家乐", "address": "304省道东50米", "image": "", "rank": 32, "time": 2, "location": {"lat": 38.007414201086036, "lng": 114.44937317589115}, "feature": {"sight_features": "", "sight_content": ""}}, {"title": "石磙塘", "address": "随州市-广水市-蔡院路", "image": "", "rank": 33, "time": 2, "location": {"lat": 31.72512105161622, "lng": 113.86594647428986}, "feature": {"sight_features": "", "sight_content": ""}}, {"title": "许家冲", "address": "随州市-广水市", "image": "", "rank": 34, "time": 2, "location": {"lat": 31.6224760380074, "lng": 113.83259337884046}, "feature": {"sight_features": "", "sight_content": ""}}, {"title": "华家院子", "address": "随州市-广水市", "image": "", "rank": 35, "time": null, "location": {"lat": 31.6224760380074, "lng": 113.83259337884046}, "feature": {"sight_features": "", "sight_content": ""}}, {"title": "鸦林湾", "address": "随州市-广水市", "image": "", "rank": 36, "time": 2, "location": {"lat": 31.6224760380074, "lng": 113.83259337884046}, "feature": {"sight_features": "", "sight_content": ""}}]}