{"cityName": "馆陶", "days": 2, "cityImage": "", "spots": [{"title": "黄瓜小镇", "address": "邯郸市馆陶县翟庄村", "image": "", "rank": 1, "time": 2, "location": {"lat": 36.60529500305144, "lng": 115.23843035128964}, "feature": {"sight_features": "", "sight_content": ""}}, {"title": "粮画小镇", "address": "邯郸市馆陶县", "image": "", "rank": 2, "time": 2, "location": {"lat": 36.55395672865321, "lng": 115.28853676634758}, "feature": {"sight_features": "", "sight_content": ""}}, {"title": "公主湖自然湿地公园", "address": "邯郸市馆陶县金凤大道", "image": "", "rank": 3, "time": 2.5, "location": {"lat": 36.553367046367974, "lng": 115.29487745578975}, "feature": {"sight_features": "", "sight_content": ""}}, {"title": "温泉宾馆", "address": "政府街和魏征路交口北行50米路西", "image": "", "rank": 4, "time": null, "location": {"lat": 36.54393185372065, "lng": 115.30030071030612}, "feature": {"sight_features": "", "sight_content": ""}}, {"title": "馆陶县孟岩垂钓俱乐部", "address": "文卫西街360文卫街", "image": "", "rank": 5, "time": 2, "location": {"lat": 36.54878195281058, "lng": 115.28057844786846}, "feature": {"sight_features": "", "sight_content": ""}}, {"title": "黑小麦农场", "address": "柴堡镇东广才村", "image": "", "rank": 6, "time": 2, "location": {"lat": 36.60807118102005, "lng": 115.29305784814875}, "feature": {"sight_features": "", "sight_content": ""}}, {"title": "基督教会", "address": "河北省邯郸市馆陶县十里店武馆线巍僧寨镇中学西北150米", "image": "", "rank": 7, "time": 2, "location": {"lat": 36.7248257807754, "lng": 115.38745114705218}, "feature": {"sight_features": "", "sight_content": ""}}, {"title": "浅口基督堂", "address": "河北省邯郸市馆陶县浅口村", "image": "", "rank": 8, "time": 2, "location": {"lat": 36.60819706965805, "lng": 115.23164462692493}, "feature": {"sight_features": "", "sight_content": ""}}, {"title": "汉代驸马坟", "address": "河北省馆陶县南马固村西", "image": "", "rank": 9, "time": 2, "location": {"lat": 36.557517345110305, "lng": 115.29708574944526}, "feature": {"sight_features": "", "sight_content": ""}}, {"title": "馆陶大佛殿", "address": "政府街附近", "image": "", "rank": 10, "time": 1.5, "location": {"lat": 40.10568856307779, "lng": 116.6699454253687}, "feature": {"sight_features": "", "sight_content": ""}}, {"title": "馆陶图书馆", "address": "106国道附近", "image": "", "rank": 11, "time": 1.5, "location": {"lat": 39.1725896711994, "lng": 116.39041588203045}, "feature": {"sight_features": "", "sight_content": ""}}, {"title": "馆陶魏徵博物馆", "address": "金凤街", "image": "", "rank": 12, "time": 2, "location": {"lat": 42.10601751116983, "lng": 124.93825106834862}, "feature": {"sight_features": "", "sight_content": ""}}, {"title": "圆梦舞蹈艺术中心", "address": "文卫街与永济路交叉口东南100米", "image": "", "rank": 13, "time": 2, "location": {"lat": 36.54345474324993, "lng": 115.31227377619417}, "feature": {"sight_features": "", "sight_content": ""}}, {"title": "葡萄庄园", "address": "平安路与文卫街交叉口南100米", "image": "", "rank": 14, "time": 2, "location": {"lat": 36.54355265878237, "lng": 115.30735263672905}, "feature": {"sight_features": "", "sight_content": ""}}]}