{"cityName": "灌南", "days": 2, "cityImage": "", "spots": [{"title": "海西公园", "address": "连云港市灌南县人民西路", "image": "", "rank": 1, "time": 1.5, "location": {"lat": 34.09745241740968, "lng": 119.29742482488824}, "feature": {"sight_features": "", "sight_content": ""}}, {"title": "人民革命纪念馆", "address": "连云港市灌南县新安镇人民东路15-2号", "image": "", "rank": 2, "time": 0.75, "location": {"lat": 34.10061045164548, "lng": 119.36780469905152}, "feature": {"sight_features": "", "sight_content": ""}}, {"title": "汤沟古镇", "address": "连云港市灌南县", "image": "", "rank": 3, "time": 2, "location": {"lat": 34.09259130777028, "lng": 119.32253818609821}, "feature": {"sight_features": "", "sight_content": ""}}, {"title": "硕项湖", "address": "连云港市灌南县新安镇", "image": "", "rank": 4, "time": 2, "location": {"lat": 34.106981651514914, "lng": 119.3356445128956}, "feature": {"sight_features": "", "sight_content": ""}}, {"title": "幸福林海", "address": "连云港市灌南县236省道西50米", "image": "", "rank": 5, "time": 2, "location": {"lat": 34.09562193178221, "lng": 119.22895056213548}, "feature": {"sight_features": "", "sight_content": ""}}, {"title": "天宫欢乐水世界", "address": "刘园村", "image": "", "rank": 6, "time": 2, "location": {"lat": 40.08654852587545, "lng": 113.2890519808655}, "feature": {"sight_features": "", "sight_content": ""}}, {"title": "灌南展览馆", "address": "泰州北路与人民西路交汇处", "image": "", "rank": 7, "time": 2.5, "location": {"lat": 34.149141237406916, "lng": 118.77926204606239}, "feature": {"sight_features": "", "sight_content": ""}}, {"title": "同兴林业生态园", "address": "235省道", "image": "", "rank": 8, "time": 2, "location": {"lat": 38.72736549768279, "lng": 115.81277537552413}, "feature": {"sight_features": "", "sight_content": ""}}, {"title": "苏北菇菌文化展览馆", "address": "人民东路", "image": "", "rank": 9, "time": 2, "location": {"lat": 38.067918425672914, "lng": 114.65286299664115}, "feature": {"sight_features": "", "sight_content": ""}}, {"title": "灌南县图书馆(桥东分馆)", "address": "新东南路10号附近", "image": "", "rank": 10, "time": 2, "location": {"lat": 34.096555324727824, "lng": 119.36341531332964}, "feature": {"sight_features": "", "sight_content": ""}}, {"title": "王家乐", "address": "新安镇灌南县第二中学校2班", "image": "", "rank": 11, "time": 2, "location": {"lat": 34.106981651514914, "lng": 119.3356445128956}, "feature": {"sight_features": "", "sight_content": ""}}, {"title": "好心情水族", "address": "连云港市灌南县新安北路1212", "image": "", "rank": 12, "time": 2, "location": {"lat": 34.09861111841506, "lng": 119.35843573190463}, "feature": {"sight_features": "", "sight_content": ""}}, {"title": "灌河半岛新区规划展示馆", "address": "江苏省灌南县灌河半岛新区管理委员会旁边", "image": "", "rank": 13, "time": 2, "location": {"lat": 34.09259130777028, "lng": 119.32253818609821}, "feature": {"sight_features": "", "sight_content": ""}}, {"title": "浦二庄基督教堂", "address": "江苏省连云港市灌南县", "image": "", "rank": 14, "time": 2, "location": {"lat": 34.09259130777028, "lng": 119.32253818609821}, "feature": {"sight_features": "", "sight_content": ""}}, {"title": "革命烈士纪念塔", "address": "新安镇灌南人民革命纪念馆", "image": "", "rank": 15, "time": 2, "location": {"lat": 34.10192013322714, "lng": 119.36792792680475}, "feature": {"sight_features": "", "sight_content": ""}}, {"title": "梦幻世界儿童乐园", "address": "百禄中学", "image": "", "rank": 16, "time": 2, "location": {"lat": 34.06264612976968, "lng": 119.53234457139762}, "feature": {"sight_features": "", "sight_content": ""}}, {"title": "李集烈士陵园", "address": "北李线与233国道交叉口西北50米", "image": "", "rank": 17, "time": 2, "location": {"lat": 39.754319199493544, "lng": 118.4675874287618}, "feature": {"sight_features": "", "sight_content": ""}}, {"title": "呀噜嗒儿童乐园", "address": "江苏省连云港市灌南县常州北路辅路", "image": "", "rank": 18, "time": 2, "location": {"lat": 34.103006831352126, "lng": 119.33755606659707}, "feature": {"sight_features": "", "sight_content": ""}}, {"title": "城南教堂", "address": "新东路东50米", "image": "", "rank": 19, "time": 2, "location": {"lat": 39.933488963555895, "lng": 119.63716530454218}, "feature": {"sight_features": "", "sight_content": ""}}, {"title": "海星水族馆", "address": "江苏省连云港市灌南县镇中东路36-12号", "image": "", "rank": 20, "time": 2, "location": {"lat": 34.098166300830854, "lng": 119.36794213979452}, "feature": {"sight_features": "", "sight_content": ""}}, {"title": "灌南中专音乐广场", "address": "连云港市灌南县", "image": "", "rank": 21, "time": 2, "location": {"lat": 34.09259130777028, "lng": 119.32253818609821}, "feature": {"sight_features": "", "sight_content": ""}}, {"title": "公兴村人口文化广场", "address": "威海北路附近", "image": "", "rank": 22, "time": 2, "location": {"lat": 45.632358160442216, "lng": 126.66430428605598}, "feature": {"sight_features": "", "sight_content": ""}}, {"title": "凯奇儿童乐园", "address": "江苏省连云港市灌南县华茂商城A1-09", "image": "", "rank": 23, "time": 2, "location": {"lat": 34.227008532361545, "lng": 119.57473602073571}, "feature": {"sight_features": "", "sight_content": ""}}, {"title": "大盛度假山庄", "address": "迎宾大道附近", "image": "", "rank": 24, "time": 2, "location": {"lat": 40.09022363082665, "lng": 114.15469279026227}, "feature": {"sight_features": "", "sight_content": ""}}, {"title": "海西度假村", "address": "五龙口风景区二郎神文化遗迹公园附近", "image": "", "rank": 25, "time": 2.5, "location": {"lat": 34.13157170329881, "lng": 119.3339236416064}, "feature": {"sight_features": "", "sight_content": ""}}, {"title": "绩效度假村", "address": "鹏程西路附近", "image": "", "rank": 26, "time": 2, "location": {"lat": 34.08565589930732, "lng": 119.34126828357468}, "feature": {"sight_features": "", "sight_content": ""}}, {"title": "灌南县少儿图书馆", "address": "泰州路", "image": "", "rank": 27, "time": null, "location": {"lat": 39.183979611796246, "lng": 117.2337794217462}, "feature": {"sight_features": "", "sight_content": ""}}, {"title": "灌南县城乡建设档案馆", "address": "步行街", "image": "", "rank": 28, "time": 2, "location": {"lat": 31.4707878758284, "lng": 104.75488769018823}, "feature": {"sight_features": "", "sight_content": ""}}, {"title": "灌南县博物馆", "address": "泰州路", "image": "", "rank": 29, "time": 2, "location": {"lat": 39.183979611796246, "lng": 117.2337794217462}, "feature": {"sight_features": "", "sight_content": ""}}, {"title": "灌南县乐园殡仪馆", "address": "204国道", "image": "", "rank": 30, "time": 2, "location": {"lat": 31.674195505838682, "lng": 120.84129504740726}, "feature": {"sight_features": "", "sight_content": ""}}, {"title": "嘉年华水上乐园", "address": "人民西路文化艺术展览中心(县交通局东侧)", "image": "", "rank": 31, "time": 2, "location": {"lat": 34.09165649234689, "lng": 119.31023268159518}, "feature": {"sight_features": "", "sight_content": ""}}, {"title": "七彩家园农副产品有限公司第二生...", "address": "307省道附近", "image": "", "rank": 32, "time": 2, "location": {"lat": 40.264498296993764, "lng": 116.57268632168496}, "feature": {"sight_features": "", "sight_content": ""}}, {"title": "圣狱真人密室逃脱", "address": "世贸时代广场c4-48号(金字塔3d影城东后侧)", "image": "", "rank": 33, "time": 2, "location": {"lat": 34.09953230795006, "lng": 119.35646169836004}, "feature": {"sight_features": "", "sight_content": ""}}, {"title": "李集香港街", "address": "江苏省灌南县235省道", "image": "", "rank": 34, "time": 2, "location": {"lat": 34.03355744344322, "lng": 119.33529807688414}, "feature": {"sight_features": "", "sight_content": ""}}, {"title": "百汇步行街", "address": "江苏省灌南县百汇步行街", "image": "", "rank": 35, "time": 2, "location": {"lat": 34.09729456975176, "lng": 119.35574226613811}, "feature": {"sight_features": "", "sight_content": ""}}, {"title": "五分场二十一连", "address": "连云港市-灌南县", "image": "", "rank": 36, "time": 2, "location": {"lat": 34.09259130777028, "lng": 119.32253818609821}, "feature": {"sight_features": "", "sight_content": ""}}, {"title": "东西合", "address": "连云港市-灌南县", "image": "", "rank": 37, "time": 2, "location": {"lat": 34.09259130777028, "lng": 119.32253818609821}, "feature": {"sight_features": "", "sight_content": ""}}]}