{"cityName": "灌云", "days": null, "cityImage": "", "spots": [{"title": "李汝珍纪念馆", "address": "连云港市灌云县板浦镇东大街7号", "image": "", "rank": 1, "time": 1.5, "location": {"lat": 34.483566124132544, "lng": 119.25497610048913}, "feature": {"sight_features": "", "sight_content": ""}}, {"title": "潮河湾生态园", "address": "连云港市灌云县杨集镇元兴村", "image": "", "rank": 2, "time": null, "location": {"lat": 34.29247443878086, "lng": 119.44361844210907}, "feature": {"sight_features": "", "sight_content": "潮河湾景区，国家AAA级风景区，江苏省四星级乡村旅游点，江苏省水利风景区，景区位于灌云县城东18公里杨集镇境内，距连云港市区40公里，沿海高速公路3公里，“204”国道沂北段南侧。属海潮百年冲刷而成的“s”湾状自然河道，因此得名。\n\n\n东至潮河东路，西至潮河西路，南至沂河淌，小潮河贯穿其中。景区按照“乐游伊水畔，乡约潮河湾”的旅游规划定位，由潮河湾滨水公园、花溪小镇、美丽乡村、渔家花湾、香味金田湾、归园田榴湾、荷溢蟹塘湾、滨河风光带、沂河淌风光带等组成，占地总面积6296亩。\n\n\n其中潮河湾滨水公园占地1066亩，由银杏花海、水上乐园、风车花田、婚纱摄影基地、自助烧烤服务区、生态草坪、豆丹科普基地展示馆和拓展训练中心等组成。景区以“自然、生态、野趣”为主题，精心打造休闲、娱乐、观光、科普等旅游产品，构建游客的“心灵港湾、梦中家园”，使所有游客既能感受回归自然的怡情和舒心，又能体味星级享受的休闲和惬意。\n\n\n\n2016年以来，景区加大规划编制和项目建设力度，成立旅游产业发展工作指挥部，在做好地下管网、木栈道、景观桥、骑行驿站、明珠广场、游客中心、停车场等基础设施建设的同时，新建婚纱摄影基地、风车花田、银杏花海、豆丹科普基地展示馆、美丽乡村、陵园、乡村大食堂等旅游项目。目前，已初步具备接待条件。\n\n\n印象潮河湾，醉美乡村游，是潮河湾景区的一大特色。景区水系发达，潮河湾同样是亲子游的最佳选择（水上乐园、民俗美丽乡村采摘园、草坡活动等）。潮河两侧骑行道计5.5KM，边运动边赏景，感受当地的乡土人情、农家的生产生活！最具潮河湾景区的特色的观光路线就是乘坐潮河湾的画舫船，听着潮河湾的传奇故事，品一壶清香的茗茶，赏两侧的风光美景；沂河淌的万亩油菜花、青色的麦田，放眼望去，一马平川！\n\n\n潮河湾的南端专门改建了800多平的乡村大食堂，喝茶、聊天、餐饮应有尽有！感受大食堂时代文化！精心打造的美丽乡村刘圩庄紧挨潮河，景色、环境优美，民风淳朴！不仅是采摘体验乐园，更是民俗文化传扬地！潮河湾景区每年将举办踏青赏花、骑行比赛、马拉松长跑、龙舟比赛、垂钓大赛等一系列活动。印象潮河湾，醉美乡村游！我，在潮河湾等你......"}}, {"title": "王范生态园", "address": "伊山镇王范村(花园一号小区往西2公里)", "image": "", "rank": 3, "time": 2, "location": {"lat": 33.423932525487096, "lng": 109.14468088344528}, "feature": {"sight_features": "", "sight_content": ""}}, {"title": "3d艺术视觉体验中心", "address": "南京西路661号", "image": "", "rank": 4, "time": 2, "location": {"lat": 31.236816433415957, "lng": 121.4713009829773}, "feature": {"sight_features": "", "sight_content": ""}}, {"title": "灌云县图书馆", "address": "胜利路251", "image": "", "rank": 5, "time": 2, "location": {"lat": 46.80764874657596, "lng": 130.41050540886482}, "feature": {"sight_features": "", "sight_content": ""}}, {"title": "灌云县兴云生态农业有限公司种鹅...", "address": "生态路附近", "image": "", "rank": 6, "time": 2, "location": {"lat": 33.84234354841432, "lng": 118.74006230674364}, "feature": {"sight_features": "", "sight_content": ""}}, {"title": "灌云艺畅葡萄种植专业合作社", "address": "204国道附近", "image": "", "rank": 7, "time": 2, "location": {"lat": 31.674195505838682, "lng": 120.84129504740726}, "feature": {"sight_features": "", "sight_content": ""}}, {"title": "龙苴草莓园", "address": "龙胡路北", "image": "", "rank": 8, "time": 2, "location": {"lat": 46.39227234815384, "lng": 124.59614828971496}, "feature": {"sight_features": "", "sight_content": ""}}, {"title": "九龙港海阁公园", "address": "连云港市灌云县水利南路", "image": "", "rank": 9, "time": 2, "location": {"lat": 34.29074864407174, "lng": 119.24162857686571}, "feature": {"sight_features": "", "sight_content": ""}}, {"title": "灌云规划馆", "address": "江苏省灌云县西环南路东265米", "image": "", "rank": 10, "time": 2, "location": {"lat": 34.28522990948295, "lng": 119.23841457359853}, "feature": {"sight_features": "", "sight_content": ""}}, {"title": "灌云县白蚬烈士陵园", "address": "下车镇朱宋线光裕中学", "image": "", "rank": 11, "time": 2, "location": {"lat": 34.32821176403246, "lng": 119.34536634253152}, "feature": {"sight_features": "", "sight_content": ""}}, {"title": "法治文化公园", "address": "连云港市灌云县", "image": "", "rank": 12, "time": 2, "location": {"lat": 34.28861606025826, "lng": 119.24653354503504}, "feature": {"sight_features": "", "sight_content": ""}}, {"title": "城市文化公园", "address": "长安西路北50米", "image": "", "rank": 13, "time": 2, "location": {"lat": 38.01109604236012, "lng": 114.69010925025552}, "feature": {"sight_features": "", "sight_content": ""}}, {"title": "罗汉堂水族馆", "address": "伊山南路194号", "image": "", "rank": 14, "time": 2, "location": {"lat": 34.29068158327449, "lng": 119.26092171876124}, "feature": {"sight_features": "", "sight_content": ""}}, {"title": "文化广场", "address": "江苏省连云港市灌云县G204(振兴南路)", "image": "", "rank": 15, "time": 1.5, "location": {"lat": 34.29147222728588, "lng": 119.27411876812698}, "feature": {"sight_features": "", "sight_content": ""}}, {"title": "金源水上乐园", "address": "伊山镇金源购物中心门口", "image": "", "rank": 16, "time": null, "location": {"lat": 34.29821226873383, "lng": 119.22990227999277}, "feature": {"sight_features": "", "sight_content": ""}}, {"title": "金海湾水族馆", "address": "江苏省连云港市灌云县向阳路92-5", "image": "", "rank": 17, "time": 2, "location": {"lat": 34.31071782634513, "lng": 119.26410323301303}, "feature": {"sight_features": "", "sight_content": ""}}, {"title": "五晨公园", "address": "江苏省连云港市灌云县七中沟路五农公园附近", "image": "", "rank": 18, "time": 2, "location": {"lat": 34.37823862137885, "lng": 119.54721004268875}, "feature": {"sight_features": "", "sight_content": ""}}, {"title": "法制广场", "address": "纬二路与西苑南路交叉口东100米", "image": "", "rank": 19, "time": 2, "location": {"lat": 34.278953455318174, "lng": 119.24839298623728}, "feature": {"sight_features": "", "sight_content": ""}}, {"title": "兴港山庄", "address": "324省道附近", "image": "", "rank": 20, "time": 2, "location": {"lat": 34.101022772229115, "lng": 117.56430801824291}, "feature": {"sight_features": "", "sight_content": ""}}, {"title": "阳光花园水上乐园", "address": "西环路与兴农路交汇处(阳光花园小区门口)", "image": "", "rank": 21, "time": 2, "location": {"lat": 31.060564584877838, "lng": 118.12023895630306}, "feature": {"sight_features": "", "sight_content": ""}}, {"title": "灌云县锦华书画苑", "address": "海之舟商业广场b1区附近", "image": "", "rank": 22, "time": 2, "location": {"lat": 34.305495516140546, "lng": 119.26414267042153}, "feature": {"sight_features": "", "sight_content": ""}}, {"title": "灌云县文化馆艺术培训中心", "address": "人民西路1号影剧院西门美术馆内", "image": "", "rank": 23, "time": 2, "location": {"lat": 23.03769708887456, "lng": 113.11819246180195}, "feature": {"sight_features": "", "sight_content": ""}}, {"title": "文化馆", "address": "西苑南路8号", "image": "", "rank": 24, "time": 2, "location": {"lat": 46.65407205141692, "lng": 124.86380975931826}, "feature": {"sight_features": "", "sight_content": ""}}, {"title": "灌云县志芹生猪专业合作社", "address": "古泊善后河附近", "image": "", "rank": 25, "time": 2, "location": {"lat": 34.49442581712123, "lng": 119.58835368818191}, "feature": {"sight_features": "", "sight_content": ""}}, {"title": "蓝莓农家乐", "address": "穆南线附近", "image": "", "rank": 26, "time": 2, "location": {"lat": 34.37616193448801, "lng": 119.12025713871701}, "feature": {"sight_features": "", "sight_content": ""}}, {"title": "德国鳄鱼漆", "address": "宝康巷与民安南路交叉口西南200米", "image": "", "rank": 27, "time": 2, "location": {"lat": 34.2882561782915, "lng": 119.25179687781468}, "feature": {"sight_features": "", "sight_content": ""}}, {"title": "开心农家乐", "address": "204国道东50米", "image": "", "rank": 28, "time": 2, "location": {"lat": 31.674195505838682, "lng": 120.84174420016224}, "feature": {"sight_features": "", "sight_content": ""}}, {"title": "水上漂", "address": "中天街与新民巷交叉口西100米", "image": "", "rank": 29, "time": 2, "location": {"lat": 34.3156092806228, "lng": 119.46660486919357}, "feature": {"sight_features": "", "sight_content": ""}}, {"title": "乡情满园生态园", "address": "淮高灌公路东50米", "image": "", "rank": 30, "time": 2, "location": {"lat": 34.323145682642846, "lng": 119.27530420441695}, "feature": {"sight_features": "", "sight_content": ""}}, {"title": "杨集镇双湾葡萄采摘园", "address": "杨集镇双湾村2组(G204与兴沂路交叉口南向200米路东)", "image": "", "rank": 31, "time": null, "location": {"lat": 34.28744118256015, "lng": 119.40846059609346}, "feature": {"sight_features": "", "sight_content": ""}}, {"title": "李五唢呐艺术团", "address": "兴杨路", "image": "", "rank": 32, "time": 2, "location": {"lat": 30.899158924163537, "lng": 121.50149282433281}, "feature": {"sight_features": "", "sight_content": ""}}, {"title": "唢呐艺术团", "address": "何沂路", "image": "", "rank": 33, "time": 2, "location": {"lat": 34.29176888121172, "lng": 119.45425310375337}, "feature": {"sight_features": "", "sight_content": ""}}, {"title": "灌云县伊芦乡文体站", "address": "圩伊线伊芦乡附近", "image": "", "rank": 34, "time": 2, "location": {"lat": 34.4231143188164, "lng": 119.42035178323088}, "feature": {"sight_features": "", "sight_content": ""}}, {"title": "富园广场步行街", "address": "江苏省灌云县富园广场步行街", "image": "", "rank": 35, "time": 2, "location": {"lat": 34.30477365340473, "lng": 119.26069013560077}, "feature": {"sight_features": "", "sight_content": ""}}, {"title": "海之舟商业广场", "address": "江苏省灌云县中大街", "image": "", "rank": 36, "time": 2, "location": {"lat": 34.30626005529752, "lng": 119.26434165676997}, "feature": {"sight_features": "", "sight_content": ""}}, {"title": "小伊商业步行街", "address": "江苏省灌云县小伊步行街", "image": "", "rank": 37, "time": 2, "location": {"lat": 34.39445977698212, "lng": 119.22165650105556}, "feature": {"sight_features": "", "sight_content": ""}}, {"title": "同兴步行街", "address": "江苏省灌云县同兴镇", "image": "", "rank": 38, "time": 2, "location": {"lat": 34.422972093079956, "lng": 119.42186069394516}, "feature": {"sight_features": "", "sight_content": ""}}, {"title": "伊甸园-桃花岛", "address": "连云港市-灌云县-伊山镇川新村伊甸园景区(童话小镇东100米)", "image": "", "rank": 39, "time": null, "location": {"lat": 34.32830336139691, "lng": 119.2535470841686}, "feature": {"sight_features": "", "sight_content": ""}}, {"title": "付岔村", "address": "连云港市-灌云县", "image": "", "rank": 40, "time": 2, "location": {"lat": 34.28861606025826, "lng": 119.24653354503504}, "feature": {"sight_features": "", "sight_content": ""}}, {"title": "淮北平川第一神山", "address": "连云港市-灌云县-陵园路南50米", "image": "", "rank": 41, "time": 2, "location": {"lat": 34.31312259334882, "lng": 119.25249083768556}, "feature": {"sight_features": "", "sight_content": ""}}, {"title": "经岗土地股份专业合作社", "address": "连云港市-灌云县-324省道北50米", "image": "", "rank": 42, "time": 2, "location": {"lat": 34.43934625581719, "lng": 119.74280422063337}, "feature": {"sight_features": "", "sight_content": ""}}]}