{"cityName": "光泽", "days": 2, "cityImage": "", "spots": [{"title": "乌君山", "address": "316省道南", "image": "", "rank": 1, "time": 2, "location": {"lat": 39.27101965917406, "lng": 117.82159346542433}, "feature": {"sight_features": "", "sight_content": ""}}, {"title": "光泽水泥厂农场", "address": "316国道附近", "image": "", "rank": 2, "time": 2, "location": {"lat": 26.297698208697987, "lng": 118.8318521786658}, "feature": {"sight_features": "", "sight_content": ""}}, {"title": "茅坪山农场", "address": "829县道附近", "image": "", "rank": 3, "time": 2, "location": {"lat": 34.67284054800415, "lng": 110.8068523990834}, "feature": {"sight_features": "", "sight_content": ""}}, {"title": "天主教堂", "address": "福建省南平市光泽县二一七路影剧院4层", "image": "", "rank": 4, "time": 1.0, "location": {"lat": 27.547272859205247, "lng": 117.34048158962685}, "feature": {"sight_features": "", "sight_content": ""}}, {"title": "爱国寺", "address": "316国道南100米", "image": "", "rank": 5, "time": 1.0, "location": {"lat": 26.29688846019266, "lng": 118.8318521786658}, "feature": {"sight_features": "", "sight_content": ""}}, {"title": "乌君洲公园", "address": "南平市光泽县坪山路6号", "image": "", "rank": 6, "time": 2, "location": {"lat": 27.555645798279468, "lng": 117.35108309802791}, "feature": {"sight_features": "", "sight_content": ""}}, {"title": "儿童主题乐园", "address": "福建省南平市光泽县镇岭路恬梦圆宾馆附近", "image": "", "rank": 7, "time": 2, "location": {"lat": 27.55306383188208, "lng": 117.34863649687429}, "feature": {"sight_features": "", "sight_content": ""}}, {"title": "奥乐奥儿童乐园", "address": "福建省南平市光泽县镇岭路25-3号", "image": "", "rank": 8, "time": 2, "location": {"lat": 27.55330764121206, "lng": 117.34914691406489}, "feature": {"sight_features": "", "sight_content": ""}}, {"title": "光泽县水电局农场", "address": "713乡道附近", "image": "", "rank": 9, "time": 2, "location": {"lat": 40.41356468660603, "lng": 116.7863116363684}, "feature": {"sight_features": "", "sight_content": ""}}, {"title": "贝贝乐园", "address": "杭川镇龙厦名都(阳光花园售楼部正对面)", "image": "", "rank": 10, "time": 2, "location": {"lat": 27.54561523822243, "lng": 117.32910322804102}, "feature": {"sight_features": "", "sight_content": ""}}, {"title": "光泽县博物馆", "address": "217路124号", "image": "", "rank": 11, "time": null, "location": {"lat": 27.54764666854972, "lng": 117.33959498544473}, "feature": {"sight_features": "", "sight_content": ""}}]}