{"cityName": "广饶", "days": 2, "cityImage": "", "spots": [{"title": "孙子文化旅游区", "address": "东营市广饶县城东新区中心（乐安大街1678号）", "image": "", "rank": 1, "time": 3.0, "location": {"lat": 37.05631318780117, "lng": 118.4705742811079}, "feature": {"sight_features": "", "sight_content": ""}}, {"title": "孙子文化园", "address": "东营市广饶县乐安大街1678号", "image": "", "rank": 2, "time": 2, "location": {"lat": 37.05631318780117, "lng": 118.4705742811079}, "feature": {"sight_features": "特色1 集中展示孙子文化的精品板块 特色2 采用动静结合的手法实现文化与项目有效结合", "sight_content": "孙子文化园位于广饶县城东新区，被列入黄河三角洲高效生态经济区及山东半岛蓝色经济区“四个一批”重点调度推进项目，规划总面积1600亩，总建筑面积8万平方米，投资16个亿，于2011年6月开工建设文化园。坚持“以人为本、生态和谐、突出特色、文化融合”的规划设计理念，按照“一轴、两带、六分区”规划布局，依据AAAAA级景区标准进行开发建设。孙子文化博大精深，影响深远，是世界文化瑰宝。孙子文化园，依托孙武湖而建，充分结合周边环境，注重对和谐之美、生态之美的塑造，是集中展示孙子文化的精品板块，也是传承和弘扬孙子文化的基地。\n孙子文化园荣获2012年山东文化旅游景区；2012年环境教育基地等荣誉称号，是AAAA级旅游景区。\n景区风光1、兵圣天下（外广场）：孙子文化公园的大门，是用十三块巨石堆砌成一个汉字“兵”字，用来提示我们的公园，是以《孙子兵法》军事谋略思想为主题的，十三块巨石，暗指《孙子兵法》十三篇；巨石上方镶嵌的地球仪，寓意《孙子兵法》和孙子文化的影响已经波及全世界。“兵”字形大门气势恢宏，大门前方的广场上，是一尊以“势”命名的大型雕塑。“势”是《孙子兵法》十三篇的主要军事谋略思想之一，其中的第五篇《势篇》，就是专门讲“势”。大型雕塑“势”，采用的是世界著名的“麦比乌斯环”的造型。讲关于战争中交战双方“势”的变化。\n景区风光2、儿童乐园－智乐童趣（儿童游乐区）：是兵圣文化传播的基础教育园地，采用卡通城堡的形式渲染和谐、浪漫、欢快的和平氛围，设置旋转木马、飓风飞椅、桑巴气球、泡泡球城、儿童4D影院、爬山车、青蛙骑士、小兵训练营、超级碰撞、水上转转杯、反斗转盘等多种儿童项目及各种儿童摊位游戏、电子游戏等，全方位为游客提供其乐无穷的游乐体验。\n景区风光3、兵圣遗迹（西部景观带）：包括悟园、垂钓园、观象台、弈园、行军桥、九变桥、中山广场、军争桥、梅园、虚实桥、兵势桥、乐安园、军形桥、恩泽园。\n其他游乐项目\n\n飞行岛，站在园区制高点，伴着美妙的音乐，将园区景色尽收眼底，欣赏游乐设备的紧张刺激，远眺孙武湖水天一色的秀丽风光，感受时尚与自然的完美结合。\n波浪翻滚，又名“同舟共济”，瞬间提升、跌落、停止，加上360°的疯狂翻滚，音乐喷泉水幕同现，让你真正体会在惊涛骇浪中同舟共济，乘风破浪的顶级刺激。\nXD影院是集人工智能，动感座椅平台，立体成像数字内容，实景特效等高科技技术和唯美艺术于一体的新一代多媒体互动娱乐体验项目。\n旋转的士高：超级酷炫的摩托车座式座椅，激情动感的音乐，起伏飞旋之时，让您目眩神迷，天旋地转之间，带给您惊险万分的空中之旅~\n孙武传奇：顶尖的科技含量，华丽的视觉盛宴，孙武传奇集古今之博采，融华夏之文明，带您领略万世兵圣叱咤风云、鏖战沙场的壮丽场景~\n小火车：仿古火车古朴典雅，40分钟的环园之旅，带您欣赏盎然的田园风光，带您领略古镇的古韵流淌，去邂逅诗和远方。\n\n古代兵器馆：陈列古代不同时期不同兵种使用的各种兵器，并以现代手段复原制造过程，互动体验，寓教于乐，直观展现古代兵器演变史，在互动中学习和体验古代兵家文化的博大\n春秋古镇：春秋古镇按照春秋时期乐安古城的空间特点和生活风俗，复原的傍水民居群落，以体验式商业为主要内容，复原2500年前的民俗风情，充分展示古乐安城乐业安居的繁荣景象。"}}, {"title": "孙武湖度假酒店温泉", "address": "东营市广饶县城东新区", "image": "", "rank": 3, "time": 2, "location": {"lat": 37.059638498906146, "lng": 118.41349864392043}, "feature": {"sight_features": "", "sight_content": ""}}, {"title": "欢乐海洋水上乐园", "address": "东营市广饶县乐安大街1678号", "image": "", "rank": 4, "time": 2, "location": {"lat": 37.05631318780117, "lng": 118.4705742811079}, "feature": {"sight_features": "", "sight_content": ""}}, {"title": "广饶县稻庄镇凤兰家庭农场", "address": "中心街159号", "image": "", "rank": 5, "time": 2, "location": {"lat": 41.503858660529765, "lng": 122.73281954534333}, "feature": {"sight_features": "", "sight_content": ""}}, {"title": "枯藤病院(广饶站)", "address": "广饶街道银座步行街3楼", "image": "", "rank": 6, "time": 2, "location": {"lat": 35.396314475766815, "lng": 116.09289102188559}, "feature": {"sight_features": "", "sight_content": ""}}, {"title": "广饶县循环农业科技园", "address": "稻庄镇颜徐一村村东300米", "image": "", "rank": 7, "time": 2, "location": {"lat": 23.518909941585477, "lng": 103.35598606701242}, "feature": {"sight_features": "", "sight_content": ""}}, {"title": "孙武书画研究院", "address": "傅家路518号", "image": "", "rank": 8, "time": 2, "location": {"lat": 37.04930511700194, "lng": 118.41481645810357}, "feature": {"sight_features": "", "sight_content": ""}}, {"title": "乐安书画院", "address": "花苑路196-22号", "image": "", "rank": 9, "time": 2.5, "location": {"lat": 37.05313360768398, "lng": 118.41617559434017}, "feature": {"sight_features": "", "sight_content": ""}}, {"title": "广饶图书馆", "address": "关帝庙街1号", "image": "", "rank": 10, "time": null, "location": {"lat": 37.21332398829339, "lng": 112.189105988996}, "feature": {"sight_features": "", "sight_content": ""}}, {"title": "垂钓天地", "address": "广饶街道义乌市场", "image": "", "rank": 11, "time": 2, "location": {"lat": 37.07508598552979, "lng": 118.46370656750099}, "feature": {"sight_features": "", "sight_content": ""}}, {"title": "谢家画廊", "address": "大王镇王东商业街", "image": "", "rank": 12, "time": 2, "location": {"lat": 34.36136658198397, "lng": 108.70007913371231}, "feature": {"sight_features": "", "sight_content": ""}}, {"title": "丁庄金池垂钓园", "address": "广青路139号", "image": "", "rank": 13, "time": 2, "location": {"lat": 37.24969027906519, "lng": 118.59759782428807}, "feature": {"sight_features": "", "sight_content": ""}}, {"title": "甜心草莓采摘园", "address": "颜徐一村踊跃路北", "image": "", "rank": 14, "time": 2, "location": {"lat": 31.312026779103824, "lng": 121.65858667734064}, "feature": {"sight_features": "", "sight_content": ""}}, {"title": "华夏河缘书画院", "address": "潍高路468号", "image": "", "rank": 15, "time": 2, "location": {"lat": 36.83819629743702, "lng": 118.91262853612648}, "feature": {"sight_features": "", "sight_content": ""}}, {"title": "灵动水族馆", "address": "山东省东营市广饶县兵圣路162号-7", "image": "", "rank": 16, "time": 2, "location": {"lat": 37.05479347183193, "lng": 118.4143643409404}, "feature": {"sight_features": "", "sight_content": ""}}, {"title": "百年乾龙水族馆", "address": "东营市广饶县乐安大街352号", "image": "", "rank": 17, "time": 2, "location": {"lat": 37.0595459111481, "lng": 118.40885440443385}, "feature": {"sight_features": "", "sight_content": ""}}, {"title": "佳贝爱儿童乐园", "address": "柏寝路与蒜乡路交叉口东北50米", "image": "", "rank": 18, "time": 2, "location": {"lat": 37.185527153412096, "lng": 118.43736414648886}, "feature": {"sight_features": "", "sight_content": ""}}, {"title": "中共清河地委旧址", "address": "山东省东营市广饶县大码头镇农商银行央上分理处旁", "image": "", "rank": 19, "time": 2, "location": {"lat": 37.11551226083927, "lng": 118.64182580624127}, "feature": {"sight_features": "", "sight_content": ""}}, {"title": "闫口休闲广场", "address": "中心街附近", "image": "", "rank": 20, "time": 2, "location": {"lat": 40.1070240234082, "lng": 116.50201480006159}, "feature": {"sight_features": "", "sight_content": ""}}, {"title": "陈官村文体娱乐广场", "address": "小王路", "image": "", "rank": 21, "time": 2, "location": {"lat": 34.53686161566729, "lng": 109.17866904226311}, "feature": {"sight_features": "", "sight_content": ""}}, {"title": "枯藤病院(模式真人鬼屋)", "address": "山东省东营市广饶县孙武路乐淘城3楼", "image": "", "rank": 22, "time": 2, "location": {"lat": 37.05674550275731, "lng": 118.4192448033354}, "feature": {"sight_features": "", "sight_content": ""}}, {"title": "浩丰湖温泉旅游度假村", "address": "东营市广饶县", "image": "", "rank": 23, "time": 2, "location": {"lat": 37.059638498906146, "lng": 118.41349864392043}, "feature": {"sight_features": "", "sight_content": ""}}, {"title": "金海城休闲娱乐广场", "address": "山东省东营市广饶县S323(潍高路)", "image": "", "rank": 24, "time": 2, "location": {"lat": 37.03719009067654, "lng": 118.45444886806781}, "feature": {"sight_features": "", "sight_content": ""}}, {"title": "延集村文化广场", "address": "230省道附近", "image": "", "rank": 25, "time": 2, "location": {"lat": 36.0895617983312, "lng": 111.58252815779157}, "feature": {"sight_features": "", "sight_content": ""}}, {"title": "广饶国际博览中心", "address": "东营市广饶县乐安大街997号", "image": "", "rank": 26, "time": 2.0, "location": {"lat": 37.05820718411922, "lng": 118.45619164729554}, "feature": {"sight_features": "", "sight_content": ""}}, {"title": "西苑植物园", "address": "潍高路", "image": "", "rank": 27, "time": 2, "location": {"lat": 36.79770455942847, "lng": 118.97811794077136}, "feature": {"sight_features": "", "sight_content": ""}}, {"title": "吕剧博物院", "address": "月河路270号", "image": "", "rank": 28, "time": 2, "location": {"lat": 37.06381137109993, "lng": 118.41199853210863}, "feature": {"sight_features": "", "sight_content": ""}}, {"title": "大王书画院", "address": "潍高路39号", "image": "", "rank": 29, "time": 2, "location": {"lat": 36.8149561621714, "lng": 118.9586420754959}, "feature": {"sight_features": "", "sight_content": ""}}, {"title": "中国齐笔文化展览馆", "address": "潍高路", "image": "", "rank": 30, "time": 2, "location": {"lat": 36.79770455942847, "lng": 118.97811794077136}, "feature": {"sight_features": "", "sight_content": ""}}, {"title": "七彩虹欢乐世界(大王银座店)", "address": "大王镇银座2楼", "image": "", "rank": 31, "time": 2, "location": {"lat": 40.804514496840746, "lng": 114.9008416726543}, "feature": {"sight_features": "", "sight_content": ""}}, {"title": "建军大棚冬枣采摘园", "address": "丁庄镇三干路口（红绿灯）向东3公里", "image": "", "rank": 32, "time": 2, "location": {"lat": 27.855115878009787, "lng": 120.72109614867794}, "feature": {"sight_features": "", "sight_content": ""}}, {"title": "祥泰农庄-草莓", "address": "稻庄镇徐楼村(傅家路与惠安路交叉口加油站路西500米)", "image": "", "rank": 33, "time": null, "location": {"lat": 37.04500478354621, "lng": 118.45355119137169}, "feature": {"sight_features": "", "sight_content": ""}}, {"title": "国中牛奶富硒香梅采摘园", "address": "广饶颜徐一村向东400米路北", "image": "", "rank": 34, "time": 2, "location": {"lat": 37.059638498906146, "lng": 118.41349864392043}, "feature": {"sight_features": "", "sight_content": ""}}, {"title": "大王宾馆温泉", "address": "大王宾馆院内", "image": "", "rank": 35, "time": 2, "location": {"lat": 36.99047728440516, "lng": 118.53523820497219}, "feature": {"sight_features": "", "sight_content": ""}}, {"title": "小江南生态农场", "address": "大王镇万亩林场织女河南首", "image": "", "rank": 36, "time": 2, "location": {"lat": 34.67977819117108, "lng": 110.9867157455815}, "feature": {"sight_features": "", "sight_content": ""}}, {"title": "海洋之谜", "address": "231省道", "image": "", "rank": 37, "time": 2, "location": {"lat": 38.570258381735, "lng": 115.41346932379217}, "feature": {"sight_features": "", "sight_content": ""}}, {"title": "广饶体校游泳馆", "address": "月河路老体校院内", "image": "", "rank": 38, "time": 2, "location": {"lat": 32.258383730474925, "lng": 119.39422277176047}, "feature": {"sight_features": "", "sight_content": ""}}, {"title": "广饶县图书馆(大码头分馆)", "address": "027乡道东50米", "image": "", "rank": 39, "time": 2, "location": {"lat": 47.169350234665025, "lng": 131.80762517973866}, "feature": {"sight_features": "", "sight_content": ""}}, {"title": "洪祥葡萄采摘园", "address": "李鹊镇安里村大队向南100米", "image": "", "rank": 40, "time": 2, "location": {"lat": 36.99941208948775, "lng": 118.34394121696003}, "feature": {"sight_features": "", "sight_content": ""}}, {"title": "文宝斋画廊", "address": "大王镇迎春路22号", "image": "", "rank": 41, "time": 2, "location": {"lat": 36.98862401554246, "lng": 118.53063651462439}, "feature": {"sight_features": "", "sight_content": ""}}, {"title": "喜上莓梢", "address": "颜徐一村", "image": "", "rank": 42, "time": 2, "location": {"lat": 37.0940192635929, "lng": 118.48690528394023}, "feature": {"sight_features": "", "sight_content": ""}}, {"title": "广饶县图书馆", "address": "花苑路国际会展中心三楼", "image": "", "rank": 43, "time": 2, "location": {"lat": 35.64451154733983, "lng": 111.47024701086123}, "feature": {"sight_features": "", "sight_content": ""}}, {"title": "中共刘集支部", "address": "山东省东营市大王镇刘集村", "image": "", "rank": 44, "time": 2, "location": {"lat": 36.993715830859195, "lng": 118.48280240826922}, "feature": {"sight_features": "", "sight_content": ""}}, {"title": "乐园综合商业街", "address": "山东省广饶县孙武路143号", "image": "", "rank": 45, "time": 2, "location": {"lat": 37.0544987094758, "lng": 118.41780323948352}, "feature": {"sight_features": "", "sight_content": ""}}]}