{"cityName": "瓜州", "days": 2, "cityImage": "", "spots": [{"title": "榆林窟", "address": "酒泉市瓜州县", "image": "", "rank": 1, "time": 2.5, "location": {"lat": 40.526105978950454, "lng": 95.78873636451216}, "feature": {"sight_features": "特色1 敦煌艺术的代表", "sight_content": "榆林窟又名万佛峡，始建于北魏。保存最完整的是第二十五号窟该窟为中唐开凿，壁画结构严谨，造型逼真，色彩鲜艳，可别是线描，潇洒流畅，为唐代壁画所罕见。西夏窟唐僧取经故事中，孙悟空已成为猴王出现，比《西游记》早三百年。榆林窟无论祠窟制型、壁画内容、艺术风格都与莫高窟有密切关系，是敦煌艺术的一个组成部分，有较高的历史和艺术价值。榆林窟是敦煌石窟的组成部分，开凿于隋唐以前。现存唐、五代、宋、西夏、元等朝代洞窟43个，分布在榆林河东、西两岸的悬崖峭壁上，东崖32个、西崖11个、壁画4200平方米，彩塑259身，约占莫高窟壁画总面积的九分之一。榆林窟在内容、艺术风格、绘画形式方面同莫高窟一脉相承，同为姊妹窟。\n榆林窟的价值主要表现在精美的壁画上，有精美的佛和菩萨画像，有场面宏大的佛教故事画，有种类繁多的花卉禽兽，有极为精致的装饰图案。壁画多为唐代至元代800年间的作品，有些形象为其他地区石窟所未见，如描写瓜州节度使曹氏家族的供养像（第19窟）、都勾当画院画家的形象、沙州工匠都勾当画院使保供养像、知画手武保琳供养像（第35窟）、西夏时期党项武官画像、唐僧取经图等。其中第25窟的唐代壁画，更是世所罕见的珍品。"}}, {"title": "锁阳城", "address": "酒泉市瓜州县桥子乡南坝村", "image": "", "rank": 2, "time": 1.0, "location": {"lat": 40.31552799777319, "lng": 96.20991155159633}, "feature": {"sight_features": "特色1 保存最为完好的唐至西夏时期古城之一", "sight_content": "锁阳城遗址，位于甘肃省瓜州县东南68公里处，是国务院公布的第四批全国重点文物保护单位，2014年第38届世界遗产大会将锁阳城遗址列入世界遗产名录。\n锁阳城遗址始建于西晋，是西晋时期的晋昌郡治所，唐武德年间设瓜州，西夏时设立西平监军司，自西夏军队撤出后，城废至今。是公元7——13世纪丝绸之路河西走廊西端典型的交通保障性城址，也是古代丝绸之路上连接中原与西域地区的交通枢纽，同时还是河西走廊上人类土地利用的杰出范例，展现了长距离交通条件下人类对荒漠戈壁自然环境的依托、利用和改造，与丝路沿线的商贸活动密切关联。\n锁阳城遗址是集古城址、佛寺遗址、古渠系和古垦区、墓葬群等多种遗迹为一体的文化遗产，这些类型丰富的遗址遗迹及它们之间的空间关系，很好地体现了在丝绸之路长距离的交通和交流过程中，锁阳城作为屯田绿洲典型保障性城镇为之提供的交通保障作用。\n锁阳城遗址是我国目前保存较为完好的唐至西夏时期古城之一。保存了中国古代最为完好的军事防御体系和农业灌溉水利体系，充分体现了河西走廊边疆城市的防御特征，是人类在长距离交通和交流条件下的防御和安全体系的突出例证;是我国古绿洲沙漠化演进过程当中的典型标本，对于今天绿洲地区的开发建设及沙漠化的防治更具有重要的借鉴意义。"}}, {"title": "东千佛洞", "address": "酒泉市瓜州县桥子乡南三十五公里峡谷两岸", "image": "", "rank": 3, "time": 2.5, "location": {"lat": 40.08978403347872, "lng": 96.2099357564383}, "feature": {"sight_features": "", "sight_content": ""}}, {"title": "桥湾城", "address": "酒泉市瓜州县东85公里处的312国道南侧", "image": "", "rank": 4, "time": 1.0, "location": {"lat": 41.64399227811595, "lng": 95.23943736720155}, "feature": {"sight_features": "", "sight_content": "城廊呈长方形，东西320米，南北122米，黄土版筑，墙体保存较完整，残高5～8米，开南北两座城门，均有垛墙及城楼残迹，城四角有角墩，城内有东西大道及房屋庙宇建筑遗迹，城西、南等处均有房屋建筑遗迹。康熙夜梦桥湾城、怒斩贪官陈金山父子的传说，使该城声名远播。"}}, {"title": "破城子遗址", "address": "酒泉市瓜州县踏实乡破城子村二队", "image": "", "rank": 5, "time": 1.0, "location": {"lat": 40.26937455740069, "lng": 95.98735154298853}, "feature": {"sight_features": "", "sight_content": ""}}, {"title": "陇凤阁足疗会所", "address": "酒泉市瓜州县渊泉镇南北大街盛景花苑3号楼1号门店", "image": "", "rank": 6, "time": 2, "location": {"lat": 40.51707056364597, "lng": 95.79002989570075}, "feature": {"sight_features": "", "sight_content": ""}}, {"title": "瓜州博物馆", "address": "酒泉市瓜州县文化街1号", "image": "", "rank": 7, "time": 1.0, "location": {"lat": 40.52501294111197, "lng": 95.78839159485742}, "feature": {"sight_features": "", "sight_content": ""}}, {"title": "双塔湖", "address": "甘肃省瓜州县(城东50公里)", "image": "", "rank": 8, "time": 2, "location": {"lat": 40.526105978950454, "lng": 95.78873636451216}, "feature": {"sight_features": "", "sight_content": ""}}, {"title": "玄奘取经博物馆", "address": "甘肃省酒泉市瓜州县渊泉街南50米", "image": "", "rank": 9, "time": 2, "location": {"lat": 40.521612297902905, "lng": 95.79576176217675}, "feature": {"sight_features": "", "sight_content": ""}}, {"title": "双塔水库", "address": "瓜州双塔水库", "image": "", "rank": 10, "time": 2, "location": {"lat": 40.556848090958695, "lng": 96.35210220807483}, "feature": {"sight_features": "", "sight_content": ""}}, {"title": "绿源生态农庄", "address": "布隆吉乡", "image": "", "rank": 11, "time": 2, "location": {"lat": 40.539945555400614, "lng": 96.53084467770334}, "feature": {"sight_features": "", "sight_content": ""}}, {"title": "双塔博物馆", "address": "酒泉市瓜州县G30连霍高速附近", "image": "", "rank": 12, "time": 2, "location": {"lat": 40.526105978950454, "lng": 95.78873636451216}, "feature": {"sight_features": "", "sight_content": ""}}, {"title": "瓜州县图书馆", "address": "文化街71号", "image": "", "rank": 13, "time": 2, "location": {"lat": 38.70702691014336, "lng": 116.64354050564904}, "feature": {"sight_features": "", "sight_content": ""}}, {"title": "南公园儿童蹦极床", "address": "瓜州中路33号靠近西路军纪念塔", "image": "", "rank": 14, "time": 2, "location": {"lat": 40.525773493753775, "lng": 95.78453763964323}, "feature": {"sight_features": "", "sight_content": ""}}, {"title": "张芝公园", "address": "唐城观筑小区北侧", "image": "", "rank": 15, "time": 2, "location": {"lat": 38.048523821564196, "lng": 114.47180402437367}, "feature": {"sight_features": "", "sight_content": ""}}, {"title": "安西战役纪念馆", "address": "县府街20", "image": "", "rank": 16, "time": 2, "location": {"lat": 28.171838731379555, "lng": 104.51668741825833}, "feature": {"sight_features": "", "sight_content": ""}}, {"title": "大佛寺", "address": "瓜州大道34号", "image": "", "rank": 17, "time": 1.5, "location": {"lat": 40.51303808198342, "lng": 95.78638509475506}, "feature": {"sight_features": "", "sight_content": ""}}, {"title": "火车站广场", "address": "瓜州大道附近", "image": "", "rank": 18, "time": 2, "location": {"lat": 40.57355928836204, "lng": 95.78013023840435}, "feature": {"sight_features": "", "sight_content": ""}}, {"title": "瓜州影剧院", "address": "南北大街141", "image": "", "rank": 19, "time": 2.5, "location": {"lat": 39.68254459605631, "lng": 118.2732630029606}, "feature": {"sight_features": "", "sight_content": ""}}, {"title": "塔儿寺", "address": "甘肃省酒泉市瓜州县锁阳城镇塔儿寺", "image": "", "rank": 20, "time": 2, "location": {"lat": 40.25694491008009, "lng": 96.22402196207241}, "feature": {"sight_features": "", "sight_content": ""}}, {"title": "瓜州小西湖", "address": "渊泉镇瓜州大道153号", "image": "", "rank": 21, "time": 1.5, "location": {"lat": 40.519326698166445, "lng": 95.7852740411487}, "feature": {"sight_features": "", "sight_content": ""}}, {"title": "大雄宝殿", "address": "甘肃省酒泉市瓜州县瓜州大道34号", "image": "", "rank": 22, "time": 2, "location": {"lat": 40.51303808198342, "lng": 95.78638509475506}, "feature": {"sight_features": "", "sight_content": ""}}, {"title": "高皇庙", "address": "酒泉市瓜州县", "image": "", "rank": 23, "time": 2, "location": {"lat": 40.526105978950454, "lng": 95.78873636451216}, "feature": {"sight_features": "", "sight_content": ""}}, {"title": "渔友水世界", "address": "南市街与张芝路交叉口东南50米", "image": "", "rank": 24, "time": 2, "location": {"lat": 40.51989532104288, "lng": 95.78014381629215}, "feature": {"sight_features": "", "sight_content": ""}}, {"title": "农家乐铁器店", "address": "瓜州中路瓜州市场广盛源购物广场西侧阿香蛋糕南5米", "image": "", "rank": 25, "time": 2, "location": {"lat": 40.52348864363079, "lng": 95.78660916269165}, "feature": {"sight_features": "", "sight_content": ""}}, {"title": "瓜州县欢乐海岸游乐园", "address": "东环路元通市场文化广场东侧", "image": "", "rank": 26, "time": 2, "location": {"lat": 39.72606069500795, "lng": 117.31832149459652}, "feature": {"sight_features": "", "sight_content": ""}}, {"title": "柳园西南山", "address": "酒泉市-瓜州县", "image": "", "rank": 27, "time": 2, "location": {"lat": 40.526105978950454, "lng": 95.78873636451216}, "feature": {"sight_features": "", "sight_content": ""}}, {"title": "甘肃安西极旱荒漠国家级自然保护...", "address": "甘肃省瓜州县瓜州县和肃北县境内", "image": "", "rank": 28, "time": 2, "location": {"lat": 40.526105978950454, "lng": 95.78873636451216}, "feature": {"sight_features": "", "sight_content": ""}}]}