{"cityName": "谷城", "days": 2, "cityImage": "", "spots": [{"title": "南河小三峡", "address": "襄阳市谷城县南河镇胡家渡西峡路附近", "image": "", "rank": 1, "time": 3.5, "location": {"lat": 32.17676845120318, "lng": 111.51677158451176}, "feature": {"sight_features": "", "sight_content": ""}}, {"title": "薤山国家森林公园", "address": "襄阳市谷城县中部大薤山风景区", "image": "", "rank": 2, "time": 2.5, "location": {"lat": 32.16944314174011, "lng": 111.41341817502787}, "feature": {"sight_features": "特色1 炎帝神农曾在这里尝百草、植五谷", "sight_content": "大薤山位于湖北省谷城县中部，属武当山脉，距汉十高速公路、谷城火车站分别为半个小时车程，谷（城）竹（溪）高速公路在山脚下留有“大薤山出口”。大薤山风景区处于古隆中、武当山、神农架的黄金旅游线上，是鄂西生态文化旅游圈的重要节点景区。\n大薤山现有总版图面积15万亩，森林覆盖率达93%，活立木蓄积量120万立方米，据林业专家测算，每立方米吸收1.86吨的二氧化碳，放出1.3吨的氧气，使这里的大气中含有有益于人体健康的负氧离子是城市含量的5—10倍。\n放眼望去，满目苍翠、针阔叶混交、高乔中灌底草，原生植被、人工培育相结合，古树名木、野生动植物和谐相处。目前，这里的各类植物达680余种，其中百年以上的古树名木800多棵，国家级保护动物20余种。正是这多层次、多种类的动植物构成了大薤山优美的自然生态环境：初春，桃红李白，草长莺飞；盛夏，绿荫蔽日，清风拂面；深秋，层林尽染，野果飘香；隆冬，银装素裹，玉树琼枝。这里，文化底蕴厚重。悠久的历史。5000多年前，炎帝神农从随州来到这里尝百草、植五谷，留下了神农故道、神农洞、五谷堂、百草园等遗迹。中西合璧的别墅。据《谷城县志》记载：1903年至1907年，英国、挪威、德国、美国、丹麦、葡萄牙、加拿大、荷兰等八国传教士，先后在薤山建中西合璧的别墅70多栋，占地40多万平方米。"}}, {"title": "承恩寺", "address": "襄阳市谷城县茨河镇五朵山北面的狮子峰下", "image": "", "rank": 3, "time": null, "location": {"lat": 32.049854254369045, "lng": 111.85160093002736}, "feature": {"sight_features": "", "sight_content": ""}}, {"title": "神农峡漂流", "address": "襄阳市谷城县石花镇薤山高庙村联运站（距离薤山风景区大门口1公里）", "image": "", "rank": 4, "time": 2, "location": {"lat": 32.19703848657024, "lng": 111.40656746275104}, "feature": {"sight_features": "", "sight_content": ""}}, {"title": "hk水上世界", "address": "谷城黄康桥头什锦园内", "image": "", "rank": 5, "time": 2, "location": {"lat": 32.268983068947186, "lng": 111.65957564172129}, "feature": {"sight_features": "", "sight_content": ""}}, {"title": "薤山", "address": "湖北省谷城县西南35公里 441700", "image": "", "rank": 6, "time": 2.5, "location": {"lat": 32.001444225746475, "lng": 111.65957564172129}, "feature": {"sight_features": "", "sight_content": ""}}, {"title": "黄山垭农家乐", "address": "五山镇黄山垭村希林桥头", "image": "", "rank": 7, "time": 2, "location": {"lat": 32.31808346132664, "lng": 111.31738096176998}, "feature": {"sight_features": "", "sight_content": ""}}, {"title": "明忠农家乐", "address": "北辰大道附近", "image": "", "rank": 8, "time": 2, "location": {"lat": 30.491167496350805, "lng": 106.65450487783652}, "feature": {"sight_features": "", "sight_content": ""}}, {"title": "胡家祠堂", "address": "湖北省襄阳市谷城县", "image": "", "rank": 9, "time": 2, "location": {"lat": 32.268983068947186, "lng": 111.65957564172129}, "feature": {"sight_features": "", "sight_content": ""}}, {"title": "咪哆哆儿童游乐园", "address": "粉水路72号群兴购物广场4层", "image": "", "rank": 10, "time": 2, "location": {"lat": 32.268911601693475, "lng": 111.64881549128877}, "feature": {"sight_features": "", "sight_content": ""}}, {"title": "鲟龙溪度假村", "address": "谷城县高桥河村", "image": "", "rank": 11, "time": 2, "location": {"lat": 32.093996747394286, "lng": 111.74738736696682}, "feature": {"sight_features": "", "sight_content": ""}}, {"title": "中华广场", "address": "湖北省襄阳市谷城县城关镇康乐路旺恒国际广场附近", "image": "", "rank": 12, "time": 1.0, "location": {"lat": 32.26199386926181, "lng": 111.63526160533036}, "feature": {"sight_features": "", "sight_content": ""}}, {"title": "滨江国际生态园", "address": "粉水路附近", "image": "", "rank": 13, "time": 2, "location": {"lat": 32.26691612715912, "lng": 111.65346891235596}, "feature": {"sight_features": "", "sight_content": ""}}, {"title": "薤山避暑山庄", "address": "湖北省谷城县石花镇 441705", "image": "", "rank": 14, "time": 2, "location": {"lat": 32.31701384121018, "lng": 111.48960599226251}, "feature": {"sight_features": "", "sight_content": ""}}, {"title": "儿童乐园", "address": "湖北省襄阳市谷城县武当东路21号", "image": "", "rank": 15, "time": 2, "location": {"lat": 32.28649979493361, "lng": 111.47812556430257}, "feature": {"sight_features": "", "sight_content": ""}}, {"title": "儿童乐园", "address": "湖北省襄阳市谷城县银城大道辅路", "image": "", "rank": 16, "time": 2, "location": {"lat": 32.285061090946, "lng": 111.64048911009306}, "feature": {"sight_features": "", "sight_content": ""}}, {"title": "谷城宾馆佳旅度假村", "address": "盛石路附近", "image": "", "rank": 17, "time": 1.5, "location": {"lat": 36.87446293462217, "lng": 118.44723360904213}, "feature": {"sight_features": "", "sight_content": ""}}, {"title": "世纪广场", "address": "湖北省襄阳市谷城县城关镇银城大道谷城汽车客运站西北", "image": "", "rank": 18, "time": 2.5, "location": {"lat": 32.26787737360041, "lng": 111.64362699993438}, "feature": {"sight_features": "", "sight_content": ""}}, {"title": "糖果屋儿童主题乐园", "address": "粉阳路齐胜大厦二楼(薇薇新娘楼上)", "image": "", "rank": 19, "time": 2, "location": {"lat": 32.269016114605364, "lng": 111.64228394336641}, "feature": {"sight_features": "", "sight_content": ""}}, {"title": "儿童乐园", "address": "湖北省襄阳市谷城县G316(大峪桥街)", "image": "", "rank": 20, "time": 2, "location": {"lat": 32.27767590483748, "lng": 111.52892048921186}, "feature": {"sight_features": "", "sight_content": ""}}, {"title": "童欢儿童主题亲子乐园", "address": "石花镇东门老街靠近中心路老百货大楼斜对面", "image": "", "rank": 21, "time": 2, "location": {"lat": 32.28278228480491, "lng": 111.47109877516273}, "feature": {"sight_features": "", "sight_content": ""}}, {"title": "谷城县博物馆", "address": "湖北省襄阳市谷城县城关镇县府街博物馆三神殿", "image": "", "rank": 22, "time": 2, "location": {"lat": 32.266690787560215, "lng": 111.66181768920634}, "feature": {"sight_features": "", "sight_content": ""}}, {"title": "杜权成书画收藏馆", "address": "金源村宾馆东侧", "image": "", "rank": 23, "time": 2, "location": {"lat": 32.311362458227215, "lng": 111.36582030775065}, "feature": {"sight_features": "", "sight_content": ""}}, {"title": "谷城图书馆", "address": "中华街2号", "image": "", "rank": 24, "time": 1.5, "location": {"lat": 38.431991291089005, "lng": 115.33468385136179}, "feature": {"sight_features": "", "sight_content": ""}}, {"title": "科学技术馆", "address": "粉阳路5号", "image": "", "rank": 25, "time": 2, "location": {"lat": 32.269003131871486, "lng": 111.63341100525095}, "feature": {"sight_features": "", "sight_content": ""}}, {"title": "建设档案馆", "address": "翰林路", "image": "", "rank": 26, "time": 2, "location": {"lat": 40.64780072030959, "lng": 110.01919558944948}, "feature": {"sight_features": "", "sight_content": ""}}, {"title": "谷城旺恒国际动漫水世界", "address": "康乐路76号(康乐路与谷丰街交叉口)", "image": "", "rank": 27, "time": 1.5, "location": {"lat": 32.26405898910343, "lng": 111.63746631544558}, "feature": {"sight_features": "", "sight_content": ""}}, {"title": "hk水上乐园", "address": "泰山路", "image": "", "rank": 28, "time": 2, "location": {"lat": 37.99435711386382, "lng": 114.47185951809486}, "feature": {"sight_features": "", "sight_content": ""}}, {"title": "得艺画廊", "address": "北辰大道1号附近", "image": "", "rank": 29, "time": 2, "location": {"lat": 30.48878536696284, "lng": 106.65618433095356}, "feature": {"sight_features": "", "sight_content": ""}}, {"title": "白渠农家乐", "address": "城内街203号", "image": "", "rank": 30, "time": null, "location": {"lat": 32.26893824080224, "lng": 111.6583940904611}, "feature": {"sight_features": "", "sight_content": ""}}, {"title": "南河", "address": "湖北省谷城县南河镇", "image": "", "rank": 31, "time": 3.5, "location": {"lat": 32.17676845120318, "lng": 111.51677158451176}, "feature": {"sight_features": "", "sight_content": ""}}]}