{"cityName": "贵定", "days": 2, "cityImage": "", "spots": [{"title": "金海雪山", "address": "贵州省黔南州贵定县盘江镇", "image": "", "rank": 1, "time": 1.5, "location": {"lat": 26.5563161170642, "lng": 107.14293711122652}, "feature": {"sight_features": "", "sight_content": ""}}, {"title": "阳宝山", "address": "黔南布依族苗族自治州贵定县", "image": "", "rank": 2, "time": 1.0, "location": {"lat": 26.590659655038948, "lng": 107.2405543594035}, "feature": {"sight_features": "", "sight_content": ""}}, {"title": "金海雪山·四季花谷", "address": "贵定县盘江镇落桑寨金海雪山四季花谷", "image": "", "rank": 3, "time": 2, "location": {"lat": 26.46006300291929, "lng": 107.1663668898013}, "feature": {"sight_features": "特色1 曲径通幽处，徜徉花的海洋", "sight_content": "景点介绍：\n【金海雪山·四季花谷】\n金海雪山•四季花谷是按照国家AAAA级旅游景区打造的国际旅游度假区。景区位于贵定县盘江镇洛桑寨，距贵阳市约50KM，距贵定县约10KM，有厦蓉高速、贵新高速、G210国道、贵广高铁及沪昆高铁直达。占地约1300亩，总投资5亿元人民币；景区集花卉、水上乐园、CS营地、迷你高尔夫、滑草场、7D影院、酒店、儿童乐园、婚庆广场、特色旅游商品开发、特色美食等多种旅游产品组成，主要由花卉观赏、旅游休闲、游乐体验等三部分构成。旨在打以吃、住、行、游、购、娱为一体的旅游休闲度假景区。\n金海雪山•四季花谷以花卉为主题，对当地原有的李树、桃树进行了保留，并保留山体原有的形态以及走势，以“曲径通幽处”的意境打造出一个更具层次的美丽花园，后期加以花卉种植展示（花卉总‍‍面积15万平方，共计花卉2000万株，其中精品花卉500万株，所有花卉80%为进口花卉；\n‍‍【水上乐园】\n夏天最爽的事，除了冰镇西瓜之外，泡在水里戏水纳凉才是正事。穿上你喜欢的泳衣，尽情享受热烈的太阳光和冰凉的浪。‍‍\n‍‍‍‍四季花谷童话小镇，寻宝哥伦布航海日志，打造一个七彩水世界。以“水”为载体，集演艺表演和水主题文化为一体的综合水上主题公园，欧美乐队辣舞主唱，阳光比基尼，快速便捷的美食区，还有黔南最大的激情冲浪池，暗流浮动惊险刺激。‍‍‍‍\n‍‍安全、动感，呈现“新颖”“温馨”“刺激”的亲子梦幻玩水，创造欢乐与和谐的娱乐气氛。阳光沙滩，水雾迷堡、泡泡漂流河、滑道急转弯多重体验。‍‍\n‍‍"}}, {"title": "贵定县基督教堂", "address": "贵定县人民政府附近", "image": "", "rank": 4, "time": 2, "location": {"lat": 26.590745035954306, "lng": 107.24102293352345}, "feature": {"sight_features": "", "sight_content": ""}}, {"title": "麦懂绿岛风景区", "address": "贵定县", "image": "", "rank": 5, "time": 2, "location": {"lat": 26.590659655038948, "lng": 107.2405543594035}, "feature": {"sight_features": "", "sight_content": ""}}, {"title": "东山水乡温泉旅游度假村", "address": "黔南州贵定县半边街", "image": "", "rank": 6, "time": 2, "location": {"lat": 26.579906166404218, "lng": 107.31078274150578}, "feature": {"sight_features": "", "sight_content": ""}}, {"title": "四季花谷水上乐园", "address": "盘江镇红旗村金海雪山四季花谷内", "image": "", "rank": 7, "time": 2, "location": {"lat": 26.503932521934495, "lng": 107.17316437837273}, "feature": {"sight_features": "", "sight_content": ""}}, {"title": "剑江风景名胜区", "address": "贵州省贵定县岩下乡铁索岩村", "image": "", "rank": 8, "time": null, "location": {"lat": 26.38857476877227, "lng": 107.30795048125074}, "feature": {"sight_features": "", "sight_content": ""}}, {"title": "蟒园山庄", "address": "都匀市", "image": "", "rank": 9, "time": 2, "location": {"lat": 26.266117957788534, "lng": 107.52540443143744}, "feature": {"sight_features": "", "sight_content": ""}}, {"title": "千瀑公园度假村", "address": "黔南布依族苗族自治州都匀市贵定县", "image": "", "rank": 10, "time": 2, "location": {"lat": 26.266117957788534, "lng": 107.52540443143744}, "feature": {"sight_features": "", "sight_content": ""}}, {"title": "贵定县翁树河休闲山庄", "address": "922县道西50米", "image": "", "rank": 11, "time": 2, "location": {"lat": 26.29925133535419, "lng": 107.23782351065407}, "feature": {"sight_features": "", "sight_content": ""}}, {"title": "贵定农场", "address": "迎宾南路西150米", "image": "", "rank": 12, "time": 3.5, "location": {"lat": 37.76934986174907, "lng": 113.57224232846208}, "feature": {"sight_features": "", "sight_content": ""}}, {"title": "贵定罗廷举农家乐", "address": "贵定县音寨村会议中心舞台附近", "image": "", "rank": 13, "time": 1.5, "location": {"lat": 26.475785829533418, "lng": 107.18050187341993}, "feature": {"sight_features": "", "sight_content": ""}}, {"title": "异度空间", "address": "新桥步行街金丰苑10栋", "image": "", "rank": 14, "time": 2, "location": {"lat": 30.772781633163152, "lng": 104.05606495562279}, "feature": {"sight_features": "", "sight_content": ""}}, {"title": "贵定高铁北站广场", "address": "黔南布依族苗族自治州贵定县桃花寨贵定高铁北站", "image": "", "rank": 15, "time": 1.5, "location": {"lat": 26.60119612079317, "lng": 107.2458682667816}, "feature": {"sight_features": "", "sight_content": ""}}, {"title": "图书馆", "address": "红旗路", "image": "", "rank": 16, "time": 1.0, "location": {"lat": 38.03888277062057, "lng": 114.71848832389274}, "feature": {"sight_features": "", "sight_content": ""}}, {"title": "贵定雪芽茶业基地", "address": "309省道北50米", "image": "", "rank": 17, "time": 1.5, "location": {"lat": 40.7093579011464, "lng": 116.52743651721413}, "feature": {"sight_features": "", "sight_content": ""}}, {"title": "卓豪·农业", "address": "中山东路76号附近", "image": "", "rank": 18, "time": 2, "location": {"lat": 38.04952925370021, "lng": 114.50590246366744}, "feature": {"sight_features": "", "sight_content": ""}}, {"title": "金海雪山草莓园", "address": "G60沪昆高速210国道出口金海雪山附近", "image": "", "rank": 19, "time": 2, "location": {"lat": 26.503932521934495, "lng": 107.17316437837273}, "feature": {"sight_features": "", "sight_content": ""}}, {"title": "贵州洛北河漂流", "address": "落北河乡", "image": "", "rank": 20, "time": 2, "location": {"lat": 26.613391278026697, "lng": 107.20092910894726}, "feature": {"sight_features": "", "sight_content": ""}}, {"title": "黔南贵定县商业步行", "address": "贵州省贵定县河滨西路", "image": "", "rank": 21, "time": 2.5, "location": {"lat": 26.589969556283346, "lng": 107.24306741757533}, "feature": {"sight_features": "", "sight_content": ""}}, {"title": "贵定县布依展览馆", "address": "贵州省贵定县金海雪山景区", "image": "", "rank": 22, "time": 2, "location": {"lat": 26.493174864662155, "lng": 107.16846184694485}, "feature": {"sight_features": "", "sight_content": ""}}, {"title": "小格野村", "address": "黔南布依族苗族自治州-贵定县", "image": "", "rank": 23, "time": 2, "location": {"lat": 26.590659655038948, "lng": 107.2405543594035}, "feature": {"sight_features": "", "sight_content": ""}}, {"title": "贵定音寨", "address": "贵州省贵定县盘江镇", "image": "", "rank": 24, "time": 1.5, "location": {"lat": 26.5563161170642, "lng": 107.14293711122652}, "feature": {"sight_features": "", "sight_content": ""}}]}