{"cityName": "贵德", "days": 2, "cityImage": "", "spots": [{"title": "贵德国家地质公园阿什贡七彩峰丛...", "address": "海南藏族自治州贵德县尕让乡阿什贡村", "image": "", "rank": 1, "time": 2.5, "location": {"lat": 36.137477843013436, "lng": 101.57823902663985}, "feature": {"sight_features": "特色1 参观颜色鲜艳、形状独特的丹霞地貌，拍摄摄影大片。 特色2 丹霞地貌悠久奇特，山峰突兀林立。", "sight_content": "景区由十三个文化主题广场和七条丹霞峡谷组成，尤其是女娲峡、千佛峡、通天峡等都是罕见的自然奇观。内景占地约3千亩，外景占地约5万亩，是旅游观光、餐饮娱乐、放养心情的理想之地。距西宁约70公里，交通便利、气候宜人、景色秀美。\n公园内阿什贡七彩峰丛地貌多姿多彩，秀丽壮美；麻吾峡风蚀地貌鬼斧神工，变幻无穷；黄河景观美轮美奂，如花似锦；龙羊峡谷陡峭险峻，气势磅礴。\n多种多样的地质遗迹反映了地质历史时期青藏高原的演化过程，也记录了黄河的发育史和贵德自然环境的变迁。可供观光旅游、休闲度假、科普教育以及科学研究。"}}, {"title": "拉鸡山", "address": "海南藏族自治州贵德县", "image": "", "rank": 2, "time": 1.0, "location": {"lat": 36.046158080751304, "lng": 101.43953310384482}, "feature": {"sight_features": "", "sight_content": ""}}, {"title": "中华福运轮", "address": "海南藏族自治州贵德县黄河南岸黄河吊桥与黄河文化广场之间", "image": "", "rank": 3, "time": 2, "location": {"lat": 36.068637063811565, "lng": 101.44801832881066}, "feature": {"sight_features": "特色1 集儒、道、神为一体，摒弃门户之见，相依并存", "sight_content": "天下黄河贵德清。万里黄河清澈的一段从青海省贵德县蜿蜒而过。\n贵德县属于进藏大门，藏传佛教这颗藏族文化中璀璨的明珠在这里熠熠发光。底蕴深厚的黄河文化映衬着藏传佛教文化迸进出耀眼 的光芒，为了淋漓尽致地展现藏传佛教文化，青海省贵德县旅游开发管理委员会在黄河边上精心打造了一处大型人文景观——中华福运轮。\n中华福运轮是世界上唯一一个采用黄河水作动力，也是到目前为止世界上最高、最大、转动方式最为独特的藏式转经轮，并因此成功入选世界吉尼斯纪录。历时两年工期修建完成，占地面积90亩，建 筑面积12000平方米。伫立在黄河边上的中华福运轮不但在展示黄河文化，打造青海文化旅游新景点方面具有重要的作用，而且在祈福祖国繁荣昌盛，各民族同胞和谐安康方面也具有十分重要的意义。同时让宗教文化在这里绽放出迷人光彩，给了当地藏族人民一个寄托信仰的平台，也为来往的游客述说黄河边上的藏传佛教文化。中华福运轮具有鲜明的藏族风格，黄河静静流淌，倒映着巨大的转经筒。\n我们可以在中华福运轮景区展厅内领略到博大精深的藏传佛教文化。巨大的转经筒承载了岁月的祝福，当虔诚的佛教信徒手持转经筒，经纶在阳光照耀下闪烁光芒的一刻，无疑绽放出了世上最神圣的佛光。一段黄河，一座古城，一个中华福运轮，让贵德成为了游者心 中的旅游天堂，朝拜者心中的圣地。"}}, {"title": "贵德文庙及玉皇阁", "address": "青海省贵德县河阴镇河阴北大街", "image": "", "rank": 4, "time": 4.5, "location": {"lat": 36.05326602676406, "lng": 101.43695281109798}, "feature": {"sight_features": "", "sight_content": ""}}, {"title": "贵德黄河游艇", "address": "海南藏族自治州贵德县水车广场", "image": "", "rank": 5, "time": 1.0, "location": {"lat": 36.046753568776154, "lng": 101.40865751253429}, "feature": {"sight_features": "", "sight_content": ""}}, {"title": "黄河清大桥", "address": "贵德县虎头崖", "image": "", "rank": 6, "time": 2, "location": {"lat": 36.046158080751304, "lng": 101.43953310384482}, "feature": {"sight_features": "", "sight_content": ""}}, {"title": "南海殿", "address": "贵德县河阴镇南海殿田园村", "image": "", "rank": 7, "time": 2, "location": {"lat": 36.04722526460193, "lng": 101.4390599456717}, "feature": {"sight_features": "", "sight_content": ""}}, {"title": "黄河奇石苑", "address": "海南藏族自治州贵德县尕让乡阿什贡村", "image": "", "rank": 8, "time": 2, "location": {"lat": 36.137477843013436, "lng": 101.57823902663985}, "feature": {"sight_features": "", "sight_content": ""}}, {"title": "清清黄河水车广场", "address": "青海省贵德县河西镇南滨河路水车广场", "image": "", "rank": 9, "time": 2, "location": {"lat": 36.046753568776154, "lng": 101.40865751253429}, "feature": {"sight_features": "", "sight_content": ""}}, {"title": "阿什贡码头旅游区", "address": "海南藏族自治州贵德县阿什贡黄河大桥下", "image": "", "rank": 10, "time": 2, "location": {"lat": 36.12779873620398, "lng": 101.59217584766088}, "feature": {"sight_features": "", "sight_content": ""}}, {"title": "水车广场", "address": "青海省海南藏族自治州贵德县南滨河路清清黄河景区", "image": "", "rank": 11, "time": 1.5, "location": {"lat": 36.047037407864195, "lng": 101.40878866424045}, "feature": {"sight_features": "", "sight_content": ""}}, {"title": "贵德温泉", "address": "海南藏族自治州贵德县河阴镇", "image": "", "rank": 12, "time": 0.7, "location": {"lat": 36.04722526460193, "lng": 101.4390599456717}, "feature": {"sight_features": "", "sight_content": ""}}, {"title": "龙羊峡水库", "address": "共和县龙羊峡镇", "image": "", "rank": 13, "time": 1.5, "location": {"lat": 36.20418218551046, "lng": 100.84909217410966}, "feature": {"sight_features": "", "sight_content": ""}}, {"title": "青海贵德黄河清国家湿地公园", "address": "青海省海南藏族自治州贵德县西久公路贵德黄河清国家湿地公园", "image": "", "rank": 14, "time": 2, "location": {"lat": 35.837271443214895, "lng": 101.33159505475004}, "feature": {"sight_features": "", "sight_content": ""}}, {"title": "西宁贵德温泉", "address": "青海省贵德县距县城10公里 811700", "image": "", "rank": 15, "time": 1.0, "location": {"lat": 36.046158080751304, "lng": 101.43953310384482}, "feature": {"sight_features": "", "sight_content": ""}}, {"title": "玉皇阁", "address": "青海省海南藏族自治州贵德县", "image": "", "rank": 16, "time": 1.0, "location": {"lat": 36.046158080751304, "lng": 101.43953310384482}, "feature": {"sight_features": "", "sight_content": ""}}, {"title": "贵德倚河园", "address": "海南藏族自治州贵德县尕让乡北山瞭望台", "image": "", "rank": 17, "time": 1.5, "location": {"lat": 36.23167018712519, "lng": 101.57067049100628}, "feature": {"sight_features": "", "sight_content": ""}}, {"title": "黄河少女薰衣草园", "address": "贵德县河西镇格尔加村", "image": "", "rank": 18, "time": 2, "location": {"lat": 36.04056583010525, "lng": 101.39275682588871}, "feature": {"sight_features": "", "sight_content": "黄河少女薰衣草园是在一片基本农田上建立起来的生态观光园，始建于2015年， 经过1000多个日日夜夜的守护，将世界上珍惜的香草之后引进到了清清黄河岸边。园区占地2200亩，今年开放的景区有400多亩。"}}, {"title": "玉泉山庄", "address": "迎宾西路351号", "image": "", "rank": 19, "time": 2, "location": {"lat": 36.040675017455996, "lng": 101.41687864735816}, "feature": {"sight_features": "", "sight_content": ""}}, {"title": "文昌宫", "address": "河西镇下排村西侧山坪台东坡", "image": "", "rank": 20, "time": 0.4, "location": {"lat": 36.03789142076308, "lng": 101.39232886146578}, "feature": {"sight_features": "", "sight_content": ""}}, {"title": "贵南牧场农场", "address": "320县道附近", "image": "", "rank": 21, "time": 3.5, "location": {"lat": 38.68910912130428, "lng": 114.13840990157136}, "feature": {"sight_features": "", "sight_content": ""}}, {"title": "青海贵德温泉浴疗山庄", "address": "青海省海南藏族自治州贵南县河西镇热水泉东", "image": "", "rank": 22, "time": 2, "location": {"lat": 36.03432669051168, "lng": 101.43558811165535}, "feature": {"sight_features": "", "sight_content": ""}}, {"title": "黄河漂流广场", "address": "黄河大桥东150米", "image": "", "rank": 23, "time": 2, "location": {"lat": 40.56933398984486, "lng": 110.2132282905363}, "feature": {"sight_features": "", "sight_content": ""}}, {"title": "黄河广场", "address": "贵德县黄河南岸", "image": "", "rank": 24, "time": 2, "location": {"lat": 36.068637063811565, "lng": 101.44801832881066}, "feature": {"sight_features": "", "sight_content": ""}}, {"title": "高原养生休闲度假区", "address": "青海省贵德县", "image": "", "rank": 25, "time": 2, "location": {"lat": 36.046158080751304, "lng": 101.43953310384482}, "feature": {"sight_features": "", "sight_content": ""}}, {"title": "贵德泉水湾度假村", "address": "海南藏族自治州贵德县城西红岩村（顺达加油站对面）", "image": "", "rank": 26, "time": 2, "location": {"lat": 36.02773997650056, "lng": 101.40581896683467}, "feature": {"sight_features": "", "sight_content": ""}}, {"title": "罗汉堂寺", "address": "青海省海南藏族自治州贵德县", "image": "", "rank": 27, "time": 2, "location": {"lat": 36.046158080751304, "lng": 101.43953310384482}, "feature": {"sight_features": "", "sight_content": ""}}, {"title": "河西镇清真寺", "address": "青海省海南藏族自治州贵德县河西镇迎宾西路河西阳光幼儿园南", "image": "", "rank": 28, "time": 2, "location": {"lat": 36.03888576009699, "lng": 101.39944226791782}, "feature": {"sight_features": "", "sight_content": ""}}, {"title": "尕让清真寺", "address": "101省道附近", "image": "", "rank": 29, "time": 2, "location": {"lat": 41.03241923348195, "lng": 111.82384508727836}, "feature": {"sight_features": "", "sight_content": ""}}, {"title": "芦花源生态旅游度假村", "address": "南滨河路与黄河南路交叉口南150米", "image": "", "rank": 30, "time": 2, "location": {"lat": 36.06011283830595, "lng": 101.43362858754134}, "feature": {"sight_features": "", "sight_content": ""}}, {"title": "贵德县图书馆", "address": "河阴镇北大街64号", "image": "", "rank": 31, "time": 2, "location": {"lat": 36.052280481999006, "lng": 101.43689082801778}, "feature": {"sight_features": "", "sight_content": ""}}, {"title": "鲁卡奇儿童乐园", "address": "迎宾东路3号(东和电玩城二楼)", "image": "", "rank": 32, "time": 2, "location": {"lat": 32.51532066573249, "lng": 120.16064857353066}, "feature": {"sight_features": "", "sight_content": ""}}, {"title": "温泉宾馆", "address": "迎宾西路355号", "image": "", "rank": 33, "time": 2, "location": {"lat": 36.04000893308946, "lng": 101.41449086148208}, "feature": {"sight_features": "", "sight_content": ""}}, {"title": "丁香农家院", "address": "迎宾路", "image": "", "rank": 34, "time": 2, "location": {"lat": 40.19033466276813, "lng": 117.30191343601585}, "feature": {"sight_features": "", "sight_content": ""}}, {"title": "贵德温泉旅游馆", "address": "河阴镇迎宾西路355号", "image": "", "rank": 35, "time": 2.5, "location": {"lat": 36.04000893308946, "lng": 101.41449086148208}, "feature": {"sight_features": "", "sight_content": ""}}, {"title": "海南州贵德明清古建筑群 Ming an...", "address": "青海省贵德县河阴镇", "image": "", "rank": 36, "time": 1.5, "location": {"lat": 36.04722526460193, "lng": 101.4390599456717}, "feature": {"sight_features": "", "sight_content": ""}}]}