{"cityName": "桂东", "days": 2, "cityImage": "", "spots": [{"title": "山俚俏农家乐", "address": "106国道桂东县消防队向北500米", "image": "", "rank": 1, "time": 2, "location": {"lat": 25.810127237189544, "lng": 113.80142791211907}, "feature": {"sight_features": "", "sight_content": ""}}, {"title": "聚龙居", "address": "湖南省桂东县贝溪乡贝溪村 423501", "image": "", "rank": 2, "time": 2, "location": {"lat": 25.878221314761145, "lng": 113.81273633882435}, "feature": {"sight_features": "", "sight_content": ""}}, {"title": "资兴八面山", "address": "湖南省资兴市青腰镇 423400", "image": "", "rank": 3, "time": 9.0, "location": {"lat": 25.99701084571214, "lng": 113.58360612289397}, "feature": {"sight_features": "", "sight_content": ""}}, {"title": "凤岭古松", "address": "湖南省桂东县凤岭 423500", "image": "", "rank": 4, "time": 2, "location": {"lat": 26.083173927327394, "lng": 113.9515936017977}, "feature": {"sight_features": "", "sight_content": ""}}, {"title": "二虹卧波", "address": "湖南省桂东县普乐乡 423501", "image": "", "rank": 5, "time": 2, "location": {"lat": 25.879778788087243, "lng": 113.89104202176448}, "feature": {"sight_features": "", "sight_content": ""}}, {"title": "四都凉桥", "address": "湖南省桂东县四都墟南 423506", "image": "", "rank": 6, "time": 2, "location": {"lat": 26.083173927327394, "lng": 113.9515936017977}, "feature": {"sight_features": "", "sight_content": ""}}, {"title": "八面山南草原", "address": "湖南省桂东县西部 423500", "image": "", "rank": 7, "time": 2, "location": {"lat": 26.083173927327394, "lng": 110.14726976829775}, "feature": {"sight_features": "", "sight_content": ""}}, {"title": "回师亭", "address": "湖南省桂东县新坊乡龙溪村 423037", "image": "", "rank": 8, "time": 2, "location": {"lat": 25.9173456852527, "lng": 113.94010509088858}, "feature": {"sight_features": "", "sight_content": ""}}, {"title": "龙溪瀑布", "address": "湖南省桂东县新坊乡龙溪村 423502", "image": "", "rank": 9, "time": 2, "location": {"lat": 25.9173456852527, "lng": 113.94010509088858}, "feature": {"sight_features": "", "sight_content": ""}}, {"title": "桂东植物园", "address": "郴州市桂东县", "image": "", "rank": 10, "time": 3.5, "location": {"lat": 26.083173927327394, "lng": 113.9515936017977}, "feature": {"sight_features": "", "sight_content": ""}}, {"title": "桂东万王城", "address": "湖南省桂东县黄洞乡青竹村 423500", "image": "", "rank": 11, "time": 2, "location": {"lat": 26.156706490512732, "lng": 113.94742956859064}, "feature": {"sight_features": "", "sight_content": ""}}, {"title": "桂东铁山风景区", "address": "湖南省桂东县增口乡金兰村 423500", "image": "", "rank": 12, "time": 1.0, "location": {"lat": 26.01013950626845, "lng": 113.99510677149986}, "feature": {"sight_features": "", "sight_content": ""}}, {"title": "沙田同益店", "address": "沙田镇沙田圩59号附近", "image": "", "rank": 13, "time": 2, "location": {"lat": 22.38519993775009, "lng": 110.05818624998808}, "feature": {"sight_features": "", "sight_content": ""}}, {"title": "大塘教堂", "address": "106国道南150米", "image": "", "rank": 14, "time": 2, "location": {"lat": 39.17154077219187, "lng": 116.39041588203045}, "feature": {"sight_features": "", "sight_content": ""}}, {"title": "邓力群故居", "address": "湖南省郴州市桂东县", "image": "", "rank": 15, "time": 2, "location": {"lat": 26.083173927327394, "lng": 113.9515936017977}, "feature": {"sight_features": "", "sight_content": ""}}, {"title": "第一军规广场", "address": "第二人民医院附近", "image": "", "rank": 16, "time": 2, "location": {"lat": 39.39304808658497, "lng": 117.07530691861119}, "feature": {"sight_features": "", "sight_content": ""}}, {"title": "天湖山庄", "address": "湖南省郴州市桂东县X002", "image": "", "rank": 17, "time": 2, "location": {"lat": 26.083173927327394, "lng": 113.9515936017977}, "feature": {"sight_features": "", "sight_content": ""}}, {"title": "宝塔公园", "address": "湖南省郴州市桂东县沤江镇桂东大道三台山森林公园", "image": "", "rank": 18, "time": 0.75, "location": {"lat": 26.081483240326225, "lng": 113.95713520536825}, "feature": {"sight_features": "", "sight_content": ""}}, {"title": "毛泽东旧居陈列馆", "address": "红军路3号", "image": "", "rank": 19, "time": 2, "location": {"lat": 26.333188024580625, "lng": 115.36233881896871}, "feature": {"sight_features": "", "sight_content": ""}}, {"title": "工农红军在桂东革命活动纪念馆", "address": "关镇红军路11号", "image": "", "rank": 20, "time": 2, "location": {"lat": 26.0832284305583, "lng": 113.95022481147222}, "feature": {"sight_features": "", "sight_content": ""}}, {"title": "桂东县万王城休闲山庄ktv", "address": "沤江镇湾里", "image": "", "rank": 21, "time": 2, "location": {"lat": 28.720195384308376, "lng": 115.73759563309079}, "feature": {"sight_features": "", "sight_content": ""}}, {"title": "仙女桥", "address": "湖南省桂东县普乐乡下樟树村", "image": "", "rank": 22, "time": 2, "location": {"lat": 25.879778788087243, "lng": 113.89104202176448}, "feature": {"sight_features": "", "sight_content": ""}}, {"title": "刘公山", "address": "郴州市-桂东县", "image": "", "rank": 23, "time": 2, "location": {"lat": 26.083173927327394, "lng": 113.9515936017977}, "feature": {"sight_features": "", "sight_content": ""}}, {"title": "鸡婆垇", "address": "郴州市-桂东县", "image": "", "rank": 24, "time": 2, "location": {"lat": 26.083173927327394, "lng": 113.9515936017977}, "feature": {"sight_features": "", "sight_content": ""}}, {"title": "脚盆寮", "address": "湖南省资兴市桂东县西部 423400", "image": "", "rank": 25, "time": 2, "location": {"lat": 26.083173927327394, "lng": 110.14816807380743}, "feature": {"sight_features": "", "sight_content": ""}}]}