{"cityName": "贵港", "days": "", "cityImage": "", "spots": [{"title": "龙潭国家森林公园", "address": "贵港市桂平市中山路114号", "image": "", "rank": 1, "time": 3.0, "location": {"lat": 23.382521012746306, "lng": 110.07892849154449}, "feature": {"sight_features": "特色1 穿梭在峡谷幽林之间，看奇潭飞瀑，还可登高欣赏翠峰连绵之景。", "sight_content": "公园地处广西桂平市西北部，总面积7103.1公顷，距桂平市区18km，是由原国家林业部1993年5月批准建立的国家级森林公园。公园于2005年9日30日开张营业，2007年被评为国家3A级旅游景区，2009年8月成为桂平市国家地质公园的重要组成部份，2012年被评为国家4A级旅游景区。公园是桂东南少有保存着完整的南亚热带季风常绿阔叶林区，秀丽的森林，蕴藏着珍稀罕见的动植物，被誉为“孑遗植物宝库”；无际的翠林犹如连绵的绿龙与形象逼真的奇峰怪石、峡谷，星罗密布的溪流、瀑布飞瀑、五颜六色的幽潭，共同构成了多姿多彩的原生态自然景观。是电视连续剧《太平天国》主要公园拍摄基地之一。中央电视台、广西电视台、广东电视珠江频道等都先后在龙潭国家森林公园录制节目播放。公园是桂平生态文明的窗口和纽带，具有很高的旅游价值和科研价值，发展前景广阔。\n\n公园地貌奇特，有发育良好的丹霞地貌。园内峰峦叠嶂，怪石林立，峡谷、奇峰随处可见，形成雄奇、险峻的峰谷石崖景观。公园内溪瀑飞舞，特别是处于三面垂直朱红色岩壁环抱，深达280米的峡谷之中、如银龙飞舞的龙潭瀑布，极为壮观，令人惊叹大自然的鬼斧神工。“龙潭峡谷几千秋，悬崖险径如栈道，瀑布飘落似玉带，峭壁阶梯入云头”。就是对龙潭公园峡谷景区的最真实写照之一。\n\n丰富的动植物资源也是公园一大亮点。龙潭公园保持着良好的生态林区，其中：天然阔叶林面积占比例达70.3%，共有植物166科533属1039种，有被誉为“植物大熊猫”、“茶族皇后” 的国家一级重点保护植物金花茶，有被誉为“远古家族”、“活化石”的桫椤，有二级保护植物紫荆木、五针松、过江龙等二十多种。公园内有动物56科112种，有国家一级重点保护瑶山鳄蜥，二级保护动物猕猴、穿山甲、娃娃鱼等十多种。\n龙潭森林国家公园漂流入夏开漂，在幽深的溪谷中漂流，体验激情和原始的碰撞！\n龙潭汽车旅游营地\n龙潭公园汽车旅游营地是按国家4星级标准建设的汽车房车露营营地，是目前桂东南规模最大、功能最全及景色最美的汽车旅游营地。已于2016年12月开始对外营业。龙潭汽车旅游营地位于桂平龙潭国家森林公园内，距桂平市区28公里，占地面积45亩，交通便利，营地四面环山，前有溪流，风景优美，上可享蓝天白云，下可享青山绿水，生态原始，景观自然。营地分为帐篷露营、房车露营、自驾车露营、学生营房四大板块。营地里设有九大功能配套区，包括篮球场、排球场、篝火烧烤、天然浴池、森林漂流、儿童乐园、综合服务区、住宿餐饮、野菜采摘等。龙潭汽车旅游营地是旅游、休闲度假、露营、烧烤及娱乐活动的最佳场所。"}}, {"title": "西山风景名胜区", "address": "贵港市桂平市西山路3号", "image": "", "rank": 2, "time": 2.5, "location": {"lat": 23.40341357280471, "lng": 110.06297161237039}, "feature": {"sight_features": "特色1 穿行于山林间，欣赏奇峰怪石。", "sight_content": "桂平西山风景名胜区位于广西桂平市城西1公里处，是集休闲、观光、佛学于一体的多功能、综合型的国家AAAA级风景名胜区。主景区面积13.47平方公里。山体多为岩浆岩，即花岗岩之火成岩地质结构，形成于一亿八千万年前的中生代侏罗纪前期。\n走进桂平西山仿佛进入了诗情画意之中。古往今来，名人墨客赞美她，风流人物向往她，英雄豪杰追寻她。今天这片美丽的土地正张开她的双臂，热烈地欢迎着你们的到来！\n西山景区素有\"林秀、石奇、泉甘、茶香、佛圣\"五绝之称，景观独特，景区内植被覆盖率98%，百年至千年的古树1500多株，有珍贵的金茶花、石榕、龙鳞松、银藤、香樟等400余种植物。山体岩石粗莽唐突，嶙峋凌峥，堆石成峰，架石成门，垒石成洞，劈石成峡，千姿百态，妙趣横生。\n此外还有神仙峡、濂溪、通天道、武陵桥、乳泉、龙华古寺、洗石庵、茶园等自然景观和人文景观。景区还有着悠久的佛教文化，是全国七大佛教圣地之一。为方便游客登山赏景、进香拜佛建成了总长633.9米的客运索道。另外，每年都举办浴佛节、荔枝节等独具特色的节庆活动。"}}, {"title": "南山寺", "address": "贵港县城东南约3公里的南山公园内", "image": "", "rank": 3, "time": 1.0, "location": {"lat": 23.058425565952007, "lng": 109.62862088059956}, "feature": {"sight_features": "", "sight_content": ""}}, {"title": "白石山", "address": "贵港市桂平市", "image": "", "rank": 4, "time": 7.5, "location": {"lat": 23.40004888369942, "lng": 110.08552599671751}, "feature": {"sight_features": "", "sight_content": ""}}, {"title": "青牛谷漂流", "address": "贵港市港北区中里乡三陵村", "image": "", "rank": 5, "time": 2, "location": {"lat": 23.171614919138715, "lng": 109.5631368891653}, "feature": {"sight_features": "", "sight_content": ""}}, {"title": "大藤峡风景区", "address": "贵港市桂平城区西北约8公里的黔江下游", "image": "", "rank": 6, "time": 1.0, "location": {"lat": 23.40004888369942, "lng": 110.08552599671751}, "feature": {"sight_features": "", "sight_content": ""}}, {"title": "东塔", "address": "贵港市桂平市", "image": "", "rank": 7, "time": 1.0, "location": {"lat": 23.40004888369942, "lng": 110.08552599671751}, "feature": {"sight_features": "", "sight_content": ""}}, {"title": "北回归线标志公园", "address": "贵港市桂平市城东区约5公里石咀镇小汶村南梧二级公路旁", "image": "", "rank": 8, "time": 1.0, "location": {"lat": 23.4329211870852, "lng": 110.14529800117857}, "feature": {"sight_features": "", "sight_content": ""}}, {"title": "太平天国金田起义旧址", "address": "贵港市桂平市金田镇金田村", "image": "", "rank": 9, "time": 1.0, "location": {"lat": 23.593263694133178, "lng": 110.08930641125157}, "feature": {"sight_features": "", "sight_content": ""}}, {"title": "马草江生态公园", "address": "贵港市港北区西站对面、仙衣路西侧", "image": "", "rank": 10, "time": 1.5, "location": {"lat": 23.081266212452856, "lng": 109.58661477379674}, "feature": {"sight_features": "", "sight_content": ""}}, {"title": "九凌湖", "address": "贵港市覃塘区石卡镇翰平村", "image": "", "rank": 11, "time": 1.0, "location": {"lat": 22.98181094671874, "lng": 109.4921943640642}, "feature": {"sight_features": "", "sight_content": ""}}, {"title": "龙泉水上世界", "address": "贵港市覃塘区金港大道西延长线覃塘林场龙泉山庄内", "image": "", "rank": 12, "time": 1.5, "location": {"lat": 23.110864543724436, "lng": 109.59792019297518}, "feature": {"sight_features": "", "sight_content": ""}}, {"title": "覃塘荷花观赏区", "address": "广西贵港市覃塘区", "image": "", "rank": 13, "time": 2, "location": {"lat": 23.13325108921251, "lng": 109.45942672936037}, "feature": {"sight_features": "", "sight_content": ""}}, {"title": "天王谷漂流", "address": "贵港市桂平市紫荆镇田心村", "image": "", "rank": 14, "time": 2, "location": {"lat": 23.678940908260042, "lng": 109.99986378722967}, "feature": {"sight_features": "特色1 瀑潭层迭，激流跌宕", "sight_content": "天王谷漂流旅游景区，位于震惊中外的太平天国革命策源地—广西桂平市紫荆镇。交通便利，公路全程硬化。距桂平市40公里、贵港市100公里、南宁市290公里、柳州市132公里，梧州市165公里、玉林市120公里。\n天王谷隐于莽莽紫荆山中,群峰奇雄，峡深壁陡，林荫蔽日，瀑潭层迭，激流跌宕。漂流河道4.3公里，落差106米，您可以充分享受在漂流时充满惊险刺激、豪情奔放的快乐，以及在亚热带深林峡谷溯溪的浓烈野趣。\n天王谷景区兼备峡谷漂流和原生态观光两大特色，具有激情漂流、峡谷溯溪、太平天国革命活动遗址、野营探险、休闲观光、文体活动基地六大旅游价值。景区还配有住宿、餐饮、游泳池、儿童水上乐园、山湖垂钓等山野娱乐设施，以及羽毛球、兵乓球、气排球、会议室等场地，是自驾游、家庭游、组团和培训的旅游胜地。"}}, {"title": "北帝庙", "address": "广西贵港市覃塘区樟木镇", "image": "", "rank": 15, "time": 2, "location": {"lat": 23.308827151446515, "lng": 109.29010323919559}, "feature": {"sight_features": "", "sight_content": ""}}, {"title": "黄花岗五烈士纪念碑", "address": "平南城郊罗冲桥畔", "image": "", "rank": 16, "time": 2, "location": {"lat": 23.540482858394387, "lng": 110.40719985735706}, "feature": {"sight_features": "", "sight_content": ""}}, {"title": "民族文化公园", "address": "中山路北段", "image": "", "rank": 17, "time": 2, "location": {"lat": 34.80346912515023, "lng": 114.35795282536112}, "feature": {"sight_features": "", "sight_content": ""}}, {"title": "北帝山峡谷漂流", "address": "贵港市平南县大鹏镇景华村", "image": "", "rank": 18, "time": 2, "location": {"lat": 23.814837966739397, "lng": 110.19027805976107}, "feature": {"sight_features": "", "sight_content": ""}}, {"title": "平天山国家森林公园", "address": "贵港市覃塘区区内", "image": "", "rank": 19, "time": 7.5, "location": {"lat": 23.13325108921251, "lng": 109.45942672936037}, "feature": {"sight_features": "", "sight_content": ""}}, {"title": "塘根村文化体育乐园", "address": "304省道", "image": "", "rank": 20, "time": 2, "location": {"lat": 38.007414201086036, "lng": 114.44892402313616}, "feature": {"sight_features": "", "sight_content": ""}}, {"title": "贵港市博物馆", "address": "古榕路46号", "image": "", "rank": 21, "time": 2.5, "location": {"lat": 22.52697743106782, "lng": 113.04214281565785}, "feature": {"sight_features": "", "sight_content": ""}}, {"title": "贵港市图书馆(和平路店)", "address": "文华街", "image": "", "rank": 22, "time": 1.0, "location": {"lat": 39.796978178816325, "lng": 116.47873101229393}, "feature": {"sight_features": "", "sight_content": ""}}, {"title": "红树林", "address": "仙衣路东50米", "image": "", "rank": 23, "time": 2.5, "location": {"lat": 23.081266212452856, "lng": 109.58706392655158}, "feature": {"sight_features": "", "sight_content": ""}}, {"title": "平天山林场", "address": "覃塘镇六务村", "image": "", "rank": 24, "time": null, "location": {"lat": 23.128821261447516, "lng": 109.46570487787258}, "feature": {"sight_features": "", "sight_content": ""}}, {"title": "古龙山峡谷群漂流", "address": "广西百色靖西古龙山峡谷群风景区", "image": "", "rank": 25, "time": 2, "location": {"lat": 23.149605901750473, "lng": 106.32109506453793}, "feature": {"sight_features": "", "sight_content": ""}}, {"title": "儿童游乐场", "address": "广西壮族自治区贵港市港北区建设路中央广场B1层", "image": "", "rank": 26, "time": 2, "location": {"lat": 23.09502902176697, "lng": 109.61812056773417}, "feature": {"sight_features": "", "sight_content": ""}}, {"title": "魅力东湖海盗船", "address": "贵港市港北区", "image": "", "rank": 27, "time": 2, "location": {"lat": 23.117563632763698, "lng": 109.57843298565523}, "feature": {"sight_features": "", "sight_content": ""}}, {"title": "维多利亚中心音乐广场", "address": "文华街北150米", "image": "", "rank": 28, "time": 2.0, "location": {"lat": 39.798017611117395, "lng": 116.47873101229393}, "feature": {"sight_features": "", "sight_content": ""}}, {"title": "平南县丹竹镇农科蜜丝枣农场", "address": "梅令村松山顶屯(省道旁)", "image": "", "rank": 29, "time": 2, "location": {"lat": 23.489419801009475, "lng": 110.55099171461382}, "feature": {"sight_features": "", "sight_content": ""}}, {"title": "贝乐蒂儿童亲子成长乐园", "address": "逸夫实验小学校门对面(福桂三千城A区2楼)", "image": "", "rank": 30, "time": 2, "location": {"lat": 23.387537857574603, "lng": 110.07570962581974}, "feature": {"sight_features": "", "sight_content": ""}}, {"title": "桂平海湾欢乐水世界", "address": "西山镇岭头村海湾欢乐水世界(大厨汇美食旁)", "image": "", "rank": 31, "time": 3.5, "location": {"lat": 23.37308720550265, "lng": 110.06864280908701}, "feature": {"sight_features": "", "sight_content": ""}}, {"title": "鹏山胜景", "address": "广西壮族自治区平南县大鹏镇 537300", "image": "", "rank": 32, "time": 2, "location": {"lat": 23.780906505791123, "lng": 110.15321227034607}, "feature": {"sight_features": "", "sight_content": ""}}, {"title": "思旺影剧院", "address": "思旺镇附近", "image": "", "rank": 33, "time": 2, "location": {"lat": 23.727868232413076, "lng": 110.3016998283156}, "feature": {"sight_features": "", "sight_content": ""}}, {"title": "鲜榨果蔬汁", "address": "富强路与桂花路交叉口西南200米", "image": "", "rank": 34, "time": 2, "location": {"lat": 23.384299418002296, "lng": 110.519746972749}, "feature": {"sight_features": "", "sight_content": ""}}, {"title": "海歌休闲吧", "address": "桂南路商都尽头对面(七星公寓一期左侧铺面)", "image": "", "rank": 35, "time": 2, "location": {"lat": 41.56756663722376, "lng": 113.58463922926263}, "feature": {"sight_features": "", "sight_content": ""}}, {"title": "和雅轩茶楼", "address": "江北中路65号(金都名筑斜对面(金都名筑小区斜对面)", "image": "", "rank": 36, "time": 2, "location": {"lat": 23.103780576929488, "lng": 109.61603485954416}, "feature": {"sight_features": "", "sight_content": ""}}, {"title": "贵港太平天国古迹", "address": "广西壮族自治区平南县县城境内 537304", "image": "", "rank": 37, "time": 2.0, "location": {"lat": 23.545506098828316, "lng": 110.39845197864268}, "feature": {"sight_features": "", "sight_content": ""}}, {"title": "富川碑林", "address": "广西壮族自治区富川瑶族自治县麦岭乡春塘村 542700", "image": "", "rank": 38, "time": 1.5, "location": {"lat": 24.820159951323383, "lng": 111.28451124863261}, "feature": {"sight_features": "", "sight_content": ""}}, {"title": "白马双英", "address": "广西壮族自治区平南县丹竹镇白马圩村 537313", "image": "", "rank": 39, "time": null, "location": {"lat": 23.51810424477671, "lng": 110.54130945084727}, "feature": {"sight_features": "", "sight_content": ""}}, {"title": "丽云彩条布", "address": "广西壮族自治区贵港市港北区解放路158号", "image": "", "rank": 40, "time": 2, "location": {"lat": 23.0981050847717, "lng": 109.61461376448209}, "feature": {"sight_features": "", "sight_content": ""}}, {"title": "思界圆通", "address": "广西壮族自治区贵港市平南县思界乡政府西北100米", "image": "", "rank": 41, "time": 2, "location": {"lat": 23.58189938605812, "lng": 110.30537002795006}, "feature": {"sight_features": "", "sight_content": ""}}, {"title": "清宫宁", "address": "港宝街195-1号附近", "image": "", "rank": 42, "time": 2, "location": {"lat": 23.10895783312766, "lng": 109.60701295902219}, "feature": {"sight_features": "", "sight_content": ""}}, {"title": "美发园", "address": "丹竹镇镇北街", "image": "", "rank": 43, "time": 2, "location": {"lat": 23.476528576015166, "lng": 110.53031406474769}, "feature": {"sight_features": "", "sight_content": ""}}, {"title": "九凌湖锦秀乡村", "address": "石卡镇九凌湖水库南岸(万塘村林场东北300米)", "image": "", "rank": 44, "time": 2, "location": {"lat": 29.50268309883491, "lng": 106.66842977859555}, "feature": {"sight_features": "", "sight_content": ""}}, {"title": "乐翔游乐园", "address": "贵港市港北区江北中路兴隆大厦1层", "image": "", "rank": 45, "time": 2, "location": {"lat": 23.101526954722008, "lng": 109.6116736096506}, "feature": {"sight_features": "", "sight_content": ""}}, {"title": "梓潼寺", "address": "贵港市港北区梓潼寺小区66号", "image": "", "rank": 46, "time": 2, "location": {"lat": 23.090242238601267, "lng": 109.6083289496447}, "feature": {"sight_features": "", "sight_content": ""}}, {"title": "绿源电动三轮车", "address": "贵城街道小新星英语培训学校", "image": "", "rank": 47, "time": 2, "location": {"lat": 23.10032343833582, "lng": 109.60509029148557}, "feature": {"sight_features": "", "sight_content": ""}}, {"title": "儿童乐园", "address": "广西壮族自治区贵港市港北区马草江生态公园马草江", "image": "", "rank": 48, "time": 2, "location": {"lat": 23.10762324881732, "lng": 109.5860359380653}, "feature": {"sight_features": "", "sight_content": ""}}, {"title": "宝福寺", "address": "广西壮族自治区贵港市平南县寺面镇", "image": "", "rank": 49, "time": 2, "location": {"lat": 23.16583138490453, "lng": 110.4987801215088}, "feature": {"sight_features": "", "sight_content": ""}}, {"title": "瓦塘镇香江村亚计山森林公园", "address": "广西壮族自治区贵港市港南区", "image": "", "rank": 50, "time": null, "location": {"lat": 23.081239578360368, "lng": 109.60655345149974}, "feature": {"sight_features": "", "sight_content": ""}}, {"title": "贵港教堂", "address": "广西壮族自治区贵港市港北区人民东路125号", "image": "", "rank": 51, "time": 2, "location": {"lat": 23.093632460621997, "lng": 109.61659453082585}, "feature": {"sight_features": "", "sight_content": ""}}, {"title": "智乐儿童乐园", "address": "广西壮族自治区贵港市港北区和平路116号永盛百汇超市(东湖店)1层", "image": "", "rank": 52, "time": 2, "location": {"lat": 23.097800368242815, "lng": 109.62026356984958}, "feature": {"sight_features": "", "sight_content": ""}}, {"title": "炫炫儿童乐园", "address": "广西壮族自治区贵港市港南区X339", "image": "", "rank": 53, "time": 2, "location": {"lat": 23.081239578360368, "lng": 109.60655345149974}, "feature": {"sight_features": "", "sight_content": ""}}, {"title": "儿童乐园", "address": "广西壮族自治区贵港市港北区东湖西街22-1-6", "image": "", "rank": 54, "time": 2, "location": {"lat": 23.09811120932733, "lng": 109.62223505130761}, "feature": {"sight_features": "", "sight_content": ""}}, {"title": "乌江广场", "address": "贵港市平南县江滨路19号", "image": "", "rank": 55, "time": 2, "location": {"lat": 23.552630017592012, "lng": 110.38899000506369}, "feature": {"sight_features": "", "sight_content": ""}}, {"title": "炫迪儿童乐园", "address": "广西壮族自治区贵港市平南县平南镇环城路百姓超市南50米", "image": "", "rank": 56, "time": 2, "location": {"lat": 23.551932108158606, "lng": 110.40149786313435}, "feature": {"sight_features": "", "sight_content": ""}}, {"title": "张廷纶尚书纪念馆", "address": "广西壮族自治区贵港市平南县朝阳路425号", "image": "", "rank": 57, "time": 2, "location": {"lat": 23.539326265601087, "lng": 110.41025005371519}, "feature": {"sight_features": "", "sight_content": ""}}, {"title": "王氏宗祠", "address": "广西壮族自治区贵港市平南县S211", "image": "", "rank": 58, "time": 2, "location": {"lat": 23.545506098828316, "lng": 110.39845197864268}, "feature": {"sight_features": "", "sight_content": ""}}, {"title": "平南县平南镇清平水族馆", "address": "广西壮族自治区贵港市平南县兴平路258号", "image": "", "rank": 59, "time": 2, "location": {"lat": 23.545070530964438, "lng": 110.40461754342365}, "feature": {"sight_features": "", "sight_content": ""}}, {"title": "梦幻儿童游乐园", "address": "广西壮族自治区贵港市平南县平南镇喜洋洋幼儿园", "image": "", "rank": 60, "time": 2, "location": {"lat": 23.519055729926865, "lng": 110.44956475366858}, "feature": {"sight_features": "", "sight_content": ""}}]}