{"cityName": "贵南", "days": 2, "cityImage": "", "spots": [{"title": "贵南影剧院", "address": "前卫巷1号", "image": "", "rank": 1, "time": 3.5, "location": {"lat": 27.041623623301206, "lng": 118.32983893524374}, "feature": {"sight_features": "", "sight_content": ""}}, {"title": "南源山庄", "address": "南台路73号附近", "image": "", "rank": 2, "time": 2, "location": {"lat": 30.999141705246576, "lng": 105.89159063674555}, "feature": {"sight_features": "", "sight_content": ""}}, {"title": "羊曲遗址", "address": "青海省海南藏族自治州兴海县", "image": "", "rank": 3, "time": 2, "location": {"lat": 35.594629879948684, "lng": 99.994380072293}, "feature": {"sight_features": "", "sight_content": ""}}, {"title": "关塘墓群", "address": "沙沟乡关塘墓群", "image": "", "rank": 4, "time": 2, "location": {"lat": 36.014124279174496, "lng": 100.84120019010263}, "feature": {"sight_features": "", "sight_content": ""}}, {"title": "贵南县图书馆", "address": "民主路4号", "image": "", "rank": 5, "time": 2, "location": {"lat": 40.661012564076636, "lng": 109.90670895603202}, "feature": {"sight_features": "", "sight_content": ""}}]}