{"cityName": "桂阳", "days": 2, "cityImage": "", "spots": [{"title": "阳山古村", "address": "郴州市桂阳县正和乡阳山古村", "image": "", "rank": 1, "time": 2, "location": {"lat": 25.699300292867335, "lng": 112.8327825657744}, "feature": {"sight_features": "", "sight_content": ""}}, {"title": "扶苍山", "address": "郴州市桂阳县玉石村(光明乡政府)", "image": "", "rank": 2, "time": 4.5, "location": {"lat": 26.13101122301366, "lng": 112.44834329968151}, "feature": {"sight_features": "", "sight_content": ""}}, {"title": "桂阳樱花园", "address": "郴州市桂阳县农科所大门", "image": "", "rank": 3, "time": 4.5, "location": {"lat": 25.709615795887398, "lng": 112.71756262138926}, "feature": {"sight_features": "", "sight_content": ""}}, {"title": "共和水上乐园", "address": "郴州市桂阳县黄沙坪街道桂嘉路共和水库西侧", "image": "", "rank": 4, "time": 2, "location": {"lat": 25.68668148353942, "lng": 112.6840746462769}, "feature": {"sight_features": "特色1 全园区无死角WIFI上网 特色2 园区包括服务接待区、动感嬉水区、海滩冲浪区、疾驰竞技区和激情摇摆区六大功能分区，可以满足各种人群对园区的需求 特色3 每天上演各种精彩纷呈的主题文艺演出，到这里来不仅仅就是玩水", "sight_content": "共和水上乐园位于：湖南省郴州市桂阳县黄沙坪街道桂嘉路共和水上乐园，占地约10万平米，设计日接待游客量1万多人次，3大特色游玩区域。\n共和水上乐园引进国际先进的智能化管理系统，确保水质安全，符合国家标准；\n邀请名气和实力并具的欧美歌舞团、小丑杂技、摇滚乐队演出\n各种火辣的桑巴劲舞，昼夜不停，玩转超值夜场，摇滚激情日不落！\n共和水上乐园秉承优质服务的理念，将为游客奉献最新鲜热辣的娱乐产品\n\n带来融古典与现代娱乐元素于一体的狂欢体验，为广大游客打造最难忘的夏季水上狂欢盛宴！"}}, {"title": "桂阳桃花溪风景区", "address": "郴州市桂阳县方元镇下廊村桃花溪风景区", "image": "", "rank": 5, "time": 1.5, "location": {"lat": 25.636833875556555, "lng": 112.67951786491795}, "feature": {"sight_features": "", "sight_content": ""}}, {"title": "锦湘百货三楼儿童游乐场", "address": "体育馆拓普电器旁锦湘百货3楼", "image": "", "rank": 6, "time": 2, "location": {"lat": 25.742670023993313, "lng": 112.74253854005136}, "feature": {"sight_features": "", "sight_content": ""}}, {"title": "神农蜂庄园", "address": "090县道西150米落家山", "image": "", "rank": 7, "time": 2, "location": {"lat": 27.93199883970972, "lng": 112.14672472398658}, "feature": {"sight_features": "", "sight_content": ""}}, {"title": "望湖马术俱乐部", "address": "骏马大道望湖生态庄园(桂阳县职业中专新校区对面)", "image": "", "rank": 8, "time": 2, "location": {"lat": 25.756752901063727, "lng": 112.76026753352265}, "feature": {"sight_features": "", "sight_content": ""}}, {"title": "图书馆电子阅览室", "address": "体育路3-10号", "image": "", "rank": 9, "time": 2, "location": {"lat": 31.359495573097075, "lng": 119.34236091412579}, "feature": {"sight_features": "", "sight_content": ""}}, {"title": "山塘农场", "address": "069县道附近", "image": "", "rank": 10, "time": 2, "location": {"lat": 37.02854860036221, "lng": 120.8911308811676}, "feature": {"sight_features": "", "sight_content": ""}}, {"title": "大冲农场", "address": "069县道附近", "image": "", "rank": 11, "time": 2, "location": {"lat": 37.02854860036221, "lng": 120.8911308811676}, "feature": {"sight_features": "", "sight_content": ""}}, {"title": "桂阳县图书馆", "address": "龙潭街道体育路5号", "image": "", "rank": 12, "time": 2, "location": {"lat": 25.743666121207685, "lng": 112.74367533040267}, "feature": {"sight_features": "", "sight_content": ""}}, {"title": "艺轩创意美术馆", "address": "解放路4-1号附近", "image": "", "rank": 13, "time": 2, "location": {"lat": 42.54525282629827, "lng": 124.04185786754708}, "feature": {"sight_features": "", "sight_content": ""}}, {"title": "桂阳蒙泉", "address": "湖南省桂阳县芙蓉峰 424400", "image": "", "rank": 14, "time": 2, "location": {"lat": 25.734671814706637, "lng": 112.73168561712087}, "feature": {"sight_features": "", "sight_content": ""}}, {"title": "芙蓉山", "address": "湖南省桂阳县桂阳县西 424400", "image": "", "rank": 15, "time": 1.0, "location": {"lat": 25.759775327893205, "lng": 112.7405603662173}, "feature": {"sight_features": "", "sight_content": ""}}, {"title": "鹿峰塔", "address": "广西壮族自治区桂平市东部 537200", "image": "", "rank": 16, "time": 2, "location": {"lat": 23.40004888369942, "lng": 114.911223194725}, "feature": {"sight_features": "", "sight_content": ""}}, {"title": "桂阳潮泉", "address": "湖南省桂阳县荷叶镇谭溪村 424400", "image": "", "rank": 17, "time": 2, "location": {"lat": 25.52102489908316, "lng": 112.68174215739387}, "feature": {"sight_features": "", "sight_content": ""}}, {"title": "欧阳海水库湿地", "address": "湖南省桂阳县境内 424400", "image": "", "rank": 18, "time": 2, "location": {"lat": 25.759775327893205, "lng": 112.7405603662173}, "feature": {"sight_features": "", "sight_content": ""}}, {"title": "上龙泉遗址", "address": "湖南省桂阳县樟木乡 424417", "image": "", "rank": 19, "time": 2, "location": {"lat": 25.916191688735015, "lng": 112.49588659488332}, "feature": {"sight_features": "", "sight_content": ""}}, {"title": "湖南宝山国家矿山公园-芙蓉峰", "address": "湖南省郴州市桂阳县印象路湖南宝山国家矿山公园附近", "image": "", "rank": 20, "time": 2, "location": {"lat": 25.740931993525656, "lng": 112.73510855726549}, "feature": {"sight_features": "", "sight_content": ""}}, {"title": "功夫龍儿童乐园", "address": "蔡伦中路5号", "image": "", "rank": 21, "time": 2, "location": {"lat": 25.740407090071212, "lng": 112.73932702958302}, "feature": {"sight_features": "", "sight_content": ""}}, {"title": "宝山国家矿山公园联票", "address": "桂阳县国家矿山公园", "image": "", "rank": 22, "time": 2, "location": {"lat": 25.743743089558652, "lng": 112.72623670520433}, "feature": {"sight_features": "", "sight_content": ""}}, {"title": "智贝乐园", "address": "芙蓉西路12号2楼(丹阳酒店旁边)", "image": "", "rank": 23, "time": 2, "location": {"lat": 25.744946908200955, "lng": 112.73919227926505}, "feature": {"sight_features": "", "sight_content": ""}}, {"title": "翡翠公园", "address": "翡翠路与五云观路交汇处附近", "image": "", "rank": 24, "time": 2, "location": {"lat": 25.755937926050017, "lng": 112.74229534090242}, "feature": {"sight_features": "", "sight_content": ""}}, {"title": "桂阳梦幻岛亲子游乐园", "address": "园艺路帝景华府1楼", "image": "", "rank": 25, "time": 2, "location": {"lat": 25.75494222077786, "lng": 112.74135529383062}, "feature": {"sight_features": "", "sight_content": ""}}, {"title": "乐悠游儿童乐园", "address": "园艺路汇利购物商城一楼", "image": "", "rank": 26, "time": 2, "location": {"lat": 27.898302978295806, "lng": 102.27112953747472}, "feature": {"sight_features": "", "sight_content": ""}}, {"title": "盘王广场", "address": "湖南省郴州市桂阳县白水瑶族乡", "image": "", "rank": 27, "time": 2, "location": {"lat": 26.137112414993847, "lng": 112.3674630147608}, "feature": {"sight_features": "", "sight_content": ""}}, {"title": "錦天休闲广场", "address": "郴州市桂阳县欧阳海路城投大厦1层", "image": "", "rank": 28, "time": 2, "location": {"lat": 25.752814911483583, "lng": 112.73921447998742}, "feature": {"sight_features": "", "sight_content": ""}}, {"title": "官溪渡假村", "address": "湖南省郴州市桂阳县正和镇珍珠大道官溪度假村", "image": "", "rank": 29, "time": 2, "location": {"lat": 25.729613670942307, "lng": 112.75854237641843}, "feature": {"sight_features": "", "sight_content": ""}}, {"title": "蔡伦文体休闲广场", "address": "体育路", "image": "", "rank": 30, "time": 2, "location": {"lat": 37.077619308586534, "lng": 115.15794488598672}, "feature": {"sight_features": "", "sight_content": ""}}, {"title": "馨园广场", "address": "郴州市桂阳县", "image": "", "rank": 31, "time": 2, "location": {"lat": 25.759775327893205, "lng": 112.7405603662173}, "feature": {"sight_features": "", "sight_content": ""}}, {"title": "湘体五环水上乐园", "address": "湖南省郴州市桂阳县向阳路16-17号", "image": "", "rank": 32, "time": 2, "location": {"lat": 25.74110091460547, "lng": 112.74622076889489}, "feature": {"sight_features": "", "sight_content": ""}}, {"title": "东塔润滑油销售部", "address": "迎宾路2-4号", "image": "", "rank": 33, "time": 2, "location": {"lat": 25.741878993051184, "lng": 112.74992313505305}, "feature": {"sight_features": "", "sight_content": ""}}, {"title": "阳山古村旅游区", "address": "湖南省郴州市桂阳县150县道附近", "image": "", "rank": 34, "time": 2, "location": {"lat": 25.759775327893205, "lng": 112.7405603662173}, "feature": {"sight_features": "", "sight_content": ""}}, {"title": "衣兴庄园", "address": "百花路", "image": "", "rank": 35, "time": 2, "location": {"lat": 47.31644254139565, "lng": 130.2933824670994}, "feature": {"sight_features": "", "sight_content": ""}}, {"title": "桂阳舂陵江生态渔业有限公司", "address": "樟市镇水盘村中街洞组", "image": "", "rank": 36, "time": 2, "location": {"lat": 25.886840260320373, "lng": 112.75176732572204}, "feature": {"sight_features": "", "sight_content": ""}}, {"title": "桂阳湘剧团", "address": "蔡伦中路10", "image": "", "rank": 37, "time": 2, "location": {"lat": 25.73921960818058, "lng": 112.73975979634707}, "feature": {"sight_features": "", "sight_content": ""}}, {"title": "望湖山庄", "address": "仁义镇新村", "image": "", "rank": 38, "time": 2, "location": {"lat": 24.02407780570517, "lng": 111.62073618351135}, "feature": {"sight_features": "", "sight_content": ""}}, {"title": "欧阳海水库", "address": "湖南省桂阳县桥市乡", "image": "", "rank": 39, "time": 2, "location": {"lat": 26.112189924748836, "lng": 112.62157935230726}, "feature": {"sight_features": "", "sight_content": ""}}, {"title": "桂阳文化园", "address": "桂阳骏马大道近蓉湖路", "image": "", "rank": 40, "time": 1.5, "location": {"lat": 25.756752901063727, "lng": 112.76026753352265}, "feature": {"sight_features": "", "sight_content": ""}}, {"title": "桂阳茶场银杏林", "address": "桂阳茶场禽畜良种场", "image": "", "rank": 41, "time": 2, "location": {"lat": 25.763126042996138, "lng": 112.76143953744993}, "feature": {"sight_features": "", "sight_content": ""}}, {"title": "桂阳红枫林", "address": "桂阳共和农场农科所食作队附近", "image": "", "rank": 42, "time": 2, "location": {"lat": 25.704872486720088, "lng": 112.70545807861247}, "feature": {"sight_features": "", "sight_content": ""}}]}