{"cityName": "古交", "days": 2, "cityImage": "", "spots": [{"title": "镇城底剧场", "address": "老年大学镇城底中心校附近雁鸿路(西南门)", "image": "", "rank": 1, "time": 2, "location": {"lat": 28.38301842476349, "lng": 104.79792244122628}, "feature": {"sight_features": "", "sight_content": ""}}, {"title": "美吉乐儿童乐园", "address": "古交古交市马兰法庭向南150米路东侧", "image": "", "rank": 2, "time": 2, "location": {"lat": 37.85381279750759, "lng": 112.04494521109339}, "feature": {"sight_features": "", "sight_content": ""}}, {"title": "前庄天主堂", "address": "五寨线北50米", "image": "", "rank": 3, "time": 2, "location": {"lat": 37.854136733485554, "lng": 111.85277467936264}, "feature": {"sight_features": "", "sight_content": ""}}, {"title": "娘娘庙", "address": "山西省太原市古交市X228(古岔线)", "image": "", "rank": 4, "time": 1.5, "location": {"lat": 37.857779989993794, "lng": 111.86644163054405}, "feature": {"sight_features": "", "sight_content": ""}}, {"title": "峰岭亭", "address": "火山村附近", "image": "", "rank": 5, "time": 2, "location": {"lat": 37.9242956805502, "lng": 112.19823448065617}, "feature": {"sight_features": "", "sight_content": ""}}, {"title": "古交市慈寿寺", "address": "古交市阴家沟村附近", "image": "", "rank": 6, "time": 2, "location": {"lat": 37.93167371206116, "lng": 112.09511310887534}, "feature": {"sight_features": "", "sight_content": ""}}, {"title": "水泉寨公园", "address": "金牛大街52号", "image": "", "rank": 7, "time": 2, "location": {"lat": 43.96124899195008, "lng": 125.65170146399093}, "feature": {"sight_features": "", "sight_content": ""}}, {"title": "古交昌源温泉度假村", "address": "太原古交市太古路古交明扶里游泳馆南20米", "image": "", "rank": 8, "time": 2, "location": {"lat": 37.876499072396044, "lng": 112.17393518096712}, "feature": {"sight_features": "", "sight_content": ""}}, {"title": "山神庙", "address": "山西省太原市古交市", "image": "", "rank": 9, "time": 2, "location": {"lat": 37.912999960962374, "lng": 112.18245286889747}, "feature": {"sight_features": "", "sight_content": ""}}, {"title": "比目鱼儿童乐园", "address": "东曲矿工人村佳佳乐二楼", "image": "", "rank": 10, "time": 2, "location": {"lat": 37.91157096192116, "lng": 112.19134678154828}, "feature": {"sight_features": "", "sight_content": ""}}, {"title": "呦呦淘气堡", "address": "太原市古交市", "image": "", "rank": 11, "time": 2, "location": {"lat": 37.912999960962374, "lng": 112.18245286889747}, "feature": {"sight_features": "", "sight_content": ""}}, {"title": "滨河休闲广场", "address": "前进路与滨河南路交口南", "image": "", "rank": 12, "time": 2, "location": {"lat": 37.913361138669096, "lng": 112.19569180175762}, "feature": {"sight_features": "", "sight_content": ""}}, {"title": "阿木木儿童主题乐园", "address": "区大川西路萃华金店2楼", "image": "", "rank": 13, "time": 2, "location": {"lat": 37.91462002500338, "lng": 112.17782137726437}, "feature": {"sight_features": "", "sight_content": ""}}, {"title": "古交市图书馆", "address": "桃园路9号", "image": "", "rank": 14, "time": 1.5, "location": {"lat": 38.08784515869694, "lng": 114.52459629116065}, "feature": {"sight_features": "", "sight_content": ""}}, {"title": "古交市档案馆", "address": "金牛大街64号", "image": "", "rank": 15, "time": 1.0, "location": {"lat": 43.96124899195008, "lng": 125.65170146399093}, "feature": {"sight_features": "", "sight_content": ""}}, {"title": "南山生态园", "address": "下雁门村(古交市镇城底镇卫生院南)", "image": "", "rank": 16, "time": 2, "location": {"lat": 37.96584381072051, "lng": 112.06333651174847}, "feature": {"sight_features": "", "sight_content": ""}}, {"title": "山西省黄河少儿艺术团(古交分团)", "address": "大川西路学府街", "image": "", "rank": 17, "time": 2, "location": {"lat": 37.90850374406966, "lng": 112.17471557489587}, "feature": {"sight_features": "", "sight_content": ""}}]}