{"cityName": "古浪", "days": 2, "cityImage": "", "spots": [{"title": "和悦农家乐", "address": "暖泉村组028号", "image": "", "rank": 1, "time": 2, "location": {"lat": 39.91134858923789, "lng": 116.46208081097153}, "feature": {"sight_features": "", "sight_content": ""}}, {"title": "甘露寺", "address": "甘肃省武威市古浪县凉古公路", "image": "", "rank": 2, "time": 2.5, "location": {"lat": 37.736644554342966, "lng": 103.02558159432984}, "feature": {"sight_features": "", "sight_content": ""}}, {"title": "香林寺", "address": "徐古公路西150米", "image": "", "rank": 3, "time": 1.5, "location": {"lat": 37.425535481966584, "lng": 102.88772968429502}, "feature": {"sight_features": "", "sight_content": ""}}, {"title": "金顺苑农家乐", "address": "310乡道附近", "image": "", "rank": 4, "time": 2, "location": {"lat": 37.71820013250383, "lng": 115.93598192876185}, "feature": {"sight_features": "", "sight_content": ""}}, {"title": "鸿源农家乐", "address": "308省道北50米", "image": "", "rank": 5, "time": null, "location": {"lat": 40.33747769696877, "lng": 116.52614205897426}, "feature": {"sight_features": "", "sight_content": ""}}, {"title": "瑞鑫农家乐", "address": "308省道附近", "image": "", "rank": 6, "time": 2, "location": {"lat": 40.337133976011295, "lng": 116.52614205897426}, "feature": {"sight_features": "", "sight_content": ""}}, {"title": "古浪战役纪念馆", "address": "古龙山下", "image": "", "rank": 7, "time": 1.0, "location": {"lat": 25.217728925360177, "lng": 108.78126420518872}, "feature": {"sight_features": "", "sight_content": ""}}, {"title": "九州画廊", "address": "商业步行街与旧大路交叉口东150米", "image": "", "rank": 8, "time": 2.0, "location": {"lat": 37.477392599718435, "lng": 102.90471695859056}, "feature": {"sight_features": "", "sight_content": ""}}, {"title": "东乡移民村", "address": "武威市-古浪县", "image": "", "rank": 9, "time": 2, "location": {"lat": 37.47580190660082, "lng": 102.90362978165219}, "feature": {"sight_features": "", "sight_content": ""}}, {"title": "年家井", "address": "武威市-古浪县", "image": "", "rank": 10, "time": 2, "location": {"lat": 37.47580190660082, "lng": 102.90362978165219}, "feature": {"sight_features": "", "sight_content": ""}}]}