{"cityName": "古蔺", "days": 2, "cityImage": "", "spots": [{"title": "太平古镇", "address": "泸州市古蔺县太平镇", "image": "", "rank": 1, "time": 2.5, "location": {"lat": 28.116106903402187, "lng": 106.08397323010662}, "feature": {"sight_features": "", "sight_content": ""}}, {"title": "红军四渡赤水太平渡陈列馆", "address": "泸州市古蔺县太平镇", "image": "", "rank": 2, "time": 1.0, "location": {"lat": 28.116106903402187, "lng": 106.08397323010662}, "feature": {"sight_features": "", "sight_content": ""}}, {"title": "古郎洞风景区", "address": "泸州市古蔺县东新镇李家寨", "image": "", "rank": 3, "time": 2.5, "location": {"lat": 28.035744098440567, "lng": 106.11645811865975}, "feature": {"sight_features": "特色1 洞穴景观品类中最丰富的喀斯特洞穴", "sight_content": "古郎洞原名青龙洞，形成与白垩纪年代，至今已有几亿年成长历史。古郎洞已探明洞长6.6公里，目前开发洞长2.5公里。洞内景观丰富，形态各异的钟乳石栩栩如生，石瀑、石灵芝、石珊瑚、石柱、石花等奇观随处可见；钙化池面积庞大，晶莹如玉，碧水从天而降，形成了仙境瑶池景观，被誉为“洞中黄龙”；洞中视野开阔，四个高约百米的洞厅首尾相连，穹顶各具特色，有的像挂满繁星的浩瀚夜空，有的如国画大师笔下的泼墨山水，夺人眼目、幻如仙境。洞内的汹涌暗河、地下峡谷等奇特景观为古郎洞最奇美的景观，国内罕见。古郎洞是目前川渝地区地质遗迹形态最完整，洞穴景观品类最丰富的喀斯特洞穴。古郎洞位于四川古蔺县境内，紧邻历史文化名镇太平镇和二郎镇。距古叙高速公路太平出口18公里。\n\n\n古蔺地处四川盆地南缘与云贵高原北麓，赤水河及其大小支流穿插迂回，地貌呈现出地势高峻，河谷深切的特点；石灰岩发育出众多溶洞，古郎洞是赤水河流域景观最丰富、发育最完整的代表性浴洞。\n古郎洞具有“洞幽、石奇、景绚、峡秀”的特点。\n\n洞幽\n古郎洞主洞长5000米，目前已开发2800米，最宽处120米，最高处80米，洞内面积近60万平方米，容积超过200万立方米，其地下阴河更是长达数十公里。亘古以来，鲜有人迹，洞穴深处还生息着多种神奇生物。\n石奇\n古郎洞所在地区地层古老，构造复杂，岩溶物有着多层次、多阶段和多类型的特点。洞内，石笋、石柱、石林、石幔、石盾、石旗、石花、石瀑布、石花、石芽和鹅管等多种堆积物应有尽有，相当于一个还在不断生长发育的大型天然地质博物馆。\n景绚\n国内领先团队设计打造的古郎洞灯光迷离，色彩斑斓，更能展示出洞穴的幽、绚、险、奇。尤其是洞内大面积的边石坝及水潭，在灯光的映衬下，足已与黄龙钙华景观相比，被人称为洞中黄龙。\n峡秀\n古郎洞位于半山之间，其下是数里长的盐井峡谷，两岸峻岭高耸，绝壁如削；谷底溪流淙淙，怪石嶙峋。更有举目可及的田园风光，营造出一幅秀丽的天然图画。人行谷中，俗事消弭，实乃避世静修之世外秘境。"}}, {"title": "水洞坪景区", "address": "泸州市古蔺县鱼化乡鱼丰村", "image": "", "rank": 4, "time": 2, "location": {"lat": 27.980373760276862, "lng": 106.00524020077792}, "feature": {"sight_features": "", "sight_content": ""}}, {"title": "二郎古镇", "address": "泸州市古蔺县二郎镇郎酒街", "image": "", "rank": 5, "time": 2, "location": {"lat": 28.09998640251691, "lng": 106.19427204041808}, "feature": {"sight_features": "", "sight_content": ""}}, {"title": "红龙湖", "address": "四川泸州古蔺县城北部", "image": "", "rank": 6, "time": 2, "location": {"lat": 28.044745368759, "lng": 105.81947079564709}, "feature": {"sight_features": "", "sight_content": ""}}, {"title": "长征过叙永陈列馆", "address": "四川省叙永县境内 628013", "image": "", "rank": 7, "time": 2, "location": {"lat": 28.161714341910837, "lng": 105.45150761141588}, "feature": {"sight_features": "", "sight_content": ""}}, {"title": "九妹农家乐", "address": "四川省泸州市古蔺黄荆乡黄荆村二组", "image": "", "rank": 8, "time": 2, "location": {"lat": 28.227851435346786, "lng": 105.78089863772291}, "feature": {"sight_features": "", "sight_content": ""}}, {"title": "鱼洞河度假村", "address": "古双路附近", "image": "", "rank": 9, "time": 2, "location": {"lat": 30.65214043674225, "lng": 118.768503322139}, "feature": {"sight_features": "", "sight_content": ""}}, {"title": "黄荆原始森林", "address": "古蔺县黄荆乡", "image": "", "rank": 10, "time": 3.0, "location": {"lat": 28.230218825299428, "lng": 105.77957754831833}, "feature": {"sight_features": "特色1 被誉为北纬28°线上最后的处女地 特色2 一个令人神往的人间仙境。 特色3 整个生态旅游区森林覆盖率达94％。 特色4 景区内分布着四峰、七岭、三十八溪和大小几十个瀑布。", "sight_content": "黄荆老林景区位于四川省古蔺县西北部，地理坐标为东经105°39′-105°52′北纬28°05′-28°20’，属云贵高原向四川盆地过渡带的赤水河流域，面积433平方公里，森林覆盖率高达96%以上，平均海拔1300多米，是典型的白垩系红色砂岩中山峡谷丹霞地貌区，也是地球同纬度（北纬28°C）唯一保存完好的亚热带原始常绿阔叶林区。\n红龙湖是一个人文景观，一个巨大的高山人工湖，为省级森林公园，海拔1580米，比白水洞景区高出300米左右。周围全县1600-1800米的高山，山顶是古老的原始森林，山下是常垠的人工林海，水库蓄水量800多万立方米，水深25米，明静如镜，青山倒映，微波荡漾，小船、游艇来往于十里湖面，消失在烟雨之中，远远望去，仿佛一条巨大的青龙蜷卧于崇山峻岭之中，让人心旷神怡。\n笋子山，是黄荆老林的主山脉，因其山势尖削盛产竹笋而得名，笋子山脉东西向横亘黄荆老林中部，主峰笋子山海拔1732m.山势陡峭，横亘天际，沟壑交错，道路崎岖，远望似一条蜿蜒与天际的绿带，缭绕于群峦和白云之间，原始林广布，古木参天，藤萝缠绕，多珍稀动植物。"}}, {"title": "来福寺", "address": "四川省泸州市古蔺县S309", "image": "", "rank": 11, "time": 2, "location": {"lat": 28.044745368759, "lng": 105.81947079564709}, "feature": {"sight_features": "", "sight_content": ""}}, {"title": "佛国寺", "address": "泸州市古蔺县", "image": "", "rank": 12, "time": 1.5, "location": {"lat": 28.044745368759, "lng": 105.81947079564709}, "feature": {"sight_features": "", "sight_content": ""}}, {"title": "火星公园路与660乡道交叉口", "address": "古蔺县", "image": "", "rank": 13, "time": 2, "location": {"lat": 28.044745368759, "lng": 105.81947079564709}, "feature": {"sight_features": "", "sight_content": ""}}, {"title": "黄金山庄", "address": "603乡道附近", "image": "", "rank": 14, "time": 2, "location": {"lat": 40.05630688272543, "lng": 116.72643418429531}, "feature": {"sight_features": "", "sight_content": ""}}, {"title": "金兰广场", "address": "泸州市古蔺县金兰大道363号", "image": "", "rank": 15, "time": 2, "location": {"lat": 28.048292217301498, "lng": 105.8190011237978}, "feature": {"sight_features": "", "sight_content": ""}}, {"title": "森态山庄", "address": "飞龙村卫生室附近", "image": "", "rank": 16, "time": 2, "location": {"lat": 28.053671236503348, "lng": 105.81351251486248}, "feature": {"sight_features": "", "sight_content": ""}}, {"title": "美酒河景观带", "address": "遵义市仁怀市G212", "image": "", "rank": 17, "time": 2, "location": {"lat": 27.797752158542853, "lng": 106.4075265551776}, "feature": {"sight_features": "", "sight_content": ""}}, {"title": "图书馆", "address": "金兰大道宣传文化中心综合大楼", "image": "", "rank": 18, "time": 1.0, "location": {"lat": 28.04745595331825, "lng": 105.82389067255144}, "feature": {"sight_features": "", "sight_content": ""}}, {"title": "四渡赤水太平渡陈列馆", "address": "645乡道", "image": "", "rank": 19, "time": 1.0, "location": {"lat": 31.68676284601678, "lng": 120.83596270590002}, "feature": {"sight_features": "", "sight_content": ""}}, {"title": "丹霞农家乐", "address": "黄荆街上", "image": "", "rank": 20, "time": 2, "location": {"lat": 29.293673824340924, "lng": 106.26256376118049}, "feature": {"sight_features": "", "sight_content": ""}}, {"title": "青云湖农家乐", "address": "309省道附近", "image": "", "rank": 21, "time": 2, "location": {"lat": 40.709016096764906, "lng": 116.52743651721413}, "feature": {"sight_features": "", "sight_content": ""}}, {"title": "葡萄采摘园", "address": "大村镇关田坝大村镇桑木小学西南280米", "image": "", "rank": 22, "time": 2, "location": {"lat": 28.01596932691498, "lng": 106.19016259813516}, "feature": {"sight_features": "", "sight_content": ""}}, {"title": "农业局农经中心", "address": "古蔺镇金兰大道", "image": "", "rank": 23, "time": 2, "location": {"lat": 28.04868091058287, "lng": 105.81859266248594}, "feature": {"sight_features": "", "sight_content": ""}}, {"title": "古蔺黄荆风景区", "address": "四川省古蔺县黄荆乡", "image": "", "rank": 24, "time": 3.0, "location": {"lat": 28.230218825299428, "lng": 105.77957754831833}, "feature": {"sight_features": "", "sight_content": ""}}, {"title": "古蔺县体育中心步行街", "address": "四川省古蔺县滨河路附近", "image": "", "rank": 25, "time": 2, "location": {"lat": 28.047486812475437, "lng": 105.81897159200417}, "feature": {"sight_features": "", "sight_content": ""}}, {"title": "志富野鸡养殖场", "address": "泸州市-古蔺县-水口镇柏腊村青云湖", "image": "", "rank": 26, "time": 2, "location": {"lat": 27.86820598813164, "lng": 106.23523214860747}, "feature": {"sight_features": "", "sight_content": ""}}]}