{"cityName": "果洛", "days": "", "cityImage": "", "spots": [{"title": "年保玉则", "address": "果洛藏族自治州久治县索呼日麻乡、白玉乡境内（靠近S101省道）", "image": "", "rank": 1, "time": 4.5, "location": {"lat": 33.53215809316549, "lng": 100.94181579705324}, "feature": {"sight_features": "", "sight_content": ""}}, {"title": "黄河源旅游区", "address": "果洛藏族自治州玛多县黄河源", "image": "", "rank": 2, "time": 7.5, "location": {"lat": 34.92074864618621, "lng": 98.21588383209857}, "feature": {"sight_features": "", "sight_content": ""}}, {"title": "阿尼玛卿雪山", "address": "果洛藏族自治州玛沁县西北部", "image": "", "rank": 3, "time": 2, "location": {"lat": 34.48356948600165, "lng": 100.24556434882359}, "feature": {"sight_features": "", "sight_content": ""}}, {"title": "巴颜喀拉山", "address": "位于青海省果洛藏族自治州久治县索呼日麻乡境内", "image": "", "rank": 4, "time": 2, "location": {"lat": 33.53215809316549, "lng": 100.94181579705324}, "feature": {"sight_features": "", "sight_content": ""}}, {"title": "鄂陵湖", "address": "果洛藏族自治州玛多县", "image": "", "rank": 5, "time": 2, "location": {"lat": 34.92074864618621, "lng": 98.21588383209857}, "feature": {"sight_features": "", "sight_content": ""}}, {"title": "拉加寺", "address": "青海省果洛藏族自治州玛沁县101省道", "image": "", "rank": 6, "time": 1.0, "location": {"lat": 34.501667129197905, "lng": 100.41768480487677}, "feature": {"sight_features": "", "sight_content": ""}}, {"title": "牛头碑", "address": "青海省果洛藏族自治州玛多县", "image": "", "rank": 7, "time": 2, "location": {"lat": 34.92074864618621, "lng": 98.21588383209857}, "feature": {"sight_features": "", "sight_content": ""}}, {"title": "扎陵湖", "address": "果洛藏族自治州玛多县", "image": "", "rank": 8, "time": 2, "location": {"lat": 34.92074864618621, "lng": 98.21588383209857}, "feature": {"sight_features": "", "sight_content": ""}}, {"title": "白玉达唐寺", "address": "青海省果洛藏族自治州久治县101省道", "image": "", "rank": 9, "time": 2, "location": {"lat": 33.40018279230784, "lng": 101.40069881766519}, "feature": {"sight_features": "", "sight_content": ""}}, {"title": "红军沟", "address": "果洛州班玛县亚尔堂乡子木达沟", "image": "", "rank": 10, "time": 1.0, "location": {"lat": 32.93850392746955, "lng": 100.74360459644603}, "feature": {"sight_features": "", "sight_content": ""}}, {"title": "鄂木措景区", "address": "青海省果洛藏族自治州久治县", "image": "", "rank": 11, "time": 2, "location": {"lat": 33.43477349940803, "lng": 101.4885322558532}, "feature": {"sight_features": "", "sight_content": ""}}, {"title": "康赛寺", "address": "青海省果洛藏族自治州久治县", "image": "", "rank": 12, "time": 2, "location": {"lat": 33.43477349940803, "lng": 101.4885322558532}, "feature": {"sight_features": "", "sight_content": ""}}, {"title": "多贡麻寺", "address": "青海省果洛藏族自治州班玛县", "image": "", "rank": 13, "time": 2, "location": {"lat": 32.93850392746955, "lng": 100.74360459644603}, "feature": {"sight_features": "", "sight_content": ""}}, {"title": "卡昂寺", "address": "青海省果洛藏族自治州班玛县", "image": "", "rank": 14, "time": 2, "location": {"lat": 32.93850392746955, "lng": 100.74360459644603}, "feature": {"sight_features": "", "sight_content": ""}}, {"title": "坚木达寺", "address": "青海省果洛藏族自治州久治县", "image": "", "rank": 15, "time": 2, "location": {"lat": 33.43477349940803, "lng": 101.4885322558532}, "feature": {"sight_features": "", "sight_content": ""}}, {"title": "星宿海", "address": "果洛藏族自治州玛多县", "image": "", "rank": 16, "time": 2, "location": {"lat": 34.92074864618621, "lng": 98.21588383209857}, "feature": {"sight_features": "", "sight_content": ""}}, {"title": "隆格山垭口", "address": "果洛藏族自治州久治县", "image": "", "rank": 17, "time": 0.5, "location": {"lat": 33.43477349940803, "lng": 101.4885322558532}, "feature": {"sight_features": "", "sight_content": ""}}, {"title": "果洛州群众艺术馆", "address": "青海省果洛藏族自治州玛沁县团结路402号", "image": "", "rank": 18, "time": 2, "location": {"lat": 34.47982993957758, "lng": 100.24935261005751}, "feature": {"sight_features": "", "sight_content": ""}}, {"title": "黄河源头第一桥", "address": "青海省玛多县扎陵湖乡", "image": "", "rank": 19, "time": 2, "location": {"lat": 35.09115511236725, "lng": 97.9172300866905}, "feature": {"sight_features": "", "sight_content": ""}}, {"title": "小野马岭", "address": "青海省果洛藏族自治州玛多县境内", "image": "", "rank": 20, "time": 2, "location": {"lat": 34.92074864618621, "lng": 98.21588383209857}, "feature": {"sight_features": "", "sight_content": ""}}, {"title": "格萨尔王狮龙宫殿", "address": "果洛藏族自治州达日县县城西侧约18公里处", "image": "", "rank": 21, "time": 2.0, "location": {"lat": 33.754937373991375, "lng": 99.65801011306507}, "feature": {"sight_features": "", "sight_content": ""}}, {"title": "措哇尕什则多卡寺", "address": "青海省果洛藏族自治州玛多县", "image": "", "rank": 22, "time": 2, "location": {"lat": 34.92074864618621, "lng": 98.21588383209857}, "feature": {"sight_features": "", "sight_content": ""}}, {"title": "仙女湖（希门错）", "address": "位于年保主峰的北侧", "image": "", "rank": 23, "time": 2, "location": {"lat": 28.17276770370885, "lng": 100.54224473489535}, "feature": {"sight_features": "", "sight_content": ""}}, {"title": "大野马岭", "address": "青海省果洛藏族自治州玛多县境内", "image": "", "rank": 24, "time": 2, "location": {"lat": 34.92074864618621, "lng": 98.21588383209857}, "feature": {"sight_features": "", "sight_content": ""}}, {"title": "高山草甸", "address": "青海省果洛藏族自治州玛沁县", "image": "", "rank": 25, "time": 1.5, "location": {"lat": 34.48356948600165, "lng": 100.24556434882359}, "feature": {"sight_features": "", "sight_content": ""}}, {"title": "青海省三江源玛多国家公园", "address": "青海省果洛藏族自治州玛多县G214", "image": "", "rank": 26, "time": 2, "location": {"lat": 34.92074864618621, "lng": 98.21588383209857}, "feature": {"sight_features": "", "sight_content": ""}}, {"title": "岭.格萨尔王文化博览园", "address": "果洛藏族自治州玛多县气象路", "image": "", "rank": 27, "time": 2.5, "location": {"lat": 34.92074864618621, "lng": 98.21588383209857}, "feature": {"sight_features": "", "sight_content": ""}}, {"title": "妖女湖", "address": "青海省果洛州久治县年保玉则景区仙女湖以南", "image": "", "rank": 28, "time": 9.0, "location": {"lat": 33.402533504436, "lng": 101.11373110438218}, "feature": {"sight_features": "", "sight_content": ""}}, {"title": "州格萨尔博物馆", "address": "101省道", "image": "", "rank": 29, "time": 2, "location": {"lat": 41.03241923348195, "lng": 111.82384508727836}, "feature": {"sight_features": "", "sight_content": ""}}, {"title": "达日县", "address": "青海省果洛州达日县", "image": "", "rank": 30, "time": 2, "location": {"lat": 33.754937373991375, "lng": 99.65801011306507}, "feature": {"sight_features": "", "sight_content": ""}}, {"title": "下文措（俄错尕玛）", "address": "青海省果洛州久治县年保玉则景区内", "image": "", "rank": 31, "time": 2, "location": {"lat": 33.402533504436, "lng": 101.11373110438218}, "feature": {"sight_features": "", "sight_content": ""}}, {"title": "冬给措纳湖", "address": "青海省果洛藏族自治州玛多县", "image": "", "rank": 32, "time": 2, "location": {"lat": 34.92074864618621, "lng": 98.21588383209857}, "feature": {"sight_features": "", "sight_content": ""}}, {"title": "果洛白玉寺", "address": "青海省,久治县,西南部,814000", "image": "", "rank": 33, "time": 4.5, "location": {"lat": 33.43477349940803, "lng": 101.4885322558532}, "feature": {"sight_features": "", "sight_content": ""}}, {"title": "格萨尔文化艺术研究院", "address": "果洛州甘德县柯曲镇德尔文村", "image": "", "rank": 34, "time": 1.5, "location": {"lat": 33.97601402634179, "lng": 99.90754152183018}, "feature": {"sight_features": "", "sight_content": ""}}, {"title": "龙恩寺", "address": "果洛州甘德县城东南部的下贡麻乡隆什加沟口", "image": "", "rank": 35, "time": 1.0, "location": {"lat": 33.85308691958485, "lng": 100.12621619920894}, "feature": {"sight_features": "", "sight_content": ""}}, {"title": "夏日乎寺", "address": "果洛州甘德县岗龙乡黄河西岸的隆木切沟口", "image": "", "rank": 36, "time": 1.0, "location": {"lat": 33.75125781787703, "lng": 100.25212196736845}, "feature": {"sight_features": "", "sight_content": ""}}, {"title": "格萨尔文化宫殿", "address": "果洛州甘德县柯曲镇阿东地区", "image": "", "rank": 37, "time": 1.5, "location": {"lat": 33.97601402634179, "lng": 99.90754152183018}, "feature": {"sight_features": "", "sight_content": ""}}, {"title": "官仓峡景区", "address": "果洛州甘德县岗龙乡", "image": "", "rank": 38, "time": 2.0, "location": {"lat": 33.76135562662321, "lng": 100.26589932568687}, "feature": {"sight_features": "", "sight_content": ""}}, {"title": "东吉多卡寺", "address": "果洛州甘德县东吉乡的赛日滩，距县城12公里。", "image": "", "rank": 39, "time": 1.5, "location": {"lat": 33.975003677602174, "lng": 99.90751069557831}, "feature": {"sight_features": "", "sight_content": ""}}, {"title": "格萨尔酥油花展示馆", "address": "果洛州甘德县", "image": "", "rank": 40, "time": 1.0, "location": {"lat": 33.975003677602174, "lng": 99.90751069557831}, "feature": {"sight_features": "", "sight_content": ""}}, {"title": "赛西多卡石经墙", "address": "果洛州甘德县岗龙乡，赛西多卡草原", "image": "", "rank": 41, "time": 1.0, "location": {"lat": 33.76135562662321, "lng": 100.26589932568687}, "feature": {"sight_features": "", "sight_content": ""}}, {"title": "高山牧场", "address": "青海省果洛藏族自治州玛沁县", "image": "", "rank": 42, "time": 2.0, "location": {"lat": 34.48356948600165, "lng": 100.24556434882359}, "feature": {"sight_features": "", "sight_content": ""}}, {"title": "白扎寺", "address": "果洛州班玛县城东南部的江日堂乡", "image": "", "rank": 43, "time": 1.5, "location": {"lat": 33.00205333596297, "lng": 100.83095938422103}, "feature": {"sight_features": "", "sight_content": ""}}, {"title": "吉德寺", "address": "果洛州班玛县东南部，班前乡吉德齐村", "image": "", "rank": 44, "time": 1.5, "location": {"lat": 32.90990159963649, "lng": 100.99857100866528}, "feature": {"sight_features": "", "sight_content": ""}}, {"title": "灯塔寺", "address": "果洛州班玛县灯塔乡", "image": "", "rank": 45, "time": 1.5, "location": {"lat": 32.690025532054364, "lng": 100.94343246669986}, "feature": {"sight_features": "", "sight_content": ""}}, {"title": "阿什羌寺", "address": "果洛州班玛县城东南部约10公里处", "image": "", "rank": 46, "time": 1.5, "location": {"lat": 32.93850392746955, "lng": 100.74360459644603}, "feature": {"sight_features": "", "sight_content": ""}}, {"title": "知钦寺", "address": "果洛州班玛县多柯河畔", "image": "", "rank": 47, "time": 1.5, "location": {"lat": 32.93850392746955, "lng": 100.74360459644603}, "feature": {"sight_features": "", "sight_content": ""}}, {"title": "果洛马背藏戏", "address": "果洛州甘德县", "image": "", "rank": 48, "time": 2, "location": {"lat": 33.975003677602174, "lng": 99.90751069557831}, "feature": {"sight_features": "", "sight_content": ""}}, {"title": "安加拉.加毛山", "address": "果洛州甘德县柯曲镇东部", "image": "", "rank": 49, "time": 1.5, "location": {"lat": 33.97601402634179, "lng": 99.90754152183018}, "feature": {"sight_features": "", "sight_content": ""}}, {"title": "德尔文村", "address": "果洛州甘德县柯曲镇境内", "image": "", "rank": 50, "time": 2.0, "location": {"lat": 33.97601402634179, "lng": 99.90754152183018}, "feature": {"sight_features": "", "sight_content": ""}}, {"title": "玛柯河林区", "address": "青海省班玛县城东南 814300", "image": "", "rank": 51, "time": 1.0, "location": {"lat": 36.605707645661155, "lng": 101.8095690383313}, "feature": {"sight_features": "", "sight_content": ""}}, {"title": "龙钵寺", "address": "青海省果洛藏族自治州班玛县", "image": "", "rank": 52, "time": 1.5, "location": {"lat": 32.93850392746955, "lng": 100.74360459644603}, "feature": {"sight_features": "", "sight_content": ""}}, {"title": "玛多县文化馆", "address": "西大街26号", "image": "", "rank": 53, "time": 2, "location": {"lat": 38.04800126941241, "lng": 114.52751165186272}, "feature": {"sight_features": "", "sight_content": ""}}, {"title": "然亚寺", "address": "果洛州班玛县，708县道东100米", "image": "", "rank": 54, "time": 2.5, "location": {"lat": 32.93850392746955, "lng": 100.74360459644603}, "feature": {"sight_features": "", "sight_content": ""}}, {"title": "班前寺", "address": "果洛州班玛县班前乡", "image": "", "rank": 55, "time": 1.0, "location": {"lat": 32.90990159963649, "lng": 100.99857100866528}, "feature": {"sight_features": "", "sight_content": ""}}, {"title": "和科寺", "address": "青海省果洛藏族自治州玛多县", "image": "", "rank": 56, "time": 2, "location": {"lat": 34.92074864618621, "lng": 98.21588383209857}, "feature": {"sight_features": "", "sight_content": ""}}, {"title": "白玉乡", "address": "青海省果洛藏族自治州久治县", "image": "", "rank": 57, "time": 2, "location": {"lat": 33.43477349940803, "lng": 101.4885322558532}, "feature": {"sight_features": "", "sight_content": ""}}, {"title": "措哇尕什则山", "address": "青海省果洛藏族自治州玛多县", "image": "", "rank": 58, "time": 2, "location": {"lat": 34.92074864618621, "lng": 98.21588383209857}, "feature": {"sight_features": "", "sight_content": ""}}, {"title": "玛多古城", "address": "青海省玛多县境内 810008", "image": "", "rank": 59, "time": 1.5, "location": {"lat": 34.92074864618621, "lng": 98.21588383209857}, "feature": {"sight_features": "", "sight_content": ""}}, {"title": "果洛神女峰", "address": "青海省甘德县东部 814000", "image": "", "rank": 60, "time": 2, "location": {"lat": 33.975003677602174, "lng": 107.21971754679885}, "feature": {"sight_features": "", "sight_content": ""}}]}