{"cityName": "涡阳", "days": 2, "cityImage": "", "spots": [{"title": "天静宫", "address": "安徽省涡阳县涡北街道天静宫", "image": "", "rank": 1, "time": 2.5, "location": {"lat": 33.553053614874955, "lng": 116.19754143181393}, "feature": {"sight_features": "", "sight_content": ""}}, {"title": "马玉昆公馆", "address": "亳州市涡阳县涡河路116号涡阳第一中学内", "image": "", "rank": 2, "time": 1.0, "location": {"lat": 33.51654392061561, "lng": 116.23043772453863}, "feature": {"sight_features": "", "sight_content": ""}}, {"title": "张乐行故居", "address": "亳州市涡阳县张老家", "image": "", "rank": 3, "time": 1.0, "location": {"lat": 33.363694951433445, "lng": 116.43839760693007}, "feature": {"sight_features": "", "sight_content": ""}}, {"title": "城西公园", "address": "乐行路与西环路交汇处", "image": "", "rank": 4, "time": 2, "location": {"lat": 33.5163023205238, "lng": 116.21540794239009}, "feature": {"sight_features": "", "sight_content": ""}}, {"title": "葛沟公园", "address": "葛沟附近", "image": "", "rank": 5, "time": 2, "location": {"lat": 35.63509350778737, "lng": 112.36246249546483}, "feature": {"sight_features": "", "sight_content": ""}}, {"title": "杰大农场(郝庄菜市店)", "address": "工农南路61号附近", "image": "", "rank": 6, "time": 2, "location": {"lat": 32.27504775943704, "lng": 119.19051674055218}, "feature": {"sight_features": "", "sight_content": ""}}, {"title": "丹城", "address": "安徽省涡阳县丹城镇 233605", "image": "", "rank": 7, "time": 2, "location": {"lat": 33.74933170757014, "lng": 116.34808137807525}, "feature": {"sight_features": "", "sight_content": ""}}, {"title": "瑞琪儿童乐园", "address": "安徽省亳州市涡阳县S202", "image": "", "rank": 8, "time": 2, "location": {"lat": 33.4985668350044, "lng": 116.22160903515599}, "feature": {"sight_features": "", "sight_content": ""}}, {"title": "法制广场", "address": "安徽省亳州市涡阳县西环路", "image": "", "rank": 9, "time": 2, "location": {"lat": 33.5163023205238, "lng": 116.21540794239009}, "feature": {"sight_features": "", "sight_content": ""}}, {"title": "滨河公园", "address": "安徽省亳州市涡阳县三星大道", "image": "", "rank": 10, "time": 2.0, "location": {"lat": 33.502673809303396, "lng": 116.23675154566303}, "feature": {"sight_features": "", "sight_content": ""}}, {"title": "尹喜公园", "address": "安徽省亳州市涡阳县谷水双星2期内", "image": "", "rank": 11, "time": 2, "location": {"lat": 33.54314847005612, "lng": 116.24019293610563}, "feature": {"sight_features": "", "sight_content": ""}}, {"title": "汤悦四季汤泉", "address": "亳州市涡阳县谷水路与乐行路交叉口巨人印象1号楼1栋", "image": "", "rank": 12, "time": 2, "location": {"lat": 33.49355095914438, "lng": 116.20326496920127}, "feature": {"sight_features": "", "sight_content": "涡阳汤悦四季汤泉位于乐行路与谷水路交口（原巨人印象售楼处） ，经营项目有汗蒸、汤泉、SPA养生、四季水乐园、泊乐酒吧、汤悦食府、淘气堡乐园、棋牌娱乐、网咖、KTV、影院、客房。"}}, {"title": "广海温泉公馆", "address": "城东驾校向北188米", "image": "", "rank": 13, "time": 2, "location": {"lat": 36.605707645661155, "lng": 101.8095690383313}, "feature": {"sight_features": "", "sight_content": ""}}, {"title": "孙奶庙前寨唢呐艺术团", "address": "014县道花沟镇派出所附近", "image": "", "rank": 14, "time": 2, "location": {"lat": 33.52343337963039, "lng": 116.06238609029289}, "feature": {"sight_features": "", "sight_content": ""}}, {"title": "梅城古城址", "address": "安徽省亳州市谯城区店集镇 236800", "image": "", "rank": 15, "time": 2.0, "location": {"lat": 33.3924257562976, "lng": 116.0230028532093}, "feature": {"sight_features": "", "sight_content": ""}}, {"title": "高长营新村村委会(文化广场)", "address": "安徽省亳州市涡阳县X037", "image": "", "rank": 16, "time": 2, "location": {"lat": 33.4985668350044, "lng": 116.22160903515599}, "feature": {"sight_features": "", "sight_content": ""}}, {"title": "红城文体广场", "address": "亳州市涡阳县", "image": "", "rank": 17, "time": 2, "location": {"lat": 33.4985668350044, "lng": 116.22160903515599}, "feature": {"sight_features": "", "sight_content": ""}}, {"title": "鑫源水上乐园", "address": "安徽省亳州市涡阳县X037曹市镇红城塔向南688米闸口东288米", "image": "", "rank": 18, "time": 2, "location": {"lat": 33.475960300409554, "lng": 116.4906367133535}, "feature": {"sight_features": "", "sight_content": ""}}, {"title": "侨克滋儿童乐园", "address": "建设路3号", "image": "", "rank": 19, "time": 2, "location": {"lat": 39.846917306684226, "lng": 116.4702186540102}, "feature": {"sight_features": "", "sight_content": ""}}, {"title": "王刚花卉观光园", "address": "安徽省亳州市涡阳县潘王庄", "image": "", "rank": 20, "time": 2, "location": {"lat": 33.548532025468624, "lng": 116.32737128050896}, "feature": {"sight_features": "", "sight_content": ""}}, {"title": "尹沟基督教会", "address": "307省道附近", "image": "", "rank": 21, "time": 2, "location": {"lat": 40.264498296993764, "lng": 116.57268632168496}, "feature": {"sight_features": "", "sight_content": ""}}, {"title": "城西尹沟基督教堂", "address": "307省道西50米", "image": "", "rank": 22, "time": 2, "location": {"lat": 40.264498296993764, "lng": 116.57223716892996}, "feature": {"sight_features": "", "sight_content": ""}}, {"title": "新四军第四师纪念馆", "address": "亳州市涡阳县201省道与204乡道交叉口东150米", "image": "", "rank": 23, "time": 2, "location": {"lat": 33.72168405452953, "lng": 116.22899930475604}, "feature": {"sight_features": "", "sight_content": ""}}, {"title": "涡阳城市规划展览馆", "address": "站前路", "image": "", "rank": 24, "time": 1.5, "location": {"lat": 40.131500583359475, "lng": 116.27284120218751}, "feature": {"sight_features": "", "sight_content": ""}}, {"title": "义门颐生园生态园", "address": "义门镇", "image": "", "rank": 25, "time": 2, "location": {"lat": 33.84559365294209, "lng": 115.79467637180403}, "feature": {"sight_features": "", "sight_content": ""}}, {"title": "太阳岛水上乐园", "address": "城关镇道源社区三里新村原公交停车大院内", "image": "", "rank": 26, "time": 2.5, "location": {"lat": 33.50337405443921, "lng": 116.22979846698179}, "feature": {"sight_features": "", "sight_content": ""}}, {"title": "涡阳县图书馆", "address": "团结路68附近", "image": "", "rank": 27, "time": 2, "location": {"lat": 38.06081750880185, "lng": 117.11743131789068}, "feature": {"sight_features": "", "sight_content": ""}}, {"title": "工农兵影剧院", "address": "024县道附近", "image": "", "rank": 28, "time": 2, "location": {"lat": 44.64454580385906, "lng": 126.5906344638957}, "feature": {"sight_features": "", "sight_content": ""}}, {"title": "海浪谷动漫水世界", "address": "涡阳新城大道与华都大道交汇处海浪谷动漫水世界(国强/国邦美家居北侧)", "image": "", "rank": 29, "time": 2, "location": {"lat": 33.49064963813418, "lng": 116.19384069068923}, "feature": {"sight_features": "", "sight_content": ""}}, {"title": "baby欢乐谷", "address": "307省道东150米", "image": "", "rank": 30, "time": 2, "location": {"lat": 40.264498296993764, "lng": 116.57403377994991}, "feature": {"sight_features": "", "sight_content": ""}}, {"title": "高炉镇", "address": "安徽省涡阳县涡河北岸", "image": "", "rank": 31, "time": 2, "location": {"lat": 33.66117343881313, "lng": 116.00815760097859}, "feature": {"sight_features": "", "sight_content": ""}}, {"title": "六一战斗烈士碑", "address": "安徽省涡阳县新兴镇", "image": "", "rank": 32, "time": 2, "location": {"lat": 33.66585598931988, "lng": 116.23868555161242}, "feature": {"sight_features": "", "sight_content": ""}}, {"title": "亳州太清宫老君殿遗址", "address": "安徽省涡阳县太清宫院内", "image": "", "rank": 33, "time": 1.5, "location": {"lat": 33.4985668350044, "lng": 116.22160903515599}, "feature": {"sight_features": "", "sight_content": ""}}, {"title": "亳州六一战斗革命烈士纪念碑 Boz...", "address": "安徽省涡阳县新兴镇", "image": "", "rank": 34, "time": 1.5, "location": {"lat": 33.66585598931988, "lng": 116.23868555161242}, "feature": {"sight_features": "", "sight_content": ""}}, {"title": "亳州柘王宫遗址", "address": "安徽省涡阳县店集镇", "image": "", "rank": 35, "time": 1.5, "location": {"lat": 33.3924257562976, "lng": 116.0230028532093}, "feature": {"sight_features": "", "sight_content": ""}}, {"title": "亳州漆园旧址", "address": "安徽省涡阳县涡河", "image": "", "rank": 36, "time": 1.5, "location": {"lat": 33.66117343881313, "lng": 116.00815760097859}, "feature": {"sight_features": "", "sight_content": ""}}, {"title": "亳州高炉古镇", "address": "安徽省涡阳县高炉镇", "image": "", "rank": 37, "time": 1.5, "location": {"lat": 33.48871030881207, "lng": 116.33038135854402}, "feature": {"sight_features": "", "sight_content": ""}}, {"title": "月亮湾网吧(涡阳县妇幼保健所南)", "address": "亳州市-涡阳县-城关街道安徽省涡阳工业园区安徽省涡阳县城关镇王土楼", "image": "", "rank": 38, "time": 2, "location": {"lat": 33.516934394105554, "lng": 116.19382513563102}, "feature": {"sight_features": "", "sight_content": ""}}]}