{"cityName": "固始", "days": null, "cityImage": "", "spots": [{"title": "西九华山风景区", "address": "信阳市固始县陈淋子镇", "image": "", "rank": 1, "time": 7.5, "location": {"lat": 31.85414278404286, "lng": 115.88121875183852}, "feature": {"sight_features": "特色1 集“茶、竹、禅”为一体的生态旅游胜地 特色2 以万亩茶园、竹海、森林、湖泊和峡谷瀑布群为主体 特色3 景区以佛教文化为内涵，以豫南民俗为基调", "sight_content": "西九华山旅游风景区位于河南省固始县陈淋子镇境内，观赏面积120平方公里，目前已开发多个景区、近百个景点，是中原地区集“茶、竹、禅”为一体的生态旅游胜地。\n西九华山旅游风景区森林覆盖率达95%以上，并有多处原始森林；整个景区主要以万亩茶园、竹海、森林、湖泊和峡谷瀑布群为主体，以佛教文化为内涵，以豫南民俗为基调。\n\n目前西九华已开放迎宾的景区有禅文化景区、茶文化景区、竹文化景区、民俗体验区、山水游览区，以及旅游服务区。禅文化景区包括，妙高禅寺、鹿鸣庵、高增塔林、登山天梯、寻根楼等景点，其中妙高寺始建于隋，传承千余年，是豫东南地区最有影响的佛教圣地；茶文化景区以万亩茶园为背景，以中国十大名茶之一信阳毛尖为载体，以妙高寺佛茶场、茶艺长廊、茶竹文化苑为体验场所，向游客展现悠久的豫南茶文化。西九华山的竹海是豫南地区的一大奇观，随处可见的一片片竹林，掩映着西九华山的农舍、水田，勾画出一幅幅人间绝美的田园画卷。禅竹茶，山水情；名山之外有胜景，九华更在九华西。西九华山旅游风景区期待您的光临！\n\n长江河漂流项目位于留梦河谷南面长江河中游，全长18公里，河水平日清澈见底，几乎没有枯水期，而到了夏时雨季，则白浪滔滔，起伏跌宕，蔚为壮观。\n激情穿越、仙境畅游—西九华山长江河漂流\n河南省境内知名的长江河系天然水域，四季水量丰沛，水流湍急。而“豫南第一漂”的西九华山长江河漂流就位于留梦河谷南面长江河中游。河水平日清澈见底，几乎没有枯水期，夏雨时节，更是白浪滔滔，起伏跌宕，蔚为壮观。\n长江河漂流河道全长12公里，河流所经之所有怪石林立，如刀削斧砍的峭壁；亦有山川开阔，沙滩莹莹的浅滩。河草萋萋，河鱼草虾深游浅出，怡然自得。清澈的溪水散发着自然灵气，让人置身于仙境一般。\n勇敢者，操桨弄舟，中流击水，作怒涛搏击，虽有惊而无险，可充分领略大自然的雄浑壮阔，锻炼体魄；探险者，穿山破浪，漂于险境，忽现于浪尖，忽没于水中，只为征服自然。桨起桨落，水花四溅，一路欢笑一路尖叫,欢声不绝，深深领略“激情穿越、仙境畅游”的独有神韵。\n就在这个夏季，还等什么，快快来西九华山风景区尽情享受吧！"}}, {"title": "华阳湖生态旅游风景区", "address": "信阳市固始县武庙集乡", "image": "", "rank": 2, "time": 2, "location": {"lat": 31.87201372676249, "lng": 115.75034547817499}, "feature": {"sight_features": "", "sight_content": ""}}, {"title": "安山森林公园", "address": "信阳市固始县城东20公里泉河铺乡", "image": "", "rank": 3, "time": 2, "location": {"lat": 32.2009833767325, "lng": 115.87115122010674}, "feature": {"sight_features": "", "sight_content": ""}}, {"title": "西九华山长江河漂流", "address": "信阳市固始县陈淋子镇西九华山风景区", "image": "", "rank": 4, "time": 2, "location": {"lat": 31.80706392758619, "lng": 115.81873523553179}, "feature": {"sight_features": "", "sight_content": ""}}, {"title": "樊家生态园", "address": "信合大道 外国语中学东300米", "image": "", "rank": 5, "time": 2, "location": {"lat": 39.15112745445908, "lng": 117.15158337614203}, "feature": {"sight_features": "", "sight_content": ""}}, {"title": "马岗乡水稻育秧基地", "address": "216省道附近", "image": "", "rank": 6, "time": 2, "location": {"lat": 40.32216149734673, "lng": 116.0541317406228}, "feature": {"sight_features": "", "sight_content": ""}}, {"title": "生态园垂钓中心", "address": "祖师庙镇339省道生态园垂钓中心", "image": "", "rank": 7, "time": 2, "location": {"lat": 31.96546456705762, "lng": 119.01929602729778}, "feature": {"sight_features": "", "sight_content": ""}}, {"title": "陈元光祖祠", "address": "河南固始县陈集乡 465221", "image": "", "rank": 8, "time": 2, "location": {"lat": 32.286916149577706, "lng": 115.88530384375534}, "feature": {"sight_features": "", "sight_content": ""}}, {"title": "番国故城遗址", "address": "河南固始县城关镇 465200", "image": "", "rank": 9, "time": 2, "location": {"lat": 32.190028706121765, "lng": 115.69253328257106}, "feature": {"sight_features": "", "sight_content": ""}}, {"title": "西九华山水上乐园", "address": "武庙集镇锁口村", "image": "", "rank": 10, "time": 2, "location": {"lat": 31.829069208393257, "lng": 115.74486321666458}, "feature": {"sight_features": "", "sight_content": ""}}, {"title": "儿童游乐园", "address": "河南省信阳市固始县建设北路", "image": "", "rank": 11, "time": 2, "location": {"lat": 31.84403991306561, "lng": 115.8884072763939}, "feature": {"sight_features": "", "sight_content": ""}}, {"title": "大别山竹筏漂", "address": "方集镇幸福大道187号", "image": "", "rank": 12, "time": 2, "location": {"lat": 32.24804005285022, "lng": 112.9385372315274}, "feature": {"sight_features": "", "sight_content": ""}}, {"title": "固始县小南海观音寺", "address": "蓼东路小南海48号", "image": "", "rank": 13, "time": 2, "location": {"lat": 29.819515957910678, "lng": 118.43838513892955}, "feature": {"sight_features": "", "sight_content": ""}}, {"title": "抗日民族英雄金振中纪念馆", "address": "光明路与蓼北路交叉口西南100米", "image": "", "rank": 14, "time": 2, "location": {"lat": 32.190230499609214, "lng": 115.66814311838138}, "feature": {"sight_features": "", "sight_content": ""}}, {"title": "鹿鸣庵", "address": "妙高寺附近", "image": "", "rank": 15, "time": 2, "location": {"lat": 25.104014864950248, "lng": 102.63812550358739}, "feature": {"sight_features": "", "sight_content": ""}}, {"title": "曹祠堂", "address": "信阳市固始县", "image": "", "rank": 16, "time": 2, "location": {"lat": 32.17417437962212, "lng": 115.66048788818134}, "feature": {"sight_features": "", "sight_content": ""}}, {"title": "朱祠堂", "address": "信阳市固始县三三九省道", "image": "", "rank": 17, "time": 2, "location": {"lat": 31.897647562674063, "lng": 115.70543963488393}, "feature": {"sight_features": "", "sight_content": ""}}, {"title": "固始树袋熊室内儿童乐园", "address": "河南省信阳市固始县幸福路128号", "image": "", "rank": 18, "time": 2, "location": {"lat": 32.183798636650565, "lng": 115.67136734436527}, "feature": {"sight_features": "", "sight_content": ""}}, {"title": "王祠堂", "address": "信阳市固始县草方路", "image": "", "rank": 19, "time": 2, "location": {"lat": 32.07308517557189, "lng": 115.58913301208194}, "feature": {"sight_features": "", "sight_content": ""}}, {"title": "固始八景长廊", "address": "100县道附近", "image": "", "rank": 20, "time": 2, "location": {"lat": 47.23919248147709, "lng": 132.14578627032506}, "feature": {"sight_features": "", "sight_content": ""}}, {"title": "秀水公园恐怖城", "address": "幸福路与蓼城大道交叉口西南200米", "image": "", "rank": 21, "time": 2, "location": {"lat": 32.1819946742316, "lng": 115.66313228760261}, "feature": {"sight_features": "", "sight_content": ""}}, {"title": "书法展览馆", "address": "京玉花园北侧", "image": "", "rank": 22, "time": 2, "location": {"lat": 32.19010591549853, "lng": 115.66327471034799}, "feature": {"sight_features": "", "sight_content": ""}}, {"title": "固始博物馆", "address": "蓼城大道固始博物馆", "image": "", "rank": 23, "time": 2.5, "location": {"lat": 32.173307609130056, "lng": 115.66239898644193}, "feature": {"sight_features": "", "sight_content": ""}}, {"title": "迪士尼水上乐园", "address": "湖滨路1号", "image": "", "rank": 24, "time": 2, "location": {"lat": 32.207635421621866, "lng": 118.74179157898595}, "feature": {"sight_features": "", "sight_content": ""}}, {"title": "固始水上游乐园", "address": "河南固始县幸福路与廖城大道交叉口,秀水公园湖边", "image": "", "rank": 25, "time": 2, "location": {"lat": 32.18087816466261, "lng": 115.65961514664956}, "feature": {"sight_features": "", "sight_content": ""}}, {"title": "MR.X真人密室逃脱", "address": "光明路实验幼儿园对面", "image": "", "rank": 26, "time": 2, "location": {"lat": 36.58090750638306, "lng": 114.49757636364136}, "feature": {"sight_features": "", "sight_content": ""}}, {"title": "华阳湖水上嘉年华", "address": "辽北路与光明路交叉口", "image": "", "rank": 27, "time": 2, "location": {"lat": 45.62651493858761, "lng": 122.8713494408438}, "feature": {"sight_features": "", "sight_content": ""}}, {"title": "怡和国际影城真人密室逃脱", "address": "怡和大道与永和大道交叉口城南一号风情街", "image": "", "rank": 28, "time": 2, "location": {"lat": 32.14023630767977, "lng": 115.66431848745226}, "feature": {"sight_features": "", "sight_content": ""}}, {"title": "文化馆", "address": "中山大街80-36号", "image": "", "rank": 29, "time": 2, "location": {"lat": 31.3249950638401, "lng": 118.8759421990314}, "feature": {"sight_features": "", "sight_content": ""}}, {"title": "固始县文利青少年图书馆", "address": "北二环路107号", "image": "", "rank": 30, "time": 2, "location": {"lat": 29.608106765728035, "lng": 106.23746312896789}, "feature": {"sight_features": "", "sight_content": ""}}, {"title": "家乡阁农家乐", "address": "北二环路与204省道交叉口东北150米", "image": "", "rank": 31, "time": 2, "location": {"lat": 42.85646580255288, "lng": 124.414086267546}, "feature": {"sight_features": "", "sight_content": ""}}, {"title": "华文图书坊", "address": "040乡道与312国道交叉口北150米", "image": "", "rank": 32, "time": 2, "location": {"lat": 33.34435267821959, "lng": 117.12511555437563}, "feature": {"sight_features": "", "sight_content": ""}}, {"title": "固始县紫苑生态种植专业合作社", "address": "南大桥乡郑堂村新建队", "image": "", "rank": 33, "time": null, "location": {"lat": 32.109923931966144, "lng": 115.73828311622772}, "feature": {"sight_features": "", "sight_content": ""}}, {"title": "青龙岭生态园", "address": "大别山路北50米", "image": "", "rank": 34, "time": 2, "location": {"lat": 39.7682654258696, "lng": 121.56102084634217}, "feature": {"sight_features": "", "sight_content": ""}}, {"title": "南大桥葡萄园", "address": "金光大道与017乡道交叉口西侧", "image": "", "rank": 35, "time": null, "location": {"lat": 29.152733370279464, "lng": 107.108674812036}, "feature": {"sight_features": "", "sight_content": ""}}, {"title": "雷营子", "address": "信阳市-固始县", "image": "", "rank": 36, "time": 2, "location": {"lat": 32.17417437962212, "lng": 115.66048788818134}, "feature": {"sight_features": "", "sight_content": ""}}, {"title": "但老营", "address": "信阳市-固始县", "image": "", "rank": 37, "time": 2, "location": {"lat": 32.17417437962212, "lng": 115.66048788818134}, "feature": {"sight_features": "", "sight_content": ""}}, {"title": "陟围子", "address": "信阳市-固始县-三一二国道", "image": "", "rank": 38, "time": 2, "location": {"lat": 32.18294308637789, "lng": 115.44731127710013}, "feature": {"sight_features": "", "sight_content": ""}}]}