{"cityName": "古田", "days": 2, "cityImage": "", "spots": [{"title": "翠屏湖", "address": "宁德市古田县城东湖溪东门路26号", "image": "", "rank": 1, "time": 2, "location": {"lat": 26.583261752072914, "lng": 118.75257823557276}, "feature": {"sight_features": "", "sight_content": ""}}, {"title": "中国·古田食用菌博物馆", "address": "古田食用菌市场内", "image": "", "rank": 2, "time": 2, "location": {"lat": 26.594205740796436, "lng": 118.77166677850072}, "feature": {"sight_features": "", "sight_content": ""}}, {"title": "古田县博物馆", "address": "六一四路", "image": "", "rank": 3, "time": 2, "location": {"lat": 26.581209286420457, "lng": 118.75364581507776}, "feature": {"sight_features": "", "sight_content": ""}}, {"title": "永安公园", "address": "江阴市新长江路", "image": "", "rank": 4, "time": 3.0, "location": {"lat": 31.903309721952354, "lng": 120.21695050736884}, "feature": {"sight_features": "", "sight_content": ""}}, {"title": "协成店", "address": "龙岩市上杭县古田镇", "image": "", "rank": 5, "time": 2, "location": {"lat": 25.25308951110138, "lng": 116.82551097283813}, "feature": {"sight_features": "", "sight_content": ""}}, {"title": "成翘书院", "address": "龙岩市上杭县古田镇", "image": "", "rank": 6, "time": 2, "location": {"lat": 25.25308951110138, "lng": 116.82551097283813}, "feature": {"sight_features": "", "sight_content": ""}}, {"title": "欢天喜地游乐园", "address": "城西路8号鑫海大厦", "image": "", "rank": 7, "time": 2, "location": {"lat": 26.579668312876127, "lng": 118.74721068049129}, "feature": {"sight_features": "", "sight_content": ""}}, {"title": "福建省古田水库国有防护林场", "address": "湖滨村委会附近", "image": "", "rank": 8, "time": 2, "location": {"lat": 31.583094580297036, "lng": 119.87207191063857}, "feature": {"sight_features": "", "sight_content": ""}}, {"title": "中共古田县国有综合农场委员会", "address": "茶场附近", "image": "", "rank": 9, "time": 2, "location": {"lat": 31.816064624850828, "lng": 118.72914831430607}, "feature": {"sight_features": "", "sight_content": ""}}, {"title": "百果园度假山庄", "address": "翠屏湖其他翠屏湖龙王潭", "image": "", "rank": 10, "time": 2, "location": {"lat": 26.700616989432813, "lng": 118.79118848434545}, "feature": {"sight_features": "", "sight_content": ""}}, {"title": "吉兴堂", "address": "龙岩市上杭县古田镇", "image": "", "rank": 11, "time": 2, "location": {"lat": 25.25308951110138, "lng": 116.82551097283813}, "feature": {"sight_features": "", "sight_content": ""}}, {"title": "松荫堂", "address": "龙岩市上杭县古田镇", "image": "", "rank": 12, "time": 2, "location": {"lat": 25.25308951110138, "lng": 116.82551097283813}, "feature": {"sight_features": "", "sight_content": ""}}, {"title": "中兴堂", "address": "龙岩市上杭县古田镇", "image": "", "rank": 13, "time": 2, "location": {"lat": 25.25308951110138, "lng": 116.82551097283813}, "feature": {"sight_features": "", "sight_content": ""}}, {"title": "主席园", "address": "龙岩市上杭县古田镇", "image": "", "rank": 14, "time": 2, "location": {"lat": 25.25308951110138, "lng": 116.82551097283813}, "feature": {"sight_features": "", "sight_content": ""}}, {"title": "倪公殿", "address": "福建省宁德市古田县城西路中天富宁购物广场东100米", "image": "", "rank": 15, "time": 2, "location": {"lat": 26.579815099846858, "lng": 118.7477238869205}, "feature": {"sight_features": "", "sight_content": ""}}, {"title": "古田崎岭禅寺", "address": "福建省宁德市古田县平湖镇赖墩村", "image": "", "rank": 16, "time": 1.0, "location": {"lat": 26.721713228636013, "lng": 118.79176820221292}, "feature": {"sight_features": "", "sight_content": ""}}, {"title": "古田大悲寺", "address": "吉巷乡黄坑岭", "image": "", "rank": 17, "time": 3.0, "location": {"lat": 26.63153571280259, "lng": 118.86482797680708}, "feature": {"sight_features": "", "sight_content": ""}}, {"title": "古田鹤塘基督教堂", "address": "鹤塘村", "image": "", "rank": 18, "time": 2.0, "location": {"lat": 31.648089540591453, "lng": 115.69706194068088}, "feature": {"sight_features": "", "sight_content": ""}}, {"title": "大王宫", "address": "宁德市古田县", "image": "", "rank": 19, "time": 3.5, "location": {"lat": 26.583261752072914, "lng": 118.75257823557276}, "feature": {"sight_features": "", "sight_content": ""}}, {"title": "丁丁儿童主题游乐园", "address": "平湖镇新街中路112号", "image": "", "rank": 20, "time": 2, "location": {"lat": 26.740400004779026, "lng": 118.81139344675069}, "feature": {"sight_features": "", "sight_content": ""}}, {"title": "文河社区-文化广场", "address": "解放路246号", "image": "", "rank": 21, "time": 2, "location": {"lat": 34.25476837912364, "lng": 117.19944054379624}, "feature": {"sight_features": "", "sight_content": ""}}, {"title": "中心广场", "address": "和平一支路与和平路交叉口东南200米", "image": "", "rank": 22, "time": 1.0, "location": {"lat": 26.5826980098401, "lng": 118.75536408397531}, "feature": {"sight_features": "", "sight_content": ""}}, {"title": "古田翠屏湖景区", "address": "202省道", "image": "", "rank": 23, "time": 2.0, "location": {"lat": 37.77792504283699, "lng": 114.12616671611477}, "feature": {"sight_features": "", "sight_content": ""}}, {"title": "金钟湖山庄", "address": "202省道", "image": "", "rank": 24, "time": 2, "location": {"lat": 37.77792504283699, "lng": 114.12616671611477}, "feature": {"sight_features": "", "sight_content": ""}}, {"title": "中国食用菌博物馆", "address": "古田食用菌市场内", "image": "", "rank": 25, "time": 2, "location": {"lat": 26.594205740796436, "lng": 118.77166677850072}, "feature": {"sight_features": "", "sight_content": ""}}, {"title": "隆华游乐场", "address": "城东街道赖厝村北斗韵达快递旁", "image": "", "rank": 26, "time": 2, "location": {"lat": 34.858750587168814, "lng": 110.46193821867527}, "feature": {"sight_features": "", "sight_content": ""}}, {"title": "3D幻觉艺术画展", "address": "六一四路大洋购物广场二楼(一中路口)", "image": "", "rank": 27, "time": 2, "location": {"lat": 30.628721449893824, "lng": 118.9894189834091}, "feature": {"sight_features": "", "sight_content": ""}}, {"title": "槐门游泳池", "address": "槐门村108号", "image": "", "rank": 28, "time": 2, "location": {"lat": 26.559633091421485, "lng": 118.71551522820991}, "feature": {"sight_features": "", "sight_content": ""}}, {"title": "古田农家乐", "address": "城西街道罗华村倪公殿南门口旁", "image": "", "rank": 29, "time": 2, "location": {"lat": 26.579805550131397, "lng": 118.74757549044352}, "feature": {"sight_features": "", "sight_content": ""}}, {"title": "红人创型馆", "address": "大桥镇新街中路146号", "image": "", "rank": 30, "time": 2, "location": {"lat": 26.617496758628526, "lng": 118.9182102781519}, "feature": {"sight_features": "", "sight_content": ""}}, {"title": "卓洋桂花温泉", "address": "911县道", "image": "", "rank": 31, "time": 2, "location": {"lat": 38.3117719194297, "lng": 112.57573362625179}, "feature": {"sight_features": "", "sight_content": ""}}, {"title": "宁德戚继光公园", "address": "福建省古田县古田县", "image": "", "rank": 32, "time": 2, "location": {"lat": 26.583261752072914, "lng": 118.75257823557276}, "feature": {"sight_features": "", "sight_content": ""}}]}