{"cityName": "固阳", "days": 2, "cityImage": "", "spots": [{"title": "秦长城遗址", "address": "包头市固阳县北约13公里处", "image": "", "rank": 1, "time": 1.5, "location": {"lat": 41.040162852726006, "lng": 110.06643261638642}, "feature": {"sight_features": "", "sight_content": ""}}, {"title": "春坤山", "address": "包头市固阳县东部56公里（近大庙乡）", "image": "", "rank": 2, "time": 2, "location": {"lat": 41.09534370525859, "lng": 110.52451752489175}, "feature": {"sight_features": "", "sight_content": ""}}, {"title": "白云鄂博草原", "address": "包头市固阳县北部至白云鄂博矿区", "image": "", "rank": 3, "time": 2, "location": {"lat": 41.77499523418191, "lng": 109.9796257617352}, "feature": {"sight_features": "", "sight_content": ""}}, {"title": "梅令花海", "address": "包头市固阳县金山镇梅令山北坡", "image": "", "rank": 4, "time": 2, "location": {"lat": 40.98196034785189, "lng": 110.02108462712336}, "feature": {"sight_features": "", "sight_content": ""}}, {"title": "包头市蒙古族民俗博物馆", "address": "青五线五当召", "image": "", "rank": 5, "time": 2.5, "location": {"lat": 40.79741839098, "lng": 110.32110098970186}, "feature": {"sight_features": "", "sight_content": ""}}, {"title": "怀朔古城遗址", "address": "包头市固阳县210省道", "image": "", "rank": 6, "time": 2, "location": {"lat": 41.205378788174315, "lng": 110.04504351304108}, "feature": {"sight_features": "", "sight_content": ""}}, {"title": "吉忽伦图农家乐", "address": "吉忽伦图苏木政府距五当召5公里", "image": "", "rank": 7, "time": null, "location": {"lat": 40.795089929273864, "lng": 110.30438046992244}, "feature": {"sight_features": "", "sight_content": ""}}, {"title": "绿野生态园", "address": "新兴街与211省道交叉口西150米", "image": "", "rank": 8, "time": 2, "location": {"lat": 36.51043423729015, "lng": 114.22165389690889}, "feature": {"sight_features": "", "sight_content": ""}}, {"title": "梅令花海冰雪艺术游园会", "address": "金山镇梅令山北坡", "image": "", "rank": 9, "time": 2, "location": {"lat": 40.98196034785189, "lng": 110.02108462712336}, "feature": {"sight_features": "", "sight_content": ""}}, {"title": "玛拉沁绿色风情园", "address": "打井沟村五当召玉石加工厂对面公路下(杏树湾一桥，河滩旁树林边)", "image": "", "rank": 10, "time": 2, "location": {"lat": 34.15251662929743, "lng": 109.33497361081255}, "feature": {"sight_features": "", "sight_content": ""}}, {"title": "汇金集团生态公园", "address": "包头市固阳县", "image": "", "rank": 11, "time": 2, "location": {"lat": 41.040162852726006, "lng": 110.06643261638642}, "feature": {"sight_features": "", "sight_content": ""}}, {"title": "富民广场", "address": "固阳县富民广场附近", "image": "", "rank": 12, "time": 0.75, "location": {"lat": 41.029789185705745, "lng": 110.07029692187668}, "feature": {"sight_features": "", "sight_content": ""}}, {"title": "固阳县图书馆", "address": "阿拉塔南街", "image": "", "rank": 13, "time": 2, "location": {"lat": 41.04137834542439, "lng": 110.06807313694266}, "feature": {"sight_features": "", "sight_content": ""}}, {"title": "北疆书画院", "address": "211省道", "image": "", "rank": 14, "time": 4.5, "location": {"lat": 36.51043423729015, "lng": 114.22165389690889}, "feature": {"sight_features": "", "sight_content": ""}}, {"title": "人民剧场", "address": "311省道附近", "image": "", "rank": 15, "time": 2, "location": {"lat": 40.42605053578163, "lng": 117.19514906888342}, "feature": {"sight_features": "", "sight_content": ""}}]}