{"cityName": "沽源", "days": 2, "cityImage": "", "spots": [{"title": "闪电湖", "address": "张家口市沽源县275乡道附近", "image": "", "rank": 1, "time": 2.0, "location": {"lat": 41.653547331163104, "lng": 115.85192927880422}, "feature": {"sight_features": "特色1 在高处俯视，湖的形状也极像一道闪电。 特色2 夏季的闪电湖，周围林茂草盛，没有受到任何污染的湖水清澈见底，湖中蓝天白云的倒影更增加了闪电湖的美丽。 特色3 树林中蒙古包点缀，成群结队的牛羊在或近或远的草地上悠闲的吃着草，整个景象呈现出一幅诗情画意。", "sight_content": "夏季的闪电湖，周围林茂草盛，没有受到任何污染的湖水清澈见底，湖中蓝天白云的倒影更增加了闪电湖的美丽。\n树林中蒙古包点缀，成群结队的牛羊在或近或远的草地上悠闲的吃着草，整个景象呈现出一幅诗情画意。"}}, {"title": "滦河神韵", "address": "张家口市沽源县东北二十公里处", "image": "", "rank": 2, "time": 2.0, "location": {"lat": 41.676015876096564, "lng": 115.87506855077466}, "feature": {"sight_features": "", "sight_content": ""}}, {"title": "五花草甸", "address": "张家口市沽源县南8.7公里处（金莲川草原腹地的石头城水库和青年水库之间）", "image": "", "rank": 3, "time": 2.0, "location": {"lat": 41.08737652849517, "lng": 115.69540744877906}, "feature": {"sight_features": "特色1 天下第一草甸。 特色2 华北最美花海，五色花海令人心醉。", "sight_content": "五花草甸位于河北张家口沽源县城南7.5公里处，位居金莲川草原腹地的石头城水库和青年水库之间。 五花草甸内现已发现各种植被630余种。五花草甸天然草场是中国最为典型的原始湿地草原，潺流不息的葫芦河水从草地中流过，滋润着这块肥沃的土地，使草场植被十分繁茂。牧草平均高度达0.8米，草甸内现已发现各种植被170多种，其中以毛莨科植物为主，还有十多种属罕见植物。五色花草甸是迄今为止河北省保存最完好、植被覆盖率最高、最具观赏性的天然草甸。五花草甸以夏秋季节盛开的五种颜色鲜花而得名。\n\n五花草甸内现已发现各种植被630多种，其中以毛莨科植物为主，还有十多种属省内或国内罕见植物，如野罂粟、大叶龙胆、沙参、石竹花、水麦冬等。每年春末夏初的5-6月间，五花草甸内盛开一种粉红色的小花，名叫小花草玉梅。远观整个草甸呈现出一片朦朦胧胧的粉红，置身其中，会感觉到一种无比浪漫的温馨。从盛夏到秋初的6-8月间，五花草甸内又盛开了金莲花和黄花。远观整个草甸呈现出一片高贵典雅的金黄，置身其中，觉得有一种雍荣华贵的荣宠，此时风轻气爽，正值旅游旺季，大批游客来临，在金黄色的海洋中览花赏景、驰骋留影，尽情享受大自然的秀美。到了金秋的8-9月间，五花草甸内的绛紫色婆婆纳花盛开。远观整个五花草甸呈现出一片温柔清雅的绛紫，置身其中，你会感觉到一种温情脉脉的柔情。紫色的婆婆纳花还没有凋零，拳蓼已经开始抽出乳白色的长穗，微风中此起彼伏的白浪像把你带入浩瀚的海洋。晚秋的9-10月间，地榆结出的紫红色果实又覆盖了乳白色的海浪。远观是一片耀眼奔放的紫红，置身五花草甸中则又感觉到有一种硕果累累的收获激情。\n\n五花草甸内有一条小河贯穿南北，曲曲折折，中途汇成一个小水泊。盛夏雨季，河面上涨，水流湍湍，几条小鱼急速游过，泛起道道水波。水泊底部有时有几股暗流汩汩涌出，泛起一圈圈的涟漪，点缀了草甸景色的秀美，带来了神秘和离奇。五花草甸有“天下第一草甸”、“华北最美花海”之美誉，每年的暑期，数千亩的草甸上，盛开着黄色、白色、紫色、粉色等五颜六色的鲜花，组成一幅幅极其美艳的画面。到了7月底8月初，金莲花盛开，遍地金黄，在蓝天白云的映衬下，与周边的山地、河谷、原野、村庄一道，形成坝上独有的草原美景。游人或在栈道上漫步，或在凉亭中小憩，与花香为伴，和美景相融。游览之余，骑快马奔驰，乘越野摩托兜风，或采购一些坝上独有的蘑菇、杂粮，戴上用干枝梅编成的花环，无一不是惬意的选择。"}}, {"title": "天鹅湖景区", "address": "张家口市沽源县北，出县城沿平苏公路北行3公里囫囵淖湖畔处", "image": "", "rank": 4, "time": 7.5, "location": {"lat": 41.676015876096564, "lng": 115.69540744877906}, "feature": {"sight_features": "特色1 国家AAAA级景点", "sight_content": "沽源天鹅湖旅游度假村位于河北省最北端，在沽源县城北两公里囫囵淖湖畔处。这里是内蒙古大草原的腹地，天然淡水湖面，四周青山环绕，湖中碧波荡漾，生态环境良好，吸引上万只天鹅、灰鹤、野鸭和各类水鸟在此栖息，故拟名\"天鹅湖度假村\"，为国家AAAA级景点。\n度假村占地面积25.8平方公里，其中湖面9。5平方公里，蓄水量为3800万立方米，淖心海拔1375公尺，湖周边是垦为农田的低岗梁和广袤的绿色草原，登高眺望，正如一幅双龙戏珠图，翻飞彩舞，龙腾珠滚之意。度假村就座落在湖畔南岸的林荫之中。夏日，这里蓝天、白云、青山碧水，绿草群畜，飞禽走兽。加之环境幽静，空气清新，吸引了历代帝王将相、文人墨客前来消夏，观光旅游，周边众多古遗址及国家级文物单位梳妆楼。傍晚的天鹅湖一片寂静，在这里休闲度假格外的惬意。"}}, {"title": "沽水福源度假村", "address": "张家口市沽源县城闪电湖畔", "image": "", "rank": 5, "time": 2, "location": {"lat": 41.676015876096564, "lng": 115.69540744877906}, "feature": {"sight_features": "特色1 感受沃野苍茫的草原风光", "sight_content": "沽水福源度假村，位于海拔1500米的坝上草原，属于国家aaaa级旅游景区。东依滦河源头“闪电湖”，西接炭山山脉，马可波罗笔下“八百里金莲川”横贯南北。度假村距京286公里，景区面积3万余亩，水面1.2万亩，盛夏季节平均气温17.9℃，典型的草原生态自然风光。一望无际的大草原，一碧万顷的闪电湖，蓝天白云，绿草碧水，群星般的洁白蒙古包交相辉印，构成了一副原生态的人间美景。\n\n夜幕下马头琴，篝火旁烤全羊，编织着草原的歌舞英姿飒爽；淳朴的蒙族兄弟姐妹手捧着洁白的哈达，醇香的马奶酒、嘹亮的迎宾曲，给您初到草原的惊喜！浩瀚的历史长河，流淌着沽源五千年古老的文化，五千年的古老文化塑造了闪电湖的钟灵蜀绣。追溯往昔北魏御夷镇、辽代梳妆楼、金代景明宫、元代查汗脑行宫，清代胭脂马场。现如今沽水福源度假村以其自然秀丽的美景、原始的生态环境，被无数的影视剧组选为外景基地，在此拍摄了《中华文明上下五千年》、《寻秦记》、《母亲是条河》、《甜蜜蜜》、《北京》等影视作品。这里，地肥草茂，沃野苍茫，自然风光美不胜收。可谓春之情、夏之恋、秋之韵、冬之舞。尤其是夏季，更是休闲、度假、商务、拓展的理想之地。"}}, {"title": "沽源塞外庄园", "address": "张家口市沽源县城东６公里", "image": "", "rank": 6, "time": 2.0, "location": {"lat": 41.66038570572087, "lng": 115.80055346373861}, "feature": {"sight_features": "", "sight_content": ""}}, {"title": "闪电河草原度假村", "address": "河北省张家口市沽源县平定堡镇东北10公里处", "image": "", "rank": 7, "time": 2.0, "location": {"lat": 41.67786368916901, "lng": 115.77628429411469}, "feature": {"sight_features": "", "sight_content": ""}}, {"title": "天鹅湖度假村", "address": "张家口市沽源县北，出县城沿平苏公路北行3公里囫囵淖湖畔处", "image": "", "rank": 8, "time": 2, "location": {"lat": 41.676015876096564, "lng": 115.69540744877906}, "feature": {"sight_features": "", "sight_content": ""}}, {"title": "闪电河风光园", "address": "沽源县", "image": "", "rank": 9, "time": 2, "location": {"lat": 41.676015876096564, "lng": 115.69540744877906}, "feature": {"sight_features": "", "sight_content": ""}}, {"title": "闪电河草原水上乐园", "address": "张家口市沽源县坝上草原闪电河乡三旗村", "image": "", "rank": 10, "time": 2, "location": {"lat": 41.72437375578981, "lng": 115.81456236389546}, "feature": {"sight_features": "", "sight_content": ""}}, {"title": "老掌沟", "address": "张家口市沽源县", "image": "", "rank": 11, "time": 2, "location": {"lat": 41.676015876096564, "lng": 115.69540744877906}, "feature": {"sight_features": "", "sight_content": ""}}, {"title": "张家口坝上闪电湖铁军农家院", "address": "沽源闪电湖景区东行100米三旗村内", "image": "", "rank": 12, "time": 1.5, "location": {"lat": 41.65450365467567, "lng": 115.87082035532299}, "feature": {"sight_features": "", "sight_content": ""}}, {"title": "张家口沽源县坝上草原聚友农家乐", "address": "张家口市沽源五花草甸聚友农家乐", "image": "", "rank": 13, "time": 1.5, "location": {"lat": 41.60126381294578, "lng": 115.72453716356823}, "feature": {"sight_features": "", "sight_content": ""}}, {"title": "沽源安达生态度假村", "address": "沽源东围子东环路", "image": "", "rank": 14, "time": 2.0, "location": {"lat": 41.676015876096564, "lng": 115.69540744877906}, "feature": {"sight_features": "", "sight_content": ""}}, {"title": "白河源", "address": "河北省张家口市沽源县 ‎", "image": "", "rank": 15, "time": 2, "location": {"lat": 41.676015876096564, "lng": 115.69540744877906}, "feature": {"sight_features": "", "sight_content": ""}}, {"title": "好运来农家院", "address": "河北省张家口市沽源县天合永村S241", "image": "", "rank": 16, "time": 2, "location": {"lat": 41.676015876096564, "lng": 115.69540744877906}, "feature": {"sight_features": "", "sight_content": ""}}, {"title": "沽源闪电湖山水人家农家院", "address": "沽源平定堡镇双脑包村", "image": "", "rank": 17, "time": 2.0, "location": {"lat": 41.635849160874066, "lng": 115.8245174143028}, "feature": {"sight_features": "", "sight_content": ""}}, {"title": "肖后梳妆楼", "address": "河北省张家口市沽源县平定堡镇境内", "image": "", "rank": 18, "time": 2, "location": {"lat": 41.67786368916901, "lng": 115.68645374311689}, "feature": {"sight_features": "", "sight_content": ""}}, {"title": "梳妆楼元墓", "address": "河北省沽源县莲花滩乡大南沟村", "image": "", "rank": 19, "time": 2, "location": {"lat": 41.40318019203904, "lng": 115.5365667751308}, "feature": {"sight_features": "", "sight_content": ""}}, {"title": "九连城城址", "address": "河北省,沽源县,县内, 076550", "image": "", "rank": 20, "time": 2, "location": {"lat": 41.676015876096564, "lng": 115.69540744877906}, "feature": {"sight_features": "", "sight_content": ""}}, {"title": "桦皮沟", "address": "桦皮沟河北", "image": "", "rank": 21, "time": 2, "location": {"lat": 41.84466473871567, "lng": 117.56876396750478}, "feature": {"sight_features": "", "sight_content": ""}}, {"title": "采风庄园", "address": "张家口市沽源县闪电河乡蒙古营村", "image": "", "rank": 22, "time": 2, "location": {"lat": 41.72437375578981, "lng": 115.81456236389546}, "feature": {"sight_features": "", "sight_content": ""}}, {"title": "三旗公社", "address": "张家口市沽源县闪电河乡三旗村", "image": "", "rank": 23, "time": 2, "location": {"lat": 41.6545936610838, "lng": 115.84565557241069}, "feature": {"sight_features": "", "sight_content": ""}}, {"title": "环湖休闲庄园", "address": "天鹅湖度假村", "image": "", "rank": 24, "time": 2, "location": {"lat": 41.712736894280845, "lng": 115.71262857445647}, "feature": {"sight_features": "", "sight_content": ""}}, {"title": "静园生态园", "address": "新城北街", "image": "", "rank": 25, "time": 2, "location": {"lat": 37.87361108639604, "lng": 112.58863799510611}, "feature": {"sight_features": "", "sight_content": ""}}, {"title": "沽源大红灯笼生态园", "address": "南外环路水城大桥东行800米路北", "image": "", "rank": 26, "time": 2.0, "location": {"lat": 41.65724876121172, "lng": 115.71084925671587}, "feature": {"sight_features": "", "sight_content": ""}}, {"title": "沽源志广农家乐", "address": "梁东村", "image": "", "rank": 27, "time": 2, "location": {"lat": 41.09684892359262, "lng": 114.8173830200287}, "feature": {"sight_features": "", "sight_content": ""}}, {"title": "老官庄园", "address": "张老倌营子村", "image": "", "rank": 28, "time": 2, "location": {"lat": 41.79771338057483, "lng": 115.78187382947249}, "feature": {"sight_features": "", "sight_content": ""}}, {"title": "冰山庄园", "address": "丰源店乡盘道沟村冰山梁北麓", "image": "", "rank": 29, "time": 2, "location": {"lat": 41.35032213241279, "lng": 115.8181547927316}, "feature": {"sight_features": "", "sight_content": ""}}, {"title": "草原湖度假村", "address": "闪电河乡西河沿", "image": "", "rank": 30, "time": 2, "location": {"lat": 41.71055807592652, "lng": 115.79021303128442}, "feature": {"sight_features": "", "sight_content": ""}}, {"title": "库沦天鹅湖", "address": "城北两公里囫囵淖湖畔处", "image": "", "rank": 31, "time": 2, "location": {"lat": 36.656293630836586, "lng": 101.77240488175582}, "feature": {"sight_features": "", "sight_content": ""}}, {"title": "闪电湖景区-摩托车停靠站", "address": "张家口市沽源县闪电湖景区内", "image": "", "rank": 32, "time": 2, "location": {"lat": 41.6576059083234, "lng": 115.82559413047352}, "feature": {"sight_features": "", "sight_content": ""}}, {"title": "沽源县滨湖公园", "address": "中环东路", "image": "", "rank": 33, "time": 2, "location": {"lat": 41.66654275996076, "lng": 115.71613406438706}, "feature": {"sight_features": "", "sight_content": ""}}, {"title": "淘气堡儿童乐园", "address": "桥西路与融金街交叉口南150米", "image": "", "rank": 34, "time": 2, "location": {"lat": 41.675127497481895, "lng": 115.69930117287647}, "feature": {"sight_features": "", "sight_content": ""}}, {"title": "道德大讲堂", "address": "张家口市沽源县城东8公里闪电湖水库沽水福源度假村内", "image": "", "rank": 35, "time": 2, "location": {"lat": 41.676015876096564, "lng": 115.69540744877906}, "feature": {"sight_features": "", "sight_content": ""}}, {"title": "京北湿地草原", "address": "河北省张家口市沽源县闪电湖景区", "image": "", "rank": 36, "time": 2, "location": {"lat": 41.6576059083234, "lng": 115.82559413047352}, "feature": {"sight_features": "", "sight_content": ""}}, {"title": "沽源县文体广场", "address": "沽源县新城南街", "image": "", "rank": 37, "time": 2, "location": {"lat": 41.67894928227026, "lng": 115.68723753982691}, "feature": {"sight_features": "", "sight_content": ""}}, {"title": "沽源金兑度假村", "address": "河北省沽源县滦河神韵风景区", "image": "", "rank": 38, "time": 2, "location": {"lat": 41.78200968824703, "lng": 115.79477103254375}, "feature": {"sight_features": "", "sight_content": ""}}, {"title": "鸿福苑度假村", "address": "闪电河水库南行200米双脑包村(临近闪电河国家湿地公园)", "image": "", "rank": 39, "time": 2, "location": {"lat": 41.65891282722801, "lng": 115.84377176646811}, "feature": {"sight_features": "", "sight_content": ""}}, {"title": "张家口沽源濡水田源度假村", "address": "沽源闪电河双脑包村", "image": "", "rank": 40, "time": null, "location": {"lat": 41.635849160874066, "lng": 115.8245174143028}, "feature": {"sight_features": "", "sight_content": ""}}, {"title": "沽源画里乡村农家院", "address": "张家口沽源县天鹅湖北岸梁东村", "image": "", "rank": 41, "time": 2, "location": {"lat": 41.71271533556576, "lng": 115.71256436537523}, "feature": {"sight_features": "", "sight_content": ""}}, {"title": "万丰度假村", "address": "河北省张家口市沽源县闪电湖西岸1公里处塞外庄园正对面", "image": "", "rank": 42, "time": 2, "location": {"lat": 41.66009132088246, "lng": 115.80197379434317}, "feature": {"sight_features": "", "sight_content": ""}}, {"title": "滦河湖湿地度假村", "address": "张家口市沽源县滦河神韵风景区水泉村", "image": "", "rank": 43, "time": 2, "location": {"lat": 41.78200968824703, "lng": 115.79477103254375}, "feature": {"sight_features": "", "sight_content": ""}}, {"title": "沽源坝上草原度假山庄", "address": "沽源闪电湖水库南行500米(双脑包村内)", "image": "", "rank": 44, "time": 2, "location": {"lat": 41.635849160874066, "lng": 115.8245174143028}, "feature": {"sight_features": "", "sight_content": ""}}, {"title": "宏宝阁庄园", "address": "闪电河乡蝈蝈山村村口处，三农驿农家乐西行100米路南", "image": "", "rank": 45, "time": 2, "location": {"lat": 30.69021895889454, "lng": 104.09295833956162}, "feature": {"sight_features": "", "sight_content": ""}}, {"title": "博豪庄园", "address": "闪电河乡黑山嘴牧场", "image": "", "rank": 46, "time": 2, "location": {"lat": 41.63648462040712, "lng": 115.90364492194595}, "feature": {"sight_features": "", "sight_content": ""}}, {"title": "博豪庄园", "address": "闪电河乡政府东南400米", "image": "", "rank": 47, "time": 2, "location": {"lat": 41.71363110479961, "lng": 115.81965678379854}, "feature": {"sight_features": "", "sight_content": ""}}, {"title": "草原神画", "address": "张家口市沽源县闪电河乡黑山嘴村", "image": "", "rank": 48, "time": 2, "location": {"lat": 41.72437375578981, "lng": 115.81456236389546}, "feature": {"sight_features": "", "sight_content": "草原神画景区位于张家口沽源县与承德大滩交界处，建设面积约166万平方米，自然草原200万平方米，分为南北两大景区。北景区以有花海栈道、小动物喂养、大型拓展训练基地、采摘园，景区服务中心等项目设施。南区建设完成音乐广场、蒙古大营、餐厅、草原部落、动物园、捡野鸡蛋、农耕体验馆、滑草、射箭、滑翔机、热气球。"}}, {"title": "张家口弘基马铃薯良种繁育中心", "address": "张家口市-沽源县-x402", "image": "", "rank": 49, "time": 1.5, "location": {"lat": 41.676015876096564, "lng": 115.69540744877906}, "feature": {"sight_features": "", "sight_content": ""}}, {"title": "沽源山水湾湾农家院", "address": "沽源滦河神韵风景区转佛庙东行400米", "image": "", "rank": 50, "time": 2, "location": {"lat": 41.78200968824703, "lng": 115.79477103254375}, "feature": {"sight_features": "", "sight_content": ""}}, {"title": "沽源县隆苑休闲度假村", "address": "闪电河乡黑山嘴村", "image": "", "rank": 51, "time": 2, "location": {"lat": 41.72437375578981, "lng": 115.81456236389546}, "feature": {"sight_features": "", "sight_content": ""}}]}