{"cityName": "固镇", "days": 2, "cityImage": "", "spots": [{"title": "雅坤生态园", "address": "湖沟镇杨圩村", "image": "", "rank": 1, "time": 2, "location": {"lat": 33.30521157747886, "lng": 117.04140595381769}, "feature": {"sight_features": "", "sight_content": ""}}, {"title": "固镇县图书馆", "address": "谷阳路191号", "image": "", "rank": 2, "time": 2, "location": {"lat": 33.32541576934191, "lng": 117.3242883012007}, "feature": {"sight_features": "", "sight_content": ""}}, {"title": "谷阳城遗址公园", "address": "安徽省蚌埠市固镇县前台村附近", "image": "", "rank": 3, "time": 2, "location": {"lat": 33.2975833684643, "lng": 117.33330491519771}, "feature": {"sight_features": "", "sight_content": ""}}, {"title": "站下广场", "address": "交通路与浍河路交叉口西100米", "image": "", "rank": 4, "time": 2, "location": {"lat": 33.323721536051046, "lng": 117.31460533136281}, "feature": {"sight_features": "", "sight_content": ""}}, {"title": "濠城I号汉墓", "address": "安徽省固镇县濠城镇濠城村 233707", "image": "", "rank": 5, "time": 1.0, "location": {"lat": 33.32238244629983, "lng": 117.56273146602203}, "feature": {"sight_features": "", "sight_content": ""}}, {"title": "固镇站-站前广场", "address": "城关镇固镇站", "image": "", "rank": 6, "time": 2, "location": {"lat": 33.321752534608954, "lng": 117.31372411252194}, "feature": {"sight_features": "", "sight_content": ""}}, {"title": "儿童乐园", "address": "蚌埠市固镇县", "image": "", "rank": 7, "time": 2, "location": {"lat": 33.323274297744135, "lng": 117.32354764830771}, "feature": {"sight_features": "", "sight_content": ""}}, {"title": "津广度假村", "address": "纬三路1号附近", "image": "", "rank": 8, "time": 2, "location": {"lat": 34.558590260775276, "lng": 119.21203834396023}, "feature": {"sight_features": "", "sight_content": ""}}, {"title": "香雪度假村", "address": "安徽省蚌埠市固镇县新马桥干校内", "image": "", "rank": 9, "time": 2, "location": {"lat": 33.20196514605379, "lng": 117.3557813392103}, "feature": {"sight_features": "", "sight_content": ""}}, {"title": "蔡家梨园", "address": "磨盘张街道(龙凤商贸城)向北200米(蚌埠至固镇101省道边)", "image": "", "rank": 10, "time": 2, "location": {"lat": 33.12583223760463, "lng": 117.39027405108054}, "feature": {"sight_features": "", "sight_content": ""}}, {"title": "谷堆湖农场", "address": "017县道西100米", "image": "", "rank": 11, "time": 2, "location": {"lat": 22.526267027237505, "lng": 113.3829636090835}, "feature": {"sight_features": "", "sight_content": ""}}, {"title": "固镇县金香丝粉丝专业合作社", "address": "侧220米处", "image": "", "rank": 12, "time": 2, "location": {"lat": 33.323274297744135, "lng": 117.32354764830771}, "feature": {"sight_features": "", "sight_content": ""}}, {"title": "薰衣草の恋", "address": "孟杨路附近", "image": "", "rank": 13, "time": 2, "location": {"lat": 34.29728032763418, "lng": 108.05286835537511}, "feature": {"sight_features": "", "sight_content": ""}}, {"title": "d9街区密室逃脱", "address": "浍河路177号金润万家西30米第二排(宝岛后内街,可心百货后面)", "image": "", "rank": 14, "time": 2, "location": {"lat": 33.32189075160581, "lng": 117.32342736519996}, "feature": {"sight_features": "", "sight_content": ""}}, {"title": "鲜桃采摘园", "address": "329省道濠城镇华巷街东200米路南", "image": "", "rank": 15, "time": 2, "location": {"lat": 33.31705939285519, "lng": 117.48602209979477}, "feature": {"sight_features": "", "sight_content": ""}}, {"title": "固镇县黄桥路步行街", "address": "安徽省固镇县浍河路", "image": "", "rank": 16, "time": 2, "location": {"lat": 33.32073598251955, "lng": 117.32947235312926}, "feature": {"sight_features": "", "sight_content": ""}}, {"title": "固镇城西公园", "address": "蚌宿路", "image": "", "rank": 17, "time": 2, "location": {"lat": 33.577452571168635, "lng": 117.05561841808783}, "feature": {"sight_features": "", "sight_content": ""}}]}