{"cityName": "海安", "days": 2, "cityImage": "", "spots": [{"title": "江淮文化园", "address": "南通市海安县凤山北路33号", "image": "", "rank": 1, "time": 2.5, "location": {"lat": 32.52913352083013, "lng": 120.43608921523844}, "feature": {"sight_features": "特色1 享受历史文明传承，欣赏现代艺术成果。", "sight_content": "江淮文化园景区是由海安县人民政府和海安县苏中植物园开发有限公司按国家5A级旅游景区标准共同投资打造的以江淮历史文化为底蕴的人文景观项目。该项目计划投资5亿元，花十年时间全部建成，到目前为止已建设九年时间，投入4亿元，一期工程基本建成，并对外开放。\n海安是长江文化和淮河文化相交融的地方，海安青墩遗址的发现，轰动考古界，把海安的历史向前推移3000年，由此，青墩文化被公认为中华文化的重要组成部分——江淮文化的起源。悠久的历史古老的文明，让江淮大地上的海安更具风采，江淮文化园景区也就在海安应运而生。\n江淮文化园景区占地260多亩，中国古典园林景观，三万平米湖面环绕，以江淮历史文化为底蕴的人文景观。整个园区由四大景区组成，即白龙故里景区、先贤景区、凤山书院景区和中国名人艺术馆群景区。白龙故里景区包括数万平米的白龙湖，数十座亭、台、楼、阁、榭、轩、廊、桥，以及几百种奇花异草、古树、奇石，特别是国家一级珍稀保护树种——红豆杉，在我们景区已成功移植成林；先贤景区恢复的是海安古建筑，为与海安结缘的三位历史贤人文天祥、范仲淹、胡瑗（安定）而建，是纪念先贤，启发教育后人，发扬传承中华传统文化的地方；凤山书院景区亦是海安古景观的恢复，是历代先贤大儒、学者敦教化倡文明的重要场所。\n中国名人艺术馆群景区则由数座古式建筑和十一栋欧式建筑结合而成，作为国内外有影响的知名艺术家办培训、搞创作、办展览的基地，已有十多位艺术大家、名家走进了江淮文化园景区，并陆续布展、开馆。目前有六家艺术馆开馆，分别是侯康乙赏石艺术馆、刘万年艺术馆、吴向明国礼艺术馆、胡建雄书法艺术馆、王建梓艺术馆、罗杨书法艺术馆。"}}, {"title": "海安县博物馆", "address": "南通市海安县宁海北路58-8号", "image": "", "rank": 2, "time": 1.0, "location": {"lat": 32.55324580889161, "lng": 120.46992158093167}, "feature": {"sight_features": "", "sight_content": ""}}, {"title": "七分甜手工烘焙", "address": "南通海安县海安镇人民东路20号海天国际1018号", "image": "", "rank": 3, "time": 2, "location": {"lat": 32.553699005698036, "lng": 120.47456276617953}, "feature": {"sight_features": "", "sight_content": ""}}, {"title": "中洋河豚庄园", "address": "南通市海安县滨海新区川港路68号", "image": "", "rank": 4, "time": 2, "location": {"lat": 32.60486122698927, "lng": 120.87130416286693}, "feature": {"sight_features": "特色1 中洋河豚庄园是全球唯一的生态珍惜鱼类全产业景区，是全国首家全品类珍稀鱼类生态养殖基地。", "sight_content": "中洋河豚庄园是全球唯一的生态珍惜鱼类全产业景区，是全国首家全品类珍稀鱼类生态养殖基地。\n是及珍稀鱼类的工厂化养殖、观赏、品尝、购物、休闲娱乐，鱼类知识普及为一体的特色景区。"}}, {"title": "了凡庄园", "address": "南通市海安县老坝港滨海新区金港大道288号", "image": "", "rank": 5, "time": 2, "location": {"lat": 32.63897225172977, "lng": 120.96342300521913}, "feature": {"sight_features": "", "sight_content": ""}}, {"title": "谜城密室逃脱", "address": "中大街12幢313室", "image": "", "rank": 6, "time": 2, "location": {"lat": 32.551554081761836, "lng": 120.46715988616674}, "feature": {"sight_features": "", "sight_content": ""}}, {"title": "奥体新城.万豪国际.水上乐园", "address": "永安路与安平路交叉口(资丰市场南侧奥体售楼中心向西200米)", "image": "", "rank": 7, "time": 2, "location": {"lat": 36.18397837971494, "lng": 120.40484756892411}, "feature": {"sight_features": "", "sight_content": ""}}, {"title": "江苏农垦海安农场生态葡萄农庄", "address": "313县道北50米", "image": "", "rank": 8, "time": 2, "location": {"lat": 41.20783012676974, "lng": 118.51884433602535}, "feature": {"sight_features": "", "sight_content": ""}}, {"title": "海安县李堡镇法制图书室", "address": "包场路8号附近", "image": "", "rank": 9, "time": 2, "location": {"lat": 32.56692926759739, "lng": 120.69865958327752}, "feature": {"sight_features": "", "sight_content": ""}}, {"title": "海安聚丰草莓园", "address": "永安南路112号附近", "image": "", "rank": 10, "time": 1.0, "location": {"lat": 36.811257291475115, "lng": 117.84345971308366}, "feature": {"sight_features": "", "sight_content": ""}}, {"title": "纺织一厂影剧院", "address": "396乡道附近双章线", "image": "", "rank": 11, "time": 2, "location": {"lat": 32.53116633488768, "lng": 120.35394724043952}, "feature": {"sight_features": "", "sight_content": ""}}, {"title": "曲塘镇佳禾果园草莓采摘", "address": "曲塘镇启扬高速公路南100米", "image": "", "rank": 12, "time": 2, "location": {"lat": 32.47992527788449, "lng": 120.42478330198823}, "feature": {"sight_features": "", "sight_content": ""}}, {"title": "果篮网农庄", "address": "白甸镇白周公路西周段果篮网农庄", "image": "", "rank": 13, "time": 2, "location": {"lat": 32.67177057187412, "lng": 120.30883893974755}, "feature": {"sight_features": "", "sight_content": ""}}, {"title": "垂钓园", "address": "550乡道附近", "image": "", "rank": 14, "time": 2, "location": {"lat": 32.508995552762585, "lng": 120.66323652244145}, "feature": {"sight_features": "", "sight_content": ""}}, {"title": "西园社区健身广场", "address": "江苏省南通市海安县海安镇海胡南线恒炫电气西区西北", "image": "", "rank": 15, "time": 2, "location": {"lat": 32.532346518877134, "lng": 120.43228990664333}, "feature": {"sight_features": "", "sight_content": ""}}, {"title": "慧源文化广场", "address": "江苏省南通市海安县迎宾大道136号(沿海大市场B区西北400米)", "image": "", "rank": 16, "time": 2, "location": {"lat": 32.54810066753912, "lng": 120.51071592481883}, "feature": {"sight_features": "", "sight_content": ""}}, {"title": "雅周影剧院", "address": "雅周镇", "image": "", "rank": 17, "time": 2, "location": {"lat": 32.39019143788215, "lng": 120.36867406097011}, "feature": {"sight_features": "", "sight_content": ""}}, {"title": "孙庄影剧院", "address": "340乡道", "image": "", "rank": 18, "time": 2, "location": {"lat": 32.44008622835508, "lng": 120.39389488646823}, "feature": {"sight_features": "", "sight_content": ""}}, {"title": "曲塘大剧院", "address": "中心南街与417乡道交叉口西北50米", "image": "", "rank": 19, "time": 2, "location": {"lat": 32.500615661673805, "lng": 120.33170968754001}, "feature": {"sight_features": "", "sight_content": ""}}, {"title": "白甸镇影剧院", "address": "白甸派出所附近运盐路", "image": "", "rank": 20, "time": 2, "location": {"lat": 32.673678701244974, "lng": 120.26932596309409}, "feature": {"sight_features": "", "sight_content": ""}}, {"title": "曲塘镇刘圩村法律图书室", "address": "双楼路", "image": "", "rank": 21, "time": 2, "location": {"lat": 31.084977313618143, "lng": 121.62157936850039}, "feature": {"sight_features": "", "sight_content": ""}}, {"title": "宏宇休闲农庄有限公司", "address": "221省道", "image": "", "rank": 22, "time": 2, "location": {"lat": 40.48669646295935, "lng": 116.04420851897628}, "feature": {"sight_features": "", "sight_content": ""}}, {"title": "刘景韶平倭纪念馆", "address": "164乡道", "image": "", "rank": 23, "time": 2, "location": {"lat": 24.256137514468495, "lng": 116.8591487466824}, "feature": {"sight_features": "", "sight_content": ""}}, {"title": "海安石板街", "address": "江苏省海安县海安县中大街 206600", "image": "", "rank": 24, "time": 1.0, "location": {"lat": 32.5518178148725, "lng": 120.46900218410663}, "feature": {"sight_features": "", "sight_content": ""}}, {"title": "七星湖游乐园-摩天轮", "address": "江苏省南通市海安县城东镇七星湖生态园七星湖游乐园", "image": "", "rank": 25, "time": 2, "location": {"lat": 32.53144983426623, "lng": 120.50720983751508}, "feature": {"sight_features": "", "sight_content": ""}}, {"title": "大耳朵儿童主题乐园", "address": "江苏省南通市海安县海安镇黄海东路民政局婚姻登记处附近", "image": "", "rank": 26, "time": 2, "location": {"lat": 32.52428549503334, "lng": 120.47569537581737}, "feature": {"sight_features": "", "sight_content": ""}}, {"title": "海安革命烈士纪念馆", "address": "宁海南路80号附近", "image": "", "rank": 27, "time": 1.0, "location": {"lat": 32.53781924536453, "lng": 120.48316471786161}, "feature": {"sight_features": "", "sight_content": ""}}, {"title": "开心玩国", "address": "江苏省南通市海安县人民东路60号", "image": "", "rank": 28, "time": 2, "location": {"lat": 32.55625589902456, "lng": 120.4804749863511}, "feature": {"sight_features": "", "sight_content": ""}}, {"title": "庙井桥土地庙", "address": "江苏省南通市海安县城东镇殷家庄开发大道西500米", "image": "", "rank": 29, "time": 2, "location": {"lat": 32.54889613494325, "lng": 120.5356166068095}, "feature": {"sight_features": "", "sight_content": ""}}, {"title": "缤纷可迪亲子游乐园", "address": "江苏省南通市海安县中坝南路27号贵都购物广场2层", "image": "", "rank": 30, "time": 2, "location": {"lat": 32.53632593748814, "lng": 120.47334936653735}, "feature": {"sight_features": "", "sight_content": ""}}, {"title": "VR超级队长", "address": "南通市海安县宁海南路15号文峰大世界F6", "image": "", "rank": 31, "time": 2, "location": {"lat": 32.544620466567515, "lng": 120.47505499268371}, "feature": {"sight_features": "", "sight_content": ""}}, {"title": "佑圣观平价百货超市", "address": "江苏省南通市海安县S221", "image": "", "rank": 32, "time": 2, "location": {"lat": 32.553985066143284, "lng": 120.47392692165361}, "feature": {"sight_features": "", "sight_content": ""}}, {"title": "仁桥公墓", "address": "江苏省南通市海安县西园大道", "image": "", "rank": 33, "time": 2, "location": {"lat": 32.50811501073934, "lng": 120.42725231534342}, "feature": {"sight_features": "", "sight_content": ""}}, {"title": "嘻多哆儿童乐园", "address": "大公镇文峰超市西侧", "image": "", "rank": 34, "time": 2, "location": {"lat": 36.09683274813585, "lng": 114.36337398772396}, "feature": {"sight_features": "", "sight_content": ""}}, {"title": "里下河乡土树种植物园", "address": "南通市海安县", "image": "", "rank": 35, "time": 2, "location": {"lat": 32.553985066143284, "lng": 120.47392692165361}, "feature": {"sight_features": "", "sight_content": ""}}, {"title": "乖乖乐儿童乐园", "address": "安达步行街3号2幢108", "image": "", "rank": 36, "time": 2, "location": {"lat": 32.549142312120026, "lng": 120.47133510956691}, "feature": {"sight_features": "", "sight_content": ""}}, {"title": "红学公园", "address": "江苏省南通市海安县中心南街", "image": "", "rank": 37, "time": 2, "location": {"lat": 32.50458023907272, "lng": 120.3311397073041}, "feature": {"sight_features": "", "sight_content": ""}}, {"title": "中洋广场", "address": "南通市海安县中坝南路5号", "image": "", "rank": 38, "time": 2, "location": {"lat": 32.5414274613461, "lng": 120.46873451511551}, "feature": {"sight_features": "", "sight_content": ""}}, {"title": "新星百老汇大剧院", "address": "江苏省南通市海安县人民东路32号久益大厦4楼", "image": "", "rank": 39, "time": 2, "location": {"lat": 32.55386046904405, "lng": 120.47638962763754}, "feature": {"sight_features": "", "sight_content": ""}}, {"title": "宁海游园", "address": "人民东路61-7号附近", "image": "", "rank": 40, "time": 0.75, "location": {"lat": 31.579917452874977, "lng": 120.10153805158333}, "feature": {"sight_features": "", "sight_content": ""}}, {"title": "伊米时光儿童成长主题乐园", "address": "江苏省南通市海安县永安北路65号1幢14室", "image": "", "rank": 41, "time": null, "location": {"lat": 32.542602573876934, "lng": 120.45880796614539}, "feature": {"sight_features": "", "sight_content": ""}}, {"title": "墩头镇法制文化广场", "address": "墩头镇墩头村二组1幢107-109室附近", "image": "", "rank": 42, "time": 2, "location": {"lat": 32.658259518163575, "lng": 120.37603548148869}, "feature": {"sight_features": "", "sight_content": ""}}, {"title": "小耳朵儿童主题乐园", "address": "江苏省南通市海安县海安镇中坝南路中洋·高尔夫公寓附近", "image": "", "rank": 43, "time": 2, "location": {"lat": 32.54338382632575, "lng": 120.46827848493355}, "feature": {"sight_features": "", "sight_content": ""}}, {"title": "鹏飞集团文化广场", "address": "江苏省南通市海安县大公镇北贲线江苏鹏飞集团东400米", "image": "", "rank": 44, "time": 2, "location": {"lat": 32.6195720608752, "lng": 120.50963357986579}, "feature": {"sight_features": "", "sight_content": ""}}, {"title": "朵朵乐儿童乐园", "address": "海安县其他黄金大道101号", "image": "", "rank": 45, "time": 2, "location": {"lat": 32.553985066143284, "lng": 120.47392692165361}, "feature": {"sight_features": "", "sight_content": ""}}, {"title": "美嘉乐儿童主题乐园", "address": "中坝南路一号(明珠城苏宁电器一层)", "image": "", "rank": 46, "time": 2, "location": {"lat": 32.543161460713044, "lng": 120.46924437176365}, "feature": {"sight_features": "", "sight_content": ""}}, {"title": "大公影剧院", "address": "江苏省南通市海安县人民中路31号", "image": "", "rank": 47, "time": 2, "location": {"lat": 32.50451656176501, "lng": 120.3329948034026}, "feature": {"sight_features": "", "sight_content": ""}}, {"title": "安达休闲广场", "address": "南通市海安县曙光中路24号", "image": "", "rank": 48, "time": 2, "location": {"lat": 32.54689460269625, "lng": 120.46819746533464}, "feature": {"sight_features": "", "sight_content": ""}}, {"title": "前进佛堂", "address": "蔡家沟附近", "image": "", "rank": 49, "time": 2, "location": {"lat": 40.61749531072338, "lng": 117.19374131455602}, "feature": {"sight_features": "", "sight_content": ""}}, {"title": "孔子广场", "address": "江苏省南通市海安县海安镇江苏省海安高级中学", "image": "", "rank": 50, "time": 2, "location": {"lat": 32.555660008729525, "lng": 120.46980599236848}, "feature": {"sight_features": "", "sight_content": ""}}, {"title": "海南农民新村文化广场", "address": "镇南路660号", "image": "", "rank": 51, "time": 2, "location": {"lat": 32.49258140122424, "lng": 120.47032810909022}, "feature": {"sight_features": "", "sight_content": ""}}, {"title": "苏中植物园", "address": "海安镇海安镇凤山北路33号", "image": "", "rank": 52, "time": 2, "location": {"lat": 32.52913352083013, "lng": 120.43608921523844}, "feature": {"sight_features": "", "sight_content": ""}}, {"title": "镇南生育文化广场", "address": "江海西路与镇南路交叉口西北100米", "image": "", "rank": 53, "time": 2, "location": {"lat": 32.53709481433675, "lng": 120.45360262347793}, "feature": {"sight_features": "", "sight_content": ""}}, {"title": "(海安)商贸物流中心规划展示馆", "address": "凤山北路", "image": "", "rank": 54, "time": 1.0, "location": {"lat": 27.786646749855155, "lng": 120.64796564779607}, "feature": {"sight_features": "", "sight_content": ""}}, {"title": "李氏画苑", "address": "角斜镇沿口", "image": "", "rank": 55, "time": 2, "location": {"lat": 32.5863657045821, "lng": 120.8352449382382}, "feature": {"sight_features": "", "sight_content": ""}}, {"title": "德让博物馆", "address": "宁海南路128号", "image": "", "rank": 56, "time": 2, "location": {"lat": 32.531548553163994, "lng": 120.48728170501387}, "feature": {"sight_features": "", "sight_content": ""}}, {"title": "钓鱼休闲中心", "address": "447乡道", "image": "", "rank": 57, "time": 2, "location": {"lat": 39.663965039195766, "lng": 116.80397232269456}, "feature": {"sight_features": "", "sight_content": ""}}, {"title": "海安县城乡建设档案馆", "address": "中坝中路101号", "image": "", "rank": 58, "time": 2, "location": {"lat": 32.54395679478121, "lng": 120.46816498942219}, "feature": {"sight_features": "", "sight_content": ""}}, {"title": "谷音艺术馆", "address": "221省道", "image": "", "rank": 59, "time": 2, "location": {"lat": 40.48669646295935, "lng": 116.04420851897628}, "feature": {"sight_features": "", "sight_content": ""}}, {"title": "普罗旺斯水上乐园", "address": "城东镇黄海东路七星湖-星湖湾接待会馆-处", "image": "", "rank": 60, "time": 4.5, "location": {"lat": 32.54180725676526, "lng": 120.50516817144691}, "feature": {"sight_features": "", "sight_content": ""}}]}