{"cityName": "海城", "days": 2, "cityImage": "", "spots": [{"title": "天籁谷温泉", "address": "鞍山市千山区东四方台村", "image": "", "rank": 1, "time": 2, "location": {"lat": 41.08093860893513, "lng": 122.9675742183339}, "feature": {"sight_features": "", "sight_content": ""}}, {"title": "绿中海温泉", "address": "鞍山市海城市耿庄镇(耿庄法庭北50米)", "image": "", "rank": 2, "time": 2, "location": {"lat": 40.99771081276282, "lng": 122.721682578207}, "feature": {"sight_features": "特色1 以天然温泉取胜，形成姿态各异的温泉理疗区。", "sight_content": "绿中海温泉度假村位于鞍山市西南方向的海城市东四方台镇西荒地村，距鞍山市区20公里，南距海城市15公里。该温泉地处平原地带，地域开阔，温泉面积大，地热水异常范围2.6平方公里，该区现有热水井12眼，正在使用的8眼，其中最高水温98℃，水质好，具有极高的开采利用价值。\n现已建有占地面积达 40万平方米，集旅游、度假、娱乐为一体的设施较为完备的温泉旅游度假区。另外，利用地热资源开发的高效农业和观赏农业项目也开始起步并逐渐形成独特的优势。"}}, {"title": "天源吉布世", "address": "鞍山市海城市耿庄镇", "image": "", "rank": 3, "time": 2, "location": {"lat": 40.99716303914047, "lng": 122.68581810890775}, "feature": {"sight_features": "特色1 资源丰富多样、产品物美价廉 特色2 休闲度假理想之选", "sight_content": "天源吉布世旅游度假综合体坐落于辽宁省海城市耿庄镇，场馆占地约10万平方米,是一家集温泉洗浴、农业观光、花卉游览、儿童乐园、酒店餐饮、客房住宿等项目于一体的大型农业旅游新综合体。\n园区内有【温泉水乐园】【鸟语仙踪植物馆】【儿童欢乐王国】【花花世界馆】【花园酒店】【青青绿色采摘园】六大主题产品；资源丰富多样、产品物美价廉、适于各类人群，是您休闲度假的理想之选。"}}, {"title": "御泉庄园温泉", "address": "鞍山市海城市耿庄镇耿庄交通岗北走2公里西荒村1组常家街（原天籁谷北走500米）", "image": "", "rank": 4, "time": 2, "location": {"lat": 41.01040102272921, "lng": 122.73056951282061}, "feature": {"sight_features": "特色1 富含多种天然矿物质", "sight_content": "御泉温泉度假村位于辽宁省海城市东四方台西荒地，是一个园林式露天温泉，自然环境优美，景色怡人，空气清新，交通便捷。在热带植物的簇拥下可享受热泉疗，姜疗，红酒疗，玉石疗，足浴疗，温泉SPA，拥有完备的住宿、餐饮、康乐、养生温泉以及会议服务等设施，既是出色的休闲中心，也是温馨的，旅游度假的好去处。\n在热带植物的簇拥下可享受热泉疗，姜疗，红酒疗，玉石疗，足浴疗，温泉SPA，拥有完备的住宿、餐饮、康乐、养生温泉以及会议服务等设施，既是出色的休闲中心，也是温馨的，旅游度假的好去处。"}}, {"title": "大悲古寺", "address": "鞍山市海城市", "image": "", "rank": 5, "time": 2, "location": {"lat": 40.887633947096894, "lng": 122.69156940124043}, "feature": {"sight_features": "", "sight_content": ""}}, {"title": "烈士纪念馆", "address": "东外环", "image": "", "rank": 6, "time": 2, "location": {"lat": 37.24201056890253, "lng": 112.19694792660647}, "feature": {"sight_features": "", "sight_content": ""}}, {"title": "喜运来温泉", "address": "海城市东四方台温泉管理区西荒地村4组", "image": "", "rank": 7, "time": 2, "location": {"lat": 41.02217169767394, "lng": 122.75690369996441}, "feature": {"sight_features": "", "sight_content": ""}}, {"title": "鸿尊永乐汇", "address": "鞍山海城市耿庄镇小榆树村北(濒临鞍营线)", "image": "", "rank": 8, "time": 2, "location": {"lat": 40.99716303914047, "lng": 122.68581810890775}, "feature": {"sight_features": "", "sight_content": ""}}, {"title": "三学寺", "address": "三义街与筢头街交叉口南150米", "image": "", "rank": 9, "time": 2.5, "location": {"lat": 40.85320501664824, "lng": 122.75411321360959}, "feature": {"sight_features": "", "sight_content": ""}}, {"title": "西柳老栓动物园", "address": "辽宁省鞍山市海城市黄金走廊 ‎", "image": "", "rank": 10, "time": 2, "location": {"lat": 40.85752737519878, "lng": 122.6411006798076}, "feature": {"sight_features": "", "sight_content": ""}}, {"title": "龍派温泉", "address": "鞍山市海城市耿庄镇西荒村1组", "image": "", "rank": 11, "time": 2, "location": {"lat": 41.02178965089527, "lng": 122.72884015793419}, "feature": {"sight_features": "", "sight_content": ""}}, {"title": "西柳游乐园", "address": "鞍山市海城市西柳黄金走廊北", "image": "", "rank": 12, "time": 2, "location": {"lat": 40.85165843200863, "lng": 122.63319176004678}, "feature": {"sight_features": "", "sight_content": "西柳游乐场中有很多深受年轻人喜爱，各种游乐设备，是释放压力、感受刺激的好去处。乐园里为孩子们提供娱乐场所，让孩子尽情享受。"}}, {"title": "小英大樱桃采摘园", "address": "大屯镇英不落村北沟", "image": "", "rank": 13, "time": 2, "location": {"lat": 40.94128556405939, "lng": 123.03489325301436}, "feature": {"sight_features": "", "sight_content": ""}}, {"title": "腾鳌广华寒富苹果采摘园", "address": "腾鳌镇金甲村(通海大道路旁)", "image": "", "rank": 14, "time": 2, "location": {"lat": 41.012150653436585, "lng": 122.83719587148092}, "feature": {"sight_features": "", "sight_content": ""}}, {"title": "海城市图书馆", "address": "震兴路21号", "image": "", "rank": 15, "time": 1.5, "location": {"lat": 39.75223300852406, "lng": 118.46676555557615}, "feature": {"sight_features": "", "sight_content": ""}}, {"title": "墨西哥食用仙人掌基地", "address": "307省道附近", "image": "", "rank": 16, "time": 2, "location": {"lat": 40.264498296993764, "lng": 116.57268632168496}, "feature": {"sight_features": "", "sight_content": ""}}, {"title": "雨竹温泉", "address": "验军街道开发区丽景佳园东门", "image": "", "rank": 17, "time": 2, "location": {"lat": 40.90900029590647, "lng": 122.73111765075804}, "feature": {"sight_features": "", "sight_content": ""}}, {"title": "海城档案局", "address": "黄河路86号市政府大楼", "image": "", "rank": 18, "time": 2, "location": {"lat": 38.92241740425506, "lng": 121.62855454549715}, "feature": {"sight_features": "", "sight_content": ""}}, {"title": "聚源垂钓园", "address": "温泉街道天籁谷露天温泉附近", "image": "", "rank": 19, "time": null, "location": {"lat": 24.960705822053498, "lng": 102.45737018828609}, "feature": {"sight_features": "", "sight_content": ""}}, {"title": "焱城密室逃脱", "address": "中街路50-s14号", "image": "", "rank": 20, "time": 2, "location": {"lat": 40.858912373181454, "lng": 122.75886404243477}, "feature": {"sight_features": "", "sight_content": ""}}, {"title": "辽宁省清原红河峡谷漂流驻海城办...", "address": "辽宁省鞍山市海城市中街北路11-s17号", "image": "", "rank": 21, "time": 2, "location": {"lat": 40.86309263006826, "lng": 122.76061620439977}, "feature": {"sight_features": "", "sight_content": ""}}, {"title": "基督教会(王殿宇卫生所东南)", "address": "食品城路柳月香城大酒店附近", "image": "", "rank": 22, "time": 2, "location": {"lat": 22.782974699692804, "lng": 115.37351384730582}, "feature": {"sight_features": "", "sight_content": ""}}, {"title": "海城市中小镇基督教会", "address": "中兴花园小区附近", "image": "", "rank": 23, "time": 2, "location": {"lat": 24.51714393096319, "lng": 117.66677678296095}, "feature": {"sight_features": "", "sight_content": ""}}, {"title": "老兵水族馆", "address": "辽宁省鞍山市海城市南三环路", "image": "", "rank": 24, "time": 2, "location": {"lat": 41.080313680981284, "lng": 122.9074125971941}, "feature": {"sight_features": "", "sight_content": ""}}, {"title": "滨河园", "address": "中街与中兴路交汇处", "image": "", "rank": 25, "time": 2, "location": {"lat": 41.083846586367464, "lng": 122.83852730936542}, "feature": {"sight_features": "", "sight_content": ""}}, {"title": "德利宫大戏院", "address": "鞍山市北关区北杨西街海城大酒店北走100米", "image": "", "rank": 26, "time": 2, "location": {"lat": 40.860994328434415, "lng": 122.76058755653877}, "feature": {"sight_features": "", "sight_content": ""}}, {"title": "东新村文化广场", "address": "307省道附近", "image": "", "rank": 27, "time": 2, "location": {"lat": 40.264498296993764, "lng": 116.57268632168496}, "feature": {"sight_features": "", "sight_content": ""}}, {"title": "兴海广场", "address": "淮河路附近", "image": "", "rank": 28, "time": 0.75, "location": {"lat": 38.24011638792027, "lng": 115.27158927351157}, "feature": {"sight_features": "", "sight_content": ""}}, {"title": "鞍山市天主教牛庄教堂", "address": "东方红路附近", "image": "", "rank": 29, "time": 3.0, "location": {"lat": 31.81165894037352, "lng": 119.1533509733149}, "feature": {"sight_features": "", "sight_content": ""}}, {"title": "厝石山公园", "address": "鞍山市海城市中街路9号", "image": "", "rank": 30, "time": 2, "location": {"lat": 40.85316197487008, "lng": 122.75795000040887}, "feature": {"sight_features": "", "sight_content": ""}}, {"title": "太平桥", "address": "牛庄镇", "image": "", "rank": 31, "time": 0.2, "location": {"lat": 37.32977583826903, "lng": 118.47579032349228}, "feature": {"sight_features": "", "sight_content": ""}}, {"title": "牛庄药王庙", "address": "鞍山市海城市北环路与民主路交叉口东50米", "image": "", "rank": 32, "time": 2, "location": {"lat": 40.957852334777584, "lng": 122.5429159190077}, "feature": {"sight_features": "", "sight_content": ""}}, {"title": "玛卡玛咖DIY手工烘焙坊", "address": "环城西路和红星南街交叉口营口银行南走10米", "image": "", "rank": 33, "time": 2, "location": {"lat": 40.8592110142732, "lng": 122.7528140886726}, "feature": {"sight_features": "", "sight_content": ""}}, {"title": "喜运来温泉庄园", "address": "东四方台温泉管理区西荒地村4组", "image": "", "rank": 34, "time": 2, "location": {"lat": 41.02217169767394, "lng": 122.75690369996441}, "feature": {"sight_features": "", "sight_content": ""}}, {"title": "华艺美术展览馆", "address": "辽宁省海城市日新街与中街路交汇处", "image": "", "rank": 35, "time": 2, "location": {"lat": 40.85634171994499, "lng": 122.75587693676653}, "feature": {"sight_features": "", "sight_content": ""}}, {"title": "海城白云山", "address": "辽宁省海城市孤山镇 114200", "image": "", "rank": 36, "time": 2.5, "location": {"lat": 40.564865204115, "lng": 122.98794047868657}, "feature": {"sight_features": "", "sight_content": ""}}, {"title": "析木城石棚", "address": "辽宁省海城市析木镇姑嫂石村 114200", "image": "", "rank": 37, "time": 2.0, "location": {"lat": 40.688304062060816, "lng": 122.95463406008975}, "feature": {"sight_features": "", "sight_content": ""}}, {"title": "冠华原生态度假村", "address": "赵八里村唐王山大悲古寺道口", "image": "", "rank": 38, "time": 2, "location": {"lat": 40.82361710183166, "lng": 122.71161756622217}, "feature": {"sight_features": "", "sight_content": ""}}, {"title": "莲花寺", "address": "辽宁省鞍山市海城市S322", "image": "", "rank": 39, "time": 1.0, "location": {"lat": 40.887633947096894, "lng": 122.69156940124043}, "feature": {"sight_features": "", "sight_content": ""}}, {"title": "关帝庙", "address": "鞍山市海城市环城西路74号楼", "image": "", "rank": 40, "time": 0.5, "location": {"lat": 40.8552097356829, "lng": 122.75228304079901}, "feature": {"sight_features": "", "sight_content": ""}}, {"title": "天主堂", "address": "东方红路鞍山市天主教牛庄教堂附近", "image": "", "rank": 41, "time": 0.4, "location": {"lat": 40.956398796895996, "lng": 122.51800743433537}, "feature": {"sight_features": "", "sight_content": ""}}, {"title": "战狼户外拓展训练基地", "address": "甘泉镇甘泉村", "image": "", "rank": 42, "time": 2, "location": {"lat": 34.452925168533405, "lng": 105.94816706400178}, "feature": {"sight_features": "", "sight_content": ""}}, {"title": "同心堂基督教会", "address": "辽宁省鞍山市海城市西柳镇沈海高速公路西柳客运站北", "image": "", "rank": 43, "time": 2, "location": {"lat": 40.865447388299074, "lng": 122.64764860653432}, "feature": {"sight_features": "", "sight_content": ""}}, {"title": "澄州湖公园", "address": "淮河路2甲号", "image": "", "rank": 44, "time": 2, "location": {"lat": 40.88474097417643, "lng": 122.69536528100338}, "feature": {"sight_features": "", "sight_content": ""}}, {"title": "福寿园", "address": "响堂办事处东响村", "image": "", "rank": 45, "time": 2, "location": {"lat": 40.841478087020214, "lng": 122.7979774887296}, "feature": {"sight_features": "", "sight_content": ""}}, {"title": "花溪地公园", "address": "泰山街与滨河北路交叉口东南50米", "image": "", "rank": 46, "time": 2, "location": {"lat": 27.945100481529757, "lng": 120.8551373245256}, "feature": {"sight_features": "", "sight_content": ""}}, {"title": "澄州湖公园", "address": "淮河路2甲号", "image": "", "rank": 47, "time": 2, "location": {"lat": 40.88474097417643, "lng": 122.69536528100338}, "feature": {"sight_features": "", "sight_content": ""}}, {"title": "东北抗日航空烈士纪念馆", "address": "辽宁省鞍山市海城市中兴路", "image": "", "rank": 48, "time": 2, "location": {"lat": 41.040353692600064, "lng": 122.84129308603059}, "feature": {"sight_features": "", "sight_content": ""}}, {"title": "孟昭仪故居", "address": "中兴路南50米", "image": "", "rank": 49, "time": 2, "location": {"lat": 30.042944629587172, "lng": 112.42588549380949}, "feature": {"sight_features": "", "sight_content": ""}}, {"title": "快乐树儿童儿童主题乐园", "address": "腾鳌镇颐水嘉德二期正门对面路口右转50米", "image": "", "rank": 50, "time": 2, "location": {"lat": 41.08151929280575, "lng": 122.84304429669008}, "feature": {"sight_features": "", "sight_content": ""}}, {"title": "道源寺", "address": "辽宁省鞍山市海城市", "image": "", "rank": 51, "time": 2, "location": {"lat": 40.887633947096894, "lng": 122.69156940124043}, "feature": {"sight_features": "", "sight_content": ""}}, {"title": "世纪广场", "address": "鞍山市千山区汤岗子镇温泉街1号汤岗子温泉旅游度假区内", "image": "", "rank": 52, "time": 2.5, "location": {"lat": 41.01608490857157, "lng": 122.91888435291263}, "feature": {"sight_features": "", "sight_content": ""}}, {"title": "狐狸岛度假村", "address": "辽宁省鞍山市海城市甘东线双庙子村", "image": "", "rank": 53, "time": 2, "location": {"lat": 40.98815594613391, "lng": 122.83516833755503}, "feature": {"sight_features": "", "sight_content": ""}}, {"title": "文化广场", "address": "西柳镇9号", "image": "", "rank": 54, "time": 1.5, "location": {"lat": 40.8646918162769, "lng": 122.6383027806357}, "feature": {"sight_features": "", "sight_content": ""}}, {"title": "卫士广场", "address": "鞍山市海城市卫士北路2号", "image": "", "rank": 55, "time": 2, "location": {"lat": 40.86902580483937, "lng": 122.76629214057813}, "feature": {"sight_features": "", "sight_content": ""}}, {"title": "海城市铁西开发区二台子基督教会", "address": "鞍山市海城市", "image": "", "rank": 56, "time": 2, "location": {"lat": 40.887633947096894, "lng": 122.69156940124043}, "feature": {"sight_features": "", "sight_content": ""}}, {"title": "兴海教会", "address": "鞍山市海城市光明路16号", "image": "", "rank": 57, "time": 1.0, "location": {"lat": 40.85997692041544, "lng": 122.74884842063433}, "feature": {"sight_features": "", "sight_content": ""}}, {"title": "金色阳光儿童游乐场（大和店）", "address": "大和购物广场负一层", "image": "", "rank": 58, "time": 2, "location": {"lat": 40.86641056162336, "lng": 122.75512488437661}, "feature": {"sight_features": "", "sight_content": ""}}, {"title": "冠华源度假村(赵八里村卫生所西...", "address": "辽宁省鞍山市海城市赵八里村卫生所西南为民桥附近", "image": "", "rank": 59, "time": 2, "location": {"lat": 40.82444655524753, "lng": 122.7248063457874}, "feature": {"sight_features": "", "sight_content": ""}}, {"title": "清汤池温泉", "address": "鞍山市海城市兴海大街五组13号", "image": "", "rank": 60, "time": 2, "location": {"lat": 40.88164266488019, "lng": 122.71825647063604}, "feature": {"sight_features": "", "sight_content": "海城市清汤池温泉汗蒸会所， 经营面积近5000平米，在引进日式汤泉的同时，又融入了汗蒸、温泉、中式养生文化等概念。内有餐饮、汗蒸广场、茶道室、生态氧吧、书吧、健身室、儿童乐园、休息大厅、足道房、客房等。"}}]}