{"cityName": "海东", "days": "", "cityImage": "", "spots": [{"title": "孟达天池", "address": "海东地区循化撒拉族自治县孟达乡东部", "image": "", "rank": 1, "time": 3.5, "location": {"lat": 35.713963421311114, "lng": 102.4638765952044}, "feature": {"sight_features": "", "sight_content": ""}}, {"title": "互助土族故土园景区", "address": "海东市互助县威远镇", "image": "", "rank": 2, "time": 2.5, "location": {"lat": 36.84951152364856, "lng": 101.9657284667612}, "feature": {"sight_features": "特色1 再现土族原始生态的土族民俗", "sight_content": "互助土族故土园景区位于青海省海东市互助土族自治县威远镇境内，距青海省会西宁市31公里，总规划面积6.81平方公里，其中核心游览区达3.25平方公里。\n景区包括天佑德中国青稞酒之源、彩虹部落土族园、纳顿庄园和西部土族民俗文化村、小庄土族民俗文化村5个核心景点，分别展现了土族绚丽多彩的民俗文化、源远流长的青稞酒文化、弥久沉香的酩馏酒文化、古老纯真的建筑文化、别具一格的民居文化、古朴神秘的宗教文化，是世界上最全面、最纯正、最真实的以“土族文化”为主题，集游览观光、休闲度假、民俗体验、宗教朝觐为一体的综合性旅游景区，成为国内外游客集中了解土族民俗文化的首选之地。\n2001年被国家旅游局评审为国家AAAA级旅游景区，2013年互助土族故土园正式启动国家AAAAA级旅游景区创建工作，2014年互助土族故土园顺利通过国家旅游局景区景观价值评审并被列入国家AAAAA级旅游景区创建名单。\n2017年2月25日，新晋为国家5A级旅游景区。"}}, {"title": "北山国家森林公园", "address": "海东地区互助土族自治县扎旅公路扎隆沟旁", "image": "", "rank": 3, "time": 4.5, "location": {"lat": 36.81772989619469, "lng": 102.53505222550012}, "feature": {"sight_features": "", "sight_content": ""}}, {"title": "瞿昙寺", "address": "海东地区乐都县瞿昙镇", "image": "", "rank": 4, "time": 1.5, "location": {"lat": 36.507889706045674, "lng": 102.42972525179134}, "feature": {"sight_features": "", "sight_content": ""}}, {"title": "夏琼寺", "address": "海东地区化隆回族自治县查甫乡", "image": "", "rank": 5, "time": 1.5, "location": {"lat": 36.07188303331666, "lng": 102.24397796342969}, "feature": {"sight_features": "", "sight_content": ""}}, {"title": "李家峡水库", "address": "位于青海省尖扎县和化隆县交界处的黄河干流李家峡河谷中段", "image": "", "rank": 6, "time": null, "location": {"lat": 36.122421386660946, "lng": 101.824948657476}, "feature": {"sight_features": "", "sight_content": ""}}, {"title": "白马寺", "address": "海东地区互助土族自治县红崖子沟乡白马寺村", "image": "", "rank": 7, "time": 1.5, "location": {"lat": 36.84945527264915, "lng": 102.15190451503484}, "feature": {"sight_features": "", "sight_content": ""}}, {"title": "西来寺", "address": "西宁市乐都县碾伯镇东关", "image": "", "rank": 8, "time": 1.0, "location": {"lat": 36.48756166217774, "lng": 102.41681017832433}, "feature": {"sight_features": "", "sight_content": ""}}, {"title": "乐都南山", "address": "海东地区乐都县境内", "image": "", "rank": 9, "time": 1.0, "location": {"lat": 36.507889706045674, "lng": 102.42972525179134}, "feature": {"sight_features": "", "sight_content": ""}}, {"title": "佑宁寺", "address": "海东地区互助土族自治县‎五十镇寺滩村", "image": "", "rank": 10, "time": 2.5, "location": {"lat": 36.84945527264915, "lng": 102.15190451503484}, "feature": {"sight_features": "", "sight_content": ""}}, {"title": "柳湾墓地", "address": "海东市乐都县高庙镇柳湾村", "image": "", "rank": 11, "time": 1.0, "location": {"lat": 36.45141354726264, "lng": 102.56820780243231}, "feature": {"sight_features": "", "sight_content": ""}}, {"title": "彩虹部落土族园", "address": "海东市互助县威远镇振兴大道西路口", "image": "", "rank": 12, "time": 2, "location": {"lat": 36.82997394617886, "lng": 101.97204167434292}, "feature": {"sight_features": "特色1 大型土族民俗文化主题公园", "sight_content": "彩虹部落土族园是一座大型土族民俗文化主题公园，坐落在青海省互助土族自治县威远镇西南部，距省会西宁30公里，是互助土族故土园国家AAAA级景区核心景点，也是环夏都西宁旅游圈中的一个重要景点。园区占地面积130000平方米，建筑面积13000平方米，是全部以青砖青瓦、生土土坯、砖雕木刻等形式建造的大型土族民俗文化古建筑群。\n互助是一个特别的土族自治县，开创北魏的鲜卑族的后裔。土族信仰喇嘛教，对色彩有着特殊的天分，被誉为\"披着彩虹的民族”能歌善舞，土族民俗被评为“国家非物质文化遗产'富有民族特色。每年农历五月初五、六月初六、九月初九等民间节日，互助旅游区内多举行“花儿演唱会”八九月份的收获季节举行的狂欢节——“那顿节”。\n该县还有佑宁寺、五峰寺、玛藏观（即白马寺）、北山林区等景观，每年有数以千计的中外游客，慕名到此观光浏览。"}}, {"title": "纳顿庄园", "address": "海东互助土族自治县威远镇小庄村153号", "image": "", "rank": 13, "time": 2, "location": {"lat": 36.84282313553982, "lng": 101.94627767853682}, "feature": {"sight_features": "特色1 AAAA级互助土族故土园旅游景区", "sight_content": "互助土族纳顿庄园为国家AAAA级土族故土园旅游景区接待点之一。\n庄园占地面积为27000平方米。内设青稞酩馏酒大作坊，西北最大的地下酒窖，金花演艺中心，五星级农家院，乡村厨房，乡村酒吧，乡村旅馆，书画奇石根雕院，高原乡村影视基地，篝火广场，自驾营地及土族民间文体竞技项目拔棍、拉八牛、花儿大擂台、酒擂台等传统项目。\n是集参观游览、餐饮住宿，歌舞演艺，酩馏酒酿造工艺展示为一体的综合性旅游景区，是国家AAAA级土族故土园旅游景区最具有魅力的旅游景点之一、国家级旅游服务标准化合格单位、中华妇女联合会女大学生创业实践基地、青海省四星级乡村旅游接待点、全省乡村旅游先进接待点、青海省文化产业示范基地、青海省先进诚信私营企业。\n\n庄园内设中国土族最原始、最古老的传统手工酿造酒坊，浓缩土族饮食文化精髓的“圈圈席”，古朴典雅、雕梁画栋的土司楼，农家四合院，集民俗展览、演艺为一体的多功能七彩苑."}}, {"title": "汪家庄汉墓", "address": "互助土族自治县沙塘川乡汪家庄", "image": "", "rank": 14, "time": 1.0, "location": {"lat": 36.643923594002935, "lng": 101.89483089733591}, "feature": {"sight_features": "", "sight_content": ""}}, {"title": "五峰山", "address": "海东市互助县五峰乡境内", "image": "", "rank": 15, "time": 1.0, "location": {"lat": 36.85002161382641, "lng": 101.96456904899203}, "feature": {"sight_features": "", "sight_content": ""}}, {"title": "喇家遗址", "address": "民和县官亭镇喇家村", "image": "", "rank": 16, "time": 2, "location": {"lat": 35.874163194472935, "lng": 102.81446053262844}, "feature": {"sight_features": "", "sight_content": ""}}, {"title": "天佑德国际高尔夫球会", "address": "互助土族自治县威远镇彩虹路6号", "image": "", "rank": 17, "time": 2, "location": {"lat": 36.84412356749486, "lng": 101.94639896325523}, "feature": {"sight_features": "", "sight_content": ""}}, {"title": "扎龙沟景区", "address": "海东地区互助县扎龙沟村", "image": "", "rank": 18, "time": 2, "location": {"lat": 36.79799920209919, "lng": 102.46712045932621}, "feature": {"sight_features": "", "sight_content": ""}}, {"title": "瞿昙国际滑雪场", "address": "海东市乐都区瞿昙镇药草台村", "image": "", "rank": 19, "time": 2, "location": {"lat": 36.359125100254, "lng": 102.3033811577489}, "feature": {"sight_features": "", "sight_content": ""}}, {"title": "浪士当景区", "address": "海东市互助县加定镇桥头村", "image": "", "rank": 20, "time": 2, "location": {"lat": 36.85396723278762, "lng": 102.50460199262822}, "feature": {"sight_features": "", "sight_content": ""}}, {"title": "蚂蚁山", "address": "碾伯镇北门村", "image": "", "rank": 21, "time": 2, "location": {"lat": 36.4763130085881, "lng": 102.39111805145053}, "feature": {"sight_features": "", "sight_content": ""}}, {"title": "石窟寺", "address": "青海省海东市平安区幸福东路", "image": "", "rank": 22, "time": 1.0, "location": {"lat": 36.506553573162044, "lng": 102.11442787755806}, "feature": {"sight_features": "", "sight_content": ""}}, {"title": "丹斗寺", "address": "循化县境内，县城黄河北岸10公里处", "image": "", "rank": 23, "time": 2, "location": {"lat": 35.86694925347801, "lng": 102.2130535060412}, "feature": {"sight_features": "", "sight_content": ""}}, {"title": "七里寺避暑山庄", "address": "青海省海东市民和县古鄯镇山庄小学附近", "image": "", "rank": 24, "time": 2, "location": {"lat": 36.126631891359054, "lng": 102.78678928600424}, "feature": {"sight_features": "", "sight_content": ""}}, {"title": "却藏寺", "address": "互助土族自治县城北约20公里处", "image": "", "rank": 25, "time": 2, "location": {"lat": 36.656293630836586, "lng": 101.77240488175582}, "feature": {"sight_features": "", "sight_content": ""}}, {"title": "互助北山国家森林地质公园", "address": "青海省互助土族自治县东北部", "image": "", "rank": 26, "time": 4.5, "location": {"lat": 36.85002161382641, "lng": 101.96456904899203}, "feature": {"sight_features": "特色1 奇特的丹霞地貌、独特的民俗风情", "sight_content": "互助县北山景区地处青海省互助县东北部，位于祁连山东端，大通河中、下游，祁连山支脉冷龙 岭南域、支脉达坂山北坡。总面积11.27万公顷，森林覆盖率68.4%。境内分布的植物群系多达30余个，目前已定名的高等植物达1131种，其中祁连 圆柏、冬瓜杨为青藏高原所特有；观赏价值较高的草本植物达300余种；其中，龙胆花、杜鹃花、报春花被誉为高原“三大名花”；野生动物达190余种，其中 列入国家一、二级保护的野生动物共35种，如雪豹、马麝、棕熊、金雕等。\n景区由浪士当、扎龙沟、元圃达坂、卡索峡、下河五大景区组成，主要景点有：达坂红叶、十二生肖弯、龙尾观云、神龙潭瀑布、胡勒瀑布、圣母天池、高山牧场、药水瀑布等，景区每年的5月至11月份为旅游季节，其中尤以6、7、8月份为旅游旺季。\n北山景区因其丰富的森林资源、奇特的丹霞地貌、独特的民俗风情，1992年被原林业部批准为北山国家森林公园，2005年9月国土资源部批准为北山国家 地质公园，2009年被国家水利部批准为水利风景区。2000年被国家旅游局评定为AAAA级旅游风景区，2007年被青海大众评选为“青海最美丽的十大 景观”之一。"}}, {"title": "北山国家森林公园浪士当中心景区", "address": "甘肃省天祝藏族自治县境内", "image": "", "rank": 27, "time": 2, "location": {"lat": 36.97759617654046, "lng": 103.14862131965808}, "feature": {"sight_features": "", "sight_content": ""}}, {"title": "吐谷浑大营", "address": "-青海省互助县威远镇彩虹大道", "image": "", "rank": 28, "time": 2, "location": {"lat": 36.8355310162811, "lng": 101.94568082010173}, "feature": {"sight_features": "", "sight_content": ""}}, {"title": "阿岱大桥", "address": "海东市化隆回族自治县阿岱大桥", "image": "", "rank": 29, "time": 2, "location": {"lat": 36.21764069837655, "lng": 101.99241043557812}, "feature": {"sight_features": "", "sight_content": ""}}, {"title": "大石滩水库", "address": "海东地区乐都县南部", "image": "", "rank": 30, "time": 2, "location": {"lat": 36.507889706045674, "lng": 102.42972525179134}, "feature": {"sight_features": "", "sight_content": ""}}, {"title": "乐都蛟鹏富硒生态园", "address": "下营乡下祝家村17号", "image": "", "rank": 31, "time": 2, "location": {"lat": 30.144812808915756, "lng": 119.99253853235895}, "feature": {"sight_features": "", "sight_content": ""}}, {"title": "中国柳湾彩陶博物馆", "address": "G6京藏高速出口", "image": "", "rank": 32, "time": 2, "location": {"lat": 40.63658749400222, "lng": 115.06532985560305}, "feature": {"sight_features": "", "sight_content": ""}}, {"title": "乐都区图书馆", "address": "古城大街44号附近", "image": "", "rank": 33, "time": 2, "location": {"lat": 36.488036874475206, "lng": 102.40953561047397}, "feature": {"sight_features": "", "sight_content": ""}}, {"title": "花儿滩垂钓园", "address": "109国道南50米明德小学附近", "image": "", "rank": 34, "time": 2, "location": {"lat": 39.79036459219497, "lng": 109.99633110015151}, "feature": {"sight_features": "", "sight_content": ""}}, {"title": "洪水泉清真寺", "address": "青海省海东市平安区", "image": "", "rank": 35, "time": 2, "location": {"lat": 36.506553573162044, "lng": 102.11442787755806}, "feature": {"sight_features": "", "sight_content": ""}}, {"title": "海东地区博物馆", "address": "青海省海东市平安区平安路109", "image": "", "rank": 36, "time": 1.5, "location": {"lat": 36.50450623660162, "lng": 102.11273287926416}, "feature": {"sight_features": "", "sight_content": ""}}, {"title": "财福观", "address": "109国道三官庙附近", "image": "", "rank": 37, "time": 2, "location": {"lat": 36.334015159174385, "lng": 102.78735011340531}, "feature": {"sight_features": "", "sight_content": ""}}, {"title": "平安峡群寺森林公园", "address": "青海省平安县县内 810600", "image": "", "rank": 38, "time": 2, "location": {"lat": 36.40641154009237, "lng": 102.00396497284613}, "feature": {"sight_features": "", "sight_content": ""}}, {"title": "小桦林云杉基地休闲园", "address": "东和乡小桦林135号(小桦林村委会)", "image": "", "rank": 39, "time": 2, "location": {"lat": 36.9461922119458, "lng": 102.08754904958015}, "feature": {"sight_features": "", "sight_content": ""}}, {"title": "东垣古塔", "address": "东垣北街", "image": "", "rank": 40, "time": 2, "location": {"lat": 36.33330206012306, "lng": 102.82406919822776}, "feature": {"sight_features": "", "sight_content": ""}}, {"title": "互助土族自治县文化馆", "address": "南大街9号", "image": "", "rank": 41, "time": 4.5, "location": {"lat": 40.240432762508746, "lng": 116.13647383722832}, "feature": {"sight_features": "", "sight_content": ""}}, {"title": "峡群寺森林公园", "address": "寺台乡", "image": "", "rank": 42, "time": 2, "location": {"lat": 33.516239951726455, "lng": 105.61765719268344}, "feature": {"sight_features": "", "sight_content": ""}}, {"title": "西宁姚文刚农家乐", "address": "安定村", "image": "", "rank": 43, "time": 1.0, "location": {"lat": 31.228809829743188, "lng": 121.43545617376786}, "feature": {"sight_features": "", "sight_content": ""}}, {"title": "撒拉庄园", "address": "黄河东路", "image": "", "rank": 44, "time": 3.0, "location": {"lat": 37.867111093812085, "lng": 112.48045183582607}, "feature": {"sight_features": "", "sight_content": ""}}, {"title": "互助县天地绿苗木种植农民专业合...", "address": "西大街26号", "image": "", "rank": 45, "time": 2, "location": {"lat": 38.04800126941241, "lng": 114.52751165186272}, "feature": {"sight_features": "", "sight_content": ""}}, {"title": "长丰果品有限公司", "address": "总堡乡童乐幼儿园附近", "image": "", "rank": 46, "time": 2, "location": {"lat": 39.70237905529804, "lng": 116.28569365347488}, "feature": {"sight_features": "", "sight_content": ""}}, {"title": "马厂塬遗址", "address": "青海省民和回族土族自治县马厂塬乡边墙村 810800", "image": "", "rank": 47, "time": 2, "location": {"lat": 36.33084588752405, "lng": 102.86998568821755}, "feature": {"sight_features": "", "sight_content": ""}}, {"title": "民和桃花园林", "address": "青海省民和回族土族自治县川口镇和马场垣乡 810800", "image": "", "rank": 48, "time": 2, "location": {"lat": 36.32619644869408, "lng": 102.83887444082934}, "feature": {"sight_features": "", "sight_content": ""}}, {"title": "新石器时代遗址", "address": "青海省民和回族土族自治县转导乡阳洼坡村 810806", "image": "", "rank": 49, "time": 2, "location": {"lat": 36.04259719029605, "lng": 102.92900935659836}, "feature": {"sight_features": "", "sight_content": ""}}, {"title": "清水湾生态园", "address": "海东市循化撒拉族自治县", "image": "", "rank": 50, "time": 2, "location": {"lat": 35.85666722386152, "lng": 102.49538532060429}, "feature": {"sight_features": "", "sight_content": ""}}, {"title": "东村清真大寺", "address": "青海省海东市互助土族自治县高寨镇西宁曹家堡机场南200米", "image": "", "rank": 51, "time": 1.0, "location": {"lat": 36.534736021075226, "lng": 102.04542083340056}, "feature": {"sight_features": "", "sight_content": ""}}, {"title": "沙滩清真寺", "address": "202省道附近", "image": "", "rank": 52, "time": 2, "location": {"lat": 37.77792504283699, "lng": 114.12616671611477}, "feature": {"sight_features": "", "sight_content": ""}}, {"title": "史纳清真寺", "address": "青海省海东市民和回族土族自治县史纳村二社1号", "image": "", "rank": 53, "time": 2, "location": {"lat": 36.34783968506593, "lng": 102.78947262157953}, "feature": {"sight_features": "", "sight_content": ""}}, {"title": "川垣清真寺", "address": "青海省海东市民和回族土族自治县川口镇德丰·宁园附近(帝豪城附近)", "image": "", "rank": 54, "time": 2, "location": {"lat": 36.33196513307027, "lng": 102.82343436572386}, "feature": {"sight_features": "", "sight_content": ""}}, {"title": "循化博物馆", "address": "青海省海东市循化撒拉族自治县积石黄河大桥", "image": "", "rank": 55, "time": 2.5, "location": {"lat": 35.86294727067796, "lng": 102.4967200525751}, "feature": {"sight_features": "", "sight_content": ""}}, {"title": "旦斗寺", "address": "青海省海东市化隆回族自治县", "image": "", "rank": 56, "time": 2, "location": {"lat": 36.10098825089297, "lng": 102.27044827344754}, "feature": {"sight_features": "", "sight_content": ""}}, {"title": "马厂塬遗址", "address": "青海省海东市民和回族土族自治县", "image": "", "rank": 57, "time": 2, "location": {"lat": 36.508511080941304, "lng": 102.1104440722824}, "feature": {"sight_features": "", "sight_content": ""}}, {"title": "西王母庙", "address": "桥头村西王母庙", "image": "", "rank": 58, "time": 1.5, "location": {"lat": 27.565894073213403, "lng": 109.97859870035684}, "feature": {"sight_features": "", "sight_content": ""}}, {"title": "海西西王母瑶池宫铁柱", "address": "青海省格尔木市境内 817000", "image": "", "rank": 59, "time": 2.5, "location": {"lat": 36.41237104695386, "lng": 94.93331021042529}, "feature": {"sight_features": "", "sight_content": ""}}, {"title": "高尔夫球场", "address": "威远镇彩虹路沙塘川河河畔", "image": "", "rank": 60, "time": 2, "location": {"lat": 36.84412356749486, "lng": 101.94639896325523}, "feature": {"sight_features": "", "sight_content": ""}}]}