{"cityName": "海丰", "days": 2, "cityImage": "", "spots": [{"title": "汕尾莲花山温泉度假区", "address": "汕尾市海丰县莲花镇莲花山度假村", "image": "", "rank": 1, "time": 4.5, "location": {"lat": 23.04539798665135, "lng": 115.26816666404854}, "feature": {"sight_features": "", "sight_content": ""}}, {"title": "水底山温泉", "address": "汕尾市海丰县赤石镇明热公路88号", "image": "", "rank": 2, "time": 2, "location": {"lat": 22.903677311267238, "lng": 115.01333232438276}, "feature": {"sight_features": "特色1 68个风格迥异的温泉池，五行养生健康池、女神安神静泡池等。 特色2 配备有独树一帜的沙滩冲浪、无边际泳池、热带雨林漂流等大型特色项目。", "sight_content": "水底山温泉全新打造项目：摩洛哥网红清吧，百米无边泳池\n摩洛哥网红清吧主打西餐和下午茶。整体装修摩洛哥风格，在这里用餐别有一番异域风味。菜品出品都非常不错，味道和卖相不输很多知名的西餐厅。虽说是清吧，但酒类仅限于啤酒哦，喝啤酒，吃小吃，吹吹晚风聊聊天，泡完温泉就应该招辆小车车来这里吃个宵夜。店里有一位常客大熊先生，不定期出现，还会陪小姐姐和小朋友们吃饭、喝下午茶！庭院里巴厘岛同款的鸟巢，出片率非常高。小仙女随便凹造型，一拍就是大片了。在鸟巢里仰望星空，或者聆听早起的鸟鸣，不用去巴厘岛打卡了，深圳周边就可以！\n108m长的无边泳池，全是温泉水。早晚人少的时候，相当于“包场”了，整个泳池都是你的。四舍五入坐拥整个温泉庄园，蓝天白云温泉泳池，外面是热闹繁华，此处拥有的便是静谧舒心。海浪池：海浪、沙滩、躺椅、天气好的时候还能日光浴一下。最高有1.8米高的人造浪，层层浪叠之间让您感受到有种乘风破浪的冲动，并能享受无限的动感和刺激。\n水底山温泉简介\n水底山温泉庄园坐落于广东东南沿海地区——美丽的海丰，地处深汕特别合作区核心。总占地三千余亩，立于百万亩原生态森林环抱之中，集温泉养生、旅游度假、休闲娱乐于一体。\n\n\n这里拥有广东最大的天然温泉，日涌泉量约数千立方米，出水口温度高达73℃，医疗级复合型偏硅酸温泉水，具有软化角质、预防疾病、增强免疫力等功效。68个风格迥异的温泉池，既有五行养生健康池、女神安神静泡池、私享VIP泡池……还有儿童戏水池、鱼疗池等特色项目，是完美度假的最佳体验。\n\n\n园区还配备有独树一帜的沙滩冲浪、无边际泳池、热带雨林漂流等大型特色项目。数百米外，还拥有九龙潭、大峡谷、瀑布、河流等珍贵自然资源。上百栋东南亚风情别墅群，配套完善，拥有独立泳池、温泉池、浴池……尽享奢华。数十套豪华客房时尚简约，让您尽享度假轻松体验。\n现代化庄园餐厅，提供精雕细琢的潮汕美食。以独特的地理位置，取材新鲜。用星级大厨的精湛技艺，将海鲜美食、创意潮汕菜与潮汕小吃构成庄园美食品牌，带给您非凡的味蕾享受。庄园提供中西式婚礼服务。传统豪华中式婚宴厅、西式浪漫草坪或无边际泳池，皆是举行婚礼的最佳场所。个性化婚宴菜单和专业的贴心服务，为婚礼的每个细节尽善尽美。度假与商务兼备。会议设备高端完善，有国际宴会厅、多功能厅、中小型会议室等。多媒体功能配备齐全，可灵活规划场地组合，满足不同的会议需求。依山傍水，交通便利。水底山距深圳、东莞120公里，广州200公里，深汕高速、潮莞高速、广汕高速等多条路线无缝衔接，是珠三角未来的度假枢纽中心，也将成为广东未来最具综合性的温泉旅游度假目的地。"}}, {"title": "南方澳渔港度假村", "address": "汕尾市海丰县小漠镇南方澳天然海湾", "image": "", "rank": 3, "time": 2, "location": {"lat": 22.758728117259565, "lng": 115.0286924323267}, "feature": {"sight_features": "", "sight_content": ""}}, {"title": "莲花山养生温泉", "address": "汕尾市海丰县莲花镇莲花山度假村", "image": "", "rank": 4, "time": 2, "location": {"lat": 23.04539798665135, "lng": 115.26816666404854}, "feature": {"sight_features": "特色1 风景俊秀，泉水宗宗", "sight_content": "这里风景俊秀，泉水宗宗。奇花异草，珍禽走兽，古木参天，怪石林立，气候宜人，自古以来就为广东省旅游胜地之一，有“世外桃源”之美称。摄秀峰灵气，同山水相携；沐日月光辉，与自然共荣。莲花山度假村充分显示“天人合一”，人与自然和谐的旅游、度假、养生的文化理念和文化品位。莲花山度假村是一家集饮食、娱乐、住房、运动、旅游、度假、会议等多功能于一体的标准四星级度假型酒店。\n\n\n莲花山度假村投资开发的“龙须胜景”景区，修建游览步行道、悬崖栈道、铁索桥，贯通了两道大峡谷，沿途可观赏粤东第一瀑布群“莲花十八瀑”和“雄、奇、险、秀、幽”的峡谷风光。莲花山龙喷须是宋代著名道教大师白玉蟾晚年隐居之所，现建有玉蟾宫、龙泉仙馆、仙人洞等景点，将历史人文与自然生态和谐融合，逐渐打造为中国传统养生文化为主题的休闲度假与养生胜地。莲花山度假村位于广东省汕尾市海丰莲花山省级森林公园，莲花山度假村是由美籍华人、知名书画家蔡阳山先生满怀“报效祖国，建设家乡”的赤子之情，呕心沥血数年，亲自规划、设计，独自建造的一处与森林公园景区同时开发并融为一体的度假胜地。"}}, {"title": "召贡峡漂流", "address": "汕尾市海丰县莲花森林公园召贡山召贡休闲山庄", "image": "", "rank": 5, "time": 2, "location": {"lat": 22.972744260965804, "lng": 115.32944477561186}, "feature": {"sight_features": "", "sight_content": ""}}, {"title": "红场红宫", "address": "汕尾市海丰县人民南路1号", "image": "", "rank": 6, "time": 2, "location": {"lat": 22.973338359159772, "lng": 115.34309785156186}, "feature": {"sight_features": "", "sight_content": ""}}, {"title": "云台禅寺", "address": "深汕区鹅埠镇圆墩乡", "image": "", "rank": 7, "time": 2, "location": {"lat": 22.838412856126464, "lng": 115.05978776352758}, "feature": {"sight_features": "", "sight_content": ""}}, {"title": "新街", "address": "梅陇镇新街", "image": "", "rank": 8, "time": 1.5, "location": {"lat": 45.622691380487936, "lng": 122.84417736821842}, "feature": {"sight_features": "", "sight_content": ""}}, {"title": "汕尾小漠黄金沙滩度假村", "address": "汕尾汕尾海丰小漠大围通海中心路（海丰华城能源有限公司左侧）", "image": "", "rank": 9, "time": 4.5, "location": {"lat": 22.779570445589368, "lng": 115.04383159304746}, "feature": {"sight_features": "", "sight_content": ""}}, {"title": "鲘门镇", "address": "汕尾市海丰县", "image": "", "rank": 10, "time": 2, "location": {"lat": 22.972744260965804, "lng": 115.32944477561186}, "feature": {"sight_features": "", "sight_content": ""}}, {"title": "孔子门村", "address": "乡情路(近红阳水库)", "image": "", "rank": 11, "time": 2, "location": {"lat": 22.900537716739713, "lng": 115.17380058922305}, "feature": {"sight_features": "", "sight_content": ""}}, {"title": "亲亲宝贝(泰安路店)", "address": "梅陇镇泰安路117号(原金福酒楼)", "image": "", "rank": 12, "time": 2, "location": {"lat": 22.89388971241178, "lng": 115.21582404050865}, "feature": {"sight_features": "", "sight_content": ""}}, {"title": "华帝山矿泉水", "address": "梅陇镇后底溪", "image": "", "rank": 13, "time": 2, "location": {"lat": 45.622691380487936, "lng": 122.84417736821842}, "feature": {"sight_features": "", "sight_content": ""}}, {"title": "福娃儿童乐园", "address": "中山南路中段(老民政局二楼)", "image": "", "rank": 14, "time": 2, "location": {"lat": 22.972113171068873, "lng": 115.3417853283986}, "feature": {"sight_features": "", "sight_content": ""}}, {"title": "西湖林场", "address": "G15沈海高速附近", "image": "", "rank": 15, "time": 2, "location": {"lat": 24.684208635520125, "lng": 118.28177739591544}, "feature": {"sight_features": "", "sight_content": ""}}, {"title": "龙山农场", "address": "狮山一路附近", "image": "", "rank": 16, "time": 3.5, "location": {"lat": 22.98756298608853, "lng": 115.36330496451048}, "feature": {"sight_features": "", "sight_content": ""}}, {"title": "海丰县影剧院", "address": "广播电视台旁", "image": "", "rank": 17, "time": 2, "location": {"lat": 39.735659062680924, "lng": 116.14199888503015}, "feature": {"sight_features": "", "sight_content": ""}}, {"title": "南山庄园", "address": "城华夏花园二路一栋首层2-4号附近", "image": "", "rank": 18, "time": 2, "location": {"lat": 22.55218243969208, "lng": 114.04872845452613}, "feature": {"sight_features": "", "sight_content": ""}}, {"title": "后门青铜兵器出土点", "address": "广东省汕尾市城区海丰县后门镇 510000", "image": "", "rank": 19, "time": 2, "location": {"lat": 22.81782611482477, "lng": 115.16632642956883}, "feature": {"sight_features": "", "sight_content": ""}}, {"title": "戏曲脸谱园", "address": "广东省海丰县凤山路 516600", "image": "", "rank": 20, "time": 2, "location": {"lat": 22.770870935326556, "lng": 115.37720103210084}, "feature": {"sight_features": "", "sight_content": ""}}, {"title": "龙津桥", "address": "广东省海丰县海城东侧龙津河 516400", "image": "", "rank": 21, "time": 2.5, "location": {"lat": 22.9634756103159, "lng": 115.39434127164955}, "feature": {"sight_features": "", "sight_content": ""}}, {"title": "海丰红宫红场旧址纪念馆", "address": "广东省海丰县海城镇人民南路13号 516400", "image": "", "rank": 22, "time": 2, "location": {"lat": 22.973679577622736, "lng": 115.34253793773767}, "feature": {"sight_features": "", "sight_content": ""}}, {"title": "海丰苏维埃旧址", "address": "广东省海丰县海城镇幼石街3号 516400", "image": "", "rank": 23, "time": 2, "location": {"lat": 22.96951303251152, "lng": 115.32999743022923}, "feature": {"sight_features": "", "sight_content": ""}}, {"title": "召贡温泉", "address": "广东省海丰县莲花山镇 516487", "image": "", "rank": 24, "time": 2, "location": {"lat": 23.012661166680584, "lng": 115.29288364165593}, "feature": {"sight_features": "", "sight_content": ""}}, {"title": "冠峰温泉", "address": "广东省海丰县莲花山镇埔仔峒黄土岭 516400", "image": "", "rank": 25, "time": 2, "location": {"lat": 22.992281401674067, "lng": 115.22158549806457}, "feature": {"sight_features": "", "sight_content": ""}}, {"title": "丘东平故居", "address": "广东省海丰县梅陇镇马福兰村 510000", "image": "", "rank": 26, "time": 0.4, "location": {"lat": 22.894530222937345, "lng": 115.2081908475419}, "feature": {"sight_features": "", "sight_content": ""}}, {"title": "金丽湾度假村", "address": "汕尾市鲘门镇百安半岛", "image": "", "rank": 27, "time": 2, "location": {"lat": 22.810013458311417, "lng": 115.09965687518392}, "feature": {"sight_features": "", "sight_content": ""}}, {"title": "平东影剧院", "address": "中兴街附近", "image": "", "rank": 28, "time": 2, "location": {"lat": 40.04892975063672, "lng": 117.42633968511907}, "feature": {"sight_features": "", "sight_content": ""}}, {"title": "玉虚宫", "address": "广东省汕尾市海丰县公平新平路玉虚宫(信誉商场西北50米)", "image": "", "rank": 29, "time": 1.0, "location": {"lat": 23.066201615081926, "lng": 115.40126196551655}, "feature": {"sight_features": "", "sight_content": ""}}, {"title": "摇滚肘子", "address": "益民街", "image": "", "rank": 30, "time": 2, "location": {"lat": 40.0444986307837, "lng": 113.62081435147165}, "feature": {"sight_features": "", "sight_content": ""}}, {"title": "海丰西秦戏剧团", "address": "海银路", "image": "", "rank": 31, "time": 2, "location": {"lat": 22.986571869188015, "lng": 115.33721184664194}, "feature": {"sight_features": "", "sight_content": ""}}, {"title": "汕尾海丽国际高尔夫球会", "address": "广东省海丰县后门镇 516466", "image": "", "rank": 32, "time": 4.5, "location": {"lat": 22.81782611482477, "lng": 115.16632642956883}, "feature": {"sight_features": "", "sight_content": ""}}, {"title": "田家沟生态旅游区", "address": "甘肃省泾川县境内 744300", "image": "", "rank": 33, "time": 1.0, "location": {"lat": 35.33866859782093, "lng": 107.37451813363634}, "feature": {"sight_features": "", "sight_content": ""}}, {"title": "海丰博物馆", "address": "广东省海丰县人民西路35号 516400", "image": "", "rank": 34, "time": 2.5, "location": {"lat": 23.06696908681395, "lng": 115.39913783230836}, "feature": {"sight_features": "", "sight_content": ""}}, {"title": "海丰银海湾海洋生态乐园", "address": "鲘门镇红泉沙埔村海边(近红泉中心小学)", "image": "", "rank": 35, "time": 2, "location": {"lat": 37.81345317707763, "lng": 102.25261940905872}, "feature": {"sight_features": "", "sight_content": ""}}, {"title": "永吉墓园", "address": "397乡道附近", "image": "", "rank": 36, "time": 3.0, "location": {"lat": 41.093464489834915, "lng": 123.16179514586577}, "feature": {"sight_features": "", "sight_content": ""}}, {"title": "包公庙", "address": "梅北大道北50米", "image": "", "rank": 37, "time": 1.5, "location": {"lat": 22.90375244253636, "lng": 115.22527391892798}, "feature": {"sight_features": "", "sight_content": ""}}, {"title": "凤河晚渡桃花源艺术村", "address": "海丰县赤石镇X131汕尾桃花源风景区内", "image": "", "rank": 38, "time": 2, "location": {"lat": 22.880782261496332, "lng": 115.07984193547165}, "feature": {"sight_features": "", "sight_content": ""}}, {"title": "儿童乐园", "address": "海丰县海丽大道9附近", "image": "", "rank": 39, "time": 2, "location": {"lat": 22.960836712572874, "lng": 115.34039966776736}, "feature": {"sight_features": "", "sight_content": ""}}, {"title": "基督教海城堂", "address": "城东镇中山东路", "image": "", "rank": 40, "time": 2, "location": {"lat": 22.97827018728654, "lng": 115.35037635488625}, "feature": {"sight_features": "", "sight_content": ""}}, {"title": "海丰革命烈士革命斗争史纪念馆", "address": "广东省汕尾市海丰县红城大道海丰县烈士陵园", "image": "", "rank": 41, "time": 2, "location": {"lat": 22.976250477750096, "lng": 115.33421007613724}, "feature": {"sight_features": "", "sight_content": ""}}, {"title": "家宝贝", "address": "广东省汕尾市海丰县解放中路8号", "image": "", "rank": 42, "time": 2, "location": {"lat": 22.97870250869796, "lng": 115.34242529022676}, "feature": {"sight_features": "", "sight_content": ""}}, {"title": "精灵王国游乐园", "address": "其他海城镇红城大道岁宝百货二楼", "image": "", "rank": 43, "time": 2, "location": {"lat": 22.97773526656334, "lng": 115.33991597529398}, "feature": {"sight_features": "", "sight_content": ""}}, {"title": "妈宫", "address": "汕尾市海丰县", "image": "", "rank": 44, "time": 2, "location": {"lat": 22.972744260965804, "lng": 115.32944477561186}, "feature": {"sight_features": "", "sight_content": ""}}, {"title": "金竹古寺", "address": "广东省汕尾市海丰县蔡坑", "image": "", "rank": 45, "time": 2, "location": {"lat": 23.005062056250736, "lng": 115.24599628284915}, "feature": {"sight_features": "", "sight_content": ""}}, {"title": "金花祖庙", "address": "广东省汕尾市海丰县海城广富路红城大厦西北150米", "image": "", "rank": 46, "time": 2, "location": {"lat": 22.97429684185426, "lng": 115.34304326153602}, "feature": {"sight_features": "", "sight_content": ""}}, {"title": "开心熙熙游乐园", "address": "海城镇商业城第二栋三层7-12号", "image": "", "rank": 47, "time": 2, "location": {"lat": 24.293351503297334, "lng": 109.40545680383038}, "feature": {"sight_features": "", "sight_content": ""}}, {"title": "海丰苏维埃创建史暨民俗民艺展", "address": "中山南路与解放路交叉口西50米", "image": "", "rank": 48, "time": 2, "location": {"lat": 25.69844361097313, "lng": 114.31329466059209}, "feature": {"sight_features": "", "sight_content": ""}}, {"title": "海丰五龙寺", "address": "二环东路与迎新路交叉口东南50米", "image": "", "rank": 49, "time": 2, "location": {"lat": 22.978321087654585, "lng": 115.36145277173601}, "feature": {"sight_features": "", "sight_content": ""}}, {"title": "基督教海城堂", "address": "城东镇中山东路", "image": "", "rank": 50, "time": 2, "location": {"lat": 22.97827018728654, "lng": 115.35037635488625}, "feature": {"sight_features": "", "sight_content": ""}}, {"title": "灏缘度假村", "address": "广东省汕尾市海丰县X121", "image": "", "rank": 51, "time": 2, "location": {"lat": 22.972744260965804, "lng": 115.32944477561186}, "feature": {"sight_features": "", "sight_content": ""}}, {"title": "莲花禅谷", "address": "海丰县海城镇布格村", "image": "", "rank": 52, "time": 2, "location": {"lat": 22.96951303251152, "lng": 115.32999743022923}, "feature": {"sight_features": "", "sight_content": ""}}, {"title": "施氏宗祠", "address": "向阳路与红场路交叉口西北150米", "image": "", "rank": 53, "time": 2, "location": {"lat": 22.974953432360245, "lng": 115.34459732647456}, "feature": {"sight_features": "", "sight_content": ""}}, {"title": "华岩寺", "address": "121县道附近", "image": "", "rank": 54, "time": 1.0, "location": {"lat": 30.406829252220568, "lng": 107.5202219398965}, "feature": {"sight_features": "", "sight_content": ""}}, {"title": "西山宫", "address": "东方红附近", "image": "", "rank": 55, "time": 2, "location": {"lat": 38.06066199817716, "lng": 114.6030830177208}, "feature": {"sight_features": "", "sight_content": ""}}, {"title": "赤石基督教堂", "address": "赤石中学附近", "image": "", "rank": 56, "time": 2, "location": {"lat": 22.883957593144142, "lng": 115.079761985383}, "feature": {"sight_features": "", "sight_content": ""}}, {"title": "佛祖庙", "address": "广东省汕尾市海丰县", "image": "", "rank": 57, "time": 2, "location": {"lat": 22.972744260965804, "lng": 115.32944477561186}, "feature": {"sight_features": "", "sight_content": ""}}, {"title": "文武庙", "address": "126县道附近", "image": "", "rank": 58, "time": 1.5, "location": {"lat": 41.50932647907161, "lng": 123.54378788601225}, "feature": {"sight_features": "", "sight_content": ""}}, {"title": "梅陇公园", "address": "梅陇镇工业区", "image": "", "rank": 59, "time": 2, "location": {"lat": 45.622691380487936, "lng": 122.84417736821842}, "feature": {"sight_features": "", "sight_content": ""}}, {"title": "吉围宫", "address": "东岭村附近", "image": "", "rank": 60, "time": 2, "location": {"lat": 34.364173246334055, "lng": 107.19546167389308}, "feature": {"sight_features": "", "sight_content": ""}}]}