{"cityName": "海口", "days": "2", "cityImage": "", "spots": [{"title": "骑楼老街", "address": "海口市龙华区水巷口路34号", "image": "", "rank": 1, "time": 2.5, "location": {"lat": 20.049829740151708, "lng": 110.3525274578168}, "feature": {"sight_features": "", "sight_content": ""}}, {"title": "假日海滩", "address": "海口市秀英区滨海大道", "image": "", "rank": 2, "time": 3.5, "location": {"lat": 20.033614758040894, "lng": 110.26093405055715}, "feature": {"sight_features": "", "sight_content": ""}}, {"title": "雷琼海口火山群世界地质公园", "address": "海口市秀英区石山镇火山群世界地质公园", "image": "", "rank": 3, "time": 2.5, "location": {"lat": 19.93376955322837, "lng": 110.22611404288247}, "feature": {"sight_features": "特色1 热带城市的火山生态与文化。", "sight_content": "海口石山火山群世界地质公园位于海口市西南石山镇，距市区仅15公里，西线高速公路转绿色长廊可达，绕城高速公路穿过园区。属地堑一裂谷型基性火山活动地质遗迹，也是中国为数不多的全新世（距今1万年）火山喷发活动的休眠火山群之一，具有科考、科研、科普和旅游观赏价值。4A级景区，世界地质公园，国家地质公园。\n据地质学家考证，琼北火山喷发于新生代早第三纪，最后一次喷发是第四纪全新世，距今约1万3千年前。历经万年沧海，大地变迁，这里还保存了36座环杯锥状火山口地貌遗址，其中马鞍岭火山口海拔222.8米，乃琼北最高峰之一。\n公园距离海口市约15公里，面积为108平方公里。其拥有的海口火山群是世界罕见的第四纪火山群，距今约1万年，火山锥多达40座，熔岩隧道30多条。火山类型之多样，熔岩景观之丰富，熔岩隧道之神奇，实为罕见的火山奇观。万年前的火山，千年火山文化和热带生态景观相融合，构成了以热带城市火山生态与文化为内涵的地质公园。\n地质遗迹主体为40座火山构成的第四纪火山群。火山类型齐全、多样，几乎涵盖了玄武质火山喷发的各类火山，既有岩浆喷发而成的碎屑锥、熔岩锥、混合锥，又有岩浆与地下水相互作用形成的玛珥火山，火山地质景观极为丰富。熔岩隧道有30多条，最长到2000余米，其内部形态与景观丰富、奇妙，为国内外所罕见。\n园区在火山锥、火山口及玄武岩台地上发育热带雨林为代表生态群落植物有1200多种，果园与火山景观融为一体，为热带城市火山生态的杰出代表。园区内保存有千百年来人们利用玄武岩所建的古村落、石屋、石塔和各种生产、生活器具，记载了人与石相伴的火山文化脉络，被称为中华火山文化之经典。园区总面积108平方公里。主要景点有马鞍岭、双池岭、仙人洞、罗京盘等。"}}, {"title": "海南热带野生动植物园", "address": "海口市秀英区东山镇（海榆中线27公里处）", "image": "", "rank": 4, "time": 2.5, "location": {"lat": 19.99545914534914, "lng": 110.28674098625642}, "feature": {"sight_features": "特色1 浓缩海南岛动植物精华的天然博物馆。 特色2 园区设有车行观赏区、步行观赏区、湖边度假区、中心服务区等。 特色3 集珍稀野生动植物科普博览、保护繁殖、观光旅游、休闲度假为主题。", "sight_content": "海南热带野生动植物园是集珍稀野生动植物科普博览、保护繁殖、观光旅游、休闲度假为主题的国家AAAA级旅游景区。同时也是一家全景式展现岛屿型热带雨林生态系统、浓缩海南岛动植物精华的天然博物馆。\n景区位于四季皆春的中国热带度假天堂——海南岛北部黄金旅游圈，风景如画，交通便利。景区珍奇异兽达100多种，近3000头（只）；珍稀热带植物有280科，1000多品种，热带森林覆盖率达95%。进入景区，犹如进入了一个天然的“大氧吧”；游览过程，宛如进行了一次美妙的“森林浴”。高负氧离子、高清新空气、高森林覆盖率的谷湖生态环境，让人心旷神怡！\n景区一改城市动物园高墙铁笼的囚兽格局，各类猛兽自然散养，游人驱车在车行猛兽区内穿行，充分体验“人在笼中兽在外”奇妙感觉。\n◆长颈鹿乐园\n这批长颈鹿来自南非，它们是世界上现存最高的陆生动物，站立时由头至脚可达6-8米，成年体重约700千克。成年的长颈鹿喜欢群居生活，以树叶及小树枝为主食,它们脾气温柔，谦和文雅，彬彬有礼，品性很好，喜欢与游客互动，在动物园很受游客们的喜爱。\n◆狮虎兽、虎狮兽家族\n园区有狮虎兽、虎狮兽家族种群，这里是创造中国狮虎兽繁殖研究成功奇迹神秘的地方，不得不看。\n◆神游史前侏罗纪 探险海野恐龙园\n海南热带野生动植物园恐龙园开园啦！有主龙、暴龙、异齿龙、梁龙、霸王龙、翼龙、三角龙等等。在这里，您可以听到恐龙的咆哮，与各种恐龙近距离互动，收获古生物的知识！在这里，我们将共同寻找失去的世界，在动植物园体验独特的恐龙文化，您将拥有全新的体验和感受！海野特邀您开始一次穿越，穿越几亿年的时光隧道，在雨林秘境探险寻找恐龙，体验恐龙世界的惊险与奇幻。这里是恐龙再现的欢乐王国，让我们与恐龙一起开始奇妙的探险，体验迷人狂野的侏罗纪乐园。\n◆大猴山\n这是一座人猴同乐的景区，在这里您可以观摩“高台跳水”、“空中争食”、“登百步梯”、“飞走钢丝”等猕猴们上演的一幕幕幽默短剧，让人忍俊不禁，开怀不已。人猴同乐，盎然成趣。\n◆大狮谷\n这里有非洲狮群，让我们领略经典不衰的狮王争霸。\n◆热带黑熊谷\n想知道黑熊是怎么爬上高高的大树并且怎么下来的，那你就来吧！\n核心特色景观还有：\n海南本土动物海南坡鹿、白水牛、五脚猪等，和聪明的小鹦鹉对话，和幼稚园的小狮子、小老虎们亲密接触；看灵性十足的猴表演让您忍俊不禁；在深不可测的鳄鱼湖垂钓，见证鳄鱼的眼泪……；诗情画意东山湖、浓香热带果蔬圃、绿色热带雨林走廊、葱翠热带植物大观园……等等。吸引了大量慕名而来的中外游客朋友，尽情领略“畅游生态乐园发现野生之美”的热带海岛旅游。\n“大家都应该来体验一下这个美丽的地方！”挖掘“美丽”的世界第一人——世界小姐组委会主席茱莉亚·莫莉夫人携第56届世姐冠军塔塔娜一行慕名游园时，对景区雨林环境与和谐生态景观赞不绝口，美丽的肺腑之言远扬世界……\n坐落在海南热带野生动植物园中心服务区的热带雨林·火烈鸟餐厅，是游人休憩、用餐、赏景的好地方。餐厅占地面积1600平方米，能同时容纳600多人用餐。变幻的灯光照射着古朴的栏杆、小桥下的流水潺潺、粉红的火烈鸟旁若无人的梳理着羽毛…自然、绿色、生态是装修一新的热带雨林·火烈鸟餐厅的高档品味。这里远离闹市，远离喧嚣，让游人犹如置身生机盎然的热带雨林里。火烈鸟餐厅菜肴原料全部取自景区自产自养，除了鲜、活，还都是纯天然的绿色食品。\n真挚的邀请您到海南热带野生动植物园来，在绿色中行走，在绿海中呼吸，撩开海南热带森林的神秘面纱，感受海南热带雨林的独特魅力，充分享受在热带雨林里与大自然零距离接触的快意旅途！"}}, {"title": "万绿园", "address": "海口市龙华区滨海大道38号", "image": "", "rank": 5, "time": 2.5, "location": {"lat": 20.038423811092443, "lng": 110.32516883409538}, "feature": {"sight_features": "", "sight_content": ""}}, {"title": "五公祠", "address": "海口市琼山区海府路169号", "image": "", "rank": 6, "time": 2.0, "location": {"lat": 20.012549235550786, "lng": 110.3650345510552}, "feature": {"sight_features": "特色1 海南最早的楼房，有“海南第一楼”之称。 特色2 品味海南历史文化及中国书法之美。", "sight_content": "五公祠位于海口市区，是展示中国古代贬官文化、海南历史文化及具有海南特色的古代建筑艺术的文物古迹。“五公祠”为一组古建筑群的统称，连同园林、井泉、池塘约占地100亩。它包括：学圃堂、观稼堂、西斋(五公精舍)、东斋、苏公祠、两伏波祠、洞酌亭，浮粟泉、琼园和新建的五公祠陈列馆。"}}, {"title": "海口钟楼", "address": "海口市龙华区长堤路20号(人民桥附近)", "image": "", "rank": 7, "time": 0.75, "location": {"lat": 20.049355071335473, "lng": 110.34814255823409}, "feature": {"sight_features": "", "sight_content": ""}}, {"title": "东寨港红树林", "address": "海口市美兰区明北环线", "image": "", "rank": 8, "time": 3.5, "location": {"lat": 19.963302118151656, "lng": 110.59413633561621}, "feature": {"sight_features": "特色1 在海上森林公园，乘船穿行在红树林间，感受红树林的顽强生命力。", "sight_content": "东寨港红树林保护区是中国最大的红树林自然保护区，被誉为“海上森林公园”，在这里一定要坐船游玩才能全面欣赏到保护区的景色。这里虽被叫做红树林，但实际上树叶颜色依旧是郁郁葱葱的绿，坐船沿海道蜿蜒而过，沿途都是半淹在水中的红树林，让人不得不惊叹他们顽强的生命力。若运气好，船行中还能看到各种鸟类，特别是到了秋冬季，这里几乎是候鸟的乐园。"}}, {"title": "白沙门公园", "address": "海口市美兰区海甸六东路与人民大道交汇处", "image": "", "rank": 9, "time": 2.5, "location": {"lat": 20.07468443047545, "lng": 110.3487294760202}, "feature": {"sight_features": "", "sight_content": ""}}, {"title": "观澜湖火山岩矿温泉主题公园", "address": "海口市龙华区观澜湖大道1号", "image": "", "rank": 10, "time": 2, "location": {"lat": 19.917656000064934, "lng": 110.3281019012964}, "feature": {"sight_features": "特色1 亚洲最大的火山岩矿温泉主题公园 特色2 东屿岛温泉拥有不同功能、不同特色的温泉38种 特色3 景区齐全的配套设施，一定令您流连忘返", "sight_content": "海口观澜湖度假区火山岩矿温泉主题公园日前落成开业。公园占地超88,000 平方米、可同时容纳5000人体验，包括蕴含全球六大洲风格的火山岩矿温泉、设计独特的水疗中心和户外火山岩水上乐园三大板块。\n公园设计以中西经典风格建筑相结合，以中国福建客家围屋为设计灵感，矿温泉迎宾大堂和水疗主楼是园区的重心和亮点。火山岩矿温泉项目是主题公园规模最大的区域，面积达44,000平方米。共设有150个冷、热泉汤池及99个流水景观，取自地底深达800米的天然泉水，自然水温在15℃至43℃之间，蕴含多种保健功效的天然矿物成份，水质获英国国际水质研究所认证。水疗中心占地超过20,000平方米，拥有90间护理套房，其中29间为水疗别墅，专为热爱水疗的宾客及其家庭提供护理和服务。水疗中心的“静修花园”提供的“矿物泥广场”、“火山蒸气屋”等系列服务。\n长达500米的全竹结构的“龙脊长廊”连通着各个风格不同、功能各异的主题区。亚洲区“热带东方”、“东方禅意”等主题温泉，人们可以体验具有中国、日本、韩国、印度等各国特色的温泉。大洋洲区则凸显“原著毛利”和“山林温泉“的意境，让人可快速恢复体力。美洲区推出“炙热熔岩”、“狂野西部”和“亚马逊河域”，具有滋润肌肤、消除疲劳的功效。欧洲区着意渲染“古典罗马”、“地中海风情”、“法国葡萄园”、“希腊海洋”的浪漫。非洲区的“迷城”把人们的想象引入一个未知世界。"}}, {"title": "海南省博物馆", "address": "省海口琼山区国兴大道68号", "image": "", "rank": 11, "time": 2.5, "location": {"lat": 20.02089967629356, "lng": 110.38312041974616}, "feature": {"sight_features": "", "sight_content": ""}}, {"title": "海口世纪大桥", "address": "海口市龙华区连接龙昆北路和海甸岛", "image": "", "rank": 12, "time": 1.5, "location": {"lat": 20.035933318643465, "lng": 110.33332661142893}, "feature": {"sight_features": "", "sight_content": ""}}, {"title": "海南大学", "address": "海口市美兰区人民大道58号", "image": "", "rank": 13, "time": 1.5, "location": {"lat": 20.065160574947743, "lng": 110.34547084852957}, "feature": {"sight_features": "", "sight_content": ""}}, {"title": "西秀海滩", "address": "海口市秀英区滨海大道163号中国石油公司海南分公司西侧280米左右", "image": "", "rank": 14, "time": 2.5, "location": {"lat": 20.02893669838929, "lng": 110.27187103062909}, "feature": {"sight_features": "", "sight_content": ""}}, {"title": "琼台书院", "address": "海口市琼山区中山北路", "image": "", "rank": 15, "time": 1.5, "location": {"lat": 20.009193527102017, "lng": 110.36200781394547}, "feature": {"sight_features": "", "sight_content": ""}}, {"title": "海瑞墓", "address": "海口市龙华区丘海大道39号", "image": "", "rank": 16, "time": 0.75, "location": {"lat": 20.024276291819856, "lng": 110.29936470380424}, "feature": {"sight_features": "", "sight_content": ""}}, {"title": "海口人民公园", "address": "海口市龙华区公园路3号", "image": "", "rank": 17, "time": 2.5, "location": {"lat": 20.04038017836291, "lng": 110.34875432404891}, "feature": {"sight_features": "", "sight_content": ""}}, {"title": "金牛岭公园", "address": "海口市龙华区海秀中路102号", "image": "", "rank": 18, "time": 2.5, "location": {"lat": 20.021103565894133, "lng": 110.32193790855008}, "feature": {"sight_features": "", "sight_content": ""}}, {"title": "观澜湖华谊冯小刚电影公社", "address": "海口市龙华区羊山大道19号电影公社（西线高速往观澜湖温泉1.8公里处）", "image": "", "rank": 19, "time": 2, "location": {"lat": 19.92400894377095, "lng": 110.35654396051338}, "feature": {"sight_features": "特色1 “乌托邦”式的电影主题旅游胜地 特色2 可感受唐山大地震震撼场景 特色3 电影公社体现了冯氏电影的经典元素、难忘的电影场景、浓郁的怀旧", "sight_content": "海口观澜湖华谊冯小刚电影公社是由观澜湖集团携手华谊兄弟公司、导演冯小刚，巨资打造的中国独具特色的电影主题旅游胜地。电影公社包括1942街、南洋街、老北京街、教堂广场区、冯氏贺岁电影园林景观区、影人星光大道、大型摄影棚拍摄区共七个主题区。在集纳电影场景的各个区里，还聚集了不同品牌和特色的餐饮、娱乐、购物、电影院、咖啡屋、酒吧、精品酒店……难忘的电影场景，浓郁的怀旧气氛，日与夜转换的旅游商业街区，使整个项目集建筑旅游、电影旅游、商业旅游于一体，完整展现上世纪百年间，不同时空转换的中国城市街区风情和城市街区建筑的演变史。冯小刚还为电影公社度身剪辑的40分钟“贺岁集锦”，在区内影院中循环放映。\n1942街，以冯小刚电影《温故1942》中出现的重庆街道为蓝本，91栋建筑集合了上世纪三、四十年代长江流域４大城市重庆、武汉、南京、上海等地典型的建筑风情。整条街道从钟楼广场到街尾牌坊的长度共280米，其中20多栋建筑完全按照老照片复原，包括曾为蒋介石官邸的尧庐、西山钟楼、重庆国泰戏院、上海融光大戏院等等，每一栋建筑背后都有一段流逝的故事，令人追忆和回味。\n南洋街，座落在300多米长的水岸边，集合了70幢中外建筑风格交相辉映的南洋风情建筑。其中，富有时代感的牌坊、码头、钟楼、小桥等南洋建筑集群极富意趣。南洋街充分凸显了“一带一路”和海南地域特色，不仅真实还原南洋风情建筑和街道，而且还原性呈现武馆、当铺、洋服铺、药铺、凉茶铺、饼屋等南洋市井商业风情，同时全天候的演艺让游客感受到立体多元的文化旅游体验。\n老北京街，集合老北京风情建筑集群的精华，体现出大气、端庄、简洁的建筑审美情趣，更加原汁原味的体现老北京的文化内涵，特别融入了电影《老炮儿》里的北京胡同儿元素，未来的老北京街同样令人期待。\n芳华小院是冯小刚导演2017年新作《芳华》电影的主要拍摄景地，位于海口观澜湖华谊冯小刚电影公社1942民国街，芳华小院制景包括了影片中的文工团小院、男女主角的练舞内景、人民邮电等相关主题建筑，1942街整条街挂着有关毛主席的各类语录、横幅、还原历史本貌。《芳华》根据严歌苓的同名作品改编，主要讲述了再充满理想和激情的军队文工团，一群正值芳华的青春年少经历着成长中的爱情萌发一系列的故事。\n影人星光大道，由明星的手印和签名组成。电影公社充分考察好莱坞和香港的星光大道，采用整块大理石，通过人工切割、雕刻、打磨，制作成1.2米高的ArtDeco风格的基座，方便游客在喜爱的明星的手印前拍照留念。首批呈现的80位明星手印和签名，大部分明星都亲临过电影公社，包括冯小刚、葛优、张国立、成龙、刘德华、徐帆、宋丹丹、姚晨、李冰冰、廖凡、段奕宏、徐克、管虎等国内一线明星和导演。\n\n\n大型摄影棚拍摄区，从设计到建造实施完全按照国际最高标准进行。大型摄影棚拍摄区包括一个目前全球最大的8000㎡摄影棚、一个5000㎡摄影棚、两个3000㎡摄影棚，以及动力车间、制景车间、道具车间、艺工作室、影人服务公寓等配套设施，这里将成为中国星光绽放的影人聚集地。"}}, {"title": "海口中山路", "address": "海口市琼山区中山路", "image": "", "rank": 20, "time": 2.5, "location": {"lat": 20.005843824647943, "lng": 110.36240334864105}, "feature": {"sight_features": "", "sight_content": ""}}, {"title": "海甸岛", "address": "海口市美兰区海甸岛", "image": "", "rank": 21, "time": 4.5, "location": {"lat": 20.07175601393561, "lng": 110.33497828804074}, "feature": {"sight_features": "", "sight_content": ""}}, {"title": "海口火车站", "address": "海口市粤海大道，南接南海大道，北接滨海大道延长线。", "image": "", "rank": 22, "time": 2, "location": {"lat": 20.027208595240403, "lng": 110.17282661843804}, "feature": {"sight_features": "", "sight_content": ""}}, {"title": "海口滨海大道", "address": "海口市龙华区滨海大道", "image": "", "rank": 23, "time": 2.5, "location": {"lat": 20.033614758040894, "lng": 110.26093405055715}, "feature": {"sight_features": "", "sight_content": ""}}, {"title": "海底村庄", "address": "海口市琼山区境内", "image": "", "rank": 24, "time": 2.0, "location": {"lat": 20.00915064449064, "lng": 110.36052605900726}, "feature": {"sight_features": "", "sight_content": ""}}, {"title": "苏公祠", "address": "海口市琼山区海府路169号五公祠游览区内", "image": "", "rank": 25, "time": 1.0, "location": {"lat": 20.012549235550786, "lng": 110.3650345510552}, "feature": {"sight_features": "", "sight_content": ""}}, {"title": "西海岸带状公园", "address": "海口市秀英区滨海大道", "image": "", "rank": 26, "time": 2.0, "location": {"lat": 20.033614758040894, "lng": 110.26093405055715}, "feature": {"sight_features": "", "sight_content": ""}}, {"title": "海瑞故居", "address": "海口市琼山区红城湖路67号", "image": "", "rank": 27, "time": 1.5, "location": {"lat": 20.009489189053777, "lng": 110.35574375805011}, "feature": {"sight_features": "", "sight_content": ""}}, {"title": "白沙门恐龙展", "address": "海口市白沙门公园（人民大道与海甸岛六路交汇处）", "image": "", "rank": 28, "time": 2, "location": {"lat": 20.06850854323978, "lng": 110.35815776636151}, "feature": {"sight_features": "", "sight_content": ""}}, {"title": "海南鑫源温泉", "address": "海口市龙华区海秀路18-8号（明珠广场旁）", "image": "", "rank": 29, "time": 2, "location": {"lat": 20.033777242205517, "lng": 110.34743854362988}, "feature": {"sight_features": "", "sight_content": ""}}, {"title": "李硕勋烈士纪念亭", "address": "海口市琼山区勋亭路39号", "image": "", "rank": 30, "time": 1.5, "location": {"lat": 20.0189637164509, "lng": 110.36080462264749}, "feature": {"sight_features": "", "sight_content": ""}}, {"title": "海口博物馆", "address": "海口市琼山区海府路169号五公祠游览区内（近流芳路）", "image": "", "rank": 31, "time": 2.0, "location": {"lat": 20.012549235550786, "lng": 110.3650345510552}, "feature": {"sight_features": "", "sight_content": ""}}, {"title": "泰迪熊博物馆", "address": "海口市龙华区羊山大道39号海口观澜湖新城", "image": "", "rank": 32, "time": 3.0, "location": {"lat": 19.92255253496392, "lng": 110.3409539887658}, "feature": {"sight_features": "特色1 充实且有意义的文化趣味之旅 特色2 以泰迪熊为主题元素，与人类历史文化相结合。", "sight_content": "海口泰迪熊博物馆坐落于海口观澜湖新城，与韩国济州岛泰迪熊一脉相承，是由韩国株式会社JS&F 公司在中国独资并直营的首家泰迪熊主题文化展览馆。整个博物馆由一带一路主题馆、泰迪熊历史馆、LV 泰迪熊全息影像3D馆、泰迪熊艺术画廊、海底世界以及泰迪熊礼品店7个区域组成。\n泰迪熊是什么熊？\n泰迪熊是象征着爱、友谊和忠诚的玩具熊，而它的名字就是源于美国第26 任总统，罗斯福的小名“泰迪”。据说当时罗斯福总统平时就很喜欢狩猎，有一天他与他的随从一块去打猎，但却一无所获；当时随从为了顾及总统的面子，就捕获了一直小黑熊让他射杀，但他却认为这是不公平公正的行为，因此就将小黑熊放生了。后来，华盛顿漫画家克利夫特.贝利曼就将这一故事画成漫画刊登了在邮报上，此后，随着罗斯福总统公平公正的精神被颂扬的同时，漫画中的小黑熊也就随着罗斯福总统的小名泰迪而得名；而就在此时玩具制造公司史蒂夫（Steiff）公司将小熊玩偶推进美国市场，“泰迪熊”玩偶也由此诞生了。\n泰迪熊博物馆是什么？\n泰迪熊博物馆是以泰迪熊为主题元素，通过场景展示重现了人类历史、艺术以及文化发展的文化性展览馆。泰迪熊博物馆商标权属于韩国JS&F 有限公司，且其旗下有韩国济州泰迪熊博物馆、韩国雪岳泰迪熊博物馆、韩国庆州泰迪熊博物馆、韩国N 首尔塔泰迪熊博物馆和海口泰迪熊博物馆；此外还在韩国丽水和中国成都授权经营着两家泰迪熊博物馆。\n一带一路主题馆\n跟随着泰迪熊家族的探险足迹，以引领中国文明发展历史的古代丝绸之路，以及未来引领中国以及周边国家的更广泛文化交流的海上丝绸之路的“一带一路”为路线，开始最独特的环球之旅！各国地域风情尽收眼底，趣味无穷，惊喜不断。\n泰迪熊历史馆\n在这里，我们向大家展示的是诞生于1902 年的玩具泰迪熊发展的历史以及演变的过程；由此大家可以了解到泰迪熊的悠久历史，同时还可以欣赏到高价的古董泰迪熊以及出自艺术家之手的极具收藏价值的泰迪熊艺术品。\nLV 泰迪熊全息影像3D 馆\n在这里，您可以通过全息影像技术亲眼观赏到价值210 万美金的世界上最昂贵的泰迪熊“路易威登泰迪熊”。\n泰迪熊艺术画廊\n泰迪熊与世界艺术著作的结合。让小朋友们在趣味观赏的同时，也深刻了艺术文化的学识。\n海底世界\n神秘而又新奇的“没有水”的海底世界。在这里，您可以与海底生物亲密接触，融入海底氛围，探索海底的奥秘。\n泰迪熊游乐园\n孩子们的游乐天堂——和动物家族一起尽情地玩耍，留下最美好的回忆吧！\n泰迪熊礼品店\n每一只泰迪熊都有一个特别的含义，挑选一个特别的商品赠予最特别的TA，或是奖励给最特别的自己。记得，只有在泰迪熊礼品店里才可以购买到正版的泰迪熊商品，这是正统的“贵族”象征，是真爱与忠诚的载体，是最独特的爱的陪伴。"}}, {"title": "奥斯卡影院", "address": "海口市龙华区南海大道亚洲豪苑城市广场2号楼", "image": "", "rank": 33, "time": 2, "location": {"lat": 20.001991576083267, "lng": 110.33250974899168}, "feature": {"sight_features": "", "sight_content": ""}}, {"title": "琼州大桥", "address": "位于琼山市和海口市之间，西起国兴大道，东至白驹大道。", "image": "", "rank": 34, "time": 15.0, "location": {"lat": 20.022745686567855, "lng": 110.36616267186004}, "feature": {"sight_features": "", "sight_content": ""}}, {"title": "西海岸高尔夫俱乐部", "address": "海口市滨海大道219号", "image": "", "rank": 35, "time": 2, "location": {"lat": 20.040078133303123, "lng": 110.23753045758798}, "feature": {"sight_features": "", "sight_content": ""}}, {"title": "海南富力红树湾高尔夫球会", "address": "澄迈县大丰镇富力红树湾", "image": "", "rank": 36, "time": 2, "location": {"lat": 19.899949441906344, "lng": 110.01101213319821}, "feature": {"sight_features": "", "sight_content": ""}}, {"title": "美兰高尔夫俱乐部", "address": "海口市美兰区演丰镇", "image": "", "rank": 37, "time": 2, "location": {"lat": 19.964919712183775, "lng": 110.5420636376108}, "feature": {"sight_features": "", "sight_content": ""}}, {"title": "中影南国影城", "address": "海口市龙华区金龙路98号上邦百汇城三号楼C3", "image": "", "rank": 38, "time": 2, "location": {"lat": 20.026567577525046, "lng": 110.33036319317965}, "feature": {"sight_features": "", "sight_content": ""}}, {"title": "琼崖一大旧址", "address": "海口市琼山区解放西路竹林里131号", "image": "", "rank": 39, "time": 1.0, "location": {"lat": 20.00915064449064, "lng": 110.36052605900726}, "feature": {"sight_features": "", "sight_content": ""}}, {"title": "灵山游乐园", "address": "海口市美兰区区灵山镇（近海榆东线）", "image": "", "rank": 40, "time": 2.0, "location": {"lat": 19.998947752808657, "lng": 110.4359000841877}, "feature": {"sight_features": "", "sight_content": ""}}, {"title": "琼台福地", "address": "海口市琼山区府城镇文庄路的一条南北小巷，关帝巷之内。", "image": "", "rank": 41, "time": 1.0, "location": {"lat": 20.006775353930028, "lng": 110.36306233478328}, "feature": {"sight_features": "", "sight_content": ""}}, {"title": "白沙门变形金钢展", "address": "海口市海甸六东路白沙门公园内", "image": "", "rank": 42, "time": 2, "location": {"lat": 20.078121123551398, "lng": 110.3420339424292}, "feature": {"sight_features": "", "sight_content": ""}}, {"title": "世纪公园", "address": "海南海口龙华区世纪大桥世纪公园", "image": "", "rank": 43, "time": 1.5, "location": {"lat": 20.04954057568878, "lng": 110.32659385744745}, "feature": {"sight_features": "", "sight_content": ""}}, {"title": "丘浚故居", "address": "海口市琼山区府城镇金花路三巷9号", "image": "", "rank": 44, "time": null, "location": {"lat": 20.006114185873493, "lng": 110.3551026293231}, "feature": {"sight_features": "", "sight_content": ""}}, {"title": "狂野水世界", "address": "海口市龙华区羊山大道63号（观澜湖新城内泰迪熊博物馆旁）", "image": "", "rank": 45, "time": 7.5, "location": {"lat": 19.92255253496392, "lng": 110.3409539887658}, "feature": {"sight_features": "特色1 来自澳洲威秀集团的品牌主题水上乐园。 特色2 主打为游客创造安全、最佳服务、充满乐趣的体验环境。", "sight_content": "威秀主题公园非常振奋人心的地推出了在中国的第一个国际水上乐园：海口狂野水世界。自1984 年狂野水世界在黄金海岸第一次打开它的大门以来，威秀集团在2012 将狂野水世界的品牌带到了悉尼和拉斯维加斯。我们很兴奋地在中国推出中国第一个国际水上乐园——海口狂野水世界，该项目位于著名的观澜湖新城旅游度假区内。\n海口狂野水世界位于海口观澜湖新城旅游度假区内，拥有约30种代表滑道，主要有黑暗漩涡、U 型滑板、大水箭、激发360、勇闯龙脊峰、8道竞技、急速飞梯、激流勇进组合、狂野嬉水基地等9 套加拿大白水公司的进口设备组合，包括专门给小小冒险家玩乐的小小狂野天地和宝宝狂野天地, 一条约330米长漂流河，一个约3700 平方米的造浪池，附带大屏幕及现场娱乐，冲浪模拟器带来最完美的海浪体验。\n园区餐饮简介：\n狂野水世界园区内还配具了不同风格的5 个特色主题餐厅：Village Bean Café 威豆咖啡厅（可同时容纳122 人）、Pacific Restaurant 太平洋餐厅（可同时容纳260 人）、Tropical Restaurant 热带餐厅（可同时容纳64 人）、Oriental Express 东方魅力（可同时容纳256 人）、Rainforest Restaurant 热带雨林快餐（可同时容纳264 人）。\n其他服务项目简介：\n以及各项齐全的服务设施，让您在享受游玩的乐趣同时，感受更加贴心与安全的保障：园区设有男、女卫生间共计54 间，智能储物柜共计2676 个，男、女洗浴室共计175 间。"}}, {"title": "台达高尔夫俱乐部", "address": "海口市琼山区云龙镇海榆东线二十二公里处", "image": "", "rank": 46, "time": 2, "location": {"lat": 19.87946763666826, "lng": 110.47609356587883}, "feature": {"sight_features": "", "sight_content": ""}}, {"title": "天鹅湖动物基地", "address": "海口市美兰区桂林洋大道青春东岸东150米", "image": "", "rank": 47, "time": 4.0, "location": {"lat": 19.989410071402816, "lng": 110.48733206489001}, "feature": {"sight_features": "特色1 动物乐园是科普的场所，园方用科学的驯化管理方法 特色2 游客体会生物间的相互依存、生物与环境的相互依存 特色3 近距离地观赏、接触动物以及与动物互动", "sight_content": "海口天鹅湖动物乐园是集珍稀动物养殖繁育、旅游观光为一体的现代生态公园。公园坐落于海口市桂林洋开发区内，桂林洋大道旁。由水面、小岛及半岛组成。水面名为天鹅湖，湖上散养着以天鹅为主体的大型水禽；小岛及半岛划分为狐猴岛、陆龟天地、火烈鸟谷、鹦鹉世界、猫鼬水獭水豚区、羊驼矮马斑马区，以及以美洲红鹮、彩鹮、粉红琵鹭等为中心的飞鸟世界。\n园区总占地120亩，以水面、小岛及半岛组成。水面名为天鹅湖，湖上散养着以天鹅为主体的大型水禽，其中有疣鼻天鹅（产地欧洲）、黑颈天鹅（产地南美）、黑天鹅（产地澳洲）、大天鹅和小天鹅（亚洲）、扁嘴天鹅（产地美洲）和黑嘴天鹅（产地北美）7种天鹅，包含了天鹅的全部种类，这在国内是唯一的；另有斑头雁、夏威夷雁、加拿大雁、蓝鹤、赤颈鹤等多种珍稀禽类；小岛及半岛划分为狐猴岛、陆龟天地、火烈鸟谷、鹦鹉世界、猫鼬水獭水豚区、羊驼矮马斑马区，以及以美洲红鹮、彩鹮、粉红琵鹭等为中心的飞鸟世界。\n动物乐园是科普的场所，园方用科学的驯化管理方法，把以往动物的圈养方式改为生态散养，让游客可以安全、近距离地观赏、接触动物以及与动物互动，使游客认识、感知动物，从而体会生物间的相互依存、生物与环境的相互依存，更加热爱动物，热爱自然。\n动物乐园是科普的场所，园方用科学的驯化管理方法，把以往动物的圈养方式改为生态散养，让游客可以安全、近距离地观赏、接触动物以及与动物互动，使游客认识、感知动物，从而体会生物间的相互依存、生物与环境的相互依存，更加热爱动物，热爱自然。"}}, {"title": "西天庙", "address": "海口市龙华区义兴街75号", "image": "", "rank": 48, "time": 1.5, "location": {"lat": 20.0471302496715, "lng": 110.34642862635553}, "feature": {"sight_features": "", "sight_content": ""}}, {"title": "美视五月花高尔夫俱乐部", "address": "海口市秀英区滨海大道209号", "image": "", "rank": 49, "time": 2, "location": {"lat": 20.03376263853035, "lng": 110.24815127364596}, "feature": {"sight_features": "", "sight_content": ""}}, {"title": "月亮湾高尔夫俱乐部", "address": "海口市南海大道西19公里", "image": "", "rank": 50, "time": 2, "location": {"lat": 20.02779785992733, "lng": 110.29672723391252}, "feature": {"sight_features": "", "sight_content": ""}}, {"title": "丘浚墓", "address": "海口市秀英区水头村北", "image": "", "rank": 51, "time": 0.75, "location": {"lat": 19.98768155522155, "lng": 110.30296287191308}, "feature": {"sight_features": "", "sight_content": ""}}, {"title": "鸿洲马术俱乐部", "address": "海口市美兰区海榆大道188号鸿洲江山内", "image": "", "rank": 52, "time": 2, "location": {"lat": 19.956467608495483, "lng": 110.44209363657512}, "feature": {"sight_features": "", "sight_content": ""}}, {"title": "美浪湾高尔夫球会", "address": "海口市澄迈县金马大道88号", "image": "", "rank": 53, "time": 2, "location": {"lat": 20.04404943925674, "lng": 110.32552547126409}, "feature": {"sight_features": "", "sight_content": ""}}, {"title": "天后宫", "address": "海口市龙华区中山路87号(近长堤路)", "image": "", "rank": 54, "time": 1.5, "location": {"lat": 20.048973227243376, "lng": 110.34940284942348}, "feature": {"sight_features": "", "sight_content": ""}}, {"title": "海口观澜湖高尔夫7号场", "address": "海口市观澜湖大道1号", "image": "", "rank": 55, "time": 2.5, "location": {"lat": 19.917656000064934, "lng": 110.3281019012964}, "feature": {"sight_features": "", "sight_content": ""}}, {"title": "海口观澜湖高尔夫2号场", "address": "海口市观澜湖大道1号", "image": "", "rank": 56, "time": 2.5, "location": {"lat": 19.917656000064934, "lng": 110.3281019012964}, "feature": {"sight_features": "", "sight_content": ""}}, {"title": "桂林洋海滨旅游区", "address": "海口市琼山区距府城镇19公里", "image": "", "rank": 57, "time": 2.25, "location": {"lat": 19.993054139581478, "lng": 110.3583491054351}, "feature": {"sight_features": "", "sight_content": ""}}, {"title": "海口观澜湖高尔夫9号场", "address": "海口市观澜湖大道1号", "image": "", "rank": 58, "time": 2.5, "location": {"lat": 19.917656000064934, "lng": 110.3281019012964}, "feature": {"sight_features": "", "sight_content": ""}}, {"title": "海口观澜湖高尔夫3号场", "address": "海口市观澜湖大道1号", "image": "", "rank": 59, "time": 2.5, "location": {"lat": 19.917656000064934, "lng": 110.3281019012964}, "feature": {"sight_features": "", "sight_content": ""}}, {"title": "海口三公里国际高尔夫球会", "address": "海口市琼山区府城镇新大洲大道368-1号", "image": "", "rank": 60, "time": 2.5, "location": {"lat": 19.971337432170998, "lng": 110.3857857577697}, "feature": {"sight_features": "", "sight_content": ""}}]}