{"cityName": "海伦", "days": 2, "cityImage": "", "spots": [{"title": "东方红水库", "address": "绥化市海伦县", "image": "", "rank": 1, "time": 4.0, "location": {"lat": 47.456903841096434, "lng": 126.9365085755555}, "feature": {"sight_features": "", "sight_content": ""}}, {"title": "海伦市图书馆", "address": "光华路", "image": "", "rank": 2, "time": 1.5, "location": {"lat": 40.00562777397108, "lng": 116.3419423977455}, "feature": {"sight_features": "", "sight_content": ""}}, {"title": "绿海山庄", "address": "202省道", "image": "", "rank": 3, "time": 2, "location": {"lat": 37.77792504283699, "lng": 114.12616671611477}, "feature": {"sight_features": "", "sight_content": ""}}, {"title": "欢乐qq农场", "address": "东海路东50米", "image": "", "rank": 4, "time": 2, "location": {"lat": 38.87749810373376, "lng": 121.54274545045385}, "feature": {"sight_features": "", "sight_content": ""}}, {"title": "奶咖骑士", "address": "镇一中附近", "image": "", "rank": 5, "time": 2, "location": {"lat": 23.737913784631512, "lng": 114.70656153180994}, "feature": {"sight_features": "", "sight_content": ""}}, {"title": "龙海寺", "address": "黑龙江省绥化市海伦市东山湾", "image": "", "rank": 6, "time": 2, "location": {"lat": 47.400254406103635, "lng": 126.99518475421286}, "feature": {"sight_features": "", "sight_content": ""}}, {"title": "海伦市龙莲寺", "address": "黑龙江省绥化市海伦市", "image": "", "rank": 7, "time": 2, "location": {"lat": 47.456903841096434, "lng": 126.9365085755555}, "feature": {"sight_features": "", "sight_content": ""}}, {"title": "金嘉园渡假村", "address": "绥化市海伦市", "image": "", "rank": 8, "time": 2, "location": {"lat": 47.456903841096434, "lng": 126.9365085755555}, "feature": {"sight_features": "", "sight_content": ""}}, {"title": "学府休闲广场", "address": "学府路东50米", "image": "", "rank": 9, "time": 2, "location": {"lat": 40.17263779928602, "lng": 116.81193503748084}, "feature": {"sight_features": "", "sight_content": ""}}, {"title": "鑫隆农家乐", "address": "雷炎大街西门四中西", "image": "", "rank": 10, "time": 2, "location": {"lat": 47.466326576051166, "lng": 126.96954013781901}, "feature": {"sight_features": "", "sight_content": ""}}, {"title": "七星葡萄采摘园", "address": "福民街1号附近", "image": "", "rank": 11, "time": 2, "location": {"lat": 45.758322196355024, "lng": 126.62001480071744}, "feature": {"sight_features": "", "sight_content": ""}}, {"title": "曹家大院", "address": "晋中市太谷县北洸乡", "image": "", "rank": 12, "time": 1.0, "location": {"lat": 37.39976261979629, "lng": 112.52120809874606}, "feature": {"sight_features": "", "sight_content": ""}}, {"title": "海北镇天主教堂", "address": "黑龙江省绥化市海伦市", "image": "", "rank": 13, "time": 2, "location": {"lat": 47.456903841096434, "lng": 126.9365085755555}, "feature": {"sight_features": "", "sight_content": ""}}]}