{"cityName": "海门", "days": 2, "cityImage": "", "spots": [{"title": "张謇文化旅游景区", "address": "南通市海门市常乐镇状元街", "image": "", "rank": 1, "time": 1.0, "location": {"lat": 31.945195740184847, "lng": 121.2590699909327}, "feature": {"sight_features": "", "sight_content": ""}}, {"title": "东洲公园", "address": "南通市海门市公园巷1号", "image": "", "rank": 2, "time": 2, "location": {"lat": 31.898393268422048, "lng": 121.18682107537619}, "feature": {"sight_features": "", "sight_content": ""}}, {"title": "蛎岈山国家海洋公园", "address": "南通市海门市海门港新区东灶港", "image": "", "rank": 3, "time": null, "location": {"lat": 32.109573213760406, "lng": 121.46610329454651}, "feature": {"sight_features": "", "sight_content": ""}}, {"title": "快活林山庄", "address": "南通市郊海门市海宁路1号种羊厂", "image": "", "rank": 4, "time": 2, "location": {"lat": 31.832978672326348, "lng": 121.13922795115205}, "feature": {"sight_features": "", "sight_content": ""}}, {"title": "灵树葡萄园", "address": "包东路灵树村十六组四号", "image": "", "rank": 5, "time": 2, "location": {"lat": 32.07153979786473, "lng": 121.48109133243804}, "feature": {"sight_features": "", "sight_content": ""}}, {"title": "江苏省海门市海宁寺", "address": "海门市其他大通路", "image": "", "rank": 6, "time": 2, "location": {"lat": 31.833225934995387, "lng": 121.14121985378988}, "feature": {"sight_features": "", "sight_content": ""}}, {"title": "海门市常乐湾农庄", "address": "苗圃路和风生态园西侧300米8301330,421", "image": "", "rank": 7, "time": 1.0, "location": {"lat": 29.831361157892797, "lng": 106.44009120787014}, "feature": {"sight_features": "", "sight_content": ""}}, {"title": "花晨跑马场", "address": "三星太阳村花晨葡萄园南", "image": "", "rank": 8, "time": 2, "location": {"lat": 28.652956646094903, "lng": 121.26972549498184}, "feature": {"sight_features": "", "sight_content": ""}}, {"title": "天地源垂钓中心", "address": "发展大道", "image": "", "rank": 9, "time": 2, "location": {"lat": 33.85371378188249, "lng": 119.29368287579486}, "feature": {"sight_features": "", "sight_content": ""}}, {"title": "徳三农庄", "address": "恒丰路与振西路交叉口北100米", "image": "", "rank": 10, "time": 2, "location": {"lat": 31.965907680310487, "lng": 121.1568194940048}, "feature": {"sight_features": "", "sight_content": ""}}, {"title": "张正忠艺术陈列馆", "address": "静海路142号", "image": "", "rank": 11, "time": 2, "location": {"lat": 31.89499801146549, "lng": 121.17926671230863}, "feature": {"sight_features": "", "sight_content": ""}}, {"title": "海门望旺家庭农场", "address": "富江北路与S336省道交汇处", "image": "", "rank": 12, "time": 1.0, "location": {"lat": 31.910960612623853, "lng": 121.15413525383586}, "feature": {"sight_features": "", "sight_content": ""}}, {"title": "叠港农庄", "address": "广丰中路（宁启高速入口）", "image": "", "rank": 13, "time": 2, "location": {"lat": 31.94627043416792, "lng": 121.10100145848044}, "feature": {"sight_features": "", "sight_content": ""}}, {"title": "皇家温泉公馆", "address": "秀山西路888号", "image": "", "rank": 14, "time": 2, "location": {"lat": 24.356556510270277, "lng": 102.53345199376743}, "feature": {"sight_features": "", "sight_content": ""}}, {"title": "海门市海盛生猪专业合作社", "address": "包场镇包临公路与临海公路交接处", "image": "", "rank": 15, "time": 1.0, "location": {"lat": 32.1021600605224, "lng": 121.43950273736135}, "feature": {"sight_features": "", "sight_content": ""}}, {"title": "竹影山庄", "address": "常乐镇三德线永东小学北450米", "image": "", "rank": 16, "time": 2, "location": {"lat": 31.94069216757076, "lng": 121.31106415010457}, "feature": {"sight_features": "", "sight_content": ""}}, {"title": "花布世界", "address": "南通市通州区", "image": "", "rank": 17, "time": 2, "location": {"lat": 32.07035573967588, "lng": 121.08142549497644}, "feature": {"sight_features": "", "sight_content": ""}}, {"title": "海门江海文化公园", "address": "江苏省南通市海门市南京路南侧", "image": "", "rank": 18, "time": 1.0, "location": {"lat": 32.062670911198346, "lng": 121.2805316405327}, "feature": {"sight_features": "", "sight_content": ""}}, {"title": "海门市开福寺", "address": "江苏省南通市海门市富江北路与北海西路交叉口西北", "image": "", "rank": 19, "time": 1.5, "location": {"lat": 31.9120524348866, "lng": 121.15428537955098}, "feature": {"sight_features": "", "sight_content": ""}}, {"title": "天王殿", "address": "海门高新区富江北路北海西路交叉口", "image": "", "rank": 20, "time": 2, "location": {"lat": 31.9120524348866, "lng": 121.15428537955098}, "feature": {"sight_features": "", "sight_content": ""}}, {"title": "润子儿童乐园", "address": "江苏省南通市海门市黄海中路530号欧尚南通海门店1层", "image": "", "rank": 21, "time": 2, "location": {"lat": 31.891224109757434, "lng": 121.1931179149332}, "feature": {"sight_features": "", "sight_content": ""}}, {"title": "张公祠", "address": "富民路与状元街交叉口往东", "image": "", "rank": 22, "time": 2, "location": {"lat": 31.942985555809855, "lng": 121.26104701852957}, "feature": {"sight_features": "", "sight_content": ""}}, {"title": "美加乐儿童乐园", "address": "三星镇进星街44号", "image": "", "rank": 23, "time": 2, "location": {"lat": 31.969502795201606, "lng": 121.12382426101291}, "feature": {"sight_features": "", "sight_content": ""}}, {"title": "十八抗日英烈纪念碑", "address": "江苏省南通市海门市沿河路1附近", "image": "", "rank": 24, "time": 2, "location": {"lat": 31.983193492635966, "lng": 121.36224098061835}, "feature": {"sight_features": "", "sight_content": ""}}, {"title": "悦来影剧院", "address": "悦来镇人民中路51号", "image": "", "rank": 25, "time": 2, "location": {"lat": 31.94069879342976, "lng": 121.44216975521707}, "feature": {"sight_features": "", "sight_content": ""}}, {"title": "海门展览馆", "address": "江苏省海门市解放东路", "image": "", "rank": 26, "time": 2.5, "location": {"lat": 31.900638228797757, "lng": 121.2108580698563}, "feature": {"sight_features": "", "sight_content": ""}}, {"title": "蛎岈山壹号", "address": "海门市其他港前路", "image": "", "rank": 27, "time": 2, "location": {"lat": 32.108452371457474, "lng": 121.51254883168505}, "feature": {"sight_features": "", "sight_content": ""}}, {"title": "证大动感乐园", "address": "香港路999号迪欧咖啡(证大店)路对面", "image": "", "rank": 28, "time": 2, "location": {"lat": 41.766646901102206, "lng": 123.43521679563476}, "feature": {"sight_features": "", "sight_content": ""}}, {"title": "童乐岛儿童游乐园", "address": "邻里之家商业广场3楼，丝绸路与富江路交界处", "image": "", "rank": 29, "time": 2, "location": {"lat": 31.896349654017072, "lng": 121.15420888973512}, "feature": {"sight_features": "", "sight_content": ""}}, {"title": "星期六儿童水上主题乐园", "address": "江苏省南通市海门市人民西路500号(海悦名都)汽车站往西100米", "image": "", "rank": 30, "time": 2, "location": {"lat": 31.89512989422514, "lng": 121.16481576409508}, "feature": {"sight_features": "", "sight_content": ""}}, {"title": "公园优家管", "address": "江苏省南通市海门市通江路97", "image": "", "rank": 31, "time": 2, "location": {"lat": 31.903970917710474, "lng": 121.15769334494388}, "feature": {"sight_features": "", "sight_content": ""}}, {"title": "翻斗乐儿童乐园", "address": "海门镇中南世纪城浦江路1058号", "image": "", "rank": 32, "time": 2, "location": {"lat": 31.9065898810687, "lng": 121.21073013228728}, "feature": {"sight_features": "", "sight_content": ""}}, {"title": "张謇垦牧文化公园", "address": "张公堤与济南路交叉口南150米", "image": "", "rank": 33, "time": 2, "location": {"lat": 32.10887062534283, "lng": 121.49516529326974}, "feature": {"sight_features": "", "sight_content": ""}}, {"title": "嘻嘻哈哈儿童乐园", "address": "解放中路329-6号", "image": "", "rank": 34, "time": 2, "location": {"lat": 31.901749913361602, "lng": 121.18982966042748}, "feature": {"sight_features": "", "sight_content": ""}}, {"title": "多彩棠儿童乐园", "address": "南通市海门市长江路文峰大世界三楼", "image": "", "rank": 35, "time": 2, "location": {"lat": 31.896297115118536, "lng": 121.19265766810516}, "feature": {"sight_features": "", "sight_content": ""}}, {"title": "宝光寺", "address": "南通市海门市", "image": "", "rank": 36, "time": 1.5, "location": {"lat": 31.87361172603022, "lng": 121.18843649817478}, "feature": {"sight_features": "", "sight_content": ""}}, {"title": "开心玩国儿童乐园", "address": "南通市海门市中华中路263号", "image": "", "rank": 37, "time": 2, "location": {"lat": 31.89843545341936, "lng": 121.2541370046145}, "feature": {"sight_features": "", "sight_content": ""}}, {"title": "热带雨林度假村", "address": "南通市海门市香港路1715号", "image": "", "rank": 38, "time": 2, "location": {"lat": 31.816907772136037, "lng": 121.1233035995461}, "feature": {"sight_features": "", "sight_content": ""}}, {"title": "商和广场", "address": "政法南路与金盾路交叉口东南150米", "image": "", "rank": 39, "time": 2, "location": {"lat": 31.88831883170609, "lng": 121.19483518940713}, "feature": {"sight_features": "", "sight_content": ""}}, {"title": "东城休闲广场", "address": "望江南路16号附近", "image": "", "rank": 40, "time": 2, "location": {"lat": 29.274397284764145, "lng": 120.22516345081019}, "feature": {"sight_features": "", "sight_content": ""}}, {"title": "新城纪念苑", "address": "江苏省南通市海门市高新区新海路实验小学", "image": "", "rank": 41, "time": null, "location": {"lat": 31.90251119701138, "lng": 121.17627282712871}, "feature": {"sight_features": "", "sight_content": ""}}, {"title": "海门市金盛生态度假村", "address": "江苏省南通市海门市三厂镇大洪村", "image": "", "rank": 42, "time": 1.0, "location": {"lat": 31.89691614747516, "lng": 121.29602298462858}, "feature": {"sight_features": "", "sight_content": ""}}, {"title": "官公河九龙岛度假村", "address": "江苏省南通市海门市平西一路", "image": "", "rank": 43, "time": 2, "location": {"lat": 31.976835418100542, "lng": 121.23635817943581}, "feature": {"sight_features": "", "sight_content": ""}}, {"title": "健康一条街", "address": "江苏省南通市海门市宏伟路", "image": "", "rank": 44, "time": 2, "location": {"lat": 31.905694103492234, "lng": 121.17850292804877}, "feature": {"sight_features": "", "sight_content": ""}}, {"title": "大风车儿童乐园", "address": "海门港新区刘浩镇工业园区大转盘", "image": "", "rank": 45, "time": 2, "location": {"lat": 32.109573213760406, "lng": 121.46610329454651}, "feature": {"sight_features": "", "sight_content": ""}}, {"title": "临江天主堂(圣路加堂)", "address": "江苏省南通市海门市立周竖中心路", "image": "", "rank": 46, "time": 2, "location": {"lat": 31.887757190260164, "lng": 121.42186573845318}, "feature": {"sight_features": "", "sight_content": ""}}, {"title": "雅典度假村", "address": "南通钱塘江路188号", "image": "", "rank": 47, "time": 4.5, "location": {"lat": 31.902604013597152, "lng": 121.20329724527724}, "feature": {"sight_features": "", "sight_content": ""}}, {"title": "绿茵度假村", "address": "钱塘江路178号", "image": "", "rank": 48, "time": 2, "location": {"lat": 31.901784734779298, "lng": 121.20322808653262}, "feature": {"sight_features": "", "sight_content": ""}}, {"title": "春江度假村", "address": "广州路3161号", "image": "", "rank": 49, "time": 2, "location": {"lat": 31.807518504037137, "lng": 121.14082347648359}, "feature": {"sight_features": "", "sight_content": ""}}, {"title": "蛎蚜山特保区博物馆", "address": "张公堤", "image": "", "rank": 50, "time": 2, "location": {"lat": 30.6345969583126, "lng": 114.17288852351967}, "feature": {"sight_features": "", "sight_content": ""}}, {"title": "新通海沙综合整治工程展示馆", "address": "团结东路", "image": "", "rank": 51, "time": 2, "location": {"lat": 38.81189919692905, "lng": 115.48133129072964}, "feature": {"sight_features": "", "sight_content": ""}}, {"title": "海门图书馆", "address": "解放中路668号", "image": "", "rank": 52, "time": 1.5, "location": {"lat": 31.900013413844228, "lng": 121.18234931054751}, "feature": {"sight_features": "", "sight_content": ""}}, {"title": "董竹君纪念馆", "address": "037县道", "image": "", "rank": 53, "time": 2, "location": {"lat": 30.4472599655496, "lng": 118.06864912983106}, "feature": {"sight_features": "", "sight_content": ""}}, {"title": "南通海洋生态科普馆", "address": "张公堤", "image": "", "rank": 54, "time": 3.0, "location": {"lat": 30.6345969583126, "lng": 114.17288852351967}, "feature": {"sight_features": "", "sight_content": ""}}, {"title": "海门市科技馆", "address": "解放中路136号", "image": "", "rank": 55, "time": 2.5, "location": {"lat": 31.262557112985554, "lng": 119.84374156917694}, "feature": {"sight_features": "", "sight_content": ""}}, {"title": "三星影剧院", "address": "宝诚路36号", "image": "", "rank": 56, "time": 2, "location": {"lat": 22.596043770208222, "lng": 113.27144260475231}, "feature": {"sight_features": "", "sight_content": ""}}, {"title": "洁荷堂书画创作中心", "address": "套闸西路", "image": "", "rank": 57, "time": 2, "location": {"lat": 32.10391302277197, "lng": 121.27735318411285}, "feature": {"sight_features": "", "sight_content": ""}}, {"title": "牡蛎博物馆", "address": "张公堤", "image": "", "rank": 58, "time": 2, "location": {"lat": 30.6345969583126, "lng": 114.17288852351967}, "feature": {"sight_features": "", "sight_content": ""}}, {"title": "金盛羊家乐主题公园", "address": "三厂金盛高效农业区", "image": "", "rank": 59, "time": 2, "location": {"lat": 38.37182660131992, "lng": 117.34398508679578}, "feature": {"sight_features": "", "sight_content": ""}}, {"title": "世外桃源", "address": "三厂镇望江北路闸桥向北350米", "image": "", "rank": 60, "time": 1.5, "location": {"lat": 31.912395917414187, "lng": 121.26157027789591}, "feature": {"sight_features": "", "sight_content": ""}}]}