{"cityName": "海宁", "days": 2, "cityImage": "", "spots": [{"title": "海宁潮", "address": "嘉兴市海宁市盐官镇", "image": "", "rank": 1, "time": 1.5, "location": {"lat": 30.439793640059662, "lng": 120.56754245200703}, "feature": {"sight_features": "", "sight_content": ""}}, {"title": "海宁盐官旅游度假区", "address": "嘉兴市海宁市盐官镇", "image": "", "rank": 2, "time": 7.5, "location": {"lat": 30.439793640059662, "lng": 120.56754245200703}, "feature": {"sight_features": "特色1 在观潮胜地公园看气势磅礴的钱塘。 特色2 集自然奇观与人文盛景于一身，以海宁潮胜景和盐官古镇风情取胜。", "sight_content": "一城故事一江潮。海宁盐官是一座千年古城，距今2200多年，青砖石板，粉墙黛瓦，民清古居……印证昔日的喧嚣与繁华。而今，穿梭于宁静而古朴的古城小巷，探秘江南紫禁城海神庙内雍正篡位的千古谜案，寻访金庸书院、王国维故居中一代大师的足迹。抑或陪着家人在百里钱塘生态绿带悠闲骑行，置身于花海绿荫间。\n海宁盐官也是世界知名的观潮胜地，“一线潮”被誉为天下奇观。潮水每天两次，每次间隔12小时，每逢农历初一至初六、十五至二十均为观潮佳日。2000年、2010-2017年中央电视台共9次现场直播观潮盛景。\n钱江观潮：钱江潮又称海宁潮，是世界一大自然奇观，以其磅礴的气势和壮观的景象闻名于世，被誉为“天下奇观”，苏东坡诗曰“八月十八潮，壮观天下无”。海宁盐官天天可观潮，月月有大潮，每月农历初一至初六，十五至二十均为大潮日，故一年有150多个观潮佳日。\n\n\n盐官古城：距今2200多年历史，“一座古塔十所庙，五大城门四吊桥，七十二弄三大街，庭院寺阁九曲桥，古迹要数海神庙，左右石坊白玉雕，唐代经幢明代松，清出文渊陈阁老，更有天下闻名事，今古奇观海宁潮”，这是古城盐官文化遗存的精辟概括。\n\n\n百里钱塘生态绿带：全长12.5公里，面积近千亩，百年历史的翁金公路横贯其中。沿途块状分布银杏林、樱花林、桂花林、格桑花海等花草树木，景观鱼塘、茅屋驿站星罗密布，绿带内全程铺设彩色自行车道，各入口处均设有休闲自行车租赁服务。\n\n\n观潮胜地公园：是天下奇观“一线潮”的理想的观赏点，公园全长1360米，内有体现潮文化历史和习俗景观多处，如国家级文保单位鱼鳞石塘、占鳌塔、毛泽东观潮诗碑亭、徐志摩偕友人观潮雕塑、中山亭、乾隆手植古朴等。\n\n\n金庸书院：“飞雪连天射白鹿，笑书神侠倚碧鸳”一首诗句，完整的记录了金庸先生的15部作品，书院也是金庸先生亲自参加奠基建设，建筑和布展体现了侠士的情怀。甬道壁画品武侠，书剑堂上话江湖，藏书楼里读金庸，望云亭上看风云。\n海神庙：建于清雍正八年，素有“江南紫禁城”之美誉，内有清代四位帝皇所赐御匾5块，以及雍正、乾隆合题的父子双皇御碑，海神身份的传说也使其蒙上了“雍正篡位”的层层迷雾。\n\n王国维故居：学术界的朝圣之地。故居是王国维九岁时，其父亲王乃誉所建，当时名为“娱庐”，“国学大师”王国维在此度过了青少年时代的十二个春秋，后仍每年回来小住，王国维称其为“西城小屋”。\n\n\n孔庙学宫：盐官孔庙学宫遵从左学右庙的规制，占地12800多平方米。可分为前导、左学、右庙等三部分。前导部分包括照壁、泮池、魁星阁、节孝祠等；左学部分包括儒学门、仪门、明伦堂、敬一亭和尊经阁等，右庙部分包括棂星门、大成门、大成殿和崇圣祠等。这里是儒家学术和古代教育的重要展示地，同时也结合了海宁地方文化的展示。\n潮起东方雕塑园：坐落于钱塘江畔，百里钱塘生态绿带东入口处，占地近10万平方米。园内陈列和展示了国内外37名雕塑家的作品，作品充分展示海宁地域特色，体现了对海宁“潮文化”乃至东方精神的独特理解。"}}, {"title": "陈阁老宅", "address": "嘉兴市海宁市盐官镇宣德路（宰相府第风情街上）", "image": "", "rank": 3, "time": 1.5, "location": {"lat": 30.41101289353089, "lng": 120.5548662644302}, "feature": {"sight_features": "", "sight_content": ""}}, {"title": "新视野嬉水乐园", "address": "嘉兴市海宁市海洲西路201号（中国海宁皮革城C区）", "image": "", "rank": 4, "time": 2, "location": {"lat": 30.51057831614927, "lng": 120.67762036992832}, "feature": {"sight_features": "", "sight_content": ""}}, {"title": "海神庙", "address": "嘉兴市海宁市盐官镇古邑路1号海宁盐官观潮景区海神庙内", "image": "", "rank": 5, "time": 3.5, "location": {"lat": 30.40759185221664, "lng": 120.55291200348816}, "feature": {"sight_features": "", "sight_content": ""}}, {"title": "徐志摩故居", "address": "嘉兴市海宁市硖石镇干河街38号", "image": "", "rank": 6, "time": 1.5, "location": {"lat": 30.533800402255125, "lng": 120.70191496069988}, "feature": {"sight_features": "", "sight_content": ""}}, {"title": "观潮胜地公园", "address": "嘉兴市海宁市盐官镇环镇南路", "image": "", "rank": 7, "time": 2.5, "location": {"lat": 30.439793640059662, "lng": 120.56754245200703}, "feature": {"sight_features": "", "sight_content": ""}}, {"title": "王国维故居", "address": "嘉兴市海宁市建安路4号", "image": "", "rank": 8, "time": 0.4, "location": {"lat": 30.51792376977565, "lng": 120.68656506738283}, "feature": {"sight_features": "特色1 国学大师少年住宅", "sight_content": "王国维故居坐落在海宁市盐官观潮景区西门内周家兜，是近代国学大师王国维少年时代的生活之处。原住宅前后围墙、石库门、台门等早废，其主要建筑于1985年6月－1986年7月按原貌修复现庭院坐北朝南，建筑为木结构。前厅正中置放王国维半身铜像，陈列分三部分：第一部分，介绍王国维故乡、家世及其生平。\n第二部分，介绍王国维的主要学术成就，陈列王氏各种著作和手稿。"}}, {"title": "宰相府第风情街", "address": "嘉兴市海宁市盐官古邑路", "image": "", "rank": 9, "time": 2.0, "location": {"lat": 30.414341526636232, "lng": 120.55462509814654}, "feature": {"sight_features": "", "sight_content": ""}}, {"title": "花居雅舍", "address": "嘉兴市海宁市盐官镇宰相风情街", "image": "", "rank": 10, "time": 1.5, "location": {"lat": 30.41219509974762, "lng": 120.55352058660675}, "feature": {"sight_features": "", "sight_content": ""}}, {"title": "鱼鳞石塘", "address": "嘉兴市海宁市盐官观潮公园内", "image": "", "rank": 11, "time": 17.5, "location": {"lat": 30.414341526636232, "lng": 120.55462509814654}, "feature": {"sight_features": "", "sight_content": ""}}, {"title": "盐官古镇", "address": "嘉兴市海宁市盐官镇", "image": "", "rank": 12, "time": 5.5, "location": {"lat": 30.439793640059662, "lng": 120.56754245200703}, "feature": {"sight_features": "", "sight_content": ""}}, {"title": "宣德门", "address": "嘉兴市海宁市盐官镇", "image": "", "rank": 13, "time": 2, "location": {"lat": 30.439793640059662, "lng": 120.56754245200703}, "feature": {"sight_features": "", "sight_content": ""}}, {"title": "江南民俗风情馆", "address": "嘉兴市海宁市盐官镇", "image": "", "rank": 14, "time": 2, "location": {"lat": 30.439793640059662, "lng": 120.56754245200703}, "feature": {"sight_features": "", "sight_content": ""}}, {"title": "老盐仓", "address": "嘉兴市海宁市盐仓镇海塘路", "image": "", "rank": 15, "time": 0.35, "location": {"lat": 30.39232350287176, "lng": 120.42699034160925}, "feature": {"sight_features": "", "sight_content": ""}}, {"title": "金庸书院", "address": "嘉兴市海宁市盐官镇东南面（近观潮公园）", "image": "", "rank": 16, "time": 0.5, "location": {"lat": 30.439793640059662, "lng": 120.56754245200703}, "feature": {"sight_features": "特色1 全面展示金庸先生的学术成就", "sight_content": "金庸书院座落于海宁盐官古镇的海神庙西南，参照古城内原有建于清嘉庆年间的安澜书院之建筑格局设计建造，分东、中、西三路。东路为引导、居住空间，是休憩之所；中路为主体空间，有讲学、展示和藏书三大功能；西路为接待、服务空间，是游赏佳处。书院较为全面地展示了金庸先生的学术成就，并将成为研究和弘扬金庸武侠文学的重要场所，以及金庸先生回乡讲学、传播学术思想的圣地。"}}, {"title": "城隍庙", "address": "嘉兴市海宁市盐官镇古邑路", "image": "", "rank": 17, "time": 1.5, "location": {"lat": 30.41201812598065, "lng": 120.5565019377299}, "feature": {"sight_features": "", "sight_content": ""}}, {"title": "大脚板乐园", "address": "嘉兴市海宁市文宗路", "image": "", "rank": 18, "time": 3.5, "location": {"lat": 30.52601375029115, "lng": 120.68125250476632}, "feature": {"sight_features": "", "sight_content": ""}}, {"title": "钱君陶艺术馆", "address": "浙江省嘉兴市海宁市西山路493号 ‎", "image": "", "rank": 19, "time": 1.5, "location": {"lat": 30.53757642822454, "lng": 120.69701887317882}, "feature": {"sight_features": "", "sight_content": ""}}, {"title": "尖山高尔夫俱乐部", "address": "浙江省海宁市仙侠路海宁尖山新区", "image": "", "rank": 20, "time": 2, "location": {"lat": 30.315457812905215, "lng": 120.8133357492399}, "feature": {"sight_features": "特色1 俱乐部拥有两个各具特色的18洞72杆国际标准球场，在秉承了自然、和谐、优雅的风格基础上，融入了中国乡村特色，使雅致、深远的个性渗透到球场的每个角落。 特色2 龙场气势磅礴，跌宕起伏，沙坑设置错落有致，尤其是后9洞球道环绕着400亩清澈湖水，背靠尖山，其气魄之大，非亲身经历者不可领悟，是高尔夫球手挑战自我之首选。 特色3 凤场婉约高雅，气魄恢弘，还有清秀的柔美，与“龍場”交相辉映，使整个球场弥漫着一种古典尊贵的王者之气。", "sight_content": "海宁尖山高尔夫俱乐部位于浙江省海宁市尖山新区，就座落在钱塘江畔，尖山脚下，东距上海80公里，西距杭州60公里。俱乐部拥有两个各具特色的18洞72杆国际标准球场，以“龙场”和“凤场”命名。分别由美国著名球场设计师尼尔·沃斯（Neil Haworth）与澳大利亚著名设计师费瑞·恩（Phil Ryan）设计。球场的设计充分体现了高尔夫运动的传统理念与精髓，它不但秉承了这项运动自然、和谐、优雅的风格，并在此基础上巧妙的融入了中国乡村特色，使雅致、深远的个性渗透到球场的每个角落。球场造型自然精致，每个球道各具风采，参照美国PGA最新标准设计，球道设计不仅合理巧妙，同时还增添了难度，极具挑战性，使来球场的球友们体会到真正的挑战与趣味。  “风”也是球场的一大特色，在尖山的“风”中击球，您方能放飞心灵，领略“身旁尖山巍巍，耳侧清风徐徐”之完美意境。NeilHaworth 设计师设计龙场18洞,全长7600码，为华东地区之最。球道设计气势磅礴，跌宕起伏，沙坑设置错落有致，尤其是后9洞球道环绕着400亩清澈湖水，背靠尖山，其气魄之大，非亲身经历者不可领悟，是高尔夫球手挑战自我之首选。 Phil Ryan设计师设计凤场18洞 球道全长7172码,设计风格婉约高雅，气魄恢弘，还有清秀的柔美，与“龍場”交相辉映，使整个球场弥漫着一种古典尊贵的王者之气。\n\n龙场：\n球道总长度：7600码，标准杆：72杆。     黑Tee：7600码，  蓝Tee：6783码， 白Tee：6191码， 红Tee：5361码。\n\n凤场：\n球道总长度：7172码，标准杆：72杆。     黑Tee：7172码， 蓝Tee：6296码， 白Tee：5929码， 红Tee：5575码。\n\n\n\n$$$$${    \"特色\": [        \"俱乐部拥有两个各具特色的18洞72杆国际标准球场，在秉承了自然、和谐、优雅的风格基础上，融入了中国乡村特色，使雅致、深远的个性渗透到球场的每个角落。 \",        \"龙场气势磅礴，跌宕起伏，沙坑设置错落有致，尤其是后9洞球道环绕着400亩清澈湖水，背靠尖山，其气魄之大，非亲身经历者不可领悟，是高尔夫球手挑战自我之首选。 \",        \"凤场婉约高雅，气魄恢弘，还有清秀的柔美，与“龍場”交相辉映，使整个球场弥漫着一种古典尊贵的王者之气。 \"    ],    \"简介\": \"海宁尖山高尔夫俱乐部位于浙江省海宁市尖山新区，就座落在钱塘江畔，尖山脚下，东距上海80公里，西距杭州60公里。俱乐部拥有两个各具特色的18洞72杆国际标准球场，以“龙场”和“凤场”命名。分别由美国著名球场设计师尼尔·沃斯（Neil Haworth）与澳大利亚著名设计师费瑞·恩（Phil Ryan）设计。球场的设计充分体现了高尔夫运动的传统理念与精髓，它不但秉承了这项运动自然、和谐、优雅的风格，并在此基础上巧妙的融入了中国乡村特色，使雅致、深远的个性渗透到球场的每个角落。球场造型自然精致，每个球道各具风采，参照美国PGA最新标准设计，球道设计不仅合理巧妙，同时还增添了难度，极具挑战性，使来球场的球友们体会到真正的挑战与趣味。  “风”也是球场的一大特色，在尖山的“风”中击球，您方能放飞心灵，领略“身旁尖山巍巍，耳侧清风徐徐”之完美意境。NeilHaworth 设计师设计龙场18洞,全长7600码，为华东地区之最。球道设计气势磅礴，跌宕起伏，沙坑设置错落有致，尤其是后9洞球道环绕着400亩清澈湖水，背靠尖山，其气魄之大，非亲身经历者不可领悟，是高尔夫球手挑战自我之首选。 Phil Ryan设计师设计凤场18洞 球道全长7172码,设计风格婉约高雅，气魄恢弘，还有清秀的柔美，与“龍場”交相辉映，使整个球场弥漫着一种古典尊贵的王者之气。\",    \"参数\": {        \"球场类型\": \"丘陵\",        \"求道长度\": \"7080码\",        \"球场洞数\": \"36洞\",        \"球场附加\": \"\",        \"球场面积\": \"3300亩\",        \"建立时间\": \"2003-09-01\",        \"球场设计\": \"尼尔-哈沃斯、费瑞恩\",        \"果岭草种\": \"本特草\",        \"球道草种\": \"龙场：海滨雀稗 凤场：百慕达419\"    },    \"Tee台\": {        \"黑Tee\": \"7600码/7172码\",        \"蓝Tee\": \"6783码/6296码\",        \"白Tee\": \"6191码/5929码\",        \"红Tee\": \"5361码/5575码\"    },    \"电话\": \"0573-87802888\"}$$$$$"}}, {"title": "占鳌塔", "address": "浙江省嘉兴市海宁市盐官观潮公园内 ‎", "image": "", "rank": 21, "time": 2, "location": {"lat": 30.414341526636232, "lng": 120.55462509814654}, "feature": {"sight_features": "", "sight_content": ""}}, {"title": "假日牧场", "address": "嘉兴市海宁市嘉海公路与S101省道交叉口（海宁皮革城向南3公里）", "image": "", "rank": 22, "time": 2, "location": {"lat": 30.487240388139277, "lng": 120.67762036992832}, "feature": {"sight_features": "", "sight_content": ""}}, {"title": "国棋圣院", "address": "浙江省嘉兴市海宁市盐官镇 ‎", "image": "", "rank": 23, "time": 2, "location": {"lat": 30.439793640059662, "lng": 120.56754245200703}, "feature": {"sight_features": "", "sight_content": ""}}, {"title": "海宁博物馆", "address": "嘉兴市海宁市西山路542号", "image": "", "rank": 24, "time": 2.5, "location": {"lat": 30.538403374114264, "lng": 120.69711459751225}, "feature": {"sight_features": "", "sight_content": ""}}, {"title": "小普陀禅寺", "address": "嘉兴市海宁市盐官镇观潮公园内", "image": "", "rank": 25, "time": 2, "location": {"lat": 30.439793640059662, "lng": 120.56754245200703}, "feature": {"sight_features": "", "sight_content": ""}}, {"title": "惠力寺", "address": "嘉兴市海宁市建设路", "image": "", "rank": 26, "time": 2, "location": {"lat": 30.544108667636042, "lng": 120.70304609891329}, "feature": {"sight_features": "", "sight_content": ""}}, {"title": "五土庙", "address": "嘉兴海宁市盐官镇", "image": "", "rank": 27, "time": 2, "location": {"lat": 30.439793640059662, "lng": 120.56754245200703}, "feature": {"sight_features": "", "sight_content": ""}}, {"title": "沁缘.吴氏故居书局", "address": "海宁市南关厢历史街区112-116号", "image": "", "rank": 28, "time": 2, "location": {"lat": 30.51792376977565, "lng": 120.68656506738283}, "feature": {"sight_features": "", "sight_content": ""}}, {"title": "毛泽东观潮诗碑亭", "address": "嘉兴市海宁市盐官镇观潮胜地公园内", "image": "", "rank": 29, "time": 0.4, "location": {"lat": 30.406015660571608, "lng": 120.553471977499}, "feature": {"sight_features": "", "sight_content": ""}}, {"title": "西山公园（徐志摩墓）", "address": "浙江省嘉兴市海宁市公园路17号", "image": "", "rank": 30, "time": 2, "location": {"lat": 30.4267602872425, "lng": 120.65071960892308}, "feature": {"sight_features": "", "sight_content": ""}}, {"title": "金庸旧居", "address": "浙江省嘉兴市海宁市袁花镇新伟村一组（赫山房）", "image": "", "rank": 31, "time": 2, "location": {"lat": 30.401217909619316, "lng": 120.77938332950679}, "feature": {"sight_features": "", "sight_content": ""}}, {"title": "安国寺经幢", "address": "嘉兴市海宁市盐官观潮景区西北隅", "image": "", "rank": 32, "time": 2, "location": {"lat": 30.407584407063986, "lng": 120.55283908713162}, "feature": {"sight_features": "", "sight_content": ""}}, {"title": "徐邦达艺术馆", "address": "嘉兴市海宁市建设路122号", "image": "", "rank": 33, "time": 1.0, "location": {"lat": 30.535635138284068, "lng": 120.70029794700223}, "feature": {"sight_features": "", "sight_content": ""}}, {"title": "和田龙农庄", "address": "浙江省嘉兴市海宁市嘉海路", "image": "", "rank": 34, "time": 2, "location": {"lat": 30.538697436406615, "lng": 120.67163657726526}, "feature": {"sight_features": "", "sight_content": ""}}, {"title": "美林湾生态大观园", "address": "嘉兴市海宁市镇保路1号，南北大道与东西大道交汇处（假日牧场海宁乐园旁）", "image": "", "rank": 35, "time": 2, "location": {"lat": 30.45598259335118, "lng": 120.68120892077958}, "feature": {"sight_features": "", "sight_content": ""}}, {"title": "白石坛广场", "address": "浙江省嘉兴市海宁市环城南路盐官镇环镇南路", "image": "", "rank": 36, "time": 2, "location": {"lat": 30.400920021910224, "lng": 120.4605097673069}, "feature": {"sight_features": "", "sight_content": ""}}, {"title": "张宗祥故居", "address": "嘉兴市海宁市硖石镇仓基街56号", "image": "", "rank": 37, "time": 2, "location": {"lat": 30.535128924667678, "lng": 120.70001372403718}, "feature": {"sight_features": "", "sight_content": ""}}, {"title": "衍芬草堂", "address": "浙江省嘉兴市海宁市河东路66号", "image": "", "rank": 38, "time": 2, "location": {"lat": 30.53293129015565, "lng": 120.70314356506113}, "feature": {"sight_features": "", "sight_content": ""}}, {"title": "尚都温泉", "address": "嘉兴市海宁市海洲街道清波路尚都银座4F", "image": "", "rank": 39, "time": 2, "location": {"lat": 30.516543518370675, "lng": 120.6784602442581}, "feature": {"sight_features": "", "sight_content": ""}}, {"title": "江南名匾名联馆", "address": "嘉兴市海宁市盐官镇", "image": "", "rank": 40, "time": 2, "location": {"lat": 30.439793640059662, "lng": 120.56754245200703}, "feature": {"sight_features": "", "sight_content": ""}}, {"title": "梁家墩", "address": "海宁市三三一县道", "image": "", "rank": 41, "time": 2.0, "location": {"lat": 30.404711625787808, "lng": 120.47681387487226}, "feature": {"sight_features": "", "sight_content": ""}}, {"title": "黄湾尖山村", "address": "浙江省嘉兴海宁市黄湾村", "image": "", "rank": 42, "time": 2, "location": {"lat": 30.36236927996542, "lng": 120.8083941355956}, "feature": {"sight_features": "", "sight_content": ""}}, {"title": "东山公园", "address": "浙江省嘉兴市海宁市俞家桥路 ‎", "image": "", "rank": 43, "time": 2, "location": {"lat": 30.54049038585245, "lng": 120.70694787991282}, "feature": {"sight_features": "", "sight_content": ""}}, {"title": "荡湾文化公园", "address": "浙江省嘉兴市海宁市荡东路许村镇荡湾小学南150米", "image": "", "rank": 44, "time": 2, "location": {"lat": 30.472502909085623, "lng": 120.36156955672566}, "feature": {"sight_features": "", "sight_content": ""}}, {"title": "梅园公园", "address": "梅园路", "image": "", "rank": 45, "time": 2.0, "location": {"lat": 38.88475125287646, "lng": 121.55809203441339}, "feature": {"sight_features": "", "sight_content": ""}}, {"title": "海滨门", "address": "嘉兴市海宁市盐官镇环城南路161号", "image": "", "rank": 46, "time": 2, "location": {"lat": 30.406015660571608, "lng": 120.553471977499}, "feature": {"sight_features": "", "sight_content": ""}}, {"title": "迎宾门", "address": "盐官镇环城南路161号", "image": "", "rank": 47, "time": 2, "location": {"lat": 30.406015660571608, "lng": 120.553471977499}, "feature": {"sight_features": "", "sight_content": ""}}, {"title": "海宁嘉年华", "address": "海宁市海州西路201号海宁会展中心", "image": "", "rank": 48, "time": 5.5, "location": {"lat": 30.5118109255671, "lng": 120.67656831943032}, "feature": {"sight_features": "", "sight_content": ""}}, {"title": "君昂童子军---海宁银泰基地", "address": "海昌路365号一楼", "image": "", "rank": 49, "time": 2, "location": {"lat": 30.505510181478765, "lng": 120.69944244125826}, "feature": {"sight_features": "", "sight_content": ""}}, {"title": "天池温泉", "address": "海宁大道249号", "image": "", "rank": 50, "time": 2, "location": {"lat": 34.58691603149127, "lng": 119.18463822929488}, "feature": {"sight_features": "", "sight_content": ""}}, {"title": "尖山杨梅采摘园", "address": "黄湾镇尖山杨梅采摘点", "image": "", "rank": 51, "time": 2, "location": {"lat": 46.65258592381225, "lng": 131.16534177061126}, "feature": {"sight_features": "", "sight_content": ""}}, {"title": "GY-BOX超级密室(长安店)", "address": "长安路788号长安佳源中心广场6幢302-05室", "image": "", "rank": 52, "time": 2, "location": {"lat": 38.04325613649811, "lng": 114.54561160958328}, "feature": {"sight_features": "", "sight_content": ""}}, {"title": "海宁黄湾横山东魁杨梅采摘基地", "address": "金家山湾31号(尖山水果市场红绿灯往西一直开到底)", "image": "", "rank": 53, "time": 5.5, "location": {"lat": 46.65258592381225, "lng": 131.16534177061126}, "feature": {"sight_features": "", "sight_content": ""}}, {"title": "屠甸富之星游乐园", "address": "桐乡屠甸海星村塘家坝秀园小区与海宁华府工业园区北门交界处", "image": "", "rank": 54, "time": 2, "location": {"lat": 30.552159349271896, "lng": 120.66454462504373}, "feature": {"sight_features": "", "sight_content": ""}}, {"title": "尖山果农园", "address": "昌盛路240号", "image": "", "rank": 55, "time": 2, "location": {"lat": 30.37278228795837, "lng": 120.80206968931367}, "feature": {"sight_features": "", "sight_content": ""}}, {"title": "植物公园", "address": "洛隆路", "image": "", "rank": 56, "time": 2, "location": {"lat": 30.54038743146085, "lng": 120.68106184121844}, "feature": {"sight_features": "", "sight_content": ""}}, {"title": "奥林生态园", "address": "海宁石路(近永丰军湖公路)", "image": "", "rank": 57, "time": 2, "location": {"lat": 30.503596278822492, "lng": 120.75215978487417}, "feature": {"sight_features": "", "sight_content": ""}}, {"title": "蒋百里故居", "address": "南寺街20号", "image": "", "rank": 58, "time": 2, "location": {"lat": 40.09276454348732, "lng": 113.30745826076495}, "feature": {"sight_features": "", "sight_content": ""}}, {"title": "桃园农庄", "address": "万新村文化活动室附近", "image": "", "rank": 59, "time": 2, "location": {"lat": 30.42956992299181, "lng": 120.69018101655215}, "feature": {"sight_features": "", "sight_content": ""}}, {"title": "浙江省农科院杨渡基地", "address": "杨渡村陈家石桥11号", "image": "", "rank": 60, "time": 2, "location": {"lat": 30.313278182999966, "lng": 105.61248163513177}, "feature": {"sight_features": "", "sight_content": ""}}]}