{"cityName": "海西", "days": "2", "cityImage": "", "spots": [{"title": "茶卡盐湖", "address": "海西州乌兰县茶卡镇盐湖路9号", "image": "", "rank": 1, "time": 2.5, "location": {"lat": 36.768046376556015, "lng": 99.08610076606833}, "feature": {"sight_features": "特色1 天空之境，观看云朵和山川等倒映在洁白盐湖中的美景", "sight_content": "茶卡盐湖是一座3000多年的盐场，湖水含盐量很大，会自然结晶成为一片白色的湖面，将天空、云朵和对岸的山都倒映在湖里非常漂亮。游客还可以赤脚走到湖面上观看和拍摄自己的倒影，好像天空之境。景区里还有众多的盐雕可以观赏，还可以乘坐小火车，到盐湖的深处观光。\n茶卡盐湖景区不大，一般游玩2-3小时即可。最适合晴天时前来游玩，而且最好是连续几天都是晴天之后前来，此时湖水结晶度很高，会看到洁白的盐湖上覆盖一层薄薄的卤水，景色和倒影最为清晰纯净。若是连续几天阴雨，湖中的盐层可能会被稀释溶解掉，则会露出底下的泥地，不能下湖去玩，景色也很一般。\n游玩茶卡时会从茶卡镇过来，到达位于景区北侧的大门，在这里购票进入。大门距离游玩区域还有一段距离，不过可以开车进入，到达雕塑区之后再下车开始游玩。\n\n湖中间有一条铁路延伸至湖内，起点处便是乘坐小火车的地方，小火车每人50元往返，可以乘车前往湖内深处去游玩，那里的景色更为纯净，可以根据自己兴趣前去游玩。如果不坐小火车，沿着铁轨向湖深处散散步拍拍照片也是非常惬意的。"}}, {"title": "察尔汗盐湖", "address": "海西蒙古族藏族自治州格尔木市察尔汗镇", "image": "", "rank": 2, "time": 2.5, "location": {"lat": 36.41237104695386, "lng": 94.93331021042529}, "feature": {"sight_features": "", "sight_content": ""}}, {"title": "柴达木盆地", "address": "海西蒙古族藏族自治州格尔木市", "image": "", "rank": 3, "time": 1.5, "location": {"lat": 36.41237104695386, "lng": 94.93331021042529}, "feature": {"sight_features": "", "sight_content": ""}}, {"title": "昆仑山口", "address": "海西蒙古族藏族自治州格尔木市109国道附近", "image": "", "rank": 4, "time": 3.5, "location": {"lat": 36.140346041020905, "lng": 94.81432425579564}, "feature": {"sight_features": "", "sight_content": ""}}, {"title": "托素湖", "address": "海西蒙古族藏族自治州德令哈市怀头他拉镇", "image": "", "rank": 5, "time": 1.0, "location": {"lat": 37.35562925406733, "lng": 96.75770557277079}, "feature": {"sight_features": "", "sight_content": ""}}, {"title": "外星人遗址", "address": "海西州德令哈市", "image": "", "rank": 6, "time": 1.0, "location": {"lat": 37.37534590746335, "lng": 97.36747029997534}, "feature": {"sight_features": "", "sight_content": ""}}, {"title": "可鲁克湖景区", "address": "海西蒙古族藏族自治州德令哈市", "image": "", "rank": 7, "time": 1.0, "location": {"lat": 37.37534590746335, "lng": 97.36747029997534}, "feature": {"sight_features": "", "sight_content": ""}}, {"title": "玉珠峰", "address": "海西蒙古族藏族自治州格尔木市南昆仑山口以东10公里处", "image": "", "rank": 8, "time": 3.0, "location": {"lat": 36.41237104695386, "lng": 94.93331021042529}, "feature": {"sight_features": "", "sight_content": ""}}, {"title": "沱沱河", "address": "海西蒙古族藏族自治州", "image": "", "rank": 9, "time": 1.0, "location": {"lat": 37.38275046252745, "lng": 97.37629911601906}, "feature": {"sight_features": "", "sight_content": ""}}, {"title": "大柴旦镇", "address": "海西蒙古族藏族自治州直辖", "image": "", "rank": 10, "time": 2, "location": {"lat": 38.74235623726642, "lng": 93.34012532405363}, "feature": {"sight_features": "", "sight_content": ""}}, {"title": "小柴达木湖", "address": "海西蒙古族藏族自治州小柴旦交通枢纽东侧", "image": "", "rank": 11, "time": 1.5, "location": {"lat": 36.21500750670665, "lng": 97.60426409593117}, "feature": {"sight_features": "", "sight_content": ""}}, {"title": "尕海湖", "address": "德令哈市尕海镇", "image": "", "rank": 12, "time": 1.5, "location": {"lat": 37.22404136444206, "lng": 97.42216236703447}, "feature": {"sight_features": "", "sight_content": ""}}, {"title": "乌素特水上雅丹地质公园", "address": "海西州柴达木盆地腹地，冷湖、格尔木、大柴旦三个行政区交界处", "image": "", "rank": 13, "time": 2, "location": {"lat": 37.58637617630715, "lng": 91.60370747552366}, "feature": {"sight_features": "特色1 中国十大最美雅丹地貌之一 特色2 世界上少有的一处水上雅丹地貌 特色3 有“荒漠汪洋”、“戈壁滩上碧玉”的赞誉", "sight_content": "乌素特（水上）雅丹地质公园是世界上唯一一处水上雅丹地貌，因为吉乃尔湖面抬升，逐步淹没北缘的雅丹群，形成了独一无二的水上雅丹，就像一望无际的荒漠中凭空而出了一片“汪洋”。\n乌素特（水上）雅丹湖水微咸，湖中水草茂盛，引来了大量的水鸟及黄鸭子，因此当地人又称为鸭湖。鸭湖,地处青海省海西州东、西台吉乃尔湖中间.湖中水草茂盛,引来了大量水鸟,尤以赤麻鸭(黄鸭)居多,故称鸭湖.也因水上雅丹奇景,亦称柴达木千鸟百岛湖.它是中国十大最美雅丹地貌之一,是摄影人的天堂。\n雅丹魔鬼城立于这片汪洋之上，魔幻而神秘。走进魔鬼城，那奇形怪状的断垣残壁、危楼斜宫，立即把你带入一个神秘的幻境，高高低低的小山丘，翩翩起舞，像骏马、骆驼、大象、狮子、虎，好似群鲸戏沙，百万海狮向太阳；近看酷似百万座古城堡，远看犹如星河舰队，像蒙古包林立，像蘑菇、圆柱、碉堡、麦垛，奇形怪状，千姿百态。\n这这片汪洋，源自于昆仑山的冰川雪水；这群雅丹，出自于岁月的巧夺天工造化；它们的并存，仿佛告诉我们，即使是天使和魔鬼之间，也是可以那么的和谐，而这种和谐，又是那么的惊艳！\n景区内雅丹群遍布于湖泊之中，微波潾潾的湖面映照着形象万千的雅丹倒印，美仑美奂。"}}, {"title": "漠河盐场", "address": "海西蒙古族藏族自治州乌兰县茶卡镇", "image": "", "rank": 14, "time": 2.0, "location": {"lat": 36.79732357401828, "lng": 99.08550969631395}, "feature": {"sight_features": "", "sight_content": ""}}, {"title": "昆仑公园", "address": "海西蒙古族藏族自治州格尔木市昆仑中路11号", "image": "", "rank": 15, "time": 1.0, "location": {"lat": 36.41485904359906, "lng": 94.90978951793532}, "feature": {"sight_features": "", "sight_content": ""}}, {"title": "巴音河", "address": "青海省海西蒙古族藏族自治州德令哈市", "image": "", "rank": 16, "time": 1.0, "location": {"lat": 37.37534590746335, "lng": 97.36747029997534}, "feature": {"sight_features": "", "sight_content": ""}}, {"title": "翡翠湖", "address": "海西蒙古族藏族自治州直辖大柴旦镇", "image": "", "rank": 17, "time": 1.0, "location": {"lat": 37.86093419940159, "lng": 95.36239625761017}, "feature": {"sight_features": "", "sight_content": ""}}, {"title": "南八仙", "address": "柴达木盆地北缘", "image": "", "rank": 18, "time": 2, "location": {"lat": 37.58637617630715, "lng": 91.60370747552366}, "feature": {"sight_features": "", "sight_content": ""}}, {"title": "大柴旦雪山温泉", "address": "海西蒙古族藏族自治州大柴旦镇以北8公里处的柴达木山温泉沟", "image": "", "rank": 19, "time": 2, "location": {"lat": 38.13648422448596, "lng": 95.07875915753091}, "feature": {"sight_features": "特色1 相传这里是西王母和七仙女沐浴的地方 特色2 欣赏雪山和大柴旦湖的美丽风光。 特色3 温泉沟里一共有109个温泉泉眼。", "sight_content": "大美青海，昆仑山下，神奇柴达木！丝路驿站，王母仙境，大柴旦雪山温泉！\n大柴旦雪山温泉位于大柴旦镇以北8公里处的柴达木山温泉沟，在连接西宁（青海湖、茶卡盐湖）、敦煌（嘉峪关）、格尔木（至拉萨）的交通枢纽旁。\n这是一处全球罕见的纯天然地表径流温泉，地下4000米深水源，经40年循环加热净化后喷涌而出。温泉水富含氟、硼、氡、偏硅酸、镁、钙、锶等多种对人体有益的矿物质和微量元素，对皮肤病、心血管疾病有着很好的辅助疗效，还能促进血液循环、调节神经系统、改善肠胃功能。\n柴达木山顶终年积雪，温泉沟静静流淌了几万年。温泉沟里一共有109个泉眼，其中温泉就有61个，水温一般在80度左右，水量达到2000吨/天。\n相传这里是西王母和七仙女沐浴的地方，自有人类活动以来就吸引先民往来停留，更是丝绸之路上南来北往的商贾僧侣和各国使节休整洗浴、驱除疲乏，再行赶路的重要驿站。\n温泉沟上游的巨石上至今还保留着古梵文和古藏文的石刻：“祈愿众生，神泉洗浴，得到超脱”。"}}, {"title": "盐湖钾肥厂", "address": "海西蒙古族藏族自治州格尔木市察尔汗镇", "image": "", "rank": 20, "time": 2.5, "location": {"lat": 36.41237104695386, "lng": 94.93331021042529}, "feature": {"sight_features": "", "sight_content": ""}}, {"title": "柏树山", "address": "德令哈市北面10公里处", "image": "", "rank": 21, "time": 1.0, "location": {"lat": 37.37534590746335, "lng": 97.36747029997534}, "feature": {"sight_features": "", "sight_content": ""}}, {"title": "万丈盐桥", "address": "海西蒙古族藏族自治州格尔木市察尔汗盐湖之上", "image": "", "rank": 22, "time": 1.5, "location": {"lat": 37.09509421558535, "lng": 95.21831971291691}, "feature": {"sight_features": "", "sight_content": ""}}, {"title": "西王母瑶池", "address": "海西蒙古族藏族自治州格尔木市", "image": "", "rank": 23, "time": 1.5, "location": {"lat": 36.41237104695386, "lng": 94.93331021042529}, "feature": {"sight_features": "", "sight_content": ""}}, {"title": "三岔河特大桥", "address": "海西蒙古族藏族自治州格尔木市", "image": "", "rank": 24, "time": 1.0, "location": {"lat": 36.41237104695386, "lng": 94.93331021042529}, "feature": {"sight_features": "", "sight_content": ""}}, {"title": "舟群寺", "address": "海西蒙古族藏族自治州天峻县江河镇（舟群乡）", "image": "", "rank": 25, "time": 1.0, "location": {"lat": 37.61262775527669, "lng": 99.4021848264562}, "feature": {"sight_features": "", "sight_content": ""}}, {"title": "将军楼公园", "address": "格尔木市交通巷与开拓街交叉口 ‎", "image": "", "rank": 26, "time": 1.0, "location": {"lat": 36.42419517915318, "lng": 94.89415529385656}, "feature": {"sight_features": "", "sight_content": ""}}, {"title": "热水墓群", "address": "德令哈市都兰县热水乡", "image": "", "rank": 27, "time": 1.0, "location": {"lat": 36.22613168559259, "lng": 98.17284117863865}, "feature": {"sight_features": "", "sight_content": ""}}, {"title": "纳赤台清泉（昆仑泉）", "address": "格尔木市昆仑河北岸", "image": "", "rank": 28, "time": 1.0, "location": {"lat": 35.88588488682435, "lng": 94.46695844334563}, "feature": {"sight_features": "", "sight_content": ""}}, {"title": "雅丹魔鬼城", "address": "大柴旦镇", "image": "", "rank": 29, "time": 3.0, "location": {"lat": 38.079699264170834, "lng": 95.07875915753091}, "feature": {"sight_features": "", "sight_content": ""}}, {"title": "哈里哈图森林公园", "address": "德令哈市乌兰县境内", "image": "", "rank": 30, "time": 1.0, "location": {"lat": 37.37534590746335, "lng": 97.36747029997534}, "feature": {"sight_features": "", "sight_content": ""}}, {"title": "格尔木水电站", "address": "格尔木市30公里格尔木河下游", "image": "", "rank": 31, "time": 1.0, "location": {"lat": 36.29762272724571, "lng": 94.7855083676296}, "feature": {"sight_features": "", "sight_content": ""}}, {"title": "柯柯盐湖", "address": "德令哈市乌兰县柯柯镇境内", "image": "", "rank": 32, "time": 1.0, "location": {"lat": 36.835959044282966, "lng": 97.79740669842715}, "feature": {"sight_features": "", "sight_content": ""}}, {"title": "黑石山水库", "address": "德令哈市以北4公里处的巴音河黑石山山口", "image": "", "rank": 33, "time": 1.0, "location": {"lat": 37.31837787136359, "lng": 97.48456854193172}, "feature": {"sight_features": "", "sight_content": ""}}, {"title": "白公山", "address": "德令哈市托素湖东北地带", "image": "", "rank": 34, "time": 1.0, "location": {"lat": 37.14988634381235, "lng": 96.9538486450261}, "feature": {"sight_features": "", "sight_content": ""}}, {"title": "金子海", "address": "德令哈市乌兰县", "image": "", "rank": 35, "time": 1.0, "location": {"lat": 37.37534590746335, "lng": 97.36747029997534}, "feature": {"sight_features": "", "sight_content": ""}}, {"title": "都兰狩猎场", "address": "都兰县南部，青藏高原北部的山地向高原主体过渡地段上的柴达木盆地东南部。", "image": "", "rank": 36, "time": 1.0, "location": {"lat": 36.307611028682054, "lng": 98.10270479377708}, "feature": {"sight_features": "", "sight_content": ""}}, {"title": "格尔木河", "address": "", "image": "", "rank": 37, "time": 1.0, "location": {"lat": 36.29762272724571, "lng": 94.7855083676296}, "feature": {"sight_features": "", "sight_content": ""}}, {"title": "哈拉湖", "address": "青海省,德令哈市,北部, 817000", "image": "", "rank": 38, "time": 2, "location": {"lat": 37.37534590746335, "lng": 97.36747029997534}, "feature": {"sight_features": "", "sight_content": ""}}, {"title": "紫金山天文台青海站", "address": "德令哈市正东40公里处", "image": "", "rank": 39, "time": 1.0, "location": {"lat": 37.37534590746335, "lng": 97.36747029997534}, "feature": {"sight_features": "", "sight_content": ""}}, {"title": "鲁芒沟岩画", "address": "德令哈市天峻县天棚乡鲁芒沟内约4公里的东山根", "image": "", "rank": 40, "time": 1.0, "location": {"lat": 37.245587081924675, "lng": 99.24231738691512}, "feature": {"sight_features": "", "sight_content": ""}}, {"title": "卢山岩画", "address": "德令哈天峻县市江河乡卢山山丘的30多块花岗长粉岩上", "image": "", "rank": 41, "time": 1.0, "location": {"lat": 37.34591635807179, "lng": 99.33281589004265}, "feature": {"sight_features": "", "sight_content": ""}}, {"title": "蒙古族风情园", "address": "格尔木市中心西10公里处", "image": "", "rank": 42, "time": 1.0, "location": {"lat": 36.41237104695386, "lng": 94.93331021042529}, "feature": {"sight_features": "", "sight_content": ""}}, {"title": "海寺花海", "address": "青海省海西蒙古族藏族自治州都兰县(都兰县东109国道17公里处)", "image": "", "rank": 43, "time": 1.5, "location": {"lat": 36.371014679695676, "lng": 96.04749901581656}, "feature": {"sight_features": "", "sight_content": ""}}, {"title": "天峻石经寺", "address": "德令哈市天峻县下环仓（天峻县城东北方，离县城约18公里处）。", "image": "", "rank": 44, "time": 1.0, "location": {"lat": 37.306903395111, "lng": 99.02924296796702}, "feature": {"sight_features": "", "sight_content": ""}}, {"title": "二郎洞", "address": "德令哈市天峻县关角山", "image": "", "rank": 45, "time": 1.0, "location": {"lat": 37.18452706859477, "lng": 98.87862956277263}, "feature": {"sight_features": "", "sight_content": ""}}, {"title": "贝壳山", "address": "德令哈市都兰县诺木洪乡东南方向的一片荒漠地带", "image": "", "rank": 46, "time": 1.0, "location": {"lat": 36.44071930648656, "lng": 96.46279140672615}, "feature": {"sight_features": "", "sight_content": ""}}, {"title": "天峻石林", "address": "德令哈市天峻县城西部的天峻山上", "image": "", "rank": 47, "time": 1.0, "location": {"lat": 37.37534590746335, "lng": 97.36747029997534}, "feature": {"sight_features": "", "sight_content": ""}}, {"title": "诺木洪遗址", "address": "德令哈市都兰县诺木洪乡", "image": "", "rank": 48, "time": 1.0, "location": {"lat": 36.44071930648656, "lng": 96.46279140672615}, "feature": {"sight_features": "", "sight_content": ""}}, {"title": "塔琏湖", "address": "青海省,德令哈市,市内, 817000", "image": "", "rank": 49, "time": 3.5, "location": {"lat": 37.37534590746335, "lng": 97.36747029997534}, "feature": {"sight_features": "", "sight_content": ""}}, {"title": "海西盐海玉波", "address": "青海省格尔木市盐海", "image": "", "rank": 50, "time": 2.5, "location": {"lat": 36.41237104695386, "lng": 94.93331021042529}, "feature": {"sight_features": "", "sight_content": ""}}, {"title": "苏干湖", "address": "甘肃省酒泉阿克塞哈萨克族自治县苏干湖候鸟自然保护区", "image": "", "rank": 51, "time": 2, "location": {"lat": 38.87672576255096, "lng": 93.89478334254511}, "feature": {"sight_features": "", "sight_content": ""}}, {"title": "各拉丹东冰川", "address": "体育巷7号", "image": "", "rank": 52, "time": 2, "location": {"lat": 41.1116698953328, "lng": 122.99814777687435}, "feature": {"sight_features": "", "sight_content": ""}}, {"title": "昆仑花园广场", "address": "青海省格尔木市八一中路28号", "image": "", "rank": 53, "time": 1.5, "location": {"lat": 36.41237206961579, "lng": 94.90929429109073}, "feature": {"sight_features": "", "sight_content": ""}}, {"title": "德令哈天文科普馆", "address": "长江路35号", "image": "", "rank": 54, "time": 2, "location": {"lat": 44.556458057350675, "lng": 120.91449095663236}, "feature": {"sight_features": "", "sight_content": ""}}, {"title": "昆仑神泉", "address": "青海省海西蒙古族藏族自治州格尔木市纳赤台镇", "image": "", "rank": 55, "time": 2, "location": {"lat": 35.88058957285004, "lng": 94.57195142567343}, "feature": {"sight_features": "", "sight_content": ""}}, {"title": "西大滩", "address": "玉珠峰的北侧", "image": "", "rank": 56, "time": 2, "location": {"lat": 35.74986853858388, "lng": 94.31178857029941}, "feature": {"sight_features": "", "sight_content": ""}}, {"title": "昆仑山地质博物馆", "address": "青年巷61号", "image": "", "rank": 57, "time": 2, "location": {"lat": 36.42611021583374, "lng": 94.89249271810344}, "feature": {"sight_features": "", "sight_content": ""}}, {"title": "那达慕民族运动场", "address": "蓄集乡固始汗大道那达慕民族运动场", "image": "", "rank": 58, "time": 2, "location": {"lat": 37.47041440932353, "lng": 97.35799651943987}, "feature": {"sight_features": "", "sight_content": ""}}, {"title": "格尔木昆仑旅游区", "address": "青海省玉树藏族自治州治多县", "image": "", "rank": 59, "time": 2, "location": {"lat": 33.85795326771854, "lng": 95.61979357436996}, "feature": {"sight_features": "", "sight_content": ""}}, {"title": "香日德班禅行辕", "address": "青海省都兰县诺木洪乡东南方向", "image": "", "rank": 60, "time": 2, "location": {"lat": 36.44071930648656, "lng": 96.46279140672615}, "feature": {"sight_features": "", "sight_content": ""}}]}