{"cityName": "海原", "days": 2, "cityImage": "", "spots": [{"title": "海原清真大寺", "address": "海原县", "image": "", "rank": 1, "time": 1.0, "location": {"lat": 36.570781489719, "lng": 105.65055514637504}, "feature": {"sight_features": "", "sight_content": ""}}, {"title": "天都山", "address": "", "image": "", "rank": 2, "time": 1.0, "location": {"lat": 35.93778376124121, "lng": 103.85776408705789}, "feature": {"sight_features": "", "sight_content": ""}}, {"title": "海原县玉民苗木花卉专业合作社", "address": "101省道附近", "image": "", "rank": 3, "time": 2, "location": {"lat": 41.03241923348195, "lng": 111.82384508727836}, "feature": {"sight_features": "", "sight_content": ""}}, {"title": "海原县图书馆", "address": "老城管理办公室大巷子", "image": "", "rank": 4, "time": 2, "location": {"lat": 36.56466511683012, "lng": 105.6541330855433}, "feature": {"sight_features": "", "sight_content": ""}}, {"title": "菜园村遗址", "address": "宁夏回族自治区海原县菜园村 755200", "image": "", "rank": 5, "time": 2, "location": {"lat": 36.54127748476427, "lng": 105.54911299415183}, "feature": {"sight_features": "", "sight_content": ""}}, {"title": "唐石峡关", "address": "宁夏回族自治区海原县县东北部 755200", "image": "", "rank": 6, "time": 2, "location": {"lat": 36.570781489719, "lng": 105.65055514637504}, "feature": {"sight_features": "", "sight_content": ""}}, {"title": "唐宋萧关", "address": "宁夏回族自治区海原县石峡口水库附近 755200", "image": "", "rank": 7, "time": 2, "location": {"lat": 36.570781489719, "lng": 105.65055514637504}, "feature": {"sight_features": "", "sight_content": ""}}, {"title": "固原南华山", "address": "宁夏回族自治区海原县南部 756100", "image": "", "rank": 8, "time": 1.0, "location": {"lat": 30.900207678601184, "lng": 105.65055514637504}, "feature": {"sight_features": "", "sight_content": ""}}, {"title": "新源清真寺", "address": "同海线西50米", "image": "", "rank": 9, "time": null, "location": {"lat": 36.82442837448378, "lng": 105.82561989305924}, "feature": {"sight_features": "", "sight_content": ""}}, {"title": "扬家沟", "address": "中卫市海原县", "image": "", "rank": 10, "time": 2, "location": {"lat": 36.570781489719, "lng": 105.65055514637504}, "feature": {"sight_features": "", "sight_content": ""}}, {"title": "南苑公园", "address": "文联路南100米", "image": "", "rank": 11, "time": 1.0, "location": {"lat": 20.04209726474191, "lng": 110.35804708344476}, "feature": {"sight_features": "", "sight_content": ""}}, {"title": "盘龙山", "address": "固原市原州区", "image": "", "rank": 12, "time": 2, "location": {"lat": 36.009367675762505, "lng": 106.29451461391893}, "feature": {"sight_features": "", "sight_content": ""}}, {"title": "西灵观(红色纪念馆)", "address": "宁夏回族自治区中卫市海原县Y206", "image": "", "rank": 13, "time": 2, "location": {"lat": 36.570781489719, "lng": 105.65055514637504}, "feature": {"sight_features": "", "sight_content": ""}}, {"title": "马湾清真大寺", "address": "同海线北50米", "image": "", "rank": 14, "time": 2, "location": {"lat": 36.824789479551484, "lng": 105.82606904581424}, "feature": {"sight_features": "", "sight_content": ""}}, {"title": "罗山", "address": "海原县其他海原县", "image": "", "rank": 15, "time": 2.0, "location": {"lat": 36.570781489719, "lng": 105.65055514637504}, "feature": {"sight_features": "", "sight_content": ""}}, {"title": "北岗子清真北寺", "address": "101省道附近", "image": "", "rank": 16, "time": 2, "location": {"lat": 41.03241923348195, "lng": 111.82384508727836}, "feature": {"sight_features": "", "sight_content": ""}}, {"title": "杞梓枸杞专业合作社", "address": "（海城镇）三河镇红城村三组村口", "image": "", "rank": 17, "time": 2, "location": {"lat": 36.35100178644819, "lng": 106.16906544097554}, "feature": {"sight_features": "", "sight_content": ""}}, {"title": "固原清水河", "address": "宁夏回族自治区固原市原州区开城镇", "image": "", "rank": 18, "time": 1.0, "location": {"lat": 35.88775847390523, "lng": 106.26615152562825}, "feature": {"sight_features": "", "sight_content": ""}}, {"title": "鼎城银钻商业街", "address": "宁夏回族自治区海原县202省道", "image": "", "rank": 19, "time": 2, "location": {"lat": 36.85467376147605, "lng": 105.33089447810764}, "feature": {"sight_features": "", "sight_content": ""}}, {"title": "路家嘴子", "address": "中卫市-海原县", "image": "", "rank": 20, "time": 2, "location": {"lat": 36.570781489719, "lng": 105.65055514637504}, "feature": {"sight_features": "", "sight_content": ""}}, {"title": "小吊沟", "address": "中卫市-海原县", "image": "", "rank": 21, "time": 2, "location": {"lat": 36.570781489719, "lng": 105.65055514637504}, "feature": {"sight_features": "", "sight_content": ""}}, {"title": "古岘川", "address": "中卫市-海原县", "image": "", "rank": 22, "time": 2, "location": {"lat": 36.570781489719, "lng": 105.65055514637504}, "feature": {"sight_features": "", "sight_content": ""}}, {"title": "支家井", "address": "中卫市-海原县", "image": "", "rank": 23, "time": 2, "location": {"lat": 36.570781489719, "lng": 105.65055514637504}, "feature": {"sight_features": "", "sight_content": ""}}, {"title": "下套子", "address": "中卫市-海原县", "image": "", "rank": 24, "time": 2, "location": {"lat": 36.570781489719, "lng": 105.65055514637504}, "feature": {"sight_features": "", "sight_content": ""}}]}