{"cityName": "海晏", "days": 2, "cityImage": "", "spots": [{"title": "青海湖沙岛", "address": "海北藏族自治州海晏县青藏公路109国道距青海西宁市151公里处", "image": "", "rank": 1, "time": 3.0, "location": {"lat": 36.90237602251455, "lng": 101.00058554860196}, "feature": {"sight_features": "", "sight_content": ""}}, {"title": "原子城景区", "address": "海北藏族自治州海晏县金银滩草原", "image": "", "rank": 2, "time": 4.0, "location": {"lat": 36.99025543629026, "lng": 100.8647484336226}, "feature": {"sight_features": "", "sight_content": ""}}, {"title": "金沙湾", "address": "海南藏族自治州共和县环湖东路和省310交叉口", "image": "", "rank": 3, "time": 2.0, "location": {"lat": 36.61200229770126, "lng": 100.78787378007976}, "feature": {"sight_features": "", "sight_content": ""}}, {"title": "金银滩草原", "address": "海北藏族自治州海晏县西北侧", "image": "", "rank": 4, "time": 1.5, "location": {"lat": 36.90237602251455, "lng": 101.00058554860196}, "feature": {"sight_features": "", "sight_content": ""}}, {"title": "王洛宾音乐艺术馆", "address": "海北藏族自治州海晏县西海镇原子路", "image": "", "rank": 5, "time": 0.75, "location": {"lat": 36.963182348923056, "lng": 100.89796863465315}, "feature": {"sight_features": "", "sight_content": ""}}, {"title": "原子城纪念馆", "address": "海北藏族自治州海晏县同宝路10号", "image": "", "rank": 6, "time": 1.0, "location": {"lat": 36.90727889558123, "lng": 101.00437469107361}, "feature": {"sight_features": "", "sight_content": ""}}, {"title": "221基地地下指挥中心", "address": "海北藏族自治州海晏县西海镇西大街6号(近西海影剧院)", "image": "", "rank": 7, "time": 0.75, "location": {"lat": 36.96690042265122, "lng": 100.90861469040458}, "feature": {"sight_features": "", "sight_content": ""}}, {"title": "金沙湾游乐园", "address": "海南藏族自治州海晏县环湖东路约20公里处", "image": "", "rank": 8, "time": 2.5, "location": {"lat": 36.61200229770126, "lng": 100.78787378007976}, "feature": {"sight_features": "", "sight_content": ""}}, {"title": "尕海古城", "address": "海北藏族自治州海晏县甘子河乡尕海村", "image": "", "rank": 9, "time": 0.75, "location": {"lat": 37.136851767756944, "lng": 100.57544973791413}, "feature": {"sight_features": "", "sight_content": ""}}, {"title": "沙岛湖滨游乐区", "address": "海北藏族自治州海晏县青海湖东北部沙岛景区内侧", "image": "", "rank": 10, "time": 1.5, "location": {"lat": 36.8899307010069, "lng": 100.48262857336506}, "feature": {"sight_features": "", "sight_content": ""}}, {"title": "上星站", "address": "海北藏族自治州海晏县西海镇以北1.5公里", "image": "", "rank": 11, "time": 0.35, "location": {"lat": 37.067115161265505, "lng": 100.90604972993614}, "feature": {"sight_features": "", "sight_content": ""}}, {"title": "二分厂", "address": "海北藏族自治州海晏县西海镇，上星站附近", "image": "", "rank": 12, "time": 1.0, "location": {"lat": 36.98979329382335, "lng": 100.90336859520934}, "feature": {"sight_features": "", "sight_content": ""}}, {"title": "文迦牧场", "address": "海北州环湖东路门禁工程处（青海湖12营原址码头景点）", "image": "", "rank": 13, "time": 2.5, "location": {"lat": 36.859632473823865, "lng": 100.86547287928755}, "feature": {"sight_features": "特色1 藏族文迦部落基础，是藏族传统家族聚集地 特色2 大草原上风景美丽，视野开豁，可以纵马草原", "sight_content": "景区简介：文迦（藏语音译，意为守望者的意思），文迦正对青海湖仓央草原，守望着消失在青海湖畔的仓央嘉措。六世达赖喇嘛仓央嘉措（1683—1706）是一位颇具传奇色彩的历史人物，才华横溢，风流文采伴随着其转世、废黜、诏解、道死、圆寂、直至众说纷纭的风雪夜遁消失于青海湖畔，在三百年历史的风云中流动，展现着永远的魅力。而仓央嘉措留下的每一首诗都触动着我们每一个人。佛曰：佛是过来人，人是未来佛。我们都有美好的憧憬和一定会到来的未来。\n文迦位于青海湖正东，七月时节，可以观赏到青海湖奇景“日落西海”，同时景区提供了夕阳帐篷体验，在七月日落季期间免费提供，可通过预约通道免费预约。所有夕阳帐篷正对青海湖，日落全景，一分不差。\n格桑花谷：（格桑花：花语为怜取眼前人，在藏族的信仰文化中有着极高的地位）格赏花谷位于文迦纵深地带，小溪中穿而过，同时景区以牧场为基础，景区各个角落均盛开着馒头花和各种野花。仓央岭：那一刻，我升起风马，不为祈福，只为守候你到来。仓央岭对望青海湖，岭上随风飘扬的风铃是文迦对于仓央嘉措的守望，也是我们对自己的祈愿。\n羊场：文迦牧场，蓝天白云，牛羊成片（游客可在羊场体验徒手抓羊活动，抓住可免费带走）。马场：于马背之上，去到想去的地方。\n牦牛场：牦牛为藏族人世代必不可少的伙伴，衣食住行所有都源至牦牛。兔场：文迦有数量极多的野兔，是草原的精灵，游客可进入兔场搜寻野兔，与野兔赛跑。\n\n\nATV（全地形车场）：驰骋于草原之上，微风过隙，别样的速度与激情。射箭场：体验藏族原始生活中弓箭狩猎的魅力\n星空露营地：住在离天很近的青藏高原，聆听青海湖的神秘回音"}}, {"title": "达玉部落", "address": "海北州西海镇达玉民俗村（即环湖东路一公里处）", "image": "", "rank": 14, "time": 3.0, "location": {"lat": 36.859632473823865, "lng": 100.86547287928755}, "feature": {"sight_features": "", "sight_content": ""}}, {"title": "金银滩水上乐园滑雪场", "address": "海北藏族自治州海晏县东大滩水库", "image": "", "rank": 15, "time": 2, "location": {"lat": 36.87624493426464, "lng": 101.04294998768998}, "feature": {"sight_features": "", "sight_content": ""}}, {"title": "金银滩水上乐园", "address": "315国道东大滩水库", "image": "", "rank": 16, "time": 2.5, "location": {"lat": 36.87624493426464, "lng": 101.04294998768998}, "feature": {"sight_features": "", "sight_content": ""}}, {"title": "西海第一神泉", "address": "西海镇切库贡玛", "image": "", "rank": 17, "time": 2, "location": {"lat": 37.23917185189771, "lng": 100.70832228930372}, "feature": {"sight_features": "", "sight_content": ""}}, {"title": "高原原子城", "address": "青海省海晏县西海镇 815000", "image": "", "rank": 18, "time": 2, "location": {"lat": 36.96389395846552, "lng": 100.9058969614062}, "feature": {"sight_features": "", "sight_content": ""}}, {"title": "海北帐篷度假村", "address": "环湖东路青海湖金沙湾附近", "image": "", "rank": 19, "time": 4.0, "location": {"lat": 36.78187681190591, "lng": 100.78326567044078}, "feature": {"sight_features": "", "sight_content": ""}}, {"title": "金银湖旅游休闲度假村", "address": "315国道附近", "image": "", "rank": 20, "time": 2, "location": {"lat": 37.09130242955409, "lng": 80.01089741457416}, "feature": {"sight_features": "", "sight_content": ""}}, {"title": "青海民族文化音乐城", "address": "原子路附近", "image": "", "rank": 21, "time": 2, "location": {"lat": 36.963182348923056, "lng": 100.89796863465315}, "feature": {"sight_features": "", "sight_content": ""}}, {"title": "青海省原子城国家级爱国主义教育...", "address": "同宝路10", "image": "", "rank": 22, "time": 2.0, "location": {"lat": 23.210976309378562, "lng": 113.33572253080432}, "feature": {"sight_features": "", "sight_content": ""}}, {"title": "青海湖自行车租赁", "address": "青海省海晏县 810200", "image": "", "rank": 23, "time": 6.0, "location": {"lat": 36.90237602251455, "lng": 101.00058554860196}, "feature": {"sight_features": "", "sight_content": ""}}, {"title": "海晏县三角城清真寺", "address": "三角城大街附近", "image": "", "rank": 24, "time": 2, "location": {"lat": 36.912043534746914, "lng": 100.99868315582007}, "feature": {"sight_features": "", "sight_content": ""}}, {"title": "帐房寺院", "address": "环湖东路1公里处达玉民俗村", "image": "", "rank": 25, "time": 2, "location": {"lat": 43.951101631389854, "lng": 125.22783012790167}, "feature": {"sight_features": "", "sight_content": ""}}, {"title": "青海湖人文生态博物馆", "address": "青海省海北藏族自治州海晏县G315(西莎线)", "image": "", "rank": 26, "time": 6.0, "location": {"lat": 36.90237602251455, "lng": 101.00058554860196}, "feature": {"sight_features": "", "sight_content": ""}}, {"title": "敖包广场", "address": "海北藏族自治州海晏县", "image": "", "rank": 27, "time": 2, "location": {"lat": 36.90237602251455, "lng": 101.00058554860196}, "feature": {"sight_features": "", "sight_content": ""}}, {"title": "西王母展厅", "address": "将军路47号", "image": "", "rank": 28, "time": 2, "location": {"lat": 30.254180896845266, "lng": 120.1691839508931}, "feature": {"sight_features": "", "sight_content": ""}}, {"title": "王洛宾展厅", "address": "将军路47号", "image": "", "rank": 29, "time": 2, "location": {"lat": 30.254180896845266, "lng": 120.1691839508931}, "feature": {"sight_features": "", "sight_content": ""}}, {"title": "海北藏族自治州档案馆", "address": "银滩路19号", "image": "", "rank": 30, "time": 4.0, "location": {"lat": 22.593529448458792, "lng": 114.51294011547327}, "feature": {"sight_features": "", "sight_content": ""}}, {"title": "西海郡博物馆", "address": "西海大街", "image": "", "rank": 31, "time": 2, "location": {"lat": 40.86219806955091, "lng": 121.06378788611883}, "feature": {"sight_features": "", "sight_content": ""}}, {"title": "五谷骑马场", "address": "环湖东路", "image": "", "rank": 32, "time": 2, "location": {"lat": 43.951101631389854, "lng": 125.22783012790167}, "feature": {"sight_features": "", "sight_content": ""}}, {"title": "民族藏族自治州博物馆", "address": "原子路26号", "image": "", "rank": 33, "time": 2, "location": {"lat": 36.963871863429205, "lng": 100.909342489444}, "feature": {"sight_features": "", "sight_content": ""}}, {"title": "群众艺术馆", "address": "原子路75号", "image": "", "rank": 34, "time": 1.5, "location": {"lat": 36.96332842399094, "lng": 100.9093477858533}, "feature": {"sight_features": "", "sight_content": ""}}, {"title": "民俗演艺厅", "address": "环湖东路1公里处达玉民俗村", "image": "", "rank": 35, "time": 2, "location": {"lat": 43.951101631389854, "lng": 125.22783012790167}, "feature": {"sight_features": "", "sight_content": ""}}, {"title": "金银滩大草原", "address": "青海省海晏县北部", "image": "", "rank": 36, "time": 2, "location": {"lat": 36.90237602251455, "lng": 101.00058554860196}, "feature": {"sight_features": "", "sight_content": ""}}, {"title": "东达滩水库", "address": "海北藏族自治州海晏县三角城镇三联村东大滩水库", "image": "", "rank": 37, "time": 2, "location": {"lat": 36.87624493426464, "lng": 101.04294998768998}, "feature": {"sight_features": "", "sight_content": ""}}, {"title": "环湖东路", "address": "青海省海北藏族自治州海晏县", "image": "", "rank": 38, "time": 2, "location": {"lat": 36.90237602251455, "lng": 101.00058554860196}, "feature": {"sight_features": "", "sight_content": ""}}, {"title": "西海郡三角城", "address": "海北藏族自治州海晏县城西1公里的城村", "image": "", "rank": 39, "time": 2, "location": {"lat": 36.90237602251455, "lng": 101.00058554860196}, "feature": {"sight_features": "", "sight_content": ""}}]}