{"cityName": "海盐", "days": 2, "cityImage": "", "spots": [{"title": "南北湖", "address": "嘉兴市南北湖杭州湾北岸海盐县境内", "image": "", "rank": 1, "time": 2.5, "location": {"lat": 30.516204477683235, "lng": 120.94679330412677}, "feature": {"sight_features": "特色1 登上鹰窠顶俯瞰南北湖全景，风光无限。 特色2 南北湖毗邻上海和杭州，景色优美，适合周末自驾休闲游玩。 特色3 山有层次水有曲折海有奇景。", "sight_content": "南北湖，中国（唯一）山海湖全景度假地，位于浙江杭州湾北岸海盐县境内，总面积约45平方公里，由湖塘、山林、滨海、古城四大资源要素组成，拥有丰富的自然资源和人文景观，是浙江省第一批省级风景名胜区、国家AAAA级旅游景区、浙江十大“最佳休闲度假胜地”之一。南北湖，山有层次，水有曲折，海有奇景，村有故事，是我国唯一融山、海、湖、村为一体的全景度假地，依托山海湖•村特色资源，提供多种主题度假方式，感受完美全景度假生活\n南北湖山围湖而立，海仗山湖而依，湖光、山色、海景相互映衬。我国古园林专家陈从周教授盛赞其“山有层次，水有曲折，海有奇景，比瘦西湖逸秀，比西子湖玲珑，能兼两者之长”。景区总面积约45平方公里，由湖塘、山林、海滨、古城四大景区组成，拥有丰富的自然资源和人文景观；享有夜普陀之称的千年古刹——“云岫庵”；举世闻名的钱江潮起源地——“钱江潮源”；见证中韩友谊历史的——“金九避难处”等40多处景点景观。核心区两湖面积1800亩，三面环山，一面临海，湖形曲折。湖中有白鹭洲，蝴蝶岛，这湖边山，湖中堤，湖内岛，自然别致，相得益彰。\n南北湖的美是闲淡的，有山水，有田园，有农家，成片的茶园、果树，竹林，透着浓厚的山野气息，颇有“采菊东篱下，悠然见南山”的味道，以其闲雅野趣保留了江南一片真山水。\n春日的南北湖桃红柳绿，百花争艳，茶树吐新；夏天万木垂荫，荷花竞放，湖海浪游；秋季遍野金黄，丹桂飘香，橘压枝头；冬时鹰窠睛雪，苍山皑皑，山海湖浑然一体。南北湖正以文化、生态、湿地为亮点，“观光、休闲、度假、商务、人居”为主要功能，成为长三角核心区著名的文化休闲胜地。"}}, {"title": "杭州湾跨海大桥", "address": "宁波市慈溪市", "image": "", "rank": 2, "time": 1.5, "location": {"lat": 30.175256610720446, "lng": 121.27259613631863}, "feature": {"sight_features": "", "sight_content": ""}}, {"title": "绮园景区", "address": "嘉兴市海盐县武原街道海滨东路37号", "image": "", "rank": 3, "time": 2.5, "location": {"lat": 30.52240698481628, "lng": 120.95434462643016}, "feature": {"sight_features": "特色1 海盐城市的新地标。 特色2 江南典型私家园林风格。 特色3 十大名园看绮园，经典故事有渊源;水随山转，山因水活;两水夹明镜， 双桥落彩虹;海盐的历史并非一墙能书，一.览能尽。惟有亲临, 方能感受。", "sight_content": "?xml:namespace>\n城武原街道核心区域，占地212亩，由绮园、张乐平纪念馆、张元济纪念馆、海盐县博物馆等十大部分组成，是海盐城市的新地标。绮园景区文化底蕴深厚，展现了海盐自秦嬴政25年置县以来两千多年的历史文化积淀；旅游元素富集，荟萃了海盐人文风貌、民俗风情、休闲娱乐、商贸购物之精华。是海盐现代旅游的新型综合体，能充分满足广大游客观光游览、度假休闲之需求。\n绮园，小巧而构筑精妙，山水相映，怡情养性。历百年风华，现在的绮园，不仅留存了沉淀百年的韵味，更进而发展成了一个以绮园为核心、完整的旅游景区。现在除了游园听曲，更能在张元济书中见古今，张乐平画中知苦乐，亦或悠行于千年海盐，吃吃当地的特色美食，感受一个小城的闲适悠然。\n梦回在海盐“沧海桑田”的世事变迁；穿越于“缘海而邑”的峥嵘岁月；遐想了“千年港埠”的繁华遗梦；陶醉起“文脉渊源”的风流往事……海盐的历史并非一墙能书，一览能尽。惟有亲临，方能感受。"}}, {"title": "蝴蝶岛", "address": "嘉兴市海盐县南北湖风景区内", "image": "", "rank": 4, "time": 2.0, "location": {"lat": 30.388601651159618, "lng": 120.84970801088122}, "feature": {"sight_features": "", "sight_content": ""}}, {"title": "白鹭洲", "address": "嘉兴市海盐县南北湖风景区内", "image": "", "rank": 5, "time": 2.0, "location": {"lat": 30.388601651159618, "lng": 120.84970801088122}, "feature": {"sight_features": "", "sight_content": ""}}, {"title": "谈仙石城", "address": "嘉兴市海盐县南北湖风景区西部谈仙岭上", "image": "", "rank": 6, "time": 2.0, "location": {"lat": 30.385503363941986, "lng": 120.86471382623878}, "feature": {"sight_features": "", "sight_content": ""}}, {"title": "猪猪星球", "address": "嘉兴市海盐县元通街道电庄社区1588号", "image": "", "rank": 7, "time": 1.0, "location": {"lat": 30.594755629936607, "lng": 120.9508361729897}, "feature": {"sight_features": "特色1 “运动、亲子、科技、体验”为一体的室内乐园。 特色2 激发孩子无限想象力和创造力，探索发现中体味对自然、食物的感恩。", "sight_content": "猪猪星球这是一个神奇的世界，它的名字叫猪猪星球！在这个“星球”之上，将会颠覆你对于猪猪的所有想象。\n猪猪星球位于美丽海滨城市——嘉兴海盐，由浙江青莲食品股份有限公司斥资打造。项目一期占地220亩，是一个以猪为主题，集室内游玩、户外游乐、科普教育于一体的小猪体验地。在这里我们将构建独特的猪认知，传播全新的猪文化，并且让人们品味极致的猪美食。\n这里有妙趣横生的猪猪表演秀，呆萌的猪猪宝贝会为您带来精彩表演；这里有集“运动、亲子、科技、体验”为一体的室内乐园，在玩乐之余激发孩子无限想象力和创造力；这里有透明工厂、小猪之家，让孩子在探索发现中体味对自然、食物的感恩；这里还有特色猪肉美食，可以为您带来一场美味的饕餮盛宴。"}}, {"title": "张乐平纪念馆", "address": "嘉兴市海盐县文昌东路10号", "image": "", "rank": 8, "time": 0.6, "location": {"lat": 30.52295889053914, "lng": 120.95293376127077}, "feature": {"sight_features": "", "sight_content": ""}}, {"title": "秦山核电站", "address": "嘉兴市海盐县秦山镇双龙岗杭州湾畔", "image": "", "rank": 9, "time": 2.5, "location": {"lat": 30.44059482069531, "lng": 120.92405090353066}, "feature": {"sight_features": "", "sight_content": ""}}, {"title": "云岫庵", "address": "嘉兴市海盐县澉浦镇南北湖风景区（近鹰窠顶山腰）", "image": "", "rank": 10, "time": 1.5, "location": {"lat": 30.385503363941986, "lng": 120.86471382623878}, "feature": {"sight_features": "", "sight_content": ""}}, {"title": "海盐县博物馆", "address": "嘉兴市海盐县海滨东路43号", "image": "", "rank": 11, "time": 1.0, "location": {"lat": 30.521809077868266, "lng": 120.95327195532917}, "feature": {"sight_features": "", "sight_content": ""}}, {"title": "天宁寺", "address": "省嘉兴市海盐县武原镇天宁寺路", "image": "", "rank": 12, "time": 1.5, "location": {"lat": 30.524173076869634, "lng": 120.94284776666585}, "feature": {"sight_features": "", "sight_content": ""}}, {"title": "闻琴公园", "address": "嘉兴市海盐县乍秦线", "image": "", "rank": 13, "time": 0.75, "location": {"lat": 30.584496731906572, "lng": 121.01911444344627}, "feature": {"sight_features": "", "sight_content": ""}}, {"title": "三毛乐园", "address": "海盐县武原街道百尺北路118号", "image": "", "rank": 14, "time": 1.0, "location": {"lat": 30.533051049102617, "lng": 120.94450585897617}, "feature": {"sight_features": "", "sight_content": ""}}, {"title": "潮音阁", "address": "嘉兴市海盐县乍秦线", "image": "", "rank": 15, "time": 1.5, "location": {"lat": 30.584496731906572, "lng": 121.01911444344627}, "feature": {"sight_features": "", "sight_content": ""}}, {"title": "白塔山海岛生态旅游区", "address": "嘉兴市海盐县秦山镇东南海面", "image": "", "rank": 16, "time": 3.0, "location": {"lat": 30.44059482069531, "lng": 120.92405090353066}, "feature": {"sight_features": "", "sight_content": ""}}, {"title": "谭仙岭石城", "address": "嘉兴市海盐县南北湖风景区内", "image": "", "rank": 17, "time": 1.0, "location": {"lat": 30.388601651159618, "lng": 120.84970801088122}, "feature": {"sight_features": "", "sight_content": ""}}, {"title": "三湾植物园", "address": "嘉兴市海盐县南北湖景区内", "image": "", "rank": 18, "time": 1.5, "location": {"lat": 30.385971851296514, "lng": 120.8495466707201}, "feature": {"sight_features": "", "sight_content": ""}}, {"title": "西涧草堂", "address": "嘉兴市海盐县南北湖风景区内", "image": "", "rank": 19, "time": 1.0, "location": {"lat": 30.388601651159618, "lng": 120.84970801088122}, "feature": {"sight_features": "", "sight_content": ""}}, {"title": "革命烈士纪念碑", "address": "嘉兴市海盐县南北湖风景区荆山顶上", "image": "", "rank": 20, "time": 0.4, "location": {"lat": 30.385503363941986, "lng": 120.86471382623878}, "feature": {"sight_features": "", "sight_content": ""}}, {"title": "南北湖嘉蔓基地", "address": "嘉兴市海盐县南北湖大道", "image": "", "rank": 21, "time": 2, "location": {"lat": 30.392386615961303, "lng": 120.88767897426239}, "feature": {"sight_features": "", "sight_content": ""}}, {"title": "毕云程故居", "address": "嘉兴市海盐县澉浦镇南小街115号", "image": "", "rank": 22, "time": 1.0, "location": {"lat": 30.390318946968787, "lng": 120.90477901644181}, "feature": {"sight_features": "", "sight_content": ""}}, {"title": "载青别墅", "address": "嘉兴市海盐县南北湖景区内", "image": "", "rank": 23, "time": 0.35, "location": {"lat": 30.385971851296514, "lng": 120.8495466707201}, "feature": {"sight_features": "", "sight_content": ""}}, {"title": "南北湖水上乐园俱乐部", "address": "南北湖湾景宾馆停车场湖边树林", "image": "", "rank": 24, "time": 2, "location": {"lat": 30.38135008606601, "lng": 120.87078709192726}, "feature": {"sight_features": "", "sight_content": ""}}, {"title": "万奥农庄草莓采摘", "address": "浙江省海盐县秦山街道北团大道188号", "image": "", "rank": 25, "time": 2, "location": {"lat": 30.426100673547683, "lng": 120.91776959208269}, "feature": {"sight_features": "", "sight_content": ""}}, {"title": "鸟类博物馆", "address": "嘉兴市海盐县南北湖风景区内", "image": "", "rank": 26, "time": 1.0, "location": {"lat": 30.388601651159618, "lng": 120.84970801088122}, "feature": {"sight_features": "", "sight_content": ""}}, {"title": "新四军海北支队旧址", "address": "嘉兴市海盐县南木山村庄内", "image": "", "rank": 27, "time": 1.0, "location": {"lat": 30.374154128843717, "lng": 120.84720666840903}, "feature": {"sight_features": "", "sight_content": ""}}, {"title": "阳光果园", "address": "北木山1号", "image": "", "rank": 28, "time": 2, "location": {"lat": 30.37980563106481, "lng": 120.84664143571773}, "feature": {"sight_features": "", "sight_content": ""}}, {"title": "清泉园", "address": "长青路", "image": "", "rank": 29, "time": 2, "location": {"lat": 35.614771776091956, "lng": 112.73773633709179}, "feature": {"sight_features": "", "sight_content": ""}}, {"title": "澉浦城墙", "address": "西大街", "image": "", "rank": 30, "time": 2, "location": {"lat": 39.91357131364959, "lng": 116.6700940616933}, "feature": {"sight_features": "", "sight_content": ""}}, {"title": "奕仙城", "address": "南北湖湖山岭", "image": "", "rank": 31, "time": 2, "location": {"lat": 25.611287936453852, "lng": 116.08181449976792}, "feature": {"sight_features": "", "sight_content": ""}}, {"title": "集贾亭", "address": "武原镇南北湖景区内", "image": "", "rank": 32, "time": 2, "location": {"lat": 30.385971851296514, "lng": 120.8495466707201}, "feature": {"sight_features": "", "sight_content": ""}}, {"title": "垂虹落雁", "address": "武原镇南北湖景区内", "image": "", "rank": 33, "time": 2, "location": {"lat": 30.385971851296514, "lng": 120.8495466707201}, "feature": {"sight_features": "", "sight_content": ""}}, {"title": "明星亭", "address": "武原镇南北湖景区内", "image": "", "rank": 34, "time": 2, "location": {"lat": 30.385971851296514, "lng": 120.8495466707201}, "feature": {"sight_features": "", "sight_content": ""}}, {"title": "响石园", "address": "武原镇南北湖景区内", "image": "", "rank": 35, "time": 2, "location": {"lat": 30.385971851296514, "lng": 120.8495466707201}, "feature": {"sight_features": "", "sight_content": ""}}, {"title": "海盐县通元缘缘家庭农场", "address": "通元镇联新村", "image": "", "rank": 36, "time": 2, "location": {"lat": 30.446206933013098, "lng": 120.84433581155852}, "feature": {"sight_features": "", "sight_content": ""}}, {"title": "海盐县果果家庭农场", "address": "永六路", "image": "", "rank": 37, "time": 2, "location": {"lat": 32.00764865676409, "lng": 121.47037277894044}, "feature": {"sight_features": "", "sight_content": ""}}, {"title": "六里渔人垂钓俱乐部", "address": "六里环北路38号紫六路", "image": "", "rank": 38, "time": 2, "location": {"lat": 30.408829659153604, "lng": 120.861490985442}, "feature": {"sight_features": "", "sight_content": ""}}, {"title": "马特超市儿童乐园", "address": "西塘桥镇海港大道易购商业中心大润发", "image": "", "rank": 39, "time": 2, "location": {"lat": 30.598429072614472, "lng": 121.01203081222867}, "feature": {"sight_features": "", "sight_content": ""}}, {"title": "海滨公园-自行车租赁点", "address": "城东路与盐平塘东路交叉口南100米", "image": "", "rank": 40, "time": 2, "location": {"lat": 30.530985703596027, "lng": 120.9653125621136}, "feature": {"sight_features": "", "sight_content": ""}}, {"title": "金粟寺", "address": "浙江省嘉兴市海盐县茶院大桥", "image": "", "rank": 41, "time": 2, "location": {"lat": 30.42631049252704, "lng": 120.83824718215092}, "feature": {"sight_features": "", "sight_content": ""}}, {"title": "欢乐豆", "address": "兴元路52号附近", "image": "", "rank": 42, "time": 2, "location": {"lat": 30.4728283407989, "lng": 120.85353029274144}, "feature": {"sight_features": "", "sight_content": ""}}, {"title": "惠泉寺", "address": "嘉兴市海盐县澉浦镇长青路18号南北湖景区内", "image": "", "rank": 43, "time": 2, "location": {"lat": 30.385971851296514, "lng": 120.8495466707201}, "feature": {"sight_features": "", "sight_content": ""}}, {"title": "水上乐园", "address": "浙江省嘉兴市海盐县澉浦镇南北湖风景区旁", "image": "", "rank": 44, "time": 2, "location": {"lat": 30.385503363941986, "lng": 120.86471382623878}, "feature": {"sight_features": "", "sight_content": ""}}, {"title": "凤凰山名俗民物馆", "address": "盐南线附近", "image": "", "rank": 45, "time": 2, "location": {"lat": 30.44332619323504, "lng": 120.92589656203145}, "feature": {"sight_features": "", "sight_content": ""}}, {"title": "藏经阁", "address": "嘉兴市海盐县澉浦镇长青路18号南北湖景区云岫庵内", "image": "", "rank": 46, "time": 1.0, "location": {"lat": 30.397926966262457, "lng": 120.90288574774895}, "feature": {"sight_features": "", "sight_content": ""}}, {"title": "迪斯尼游乐园", "address": "嘉兴市海盐县", "image": "", "rank": 47, "time": 2, "location": {"lat": 30.531872894537752, "lng": 120.95244526273444}, "feature": {"sight_features": "", "sight_content": ""}}, {"title": "古荡公园", "address": "浙江省嘉兴市海盐县华丰路", "image": "", "rank": 48, "time": 2, "location": {"lat": 30.547121781395788, "lng": 120.9458955699391}, "feature": {"sight_features": "", "sight_content": ""}}, {"title": "佰桑园", "address": "浙江省嘉兴市海盐县武原街道海丰东路蓝天幼儿园东150米", "image": "", "rank": 49, "time": 2, "location": {"lat": 30.53759950023811, "lng": 120.95205807778846}, "feature": {"sight_features": "", "sight_content": ""}}, {"title": "体育公园", "address": "城北东路与盐平塘东路交叉口北150米", "image": "", "rank": 50, "time": 1.0, "location": {"lat": 30.5276148788974, "lng": 120.9614477490807}, "feature": {"sight_features": "", "sight_content": ""}}, {"title": "孔雀艺术公馆", "address": "浙江省嘉兴市海盐县君原百尺北路海盐港龙装饰城南150米", "image": "", "rank": 51, "time": 2, "location": {"lat": 30.54069453593341, "lng": 120.94309431918934}, "feature": {"sight_features": "", "sight_content": ""}}, {"title": "千岛湖碧玉泉", "address": "浙江省嘉兴市海盐县勤俭南路", "image": "", "rank": 52, "time": 4.5, "location": {"lat": 30.51712768232154, "lng": 120.94715071024511}, "feature": {"sight_features": "", "sight_content": ""}}, {"title": "乐善好施坊", "address": "安徽省歙县郑村镇棠樾村东大道", "image": "", "rank": 53, "time": 2, "location": {"lat": 29.87176976331957, "lng": 118.3720018772055}, "feature": {"sight_features": "", "sight_content": ""}}, {"title": "鲍文龄妻江氏节孝坊", "address": "安徽省歙县郑村镇棠樾村东大道", "image": "", "rank": 54, "time": 2, "location": {"lat": 29.87176976331957, "lng": 118.3720018772055}, "feature": {"sight_features": "", "sight_content": ""}}, {"title": "贝美嘉儿童乐园", "address": "学才路与招宝路交叉口北100米", "image": "", "rank": 55, "time": 2, "location": {"lat": 30.539553610900153, "lng": 120.8590744358235}, "feature": {"sight_features": "", "sight_content": ""}}, {"title": "三毛乐园游乐城", "address": "浙江省嘉兴市海盐县枣园西路170", "image": "", "rank": 56, "time": 2, "location": {"lat": 30.5321641664067, "lng": 120.9452523427702}, "feature": {"sight_features": "", "sight_content": ""}}, {"title": "海塘文化公园", "address": "浙江省嘉兴市海盐县南台头闸附近", "image": "", "rank": 57, "time": 2, "location": {"lat": 30.510930970158153, "lng": 120.95381641201064}, "feature": {"sight_features": "", "sight_content": ""}}, {"title": "财神殿", "address": "嘉兴市海盐县澉浦镇长青路18号南北湖景区谈仙岭内", "image": "", "rank": 58, "time": 2, "location": {"lat": 30.380441488148712, "lng": 120.85873335820442}, "feature": {"sight_features": "", "sight_content": ""}}, {"title": "梦幻森林儿童游乐园", "address": "海盐县其他闻琴路香滨天地210-216号", "image": "", "rank": 59, "time": 2, "location": {"lat": 30.524070645763494, "lng": 120.9641550487521}, "feature": {"sight_features": "", "sight_content": ""}}, {"title": "沈荡镇基督教堂", "address": "浙江省嘉兴市海盐县贲湖西路", "image": "", "rank": 60, "time": 2, "location": {"lat": 30.579827091365107, "lng": 120.83102713336027}, "feature": {"sight_features": "", "sight_content": ""}}]}