{"cityName": "哈密市", "days": 2, "cityImage": "", "spots": [{"title": "哈密回王墓", "address": "哈密市回城乡阿勒屯村环城路7号", "image": "", "rank": 1, "time": 1.5, "location": {"lat": 42.817339332748716, "lng": 93.50957711026727}, "feature": {"sight_features": "", "sight_content": ""}}, {"title": "回王府", "address": "哈密市环城西路", "image": "", "rank": 2, "time": 1.5, "location": {"lat": 42.86710439823945, "lng": 93.51604297319243}, "feature": {"sight_features": "特色1 在新疆最大的宫廷建筑群参观伊斯兰文化与汉族文化的完美融合。 通过参观陈列和介绍了解哈密王统治时期的历史故事。", "sight_content": "哈密维吾尔族首领额贝都拉摆脱准噶尔部归附清朝后，于康熙三十七年（1698年）秋进京，第二年返回时，从京城请来了汉族工匠设计修建王府和回城，费时七年方峻工。重建后的王府规模宏大，建筑构造既体现了伊斯兰古典建筑的艺术风格，又融合了汉族建筑艺术的特点王府土墙高台，琉璃瓦顶，飞檐斗拱，园林交错，是当时新疆境内规模最大，最具特色的一座宫廷建筑。后又经过几代回王的修缮加工和经营扩建，至七世回王伯锡尔时，已成为一个宅园相连，宏伟壮观的园林建筑群。同治五年（1864年），阿古柏叛军攻打哈密，杀害伯锡尔并烧毁王府。"}}, {"title": "哈密魔鬼城", "address": "哈密市五堡乡支边农场", "image": "", "rank": 3, "time": 3.5, "location": {"lat": 42.8595426683334, "lng": 92.79510935758407}, "feature": {"sight_features": "特色1 全国四大魔鬼城之首", "sight_content": "哈密雅尔当风景旅游区（魔鬼城）位于哈密市五堡乡，距哈密市区约90公里。2001年由太阳旅游公司对全国面积最大、景观奇特、造型美妙的哈密雅尔当风景旅游区（魔鬼城）进行开发建设，2010年被评为国家AAAA级景区。\n截至目前已投资1200万元，建成景区道路、仿生建筑、接待中心、雅丹自然及历史陈列馆等景点设施，并配备了野营房、探险越野车、区间车、旅游帐篷、望远镜、GPS定位仪等用于游客探险的设备及旅游服务项目。\n景区融旅游、娱乐、摄影、探险、考古为一体，显像大漠独特的风光地貌。\n\n哈密雅尔当风景旅游区（魔鬼城）共3200平方公里，分为东、西、南、北四大城区，共有六滩十六景。其面积之大、类型之全、造型之妙，系全国四大魔鬼城之首。"}}, {"title": "鸣沙山", "address": "哈密地区巴里坤哈萨克自治县境内", "image": "", "rank": 4, "time": 4.0, "location": {"lat": 44.273632338337144, "lng": 92.80987293288734}, "feature": {"sight_features": "", "sight_content": ""}}, {"title": "哈密博物馆", "address": "哈密市广东路360号", "image": "", "rank": 5, "time": 1.0, "location": {"lat": 42.83546257203175, "lng": 93.51607750225963}, "feature": {"sight_features": "", "sight_content": ""}}, {"title": "巴里坤草原", "address": "哈密地区巴里坤哈萨克自治县", "image": "", "rank": 6, "time": 2.5, "location": {"lat": 44.273632338337144, "lng": 92.80987293288734}, "feature": {"sight_features": "", "sight_content": ""}}, {"title": "寒气沟", "address": "白石头风景区内", "image": "", "rank": 7, "time": 1.0, "location": {"lat": 31.212113194916512, "lng": 121.44419275808994}, "feature": {"sight_features": "", "sight_content": ""}}, {"title": "巴里坤湖", "address": "巴里坤县西18公里海子沿乡", "image": "", "rank": 8, "time": 2.0, "location": {"lat": 43.58869486724944, "lng": 92.83034184380448}, "feature": {"sight_features": "", "sight_content": ""}}, {"title": "巴里坤古民宅", "address": "巴里坤县南街榆树巷5号", "image": "", "rank": 9, "time": 1.0, "location": {"lat": 39.89872944266739, "lng": 116.3969021382873}, "feature": {"sight_features": "", "sight_content": ""}}, {"title": "天山风景名胜区", "address": "位于东天山北坡，距哈密市约70公里", "image": "", "rank": 10, "time": 1.0, "location": {"lat": 42.34446710455244, "lng": 93.52937301238876}, "feature": {"sight_features": "", "sight_content": ""}}, {"title": "盖斯墓", "address": "哈密市城郊乡大营门村，距市中心2公里", "image": "", "rank": 11, "time": 1.0, "location": {"lat": 42.831439563449656, "lng": 93.51474580656145}, "feature": {"sight_features": "", "sight_content": ""}}, {"title": "天山庙", "address": "哈密地区哈密市白石头风景区内天山之巅，近203省道", "image": "", "rank": 12, "time": 1.0, "location": {"lat": 43.15257026156916, "lng": 93.64430971550348}, "feature": {"sight_features": "", "sight_content": ""}}, {"title": "哈密瓜园", "address": "哈密市花园乡喀拉塔勒村", "image": "", "rank": 13, "time": null, "location": {"lat": 42.67359596537859, "lng": 93.47589398545824}, "feature": {"sight_features": "", "sight_content": ""}}, {"title": "白石头", "address": "哈密市西北70公里的天山脚下", "image": "", "rank": 14, "time": 2.0, "location": {"lat": 43.80027135831345, "lng": 87.63840777756565}, "feature": {"sight_features": "", "sight_content": ""}}, {"title": "伊吾胡杨林", "address": "哈密地区伊吾县淖毛湖镇东10公里处", "image": "", "rank": 15, "time": 4.5, "location": {"lat": 43.76590976492273, "lng": 95.07425514353442}, "feature": {"sight_features": "", "sight_content": ""}}, {"title": "巴里坤古城", "address": "哈密地区巴里坤县县城", "image": "", "rank": 16, "time": 3.5, "location": {"lat": 42.8585963324445, "lng": 93.52835509281725}, "feature": {"sight_features": "", "sight_content": ""}}, {"title": "雅丹魔鬼城自然及历史陈列馆", "address": "向阳路", "image": "", "rank": 17, "time": 2, "location": {"lat": 40.04285042449234, "lng": 116.68176773133793}, "feature": {"sight_features": "", "sight_content": ""}}, {"title": "庙尔沟", "address": "哈密市区北面的黄田农场附近，距市区35公里左右", "image": "", "rank": 18, "time": 2.0, "location": {"lat": 42.80439262357868, "lng": 93.748050579425}, "feature": {"sight_features": "", "sight_content": ""}}, {"title": "艾斯克霞尔古城堡", "address": "哈密地区五堡西南23公里的东魔鬼城中", "image": "", "rank": 19, "time": 1.0, "location": {"lat": 42.8585963324445, "lng": 93.52835509281725}, "feature": {"sight_features": "", "sight_content": ""}}, {"title": "淖毛湖", "address": "伊吾县北部73公里处", "image": "", "rank": 20, "time": 2, "location": {"lat": 43.73805702102047, "lng": 94.70382567128537}, "feature": {"sight_features": "", "sight_content": ""}}, {"title": "西域风情", "address": "建国南路五中左侧", "image": "", "rank": 21, "time": 2, "location": {"lat": 39.93803246520107, "lng": 119.61976023643872}, "feature": {"sight_features": "", "sight_content": ""}}, {"title": "西黑沟", "address": "哈密地区巴里坤哈萨克自治县", "image": "", "rank": 22, "time": 1.0, "location": {"lat": 44.273632338337144, "lng": 92.80987293288734}, "feature": {"sight_features": "", "sight_content": ""}}, {"title": "松树塘", "address": "位于天山北麓，地跨哈密、巴里坤和伊吾的交界处，南距哈密市73公里", "image": "", "rank": 23, "time": 1.0, "location": {"lat": 43.80027135831345, "lng": 87.63840777756565}, "feature": {"sight_features": "", "sight_content": ""}}, {"title": "白杨河佛教遗址", "address": "哈密市白杨河两岸", "image": "", "rank": 24, "time": 1.0, "location": {"lat": 42.34446710455244, "lng": 93.52937301238876}, "feature": {"sight_features": "", "sight_content": ""}}, {"title": "丝路烽燧", "address": "哈密地区", "image": "", "rank": 25, "time": 1.0, "location": {"lat": 42.8585963324445, "lng": 93.52835509281725}, "feature": {"sight_features": "", "sight_content": ""}}, {"title": "口门子", "address": "", "image": "", "rank": 26, "time": 1.0, "location": {"lat": 40.29176527893246, "lng": 117.92826221691827}, "feature": {"sight_features": "", "sight_content": ""}}, {"title": "喀尔里克冰川", "address": "伊吾县盐池乡南10公里处", "image": "", "rank": 27, "time": 1.0, "location": {"lat": 43.27155367369412, "lng": 94.30311559229558}, "feature": {"sight_features": "", "sight_content": ""}}, {"title": "墩墩湾岩画", "address": "哈密市沁城乡头宫村", "image": "", "rank": 28, "time": 1.0, "location": {"lat": 42.714357644106535, "lng": 94.597002994244}, "feature": {"sight_features": "", "sight_content": ""}}, {"title": "八大石", "address": "哈密市黄田农场北端木尔提峰南坡", "image": "", "rank": 29, "time": 2, "location": {"lat": 42.80439262357868, "lng": 93.748050579425}, "feature": {"sight_features": "", "sight_content": ""}}, {"title": "天山之夏狩猎场", "address": "哈密市区以东70公里处（沁城乡碱泉子墩）", "image": "", "rank": 30, "time": 1.0, "location": {"lat": 42.646333360001, "lng": 94.24597600563716}, "feature": {"sight_features": "", "sight_content": ""}}, {"title": "猴娃山", "address": "哈密市沁城乡", "image": "", "rank": 31, "time": 2, "location": {"lat": 42.77873627402741, "lng": 94.56522893213526}, "feature": {"sight_features": "", "sight_content": ""}}, {"title": "拉甫却克古城", "address": "哈密市五堡乡四堡村内", "image": "", "rank": 32, "time": 1.0, "location": {"lat": 42.88305029060471, "lng": 92.84427421911154}, "feature": {"sight_features": "", "sight_content": ""}}, {"title": "怪石山", "address": "巴里坤湖西北7公里外小夹山的最东端，距巴里坤县城60公里", "image": "", "rank": 33, "time": 1.0, "location": {"lat": 43.701560164947004, "lng": 92.68924556687793}, "feature": {"sight_features": "", "sight_content": ""}}, {"title": "焉不拉克古墓群", "address": "哈密市柳树泉农场焉不拉克村", "image": "", "rank": 34, "time": 1.0, "location": {"lat": 43.17585703152828, "lng": 92.78152091830421}, "feature": {"sight_features": "", "sight_content": ""}}, {"title": "大河唐城", "address": "哈密地区巴里坤哈萨克自治县大河镇东头渠村东部", "image": "", "rank": 35, "time": 1.5, "location": {"lat": 43.68883708509961, "lng": 93.17846218527268}, "feature": {"sight_features": "", "sight_content": ""}}, {"title": "五堡古墓群", "address": "哈密五堡乡", "image": "", "rank": 36, "time": 2.0, "location": {"lat": 42.88305029060471, "lng": 92.84427421911154}, "feature": {"sight_features": "", "sight_content": ""}}, {"title": "地藏寺", "address": "哈密地区巴里坤哈萨克自治县东195米", "image": "", "rank": 37, "time": 1.0, "location": {"lat": 44.273632338337144, "lng": 92.81162462863179}, "feature": {"sight_features": "", "sight_content": ""}}, {"title": "哈密赏石文化博物馆", "address": "哈密市环城路7号回王府玉城多功能厅", "image": "", "rank": 38, "time": null, "location": {"lat": 42.817339332748716, "lng": 93.50957711026727}, "feature": {"sight_features": "", "sight_content": "哈密赏石文化博物馆内分设象形石兵器（中国工农红军兵器发展史）、象形石古书籍、石器工具进化演变史、戈壁捡石景观体验区和“红色收藏”展示区等五大系列展区，陈列各类奇石10000余件，包括直径16.8米的“天下第一奇石宴”展桌，集中展示“满汉全席奇石菜品”1088道，以及从天而降的“天书”泥石文字石组合、“天下第一石刀”等大型特色精品奇石。\n其中“红色收藏”展示区主要展品有伟人毛泽东像章、塑像和照片等古旧纪念品数千件，集中展示了革命战争时期和新中国成立以来伟大领袖的光辉形象。"}}, {"title": "翼龙化石馆", "address": "哈密市中华路与人民路交汇处", "image": "", "rank": 39, "time": 2, "location": {"lat": 42.828100275493085, "lng": 93.51598208245174}, "feature": {"sight_features": "", "sight_content": ""}}, {"title": "伊吾烈士陵园", "address": "伊吾县陵园路600号", "image": "", "rank": 40, "time": 1.0, "location": {"lat": 43.25387678659702, "lng": 94.70316791582147}, "feature": {"sight_features": "", "sight_content": ""}}, {"title": "蒲类海滑雪场", "address": "哈密巴里坤哈萨克自治县新市路", "image": "", "rank": 41, "time": 2, "location": {"lat": 43.60688763974861, "lng": 93.03089761550457}, "feature": {"sight_features": "", "sight_content": ""}}, {"title": "伊吾焕彩湖", "address": "哈密地区伊吾县伊吾县盐池乡", "image": "", "rank": 42, "time": 1.0, "location": {"lat": 43.33716113086275, "lng": 94.30311559229558}, "feature": {"sight_features": "", "sight_content": ""}}, {"title": "伊水园", "address": "哈密地区伊吾县陵园路", "image": "", "rank": 43, "time": 2, "location": {"lat": 43.255281493343915, "lng": 94.7044335564206}, "feature": {"sight_features": "", "sight_content": ""}}, {"title": "伊吾苇子峡野杏林", "address": "哈密伊吾县", "image": "", "rank": 44, "time": 2, "location": {"lat": 43.260676527466494, "lng": 94.70382567128537}, "feature": {"sight_features": "", "sight_content": ""}}, {"title": "大海道", "address": "哈密市伊州区大南湖", "image": "", "rank": 45, "time": 7.5, "location": {"lat": 42.832824924720725, "lng": 93.52132046236862}, "feature": {"sight_features": "", "sight_content": ""}}, {"title": "仙姑庙", "address": "哈密地区巴里坤县天山路", "image": "", "rank": 46, "time": 0.3, "location": {"lat": 43.6015957446768, "lng": 93.03109103954529}, "feature": {"sight_features": "", "sight_content": ""}}, {"title": "清代古粮仓", "address": "哈密市巴里坤县汉城南西街150号", "image": "", "rank": 47, "time": 2, "location": {"lat": 42.34446710455244, "lng": 93.52937301238876}, "feature": {"sight_features": "", "sight_content": ""}}, {"title": "松峰书院", "address": "哈密市巴里坤县天山北路150米", "image": "", "rank": 48, "time": 2, "location": {"lat": 42.84812411205296, "lng": 93.50844983386925}, "feature": {"sight_features": "", "sight_content": ""}}, {"title": "哈密雅尔当风景旅游区(魔鬼城)", "address": "088 County Rd, Kumul, Xinjiang, China", "image": "", "rank": 49, "time": 2, "location": {"lat": 43.1015144508396, "lng": 92.45320199705691}, "feature": {"sight_features": "特色1 在魔鬼城可以看到那些酷似城堡、殿堂、佛塔、碑、人物、禽兽形态各异的景观、令人眼花缭乱的陡壁悬崖。", "sight_content": "景区位于新疆省哈密市五堡乡支边农场，是3A级景区，属于自然风景类型景区，在魔鬼城可以看到那些酷似城堡、殿堂、佛塔、碑、人物、禽兽形态各异的景观、令人眼花缭乱的陡壁悬崖、以及混迹岩砾中五光十色的玛瑙、随处可见的硅化木、枝叶清新的植物化石，偶尔可获得象恐龙蛋化石的小圆石头，海生的鱼类化石、鸟类化石，当夜幕降临时有时会听到鬼哭狼嚎令人发指的嘶叫，因此才被人们称之为“魔鬼城”。"}}, {"title": "伊吾蝴蝶谷", "address": "哈密伊吾县伊淖公路苇子峡乡河谷林内", "image": "", "rank": 50, "time": 2, "location": {"lat": 43.461496585816015, "lng": 94.85454851973496}, "feature": {"sight_features": "", "sight_content": ""}}, {"title": "星星峡镇", "address": "新疆维吾尔自治区哈密地区哈密市星星峡", "image": "", "rank": 51, "time": 2, "location": {"lat": 41.79985311168249, "lng": 95.1436956066259}, "feature": {"sight_features": "", "sight_content": ""}}, {"title": "三道岭煤矿", "address": "哈密市", "image": "", "rank": 52, "time": 2, "location": {"lat": 42.34446710455244, "lng": 93.52937301238876}, "feature": {"sight_features": "", "sight_content": ""}}, {"title": "哈密东天山冰雪游乐场", "address": "新疆维吾尔自治区哈密地区哈密市天山风景名胜区内", "image": "", "rank": 53, "time": 1.0, "location": {"lat": 43.29281440542474, "lng": 93.81251903919677}, "feature": {"sight_features": "", "sight_content": ""}}, {"title": "巴里坤兰州湾子", "address": "哈密市巴里坤县城西南角", "image": "", "rank": 54, "time": 2, "location": {"lat": 42.34446710455244, "lng": 93.52937301238876}, "feature": {"sight_features": "", "sight_content": ""}}, {"title": "榆树巷", "address": "巴里坤镇榆树巷", "image": "", "rank": 55, "time": 2, "location": {"lat": 43.60869682986562, "lng": 93.00888381793133}, "feature": {"sight_features": "", "sight_content": ""}}, {"title": "巴里坤地藏寺仙姑庙景区", "address": "新疆维吾尔自治区巴里坤哈萨克自治县县城南门处", "image": "", "rank": 56, "time": 2, "location": {"lat": 43.60568877078736, "lng": 93.0229309535639}, "feature": {"sight_features": "", "sight_content": ""}}, {"title": "蓝海水世界", "address": "哈密市伊州区八一北路蓝海体育公园（哈密体育馆旁）", "image": "", "rank": 57, "time": 2.5, "location": {"lat": 42.832824924720725, "lng": 93.52132046236862}, "feature": {"sight_features": "", "sight_content": ""}}, {"title": "翼龙化石展馆", "address": "翼龙化石展馆", "image": "", "rank": 58, "time": 2, "location": {"lat": 39.977788821044896, "lng": 115.65270883195659}, "feature": {"sight_features": "", "sight_content": ""}}, {"title": "巴里坤农丰园蔬菜专业合作社", "address": "303省道附近附近", "image": "", "rank": 59, "time": 2, "location": {"lat": 38.25466494631471, "lng": 114.66726867564682}, "feature": {"sight_features": "", "sight_content": ""}}, {"title": "卡地密游乐农家乐", "address": "017乡道附近", "image": "", "rank": 60, "time": 2, "location": {"lat": 34.943788746231824, "lng": 110.87425136319153}, "feature": {"sight_features": "", "sight_content": ""}}]}