{"cityName": "汉川", "days": 2, "cityImage": "", "spots": [{"title": "昇和农庄", "address": "川刘公路虾子地新桥桥头", "image": "", "rank": 1, "time": 2, "location": {"lat": 32.06735534118362, "lng": 120.853530597267}, "feature": {"sight_features": "", "sight_content": ""}}, {"title": "体育馆游泳池儿童乐园", "address": "汉川体育馆游泳馆旁", "image": "", "rank": 2, "time": 2, "location": {"lat": 30.663739133878806, "lng": 113.84349544178083}, "feature": {"sight_features": "", "sight_content": ""}}, {"title": "汉川影剧院", "address": "湖北省孝感市汉川市西湖大道12号", "image": "", "rank": 3, "time": 2, "location": {"lat": 30.652222532881797, "lng": 113.83622034752345}, "feature": {"sight_features": "", "sight_content": ""}}, {"title": "白马王国游乐园", "address": "湖北省孝感市汉川市金马大道", "image": "", "rank": 4, "time": 2, "location": {"lat": 30.56659090190368, "lng": 113.83826159677785}, "feature": {"sight_features": "", "sight_content": ""}}, {"title": "火猴山", "address": "湖北省孝感市汉川市西街57号", "image": "", "rank": 5, "time": 2, "location": {"lat": 30.666913578820797, "lng": 113.845549010397}, "feature": {"sight_features": "", "sight_content": ""}}, {"title": "顺华农庄", "address": "麻河镇30号", "image": "", "rank": 6, "time": 2, "location": {"lat": 30.801490179138654, "lng": 113.74109923430939}, "feature": {"sight_features": "", "sight_content": ""}}, {"title": "汈汊湖东湖游乐园", "address": "汉刁线", "image": "", "rank": 7, "time": 2, "location": {"lat": 30.66382023845212, "lng": 113.7851414547679}, "feature": {"sight_features": "", "sight_content": ""}}, {"title": "星期六儿童成长主题乐园", "address": "西湖路西湖国际大酒店8号楼", "image": "", "rank": 8, "time": 2, "location": {"lat": 30.65201072027111, "lng": 113.814616868958}, "feature": {"sight_features": "", "sight_content": ""}}, {"title": "香夏草莓园", "address": "S106省道与福仙大道交汇处向东100米处", "image": "", "rank": 9, "time": 2, "location": {"lat": 21.61293072722965, "lng": 110.28910040903354}, "feature": {"sight_features": "", "sight_content": ""}}, {"title": "飞鹰演出", "address": "北桥街10号附近", "image": "", "rank": 10, "time": 2, "location": {"lat": 30.664680291313054, "lng": 113.84754989608992}, "feature": {"sight_features": "", "sight_content": ""}}, {"title": "汉川市图书馆", "address": "西街太史巷", "image": "", "rank": 11, "time": 1.5, "location": {"lat": 35.020878226154615, "lng": 110.99982226281965}, "feature": {"sight_features": "", "sight_content": ""}}, {"title": "汉川市农业综合开发办公室", "address": "仙女山街道西街25号", "image": "", "rank": 12, "time": 2, "location": {"lat": 30.659201438832188, "lng": 113.89313386841384}, "feature": {"sight_features": "", "sight_content": ""}}, {"title": "冰淇淋休闲美食广场", "address": "孝感市汉川市", "image": "", "rank": 13, "time": 2, "location": {"lat": 30.666913578820797, "lng": 113.845549010397}, "feature": {"sight_features": "", "sight_content": ""}}, {"title": "福星广场", "address": "孝感市汉川市福万大道183号", "image": "", "rank": 14, "time": 2, "location": {"lat": 30.499151808603678, "lng": 113.54166217767671}, "feature": {"sight_features": "", "sight_content": ""}}, {"title": "儿童水上主题乐园(汉川旗舰店)", "address": "西湖大道75-2号附近", "image": "", "rank": 15, "time": 2, "location": {"lat": 30.653101626435028, "lng": 113.82634373805153}, "feature": {"sight_features": "", "sight_content": ""}}, {"title": "福星楚剧团", "address": "沉湖镇", "image": "", "rank": 16, "time": null, "location": {"lat": 30.45579276210402, "lng": 113.5095170377189}, "feature": {"sight_features": "", "sight_content": ""}}, {"title": "可可爱孕婴童连锁欢乐街no.3", "address": "欢乐街11-2号", "image": "", "rank": 17, "time": 2, "location": {"lat": 30.647383621144808, "lng": 113.8371640201566}, "feature": {"sight_features": "", "sight_content": ""}}, {"title": "小天才儿童主题乐园", "address": "福星商业街B区33-35号", "image": "", "rank": 18, "time": 2, "location": {"lat": 32.3988422855802, "lng": 119.44253509374877}, "feature": {"sight_features": "", "sight_content": ""}}, {"title": "儿童游乐园", "address": "汉川新街A026", "image": "", "rank": 19, "time": 2, "location": {"lat": 30.664589119764774, "lng": 113.84309088719951}, "feature": {"sight_features": "", "sight_content": ""}}, {"title": "基督教堂", "address": "庙北线附近", "image": "", "rank": 20, "time": null, "location": {"lat": 32.80676948890631, "lng": 114.6950697247223}, "feature": {"sight_features": "", "sight_content": ""}}, {"title": "蚌湖财神庙", "address": "湖北省孝感市汉川市S106", "image": "", "rank": 21, "time": 2, "location": {"lat": 30.666913578820797, "lng": 113.845549010397}, "feature": {"sight_features": "", "sight_content": ""}}, {"title": "奓阁寺", "address": "湖北省孝感市汉川市", "image": "", "rank": 22, "time": 2, "location": {"lat": 30.666913578820797, "lng": 113.845549010397}, "feature": {"sight_features": "", "sight_content": ""}}, {"title": "汉川市基督教堂", "address": "校军街30", "image": "", "rank": 23, "time": null, "location": {"lat": 30.64411607647904, "lng": 113.84331631517061}, "feature": {"sight_features": "", "sight_content": ""}}, {"title": "刁汊湖", "address": "湖北省孝感市汉川市汉川市汈汊湖", "image": "", "rank": 24, "time": 2, "location": {"lat": 30.698862167707496, "lng": 113.69087373089}, "feature": {"sight_features": "", "sight_content": ""}}, {"title": "佳贝爱儿童乐园", "address": "湖北省孝感市汉川市人民大道217号", "image": "", "rank": 25, "time": 2, "location": {"lat": 30.66483838521222, "lng": 113.8418661374672}, "feature": {"sight_features": "", "sight_content": ""}}, {"title": "乐贝尔游乐园", "address": "霍城大道8号", "image": "", "rank": 26, "time": 2, "location": {"lat": 30.671018468264226, "lng": 113.83096864330862}, "feature": {"sight_features": "", "sight_content": ""}}, {"title": "好再来农家乐", "address": "湖北省孝感市汉川市马口镇高榔线中国石化高山加油站西", "image": "", "rank": 27, "time": 2, "location": {"lat": 30.555248392319232, "lng": 113.88507988309284}, "feature": {"sight_features": "", "sight_content": ""}}, {"title": "汉川市直机关休干所", "address": "山后三路74", "image": "", "rank": 28, "time": 2, "location": {"lat": 30.65655475640006, "lng": 113.8418829124243}, "feature": {"sight_features": "", "sight_content": ""}}, {"title": "月色荷塘渡假村", "address": "汈汊湖月色荷塘渡假村", "image": "", "rank": 29, "time": 2, "location": {"lat": 30.663591851506908, "lng": 113.7889271863735}, "feature": {"sight_features": "", "sight_content": ""}}, {"title": "青青(亲亲)螃蟹基地", "address": "湖北省孝感市汉川市湾潭乡", "image": "", "rank": 30, "time": 2, "location": {"lat": 30.577349262079814, "lng": 113.69973592616986}, "feature": {"sight_features": "", "sight_content": ""}}, {"title": "流潭公园", "address": "湖北省仙桃市沔阳大道119号", "image": "", "rank": 31, "time": 2, "location": {"lat": 30.373824634337495, "lng": 113.48127094473782}, "feature": {"sight_features": "", "sight_content": ""}}, {"title": "石雄观", "address": "沿江大道西段10", "image": "", "rank": 32, "time": 2, "location": {"lat": 30.388264757729004, "lng": 113.44927407771007}, "feature": {"sight_features": "", "sight_content": ""}}, {"title": "观音寺(大寺垸店)", "address": "汉江路109号", "image": "", "rank": 33, "time": 2, "location": {"lat": 31.8453865278593, "lng": 119.94168924200021}, "feature": {"sight_features": "", "sight_content": ""}}, {"title": "甘露寺", "address": "直辖县级行政单位仙桃市桃源大道东段 流潭公园", "image": "", "rank": 34, "time": 2.5, "location": {"lat": 30.376334147157763, "lng": 113.48004757031126}, "feature": {"sight_features": "", "sight_content": ""}}, {"title": "仙桃商城礼仪广场", "address": "仙桃市钱沟路", "image": "", "rank": 35, "time": 2, "location": {"lat": 30.367830156841205, "lng": 113.4619606029867}, "feature": {"sight_features": "", "sight_content": ""}}, {"title": "七彩儿童乐园", "address": "新河镇汉正古镇明清商街5栋4层", "image": "", "rank": 36, "time": 2, "location": {"lat": 30.675810177973705, "lng": 113.92201690761168}, "feature": {"sight_features": "", "sight_content": ""}}, {"title": "水魔方乐园", "address": "体育馆西路天恒大酒店向西200米", "image": "", "rank": 37, "time": 3.5, "location": {"lat": 30.663052020779634, "lng": 113.82732237183683}, "feature": {"sight_features": "", "sight_content": ""}}, {"title": "马口海蓝蓝欢乐水世界", "address": "马口镇二中体育馆", "image": "", "rank": 38, "time": 2, "location": {"lat": 41.177879326221706, "lng": 80.29979580163211}, "feature": {"sight_features": "", "sight_content": ""}}, {"title": "童爱岛亲子儿童乐园", "address": "新河镇汉正古镇商业街川东大道桥头(川东阁对面)", "image": "", "rank": 39, "time": 2, "location": {"lat": 30.676649977122267, "lng": 113.92298685747758}, "feature": {"sight_features": "", "sight_content": ""}}, {"title": "开心宝贝乐园", "address": "城隍镇中百超市旁", "image": "", "rank": 40, "time": 2, "location": {"lat": 30.621060756042986, "lng": 113.77773381104097}, "feature": {"sight_features": "", "sight_content": ""}}, {"title": "鑫亿亨.水上乐园", "address": "体育馆西路天恒大酒店往滨湖大道方向200米", "image": "", "rank": 41, "time": 2, "location": {"lat": 30.663052020779634, "lng": 113.82911898285678}, "feature": {"sight_features": "", "sight_content": ""}}, {"title": "中州农场", "address": "仙女大道118号附近", "image": "", "rank": 42, "time": 2, "location": {"lat": 30.648060955601565, "lng": 113.8368782986383}, "feature": {"sight_features": "", "sight_content": ""}}, {"title": "男人海洋", "address": "川东大道31号附近", "image": "", "rank": 43, "time": 2, "location": {"lat": 30.6747825478886, "lng": 113.91700587436267}, "feature": {"sight_features": "", "sight_content": ""}}, {"title": "湖北瑞宏农业生态园", "address": "篱湖村1组", "image": "", "rank": 44, "time": 2, "location": {"lat": 38.54062894038941, "lng": 115.614145207922}, "feature": {"sight_features": "", "sight_content": ""}}, {"title": "汉正美食街", "address": "湖北省汉川市川东大街", "image": "", "rank": 45, "time": 2, "location": {"lat": 30.666913578820797, "lng": 113.845549010397}, "feature": {"sight_features": "", "sight_content": ""}}, {"title": "天屿湖", "address": "湖北省汉川市马口天屿湖", "image": "", "rank": 46, "time": 2, "location": {"lat": 30.666913578820797, "lng": 113.845549010397}, "feature": {"sight_features": "", "sight_content": ""}}, {"title": "天屿湖温泉", "address": "孝感市汉川市马口镇新蔡城路6号", "image": "", "rank": 47, "time": 2, "location": {"lat": 30.532620987886776, "lng": 113.82670009225413}, "feature": {"sight_features": "", "sight_content": ""}}]}