{"cityName": "汉寿", "days": 2, "cityImage": "", "spots": [{"title": "西洞庭湖湿地保护区", "address": "常德市汉寿县岩汪湖镇", "image": "", "rank": 1, "time": 3.0, "location": {"lat": 28.88289707086836, "lng": 112.08378814372345}, "feature": {"sight_features": "特色1 以气象万千、美丽富饶闻名天下", "sight_content": "西洞庭湖湿地公园由沅、澧汇聚而成，有水浸皆湖，水落为洲的沼泽地貌特征，西洞庭湖衔远山、吞长江，碧波万顷，浩无涯际，素以气象万千、美丽富饶闻名天下。这一带港汊迂回，丘峦突兀，湖外有湖，湖中有岛，渔帆点点，芦叶青青，鱼跃水底，鸥鹭翔飞。\n境内河汊纵横，洲岛密布，广阔的湖面上星罗棋布地散布着140个人迹罕至的湖洲和湖岛。这里土地肥沃，气候温暖湿润，四季分明，物产丰富生长着湿地植物865种、鸟类207种、鱼类114种。其中国家一级保护动物有中华鲟、白鹤、白头鹤、中华秋沙鸭等10多种。\n湖洲芦苇面积达5.4万多公顷，这里湖面宽广，水草繁茂，水产动物极多，自古盛产鲤、鲢、鳜、鲭、鳊、鲰、银鱼、草鱼、凤尾鱼和龟、鳖等各种淡水鱼称得上天然特种水产基地，湖洲上野生的绿色食品野芹菜、野藜蒿、芦笋和蓼米被誉为“洞庭四珍”倍受人们珍爱。\n西洞庭湖湿地公园风景区是一个大自然迷宫，浩渺无银的水域湖洲，风情万种的湖汊岛屿，这里芦获连天鱼米香有久负胜名的飞机水上打靶场、杨么水寨、龙王庙、水上长城、洞庭烟云、洞庭秋月、远浦归帆、平沙落雁、渔村夕照、江天暮雪等众多的人文景观。"}}, {"title": "清水湖旅游度假区", "address": "常德市汉寿县太子庙工业园北侧", "image": "", "rank": 2, "time": 2, "location": {"lat": 28.781619204115096, "lng": 111.95453226558013}, "feature": {"sight_features": "", "sight_content": ""}}, {"title": "洞庭花海", "address": "常德市汉寿县株木山乡文步桥村", "image": "", "rank": 3, "time": 0.25, "location": {"lat": 28.83728159342917, "lng": 111.94448415342016}, "feature": {"sight_features": "特色1 园内来自欧美的名贵玫瑰花海是您传达爱意、表白爱情的最佳场所，更可以品尝玫瑰花宴、玫瑰花饼、享受玫瑰花浴、玫瑰精油等，还有上万坪的玫瑰婚庆广场、玫瑰爱情城堡。 特色2 园内国内外奇花异草珍稀树木品种繁多，真正的四季花海，365天都有不一样的视觉享受。 特色3 园区集生态旅游、休闲度假、鲜花宴特色美食、影视拍摄、相亲婚庆、婚纱摄影、亲子乐园、文化传播、科普教育、房车露营、户外运动、养生禅修等为一体，满足游客各种需求和生态观光度假的体验感受", "sight_content": "洞庭花海位于常德市汉寿县株木山乡韩文村,花海整个景区占地约1000亩，花的种类也很多，园区按4A生态景区标准建设，将建成花海观光区、欧式婚礼区、儿童游乐区、康体养生区、果蔬采摘区、露营烧烤区、垂钓休闲区、户外拓展区等8大功能区。洞庭玫瑰花海根据园区不同的产业和主题分区，还有百果园，儿童乐园，风情沙滩，篝火广场等游乐场所，同时还有各种婚纱婚庆主题摄影区，大量引进国内外珍贵花卉品种的同时，也配置了乡土树种，仿古建筑、假山、喷泉、亭台楼阁、石拱桥，等，以欧式建筑为主体，用美轮美奂的环境，给年轻人一个传递爱意、情定终生的童话世界。\n\n\n\n\n以玫瑰、绣球、茶花、腊梅、紫薇、紫藤、樱花、观赏桃、郁金香、百合、百日草、孔雀草、硫华菊、向日葵、波斯菊、藤本月季、紫藤、荷花、睡莲等各类木本、藤本及水生花卉为主，充分利用天然水系、水生植物、农田林网、周边特色农家小院等优势资源，采用大条形、大色块的构图，形成构图流畅、色彩鲜艳的四季花海，打造成集生态旅游、休闲度假、鲜花宴特色美食、影视拍摄、相亲婚庆、婚纱摄影、亲子乐园、文化传播、科普教育、房车露营、户外运动、养生禅修等为一体，满足游客吃、住、行、游、购、娱需求的体验式生态观光旅游度假圣地。"}}, {"title": "天月湖度假村", "address": "湖南常德市汉寿县刘家坝", "image": "", "rank": 4, "time": 2, "location": {"lat": 28.880878340794254, "lng": 111.97196364594451}, "feature": {"sight_features": "", "sight_content": ""}}, {"title": "湖南众肴农业发展有限公司生态农...", "address": "聂家桥乡茶场(先锋村4组)", "image": "", "rank": 5, "time": 2, "location": {"lat": 28.875761313014927, "lng": 111.82012413013513}, "feature": {"sight_features": "", "sight_content": ""}}, {"title": "新紫阳水上乐园", "address": "蒋家咀镇阳南塘乡紫阳冲村(紫阳冲村)", "image": "", "rank": 6, "time": 2, "location": {"lat": 28.787653268652257, "lng": 112.2222656830765}, "feature": {"sight_features": "", "sight_content": ""}}, {"title": "老年书画诗词研究会城南一组活动...", "address": "书院路", "image": "", "rank": 7, "time": 2, "location": {"lat": 31.59803376132417, "lng": 120.13300024447663}, "feature": {"sight_features": "", "sight_content": ""}}, {"title": "汉寿县图书馆", "address": "龙阳镇南湖路27号", "image": "", "rank": 8, "time": 2, "location": {"lat": 28.910711118432925, "lng": 111.97812499228282}, "feature": {"sight_features": "", "sight_content": ""}}, {"title": "西湖农场(四分场)", "address": "344乡道东50米", "image": "", "rank": 9, "time": 2, "location": {"lat": 31.68927710648883, "lng": 116.44850142391631}, "feature": {"sight_features": "", "sight_content": ""}}, {"title": "湖南高尔夫职业学院大食堂", "address": "湖南高尔夫职业学院", "image": "", "rank": 10, "time": 2, "location": {"lat": 28.118269998009367, "lng": 112.98960254334654}, "feature": {"sight_features": "", "sight_content": ""}}, {"title": "洞庭丽都生态农庄", "address": "XJ127五美大桥南200米路东", "image": "", "rank": 11, "time": 2, "location": {"lat": 36.922992163525336, "lng": 113.73124533400077}, "feature": {"sight_features": "", "sight_content": ""}}, {"title": "花岩溪风景旅游度假区", "address": "湖南省常德市鼎城区南部 415100", "image": "", "rank": 12, "time": 2, "location": {"lat": 25.695626091791706, "lng": 111.6875220918157}, "feature": {"sight_features": "", "sight_content": ""}}, {"title": "西竺山", "address": "湖南省汉寿县西竺山乡 415900", "image": "", "rank": 13, "time": 2, "location": {"lat": 28.906903793998037, "lng": 111.97266144966444}, "feature": {"sight_features": "", "sight_content": ""}}, {"title": "欢乐谷儿童成长乐园", "address": "汉寿县步行街内", "image": "", "rank": 14, "time": 2, "location": {"lat": 28.91228760308519, "lng": 111.97641193355722}, "feature": {"sight_features": "", "sight_content": ""}}, {"title": "富士度假村", "address": "南湖路与135县道交叉口东100米", "image": "", "rank": 15, "time": 7.5, "location": {"lat": 38.72693637819165, "lng": 111.0411178998085}, "feature": {"sight_features": "", "sight_content": ""}}, {"title": "坡头影剧院", "address": "159乡道", "image": "", "rank": 16, "time": 2, "location": {"lat": 40.1952727320698, "lng": 116.83312413310438}, "feature": {"sight_features": "", "sight_content": ""}}, {"title": "车水马龙大剧场", "address": "南湖路附近", "image": "", "rank": 17, "time": 2, "location": {"lat": 32.70059270546331, "lng": 119.45448415871022}, "feature": {"sight_features": "", "sight_content": ""}}, {"title": "喜洋洋游乐园", "address": "步行街与银水东路交叉口西北150米", "image": "", "rank": 18, "time": 2, "location": {"lat": 39.754319199493544, "lng": 118.4675874287618}, "feature": {"sight_features": "", "sight_content": ""}}, {"title": "净照寺", "address": "湖南省常德市汉寿县西竺山路", "image": "", "rank": 19, "time": 2, "location": {"lat": 28.912129634684216, "lng": 111.95788868350682}, "feature": {"sight_features": "", "sight_content": ""}}, {"title": "宝贝之家儿童游乐园", "address": "龙阳商业广场往内30米二楼皇华帝带音乐中西餐厅旁边", "image": "", "rank": 20, "time": 2, "location": {"lat": 28.9079508157625, "lng": 111.95989369511629}, "feature": {"sight_features": "", "sight_content": ""}}, {"title": "大世界游乐场", "address": "银水东路205号附近", "image": "", "rank": 21, "time": null, "location": {"lat": 28.910175397100094, "lng": 111.97335925239148}, "feature": {"sight_features": "", "sight_content": ""}}, {"title": "张家祠堂", "address": "常德市汉寿县零三八县道", "image": "", "rank": 22, "time": 2, "location": {"lat": 28.91228760308519, "lng": 111.97641193355722}, "feature": {"sight_features": "", "sight_content": ""}}, {"title": "思味农庄", "address": "湖南省常德市汉寿县丰家铺镇金牛山村金牛山庄东南侧150米", "image": "", "rank": 23, "time": 2, "location": {"lat": 28.715901839793595, "lng": 111.93995737905848}, "feature": {"sight_features": "", "sight_content": ""}}, {"title": "陈氏儿童乐园", "address": "J27县道育苗托儿所附近", "image": "", "rank": 24, "time": 2, "location": {"lat": 36.81340755726067, "lng": 115.17888717486632}, "feature": {"sight_features": "", "sight_content": ""}}, {"title": "汉寿县博汉奇石博物馆", "address": "银水西路60号农业机械化管理局隔壁", "image": "", "rank": 25, "time": 2, "location": {"lat": 38.040325990893, "lng": 114.52928514678699}, "feature": {"sight_features": "", "sight_content": ""}}, {"title": "帅孟奇故居", "address": "常德市汉寿县", "image": "", "rank": 26, "time": 2, "location": {"lat": 28.91228760308519, "lng": 111.97641193355722}, "feature": {"sight_features": "", "sight_content": ""}}, {"title": "西湖农场(五分场)", "address": "346乡道附近", "image": "", "rank": 27, "time": 2, "location": {"lat": 31.657721307925996, "lng": 116.47876794163346}, "feature": {"sight_features": "", "sight_content": ""}}, {"title": "德人牧香农场(西湖生态总店)", "address": "027县道与J27县道交叉口西北50米", "image": "", "rank": 28, "time": 2, "location": {"lat": 39.754319199493544, "lng": 118.4675874287618}, "feature": {"sight_features": "", "sight_content": ""}}, {"title": "爱巴爱麻儿童主题乐园", "address": "龙阳镇银水路银水大厦三楼", "image": "", "rank": 29, "time": 2, "location": {"lat": 28.90934592985899, "lng": 111.9723424200559}, "feature": {"sight_features": "", "sight_content": ""}}, {"title": "笆·笆·莎时尚内衣艺术馆", "address": "振兴西路北100米", "image": "", "rank": 30, "time": 2, "location": {"lat": 38.711763103433654, "lng": 111.57180766036088}, "feature": {"sight_features": "", "sight_content": ""}}, {"title": "天仙果园", "address": "花鼓冲东南侧300米", "image": "", "rank": 31, "time": 2, "location": {"lat": 27.311425494066388, "lng": 113.16668853665786}, "feature": {"sight_features": "", "sight_content": ""}}, {"title": "汉寿县毛家滩乡兰庭田园休闲农庄", "address": "徐家山村", "image": "", "rank": 32, "time": 2, "location": {"lat": 39.84399361432008, "lng": 119.00966026431276}, "feature": {"sight_features": "", "sight_content": ""}}, {"title": "黄诚港", "address": "湖南省汉寿县聂家桥乡黄诚港村", "image": "", "rank": 33, "time": 2, "location": {"lat": 28.933700888990767, "lng": 111.88302777582334}, "feature": {"sight_features": "", "sight_content": ""}}, {"title": "西洞庭湖湿地", "address": "湖南省汉寿县蒋家嘴镇", "image": "", "rank": 34, "time": 3.0, "location": {"lat": 28.828843152138898, "lng": 112.21272608369947}, "feature": {"sight_features": "", "sight_content": ""}}, {"title": "西洞庭湖国家城市湿地公园", "address": "湖南省汉寿县岩汪湖镇", "image": "", "rank": 35, "time": 2, "location": {"lat": 28.88289707086836, "lng": 112.08378814372345}, "feature": {"sight_features": "", "sight_content": ""}}, {"title": "汉寿风味美食一条街", "address": "湖南省汉寿县辰阳中路204号", "image": "", "rank": 36, "time": 2, "location": {"lat": 28.912482644439866, "lng": 111.97453819851833}, "feature": {"sight_features": "", "sight_content": ""}}, {"title": "夹堤湾", "address": "常德市-汉寿县", "image": "", "rank": 37, "time": 2, "location": {"lat": 28.91228760308519, "lng": 111.97641193355722}, "feature": {"sight_features": "", "sight_content": ""}}, {"title": "武峰山水上乐园", "address": "常德市-汉寿县-174乡道西50米", "image": "", "rank": 38, "time": 2, "location": {"lat": 28.91228760308519, "lng": 111.97641193355722}, "feature": {"sight_features": "", "sight_content": ""}}]}