{"cityName": "含山", "days": 2, "cityImage": "", "spots": [{"title": "聚义楼", "address": "041乡道西50米", "image": "", "rank": 1, "time": 2, "location": {"lat": 22.60919886263197, "lng": 114.24644262262933}, "feature": {"sight_features": "", "sight_content": ""}}, {"title": "安徽马鞍山黄桃采摘园", "address": "横龙粮站向北150米路东", "image": "", "rank": 2, "time": 2, "location": {"lat": 31.531854366152213, "lng": 121.72764301601296}, "feature": {"sight_features": "", "sight_content": ""}}, {"title": "太湖山", "address": "安徽省含山县县南部 238100", "image": "", "rank": 3, "time": 1.0, "location": {"lat": 31.74086220873552, "lng": 118.10746203633957}, "feature": {"sight_features": "", "sight_content": ""}}, {"title": "仙踪江淮桥", "address": "安徽省含山县仙踪镇 238181", "image": "", "rank": 4, "time": 2, "location": {"lat": 31.82057923816823, "lng": 117.97198001793507}, "feature": {"sight_features": "", "sight_content": ""}}, {"title": "昭关", "address": "马鞍山市含山县", "image": "", "rank": 5, "time": 1.5, "location": {"lat": 31.74086220873552, "lng": 118.10746203633957}, "feature": {"sight_features": "", "sight_content": ""}}, {"title": "香云寺", "address": "合肥市巢湖市安徽合肥市巢湖经开区汤山脚下三瓜公社", "image": "", "rank": 6, "time": 2, "location": {"lat": 31.629002428816317, "lng": 117.89557620044565}, "feature": {"sight_features": "", "sight_content": ""}}, {"title": "八福寺", "address": "马鞍山市含山县", "image": "", "rank": 7, "time": 2, "location": {"lat": 31.74086220873552, "lng": 118.10746203633957}, "feature": {"sight_features": "", "sight_content": ""}}, {"title": "湿地公园", "address": "褒禅山路南100米", "image": "", "rank": 8, "time": 2, "location": {"lat": 31.740617585582747, "lng": 118.1157408486653}, "feature": {"sight_features": "", "sight_content": ""}}, {"title": "碧峰禅院", "address": "马鞍山市含山县环峰东路311号", "image": "", "rank": 9, "time": 2, "location": {"lat": 31.718041983024843, "lng": 118.1225842011251}, "feature": {"sight_features": "", "sight_content": ""}}, {"title": "八宝禅寺", "address": "安徽省马鞍山市含山县", "image": "", "rank": 10, "time": 2, "location": {"lat": 31.74086220873552, "lng": 118.10746203633957}, "feature": {"sight_features": "", "sight_content": ""}}, {"title": "将公庙", "address": "226省道沿河社区居民委员会附近", "image": "", "rank": 11, "time": 2, "location": {"lat": 31.808189377585986, "lng": 118.01088746930189}, "feature": {"sight_features": "", "sight_content": ""}}, {"title": "含山县档案馆", "address": "226省道", "image": "", "rank": 12, "time": 2, "location": {"lat": 34.356864091588434, "lng": 119.92029932838331}, "feature": {"sight_features": "", "sight_content": ""}}, {"title": "含山县图书馆", "address": "环峰东路181号", "image": "", "rank": 13, "time": 2, "location": {"lat": 31.72357773987735, "lng": 118.121055105486}, "feature": {"sight_features": "", "sight_content": ""}}, {"title": "林海九天生态园", "address": "省道s105与s226交叉口", "image": "", "rank": 14, "time": 2, "location": {"lat": 31.71482481345387, "lng": 118.08093803185166}, "feature": {"sight_features": "", "sight_content": ""}}]}