{"cityName": "汉源", "days": 2, "cityImage": "", "spots": [{"title": "轿顶山", "address": "雅安市汉源县", "image": "", "rank": 1, "time": 3.5, "location": {"lat": 29.350217385987463, "lng": 102.65857589024432}, "feature": {"sight_features": "", "sight_content": ""}}, {"title": "大世界水上乐园", "address": "雅安市汉源县九襄镇幸福村2组", "image": "", "rank": 2, "time": 2, "location": {"lat": 29.488344702068076, "lng": 102.64847399204197}, "feature": {"sight_features": "", "sight_content": ""}}, {"title": "清溪古镇", "address": "雅安市汉源县108国道附近", "image": "", "rank": 3, "time": 2, "location": {"lat": 29.635805854101317, "lng": 102.6222810239228}, "feature": {"sight_features": "", "sight_content": ""}}, {"title": "九襄石牌坊", "address": "九襄镇", "image": "", "rank": 4, "time": 2, "location": {"lat": 29.494260672303458, "lng": 102.68028712593835}, "feature": {"sight_features": "", "sight_content": ""}}, {"title": "清溪风洞", "address": "四川省汉源县建黎乡东北", "image": "", "rank": 5, "time": 2, "location": {"lat": 29.60786607972816, "lng": 102.61039576111415}, "feature": {"sight_features": "", "sight_content": ""}}, {"title": "汉源县花鹿山庄", "address": "大树镇新民社区7组(月亮湾葡萄采摘园)", "image": "", "rank": 6, "time": 2, "location": {"lat": 34.21458817451544, "lng": 117.09190305451818}, "feature": {"sight_features": "", "sight_content": ""}}, {"title": "西康藏寨农家乐", "address": "雅西高速汉源高速南站108国道往石棉方向800米", "image": "", "rank": 7, "time": 2, "location": {"lat": 28.949362228130777, "lng": 102.30814771939264}, "feature": {"sight_features": "", "sight_content": ""}}, {"title": "汉源县农业局", "address": "富林镇东升路103号", "image": "", "rank": 8, "time": 2, "location": {"lat": 29.35028934882159, "lng": 102.66391200463292}, "feature": {"sight_features": "", "sight_content": ""}}, {"title": "金旧种植专业合作社", "address": "交通北路168号", "image": "", "rank": 9, "time": 2, "location": {"lat": 31.204481481680105, "lng": 120.6694014090038}, "feature": {"sight_features": "", "sight_content": ""}}, {"title": "中央公园", "address": "富林大道与江汉大道三段交叉口西200米", "image": "", "rank": 10, "time": 2.5, "location": {"lat": 29.349549238757653, "lng": 102.65283096869622}, "feature": {"sight_features": "", "sight_content": ""}}, {"title": "环湖儿童游乐园", "address": "滨湖大道三段92号附近", "image": "", "rank": 11, "time": 2, "location": {"lat": 29.352987148591456, "lng": 102.66017599064529}, "feature": {"sight_features": "", "sight_content": ""}}, {"title": "康乐胎中胎", "address": "汉源县公路养护段附近", "image": "", "rank": 12, "time": 2, "location": {"lat": 29.354892056028696, "lng": 102.65049992428847}, "feature": {"sight_features": "", "sight_content": ""}}, {"title": "汉源蜀源阳光湖畔度假村", "address": "汉源雅安市汉源县富泉集镇加油站旁边", "image": "", "rank": 13, "time": 3.0, "location": {"lat": 29.381830130599184, "lng": 102.64960743351034}, "feature": {"sight_features": "", "sight_content": ""}}, {"title": "汉源县华新苑度假村", "address": "九襄镇甘溪坝工业园区(近陈氏诊所)", "image": "", "rank": 14, "time": 2, "location": {"lat": 29.474684483822497, "lng": 102.64023842055299}, "feature": {"sight_features": "", "sight_content": ""}}, {"title": "汉源枣子林度假村", "address": "九襄镇枣林五组(高速公路连接线进口600米处)", "image": "", "rank": 15, "time": 3.0, "location": {"lat": 29.514148028831105, "lng": 102.64002597129995}, "feature": {"sight_features": "", "sight_content": ""}}, {"title": "体育公园", "address": "四川省雅安市汉源县友谊路", "image": "", "rank": 16, "time": 1.0, "location": {"lat": 29.351673391000492, "lng": 102.6591455551748}, "feature": {"sight_features": "", "sight_content": ""}}, {"title": "狮子山度假村", "address": "狮子山隧洞附近", "image": "", "rank": 17, "time": 2, "location": {"lat": 30.94477226542431, "lng": 117.88974925192463}, "feature": {"sight_features": "", "sight_content": ""}}, {"title": "汉源金归种植专业合作社", "address": "宜东镇梨园乡大树村一组", "image": "", "rank": 18, "time": 2, "location": {"lat": 29.61526486536226, "lng": 102.46550023043702}, "feature": {"sight_features": "", "sight_content": ""}}, {"title": "我家院子农家乐", "address": "017乡道", "image": "", "rank": 19, "time": 2, "location": {"lat": 34.943788746231824, "lng": 110.87425136319153}, "feature": {"sight_features": "", "sight_content": ""}}, {"title": "汉源图书馆", "address": "江汉大道东100米", "image": "", "rank": 20, "time": 1.5, "location": {"lat": 29.434164115672235, "lng": 109.1896728898235}, "feature": {"sight_features": "", "sight_content": ""}}, {"title": "同学会怀旧主题馆", "address": "楚源大道二段188号", "image": "", "rank": 21, "time": 2, "location": {"lat": 29.349852192700087, "lng": 102.65143849364769}, "feature": {"sight_features": "", "sight_content": ""}}, {"title": "汉源县华宇农庄", "address": "双溪乡申沟村内", "image": "", "rank": 22, "time": 2, "location": {"lat": 25.255376349426253, "lng": 112.54815695064325}, "feature": {"sight_features": "", "sight_content": ""}}, {"title": "九襄古镇", "address": "四川省汉源县九襄镇", "image": "", "rank": 23, "time": 2, "location": {"lat": 29.494260672303458, "lng": 102.68028712593835}, "feature": {"sight_features": "", "sight_content": ""}}, {"title": "河西龙洞", "address": "四川省汉源县河西乡香林村", "image": "", "rank": 24, "time": 2, "location": {"lat": 29.41885909497585, "lng": 102.61654561453176}, "feature": {"sight_features": "", "sight_content": ""}}, {"title": "雅安富林文化 Ya'an Fulin Cultu...", "address": "四川省汉源县流沙河畔", "image": "", "rank": 25, "time": 1.0, "location": {"lat": 29.350217385987463, "lng": 102.65857589024432}, "feature": {"sight_features": "", "sight_content": ""}}, {"title": "西溪溶洞", "address": "四川省汉源县西溪乡", "image": "", "rank": 26, "time": 2, "location": {"lat": 29.606773868174564, "lng": 102.55266485139828}, "feature": {"sight_features": "", "sight_content": ""}}, {"title": "大渡河谷", "address": "四川省雅安市雨城区古路村", "image": "", "rank": 27, "time": 2, "location": {"lat": 30.011061644393436, "lng": 103.0395752053269}, "feature": {"sight_features": "", "sight_content": ""}}, {"title": "佛静山", "address": "四川省汉源县双溪乡", "image": "", "rank": 28, "time": 3.0, "location": {"lat": 29.561358317619547, "lng": 102.6667294994403}, "feature": {"sight_features": "", "sight_content": ""}}, {"title": "雅安花果山", "address": "四川省雅安市雨城区对岩镇", "image": "", "rank": 29, "time": 1.0, "location": {"lat": 29.966139453059377, "lng": 102.9587099657794}, "feature": {"sight_features": "", "sight_content": ""}}]}