{"cityName": "鹤壁", "days": "", "cityImage": "", "spots": [{"title": "云梦山风景区", "address": "鹤壁市淇县云梦山风景区（县城以西约15公里）", "image": "", "rank": 1, "time": 3.5, "location": {"lat": 35.61796460366172, "lng": 114.06535018983445}, "feature": {"sight_features": "特色1 战国时期纵横家鼻祖“鬼谷子”王禅隐居授徒之处 特色2 景区内有草原峡谷，景色奇特！ 特色3 峰峦叠嶂，山起云浮，气象万千，飞瀑流泉", "sight_content": "鹤壁市淇县的云梦山风景区，位于县城以西约十五公里处。在淇县县城的社会汽车站，每天都有多趟班车开往景区，车程约30分钟。云梦山风景区分为主景区（战国古军库、上圣古庙）、五里鬼谷（峡谷）、云梦大草原三部分组成，景区内的峡谷和“大草原”其实规模都不大，峡谷就是一条不太深也不太长的山谷；草原的亮点也不在于“大”，而是因为在太行山脉中有这样一片草原，非常罕见。游客进入景区后，根据景区的指示牌，沿着游览步道游览就可以了。\n主景区的上圣古庙位于北山，战国古军库是主景区中的主要景点，位于南山，据说这里是战国时期的纵横家鼻祖——鬼谷子王禅隐居授徒的地方，国防大学确定这里为“中国古代军事文化教育基地”。战国时期著名的孙膑、庞涓、苏秦、张仪、毛遂等名人都是在这里师从鬼谷子。如今在山中还有鬼谷洞、太孙膑洞、庞涓洞、孙膑墓等人文景点。此外还有全国字数最多规模最大的摩崖题记\"鬼谷子\"兵书。除了人文遗迹和景点，景区内青山绿水、草木茂盛，还能看到不少瀑布、泉水，是个游玩休闲的好地方。不过，如果你是冬天来这里，瀑布和泉水基本已经干枯，草木也已经枯黄，此时则是另外一番北方山脉的冷峻之色。山中多处有小卖部，可以购买到零食和饮用水。"}}, {"title": "大伾山景区", "address": "鹤壁市浚县城关镇伾浮路东段97号", "image": "", "rank": 2, "time": 4.0, "location": {"lat": 35.66792238386519, "lng": 114.55882748024605}, "feature": {"sight_features": "特色1 世界唯一佛屋景观", "sight_content": "鹤壁大伾山位于河南省鹤壁浚县城东，故又称东山。因其有中国最早，北方最大的大石佛而著称于世。该石佛始建于北魏，依山开凿，总高八丈，藏于七丈高的楼内，素有“八丈佛爷七丈楼”之称，为世界佛屋景观之唯一。古时，黄河流于其脚下，每到雨季，常会洪水泛滥，故雕石佛以镇之。2001年6月被国务院公布为国保文物，属国家“aaaa”级景区。大伾山上现存道观佛寺建筑群7处，名亭8座，石窟6处，各式古建筑138间，摩崖碑刻460余处，各具特色。又名黎山，位于河南浚县城东南，山势巍峨，松柏苍郁，秀丽幽静。五代前释道二教并存，道庙佛寺数量众多。至五代后周下诏灭佛，现东麓天宁寺内有五代后周显德六年（ 959 ）刻的“准敕不停废记碑”，为山上现存最早的碑刻，研究后周灭佛的重要资料。道教宫观现存吕祖祠、壶天道院、禹王庙等。另有大石佛像、唐代《大伾山铭》摩崖题记以及藏经阁、阳明书院、龙洞、丰泽庙等胜迹。\n大伾山平地拔起，孤峰凌云，山势奇特，气象睁蝶。山上寺庙洞阁棋布，摩崖碑刻林立，松柏夹道，曲径幽回，自古即为\"河朔胜景\"。帝王将相、文人学士、登山揽胜者代不乏人。大伾山与浮丘山东西对峙，相去1里有余，卫河环城傍绕，\"城中有山，山上有城，山下有水，山水辉映\"构成独特的自然和人文景观。"}}, {"title": "古灵山", "address": "鹤壁市淇县县城西北部", "image": "", "rank": 3, "time": 3.5, "location": {"lat": 35.62727702033594, "lng": 114.21548972449943}, "feature": {"sight_features": "特色1 “灵山抱妙寺，神泉涤心埃” 特色2 国家级AAAA级景区2、《封神榜》故事发生地3、女娲文化圣地 特色3 体闲度假、登山探险、祭祖朝拜的游览胜地", "sight_content": "古灵山景区位于淇县（朝歌，纣王皇都）城西15公里处，是国家aaaa级旅游景区、中国最佳文化旅游景区；是女娲修真处、纣王降香处、《封神榜》故事发生地。主题文化是女娲文化和殷商文化。\n\n\n主要由六大游览版块组成：纣王降香处——女娲宫主景区，纣王采暖行宫——朝阳寺，纣王避暑行宫——清凉庵，清代古民居石头城——凉水泉，天下第一铜顶，佛教圣地——灵光阁，现存有主要景点有：女娲宫、女娲峰、女娲池、太公湖、玉带河、醒目泉、古佛洞、补天阁、灵峰、财神沟、龙潭峡等2百余处，自古就有“灵山抱妙寺，神泉涤心埃”的美誉。\n\n明代嘉靖年间淇县县令于慧题写了灵山十景：“危岩少进，群峰耸翠，列柿流丹，一经蓬壶，半岩风雨，九天鸣佩，巨崖走蛟，双剑横秋，东海龙吟，西山虎啸”。明崇祯时监察御史孙徵兰摩崖题诗曰：“山卓碧云插汉，泉滃绿玉飞花，三仁六七贤圣，灵杰千古同嘉”。"}}, {"title": "五岩山景区", "address": "鹤壁市鹤山区姬家山乡", "image": "", "rank": 4, "time": 2.5, "location": {"lat": 35.95280069590086, "lng": 114.09424430873243}, "feature": {"sight_features": "特色1 “药王”孙思邈隐居地", "sight_content": "五岩山，又名苏门山，位于市中心西北10公里，为牟山一余脉。因山有五谷五 峰，故曰五岩。山势自东北向西南延伸，长约1．5公里，群峰环绕，岩石峥嵘，至高点 海拔574.9米。 五岩山古有两观一寺，南为五岩寺，北为栖霞观，下为葆光观，是佛教道教圣 地，均焚于战火。"}}, {"title": "摘星台景区", "address": "鹤壁市淇县城关镇", "image": "", "rank": 5, "time": 2, "location": {"lat": 35.62727702033594, "lng": 114.21548972449943}, "feature": {"sight_features": "", "sight_content": ""}}, {"title": "浮丘山风景区", "address": "鹤壁市浚县", "image": "", "rank": 6, "time": 2, "location": {"lat": 35.68191730591282, "lng": 114.55760785085516}, "feature": {"sight_features": "特色1 浮丘山与大伾山相望，绰约多姿，妙景无穷，因山傍卫水势如行舟，故有“浮丘”之美称。 特色2 “十里城池半入山”，至今保存完好的明清民居依然显示着古城的风貌。 特色3 浮丘山不仅文物古迹荟萃，而且地理形势优胜。它所焕发的魅力，吸引着远近游人，四时不绝于道。", "sight_content": "浮丘山与大伾山相望，绰约多姿，妙景无穷，因山傍卫水势如行舟，故有“浮丘”之美称。山上，目前有国保级文物唐代开凿的千佛洞，内有浮雕造像千尊，姿态各异，栩栩如生，为石雕艺术珍品，明代建起的碧霞宫，大气恢弘，为明代建筑艺术佳作。系省级文物重点保护单位，“山不在高，有仙则名”因宫中供奉泰山神碧霞元君而扬名四方。\n浮丘山不仅文物古迹荟萃，而且地理形势优胜。它所焕发的魅力，吸引着远近游人，四时不绝于道。1963年郭沫若同志对浮丘山文物古迹的价值作了肯定，并亲笔致函。提出保护意见。\n自明嘉靖年间以来，以朝拜碧霞元君而形成的每年的正月古庙会声势浩如汪洋，一日可达数十万人有余。位居我国华北四大古庙会之冠。小姑山与浚县古城偎依相连，山上有城，城中有山，“十里城池半入山”，至今保存完好的明清民居依然显示着古城的风貌。"}}, {"title": "必捷滑雪场", "address": "鹤壁市淇滨区必捷农业观光农业示范园区桑园小镇向西500米。", "image": "", "rank": 7, "time": 2, "location": {"lat": 35.835501078915286, "lng": 114.14366948033228}, "feature": {"sight_features": "", "sight_content": ""}}, {"title": "淇河谷景区", "address": "鹤壁市淇滨区上峪乡桑园村桑园小镇内", "image": "", "rank": 8, "time": 2, "location": {"lat": 35.835501078915286, "lng": 114.14366948033228}, "feature": {"sight_features": "特色1 在天然氧吧里漂流，穿高山丛林，惊艳刺激，无与伦比的快乐！", "sight_content": "淇河谷景区在鹤壁淇河乡村旅游度假区之内，是一个集特色桑园小镇、自然景观、艺术文化、特色小吃、民宿住宿、观光农业、休闲娱乐等项目为一休的综合旅游景区。景区内以商业街区和民宿酒店区为主，设有高山玻璃漂流、5D玻璃栈道等游乐项目。"}}, {"title": "凯迪沃快乐体验馆", "address": "鹤壁市淇滨区鹤煤大道银兴国际广场4层", "image": "", "rank": 9, "time": 2, "location": {"lat": 35.73892589630335, "lng": 114.30125390157232}, "feature": {"sight_features": "", "sight_content": ""}}, {"title": "樱花大道", "address": "鹤壁市淇滨区华夏南路", "image": "", "rank": 10, "time": 1.5, "location": {"lat": 35.726845466917716, "lng": 114.30377871047935}, "feature": {"sight_features": "", "sight_content": ""}}, {"title": "鹤壁市博物馆", "address": "湘江路", "image": "", "rank": 11, "time": 2.5, "location": {"lat": 48.373408508337796, "lng": 134.29756606557376}, "feature": {"sight_features": "", "sight_content": ""}}, {"title": "桑园小镇", "address": "鹤壁市淇滨区上峪乡西部", "image": "", "rank": 12, "time": 2, "location": {"lat": 35.84234821773619, "lng": 114.16514835763536}, "feature": {"sight_features": "", "sight_content": ""}}, {"title": "四季宏景水上乐园", "address": "鹤壁市鹤山区姬家山乡崔村沟村", "image": "", "rank": 13, "time": 2, "location": {"lat": 35.95026535987538, "lng": 114.14022517488829}, "feature": {"sight_features": "", "sight_content": ""}}, {"title": "鹤壁博物馆", "address": "河南省鹤壁市淇滨区华夏南路", "image": "", "rank": 14, "time": 2.5, "location": {"lat": 35.726845466917716, "lng": 114.30377871047935}, "feature": {"sight_features": "", "sight_content": ""}}, {"title": "淇水关", "address": "鹤壁新区南，高村镇高村村内", "image": "", "rank": 15, "time": 2, "location": {"lat": 35.701404667626385, "lng": 114.22849494701165}, "feature": {"sight_features": "", "sight_content": ""}}, {"title": "白龙庙度假村", "address": "222省道附近", "image": "", "rank": 16, "time": 2, "location": {"lat": 36.77202196628758, "lng": 114.17537319703483}, "feature": {"sight_features": "", "sight_content": ""}}, {"title": "锦尚温泉", "address": "鹤壁市淇县云梦大道与卫都路交叉口东南角", "image": "", "rank": 17, "time": 2, "location": {"lat": 35.61891805969721, "lng": 114.22172170999184}, "feature": {"sight_features": "", "sight_content": "鹤壁锦尚温泉占地2300平方米，提供住宿、温泉等多种项目。"}}, {"title": "千佛洞", "address": "河南省鹤壁市淇滨区", "image": "", "rank": 18, "time": 4.0, "location": {"lat": 35.74695254628867, "lng": 114.30559120443904}, "feature": {"sight_features": "", "sight_content": ""}}, {"title": "浚县图书馆", "address": "新华路2号", "image": "", "rank": 19, "time": 1.5, "location": {"lat": 39.81269920080972, "lng": 116.40099668666622}, "feature": {"sight_features": "", "sight_content": ""}}, {"title": "金星啤酒音乐美食广场", "address": "河南省鹤壁市浚县S219", "image": "", "rank": 20, "time": 1.0, "location": {"lat": 35.68191730591282, "lng": 114.55760785085516}, "feature": {"sight_features": "", "sight_content": ""}}, {"title": "蓝湾公园", "address": "工业路与浚州大道交叉口东150米", "image": "", "rank": 21, "time": 2.0, "location": {"lat": 35.696169980025886, "lng": 114.57935842784619}, "feature": {"sight_features": "", "sight_content": ""}}, {"title": "商纣王帝辛墓", "address": "淇县城东12公里处，淇河大桥处", "image": "", "rank": 22, "time": 2, "location": {"lat": 35.775772671070904, "lng": 114.2289932137221}, "feature": {"sight_features": "", "sight_content": ""}}, {"title": "新天地温泉洗浴", "address": "鹤煤大道与华山路交叉口向东80米路北", "image": "", "rank": 23, "time": 2, "location": {"lat": 35.73800185399603, "lng": 114.28861974930354}, "feature": {"sight_features": "", "sight_content": ""}}, {"title": "四季草莓采摘园", "address": "金山办事处辛村2区13-6号", "image": "", "rank": 24, "time": 2, "location": {"lat": 35.780868509197965, "lng": 114.25267155703244}, "feature": {"sight_features": "", "sight_content": ""}}, {"title": "鹤壁温泉", "address": "鹤煤大街", "image": "", "rank": 25, "time": 0.7, "location": {"lat": 35.73805533412038, "lng": 114.29495921974514}, "feature": {"sight_features": "", "sight_content": ""}}, {"title": "大堡礁儿童王国", "address": "朝霞街与长风路交叉口金博大二楼", "image": "", "rank": 26, "time": 7.5, "location": {"lat": 35.89990512144613, "lng": 114.19376315292655}, "feature": {"sight_features": "", "sight_content": ""}}, {"title": "禾一农业开发有限公司", "address": "大来店镇焦庄村", "image": "", "rank": 27, "time": 2, "location": {"lat": 39.96137277159182, "lng": 116.59508401011789}, "feature": {"sight_features": "", "sight_content": ""}}, {"title": "3d梦幻冰雪王国", "address": "会展中心广场", "image": "", "rank": 28, "time": 2, "location": {"lat": 25.107830455165967, "lng": 105.46259000648882}, "feature": {"sight_features": "", "sight_content": ""}}, {"title": "青岩绝石窟", "address": "河南淇县上峪乡 456750", "image": "", "rank": 29, "time": 2, "location": {"lat": 35.84234821773619, "lng": 114.16514835763536}, "feature": {"sight_features": "", "sight_content": ""}}, {"title": "淇滨乐园", "address": "河南省鹤壁市淇滨区107国道与302省道交汇处", "image": "", "rank": 30, "time": 2, "location": {"lat": 35.778751528565344, "lng": 114.29460618567973}, "feature": {"sight_features": "", "sight_content": ""}}, {"title": "悬空寺", "address": "河南省鹤壁市淇滨区", "image": "", "rank": 31, "time": 3.0, "location": {"lat": 35.74695254628867, "lng": 114.30559120443904}, "feature": {"sight_features": "", "sight_content": ""}}, {"title": "故县汉代冶铁遗址", "address": "河南省鹤壁市山城区东大线隋代涝源县城遗址东北200米", "image": "", "rank": 32, "time": 2, "location": {"lat": 35.90310291673139, "lng": 114.21754901622}, "feature": {"sight_features": "", "sight_content": ""}}, {"title": "古典艺术博物馆", "address": "河南省鹤壁市淇滨区淇滨大道213号", "image": "", "rank": 33, "time": 2, "location": {"lat": 35.75603576105306, "lng": 114.30472752411494}, "feature": {"sight_features": "", "sight_content": ""}}, {"title": "黄庙沟森林公园", "address": "鹤壁市鹤山区", "image": "", "rank": 34, "time": 2, "location": {"lat": 35.960280248227214, "lng": 114.16955478241616}, "feature": {"sight_features": "", "sight_content": ""}}, {"title": "鹤壁市山城区烈士陵园", "address": "河南省鹤壁市山城区302省道", "image": "", "rank": 35, "time": 4.5, "location": {"lat": 35.93257021388065, "lng": 114.25969893186749}, "feature": {"sight_features": "", "sight_content": ""}}, {"title": "迪乐尼儿童游乐场", "address": "上峪乡桑园小镇西北角", "image": "", "rank": 36, "time": 2, "location": {"lat": 35.835501078915286, "lng": 114.14366948033228}, "feature": {"sight_features": "", "sight_content": ""}}, {"title": "灵山跑马场", "address": "001乡道附近", "image": "", "rank": 37, "time": 1.0, "location": {"lat": 42.370177806786245, "lng": 117.99555275285643}, "feature": {"sight_features": "", "sight_content": ""}}, {"title": "浚县农业高效示范园", "address": "城关汽车站附近", "image": "", "rank": 38, "time": 4.0, "location": {"lat": 29.65833125291544, "lng": 91.14510035237143}, "feature": {"sight_features": "", "sight_content": ""}}, {"title": "小马庄农民专业合作社安顺种植", "address": "同济大道附近", "image": "", "rank": 39, "time": 2, "location": {"lat": 35.607552498876274, "lng": 114.2065361706509}, "feature": {"sight_features": "", "sight_content": ""}}, {"title": "浚县卫华红薯种植专业合作社", "address": "219省道附近", "image": "", "rank": 40, "time": 4.0, "location": {"lat": 40.151047949015684, "lng": 115.89871895858025}, "feature": {"sight_features": "", "sight_content": ""}}, {"title": "艺兴画廊", "address": "大伾山底伾山街路东", "image": "", "rank": 41, "time": 2, "location": {"lat": 35.668436906455334, "lng": 114.56614325067524}, "feature": {"sight_features": "", "sight_content": ""}}, {"title": "益农家庭农场", "address": "朝歌镇中山路与西后路交叉口向西100米南门里荆轲塚正南", "image": "", "rank": 42, "time": 2, "location": {"lat": 35.611012861167865, "lng": 114.20904239182033}, "feature": {"sight_features": "", "sight_content": ""}}, {"title": "卫国故城", "address": "河南淇县城关镇 456750", "image": "", "rank": 43, "time": 2, "location": {"lat": 35.62727702033594, "lng": 114.21548972449943}, "feature": {"sight_features": "", "sight_content": ""}}, {"title": "五里鬼谷", "address": "河南淇县云梦山 458030", "image": "", "rank": 44, "time": null, "location": {"lat": 35.60061806070301, "lng": 114.08265764267136}, "feature": {"sight_features": "", "sight_content": ""}}, {"title": "朝阳悬空寺", "address": "222省道附近", "image": "", "rank": 45, "time": 3.0, "location": {"lat": 36.77202196628758, "lng": 114.17537319703483}, "feature": {"sight_features": "", "sight_content": ""}}, {"title": "佛祖殿(伾浮路)", "address": "伾浮路附近", "image": "", "rank": 46, "time": 2, "location": {"lat": 35.667300024176164, "lng": 114.55886295433065}, "feature": {"sight_features": "", "sight_content": ""}}, {"title": "可以观", "address": "006乡道附近", "image": "", "rank": 47, "time": 2, "location": {"lat": 42.011747549379294, "lng": 118.25427947194045}, "feature": {"sight_features": "", "sight_content": ""}}, {"title": "圆梦苑山庄", "address": "026乡道附近", "image": "", "rank": 48, "time": 2, "location": {"lat": 45.75376621177619, "lng": 120.29702071223088}, "feature": {"sight_features": "", "sight_content": ""}}, {"title": "玉皇顶庙", "address": "010乡道附近", "image": "", "rank": 49, "time": null, "location": {"lat": 37.55366481954672, "lng": 112.36885737069535}, "feature": {"sight_features": "", "sight_content": ""}}, {"title": "淇滨区图书馆", "address": "嵩山路东100米", "image": "", "rank": 50, "time": 2, "location": {"lat": 38.84214735857102, "lng": 117.07285572853561}, "feature": {"sight_features": "", "sight_content": ""}}, {"title": "和盛·中央公园", "address": "和谐大道与淇河路交叉口东南角", "image": "", "rank": 51, "time": 2, "location": {"lat": 35.63116687729232, "lng": 114.21766000635729}, "feature": {"sight_features": "", "sight_content": ""}}, {"title": "五环啤酒广场", "address": "九江路未来凤凰城北门对面", "image": "", "rank": 52, "time": 2, "location": {"lat": 35.73370644323806, "lng": 114.28779559262527}, "feature": {"sight_features": "", "sight_content": ""}}, {"title": "妙妙屋儿童主题乐园", "address": "兴坛街与小西街交叉口北50米", "image": "", "rank": 53, "time": 2, "location": {"lat": 35.61380021915316, "lng": 114.20783800397902}, "feature": {"sight_features": "", "sight_content": ""}}, {"title": "开心玩国儿童乐园", "address": "中山路233", "image": "", "rank": 54, "time": 2, "location": {"lat": 31.390880790732357, "lng": 120.95727184566329}, "feature": {"sight_features": "", "sight_content": ""}}, {"title": "9D虚拟现实体验馆", "address": "兴鹤大街与鹤煤大道交叉口裕隆爱之城6楼", "image": "", "rank": 55, "time": 2.0, "location": {"lat": 35.738087958722346, "lng": 114.2989698618979}, "feature": {"sight_features": "", "sight_content": ""}}, {"title": "街心花园", "address": "淇滨大道与华山路交叉口", "image": "", "rank": 56, "time": 1.0, "location": {"lat": 35.755954655636785, "lng": 114.29155642769368}, "feature": {"sight_features": "", "sight_content": ""}}, {"title": "烈士陵园(淇县)", "address": "烈士陵园(淇县)附近", "image": "", "rank": 57, "time": 2, "location": {"lat": 35.63291324677652, "lng": 114.18288662432029}, "feature": {"sight_features": "", "sight_content": ""}}, {"title": "中央公园", "address": "鹤壁市淇滨区湘江路7号", "image": "", "rank": 58, "time": 2.5, "location": {"lat": 35.73077131514422, "lng": 114.30614867666903}, "feature": {"sight_features": "", "sight_content": ""}}, {"title": "寺庙", "address": "衡山路402号附近", "image": "", "rank": 59, "time": null, "location": {"lat": 27.241200765976313, "lng": 112.73859616133333}, "feature": {"sight_features": "", "sight_content": ""}}, {"title": "古城遗址", "address": "鹤壁市淇县", "image": "", "rank": 60, "time": 1.5, "location": {"lat": 35.62727702033594, "lng": 114.21548972449943}, "feature": {"sight_features": "", "sight_content": ""}}]}