{"cityName": "鹤峰", "days": 2, "cityImage": "", "spots": [{"title": "屏山峡谷", "address": "恩施土家族苗族自治州鹤峰县容美镇屏山村", "image": "", "rank": 1, "time": 7.5, "location": {"lat": 29.97727657428397, "lng": 110.10919868249195}, "feature": {"sight_features": "特色1 东方诺亚方舟，中国仙本那！", "sight_content": "屏山风景区，距离鹤峰县城约11公里。湖北屏山，距鹤峰县城东去约10公里，又名平山，因山顶平旷、山侧屏立而得名。历代土司王把爵府均建于屏山。今尚存许多土司爵府遗址。 屏山之腹土地平旷，屋舍俨然，有良田美池桑竹环绕，有阡陌古道曲径通幽；屏山四周峭壁悬空，犹如航行于武陵群山之波的孤岛，有“东方诺亚方舟”之美称。\n屏山地形独特，北高南低，南北长近20公里，中部东西宽不到３公里，犹如一艘巨轮行驶在万山丛中。屏山分布着99座山峰，而它的四周则是多座悬崖峭壁连辍而成的天然屏障，四面环水。屏山峰顶海拔多在1800米以上，四周峰恋与河谷底部的高差均在1000米以上。屏山与外界的通道只有四条，东为躲避峡，西为挂巴岩，南为铁锁桥，北为“七丈五”，四处都是险峻异常的峡谷，路皆修在悬崖绝壁之上。"}}, {"title": "芭蕉河", "address": "恩施土家族苗族自治州鹤峰县境内", "image": "", "rank": 2, "time": 1.5, "location": {"lat": 29.89611648340303, "lng": 110.04042423300965}, "feature": {"sight_features": "", "sight_content": ""}}, {"title": "山水人家农家乐", "address": "湖北省恩施土家族苗族自治州鹤峰县S245", "image": "", "rank": 3, "time": 2, "location": {"lat": 29.89611648340303, "lng": 110.04042423300965}, "feature": {"sight_features": "", "sight_content": ""}}, {"title": "大河口农家乐", "address": "大溪村大河口", "image": "", "rank": 4, "time": 2, "location": {"lat": 32.40628049574022, "lng": 109.8323694544859}, "feature": {"sight_features": "", "sight_content": ""}}, {"title": "吉乐园", "address": "桑鹤路", "image": "", "rank": 5, "time": 2, "location": {"lat": 29.826404820489532, "lng": 110.4344602352015}, "feature": {"sight_features": "", "sight_content": ""}}, {"title": "华发农家乐", "address": "容美镇后坝路20号", "image": "", "rank": 6, "time": 2, "location": {"lat": 29.886998268020722, "lng": 110.03943542531592}, "feature": {"sight_features": "", "sight_content": ""}}, {"title": "土王城遗址", "address": "湖北省鹤峰县东北搂水北岸平山悬崖间 445800", "image": "", "rank": 7, "time": 2, "location": {"lat": 29.89611648340303, "lng": 110.04042423300965}, "feature": {"sight_features": "", "sight_content": ""}}, {"title": "裕和山庄", "address": "325省道附近", "image": "", "rank": 8, "time": 2, "location": {"lat": 40.38011571404755, "lng": 115.90477371737859}, "feature": {"sight_features": "", "sight_content": ""}}, {"title": "云鹤山庄", "address": "满山红大道附近", "image": "", "rank": 9, "time": 2, "location": {"lat": 29.889270307395634, "lng": 110.04528306690129}, "feature": {"sight_features": "", "sight_content": ""}}, {"title": "隔子河", "address": "鹤峰县五龙山", "image": "", "rank": 10, "time": 2, "location": {"lat": 29.89611648340303, "lng": 110.04042423300965}, "feature": {"sight_features": "", "sight_content": ""}}, {"title": "鹤峰县教材教法研究室", "address": "溇水大道967-2号附近", "image": "", "rank": 11, "time": 2, "location": {"lat": 29.893440144242795, "lng": 110.03455420894474}, "feature": {"sight_features": "", "sight_content": ""}}, {"title": "福苹果乡村乐", "address": "湖北省恩施土家族苗族自治州鹤峰县", "image": "", "rank": 12, "time": 2, "location": {"lat": 29.89611648340303, "lng": 110.04042423300965}, "feature": {"sight_features": "", "sight_content": ""}}, {"title": "鹤峰县中营乡经纬交叉点旅游度假...", "address": "鹤峰县中营镇北佳坪大路坪一组", "image": "", "rank": 13, "time": 2, "location": {"lat": 29.999850905991316, "lng": 110.02435760149422}, "feature": {"sight_features": "", "sight_content": ""}}, {"title": "玫瑰园", "address": "清江东路1号", "image": "", "rank": 14, "time": 1.0, "location": {"lat": 30.672269280308907, "lng": 104.0462491479593}, "feature": {"sight_features": "", "sight_content": ""}}, {"title": "木耳山", "address": "恩施土家族苗族自治州鹤峰县", "image": "", "rank": 15, "time": 3.0, "location": {"lat": 29.89611648340303, "lng": 110.04042423300965}, "feature": {"sight_features": "", "sight_content": ""}}, {"title": "和丰果园", "address": "双十街与341省道交叉口东50米", "image": "", "rank": 16, "time": 2, "location": {"lat": 41.147121937813175, "lng": 114.58069798551419}, "feature": {"sight_features": "", "sight_content": ""}}, {"title": "车家湾农家乐", "address": "燕子乡白鹤井", "image": "", "rank": 17, "time": 2, "location": {"lat": 29.970199168699555, "lng": 110.22987004147276}, "feature": {"sight_features": "", "sight_content": ""}}, {"title": "集优农业", "address": "容美镇华龙半岛2楼", "image": "", "rank": 18, "time": 2, "location": {"lat": 35.78363288453635, "lng": 115.08041294409888}, "feature": {"sight_features": "", "sight_content": ""}}, {"title": "鹤峰一中图书馆", "address": "一中路76号", "image": "", "rank": 19, "time": 7.5, "location": {"lat": 29.886173591714982, "lng": 110.03409830991552}, "feature": {"sight_features": "", "sight_content": ""}}, {"title": "屏山躲避峡梓童山庄", "address": "恩施土家族苗族自治州-鹤峰县", "image": "", "rank": 20, "time": 2, "location": {"lat": 29.89611648340303, "lng": 110.04042423300965}, "feature": {"sight_features": "", "sight_content": ""}}, {"title": "芭蕉河水上渔家农家乐", "address": "恩施土家族苗族自治州-鹤峰县-024乡道东150米", "image": "", "rank": 21, "time": 2, "location": {"lat": 29.89611648340303, "lng": 110.04042423300965}, "feature": {"sight_features": "", "sight_content": ""}}, {"title": "回龙阁中蜂养殖合作社", "address": "恩施土家族苗族自治州-鹤峰县-古城大道29附近", "image": "", "rank": 22, "time": 2, "location": {"lat": 29.824944163064956, "lng": 110.43158885194491}, "feature": {"sight_features": "", "sight_content": ""}}, {"title": "躲避峡景区", "address": "恩施土家族苗族自治州鹤峰县", "image": "", "rank": 23, "time": 2, "location": {"lat": 29.89611648340303, "lng": 110.04042423300965}, "feature": {"sight_features": "", "sight_content": ""}}, {"title": "倒转湾", "address": "恩施土家族苗族自治州-鹤峰县-二四五省道", "image": "", "rank": 24, "time": 2, "location": {"lat": 30.116542728789394, "lng": 110.15844497180684}, "feature": {"sight_features": "", "sight_content": ""}}, {"title": "龙谭沟", "address": "恩施土家族苗族自治州-鹤峰县", "image": "", "rank": 25, "time": 2, "location": {"lat": 29.89611648340303, "lng": 110.04042423300965}, "feature": {"sight_features": "", "sight_content": ""}}, {"title": "木林子自然保护区", "address": "湖北省恩施土家族苗族自治州鹤峰县", "image": "", "rank": 26, "time": 2, "location": {"lat": 29.89611648340303, "lng": 110.04042423300965}, "feature": {"sight_features": "", "sight_content": ""}}, {"title": "大面山", "address": "湖北省恩施", "image": "", "rank": 27, "time": 3.0, "location": {"lat": 30.30103714374126, "lng": 109.4865502690053}, "feature": {"sight_features": "", "sight_content": ""}}]}