{"cityName": "合肥", "days": 2, "cityImage": "", "spots": [{"title": "李鸿章故居", "address": "合肥市庐阳区淮河路步行街中段208号", "image": "", "rank": 1, "time": 1.5, "location": {"lat": 31.869972763799332, "lng": 117.2992939025894}, "feature": {"sight_features": "特色1 合肥现存规模大又保存完整的名人故居 特色2 欣赏走马楼的木头雕花，参观关于李鸿章的展览，了解他毁誉参半的一生。 特色3 参观关于李鸿章的展览，了解他一生", "sight_content": "‍‍晚清军政大臣李鸿章的家宅，位于合肥市繁华的步行街中段，是典型的晚清江淮地区民居建筑。布局整齐，结构严谨，雕梁画栋，占地面积2000平方米，由南向北依次分为大门、前厅、中厅、走马楼(小姐楼)。\n1902年李鸿章的灵柩从北京辗转运回合肥，李鸿章享堂占地14000平方米，建筑面积近3000平方米，是目前国内保存较为完好的名人墓园，分为享堂区、合葬区和仓房区。\n故居文化内涵深厚，汇集了历史人物、传统文化和建筑艺术，是全国重点文物保护单位和国家AAAA级旅游景区。"}}, {"title": "合肥融创水世界", "address": "合肥市包河区滨湖新区庐州大道788号", "image": "", "rank": 2, "time": 2.5, "location": {"lat": 31.70492272412029, "lng": 117.30958025525527}, "feature": {"sight_features": "特色1 大型室内水上乐园 特色2 让你一年四季水上嗨翻天，浪到底 特色3 四季恒温亲水主题乐园", "sight_content": "合肥融创水世界：四季恒温无时限亲水体验\nI. 简介\n合肥融创水世界位于合肥融创国际度假区融创茂内，建筑面积3.2万平米。园区以夏威夷风情为主题设计，分为火山区、天堂岛区、冲浪区三大主题区域，包含13个大型水上游乐设备，是华东大型的、设备先进的第四代室内恒温主题水乐园。\n水乐园拥有室内超高、长度罕见的水磁过山车、世界首创悬空双层漂流河、中国第一个室内大喇叭滑道、最有看点的异域风情舞台秀等，让人置身其中，既有高速滑梯的刺激惊险、又有随波漂流的惬意悠然，还有亲水广场为您和孩子提供亲子戏水的享乐空间。在融创水世，即使不会游泳，也能享受到四季皆宜、无比欢乐的嬉水体验。\nII. 明星设备\n海舞飞龙（水磁过山车）\n全国首个也是唯一一个大型室内水磁火箭过山车。335.4米超长水道，采用新一代LIM水磁科技，完美结合过山车的惊险刺激和水上游乐设备的溅水乐趣，为游客带来耳目一新的尖叫游乐体验。\n逍遥天河（双层漂流河）\n如果到现在你还认为漂流河就是躺在浮圈上随波逐流，那你真是OUT啦！快来体验华东首条双层漂流河带给你的惊喜体验。河道上层190米，犹如空中飞龙，畅游在云端；下层370米，蜿蜒辗转，碧波粼粼。既惊险刺激又闲逸舒适的畅游体验，让你直呼过瘾！\n龙卷风暴（大喇叭组合）\n4名游客面对面坐在特别设计的浮圈中，沿全封闭滑道从18米高台快速下滑，出奇不意急转弯后，立刻被魔力大喇叭吸入囊中，惊魂未定间，几经冲高摇摆，如龙卷风般的新奇快感让人欲罢不能，只能说句不可不玩！\n阳光水寨\n阳光水寨聚集了所有让人兴奋的水上玩具！喷水管、水炮、绳网不在话下，水桶、滑梯、嬉水池等应有尽有！在这里，您和孩子可以来场激烈的水战，也可以无忧无虑的戏水狂欢！又或者啥都不干，迎着阳光，让如瀑布般的洪水来得更猛烈些吧！\n蓝鲸海湾\n小喇叭、直线滑梯、曲线滑梯、竞技滑梯等5种最好玩的儿童滑道组合，带给你的小宝贝不一样的新奇体验。快看，爱水的小勇士已经跃跃欲试，准备踏上探险之旅啦！"}}, {"title": "包公园", "address": "合肥市包河区芜湖路72号", "image": "", "rank": 3, "time": 2.5, "location": {"lat": 31.861319022214115, "lng": 117.2974591495175}, "feature": {"sight_features": "特色1 护城河穿过公园，环境优美。看家喻户晓的三把铡刀，缅怀这位铁面无私的清官。 特色2 为纪念北宋著名清官包拯而建", "sight_content": "包公园是为纪念北宋著名清官包拯而建，属国家4A级旅游景区。整个包公园占地34.5公顷，水域面积15公顷，总体布局为开放式，由包公祠、包公墓、清风阁、浮庄等景点组成。包公园是全国廉政教育基地和安徽省爱国主义教育基地，园区内以“历史包公－文化包公－文物包公”为主线从不同的角度，用不同的形式，展示了包公 “忠、孝、清、廉”的一生。包拯字希仁，人尊称为“包公”，于公元999年出生于安徽合肥，1062年去世于河南开封，死后谥号为“孝肃”。\n包河原是合肥的一段护城河，河对岸高出水面六七米的环城路，是合肥古城墙的城墙根基，这段古城墙最初建于唐朝贞观年间，可惜的是，这座古城墙在1951年，因合肥城建被全部拆毁，所幸的是及时植树形成绿化林带。那么原来的这一段护城河为什么会被称为“包河“呢？因为宋仁宗皇帝把这条河赐给了包公，从此，这条河称为包河。传说包河里的藕是无私藕，鱼是黑背鱼，象征包公的铁面无私。包公祠：包公出生于合肥肥东县解集乡小包村(现包公镇)，明朝弘治年间（ 1488年），庐州太守宋克明在包河的香花墩上兴建了一座“包公书院”，明嘉靖年间（1539年），朝廷御史杨瞻重修“包公书院”，并定名为“包公祠”。明清两代的官吏，贤人圣士都对包公祠进行过修缮、增制。太平天国时期，包公祠曾一度毁于战火。清光绪八年（1882年），合肥籍晚清大臣李鸿章捐资2800两白银重修了包公祠，因此合肥有“包家祠堂，李家修”之说。祠内的殿堂正中端坐一座包公塑像，高约八尺,着金色，高大威严，正气凛然，使人油然而生敬意，王朝、马汉、张龙、赵虎侍立两旁，并置有龙头、虎头、狗头三铡；两边厢房陈列着包公墓出土文物以及其它与包公有关的展品。祠的东面六角亭里有一口井，传说贪官污吏喝了井水会头痛难忍，故名\"廉泉\"。祠的西面是历史文化长廊，长廊里瓯塑、碑刻、书画、刺绣、彩绘木雕等多种工艺集为一体，再现了包公真实的一生。\n‍\n包公墓是包拯及其夫人、子孙遗骨所葬之地，占地三公顷，目前是国内一座比较完整的古代名臣墓园。1062年包公去世于河南开封，次年，其女婿文效将其灵柩运回合肥，归葬故里。他一生为官多年，最高官职是枢密副使，为北宋二品官，因此，墓园大小结构皆按宋代二品官葬制而建。整个墓园庄严肃穆、环境幽静，由主墓区、碑画廊、附墓区、地下墓室和管理区组成，主墓为“覆斗型”方墓，墓后面是碑画廊，为纪念包拯诞辰一千周年而建，廊中不仅有200多块当今名书法家的作品，还有徽派建筑中的三雕艺术，即木雕、砖雕、石雕，展示了包公光彩的一生。北侧是附墓区，有包拯夫人董氏及其子、媳、孙等墓5座。墓室内安放有包拯墓志铭和金丝楠木棺，棺木内敛包拯遗骨。2004年，包公墓又新建了一展览馆，馆内以20多块展牌展示了包公故事的源流。清风阁是为纪念包拯诞辰1000周年而建的大型仿宋建筑群，占地2.2公顷主体建筑清风阁高42米，明五暗四，共九层，登顶可俯瞰城市风光及整个包公园的秀丽景色。阁内采用雕塑、绘画、多媒体等艺术形式，展现了包拯“孝勤清正”的精神品质和官德修养。浮庄坐落在包河东大岛上。因其远观如一片柳叶浮于水面之上，又因岛上建筑类似古代村庄，故名浮庄。浮庄正门门楼粉墙青瓦，中间镶一匾额，上有原国务委员兼国防部长张爱萍将军手书“浮庄”二字。迎门是一座铜像，系北宋著名清官包拯第28代嫡孙、世界船王包玉刚的父亲包兆龙先生立像。这是省、市人民政府为纪念包兆龙先生，满足其“叶落归根”的遗愿而在这里建造的。岛内建筑博采苏、扬、徽派园林艺术的精华，依水就势而成，体现了江南园林与徽派建筑的艺术特色。"}}, {"title": "三河古镇", "address": "合肥市肥西县南端肥西、舒城、庐江三县交界处", "image": "", "rank": 4, "time": 0.75, "location": {"lat": 31.712962132716886, "lng": 117.16455781372443}, "feature": {"sight_features": "", "sight_content": ""}}, {"title": "安徽省博物馆老馆", "address": "合肥市庐阳区安庆路268号", "image": "", "rank": 5, "time": 7.5, "location": {"lat": 31.86885403310133, "lng": 117.28175288133683}, "feature": {"sight_features": "", "sight_content": ""}}, {"title": "合肥融创乐园", "address": "合肥市滨湖新区庐州大道778号（万年埠路合肥万达诺富特酒店对面路口入内）", "image": "", "rank": 6, "time": 2.5, "location": {"lat": 31.7379653190464, "lng": 117.29491074841285}, "feature": {"sight_features": "特色1 精彩的演出剧场，超棒的玩乐设施。 特色2 有各类美食任你挑选。 特色3 徽派文化精髓与现代尖端科技完美结合", "sight_content": "体验徽文化主题乐园辐射全球的欢乐能量\n作为全球首家也是唯一一家大型徽文化主题乐园，融创主题乐园规划有徽州古韵、梨园春秋、欢乐水乡、巢州古城、梦蝶仙境、淝水之战六大主题区域，园区内白龙飞天、龙虎争霸、茶山飞渠、鼓乐飞车、秘境漂流等33个世界级游玩项目，让你一次High个够！\n六大特色主题区域\nA.徽州古韵主题游乐区\n痴绝处，梦回徽州\n这里是乐园的主入口也是欢乐徽文化的展示厅。徽州古韵区包含入口广场和服务建筑两大版块。\nB.梨园春秋主题游乐区\n探梨园，乱舞春秋\n梨园春秋是一个以中国传统戏曲文化为背景打造的主题区域。这里有象征群英荟萃的双层旋木、有大气张扬的弹跳机鼓乐飞车、有模拟贵妃醉酒之态而设的转转杯、还有哪吒的宝物“风火飞轮”和大圣的绝活“筋斗云霄”。\nC.欢乐水乡主题游乐区\n乐无限，梦幻水乡\n听水流觞、浅吟低唱、繁花印染了梦幻水乡。在这里，一起探究古老器械的使用方法、乘坐“茶山飞渠”从26米高空倾泄而下、乘坐滨湖摩天轮将800里巢湖美景尽收眼底、还有浪花飞溅、七彩染坊、翻滚磨盘等精彩项目带你尽情领略江南水乡“小桥、流水、人家”的迤逦风光。\nD.巢州古城主题游乐区\n陷巢州，白龙重生\n相传很久之前，巢州大旱，庄稼枯黄，当地民不聊生。东海龙王之子小白龙将东海之水吐向天空，以慰民生。巢州百姓欢呼雀跃，可玉皇大帝却以违反天条为名，将小白龙打入凡间。下凡后的小白龙为报当地焦姥救命之恩，以巢州将陷之闻告之，再次将当地百姓救于危难之间。\nE.梦蝶仙境主题游乐区\n蝶飞舞，梦中仙境\n以庄周梦蝶为创作蓝本。这里有栩栩如生的彩蝶缆车、造型逼真的桑巴塔、色彩绚丽的甲虫滑车、童趣盎然的跳跳车等7个玩乐设备和1个唯美精致的梦蝶剧场，让你仿佛一不留神就步入了庄子的多彩梦境，置身于一个充满活力及无限想象的童话世界。\nF.淝水之战主题游乐区\n品历史，煮酒论英雄\n公元383年，前秦出兵伐晋，于淝水交战，最终东晋仅以八万军力大胜八十余万前秦军。以这段以少胜多的著名战役为文化原型，淝水之战区域特色性设有中国首台断裂式双轨过山车：“龙虎争霸”；惊心动魄、震撼人心的流星摆锤、让您体会高空旋转快感的“空中骑兵”、丰富多彩的水上项目“淮南水战”等经典娱乐项目，让你玩得尽兴、笑得开心。\nI.世界级表演剧场\n淝水之战（情景特技剧）\n情景特技剧《淝水之战》即以这段真实历史为蓝本，配以现代化的洪水、烟光爆破等高科技表现手法，给观众带来一场荡气回肠、规模宏大的视听盛宴。\n梦蝶剧场（黑光剧）\n采用捷克戏剧活动中知名的黑光剧作为呈现形式，通过与现代多媒体技术结合的全新演绎，打造一台梦幻奇特、超越想象空间的创新互动剧目。\nII.国际级彩车巡游\n由世界著名设计师亲自操刀设计，将时尚现代的国际元素与徽派地方文化特色完美结合。18台大型主景花车，多个独具特色的动感彩车方阵，带您领略国际大师级的艺术呈现和安徽人文风情的魅力惊艳。\nIII.十大明星设备：\n²  白龙飞天\n惊险刺激的立环过山车，凌驾于碧波湖水之上。呼哮而过间如一条白龙跃水而出，气宇轩昂。125公里超高时速，56米尖叫高度，或缓慢爬高、或快速俯冲、或快速穿行,风驰电掣间带给你1278米的呼啸体验！\n²  龙虎争霸\n中国首台相向对发式双轨过山车，享有过山车之王的美誉。两套列车同时提升至轨道顶点，通过独特的断轨翻转技术同时翻转，以大于70公里的时速一起俯冲。\n²  茶山飞渠\n既有原始小村落的悠然氛围，又有激流勇进的刺激惊险。经典水上游乐项目，没有之一！26米超高水道，70公里时速快速俯冲，巨浪依势而起，欢笑间，享受畅快淋漓的勇者之旅。\n²  筋斗云霄\n拥有创新弹射式运转系统的太空梭，以72.4公里时速如导弹般弹射而出，如齐天大圣的筋斗云，瞬间将你送至高空云顶。于极速升降间,为你带来前所未有的重力失控体验。\n²  磨坊天轮\n拉上心爱的他，坐上满载着幸福的摩天轮，将800里巢湖美景尽收眼底，将我们的美好写进永恒。\n²  贵妃醉酒\n想要体验酩酊大醉的目酣神醉？想要一观贵妃水袖轻舞的婀娜身姿？坐上升级版旋转杯，跟随音乐一起快乐摇摆。小万友情提示：一定要记得抓紧扶手噢！\n²  群英荟萃\n合肥也有双层旋转木马啦？快来挑选一匹你梦中的白马，在缤纷彩灯的映照下，让他载你进入浪漫而神奇的童话世界，圆你深埋在心底的那个美丽而浪漫的童年梦想！\n²  彩蝶缆车\n美丽的蝴蝶仙子带你在梦幻花园上下翻飞，还有，勤劳的小蜜蜂、贪吃的毛毛虫、捣蛋的小仓鼠给孩子们带去难以言喻的快乐惊喜！\n²  深山挖掘\n全新开放无落脚座舱设计，360度疯狂任意翻转，配合一触即发的全仿真水火特效，带给你如翻江倒海般刺激而不失愉悦的天旋地转。\n²  秘境漂流\n想要一场既轻松又惊喜的探险之旅，坐上漂流筏，放空思绪，将沿途绿野仙踪般的秘境美景尽收美底。"}}, {"title": "徽园", "address": "合肥市蜀山区繁华大道276号", "image": "", "rank": 7, "time": 2.5, "location": {"lat": 31.788508844637, "lng": 117.22504310242424}, "feature": {"sight_features": "特色1 汇聚安徽17个城市的微缩景观。 特色2 创徽派建筑之新秀 特色3 展现出古老徽州的砖雕彩绘的风貌", "sight_content": "徽园位于安徽省合肥市蜀山区繁华大道276号，始建于1999年，占地面积20公顷，徽园东部皖北园区采用皇家园林建筑风格，西部皖南园区以徽派建筑皖南水口园林为主要思路，中部有极具现代建筑风格的世纪桥和世纪广场，全省17个城市在徽园均建有代表各自地方文化特色的标志性建筑物，既相对独立成园，又与相邻各园及整个园区相得益彰。\n徽园，是安徽省文学艺术集中展览区，安徽省具有代表性的主题公园类风景旅游区，中国电视剧制作中心拍摄基地，是一座融展示安徽、观光娱乐为一体的大型综合性纪念观光园。"}}, {"title": "逍遥津公园", "address": "合肥市庐阳区寿春路16号", "image": "", "rank": 8, "time": 2.5, "location": {"lat": 31.871568350985847, "lng": 117.30161650112953}, "feature": {"sight_features": "", "sight_content": ""}}, {"title": "合肥海洋世界", "address": "合肥市蜀山区经济技术开发区繁华大道321号", "image": "", "rank": 9, "time": 4.5, "location": {"lat": 31.787641185480428, "lng": 117.22168945487061}, "feature": {"sight_features": "特色1 以水为主线，向展示不同水域不同物种之间的奇妙联系。 特色2 合肥海洋世界有水族馆、海狮剧场、热带雨林生态展示区、企鹅馆等场馆。", "sight_content": "合肥汉海极地海洋世界是由新加坡尧泰集团和合肥市海恒投资控股集团公司合作投资建设的大型海洋生物展示项目，占地总面积32亩，建筑面积约13000平方米，总投资15000万元，总共三期。现在已建成对外开放的有水母宫、人鱼表演(美人鱼)、人鲨表演、海洋剧场、淡水隧道、海水隧道及丰富多彩的水族展示区域。\n2011年，公司投入1200万新建了亚洲一流的水母宫，在这里，让你体会梦境般的海底世界，十几种深海奇特的水母让您犹如梦幻。2012年，公司又投入近千万，将整个馆升级改造一新，这里充满了神秘和穿越的气氛，你可以穿越做海盗，做客美丽的潘多拉星球，领略美国西部海滨小镇的风光，甚至还能一览阿拉伯文化的神奇瑰丽。合肥海洋世界以水为主线，向您展示不同水域的不同物种之间的奇妙联系，展示生命的奇妙和谐的生存方式。您的旅程会经过溪流、湖泊、雨林、 江河直到广阔的海洋，近距离观赏到各种有代表性 的动物以及它们的栖息环境，从而体会到大自然生命的和谐。合肥海洋世界的建设填补了安徽省境内相关领域和现代旅游服务业的空白，集海洋科普教育、海洋生物研究、驯养和展示、休闲娱乐为一体 。同时为了提高游客的环境保护意识，采取了 贴近自然的多物种和多栖息地的展示方式，为国内海洋馆首创。\n‍‍合肥海洋世界拥有国内领先的大型海豚展示区，在这里您直接透过玻璃观赏到海豚在水中的优雅泳姿。我们的工作人员会每天定期进入水中与海豚进行交流和嬉戏，并借此对它们进行更好的研究和观察。如果幸运，您将会被邀请参与我们的活动，和这些令人惊叹的海洋动物近距离接触！"}}, {"title": "合肥植物园", "address": "合肥市蜀山区环湖东路123号", "image": "", "rank": 10, "time": 3.0, "location": {"lat": 31.881108855527565, "lng": 117.20826624900798}, "feature": {"sight_features": "特色1 月月有花看，四季有花展。", "sight_content": "合肥植物园地处安徽省合肥市蜀山湖畔，占地70.5公顷，是一个三面环水的半岛园区。\n合肥植物园以其生态园林风貌与植物文化相融合而著称，是集植物种质资源保育、科研科普、旅游休憩于一体的综合性植物园，为国家4A级旅游景区和全国科普教育基地，是安徽省旅游局推荐的安徽十处最美的地方之一。\n合肥植物园目前共收集植物2000余种，其中国家一、二级和其它珍稀保护树种53种，拥有梅园、桂花园、竹园、木兰园、花博园、石榴园、水景园、秋景园等9个植物专类园和叠泉涌翠、天下第一磬、艺梅馆、湖滨绿色长廊“看雪听松”、“芦荻藏舟”、“在水一方”、“落霞飞凫”等景区。\n合肥植物园每年都举办梅花节、郁金香展、桂花展、荷花展、菊花展等，每年一度的中国合肥桂花展已成为国内花事节庆的著名品牌。近年举办过中国首届桂花展、第十一届中国梅花蜡梅展览会、第八届中国赏石展、第二十四届全国荷花展等全国性展览。"}}, {"title": "合肥野生动物园", "address": "合肥市蜀山区望江西路600号", "image": "", "rank": 11, "time": 1.0, "location": {"lat": 31.83816692771515, "lng": 117.20236386168853}, "feature": {"sight_features": "", "sight_content": ""}}, {"title": "阿酋湾水上乐园", "address": "合肥市经济开发区繁华大道315号", "image": "", "rank": 12, "time": 2.5, "location": {"lat": 31.78816090121511, "lng": 117.22340047174836}, "feature": {"sight_features": "特色1 以海盗文化为主题的水上乐园，是家庭朋友玩乐佳选。 特色2 融合了游乐场的趣味性和挑战性！ 特色3 生态水城，植被覆盖面积大，植物种类多。", "sight_content": "国内首创的水滑道项目，塔台高约3.8M，游客坐在专用的有安全把手的滑具内，从十几米高处高速下滑，进入一个直径16m左右的大喇叭形状的滑道，游客在其中进行旋转、浪摆，高速摇晃享受失重的乐趣，让您尖叫不已。\n海盗水寨里，一个个“海盗”，或是仰首观察或是呼唤呐喊，游客们在桫椤雨林中充分运用直滑道、螺旋滑道、爬网、水桶、 水枪各种工具，穿越“凶猛鳄鱼”、“憨态青蛙”，经历着惊险的趣味游戏。更有“倾盆大雨 ”或是“丝丝细雨”突然从天而降，时刻给游客各种惊喜。\n从远处看，滑道犹如一条长龙盘旋在海上。身体顺着流水左右摇摆，通过惊险刺激的开放式滑道迅速盘旋滑行，从中体验的是一种乐趣，感悟的是一种轻快，让欢快的呐喊久久不停。\n在烈日和海浪之间，尽情地释放你的热情，任凭独眼海盗主宰着风雨雷电，控制着水上乐园的半壁江山，你只要伴随着DJ舞动你的身体,马上进入兴奋状态，享受海浪拍打身体的无穷乐趣，上冲下洗的惊粟刺激，要你变成高分贝尖叫的自由落体！\n深海怪兽尖叫现身！一只大大的章鱼盘踞在游具的顶端，喷射的水柱好似章鱼在张牙舞爪邀您共舞，闭上眼睛感受在章鱼身上穿梭的奇妙触觉，还有大小不一的水枪让游客互相打水仗，喷射的水枪让 你完全摸不清方向，游客们在一起开怀大笑，尽情玩耍。\n“儿童戏水池”是针对儿童设计的趣味性玩水区域，水池的水深是根据小朋友的身高标准注入的，水面上还有浮萍可供孩子玩耍，是孩子们夏日嬉戏天堂。\n水从一排嶙峋假山上快速流下，游客们在下面享受如同瀑布般冲刷，游客在水里可以任意嬉戏，好不热闹!有山有水有绿叶，真正模拟着大自然的景色，让您仿佛置身于大自然之中，大口呼吸着清新的空气让水流除去您的所有烦恼和疲惫，将您带入内心的平静， 感受着大自然般的洗礼。"}}, {"title": "包公祠", "address": "合肥市包河区蜀山区芜湖路72号", "image": "", "rank": 13, "time": 1.5, "location": {"lat": 31.861319022214115, "lng": 117.2974591495175}, "feature": {"sight_features": "", "sight_content": ""}}, {"title": "三国遗址公园", "address": "合肥市庐阳区三十岗公园路1号", "image": "", "rank": 14, "time": 2.0, "location": {"lat": 31.9018626742557, "lng": 117.27346720595699}, "feature": {"sight_features": "特色1 一所展现三国历史文化的专题公园，历经千余年的风雨剥蚀，遗址至今犹存乃属万幸。", "sight_content": "第十一届牡丹节暨首届汉服季\n时间：4月1日至5月4日\n地点：合肥三国新城遗址公园\n主题：第十一届牡丹节暨首届汉服季\n内容：十二大主题活动贯穿一整月\n\n30余亩，50多品种，10000株牡丹，5000株芍药。牡丹为花中之王，雍容华贵，有国色之美。看牡丹何须洛阳，不出合肥，即可以零距离观赏牡丹花。同时，以汉服及中国传统文化为元素贯穿四月，欢迎全国汉服同袍，醉倒牡丹花前。\n合肥市第一届汉服季的汉服同袍游园聚会日，全省汉服同袍齐聚三国城。将会是安徽最大规模的汉服集会。舞台汉服秀、游戏助兴、游园赏花、挂红祈福、汉服周边等活动，向人民展示中华汉服之美。\n三国新城遗址南北长约420米，东西宽约210米。城墙外围有护城河（古城壕），为“安徽省重点文物保护单位”，是安徽省乃至全国保存较好、极具史学价值和军事研究价值的三国文化遗产。\n\n历经近1800年的风雨剥蚀、沧桑巨变，我们仍能清晰地看到这座三国时代军事城堡的风貌。新城城墙为夯土板筑，墙基宽18—20米，其中四角及南北中间的6个土墩，高约10余米。城垣框架基本保存完好，原有3座城门(东中门、东侧门、西城门)的地方略低。\n从三国新城遗址考古出土的大量铁兵器、用于守城防御的礌石、城内练兵指挥台、专门铸造兵器的作坊和大面积屯兵营，说明三国新城为军事城堡，与史书上记载的“屯兵于此”相吻合。\n园内主要景点有新城文物陈列馆、金虎台、聚贤堂、满宠草堂、征东门、东侧门遗址、西城门遗址、练兵指挥台、兵器铸造窑址、饮马池、时光隧道等。公园荣获第四届全国体育大会接待工作先进单位、合肥市五佳公园、合肥市窗口行业“礼貌待人、诚信服务”先进集体等荣誉称号，连续8年被评为合肥市卫生先进单位。公园每年四月举办合肥牡丹节、十月举办合肥三国文化节，成为合肥市重要的旅游节庆品牌之一，至今已成功举办了六届合肥牡丹节和九届合肥三国文化节。她正以浓郁的历史文化、优美的园林景观、热情完善的旅游服务欢迎您的到来。"}}, {"title": "巢湖", "address": "合肥市巢湖市", "image": "", "rank": 15, "time": 4.5, "location": {"lat": 31.629002428816317, "lng": 117.89557620044565}, "feature": {"sight_features": "", "sight_content": ""}}, {"title": "紫微洞", "address": "巢湖市北郊紫微洞旅游区", "image": "", "rank": 16, "time": 2.0, "location": {"lat": 31.652321303375835, "lng": 117.87504394311608}, "feature": {"sight_features": "特色1 典型的地下河型洞穴 特色2 紫微洞又名紫薇洞、双井洞，因洞有大小两个天然井状出口而得名 特色3 仙境梦地，紫微洞天", "sight_content": "王乔谜窟是安徽省内唯一一座摩崖石窟造像溶洞，洞内刻有唐朝早期佛像及动物雕像共计600余尊，独有一尊彩雕佛像有首，余皆无首，乃为千古之谜，为安徽省重点文物保护单位。\n\n景区环境优美、景点众多，尤以紫微洞、王乔谜窟闻名遐迩。紫微洞以雄、奇、险、幽而著称，著名景点有“三奇”（双井开天、铁索寒桥、地下长河）“四绝”（玉螺帐、天外飞瀑、天沟天槽、猴子捞月）等，奇景奇观令人目不暇接、流连忘返。\n\n紫微洞位于巢城北郊，又称双井洞，因洞有大小两个天然井状出口而得名。总长3000米，主洞长达1500多米，是典型的地下河型洞穴，洞穴呈廓道状，以雄、奇、险、幽见长，融自然、人文景观于一体。\n\n紫微洞10大洞天，36主景，72辅景，先陆路游览，后水路荡舟。最妙的要数洞内的“四绝”、“三奇”景观。“四绝”为天沟、天板、天漕，玉螺账，石鹅管和天外飞瀑。“三绝”为铁索寒桥、双井开天、地下长河。此外，“龙潭听涛”、“群猴朝圣”、“洞中大龙湫”、“九龙壁”、“石葡萄”、“石褶裙”、“石针”、“石笋”、“葫芦寿星”、“猴子捞月亮”、“八戒照镜子”等景点，以及王乔炼丹留下的胜迹，惟妙惟肖，令人目不暇接，叹为观止。"}}, {"title": "中国科学技术大学", "address": "合肥市包河区金寨路96号", "image": "", "rank": 17, "time": 2.5, "location": {"lat": 31.844200694788018, "lng": 117.2734523857127}, "feature": {"sight_features": "", "sight_content": ""}}, {"title": "明教寺", "address": "合肥市庐阳区淮河路步行街44号", "image": "", "rank": 18, "time": 2.0, "location": {"lat": 31.870216298705312, "lng": 117.29980655656088}, "feature": {"sight_features": "", "sight_content": ""}}, {"title": "金孔雀温泉旅游度假村", "address": "合肥市庐江县汤池镇外经大道", "image": "", "rank": 19, "time": 1.5, "location": {"lat": 31.316253626940565, "lng": 117.1054249401394}, "feature": {"sight_features": "特色1 被誉为“人间瑶池”", "sight_content": "金孔雀温泉旅游度假村坐落于温泉汩汩的庐江古镇汤池，被誉为“人间瑶池”。它是由安徽省外经建设（集团）有限公司投资10亿元人民币而兴建的，占地5400多亩，风格清雅，设施齐全，建设标准为五星级。\n它以园林式露天温泉为主要特色，旅游度假村依托当地的天然温泉资源建设，泉水清澈，常年温馨。\n旅游度假村设有40多个露天泡池，有异国情调的木屋，空气清新，亲近自然，特别是激流冲击，浮流漂浴，浅滩嬉水等多种项目，具有休闲娱乐和保健祛病的双重功能。"}}, {"title": "蜀山森林公园", "address": "合肥市蜀山区玉兰大道8号", "image": "", "rank": 20, "time": 2.5, "location": {"lat": 31.844604045665207, "lng": 117.19591162875288}, "feature": {"sight_features": "", "sight_content": ""}}, {"title": "清风阁", "address": "合肥市包河区芜湖路60号", "image": "", "rank": 21, "time": 1.5, "location": {"lat": 31.86223201221084, "lng": 117.30306834878289}, "feature": {"sight_features": "特色1 清风阁在包公墓园，是为纪念合肥名人包拯，现已成为合肥市标志性建筑。", "sight_content": "清风阁景区主要有功德广场、清风阁、陈列馆区三个部分。清风阁是为纪念包拯诞辰1000周年而建的大型仿宋建筑群，占地2.2公顷主体建筑清风阁高42米，明五暗四，共九层，登顶可俯瞰城市风光及整个包公园的秀丽景色。阁内采用雕塑、绘画、多媒体等艺术形式，展现了包拯“孝勤清正”的精神品质和官德修养。"}}, {"title": "翡翠湖", "address": "合肥市经济技术开发区大学城内", "image": "", "rank": 22, "time": 1.0, "location": {"lat": 31.780662805301844, "lng": 117.21690912209927}, "feature": {"sight_features": "", "sight_content": ""}}, {"title": "李鸿章享堂", "address": "合肥市瑶海区合裕路415号", "image": "", "rank": 23, "time": 1.5, "location": {"lat": 31.84843515044643, "lng": 117.36369851503198}, "feature": {"sight_features": "", "sight_content": ""}}, {"title": "包公墓", "address": "合肥市包河区芜湖路58号", "image": "", "rank": 24, "time": 1.5, "location": {"lat": 31.86253138185107, "lng": 117.30434804696495}, "feature": {"sight_features": "特色1 墓园苍松翠柏、肃穆幽静，主墓内安放有墓志铭和金丝楠木棺，棺木内敛包拯遗骨。", "sight_content": "包公墓园，全称包孝肃公墓园，占地面积3公顷，园内建筑面积3000余平方米，是一座比较完整的古代名臣墓园。包公墓是包拯及其夫人、子孙遗骨所葬之地，占地三公顷，目前是国内一座比较完整的古代名臣墓园。1062年包公去世于河南开封，次年，其女婿文效将其灵柩运回合肥，归葬故里。他一生为官多年，最高官职是枢密副使，为北宋二品官，因此，墓园大小结构皆按宋代二品官葬制而建。\n整个墓园庄严肃穆、环境幽静，由主墓区、碑画廊、附墓区、地下墓室和管理区组成，主墓为“覆斗型”方墓，墓后面是碑画廊，为纪念包拯诞辰一千周年而建，廊中不仅有200多块当今名书法家的作品，还有徽派建筑中的三雕艺术，即木雕、砖雕、石雕，展示了包公光彩的一生。北侧是附墓区，有包拯夫人董氏及其子、媳、孙等墓5座。\n墓室内安放有包拯墓志铭和金丝楠木棺，棺木内敛包拯遗骨。2004年，包公墓又新建了一展览馆，馆内以20多块展牌展示了包公故事的源流。墓园与包公祠紧紧相连，南临芜湖路，北近包河边，东靠亚明艺术馆，西接清风阁。"}}, {"title": "渡江战役纪念馆", "address": "合肥市包河区包河大道与云谷路交叉口向东四百米左右", "image": "", "rank": 25, "time": 1.5, "location": {"lat": 31.719040730469658, "lng": 117.32963209250995}, "feature": {"sight_features": "", "sight_content": ""}}, {"title": "中国非物质文化遗产园", "address": "合肥北城合淮路与北绕城高速交汇处向北1.5公里", "image": "", "rank": 26, "time": 2, "location": {"lat": 31.924774771966636, "lng": 117.21838911815578}, "feature": {"sight_features": "特色1 风光优美，景色宜人 特色2 非遗三雕，徽梦水舞，浪漫非遗园。 特色3 景区内各种动植物资源丰富，令人流连忘返。 特色4 风光优美，景色宜人，古遗迹、遗址以及寺庙等人文景观散落其间。", "sight_content": "中国（合肥）非物质文化遗产园，作为合肥市重点打造的市民休闲旅游的重要板块之一，已成功举办了四届主题樱花节，累计接待国内国际游客上百万人次，现已成为中国最具观赏价值的赏樱盛开地之一。\n2019年金猪贺岁之际，期间由政府积极力导的2019非遗园·第五届中国樱花节也将再次与游客心心相樱，浪漫邂逅！其中满园春色关不住的“昭君花海、中国红花海、广州樱花海、貂蝉花海、杨贵妃花海”将呈现最别样的2019樱花烂漫世界，成为2019合肥和周边区域春季旅游的一张响亮名片。\n2019年樱花节亮点：1、四年的中国樱花节品牌，随着时间的积累与沉淀，即将在2019年樱花节进行迸发。2、结合中国传统非遗文化素材——“四大美女”，将樱花的品种与中国古代美女相融合，突出非遗文化的特色。3、增加夜场——以“七彩赏樱，夜游非遗”为亮点，打造安徽首次夜晚赏花的景区，成为网红打卡地。\n中国非物质文化遗产园、国家AAAA级旅游景区，是一个以中国传统文化、民俗文化为主题，非物质文化遗产为核心内容，倾力打造成世界非物质文化遗产嘉年华目的地，世界文化旅游目的地。中国非物质文化遗产园景区包括千年百工游览区、中华非物质文化遗产传习村游览区、中华非物质文化遗产博物馆游览区、七十二行民俗村游览区、明清古建筑大观园、《西游记》砖雕文化游览区、国际赛马赛狗赛车俱乐部、国际马戏大世界、中华木雕馆、古陶馆、古砖雕馆、瓷宫、十里红妆等。中国非遗文化园内不仅有大量的非遗文化资源，还集聚了鲜为人知的一品夫人墓遗址、尧隐禅寺遗址、红色文化遗址等历史圣迹。常年演出的节目有高空惊险杂技：环球飞车绝技，旋转大飞轮、空中大飞人、高空走钢丝、秋千飞人、浪桥飞人、集体武术、水流星、抖空竹、立绳、力量、绸吊、爬杆、地圈、晃圈、柔术等节目。"}}, {"title": "合肥科技馆", "address": "合肥市蜀山区黄山路446号", "image": "", "rank": 27, "time": 2.5, "location": {"lat": 31.84783298067851, "lng": 117.25581100037871}, "feature": {"sight_features": "", "sight_content": ""}}, {"title": "天鹅湖体育公园", "address": "合肥市蜀山区怀宁路与天鹅湖路交叉口", "image": "", "rank": 28, "time": 2, "location": {"lat": 31.82048023481506, "lng": 117.22913429653039}, "feature": {"sight_features": "", "sight_content": ""}}, {"title": "宝贝地球村", "address": "合肥市政务区绿地蓝海大厦C座下沉地球广场", "image": "", "rank": 29, "time": 2, "location": {"lat": 31.828350043261025, "lng": 117.23892915570937}, "feature": {"sight_features": "特色1 安徽青少年体验教育基地。", "sight_content": "‍‍\n宝贝地球村,安徽首家儿童职业体验馆，这是一座仿真的国际都市，是供3-15岁的孩子体验真实社会的课外第三课堂和快乐成长乐园。在这里，有消防员、医生、法官、警察、记者、航空乘务员等80种职业，分布在8000平方体验训练基地内的46个场馆中；有一群和蔼可亲、训练有素的辅导老师会用专属的指导方式，让孩子们获得更多课堂外的知识及荣誉感；有模拟真实社会设定的社会规则和文化，完善的管理系统、金融系统、安全系统、社会服务系统等，打造教育体验、科技体验、安全体验、文化体验、环保体验在内的5星级成长教育体验；在这里，孩子们接触“社会”、了解“社会\"、并成为“社会”的主人。\n儿童职业体验馆，就是少年儿童通过模拟和体验成人的职业和角色来了解和接触真实的世界的地方。这个场馆拥有与真实城市一样的形态和景观，有模拟设定的社会规则和文化，具备管理系统、金融系统、安全系统、社会服务系统等。\n核心价值理念： 三爱教育 —— 爱孩子，爱地球，爱未来！全球首家幼儿园、职业体验馆互动成长模式场馆。全球唯一以“低碳环保”为主题的儿童职业体验馆。全国唯一以“拯救地球”为使命的儿童职业体验馆。孩子自己设计玩法配套设备的儿童职业体验馆，真的做到：我的地盘我做主。"}}, {"title": "紫蓬山国家森林公园", "address": "合肥市肥西县紫蓬镇森林大道", "image": "", "rank": 30, "time": 4.5, "location": {"lat": 31.73924684403523, "lng": 117.02385857974855}, "feature": {"sight_features": "", "sight_content": ""}}, {"title": "安徽省地质博物馆", "address": "合肥市政务区嘉和路999号安徽文博园内", "image": "", "rank": 31, "time": 3.0, "location": {"lat": 31.8095376042374, "lng": 117.22841026767918}, "feature": {"sight_features": "", "sight_content": ""}}, {"title": "深业半汤御泉庄温泉", "address": "合肥市巢湖经济开发区汤山路128号-甲（近芜合高速口）", "image": "", "rank": 32, "time": 2, "location": {"lat": 31.65971162687702, "lng": 117.92832293967582}, "feature": {"sight_features": "特色1 含30多种活性元素和大量氡气 特色2 始于1300多年的秦汉来泉水 特色3 温泉之乡，品质享受", "sight_content": "泡汤方式：男女混浴\n洗浴设施：淋浴房\n必备用品：自备泳衣\n综合设施：含室内外温泉\n免费提供：免费提供洗漱用品、毛巾拖鞋、水果饮料、休息大厅、沙发座椅、书吧、儿童淘气堡、斯洛克台球。\n不宜人群：皮肤过敏、孕妇、手术过后、高血压、心脏病患者、女性生理期不宜泡汤\n其他：\n1、可凭房卡无限次出入温泉，酒店提供浴袍，可穿浴袍进入温泉区域；\n2、酒店离温泉交接，有短接驳车接送；\n3、酒店有私汤房型，可在酒店预订；\n温泉水温：38-42度\n特色泡池：鱼疗池，室内理疗池，1--沐足阁 2--半汤低温池 3--九福神汤4--半汤高温池5--温泉煮蛋6--深水原汤7--土耳其鱼疗8--室内水疗池9--室内热石廊10--温泉汤屋11--无边泡池12--漱玉泉13--调元泉14--雾凇泉15--景观湖16--古茶汤17--松柏园18--半月汤19--名木汤20--灵芝泉21--野姜浴22--荷花泉23--竹影泉24--沐兰亭25--沐兰汤26--薄荷泉27--益气泉28--半汤飞瀑29--甘草池30--治中泉31--克农泉32--玫瑰泉33--热石廊34--百合泉\n餐饮信息：温泉景区内部有中餐厅，可以点餐（付费）。温泉休息区免费提供水果饮品。特色美食：巢湖银鱼、巢湖白丝鱼、大碗鱼头汤、红烧仔鸡\n特色项目：台球、儿童乐园（免费）、保健按摩（价格详细见价目表）、 娱乐棋牌：18/两小时 加钟80/小时、 成人/儿童书吧免费阅读书籍（书不可拿走）\n安全提示：\n1.酒后不宜入池\n2.心脏病、高血压须有专人陪同方可入园沐浴\n3.露天区属湿水区，小心地\n4.禁止直接跳入\n5.每次浸泡时间不宜超过15分钟以免出现晕池现象（尤其是老人）\n高铁站：巢湖东站距离6.7KM\n安徽半汤御泉庄温泉温泉度假村占地114亩，分综合接待区、spa保健区、娱乐健身区、室内温泉区、露天温泉区；室内外温泉有 spa水疗池、 旋涡池、 超音波气泡浴 、卧式按摩浴、自然石蒸汽、土耳其鱼疗池、九福神汤、沐足阁、室外spa池、热石廊 、半汤泉 、菊花泉、灵芝汤、薄荷泉、养颜泉 （加草本精油）、本草泉（加防风 怀牛七 黄精 ）、干邑泉等三十余种色养生泡池，温泉区还配有休息大厅、棋牌室、spa按摩房等功能。\n\n\n\n\n半汤御泉庄现目前拥有包括温泉台地别墅、温泉情侣汤屋，尤其难能可贵的是每套温泉地别墅均引入的温泉水，客人在多种极富养生特色的温泉区理疗戏水外，还可以在自己的独栋别墅里独享温泉水所带来的陶陶乐趣，体验尊贵、私密、与世无争的享受。"}}, {"title": "杏花公园", "address": "合肥市庐阳区淮河西路482号", "image": "", "rank": 33, "time": 1.5, "location": {"lat": 31.872644066569432, "lng": 117.28001077949521}, "feature": {"sight_features": "", "sight_content": ""}}, {"title": "合肥融创电影乐园", "address": "合肥市包河区庐州大道与丙铺路交叉口融创茂1层", "image": "", "rank": 34, "time": 2.5, "location": {"lat": 31.803077544890584, "lng": 117.30599275452316}, "feature": {"sight_features": "特色1 “飞越安徽”先进的大型飞行动感影院 特色2 体会激烈刺激的魔幻之旅。八个关卡八种不同的体验 特色3 360度球幕环绕，将科技与艺术完美结合。视角转换间", "sight_content": "合肥融创电影乐园位于融创茂的东南角，总建筑面积1.6万平方米, 是融创创新并拥有知识产权的顶尖高科技娱乐项目。内含国际一流大型悬挂式球幕影院“飞越安徽”和国内顶尖3D闯关互动剧场“补天战记”；世界前沿飞行骑乘设备、大视角、全角度高清立体屏幕，两大剧场以不可思议的呈现方式，让您体验尖端科技的同时，感受前所未有、惊喜不断的震憾视听盛宴！\n\n1、3D互动剧场“补天战记”\n游客乘坐6自由度平台轨道车经过八个全新创意的关卡，体会激烈刺激的魔幻之旅。八个关卡八种不同的体验，让游客跟随女娲降妖除魔，收集七彩神石，召唤青天！游客将在旅途中获得身临其境的超现实的刺激体验，享受全方位感观盛宴。\n2、飞行剧场“飞越安徽”\n世界最先进的大型飞行动感影院，游客在十五米的高空飞越安徽的壮美河山，感受不同季节下的美丽安徽。360度球幕环绕，将科技与艺术完美结合。视角转换间，座椅时俯时仰，时冲时停，不仅完美模拟凌空飞行的真实效果，还通过喷风、气味、声光等特效手段，带领观众开启一场惊喜无限的翔游安徽风情之旅。"}}, {"title": "环城公园", "address": "合肥市包河区环城南路29号", "image": "", "rank": 35, "time": 2.0, "location": {"lat": 31.861494929829345, "lng": 117.2956946681907}, "feature": {"sight_features": "", "sight_content": ""}}, {"title": "安徽省博物馆新馆", "address": "合肥市蜀山区怀宁路268号", "image": "", "rank": 36, "time": 2.5, "location": {"lat": 31.808403064895934, "lng": 117.2268727297649}, "feature": {"sight_features": "", "sight_content": ""}}, {"title": "岱山湖", "address": "合肥市肥东县古城镇", "image": "", "rank": 37, "time": 2.5, "location": {"lat": 32.15738501907451, "lng": 117.8648765198116}, "feature": {"sight_features": "特色1 如江南村女般纯美娇秀", "sight_content": "合肥岱山湖位于肥东县境内，离合肥约50余公里，从市内乘车约一个小时即可到达。湖面7500亩，相当于杭州西湖的面积。岱山湖原为解放后当地乡民修建的一座水库，因离城较远，四周全为乡村田野，至今未遭任何污染，给人以清纯自然的亲切感。与浩瀚的巢湖相比，岱山湖如江南村女般的纯美娇秀。立于岸边，放眼望去，只见万亩湖面清波荡漾，四周群峰丘坡叠翠。湖面东部开阔，西部曲折蜿蜒，并天然形成众多的港汊。\n\n\n岱山湖，这个拥有近8000亩水面的皖东水上世界，是夏日人们戏水避暑的乐园。景区为了更好让游客体验亲水的快乐，特意从桂林漓江引进时尚、清爽的水上游船项目竹筏漂流，一组分为10个和20个不等的座位，5人即可发船，全竹制靠背椅，坐躺皆宜。乘竹筏游船飞渡在水面上，不时激起滚滚浪花，全然没有了夏日的炎热，让人感到无比惬意。在拓展基地，水上自行车大行其道，不用学驾驭就能自如掌握，让你像鱼儿一样在水面上自由嬉戏，另外基地还有水上情侣船，水上皮划艇以及沙滩摩托车，真人cs，高空滑索等项目，在这里你可以肆意的撒野，玩耍。\n在岱山湖的湖心有一座占地面积180亩的快乐王国——天鹅岛。这里是游客们的最爱，天鹅岛里面树木茂盛，物种丰富，玩乐项目多样，并且大多全是免费的，岛内道路是自然形成的林荫小道，游船项目有闯迷宫，攀绳索，穿时光隧道，走秋千桥，钢丝桥，波浪桥，走梅花桩，玩跷跷板等等。 如果你幸运的话还可以找到野花野果，甚至和松鼠、野兔来一次亲密接触，如果你真的遇见了还请你手下留情，不要打扰它们甚至占为己有。\n岱山湖不仅自然风光优美，更兼具人杰地灵、佛光普照。在岱山湖的对岸矗立着一座皇家御赐寺庙演法禅寺，至今仍留有明代皇家御赐碑所记“昔明太祖微时，行游南京，路由此山，爱山水之环抱，称赏久之”，朱元璋登基后，遂赦建寺。后来演法禅寺经三起三落，毁于战乱之中。\n现如今的演法禅寺经过新长江集团及安徽省宗教主管部门的大力支持，得以重光再现，至今寺院内仍保留御赐龙头石碑及民国时期的碑文，大殿内设一体五尊佛像，建设了福田园广场、吉祥钟亭、一苇渡江、心经大坝等人文自然景观，构建成岱山湖特有的禅宗文化园。"}}, {"title": "姥山岛", "address": "巢湖市居巢区中庙镇", "image": "", "rank": 38, "time": 3.0, "location": {"lat": 31.650688899701947, "lng": 117.72806407997771}, "feature": {"sight_features": "特色1 被誉为巢湖的“两颗宝石“之一 特色2 林木葱郁，四季常青，如青螺浮水", "sight_content": "王乔得道、许由洗耳、浮丘垂钓、巢州地陷的传闻轶事娓娓动听，闻名遐尔。商汤伐纣、夏桀败走南巢、张良蛰隐大秀山、范增归葬亚父山等，更为巢湖平增思古幽情，添就诱人史话。这令人神往人间圣境，引历代名流大家盘桓驻足，泼墨挥毫。巢湖藉其秀丽的风光、宜人的景色被列为国家对外开放城市，安徽省重点旅游开发区和风景疗养区，皖中大地上一颗璀灿的旅游明珠。\n巢湖四周有半汤、香泉、汤池三大温泉，有太湖山，鸡笼山，冶父山，天井山四个国家森林公园，称“四块翡翠”，还有仙人，紫薇，王乔，华阳，伯山五大溶洞。黛峰叠翠，古塔耸云；湖岸沟、河、港、纵横交错，玉带燎绕，岸柳晓风，如诗若画；古中庙飞檐雕栋，流光溢彩；天然溶洞紫微洞，雄、奇、险、幽，巧夺天工，为“江北第一洞”。\n仙人洞钟乳纷呈，景成万象；王乔洞佛像雕刻鬼斧神工，是安徽省仅有的摩崖石窟艺术宝库；银屏白牡丹做立悬崖，神奇独特，堪称“天下第一奇花”；南北龟山静伏水面，凝姑望姥；半汤温泉品位上乘，疗效卓然…，名胜古迹，钟灵梳秀，星罗棋布。"}}, {"title": "三国历史文化馆", "address": "合肥市庐阳区寿春路16号逍遥津公园内", "image": "", "rank": 39, "time": 1.0, "location": {"lat": 31.874376121864284, "lng": 117.30194428921689}, "feature": {"sight_features": "", "sight_content": ""}}, {"title": "欢乐岛", "address": "合肥市经济技术开发区繁华大道315号", "image": "", "rank": 40, "time": 3.0, "location": {"lat": 31.78816090121511, "lng": 117.22340047174836}, "feature": {"sight_features": "特色1 安徽省首家青少年素质教育基地。 特色2 可观光旅游，也有诸多极限运动、游乐活动。", "sight_content": "合肥欢乐岛分为六大区域其中动感区是合肥欢乐岛最为精彩刺激的游玩区域之一，尖叫、呐喊的声音充斥着欢乐岛的上空，比较有代表性的如火箭蹦极、狂呼惊叫等刺激性项目深受广大青年朋友们的喜爱 ，在这里您\n\n\n可以从喧嚣的都市中抽身出来解放压抑自我，放飞心情。\n儿时的我们都有一颗做侠客的心，都怀着一个飞檐走壁、闯荡江湖的梦想，合肥欢乐岛的快乐江湖将会让您的梦想变成现实。小朋友们在沙滩乐园里尽情的嬉耍玩闹，孩子们活泼好动的天性和冒险的欲望显现的\n\n\n淋漓尽致。同时家长也可以参加进来，一起找回童年快乐的感觉，更能拉近和孩子们的距离，增进彼此的感情。\n\n挑战自我、敢于冒险，更是大家释放激情、突破自我的运 动方式。\n合肥唯一一家恐龙园坐落于合肥欢乐岛，给爱好恐龙的人们带来了福音。它们向人们展示着千 万年来不朽的威严，让人们对白垩纪时代产生无尽的遐想。"}}, {"title": "瑶海公园", "address": "合肥市七里塘镇北二环双七路", "image": "", "rank": 41, "time": 1.5, "location": {"lat": 31.900753888886243, "lng": 117.31857912053202}, "feature": {"sight_features": "", "sight_content": ""}}, {"title": "生态公园", "address": "合肥市瑶海工业区二环路铜陵北路口", "image": "", "rank": 42, "time": 1.5, "location": {"lat": 31.895102907171207, "lng": 117.3363812217048}, "feature": {"sight_features": "", "sight_content": ""}}, {"title": "渡江战役总前委旧址", "address": "合肥市肥东县‎撮镇瑶岗村团结路", "image": "", "rank": 43, "time": 2, "location": {"lat": 31.828290908803353, "lng": 117.47337809041962}, "feature": {"sight_features": "", "sight_content": ""}}, {"title": "市府广场", "address": "合肥市庐阳区区中心", "image": "", "rank": 44, "time": 0.75, "location": {"lat": 31.884886695554332, "lng": 117.27145913381999}, "feature": {"sight_features": "", "sight_content": ""}}, {"title": "冶父山国家森林公园", "address": "合肥市庐江县中部", "image": "", "rank": 45, "time": 3.0, "location": {"lat": 31.261327637478026, "lng": 117.29357730191721}, "feature": {"sight_features": "", "sight_content": "冶父山，距庐江县城东约9公里，峰峦叠翠，庙宇辉煌，古迹遗存，佳传甚多，有“江北小九华”之称。据传春秋时，铸剑之父欧冶子曾在此山铸剑，山上存有铸剑池古迹，因此得名冶父山。"}}, {"title": "庐州府城隍庙", "address": "合肥市庐阳区霍邱路", "image": "", "rank": 46, "time": 1.5, "location": {"lat": 31.870858583857085, "lng": 117.28565530103157}, "feature": {"sight_features": "", "sight_content": ""}}, {"title": "浮庄", "address": "合肥市包河区芜湖路72号包公园内", "image": "", "rank": 47, "time": 1.5, "location": {"lat": 31.86305253002897, "lng": 117.30422518661864}, "feature": {"sight_features": "", "sight_content": "浮庄是一组由茶楼、曲榭、亭桥等景组成的依水而建的古典园林。站在远 处看象一片柳叶漂浮在水上，又因岛上建筑群类似古代的村庄，故名浮庄。在包河公园内，位于一个湖心的小岛上，通过一座小桥，来到浮庄岛上，岛上是中国的古典园林，曲径通幽，环境优美，该茶馆，掩于幽静、通幽之处，临水而建，外面有一个很大的亲水平台，是个闲来无事，喝茶晒太阳的好地方，此处就是浮庄茶楼。\n\n\n南大门上镶嵌一块金黄匾额，上书“浮庄”两个醒目大字，为原国防部长张爱萍手书。内有一座徽派风格与现代建筑相结合的四合院，有二层楼房，楼名“寄畅”，内设茶社。从院后东行，有一座仿苏派造莲舫，置于包河中，上舱配以“穿过花世界，划破云水天”楹联，显得古朴典雅。从莲舫东行数步，便是浮庄园林建筑的主体，有一组环水而建的秀丽的楼台亭阁，首当其冲的是“镜中天”，内里妙联有：“东西岛影含楼影，上下天光透水光”。“楼眼波翻天地窄，放怀月映水云宽”。“一堤杨柳莺啼树，四面荷花蝶戏鱼”。整个浮庄景物，匠心独运，古色古香，游人曾以“桃花浮庄溶溶月，柳絮包河淡淡风”赞美浮庄胜境。南岸有包公墓、清风阁。"}}, {"title": "三十岗乡", "address": "合肥市庐阳区三十岗乡", "image": "", "rank": 48, "time": 3.0, "location": {"lat": 31.93838818240948, "lng": 117.13580956257347}, "feature": {"sight_features": "", "sight_content": ""}}, {"title": "合肥大剧院", "address": "合肥市政务文化新区天鹅湖路516号", "image": "", "rank": 49, "time": 2.0, "location": {"lat": 31.82134107809631, "lng": 117.23171306754772}, "feature": {"sight_features": "", "sight_content": ""}}, {"title": "安徽名人园", "address": "合肥市蜀山区玉兰大道8号（大蜀山脚下）", "image": "", "rank": 50, "time": 1.5, "location": {"lat": 31.844604045665207, "lng": 117.19591162875288}, "feature": {"sight_features": "", "sight_content": ""}}, {"title": "环城公园琥珀潭景区", "address": "合肥市蜀山区环城西路环城公园琥珀潭景区", "image": "", "rank": 51, "time": 1.0, "location": {"lat": 31.866439292154933, "lng": 117.27396714621061}, "feature": {"sight_features": "", "sight_content": ""}}, {"title": "花园街", "address": "合肥市庐阳区长江路中段与荣事达大道南段交接处", "image": "", "rank": 52, "time": 2.0, "location": {"lat": 31.957533888120555, "lng": 117.27697140592086}, "feature": {"sight_features": "", "sight_content": ""}}, {"title": "逍遥阁", "address": "合肥市庐阳区寿春路16号逍遥津公园内", "image": "", "rank": 53, "time": 2, "location": {"lat": 31.874376121864284, "lng": 117.30194428921689}, "feature": {"sight_features": "", "sight_content": ""}}, {"title": "滨湖森林湿地公园", "address": "合肥市包河区环湖北路大张圩，靠近巢湖北岸南淝河入湖口", "image": "", "rank": 54, "time": 2.5, "location": {"lat": 31.729748434096628, "lng": 117.39186172881514}, "feature": {"sight_features": "", "sight_content": ""}}, {"title": "安徽省科学技术馆", "address": "合肥市高新区天乐路8号", "image": "", "rank": 55, "time": 1.5, "location": {"lat": 31.857212794796947, "lng": 117.21272739586553}, "feature": {"sight_features": "", "sight_content": ""}}, {"title": "孙立人故居", "address": "合肥市肥西县万年街西50米", "image": "", "rank": 56, "time": 0.75, "location": {"lat": 31.514154016450018, "lng": 117.25156308340178}, "feature": {"sight_features": "", "sight_content": ""}}, {"title": "合肥清真寺", "address": "合肥市庐阳区寿春路35号", "image": "", "rank": 57, "time": 1.0, "location": {"lat": 31.87098960817302, "lng": 117.30410946420794}, "feature": {"sight_features": "", "sight_content": ""}}, {"title": "国粹楼", "address": "合肥市肥西县三河镇005县道南侧三河古镇内的古西街上", "image": "", "rank": 58, "time": 0.75, "location": {"lat": 31.51774372301101, "lng": 117.25090298066557}, "feature": {"sight_features": "", "sight_content": ""}}, {"title": "银屏山", "address": "巢湖市南郊", "image": "", "rank": 59, "time": 2.0, "location": {"lat": 31.608732547545824, "lng": 117.88049041703327}, "feature": {"sight_features": "特色1 喀斯特地貌溶洞景观", "sight_content": "银屏山是巢湖境内高峰，海拔约508米，四周山峦起伏，九峰环抱，姿若雄狮，有“九狮抱银屏”之说。山中谷幽、林密，加上溶洞、奇花构成一幅幅优美的图画。银屏牡丹花，人称“天下第一奇花”，生长在一堵巨大的犹如斧削、光滑如屏的悬崖峭壁之上，为一株天然野生白牡丹花，风姿绰约，历经千年而永葆青春，殊为举世罕见。\n仙人洞位于牡丹花的绝壁之下，洞内盘桓曲折、怪石嶙峋、钟乳纷呈，宛若地下迷宫，是典型的喀斯特地貌溶洞景观。位于月亮山顶的牡丹亭，三层八角，恢宏典雅，被誉为“安徽第一亭”。巢湖最高峰——银屏山顶，是秋天登高临远的绝佳处，可以“南看长江飘玉带，北观巢湖数点舟”。山顶上的龙兴寺庙，参差错落，晨钟暮鼓，号称“江北九华”，是参禅拜佛的绝佳境地。"}}, {"title": "海底总动员", "address": "合肥市庐阳区蒙城北路与北一环交叉口华联商厦四楼", "image": "", "rank": 60, "time": 2, "location": {"lat": 31.886401866634035, "lng": 117.29068853105822}, "feature": {"sight_features": "", "sight_content": ""}}]}