{"cityName": "鹤岗", "days": "", "cityImage": "", "spots": [{"title": "月牙湖中国北方民族园", "address": "鹤岗市绥滨县忠仁镇中兴村边的黑龙江畔", "image": "", "rank": 1, "time": 3.0, "location": {"lat": 47.55513811116756, "lng": 131.8579877502063}, "feature": {"sight_features": "", "sight_content": ""}}, {"title": "鹤岗国家森林公园", "address": "黑龙江省鹤岗市东山区四五二线道", "image": "", "rank": 2, "time": 3.0, "location": {"lat": 47.34498713557338, "lng": 130.32336109407026}, "feature": {"sight_features": "", "sight_content": ""}}, {"title": "萝北名山景区", "address": "鹤岗市萝北县名山镇", "image": "", "rank": 3, "time": 1.5, "location": {"lat": 47.68753240800194, "lng": 131.0913349744764}, "feature": {"sight_features": "", "sight_content": ""}}, {"title": "普陀山宗教文化风景区", "address": "鹤岗市东山区鹿林山", "image": "", "rank": 4, "time": 4.5, "location": {"lat": 47.29214399742067, "lng": 130.26859742307857}, "feature": {"sight_features": "", "sight_content": ""}}, {"title": "金顶山国家森林公园", "address": "黑龙江省东北部小兴安岭南麓，近鹤岗市东山区", "image": "", "rank": 5, "time": 2, "location": {"lat": 47.99495358374814, "lng": 129.7744959890972}, "feature": {"sight_features": "", "sight_content": ""}}, {"title": "天水湖公园", "address": "鹤岗工农区湖北路天水湖公园", "image": "", "rank": 6, "time": 2, "location": {"lat": 47.351690073089514, "lng": 130.28167904827112}, "feature": {"sight_features": "", "sight_content": ""}}, {"title": "黄金古镇度假村", "address": "鹤岗市萝北县太平沟乡太平沟村", "image": "", "rank": 7, "time": 2, "location": {"lat": 48.1389679930699, "lng": 130.67325999960292}, "feature": {"sight_features": "", "sight_content": ""}}, {"title": "北普陀寺", "address": "黑龙江省鹤岗市南山区", "image": "", "rank": 8, "time": 1.0, "location": {"lat": 47.321245938809454, "lng": 130.293540315547}, "feature": {"sight_features": "", "sight_content": ""}}, {"title": "兴龙峡谷", "address": "鹤岗市萝北县太平沟乡太平沟村", "image": "", "rank": 9, "time": 2, "location": {"lat": 48.1389679930699, "lng": 130.67325999960292}, "feature": {"sight_features": "", "sight_content": ""}}, {"title": "鹤岗国家矿山公园", "address": "黑龙江省鹤岗东山路与东兴路交叉口附近", "image": "", "rank": 10, "time": 2.5, "location": {"lat": 47.358694104773484, "lng": 130.32882784453946}, "feature": {"sight_features": "", "sight_content": ""}}, {"title": "鹤岗市地质博物馆", "address": "黑龙江省鹤岗市工农区永昌路", "image": "", "rank": 11, "time": 1.0, "location": {"lat": 47.31018667925041, "lng": 130.28119957411195}, "feature": {"sight_features": "", "sight_content": ""}}, {"title": "黑龙江流域博物馆", "address": "黑龙江省鹤岗市萝北县名山岛", "image": "", "rank": 12, "time": 2, "location": {"lat": 47.68881090838191, "lng": 131.12519028918072}, "feature": {"sight_features": "", "sight_content": ""}}, {"title": "振兴广场", "address": "黑龙江省鹤岗市向阳区光明街道振兴路40号", "image": "", "rank": 13, "time": 2, "location": {"lat": 47.34999178692404, "lng": 130.30276408298553}, "feature": {"sight_features": "", "sight_content": ""}}, {"title": "龙江三峡", "address": "黑龙江省鹤岗市萝北县", "image": "", "rank": 14, "time": 2.5, "location": {"lat": 47.58342219702872, "lng": 130.83549503650306}, "feature": {"sight_features": "", "sight_content": ""}}, {"title": "松鹤西湖公园", "address": "鹤岗市东山区鹤嫩公路松鹤西湖公园", "image": "", "rank": 15, "time": 2, "location": {"lat": 47.37094340591794, "lng": 130.1383833673195}, "feature": {"sight_features": "", "sight_content": ""}}, {"title": "凤凰山滑雪场", "address": "团结路1号", "image": "", "rank": 16, "time": 2, "location": {"lat": 37.98545200612485, "lng": 114.47886903731127}, "feature": {"sight_features": "", "sight_content": ""}}, {"title": "沿江公园", "address": "桦川宾馆附近", "image": "", "rank": 17, "time": 2, "location": {"lat": 47.044536526844155, "lng": 130.72269436446166}, "feature": {"sight_features": "", "sight_content": ""}}, {"title": "黑龙江三峡国家森林公园", "address": "黑龙江省萝北县太平沟乡兴东村 154232", "image": "", "rank": 18, "time": 2, "location": {"lat": 47.90246349535209, "lng": 130.90381021653687}, "feature": {"sight_features": "", "sight_content": ""}}, {"title": "太平沟乡", "address": "黑龙江省鹤岗市萝北县太平沟乡", "image": "", "rank": 19, "time": 2, "location": {"lat": 47.901314660172304, "lng": 130.90494158741143}, "feature": {"sight_features": "", "sight_content": ""}}, {"title": "鹤岗市博物馆", "address": "黑龙江省鹤岗市工农区艺博图大厦内", "image": "", "rank": 20, "time": 2.5, "location": {"lat": 47.330174040102236, "lng": 130.2889687741287}, "feature": {"sight_features": "", "sight_content": ""}}, {"title": "力欧台球俱乐部", "address": "中国黑龙江省鹤岗市工农区民主街 邮政编码: 154101", "image": "", "rank": 21, "time": 2, "location": {"lat": 47.33834275628284, "lng": 130.28140883707542}, "feature": {"sight_features": "", "sight_content": ""}}, {"title": "蒲公英图书借阅馆", "address": "振兴广场金座B栋一楼门市", "image": "", "rank": 22, "time": 2, "location": {"lat": 47.34807059839566, "lng": 130.30398958490022}, "feature": {"sight_features": "", "sight_content": ""}}, {"title": "鹤岗市图书馆", "address": "艺博图大厦内", "image": "", "rank": 23, "time": 1.5, "location": {"lat": 47.330174040102236, "lng": 130.2889687741287}, "feature": {"sight_features": "", "sight_content": ""}}, {"title": "矿务局峻德矿农场", "address": "一零一省道", "image": "", "rank": 24, "time": 2, "location": {"lat": 36.94585432668124, "lng": 105.2698966594025}, "feature": {"sight_features": "", "sight_content": ""}}, {"title": "欢乐qq农场", "address": "镇前路与009乡道交叉口南200米", "image": "", "rank": 25, "time": 2, "location": {"lat": 42.90771946413277, "lng": 128.411195027392}, "feature": {"sight_features": "", "sight_content": ""}}, {"title": "宏源休闲垂钓园", "address": "蔬园乡日新村二队", "image": "", "rank": 26, "time": 2, "location": {"lat": 47.337979132796214, "lng": 130.25445151426356}, "feature": {"sight_features": "", "sight_content": ""}}, {"title": "伏尔基河生态葡萄采摘园", "address": "新华农场伏尔基河生态葡萄采摘园", "image": "", "rank": 27, "time": 2, "location": {"lat": 47.22281540837637, "lng": 130.40094640788217}, "feature": {"sight_features": "", "sight_content": ""}}, {"title": "大子杨古人类遗址", "address": "黑龙江省大兴安岭地区松岭区松岭南部 150000", "image": "", "rank": 28, "time": 2, "location": {"lat": 50.42002595502784, "lng": 124.15292785448057}, "feature": {"sight_features": "", "sight_content": ""}}, {"title": "鹤岗影剧院", "address": "东解放路11号", "image": "", "rank": 29, "time": 2, "location": {"lat": 47.34731139293669, "lng": 130.28953071992012}, "feature": {"sight_features": "", "sight_content": ""}}, {"title": "繁荣大剧院", "address": "太平路附近", "image": "", "rank": 30, "time": 2, "location": {"lat": 39.62890289140698, "lng": 116.65892343684614}, "feature": {"sight_features": "", "sight_content": ""}}, {"title": "青年农场", "address": "131县道东150米", "image": "", "rank": 31, "time": 2, "location": {"lat": 47.59839933622859, "lng": 131.87609914605102}, "feature": {"sight_features": "", "sight_content": ""}}, {"title": "宝泉岭农场老年活动中心", "address": "宝泉大街33号附近", "image": "", "rank": 32, "time": 2, "location": {"lat": 47.4396971911423, "lng": 130.55189030104574}, "feature": {"sight_features": "", "sight_content": ""}}, {"title": "名山岛金沙滩浴场", "address": "名山岛内", "image": "", "rank": 33, "time": 2, "location": {"lat": 30.075913663381538, "lng": 103.11548579380317}, "feature": {"sight_features": "", "sight_content": ""}}, {"title": "超级女生", "address": "绥滨镇太阳城一楼", "image": "", "rank": 34, "time": 2, "location": {"lat": 21.980861747328873, "lng": 108.62379931882}, "feature": {"sight_features": "", "sight_content": ""}}, {"title": "望云峰滑雪狩猎场", "address": "黑龙江省萝北县太平沟乡石虎沟村 154232", "image": "", "rank": 35, "time": 2, "location": {"lat": 47.90593924025988, "lng": 130.80026963521797}, "feature": {"sight_features": "", "sight_content": ""}}, {"title": "兴安大峡谷地质公园", "address": "名山风景区附近", "image": "", "rank": 36, "time": 4.5, "location": {"lat": 47.68535346478529, "lng": 131.09986868188895}, "feature": {"sight_features": "", "sight_content": ""}}, {"title": "北国影剧院", "address": "松滨大街460号附近", "image": "", "rank": 37, "time": 2, "location": {"lat": 47.292414446523374, "lng": 131.8778589265451}, "feature": {"sight_features": "", "sight_content": ""}}, {"title": "人民剧场", "address": "东解放路11号", "image": "", "rank": 38, "time": 2, "location": {"lat": 47.34731139293669, "lng": 130.28953071992012}, "feature": {"sight_features": "", "sight_content": ""}}, {"title": "松鹤西湖滑雪狩猎场", "address": "黑龙江省鹤岗市工农区松鹤西湖公园内 154100", "image": "", "rank": 39, "time": 2, "location": {"lat": 47.32443029945841, "lng": 130.28161728617408}, "feature": {"sight_features": "", "sight_content": ""}}, {"title": "黑龙江省大兴安岭地区群众艺术馆", "address": "黑龙江省大兴安岭地区世纪大道", "image": "", "rank": 40, "time": 2, "location": {"lat": 50.42002595502784, "lng": 124.15292785448057}, "feature": {"sight_features": "", "sight_content": ""}}, {"title": "鹤岗小兴安岭林区", "address": "黑龙江省萝北县境内 154100", "image": "", "rank": 41, "time": 2.5, "location": {"lat": 47.58342219702872, "lng": 130.83549503650306}, "feature": {"sight_features": "", "sight_content": ""}}, {"title": "古里人工林", "address": "黑龙江省大兴安岭地区松岭区松岭南部 150000", "image": "", "rank": 42, "time": 2, "location": {"lat": 50.42002595502784, "lng": 124.15292785448057}, "feature": {"sight_features": "", "sight_content": ""}}, {"title": "大兴安岭地区方志馆", "address": "黑龙江省大兴安岭地区西一道街", "image": "", "rank": 43, "time": 4.5, "location": {"lat": 50.42002595502784, "lng": 124.15292785448057}, "feature": {"sight_features": "", "sight_content": ""}}, {"title": "宝泉岭体育展览中心", "address": "黑龙江省萝北县宝泉大街", "image": "", "rank": 44, "time": 2, "location": {"lat": 47.439601958674466, "lng": 130.55407446125093}, "feature": {"sight_features": "", "sight_content": ""}}, {"title": "慈禧太后胭脂沟", "address": "黑龙江省萝北县太平沟乡 154232", "image": "", "rank": 45, "time": 2, "location": {"lat": 47.901314660172304, "lng": 130.90494158741143}, "feature": {"sight_features": "", "sight_content": ""}}, {"title": "大兴安岭资源馆", "address": "黑龙江省大兴安岭地区加格达奇区世纪广场南侧 150000", "image": "", "rank": 46, "time": 4.5, "location": {"lat": 50.42002595502784, "lng": 124.15292785448057}, "feature": {"sight_features": "", "sight_content": ""}}, {"title": "Royal Manor罗奥麦诺（总店）", "address": "天水湖宏景花园正门对面", "image": "", "rank": 47, "time": 2, "location": {"lat": 28.004045453917907, "lng": 120.68685469107353}, "feature": {"sight_features": "", "sight_content": ""}}, {"title": "白鹭园山庄", "address": "734村道附近", "image": "", "rank": 48, "time": 2, "location": {"lat": 47.48546666206121, "lng": 130.70139545098942}, "feature": {"sight_features": "", "sight_content": ""}}, {"title": "鹿林山福音堂", "address": "黑龙江省鹤岗市工农区G201(南红旗路)", "image": "", "rank": 49, "time": 2, "location": {"lat": 47.29301403073796, "lng": 130.26830892956912}, "feature": {"sight_features": "", "sight_content": ""}}, {"title": "动漫水世界", "address": "新小鹤立河水库森林山庄北侧200米（新水源水库）水源林场三精路新水源水库", "image": "", "rank": 50, "time": 2, "location": {"lat": 30.13892009961226, "lng": 120.03369863121584}, "feature": {"sight_features": "", "sight_content": ""}}, {"title": "欢乐海洋", "address": "鹤岗市工农区工交路比优特时代广场3层", "image": "", "rank": 51, "time": 2, "location": {"lat": 47.33201631497178, "lng": 130.28911634057144}, "feature": {"sight_features": "", "sight_content": ""}}, {"title": "蓝宝水族馆", "address": "黑龙江省鹤岗市工农区解放路110号", "image": "", "rank": 52, "time": 2, "location": {"lat": 47.339710355983904, "lng": 130.28751466184713}, "feature": {"sight_features": "", "sight_content": ""}}, {"title": "方舟基督教会", "address": "云杉街与尚志路交叉口北50米", "image": "", "rank": 53, "time": 2, "location": {"lat": 47.43073754359043, "lng": 130.55514961257344}, "feature": {"sight_features": "", "sight_content": ""}}, {"title": "以马内利", "address": "园丁街与育才路交叉口西100米", "image": "", "rank": 54, "time": 2, "location": {"lat": 47.32499134246119, "lng": 130.2807982839728}, "feature": {"sight_features": "", "sight_content": ""}}, {"title": "鹤北公园", "address": "黑龙江省鹤岗市萝北县鹤北林业局西侧", "image": "", "rank": 55, "time": 2, "location": {"lat": 47.56152474539401, "lng": 130.46398152419619}, "feature": {"sight_features": "", "sight_content": ""}}, {"title": "儿童乐园", "address": "黑龙江省鹤岗市工农区沙厂路", "image": "", "rank": 56, "time": 2, "location": {"lat": 47.34523268512114, "lng": 130.27767949569986}, "feature": {"sight_features": "", "sight_content": ""}}, {"title": "合兴基督教堂", "address": "鹤岗市东山区", "image": "", "rank": 57, "time": 2, "location": {"lat": 47.34498713557338, "lng": 130.32336109407026}, "feature": {"sight_features": "", "sight_content": ""}}, {"title": "烈士陵园", "address": "101省道附近", "image": "", "rank": 58, "time": 2, "location": {"lat": 41.03241923348195, "lng": 111.82384508727836}, "feature": {"sight_features": "", "sight_content": ""}}, {"title": "萝北县基督教恩惠教会", "address": "萝北县朝鲜族学校附近", "image": "", "rank": 59, "time": 2, "location": {"lat": 47.574375858095046, "lng": 130.83250129235708}, "feature": {"sight_features": "", "sight_content": ""}}, {"title": "磐石教会", "address": "东山街道g6号楼", "image": "", "rank": 60, "time": 1.0, "location": {"lat": 30.749525857998258, "lng": 114.06107350192862}, "feature": {"sight_features": "", "sight_content": ""}}]}