{"cityName": "黑河", "days": "", "cityImage": "", "spots": [{"title": "五大连池风景区", "address": "黑河市五大连池市五大连池镇", "image": "", "rank": 1, "time": 4.5, "location": {"lat": 48.668371956724116, "lng": 126.17258909645845}, "feature": {"sight_features": "特色1 五大连池是一组休眠的火山群，拔地而起，形态各异 特色2 火山口领略大自然的震撼，探秘熔岩冰洞，还可品尝天然药泉。", "sight_content": "白龙洞全长515米，可观赏374米，洞底冰体覆盖光滑如镜，呈阶梯式斜坡状，洞的尽头有两个传说是锁白龙的巨大熔岩石柱，因此民间传为“白龙洞”。\n白龙洞是以霜雪为主的熔洞，洞内全长515米，是一条不折不扣的地下冰河，目前已开发出365米，还有150米属于探险区，洞内四季温度为零下12℃。它是我国目前发现的最长的火山地下熔岩隧道之一。\n\n\n水晶宫位于西焦得布山的桦树林中，这里一年四季结冰，犹如冰雕玉砌的一样，因此，人们称之为冰洞，也誉为水晶宫。水晶宫全长150多米，深23米，洞内平均温度为-5℃，洞壁是各种奇形怪状的熔岩，洞顶是低垂下来的熔岩钟乳。更为美妙的是如玉的霜花遍布洞内，晶莹剔透，洁净素雅，脚下万载寒冰，终年不化，“三伏赏冰雪”是五大连池奇观之一"}}, {"title": "老黑山", "address": "黑河市五大连池市区北10公里", "image": "", "rank": 2, "time": 2.5, "location": {"lat": 48.52260955176269, "lng": 126.21155518831091}, "feature": {"sight_features": "", "sight_content": "黑龙山却是特殊的玄武岩地貌，它的形成原因是：地球深部的岩浆，沿着地壳断裂在远古乌德林湖泊的薄弱地带于1720年溢出，沿着远古湖泊的低洼处流淌,填塞了64平方公里的湖区，留下了45平方公里的堰塞湖，形成了新的火山地质体。\n火山年轮  远古湖岸线 大自然中很多事物都是有生命年轮的，火山也是一样。我们眼前看到的这个新老期火山界，是标志“火山年轮”的边界。脚下的黑色火山复合土是距今已有28-34万年历史的笔架山火山爆发遗迹，地表3-10米或更深土层覆盖下是老期火山喷发所形成的台地。\n石龙台地  龙岩霜塔  放眼四周方圆64平方公里，苍茫无际的青灰色玄武岩使我们步入了无人之境。当年黑龙山喷发时，大股大股的岩浆像一条红色“巨龙”沿着远古乌德邻湖床咆哮着翻腾着倾泻而下。"}}, {"title": "北药泉", "address": "黑河五大连池市五大连池镇药泉西路", "image": "", "rank": 3, "time": 0.75, "location": {"lat": 48.654579251076, "lng": 126.15114069237306}, "feature": {"sight_features": "", "sight_content": ""}}, {"title": "瑷珲古城", "address": "黑河市爱辉区瑷珲镇", "image": "", "rank": 4, "time": 2, "location": {"lat": 50.25770961645177, "lng": 127.50663227086308}, "feature": {"sight_features": "", "sight_content": ""}}, {"title": "锦河大峡谷", "address": "黑河市锦河农场", "image": "", "rank": 5, "time": 2, "location": {"lat": 50.146197111285744, "lng": 127.42170302564251}, "feature": {"sight_features": "特色1 春夏秋冬景色各异", "sight_content": "锦河大峡谷位于黑龙江支流石金河的中游，长约10公里，峡谷最深处达100多米，独特的山势与河流切割形成两个弯曲的、状如欧米伽符号的峡谷，牵手相连、一阴一阳堪称情侣，世间罕见，神奇之极。峡谷区域水秀山清、丛林茂盛、鸟语花香、空气纯净。春夏秋冬景色各异，游人或漫步在林间栈道或矗立观景台远眺，都会让人赞叹不已流连忘返。正如著名的作家梁晓声所言，锦河大峡谷有一种“令人震撼的美丽”。\n有九寨沟之美、张家界之奇、澜沧江大峡谷一样的壮观、卢森堡大峡谷一样的迷人，是一个值得观光游览的好地方。春天，大峡谷春意盎然，满山的山野菜掺杂在翠绿的丛林中，一丛丛一簇簇的达子香散发着沁人心肺的香气。夏天这里是纯天然的氧吧，碧水映蓝天，白云覆绿树，峡谷里鸟语花香，鱼跃蛙鸣。来到这里人们享受着离开喧闹都市的一份宁静与清纯，一份超然与脱俗……"}}, {"title": "火烧山", "address": "黑河市五大连池市老黑山东北2公里处", "image": "", "rank": 6, "time": 0.35, "location": {"lat": 48.72216121288869, "lng": 126.1514860522145}, "feature": {"sight_features": "", "sight_content": ""}}, {"title": "药泉山", "address": "黑河五大连池市五大连池镇二龙泉路", "image": "", "rank": 7, "time": 1.0, "location": {"lat": 48.65312667403088, "lng": 126.14688225264534}, "feature": {"sight_features": "", "sight_content": ""}}, {"title": "大黑河岛", "address": "黑龙江的中部，距离黑河市区70公里", "image": "", "rank": 8, "time": 1.0, "location": {"lat": 50.25127231175015, "lng": 127.53548988621854}, "feature": {"sight_features": "", "sight_content": ""}}, {"title": "《闯关东》朱家大院", "address": "黑河市爱辉区锦河农场", "image": "", "rank": 9, "time": 2, "location": {"lat": 50.146197111285744, "lng": 127.42170302564251}, "feature": {"sight_features": "", "sight_content": ""}}, {"title": "中俄民族风情园", "address": "黑河市环城东路1号", "image": "", "rank": 10, "time": 2, "location": {"lat": 50.25333369759681, "lng": 127.52307943986914}, "feature": {"sight_features": "", "sight_content": ""}}, {"title": "二龙泉", "address": "黑河五大连池市五大连池镇二龙泉路", "image": "", "rank": 11, "time": 0.5, "location": {"lat": 48.65312667403088, "lng": 126.14688225264534}, "feature": {"sight_features": "", "sight_content": ""}}, {"title": "温泊", "address": "黑河市五大连池市五大连池镇五大连池风景区内", "image": "", "rank": 12, "time": 2, "location": {"lat": 48.70424150400512, "lng": 126.16715662353091}, "feature": {"sight_features": "", "sight_content": ""}}, {"title": "南药泉", "address": "黑河五大连池市五大连池镇药泉西路", "image": "", "rank": 13, "time": 0.5, "location": {"lat": 48.654579251076, "lng": 126.15114069237306}, "feature": {"sight_features": "", "sight_content": ""}}, {"title": "龙门石寨", "address": "黑河市五大连池市五大连池镇东部", "image": "", "rank": 14, "time": 1.75, "location": {"lat": 48.668371956724116, "lng": 126.17258909645845}, "feature": {"sight_features": "", "sight_content": "龙门石寨科考观光区，是古火山石塘地质生态观光区。走进石塘神秘而古老的环境，体验几十万年前的生态多样性植物群落和火山风光，会使你浮想联翩，趣味盎然。这个观光区有可介绍景观景点54处，观赏栈道、栈桥3000余米。\n龙门石寨  “石啸山崩浪涛天，疑是陨星降世眠。古道彩林玉观音，熔岩城寨展奇观。”28－34万年间，龙门山首期喷发的盾火山滚滚岩浆似大河奔流，浩浩荡荡顺坡而下。上部凝固后，下部的岩流推进破裂成块，后经多次龙门山喷发运动和大地震筛抖推移，形成了景象万千、造型奇绝的熔岩景观。"}}, {"title": "知青影视基地", "address": "黑河市爱辉区锦河农场", "image": "", "rank": 15, "time": 2, "location": {"lat": 50.146197111285744, "lng": 127.42170302564251}, "feature": {"sight_features": "", "sight_content": ""}}, {"title": "龙珠远东国际滑雪场", "address": "黑河市西北约15公里处的卧牛湖风景名胜区", "image": "", "rank": 16, "time": 2, "location": {"lat": 50.25127231175015, "lng": 127.53548988621854}, "feature": {"sight_features": "", "sight_content": ""}}, {"title": "库尔滨河漂流", "address": "黑河市逊克县库尔滨大桥", "image": "", "rank": 17, "time": 2, "location": {"lat": 49.569491435700485, "lng": 128.48558459529426}, "feature": {"sight_features": "", "sight_content": ""}}, {"title": "五道豁洛度假区", "address": "黑河市爱辉区", "image": "", "rank": 18, "time": 2, "location": {"lat": 50.25770961645177, "lng": 127.50663227086308}, "feature": {"sight_features": "", "sight_content": ""}}, {"title": "嫩江高峰森林公园", "address": "黑龙江省黑河市嫩江县高峰林场施业区内", "image": "", "rank": 19, "time": 1.0, "location": {"lat": 49.112442288827644, "lng": 125.26124488591282}, "feature": {"sight_features": "", "sight_content": ""}}, {"title": "五大连池山口湖", "address": "黑龙江省黑河市五大连池市二龙山火车站东20公里", "image": "", "rank": 20, "time": 2, "location": {"lat": 48.4994714863043, "lng": 126.69781211552801}, "feature": {"sight_features": "特色1 黑龙江省独具魅力的旅游胜地，国家AAA级景区，国家级水利风景名胜区，黑龙江省级自然保护区！ 特色2 山口湖水质优良，自然饵料丰富，84平方公里的养殖水面、近10亿立方米的水体中盛产着30多种淡水鱼类！ 特色3 山口湖风景名胜区与五大连池火山风景区、大沾河漂流形成黑河南部旅游网，是您度假旅游、避暑休闲的最佳选择地！", "sight_content": "山口湖旅游区位于“中国矿泉水之乡”五大连池市境内的讷谟尔河上游，距北安市45公里、五大连池火山公园景区68公里、五大连池市52公里，是黑龙江省独具魅力的旅游胜地，国家aaa级景区，国家级水利风景名胜区，黑龙江省级自然保护区。\n主要景点有生态景观、水上娱乐、湖光山色、水鸟世界等四大景区，在景区内有84平方公里烟波浩渺的水面，鸥鸟盘旋；湖心岛上绿景垂帘，轻舟过处，水波荡漾。湖中的金龟山、怪石山、八戒石、石猿山、石林、忘忧石、东、西炮台山岛、老道营岛等天然景观与人文景观相得益彰，让您在感叹大自然鬼斧神工般的造化之余，会更加由衷感叹人类改造自然的伟大力量。当您进入水鸟世界，可以看到鸳鸯、中华沙秋鸥、丹顶鹤、飞龙、灰鹤、野猪、马鹿等30多种珍奇动物，使您真正体会到“鸟鸣山更幽”的空旷与怡静。带给您无尽的乡情野趣。游区内还开辟了游湖、漂流、水上乐园、垂钓场等娱乐项目，山口湖风景名胜区与五大连池火山风景区、大沾河漂流形成黑河南部旅游网，是您度假旅游、避暑休闲的最佳选择地。"}}, {"title": "白龙洞", "address": "黑河市五大连池市五大连池镇东8公里处", "image": "", "rank": 21, "time": 1.5, "location": {"lat": 48.52260955176269, "lng": 126.21155518831091}, "feature": {"sight_features": "", "sight_content": ""}}, {"title": "胜山狩猎场", "address": "黑河市爱辉区，距黑河市区124公里", "image": "", "rank": 22, "time": 1.0, "location": {"lat": 50.25770961645177, "lng": 127.50663227086308}, "feature": {"sight_features": "", "sight_content": ""}}, {"title": "鄂伦春民俗旅游区", "address": "黑河市爱辉区新生鄂伦春民族乡", "image": "", "rank": 23, "time": 2, "location": {"lat": 50.51589760960194, "lng": 126.80552366407558}, "feature": {"sight_features": "", "sight_content": ""}}, {"title": "水晶宫", "address": "黑河市五大连池市五大连池镇五大连池风景区内", "image": "", "rank": 24, "time": 2, "location": {"lat": 48.70424150400512, "lng": 126.16715662353091}, "feature": {"sight_features": "", "sight_content": ""}}, {"title": "淘金古驿站", "address": "黑河市锦河农场", "image": "", "rank": 25, "time": 2, "location": {"lat": 50.146197111285744, "lng": 127.42170302564251}, "feature": {"sight_features": "", "sight_content": ""}}, {"title": "胜山要塞国家森林公园", "address": "黑河市孙吴县满达乡境内", "image": "", "rank": 26, "time": 2, "location": {"lat": 49.535186145006186, "lng": 127.74307738594347}, "feature": {"sight_features": "", "sight_content": ""}}, {"title": "中华人民共和国黑河口岸", "address": "黑河市爱辉区大黑河岛", "image": "", "rank": 27, "time": 2, "location": {"lat": 50.255391601385256, "lng": 127.54095613633156}, "feature": {"sight_features": "", "sight_content": ""}}, {"title": "水电站风光", "address": "库尔滨水电站距逊克160多公里", "image": "", "rank": 28, "time": 1.0, "location": {"lat": 49.569491435700485, "lng": 128.48558459529426}, "feature": {"sight_features": "", "sight_content": ""}}, {"title": "黑河博物馆", "address": "海兰街4号", "image": "", "rank": 29, "time": 2.5, "location": {"lat": 50.26099989690403, "lng": 127.48259074083829}, "feature": {"sight_features": "", "sight_content": ""}}, {"title": "沾河漂流", "address": "黑河市逊克县新兴乡", "image": "", "rank": 30, "time": 2, "location": {"lat": 49.36341391758281, "lng": 129.01513461636128}, "feature": {"sight_features": "", "sight_content": ""}}, {"title": "知青博物馆", "address": "黑河市爱辉镇", "image": "", "rank": 31, "time": 1.25, "location": {"lat": 49.990774542738095, "lng": 127.49788959333466}, "feature": {"sight_features": "", "sight_content": ""}}, {"title": "黑龙江公园", "address": "黑河市爱辉区王肃街9号", "image": "", "rank": 32, "time": 2, "location": {"lat": 50.26099125872691, "lng": 127.5001840542513}, "feature": {"sight_features": "", "sight_content": ""}}, {"title": "旅俄华侨纪念馆", "address": "黑龙江省黑河市爱辉区王肃街", "image": "", "rank": 33, "time": 2, "location": {"lat": 50.25511454353718, "lng": 127.51714020854916}, "feature": {"sight_features": "", "sight_content": ""}}, {"title": "五大连池世界地质公园博物馆", "address": "五大连池市石龙北路", "image": "", "rank": 34, "time": 1.5, "location": {"lat": 48.66799715530439, "lng": 126.14277353439527}, "feature": {"sight_features": "", "sight_content": ""}}, {"title": "白龙湖(三池)", "address": "黑河市五大连池市五大连池镇五大连池景区", "image": "", "rank": 35, "time": 2, "location": {"lat": 48.668371956724116, "lng": 126.17258909645845}, "feature": {"sight_features": "", "sight_content": ""}}, {"title": "天池", "address": "黑河市五大连池市五大连池镇五大连池风景区内", "image": "", "rank": 36, "time": 5.0, "location": {"lat": 48.70424150400512, "lng": 126.16715662353091}, "feature": {"sight_features": "", "sight_content": ""}}, {"title": "大岛植物园", "address": "王肃街", "image": "", "rank": 37, "time": 3.5, "location": {"lat": 50.25511454353718, "lng": 127.51714020854916}, "feature": {"sight_features": "", "sight_content": ""}}, {"title": "五大连池风景区火山磁矿泉", "address": "黑河市五大连池风景区三池湖畔温泉国际商务酒店", "image": "", "rank": 38, "time": 2, "location": {"lat": 48.70424150400512, "lng": 126.16715662353091}, "feature": {"sight_features": "特色1 拟申请最大的雪地温矿泉吉尼斯纪录", "sight_content": "五大连池火山雪地温矿泉位于风景区美丽的三池湖畔，设有生态泡池、组合泡池等室内外36个温泉泡池，配有规模宏大的室外影院。\n其五行汤洗泡、功能池洗泡、花泉汤洗泡、茶泉汤洗泡、草本池洗泡、泥浴洗泡、火山石板炕、玉石窑洞等，利用五大连池天然火山矿泉和矿泥资源，辅助以功能齐全的服务项目，让人在此得到身心的放松。"}}, {"title": "五道豁洛岛旅游区", "address": "黑龙江省黑河市爱辉区境内", "image": "", "rank": 39, "time": 2, "location": {"lat": 50.25770961645177, "lng": 127.50663227086308}, "feature": {"sight_features": "", "sight_content": ""}}, {"title": "五道豁洛影视城", "address": "黑龙江省黑河市爱辉区黑河市西部", "image": "", "rank": 40, "time": 2, "location": {"lat": 50.25770961645177, "lng": 127.50663227086308}, "feature": {"sight_features": "", "sight_content": ""}}, {"title": "人民公园", "address": "北安市中央路9道街", "image": "", "rank": 41, "time": 2.5, "location": {"lat": 48.26723904918403, "lng": 126.50918958513661}, "feature": {"sight_features": "", "sight_content": ""}}, {"title": "庆华军工遗址博物馆", "address": "黑河市北安市庆华路", "image": "", "rank": 42, "time": 2, "location": {"lat": 48.24917747761432, "lng": 126.5330025781549}, "feature": {"sight_features": "", "sight_content": ""}}, {"title": "药泉山钟灵禅寺", "address": "黑龙江省五大连池市五大连池风景区内 161100", "image": "", "rank": 43, "time": 2.0, "location": {"lat": 48.70424150400512, "lng": 126.16715662353091}, "feature": {"sight_features": "", "sight_content": ""}}, {"title": "文化广场", "address": "交通路67号文化广场(东北门)附近", "image": "", "rank": 44, "time": 1.5, "location": {"lat": 31.25754824090077, "lng": 121.48300676681932}, "feature": {"sight_features": "", "sight_content": ""}}, {"title": "卧龙滩山庄", "address": "长水河农场十六队东3公里", "image": "", "rank": 45, "time": 2, "location": {"lat": 48.35238204274643, "lng": 127.26415233936662}, "feature": {"sight_features": "", "sight_content": ""}}, {"title": "中国民族博物馆(鄂伦春族分馆)", "address": "国防路", "image": "", "rank": 46, "time": 2, "location": {"lat": 42.38960069334583, "lng": 126.80861987145664}, "feature": {"sight_features": "", "sight_content": ""}}, {"title": "抗战纪念馆", "address": "黑龙江省黑河市孙吴县火车站门前", "image": "", "rank": 47, "time": 0.5, "location": {"lat": 49.43249664309131, "lng": 127.33085345483974}, "feature": {"sight_features": "", "sight_content": ""}}, {"title": "山口坝下漂流", "address": "讷谟尔河上游山口坝下漂流", "image": "", "rank": 48, "time": 2, "location": {"lat": 48.541108485265426, "lng": 125.69369799055868}, "feature": {"sight_features": "", "sight_content": ""}}, {"title": "二龙山森林植物园", "address": "黑河市五大连池市", "image": "", "rank": 49, "time": 2, "location": {"lat": 48.52260955176269, "lng": 126.21155518831091}, "feature": {"sight_features": "", "sight_content": ""}}, {"title": "海江公园", "address": "嫩呼公路北200米", "image": "", "rank": 50, "time": 2, "location": {"lat": 49.90210323225194, "lng": 125.60055086687169}, "feature": {"sight_features": "", "sight_content": ""}}, {"title": "北安博物馆", "address": "黑河市北安市交通路179号", "image": "", "rank": 51, "time": 2.5, "location": {"lat": 48.247419532218935, "lng": 126.49737974225795}, "feature": {"sight_features": "", "sight_content": ""}}, {"title": "黑龙江省委省政府办公旧址陈列馆", "address": "黑河市北安市交通路", "image": "", "rank": 52, "time": 2, "location": {"lat": 48.247419532218935, "lng": 126.49737974225795}, "feature": {"sight_features": "", "sight_content": ""}}, {"title": "铁西广场", "address": "北安市市政府前", "image": "", "rank": 53, "time": 2, "location": {"lat": 48.245894038934296, "lng": 126.49783010772539}, "feature": {"sight_features": "", "sight_content": ""}}, {"title": "五大连池漂流", "address": "黑河五大连池市五大连池镇五大连池风景区矿泉西路石龙河桥北", "image": "", "rank": 54, "time": 2, "location": {"lat": 48.62808066063065, "lng": 126.16518169347738}, "feature": {"sight_features": "", "sight_content": ""}}, {"title": "五大连池风景区白龙湖露营旅游基...", "address": "黑龙江省黑河市五大连池市五大连池风景区白龙湖畔(三池子边)150米", "image": "", "rank": 55, "time": 2, "location": {"lat": 48.70424150400512, "lng": 126.16715662353091}, "feature": {"sight_features": "", "sight_content": ""}}, {"title": "省工人疗养院", "address": "黑河市五大连池市石龙北路", "image": "", "rank": 56, "time": 2, "location": {"lat": 48.66799715530439, "lng": 126.14277353439527}, "feature": {"sight_features": "", "sight_content": ""}}, {"title": "逊克农场石景山庄旅游度假区", "address": "黑龙江省黑河逊克县逊克农场", "image": "", "rank": 57, "time": 2, "location": {"lat": 49.24256235817428, "lng": 128.11421374827523}, "feature": {"sight_features": "", "sight_content": ""}}, {"title": "大沾河国家森林公园", "address": "五大连池市沾河林业局辖区内", "image": "", "rank": 58, "time": 7.5, "location": {"lat": 48.652198735090195, "lng": 126.63533343390114}, "feature": {"sight_features": "", "sight_content": ""}}, {"title": "逊克大平台雾凇风景区", "address": "黑龙江省黑河市逊克县东南部山区克林乡", "image": "", "rank": 59, "time": 2, "location": {"lat": 48.73197812675334, "lng": 128.94188776782343}, "feature": {"sight_features": "", "sight_content": ""}}, {"title": "嫩江会展中心", "address": "育才大街384号附近", "image": "", "rank": 60, "time": 2.5, "location": {"lat": 49.17145357765112, "lng": 125.22631130564045}, "feature": {"sight_features": "", "sight_content": ""}}]}