{"cityName": "黑山", "days": "", "cityImage": "", "spots": [{"title": "南湖公园", "address": "锦州市黑山县东外环路", "image": "", "rank": 1, "time": 2.5, "location": {"lat": 41.69862027788257, "lng": 122.13435137733372}, "feature": {"sight_features": "", "sight_content": ""}}, {"title": "巴厘岛欢乐水世界", "address": "镇安羊肠河公交中转站", "image": "", "rank": 2, "time": 3.5, "location": {"lat": 33.42904465014651, "lng": 109.15957460913961}, "feature": {"sight_features": "", "sight_content": ""}}, {"title": "阻击战纪念馆", "address": "锦州市黑山县304省道北50米", "image": "", "rank": 3, "time": 3.0, "location": {"lat": 41.73132440648758, "lng": 122.06151282841336}, "feature": {"sight_features": "", "sight_content": ""}}, {"title": "冷弯弓友俱乐部", "address": "黑山电视台东", "image": "", "rank": 4, "time": 2, "location": {"lat": 41.705648094185634, "lng": 122.12308637111984}, "feature": {"sight_features": "", "sight_content": ""}}, {"title": "刘术凡美术社", "address": "307省道", "image": "", "rank": 5, "time": 2, "location": {"lat": 40.264498296993764, "lng": 116.57268632168496}, "feature": {"sight_features": "", "sight_content": ""}}, {"title": "甸子梁", "address": "河北省蔚县蔚县南端 075700", "image": "", "rank": 6, "time": 2, "location": {"lat": 39.84708863636645, "lng": 114.59540055179599}, "feature": {"sight_features": "", "sight_content": ""}}, {"title": "佛光普照", "address": "中大中路14号附近", "image": "", "rank": 7, "time": 2, "location": {"lat": 41.6990751251438, "lng": 122.12705625266008}, "feature": {"sight_features": "", "sight_content": ""}}, {"title": "黑山公墓", "address": "黑山镇东关村贺家洼东山", "image": "", "rank": 8, "time": 2.5, "location": {"lat": 47.34498713557338, "lng": 130.32336109407026}, "feature": {"sight_features": "", "sight_content": ""}}, {"title": "龙泉动漫水世界", "address": "黑山县大虎山镇西村望山屯省道S307明远服装公司南隔壁", "image": "", "rank": 9, "time": 2, "location": {"lat": 41.625907379074384, "lng": 122.15699330515345}, "feature": {"sight_features": "", "sight_content": ""}}, {"title": "关帝庙", "address": "锦州市黑山县", "image": "", "rank": 10, "time": 0.5, "location": {"lat": 41.67159298377575, "lng": 122.130557039063}, "feature": {"sight_features": "", "sight_content": ""}}, {"title": "丹慕求鱼水族馆", "address": "辽宁省锦州市黑山县中大路", "image": "", "rank": 11, "time": 2, "location": {"lat": 41.69852276408584, "lng": 122.12557516336575}, "feature": {"sight_features": "", "sight_content": ""}}, {"title": "基督教堂(黑山县农业技术推广站...", "address": "辽宁省锦州市黑山县黑山街道基督教堂", "image": "", "rank": 12, "time": 2, "location": {"lat": 41.69374849457244, "lng": 122.10513571536828}, "feature": {"sight_features": "", "sight_content": ""}}, {"title": "胡家烈士陵园", "address": "辽宁省锦州市黑山县", "image": "", "rank": 13, "time": 2, "location": {"lat": 41.67159298377575, "lng": 122.130557039063}, "feature": {"sight_features": "", "sight_content": ""}}, {"title": "观音阁", "address": "辽宁省锦州市黑山县小东种畜场中国农业银行东50米", "image": "", "rank": 14, "time": 1.0, "location": {"lat": 41.68950135699064, "lng": 122.12818921982351}, "feature": {"sight_features": "", "sight_content": ""}}, {"title": "老地方戏剧场", "address": "黑山宾馆20米胡同", "image": "", "rank": 15, "time": 2, "location": {"lat": 41.7014329560801, "lng": 122.129708207729}, "feature": {"sight_features": "", "sight_content": ""}}, {"title": "锦州黑山莲花湖", "address": "辽宁省黑山县姜屯镇", "image": "", "rank": 16, "time": 4.5, "location": {"lat": 41.725910954190226, "lng": 122.41912850795265}, "feature": {"sight_features": "", "sight_content": ""}}, {"title": "黑山春天商业街", "address": "辽宁省黑山县中大中路", "image": "", "rank": 17, "time": 7.5, "location": {"lat": 41.705079643563515, "lng": 122.1255108078607}, "feature": {"sight_features": "", "sight_content": ""}}]}