{"cityName": "黑水", "days": 2, "cityImage": "", "spots": [{"title": "达古冰山地质公园", "address": "阿坝藏族羌族自治州黑水县境内", "image": "", "rank": 1, "time": 3.5, "location": {"lat": 32.067805449367526, "lng": 102.99651735613097}, "feature": {"sight_features": "特色1 春观山花、夏赏冰、秋品红叶、冬抚雪。 特色2 咂酒文化、铠甲舞、多声部民歌与红军文化源远流长。", "sight_content": "达古冰山风景名胜区位于中国.四川.阿坝藏族羌族自治州黑水县境内，东经102.44.15-102.52.46，北纬32.12.30-32.17.06，系现代山地冰川群。景区保护面积632平方公里，旅游规划面积210平方公里，是镶嵌在中国.四川.阿坝州.大九寨国际旅游区上的又一颗璀璨明珠。\n景区内雪峰、冰川、彩林、藏情、湖泊、野生动植物资源丰富。春观山花、夏赏冰、秋品红叶、冬抚雪，是您旅游的好去处！走进远古、探古溯源，\"达古冰山\"因此得名。\n达古冰山生态彩林区：文字：红叶如织、层林尽染的彩林宛如一副鲜艳欲滴的油彩画。漫山遍野的丹枫在燃烧、浪漫的激情在奔腾。秋风而过，彩林随风而舞，滔滔彩浪绵绵不绝地翻滚着，叫人禁不住进入这梦幻的彩色仙境。"}}, {"title": "色尔古藏寨", "address": "阿坝藏族羌族自治州黑水县302省道旁", "image": "", "rank": 2, "time": 2.5, "location": {"lat": 32.19316902183221, "lng": 102.67388150001455}, "feature": {"sight_features": "特色1 赏民俗盛宴，展非遗文化、民俗体验活动 特色2 川西北的小布达拉宫。", "sight_content": "色尔古藏寨位于青藏高原的东南边，横断山脉中段的黑水县境内，守着一个险要的军事要点。寨子依山而建，远远望去只能看见与山同色的寨子轮廓，要接近它还得突破寨子选中的第一道天然防线——猛河和五里沟。\n不是历史没有发现她，而是她不屑于正视历史。\n这是岷江上游最早有文字记载的村落，汉史将她早期的形象永恒定格在古蚕陵县那遥远的过去。1933年发生了松潘大地震，古蚕陵县永远的沉静在叠溪海子的岷水中，而今她成为旁证古蚕陵县存在的唯一所在。\n公元689年，唐王朝在色尔古设置了悉州俯和左封县两个建置的政权机构，并修筑了州俯。719年，唐朝在色尔古建置左封县守提，驻兵500人。在与吐蕃的长期拉锯战中，768年州城被吐蕃攻陷，色尔古开始进入藏文化的初级融合阶段。元朝时期色尔古属于叠溪千户管辖，元朝的动荡政局对边陲的鞭长莫及，使得藏文化的融合不离其左右。而从明朝开始色尔古进入土司统治时期，历史上白石文化与嘉绒文化的大融合拉开序幕。土司的统治由明朝的杂谷土司至清朝的梭磨土司，色尔古深受处于强势地位的藏文化的辐射和熏陶。到了20世纪30年代，在文化的冲突与融合中，色尔古形成了鲜明独特的嘉绒文化气质与风貌。也因为她始终处于历史旋涡的中心，逐步形成了开放型的进取的宗教精神。\n多少春秋代序的轮回，烽火狼烟的夜夜守望，她担待；多少斗转星移的逆转，刀光剑影的血腥杀伐，她承受。她屹立在藏、羌、汉三个民族的交叉地带，各种文化在战争与和平中冲突融合，而最终形成了以藏传佛教为主流的多元文化体系。\n尘埃散尽，当我们盘桓于她的身边,细细打量，发现她是如此深沉厚重而又丰姿绰约，令人叹为奇观。\n\n\n这就是色尔古，嘉绒藏族第一寨!\n色尔古这个名字充满野性的诱惑。在当地语言中，“色尔”即豹子，“古”是狼的意思。传说，很久很久以前，这里森林茂密，野兽出没，因此得一美名色尔古。\n现在，就让那些岁月凝成的有如星星散落的文化符号，引领我们走进色尔古人神共舞的神秘世界。\n一、神灵在上\n某年某月修建的桥梁轻易破解了这古老的防御体系，走进寨中，总觉得有一双眼睛透过狭小的射击孔窥视着陌生的进入者。色尔古藏寨耸立在山脊的尾部，分上寨、下寨和娃娃寨三个小寨子。全寨一百多户人家，五百多人。\n白石——祖先遗迹，居住权的象征\n在色尔古随处可见的白色石头堆砌在屋顶、门楣、窗楣。这些白色的石头从色尔古祖先最早进入这个地区便镶嵌在寨子的年轮中。相传色尔古的祖先在进入这一区域时常常受到其他部落的侵扰，冷兵器时代的寨子总也摆脱不了这种侵扰，有一天晚上，寨中人同时做了一个梦，梦见有一个老者告诉他们用白色的石头击退入侵者。梦醒后人们照着梦中老者的说法果真击败了侵扰者捍卫住了家园，从此代表着居住权的符号就这样镶嵌在了房屋的屋顶、窗檐、门楣。\n接引石——灵魂升天的地方是否能带着痛与快乐回到祖先最初的家园?\n接引石，听这名称很多人都会纳闷，这到底是什么?\n这是寨中人死后灵魂升天的地方。\n看上去，这是块很普通的大石头。也许，从亘古的某个烈日起他就一直待在那儿了。直到有一天，有人在他身边修了几座石头房子，并赋予它宗教的含义，它便成了从时间尽头走向天国的一个起点。\n接引石突兀的座落在一处高地，火葬场到接引石只有几百米远，一高一低遥遥相望，石头两边修建的房屋将石头夹在一个通道中。通道一面对着寨子的火葬场，一面对着苍天，接引石犹如一个莲台连接着天与地。\n当生命的时间永远的停留在某个点上，亲人们要在火葬场为他举行一场隆重的仪式，然后将灵魂送上最后一程——从火葬场到接引石。从此，思念在两个世界里细细的流淌。这几百米隔出了两个截然不同的世界，接着天与地的思绪。\n接引石因为它的特殊性，任何时候人们都不会用身体去接触它。\n远古的色尔古人会请法师将灵魂送回祖先的发祥地吗?不知道。只知道寨中人将生命的归属，从一个自认为离天很近的地方送入想象中的乐园，期望那交融着痛与快乐的灵魂，能在天国安宁的栖息。\n而“他到达的天国是否在时间的尽头开满了鲜花”?\n喇嘛庙——寺庙分男女\n寨子的后山上，两个隔沟相望的山头，山头上分别有一个寺庙。寨中人称左边山头上的寺庙为男庙，右边山头的寺庙为女庙。\n左边山头上除了一座寺庙，光秃秃的什么都没有；右边山头上除了寺庙，庙门口还有一棵繁茂的树。传说是左边山头上的男庙送给女庙的发簪。女人都有爱美的天性，而男人有欣赏美的天性。那鲜活的“发簪”便别在了女庙的头上。\n美丽与否对寨中人来说其实是次要的，倾注在寺庙里的虔诚才是寨中人最真切的本意。寨子里的人讲，谁家想生儿子的就到男庙去祈求，想生女儿的人就到女庙里祈求，两个寺庙的香火都很旺。除了祈求得到自己意愿中的儿女，寨子里的人们大小事情都要到寺庙里祈福。"}}, {"title": "卡龙沟", "address": "阿坝藏族羌族自治州黑水县麦扎乡境内", "image": "", "rank": 3, "time": 3.0, "location": {"lat": 32.33703867978976, "lng": 103.29192175264495}, "feature": {"sight_features": "特色1 省级风景名胜区，有“小九寨”之称。 特色2 密布森林彩池与森林峡谷、景色迷人。 特色3 数百彩池，恍入仙景；绵延石林，蔚为壮观。", "sight_content": "卡龙沟有小九寨之称的卡龙沟位于岷山山脉与邛崃山脉交汇处的黑水县麦扎乡境内，总面积403平方公里，平均海拔3544米，距成都310公里，距黑水县城70公里。\n“卡龙”藏语音为“卡洛洛”，翻译成汉文意为“花海沟” 卡龙沟以独特的钙华景观为主要特色，兼具彩林、高山石林、天然溶洞、原始森林、峡谷景观、雪山等丰富多彩的自然景观为一体。作为当地藏民的圣地，卡龙沟的植物群落从未遭到过破坏，生态环境优良。整个沟内，溪水潺潺，形成了若干个形态各异、结构精巧的彩池，流金溢彩。水滋润着万物，使整个沟中的空气湿度很大，云烟氤氲，细雨霏霏，冷气透骨。水育了树，树荫了苔藓，苔藓保持了湿润，平衡的生态环境使沟内的钙华发育得更好。\n\n卡龙沟左侧支沟内大小不同、形状各异、结构精巧的数百彩池，使人恍入仙景；那绵延数十里千姿百态的石林蔚为壮观；落差大、瀑布陡以及成群出现等特点胜于九寨黄龙瀑布的泉华飞瀑更使人流连忘返；此外，像翡翠金坡、钙华奇洞之类的景点，亦独具神采。景区主要景观有：藏族风情、密林峡谷、钙华彩池、仙池盆景、原始森林、高山石林、钙华飞瀑、苔藓彩池坡、神水金坡、钙华溶洞等。"}}, {"title": "奶子沟彩林谷", "address": "阿坝藏族羌族自治州黑水县到州府马尔康县的大道旁", "image": "", "rank": 4, "time": 2.5, "location": {"lat": 32.067805449367526, "lng": 102.99651735613097}, "feature": {"sight_features": "", "sight_content": ""}}, {"title": "雅克夏森林公园", "address": "阿坝藏族羌族自治州黑水县西部沙石多乡境内", "image": "", "rank": 5, "time": 3.0, "location": {"lat": 32.10747394256836, "lng": 102.81738405623268}, "feature": {"sight_features": "", "sight_content": ""}}, {"title": "三奥雪山", "address": "阿坝藏族羌族自治州黑水县芦花镇", "image": "", "rank": 6, "time": 2.5, "location": {"lat": 32.08349474084335, "lng": 102.98958367186573}, "feature": {"sight_features": "", "sight_content": ""}}, {"title": "三达古藏寨", "address": "阿坝藏族羌族自治州黑水县芦花镇达古冰山景区内", "image": "", "rank": 7, "time": 2.5, "location": {"lat": 32.08349474084335, "lng": 102.98958367186573}, "feature": {"sight_features": "", "sight_content": "三达古因上达古、中达古、下达古三个藏族村寨而得名。目前，全村总人口419人，讲安多语，信仰藏传佛教，崇拜白石。这里民风淳厚，民情古朴，人们过着悠然自得，恬静安祥的生活。"}}, {"title": "黑水县", "address": "阿坝藏族羌族自治州下辖县", "image": "", "rank": 8, "time": 3.0, "location": {"lat": 31.905511577266523, "lng": 102.23141546175019}, "feature": {"sight_features": "", "sight_content": ""}}, {"title": "哈姆湖", "address": "阿坝藏族羌族自治州黑水县南街出城2公里的处", "image": "", "rank": 9, "time": 1.5, "location": {"lat": 32.067805449367526, "lng": 102.99651735613097}, "feature": {"sight_features": "", "sight_content": ""}}, {"title": "人间仙境", "address": "达古冰川位于黑水县芦花镇三达古村境内的达古雪山上", "image": "", "rank": 10, "time": null, "location": {"lat": 32.12039348688085, "lng": 102.94864647584315}, "feature": {"sight_features": "", "sight_content": ""}}, {"title": "七彩甲足藏寨", "address": "阿坝藏族羌族自治州黑水县302省道", "image": "", "rank": 11, "time": 2, "location": {"lat": 32.19316902183221, "lng": 102.67388150001455}, "feature": {"sight_features": "", "sight_content": ""}}, {"title": "奶子沟村", "address": "四川省阿坝藏族羌族自治州黑水县奶子沟村", "image": "", "rank": 12, "time": 2, "location": {"lat": 32.13181257727848, "lng": 102.76935123032584}, "feature": {"sight_features": "", "sight_content": ""}}, {"title": "德青郎寺", "address": "四川阿坝藏族羌族自治州黑水县芒花乡十白尔古寨西北约两公里处", "image": "", "rank": 13, "time": 2, "location": {"lat": 32.067805449367526, "lng": 102.99651735613097}, "feature": {"sight_features": "", "sight_content": ""}}, {"title": "高山杜鹃林", "address": "位于黑水县芦花镇三达古村境内的达古雪山上", "image": "", "rank": 14, "time": 0.75, "location": {"lat": 32.08349474084335, "lng": 102.98958367186573}, "feature": {"sight_features": "", "sight_content": ""}}, {"title": "芦花会议会址", "address": "阿坝藏族羌族自治州黑水县芦花镇泽盖村", "image": "", "rank": 15, "time": 1.0, "location": {"lat": 32.099557033198096, "lng": 102.98495195296134}, "feature": {"sight_features": "", "sight_content": ""}}, {"title": "红军湖", "address": "阿坝藏族羌族自治州黑水县芦花镇达古冰山景区内", "image": "", "rank": 16, "time": 1.0, "location": {"lat": 32.08349474084335, "lng": 102.98958367186573}, "feature": {"sight_features": "", "sight_content": ""}}, {"title": "东措日月海", "address": "阿坝藏族羌族自治州黑水县芦花镇达古冰山景区内", "image": "", "rank": 17, "time": 1.0, "location": {"lat": 32.08349474084335, "lng": 102.98958367186573}, "feature": {"sight_features": "", "sight_content": ""}}, {"title": "鸿运坡", "address": "阿坝藏族羌族自治州黑水县芦花镇达古冰山景区内", "image": "", "rank": 18, "time": 0.4, "location": {"lat": 32.08349474084335, "lng": 102.98958367186573}, "feature": {"sight_features": "", "sight_content": ""}}, {"title": "凌云瀑布", "address": "阿坝藏族羌族自治州黑水县芦花镇达古冰山景区内", "image": "", "rank": 19, "time": 0.75, "location": {"lat": 32.08349474084335, "lng": 102.98958367186573}, "feature": {"sight_features": "", "sight_content": ""}}, {"title": "宁玛派寺庙", "address": "阿坝藏族羌族自治州黑水县沙板沟村", "image": "", "rank": 20, "time": 1.0, "location": {"lat": 32.06374755576062, "lng": 102.99447507382524}, "feature": {"sight_features": "", "sight_content": ""}}, {"title": "吉祥河谷", "address": "芦花镇谷汝村", "image": "", "rank": 21, "time": 2, "location": {"lat": 32.114539674400554, "lng": 102.98017956390562}, "feature": {"sight_features": "", "sight_content": ""}}, {"title": "吉祥三宝殿", "address": "阿坝黑水县芦花镇风情小镇", "image": "", "rank": 22, "time": 2, "location": {"lat": 32.094086616613744, "lng": 102.9858404759243}, "feature": {"sight_features": "", "sight_content": ""}}, {"title": "黑水达古冰山旅游度假村", "address": "九寨沟阿坝黑水县风情小镇", "image": "", "rank": 23, "time": 2, "location": {"lat": 32.09060105601292, "lng": 102.98701817870213}, "feature": {"sight_features": "", "sight_content": ""}}, {"title": "黑水县档案馆", "address": "302省道", "image": "", "rank": 24, "time": 3.5, "location": {"lat": 40.09862711264105, "lng": 117.61062300284506}, "feature": {"sight_features": "", "sight_content": ""}}, {"title": "俄恩村", "address": "阿坝藏族羌族自治州-黑水县", "image": "", "rank": 25, "time": null, "location": {"lat": 32.067805449367526, "lng": 102.99651735613097}, "feature": {"sight_features": "", "sight_content": ""}}, {"title": "红色昌德", "address": "阿坝藏族羌族自治州黑水县昌德村", "image": "", "rank": 26, "time": 2, "location": {"lat": 32.13485559316342, "lng": 102.88337481865727}, "feature": {"sight_features": "", "sight_content": ""}}, {"title": "羊茸哈德", "address": "四川省阿坝州黑水县(距黑水县城18公里，距达古冰山8公里)", "image": "", "rank": 27, "time": 3.0, "location": {"lat": 32.067805449367526, "lng": 102.99651735613097}, "feature": {"sight_features": "", "sight_content": ""}}]}