{"cityName": "和静", "days": 2, "cityImage": "", "spots": [{"title": "九曲十八弯", "address": "巴音布鲁克", "image": "", "rank": 1, "time": 2.5, "location": {"lat": 42.90007148722786, "lng": 83.82760373394485}, "feature": {"sight_features": "", "sight_content": ""}}, {"title": "巩乃斯林场", "address": "巴音郭楞蒙古自治州和静县，巴音布鲁克北100公里", "image": "", "rank": 2, "time": 2.5, "location": {"lat": 43.55695996976094, "lng": 83.82760373394485}, "feature": {"sight_features": "", "sight_content": ""}}, {"title": "库尔勒", "address": "新疆中部，天山南麓", "image": "", "rank": 3, "time": 9.0, "location": {"lat": 43.80027135831345, "lng": 87.63840777756565}, "feature": {"sight_features": "", "sight_content": ""}}, {"title": "巴仑台黄庙", "address": "和静县北部天山深处巴仑台镇老巴仑台沟内", "image": "", "rank": 4, "time": 2, "location": {"lat": 42.32936503587904, "lng": 86.39039822069184}, "feature": {"sight_features": "", "sight_content": ""}}, {"title": "新疆巴音布鲁克《东归·印象》实...", "address": "巴州和静县巴音布鲁克镇土尔扈特民俗文化村内", "image": "", "rank": 5, "time": 2, "location": {"lat": 43.02691651274081, "lng": 84.14526571826613}, "feature": {"sight_features": "特色1 重演经典历史，梦回东归故里", "sight_content": "【《东归•印象》实景剧简介】\n《东归•印象》实景演出，因内涵的深厚，其价值远远超出了一般旅游演出的范畴，它以东归英雄史诗为载体，展示出土尔扈特蒙古民族的忠诚爱国的精神境界。\n《东归•印象》将整个巴音布鲁克草原当做流动的舞台，将自然风光与不加雕琢的唱腔和原生态舞蹈融合，史诗般再现浓郁的民族风情。户外实景剧结合室内歌舞表演，展现出土尔扈特文化的丰富层次。该剧分为两大部分：第一部分演出以《回家》为主题，还原1771年沃巴锡率部回归祖国沿途历经千难万阻的过程。夕阳西下，黑色的狼烟笼罩在草原上，骑士骑着战马，马车拉着行李，牧民们赶着羊群推着勒勒车，战胜难以想象的艰难困苦，承受极大的民族牺牲，用勇敢和智慧完成万里归途。\n第二部分《土尔扈特的故乡》，在“土尔扈特民俗文化村”可容纳600人的演艺大厅内，以托布秀尔、萨吾尔登、江格尔等蒙古族歌舞，展现土尔扈特后裔安居乐业的情景和对今后幸福生活的憧憬。"}}, {"title": "巩乃斯景区班禅沟", "address": "新疆巴音郭楞蒙古自治州和静县，巴音布鲁克北100公里", "image": "", "rank": 6, "time": 2, "location": {"lat": 43.55695996976094, "lng": 83.82760373394485}, "feature": {"sight_features": "特色1 展现以“东归文化”为主旋律的草原文化", "sight_content": "巩乃斯景区位于新疆和静县西北部，距和静县城255公里，国道218线贯穿景区。总面积2277平方公里，其中草原面积8.29万公顷，森林面积7.9万公顷。巩乃斯景区与5A级景区巴音布鲁克和伊犁那拉提旅游景区接壤。 2003年被国家林业局评为国家级森林公园；2014年10月荣获中国美丽田园称号；2015年1月成功创建为国家4A级旅游景区。\n巩乃斯地处新疆旅游黄金线上，是和静县旅游资源聚集区，旅游资源及资源类型极为丰富，旅游资源等级、密度在新疆居前列。\n拥有众多优势景点，雪山草原，河流沼泽，湖泊清泉，森林寺庙，冰川岩画组合良好，景观资源品位高，是高质量旅游资源集中分布区。\n景区有风光迷人的巩乃斯国家森林公园、神奇的阿尔先温泉、山花烂漫富有宗教色彩的班禅沟、晨曦雾美的“云梯”、水雾弥漫声如雷鸣的洪加里克瀑布、俊美奇险的伊开结楞沟、令人神往的野猪林等景观，旅游开发前景十分广阔。同时，以“东归文化”为主旋律的草原文化也是巩乃斯旅游资源的一个亮点，是新疆特色旅游的一个重要组成部分。和静县境内已发现的旅游资源共有25个基本类型，上百个资源实体，占全国68个基本类型总数的36.8%。旅游资源的总体水平较高，其中旅游开发价值极高的一级和二级旅游资源实体数量占总数量的30%以上，在巩乃斯景区内均有体现。\n景区发展及建设现状：巩乃斯景区包括巩乃斯镇区、巩乃斯国家森林公园、班禅沟、阿尔先温泉、云梯、斩妖石、安建库热等众多景点。其中已开发或正在开发建设的景（区）点有班禅沟、阿尔先温泉、云梯、洪加里克瀑布等景点，安建库热、诺干诺尔湖、斩妖石处于初级或待开发阶段。"}}, {"title": "巴音布鲁克国家级野生动物类型自...", "address": "巴音布鲁克天鹅湖旅游区", "image": "", "rank": 7, "time": 2, "location": {"lat": 43.03545301142875, "lng": 84.15975329758176}, "feature": {"sight_features": "", "sight_content": ""}}, {"title": "阿尔先温泉", "address": "新疆维吾尔自治区和静县巩乃斯乡 841300", "image": "", "rank": 8, "time": 2, "location": {"lat": 43.272812263638734, "lng": 84.5517686776303}, "feature": {"sight_features": "", "sight_content": ""}}, {"title": "巩乃斯沟乡", "address": "新疆维吾尔自治区巴音郭楞蒙古自治州和静县", "image": "", "rank": 9, "time": 2, "location": {"lat": 42.32936503587904, "lng": 86.39039822069184}, "feature": {"sight_features": "", "sight_content": ""}}, {"title": "艾尔宾库热庙", "address": "巴音郭楞蒙古自治州和静县巴音乌鲁乡", "image": "", "rank": 10, "time": 1.5, "location": {"lat": 42.83827728090139, "lng": 84.35521566751824}, "feature": {"sight_features": "", "sight_content": ""}}, {"title": "果园味道风情园", "address": "文化路二二三团学校东侧", "image": "", "rank": 11, "time": 2, "location": {"lat": 42.30218952900818, "lng": 86.54394656901964}, "feature": {"sight_features": "", "sight_content": ""}}, {"title": "和静阳光之路国际滑雪场", "address": "新疆巴州和静县巴仑台察汗努尔达坂218国道旁", "image": "", "rank": 12, "time": 2, "location": {"lat": 43.0922106931979, "lng": 85.8654978298461}, "feature": {"sight_features": "", "sight_content": ""}}, {"title": "阿尔夏和巩乃斯沟", "address": "新疆维吾尔自治区和静县巴音郭楞乡 841300", "image": "", "rank": 13, "time": 2, "location": {"lat": 42.837717868894146, "lng": 83.72967776454205}, "feature": {"sight_features": "", "sight_content": ""}}, {"title": "东归科技文化中心", "address": "新疆维吾尔自治区和静县东归大道", "image": "", "rank": 14, "time": 2, "location": {"lat": 42.33611786366926, "lng": 86.37915401510136}, "feature": {"sight_features": "", "sight_content": ""}}, {"title": "察吾乎沟口墓葬群", "address": "新疆维吾尔自治区和静县北哈尔莫墩乡 841300", "image": "", "rank": 15, "time": 2, "location": {"lat": 42.30678221487364, "lng": 86.0575527631323}, "feature": {"sight_features": "", "sight_content": ""}}, {"title": "世外桃源", "address": "218国道", "image": "", "rank": 16, "time": 1.5, "location": {"lat": 43.96627958653867, "lng": 81.26740497993002}, "feature": {"sight_features": "", "sight_content": ""}}, {"title": "东归博物馆", "address": "阿尔夏特东路6号", "image": "", "rank": 17, "time": 2, "location": {"lat": 42.32566074142274, "lng": 86.40792820006293}, "feature": {"sight_features": "", "sight_content": ""}}, {"title": "稀奇古怪薰衣草", "address": "和静县217国道南50米", "image": "", "rank": 18, "time": 2, "location": {"lat": 43.0907136589291, "lng": 84.44470307084174}, "feature": {"sight_features": "", "sight_content": ""}}, {"title": "和静县图书馆", "address": "团结东路18号", "image": "", "rank": 19, "time": 2, "location": {"lat": 28.317624374099516, "lng": 109.75019807199192}, "feature": {"sight_features": "", "sight_content": ""}}, {"title": "巩乃斯森林公园", "address": "新疆维吾尔自治区和静县巩乃斯林场", "image": "", "rank": 20, "time": 2, "location": {"lat": 43.24852078322983, "lng": 84.6619598338781}, "feature": {"sight_features": "", "sight_content": ""}}, {"title": "巴格伊克赫寸", "address": "巴音郭楞蒙古自治州-和静县", "image": "", "rank": 21, "time": 2, "location": {"lat": 42.32936503587904, "lng": 86.39039822069184}, "feature": {"sight_features": "", "sight_content": ""}}, {"title": "巴伦台村", "address": "巴音郭楞蒙古自治州-和静县", "image": "", "rank": 22, "time": 2, "location": {"lat": 42.32936503587904, "lng": 86.39039822069184}, "feature": {"sight_features": "", "sight_content": ""}}, {"title": "库尔都哈特布鲁克", "address": "巴音郭楞蒙古自治州-和静县", "image": "", "rank": 23, "time": 2, "location": {"lat": 42.32936503587904, "lng": 86.39039822069184}, "feature": {"sight_features": "", "sight_content": ""}}, {"title": "呼斯台昆库尔", "address": "巴音郭楞蒙古自治州-和静县", "image": "", "rank": 24, "time": 2, "location": {"lat": 42.32936503587904, "lng": 86.39039822069184}, "feature": {"sight_features": "", "sight_content": ""}}, {"title": "肖库尔萨拉", "address": "巴音郭楞蒙古自治州-和静县", "image": "", "rank": 25, "time": 2, "location": {"lat": 42.32936503587904, "lng": 86.39039822069184}, "feature": {"sight_features": "", "sight_content": ""}}, {"title": "瑞库尔郭勒", "address": "巴音郭楞蒙古自治州-和静县", "image": "", "rank": 26, "time": 2, "location": {"lat": 42.32936503587904, "lng": 86.39039822069184}, "feature": {"sight_features": "", "sight_content": ""}}, {"title": "擦库尔坦擦汗", "address": "巴音郭楞蒙古自治州-和静县", "image": "", "rank": 27, "time": 2, "location": {"lat": 42.32936503587904, "lng": 86.39039822069184}, "feature": {"sight_features": "", "sight_content": ""}}, {"title": "盖登苟勒肖库尔", "address": "巴音郭楞蒙古自治州-和静县", "image": "", "rank": 28, "time": 2, "location": {"lat": 42.32936503587904, "lng": 86.39039822069184}, "feature": {"sight_features": "", "sight_content": ""}}, {"title": "阿冬库尔萨拉", "address": "巴音郭楞蒙古自治州-和静县", "image": "", "rank": 29, "time": 2, "location": {"lat": 42.32936503587904, "lng": 86.39039822069184}, "feature": {"sight_features": "", "sight_content": ""}}, {"title": "开都河", "address": "新疆乌鲁木齐巴音郭楞乡", "image": "", "rank": 30, "time": 2, "location": {"lat": 43.830763204290484, "lng": 87.62443993536046}, "feature": {"sight_features": "", "sight_content": ""}}]}