{"cityName": "河津", "days": 2, "cityImage": "", "spots": [{"title": "九龙庙", "address": "运城市河津市紫金山麓", "image": "", "rank": 1, "time": 1.5, "location": {"lat": 35.60192657532228, "lng": 110.71857214373472}, "feature": {"sight_features": "", "sight_content": ""}}, {"title": "凤翔水上乐园", "address": "河津市龙门大道（范家庄）凤翔路口东100米", "image": "", "rank": 2, "time": 2.5, "location": {"lat": 35.6466980448467, "lng": 110.68583375874579}, "feature": {"sight_features": "", "sight_content": ""}}, {"title": "隆翔游乐园", "address": "运城市河津市夜市西200米台阶上(西山公园内)", "image": "", "rank": 3, "time": 1.5, "location": {"lat": 35.60192657532228, "lng": 110.71857214373472}, "feature": {"sight_features": "", "sight_content": ""}}, {"title": "河津温泉游泳馆", "address": "运城河津市龙国路与108国道交叉口沿龙国路往南100米路东（晋清学校旁100米）", "image": "", "rank": 4, "time": 2, "location": {"lat": 35.60425189669768, "lng": 110.68910961034732}, "feature": {"sight_features": "", "sight_content": ""}}, {"title": "台头庙", "address": "河津市新耿南大街与龙岗路交叉十字口东北隅", "image": "", "rank": 5, "time": 2, "location": {"lat": 35.60449553497631, "lng": 110.71906998464834}, "feature": {"sight_features": "", "sight_content": ""}}, {"title": "后土庙", "address": "运城市河津市樊村镇古垛村", "image": "", "rank": 6, "time": 2, "location": {"lat": 35.71333673302753, "lng": 110.73123207377841}, "feature": {"sight_features": "", "sight_content": ""}}, {"title": "薛仁贵寒窑", "address": "运城市河津市城区街道办修村", "image": "", "rank": 7, "time": 2, "location": {"lat": 35.58242263789437, "lng": 110.77711341037869}, "feature": {"sight_features": "", "sight_content": ""}}, {"title": "苍底塔", "address": "运城市河津市小梁乡寨上村", "image": "", "rank": 8, "time": 2, "location": {"lat": 35.543317949553234, "lng": 110.71003010992845}, "feature": {"sight_features": "", "sight_content": ""}}, {"title": "卜子夏祠", "address": "河津市阳村乡东辛封村", "image": "", "rank": 9, "time": 2, "location": {"lat": 35.6128375954968, "lng": 110.67858288100832}, "feature": {"sight_features": "", "sight_content": ""}}, {"title": "大禹庙", "address": "运城市河津市清涧街道办龙门村", "image": "", "rank": 10, "time": 1.0, "location": {"lat": 35.668078392542185, "lng": 110.63992642338744}, "feature": {"sight_features": "", "sight_content": ""}}, {"title": "樊村戏台", "address": "运城市河津市樊村镇樊村南", "image": "", "rank": 11, "time": 2, "location": {"lat": 35.66842699739855, "lng": 110.70940353734372}, "feature": {"sight_features": "", "sight_content": ""}}, {"title": "黄河龙门古渡风景区", "address": "运城市河津市清涧街道办龙门村边缘", "image": "", "rank": 12, "time": 2, "location": {"lat": 35.668078392542185, "lng": 110.63992642338744}, "feature": {"sight_features": "", "sight_content": ""}}, {"title": "影剧院", "address": "中兴路", "image": "", "rank": 13, "time": 2, "location": {"lat": 38.70935513883943, "lng": 117.51340835180949}, "feature": {"sight_features": "", "sight_content": ""}}, {"title": "梦幻游乐场水上乐园", "address": "山西省运城市河津市中兴街", "image": "", "rank": 14, "time": 2, "location": {"lat": 35.60192657532228, "lng": 110.71857214373472}, "feature": {"sight_features": "", "sight_content": ""}}, {"title": "莲池公园", "address": "山西省运城市河津市九龙大街", "image": "", "rank": 15, "time": 2, "location": {"lat": 35.58495687063343, "lng": 110.70014141734912}, "feature": {"sight_features": "", "sight_content": ""}}, {"title": "万和公园", "address": "山西省运城市河津市新兴路", "image": "", "rank": 16, "time": 2, "location": {"lat": 35.60519828754874, "lng": 110.72516376044823}, "feature": {"sight_features": "", "sight_content": ""}}, {"title": "蓝天水上乐园", "address": "山西省运城市河津市僧楼镇", "image": "", "rank": 17, "time": 2, "location": {"lat": 35.68927721942698, "lng": 110.77963068519742}, "feature": {"sight_features": "", "sight_content": ""}}, {"title": "城区街道高家湾村文化广场", "address": "温州步行街附近", "image": "", "rank": 18, "time": 2, "location": {"lat": 35.59551096395622, "lng": 110.72235311611773}, "feature": {"sight_features": "", "sight_content": ""}}, {"title": "河津基督教会", "address": "山西省运城市河津市建华巷10号", "image": "", "rank": 19, "time": 1.0, "location": {"lat": 35.60192657532228, "lng": 110.71857214373472}, "feature": {"sight_features": "", "sight_content": ""}}, {"title": "云南直销 棉糖 砂糖 红糖 冰糖", "address": "山西省运城市河津市汾宾街", "image": "", "rank": 20, "time": 2, "location": {"lat": 35.580503348678256, "lng": 110.71215735037612}, "feature": {"sight_features": "", "sight_content": ""}}, {"title": "吕仙庙", "address": "016乡道附近", "image": "", "rank": 21, "time": 2, "location": {"lat": 40.09290812128219, "lng": 116.66926323689323}, "feature": {"sight_features": "", "sight_content": ""}}, {"title": "欢乐谷儿童乐园", "address": "山西省运城市河津市山西铝厂花苑社区文体街中国邮政", "image": "", "rank": 22, "time": 2, "location": {"lat": 35.6453309215848, "lng": 110.6897618690798}, "feature": {"sight_features": "", "sight_content": ""}}, {"title": "儿童游乐园", "address": "运城市河津市", "image": "", "rank": 23, "time": 2, "location": {"lat": 35.60192657532228, "lng": 110.71857214373472}, "feature": {"sight_features": "", "sight_content": ""}}, {"title": "康家庄公园", "address": "运城市河津市东兴南街132号附近", "image": "", "rank": 24, "time": 2, "location": {"lat": 35.647247363930006, "lng": 110.69404619527738}, "feature": {"sight_features": "", "sight_content": ""}}, {"title": "河津市峰泽游乐场", "address": "山西省运城市河津市太阳小区东侧", "image": "", "rank": 25, "time": 2, "location": {"lat": 35.60192657532228, "lng": 110.71857214373472}, "feature": {"sight_features": "", "sight_content": ""}}, {"title": "雪花啤酒广场", "address": "山西省运城市河津市城区街道汾滨街城北夜市旁", "image": "", "rank": 26, "time": 2, "location": {"lat": 35.599453791220355, "lng": 110.7113009732758}, "feature": {"sight_features": "", "sight_content": ""}}, {"title": "嘉年华主题儿童乐园", "address": "山西省运城市河津市紫金北街东星时代广场4层", "image": "", "rank": 27, "time": 2, "location": {"lat": 35.595828393043234, "lng": 110.71526629950881}, "feature": {"sight_features": "", "sight_content": ""}}, {"title": "河津火车站站前广场", "address": "山西省运城市河津市", "image": "", "rank": 28, "time": 2, "location": {"lat": 35.60192657532228, "lng": 110.71857214373472}, "feature": {"sight_features": "", "sight_content": ""}}, {"title": "天都水善汇", "address": "运城市河津市振兴东路天都大酒店院内", "image": "", "rank": 29, "time": 2, "location": {"lat": 35.59552522943039, "lng": 110.73329799948517}, "feature": {"sight_features": "特色1 绿色健康沐浴 特色2 富于时尚气息的健康休闲方式 特色3 引领河津市休闲洗浴消费新概念", "sight_content": "天都水善汇总面积达约1.5万平方米，地处河津市天都大酒店东侧，由韩城瑞都集团有限公司耗资2000余万元倾力打造的黄河两岸三市最大旗舰店，是集洗浴、餐饮、汗蒸（韩式）、休闲等娱乐为一体的旗舰航母公司。公司以“传承绿色健康沐浴，延续百姓快乐人生”为企业主导经营理念，以“专业化、职业化、个性化、亲情化，舒适化、服务以人为本”为企业主导管理理念，倾心设计了一系列富于时尚气息的健康休闲方式，并对洗浴内涵重新做出深刻的挖掘。\n天都水善汇处地交通便捷，环境幽雅。公司融入了现代新都市元素，以江南风格理念设计，融合时尚休闲人文内涵与高品质服务，致力于打造山西省休闲服务洗浴“星级”品牌，引领河津市休闲洗浴消费新概念。"}}, {"title": "北坡农家乐", "address": "紫金北街", "image": "", "rank": 30, "time": 2, "location": {"lat": 41.30562459302098, "lng": 123.7878402797431}, "feature": {"sight_features": "", "sight_content": ""}}, {"title": "邓国栋纪念馆", "address": "808县道", "image": "", "rank": 31, "time": 2, "location": {"lat": 30.624068207134172, "lng": 120.45679962810995}, "feature": {"sight_features": "", "sight_content": ""}}, {"title": "中国企业展厅", "address": "铝都大道24号附近", "image": "", "rank": 32, "time": 2, "location": {"lat": 35.65867561186637, "lng": 110.68761004066289}, "feature": {"sight_features": "", "sight_content": ""}}, {"title": "金港龙湾生态园", "address": "九龙大街", "image": "", "rank": 33, "time": 2, "location": {"lat": 36.08339476496337, "lng": 117.82298842159312}, "feature": {"sight_features": "", "sight_content": ""}}, {"title": "干涧村图书室", "address": "209国道", "image": "", "rank": 34, "time": 2, "location": {"lat": 29.50537463467816, "lng": 109.42537798613527}, "feature": {"sight_features": "", "sight_content": ""}}, {"title": "西薛水上乐园", "address": "西王村108国道东300米", "image": "", "rank": 35, "time": 2, "location": {"lat": 36.13357010619177, "lng": 111.55455788861904}, "feature": {"sight_features": "", "sight_content": ""}}, {"title": "美景乐游乐园", "address": "山西铝厂民生西路清涧镇张家庄市场西100米", "image": "", "rank": 36, "time": 2, "location": {"lat": 37.09485288782833, "lng": 110.12755916227111}, "feature": {"sight_features": "", "sight_content": ""}}, {"title": "天都温泉水上乐园", "address": "振兴东路圣济医院斜对面(第二中学对面)", "image": "", "rank": 37, "time": 2, "location": {"lat": 35.59648603982608, "lng": 110.73113543946148}, "feature": {"sight_features": "", "sight_content": ""}}, {"title": "新赵嬉水乐园", "address": "赵家庄乡新赵村", "image": "", "rank": 38, "time": 2, "location": {"lat": 35.60847085717913, "lng": 110.7368602955613}, "feature": {"sight_features": "", "sight_content": ""}}, {"title": "山西铝厂影剧院", "address": "和谐街", "image": "", "rank": 39, "time": 2, "location": {"lat": 39.52270788314222, "lng": 118.10919375287118}, "feature": {"sight_features": "", "sight_content": ""}}, {"title": "丑小鸭", "address": "建新街与泰华步行街交叉口西南50米", "image": "", "rank": 40, "time": 2, "location": {"lat": 35.59983268142693, "lng": 110.71652766058048}, "feature": {"sight_features": "", "sight_content": ""}}, {"title": "干涧舞台", "address": "干涧村附近", "image": "", "rank": 41, "time": 2, "location": {"lat": 40.07163844215899, "lng": 119.14730208584136}, "feature": {"sight_features": "", "sight_content": ""}}, {"title": "黄河少儿艺术团", "address": "莲池路", "image": "", "rank": 42, "time": 2, "location": {"lat": 37.5178750262719, "lng": 111.1411685848815}, "feature": {"sight_features": "", "sight_content": ""}}, {"title": "禹门口龙门峡", "address": "山西省河津市禹门口", "image": "", "rank": 43, "time": 2, "location": {"lat": 35.6056503108059, "lng": 110.71532045744969}, "feature": {"sight_features": "", "sight_content": ""}}, {"title": "河津温州步行街", "address": "山西省河津市温州步行街", "image": "", "rank": 44, "time": 2, "location": {"lat": 35.59551096395622, "lng": 110.72235311611773}, "feature": {"sight_features": "", "sight_content": ""}}, {"title": "东兴电影烧烤城", "address": "山西省河津市延平北街", "image": "", "rank": 45, "time": 2.0, "location": {"lat": 35.60319658773965, "lng": 110.72365181974946}, "feature": {"sight_features": "", "sight_content": ""}}, {"title": "泰华步行街", "address": "山西省河津市泰华步行街", "image": "", "rank": 46, "time": 2, "location": {"lat": 35.601290146746116, "lng": 110.71566107064484}, "feature": {"sight_features": "", "sight_content": ""}}, {"title": "关公文化大院", "address": "运城市-河津市-关公文化大院(河津市僧楼镇委东)", "image": "", "rank": 47, "time": 2, "location": {"lat": 35.67722235637955, "lng": 110.75626679013762}, "feature": {"sight_features": "", "sight_content": ""}}, {"title": "古今天下景区", "address": "河津市固镇村", "image": "", "rank": 48, "time": 2, "location": {"lat": 35.70115861866725, "lng": 110.71316530395494}, "feature": {"sight_features": "特色1 国内最长三千米景观地道 特色2 旱地滑雪，网红摇摆桥 特色3 宋金瓷窑展览馆 特色4 董其武将军展览馆 特色5 民俗，农耕文化展馆 特色6 十里桃花，风车隧道。", "sight_content": "古今天下景区位于董其武将军故里，河津市区以北约14公里处的固镇村，以景观地道、红色文化体验为主题。\n景区内长达三千米的三层地道是国内较长的景观地道，留有宋朝时期古地道和抗战时期保留地道。百余孔砖碹土窑，宽敞舒适、冬暖夏凉、宁静幽雅。景区内还有可纳数百人就餐的大型餐厅，窑洞雅室，天然纯朴。"}}, {"title": "九龙公园", "address": "尖沙咀柯士甸道22号", "image": "", "rank": 49, "time": 2.0, "location": {"lat": 22.305953641631834, "lng": 114.1820482039139}, "feature": {"sight_features": "", "sight_content": ""}}, {"title": "黄河禹门口", "address": "山西省河津市西北", "image": "", "rank": 50, "time": 2, "location": {"lat": 35.60192657532228, "lng": 110.71857214373472}, "feature": {"sight_features": "", "sight_content": ""}}]}