{"cityName": "河口", "days": 2, "cityImage": "", "spots": [{"title": "中越铁路大桥", "address": "红河哈尼族彝族自治州河口县城南侧", "image": "", "rank": 1, "time": 0.5, "location": {"lat": 22.535465602947458, "lng": 103.94544362779924}, "feature": {"sight_features": "", "sight_content": ""}}, {"title": "河口口岸", "address": "红河州河口县城南端", "image": "", "rank": 2, "time": 0.25, "location": {"lat": 22.535465602947458, "lng": 103.94544362779924}, "feature": {"sight_features": "", "sight_content": ""}}, {"title": "南溪河风景区", "address": "红河自治州河口瑶族自治县", "image": "", "rank": 3, "time": 3.0, "location": {"lat": 22.535465602947458, "lng": 103.94544362779924}, "feature": {"sight_features": "", "sight_content": ""}}, {"title": "河口南溪河漂流", "address": "红河哈尼族彝族自治州河口瑶族自治县河边街67号", "image": "", "rank": 4, "time": 2, "location": {"lat": 22.51149409474502, "lng": 103.97020855605645}, "feature": {"sight_features": "", "sight_content": ""}}, {"title": "边城一家休闲山庄", "address": "209省道路边", "image": "", "rank": 5, "time": 2, "location": {"lat": 39.99809006691208, "lng": 116.08348027993928}, "feature": {"sight_features": "", "sight_content": ""}}, {"title": "花鱼洞国家森林公园", "address": "红河哈尼族彝族自治州河口瑶族自治县 209省道", "image": "", "rank": 6, "time": 2, "location": {"lat": 22.821295896673604, "lng": 104.0966575501771}, "feature": {"sight_features": "", "sight_content": ""}}, {"title": "民族图书馆", "address": "人民路52", "image": "", "rank": 7, "time": 2, "location": {"lat": 24.697758496335485, "lng": 108.09311363225842}, "feature": {"sight_features": "", "sight_content": ""}}, {"title": "南溪河", "address": "云南省河口瑶族自治县河口县城的西南端 661300", "image": "", "rank": 8, "time": 3.0, "location": {"lat": 22.535465602947458, "lng": 103.94544362779924}, "feature": {"sight_features": "", "sight_content": ""}}, {"title": "法国驻河口领事署", "address": "云南省河口瑶族自治县境内 661300", "image": "", "rank": 9, "time": 2, "location": {"lat": 22.535465602947458, "lng": 103.94544362779924}, "feature": {"sight_features": "", "sight_content": ""}}, {"title": "河口影剧院", "address": "人民路53号附近", "image": "", "rank": 10, "time": 2, "location": {"lat": 37.76110048627817, "lng": 114.5336636639105}, "feature": {"sight_features": "", "sight_content": ""}}, {"title": "观景山庄", "address": "槟二段附近", "image": "", "rank": 11, "time": 2, "location": {"lat": 22.515917012541603, "lng": 103.97755212095397}, "feature": {"sight_features": "", "sight_content": ""}}, {"title": "金漫湾游泳休闲山庄", "address": "云南省红河哈尼族彝族自治州河口瑶族自治县G326(秀河线)", "image": "", "rank": 12, "time": 2, "location": {"lat": 22.535465602947458, "lng": 103.94544362779924}, "feature": {"sight_features": "", "sight_content": ""}}, {"title": "河口大型儿童游乐城", "address": "326国道附近", "image": "", "rank": 13, "time": 2, "location": {"lat": 28.504838334466942, "lng": 108.62811511625138}, "feature": {"sight_features": "", "sight_content": ""}}, {"title": "曼巴段", "address": "云南省红河哈尼族彝族自治州河口瑶族自治县", "image": "", "rank": 14, "time": 2, "location": {"lat": 22.535465602947458, "lng": 103.94544362779924}, "feature": {"sight_features": "", "sight_content": ""}}, {"title": "鑫苑山庄", "address": "槟山段", "image": "", "rank": 15, "time": 2, "location": {"lat": 22.533719072927344, "lng": 103.98372797133304}, "feature": {"sight_features": "", "sight_content": ""}}, {"title": "龙泉山庄", "address": "龙泉路", "image": "", "rank": 16, "time": 2, "location": {"lat": 37.69756886512517, "lng": 114.99052607114223}, "feature": {"sight_features": "", "sight_content": ""}}, {"title": "河口云山农业科技有限公司", "address": "椰林东路与进桑路交叉口东南50米", "image": "", "rank": 17, "time": 2, "location": {"lat": 22.531894781271163, "lng": 103.94445915592676}, "feature": {"sight_features": "", "sight_content": ""}}, {"title": "戈浩避暑山庄", "address": "云南省河口瑶族自治县南溪镇东北3公里处", "image": "", "rank": 18, "time": 2, "location": {"lat": 22.65565227346192, "lng": 103.98224912241315}, "feature": {"sight_features": "", "sight_content": ""}}, {"title": "河口对汛督办公署", "address": "云南省河口瑶族自治县县政府大院内", "image": "", "rank": 19, "time": 2, "location": {"lat": 22.535465602947458, "lng": 103.94544362779924}, "feature": {"sight_features": "", "sight_content": ""}}]}