{"cityName": "贺兰", "days": 2, "cityImage": "", "spots": [{"title": "贺兰山岩画", "address": "银川市区贺兰县西北贺兰山国家级自然保护区内", "image": "", "rank": 1, "time": 1.25, "location": {"lat": 38.53808700277353, "lng": 106.06990607708718}, "feature": {"sight_features": "特色1 欣赏一万年前先民们记录的原始生活，感受质朴魅力。 特色2 贺兰山岩画是远古先民在岩石上遗留下来的伟大艺术瑰宝", "sight_content": "全国重点文物保护单位\n国家AAAA级旅游景区\n中国首批自然与文化双遗产\n中国最值得外国人去的五十个地方之一\n国际岩画峰会永久会址\n史前人类的文化艺术长廊\n贺兰山岩画遗址公园—贺兰山上的神秘之地\n雄浑贺兰：宁夏旅游的壮美起点\n\n\n贺兰山岩画遗址公园，位于距银川市56公里的贺兰山贺兰口，是全国重点文物保护单位、国家4A级旅游景区、全国研学旅游示范基地，同时也是中华文化溯源地、国家级风景名胜区、国际岩画峰会永久会址，是中国最值得外国人去的50个地方。\n这里因独特的温带山地森林低湿多雨气候，孕育了500多种野生植物和200多种野生动物，形成了“四季泉溪”“贺兰飞瀑”、“双峰映潭”“贺兰晴雪”等壮美的自然景观。原始先民在贺兰山贺兰口，刻制了近6000幅神秘诡异的岩画。这些岩画生动的记录了3000至10000年前的始前人类放牧、狩猎、祭祀、争战、娱舞、交媾等生活场景，数量庞大、内容丰富、题材广泛、布局集中，世所罕见，在国际岩画界享有着崇高的地位。被誉为“石头上的史书”、“史前人类艺术长廊”。\n2008年建成的银川世界岩画馆，世界最大、中国唯一一所岩画专题博物馆，集中展示了世界五大洲160多个国家和地区的代表性岩画。涵盖 了目前岩画研究的最新成果及全新资料，是岩画研究者、爱好者学习交流的基地。\n2015年建成开放的银川韩美林艺术馆，收藏展陈了当代艺术大师韩美林先生以贺兰山岩画为灵感和题材创作的1000余件作品，涉及绘画、雕塑、陶瓷、书法、印染等众多门类，是对远古文明的当代解读与艺术诠释，彰显了中华文化的源远流长和生生不息。\n贺兰山岩画景区作为全国首批20家研学旅游示范基地之一，景区始终把“知行合一，服务青少年”作为一项重要的任务，并以此设计出了一系列体验性强、参与度高的研学旅行课程和产品。满足青少年在贺兰山与岩画的交替学习和深度体验中，找到打开快乐的正确方式的成长需求。\n经过多年保护性开发，贺兰山岩画遗址公园已成为集展览展示、科普教育、研学交流、互动体验、文化传承、艺术创作、休闲度假等多功能于一体的综合性旅游景区。"}}, {"title": "苏峪口滑雪场", "address": "银川市区西北镇苏峪口国家森林公园内", "image": "", "rank": 2, "time": 2, "location": {"lat": 38.75459083152528, "lng": 105.92746276499757}, "feature": {"sight_features": "", "sight_content": ""}}, {"title": "岩画古村", "address": "银川市贺兰县贺兰山岩画路附近（近贺兰山岩画）", "image": "", "rank": 3, "time": 2, "location": {"lat": 38.747673983955124, "lng": 106.03443041237875}, "feature": {"sight_features": "", "sight_content": ""}}, {"title": "靓特水上乐园", "address": "银川市贺兰县德胜工业园区新盛东路10号", "image": "", "rank": 4, "time": 2, "location": {"lat": 38.53887943417011, "lng": 106.32309258676896}, "feature": {"sight_features": "", "sight_content": ""}}, {"title": "西为牡丹产业园", "address": "银川市贺兰县金贵镇西", "image": "", "rank": 5, "time": 2, "location": {"lat": 38.53006580095902, "lng": 106.43980795025595}, "feature": {"sight_features": "", "sight_content": ""}}, {"title": "洪广营三清观", "address": "银川市贺兰县洪广营", "image": "", "rank": 6, "time": 1.5, "location": {"lat": 38.74197733998235, "lng": 106.3229277027926}, "feature": {"sight_features": "", "sight_content": ""}}, {"title": "韩美林艺术馆", "address": "岩画路", "image": "", "rank": 7, "time": 1.5, "location": {"lat": 38.73493128690636, "lng": 106.02297523488842}, "feature": {"sight_features": "", "sight_content": ""}}, {"title": "西夏史话塑像馆", "address": "西夏王陵内", "image": "", "rank": 8, "time": 2, "location": {"lat": 38.4193940085632, "lng": 105.98706780772137}, "feature": {"sight_features": "", "sight_content": ""}}, {"title": "王家新鲜牛羊肉批发零售", "address": "民族路与朔方南街交叉口西北角", "image": "", "rank": 9, "time": 2, "location": {"lat": 38.55152439841725, "lng": 106.3560555005252}, "feature": {"sight_features": "", "sight_content": ""}}, {"title": "贺兰山1958创意产业休闲区", "address": "银川市贺兰县贺兰山苏峪口9公里处", "image": "", "rank": 10, "time": 2, "location": {"lat": 38.714914741945044, "lng": 106.0047297130481}, "feature": {"sight_features": "", "sight_content": ""}}, {"title": "银山马会", "address": "银川市贺兰县习岗路银山马会", "image": "", "rank": 11, "time": 2, "location": {"lat": 38.57325949637007, "lng": 106.39895378191677}, "feature": {"sight_features": "", "sight_content": ""}}, {"title": "沙泉寨", "address": "二零三省道", "image": "", "rank": 12, "time": 2, "location": {"lat": 29.816057845714685, "lng": 119.69361092817755}, "feature": {"sight_features": "", "sight_content": ""}}, {"title": "老马家垂钓农家乐", "address": "105县道", "image": "", "rank": 13, "time": 2, "location": {"lat": 32.223004433359165, "lng": 119.74750631099481}, "feature": {"sight_features": "", "sight_content": ""}}, {"title": "城市街区24小时自助图书馆(文昌...", "address": "文昌路3号附近", "image": "", "rank": 14, "time": 2, "location": {"lat": 39.90919917001928, "lng": 119.56020774189234}, "feature": {"sight_features": "", "sight_content": ""}}, {"title": "苏渊瑞图书馆", "address": "习岗镇文昌路3", "image": "", "rank": 15, "time": 2, "location": {"lat": 38.57000655680576, "lng": 106.3456219398405}, "feature": {"sight_features": "", "sight_content": ""}}, {"title": "24小时自助图书馆", "address": "教育巷与育才巷交叉口东南50米", "image": "", "rank": 16, "time": null, "location": {"lat": 38.55925167271671, "lng": 106.35546867436605}, "feature": {"sight_features": "", "sight_content": ""}}, {"title": "贺兰县民族艺术团", "address": "银河东路101", "image": "", "rank": 17, "time": 2, "location": {"lat": 38.56106720151658, "lng": 106.35528070753132}, "feature": {"sight_features": "", "sight_content": ""}}, {"title": "牛王寺", "address": "习岗镇德胜工业园奥莱路和唐徕渠交汇路口西300米", "image": "", "rank": 18, "time": 0.25, "location": {"lat": 38.540767447113595, "lng": 106.33249326410034}, "feature": {"sight_features": "", "sight_content": ""}}, {"title": "开心宝贝游乐园", "address": "桃林南街东20", "image": "", "rank": 19, "time": 2, "location": {"lat": 38.563607138317856, "lng": 106.33991440666412}, "feature": {"sight_features": "", "sight_content": ""}}, {"title": "精灵城堡儿童乐园", "address": "富兴南街东升商贸城二楼", "image": "", "rank": 20, "time": 2, "location": {"lat": 38.56438839603939, "lng": 106.3577756235259}, "feature": {"sight_features": "", "sight_content": ""}}, {"title": "圆光寺", "address": "宁夏回族自治区银川市贺兰县立岗镇金京公路宁夏龙宇驾校南350米", "image": "", "rank": 21, "time": 2.0, "location": {"lat": 38.55824537695378, "lng": 106.36216184811069}, "feature": {"sight_features": "", "sight_content": ""}}, {"title": "猴头像", "address": "贺兰山东麓贺兰口贺兰山岩画遗址公园内", "image": "", "rank": 22, "time": 2, "location": {"lat": 38.74797883882689, "lng": 106.03252950719079}, "feature": {"sight_features": "", "sight_content": ""}}, {"title": "贺兰广场", "address": "银河西路县科技局斜对面", "image": "", "rank": 23, "time": 0.75, "location": {"lat": 30.558984601057816, "lng": 119.98867573871685}, "feature": {"sight_features": "", "sight_content": ""}}, {"title": "亘元房地产建筑材料展示厅", "address": "宁夏回族自治区贺兰县复兴南街", "image": "", "rank": 24, "time": 2, "location": {"lat": 38.56040668957878, "lng": 106.35651826530358}, "feature": {"sight_features": "", "sight_content": ""}}, {"title": "明代红山堡", "address": "宁夏回族自治区贺兰县境内 750200", "image": "", "rank": 25, "time": 1.0, "location": {"lat": 38.56040668957878, "lng": 106.35651826530358}, "feature": {"sight_features": "", "sight_content": ""}}, {"title": "大雄宝殿", "address": "银川市贺兰县贺兰山苏峪口国家森林公园灵光寺内", "image": "", "rank": 26, "time": 2, "location": {"lat": 38.74945843277826, "lng": 105.95217011277806}, "feature": {"sight_features": "", "sight_content": ""}}, {"title": "益智儿童乐园", "address": "宁夏回族自治区银川市贺兰县光明巷78", "image": "", "rank": 27, "time": 2, "location": {"lat": 38.56121033161819, "lng": 106.36310798120263}, "feature": {"sight_features": "", "sight_content": ""}}, {"title": "皇家寺庙", "address": "银川市贺兰县贺兰山东麓拜寺口双塔内", "image": "", "rank": 28, "time": 2, "location": {"lat": 38.68736283538903, "lng": 105.97257485564047}, "feature": {"sight_features": "", "sight_content": ""}}, {"title": "南梁北台清真寺", "address": "宁夏回族自治区银川市贺兰县南王公路北台子小学东北100米", "image": "", "rank": 29, "time": 2, "location": {"lat": 38.69633329932993, "lng": 106.23774646580921}, "feature": {"sight_features": "", "sight_content": ""}}, {"title": "欢乐堡儿童乐园（瑞士花园德胜店...", "address": "瑞士花园24", "image": "", "rank": 30, "time": 2, "location": {"lat": 38.535356588676706, "lng": 106.31300042529669}, "feature": {"sight_features": "", "sight_content": ""}}, {"title": "奇奇儿童乐园", "address": "宁夏回族自治区银川市贺兰县华美街70", "image": "", "rank": 31, "time": 2, "location": {"lat": 38.54803991161522, "lng": 106.33985847097662}, "feature": {"sight_features": "", "sight_content": ""}}, {"title": "小秦水族馆分店", "address": "丰庆东路与富兴南街交叉口南150米", "image": "", "rank": 32, "time": 2, "location": {"lat": 38.54993213623614, "lng": 106.34159702091826}, "feature": {"sight_features": "", "sight_content": ""}}, {"title": "暖泉汉墓", "address": "110国道", "image": "", "rank": 33, "time": 2, "location": {"lat": 40.65296617192777, "lng": 108.83908835948142}, "feature": {"sight_features": "", "sight_content": ""}}, {"title": "朝阳广场", "address": "居安东路兰亭居附近", "image": "", "rank": 34, "time": 2, "location": {"lat": 38.55345197300376, "lng": 106.36090310470128}, "feature": {"sight_features": "", "sight_content": ""}}, {"title": "如意湖儿童乐园", "address": "安兴路与富兴北街交叉口东200米", "image": "", "rank": 35, "time": 2, "location": {"lat": 38.58126915283399, "lng": 106.36333109603704}, "feature": {"sight_features": "", "sight_content": ""}}, {"title": "桃源广场", "address": "桃源路附近", "image": "", "rank": 36, "time": 0.75, "location": {"lat": 38.82117731456209, "lng": 115.4476988977243}, "feature": {"sight_features": "", "sight_content": ""}}, {"title": "兰星清真大寺", "address": "宁夏回族自治区银川市贺兰县和民公路立岗镇兰星村村民委员会西北", "image": "", "rank": 37, "time": 2, "location": {"lat": 38.689253342194796, "lng": 106.47605156287028}, "feature": {"sight_features": "", "sight_content": ""}}, {"title": "新民寺", "address": "101县道附近", "image": "", "rank": 38, "time": 2, "location": {"lat": 48.196887921623045, "lng": 134.66380237077237}, "feature": {"sight_features": "", "sight_content": ""}}, {"title": "黎民清真寺", "address": "经五公路附近", "image": "", "rank": 39, "time": 2, "location": {"lat": 38.61059025680645, "lng": 106.30555870974011}, "feature": {"sight_features": "", "sight_content": ""}}, {"title": "长河湾国际生态度假中心", "address": "金马河餐饮附近", "image": "", "rank": 40, "time": 2, "location": {"lat": 38.549456958829296, "lng": 106.53050376439217}, "feature": {"sight_features": "", "sight_content": ""}}, {"title": "德胜清真大寺", "address": "德成西路附近", "image": "", "rank": 41, "time": 2, "location": {"lat": 38.53149870727718, "lng": 106.30833154079845}, "feature": {"sight_features": "", "sight_content": ""}}, {"title": "山博物馆", "address": "苏峪口国家森林公园", "image": "", "rank": 42, "time": 1.5, "location": {"lat": 38.75308811044743, "lng": 105.93709039023297}, "feature": {"sight_features": "", "sight_content": ""}}, {"title": "山贺麓庄园", "address": "苏峪口国家森林公园售票处", "image": "", "rank": 43, "time": 2, "location": {"lat": 38.71866356386173, "lng": 106.0008947794531}, "feature": {"sight_features": "", "sight_content": ""}}, {"title": "贺苗花卉", "address": "兴贸路永泰花园南区旁", "image": "", "rank": 44, "time": 2, "location": {"lat": 38.56165884339618, "lng": 106.3588642557192}, "feature": {"sight_features": "", "sight_content": ""}}, {"title": "通贵老大寺", "address": "银通公路与101县道交叉口", "image": "", "rank": 45, "time": 2, "location": {"lat": 38.48115230126989, "lng": 106.38501449235221}, "feature": {"sight_features": "", "sight_content": ""}}, {"title": "天缘采摘园", "address": "新平蔬菜园区内", "image": "", "rank": 46, "time": 2, "location": {"lat": 24.07626270527773, "lng": 101.9964277126142}, "feature": {"sight_features": "", "sight_content": ""}}, {"title": "缘能达休闲观光采摘园", "address": "和平村新平蔬菜园区七期", "image": "", "rank": 47, "time": 2, "location": {"lat": 23.836931500618306, "lng": 101.68329421043833}, "feature": {"sight_features": "", "sight_content": ""}}, {"title": "牡丹园", "address": "名族北街", "image": "", "rank": 48, "time": 2.5, "location": {"lat": 40.000328520094754, "lng": 116.38061710534114}, "feature": {"sight_features": "", "sight_content": ""}}, {"title": "鸣湖生态园", "address": "106县道北100米", "image": "", "rank": 49, "time": 2, "location": {"lat": 44.380709991437634, "lng": 126.3584684828085}, "feature": {"sight_features": "", "sight_content": ""}}, {"title": "贺兰艺术团", "address": "光明西路附近", "image": "", "rank": 50, "time": 2.5, "location": {"lat": 38.00412223007181, "lng": 114.64864148625297}, "feature": {"sight_features": "", "sight_content": ""}}, {"title": "固原关帝庙", "address": "宁夏回族自治区固原市原州区城北门外", "image": "", "rank": 51, "time": 1.0, "location": {"lat": 36.009367675762505, "lng": 106.29451461391893}, "feature": {"sight_features": "", "sight_content": ""}}, {"title": "千色女人街", "address": "宁夏回族自治区贺兰县朔方南街清苑小区对面", "image": "", "rank": 52, "time": 2, "location": {"lat": 38.55782893993469, "lng": 106.35941608748888}, "feature": {"sight_features": "", "sight_content": ""}}, {"title": "横店电影城(光明西路店)", "address": "银川市-贺兰县-光明西路宣传文化中心", "image": "", "rank": 53, "time": 4.5, "location": {"lat": 38.56867991211806, "lng": 106.34311098909257}, "feature": {"sight_features": "", "sight_content": ""}}, {"title": "汉佐八队", "address": "银川市-贺兰县", "image": "", "rank": 54, "time": 2, "location": {"lat": 38.56040668957878, "lng": 106.35651826530358}, "feature": {"sight_features": "", "sight_content": ""}}, {"title": "汉佐村", "address": "银川市-贺兰县-银王公路", "image": "", "rank": 55, "time": 2, "location": {"lat": 38.51445674364378, "lng": 106.41711549724282}, "feature": {"sight_features": "", "sight_content": ""}}]}