{"cityName": "和林格尔", "days": 2, "cityImage": "", "spots": [{"title": "蒙牛工业旅游景区", "address": "呼和浩特市和林格尔县盛乐经济园区", "image": "", "rank": 1, "time": 2.5, "location": {"lat": 40.487518652824356, "lng": 111.7856038623964}, "feature": {"sight_features": "", "sight_content": ""}}, {"title": "梦幻海乐园", "address": "呼和浩特市和林格尔县盛乐镇呼凉路（S102）34公里处路北（内蒙古第三医院康复中心对面）", "image": "", "rank": 2, "time": 2.0, "location": {"lat": 40.62971753889958, "lng": 111.98812234809338}, "feature": {"sight_features": "", "sight_content": ""}}, {"title": "中威水上乐园", "address": "呼和浩特市209国道蒙牛盛乐园区北1000米路东", "image": "", "rank": 3, "time": 2, "location": {"lat": 40.493036926271365, "lng": 111.79073468702857}, "feature": {"sight_features": "", "sight_content": "中威水上乐园主要是由造浪池 、儿童戏水池 、大型水寨 、螺旋组合滑梯 、理疗池、各种功能性泡池等水上游乐项目组成 。生动的青蛙滑梯及靓丽的大苹果滑梯，水上跷跷板更是一大亮点，炮筒滑梯，蜿蜒曲折，真是童趣十足，更是亲子互动的梦幻桥梁 。"}}, {"title": "和林格尔土城子古墓壁画", "address": "内蒙古自治区和林格尔县土城子乡 011500", "image": "", "rank": 4, "time": 2.0, "location": {"lat": 40.44473066291929, "lng": 111.80581366308178}, "feature": {"sight_features": "", "sight_content": ""}}, {"title": "子昂牧场奶牛主题公园", "address": "呼和浩特市和林格尔县盛乐镇郭家滩行政村缸房夭自然村", "image": "", "rank": 5, "time": 2, "location": {"lat": 40.607165557116495, "lng": 112.08366827806786}, "feature": {"sight_features": "", "sight_content": ""}}, {"title": "内蒙古绿野农牧业发展有限公司", "address": "和林格尔县城关镇樊家夭村209国道61公里处", "image": "", "rank": 6, "time": 2, "location": {"lat": 40.36673356594389, "lng": 111.77128289629523}, "feature": {"sight_features": "", "sight_content": ""}}, {"title": "巨华宾馆(洗浴中心)", "address": "城关镇红卫街北3号", "image": "", "rank": 7, "time": 2, "location": {"lat": 40.387459706635326, "lng": 111.84003129494046}, "feature": {"sight_features": "", "sight_content": ""}}, {"title": "和盛采摘园", "address": "成长大道", "image": "", "rank": 8, "time": 2, "location": {"lat": 36.84014145689155, "lng": 117.9377368885728}, "feature": {"sight_features": "", "sight_content": ""}}, {"title": "和林格尔县东汉壁画墓", "address": "内蒙古自治区呼和浩特市和林格尔县", "image": "", "rank": 9, "time": 2, "location": {"lat": 40.384797744251024, "lng": 111.8284302182624}, "feature": {"sight_features": "", "sight_content": ""}}, {"title": "公主堡儿童乐园", "address": "新民街232号附近", "image": "", "rank": 10, "time": 2, "location": {"lat": 30.23755916422, "lng": 119.7192719575193}, "feature": {"sight_features": "", "sight_content": ""}}, {"title": "欢乐家宝贝儿童游乐场", "address": "209国道附近", "image": "", "rank": 11, "time": 2, "location": {"lat": 29.50537463467816, "lng": 109.42537798613527}, "feature": {"sight_features": "", "sight_content": ""}}, {"title": "内蒙古通史博物馆", "address": "内蒙古师范大学盛乐校区", "image": "", "rank": 12, "time": 2, "location": {"lat": 40.494724537333404, "lng": 111.79578740309834}, "feature": {"sight_features": "", "sight_content": ""}}, {"title": "奥威嬉雪乐园", "address": "炼油厂大转盘向西红绿灯向南10公里处路东", "image": "", "rank": 13, "time": 2, "location": {"lat": 19.968802031048973, "lng": 110.27565505275807}, "feature": {"sight_features": "", "sight_content": ""}}, {"title": "人民剧场", "address": "014县道附近", "image": "", "rank": 14, "time": 2, "location": {"lat": 44.35476392867931, "lng": 125.77068023846462}, "feature": {"sight_features": "", "sight_content": ""}}, {"title": "大红城人民剧场", "address": "和林格尔县大红城乡附近", "image": "", "rank": 15, "time": 2, "location": {"lat": 40.185074022374835, "lng": 111.76876527562888}, "feature": {"sight_features": "", "sight_content": ""}}, {"title": "蒙草•草博园", "address": "内蒙古呼和浩特市和林格尔县盛乐北街南侧", "image": "", "rank": 16, "time": 2, "location": {"lat": 40.50723304455213, "lng": 111.81387558223705}, "feature": {"sight_features": "", "sight_content": ""}}, {"title": "和林格尔足球小镇", "address": "呼和浩特市-和林格尔县-和林格尔职业高级中学东侧", "image": "", "rank": 17, "time": null, "location": {"lat": 40.46131208428762, "lng": 111.80222920491043}, "feature": {"sight_features": "", "sight_content": ""}}, {"title": "北倒拉板观音寺", "address": "呼和浩特市-和林格尔县-民主街", "image": "", "rank": 18, "time": 2, "location": {"lat": 40.384797744251024, "lng": 111.8284302182624}, "feature": {"sight_features": "", "sight_content": ""}}, {"title": "呼和浩特敖包山", "address": "内蒙古自治区呼和浩特市新城区城关乡", "image": "", "rank": 19, "time": 2.5, "location": {"lat": 40.86387702118283, "lng": 111.67162012199908}, "feature": {"sight_features": "", "sight_content": ""}}, {"title": "贺家大院", "address": "河北省怀来县鸡鸣驿乡鸡鸣驿村", "image": "", "rank": 20, "time": null, "location": {"lat": 40.461993984961396, "lng": 115.32041833137161}, "feature": {"sight_features": "", "sight_content": ""}}]}