{"cityName": "和龙", "days": 2, "cityImage": "", "spots": [{"title": "亚东水库", "address": "延边朝鲜族自治州和龙市头道镇龙门村西南", "image": "", "rank": 1, "time": 1.5, "location": {"lat": 42.74745835784144, "lng": 129.1127900558291}, "feature": {"sight_features": "", "sight_content": ""}}, {"title": "和龙市博物馆", "address": "延边朝鲜族自治州和龙市誉文街31号", "image": "", "rank": 2, "time": 1.0, "location": {"lat": 42.557467526323364, "lng": 129.02115452968874}, "feature": {"sight_features": "", "sight_content": ""}}, {"title": "车厂子抗日游击根据地", "address": "延边朝鲜族自治州和龙市卧龙乡和安村", "image": "", "rank": 3, "time": 1.0, "location": {"lat": 42.846299537478764, "lng": 128.616967125341}, "feature": {"sight_features": "", "sight_content": ""}}, {"title": "﻿边墙遗址", "address": "延边朝鲜族自治州和龙市土山村", "image": "", "rank": 4, "time": 1.0, "location": {"lat": 42.63570426770643, "lng": 129.04706569847977}, "feature": {"sight_features": "", "sight_content": ""}}, {"title": "江边公园", "address": "延边朝鲜族自治州和龙市江苑旅店旁", "image": "", "rank": 5, "time": 1.0, "location": {"lat": 42.5510084851267, "lng": 129.00999009147162}, "feature": {"sight_features": "", "sight_content": ""}}, {"title": "平岗水田", "address": "延边朝鲜族自治州和龙市东城镇", "image": "", "rank": 6, "time": 1.0, "location": {"lat": 42.7523457272081, "lng": 129.33205853021775}, "feature": {"sight_features": "", "sight_content": ""}}, {"title": "仙峰国家森林公园", "address": "延边朝鲜族自治州和龙市八家子镇", "image": "", "rank": 7, "time": 1.5, "location": {"lat": 42.65945558470562, "lng": 129.1475871306739}, "feature": {"sight_features": "", "sight_content": ""}}, {"title": "光东村", "address": "延边朝鲜族自治州和龙市东城镇光东村", "image": "", "rank": 8, "time": 1.5, "location": {"lat": 42.775276343306096, "lng": 129.35432688960643}, "feature": {"sight_features": "", "sight_content": ""}}, {"title": "青龙渔业", "address": "延边市和龙市头道镇青龙村", "image": "", "rank": 9, "time": 4.5, "location": {"lat": 42.77404719445589, "lng": 129.0333401086096}, "feature": {"sight_features": "", "sight_content": ""}}, {"title": "青山里抗日大捷纪念碑", "address": "延边朝鲜族自治州和龙市龙城镇青山村青山林场厂部西的山上", "image": "", "rank": 10, "time": 1.0, "location": {"lat": 42.45236567360796, "lng": 128.86749158659316}, "feature": {"sight_features": "", "sight_content": ""}}, {"title": "龙头山古墓群遗址", "address": "吉林省和龙市头道镇龙海村 132314", "image": "", "rank": 11, "time": 2, "location": {"lat": 42.68283067829282, "lng": 129.22950440962072}, "feature": {"sight_features": "", "sight_content": ""}}, {"title": "延边古长城遗址", "address": "吉林省和龙市境内 133509", "image": "", "rank": 12, "time": 1.5, "location": {"lat": 42.55232256843248, "lng": 129.01738712621045}, "feature": {"sight_features": "", "sight_content": ""}}, {"title": "延边边墙", "address": "吉林省和龙市土山镇 133509", "image": "", "rank": 13, "time": 1.5, "location": {"lat": 42.63657956418168, "lng": 129.0504437502992}, "feature": {"sight_features": "", "sight_content": ""}}, {"title": "红豆彬植物园", "address": "延边朝鲜族自治州和龙市", "image": "", "rank": 14, "time": 2, "location": {"lat": 42.55232256843248, "lng": 129.01738712621045}, "feature": {"sight_features": "", "sight_content": ""}}, {"title": "头道基督教堂", "address": "吉林省延边朝鲜族自治州和龙市头十线", "image": "", "rank": 15, "time": 2, "location": {"lat": 42.7591739080616, "lng": 129.14845652242445}, "feature": {"sight_features": "", "sight_content": ""}}, {"title": "民生广场", "address": "华滨路民安家园对面", "image": "", "rank": 16, "time": 2, "location": {"lat": 42.550089093932286, "lng": 128.99801073475007}, "feature": {"sight_features": "", "sight_content": ""}}, {"title": "腾飞广场", "address": "人民大街与文化路交汇处", "image": "", "rank": 17, "time": 2, "location": {"lat": 42.28230792813248, "lng": 125.73764054114662}, "feature": {"sight_features": "", "sight_content": ""}}, {"title": "和龙市基督教会", "address": "池秀路49号", "image": "", "rank": 18, "time": 2, "location": {"lat": 42.545796655965525, "lng": 129.00729311602547}, "feature": {"sight_features": "", "sight_content": ""}}, {"title": "和龙市头道镇新北基督教会", "address": "吉林省延边朝鲜族自治州和龙市镇兴头十线头道镇政府西南100米", "image": "", "rank": 19, "time": 2, "location": {"lat": 42.55232256843248, "lng": 129.01738712621045}, "feature": {"sight_features": "", "sight_content": ""}}, {"title": "十三勇士纪念碑", "address": "人民体育场东侧", "image": "", "rank": 20, "time": 2, "location": {"lat": 38.86444454449718, "lng": 115.49497755752839}, "feature": {"sight_features": "", "sight_content": ""}}, {"title": "和龙市文化馆艺术幼儿园", "address": "人民大街94-9号", "image": "", "rank": 21, "time": 2, "location": {"lat": 42.393240918141856, "lng": 122.54261651378121}, "feature": {"sight_features": "", "sight_content": ""}}, {"title": "八林门球场", "address": "民土线", "image": "", "rank": 22, "time": 2, "location": {"lat": 42.63931693022477, "lng": 129.10625575280375}, "feature": {"sight_features": "", "sight_content": ""}}, {"title": "和龙市图书馆", "address": "人民大街93附近", "image": "", "rank": 23, "time": 2, "location": {"lat": 38.985946442811205, "lng": 116.10706063788122}, "feature": {"sight_features": "", "sight_content": ""}}, {"title": "彩虹游乐场", "address": "202省道金达莱民俗村内", "image": "", "rank": 24, "time": 2, "location": {"lat": 42.851721393834666, "lng": 129.51335588132687}, "feature": {"sight_features": "", "sight_content": ""}}, {"title": "金达莱朝鲜族民俗村", "address": "和龙市西城镇境内", "image": "", "rank": 25, "time": 2, "location": {"lat": 42.70342972364497, "lng": 129.10223414862884}, "feature": {"sight_features": "", "sight_content": ""}}, {"title": "老里克湖景区", "address": "吉林省延边朝鲜族自治州和龙市", "image": "", "rank": 26, "time": 2, "location": {"lat": 42.55232256843248, "lng": 129.01738712621045}, "feature": {"sight_features": "", "sight_content": ""}}]}