{"cityName": "衡东", "days": 2, "cityImage": "", "spots": [{"title": "罗荣桓故居", "address": "衡阳市衡东县002县道与315省道交叉口西南50米", "image": "", "rank": 1, "time": 2.5, "location": {"lat": 26.99713929784759, "lng": 113.19448375212818}, "feature": {"sight_features": "", "sight_content": ""}}, {"title": "锡岩仙洞", "address": "衡阳市衡东县荣桓镇锡岩村", "image": "", "rank": 2, "time": 2.5, "location": {"lat": 27.071543329913464, "lng": 113.13787855216513}, "feature": {"sight_features": "", "sight_content": ""}}, {"title": "蓬源仙森林公园", "address": "株洲市株洲县渌口区蓬源镇蓬源仙", "image": "", "rank": 3, "time": 4.0, "location": {"lat": 27.53593624049437, "lng": 113.15334777322079}, "feature": {"sight_features": "", "sight_content": ""}}, {"title": "武家山森林公园", "address": "湖南省衡阳市衡东县衡岳北路76号", "image": "", "rank": 4, "time": 2, "location": {"lat": 27.109873026559395, "lng": 112.96788063578303}, "feature": {"sight_features": "", "sight_content": ""}}, {"title": "滨江公园", "address": "衡阳市衡东县洣江大道", "image": "", "rank": 5, "time": 3.5, "location": {"lat": 27.085912704929694, "lng": 112.95093005367995}, "feature": {"sight_features": "", "sight_content": ""}}, {"title": "北山朝圣古道", "address": "湖南省衡阳市南岳区龙凤乡", "image": "", "rank": 6, "time": 2, "location": {"lat": 27.3104827468795, "lng": 112.67780719748161}, "feature": {"sight_features": "", "sight_content": ""}}, {"title": "衡东县博物馆", "address": "衡岳南路38号", "image": "", "rank": 7, "time": 2, "location": {"lat": 27.08309970539176, "lng": 112.95752423325692}, "feature": {"sight_features": "", "sight_content": ""}}, {"title": "衡阳钓鱼", "address": "肖家台子附近", "image": "", "rank": 8, "time": null, "location": {"lat": 28.801405515586875, "lng": 112.56499890335596}, "feature": {"sight_features": "", "sight_content": ""}}, {"title": "衡阳盘古山", "address": "湖南省耒阳市上岭村与七岭村交界处 421800", "image": "", "rank": 9, "time": 4.5, "location": {"lat": 26.45739540835003, "lng": 112.83289366909814}, "feature": {"sight_features": "", "sight_content": ""}}, {"title": "四方山", "address": "湖南省衡东县杨林镇 421451", "image": "", "rank": 10, "time": 3.5, "location": {"lat": 26.96146504488638, "lng": 113.12362569469413}, "feature": {"sight_features": "", "sight_content": ""}}, {"title": "衡南字纸塔", "address": "湖南省衡南县茅市镇井冲村 421100", "image": "", "rank": 11, "time": 2, "location": {"lat": 26.999265336318732, "lng": 112.99012318774535}, "feature": {"sight_features": "", "sight_content": ""}}, {"title": "龙门泉", "address": "湖南省石门县南镇乡金河村 415332", "image": "", "rank": 12, "time": 2, "location": {"lat": 29.971034500034794, "lng": 110.58831078306389}, "feature": {"sight_features": "", "sight_content": ""}}, {"title": "耒阳欧阳海烈士墓", "address": "湖南省耒阳市余庆乡联平村 421833", "image": "", "rank": 13, "time": 1.5, "location": {"lat": 26.38742364450358, "lng": 112.82590231362146}, "feature": {"sight_features": "", "sight_content": ""}}, {"title": "锡岩洞", "address": "湖南省衡东县栗木乡 421414", "image": "", "rank": 14, "time": 2, "location": {"lat": 27.042395643701333, "lng": 112.8977132854554}, "feature": {"sight_features": "", "sight_content": ""}}, {"title": "夏拜公祠", "address": "湖南省衡东县三樟乡柴山村 421431", "image": "", "rank": 15, "time": 2, "location": {"lat": 27.43692365987729, "lng": 112.99398537143674}, "feature": {"sight_features": "", "sight_content": ""}}, {"title": "洣江生态园", "address": "湖南省衡阳市衡东县X002", "image": "", "rank": 16, "time": 2, "location": {"lat": 27.087042820264845, "lng": 112.95949529520625}, "feature": {"sight_features": "", "sight_content": ""}}, {"title": "大祠堂", "address": "衡阳市衡东县零零一县道", "image": "", "rank": 17, "time": 2, "location": {"lat": 27.087042820264845, "lng": 112.95949529520625}, "feature": {"sight_features": "", "sight_content": ""}}, {"title": "许家祠堂", "address": "衡阳市衡东县零零九县道", "image": "", "rank": 18, "time": 2, "location": {"lat": 27.087042820264845, "lng": 112.95949529520625}, "feature": {"sight_features": "", "sight_content": ""}}, {"title": "七彩儿童游乐场", "address": "322乡道东100米", "image": "", "rank": 19, "time": 2, "location": {"lat": 35.37720857982394, "lng": 113.08436330673442}, "feature": {"sight_features": "", "sight_content": ""}}, {"title": "李家祠堂", "address": "衡阳市衡东县三零一乡道", "image": "", "rank": 20, "time": 2, "location": {"lat": 27.087042820264845, "lng": 112.95949529520625}, "feature": {"sight_features": "", "sight_content": ""}}, {"title": "李家祠堂", "address": "衡阳市衡东县零零六县道", "image": "", "rank": 21, "time": 2, "location": {"lat": 27.087042820264845, "lng": 112.95949529520625}, "feature": {"sight_features": "", "sight_content": ""}}, {"title": "陈家祠堂", "address": "衡阳市衡东县", "image": "", "rank": 22, "time": 1.5, "location": {"lat": 27.087042820264845, "lng": 112.95949529520625}, "feature": {"sight_features": "", "sight_content": ""}}, {"title": "文体广场", "address": "衡东县东街", "image": "", "rank": 23, "time": 2, "location": {"lat": 27.087042820264845, "lng": 112.95949529520625}, "feature": {"sight_features": "", "sight_content": ""}}, {"title": "波波池游乐园", "address": "洣江大道1071号旁", "image": "", "rank": 24, "time": 2, "location": {"lat": 27.08130732093025, "lng": 112.95871541780343}, "feature": {"sight_features": "", "sight_content": ""}}, {"title": "碧泉寺", "address": "湖南省衡阳市衡东县X004", "image": "", "rank": 25, "time": 2, "location": {"lat": 27.087042820264845, "lng": 112.95949529520625}, "feature": {"sight_features": "", "sight_content": ""}}, {"title": "晏公庙", "address": "湖南省衡阳市衡东县杨林镇石硖村下湾", "image": "", "rank": 26, "time": 1.0, "location": {"lat": 27.01091417231096, "lng": 113.10439576386878}, "feature": {"sight_features": "", "sight_content": ""}}, {"title": "金堰广场", "address": "衡阳市衡东县衡岳北路988号", "image": "", "rank": 27, "time": null, "location": {"lat": 27.10948890432288, "lng": 112.95570816561393}, "feature": {"sight_features": "", "sight_content": ""}}, {"title": "荣桓图书馆", "address": "兴衡东路100号", "image": "", "rank": 28, "time": 2, "location": {"lat": 27.086969365798534, "lng": 112.961943325341}, "feature": {"sight_features": "", "sight_content": ""}}, {"title": "农业局植保站", "address": "城关镇衡岳北路8号", "image": "", "rank": 29, "time": 2, "location": {"lat": 27.08734950987154, "lng": 112.9562716189864}, "feature": {"sight_features": "", "sight_content": ""}}, {"title": "衡东丫咀冲钓鱼山庄", "address": "朗山村九组(踏庄乡卫生院)", "image": "", "rank": 30, "time": 2.5, "location": {"lat": 27.114149170769313, "lng": 113.0154730503301}, "feature": {"sight_features": "", "sight_content": ""}}, {"title": "观湘洲", "address": "湖南省衡山县城北", "image": "", "rank": 31, "time": 2, "location": {"lat": 27.23599602965559, "lng": 112.87556328770634}, "feature": {"sight_features": "", "sight_content": ""}}, {"title": "鸡婆坳", "address": "衡阳市-衡东县", "image": "", "rank": 32, "time": 2, "location": {"lat": 27.087042820264845, "lng": 112.95949529520625}, "feature": {"sight_features": "", "sight_content": ""}}, {"title": "秧子冲", "address": "衡阳市-衡东县", "image": "", "rank": 33, "time": 2, "location": {"lat": 27.087042820264845, "lng": 112.95949529520625}, "feature": {"sight_features": "", "sight_content": ""}}, {"title": "望日台", "address": "衡山景区内(近上封寺)", "image": "", "rank": 34, "time": 2, "location": {"lat": 27.23599602965559, "lng": 112.87556328770634}, "feature": {"sight_features": "", "sight_content": ""}}]}