{"cityName": "衡阳县", "days": 2, "cityImage": "", "spots": [{"title": "岣嵝峰", "address": "衡阳市衡阳县Z001县道", "image": "", "rank": 1, "time": 3.5, "location": {"lat": 26.975294950860984, "lng": 112.37755268433024}, "feature": {"sight_features": "", "sight_content": ""}}, {"title": "湘西草堂", "address": "湖南省衡阳市衡阳县曲兰乡湘西村菜塘弯", "image": "", "rank": 2, "time": 2.5, "location": {"lat": 27.22861189098287, "lng": 112.21128543522137}, "feature": {"sight_features": "", "sight_content": ""}}, {"title": "金兰龙王峡漂流", "address": "衡阳市衡阳县金兰镇龙王村", "image": "", "rank": 3, "time": 2.0, "location": {"lat": 27.122771259211994, "lng": 112.12313569021784}, "feature": {"sight_features": "特色1 全国落差最大的自助峡谷漂流", "sight_content": "龙王峡生态旅游度假景区位于衡阳县金兰镇，这里山川秀美，钟灵毓秀。晚清常大淳，台湾刘兆玄，都根植这方山水。这里北亘古城峰，东屹聚湖峰，南面为城坪冲山脉，有西汉时期的钟县遗址，常年山清水秀，环境清幽。龙王峡漂流是落差大的自助峡谷漂流，河道长3.8公里，落差172米。河道经过专家精心设计、科学施工，为勇者度身打造。出口陡悬，河床幽曲，沿河两岸青山高耸、绿树蔽日、危崖刺天、峭壁如削、神秘莫测。\n\n\n衡阳龙王峡生态旅游度假景区距衡阳市区、邵阳市区均在60公里左右，景区距衡邵高速（S80）金兰出口6公里。景区距省道S315线1.5公里；交通十分便，漂流过程能够带给人99分贝全程尖叫的刺激感，更有百分百的安全保障。"}}, {"title": "夏明翰故居", "address": "湖南省衡阳市衡阳县洪市镇礼梓村余家组（210国道）", "image": "", "rank": 4, "time": 2, "location": {"lat": 27.19775143198591, "lng": 112.26805982833223}, "feature": {"sight_features": "", "sight_content": ""}}, {"title": "翻身堂", "address": "湖南省衡阳市衡阳县x053", "image": "", "rank": 5, "time": 2, "location": {"lat": 26.975294950860984, "lng": 112.37755268433024}, "feature": {"sight_features": "", "sight_content": ""}}, {"title": "香樟生态园", "address": "107国道", "image": "", "rank": 6, "time": 2, "location": {"lat": 23.102877208493197, "lng": 113.67228113407819}, "feature": {"sight_features": "", "sight_content": ""}}, {"title": "湖南省衡阳县图书馆", "address": "中心南路12号", "image": "", "rank": 7, "time": 2, "location": {"lat": 32.07593616124606, "lng": 119.86850260508457}, "feature": {"sight_features": "", "sight_content": ""}}, {"title": "北宋墓", "address": "湖南省衡阳县金星乡 421200", "image": "", "rank": 8, "time": 2, "location": {"lat": 26.975294950860984, "lng": 112.37755268433024}, "feature": {"sight_features": "", "sight_content": ""}}, {"title": "道子坪东汉墓", "address": "湖南省衡阳县西渡镇 421200", "image": "", "rank": 9, "time": 2, "location": {"lat": 26.962890368244572, "lng": 112.39403881823056}, "feature": {"sight_features": "", "sight_content": ""}}, {"title": "金江温泉", "address": "湖南省临武县境内 424303", "image": "", "rank": 10, "time": 2, "location": {"lat": 25.282527010968707, "lng": 112.57041115183141}, "feature": {"sight_features": "", "sight_content": ""}}, {"title": "怀素塔", "address": "湖南省衡东县新塘景区 421411", "image": "", "rank": 11, "time": 2, "location": {"lat": 27.22322690100169, "lng": 112.89085577660134}, "feature": {"sight_features": "", "sight_content": ""}}, {"title": "衡阳县宇石寨", "address": "湖南省衡阳县石市乡塔山村 421200", "image": "", "rank": 12, "time": 7.5, "location": {"lat": 27.218091293008655, "lng": 112.46459423114855}, "feature": {"sight_features": "", "sight_content": ""}}, {"title": "石船山", "address": "江西省赣州市章贡区沙河镇 341008", "image": "", "rank": 13, "time": 2, "location": {"lat": 25.82361563876187, "lng": 115.03065912132482}, "feature": {"sight_features": "", "sight_content": ""}}, {"title": "明翰广场", "address": "衡阳市衡阳县红旗路15号", "image": "", "rank": 14, "time": 2, "location": {"lat": 26.974632240135506, "lng": 112.38081300333012}, "feature": {"sight_features": "", "sight_content": ""}}, {"title": "钓鱼台度假村", "address": "西渡镇英陂", "image": "", "rank": 15, "time": 2, "location": {"lat": 26.957187422256574, "lng": 112.43076430975576}, "feature": {"sight_features": "", "sight_content": ""}}, {"title": "珠晖塔", "address": "湖南省衡阳市珠晖区茶山坳镇藕塘村 421002", "image": "", "rank": 16, "time": 2, "location": {"lat": 26.945144182230873, "lng": 112.6710451722151}, "feature": {"sight_features": "", "sight_content": ""}}, {"title": "杨家祠堂", "address": "衡阳市衡阳县一零七国道", "image": "", "rank": 17, "time": 2.0, "location": {"lat": 27.06454925455832, "lng": 112.69272002833262}, "feature": {"sight_features": "", "sight_content": ""}}, {"title": "尹祠堂", "address": "衡阳市衡阳县二一零省道", "image": "", "rank": 18, "time": 2, "location": {"lat": 26.97005071033206, "lng": 112.22325901134299}, "feature": {"sight_features": "", "sight_content": ""}}, {"title": "欧祠堂", "address": "蒸阳大道东200米", "image": "", "rank": 19, "time": 2, "location": {"lat": 26.962848705497972, "lng": 112.39890015120812}, "feature": {"sight_features": "", "sight_content": ""}}, {"title": "尹祠堂", "address": "湖南省衡阳市衡阳县内", "image": "", "rank": 20, "time": 2, "location": {"lat": 26.975294950860984, "lng": 112.37755268433024}, "feature": {"sight_features": "", "sight_content": ""}}, {"title": "吴家祠堂", "address": "衡阳市衡阳县一零一乡道", "image": "", "rank": 21, "time": 2, "location": {"lat": 26.975294950860984, "lng": 112.37755268433024}, "feature": {"sight_features": "", "sight_content": ""}}, {"title": "曾家祠堂", "address": "衡阳市衡阳县零五三县道", "image": "", "rank": 22, "time": 2, "location": {"lat": 26.975294950860984, "lng": 112.37755268433024}, "feature": {"sight_features": "", "sight_content": ""}}, {"title": "唐家祠堂", "address": "衡阳市衡阳县零四八县道", "image": "", "rank": 23, "time": 2.5, "location": {"lat": 26.975294950860984, "lng": 112.37755268433024}, "feature": {"sight_features": "", "sight_content": ""}}, {"title": "秀林风景旅游度假村", "address": "湖南省衡阳市衡阳县X055", "image": "", "rank": 24, "time": 2, "location": {"lat": 26.975294950860984, "lng": 112.37755268433024}, "feature": {"sight_features": "", "sight_content": ""}}, {"title": "周祠堂", "address": "衡阳市衡阳县零五一县道", "image": "", "rank": 25, "time": 2, "location": {"lat": 26.975294950860984, "lng": 112.37755268433024}, "feature": {"sight_features": "", "sight_content": ""}}, {"title": "衡阳梧桐皁国家森林公园", "address": "金兰镇甘溪桥村梧桐阜组", "image": "", "rank": 26, "time": 4.5, "location": {"lat": 28.23884389237594, "lng": 110.03070205213947}, "feature": {"sight_features": "", "sight_content": ""}}, {"title": "罗庆干故居旅游景区", "address": "湖南省衡阳市衡阳县金兰镇甘溪桥村梧桐皁组梧桐山", "image": "", "rank": 27, "time": 2, "location": {"lat": 27.122771259211994, "lng": 112.12313569021784}, "feature": {"sight_features": "", "sight_content": ""}}, {"title": "博文儿童主题乐园", "address": "衡阳市衡阳县", "image": "", "rank": 28, "time": 2, "location": {"lat": 26.975294950860984, "lng": 112.37755268433024}, "feature": {"sight_features": "", "sight_content": ""}}, {"title": "衡阳蝶丽度假村", "address": "衡阳衡阳西渡镇S315线咸水村地段", "image": "", "rank": 29, "time": 4.5, "location": {"lat": 26.988719104098756, "lng": 112.37845868292831}, "feature": {"sight_features": "", "sight_content": ""}}, {"title": "甘溪渡假村", "address": "衡阳衡阳县金兰镇甘溪村", "image": "", "rank": 30, "time": 2, "location": {"lat": 27.055914767710703, "lng": 112.11694161860981}, "feature": {"sight_features": "", "sight_content": ""}}, {"title": "聚龙湾生态旅游度假村", "address": "湖南省衡阳县库宗桥镇老塘冲", "image": "", "rank": 31, "time": 2, "location": {"lat": 27.050046625355133, "lng": 112.1766936573326}, "feature": {"sight_features": "", "sight_content": ""}}, {"title": "婴儿游泳馆儿童游乐场", "address": "向阳南路与春风中路交叉口东北50米", "image": "", "rank": 32, "time": 2, "location": {"lat": 26.972044500152137, "lng": 112.38105705946253}, "feature": {"sight_features": "", "sight_content": ""}}, {"title": "龙井生态休闲山庄", "address": "衡阳Z001附近", "image": "", "rank": 33, "time": 0.4, "location": {"lat": 26.899576139189122, "lng": 112.57844721325992}, "feature": {"sight_features": "", "sight_content": ""}}, {"title": "欣鑫农牧鸸鹋生态园", "address": "湖南省衡阳县关市镇雷祖村", "image": "", "rank": 34, "time": 2, "location": {"lat": 26.942795764214036, "lng": 112.06561615178838}, "feature": {"sight_features": "", "sight_content": ""}}, {"title": "龙浩画廊", "address": "新农巷与春风中路交叉口北50米", "image": "", "rank": 35, "time": 2, "location": {"lat": 26.96813173689522, "lng": 112.38920215901042}, "feature": {"sight_features": "", "sight_content": ""}}, {"title": "精品画廊", "address": "文明路12-2号附近", "image": "", "rank": 36, "time": 2, "location": {"lat": 24.776184298081645, "lng": 115.03960702662533}, "feature": {"sight_features": "", "sight_content": ""}}, {"title": "衡阳县汇源葛根种植专业合作社", "address": "石市镇梅丰村石山组", "image": "", "rank": 37, "time": 2, "location": {"lat": 27.343171197064475, "lng": 112.4784402936644}, "feature": {"sight_features": "", "sight_content": ""}}, {"title": "王船山墓", "address": "湖南省衡阳县曲兰镇船山村", "image": "", "rank": 38, "time": 2, "location": {"lat": 27.204230888175317, "lng": 112.22322221944422}, "feature": {"sight_features": "", "sight_content": ""}}, {"title": "欧阳海纪念馆", "address": "湖南省衡东县新塘镇", "image": "", "rank": 39, "time": 2, "location": {"lat": 27.198810937261385, "lng": 112.90297627058906}, "feature": {"sight_features": "", "sight_content": ""}}, {"title": "江口鸟洲", "address": "湖南省衡南县江口乡", "image": "", "rank": 40, "time": 3.0, "location": {"lat": 26.74453195677219, "lng": 112.68440252778792}, "feature": {"sight_features": "", "sight_content": ""}}, {"title": "金兰寺", "address": "湖南省衡阳县金兰镇", "image": "", "rank": 41, "time": 2, "location": {"lat": 27.122771259211994, "lng": 112.12313569021784}, "feature": {"sight_features": "", "sight_content": ""}}, {"title": "洪市精品城", "address": "湖南省衡阳县210省道", "image": "", "rank": 42, "time": 2, "location": {"lat": 26.97005071033206, "lng": 112.22325901134299}, "feature": {"sight_features": "", "sight_content": ""}}, {"title": "恩波塘", "address": "衡阳市-衡阳县-二一零省道", "image": "", "rank": 43, "time": 2, "location": {"lat": 26.97005071033206, "lng": 112.22325901134299}, "feature": {"sight_features": "", "sight_content": ""}}, {"title": "道士坪", "address": "衡阳市-衡阳县-零五一县道", "image": "", "rank": 44, "time": 2, "location": {"lat": 26.975294950860984, "lng": 112.37755268433024}, "feature": {"sight_features": "", "sight_content": ""}}, {"title": "欧槽坊", "address": "衡阳市-衡阳县", "image": "", "rank": 45, "time": 2, "location": {"lat": 26.975294950860984, "lng": 112.37755268433024}, "feature": {"sight_features": "", "sight_content": ""}}]}