{"cityName": "衡山", "days": 2, "cityImage": "", "spots": [{"title": "南岳大庙", "address": "衡阳市南岳区北支街2号", "image": "", "rank": 1, "time": 2.5, "location": {"lat": 27.2517062497937, "lng": 112.74126158349816}, "feature": {"sight_features": "特色1 在大庙里敬香祈福，祈求衡山之神“火神祝融”的保佑。 特色2 角楼高耸，寿涧山泉，绕墙流注，颇似北京故宫风貌。 特色3 大庙中还供奉着奎星、财神、文珠菩萨等众多神灵。", "sight_content": "‍‍‍‍‍‍‍‍\n‍‍‍‍‍位于衡阳市南岳区（原南岳镇）衡山脚下的南岳大庙，始建于唐代，后历次修缮，现存建筑是清光绪八年（1882年）重修。大庙内主殿供奉着衡山山神——火神祝融，传说中是“黄帝”手下一名管火的官员，主管南方事务，火神住在衡山，死后葬于衡山。\n南岳大庙是中国江南大的古建筑群，有“南国故宫”之称，始建于唐，后经唐、宋、元、明、清六次大火和十六次修缮扩建，于光绪八年（1882年）形成现在98500平方米的规模。南岳大庙分为九进四重院落，四周围以红墙，角楼高耸，寿涧山泉，绕墙流注，颇似北京故宫风貌。南岳大庙佛道共存，东侧为八个道观，西侧为八个佛寺，每年八月十五，这里都要举行盛大规模的庙会，不少东南亚的佛国华侨，日本佛教界人士，以及回乡的善男信女，都不惜长途跋涉来此朝拜，因此这里常年香火不息。\n南岳大庙分为九进四重院落，包括正殿、寝宫、御书楼、盘龙亭等建筑。四周围以红墙，角楼高耸，寿涧山泉，绕墙流注，颇似北京故宫风貌。南岳大庙佛道共存，东侧为八个道观，西侧为八个佛寺，南岳大庙四群院落和九个建筑体组成，保持了唐宋以来的艺术精华。\n第一进是正门，也叫棂星门，由花岗石砌成，门前有一对石狮子，姿态雄伟，  南岳大庙门内翠柏挺立，绿草如茵；第二进为奎星阁，其上为戏台，阁东有钟亭，阁西有鼓亭；第三进为城门式的三大洞门，正中叫正川门，门内有玲珑别致的御碑亭，亭内有清圣祖康熙四十七年（1708）为重修南岳庙而立的一个巨大的龟驮石碑，碑文系康熙亲笔；第四进为御碑亭，内有清代康熙皇帝题词的碑一座；第五进为嘉应门，现加以改建，内设南岳文物保管所，南岳书画院，大庙招待所等。\n含祈福香套餐图示例，可供参考：\n‍‍‍‍"}}, {"title": "祝融峰", "address": "衡阳市南岳区南岳镇金沙路南岳衡山风景名胜区内", "image": "", "rank": 2, "time": 2.5, "location": {"lat": 27.2525157598087, "lng": 112.73960314623908}, "feature": {"sight_features": "", "sight_content": ""}}, {"title": "水帘洞", "address": "衡阳市南岳区南岳镇金沙路南岳衡山风景名胜区内", "image": "", "rank": 3, "time": 1.5, "location": {"lat": 27.2525157598087, "lng": 112.73960314623908}, "feature": {"sight_features": "", "sight_content": ""}}, {"title": "南岳忠烈祠", "address": "衡山风景区内，神州祖庙和延寿亭之间。", "image": "", "rank": 4, "time": 1.5, "location": {"lat": 27.23599602965559, "lng": 112.87556328770634}, "feature": {"sight_features": "", "sight_content": ""}}, {"title": "麻姑仙境", "address": "衡阳市衡山风景区内，半山亭以西约1公里处", "image": "", "rank": 5, "time": 1.0, "location": {"lat": 27.278998903530265, "lng": 112.7122712381235}, "feature": {"sight_features": "", "sight_content": ""}}, {"title": "上封寺", "address": "衡阳市衡山风景区内", "image": "", "rank": 6, "time": 1.5, "location": {"lat": 27.23599602965559, "lng": 112.87556328770634}, "feature": {"sight_features": "", "sight_content": ""}}, {"title": "磨镜台", "address": "衡阳市南岳区南岳镇金沙路南岳衡山风景名胜区内", "image": "", "rank": 7, "time": 0.65, "location": {"lat": 27.2525157598087, "lng": 112.73960314623908}, "feature": {"sight_features": "", "sight_content": ""}}, {"title": "祝圣寺", "address": "衡阳市南岳区东街67号", "image": "", "rank": 8, "time": 1.0, "location": {"lat": 27.23836047456236, "lng": 112.74557434825013}, "feature": {"sight_features": "", "sight_content": ""}}, {"title": "福严寺", "address": "衡阳市衡山风景区内，距离半山亭约3公里。", "image": "", "rank": 9, "time": 1.0, "location": {"lat": 27.278998903530265, "lng": 112.7122712381235}, "feature": {"sight_features": "", "sight_content": ""}}, {"title": "藏经殿", "address": "衡阳市衡山风景区内，距离“民俗文化城”约1.5公里。", "image": "", "rank": 10, "time": 1.0, "location": {"lat": 27.23599602965559, "lng": 112.87556328770634}, "feature": {"sight_features": "", "sight_content": ""}}, {"title": "花果山景区", "address": "衡阳市衡山县白果镇棠兴村境内", "image": "", "rank": 11, "time": 1.5, "location": {"lat": 27.425268631192857, "lng": 112.66452719140301}, "feature": {"sight_features": "", "sight_content": ""}}, {"title": "南天门", "address": "衡阳市南岳区南岳镇金沙路南岳衡山风景名胜区内", "image": "", "rank": 12, "time": 1.5, "location": {"lat": 27.2525157598087, "lng": 112.73960314623908}, "feature": {"sight_features": "", "sight_content": ""}}, {"title": "半山亭", "address": "衡阳市南岳区南岳衡山风景名胜区内", "image": "", "rank": 13, "time": 0.35, "location": {"lat": 27.257665008684427, "lng": 112.7264618295481}, "feature": {"sight_features": "", "sight_content": ""}}, {"title": "会仙桥", "address": "衡阳市南岳区南岳衡山风景名胜区祝融峰巅的青玉坛内", "image": "", "rank": 14, "time": 0.3, "location": {"lat": 27.29982217299657, "lng": 112.70287295477942}, "feature": {"sight_features": "", "sight_content": ""}}, {"title": "穿岩诗林", "address": "衡阳市南岳区038县道旁香炉峰山腰", "image": "", "rank": 15, "time": 1.0, "location": {"lat": 27.265461761146412, "lng": 112.73033962578926}, "feature": {"sight_features": "", "sight_content": ""}}, {"title": "南岳索道", "address": "衡阳市南岳区衡山风景名胜区", "image": "", "rank": 16, "time": 25.0, "location": {"lat": 27.23836047456236, "lng": 112.74557434825013}, "feature": {"sight_features": "", "sight_content": ""}}, {"title": "金刚舍利塔", "address": "衡阳市南岳区南岳衡山风景名胜区内", "image": "", "rank": 17, "time": 1.0, "location": {"lat": 27.257665008684427, "lng": 112.7264618295481}, "feature": {"sight_features": "", "sight_content": ""}}, {"title": "方广寺", "address": "衡阳市南岳区050乡道附近", "image": "", "rank": 18, "time": 1.5, "location": {"lat": 27.256819225817214, "lng": 112.69010281523015}, "feature": {"sight_features": "", "sight_content": ""}}, {"title": "大善寺", "address": "衡阳市南岳区南岳古镇北支街", "image": "", "rank": 19, "time": 2.5, "location": {"lat": 27.248711655792523, "lng": 112.74021049688231}, "feature": {"sight_features": "", "sight_content": ""}}, {"title": "萱洲古镇", "address": "衡阳市衡山县", "image": "", "rank": 20, "time": 3.5, "location": {"lat": 27.23599602965559, "lng": 112.87556328770634}, "feature": {"sight_features": "", "sight_content": ""}}, {"title": "南台寺", "address": "", "image": "", "rank": 21, "time": 1.0, "location": {"lat": 24.95658505230842, "lng": 118.61017997894133}, "feature": {"sight_features": "", "sight_content": ""}}, {"title": "广济寺", "address": "", "image": "", "rank": 22, "time": 2.5, "location": {"lat": 39.930920399543346, "lng": 116.37895578991066}, "feature": {"sight_features": "", "sight_content": ""}}, {"title": "龙凤溪", "address": "", "image": "", "rank": 23, "time": 1.0, "location": {"lat": 29.81936487894757, "lng": 106.43295871691993}, "feature": {"sight_features": "", "sight_content": ""}}, {"title": "莲花峰", "address": "", "image": "", "rank": 24, "time": 1.5, "location": {"lat": 30.22459474929329, "lng": 120.1565327748366}, "feature": {"sight_features": "", "sight_content": ""}}, {"title": "黄庭观", "address": "", "image": "", "rank": 25, "time": 1.0, "location": {"lat": 27.249582584229294, "lng": 112.72782932631364}, "feature": {"sight_features": "", "sight_content": ""}}, {"title": "掷钵峰", "address": "", "image": "", "rank": 26, "time": 1.0, "location": {"lat": 27.27784413588752, "lng": 112.70511053588874}, "feature": {"sight_features": "", "sight_content": ""}}, {"title": "芙蓉峰", "address": "衡山县西北十里", "image": "", "rank": 27, "time": 0.25, "location": {"lat": 27.23599602965559, "lng": 112.83064801222228}, "feature": {"sight_features": "", "sight_content": ""}}, {"title": "九仙观", "address": "衡阳市南岳区", "image": "", "rank": 28, "time": 0.4, "location": {"lat": 27.23836047456236, "lng": 112.74557434825013}, "feature": {"sight_features": "", "sight_content": ""}}, {"title": "印山休闲山庄", "address": "107国道291乡道路口附近", "image": "", "rank": 29, "time": 2, "location": {"lat": 23.102877208493197, "lng": 113.67228113407819}, "feature": {"sight_features": "", "sight_content": ""}}, {"title": "禹王城", "address": "衡阳市衡山县", "image": "", "rank": 31, "time": 2.0, "location": {"lat": 27.23599602965559, "lng": 112.87556328770634}, "feature": {"sight_features": "", "sight_content": ""}}, {"title": "灵芝泉", "address": "湖南省衡阳市南岳区", "image": "", "rank": 32, "time": 2, "location": {"lat": 27.23836047456236, "lng": 112.74557434825013}, "feature": {"sight_features": "", "sight_content": ""}}, {"title": "紫巾山森林公园", "address": "湖南省衡山县县城中心", "image": "", "rank": 33, "time": 2, "location": {"lat": 27.23599602965559, "lng": 112.87556328770634}, "feature": {"sight_features": "", "sight_content": ""}}, {"title": "衡阳岳北农工会旧址", "address": "湖南省衡山县白果镇岳北村", "image": "", "rank": 34, "time": 4.5, "location": {"lat": 27.39769458735899, "lng": 112.62249961420021}, "feature": {"sight_features": "", "sight_content": ""}}, {"title": "春富农场", "address": "萱洲镇石塘村二组13号", "image": "", "rank": 35, "time": 2, "location": {"lat": 27.09545900602882, "lng": 112.74860136024137}, "feature": {"sight_features": "", "sight_content": ""}}, {"title": "御香园生态农庄", "address": "开云镇蒋家湾", "image": "", "rank": 36, "time": 2, "location": {"lat": 27.24365836043815, "lng": 112.80191783588597}, "feature": {"sight_features": "", "sight_content": ""}}, {"title": "楚和冰淇淋批发", "address": "人民西路543号", "image": "", "rank": 37, "time": 2, "location": {"lat": 31.89650849551166, "lng": 121.16371582822414}, "feature": {"sight_features": "", "sight_content": ""}}, {"title": "木子塘垂钓休闲中心", "address": "岭坡乡云桥村6组S314", "image": "", "rank": 38, "time": 2, "location": {"lat": 27.396861187908947, "lng": 112.69330249860815}, "feature": {"sight_features": "", "sight_content": ""}}, {"title": "象形山", "address": "湖南省浏阳市达浒镇象形村 410305", "image": "", "rank": 39, "time": 2, "location": {"lat": 28.406428529912695, "lng": 113.8820301633998}, "feature": {"sight_features": "", "sight_content": ""}}, {"title": "大深潭温泉", "address": "湖南省冷水江市同心乡同心村 417500", "image": "", "rank": 40, "time": 2, "location": {"lat": 27.702826428561423, "lng": 111.46352171507465}, "feature": {"sight_features": "", "sight_content": ""}}, {"title": "衡山西站-站前广场", "address": "湖南省衡阳市衡山县", "image": "", "rank": 41, "time": 4.5, "location": {"lat": 27.23599602965559, "lng": 112.87556328770634}, "feature": {"sight_features": "", "sight_content": ""}}, {"title": "逸趣园", "address": "湖南省衡阳市衡山县店门镇衡山九龙峡漂流南250米", "image": "", "rank": 42, "time": 2, "location": {"lat": 27.12690296056829, "lng": 112.66448862175766}, "feature": {"sight_features": "", "sight_content": ""}}, {"title": "狮子岩", "address": "南岳衡山上", "image": "", "rank": 43, "time": 4.0, "location": {"lat": 27.23836047456236, "lng": 112.74557434825013}, "feature": {"sight_features": "", "sight_content": ""}}, {"title": "熊家祠堂", "address": "衡阳市衡山县零五一乡道", "image": "", "rank": 44, "time": 2, "location": {"lat": 27.23599602965559, "lng": 112.87556328770634}, "feature": {"sight_features": "", "sight_content": ""}}, {"title": "岳北花海主题公园", "address": "314省道附近", "image": "", "rank": 45, "time": 2, "location": {"lat": 40.19306973684933, "lng": 117.32479692178045}, "feature": {"sight_features": "", "sight_content": ""}}, {"title": "谭振三祠堂", "address": "湖南省衡阳市衡山县S5101(南岳高速)", "image": "", "rank": 46, "time": 2, "location": {"lat": 27.23599602965559, "lng": 112.87556328770634}, "feature": {"sight_features": "", "sight_content": ""}}, {"title": "白云古寺", "address": "衡阳市衡山县", "image": "", "rank": 47, "time": 2, "location": {"lat": 27.23599602965559, "lng": 112.87556328770634}, "feature": {"sight_features": "", "sight_content": ""}}, {"title": "云山古刹", "address": "湖南省衡阳市衡山县贺家村云荷路", "image": "", "rank": 48, "time": 2, "location": {"lat": 27.118586481595777, "lng": 112.78209891757861}, "feature": {"sight_features": "", "sight_content": ""}}, {"title": "将军庙", "address": "将军庙街32", "image": "", "rank": 49, "time": 2, "location": {"lat": 36.67237688196831, "lng": 117.02527481686735}, "feature": {"sight_features": "", "sight_content": ""}}, {"title": "喜羊羊儿童乐园", "address": "德政北街58", "image": "", "rank": 50, "time": 2.0, "location": {"lat": 27.24394102890854, "lng": 112.87318510022543}, "feature": {"sight_features": "", "sight_content": ""}}, {"title": "唐群英故居", "address": "湖南省衡阳市衡山县S314", "image": "", "rank": 51, "time": null, "location": {"lat": 27.23599602965559, "lng": 112.87556328770634}, "feature": {"sight_features": "", "sight_content": ""}}, {"title": "刘家祠堂", "address": "衡阳市衡山县三一四省道", "image": "", "rank": 52, "time": 2, "location": {"lat": 27.275514574777937, "lng": 112.85602397507363}, "feature": {"sight_features": "", "sight_content": ""}}, {"title": "九观度假村", "address": "107国道附近", "image": "", "rank": 53, "time": 2, "location": {"lat": 23.102877208493197, "lng": 113.67228113407819}, "feature": {"sight_features": "", "sight_content": ""}}, {"title": "衡山古城", "address": "湖南省衡山县永和乡", "image": "", "rank": 54, "time": 1.5, "location": {"lat": 27.164302587818273, "lng": 112.83359125093659}, "feature": {"sight_features": "", "sight_content": ""}}, {"title": "白果镇", "address": "湖南省衡山县白果镇", "image": "", "rank": 55, "time": 2, "location": {"lat": 27.415026038646545, "lng": 112.6418558916955}, "feature": {"sight_features": "", "sight_content": ""}}, {"title": "紫金山", "address": "282乡道", "image": "", "rank": 56, "time": 1.5, "location": {"lat": 32.16712282525383, "lng": 119.03994007605314}, "feature": {"sight_features": "", "sight_content": ""}}, {"title": "衡山图书馆", "address": "青云西路", "image": "", "rank": 57, "time": 1.5, "location": {"lat": 33.21008266510034, "lng": 118.8581315998885}, "feature": {"sight_features": "", "sight_content": ""}}, {"title": "大丰收农场", "address": "033县道东150米", "image": "", "rank": 58, "time": 2, "location": {"lat": 40.226686186194485, "lng": 116.30378629270045}, "feature": {"sight_features": "", "sight_content": ""}}, {"title": "趣园农家乐", "address": "Z001", "image": "", "rank": 59, "time": 2, "location": {"lat": 37.426699102764246, "lng": 118.55086661252277}, "feature": {"sight_features": "", "sight_content": ""}}, {"title": "巾紫峰 Jinzi Peak", "address": "湖南省衡山县县城西", "image": "", "rank": 60, "time": 2, "location": {"lat": 27.23599602965559, "lng": 112.87556328770634}, "feature": {"sight_features": "", "sight_content": ""}}]}