{"cityName": "衡南", "days": 2, "cityImage": "", "spots": [{"title": "乐翻天动漫城儿童乐园", "address": "湖南省衡阳市衡南县新塘路6号", "image": "", "rank": 1, "time": 1.0, "location": {"lat": 26.750429350662163, "lng": 112.68169458223576}, "feature": {"sight_features": "", "sight_content": ""}}, {"title": "江口鸟洲自然保护区", "address": "衡阳市衡南县江口镇", "image": "", "rank": 2, "time": 3.0, "location": {"lat": 26.66424018719647, "lng": 112.92979557863164}, "feature": {"sight_features": "", "sight_content": ""}}, {"title": "福星公园", "address": "衡阳市衡南县皋兰路2号甲(近思南路)", "image": "", "rank": 3, "time": 2, "location": {"lat": 26.74453195677219, "lng": 112.68440252778792}, "feature": {"sight_features": "", "sight_content": ""}}, {"title": "衡南县双翼家庭农场", "address": "大广村老园艺场橘子山(三塘镇人民广场直行1公里右转200米即到)", "image": "", "rank": 4, "time": 2, "location": {"lat": 26.89734464112473, "lng": 112.49725237319039}, "feature": {"sight_features": "", "sight_content": ""}}, {"title": "衡南县档案馆", "address": "黄金路9号", "image": "", "rank": 5, "time": 2, "location": {"lat": 33.74177421934893, "lng": 113.34113638740213}, "feature": {"sight_features": "", "sight_content": ""}}, {"title": "新民农场", "address": "200乡道附近", "image": "", "rank": 6, "time": 3.5, "location": {"lat": 26.735296232856083, "lng": 112.65777585417545}, "feature": {"sight_features": "", "sight_content": ""}}, {"title": "富强果业专业合作社", "address": "岳屏镇斯泉南高速张公塘西北侧", "image": "", "rank": 7, "time": 2, "location": {"lat": 26.787901719432035, "lng": 112.57307204414097}, "feature": {"sight_features": "", "sight_content": ""}}, {"title": "王氏宗祠", "address": "湖南省衡南县栗江镇大渔村 421126", "image": "", "rank": 8, "time": 2, "location": {"lat": 26.672734595053278, "lng": 112.5277647355562}, "feature": {"sight_features": "", "sight_content": ""}}, {"title": "节孝亭", "address": "湖南省永州市零陵区河西 425000", "image": "", "rank": 9, "time": 2, "location": {"lat": 26.227682089778906, "lng": 111.63750237493397}, "feature": {"sight_features": "", "sight_content": ""}}, {"title": "三塘人民广场", "address": "三塘镇人民路", "image": "", "rank": 10, "time": 2, "location": {"lat": 26.87841811021162, "lng": 112.49882686020638}, "feature": {"sight_features": "", "sight_content": ""}}, {"title": "衡南县图书馆", "address": "黄金路129", "image": "", "rank": 11, "time": 2, "location": {"lat": 26.743561032252632, "lng": 112.6839923435261}, "feature": {"sight_features": "", "sight_content": ""}}, {"title": "川口洞", "address": "湖南省衡阳县花桥乡 421200", "image": "", "rank": 12, "time": 0.4, "location": {"lat": 26.975294950860984, "lng": 112.37755268433024}, "feature": {"sight_features": "", "sight_content": ""}}, {"title": "李家祠堂", "address": "衡阳市衡南县三一六省道", "image": "", "rank": 13, "time": 2, "location": {"lat": 26.728854765672295, "lng": 112.93165177695037}, "feature": {"sight_features": "", "sight_content": ""}}, {"title": "王家祠堂", "address": "衡阳市衡南县零六五县道", "image": "", "rank": 14, "time": 2, "location": {"lat": 26.74453195677219, "lng": 112.68440252778792}, "feature": {"sight_features": "", "sight_content": ""}}, {"title": "全氏宗祠", "address": "湖南省衡阳市衡南县X067", "image": "", "rank": 15, "time": 2, "location": {"lat": 26.74453195677219, "lng": 112.68440252778792}, "feature": {"sight_features": "", "sight_content": ""}}, {"title": "罗家祠堂", "address": "衡阳市衡南县二二六乡道", "image": "", "rank": 16, "time": 2, "location": {"lat": 26.74453195677219, "lng": 112.68440252778792}, "feature": {"sight_features": "", "sight_content": ""}}, {"title": "迪乐尼儿童主题乐园", "address": "鑫园步行街2楼", "image": "", "rank": 17, "time": 2, "location": {"lat": 26.750502646889935, "lng": 112.68228971322915}, "feature": {"sight_features": "", "sight_content": ""}}, {"title": "莲湖湾国家湿地公园", "address": "衡南县管山坪内", "image": "", "rank": 18, "time": 2, "location": {"lat": 26.74453195677219, "lng": 112.68440252778792}, "feature": {"sight_features": "", "sight_content": ""}}, {"title": "虎岩山寺", "address": "湖南省衡阳市衡南县", "image": "", "rank": 19, "time": 2, "location": {"lat": 26.74453195677219, "lng": 112.68440252778792}, "feature": {"sight_features": "", "sight_content": ""}}, {"title": "李家祠堂", "address": "衡阳市衡南县零七零县道", "image": "", "rank": 20, "time": 2, "location": {"lat": 26.74453195677219, "lng": 112.68440252778792}, "feature": {"sight_features": "", "sight_content": ""}}, {"title": "刘祠堂", "address": "湖南省衡阳市蒸湘区岳临高速公路", "image": "", "rank": 21, "time": 1.0, "location": {"lat": 26.894364951849614, "lng": 112.5286012502231}, "feature": {"sight_features": "", "sight_content": ""}}, {"title": "谢家祠堂", "address": "湖南省衡阳市衡南县零六五县道", "image": "", "rank": 22, "time": 2, "location": {"lat": 26.74453195677219, "lng": 112.68440252778792}, "feature": {"sight_features": "", "sight_content": ""}}, {"title": "陈家祠堂", "address": "衡阳市衡南县", "image": "", "rank": 23, "time": 1.5, "location": {"lat": 26.74453195677219, "lng": 112.68440252778792}, "feature": {"sight_features": "", "sight_content": ""}}, {"title": "王家祠堂", "address": "衡阳市衡南县零一四县道", "image": "", "rank": 24, "time": 2, "location": {"lat": 26.74453195677219, "lng": 112.68440252778792}, "feature": {"sight_features": "", "sight_content": ""}}, {"title": "周家祠堂", "address": "衡阳市衡南县三二二国道", "image": "", "rank": 25, "time": 2, "location": {"lat": 26.8521584164244, "lng": 112.35928061128001}, "feature": {"sight_features": "", "sight_content": ""}}, {"title": "菲霖农家乐", "address": "三塘镇松山村", "image": "", "rank": 26, "time": 2, "location": {"lat": 26.898207405660727, "lng": 112.5087220502262}, "feature": {"sight_features": "", "sight_content": ""}}, {"title": "愽美画廊", "address": "010县道北50米", "image": "", "rank": 27, "time": 2, "location": {"lat": 40.00526247323608, "lng": 115.95978208409595}, "feature": {"sight_features": "", "sight_content": ""}}, {"title": "老周画廊", "address": "政府路与环城北路交叉口西50米", "image": "", "rank": 28, "time": 2, "location": {"lat": 26.87649742364366, "lng": 112.49483879606562}, "feature": {"sight_features": "", "sight_content": ""}}, {"title": "宝盖银杏生态花菇", "address": "宝盖镇盐合村", "image": "", "rank": 29, "time": 2, "location": {"lat": 24.74744639911109, "lng": 118.66582443577192}, "feature": {"sight_features": "", "sight_content": ""}}, {"title": "衡南县云集普贤农耕文化体验园", "address": "学林堂北侧60米", "image": "", "rank": 30, "time": 2, "location": {"lat": 26.71005860983117, "lng": 112.637443553371}, "feature": {"sight_features": "", "sight_content": ""}}, {"title": "汇智光华书店", "address": "衡东高铁站内二楼", "image": "", "rank": 31, "time": 2, "location": {"lat": 27.087042820264845, "lng": 112.95949529520625}, "feature": {"sight_features": "", "sight_content": ""}}, {"title": "仁瑞寺", "address": "湖南省衡南县岐山", "image": "", "rank": 32, "time": 2, "location": {"lat": 26.74453195677219, "lng": 112.68440252778792}, "feature": {"sight_features": "", "sight_content": ""}}, {"title": "盘古岭大庵", "address": "湖南省衡山县硫市乡", "image": "", "rank": 33, "time": 2, "location": {"lat": 27.23599602965559, "lng": 112.87556328770634}, "feature": {"sight_features": "", "sight_content": ""}}, {"title": "京山庵", "address": "湖南省衡山县境内", "image": "", "rank": 34, "time": null, "location": {"lat": 27.23599602965559, "lng": 112.87556328770634}, "feature": {"sight_features": "", "sight_content": ""}}, {"title": "云集天成步行街", "address": "湖南省衡南县云集天成步行街", "image": "", "rank": 35, "time": 2, "location": {"lat": 26.74008430126029, "lng": 112.682460391276}, "feature": {"sight_features": "", "sight_content": ""}}, {"title": "鑫园步行街", "address": "湖南省衡南县鑫园步行街", "image": "", "rank": 36, "time": 2, "location": {"lat": 26.750502646889935, "lng": 112.68228971322915}, "feature": {"sight_features": "", "sight_content": ""}}, {"title": "韵关南华寺", "address": "衡阳市-衡南县-雨母山服务区", "image": "", "rank": 37, "time": 2, "location": {"lat": 26.804589847964884, "lng": 112.54403691644006}, "feature": {"sight_features": "", "sight_content": ""}}, {"title": "道仕塘", "address": "衡阳市-衡南县", "image": "", "rank": 38, "time": 2, "location": {"lat": 26.74453195677219, "lng": 112.68440252778792}, "feature": {"sight_features": "", "sight_content": ""}}, {"title": "桥脚底", "address": "衡阳市-衡南县", "image": "", "rank": 39, "time": 2, "location": {"lat": 26.74453195677219, "lng": 112.68440252778792}, "feature": {"sight_features": "", "sight_content": ""}}]}