{"cityName": "横峰", "days": 2, "cityImage": "", "spots": [{"title": "众德芦笋种植专业合作社", "address": "红桥垦殖场白沙岭分场", "image": "", "rank": 1, "time": 2, "location": {"lat": 28.415953669059736, "lng": 117.61814090841182}, "feature": {"sight_features": "", "sight_content": ""}}, {"title": "革命烈士纪念馆", "address": "葛源镇红城大道", "image": "", "rank": 2, "time": 2, "location": {"lat": 28.60399535777615, "lng": 117.67730028648138}, "feature": {"sight_features": "", "sight_content": ""}}, {"title": "五甲祠堂", "address": "上饶市横峰县二零四省道", "image": "", "rank": 3, "time": 2, "location": {"lat": 28.298888232467437, "lng": 117.67744227534516}, "feature": {"sight_features": "", "sight_content": ""}}, {"title": "列宁公园", "address": "江西省上饶市横峰县列宁公园(排楼路南)", "image": "", "rank": 4, "time": 1.5, "location": {"lat": 28.604951468611624, "lng": 117.68553409280004}, "feature": {"sight_features": "", "sight_content": ""}}, {"title": "城市公园-一号", "address": "中华路（横峰县兴安街道城北社区居民委员会南120米路东）", "image": "", "rank": 5, "time": null, "location": {"lat": 28.42555756861338, "lng": 117.61866459626971}, "feature": {"sight_features": "", "sight_content": ""}}, {"title": "恩典堂", "address": "上饶市横峰县", "image": "", "rank": 6, "time": 2, "location": {"lat": 28.413440462383896, "lng": 117.60239738301532}, "feature": {"sight_features": "", "sight_content": ""}}, {"title": "天野牧场", "address": "上饶市横峰县莲荷乡月光洲", "image": "", "rank": 7, "time": 2, "location": {"lat": 28.332539176275038, "lng": 117.54712181085077}, "feature": {"sight_features": "", "sight_content": "天野牧场位于上饶横峰县信江河月光洲湖畔，面积约600亩。内建有跑马道、训马场、马房，沙滩K歌、沙滩烧烤更有沙滩走廊、游泳池、室外射箭场、真人CS射箭树林场并为户外拓展基地、民兵野外战术训练基地，在这里你能吃到最农家的蔬菜、最野味的兔肉、最香脆的油籽果、最香粘的灯盏果是一个集体闲住行与一体的好地方。"}}, {"title": "闽浙皖赣革命根据地纪念馆", "address": "解放中大道", "image": "", "rank": 8, "time": 2, "location": {"lat": 37.47243271683628, "lng": 116.30429284358429}, "feature": {"sight_features": "", "sight_content": ""}}, {"title": "家园装饰软包材料总经销", "address": "解放东路48号", "image": "", "rank": 9, "time": 2, "location": {"lat": 29.10978100619528, "lng": 119.65892217910731}, "feature": {"sight_features": "", "sight_content": ""}}, {"title": "玉山县文化馆", "address": "解放中路附66号", "image": "", "rank": 10, "time": 2, "location": {"lat": 30.92295847906702, "lng": 121.47345255380512}, "feature": {"sight_features": "", "sight_content": ""}}, {"title": "山水生态农庄", "address": "203省道附近", "image": "", "rank": 11, "time": 2, "location": {"lat": 38.70057735317822, "lng": 114.30841754306506}, "feature": {"sight_features": "", "sight_content": ""}}, {"title": "横峰县博物馆", "address": "古窑路", "image": "", "rank": 12, "time": 2, "location": {"lat": 28.423561124632595, "lng": 117.61517562258537}, "feature": {"sight_features": "", "sight_content": ""}}, {"title": "横峰药用植物园", "address": "上饶市横峰县672县道南150米", "image": "", "rank": 13, "time": 2.5, "location": {"lat": 28.413440462383896, "lng": 117.60239738301532}, "feature": {"sight_features": "", "sight_content": ""}}, {"title": "亭子上", "address": "上饶市横峰县", "image": "", "rank": 14, "time": 2, "location": {"lat": 28.413440462383896, "lng": 117.60239738301532}, "feature": {"sight_features": "", "sight_content": ""}}]}