{"cityName": "横县", "days": 2, "cityImage": "", "spots": [{"title": "九龙瀑布群国家森林公园", "address": "南宁市横县镇龙乡", "image": "", "rank": 1, "time": 4.0, "location": {"lat": 22.68557260883826, "lng": 109.26756780639981}, "feature": {"sight_features": "", "sight_content": ""}}, {"title": "中华茉莉园", "address": "南宁市横县校椅镇石井村", "image": "", "rank": 2, "time": 2, "location": {"lat": 22.781865693307616, "lng": 109.25314362949184}, "feature": {"sight_features": "", "sight_content": ""}}, {"title": "宝华山", "address": "南宁市横县南山林场", "image": "", "rank": 3, "time": 7.5, "location": {"lat": 22.62698375912837, "lng": 109.29144670808535}, "feature": {"sight_features": "", "sight_content": ""}}, {"title": "西津湖", "address": "南宁市横县西津路81号", "image": "", "rank": 4, "time": 3.5, "location": {"lat": 22.660785595412086, "lng": 109.26346290954278}, "feature": {"sight_features": "", "sight_content": ""}}, {"title": "翰墨泉水乐园", "address": "翰墨泉水乐园(龙省保利希望小学)", "image": "", "rank": 5, "time": 2, "location": {"lat": 22.86696870197041, "lng": 109.26268585192096}, "feature": {"sight_features": "", "sight_content": ""}}, {"title": "仁和村", "address": "横县六景镇仁和村", "image": "", "rank": 6, "time": 2, "location": {"lat": 22.784159978991564, "lng": 109.0022123527063}, "feature": {"sight_features": "", "sight_content": ""}}, {"title": "伏波庙", "address": "横县南岸村对岸大王山", "image": "", "rank": 7, "time": 2, "location": {"lat": 22.802169045804412, "lng": 109.43593750811341}, "feature": {"sight_features": "", "sight_content": ""}}, {"title": "百福居画廊", "address": "横州镇城司北路", "image": "", "rank": 8, "time": 2, "location": {"lat": 22.697877452611117, "lng": 109.27374499345748}, "feature": {"sight_features": "", "sight_content": ""}}, {"title": "峦城镇职工书屋", "address": "新城街231号附近", "image": "", "rank": 9, "time": 2, "location": {"lat": 36.905526905073685, "lng": 108.20439613945996}, "feature": {"sight_features": "", "sight_content": ""}}, {"title": "南宁市少年儿童图书馆横县流通站", "address": "城司北路156号附近", "image": "", "rank": 10, "time": 7.5, "location": {"lat": 22.69281429048437, "lng": 109.27488881664262}, "feature": {"sight_features": "", "sight_content": ""}}, {"title": "南方国家级林木种", "address": "广东省遂溪县岭北镇荼亭村 524338", "image": "", "rank": 11, "time": 2, "location": {"lat": 21.27068589124491, "lng": 110.1830773110667}, "feature": {"sight_features": "", "sight_content": ""}}, {"title": "江氏客家围屋", "address": "广西壮族自治区贺州市八步区莲塘镇 542803", "image": "", "rank": 12, "time": 1.0, "location": {"lat": 24.42244792821058, "lng": 111.66900274580104}, "feature": {"sight_features": "", "sight_content": ""}}, {"title": "伏波滩", "address": "广西壮族自治区横县云表乡站圩村 530306", "image": "", "rank": 13, "time": 2, "location": {"lat": 22.810170410825176, "lng": 109.42894245071972}, "feature": {"sight_features": "", "sight_content": ""}}, {"title": "高村塔", "address": "101省道承露塔附近", "image": "", "rank": 14, "time": 2, "location": {"lat": 22.794685772919607, "lng": 108.90703029308804}, "feature": {"sight_features": "", "sight_content": ""}}, {"title": "广西西津水库湿地", "address": "广西壮族自治区横县县城境内 530300", "image": "", "rank": 15, "time": 2, "location": {"lat": 22.68557260883826, "lng": 109.26756780639981}, "feature": {"sight_features": "", "sight_content": ""}}, {"title": "横县革命烈士纪念碑", "address": "广西壮族自治区南宁市横县X471", "image": "", "rank": 16, "time": 2, "location": {"lat": 22.68557260883826, "lng": 109.26756780639981}, "feature": {"sight_features": "", "sight_content": ""}}, {"title": "横县茉莉花文化公园", "address": "茉莉花大道北150米", "image": "", "rank": 17, "time": 2, "location": {"lat": 22.70410511269377, "lng": 109.27604519813879}, "feature": {"sight_features": "", "sight_content": ""}}, {"title": "横县红色文化园", "address": "广西壮族自治区南宁市横县公园路14号", "image": "", "rank": 18, "time": 2, "location": {"lat": 22.69080485820257, "lng": 109.27125806519632}, "feature": {"sight_features": "", "sight_content": ""}}, {"title": "宝华中路与公园路交叉口", "address": "广西壮族自治区南宁市横县", "image": "", "rank": 19, "time": 2, "location": {"lat": 22.68557260883826, "lng": 109.26756780639981}, "feature": {"sight_features": "", "sight_content": ""}}, {"title": "丫丫儿童成长主题乐园", "address": "南宁市横县", "image": "", "rank": 20, "time": 2, "location": {"lat": 22.68557260883826, "lng": 109.26756780639981}, "feature": {"sight_features": "", "sight_content": ""}}, {"title": "横县横州基督教会", "address": "中山南路与教育路交叉口东150米", "image": "", "rank": 21, "time": 2, "location": {"lat": 22.68889156027315, "lng": 109.28468402615752}, "feature": {"sight_features": "", "sight_content": ""}}, {"title": "小海龟儿童乐园邓圩分园", "address": "云邓公路附近", "image": "", "rank": 22, "time": 2, "location": {"lat": 23.54918414264892, "lng": 108.76247996415047}, "feature": {"sight_features": "", "sight_content": ""}}, {"title": "淮海书院", "address": "淮海路325号附近", "image": "", "rank": 23, "time": 2, "location": {"lat": 31.241963994151526, "lng": 121.49009811974858}, "feature": {"sight_features": "", "sight_content": ""}}, {"title": "广场游乐园", "address": "广西壮族自治区南宁市横县横州镇城城司北路7号", "image": "", "rank": 24, "time": 2, "location": {"lat": 22.73239628259881, "lng": 109.33301338629047}, "feature": {"sight_features": "", "sight_content": ""}}, {"title": "聚翠轩艺术馆", "address": "公园路31", "image": "", "rank": 25, "time": 2, "location": {"lat": 50.25232514490056, "lng": 127.51490843408591}, "feature": {"sight_features": "", "sight_content": ""}}, {"title": "横县博物馆", "address": "横州镇环城西路248号", "image": "", "rank": 26, "time": 2.5, "location": {"lat": 22.683783156200096, "lng": 109.26588563950239}, "feature": {"sight_features": "", "sight_content": ""}}, {"title": "端书图书馆", "address": "城司路188", "image": "", "rank": 27, "time": 2, "location": {"lat": 31.04222269038638, "lng": 120.87534067633065}, "feature": {"sight_features": "", "sight_content": ""}}, {"title": "绿城林业调查规划设计院(横县办...", "address": "茉莉花大道32号", "image": "", "rank": 28, "time": 2, "location": {"lat": 22.70287604499195, "lng": 109.28271629153177}, "feature": {"sight_features": "", "sight_content": ""}}, {"title": "文化馆(江北路店)", "address": "江北路", "image": "", "rank": 29, "time": 2, "location": {"lat": 29.502310055851247, "lng": 120.92506189611127}, "feature": {"sight_features": "", "sight_content": ""}}, {"title": "社底村果山", "address": "二零九国道", "image": "", "rank": 30, "time": 2, "location": {"lat": 26.316357712285697, "lng": 109.62866790419807}, "feature": {"sight_features": "", "sight_content": ""}}, {"title": "国营良圻农场(独田分场)", "address": "409乡道附近", "image": "", "rank": 31, "time": 2, "location": {"lat": 47.15725440719847, "lng": 133.90794610618718}, "feature": {"sight_features": "", "sight_content": ""}}, {"title": "七胜悦水上乐园", "address": "广西南宁市横县茉莉花广场后", "image": "", "rank": 32, "time": 2, "location": {"lat": 22.68557260883826, "lng": 109.26756780639981}, "feature": {"sight_features": "", "sight_content": ""}}, {"title": "旧家家乐", "address": "横州镇洪德路84号", "image": "", "rank": 33, "time": null, "location": {"lat": 22.68784074952915, "lng": 109.2758623157133}, "feature": {"sight_features": "", "sight_content": ""}}, {"title": "横县龟鳖专业合作社", "address": "茶城路101号附近", "image": "", "rank": 34, "time": 2, "location": {"lat": 34.824525660571254, "lng": 113.658892444073}, "feature": {"sight_features": "", "sight_content": ""}}, {"title": "奇艺画廊", "address": "江北路与洪德路交叉口北50米", "image": "", "rank": 35, "time": 2, "location": {"lat": 22.707198057954336, "lng": 109.27863358282083}, "feature": {"sight_features": "", "sight_content": ""}}, {"title": "百合手拉手艺术团", "address": "鳌峰东街", "image": "", "rank": 36, "time": 2, "location": {"lat": 22.69602825797044, "lng": 109.46829128987571}, "feature": {"sight_features": "", "sight_content": ""}}, {"title": "横县文工团", "address": "教育路横县教育局附近", "image": "", "rank": 37, "time": 2, "location": {"lat": 22.691529558062285, "lng": 109.27778807162424}, "feature": {"sight_features": "", "sight_content": ""}}, {"title": "霞义山", "address": "南宁市横县", "image": "", "rank": 38, "time": 2, "location": {"lat": 22.68557260883826, "lng": 109.26756780639981}, "feature": {"sight_features": "", "sight_content": ""}}, {"title": "广西九龙瀑布群", "address": "广西壮族自治区横县镇龙山南麓", "image": "", "rank": 39, "time": 2, "location": {"lat": 22.68557260883826, "lng": 109.26756780639981}, "feature": {"sight_features": "", "sight_content": ""}}, {"title": "横县时尚步行街", "address": "广西壮族自治区横县公园路", "image": "", "rank": 40, "time": 2, "location": {"lat": 22.69361103079965, "lng": 109.27063482981674}, "feature": {"sight_features": "", "sight_content": ""}}, {"title": "公曹岭", "address": "南宁市-横县", "image": "", "rank": 41, "time": 2, "location": {"lat": 22.68557260883826, "lng": 109.26756780639981}, "feature": {"sight_features": "", "sight_content": ""}}]}