{"cityName": "和平", "days": 2, "cityImage": "", "spots": [{"title": "河源和平热龙温泉", "address": "河源市和平县热水镇", "image": "", "rank": 1, "time": 3.0, "location": {"lat": 24.437651387368643, "lng": 114.81346715026204}, "feature": {"sight_features": "特色1 含偏硅酸等几十种对人体健康有益的微量元素", "sight_content": "和平温泉之都占地2300亩，计划分四期完成，总投资8亿人民币，是集温泉、漂流、度假酒店、水上别墅、青年旅社、国际会议中心、高尔夫球场、山顶会所、水上乐园、68亩超大型娱乐中心广场、水上风情酒吧、恐龙探险公园、世外桃源桃花涧、温泉情侣岛、客家民俗风情街、健身、垂钓、时尚攀岩、定向越野、山地野战等引领健康休闲时尚的大型综合配套旅游项目。同时景区内还建有直升飞机场，为商务会议及豪华客团提供便利、快捷的交通服务。旗下项目包括热龙温泉度假村、九连山温泉度假山庄、南湖温泉谷度假庄园、热水漂流。\n\n根据地质矿产部广东省中心实验室和广东省核工业河源地质调查所的综合分析检验报告得出：\n和平县热水镇温泉PH值为7.43，矿化度为606.35mg∕L,偏硅酸含量114-147 MG∕L, 氟含量11.11 MG/L，氡含量18.2BQ/L，H2S含量0.59MG/L。按GB/T13727-92标准确定为硅水（含H2SIO3>=50MG/L）和氟（F>=2MG/L）温泉。泉流量在0.261—1.000升/秒中变化，平均水温79.3-88℃，最高水温96℃，属高热温泉水。\n\n\n热龙温泉度假村拥有12个公共露天温泉池和分布在独具风情的“和平号”上的19个独立露天温泉池情侣包间。\n气泡躺椅按摩浴原理：躺在利用人体工学原理设计的水中躺椅上，再加以粗气泡震动，有消除疲劳、舒缓腰痛、肌肉痛等效果。\n座式气泡按摩浴原理：利用气泡按摩人体臀部、腿部，有效缓解人体疲劳和各种酸痛。\n钩颈冲击按摩浴原理：利用自高处往下冲之动力水柱,冲击上半身之头、颈、肩、背部,进行强力按摩,藉以消除全身紧张性。"}}, {"title": "林寨古村", "address": "河源市和平林寨镇林寨古村", "image": "", "rank": 2, "time": 2, "location": {"lat": 24.294414837400282, "lng": 115.0691264955045}, "feature": {"sight_features": "", "sight_content": ""}}, {"title": "柴火山庄", "address": "和平县福和大道武警中队顺安驾校旁", "image": "", "rank": 3, "time": 2, "location": {"lat": 24.45623182531667, "lng": 114.94726087078926}, "feature": {"sight_features": "", "sight_content": ""}}, {"title": "怡然温泉", "address": "河源是和平县贝墩镇新民街口对面", "image": "", "rank": 4, "time": 2, "location": {"lat": 24.459426709318148, "lng": 115.21497468276787}, "feature": {"sight_features": "", "sight_content": ""}}, {"title": "金源温泉", "address": "180乡道东(南湖锦华小学附近)", "image": "", "rank": 5, "time": 2, "location": {"lat": 30.751546813315446, "lng": 120.7896100517546}, "feature": {"sight_features": "", "sight_content": ""}}, {"title": "福和生态体育公园", "address": "156县道热浪俱乐部东侧旁", "image": "", "rank": 6, "time": 2, "location": {"lat": 31.217395035812036, "lng": 107.50557668550623}, "feature": {"sight_features": "", "sight_content": ""}}, {"title": "南湖村君豪温泉", "address": "热水镇南湖村Y180常来食府北行180米", "image": "", "rank": 7, "time": 2, "location": {"lat": 31.633572429850844, "lng": 120.8484198371867}, "feature": {"sight_features": "", "sight_content": ""}}, {"title": "九连温泉度假山庄(南湖东岸)", "address": "热水镇南湖村(近南湖村委会)", "image": "", "rank": 8, "time": 2, "location": {"lat": 24.431231011215484, "lng": 114.83685075773022}, "feature": {"sight_features": "", "sight_content": ""}}, {"title": "嫦娥温泉", "address": "热水镇南湖村南湖湾温泉农家餐厅旁", "image": "", "rank": 9, "time": 2, "location": {"lat": 44.97485663870472, "lng": 81.03114554648644}, "feature": {"sight_features": "", "sight_content": ""}}, {"title": "新天然温泉", "address": "大坝镇汤湖村附近", "image": "", "rank": 10, "time": 2, "location": {"lat": 24.53559213676712, "lng": 114.95551853071241}, "feature": {"sight_features": "", "sight_content": ""}}, {"title": "南湖村富康温泉", "address": "热水镇南湖村汤湖围", "image": "", "rank": 11, "time": 2, "location": {"lat": 24.431472393098474, "lng": 114.83489444775397}, "feature": {"sight_features": "", "sight_content": ""}}, {"title": "怡乐温泉", "address": "大坝镇汤湖村附近", "image": "", "rank": 12, "time": 2, "location": {"lat": 24.53559213676712, "lng": 114.95551853071241}, "feature": {"sight_features": "", "sight_content": ""}}, {"title": "绿康温泉", "address": "220乡道附近", "image": "", "rank": 13, "time": null, "location": {"lat": 34.57398676576256, "lng": 117.11938445505251}, "feature": {"sight_features": "", "sight_content": ""}}, {"title": "鸿洲温泉", "address": "和平县190乡道与194乡道交叉口南50米", "image": "", "rank": 14, "time": 2, "location": {"lat": 24.49636235068021, "lng": 115.22605825551933}, "feature": {"sight_features": "", "sight_content": ""}}, {"title": "和平热水漂流", "address": "广东省和平县利江上游 517200", "image": "", "rank": 15, "time": 2, "location": {"lat": 24.44825276768894, "lng": 114.94544881430497}, "feature": {"sight_features": "", "sight_content": ""}}, {"title": "华宇温泉", "address": "广东省和平县热水镇九连山 517200", "image": "", "rank": 16, "time": 2, "location": {"lat": 24.35150134565702, "lng": 114.74941009107906}, "feature": {"sight_features": "", "sight_content": ""}}, {"title": "兴隆民俗村", "address": "广东省河源市源城区九连山腹地 517000", "image": "", "rank": 17, "time": 1.0, "location": {"lat": 23.740298338346726, "lng": 114.70843899032516}, "feature": {"sight_features": "", "sight_content": ""}}, {"title": "昭君文化园", "address": "和平县其他230省道东侧", "image": "", "rank": 18, "time": 2, "location": {"lat": 24.409291723186815, "lng": 114.93948065215974}, "feature": {"sight_features": "", "sight_content": ""}}, {"title": "娃娃爱游乐园", "address": "广东省河源市和平县福和大道与126乡道交叉口西100米", "image": "", "rank": 19, "time": 2, "location": {"lat": 24.45623182531667, "lng": 114.94726087078926}, "feature": {"sight_features": "", "sight_content": ""}}, {"title": "将军山广源禅寺", "address": "广东省河源市和平县将军山", "image": "", "rank": 20, "time": 2, "location": {"lat": 24.64921660356497, "lng": 114.96462168745927}, "feature": {"sight_features": "", "sight_content": ""}}, {"title": "石古禅寺", "address": "梁寨镇龙安村", "image": "", "rank": 21, "time": 2, "location": {"lat": 34.55445474883038, "lng": 116.713666568082}, "feature": {"sight_features": "", "sight_content": ""}}, {"title": "东归垇茶亭", "address": "河源市和平县", "image": "", "rank": 22, "time": 2, "location": {"lat": 24.44825276768894, "lng": 114.94544881430497}, "feature": {"sight_features": "", "sight_content": ""}}, {"title": "基督教和平县热水福音堂", "address": "广东省河源市和平县热水镇田心热水桥热水福音堂", "image": "", "rank": 23, "time": 1.5, "location": {"lat": 24.468330157316807, "lng": 114.84283905898667}, "feature": {"sight_features": "", "sight_content": ""}}, {"title": "海洋世界儿童游乐园", "address": "广东省河源市和平县东山路39号", "image": "", "rank": 24, "time": 2, "location": {"lat": 24.449170389705095, "lng": 114.94678968799012}, "feature": {"sight_features": "", "sight_content": ""}}, {"title": "宝信乐趣多儿童乐园", "address": "广东省河源市和平县阳明镇福和大道宝信购物广场", "image": "", "rank": 25, "time": 2, "location": {"lat": 24.456017418043192, "lng": 114.94216883319407}, "feature": {"sight_features": "", "sight_content": ""}}, {"title": "儿童成长主题乐园", "address": "广东省河源市和平县阳明镇福丰和平大道怡和花园南50米", "image": "", "rank": 26, "time": 2, "location": {"lat": 24.457510143546678, "lng": 114.94193932781432}, "feature": {"sight_features": "", "sight_content": ""}}, {"title": "金湖度假村", "address": "河源河源市和平县", "image": "", "rank": 27, "time": 2, "location": {"lat": 24.44825276768894, "lng": 114.94544881430497}, "feature": {"sight_features": "", "sight_content": ""}}, {"title": "阳坑村文化广场", "address": "174乡道附近", "image": "", "rank": 28, "time": 2, "location": {"lat": 40.255164359698526, "lng": 116.72967796549183}, "feature": {"sight_features": "", "sight_content": ""}}, {"title": "和平县热水镇文体广场", "address": "广东省河源市和平县热水镇中兴九连桥九连中学", "image": "", "rank": 29, "time": 2, "location": {"lat": 24.460940534487346, "lng": 114.83988189024883}, "feature": {"sight_features": "", "sight_content": ""}}, {"title": "华源广场", "address": "156县道附近", "image": "", "rank": 30, "time": 2, "location": {"lat": 45.587094515741754, "lng": 122.89301943264425}, "feature": {"sight_features": "", "sight_content": ""}}, {"title": "九宫庙", "address": "广东省河源市和平县", "image": "", "rank": 31, "time": 2, "location": {"lat": 24.44825276768894, "lng": 114.94544881430497}, "feature": {"sight_features": "", "sight_content": ""}}, {"title": "象兴庙", "address": "161乡道附近", "image": "", "rank": 32, "time": 2, "location": {"lat": 33.6318754671381, "lng": 119.2418890360568}, "feature": {"sight_features": "", "sight_content": ""}}, {"title": "热水漂流", "address": "热水镇南湖村热龙温泉度假村", "image": "", "rank": 33, "time": 2, "location": {"lat": 24.420329682794264, "lng": 114.83392649032999}, "feature": {"sight_features": "", "sight_content": ""}}, {"title": "和平县图书馆", "address": "阳明镇中山二路1号", "image": "", "rank": 34, "time": 2, "location": {"lat": 24.447557160435036, "lng": 114.94510029691976}, "feature": {"sight_features": "", "sight_content": ""}}, {"title": "兄弟温泉", "address": "热水镇南湖村南丰酒店旁", "image": "", "rank": 35, "time": 2, "location": {"lat": 24.431120860769063, "lng": 114.83683090428016}, "feature": {"sight_features": "", "sight_content": ""}}, {"title": "春秋温泉", "address": "190乡道东江温泉宾馆旁", "image": "", "rank": 36, "time": 2, "location": {"lat": 24.46134721710292, "lng": 115.2162071794865}, "feature": {"sight_features": "", "sight_content": ""}}, {"title": "汤湖温泉", "address": "230省道附近", "image": "", "rank": 37, "time": 2, "location": {"lat": 36.0895617983312, "lng": 111.58252815779157}, "feature": {"sight_features": "", "sight_content": ""}}, {"title": "天来泉温泉", "address": "大坝镇汤湖村内", "image": "", "rank": 38, "time": 2, "location": {"lat": 24.53559213676712, "lng": 114.95551853071241}, "feature": {"sight_features": "", "sight_content": ""}}, {"title": "大坝镇芙蓉温泉", "address": "大坝镇汤湖村附近", "image": "", "rank": 39, "time": 2, "location": {"lat": 24.53559213676712, "lng": 114.95551853071241}, "feature": {"sight_features": "", "sight_content": ""}}, {"title": "富裕温泉", "address": "热水镇南湖村", "image": "", "rank": 40, "time": 0.7, "location": {"lat": 24.431472393098474, "lng": 114.83489444775397}, "feature": {"sight_features": "", "sight_content": ""}}, {"title": "茂源温泉", "address": "大坝镇汤湖村附近", "image": "", "rank": 41, "time": 2, "location": {"lat": 24.53559213676712, "lng": 114.95551853071241}, "feature": {"sight_features": "", "sight_content": ""}}, {"title": "和平温泉之都", "address": "热水镇南湖村", "image": "", "rank": 42, "time": 2, "location": {"lat": 24.431472393098474, "lng": 114.83489444775397}, "feature": {"sight_features": "", "sight_content": ""}}, {"title": "河源市星河少儿电视艺术团(和平...", "address": "和平县和平大道", "image": "", "rank": 43, "time": 3.0, "location": {"lat": 24.456778147628754, "lng": 114.94046510067628}, "feature": {"sight_features": "", "sight_content": ""}}]}