{"cityName": "合浦", "days": 2, "cityImage": "", "spots": [{"title": "星岛湖", "address": "北海市合浦县长青东路21号（合浦县以北24公里处的低丘陵地区）", "image": "", "rank": 1, "time": 3.5, "location": {"lat": 21.48391583928902, "lng": 109.13722493457279}, "feature": {"sight_features": "", "sight_content": ""}}, {"title": "山口红树林", "address": "北海市合浦县山口镇英罗港西岸", "image": "", "rank": 2, "time": 3.0, "location": {"lat": 21.483337320884413, "lng": 109.78601622015572}, "feature": {"sight_features": "", "sight_content": ""}}, {"title": "合浦汉墓群", "address": "北海市合浦县廉州镇东南郊望牛岭、风门岭、宝塔山和东北郊堂排一带", "image": "", "rank": 3, "time": 2.0, "location": {"lat": 21.666417394769756, "lng": 109.20705496130017}, "feature": {"sight_features": "", "sight_content": ""}}, {"title": "文昌塔", "address": "北海市合浦县文昌新城11栋2单元302号", "image": "", "rank": 4, "time": 0.5, "location": {"lat": 21.650283473284357, "lng": 109.19535513479957}, "feature": {"sight_features": "", "sight_content": ""}}, {"title": "大士阁", "address": "北海市合浦县山口镇永安村内", "image": "", "rank": 5, "time": 1.5, "location": {"lat": 21.55637479231099, "lng": 109.69166790213525}, "feature": {"sight_features": "", "sight_content": ""}}, {"title": "东园家酒厂工业生态旅游观光园", "address": "北海市合浦县廉州镇高坡路59号", "image": "", "rank": 6, "time": 1.5, "location": {"lat": 21.690387823887384, "lng": 109.21940371920944}, "feature": {"sight_features": "", "sight_content": ""}}, {"title": "合浦汉代文化博物馆", "address": "北海市合浦县定海南路81号风门岭（番塔角对面）", "image": "", "rank": 7, "time": 3.5, "location": {"lat": 21.6497463722183, "lng": 109.1964287634939}, "feature": {"sight_features": "", "sight_content": ""}}, {"title": "合浦汉闾文化园", "address": "北海市合浦县廉州镇定海南路81号", "image": "", "rank": 8, "time": 3.5, "location": {"lat": 21.6497463722183, "lng": 109.1964287634939}, "feature": {"sight_features": "特色1 体验汉服文化 特色2 体验身临其境、不亦乐乎的汉文化生活方式央视明星百鸟团空降合浦汉闾文化园。", "sight_content": "合浦汉闾文化园景区位于北海市合浦县廉州镇定海南路，毗邻全国最大汉墓群、明代文昌塔，景区分为汉代文化博物馆区、汉代生活体验区和海丝路文化观光区，筑造“一带一路八节点”的空间结构，荟萃汉郡文化、南珠文化和岭南文化等人文特色，向世人呈现出一幅汉代合浦郡的“清明上河图”。\n汉服，泛指中国汉族的传统民族服饰，也是世界上最悠久的民族服饰之一。汉服无论在文化艺术、诗词歌赋、琴棋书画、武术剑道、音乐舞蹈、品茗茶道等方面，都是最能与中华传统文化相结合的服饰。在历史的承传与发展过程中，汉服充分展现了古人“仁、义、礼、智、信”的道德内涵，更是纯善纯美的中国传统服饰艺术的重要象徵。\n央视明星百鸟团空降合浦汉闾文化园。鹦鹉会拉车、运球、打保龄、玩滑板，居然还会算术，技能点数爆表。\n欣赏各式各样的汉代文化表演，仿佛身临汉代，感受汉文化和生活。加之景区高薪邀请的杂技团队，绝对值得期待！"}}, {"title": "魁星楼", "address": "文蔚坊31号", "image": "", "rank": 9, "time": 0.75, "location": {"lat": 21.675429783966347, "lng": 109.19510704707204}, "feature": {"sight_features": "", "sight_content": ""}}, {"title": "冰淇淋批发", "address": "东圩路与北河街交叉口西南50米", "image": "", "rank": 10, "time": 2, "location": {"lat": 21.678388424510985, "lng": 109.20888815491311}, "feature": {"sight_features": "", "sight_content": ""}}, {"title": "合浦开心乌木艺术馆", "address": "丰门岭版纳园内", "image": "", "rank": 11, "time": 3.5, "location": {"lat": 28.346972062956016, "lng": 121.65113115102953}, "feature": {"sight_features": "", "sight_content": ""}}, {"title": "山口红树林生态国家级自然保护区", "address": "广西壮族自治区合浦县山口镇 536122", "image": "", "rank": 12, "time": 2, "location": {"lat": 21.61703670356268, "lng": 109.73927113407727}, "feature": {"sight_features": "", "sight_content": ""}}, {"title": "雅乐仙洞", "address": "广西壮族自治区罗城仫佬族自治县天河街 546407", "image": "", "rank": 13, "time": 2, "location": {"lat": 24.783084996429107, "lng": 108.91157445325456}, "feature": {"sight_features": "", "sight_content": ""}}, {"title": "乌家影剧院", "address": "325国道合浦县工商行政管理局乌家工商所附近", "image": "", "rank": 14, "time": 2, "location": {"lat": 21.775274530264543, "lng": 109.04086801441574}, "feature": {"sight_features": "", "sight_content": ""}}, {"title": "合浦县东坡亭景区", "address": "广西壮族自治区北海市合浦县小北街83号", "image": "", "rank": 15, "time": 2, "location": {"lat": 21.679134556418983, "lng": 109.20526290738466}, "feature": {"sight_features": "", "sight_content": ""}}, {"title": "合浦县文化公园", "address": "南北二级公路北50米", "image": "", "rank": 16, "time": 2, "location": {"lat": 22.003266615404684, "lng": 108.66687422053518}, "feature": {"sight_features": "", "sight_content": ""}}, {"title": "千岁庙", "address": "廉州镇龙城路蓝源宾馆对面", "image": "", "rank": 17, "time": 2, "location": {"lat": 21.66744862466903, "lng": 109.2267971607238}, "feature": {"sight_features": "", "sight_content": ""}}, {"title": "东环大道与公园路交叉口", "address": "合浦县", "image": "", "rank": 18, "time": 2, "location": {"lat": 21.66700573564183, "lng": 109.21343861130296}, "feature": {"sight_features": "", "sight_content": ""}}, {"title": "北合吴氏祠堂", "address": "广西壮族自治区北海市合浦县G325", "image": "", "rank": 19, "time": 2, "location": {"lat": 21.66700573564183, "lng": 109.21343861130296}, "feature": {"sight_features": "", "sight_content": ""}}, {"title": "梦启航儿童主题乐园", "address": "广西壮族自治区北海市合浦县定海中路3号", "image": "", "rank": 20, "time": 2, "location": {"lat": 21.667546869337453, "lng": 109.20535422103802}, "feature": {"sight_features": "", "sight_content": ""}}, {"title": "廉州广场", "address": "廉东大道六巷与步行街交叉口南200米", "image": "", "rank": 21, "time": 2, "location": {"lat": 21.67078934072284, "lng": 109.21564783829717}, "feature": {"sight_features": "", "sight_content": ""}}, {"title": "礼拜堂", "address": "廉州上街23", "image": "", "rank": 22, "time": 2, "location": {"lat": 40.7382331735842, "lng": 120.88408431223873}, "feature": {"sight_features": "", "sight_content": ""}}, {"title": "度假村", "address": "325国道附近", "image": "", "rank": 23, "time": 2, "location": {"lat": 23.010828411485836, "lng": 113.10968514930308}, "feature": {"sight_features": "", "sight_content": ""}}, {"title": "广源画廊", "address": "爱卫东街30号", "image": "", "rank": 24, "time": 2, "location": {"lat": 21.66898071254315, "lng": 109.20913191909622}, "feature": {"sight_features": "", "sight_content": ""}}, {"title": "洛克道画廊", "address": "车沟底55号", "image": "", "rank": 25, "time": 2, "location": {"lat": 21.671886781319948, "lng": 109.20013282026301}, "feature": {"sight_features": "", "sight_content": ""}}, {"title": "万紫千红农庄", "address": "合浦迎宾大道与南北高速交汇处东北角", "image": "", "rank": 26, "time": 2, "location": {"lat": 21.512477129004196, "lng": 109.19906948076}, "feature": {"sight_features": "", "sight_content": ""}}, {"title": "合浦博物馆", "address": "廉州镇定海南路81号", "image": "", "rank": 27, "time": 2.5, "location": {"lat": 21.6497463722183, "lng": 109.1964287634939}, "feature": {"sight_features": "", "sight_content": ""}}, {"title": "合浦汉墓群", "address": "火车站路", "image": "", "rank": 28, "time": 2.0, "location": {"lat": 39.642455775199885, "lng": 115.59251830334546}, "feature": {"sight_features": "", "sight_content": ""}}, {"title": "德星堂", "address": "241县道与廉州大道交叉口", "image": "", "rank": 29, "time": 2, "location": {"lat": 21.695729947909992, "lng": 109.24157748791889}, "feature": {"sight_features": "", "sight_content": ""}}, {"title": "广西国营钦廉林场钦冠花木场", "address": "广西国营钦廉林场林业研发中心附近", "image": "", "rank": 30, "time": 2, "location": {"lat": 21.76093550601157, "lng": 109.06366718791254}, "feature": {"sight_features": "", "sight_content": ""}}, {"title": "冰纷冰淇淋批发", "address": "南乐街与廉南路交叉口西北50米", "image": "", "rank": 31, "time": 2, "location": {"lat": 21.666728084469224, "lng": 109.20177682175256}, "feature": {"sight_features": "", "sight_content": ""}}, {"title": "鳄鱼漆", "address": "延安路243号", "image": "", "rank": 32, "time": 2, "location": {"lat": 30.260085662560552, "lng": 120.17039632197547}, "feature": {"sight_features": "", "sight_content": ""}}, {"title": "珠乡嘉年华", "address": "华兴步行街D区二楼27-37号", "image": "", "rank": 33, "time": 2, "location": {"lat": 33.39135400928491, "lng": 120.14332508594039}, "feature": {"sight_features": "", "sight_content": ""}}, {"title": "公馆影剧院", "address": "公馆镇马江路", "image": "", "rank": 34, "time": 2, "location": {"lat": 21.796941321854128, "lng": 109.61804781486924}, "feature": {"sight_features": "", "sight_content": ""}}, {"title": "广西许氏生态农业有限公司", "address": "廉州镇金鸡西路回建小区A5号(城南家居旁)", "image": "", "rank": 35, "time": 2, "location": {"lat": 21.662904047083344, "lng": 109.19429119343188}, "feature": {"sight_features": "", "sight_content": ""}}, {"title": "北海梦幻滨海生态园", "address": "港湾路1号", "image": "", "rank": 36, "time": 3.0, "location": {"lat": 31.238803759019486, "lng": 121.69430445245179}, "feature": {"sight_features": "", "sight_content": ""}}, {"title": "海豚湾农家乐", "address": "西场镇", "image": "", "rank": 37, "time": 2, "location": {"lat": 32.52779979039388, "lng": 120.60416456025813}, "feature": {"sight_features": "", "sight_content": ""}}, {"title": "沙田镇沙田村海顺曲艺社", "address": "海战村附近大街", "image": "", "rank": 38, "time": 2, "location": {"lat": 23.100931760317003, "lng": 113.27528273950196}, "feature": {"sight_features": "", "sight_content": ""}}, {"title": "山口两广水上乐园", "address": "奇珠大道125号", "image": "", "rank": 39, "time": 2, "location": {"lat": 21.615172905464007, "lng": 109.74576413301314}, "feature": {"sight_features": "", "sight_content": ""}}, {"title": "南流江", "address": "广西壮族自治区合浦县境内", "image": "", "rank": 40, "time": 2, "location": {"lat": 21.66700573564183, "lng": 109.21343861130296}, "feature": {"sight_features": "", "sight_content": ""}}, {"title": "合浦商业步行街", "address": "广西壮族自治区合浦县廉州大道", "image": "", "rank": 41, "time": 2, "location": {"lat": 21.695729947909992, "lng": 109.24157748791889}, "feature": {"sight_features": "", "sight_content": ""}}, {"title": "南溪山石刻", "address": "广西壮族自治区桂林市南溪山公园", "image": "", "rank": 42, "time": 2, "location": {"lat": 25.256403299166234, "lng": 110.29108515666731}, "feature": {"sight_features": "", "sight_content": ""}}, {"title": "劳氏宗祠", "address": "北海市-合浦县-常乐镇多蕉村", "image": "", "rank": 43, "time": 2, "location": {"lat": 21.821160218574583, "lng": 109.37562623199048}, "feature": {"sight_features": "", "sight_content": ""}}, {"title": "富雅舍艺术馆", "address": "北海市-合浦县-G209(呼北线)", "image": "", "rank": 44, "time": 2, "location": {"lat": 21.66700573564183, "lng": 109.21343861130296}, "feature": {"sight_features": "", "sight_content": ""}}, {"title": "明五世彭政一郎公之墓", "address": "北海市-合浦县", "image": "", "rank": 45, "time": 2, "location": {"lat": 21.66700573564183, "lng": 109.21343861130296}, "feature": {"sight_features": "", "sight_content": ""}}, {"title": "大江埠越南边关风情村", "address": "广西北海银海区大江埠", "image": "", "rank": 46, "time": 2, "location": {"lat": 21.446251145432434, "lng": 109.15332427339183}, "feature": {"sight_features": "", "sight_content": ""}}, {"title": "合浦古汉墓", "address": "北海市合浦县廉州镇东南3公里处的古汉墓群", "image": "", "rank": 47, "time": 3.5, "location": {"lat": 21.666417394769756, "lng": 109.23400412659062}, "feature": {"sight_features": "", "sight_content": ""}}, {"title": "曲樟", "address": "广西壮族自治区北海市合浦县曲樟乡", "image": "", "rank": 48, "time": 2, "location": {"lat": 21.830798535985522, "lng": 109.55262051100419}, "feature": {"sight_features": "", "sight_content": ""}}]}