{"cityName": "鹤庆", "days": 2, "cityImage": "", "spots": [{"title": "泉水街", "address": "大理白族自治州鹤庆县大丽公路泉水街", "image": "", "rank": 1, "time": 0.5, "location": {"lat": 26.566617874629003, "lng": 100.18500686929698}, "feature": {"sight_features": "", "sight_content": ""}}, {"title": "黄龙潭", "address": "大理白族自治州鹤庆县黄龙潭", "image": "", "rank": 2, "time": 1.5, "location": {"lat": 26.553439654022075, "lng": 100.16528187691539}, "feature": {"sight_features": "", "sight_content": ""}}, {"title": "西坡", "address": "大理白族自治州鹤庆县西坡", "image": "", "rank": 3, "time": 3.0, "location": {"lat": 26.36741960235268, "lng": 100.25596972125514}, "feature": {"sight_features": "", "sight_content": ""}}, {"title": "文明村", "address": "大理白族自治州鹤庆县文明村", "image": "", "rank": 4, "time": 4.0, "location": {"lat": 26.47484132164876, "lng": 100.19245249966652}, "feature": {"sight_features": "", "sight_content": ""}}, {"title": "新华民族村", "address": "西北部凤凰山脚下的新华村", "image": "", "rank": 5, "time": 2, "location": {"lat": 31.344158387820773, "lng": 118.37778220279294}, "feature": {"sight_features": "", "sight_content": ""}}, {"title": "杨梅生态园", "address": "松桂镇波罗庄221省道115公里处", "image": "", "rank": 6, "time": 2, "location": {"lat": 26.340106503929242, "lng": 100.21178355992954}, "feature": {"sight_features": "", "sight_content": ""}}, {"title": "银都二号馆", "address": "新华线", "image": "", "rank": 7, "time": null, "location": {"lat": 33.545600983273474, "lng": 120.23431960462476}, "feature": {"sight_features": "", "sight_content": ""}}, {"title": "东巴壁画廊", "address": "云南省玉龙纳西族自治县玉水寨 674100", "image": "", "rank": 8, "time": 2, "location": {"lat": 27.009400553194023, "lng": 100.20832957524482}, "feature": {"sight_features": "", "sight_content": ""}}, {"title": "主题儿童乐园", "address": "云南省大理白族自治州鹤庆县鹤阳东路146号", "image": "", "rank": 9, "time": 2, "location": {"lat": 26.56481880494949, "lng": 100.1817248202868}, "feature": {"sight_features": "", "sight_content": ""}}, {"title": "红塔团山文化广场", "address": "松桂镇政府附近", "image": "", "rank": 10, "time": 2, "location": {"lat": 26.359246289562844, "lng": 100.20804909911215}, "feature": {"sight_features": "", "sight_content": ""}}, {"title": "日月广场", "address": "大理白族自治州鹤庆县云新路东排", "image": "", "rank": 11, "time": 2, "location": {"lat": 26.566213864633724, "lng": 100.17524206023712}, "feature": {"sight_features": "", "sight_content": ""}}, {"title": "云鹤楼", "address": "大理白族自治州鹤庆县鹤阳东路88号", "image": "", "rank": 12, "time": 2, "location": {"lat": 26.564604868783512, "lng": 100.18300355054423}, "feature": {"sight_features": "", "sight_content": ""}}, {"title": "西龙潭山庄", "address": "纪念碑线附近", "image": "", "rank": 13, "time": 2, "location": {"lat": 26.566446612826752, "lng": 100.15820772102666}, "feature": {"sight_features": "", "sight_content": ""}}, {"title": "学生周边", "address": "031乡道与221省道交汇处东150米", "image": "", "rank": 14, "time": 2, "location": {"lat": 21.61293072722965, "lng": 110.28954956178838}, "feature": {"sight_features": "", "sight_content": ""}}, {"title": "西邑南登", "address": "大理白族自治州-鹤庆县-二二一省道", "image": "", "rank": 15, "time": 2, "location": {"lat": 26.340106503929242, "lng": 100.21178355992954}, "feature": {"sight_features": "", "sight_content": ""}}, {"title": "奇云邑", "address": "大理白族自治州-鹤庆县-三庄线", "image": "", "rank": 16, "time": 2, "location": {"lat": 26.418742151362046, "lng": 100.19592721005597}, "feature": {"sight_features": "", "sight_content": ""}}]}