{"cityName": "河曲", "days": 2, "cityImage": "", "spots": [{"title": "临隩公园", "address": "长城大街与033乡道交叉口西50米", "image": "", "rank": 1, "time": 7.5, "location": {"lat": 39.93532888156961, "lng": 119.62043596250436}, "feature": {"sight_features": "", "sight_content": ""}}, {"title": "香山寺", "address": "山西省忻州市河曲县辛家坪村", "image": "", "rank": 2, "time": 1.0, "location": {"lat": 39.39070248871515, "lng": 111.14444863516302}, "feature": {"sight_features": "", "sight_content": ""}}, {"title": "多多岛主题儿童乐园", "address": "玉泉路37", "image": "", "rank": 3, "time": 2, "location": {"lat": 39.38865298981489, "lng": 111.15086316801302}, "feature": {"sight_features": "", "sight_content": ""}}, {"title": "小淘气儿童乐园", "address": "山西省忻州市河曲县文笔镇古城路古城小区(河曲中学西南)", "image": "", "rank": 4, "time": 2, "location": {"lat": 39.39777548130049, "lng": 111.1545910487438}, "feature": {"sight_features": "", "sight_content": ""}}, {"title": "东兴文化广场", "address": "山西省忻州市河曲县", "image": "", "rank": 5, "time": 1.0, "location": {"lat": 39.39070248871515, "lng": 111.14444863516302}, "feature": {"sight_features": "", "sight_content": ""}}, {"title": "龙宫庙", "address": "忻州市河曲县", "image": "", "rank": 6, "time": 2, "location": {"lat": 39.39070248871515, "lng": 111.14444863516302}, "feature": {"sight_features": "", "sight_content": ""}}, {"title": "黄河影剧院", "address": "黄河大街012", "image": "", "rank": 7, "time": 2, "location": {"lat": 39.390259320718755, "lng": 111.14466960394556}, "feature": {"sight_features": "", "sight_content": ""}}, {"title": "农家山庄", "address": "黄河东街", "image": "", "rank": 8, "time": 2, "location": {"lat": 39.0044745746968, "lng": 106.38107101021428}, "feature": {"sight_features": "", "sight_content": ""}}, {"title": "人民文化馆", "address": "园通街", "image": "", "rank": 9, "time": 2, "location": {"lat": 26.588627951302367, "lng": 106.72173172414854}, "feature": {"sight_features": "", "sight_content": ""}}, {"title": "革命烈士纪念馆", "address": "宾阳路", "image": "", "rank": 10, "time": 2, "location": {"lat": 39.38317000445637, "lng": 111.16094157373301}, "feature": {"sight_features": "", "sight_content": ""}}, {"title": "二胖游乐场", "address": "中国山西省忻州市河曲县益民南路048号", "image": "", "rank": 11, "time": 2, "location": {"lat": 39.388340234973846, "lng": 111.1545552979811}, "feature": {"sight_features": "", "sight_content": ""}}, {"title": "御果庄园", "address": "文笔镇元头湾水产店隔壁", "image": "", "rank": 12, "time": 2, "location": {"lat": 39.38585445619328, "lng": 111.18099003425726}, "feature": {"sight_features": "", "sight_content": ""}}, {"title": "忻州岱岳殿 Xinzhou Daiyue Temp...", "address": "山西省河曲县文笔镇岱岳殿村", "image": "", "rank": 13, "time": 7.5, "location": {"lat": 39.36518034287206, "lng": 111.2165290052499}, "feature": {"sight_features": "", "sight_content": ""}}, {"title": "西口古渡", "address": "山西省忻州市河曲县文笔镇", "image": "", "rank": 14, "time": 2, "location": {"lat": 39.38585445619328, "lng": 111.18099003425726}, "feature": {"sight_features": "", "sight_content": ""}}, {"title": "黄河晋陕大峡谷", "address": "山西省河曲县境内", "image": "", "rank": 15, "time": 2, "location": {"lat": 39.39070248871515, "lng": 111.14444863516302}, "feature": {"sight_features": "", "sight_content": ""}}, {"title": "忻州娘娘滩", "address": "山西省河曲县楼子营镇河湾村", "image": "", "rank": 16, "time": 7.5, "location": {"lat": 39.42532835878151, "lng": 111.21178963161658}, "feature": {"sight_features": "", "sight_content": ""}}]}