{"cityName": "合山", "days": 2, "cityImage": "", "spots": [{"title": "百年老矿十里花廊", "address": "来宾市合山市忻合二级路古樟口至东矿煤台", "image": "", "rank": 1, "time": 2.0, "location": {"lat": 23.89172621639491, "lng": 108.92121756168056}, "feature": {"sight_features": "", "sight_content": ""}}, {"title": "镜澄桥", "address": "广西壮族自治区凌云县城中心 533100", "image": "", "rank": 2, "time": 2, "location": {"lat": 24.354015240603566, "lng": 106.56841567704747}, "feature": {"sight_features": "", "sight_content": ""}}, {"title": "迪乐尼儿童乐园", "address": "广西壮族自治区来宾市合山市人民南路102号", "image": "", "rank": 3, "time": 2, "location": {"lat": 23.81100407992361, "lng": 108.8940411466555}, "feature": {"sight_features": "", "sight_content": ""}}, {"title": "里兰广场", "address": "来宾市合山市人民南路", "image": "", "rank": 4, "time": 2, "location": {"lat": 23.814902108611438, "lng": 108.89429437897869}, "feature": {"sight_features": "", "sight_content": ""}}, {"title": "天主堂", "address": "322国道附近", "image": "", "rank": 5, "time": 0.4, "location": {"lat": 24.430603554871738, "lng": 109.67528447509709}, "feature": {"sight_features": "", "sight_content": ""}}, {"title": "140乡道", "address": "广西壮族自治区来宾市合山市", "image": "", "rank": 6, "time": 2, "location": {"lat": 23.812260071049884, "lng": 108.8925657696864}, "feature": {"sight_features": "", "sight_content": ""}}, {"title": "三合龙根雕,根艺,奇石馆", "address": "八二路13-1-15号附近", "image": "", "rank": 7, "time": 2, "location": {"lat": 23.100931760317003, "lng": 113.27528273950196}, "feature": {"sight_features": "", "sight_content": ""}}, {"title": "合山怀集风景区", "address": "广西壮族自治区来宾市合山市怀集村", "image": "", "rank": 8, "time": 2, "location": {"lat": 23.691726702895178, "lng": 108.90769397646979}, "feature": {"sight_features": "", "sight_content": ""}}]}