{"cityName": "鹤山", "days": 2, "cityImage": "", "spots": [{"title": "古劳水乡", "address": "鹤山市古劳镇古劳镇政府旁古劳水乡旅游开发中心", "image": "", "rank": 1, "time": 4.0, "location": {"lat": 22.819749113937466, "lng": 112.91347461167386}, "feature": {"sight_features": "特色1 一幅幅如诗如画的美景 特色2 有着威尼斯般的水乡风光 特色3 小艇穿行如梭，两岸蕉林摇曳", "sight_content": "鹤山古劳水乡位于鹤山市东北部西江边的古劳镇，属半丘陵半堤围水网地区，是典型的最具珠江三角洲特点的南国水乡，区域内常驻人口约9000人。明洪武二十七年，古劳人冯八秀奉旨兴建古劳围，从此，古劳便从滩涂泽国逐渐变成美丽的岭南水乡，“围墩”是根据地理特点命名的,意即堤围下的一个个“墩”。\n如今的古劳水乡，小桥、流水、人家，眼前的河涌水网四通八达，它与两岸的绿树、石桥、农舍交相辉映，好一派田园景色。河边的石阶处，系着许多木船，这小舟就是乡民们的交通工具。都知道威尼斯的船，古劳水乡的风光不亚于威尼斯；而且，古劳水乡的原生状态更是风情万种，雅韵深厚，让人心神簇荡，悠然向往。古劳堤内水网纵横交错，小艇穿行如梭，两岸蕉林摇曳，万亩鱼塘似明镜耀目，千顷桑地绿海翻波，那青青的田畴就像精雕的翡翠，好一派旖旎的南国水乡风光。\n有着600年历史的古劳水乡，至今保留着一些古宅旧居，颇具浓烈的南方建筑艺术风味。古朴的祠堂和南国水乡特色民居就是其中的代表。水乡以上升村的祠堂最有特色，其最具代表性的莫过于李氏大宗祠。除了祠堂之外，富有南国水乡特色的民居更是结构独特，别具一格。\n古劳水乡，衍生了不少与水有关的文化。例如“赛龙舟”，就是古劳水乡的传统节目。每年农历的端午节前后，水乡便洋溢着欢乐的气氛，到处响起咚咚的锣鼓声。这段日子，那些远在外地拼搏的古劳人，都会自觉返回家乡，有钱出钱，有力出力，以村或“墩”为单位，选拔精英，赤膊操练。每逢农历五月初三、初四日，在沙坪河与古劳河的交汇处，古劳水乡的人们总会举行龙舟竞赛。每年龙舟竞渡的时候，这里到处是人山人海，锣鼓喧天，鞭炮齐鸣的热闹场面。河涌里桨影翻飞，喊声阵阵。届时，更有华侨、港澳同胞不远千里回乡观赏盛典，或亲身参赛，以洗一身吉祥的“龙舟水”为幸福乐事。\n俗话说得好：“一方山水养一方人”，古劳水乡的美丽山水令这里名人辈出。例如三十年代红极一时的电影明星、我国第一代影后胡蝶，咏春拳的一代宗师梁赞，中国著名品牌“王老吉凉茶”的创始人王泽邦等，他们都是古劳水乡人。一千多年前宋代的大文豪苏东波，在被贬海南的途中乘船经过这里，见此地古榕参天，翠竹丛丛，风景优美，竟也“留连不能去”，泛舟上岸休息了几天。今日西江边坡山村的东坡亭，就是当年的“坡公泊舟处”。"}}, {"title": "广东鹤山高尔夫俱乐部", "address": "鹤山市共和镇共建路188-189号", "image": "", "rank": 2, "time": 2, "location": {"lat": 22.607272111621754, "lng": 112.8744606176932}, "feature": {"sight_features": "", "sight_content": ""}}, {"title": "腾龙峡漂流", "address": "江门市鹤山市龙口镇四堡林场（原金水台漂流）", "image": "", "rank": 3, "time": 2.0, "location": {"lat": 22.717804860340326, "lng": 112.83988140440363}, "feature": {"sight_features": "", "sight_content": ""}}, {"title": "金贝儿儿童主题乐园", "address": "鹤山市沙坪镇人民东路18-22号江门鹤山广场2层", "image": "", "rank": 4, "time": 2, "location": {"lat": 22.780799261103713, "lng": 112.98290136390541}, "feature": {"sight_features": "", "sight_content": ""}}, {"title": "水龙桥", "address": "江门市鹤山市上升村委会南湾祖古村", "image": "", "rank": 5, "time": 2.5, "location": {"lat": 22.5015536578285, "lng": 112.74624870619625}, "feature": {"sight_features": "", "sight_content": ""}}, {"title": "东坡亭", "address": "江门市鹤山市沙坪街道", "image": "", "rank": 6, "time": 1.0, "location": {"lat": 22.793521518124578, "lng": 113.01067517365372}, "feature": {"sight_features": "", "sight_content": ""}}, {"title": "荔枝园农庄", "address": "S273荷丰农庄西南500米(双和公路)", "image": "", "rank": 7, "time": 2, "location": {"lat": 38.18809986437435, "lng": 102.0172615903928}, "feature": {"sight_features": "", "sight_content": ""}}, {"title": "毅昇休闲山庄", "address": "鹤城镇五星村南水北流水库", "image": "", "rank": 8, "time": 2, "location": {"lat": 22.713958021611358, "lng": 110.36057016580777}, "feature": {"sight_features": "", "sight_content": ""}}, {"title": "新时代画廊", "address": "新业路206号", "image": "", "rank": 9, "time": 2, "location": {"lat": 22.779851710387078, "lng": 112.96697440003231}, "feature": {"sight_features": "", "sight_content": ""}}, {"title": "埔里农场", "address": "933乡道附近", "image": "", "rank": 10, "time": 2, "location": {"lat": 23.485236702742434, "lng": 116.32638009805073}, "feature": {"sight_features": "", "sight_content": ""}}, {"title": "鹤山剧院", "address": "新华路与前进路交汇处", "image": "", "rank": 11, "time": 2.0, "location": {"lat": 38.46999862222168, "lng": 106.28713919241066}, "feature": {"sight_features": "", "sight_content": ""}}, {"title": "鹤山市基督教会", "address": "鹤山市基督教沙坪堂附近", "image": "", "rank": 12, "time": 4.0, "location": {"lat": 22.765050229765052, "lng": 112.96247825339697}, "feature": {"sight_features": "", "sight_content": ""}}, {"title": "水上乐园", "address": "新环路与越楼大道交叉口北100米", "image": "", "rank": 13, "time": null, "location": {"lat": 22.7801412298763, "lng": 112.95844796171082}, "feature": {"sight_features": "", "sight_content": ""}}, {"title": "乐酷基", "address": "宅新路121号附近", "image": "", "rank": 14, "time": 2, "location": {"lat": 22.620186493476933, "lng": 112.63851043489264}, "feature": {"sight_features": "", "sight_content": ""}}, {"title": "甜在心DIY", "address": "沙坪镇新湖路20号(近市慢性病防治站)", "image": "", "rank": 15, "time": 2, "location": {"lat": 22.77240413923816, "lng": 112.97016543542316}, "feature": {"sight_features": "", "sight_content": ""}}, {"title": "和平花店仿真花花瓶展厅", "address": "广东省鹤山市新华路", "image": "", "rank": 16, "time": 2, "location": {"lat": 22.777436027800935, "lng": 112.96860085222542}, "feature": {"sight_features": "", "sight_content": ""}}, {"title": "李少彭文化艺术楼", "address": "广东省鹤山市新城路", "image": "", "rank": 17, "time": 2, "location": {"lat": 22.77796397477774, "lng": 112.97175941027888}, "feature": {"sight_features": "", "sight_content": ""}}, {"title": "海盗船", "address": "江门市鹤山市新村街46号", "image": "", "rank": 18, "time": 2, "location": {"lat": 22.772720967055808, "lng": 112.97119797023363}, "feature": {"sight_features": "", "sight_content": ""}}, {"title": "鹤山市古劳茶山松峰轩", "address": "广东省江门市鹤山市Y911", "image": "", "rank": 19, "time": 4.0, "location": {"lat": 22.77116943137714, "lng": 112.97052666652624}, "feature": {"sight_features": "", "sight_content": ""}}, {"title": "基督教南洞福音堂", "address": "广东省江门市鹤山市086乡道(南中村向阳幼儿园旁)", "image": "", "rank": 20, "time": 2, "location": {"lat": 22.65309149311009, "lng": 112.90017751263802}, "feature": {"sight_features": "", "sight_content": ""}}, {"title": "观音庙", "address": "江门市鹤山市鹤山大道附近", "image": "", "rank": 21, "time": 0.5, "location": {"lat": 22.763121998834986, "lng": 112.98363174557294}, "feature": {"sight_features": "", "sight_content": ""}}, {"title": "酷贝游乐大型儿童游乐园", "address": "前进路华客隆购物广场2层", "image": "", "rank": 22, "time": 2, "location": {"lat": 22.771279128968008, "lng": 112.96889760565394}, "feature": {"sight_features": "", "sight_content": ""}}, {"title": "梅月吕公祠", "address": "广东省江门市鹤山市Y906(茶大线)", "image": "", "rank": 23, "time": 2, "location": {"lat": 22.798414561325, "lng": 112.94975877558353}, "feature": {"sight_features": "", "sight_content": ""}}, {"title": "环游乐园", "address": "沙坪镇鹤山广场3楼3001号", "image": "", "rank": 24, "time": 2, "location": {"lat": 22.780325173523963, "lng": 112.98240769921426}, "feature": {"sight_features": "", "sight_content": ""}}, {"title": "贝儿乐园", "address": "江门市鹤山市凤亭路28号坚美广场F3", "image": "", "rank": 25, "time": 2, "location": {"lat": 22.76030951521239, "lng": 112.9832066081176}, "feature": {"sight_features": "", "sight_content": ""}}, {"title": "雄满胡公祠", "address": "广东省江门市鹤山市G325(广南线)", "image": "", "rank": 26, "time": 2, "location": {"lat": 22.77116943137714, "lng": 112.97052666652624}, "feature": {"sight_features": "", "sight_content": ""}}, {"title": "巧手丫", "address": "广东省江门市鹤山市沙坪镇鹤山大道625号大润发(鹤山店)2层", "image": "", "rank": 27, "time": 2, "location": {"lat": 22.75520398232538, "lng": 112.9655418183377}, "feature": {"sight_features": "", "sight_content": ""}}, {"title": "江门状元坊休闲度假村", "address": "蓬江区沙坪镇大雁山动物园东南侧50米处", "image": "", "rank": 28, "time": 2.0, "location": {"lat": 22.601065786023433, "lng": 113.08454642893685}, "feature": {"sight_features": "", "sight_content": ""}}, {"title": "富溪文化广场", "address": "富溪大道与086乡道交叉口西200米", "image": "", "rank": 29, "time": 2, "location": {"lat": 22.746451926474826, "lng": 112.93242537429937}, "feature": {"sight_features": "", "sight_content": ""}}, {"title": "李氏公祠", "address": "广东省江门市鹤山市河东路3号", "image": "", "rank": 30, "time": 2, "location": {"lat": 22.733747395027198, "lng": 112.93507018873693}, "feature": {"sight_features": "", "sight_content": ""}}, {"title": "儿童淘气堡", "address": "087乡道南50米", "image": "", "rank": 31, "time": 2, "location": {"lat": 35.55727517043936, "lng": 112.51427719563465}, "feature": {"sight_features": "", "sight_content": ""}}, {"title": "云溪山庄", "address": "沙坪街道雁前路2001号", "image": "", "rank": 32, "time": 2, "location": {"lat": 22.796089566693276, "lng": 113.01088023075073}, "feature": {"sight_features": "", "sight_content": ""}}, {"title": "雁山运动公园", "address": "深海高速公路大雁山收费站附近", "image": "", "rank": 33, "time": 2, "location": {"lat": 22.791247406712827, "lng": 113.0233820024273}, "feature": {"sight_features": "", "sight_content": ""}}, {"title": "体育公园", "address": "碧桂大道与904乡道交叉口东150米", "image": "", "rank": 34, "time": 1.0, "location": {"lat": 22.748548841756783, "lng": 112.97180639255534}, "feature": {"sight_features": "", "sight_content": ""}}, {"title": "莱苏影剧场", "address": "961乡道附近", "image": "", "rank": 35, "time": 2, "location": {"lat": 22.600820633436125, "lng": 112.93252367227808}, "feature": {"sight_features": "", "sight_content": ""}}, {"title": "华记钓鱼场", "address": "086乡道", "image": "", "rank": 36, "time": 2, "location": {"lat": 43.65800402033218, "lng": 127.32463468592672}, "feature": {"sight_features": "", "sight_content": ""}}, {"title": "鹤山市图书馆", "address": "沙坪镇中山路32号", "image": "", "rank": 37, "time": 1.5, "location": {"lat": 22.769655367280876, "lng": 112.96864166224472}, "feature": {"sight_features": "", "sight_content": ""}}, {"title": "桃源镇图书馆", "address": "富源路17号-之3", "image": "", "rank": 38, "time": 2, "location": {"lat": 23.128746011032025, "lng": 113.6190050004357}, "feature": {"sight_features": "", "sight_content": ""}}, {"title": "尚世艺术馆", "address": "新业路", "image": "", "rank": 39, "time": 2, "location": {"lat": 38.68877892204951, "lng": 117.52539606636547}, "feature": {"sight_features": "", "sight_content": ""}}, {"title": "桃源植物园", "address": "887乡道", "image": "", "rank": 40, "time": 3.5, "location": {"lat": 33.99751147979095, "lng": 119.38834696979258}, "feature": {"sight_features": "", "sight_content": ""}}, {"title": "木林图书馆", "address": "870乡道", "image": "", "rank": 41, "time": 2, "location": {"lat": 25.9193270370619, "lng": 116.07269772381125}, "feature": {"sight_features": "", "sight_content": ""}}, {"title": "永新画廊", "address": "新业路104号", "image": "", "rank": 42, "time": 2, "location": {"lat": 22.779614521566355, "lng": 112.96480248415745}, "feature": {"sight_features": "", "sight_content": ""}}, {"title": "动物园", "address": "G15沈海高速入口", "image": "", "rank": 43, "time": 2, "location": {"lat": 24.684208635520125, "lng": 118.28177739591544}, "feature": {"sight_features": "", "sight_content": ""}}, {"title": "艺铭轩画廊艺术中心", "address": "沙坪镇新环路113号", "image": "", "rank": 44, "time": 2, "location": {"lat": 22.781858735401542, "lng": 112.96555451319117}, "feature": {"sight_features": "", "sight_content": ""}}, {"title": "广艺·邦画廊", "address": "富华路79号", "image": "", "rank": 45, "time": 2, "location": {"lat": 31.362768236427772, "lng": 121.00390744448501}, "feature": {"sight_features": "", "sight_content": ""}}, {"title": "邦弘图书馆", "address": "共建路", "image": "", "rank": 46, "time": 2, "location": {"lat": 48.24558996671877, "lng": 129.3888939202906}, "feature": {"sight_features": "", "sight_content": ""}}, {"title": "龙口戏院", "address": "金华路19号", "image": "", "rank": 47, "time": 2.0, "location": {"lat": 39.319565482171754, "lng": 117.8257229758537}, "feature": {"sight_features": "", "sight_content": ""}}, {"title": "趣玩3D奇幻馆", "address": "人民东路鹤山广场4楼", "image": "", "rank": 48, "time": 2, "location": {"lat": 22.780651372739943, "lng": 112.98356855427186}, "feature": {"sight_features": "", "sight_content": ""}}, {"title": "醉乡村生态休闲农庄", "address": "广东省江门鹤山市双合镇", "image": "", "rank": 49, "time": 2, "location": {"lat": 22.648860148869677, "lng": 112.55132583202361}, "feature": {"sight_features": "", "sight_content": ""}}, {"title": "动漫水上乐园", "address": "鹤山桃源镇钱塘村口(畅域花木超市内)", "image": "", "rank": 50, "time": 2, "location": {"lat": 22.745192907036113, "lng": 112.93759419994784}, "feature": {"sight_features": "", "sight_content": ""}}, {"title": "冰雪奇园", "address": "沙坪镇旧华山泉路口直入约500米，粤宇碧水湾销售中心", "image": "", "rank": 51, "time": 3.0, "location": {"lat": 32.9177551869722, "lng": 117.34180606712023}, "feature": {"sight_features": "", "sight_content": ""}}, {"title": "广艺书画培训基地", "address": "富华路75-79号", "image": "", "rank": 52, "time": 2, "location": {"lat": 22.770864330583706, "lng": 113.28138524862598}, "feature": {"sight_features": "", "sight_content": ""}}, {"title": "桃源拱桥花海(第二届桃花节)", "address": "桃源钱塘幼儿园对面", "image": "", "rank": 53, "time": 3.5, "location": {"lat": 28.908694006999355, "lng": 111.49540733144599}, "feature": {"sight_features": "", "sight_content": ""}}, {"title": "恐龙乐园", "address": "中国广东省江门市鹤山市", "image": "", "rank": 54, "time": 1.5, "location": {"lat": 22.77116943137714, "lng": 112.97052666652624}, "feature": {"sight_features": "", "sight_content": ""}}, {"title": "朱田农场", "address": "492县道东100米", "image": "", "rank": 55, "time": 2, "location": {"lat": 22.774138193999175, "lng": 112.75779229131786}, "feature": {"sight_features": "", "sight_content": ""}}, {"title": "名轩金花茶观赏园", "address": "272省道附近", "image": "", "rank": 56, "time": 2, "location": {"lat": 38.26282941026208, "lng": 116.58644809260616}, "feature": {"sight_features": "", "sight_content": ""}}, {"title": "宸宸冰淇淋批发", "address": "宅新路93号附近", "image": "", "rank": 57, "time": 2, "location": {"lat": 22.619984561946165, "lng": 112.64248207132529}, "feature": {"sight_features": "", "sight_content": ""}}, {"title": "鹤山市林业科学研究所", "address": "086乡道与931乡道交叉口东北200米", "image": "", "rank": 58, "time": 4.0, "location": {"lat": 42.85646580255288, "lng": 124.414086267546}, "feature": {"sight_features": "", "sight_content": ""}}, {"title": "小小魔方", "address": "小范街20号附近", "image": "", "rank": 59, "time": 2, "location": {"lat": 22.765050956556916, "lng": 112.96652962247448}, "feature": {"sight_features": "", "sight_content": ""}}, {"title": "绿雅体验农场", "address": "273省道西200米", "image": "", "rank": 60, "time": 2, "location": {"lat": 39.44856930922061, "lng": 116.65291371728944}, "feature": {"sight_features": "", "sight_content": ""}}]}