{"cityName": "和田", "days": "", "cityImage": "", "spots": [{"title": "葡萄长廊", "address": "新疆维吾尔自治区和田县巴格其镇", "image": "", "rank": 1, "time": 2, "location": {"lat": 37.19930747961594, "lng": 79.85239268562731}, "feature": {"sight_features": "", "sight_content": ""}}, {"title": "和田大巴扎", "address": "和田市东北面，在315国道旁", "image": "", "rank": 2, "time": 2, "location": {"lat": 37.13670112949286, "lng": 79.92581942325661}, "feature": {"sight_features": "", "sight_content": ""}}, {"title": "亚门草场", "address": "和田地区策勒县努尔乡以南萨尔龙村，昆仑山以北；距离策勒县城160公里，距乡政府20公里。", "image": "", "rank": 3, "time": 1.5, "location": {"lat": 36.136604870486785, "lng": 81.71767220875672}, "feature": {"sight_features": "", "sight_content": ""}}, {"title": "玉龙喀什河", "address": "玉龙喀什河大桥附近", "image": "", "rank": 4, "time": 2.5, "location": {"lat": 37.114367400796084, "lng": 79.96966810576926}, "feature": {"sight_features": "", "sight_content": ""}}, {"title": "鱼湖", "address": "位于塔克拉玛干沙漠南缘的民丰县境内", "image": "", "rank": 5, "time": 1.0, "location": {"lat": 39.43484609900784, "lng": 83.20986766148386}, "feature": {"sight_features": "", "sight_content": ""}}, {"title": "核桃王树", "address": "新疆自治区和田县巴格其镇喀拉瓦其村", "image": "", "rank": 6, "time": 2, "location": {"lat": 37.19930747961594, "lng": 79.85239268562731}, "feature": {"sight_features": "", "sight_content": ""}}, {"title": "尼雅遗址", "address": "和田地区民丰县喀巴阿斯卡村以北20公里的沙漠中", "image": "", "rank": 7, "time": 3.0, "location": {"lat": 37.07025696823114, "lng": 82.70271342758947}, "feature": {"sight_features": "", "sight_content": ""}}, {"title": "昆仑湖公园", "address": "北京东路197号", "image": "", "rank": 8, "time": 2, "location": {"lat": 37.111408520194736, "lng": 79.95079492583183}, "feature": {"sight_features": "", "sight_content": ""}}, {"title": "约特干遗址", "address": "位于和田县西10公里处的巴格其镇艾拉曼村境内", "image": "", "rank": 9, "time": 1.0, "location": {"lat": 37.19930747961594, "lng": 79.85239268562731}, "feature": {"sight_features": "", "sight_content": ""}}, {"title": "英尔力克沙漠", "address": "新疆维吾尔自治区和田市和田市西北22公里处", "image": "", "rank": 10, "time": 2.0, "location": {"lat": 37.11833554446567, "lng": 79.92021246975499}, "feature": {"sight_features": "", "sight_content": ""}}, {"title": "买力克阿瓦提故城", "address": "和田市南25公里处的玉龙喀什河西岸", "image": "", "rank": 11, "time": 1.0, "location": {"lat": 37.154430241345864, "lng": 79.96813922464553}, "feature": {"sight_features": "", "sight_content": ""}}, {"title": "赞木庙遗址", "address": "新疆维吾尔自治区和田市拉依喀乡喀拉喀什河东岸", "image": "", "rank": 12, "time": 2.0, "location": {"lat": 37.050485394556944, "lng": 79.90075780848638}, "feature": {"sight_features": "", "sight_content": ""}}, {"title": "丹丹乌里克遗址", "address": "丹丹乌里克位于一沙山环绕的狭长地带", "image": "", "rank": 13, "time": 1.0, "location": {"lat": 41.797168814400926, "lng": 123.36463109272997}, "feature": {"sight_features": "", "sight_content": ""}}, {"title": "和田博物馆", "address": "和田市北京西路342", "image": "", "rank": 14, "time": 2.5, "location": {"lat": 37.1185242270903, "lng": 79.91469701558648}, "feature": {"sight_features": "", "sight_content": ""}}, {"title": "无花果王树", "address": "和田市拉依喀乡政府后果园内", "image": "", "rank": 15, "time": 2, "location": {"lat": 37.11833554446567, "lng": 79.92021246975499}, "feature": {"sight_features": "", "sight_content": ""}}, {"title": "梧桐王树", "address": "田地区墨玉县阿克萨拉依乡古勒巴格村", "image": "", "rank": 16, "time": 1.0, "location": {"lat": 37.19034434730242, "lng": 79.67907412340358}, "feature": {"sight_features": "", "sight_content": ""}}, {"title": "夏合勒克封建庄园", "address": "墨玉县夏合勒克（扎瓦）乡境内", "image": "", "rank": 17, "time": 1.0, "location": {"lat": 37.20303870074365, "lng": 79.62366663954815}, "feature": {"sight_features": "", "sight_content": ""}}, {"title": "英尔力克水库", "address": "和田市18公里处的冲积扇扇缘洼地中", "image": "", "rank": 18, "time": 1.0, "location": {"lat": 37.11833554446567, "lng": 79.92021246975499}, "feature": {"sight_features": "", "sight_content": ""}}, {"title": "巴格达提麻扎", "address": "和田洛浦县多鲁乡色日克村", "image": "", "rank": 19, "time": 1.0, "location": {"lat": 37.08293617564464, "lng": 80.23214492588947}, "feature": {"sight_features": "", "sight_content": ""}}, {"title": "普鲁火山", "address": "和田于田县普鲁村北8-12公里的克里雅河两岸", "image": "", "rank": 20, "time": 1.0, "location": {"lat": 36.19085986706505, "lng": 81.48913819048201}, "feature": {"sight_features": "", "sight_content": ""}}, {"title": "玉吉满麻扎", "address": "和田市洛浦县阿其克管理区，距县城约70公里", "image": "", "rank": 21, "time": 1.0, "location": {"lat": 36.82191899482231, "lng": 80.18406042855138}, "feature": {"sight_features": "", "sight_content": ""}}, {"title": "慕士山", "address": "位于昆仑山中段，和田县与策勒县交界处", "image": "", "rank": 22, "time": 1.0, "location": {"lat": 37.090362410220656, "lng": 79.86621559504185}, "feature": {"sight_features": "", "sight_content": ""}}, {"title": "玛利克瓦特故城", "address": "和田城东南25公里的玉龙喀什河西岸", "image": "", "rank": 23, "time": 2.0, "location": {"lat": 37.37891584981032, "lng": 79.99289248149691}, "feature": {"sight_features": "", "sight_content": ""}}, {"title": "老达玛沟遗址", "address": "和田策勒县城东北二十五公里处", "image": "", "rank": 24, "time": 1.0, "location": {"lat": 37.00412235937149, "lng": 80.81320126874158}, "feature": {"sight_features": "", "sight_content": ""}}, {"title": "阿西乔克吐如希库尔干城堡", "address": "和田地区策勒县恰哈乡境内", "image": "", "rank": 25, "time": 1.0, "location": {"lat": 36.503874171571596, "lng": 80.74107857427194}, "feature": {"sight_features": "", "sight_content": ""}}, {"title": "热瓦克佛寺遗址", "address": "新疆维吾尔自治区洛浦县玉龙喀什镇", "image": "", "rank": 26, "time": 2.0, "location": {"lat": 37.110708584406616, "lng": 80.008708330643}, "feature": {"sight_features": "", "sight_content": ""}}, {"title": "大河沿民俗村", "address": "于田县县城北250公里左右的塔克拉玛干沙漠深处，于田县达里雅布依乡境内", "image": "", "rank": 27, "time": 1.0, "location": {"lat": 37.84971347472005, "lng": 81.74102179893009}, "feature": {"sight_features": "", "sight_content": ""}}, {"title": "麻扎塔格古城堡", "address": "新疆维吾尔自治区墨玉县和田河下游西侧麻扎塔格红山嘴上", "image": "", "rank": 28, "time": 1.0, "location": {"lat": 38.518684078978964, "lng": 80.79671458830674}, "feature": {"sight_features": "", "sight_content": ""}}, {"title": "库克马日木窟", "address": "和田县拉依喀乡喀拉喀什河东岸80余米高的山腰上", "image": "", "rank": 29, "time": 1.0, "location": {"lat": 37.050485394556944, "lng": 79.90075780848638}, "feature": {"sight_features": "", "sight_content": ""}}, {"title": "改水纪念碑", "address": "和田县布扎克乡托乎拉村水厂内", "image": "", "rank": 30, "time": 1.0, "location": {"lat": 37.08332974951488, "lng": 79.81578921883248}, "feature": {"sight_features": "", "sight_content": ""}}, {"title": "桑株岩画", "address": "位于皮山县城东南100公里桑株乡乌尔其村的一块岩石上", "image": "", "rank": 31, "time": 2.0, "location": {"lat": 35.877996997271495, "lng": 101.8095690383313}, "feature": {"sight_features": "", "sight_content": ""}}, {"title": "玛坚勒克遗址", "address": "和田县克里雅河床西岸的一级阶地上", "image": "", "rank": 32, "time": 1.0, "location": {"lat": 37.090362410220656, "lng": 79.86621559504185}, "feature": {"sight_features": "", "sight_content": ""}}, {"title": "安得悦古城", "address": "和田民丰县安迪尔乡安迪尔老河床东岸", "image": "", "rank": 33, "time": 1.0, "location": {"lat": 37.96883197767368, "lng": 83.64912903661256}, "feature": {"sight_features": "", "sight_content": ""}}, {"title": "山普鲁古墓群", "address": "山普鲁古墓群", "image": "", "rank": 34, "time": 1.0, "location": {"lat": 28.985685769181753, "lng": 89.63681438492402}, "feature": {"sight_features": "", "sight_content": ""}}, {"title": "地毯博物馆", "address": "杭州大道8号", "image": "", "rank": 35, "time": 1.5, "location": {"lat": 37.12836991721737, "lng": 79.96555255392954}, "feature": {"sight_features": "", "sight_content": ""}}, {"title": "阿拉勒巴格佛寺", "address": "和田市西南11公里处的吐沙拉乡阿拉勒巴格村", "image": "", "rank": 36, "time": 2, "location": {"lat": 37.123342001525124, "lng": 79.85802701561815}, "feature": {"sight_features": "", "sight_content": ""}}, {"title": "吐尔地阿吉庄园", "address": "皮山农场阿瓦提村", "image": "", "rank": 37, "time": 1.0, "location": {"lat": 37.70693660673019, "lng": 78.45642656460153}, "feature": {"sight_features": "", "sight_content": ""}}, {"title": "皮山大清真寺", "address": "和田地区皮山县县城西北角", "image": "", "rank": 38, "time": 1.0, "location": {"lat": 37.62724871437495, "lng": 78.28987106240467}, "feature": {"sight_features": "", "sight_content": ""}}, {"title": "乌鲁瓦提景区", "address": "和田地区墨玉县浪如乡", "image": "", "rank": 39, "time": 2, "location": {"lat": 37.28299344690681, "lng": 79.73547926535839}, "feature": {"sight_features": "", "sight_content": "乌鲁瓦提景区位于和田河西支流喀拉喀什河中游河段，该景区所依托的乌鲁瓦提水利枢纽工程，是一座具有灌溉、防洪、发电、生态保护、旅游的大型水利枢纽工程。"}}, {"title": "团结广场", "address": "和田地区和田市北京西路与塔乃依北路交叉口南150米", "image": "", "rank": 40, "time": 2, "location": {"lat": 37.11707664351561, "lng": 79.92907779922277}, "feature": {"sight_features": "", "sight_content": ""}}, {"title": "地毯厂", "address": "新疆维吾尔自治区和田市纳瓦格路6号", "image": "", "rank": 41, "time": 2, "location": {"lat": 37.12186708940366, "lng": 79.9328358181034}, "feature": {"sight_features": "", "sight_content": ""}}, {"title": "沙漠观景台", "address": "和田地区和田市阿拉尔至和田沙漠公路和田出入口处", "image": "", "rank": 42, "time": 2, "location": {"lat": 37.636541936288374, "lng": 82.8939156824585}, "feature": {"sight_features": "", "sight_content": ""}}, {"title": "和田河", "address": "玉龙喀什河位于和田市东，紧邻和田市区；喀拉喀什河位于和田市以西20km处", "image": "", "rank": 43, "time": 2, "location": {"lat": 37.154430241345864, "lng": 79.96813922464553}, "feature": {"sight_features": "", "sight_content": ""}}, {"title": "和田加曼清真寺", "address": "和田地区策勒县加麦路6号", "image": "", "rank": 44, "time": 2, "location": {"lat": 37.00594050343203, "lng": 80.80526456205575}, "feature": {"sight_features": "", "sight_content": ""}}, {"title": "墨玉湿地公园", "address": "新疆维吾尔自治区和田地区墨玉县", "image": "", "rank": 45, "time": 3.0, "location": {"lat": 37.28299344690681, "lng": 79.73547926535839}, "feature": {"sight_features": "", "sight_content": ""}}, {"title": "阿克斯皮力古城", "address": "洛浦县城以北的沙丘中，距离和田54公里", "image": "", "rank": 46, "time": 1.0, "location": {"lat": 37.079611030987515, "lng": 80.19538761187944}, "feature": {"sight_features": "", "sight_content": ""}}, {"title": "安迪尔遗址", "address": "和田地区民丰县", "image": "", "rank": 47, "time": 1.0, "location": {"lat": 37.07025696823114, "lng": 82.70271342758947}, "feature": {"sight_features": "", "sight_content": ""}}, {"title": "喀拉墩古城", "address": "和田于田县城以北240公里处的克利雅河下游处的沙漠中", "image": "", "rank": 48, "time": 1.0, "location": {"lat": 36.862954136110474, "lng": 81.68378291474839}, "feature": {"sight_features": "", "sight_content": ""}}, {"title": "亚尕其乌依吕克古城", "address": "和田皮山县城北140多公里处的沙丘中", "image": "", "rank": 49, "time": 1.0, "location": {"lat": 37.62724871437495, "lng": 78.28987106240467}, "feature": {"sight_features": "", "sight_content": ""}}, {"title": "依麻木阿斯木麻扎", "address": "和田市吉亚乡政府东北9.5公里，地处塔克拉玛干大沙漠南缘。", "image": "", "rank": 50, "time": 1.0, "location": {"lat": 37.14887527544479, "lng": 79.97532578757117}, "feature": {"sight_features": "", "sight_content": ""}}, {"title": "伊庥木加帕尔特合兰古墓", "address": "和田市策勒乡拖万加依村麻扎阿勒迪", "image": "", "rank": 51, "time": 1.0, "location": {"lat": 37.11833554446567, "lng": 79.92021246975499}, "feature": {"sight_features": "", "sight_content": ""}}, {"title": "圆沙古城", "address": "和田地区于田县大河沿乡北部、克里雅古河床的东岸", "image": "", "rank": 52, "time": 1.0, "location": {"lat": 38.36968595454669, "lng": 81.87640836186398}, "feature": {"sight_features": "", "sight_content": ""}}, {"title": "库尔班吐鲁木纪念馆", "address": "托格日尕孜乡托格日尕孜村", "image": "", "rank": 53, "time": 2, "location": {"lat": 36.857222663526706, "lng": 81.4907121588169}, "feature": {"sight_features": "", "sight_content": ""}}, {"title": "群众艺术馆", "address": "北京西路2号", "image": "", "rank": 54, "time": 1.5, "location": {"lat": 34.358048382939785, "lng": 118.3305164148085}, "feature": {"sight_features": "", "sight_content": ""}}, {"title": "园艺场一组", "address": "073乡道与075乡道交叉口东北150米", "image": "", "rank": 55, "time": 2, "location": {"lat": 22.99287940619349, "lng": 104.08959417395447}, "feature": {"sight_features": "", "sight_content": ""}}, {"title": "和田丝绸厂农场", "address": "055乡道附近", "image": "", "rank": 56, "time": 1.0, "location": {"lat": 44.38060020922105, "lng": 126.82349842836415}, "feature": {"sight_features": "", "sight_content": ""}}, {"title": "烽火农场", "address": "626县道附近", "image": "", "rank": 57, "time": 2, "location": {"lat": 18.49501544542705, "lng": 109.60449049289676}, "feature": {"sight_features": "", "sight_content": ""}}, {"title": "和田市中心苗圃城市绿化苗木培育...", "address": "和墨路157号", "image": "", "rank": 58, "time": 2, "location": {"lat": 37.26730941255429, "lng": 79.74600059568348}, "feature": {"sight_features": "", "sight_content": ""}}, {"title": "洛浦县图书馆", "address": "团结路与文化路交叉口西北50米", "image": "", "rank": 59, "time": 2, "location": {"lat": 31.809570102491108, "lng": 120.22781888025938}, "feature": {"sight_features": "", "sight_content": ""}}, {"title": "和田民俗风情园", "address": "628县道附近", "image": "", "rank": 60, "time": 3.5, "location": {"lat": 18.4358625996212, "lng": 109.66873622498255}, "feature": {"sight_features": "", "sight_content": ""}}]}