{"cityName": "呼图壁", "days": 2, "cityImage": "", "spots": [{"title": "世纪园", "address": "昌吉回族自治州呼图壁县乌伊东路西市南路路口处", "image": "", "rank": 1, "time": 2.0, "location": {"lat": 44.19458834743128, "lng": 86.89420612480895}, "feature": {"sight_features": "", "sight_content": ""}}, {"title": "康家石门子岩画", "address": "昌吉回族自治州，呼图壁县境内的天山腹地", "image": "", "rank": 2, "time": 2, "location": {"lat": 44.1976545961318, "lng": 86.90514380673059}, "feature": {"sight_features": "", "sight_content": ""}}, {"title": "华艺书画社", "address": "东风大街70号", "image": "", "rank": 3, "time": 2, "location": {"lat": 44.19745702607445, "lng": 86.89698521642788}, "feature": {"sight_features": "", "sight_content": ""}}, {"title": "鸿福生态园", "address": "201省道", "image": "", "rank": 4, "time": 2, "location": {"lat": 38.686331107748025, "lng": 113.87626234527481}, "feature": {"sight_features": "", "sight_content": ""}}, {"title": "银河文化艺术馆", "address": "东风大街82号", "image": "", "rank": 5, "time": 2, "location": {"lat": 36.96845675125035, "lng": 118.89179674151953}, "feature": {"sight_features": "", "sight_content": ""}}, {"title": "呼图壁县档案馆", "address": "和庄路42号", "image": "", "rank": 6, "time": 2, "location": {"lat": 32.33715679824775, "lng": 118.88356242406233}, "feature": {"sight_features": "", "sight_content": ""}}, {"title": "生殖崇拜岩画", "address": "新疆维吾尔自治区呼图壁县县西南75公里处 831200", "image": "", "rank": 7, "time": 2, "location": {"lat": 43.71093247658689, "lng": 86.90514380673059}, "feature": {"sight_features": "", "sight_content": ""}}, {"title": "如意生态公园", "address": "新疆维吾尔自治区昌吉回族自治州呼图壁县东风大街158号", "image": "", "rank": 8, "time": 2, "location": {"lat": 44.198172692874635, "lng": 86.87474910647651}, "feature": {"sight_features": "", "sight_content": ""}}, {"title": "兴懿水族馆", "address": "昌华路56号附近", "image": "", "rank": 9, "time": 2, "location": {"lat": 37.48630166631045, "lng": 122.0187094496061}, "feature": {"sight_features": "", "sight_content": ""}}, {"title": "陕西寺", "address": "昌华路附近", "image": "", "rank": 10, "time": 2, "location": {"lat": 32.95052120856629, "lng": 120.09979844253951}, "feature": {"sight_features": "", "sight_content": ""}}, {"title": "呼图壁镇绿洲寺", "address": "呼芳路与东市路交叉口东侧", "image": "", "rank": 11, "time": 2, "location": {"lat": 44.192960952335454, "lng": 86.90799070343756}, "feature": {"sight_features": "", "sight_content": ""}}, {"title": "鲁卡奇儿童乐园", "address": "新疆维吾尔自治区昌吉回族自治州呼图壁县昌华路", "image": "", "rank": 12, "time": 2, "location": {"lat": 44.19483961982264, "lng": 86.901826027977}, "feature": {"sight_features": "", "sight_content": ""}}, {"title": "玛扎尔古墓", "address": "昌吉回族自治州呼图壁县", "image": "", "rank": 13, "time": 2, "location": {"lat": 44.1976545961318, "lng": 86.90514380673059}, "feature": {"sight_features": "", "sight_content": ""}}, {"title": "上二工村清真寺", "address": "新疆维吾尔自治区昌吉回族自治州呼图壁县园户村镇连霍高速公路呼图壁火车站", "image": "", "rank": 14, "time": 2, "location": {"lat": 44.153033927951924, "lng": 86.8655279777793}, "feature": {"sight_features": "", "sight_content": ""}}, {"title": "呼图壁县滕疆财富广场", "address": "东风大街与和庄路交叉口西北50米", "image": "", "rank": 15, "time": 2, "location": {"lat": 44.1973351744575, "lng": 86.90551948869488}, "feature": {"sight_features": "", "sight_content": ""}}, {"title": "呼图壁县西域春天生态田园度假村", "address": "呼图壁县下头工村二组南侧130米", "image": "", "rank": 16, "time": 2, "location": {"lat": 44.192619316255886, "lng": 86.9522745449918}, "feature": {"sight_features": "", "sight_content": ""}}, {"title": "天润珍稀植物博览园", "address": "新疆维吾尔自治区昌吉回族自治州呼图壁县S201", "image": "", "rank": 17, "time": 2, "location": {"lat": 44.1976545961318, "lng": 86.90514380673059}, "feature": {"sight_features": "", "sight_content": ""}}, {"title": "冬乐园", "address": "芳过段", "image": "", "rank": 18, "time": 2, "location": {"lat": 44.542923175374085, "lng": 86.63461083799004}, "feature": {"sight_features": "", "sight_content": ""}}, {"title": "公教公园", "address": "民生东四段80巷", "image": "", "rank": 19, "time": 2, "location": {"lat": 40.74120604551819, "lng": 122.8290955497651}, "feature": {"sight_features": "", "sight_content": ""}}, {"title": "卧龙山滑雪场", "address": "石梯子乡内", "image": "", "rank": 20, "time": 2, "location": {"lat": 43.99854000135312, "lng": 86.82253789648156}, "feature": {"sight_features": "", "sight_content": ""}}]}