{"cityName": "和县", "days": 2, "cityImage": "", "spots": [{"title": "香泉温泉", "address": "马鞍山市和县香泉镇山庄路(香泉镇泰华路1号)", "image": "", "rank": 1, "time": 2, "location": {"lat": 31.876996679556143, "lng": 118.33206834267874}, "feature": {"sight_features": "特色1 因泉水香味浓烈，故名之 特色2 度假村精心打造出以露天温泉为核心。 特色3 悠悠古温泉，翩翩白鹭栖。", "sight_content": "香泉温泉度假村地理位置优越，与南京浦口区接壤。距历史古城南京市区仅40分钟车程、安徽省会合肥市约一小时的车程。其周边芜湖、马鞍山、铜陵、滁州等地区都在两小时车程以内。\n香泉温泉度假村拥有园林式的温泉池区面积约2万平方米，拥有30多个风格和功能各异的露天温泉浴池，有中草药浴池、水果花瓣浴池、高温浴池、石板浴、沐足池、spa水疗区、至尊区等，精心打造出以露天温泉为核心，集餐饮、客房、会议、娱乐为一体的温泉度假村。\n香泉谷旅游度假区，“山不高而清秀，水不深而旷远”。自然旅游资源和人文旅游资源得天独厚，原汁原味。山、水、谷、林、温泉、冷泉、湖光山色应有尽有。\n香泉谷独有的“白鹭栖息地”，成千上万的鹭鸟，属国家二级保护动物，享有“环保鸟”的美誉，在清晨的朝露中傲然独立树梢，在苍茫暮色里翩然归来，在盈盈水田间盘旋低回，在憨实坚厚的牛背上悠然踱步……它们钟爱的地方自然是生态环境最佳的地方。在香泉度假村的温泉主楼阳台上，您可以看到“一行白鹭上青天”的自然和谐美景。"}}, {"title": "陋室公园", "address": "马鞍山市和县陋室东街23号", "image": "", "rank": 2, "time": 1.0, "location": {"lat": 31.723675822606364, "lng": 118.37384239472458}, "feature": {"sight_features": "", "sight_content": ""}}, {"title": "霸王祠", "address": "马鞍山市和县乌江镇驻马路100号", "image": "", "rank": 3, "time": 1.0, "location": {"lat": 31.833394539988703, "lng": 118.41063863680387}, "feature": {"sight_features": "", "sight_content": ""}}, {"title": "鸡笼山", "address": "马鞍山市和县城西北25公里的群山之中", "image": "", "rank": 4, "time": 0.5, "location": {"lat": 31.676265597609103, "lng": 118.5135795794315}, "feature": {"sight_features": "", "sight_content": ""}}, {"title": "西梁山", "address": "马鞍山市和县县城南36公里处", "image": "", "rank": 5, "time": 1.0, "location": {"lat": 31.748243815854266, "lng": 118.35951254887343}, "feature": {"sight_features": "", "sight_content": ""}}, {"title": "和乐宫", "address": "马鞍山市和县历阳镇滨河大道印象滨河10#楼", "image": "", "rank": 6, "time": 2, "location": {"lat": 31.719731684514738, "lng": 118.35327530739548}, "feature": {"sight_features": "特色1 集崭新、时尚的中、韩式沐浴、汗蒸文化项目于一体 特色2 引进国际最先进的水处理设备，水质可达到饮用标准", "sight_content": "和县人的幸福时光-- 风靡亚洲、火爆上海、南京的日韩式文化汤-- 和乐宫温泉馆降临古城和县！坐落于和县历阳镇印象滨河小区10号楼，整体营业面积5000多平方米，和乐宫是一家综合性温泉馆，引进国际先进的水处理设备，水质可达到饮用标准，和乐宫集崭新、时尚的中、韩式沐浴、汗蒸文化项目于一体。\n韩式的玛瑙玉石汗蒸浴、岩盐盘浴、碎石浴、黄土玉石窑洞，日式养生泡岗，榻榻米休息区、地道味美的中韩料理，星级豪华的客房棋牌室，SPA养生保健按摩、保健理疗，3D影院、大型的儿童乐园、茶艺、书吧、网吧。"}}, {"title": "香泉温泉度假村温泉中心", "address": "香泉镇山庄路", "image": "", "rank": 7, "time": 2, "location": {"lat": 31.876996679556143, "lng": 118.33206834267874}, "feature": {"sight_features": "", "sight_content": ""}}, {"title": "SDS真人密室逃脱", "address": "历阳镇历阳中路县国土局向西15m", "image": "", "rank": 8, "time": 2, "location": {"lat": 31.721030610610775, "lng": 118.36828334875408}, "feature": {"sight_features": "", "sight_content": ""}}, {"title": "垂钓中心", "address": "和县安星路8号", "image": "", "rank": 9, "time": 2, "location": {"lat": 31.81630859790817, "lng": 118.46593981518525}, "feature": {"sight_features": "", "sight_content": ""}}, {"title": "艺国美术馆", "address": "和县历阳镇新华书店旁", "image": "", "rank": 10, "time": 2, "location": {"lat": 31.720856705735667, "lng": 118.37352934872892}, "feature": {"sight_features": "", "sight_content": ""}}, {"title": "青冈树", "address": "安徽省和县高关乡高滕村 238241", "image": "", "rank": 11, "time": 2, "location": {"lat": 31.446871537312866, "lng": 118.45805321921469}, "feature": {"sight_features": "", "sight_content": ""}}, {"title": "和县猿人遗址", "address": "安徽省和县善厚镇汪家山 238243", "image": "", "rank": 12, "time": 2, "location": {"lat": 31.890648221762348, "lng": 118.21306165875114}, "feature": {"sight_features": "", "sight_content": ""}}, {"title": "乌江剧场", "address": "江苏省南京市浦口区驻马路和驷马北路的交叉口附近", "image": "", "rank": 13, "time": 2, "location": {"lat": 31.87277329023656, "lng": 118.47405120312666}, "feature": {"sight_features": "", "sight_content": ""}}, {"title": "巢湖香泉", "address": "安徽省和县香泉镇 238254", "image": "", "rank": 14, "time": 4.5, "location": {"lat": 31.867772036890987, "lng": 118.3459159610643}, "feature": {"sight_features": "", "sight_content": ""}}, {"title": "和县西埠镇龙王古寺", "address": "西埠镇", "image": "", "rank": 15, "time": 2, "location": {"lat": 31.77479263228563, "lng": 118.29797324687807}, "feature": {"sight_features": "", "sight_content": ""}}, {"title": "半月湖植物园", "address": "马鞍山市和县", "image": "", "rank": 16, "time": 2, "location": {"lat": 31.748243815854266, "lng": 118.35951254887343}, "feature": {"sight_features": "", "sight_content": ""}}, {"title": "慈云寺", "address": "安徽省马鞍山市和县S206", "image": "", "rank": 17, "time": 1.5, "location": {"lat": 31.748243815854266, "lng": 118.35951254887343}, "feature": {"sight_features": "", "sight_content": ""}}, {"title": "金太阳亲子乐园", "address": "历阳中路安德利购物中心(历阳东路)4层", "image": "", "rank": 18, "time": 2, "location": {"lat": 31.720770534574267, "lng": 118.37433485209327}, "feature": {"sight_features": "", "sight_content": ""}}, {"title": "东狱庙", "address": "035县道附近", "image": "", "rank": 19, "time": 2, "location": {"lat": 33.2694977766192, "lng": 116.44920443780842}, "feature": {"sight_features": "", "sight_content": ""}}, {"title": "卜集影剧院", "address": "康怡大药房附近", "image": "", "rank": 20, "time": 2, "location": {"lat": 40.762042111229526, "lng": 114.87441282387245}, "feature": {"sight_features": "", "sight_content": ""}}, {"title": "北麓基督福音堂", "address": "安徽省马鞍山市和县", "image": "", "rank": 21, "time": 2, "location": {"lat": 31.748243815854266, "lng": 118.35951254887343}, "feature": {"sight_features": "", "sight_content": ""}}, {"title": "香泉湖国际度假中心", "address": "香泉湖畔", "image": "", "rank": 22, "time": 2, "location": {"lat": 31.878451396405417, "lng": 118.32944311938518}, "feature": {"sight_features": "", "sight_content": ""}}, {"title": "郝万宗祠", "address": "037县道附近", "image": "", "rank": 23, "time": 2, "location": {"lat": 30.4472599655496, "lng": 118.06864912983106}, "feature": {"sight_features": "", "sight_content": ""}}, {"title": "凤林禅寺", "address": "和县北鸡笼山", "image": "", "rank": 24, "time": 2, "location": {"lat": 31.748243815854266, "lng": 118.35951254887343}, "feature": {"sight_features": "", "sight_content": ""}}, {"title": "宝龙寺", "address": "206省道附近", "image": "", "rank": 25, "time": 2, "location": {"lat": 40.08163878542396, "lng": 117.10435023437643}, "feature": {"sight_features": "", "sight_content": ""}}, {"title": "和县档案馆", "address": "历阳西路158号", "image": "", "rank": 26, "time": 2, "location": {"lat": 31.467373232276085, "lng": 118.24041673147991}, "feature": {"sight_features": "", "sight_content": ""}}, {"title": "一飞画廊", "address": "文昌南路", "image": "", "rank": 27, "time": 2, "location": {"lat": 27.23743518374116, "lng": 119.90952239168543}, "feature": {"sight_features": "", "sight_content": ""}}, {"title": "创亿画廊", "address": "龙潭南路82号", "image": "", "rank": 28, "time": 2, "location": {"lat": 31.71811174242616, "lng": 118.36569294917193}, "feature": {"sight_features": "", "sight_content": ""}}, {"title": "和县图书馆", "address": "文昌中路29号文化大楼", "image": "", "rank": 29, "time": 2, "location": {"lat": 32.40085360076527, "lng": 119.45573704067617}, "feature": {"sight_features": "", "sight_content": ""}}, {"title": "和州画馆", "address": "历阳西路138号", "image": "", "rank": 30, "time": 2, "location": {"lat": 31.467373232276085, "lng": 118.24041673147991}, "feature": {"sight_features": "", "sight_content": ""}}, {"title": "黄金海岸温泉休闲会所", "address": "富康路221——223号(富城花园南大门对面)", "image": "", "rank": 31, "time": 2, "location": {"lat": 31.731941230601755, "lng": 118.3685157839337}, "feature": {"sight_features": "", "sight_content": ""}}, {"title": "安徽和洲园林", "address": "巢宁路附近", "image": "", "rank": 32, "time": 2, "location": {"lat": 31.73533284944915, "lng": 118.36427760236636}, "feature": {"sight_features": "", "sight_content": ""}}, {"title": "历阳镇太平蔬菜生产基地", "address": "206省道附近", "image": "", "rank": 33, "time": 2, "location": {"lat": 40.08163878542396, "lng": 117.10435023437643}, "feature": {"sight_features": "", "sight_content": ""}}, {"title": "兄弟画廊(郑蒲港分店)", "address": "和县024县道南150米", "image": "", "rank": 34, "time": 2, "location": {"lat": 31.748243815854266, "lng": 118.35951254887343}, "feature": {"sight_features": "", "sight_content": ""}}, {"title": "听雨轩画廊", "address": "和县望江路27附近", "image": "", "rank": 35, "time": 2, "location": {"lat": 31.712675156352752, "lng": 118.36685014128126}, "feature": {"sight_features": "", "sight_content": ""}}, {"title": "三余堂画廊", "address": "和县土街262号附近", "image": "", "rank": 36, "time": 2, "location": {"lat": 31.723100168637302, "lng": 118.36508616509369}, "feature": {"sight_features": "", "sight_content": ""}}, {"title": "和县影剧场", "address": "和县文昌中路31号", "image": "", "rank": 37, "time": 2, "location": {"lat": 31.722057208053304, "lng": 118.37187040302837}, "feature": {"sight_features": "", "sight_content": ""}}, {"title": "刘禹锡纪念馆", "address": "陋室东街", "image": "", "rank": 38, "time": 2, "location": {"lat": 31.723770682830068, "lng": 118.37631891701552}, "feature": {"sight_features": "", "sight_content": ""}}, {"title": "巢湖市艺术团 和县庐剧团", "address": "和县文昌中路27", "image": "", "rank": 39, "time": 4.5, "location": {"lat": 31.721829479790877, "lng": 118.37191677984693}, "feature": {"sight_features": "", "sight_content": ""}}, {"title": "林海生态园", "address": "马鞍山市和县西埠镇林海生态园", "image": "", "rank": 40, "time": 2, "location": {"lat": 31.77573472188256, "lng": 118.27485980927581}, "feature": {"sight_features": "", "sight_content": "林海生态园以生态旅游、农业观光为主，集休闲度假、亲子研学、美食农趣奇石珍藏、文学创作、园林绿化观赏和乡村旅游为一体的现代农业科技生态示范园，\n分为亲子休闲区、旅游观赏区、农业采摘区、餐饮住宿区。"}}]}