{"cityName": "霍州", "days": 2, "cityImage": "", "spots": [{"title": "霍州署", "address": "临汾市霍州鼓楼", "image": "", "rank": 1, "time": 1.0, "location": {"lat": 36.57637674178183, "lng": 111.7302860518885}, "feature": {"sight_features": "", "sight_content": ""}}, {"title": "陶唐峪", "address": "临汾市霍州市陶唐峪乡", "image": "", "rank": 2, "time": 1.0, "location": {"lat": 36.501875334307506, "lng": 111.8328264706316}, "feature": {"sight_features": "", "sight_content": ""}}, {"title": "霍州古楼", "address": "霍县城内中心", "image": "", "rank": 3, "time": 2.0, "location": {"lat": 36.574606950709004, "lng": 111.76150942217721}, "feature": {"sight_features": "", "sight_content": ""}}, {"title": "东方国际狩猎场", "address": "临汾市霍州市李曹镇七里峪村西北方向（太岳山国家原始森林公园）", "image": "", "rank": 4, "time": 1.5, "location": {"lat": 36.61729751284539, "lng": 112.03131739099831}, "feature": {"sight_features": "", "sight_content": ""}}, {"title": "娲皇庙", "address": "山西省临汾市霍州", "image": "", "rank": 5, "time": 2, "location": {"lat": 36.574606950709004, "lng": 111.76150942217721}, "feature": {"sight_features": "", "sight_content": ""}}, {"title": "骏腾山庄", "address": "白龙镇韩南庄村", "image": "", "rank": 6, "time": 2, "location": {"lat": 36.60982583094748, "lng": 111.66204078068482}, "feature": {"sight_features": "", "sight_content": ""}}, {"title": "泳祥水上乐园", "address": "东环路14号", "image": "", "rank": 7, "time": 2, "location": {"lat": 40.23117232600487, "lng": 116.24596204093827}, "feature": {"sight_features": "", "sight_content": ""}}, {"title": "署廉政文化馆", "address": "鼓楼西街", "image": "", "rank": 8, "time": 2, "location": {"lat": 40.229904363754606, "lng": 116.23559614242117}, "feature": {"sight_features": "", "sight_content": ""}}, {"title": "葡萄的店", "address": "建材路第二中学旁", "image": "", "rank": 9, "time": 2, "location": {"lat": 27.69521050433377, "lng": 106.93881450168507}, "feature": {"sight_features": "", "sight_content": ""}}, {"title": "碧泉湖", "address": "霍州市", "image": "", "rank": 10, "time": 2, "location": {"lat": 36.574606950709004, "lng": 111.76150942217721}, "feature": {"sight_features": "", "sight_content": ""}}, {"title": "快乐大本营", "address": "霍州市其他北环路北山公园内", "image": "", "rank": 11, "time": 2, "location": {"lat": 36.579292380335446, "lng": 111.75770828283551}, "feature": {"sight_features": "", "sight_content": ""}}, {"title": "佛光普照", "address": "山西省临汾市霍州市鼓楼东街165号", "image": "", "rank": 12, "time": 2, "location": {"lat": 36.57625832960911, "lng": 111.73805110083543}, "feature": {"sight_features": "", "sight_content": ""}}, {"title": "儿童乐园", "address": "山西省临汾市霍州市鼓楼西街", "image": "", "rank": 13, "time": 2, "location": {"lat": 36.57679387748376, "lng": 111.72308291010586}, "feature": {"sight_features": "", "sight_content": ""}}, {"title": "儿童乐园", "address": "北街乐购通讯城3楼", "image": "", "rank": 14, "time": 2, "location": {"lat": 36.57685131608048, "lng": 111.73043375756859}, "feature": {"sight_features": "", "sight_content": ""}}, {"title": "嘟嘟乐儿童乐园", "address": "霍州市辛置镇邮政储蓄旁（退沙--辛置公交车总站）", "image": "", "rank": 15, "time": 2, "location": {"lat": 36.50928743390058, "lng": 111.74295144722292}, "feature": {"sight_features": "", "sight_content": ""}}, {"title": "华佗庙", "address": "龙柏路附近", "image": "", "rank": 16, "time": 2, "location": {"lat": 40.066216373740964, "lng": 116.1737423337854}, "feature": {"sight_features": "", "sight_content": ""}}, {"title": "美华鲁卡奇儿童游乐园", "address": "临汾市霍州市北环路美华购物中心3层", "image": "", "rank": 17, "time": 2, "location": {"lat": 36.580330979312556, "lng": 111.74139380253641}, "feature": {"sight_features": "", "sight_content": ""}}, {"title": "闪亮儿童乐园", "address": "大运公路112号附近", "image": "", "rank": 18, "time": 2, "location": {"lat": 39.3875733756767, "lng": 112.44599860178808}, "feature": {"sight_features": "", "sight_content": ""}}, {"title": "祝圣寺", "address": "前进路与鼓楼东街交叉口西北150米", "image": "", "rank": 19, "time": 1.0, "location": {"lat": 36.576285006594325, "lng": 111.73228163398568}, "feature": {"sight_features": "", "sight_content": ""}}, {"title": "诚瑞源广场", "address": "鼓楼西街110附近", "image": "", "rank": 20, "time": 2, "location": {"lat": 38.90957464497129, "lng": 106.54998167964635}, "feature": {"sight_features": "", "sight_content": ""}}, {"title": "多多岛游乐场", "address": "临汾市霍州市鼓楼南街佳美时尚百货1层", "image": "", "rank": 21, "time": 2, "location": {"lat": 36.57573279129315, "lng": 111.73001327962379}, "feature": {"sight_features": "", "sight_content": ""}}, {"title": "南矿区文化广场", "address": "临汾市霍州市", "image": "", "rank": 22, "time": 2, "location": {"lat": 36.574606950709004, "lng": 111.76150942217721}, "feature": {"sight_features": "", "sight_content": ""}}, {"title": "永祥水上乐园", "address": "山西省临汾市霍州市东环路", "image": "", "rank": 23, "time": 2, "location": {"lat": 36.57708659792134, "lng": 111.76587237256456}, "feature": {"sight_features": "", "sight_content": ""}}, {"title": "天主堂(漪汾路)", "address": "桥西漪汾路", "image": "", "rank": 24, "time": 2, "location": {"lat": 38.010381080199444, "lng": 114.46741977426439}, "feature": {"sight_features": "", "sight_content": ""}}, {"title": "基督教", "address": "山西省临汾市霍州市", "image": "", "rank": 25, "time": 2, "location": {"lat": 36.574606950709004, "lng": 111.76150942217721}, "feature": {"sight_features": "", "sight_content": ""}}, {"title": "太岳山庄采摘园", "address": "李曹镇红星厂(七里峪风景区门楼南600米)", "image": "", "rank": 26, "time": 2, "location": {"lat": 36.611188939824395, "lng": 111.91079162843639}, "feature": {"sight_features": "", "sight_content": ""}}, {"title": "梦幻水上乐园", "address": "北关路旧108国道限高前50米", "image": "", "rank": 27, "time": 2, "location": {"lat": 37.218159706558644, "lng": 112.18758925044752}, "feature": {"sight_features": "", "sight_content": ""}}, {"title": "幻走", "address": "北环路美华购物中心2层", "image": "", "rank": 28, "time": 2, "location": {"lat": 36.580330979312556, "lng": 111.74139380253641}, "feature": {"sight_features": "", "sight_content": ""}}, {"title": "解州潜水电泵", "address": "滨河路东50米", "image": "", "rank": 29, "time": 2, "location": {"lat": 31.860233915135026, "lng": 117.31188034315763}, "feature": {"sight_features": "", "sight_content": ""}}, {"title": "寺庄剧场", "address": "龙柏路附近", "image": "", "rank": 30, "time": 2, "location": {"lat": 40.066216373740964, "lng": 116.1737423337854}, "feature": {"sight_features": "", "sight_content": ""}}, {"title": "七里峪风景区", "address": "山西省临汾市内中镇", "image": "", "rank": 31, "time": 2, "location": {"lat": 36.093741895419726, "lng": 111.52553022403073}, "feature": {"sight_features": "", "sight_content": ""}}, {"title": "雁塔", "address": "临汾霍州市城关镇南坛村东南一山丘上", "image": "", "rank": 32, "time": 1.0, "location": {"lat": 36.56356904331874, "lng": 111.7279647648744}, "feature": {"sight_features": "", "sight_content": ""}}]}