{"cityName": "赫章", "days": 2, "cityImage": "", "spots": [{"title": "阿西里西韭菜坪", "address": "毕节市赫章县韭菜坪景区中营服务区", "image": "", "rank": 1, "time": 2, "location": {"lat": 26.96767039742769, "lng": 104.77108410707301}, "feature": {"sight_features": "", "sight_content": ""}}, {"title": "赫章国家森林公园", "address": "毕节市赫章县", "image": "", "rank": 2, "time": 1.0, "location": {"lat": 27.12905167514207, "lng": 104.7335158226237}, "feature": {"sight_features": "", "sight_content": ""}}, {"title": "赫章森林公园", "address": "贵州省赫章县水塘镇", "image": "", "rank": 3, "time": 4.0, "location": {"lat": 27.12905167514207, "lng": 104.7335158226237}, "feature": {"sight_features": "", "sight_content": ""}}, {"title": "赫章县阿髦都园艺山庄", "address": "阿髦都园艺山庄", "image": "", "rank": 4, "time": 2, "location": {"lat": 23.604667718458565, "lng": 101.98432062044638}, "feature": {"sight_features": "", "sight_content": ""}}, {"title": "彝山农家乐", "address": "212省道附近", "image": "", "rank": 5, "time": 2, "location": {"lat": 40.390563512510504, "lng": 116.26044547726889}, "feature": {"sight_features": "", "sight_content": ""}}, {"title": "昭通野生天麻火腿鸡", "address": "326国道附近", "image": "", "rank": 6, "time": 3.5, "location": {"lat": 28.504838334466942, "lng": 108.62811511625138}, "feature": {"sight_features": "", "sight_content": ""}}, {"title": "洛布石林", "address": "贵州省赫章县县城南部 553200", "image": "", "rank": 7, "time": 2.0, "location": {"lat": 27.12905167514207, "lng": 104.7335158226237}, "feature": {"sight_features": "", "sight_content": ""}}, {"title": "福音堂", "address": "赫章县中心部", "image": "", "rank": 8, "time": 1.0, "location": {"lat": 27.12905167514207, "lng": 104.7335158226237}, "feature": {"sight_features": "", "sight_content": ""}}, {"title": "香花坊盆景点", "address": "贵州省毕节市赫章县小康二路", "image": "", "rank": 9, "time": 2, "location": {"lat": 27.12291013248675, "lng": 104.73229487991055}, "feature": {"sight_features": "", "sight_content": ""}}, {"title": "儿童乐园", "address": "贵州省毕节市赫章县前河路", "image": "", "rank": 10, "time": 2, "location": {"lat": 27.126981484876115, "lng": 104.73416111948828}, "feature": {"sight_features": "", "sight_content": ""}}, {"title": "教堂", "address": "毕节市赫章县", "image": "", "rank": 11, "time": 2, "location": {"lat": 27.12905167514207, "lng": 104.7335158226237}, "feature": {"sight_features": "", "sight_content": ""}}, {"title": "草子坪小广场", "address": "212省道附近", "image": "", "rank": 12, "time": 2, "location": {"lat": 40.390563512510504, "lng": 116.26044547726889}, "feature": {"sight_features": "", "sight_content": ""}}, {"title": "赫章县图书馆", "address": "前河路654号", "image": "", "rank": 13, "time": 2, "location": {"lat": 27.126734161082222, "lng": 104.73449129257666}, "feature": {"sight_features": "", "sight_content": ""}}, {"title": "水塘国家森林公园", "address": "326国道", "image": "", "rank": 14, "time": 2, "location": {"lat": 28.504838334466942, "lng": 108.62811511625138}, "feature": {"sight_features": "", "sight_content": ""}}, {"title": "九股水温泉水上乐园", "address": "毕节市赫章县六曲河镇（212省道附近）", "image": "", "rank": 15, "time": 2, "location": {"lat": 27.25215232797222, "lng": 104.71061817597861}, "feature": {"sight_features": "", "sight_content": ""}}, {"title": "丁家弯", "address": "毕节市-赫章县", "image": "", "rank": 16, "time": 2, "location": {"lat": 27.12905167514207, "lng": 104.7335158226237}, "feature": {"sight_features": "", "sight_content": ""}}]}