{"cityName": "合作", "days": 2, "cityImage": "", "spots": [{"title": "米拉日巴佛阁", "address": "甘南藏族自治州合作市那吾路", "image": "", "rank": 1, "time": 1.5, "location": {"lat": 35.01199273903465, "lng": 102.9238163710215}, "feature": {"sight_features": "", "sight_content": ""}}, {"title": "美仁大草原", "address": "甘南州合作市东", "image": "", "rank": 2, "time": 0.75, "location": {"lat": 35.00593542819599, "lng": 102.91757157299759}, "feature": {"sight_features": "", "sight_content": ""}}, {"title": "合作森林公园", "address": "甘南州合作市南郊约2公里处", "image": "", "rank": 3, "time": 3.0, "location": {"lat": 35.00593542819599, "lng": 102.91757157299759}, "feature": {"sight_features": "", "sight_content": ""}}, {"title": "π先生真人密室逃脱", "address": "当周街189号", "image": "", "rank": 4, "time": 2, "location": {"lat": 34.97986345639821, "lng": 102.91615237010335}, "feature": {"sight_features": "", "sight_content": ""}}, {"title": "韩菜珍香农家乐", "address": "知合玛路", "image": "", "rank": 5, "time": 2, "location": {"lat": 34.9712265561396, "lng": 102.91170421330489}, "feature": {"sight_features": "", "sight_content": ""}}, {"title": "卓桑林农家乐", "address": "多河路附近", "image": "", "rank": 6, "time": 2, "location": {"lat": 34.93345471251244, "lng": 102.92978391872772}, "feature": {"sight_features": "", "sight_content": ""}}, {"title": "高原植物园", "address": "中心部", "image": "", "rank": 7, "time": 2, "location": {"lat": 24.51645597998895, "lng": 117.66059554274884}, "feature": {"sight_features": "", "sight_content": ""}}, {"title": "合作市图书馆", "address": "当周街附近", "image": "", "rank": 8, "time": 1.5, "location": {"lat": 34.99395334969441, "lng": 102.9170018254228}, "feature": {"sight_features": "", "sight_content": ""}}, {"title": "啊依莎农家乐", "address": "当周街道华荣宾馆后面", "image": "", "rank": 9, "time": 2, "location": {"lat": 34.97260694228019, "lng": 102.91187294113053}, "feature": {"sight_features": "", "sight_content": ""}}, {"title": "一家人农家乐", "address": "当周街道华容宾馆背后", "image": "", "rank": 10, "time": 2, "location": {"lat": 34.96803211103076, "lng": 102.9118710951127}, "feature": {"sight_features": "", "sight_content": ""}}, {"title": "文殊土弥莲心书阁", "address": "当周街208附近", "image": "", "rank": 11, "time": 2, "location": {"lat": 34.993665920210795, "lng": 102.91698731279055}, "feature": {"sight_features": "", "sight_content": ""}}, {"title": "世纪广场", "address": "当周街与碌曲东路交叉口西100米", "image": "", "rank": 12, "time": 2.5, "location": {"lat": 34.99395334969441, "lng": 102.9170018254228}, "feature": {"sight_features": "", "sight_content": ""}}, {"title": "丛林夏都旅游文化度假村", "address": "甘肃省甘南藏族自治州合作市X406(江达段)", "image": "", "rank": 13, "time": 2, "location": {"lat": 35.00593542819599, "lng": 102.91757157299759}, "feature": {"sight_features": "", "sight_content": ""}}, {"title": "清真阳光丽都休闲度假村", "address": "甘肃省甘南藏族自治州合作市213国道北50米", "image": "", "rank": 14, "time": 2, "location": {"lat": 34.912314868939156, "lng": 102.84706132775564}, "feature": {"sight_features": "", "sight_content": ""}}, {"title": "合作市佳轩旅游山庄", "address": "213省道附近", "image": "", "rank": 15, "time": 1.5, "location": {"lat": 39.999164912284996, "lng": 116.42332353742155}, "feature": {"sight_features": "", "sight_content": ""}}, {"title": "二郎庙", "address": "通钦街与铁坝路交叉口东北150米", "image": "", "rank": 16, "time": 1.0, "location": {"lat": 34.99214407880499, "lng": 102.92203747458619}, "feature": {"sight_features": "", "sight_content": ""}}, {"title": "新寺", "address": "甘南藏族自治州合作市", "image": "", "rank": 17, "time": 2, "location": {"lat": 35.00593542819599, "lng": 102.91757157299759}, "feature": {"sight_features": "", "sight_content": ""}}, {"title": "甘南饭店旅游度假村", "address": "南山脚下合作市当周草原景区附近", "image": "", "rank": 18, "time": 3.5, "location": {"lat": 34.95772694234404, "lng": 102.89450111122923}, "feature": {"sight_features": "", "sight_content": ""}}, {"title": "甘南藏族自治州博物馆", "address": "舟曲西路与当周街交叉口处甘南州文博大厦", "image": "", "rank": 19, "time": null, "location": {"lat": 34.992624605785565, "lng": 102.91710275184346}, "feature": {"sight_features": "", "sight_content": ""}}, {"title": "甘南大剧院", "address": "玛曲东路", "image": "", "rank": 20, "time": 2.0, "location": {"lat": 34.98773702324638, "lng": 102.91935038768709}, "feature": {"sight_features": "", "sight_content": ""}}, {"title": "当周草原风景区", "address": "甘肃省合作市南郊2公里", "image": "", "rank": 21, "time": 2, "location": {"lat": 35.00593542819599, "lng": 102.91757157299759}, "feature": {"sight_features": "", "sight_content": ""}}, {"title": "红军第一村", "address": "四川省阿坝州若尔盖县的班佑乡班佑村", "image": "", "rank": 22, "time": 2, "location": {"lat": 33.56700176628051, "lng": 103.11790046775978}, "feature": {"sight_features": "", "sight_content": ""}}]}