{"cityName": "红河", "days": 2, "cityImage": "", "spots": [{"title": "元阳哈尼梯田", "address": "红河州元阳县新街镇箐口", "image": "", "rank": 1, "time": 4.5, "location": {"lat": 23.11991473927092, "lng": 102.74471718133168}, "feature": {"sight_features": "特色1 哈尼族梯田宛如虚无缥缈的天上人间。 特色2 看梯田的日出日落，感受云彩和霞光映在梯田水中的壮美。 特色3 哈尼族世世代代留下的杰作，梯田依地势层层相叠，非常壮观。 看梯田的日出日落，感受云彩和霞光映在梯田水中的壮美。 去周边的村寨里走走，体验元阳少数民族风情，建筑和服饰都很惊艳。", "sight_content": "红河哈尼梯田规模宏大，气势磅礴，绵延整个红河南岸的红河、元阳、绿春及金平等县，仅元阳县境内就有17万亩梯田，是红河哈尼梯田的核心区。元阳县境内全是崇山峻岭，所有的梯田都修筑在山坡上，梯田坡度在15度至75度之间。以一座山坡而论，梯田最高级数达3000级，这在中外梯田景观中是罕见的。\n元阳哈尼梯田主要有4大景区:坝达景区包括箐口、全福庄、麻栗寨、主鲁等连片14000多亩的梯田和箐口民俗村景区老虎嘴景区包括勐品、硐浦、阿勐控、保山寨等近6000亩梯田，多依树景区包括多依树、爱春、大瓦遮等连片上万亩梯田。如此众多的梯田，在茫茫森林的掩映中，在漫漫云海的覆盖下，构成了神奇壮丽的景观。这些景区就是目前准备申报世界遗产的核心保护区。\n自二十世纪八十年代以来，元阳哈尼族梯田的知名度日渐提高，从封闭的哀牢山走向全国，走向世界。国内外专家学者和游客纷至沓来。在1993年的第一次国际哈尼族文化研讨会期间，中国、荷兰、日本、美国、英国、泰国等10多个国家的100多名代表参观过胜村乡全福庄哈尼梯田，深为其景观的壮丽与文化的丰富所折服。1995年，法国人类学家欧也纳博士也来元阳观览老虎嘴梯田，面对脚下万亩梯田，欧也纳博士激动不已，久久不肯离去，他称赞：“哈尼族的梯田是真正的大地艺术，是真正的大地雕塑，而哈尼族就是真正的大地艺术家！”只要登上元阳随便哪一座山顶，就会看到充满在大地之间的、那如山如海汹涌而来的都是梯田。\n元阳县共居一山的七个民族大致说来是按海拔高低分层而居的，海拔144米到600米的河坝区，多为傣族居住；600米到1000米的峡谷区，多为壮族居住；1000米到1400米的下半山区，多为彝族居住；1400米到2000米的上半山，多为哈尼族居住；2000米以上的高山区，多为苗、瑶族居住；汉族多居住在城镇和公路沿线。哈尼族居住的上半山，气候温和，雨量充沛，年均气温在15度左右，全年日照1670小时，非常适宜水稻生长，故哈尼族先民自隋唐之际进入此地区就已开垦梯田种植水稻，在此1200多年间，哈尼族倾注了数十代人的心力，发挥了惊人的智慧和勇毅垦殖梯田。\n元阳哈尼族梯田从古至今始终是一个充满生命活力的大系统，今天它仍然是哈尼族人民物质和精神生活的根本。166689亩梯田在养育着336971个农业人口，高山上的63958.4公顷森林提供着全县人民的生活用水和农田用水，全县4653条水沟干渠仍在灌溉着千山万岭之上的梯田，这就是元阳哈尼族梯田奇观的突出特点。它不像长城、故宫、秦始皇陵、埃及金字塔、印度泰姬陵等已失去功能的古迹，也不像泰山、黄山、尼加拉瓜大瀑布等单纯的自然景观，也不像曲阜孔庙、拉萨布达拉宫、北京颐和园等单纯的人文创造，它是哈尼族人民与哀牢山大自然相融的相谐互促互补的天人合一的人类大创造，是文化与自然巧妙结合的产物。\n【哈尼古歌】\n哈尼古歌在哈尼民间称为“哈尼哈吧”，是哈尼农耕文化在哈尼民间以古老歌谣的形式传承，与哈尼族社会生产生活息息相关，是传承和维系梯田农耕文化的重要载体。哈尼古歌涉及哈尼族古代社会的生产劳动、宗教祭典、人文规范、伦理道德、婚嫁丧葬、吃穿用住、文学艺术等，是世世代代以梯田农耕生产生活为核心的哈尼人教化风俗、规范人生的百科全书。\n从演唱的场合看，哈尼古歌主要在祭祀、节日、婚丧、起房盖屋等隆重场合的酒席间由民间高手来演唱，表达节日祝贺、吉祥如意的心愿；从演唱的内容来看，规模宏大，结构严谨，歌手可以连续演唱几天几夜。从演唱的特点来看，在隆重的场合因事而歌，摆酒吟唱，向亲朋好友、村寨百姓传递古老的规矩和道理，或美好祝福。演唱方式由一人主唱，众人伴唱，或一问一答，二人对唱而众人和声；若遇重大年节，可以完整演唱十二调主要内容，一位歌手难担大任，须数位歌手联袂演唱。"}}, {"title": "朱家花园", "address": "红河哈尼族彝族自治州建水县翰林街16号(近书院街)", "image": "", "rank": 2, "time": 1.5, "location": {"lat": 23.622080137188732, "lng": 102.83366695273061}, "feature": {"sight_features": "特色1 朱家花园占地庞大建筑精美，号称“滇南大观园”。 入住朱家花园，像当年朱家人一样的生活，感觉新奇而独特。 特色2 一组规模 巨大的清代民居建筑群", "sight_content": "朱家花园位于云南建水古城中心翰林街中段，是清末乡绅朱渭卿兄弟建造的家宅和宗祠。占地2万多平方米，其中建筑面积5000多平方米，主体建筑呈“纵四横三”布局，为建水典型的“三间六耳三间厅，一大天井附四小天井”式传统民居的变通组合体建。房舍格局井然有序，院落层出迭进，计有大小天井42个，房屋214间。整组建筑陡脊飞檐、雕梁画栋、精美高雅。\n庭院厅堂布置合理，空间景观层次丰富且变化无穷，形成“迷宫式”建筑群。目前，已成为集住宿，观赏，旅游，娱乐为一体的，有一定规模和档次的，有品味、有丰富文化内涵的旅游精品景点。朱家花园坐南朝北，入口为垂花大门。\n朱家花园正门左侧沿街的10间“呆脚楼”与其后的“跑马转角楼”相连，是当年的帐房和资供应铺面等，是朱家经营进出口贸易，买卖大锡、洋纱布匹、食盐、烟土的“朱恒泰”总商号。右侧前为家族祠堂，后为内院。祠堂前有水池，水上有戏台、亭阁、庭荫花木等。水池边有右栏。\n整组建筑的正前为三大开间的花厅，左右两侧为小姐“绣楼”。花厅前是花园，左右对峙透空花墙，将其自然分隔为东园和西园。花园正前有荷池，树丛，苗圃，花圃散布其间，形成一座既典型而又富地方特色的南方私家园林。"}}, {"title": "建水古城", "address": "红河哈尼族彝族自治州建水县临安镇南庄段", "image": "", "rank": 3, "time": 3.0, "location": {"lat": 23.68189890501956, "lng": 102.83935681982892}, "feature": {"sight_features": "特色1 留存几十座古建筑（凭有效证件免费参观） 特色2 一座古建筑博物馆和民居博物馆。 特色3 文献名邦、滇南邹鲁、古建筑博物馆、民居博物馆。", "sight_content": "建水古称临安，亦名巴甸，是一座历史文化名城，距离昆明以南220公里处。建水城最早是南诏时修筑的土城，明洪武二十年（1387年）扩建为砖城城周六里三、城墙高二丈五尺，四门有城楼，楼为三层，各高四丈，非常壮观。建水人文鼎盛，在元代就始建庙学，明洪武年间建临安府学，万历年间建立建水州儒学。清代先后建立了崇正、焕文、崇文、曲江四个行院，境内人才辈出。"}}, {"title": "建水燕子洞", "address": "红河哈尼族彝族自治州建水县面甸镇泸江河峡谷", "image": "", "rank": 4, "time": 3.0, "location": {"lat": 23.626835435034664, "lng": 103.10218394415696}, "feature": {"sight_features": "特色1 中外岩溶被称为“亚洲第一溶洞”。 特色2 每年5-7月份在洞中观看庞大燕群出巢、回巢的壮观情景。 尝一下当地最地道原始的燕窝粥。 惊险奇绝的钟乳悬匾表演不可错过。 特色3 洞外多桃李树，春季群花竞开，夏季入洞清凉爽适，隆冬则暖气充溢。", "sight_content": "燕子洞以“古洞奇观、春燕云集、摩崖石刻、钟乳悬匾、采燕窝绝技”等独特的景观著称于世。两洞内巢居数十万只雨燕，每年春夏间，燕阵飞舞盘旋，蔚为大观，且盛产名贵补品“燕窝”。\n每年3月21日，举行“迎春燕钟乳悬匾”攀岩绝技表演；8月8日、9日、10日三天“燕窝节”举行现场攀岩采窝活动。两个节日都吸引数万游人争睹这惊、险、奇、绝的旷世奇观，无不叹为观止！整个旅游区由自然林地、旱洞宗教文化区、水洞三部分组成。景区自然林地18.85公倾，生长着种子植物69科110属120多种，自然林地阔叶林层次分明，草本藤木植物发达，野果丰富。景区内有脊椎动物23目23科近200种，每年2－7月期间，数百万只大白腰雨燕出没于水洞中，呢喃之声不绝于耳。燕声和着水声在洞内共鸣，汇成一曲声震山谷的溶洞交响乐。"}}, {"title": "建水文庙", "address": "红河哈尼族彝族自治州建水县临安路", "image": "", "rank": 5, "time": 2.0, "location": {"lat": 23.618117996808657, "lng": 102.83087180686601}, "feature": {"sight_features": "特色1 古代建筑艺术的宝库。 特色2 坐北朝南北分布，共分七进空间。 特色3 文庙占地宽广规模宏大，内部建筑精美绝伦，是古代建筑艺术的宝库。 每年9月28日的祭孔大典宏达庄严，堪称一场视觉和古典礼仪的盛宴。", "sight_content": "建水文庙始建于元朝至元二十二年（公元1285年），至今已有700多年的历史。经历代50多次扩建增修，占地面积115亩，其现存规模、建筑水平和保存完好程度，仅次于山东曲阜孔庙。建水文庙依照曲阜孔庙的风格规制建造，采用南北中轴线对称的宫殿式，东西两侧对称布置多个单体建筑。整个建筑宏伟壮丽，结构严谨，给人以庄严肃穆之感，为建水这个国家级历史文化名城增添了极其丰富的传统文化内涵。\n整个庙宇，一片翠绿，古木萧森，庄严肃穆。松、柏、竹、柳，千姿百态，各种花卉争妍斗艳，四时飘香。庭西有两株共生树，一为柏树，一为榕树。数百年的风风雨雨，它们已经紧紧缠在一起。有人戏称为“万将军抱白小姐”。 建水城，为旧临安府所在地，元、明、清三代曾是滇南的政治、经济和文化的中心，加上文庙规模宏大，建筑精巧，素有“滇南邹鲁”之称。早年，当地利用文庙建立了临安中学。现改为建水第一中学，并在文庙侧新建了许多教学楼。昔日孔庙圣地，如今成了青少年学习之所。由于政府和学校注意保存古迹，至今文庙仍很完整。至泮池后的唇台上，只见栩栩如生的龙、虎、麟、狮、象巨石雕高距于坊座上，拱卫着木构架的牌楼。四周的壁画上方，用砖砌成斗拱样，覆以碧瓦，与三楹坊顶合成叠罗汉式的三重檐歇山顶，檐牙高啄，碧瓦飞翘，与“太和元气”坊及“礼门”、“义路”坊齐观，如数重大雁飞临泮池之上。这种建筑风格，凸现了儒家思想两个固有的属性：一方面具有广泛信仰层面上的情感需求，另一方面存在着相当丰富的理论思维内容。\n文庙最吸引人的去处无疑是大成殿。它是文庙的主体建筑，一字排开的五间殿堂，正堂内置龙宝座，供奉着孔子塑像。殿堂单檐九脊歇山顶，琉璃黄瓦，翘角飞甍，巍巍宏丽，气象庄严。这里有很多的字匾和塑像，字大多是历代皇帝所题，像都是对弘扬儒家文化作出贡献的名人。大殿檐下悬挂着“先师庙”三个鎏金大字匾，笔力雄浑遒劲，匾沿镶嵌着玲珑剔透的木雕龙凤。东西厢房是祀奉先儒的场所，先贤79人、先儒75人依次供奉于内。"}}, {"title": "阿庐古洞国家地质公园", "address": "红河哈尼族彝族自治州泸西县阿庐山麓", "image": "", "rank": 6, "time": 7.5, "location": {"lat": 24.53803716745029, "lng": 103.772523140916}, "feature": {"sight_features": "特色1 八百多米的玉笋河", "sight_content": "泸西县位于红河州东北部，地处乌蒙山脉南端和袁牢山脉北端之间，最高海拔2459米，最低海拔799米，交通便利，气候良好，是旅游休闲度假的好地方。阿庐古洞位于距昆明160多公里的泸西县境内 ，是一组典型的岩溶地貌地下溶洞群，是一个有着九峰十八洞的古老神奇的地下洞府。明代著名旅行家徐霞客就曾神迷于此，两次入洞考察，留下了“泸源之水涌于下穴，泸源之洞群于悬岩”的名句。泸西山川秀丽，是一个以喀斯特地下岩溶和江、湖、瀑泉、自然景观为主体，古老的民族文化，独特的 民族风情为辅的溶洞群。她有瑰丽多姿的溶洞群，险要秀丽的南盘江，如诗如画的湖光山色，潇 洒多变的瀑布群，幽静多情的泉水，中心景区誉为“云南第一洞”。奇特的景观，典雅的环境、富丽的设施，优质的服务，已具规模的旅游城市，深深吸引了海内外游客。\n阿庐古洞又叫泸源洞，是一个规模宏大的溶洞群，它是宋、元时云南三十七蛮部之一“阿庐部”的穴居点，其名亦是由此化来。它的主洞体由泸源洞、玉柱洞、碧玉洞、玉笋河组成，三洞一河全长 三千余米，洞景具有古、奇、绝的特点，洞外有泉，洞中有洞，洞中有天，洞下有河，还有各种石笋、钟乳、石柱、石漫、石镰、石瀑、石花……等，千姿百态，应有尽有；以及各种天造的“雄狮怒吼 ”、“古莲倒悬”、“飞龙戏瀑”、“三象驰原”、“古龟望月”、“鳄鱼凌空”、“犀牛出海”、“天然壁画”、“魏王点兵”、“擎天玉柱”、“九龙出海”、“阿细跳月”等形象栩栩如生，展现 了大自然生机盎然的无穷乐趣。\n游玩景点玉柱洞+碧玉洞\n出泸源洞5米，即入玉柱洞。可沿洞外石阶上攀观览青峰耸立。洞口石钟乳垂挂如帘，开状别致。全长800余米，为宫殿式溶洞，由10余个规模不同，形态各异的厅堂组成，最大奇堂长70余米，宽30余 米，规模宏大。出玉柱洞，沿林荫小道西行350米，或乘旅游索道，便到碧玉洞入口。洞口位于祭龙山腰，洞穴为峡谷式深洞，洞穴延伸严直，少有大厅，全长720米。洞内钟乳石色如碧玉，故名碧玉洞 。洞中玲珑剔透的卷曲石、阿庐玉、石盾（20余平方米）、石编钟为阿庐古洞珍品。\n游玩景点玉笋河+透明鱼\n玉笋河为地下暗河，位于泸源洞，玉柱洞垂深15米之下，洞口位于玉柱洞中，全长沙余米。河水由北向南流动，流速缓慢，0.02米/秒，流量12各/秒，常年不涸。河道宽8米-12米，中心顶高5米，最 高处10处。游览只能乘人力之舟，每舟乘6人，无陆路通行。在玉柱洞垂深十五米处，有一条可供广大游客一饱眼福、长达八百多米的玉笋河，水流缓漫，清澈见底，常年不枯。被称称洞中一绝的“水中 石笋”和珍稀鱼类透明鱼，从外表可清晰的看到里面的骨骼及五脏六腑，实属举世罕见的珍稀鱼种，观者无不称奇，这更为玉笋河增添了神秘色彩。\n游玩景点玉柱洞+碧玉洞\n石花千姿百态，几乎具备了地质岩溶学所定义的所有景观，且各具形象，诸如彩霞迎宾、古莲倒悬、幽谷神钟、古龟望月、魏王点兵、天造神物等等，维妙维肖，非造化之功不可为。"}}, {"title": "坝达景区", "address": "红河哈尼族彝族自治州元阳县", "image": "", "rank": 7, "time": 2.5, "location": {"lat": 23.22619805192609, "lng": 102.84143280386179}, "feature": {"sight_features": "", "sight_content": "坝达景区又叫麻栗寨景区，位于县城南部43公里，新街东部15公里。主要景点：全福庄梯田、坝达梯田、麻栗寨梯田、上马点梯田、村落。主要内容和特色：以哈尼族风情、人文、自然景观为主。全景区共有17个自然村，1910户，10244人，8737亩梯田全为哈尼族。是观赏哈尼族梯田、云海、哈尼族建筑等风光的地方，也是了解、研究、体验哈尼族文化的中心地带。坝达景区梯田面积大、壮观、线条美、立体感强。从海拔1100米的麻栗寨河起，连绵不断的成千上万层梯田，直伸延至海拔2000米的高山之巅，把麻栗寨、坝达、上马点、全福庄等哈尼村寨高高托入云海中。站在麻栗寨茶厂观梯田，近万亩的梯田宛如一片坡海，泛着粼粼波光，奔来眼底，景色十分壮观，每当下午四时后，白茫茫的坡海随着夕阳西下，逐渐变成粉红色、红色。再转变成粉红色、白色。是观赏和拍摄梯田随时光变化而变化的地方。坝达梯田面东靠西，是一个落日景点，也就是说，它的最佳观赏时间是在每天傍晚，夕阳西下、满天红霞的时候，有摄影家称它是夕阳晚照，是观赏日落、哈尼梯田、云海及村寨等风光的著名景点之一。"}}, {"title": "屏边大围山", "address": "红河哈尼族彝族自治州南部屏边县与河口交界地带", "image": "", "rank": 8, "time": 2.5, "location": {"lat": 22.989989585512753, "lng": 103.69343183231612}, "feature": {"sight_features": "特色1 当地最大天然氧吧", "sight_content": "景区内原始森林总面积66万亩，属热带、亚热带雨林生态类型，保持着类型多样、特色各异的森林生态系统和丰富的珍稀动植物种群。年平均温度16.5℃，素有“寒冬腊月花不谢，东暖夏凉四季春”的美誉。景区内分布有许多具有中国和世界意义的珍稀动植物，国家一、二、三级珍稀保护植物4800多种；国家一、二、三级保护动物有160多种。整个景区内平地涌千峰、林海茫茫、涧流青碧、瀑布成群，随处可见奇花丽果、珍禽异兽。进入景区，所到之处空气清新、环境幽静清雅。\n这美丽的林中小湖叫大围山天池，总面积为1000平方米。滴滴水珠皆是天之甘露、地之清泉，粒粒涓涓汇成一泓人间的瑶池，清澈如少女的眼眸。一年四季波光粼粼与林海相印成趣。你看小湖四周三体连绵，参天古树遮天蔽日。林荫染黛，青翠欲滴。记得台湾才子李敖曾经说过“不看你的眼，不看你的美，看后心里跳，不知我是谁”。或许美到极致就是这样吧。宋人有言：水是眼波横，山是眉峰聚，若问行人哪里去，眉眼盈盈处。\n灵宝禅寺始建于明朝天启年间。续建灵宝禅寺是乾隆22年也就是1757年，当时修建的寺庙有观音寺、财神寺、西华寺等多座。后来出于种种原因寺庙严重失修，并受到不同程度的毁坏，灵宝禅寺基本变成一座废墟。直到2003年，根据文物保护的规定和信教群众的需求，本着有效保护、合理利用、弘扬佛法、普度众生、加强管理的原则，由云南耀星实业有限公司投资恢复、重建灵宝禅寺，于2004年5月恢复重建完工，有天王殿、大雄宝殿、观音殿、财神殿、药师殿共5座寺院，寺院内共有雕塑57尊，占地面积12800多平方米。如佛教有信仰者，可以借此机会拜祭一下。\n“青玲围山览，云雾花丛浪”。有人说大围山的泥土气息芬香，林深幽静，山美水好，能使人返老还童。林中含有丰富的负氧离子，每立方米负氧离子高达3000——10000个之间，每立方米空气臭氧含量小于0.12毫克，负氧离子粒径小于0.003微米，是名符其实的“天然大氧吧”。负氧离子可消除人们内心的烦忧，并能健肺洗脑，使人神清气爽。大围山的雾海更让人叫绝。大围山多雾，年雾日达200多天，一年四季都能形成雾海，而冬季的雾海几乎是天天都有。雾海连着天际，日出时阳光喷薄而出，常常令观赏者如痴如醉，激动不已。而当旭日高照，碧空万里时，大围山低海拔地区形成大面积的雾海，茫茫雾海在阳光照耀下，海波荡漾，峰峦叠浮，层浪翻滚，雾海与林海辉映一体，海天相连。随着阳光照射，气温升高，雾海逐渐上升，把你融进雾的海洋、林的海洋。"}}, {"title": "朝阳楼", "address": "红河哈尼族彝族自治州建水县朝阳南路", "image": "", "rank": 9, "time": 2.0, "location": {"lat": 23.62299015495328, "lng": 102.83790875134731}, "feature": {"sight_features": "特色1 建水古城的标志性建筑，至今已有623年", "sight_content": "朝阳楼位于建水古城临安路，处于古城中心地带。原为明代临安卫东部军事防御工事，城门为“迎晖门”，上面建 有“朝阳楼”。始建于明洪武二十二年（1389年），后经明天顺七年（1463年）、清乾隆二年（1737年）、嘉庆四年（1799年）、道光三十年（1850年）、公元1955年3月、2011年5月七次重 修，得以完整保存。朝阳楼坐西朝东，通高24.45米，分布面积2448平方米，建筑占地面积414平方米。城楼雄距在8米多高的城垣之上，由48根巨柱支撑，为三重檐歇山顶抬梁式大木构架、五 开间三进间回廊式建筑。\n《建水州志》记载有“东楼凌汉”一景：“高百尺，千宵插天，下瞰城市，烟火万家，风光无际，旭日初升，辉光 远映，遥望城楼，如黄鹤、如岳阳，南中大观”。朝阳楼正面悬挂的楷书方匾为乡里人所称道，“雄镇东南”四个大字，每个字高约两米，刚健雄劲，作者系清代书法家石屏人涂晫。背面“ 飞霞流云”四字为摹仿唐代书法大家、草圣张旭的狂草笔法，飞舞流畅。\n朝阳楼建筑雄伟壮观，堪称古代建筑之瑰宝，是中国历史文化名城建水的象征。有对联赞：“栋宇薄云宵，雄距南 疆八百里；气势壮山河，堪称滇府第一楼。"}}, {"title": "多依树梯田", "address": "红河哈尼族彝族自治州元阳县胜村乡", "image": "", "rank": 10, "time": null, "location": {"lat": 23.12584451897277, "lng": 102.80121292546326}, "feature": {"sight_features": "", "sight_content": ""}}, {"title": "云南红酒庄", "address": "红河哈尼族彝族自治州弥勒市新哨镇里阿路东风农场", "image": "", "rank": 11, "time": 1.5, "location": {"lat": 24.31098701087295, "lng": 103.40510684507908}, "feature": {"sight_features": "特色1 品味田园风光，邂逅红色浪", "sight_content": ""}}, {"title": "老虎嘴梯田", "address": "红河哈尼族彝族自治州元阳县", "image": "", "rank": 12, "time": 2.5, "location": {"lat": 23.22619805192609, "lng": 102.84143280386179}, "feature": {"sight_features": "", "sight_content": ""}}, {"title": "学政考棚", "address": "红河哈尼族彝族自治州建水县临安路134号", "image": "", "rank": 13, "time": 2, "location": {"lat": 23.61937784827789, "lng": 102.83270743848011}, "feature": {"sight_features": "特色1 感受学政考棚学而优则仕的科举文化", "sight_content": "学政考棚坐落于建水县临安路的中段，创建于明洪武二十二年（1389），旧址在城内东南角，清康熙三十三年（1693）移建在这里，距今已经有322年的历史了。1993年学政考棚被列为云南省文物保护单位。学政考棚是云南学政（学政是“提督学政”的简称，清中叶以后派往各省，按期赴所属各府、厅主考童生及生员，由进士出身者拣派，为三品官，一任三年，任期与抚督平行）定期至此举行院试考试的考场。\n\n考生来自临安、元江、开化(今文山州)、普洱(今普洱市)四府，考试合格者才能到省城参加更高一级的考试(乡试)。学政考棚纵深150米，面宽40余米，占地6000余平方米，房舍栉比，以甬道为中轴线严格对称，成六进院布置，中轴线建筑布局有照壁、仪门、龙门、至公堂、戒慎堂、学政署大门、学政署等建筑，整体建筑庄严肃穆，给人以层层奋进、步步高升之感，为国内保存完整且不可多得的大型考棚。\n至公堂，它是主考官监临考场，也是考官收取试卷的地方。考试当天下午，考生们就开始交卷，直到傍晚才清场。收卷官每收一卷，就发给考生一个出门的竹签，到大门的时候验交，考生达到30人才开门一次，收一竹签，放一人。考生的活动范围到大堂也就算是结束了。至公堂中央高悬清康熙皇帝御书“旁求俊乂”，出自于《文心雕龙.议对第二十四》“及孝武益明，旁求俊乂，对策者以*登庸，射策者以甲科入仕，斯固选贤要术也。”意思是要广招天下贤能之士，为朝廷效力。\n\n这里还是被录取的考生都要在这里举行簪花礼的地方，由学政来主持，分别把它们拔往县学和府学，这种仪式也称做“入学”，然后，还要到孔庙去拜见孔子。感受学政考棚学而优则仕的科举文化。"}}, {"title": "可邑小镇", "address": "红河哈尼族彝族自治州弥勒县城22公里（西三镇可邑村）", "image": "", "rank": 14, "time": 2.0, "location": {"lat": 24.51957602089785, "lng": 103.37333564049067}, "feature": {"sight_features": "特色1 感受原汁原味的彝族生态文化 特色2 观可邑古村以及“美丽家园”的新村。 特色3 品尝“彝家八大碗”。", "sight_content": "﻿阿细人为何聚居弥勒西山上？阿细人能歌善舞的天性与民族习俗有何关系？“阿细跳月”和“阿细的先基”是什么？阿细跳月从何而来，为何能在全世界知名？阿细人神秘的祭祀活动又有哪些?弥勒可邑小镇景区等你来。\n密枝山景区：原始森林，天然氧吧。这里是阿细人崇敬的树林，这里会每年举行祭祀活动，同时，这也是阿细青年对歌跳舞的首选佳地，还能遇到阿细老人为您讲述阿细人的远古故事和民俗风情。 呼啸山林：巨大威猛石虎、傲视远方、守卫山寨，宽大的基座四周雕刻着虎的图腾传说。千百年来，阿细人一直忠实的崇虎畏虎敬虎奉虎。\n古村景区：可邑古村已有360年的历史，彝族传统民居、民族文化和古朴的民风民俗，在陈列室观看反映阿细民族 故事的微电影；在阿细跳月广场体验观看节奏明快、热情奔放的《阿细跳月》大型歌舞表演；在非遗传承四合院领略浓缩着阿细文化精华的《阿细的先基》演出，感受古朴的阿细民族文化。您能在博物馆中参观丰富多彩的阿细先民生产生活器具和民俗娱乐用品，感悟古老纯朴的民族风情。"}}, {"title": "建水小火车", "address": "红河哈尼族彝族自治州建水县迎晖路与东林路交叉口建水古城临安站内", "image": "", "rank": 15, "time": 1.5, "location": {"lat": 23.632113119282486, "lng": 102.83902090567003}, "feature": {"sight_features": "特色1 中国第一条民营铁路 特色2 乘坐列车欣赏沿途乡村田园风光。 特色3 由历史上的滇越铁路、个碧临屏寸轨等铁路演变而来。", "sight_content": "1915年5月1日，个碧石铁路开工。个碧石铁路是连接滇越铁路的重要路段。个碧石铁路也称个碧临屏铁路，是中国最早的民营铁路之一，建于1915年，原为寸轨铁路，1970年经过改建后从寸轨转变成米轨，个碧石铁路至今已有100年的历史。\n一百年后，为提升建水古城旅游文化内容，弘扬百年米轨铁路辉煌，依托个碧石铁路建水段的铁路资源，在充分保护的前提下，启动实施了建水古城至团山米轨旅游小火车项目。由建水县和昆明铁路局共同实施的建水东（临安古城）至团山民居米轨旅游观光专列于2014年5月1日正式开通试运营，建水至团山的旅游小火车开通，百年梦想圆梦。这不仅将为国内保护、开发“米轨式文化旅游”先行先试，探索积累经验。同时，也是建水在恢复保护千年古城；整合、挖掘建水丰厚的文化旅游资源；优化和升级旅游产业、打造文化旅游产品、寻求旅游发展创新的一次突破。\n据了解，建水古城至团山米轨旅游观光列车开行的线路为建水东至团山民居，全程约12.82公里，先期将开通临安站、双龙桥站、乡会桥站和团山站4站点。乘客不仅可以乘坐列车欣赏沿途乡村田园风光，还可以到达小桂湖、双龙桥、团山民居等著名景区游览。\n坐上旅游小火车，线路两侧的景色随四季而异：春天嫩黄的油菜花生机勃勃、夏天碧绿的秧苗满眼青翠、秋天金黄的稻谷传递着丰收的喜悦、冬天波光粼粼的水田在沉静中孕育着新的希望。此外，沿线还将打造包括购物餐饮的露天休闲广场、米轨铁路文化广场、个碧石铁路博物馆、油菜花和玫瑰花田、绿色时光隧道等，构成了一道独特亮丽的历史文化旅游风景线。"}}, {"title": "南湖公园", "address": "红河哈尼族彝族自治州蒙自市南湖南路7号", "image": "", "rank": 16, "time": 2.5, "location": {"lat": 23.363341303384917, "lng": 103.40352859595961}, "feature": {"sight_features": "", "sight_content": ""}}, {"title": "锦屏山风景区", "address": "红河州弥勒市西三镇锦屏山风景区", "image": "", "rank": 17, "time": 2.0, "location": {"lat": 24.476702458939997, "lng": 103.43593804571435}, "feature": {"sight_features": "特色1 拥有大佛、大运、大雄、大智四院 特色2 花木似锦，山峰连列如屏，世称锦屏。 特色3 因山头平而方，俗名平顶山。 特色4 古木苍郁，远观宛然横铺“一”字。", "sight_content": "锦屏山风景区坐落在弥勒城北10公里处风景如画的锦屏山上。弥勒市与笑佛弥勒同名，世人都称赞弥勒是块吉祥的福地，素有滇南福地之称。山中绿荫环抱，幽静宜人，山腰红墙黄瓦处便是弥勒寺。弥勒寺初建于宋朝，明代重建，清朝乾隆年间重修，1999年扩建。数百年来香火不断，是滇东南的佛教胜地。\n市名弥勒、寺名弥勒、佛名弥勒、山似弥勒。弥勒寺拥有宏阔的三大院：大雄院、大智院、大运院；并于各个院中供奉着绝致的五大弥勒佛相：弥勒强巴相、弥勒思维相、弥勒仙光相、弥勒布袋相、弥勒天冠相，是闻名遐迩的“弥勒道场”之一。经过中国宗教领袖、中国佛教协会会长赵朴初先生亲笔题词“弥勒寺”大门，途中有赵朴初先生题词的“弥勒大佛”四字坐于山腰，延1999级台阶绵长而上山顶，是国学大师南怀瑾先生亲笔题词的“弥勒大佛”于1999年12月落成，高度为19.99米，是世界最大的弥勒笑佛。弥勒大佛19.99米高（由中国国学家、佛学家南怀瑾居士题字\n锦屏山呈大丛林之恢弘，显百年古树、潺潺清泉之灵秀，更有佛教文化、儒家文化、民族文化的和谐共处和同放光彩，遂成“旅游胜地”之大观。登临仙山佛境，既心智顿开、思接地广，又烦恼顿消、心旷神怡。"}}, {"title": "团山村", "address": "红河哈尼族彝族自治州建水县", "image": "", "rank": 18, "time": 2.5, "location": {"lat": 23.640938563461493, "lng": 102.8334395916061}, "feature": {"sight_features": "", "sight_content": "团山村历史上曾是彝族人的居住地。团山至今完整保存了十九世纪滇南乡村的特色风貌与社会人文环境，村中现存的古建筑由传统的汉族青砖四合大院、彝族土掌房和汉彝结合的瓦檐土掌房三类建筑组成。以“完整保存19世纪风貌特色的原生态村落”和拥有“云南最精美的古民居群”的深厚底蕴而入选2006年世界纪念性建筑遗产名录。团山民居的布局和装饰与江南民居有相似之处。所有建筑一律坐西朝东，屋面为青瓦，白灰粉饰外墙，青砖作墙裙，每座房屋都以天井为核心，大门多在主体建筑一侧，通过形状不一的过道，到达主体院落，有一进院、二进院、三进院，平面布局包揽了云南传统民居中\"四合五天井\"、\"三坊一照壁\"、\"跑马转角楼\"等主要形式。 团山民居各户人家的宅院筑得紧凑舒适，尤以梁棹窗棂间的精细木雕著称。木雕中的人物形象、动物姿态、植物纹样、几何图形，都根据各种形体采取不同的雕凿方法，穿漏与浮雕相结合，面面俱到，技艺之高超，令人叹为观止。那份气派，埋藏着主人家发财之后对\"儒雅\"的崇尚。除木雕、砖雕、石雕外，彩绘书画也是装饰建筑的重要组成部分，诗词楹联遍布庭院板壁，其中一座楼的天花板上，就集中了100多幅彩绘书画，足以显示主人家书香世第的文化气息。"}}, {"title": "天池都温泉度假村", "address": "弥勒市温泉路温泉小区西侧（艺丰西秀园小区斜对面）", "image": "", "rank": 19, "time": 2, "location": {"lat": 24.411969550819137, "lng": 103.43220986764568}, "feature": {"sight_features": "特色1 属“重碳酸钙”型天然温泉水", "sight_content": "弥勒市甲玉泉天池都温泉度假村前身是弥勒县甲玉泉温泉度假村，甲玉泉温泉旅游度假村建成于2003年，位于红河州弥勒县城郊西部的温泉村内，是弥勒第一家集旅游、娱乐、餐饮、住宿、KTV、棋牌室、会议为一体的一条龙服务休闲娱乐场所。甲玉泉于2013年10月重新投资改造，项目总投资1300万元，占地16亩，于2014年1月1日起试营业，改造后更名为“天池都温泉度假村”。天池都温泉度假村，是集酒店住宿、温泉沐浴、休闲养生、生态旅游、商务洽谈、会议接待于一体的温泉旅游度假景区。\n天池都度假村中小桥流水，酒店门口露天温泉是最大的特色，在享受了药物泡浴后，你可以到度假村的游泳池和大泡池尽情的畅游，此时让肌肤得到充分的缓解。园中的温泉水质经云南省地质矿产局检测，天池都温泉度假村温泉水属“重碳酸钙”型天然温泉水。水质清澈透明、软滑柔顺，含有硫、钴、硼、锰、碘、锂、锶、铁、锌、铜等多种对人体有益的矿物质微量元素，各项指标均符合国家标准。"}}, {"title": "泸江公园", "address": "开远市", "image": "", "rank": 20, "time": 2.0, "location": {"lat": 23.71990779691196, "lng": 103.27355323708609}, "feature": {"sight_features": "", "sight_content": ""}}, {"title": "碧色寨火车站", "address": "红河哈尼族彝族自治州蒙自市开蒙线东50米", "image": "", "rank": 21, "time": 1.0, "location": {"lat": 23.469711918838758, "lng": 103.41957572885566}, "feature": {"sight_features": "", "sight_content": ""}}, {"title": "湖泉温泉水世界", "address": "红河哈尼族彝族自治州弥勒市弥阳镇熙和小镇A区对面（弥勒国际温泉度假区）", "image": "", "rank": 22, "time": 2, "location": {"lat": 24.403967678228465, "lng": 103.4018188753373}, "feature": {"sight_features": "", "sight_content": "湖泉温泉水世界拥有儿童游乐区梦幻儿童岛、超级大喇叭、大水环、霹雳旋风球、大型亲子互动水寨巨型水寨等众多亲水游乐项目。更有星光熠熠夏浪音乐节、异域风情歌舞、互动主题游戏等精彩呈现，带来前所未有的超凡感官体验。"}}, {"title": "白龙洞", "address": "红河哈尼族彝族自治州弥勒县西南31公里外", "image": "", "rank": 23, "time": 1.5, "location": {"lat": 23.970523905893103, "lng": 103.38976556170111}, "feature": {"sight_features": "特色1 号称“天下第一洞”", "sight_content": "弥勒白龙洞风景名胜区位于云南省弥勒县境内，号称“天下第一洞”，由白龙洞主景区、孙髯翁墓、弥勒寺、熊庆来故居、三代一品封典访、大树龙潭、梅花温泉、热水塘等景区组成，总面积约30平方公里。白龙洞洞内游路3公里，洞中有洞，洞中见天，奇景叠出，步步有景，中外岩溶专家赞誉不绝，是今生不容错过的福地。\n白龙洞旅游区占地面积200万平方米，四周山峦起伏，怪石嶙峋，群山之中分布着溶洞10多个，其中最壮观的为白龙洞。洞分上下两层，有南宫、北官、瑶池仙境、海底世界等四大景区、10多个厅堂，100多个景点。\n景区地处国道干线上，各景点都有公路相通，与滇南风景旅游圈形成环路，组织游览甚为方便，南宫：以雄伟高大的石帜、石幔为特点，有“取经路上”、’犀牛望月”等景点。北宫：以造型奇特的龙麟状浮雕、龙柱、石幔见长。\n瑶池世界：以“岛屿罗列”、“幽谷小溪”、“碧水莲花”等景点取胜。海底世界：为石花、石珊瑚、石葡萄、石珍珠等，更显奇异。"}}, {"title": "建水十七孔桥", "address": "红河哈尼族彝族自治州建水县白团公路", "image": "", "rank": 24, "time": 1.0, "location": {"lat": 23.621934286919775, "lng": 102.78252081553637}, "feature": {"sight_features": "", "sight_content": "建水十七孔桥，俗称双龙桥，位于建水古城的西边5公里处，横跨在泸江和踏冲河交汇处。这座古桥建在清朝年间，是云南的一处著名的古迹，古桥一共有17孔相连，桥上还有三层楼阁，显得古老又很有气派，远看像一艘浮在水面上的大船。"}}, {"title": "城子古村", "address": "红河哈尼族彝族自治州泸西县永宁乡城子村", "image": "", "rank": 25, "time": 1.5, "location": {"lat": 24.364137845438922, "lng": 103.68894535414297}, "feature": {"sight_features": "", "sight_content": ""}}, {"title": "中越铁路大桥", "address": "红河哈尼族彝族自治州河口县城南侧", "image": "", "rank": 26, "time": 0.5, "location": {"lat": 22.535465602947458, "lng": 103.94544362779924}, "feature": {"sight_features": "", "sight_content": ""}}, {"title": "绿水河", "address": "红河哈尼族彝族自治州个旧市蔓耗镇", "image": "", "rank": 27, "time": 2, "location": {"lat": 23.02550889411212, "lng": 103.35507778132852}, "feature": {"sight_features": "", "sight_content": ""}}, {"title": "鑫甲玉泉温泉度假村", "address": "红河州弥勒县梅花温泉(温泉小学旁)鑫甲玉泉温泉度假村", "image": "", "rank": 28, "time": 2, "location": {"lat": 24.40777208364281, "lng": 103.406083940965}, "feature": {"sight_features": "特色1 属低化碳酸泉", "sight_content": "鑫甲玉泉温泉旅游度假村位于弥勒梅花寨梅花温泉小学旁，属大型温泉度假村，占地面积30余亩。\n温泉平均自然出水量26升/秒，水温58-42℃，属低化碳酸泉，水温适中。\n泡池分为小泡池、大泡池、室内和露天泡池、木桶浴等。"}}, {"title": "红河春天高尔夫俱乐部", "address": "弥勒县城内护权生态园西南", "image": "", "rank": 29, "time": 4.5, "location": {"lat": 24.226171661176153, "lng": 103.38976556170111}, "feature": {"sight_features": "", "sight_content": ""}}, {"title": "箐口哈尼民俗村", "address": "红河哈尼族彝族自治州元阳县新街镇东南6公里", "image": "", "rank": 30, "time": 2.5, "location": {"lat": 23.134586973634658, "lng": 102.84264636070705}, "feature": {"sight_features": "", "sight_content": "元阳箐口哈尼族民俗村位于元阳老县城-新街镇往南6公里处，坐落于半山腰，占地约5公顷，全村有150户人家，800多人。村寨树林异常茂密，鸟啼蝉鸣，充满了浓郁的原始乡土气息。民俗村集中体现哈尼梯田文化的共性即森林、村庄、梯田和江河四度同构的特征，所以又被称为哈尼族四度同构展示区。沿着村里的步行游览石板路，游客可以在短短几个小时内感受到哈尼梯田文化的精华，游客不仅可欣赏到壮丽的梯田风光，而且还可以观赏哈尼蘑菇房、寨神林、水渠、分水木刻、水碾房、水磨房、水碓房等生产生活设施，可以参观哈尼族的民族服饰、梨、耙、锄头和织布机等生产生活用具，展示区内还有两眼清澈见底的泉水即白龙泉、长寿泉。据说不会生孩子的人饮了“白龙泉”的水后就会生儿育女，喝了“长寿泉”的水后会长命百岁。 这个森林-村庄-梯田-水系“四度同构”的生态系统，是一个活的系统，是哈尼人民改造自然，变自然生态为农业生态的独特创造，是人类活动与自然生态完美结合的范例。"}}, {"title": "异龙湖", "address": "红河哈尼族彝族自治州石屏县城以东两公里处", "image": "", "rank": 31, "time": 2.0, "location": {"lat": 23.712004452448983, "lng": 102.50244661977858}, "feature": {"sight_features": "", "sight_content": ""}}, {"title": "湖泉半山温泉", "address": "红河哈尼族彝族自治州弥勒市温泉路湖泉生态园内", "image": "", "rank": 32, "time": 2, "location": {"lat": 24.4134581249317, "lng": 103.42085505064726}, "feature": {"sight_features": "特色1 “山中有景，景中有池”", "sight_content": "“山中有景，景中有池”是湖泉半山温泉的一大特色，12个风格迥异的温泉特色泡池错落有致地镶嵌在湖泉温泉诗情画意的半山园林里：小溪潺潺，蜿蜒曲折；玫瑰、茉莉、玉兰、腊梅四季芬芳；湖景茶吧、写意餐厅、贴心理疗……露天园林温泉美轮美奂，是一个让人洗却尘嚣、涤荡身心的世外桃源。湖泉温泉除了四个大泡池区外，还有牛奶、红酒、茉莉、苹果、人参等多种功效的特色小泡池，以及大型温泉游泳池。\n地热资源丰富，出水口水温50℃左右；经云南省地质矿产局检测，湖泉半山温泉是“重碳酸钙”型的天然温泉，纯正、未加稀释的天然温泉水，决不循环使用，水质清澈透明、轻滑柔顺，含有硫、钴、硼、锰、碘、锂、铁、锌、铜等多种对人体有益的矿物质微量元素，各项指标均符合国家标准；\n温泉水对人体皮肤有消炎、脱敏的作用，能扩展毛细血管，促进血液循环、调节人体机能、增强新陈代谢和抗病能力，具有较强的润肤保健功效。\n湖泉温泉拥有配套设施，注重细节体现品牌附加值，还设有干/湿蒸气浴、足疗按摩、保健推拿、身体护理等服务。温泉环境优美、处处鸟语花香，设施典雅，设有干、湿蒸气浴、保健推拿、足疗按摩、修脚、采耳、美容美体等理疗服务；同时建有舒适优雅的影视休息区。"}}, {"title": "云南红河州湖泉高尔夫俱乐部", "address": "红河州弥勒县湖泉生态园南园", "image": "", "rank": 33, "time": 2, "location": {"lat": 24.4134581249317, "lng": 103.42085505064726}, "feature": {"sight_features": "", "sight_content": ""}}, {"title": "胜村", "address": "红河哈尼族彝族自治州元阳县", "image": "", "rank": 34, "time": 2, "location": {"lat": 23.22619805192609, "lng": 102.84143280386179}, "feature": {"sight_features": "", "sight_content": ""}}, {"title": "南洞名胜风景保护区", "address": "红河市开远市植物园南侧（十八子水寨）", "image": "", "rank": 35, "time": 2.0, "location": {"lat": 23.65490824643779, "lng": 103.29117152338638}, "feature": {"sight_features": "", "sight_content": "开远南洞位于开远市以南约8公里的崇山峻岭之下，南洞是三个终年流水潺潺的泉潭，其中有一个可划船而入。洞内不仅清凉宜人，还可以欣赏到石芽、石笋、石柱等钟乳石奇观，此泉水是开远当地居民饮用及灌溉农田的主要水源洞外古木参天，山石峭立。明嘉靖三年，谪滇状元杨慎游至此，在洞侧题“南洞”二字，洞名一直沿用至今。明万历二年，云南巡抚邹应龙作《通灵洞记》，所以，又得别称“通灵洞”。"}}, {"title": "郑营村", "address": "红河哈尼族彝族自治州石屏县零六八乡道", "image": "", "rank": 36, "time": 2.5, "location": {"lat": 23.712004452448983, "lng": 102.50244661977858}, "feature": {"sight_features": "", "sight_content": ""}}, {"title": "丫沙底瀑布温泉", "address": "红河州个旧市贾沙乡丫沙底瀑布温泉", "image": "", "rank": 37, "time": 2, "location": {"lat": 23.34772471410671, "lng": 103.06244680256304}, "feature": {"sight_features": "特色1 云南省惟一的氡气高温医疗矿泉", "sight_content": "红河州个旧市丫沙底瀑布温泉成是云南省惟一的氡气高温医疗矿泉，于2013年6月份被评为国家级2A景区。源头水温高达93℃—97℃，是一个典型的医疗热矿泉，富有多种对人体有益及必需的矿物质，如偏硅酸、氟、硫、氢、硼酸、铁、碘、锌等，特别是含有一种惰性气体——氡气，这些元素对人体有舒筋活血，刺激兴奋的作用，对心血管也有较强的保健作用，对人体痉挛、神经痛、风湿痛、皮肤病、肠胃病均有疗效，同时还有改善体质、增强抵抗力和预防疾病的作用。因此，丫沙底热矿泉被称为“天医神泉”\n丫沙底瀑布温泉建在天然的龙潭形成的瀑布小溪中，采用日式露天风格，依山就势而建，浑然天成，不仅保留了天然温泉对人体的治疗，健康保养，而且又充分展示日式泡浴的个性特点，让你尽情领略大自然露天浴的风韵，20多个温泉浴池或大或小，或隐或现，尽显自然风范。\n为了让游客在景区体验到人与自然和谐相处的乐趣，以及增强人们的生态环保意识，景区养殖了孔雀、鹅、锦鸡、珍珠鸡、锦鲤、猫等动物。在惊喜的同时，更多体会到温馨、陶醉、神秘和几多浪漫，步入瀑布温泉，胜似天上人间。"}}, {"title": "指林寺", "address": "", "image": "", "rank": 38, "time": 2.0, "location": {"lat": 29.119703377408886, "lng": 119.53967460112204}, "feature": {"sight_features": "", "sight_content": ""}}, {"title": "蒙自海关旧址", "address": "红河哈尼族彝族自治州蒙自市南湖南路1号", "image": "", "rank": 39, "time": null, "location": {"lat": 23.3703564321153, "lng": 103.41474072251765}, "feature": {"sight_features": "", "sight_content": ""}}, {"title": "沙甸大清真寺", "address": "红河哈尼族彝族自治州个旧市沙甸镇", "image": "", "rank": 40, "time": 1.0, "location": {"lat": 23.543390191884406, "lng": 103.23158048706178}, "feature": {"sight_features": "", "sight_content": ""}}, {"title": "麻栗寨梯田", "address": "红河哈尼族彝族自治州元阳县", "image": "", "rank": 41, "time": 2, "location": {"lat": 23.22619805192609, "lng": 102.84143280386179}, "feature": {"sight_features": "", "sight_content": ""}}, {"title": "河口口岸", "address": "红河州河口县城南端", "image": "", "rank": 42, "time": 0.25, "location": {"lat": 22.535465602947458, "lng": 103.94544362779924}, "feature": {"sight_features": "", "sight_content": ""}}, {"title": "金临安民族民俗歌舞晚会", "address": "红河哈尼族彝族自治州建水县北正街84号（诸葛庙）", "image": "", "rank": 43, "time": 2, "location": {"lat": 23.620505371936254, "lng": 102.83157053763722}, "feature": {"sight_features": "特色1 好听、好看、好玩、好学", "sight_content": "“金临安”民族民俗歌舞晚会,是建水古城旅游投资有限公司属下的“金临安民族文化传播有限公司”邀请云南省著名词曲作家蒋明初、向美庆及舞美服装大师赵纯福等精心打造的、具有中国西南边地特色的文化旅游项目。\n晚会在保留建水原生态民俗文化的前提下，以民歌小调、方言说唱、情景小品、民族歌舞与声、光、电的完美结合，让观众在幽默风趣中感受建水文化独特魅力，品味建水文化盛宴。\n好听、好看、好玩、好笑，是晚会对你的竭诚奉献﹗带着殷切的期望来，带着满意的微笑离去，是全体演职人员对你美好的祝愿！\n建水小调在长期的发展过程中吸收了汉族小调的唱词格律，并结合建水彝族民间音乐的传统音调而成为特有的歌种。其唱词为汉语，句式押韵，篇幅长短不一。数百年的历史岁月里，建水小调一直是飘扬在彝汉人民心中的旗帜，是彝汉两族人民文化交融的结晶。节日庆典、庙会赶集、赶马路上，都能听到那永不停息的声音。有人从青年时代唱到白发苍苍，一辈子也没有尽头，平常的事物，经他们一唱，就在刹那之间容光焕发。\n在建水小调中，还有不少曲目在全国乃至世界的各类音乐比赛中获奖。如：滇南彝族四大腔的《沙莜腔》《海菜腔》《五三腔》《四腔》，《西乡坝子一窝雀》《青菜青》《小妹花》《花鞭调》等。\n建水小调中为您所提供试听的歌曲中既有亲临山间田野采集的由彝族民间歌手演唱的高亢明亮的小调，也有在不改变歌曲本身音调色彩的前提下，为顺应时代的脚步和当代人的视听审美观，对部分唱词和旋律以及音乐制作配器上做了一些变化的小调。"}}, {"title": "碧色寨", "address": "红河哈尼族彝族自治州蒙自市草坝镇碧色寨村", "image": "", "rank": 44, "time": 2.5, "location": {"lat": 23.46958887696168, "lng": 103.4183196507191}, "feature": {"sight_features": "", "sight_content": ""}}, {"title": "曲江温泉", "address": "红河哈尼族彝族自治州建水县曲江镇洗澡塘村", "image": "", "rank": 45, "time": 2, "location": {"lat": 23.969713239089632, "lng": 102.80114335709138}, "feature": {"sight_features": "", "sight_content": ""}}, {"title": "太平湖森林公园", "address": "红河州弥勒市弥勒太平水库旁", "image": "", "rank": 46, "time": 1.5, "location": {"lat": 24.43773196236563, "lng": 103.54047359377414}, "feature": {"sight_features": "", "sight_content": ""}}, {"title": "石屏古城", "address": "红河哈尼族彝族自治州石屏县西山路4号", "image": "", "rank": 47, "time": 2.5, "location": {"lat": 23.720248816771516, "lng": 102.49434192780913}, "feature": {"sight_features": "", "sight_content": ""}}, {"title": "石屏坝心芦子沟古民居", "address": "红河哈尼族彝族自治州石屏县芦子沟村", "image": "", "rank": 48, "time": 3.5, "location": {"lat": 23.674283767371175, "lng": 102.6804026174845}, "feature": {"sight_features": "", "sight_content": ""}}, {"title": "弥勒湖泉湾1号水疗", "address": "红河弥勒县生态园东岸湖泉湾1号独立商业体2-3F", "image": "", "rank": 49, "time": 2, "location": {"lat": 24.405522656575915, "lng": 103.4231343391831}, "feature": {"sight_features": "", "sight_content": ""}}, {"title": "弥勒寺", "address": "红河哈尼族彝族自治州弥勒市弥勒寺", "image": "", "rank": 50, "time": 1.0, "location": {"lat": 24.479226651928364, "lng": 103.43767713014716}, "feature": {"sight_features": "", "sight_content": ""}}, {"title": "蒙自南山水世界", "address": "红河哈尼族彝族自治州蒙自市北京路南延南部半山开发区", "image": "", "rank": 51, "time": 1.0, "location": {"lat": 23.38497242517046, "lng": 103.37719463519748}, "feature": {"sight_features": "", "sight_content": ""}}, {"title": "曲江温泉水乐园", "address": "红河哈尼族彝族自治州建水县曲江温泉度假村", "image": "", "rank": 52, "time": 1.5, "location": {"lat": 23.94184734761093, "lng": 102.8051244539746}, "feature": {"sight_features": "", "sight_content": "建水曲江温泉水乐园面积12000平方米，设备配套齐全，分别有组合滑梯（9条滑道），环流河、小型海浪池、戏水池、大型水寨、家庭滑梯、游泳池等。"}}, {"title": "撒玛坝万亩梯田景区", "address": "红河哈尼族彝族自治州红河县宝华镇", "image": "", "rank": 53, "time": 2, "location": {"lat": 23.2622829942896, "lng": 102.35934203450795}, "feature": {"sight_features": "", "sight_content": ""}}, {"title": "君悦天下御澜泉温泉", "address": "蒙自市文澜镇锦华路36号", "image": "", "rank": 54, "time": 2, "location": {"lat": 23.364122288965063, "lng": 103.40271221411582}, "feature": {"sight_features": "", "sight_content": ""}}, {"title": "临安镇", "address": "云南省红河哈尼族彝族自治州建水县", "image": "", "rank": 55, "time": 3.0, "location": {"lat": 23.640938563461493, "lng": 102.8334395916061}, "feature": {"sight_features": "", "sight_content": ""}}, {"title": "石屏秀山", "address": "云南省红河哈尼族彝族自治州石屏县宝秀镇农贸市场段", "image": "", "rank": 56, "time": 2.0, "location": {"lat": 23.768572203134326, "lng": 102.39613916949078}, "feature": {"sight_features": "", "sight_content": ""}}, {"title": "城子民俗村", "address": "泸西县城南25公里处宜良县泸西古洞", "image": "", "rank": 57, "time": 2, "location": {"lat": 24.53803716745029, "lng": 103.772523140916}, "feature": {"sight_features": "", "sight_content": ""}}, {"title": "南溪河风景区", "address": "红河自治州河口瑶族自治县", "image": "", "rank": 58, "time": 3.0, "location": {"lat": 22.535465602947458, "lng": 103.94544362779924}, "feature": {"sight_features": "", "sight_content": ""}}, {"title": "河口南溪河漂流", "address": "红河哈尼族彝族自治州河口瑶族自治县河边街67号", "image": "", "rank": 59, "time": 2, "location": {"lat": 22.51149409474502, "lng": 103.97020855605645}, "feature": {"sight_features": "", "sight_content": ""}}, {"title": "新街镇", "address": "元阳县新街镇", "image": "", "rank": 60, "time": 2, "location": {"lat": 23.134586973634658, "lng": 102.78874803012617}, "feature": {"sight_features": "", "sight_content": ""}}]}