{"cityName": "红河县", "days": 2, "cityImage": "", "spots": [{"title": "红河县图书馆", "address": "西门街58附近", "image": "", "rank": 1, "time": 1.5, "location": {"lat": 30.83827306274786, "lng": 121.48074045610244}, "feature": {"sight_features": "", "sight_content": ""}}, {"title": "东门马帮古城", "address": "云南省红河哈尼族彝族自治州红河县东门街48号", "image": "", "rank": 2, "time": 2, "location": {"lat": 23.37227918635961, "lng": 102.42794072512746}, "feature": {"sight_features": "", "sight_content": ""}}, {"title": "十二龙泉", "address": "红河哈尼族彝族自治州红河县", "image": "", "rank": 3, "time": 2, "location": {"lat": 23.37448873836479, "lng": 102.42755057757}, "feature": {"sight_features": "", "sight_content": ""}}, {"title": "撒玛坝民族文物陈列室", "address": "022乡道", "image": "", "rank": 4, "time": 2, "location": {"lat": 44.94424451484579, "lng": 124.49739371199831}, "feature": {"sight_features": "", "sight_content": ""}}, {"title": "红河县老年体协金秋艺术团", "address": "观塘街", "image": "", "rank": 5, "time": 2, "location": {"lat": 23.374149209883758, "lng": 102.42510046725846}, "feature": {"sight_features": "", "sight_content": ""}}, {"title": "红河县侨乡艺术团", "address": "三棵树街3", "image": "", "rank": 6, "time": 2, "location": {"lat": 26.568810042589433, "lng": 108.07342965560811}, "feature": {"sight_features": "", "sight_content": ""}}, {"title": "杨柳梯田", "address": "红河哈尼族彝族自治州红河县宝华乡", "image": "", "rank": 7, "time": 2, "location": {"lat": 23.287160970349344, "lng": 102.35469389188546}, "feature": {"sight_features": "", "sight_content": ""}}, {"title": "撒玛坝万亩梯田景区", "address": "红河哈尼族彝族自治州红河县宝华镇", "image": "", "rank": 8, "time": 2, "location": {"lat": 23.2622829942896, "lng": 102.35934203450795}, "feature": {"sight_features": "", "sight_content": ""}}]}