{"cityName": "洪江", "days": 2, "cityImage": "", "spots": [{"title": "洪江古商城", "address": "怀化市洪江区（沅、巫两水交汇处）", "image": "", "rank": 1, "time": 3.0, "location": {"lat": 27.11727937115415, "lng": 110.02005443693321}, "feature": {"sight_features": "", "sight_content": ""}}, {"title": "黔阳古城", "address": "怀化市洪江市黔城镇", "image": "", "rank": 2, "time": 3.5, "location": {"lat": 27.226411040514083, "lng": 109.91411683249834}, "feature": {"sight_features": "特色1 王昌龄在此写下“一片冰心在玉壶”的名句", "sight_content": "黔阳古城位于沅水上游，是全国保存最为完好的明清古城之一，古城三面环水，是湘楚苗地边陲重镇，素有“滇黔门户”和“湘西第一古镇”之称。千古名句“洛阳亲友如相问，一片冰心在玉壶”诞生于此，诗人王昌龄身后留下一座“芙蓉楼”屹立于此。古城内青石街巷纵横交错，明清建筑比比皆是。原有五个城门今尚存四门遗址，其中西门又称中正门，其城门及门楼保存完好，门上“中正门”三字系民国时期戴笠所书。依附南北两条主要街道而形成的鱼骨状道路系统保存完整，古称九街十八巷，如今还留有以商铺为主的南正街，以会馆码头为主的上河街、下河街等。街道两边还保留着县衙、书院、文庙、客栈、戏院等。来古城，第一个要看的便是芙蓉楼。它被称为“天子行吟处”，为江南四大名楼之一。芙蓉楼北廓临江，依林踞阜，筑叠巧思、错落有致，一色青瓦屋面，屋顶泥塑丰姿多彩，地方风味浓郁，虽无皇家园林之气势，苏州园林之精致，却也飞檐卷垛，储蓄淡雅，清秀宜人。"}}, {"title": "黔阳古城芙蓉楼", "address": "怀化市洪江市湘西古镇黔城西北隅", "image": "", "rank": 3, "time": 0.75, "location": {"lat": 27.21507709393158, "lng": 109.84350982630171}, "feature": {"sight_features": "特色1 王昌龄在此写下“一片冰心在玉壶”的名句", "sight_content": "黔阳古城又名黔城，地处云贵高原东部的雪峰山区，三面环水，自古就是湘楚苗地边陲重镇，素有“湘西第一古镇”之称，被誉为滇黔门户。黔阳古城已有2200多年历史，城内古建筑林立，明清街巷格局保存完好。\n黔阳古城的街巷以“丁”字型布局，原有5座城门、5华里城墙、9条街、18条巷等，被誉为“江南古建筑博物馆”。依附于黔阳古城南北两条主要街道而形成的鱼骨状道路系统保存完整，古称九街十八巷，现存较完好的历史街区有：以商业店铺为主的省级文化保护单位南正街；以会馆码头为主的上河街、下河街等。此外，县衙、书院、文庙、武祠遗址、古客栈、亭台楼阁、祠堂戏院等，罗列有致，功能齐全。\n黔阳古城形成了独特的建筑艺术风格。黔阳古城以明清建筑为主调，就地取材，大量使用红砂石、青石板、小青瓦、杉木、石片等，并有机融合了本地侗族、苗族建筑特色，如窨子屋、晒楼等。古民居敞亮明净，古宫祠华丽精致，建筑风格极具特色。\n几千年来，世居在此的各族人民共同创造了独具特色的民俗文化。有以目连戏、傩戏、阳戏为代表的民间戏曲；有以“沅江号子”、“渔鼓”等为代表的民间音乐舞蹈；有以“石刻木雕”、“竹编花篮”等为代表的民间工艺；有以“祭杨公”、“放歌灯”为代表的楚巫习俗；有以“春卷”、“绿豆粉”等为代表的地方风味小吃等等，其中集艺术、民俗、宗教于一体的黔城目连戏被联合国教科文组织称为中国戏剧的“活化石”。\n自汉以来，各朝均在黔阳设立县治，汉立镡城，唐天宝初更为黔江、龙标。宋熙宁七年复置黔江。宋元丰三年始置黔阳。自汉立城距今已有2000多年的历史。明清时期浩浩皇木、滚滚洪油、屡屡烟土、列列妓船，使得沅水河畔这座军事重镇成为中国南方丝路上的商贸名城。\n黔阳古城所在的怀化市是著名的“火车拖来的城市”，交通非常方便，北上广深均有直达高铁。从怀化高铁站坐12路车可以到达怀化南站，从怀化南站坐“怀化-黔城”的大巴。"}}, {"title": "雪峰山国家森林公园", "address": "怀化市洪江市", "image": "", "rank": 4, "time": 3.0, "location": {"lat": 27.21507709393158, "lng": 109.84350982630171}, "feature": {"sight_features": "", "sight_content": ""}}, {"title": "嵩云山", "address": "怀化市洪江区", "image": "", "rank": 5, "time": 4.0, "location": {"lat": 27.11727937115415, "lng": 110.02005443693321}, "feature": {"sight_features": "", "sight_content": ""}}, {"title": "清江湖", "address": "怀化市洪江市、芷江县、会同县、贵州天柱县境内", "image": "", "rank": 6, "time": 3.5, "location": {"lat": 27.21507709393158, "lng": 109.84350982630171}, "feature": {"sight_features": "", "sight_content": ""}}, {"title": "绍兴班", "address": "湖怀化市洪江区洪江古商城内余家冲康乐门", "image": "", "rank": 7, "time": 2, "location": {"lat": 27.119569939933253, "lng": 110.01041042571019}, "feature": {"sight_features": "", "sight_content": ""}}, {"title": "厘金局", "address": "湖怀化市洪江区洪江古商城内", "image": "", "rank": 8, "time": 2, "location": {"lat": 27.119569939933253, "lng": 110.01041042571019}, "feature": {"sight_features": "", "sight_content": ""}}, {"title": "忠义镖局", "address": "湖怀化市洪江区洪江古商城内", "image": "", "rank": 9, "time": 2, "location": {"lat": 27.119569939933253, "lng": 110.01041042571019}, "feature": {"sight_features": "", "sight_content": ""}}, {"title": "穿岩", "address": "湖南省怀化市洪江市", "image": "", "rank": 10, "time": 1.0, "location": {"lat": 27.21507709393158, "lng": 109.84350982630171}, "feature": {"sight_features": "", "sight_content": ""}}, {"title": "汛把总署", "address": "湖怀化市洪江区洪江古商城内", "image": "", "rank": 11, "time": 2, "location": {"lat": 27.119569939933253, "lng": 110.01041042571019}, "feature": {"sight_features": "", "sight_content": ""}}, {"title": "荷风院", "address": "湖怀化市洪江区洪江古商城内余家冲康乐门", "image": "", "rank": 12, "time": 2, "location": {"lat": 27.119569939933253, "lng": 110.01041042571019}, "feature": {"sight_features": "", "sight_content": ""}}, {"title": "雄溪公园", "address": "怀化市洪江市", "image": "", "rank": 13, "time": 1.5, "location": {"lat": 27.21507709393158, "lng": 109.84350982630171}, "feature": {"sight_features": "", "sight_content": ""}}, {"title": "太平宫", "address": "湖南怀化洪江区洪江古商城内", "image": "", "rank": 14, "time": 0.75, "location": {"lat": 27.119569939933253, "lng": 110.01041042571019}, "feature": {"sight_features": "", "sight_content": ""}}, {"title": "大兴禅寺", "address": "怀化市洪江市嵩云山", "image": "", "rank": 15, "time": 1.0, "location": {"lat": 27.11494860051321, "lng": 109.99620081446304}, "feature": {"sight_features": "", "sight_content": ""}}, {"title": "福兴昌烟馆", "address": "湖南怀化洪江区洪江古商城内", "image": "", "rank": 16, "time": 2, "location": {"lat": 27.119569939933253, "lng": 110.01041042571019}, "feature": {"sight_features": "", "sight_content": ""}}, {"title": "墨庄", "address": "湖南怀化洪江区洪江古商城留园", "image": "", "rank": 17, "time": null, "location": {"lat": 27.11727937115415, "lng": 110.02005443693321}, "feature": {"sight_features": "", "sight_content": ""}}, {"title": "雄溪五泉", "address": "怀化市洪江市", "image": "", "rank": 18, "time": 1.0, "location": {"lat": 27.21507709393158, "lng": 109.84350982630171}, "feature": {"sight_features": "", "sight_content": ""}}, {"title": "洪江古建筑群", "address": "湖南省洪江市黔城镇", "image": "", "rank": 19, "time": 2, "location": {"lat": 27.226411040514083, "lng": 109.91411683249834}, "feature": {"sight_features": "", "sight_content": ""}}, {"title": "黔城蟠龙山", "address": "湖南省洪江市黔城镇", "image": "", "rank": 20, "time": 2, "location": {"lat": 27.226411040514083, "lng": 109.91411683249834}, "feature": {"sight_features": "", "sight_content": ""}}, {"title": "长码头", "address": "湖南怀化洪江区洪江古商城内", "image": "", "rank": 21, "time": 2, "location": {"lat": 27.119569939933253, "lng": 110.01041042571019}, "feature": {"sight_features": "", "sight_content": ""}}, {"title": "怀化市洪江区图书馆", "address": "幸福西路4号", "image": "", "rank": 22, "time": 3.5, "location": {"lat": 32.06553035547261, "lng": 112.16002634216274}, "feature": {"sight_features": "", "sight_content": ""}}, {"title": "欢乐电游中心", "address": "稻乡路", "image": "", "rank": 23, "time": 2, "location": {"lat": 27.320427541955787, "lng": 110.15288467719112}, "feature": {"sight_features": "", "sight_content": ""}}, {"title": "红脚丫儿童智能乐园", "address": "黔城镇世纪广场福风电影院旁（啃德起）1楼内", "image": "", "rank": 24, "time": 2, "location": {"lat": 27.20986563486646, "lng": 109.83176870379852}, "feature": {"sight_features": "", "sight_content": ""}}, {"title": "赤峰塔", "address": "湖南省洪江市赤宝山顶 418200", "image": "", "rank": 25, "time": 2, "location": {"lat": 27.21507709393158, "lng": 109.84350982630171}, "feature": {"sight_features": "", "sight_content": ""}}, {"title": "安江自行车俱乐部", "address": "中山路", "image": "", "rank": 26, "time": 2, "location": {"lat": 38.66222906049726, "lng": 114.96165161435523}, "feature": {"sight_features": "", "sight_content": ""}}, {"title": "北门遗址", "address": "怀化市洪江市黔阳古城内", "image": "", "rank": 27, "time": 2, "location": {"lat": 27.19723243317823, "lng": 109.82297638950381}, "feature": {"sight_features": "", "sight_content": ""}}, {"title": "安江农校纪念园", "address": "怀化市洪江区安江镇稻源北路", "image": "", "rank": 28, "time": 2.5, "location": {"lat": 27.34943684769869, "lng": 110.15966772460317}, "feature": {"sight_features": "", "sight_content": ""}}, {"title": "大佛寺", "address": "湖南省怀化市洪江市", "image": "", "rank": 29, "time": null, "location": {"lat": 27.21507709393158, "lng": 109.84350982630171}, "feature": {"sight_features": "", "sight_content": ""}}, {"title": "易氏宗祠", "address": "怀化市洪江市下河街38号", "image": "", "rank": 30, "time": 1.0, "location": {"lat": 27.19515760676728, "lng": 109.82414523409061}, "feature": {"sight_features": "", "sight_content": ""}}, {"title": "药王寺", "address": "洪江老区", "image": "", "rank": 31, "time": 2, "location": {"lat": 27.21507709393158, "lng": 109.84350982630171}, "feature": {"sight_features": "", "sight_content": ""}}, {"title": "神师休闲广场", "address": "芙蓉中路附近", "image": "", "rank": 32, "time": 2, "location": {"lat": 28.557358004930535, "lng": 107.4486123250099}, "feature": {"sight_features": "", "sight_content": ""}}, {"title": "翠竹山庄", "address": "湖南省怀化市洪江市横岩乡中心小学西南350米", "image": "", "rank": 33, "time": 2, "location": {"lat": 27.14342203983742, "lng": 109.92388607110264}, "feature": {"sight_features": "", "sight_content": ""}}, {"title": "黔城中正门", "address": "湖南省洪江市黔城镇", "image": "", "rank": 34, "time": 2, "location": {"lat": 27.226411040514083, "lng": 109.91411683249834}, "feature": {"sight_features": "", "sight_content": ""}}, {"title": "安江奇石金丝楠木艺术馆", "address": "桔园路南50米", "image": "", "rank": 35, "time": 2, "location": {"lat": 29.51025921392538, "lng": 120.92727428154765}, "feature": {"sight_features": "", "sight_content": ""}}, {"title": "木兰溪", "address": "怀化市洪江市塘湾镇木兰溪", "image": "", "rank": 36, "time": 2, "location": {"lat": 27.30640437805226, "lng": 110.44859770353317}, "feature": {"sight_features": "", "sight_content": ""}}, {"title": "高庙遗址", "address": "湖南省洪江市岔头乡岩里村", "image": "", "rank": 37, "time": 2, "location": {"lat": 27.36687875130103, "lng": 110.18017889869562}, "feature": {"sight_features": "", "sight_content": ""}}, {"title": "黔城商业步行街", "address": "湖南省洪江市黔城商业步行街", "image": "", "rank": 38, "time": 2, "location": {"lat": 27.21507709393158, "lng": 109.84350982630171}, "feature": {"sight_features": "", "sight_content": ""}}, {"title": "洪江东方广场", "address": "湖南省洪江市舞水牛头湾与人工湖交汇处", "image": "", "rank": 39, "time": 1.0, "location": {"lat": 27.21507709393158, "lng": 109.84350982630171}, "feature": {"sight_features": "", "sight_content": ""}}, {"title": "洪江市精品商业步行街", "address": "湖南省洪江市精品商业步行街", "image": "", "rank": 40, "time": 3.5, "location": {"lat": 27.21507709393158, "lng": 109.84350982630171}, "feature": {"sight_features": "", "sight_content": ""}}, {"title": "叙州府衙遗址", "address": "怀化市-洪江市-黔阳古城内", "image": "", "rank": 41, "time": 2, "location": {"lat": 27.19723243317823, "lng": 109.82297638950381}, "feature": {"sight_features": "", "sight_content": ""}}, {"title": "南正街", "address": "湖南省洪江市黔城镇", "image": "", "rank": 42, "time": 2, "location": {"lat": 27.226411040514083, "lng": 109.91411683249834}, "feature": {"sight_features": "", "sight_content": ""}}, {"title": "岩鹰洞", "address": "湖南省洪江市深渡乡", "image": "", "rank": 43, "time": 2, "location": {"lat": 27.283306863337693, "lng": 110.46368877167187}, "feature": {"sight_features": "", "sight_content": ""}}, {"title": "鸬鹚滩", "address": "湖南省洪江市横岩乡", "image": "", "rank": 44, "time": 2, "location": {"lat": 27.13326246720049, "lng": 109.93528921154764}, "feature": {"sight_features": "", "sight_content": ""}}, {"title": "八面山水库", "address": "湖南省洪江市熟坪乡罗翁村", "image": "", "rank": 45, "time": 2, "location": {"lat": 27.176599211702023, "lng": 110.2132113197281}, "feature": {"sight_features": "", "sight_content": ""}}]}