{"cityName": "红原", "days": null, "cityImage": "", "spots": [{"title": "红原月亮湾", "address": "阿坝藏族羌族自治州红原县209省道", "image": "", "rank": 1, "time": 3.0, "location": {"lat": 32.76020436393674, "lng": 102.45395834506174}, "feature": {"sight_features": "特色1 迷人的草原风光，神秘的宗教文化，绚丽的藏乡风情 特色2 白河呈“S”形蜿蜒流过，如同天上的一弯新月 特色3 草原宽广，牧草茂盛为整个青藏高原所少有", "sight_content": "月亮湾草原位于四川红原县内，其草原宽广，牧草茂盛为整个青藏高原所少有，此地距红原县城仅3公里，8月的月亮湾显得清秀委婉了，在公路旁的小山岗上，你会看到美丽宽广的草原就像块柔软的绿色地毯铺在梦幻的大地上，清澈的河水在草原上划出一道道舒缓优美的弧线，恰似一轮弯弯的月亮，“月亮湾”也因此而得美名。红原草原的美在月亮湾发挥得淋漓尽致。\n在一片开阔的草地上，白河呈“S”形蜿蜒流过，如同天上的一弯新月，故而得名“月亮湾 ”。黄昏时，近处绿草茵茵，远处山峦叠黛，夕阳染红了天空，也染红了弯弯的流水，伫立在河边的马匹，悠闲地吃着青草，摆着尾巴，使草原更显得格外的静谧 。"}}, {"title": "瓦切塔林", "address": "阿坝藏族羌族自治州红原县瓦切乡", "image": "", "rank": 2, "time": 2.0, "location": {"lat": 33.13239927690311, "lng": 102.63418423059586}, "feature": {"sight_features": "", "sight_content": ""}}, {"title": "查真梁子", "address": "阿坝藏族羌族自治州红原县境内", "image": "", "rank": 3, "time": 2.5, "location": {"lat": 32.7966052787623, "lng": 102.55061520946042}, "feature": {"sight_features": "", "sight_content": ""}}, {"title": "俄么塘花海景区", "address": "阿坝藏族羌族自治州红原县壤口乡境内，位于317省道旁", "image": "", "rank": 4, "time": 2, "location": {"lat": 32.33544981944021, "lng": 102.48493357372453}, "feature": {"sight_features": "", "sight_content": "俄么塘，又名俄木塘，位于红原县壤口乡，每年6月开始，方圆数十平方公里的俄么塘草地，一片鲜花的海洋、一路芬芳的天堂，堪称“高原桃源”，宛若“人间仙境”，整个花期将持续到10月。\n不同时节，不同种类的鲜花竞相绽放，呈现出五彩斑斓的花海仙境，被称赞为“最美草原花海”"}}, {"title": "日干乔大沼泽", "address": "阿坝藏族羌族自治州红原县瓦切乡、麦洼乡、色地乡三乡境内", "image": "", "rank": 5, "time": 1.5, "location": {"lat": 33.06604034081162, "lng": 102.91629632681764}, "feature": {"sight_features": "", "sight_content": ""}}, {"title": "红原县城", "address": "四川省阿坝藏族羌族自治州红原县", "image": "", "rank": 6, "time": 7.5, "location": {"lat": 32.7966052787623, "lng": 102.55061520946042}, "feature": {"sight_features": "", "sight_content": ""}}, {"title": "刷经寺森林公园", "address": "阿坝藏族羌族自治州红原县刷经寺镇", "image": "", "rank": 7, "time": 1.5, "location": {"lat": 32.0208844136784, "lng": 102.6228990277792}, "feature": {"sight_features": "", "sight_content": ""}}, {"title": "俄木塘花海", "address": "阿坝藏族羌族自治州红原县壤口乡(209省道374公里处)", "image": "", "rank": 8, "time": 1.5, "location": {"lat": 32.76020436393674, "lng": 102.45395834506174}, "feature": {"sight_features": "", "sight_content": ""}}, {"title": "雪玛格勒冰川", "address": "坝藏族羌族自治州红原县壤口乡雪玛格勒沟和措琼沟", "image": "", "rank": 9, "time": 2.5, "location": {"lat": 32.33544981944021, "lng": 102.48493357372453}, "feature": {"sight_features": "", "sight_content": ""}}, {"title": "红原民俗村", "address": "阿坝藏族羌族自治州红原县龙日乡", "image": "", "rank": 10, "time": 1.5, "location": {"lat": 32.51527390980529, "lng": 102.461305333404}, "feature": {"sight_features": "", "sight_content": ""}}, {"title": "达格则", "address": "阿坝藏族羌族自治州红原县", "image": "", "rank": 11, "time": 7.5, "location": {"lat": 32.7966052787623, "lng": 102.55061520946042}, "feature": {"sight_features": "", "sight_content": ""}}, {"title": "红原郦湾温泉", "address": "阿坝藏族羌族自治州红原县瑞庆中路（红原客运站旁）", "image": "", "rank": 12, "time": 3.0, "location": {"lat": 32.79731849833448, "lng": 102.53970098795494}, "feature": {"sight_features": "", "sight_content": ""}}, {"title": "安多藏族游牧文化风情歌舞晚会", "address": "阿坝州红原县城邛溪镇阳嘎中街黄河源大剧院（红原游牧时光假日酒店旁）", "image": "", "rank": 13, "time": 1.0, "location": {"lat": 32.799834135970386, "lng": 102.55127068592324}, "feature": {"sight_features": "", "sight_content": ""}}, {"title": "净林香格乐园", "address": "209省道", "image": "", "rank": 14, "time": 2, "location": {"lat": 39.99809006691208, "lng": 116.08348027993928}, "feature": {"sight_features": "", "sight_content": ""}}, {"title": "新天地休闲山庄", "address": "209省道附近", "image": "", "rank": 15, "time": 2, "location": {"lat": 39.99809006691208, "lng": 116.08348027993928}, "feature": {"sight_features": "", "sight_content": ""}}, {"title": "红原县雅克部落旅游度假村", "address": "四川省阿坝藏族羌族自治州红原县绛熙东街", "image": "", "rank": 16, "time": 2, "location": {"lat": 32.801754015943715, "lng": 102.55590506291362}, "feature": {"sight_features": "", "sight_content": ""}}, {"title": "阿坝红原映象度假村", "address": "四川省阿坝藏族羌族自治州红原县S209旁", "image": "", "rank": 17, "time": 4.5, "location": {"lat": 32.7966052787623, "lng": 102.55061520946042}, "feature": {"sight_features": "", "sight_content": ""}}, {"title": "红原县诺尔琼度假村", "address": "红原县邛溪镇S209合桐洛格村东南侧", "image": "", "rank": 18, "time": 2, "location": {"lat": 32.804039150786245, "lng": 102.5552757037852}, "feature": {"sight_features": "", "sight_content": ""}}, {"title": "红原梦幻大草原", "address": "红原阿坝红原县瓦切镇瓦切牧场达峨村S209省道原81道班对面", "image": "", "rank": 19, "time": 2, "location": {"lat": 33.09079174293514, "lng": 102.60555259207636}, "feature": {"sight_features": "", "sight_content": ""}}, {"title": "草原国家公园日干乔", "address": "阿坝藏族羌族自治州红原县", "image": "", "rank": 20, "time": 2, "location": {"lat": 32.7966052787623, "lng": 102.55061520946042}, "feature": {"sight_features": "", "sight_content": ""}}, {"title": "展览馆", "address": "霞穹中街", "image": "", "rank": 21, "time": 2.5, "location": {"lat": 32.79516963966584, "lng": 102.55175386918586}, "feature": {"sight_features": "", "sight_content": ""}}, {"title": "花海", "address": "距离红原县几十公里", "image": "", "rank": 22, "time": 2, "location": {"lat": 32.7966052787623, "lng": 102.55061520946042}, "feature": {"sight_features": "", "sight_content": ""}}, {"title": "阿木农家", "address": "卡口村", "image": "", "rank": 23, "time": 2, "location": {"lat": 32.92010275456297, "lng": 102.64442812934335}, "feature": {"sight_features": "", "sight_content": ""}}, {"title": "错卡能", "address": "阿坝藏族羌族自治州-若尔盖县", "image": "", "rank": 24, "time": 2, "location": {"lat": 33.584376654702446, "lng": 102.97439065413141}, "feature": {"sight_features": "", "sight_content": ""}}, {"title": "草原国家公园", "address": "四川省阿坝州中部，紧连九寨沟、黄龙寺", "image": "", "rank": 25, "time": 2, "location": {"lat": 33.257591509496066, "lng": 104.24954673402509}, "feature": {"sight_features": "", "sight_content": ""}}, {"title": "红原大草原", "address": "阿坝藏族羌族自治州若尔盖县209省道附近", "image": "", "rank": 26, "time": 10.5, "location": {"lat": 33.51400290337722, "lng": 102.70110581629159}, "feature": {"sight_features": "", "sight_content": ""}}, {"title": "鹧鸪山", "address": "阿坝藏族羌族自治州理县G317鹧鸪山隧道（鹧鸪山）", "image": "", "rank": 27, "time": 2, "location": {"lat": 31.84415614236678, "lng": 102.67749765669242}, "feature": {"sight_features": "", "sight_content": ""}}]}