{"cityName": "红安", "days": 2, "cityImage": "", "spots": [{"title": "红安烈士陵园", "address": "黄冈市红安县陵园大道1号", "image": "", "rank": 1, "time": 1.5, "location": {"lat": 31.293061104449063, "lng": 114.63050776841474}, "feature": {"sight_features": "", "sight_content": ""}}, {"title": "天台山风景区", "address": "黄冈市红安县北部约40公里", "image": "", "rank": 2, "time": 7.5, "location": {"lat": 31.294296714037316, "lng": 114.62442561129834}, "feature": {"sight_features": "", "sight_content": ""}}, {"title": "大圣寺塔", "address": "红安县七里坪柳林河畔的双城旧址之上", "image": "", "rank": 3, "time": 1.0, "location": {"lat": 31.294296714037316, "lng": 114.62442561129834}, "feature": {"sight_features": "", "sight_content": ""}}, {"title": "华缘农场", "address": "黄冈市红安县高桥镇詹店", "image": "", "rank": 4, "time": 2, "location": {"lat": 31.16688168893245, "lng": 114.56304697124345}, "feature": {"sight_features": "", "sight_content": ""}}, {"title": "红二十五军军部", "address": "黄冈市红安县七里坪镇许葛楼村", "image": "", "rank": 5, "time": 2, "location": {"lat": 31.388766541117644, "lng": 114.8083860402952}, "feature": {"sight_features": "", "sight_content": ""}}, {"title": "童子冲森林探险乐园", "address": "黄冈市红安县七杨路天台山国家森林公园境内", "image": "", "rank": 6, "time": 2, "location": {"lat": 31.53944820491727, "lng": 114.6130278696657}, "feature": {"sight_features": "", "sight_content": ""}}, {"title": "吴氏祠", "address": "黄冈市红安县205县道八里湾镇陡山村", "image": "", "rank": 7, "time": 2, "location": {"lat": 31.03031021592964, "lng": 114.64766630196084}, "feature": {"sight_features": "", "sight_content": ""}}, {"title": "帝王湖观光景区", "address": "黄冈市红安县高桥镇龙王山村", "image": "", "rank": 8, "time": 2, "location": {"lat": 31.10148256715524, "lng": 114.54431683873307}, "feature": {"sight_features": "特色1 展现创意文化艺术，感受生态天然氧吧", "sight_content": "帝王湖景区位于中国第一将军县红安县境内，因创意文化艺术、生态天然氧吧而闻名。景区占地5500余亩，山脉梯级分布，环状萦绕龙王湖，龙王山、龟山、蛇山、虾山等象形山体被水域隔开，呈现九龙朝圣之势，湖泊、滩流像一颗颗璀璨夺目的珍珠，在繁茂的森林中绽放异彩。。\n在青山绿水环抱的原生态风景中，人文景观与自然风光巧妙结合，山脉蜿蜒之间充满创意文化气息的艺术村落、艺术精品酒店，水域中回荡着游乐气息的沙滩浴场、水上乐园，湖岸边弥漫着度假气息的沿湖别墅、青年国际旅舍、拓展基地，森林之中散发着自然清新氛围的山林温泉、天然氧吧，休闲娱乐方式深印在龙王湖山水之中，欢乐与时尚结合，历史与艺术同在，创意文化与天然氧吧巧妙衔接，让游客流连忘返。"}}, {"title": "中国红安将军影视城", "address": "黄冈市红安县城关镇似马山", "image": "", "rank": 9, "time": 2, "location": {"lat": 31.304625442034332, "lng": 114.58430631435787}, "feature": {"sight_features": "", "sight_content": ""}}, {"title": "秦基伟将军故居", "address": "黄冈市红安县七里坪镇秦罗庄", "image": "", "rank": 10, "time": 2, "location": {"lat": 31.47963609541353, "lng": 114.62312830004018}, "feature": {"sight_features": "", "sight_content": ""}}, {"title": "尾斗湖山庄", "address": "永河镇尾斗山村内", "image": "", "rank": 11, "time": 2, "location": {"lat": 31.168857306793196, "lng": 114.73897817401578}, "feature": {"sight_features": "", "sight_content": ""}}, {"title": "李先念故居纪念园", "address": "高桥镇长丰村李家大屋", "image": "", "rank": 12, "time": 2, "location": {"lat": 31.157194208394184, "lng": 114.53153513169953}, "feature": {"sight_features": "", "sight_content": ""}}, {"title": "富家寨狩猎度假山庄", "address": "湖北省黄冈市红安县高桥镇", "image": "", "rank": 13, "time": 2, "location": {"lat": 31.16688168893245, "lng": 114.56304697124345}, "feature": {"sight_features": "", "sight_content": ""}}, {"title": "碧波农庄", "address": "二程镇张背山村姚家田8号", "image": "", "rank": 14, "time": 2, "location": {"lat": 31.24498315006396, "lng": 114.46627127180547}, "feature": {"sight_features": "", "sight_content": ""}}, {"title": "颐灏山庄", "address": "往二程镇方向8公里", "image": "", "rank": 15, "time": 2, "location": {"lat": 31.294747971444597, "lng": 114.50432519280217}, "feature": {"sight_features": "", "sight_content": ""}}, {"title": "李先念同志旧居", "address": "高桥镇长丰村李家大屋", "image": "", "rank": 16, "time": 2, "location": {"lat": 31.157194208394184, "lng": 114.53153513169953}, "feature": {"sight_features": "", "sight_content": ""}}, {"title": "黄商农家乐似(马山加盟店)", "address": "迎宾大道58号", "image": "", "rank": 17, "time": 2, "location": {"lat": 33.59586942114212, "lng": 119.128959288294}, "feature": {"sight_features": "", "sight_content": ""}}, {"title": "鄂豫皖苏烈士陵园", "address": "湖北省红安县城关镇陵园大道1号 438401", "image": "", "rank": 18, "time": 1.0, "location": {"lat": 31.293061104449063, "lng": 114.63050776841474}, "feature": {"sight_features": "", "sight_content": ""}}, {"title": "天亿文化广场", "address": "黄冈市红安县小北街2号", "image": "", "rank": 19, "time": 2, "location": {"lat": 31.294325154764078, "lng": 114.62315537024125}, "feature": {"sight_features": "", "sight_content": ""}}, {"title": "红安县金童星儿童乐园", "address": "觅儿寺镇凉亭新村5号", "image": "", "rank": 20, "time": 2, "location": {"lat": 29.879383082364182, "lng": 116.54631690717464}, "feature": {"sight_features": "", "sight_content": ""}}, {"title": "慈航寺", "address": "湖北省黄冈市红安县吴荣畈", "image": "", "rank": 21, "time": 1.0, "location": {"lat": 31.26042121371188, "lng": 114.62461127577606}, "feature": {"sight_features": "", "sight_content": ""}}, {"title": "地藏殿", "address": "黄冈市红安县206县道附近天台寺内", "image": "", "rank": 22, "time": 2.5, "location": {"lat": 31.532170463771056, "lng": 114.63984295927445}, "feature": {"sight_features": "", "sight_content": ""}}, {"title": "九天山庄", "address": "黄冈市红安县206县道附近", "image": "", "rank": 23, "time": 2, "location": {"lat": 31.532170463771056, "lng": 114.63984295927445}, "feature": {"sight_features": "", "sight_content": ""}}, {"title": "城东水上乐园", "address": "湖北省黄冈市红安县东风路", "image": "", "rank": 24, "time": 2, "location": {"lat": 31.278155775677927, "lng": 114.63427787848755}, "feature": {"sight_features": "", "sight_content": ""}}, {"title": "龚家祠堂", "address": "黄冈市红安县", "image": "", "rank": 25, "time": 2, "location": {"lat": 31.294296714037316, "lng": 114.62442561129834}, "feature": {"sight_features": "", "sight_content": ""}}, {"title": "中国工农红军第四方面军诞生地", "address": "沿河大道19号附近", "image": "", "rank": 26, "time": 2, "location": {"lat": 29.723356423678386, "lng": 113.89103253925151}, "feature": {"sight_features": "", "sight_content": ""}}, {"title": "观音泉", "address": "信阳市新县206县道附近天台寺内", "image": "", "rank": 27, "time": 2, "location": {"lat": 31.649738468474663, "lng": 114.8855247552342}, "feature": {"sight_features": "", "sight_content": ""}}, {"title": "弘觉寺", "address": "湖北省黄冈市红安县S109(发展大道)", "image": "", "rank": 28, "time": 2.5, "location": {"lat": 31.15843945944231, "lng": 114.56487175761572}, "feature": {"sight_features": "", "sight_content": ""}}, {"title": "天舒广场", "address": "红坪大道与胜利街交叉口东50米", "image": "", "rank": 29, "time": 2, "location": {"lat": 31.294238153979588, "lng": 114.62183348786792}, "feature": {"sight_features": "", "sight_content": ""}}, {"title": "红安县将军岭山庄", "address": "湖北省黄冈市红安县红两路88", "image": "", "rank": 30, "time": 2, "location": {"lat": 31.288646456069685, "lng": 114.64323441560867}, "feature": {"sight_features": "", "sight_content": ""}}, {"title": "红安县春晓家庭农场", "address": "红安县七里坪镇周家墩村特一号", "image": "", "rank": 31, "time": 2, "location": {"lat": 31.43329817786474, "lng": 114.6591856660748}, "feature": {"sight_features": "", "sight_content": ""}}, {"title": "红军广场", "address": "黄冈市红安县沿河大道10号", "image": "", "rank": 32, "time": 2, "location": {"lat": 31.468617695733837, "lng": 114.65911510327868}, "feature": {"sight_features": "", "sight_content": ""}}, {"title": "国家森林公园红安县天台山九焰山...", "address": "黄冈市红安县天台山森林公园内", "image": "", "rank": 33, "time": 2, "location": {"lat": 31.53944765364368, "lng": 114.6130283278015}, "feature": {"sight_features": "", "sight_content": ""}}, {"title": "觅儿寺", "address": "觅儿寺街附近", "image": "", "rank": 34, "time": 2, "location": {"lat": 31.038373212336676, "lng": 114.54763072997974}, "feature": {"sight_features": "", "sight_content": ""}}, {"title": "红安县科技馆", "address": "沿河路", "image": "", "rank": 35, "time": null, "location": {"lat": 40.64228347726066, "lng": 122.5173173722121}, "feature": {"sight_features": "", "sight_content": ""}}, {"title": "游仙山庄", "address": "109省道", "image": "", "rank": 36, "time": 2, "location": {"lat": 41.7043270647761, "lng": 123.32452022459009}, "feature": {"sight_features": "", "sight_content": ""}}, {"title": "新海浪温泉会馆", "address": "城南大道88号", "image": "", "rank": 37, "time": 2, "location": {"lat": 29.98097289110759, "lng": 120.60103475171448}, "feature": {"sight_features": "", "sight_content": ""}}, {"title": "牛顿小镇", "address": "南济街15号", "image": "", "rank": 38, "time": 7.5, "location": {"lat": 31.28864393835141, "lng": 114.62336439808412}, "feature": {"sight_features": "", "sight_content": ""}}, {"title": "红安影剧院", "address": "林场路与109省道交汇处东北200米", "image": "", "rank": 39, "time": 7.5, "location": {"lat": 21.61293072722965, "lng": 110.28999871454322}, "feature": {"sight_features": "", "sight_content": ""}}, {"title": "天台山林场", "address": "204县道西50米", "image": "", "rank": 40, "time": 2.5, "location": {"lat": 27.853916174397014, "lng": 114.02259207606086}, "feature": {"sight_features": "", "sight_content": ""}}, {"title": "董必武纪念馆", "address": "黄麻起义和鄂豫皖苏区革命烈士陵园内的东北处稞子山上", "image": "", "rank": 41, "time": 2, "location": {"lat": 33.50381608289496, "lng": 112.45150327422434}, "feature": {"sight_features": "", "sight_content": ""}}, {"title": "红安县楚剧团", "address": "红坪大道51号附近", "image": "", "rank": 42, "time": 2, "location": {"lat": 31.29757547062184, "lng": 114.6238854601952}, "feature": {"sight_features": "", "sight_content": ""}}, {"title": "董必武故居", "address": "湖北省红安县城关镇民主街", "image": "", "rank": 43, "time": 2, "location": {"lat": 31.290716314048744, "lng": 114.62438647122897}, "feature": {"sight_features": "", "sight_content": ""}}, {"title": "秦岚冲", "address": "黄冈市-红安县", "image": "", "rank": 44, "time": 2, "location": {"lat": 31.294296714037316, "lng": 114.62442561129834}, "feature": {"sight_features": "", "sight_content": ""}}, {"title": "韩先楚生平陈列室", "address": "黄冈市-红安县-二程镇田店村田李家", "image": "", "rank": 45, "time": 2, "location": {"lat": 31.29956877389068, "lng": 114.54042016370205}, "feature": {"sight_features": "", "sight_content": ""}}, {"title": "胜缘农家乐", "address": "黄冈市-红安县", "image": "", "rank": 46, "time": 2, "location": {"lat": 31.294296714037316, "lng": 114.62442561129834}, "feature": {"sight_features": "", "sight_content": ""}}, {"title": "七里坪古镇", "address": "红安县七里坪镇位于大别山南麓、鄂豫两省边际。", "image": "", "rank": 47, "time": 2, "location": {"lat": 31.468643597933244, "lng": 114.66139889322417}, "feature": {"sight_features": "", "sight_content": ""}}, {"title": "七里坪革命旧址", "address": "湖北省红安县七里坪镇列宁小学旧址", "image": "", "rank": 48, "time": 2, "location": {"lat": 31.47512022496065, "lng": 114.66317435364088}, "feature": {"sight_features": "", "sight_content": ""}}]}