{"cityName": "侯马", "days": 2, "cityImage": "", "spots": [{"title": "金盛温泉", "address": "临汾市侯马市北环路御泽园温泉游泳馆北侧", "image": "", "rank": 1, "time": 2, "location": {"lat": 35.642003658293945, "lng": 111.4002669643957}, "feature": {"sight_features": "", "sight_content": ""}}, {"title": "地兴海水上乐园", "address": "临汾市侯马市浍河二库大坝西南侧下", "image": "", "rank": 2, "time": 2, "location": {"lat": 35.60914170171063, "lng": 111.39835253701487}, "feature": {"sight_features": "", "sight_content": ""}}, {"title": "侯马市档案馆", "address": "市府路19号", "image": "", "rank": 3, "time": 1.0, "location": {"lat": 42.292036434078796, "lng": 123.85147658522264}, "feature": {"sight_features": "", "sight_content": ""}}, {"title": "幸福街游乐园", "address": "幸福街554号", "image": "", "rank": 4, "time": 2, "location": {"lat": 43.8361302813639, "lng": 125.3245687359458}, "feature": {"sight_features": "", "sight_content": ""}}, {"title": "紫金园", "address": "市府路(近侯马二中)", "image": "", "rank": 5, "time": 2, "location": {"lat": 35.62449359693596, "lng": 111.37569025988041}, "feature": {"sight_features": "", "sight_content": ""}}, {"title": "福林游乐园", "address": "幸福街533号", "image": "", "rank": 6, "time": 2, "location": {"lat": 43.83648781314756, "lng": 125.3247219358221}, "feature": {"sight_features": "", "sight_content": ""}}, {"title": "董氏砖雕墓", "address": "山西省侯马市侯马市西北郊 043000", "image": "", "rank": 7, "time": 2, "location": {"lat": 35.625364816257864, "lng": 111.37839658489034}, "feature": {"sight_features": "", "sight_content": ""}}, {"title": "金代砖墓", "address": "山西省侯马市牛村南 043017", "image": "", "rank": 8, "time": 2, "location": {"lat": 35.62640839435259, "lng": 111.33612573127034}, "feature": {"sight_features": "", "sight_content": ""}}, {"title": "佛光普照", "address": "山西省临汾市侯马市东风路142号", "image": "", "rank": 9, "time": 2, "location": {"lat": 35.617937874136295, "lng": 111.36956172414884}, "feature": {"sight_features": "", "sight_content": ""}}, {"title": "庙寝公园", "address": "侯马市总工会附近", "image": "", "rank": 10, "time": 2, "location": {"lat": 35.62887153815527, "lng": 111.3787697293212}, "feature": {"sight_features": "", "sight_content": ""}}, {"title": "气味博物馆", "address": "山西省临汾市侯马市紫金山街117号", "image": "", "rank": 11, "time": 2, "location": {"lat": 35.62593790105636, "lng": 111.37426076386477}, "feature": {"sight_features": "", "sight_content": ""}}, {"title": "宝峰院", "address": "临汾市侯马市", "image": "", "rank": 12, "time": 2, "location": {"lat": 35.625364816257864, "lng": 111.37839658489034}, "feature": {"sight_features": "", "sight_content": ""}}, {"title": "虒祁遗址", "address": "望高路附近", "image": "", "rank": 13, "time": 2, "location": {"lat": 35.60758190240306, "lng": 111.34265849639668}, "feature": {"sight_features": "", "sight_content": ""}}, {"title": "侯马市群众艺术馆", "address": "山西省侯马市市府路33号", "image": "", "rank": 14, "time": 1.5, "location": {"lat": 35.626176899489444, "lng": 111.38289499974857}, "feature": {"sight_features": "", "sight_content": ""}}, {"title": "梦幻淘气堡", "address": "路西小学西100米", "image": "", "rank": 15, "time": 2, "location": {"lat": 35.615878644430566, "lng": 111.35540760392325}, "feature": {"sight_features": "", "sight_content": ""}}, {"title": "文昌园", "address": "文明路", "image": "", "rank": 16, "time": 2, "location": {"lat": 40.08510519375547, "lng": 116.58114488673985}, "feature": {"sight_features": "", "sight_content": ""}}, {"title": "宝鼎公园", "address": "新田东路", "image": "", "rank": 17, "time": 2, "location": {"lat": 23.00692314351543, "lng": 113.67609126276189}, "feature": {"sight_features": "", "sight_content": ""}}, {"title": "瑞恩儿童乐园", "address": "山西省临汾市侯马市体育街", "image": "", "rank": 18, "time": 2, "location": {"lat": 35.62279522767279, "lng": 111.37172935151392}, "feature": {"sight_features": "", "sight_content": ""}}, {"title": "侯马市程王公园", "address": "体育街西巷51号", "image": "", "rank": 19, "time": 2, "location": {"lat": 35.62679939537947, "lng": 111.37141675107782}, "feature": {"sight_features": "", "sight_content": ""}}, {"title": "车站广场", "address": "临汾市侯马市新田路1号", "image": "", "rank": 20, "time": 2, "location": {"lat": 35.62082957403125, "lng": 111.3706774456431}, "feature": {"sight_features": "", "sight_content": ""}}, {"title": "凯乐园休闲广场", "address": "浍滨街7号", "image": "", "rank": 21, "time": 2, "location": {"lat": 35.62675035277104, "lng": 111.38517442482758}, "feature": {"sight_features": "", "sight_content": ""}}, {"title": "温泉城市花苑(B区店)", "address": "北环路382号", "image": "", "rank": 22, "time": 2, "location": {"lat": 39.1412902302147, "lng": 116.0508751675558}, "feature": {"sight_features": "", "sight_content": ""}}, {"title": "温泉城市花苑(D区店)", "address": "浍滨街318号", "image": "", "rank": 23, "time": 2, "location": {"lat": 35.64068088497854, "lng": 111.38538613118205}, "feature": {"sight_features": "", "sight_content": ""}}, {"title": "奥兰多水上乐园", "address": "晋都东路新港批发市场对面", "image": "", "rank": 24, "time": 2, "location": {"lat": 37.45538630536326, "lng": 116.29127900542392}, "feature": {"sight_features": "", "sight_content": ""}}, {"title": "拓森户外拓展", "address": "程王路都市阳光苑内物业管理楼101室", "image": "", "rank": 25, "time": 2, "location": {"lat": 35.626781957833416, "lng": 111.38898315395257}, "feature": {"sight_features": "", "sight_content": ""}}, {"title": "天然居农庄", "address": "南西庄温泉养鱼池旁边", "image": "", "rank": 26, "time": 2, "location": {"lat": 44.97485663870472, "lng": 81.03114554648644}, "feature": {"sight_features": "", "sight_content": ""}}, {"title": "金博源画廊", "address": "市府路1号", "image": "", "rank": 27, "time": 2, "location": {"lat": 38.039245989305776, "lng": 115.05506800871149}, "feature": {"sight_features": "", "sight_content": ""}}, {"title": "美国卡麦隆鳄鱼", "address": "东风路14号附近", "image": "", "rank": 28, "time": 2, "location": {"lat": 40.682034566872815, "lng": 122.27268379278243}, "feature": {"sight_features": "", "sight_content": ""}}, {"title": "侯马晋国遗址", "address": "山西省侯马市侯马市西北部", "image": "", "rank": 29, "time": 2, "location": {"lat": 35.625364816257864, "lng": 111.37839658489034}, "feature": {"sight_features": "", "sight_content": ""}}, {"title": "晋都文化风情街", "address": "山西省侯马市晋都文化风情街", "image": "", "rank": 30, "time": 2, "location": {"lat": 35.625364816257864, "lng": 111.37839658489034}, "feature": {"sight_features": "", "sight_content": ""}}, {"title": "开发区步行街", "address": "山西省侯马市步行街", "image": "", "rank": 31, "time": 2, "location": {"lat": 35.625364816257864, "lng": 111.37839658489034}, "feature": {"sight_features": "", "sight_content": ""}}, {"title": "侯马西站站前广场", "address": "临汾市-侯马市-108国道西100米", "image": "", "rank": 32, "time": 2, "location": {"lat": 35.60634287477429, "lng": 111.30146480271031}, "feature": {"sight_features": "", "sight_content": ""}}]}