{"cityName": "新竹", "days": "2", "cityImage": "", "spots": [{"title": "六福村主题乐园", "address": "新竹县关西镇仁安里拱子沟60号", "image": "", "rank": 1, "time": 3.5, "location": {"lat": 37.180292790402305, "lng": 112.50060766362151}, "feature": {"sight_features": "特色1 欣赏异国风格的剧场秀，体验台湾最具规模的开放式野生动物园 特色2 挑战极限必玩：笑傲飞鹰、大峡谷急流泛舟、风火轮、大怒神 特色3 无限次进出，无忧畅玩各大景点，夏季更有六福水乐园，让你一票畅玩到底", "sight_content": "接送车的实拍图如下："}}, {"title": "内湾小镇", "address": "台湾新竹县横山乡光复路", "image": "", "rank": 2, "time": 1.0, "location": {"lat": 24.708846190470123, "lng": 121.15725182684497}, "feature": {"sight_features": "", "sight_content": ""}}, {"title": "小叮当科学游乐区", "address": "新竹县新丰乡康和路199号", "image": "", "rank": 3, "time": 1.0, "location": {"lat": 38.86277047609931, "lng": 115.53408687071958}, "feature": {"sight_features": "特色1 集娱乐，科学馆，住宿为主题的科学主题乐园", "sight_content": "景点介绍：\n在1990年1月开始营运，是一座以科学教育为主题的户外游乐园区，位于台湾新竹县松柏岭上。园区最早期取名为新丰育乐大观园，后来更名为小叮当科学主题乐园，使其名号更为响亮，也一直沿用至今。\n小叮当科学主题乐园，一直坚持以科学主题为设计方向，提供给国人另一种渡假知的享受，并成为国民教育自然科学之唯一户外实验教室。游乐区内除了有游乐设施的游乐园区外，还有原野景观为主的露营烤肉区、攀岩吊索区以及彩弹山训场，同时也在园区内设有「生活大师会馆」以提供旅馆住宿与餐饮服务。连续19年荣获交通部观光局评鉴为「特优等」之风景游乐区。\n小叮当的身世传奇\n\n数亿年后的现在， 谷仲彦 博士（考古科学家）在一次偶然的机会，在南极柯林斯冰帽下，发现了超古代文明遗址，从超古代遗留下来的情报传递装置 － 记忆水晶板中得知：超古代人类在遭受毁灭之前，就已经制造出具有人类最强大力量的机器人 － 小叮当 ，并将能驱动小叮当力量的超古代遗传因子分别遗传在 小叮妮 、天线宝宝及太阳王的身上。\n公元1980年的元旦，隶属联合国的外层空间信息接收站，收到从冥王星地球国际特遣战队传来的信息，他们正遭受来自 「夸奥瓦」 (Quaoar) 新一代宇宙联盟外星人的攻击，根据情报显示，新一代宇宙联盟外星人最后的攻击目标仍是 － 地球。\n地球危机再度降临，随着一个比一个更强大的宇宙侵略者的逼近，代表土族、水族、风族、火族的无敌机器人－小叮当 （土族） 、 小叮妮 （水族） 、 天线宝宝 （风族） 及 太阳王 （火族） 陆续被正式启动了！联合国国际军事联盟主席汉尼拔二世上将，在接到冥王星地球国际特遣战队传来的情报之后，搭机亲访谷仲彦博士，敦促谷博士派遣小叮当、小叮妮 、天线宝宝及太阳王支持作战，保卫地球全人类的生命安全及文明之繁衍。\n1980年元旦，小叮当正式诞生；2月14日，小叮妮从小叮当的DNA中诞生；3月29日，天线宝宝从小叮当的 DNA 中诞生；6月16日，太阳王从小叮当的DNA中诞生。\n他们诞生之后，跟谷仲彦博士住在新竹县新丰乡上坑村坑子口的松柏岭，也就是小叮当科学主题乐园的 ET 屋 （ ET 屋是他们的住所也是交通工具） ， ET 屋是他们的基地；实验室在福尔摩斯光学屋及爱因斯坦实验室；外星通信基地在马克斯威尔通话器及泰山吼的位置；电力系统使用阿波罗花圃的太阳能；汲水设施位于洛神海；风族、火族、水族、土族的战士训练基地在彩弹战场、山训攀岩场、高塔垂降场，野营野炊位于露营区，住宿区位于生活大师会馆，目前四族战士约 20 万人正在松柏岭小叮当基地从事超严格的战训演练中。"}}, {"title": "世博台湾馆", "address": "新竹市东区公道五路三段6号", "image": "", "rank": 4, "time": 2, "location": {"lat": 30.827987624082812, "lng": 111.79979567462287}, "feature": {"sight_features": "", "sight_content": ""}}, {"title": "大霸尖山", "address": "新竹县尖石乡与苗栗县泰安乡间", "image": "", "rank": 5, "time": 1.0, "location": {"lat": 36.2058580448846, "lng": 117.0944948347959}, "feature": {"sight_features": "", "sight_content": ""}}, {"title": "合兴火车站", "address": "新竹县横山乡新兴村十邻新兴街110号", "image": "", "rank": 6, "time": 1.0, "location": {"lat": 42.91488322641296, "lng": 129.5153719438914}, "feature": {"sight_features": "", "sight_content": ""}}, {"title": "新埔小镇", "address": "新竹县新埔镇中正路776号", "image": "", "rank": 7, "time": 1.0, "location": {"lat": 30.28944351656368, "lng": 104.12896961084563}, "feature": {"sight_features": "", "sight_content": ""}}, {"title": "雪霸休闲农场", "address": "台湾新竹县五峰鄉桃山村民石380号", "image": "", "rank": 8, "time": 1.0, "location": {"lat": 24.086956718804895, "lng": 121.97387097871568}, "feature": {"sight_features": "", "sight_content": ""}}, {"title": "湖口老街", "address": "台湾新竹县湖口乡老湖口的湖口老街", "image": "", "rank": 9, "time": 1.0, "location": {"lat": 24.899619904001533, "lng": 121.06509101119826}, "feature": {"sight_features": "", "sight_content": ""}}, {"title": "司马库斯部落", "address": "台湾新竹县尖石乡", "image": "", "rank": 10, "time": 1.0, "location": {"lat": 24.599728595600084, "lng": 121.30588801574922}, "feature": {"sight_features": "", "sight_content": ""}}, {"title": "枋寮褒忠亭义民庙", "address": "新竹县新埔镇义民路三段360号", "image": "", "rank": 11, "time": 1.0, "location": {"lat": 32.101072035786345, "lng": 118.76591575311751}, "feature": {"sight_features": "", "sight_content": ""}}, {"title": "玻璃工艺博物馆", "address": "台湾新竹市東區东大路一段2号", "image": "", "rank": 12, "time": 2, "location": {"lat": 24.086956718804895, "lng": 121.97387097871568}, "feature": {"sight_features": "", "sight_content": ""}}, {"title": "北埔小镇", "address": "新竹北埔乡外坪村大坪溪", "image": "", "rank": 13, "time": 1.0, "location": {"lat": 24.676311563235892, "lng": 121.0719700380625}, "feature": {"sight_features": "", "sight_content": ""}}, {"title": "新竹都城隍廟", "address": "新竹市中山路75号", "image": "", "rank": 14, "time": 1.5, "location": {"lat": 45.736573100256635, "lng": 126.6803811879037}, "feature": {"sight_features": "", "sight_content": ""}}, {"title": "台湾交通大学", "address": "新竹市东区大学路1001号", "image": "", "rank": 15, "time": 2, "location": {"lat": 30.263227671316155, "lng": 119.72840501212228}, "feature": {"sight_features": "", "sight_content": ""}}, {"title": "眷村博物馆", "address": "新竹市东大路二段105号", "image": "", "rank": 16, "time": 2, "location": {"lat": 31.911143617747186, "lng": 120.22032955900228}, "feature": {"sight_features": "", "sight_content": ""}}, {"title": "清泉风景特定区", "address": "清泉风景特定区", "image": "", "rank": 17, "time": 1.0, "location": {"lat": 35.80397608728065, "lng": 112.93269591609196}, "feature": {"sight_features": "", "sight_content": ""}}, {"title": "新竹市表演艺术中心", "address": "新竹市东大路二段17号", "image": "", "rank": 18, "time": 2.0, "location": {"lat": 31.911143617747186, "lng": 120.22032955900228}, "feature": {"sight_features": "", "sight_content": ""}}, {"title": "黑蝙蝠中队文物陈列馆", "address": "新竹市东大路二段16号", "image": "", "rank": 19, "time": 2, "location": {"lat": 31.911143617747186, "lng": 120.22032955900228}, "feature": {"sight_features": "", "sight_content": ""}}, {"title": "南寮渔港", "address": "新竹市西北郊海滨", "image": "", "rank": 20, "time": 1.5, "location": {"lat": 30.827987624082812, "lng": 111.79979567462287}, "feature": {"sight_features": "", "sight_content": ""}}, {"title": "影像博物馆", "address": "新竹市东区中正路65号", "image": "", "rank": 21, "time": 2.0, "location": {"lat": 30.827987624082812, "lng": 111.79979567462287}, "feature": {"sight_features": "", "sight_content": ""}}, {"title": "十八尖山", "address": "新竹市东区宝山路", "image": "", "rank": 22, "time": 2.0, "location": {"lat": 30.827987624082812, "lng": 111.79979567462287}, "feature": {"sight_features": "", "sight_content": ""}}, {"title": "Qing Cao Lake", "address": "新竹市Ln. 70, Minghu Rd.,", "image": "", "rank": 23, "time": 2, "location": {"lat": 30.827987624082812, "lng": 111.79979567462287}, "feature": {"sight_features": "", "sight_content": ""}}, {"title": "天宏宫", "address": "新竹市建功一路31号", "image": "", "rank": 24, "time": 2, "location": {"lat": 30.827987624082812, "lng": 111.79979567462287}, "feature": {"sight_features": "", "sight_content": ""}}, {"title": "竖琴桥", "address": "台湾新竹市香山区西滨公路", "image": "", "rank": 25, "time": 2, "location": {"lat": 24.772117525864843, "lng": 120.93705174863044}, "feature": {"sight_features": "", "sight_content": ""}}, {"title": "狮头山风景区", "address": "峨眉乡七星村六寮60-8号", "image": "", "rank": 26, "time": 2, "location": {"lat": 21.720481389197918, "lng": 111.51347413090758}, "feature": {"sight_features": "", "sight_content": ""}}, {"title": "Hsinchu City Fire Museum", "address": "新竹市东区中山路4号", "image": "", "rank": 27, "time": 2, "location": {"lat": 30.827987624082812, "lng": 111.79979567462287}, "feature": {"sight_features": "", "sight_content": ""}}, {"title": "新竹孔子庙", "address": "新竹市东山街和食品路", "image": "", "rank": 28, "time": 2.0, "location": {"lat": 30.827987624082812, "lng": 111.79979567462287}, "feature": {"sight_features": "", "sight_content": ""}}, {"title": "张学良故居", "address": "新竹县五峰乡清泉部落", "image": "", "rank": 29, "time": 1.5, "location": {"lat": 30.827987624082812, "lng": 111.79979567462287}, "feature": {"sight_features": "", "sight_content": ""}}, {"title": "Military Villages Museum", "address": "新竹市No. 105, Sec. 2, Dongda Rd., East Dist", "image": "", "rank": 30, "time": 2, "location": {"lat": 30.827987624082812, "lng": 111.79979567462287}, "feature": {"sight_features": "", "sight_content": ""}}, {"title": "台湾清华大学", "address": "台湾新竹市东区光复路二段101号", "image": "", "rank": 31, "time": 2, "location": {"lat": 24.086956718804895, "lng": 121.97387097871568}, "feature": {"sight_features": "", "sight_content": ""}}, {"title": "新竹市美术馆暨开拓馆", "address": "新竹市东区中央路116号", "image": "", "rank": 32, "time": 2.0, "location": {"lat": 50.59333298236479, "lng": 123.73419091558186}, "feature": {"sight_features": "", "sight_content": ""}}, {"title": "明新科技大学", "address": "新竹县新丰乡", "image": "", "rank": 33, "time": 2, "location": {"lat": 30.827987624082812, "lng": 111.79979567462287}, "feature": {"sight_features": "", "sight_content": ""}}, {"title": "三毛梦屋", "address": "新竹县五峰乡桃山村清泉262号", "image": "", "rank": 34, "time": 2, "location": {"lat": 35.80397608728065, "lng": 112.93269591609196}, "feature": {"sight_features": "", "sight_content": ""}}, {"title": "峨眉湖", "address": "峨眉鄉湖光村", "image": "", "rank": 35, "time": 2, "location": {"lat": 31.523230954373638, "lng": 120.5391921861292}, "feature": {"sight_features": "", "sight_content": ""}}, {"title": "万瑞森林游乐区", "address": "横山乡横山村23邻23号", "image": "", "rank": 36, "time": 2, "location": {"lat": 32.65354141192407, "lng": 117.99161262499129}, "feature": {"sight_features": "", "sight_content": ""}}, {"title": "湖畔料亭", "address": "新竹市竹东区公园路", "image": "", "rank": 37, "time": 2, "location": {"lat": 21.495254697402157, "lng": 109.14736384835197}, "feature": {"sight_features": "", "sight_content": ""}}, {"title": "南园", "address": "新竹县新埔镇九芎湖32号", "image": "", "rank": 38, "time": 1.5, "location": {"lat": 24.840203158826558, "lng": 121.08815853280507}, "feature": {"sight_features": "", "sight_content": ""}}, {"title": "Hsinchu Jingsin Lake", "address": "新竹市Zhucun 7th Rd., East Dist.", "image": "", "rank": 39, "time": 2, "location": {"lat": 30.827987624082812, "lng": 111.79979567462287}, "feature": {"sight_features": "", "sight_content": ""}}, {"title": "Guo's Recreation Farm", "address": "新竹市No. 102-1, Nangang St.", "image": "", "rank": 40, "time": 2, "location": {"lat": 30.827987624082812, "lng": 111.79979567462287}, "feature": {"sight_features": "", "sight_content": ""}}, {"title": "霞喀罗古道", "address": "新竹县五峰乡", "image": "", "rank": 41, "time": 2, "location": {"lat": 30.827987624082812, "lng": 111.79979567462287}, "feature": {"sight_features": "", "sight_content": ""}}, {"title": "青草湖", "address": "新竹市明湖路775巷", "image": "", "rank": 42, "time": 1.0, "location": {"lat": 39.95766053861838, "lng": 116.34877180491054}, "feature": {"sight_features": "", "sight_content": ""}}, {"title": "红毛港红树林游乐区", "address": "新竹县新丰乡", "image": "", "rank": 43, "time": 2, "location": {"lat": 30.827987624082812, "lng": 111.79979567462287}, "feature": {"sight_features": "", "sight_content": ""}}, {"title": "观雾森林游乐区", "address": "五峰乡与苗栗县泰安乡交界处", "image": "", "rank": 44, "time": 2, "location": {"lat": 24.587435885632388, "lng": 121.14974742214253}, "feature": {"sight_features": "", "sight_content": ""}}, {"title": "Harp Bridge", "address": "新竹市Changxing St., Xiangshan Dist", "image": "", "rank": 45, "time": 2, "location": {"lat": 30.827987624082812, "lng": 111.79979567462287}, "feature": {"sight_features": "", "sight_content": ""}}, {"title": "锦屏温泉区", "address": "新竹县尖石乡锦屏村", "image": "", "rank": 46, "time": 3.5, "location": {"lat": 30.827987624082812, "lng": 111.79979567462287}, "feature": {"sight_features": "", "sight_content": ""}}, {"title": "镇西堡神木群", "address": "新竹县尖石乡", "image": "", "rank": 47, "time": 2, "location": {"lat": 30.827987624082812, "lng": 111.79979567462287}, "feature": {"sight_features": "", "sight_content": ""}}, {"title": "Beida Church", "address": "新竹市Beida Rd", "image": "", "rank": 48, "time": 2, "location": {"lat": 30.827987624082812, "lng": 111.79979567462287}, "feature": {"sight_features": "", "sight_content": ""}}, {"title": "尖石岩", "address": "新竹县尖石乡", "image": "", "rank": 49, "time": 2, "location": {"lat": 30.827987624082812, "lng": 111.79979567462287}, "feature": {"sight_features": "", "sight_content": ""}}, {"title": "清泉天主堂", "address": "新竹县五峰乡桃山村10邻184号。", "image": "", "rank": 50, "time": 2, "location": {"lat": 30.551541755498434, "lng": 114.35611785400098}, "feature": {"sight_features": "", "sight_content": ""}}, {"title": "内湾林业展示馆", "address": "新竹县横山乡内湾村大同路11号", "image": "", "rank": 51, "time": 2, "location": {"lat": 34.704301387773455, "lng": 116.59720033256038}, "feature": {"sight_features": "", "sight_content": ""}}, {"title": "北埔老街", "address": "北埔乡北埔街", "image": "", "rank": 52, "time": 2, "location": {"lat": 24.676311563235892, "lng": 121.0719700380625}, "feature": {"sight_features": "", "sight_content": ""}}, {"title": "玄奘大学", "address": "台湾新竹市香山区玄奘路48号", "image": "", "rank": 53, "time": 2, "location": {"lat": 24.772117525864843, "lng": 120.93705174863044}, "feature": {"sight_features": "", "sight_content": ""}}, {"title": "東門之心", "address": "台湾新竹市东门街", "image": "", "rank": 54, "time": 2, "location": {"lat": 24.086956718804895, "lng": 121.97387097871568}, "feature": {"sight_features": "", "sight_content": ""}}, {"title": "香山湿地", "address": "新竹市香山区西滨公路", "image": "", "rank": 55, "time": 2, "location": {"lat": 31.62182580547284, "lng": 120.34498143550044}, "feature": {"sight_features": "", "sight_content": ""}}, {"title": "绿世界生态农场", "address": "台湾新竹县北埔乡大湖村7邻20号", "image": "", "rank": 56, "time": 2, "location": {"lat": 24.676311563235892, "lng": 121.0719700380625}, "feature": {"sight_features": "", "sight_content": ""}}, {"title": "宝山水库", "address": "宝山乡山湖村新湖路", "image": "", "rank": 57, "time": 1.5, "location": {"lat": 42.895811136799395, "lng": 126.05820570424895}, "feature": {"sight_features": "", "sight_content": ""}}, {"title": "古奇峰育乐园", "address": "台湾新竹市高峰路306巷66号", "image": "", "rank": 58, "time": 2, "location": {"lat": 24.086956718804895, "lng": 121.97387097871568}, "feature": {"sight_features": "", "sight_content": ""}}, {"title": "新埔成功老街", "address": "新埔镇中正路成功街", "image": "", "rank": 59, "time": 2, "location": {"lat": 24.840203158826558, "lng": 121.08815853280507}, "feature": {"sight_features": "", "sight_content": ""}}, {"title": "清泉部落", "address": "新竹县五峰乡清泉部落", "image": "", "rank": 60, "time": 2, "location": {"lat": 30.827987624082812, "lng": 111.79979567462287}, "feature": {"sight_features": "", "sight_content": ""}}]}