{"cityName": "新竹县", "days": "2", "cityImage": "", "spots": [{"title": "北埔冷泉", "address": "新竹县北埔乡大坪路", "image": "", "rank": 1, "time": 2, "location": {"lat": 30.827987624082812, "lng": 111.79979567462287}, "feature": {"sight_features": "", "sight_content": ""}}, {"title": "关西仙草博物馆生态农场", "address": "新竹县关西镇中丰路二段326号", "image": "", "rank": 2, "time": 2, "location": {"lat": 30.789044483123146, "lng": 121.1369191946015}, "feature": {"sight_features": "", "sight_content": ""}}, {"title": "關西太和宮", "address": "大同路30號 關西鎮, 新竹縣 306 Taiwan", "image": "", "rank": 3, "time": 2, "location": {"lat": 36.58335476732201, "lng": 114.22686594003714}, "feature": {"sight_features": "", "sight_content": ""}}, {"title": "竹北六张犁大夫第", "address": "新竹县竹北市东平里3邻20号 302", "image": "", "rank": 4, "time": 2, "location": {"lat": 22.63096424809761, "lng": 110.17157881369522}, "feature": {"sight_features": "", "sight_content": ""}}, {"title": "六福水乐园(Leofoo Wat)", "address": "新竹县关西镇仁安里拱子沟60号", "image": "", "rank": 5, "time": 2, "location": {"lat": 37.180292790402305, "lng": 112.50060766362151}, "feature": {"sight_features": "", "sight_content": ""}}, {"title": "清泉温泉将军汤", "address": "新竹县五峰乡张学良故居旧址旁", "image": "", "rank": 6, "time": 2, "location": {"lat": 41.801062930963994, "lng": 123.46464528414164}, "feature": {"sight_features": "", "sight_content": ""}}, {"title": "三元宫", "address": "新竹县湖口乡湖镜村湖口老街248号", "image": "", "rank": 7, "time": 1.5, "location": {"lat": 29.737131514561977, "lng": 116.25847134558812}, "feature": {"sight_features": "", "sight_content": ""}}, {"title": "天然谷温泉", "address": "新竹县尖石乡新竹县尖石乡锦屏村天然谷25号", "image": "", "rank": 8, "time": 2, "location": {"lat": 30.827987624082812, "lng": 111.79979567462287}, "feature": {"sight_features": "", "sight_content": ""}}, {"title": "Shuei Lian Bridge Trail", "address": "新竹县Emei Township", "image": "", "rank": 9, "time": 2, "location": {"lat": 30.827987624082812, "lng": 111.79979567462287}, "feature": {"sight_features": "", "sight_content": ""}}, {"title": "老湖口天主堂文化館", "address": "新竹县湖口鄉湖口老街108", "image": "", "rank": 10, "time": 2, "location": {"lat": 29.737131514561977, "lng": 116.25847134558812}, "feature": {"sight_features": "", "sight_content": ""}}, {"title": "Fei Fong Yuan Farm", "address": "新竹市No. 80-1, Xuagengkeng, Guanxi Township", "image": "", "rank": 11, "time": 2, "location": {"lat": 30.827987624082812, "lng": 111.79979567462287}, "feature": {"sight_features": "", "sight_content": ""}}, {"title": "關西服務區", "address": "關西鎮東安里上三屯14號", "image": "", "rank": 12, "time": 2, "location": {"lat": 42.83778171327745, "lng": 126.87322027883324}, "feature": {"sight_features": "", "sight_content": ""}}, {"title": "狮头山游客中心", "address": "新竹市峨眉乡七星村六寮60-8号", "image": "", "rank": 13, "time": 2, "location": {"lat": 21.720481389197918, "lng": 111.51347413090758}, "feature": {"sight_features": "", "sight_content": ""}}, {"title": "微e美科技美容SPA", "address": "竹北市自强南路37号1楼 302", "image": "", "rank": 14, "time": 2, "location": {"lat": 35.28843269322568, "lng": 113.93955155987817}, "feature": {"sight_features": "", "sight_content": ""}}, {"title": "Cable-Stayed Bridge", "address": "新竹县Zhubei City", "image": "", "rank": 16, "time": 2, "location": {"lat": 30.827987624082812, "lng": 111.79979567462287}, "feature": {"sight_features": "", "sight_content": ""}}, {"title": "Wun Jhao Long Stereo Museum", "address": "新竹县No. 320, Sec. 1, Sanfeng Rd., Baoshan Township", "image": "", "rank": 17, "time": 2, "location": {"lat": 30.827987624082812, "lng": 111.79979567462287}, "feature": {"sight_features": "", "sight_content": ""}}, {"title": "12 Liao Bikeway", "address": "新竹县Emei Township", "image": "", "rank": 18, "time": 2, "location": {"lat": 30.827987624082812, "lng": 111.79979567462287}, "feature": {"sight_features": "", "sight_content": ""}}, {"title": "Renhan Trail", "address": "新竹县No. 278, Hukoulao St., Hukou Township", "image": "", "rank": 19, "time": 2, "location": {"lat": 30.827987624082812, "lng": 111.79979567462287}, "feature": {"sight_features": "", "sight_content": ""}}, {"title": "Huashan Farm", "address": "新竹县No. 32, Xinfu, Guanxi Township", "image": "", "rank": 20, "time": 2, "location": {"lat": 30.827987624082812, "lng": 111.79979567462287}, "feature": {"sight_features": "", "sight_content": ""}}, {"title": "Black Mushroom Farm", "address": "新竹县No. 187, Hualong Vil., Qionglin Township", "image": "", "rank": 21, "time": 2, "location": {"lat": 30.827987624082812, "lng": 111.79979567462287}, "feature": {"sight_features": "", "sight_content": ""}}, {"title": "金廣福公館", "address": "新竹县北埔村中正路1號及6號", "image": "", "rank": 22, "time": 2, "location": {"lat": 30.827987624082812, "lng": 111.79979567462287}, "feature": {"sight_features": "", "sight_content": ""}}, {"title": "姜氏家庙", "address": "新竹县北埔乡南兴街15巷1号", "image": "", "rank": 23, "time": 2, "location": {"lat": 22.495245605353, "lng": 112.86599561358722}, "feature": {"sight_features": "", "sight_content": ""}}, {"title": "武功堂", "address": "新竹县竹东镇", "image": "", "rank": 24, "time": 2, "location": {"lat": 30.827987624082812, "lng": 111.79979567462287}, "feature": {"sight_features": "", "sight_content": ""}}, {"title": "极光滑雪学校", "address": "新竹县新丰乡康和路199号 304", "image": "", "rank": 25, "time": 2, "location": {"lat": 38.86277047609931, "lng": 115.53408687071958}, "feature": {"sight_features": "", "sight_content": ""}}, {"title": "豆腐岩", "address": "新竹县头前溪兴隆路一段 302", "image": "", "rank": 26, "time": 2, "location": {"lat": 39.77411025981237, "lng": 116.40881336931557}, "feature": {"sight_features": "", "sight_content": ""}}, {"title": "Neiai Stone Bridge", "address": "新竹县Dapindaoru, Beipu Township", "image": "", "rank": 27, "time": 2, "location": {"lat": 30.827987624082812, "lng": 111.79979567462287}, "feature": {"sight_features": "", "sight_content": ""}}, {"title": "Xiuluan Bridge", "address": "新竹县Xiuluan Highway, Jianshi Township", "image": "", "rank": 28, "time": 2, "location": {"lat": 30.827987624082812, "lng": 111.79979567462287}, "feature": {"sight_features": "", "sight_content": ""}}, {"title": "Mei Hua Yue Ling", "address": "新竹县Meihua Vil., Jianshi Township", "image": "", "rank": 29, "time": 2, "location": {"lat": 30.827987624082812, "lng": 111.79979567462287}, "feature": {"sight_features": "", "sight_content": ""}}, {"title": "Natural Hot Spring", "address": "新竹县No. 25, Tianrangu, Jinping Vil., Jianshi Township", "image": "", "rank": 30, "time": 2, "location": {"lat": 30.827987624082812, "lng": 111.79979567462287}, "feature": {"sight_features": "", "sight_content": ""}}, {"title": "Guansi Bat Cave", "address": "新竹县Luoquwodaoru, Guanxi Township", "image": "", "rank": 31, "time": 2, "location": {"lat": 30.827987624082812, "lng": 111.79979567462287}, "feature": {"sight_features": "", "sight_content": ""}}, {"title": "Yasen Tourist Farm", "address": "新竹县No. 739, Shigangzi, Guanxi Township", "image": "", "rank": 32, "time": 2, "location": {"lat": 30.827987624082812, "lng": 111.79979567462287}, "feature": {"sight_features": "", "sight_content": ""}}, {"title": "Wufong Hanping Tribe Recreatio...", "address": "新竹县Daai Vil., Da-ai Vil., Wufeng Township", "image": "", "rank": 33, "time": 2, "location": {"lat": 30.827987624082812, "lng": 111.79979567462287}, "feature": {"sight_features": "", "sight_content": ""}}, {"title": "忠恕堂", "address": "新竹县北埔乡公园街20号", "image": "", "rank": 34, "time": 2, "location": {"lat": 36.784029796052366, "lng": 121.16275478356016}, "feature": {"sight_features": "", "sight_content": ""}}, {"title": "Bow Reservoir (寶二水庫)", "address": "Baoshan Road Section 1, Sioulin Township, Taiwan", "image": "", "rank": 35, "time": 2, "location": {"lat": 43.67232003518706, "lng": 91.48324330438071}, "feature": {"sight_features": "", "sight_content": ""}}, {"title": "邓南光摄影纪念馆", "address": "新竹县北埔乡公园街15号", "image": "", "rank": 36, "time": 2, "location": {"lat": 45.78370773188678, "lng": 126.63314244969449}, "feature": {"sight_features": "", "sight_content": ""}}, {"title": "老牌消防队粄条", "address": "新竹县新埔镇广和路3号", "image": "", "rank": 37, "time": 2, "location": {"lat": 22.644970028928515, "lng": 113.24181075153274}, "feature": {"sight_features": "", "sight_content": ""}}, {"title": "中国科技大学新竹校区", "address": "新竹县湖口乡中山路三段530号", "image": "", "rank": 38, "time": 2, "location": {"lat": 38.66222906049726, "lng": 114.96165161435523}, "feature": {"sight_features": "", "sight_content": ""}}, {"title": "宇老观景台", "address": "新竹县尖石乡玉峰村1邻1号", "image": "", "rank": 39, "time": 2, "location": {"lat": 28.12056929053231, "lng": 121.22017438186417}, "feature": {"sight_features": "", "sight_content": ""}}, {"title": "天后宮", "address": "竹北市, 新竹縣 302 Taiwan", "image": "", "rank": 46, "time": 1.5, "location": {"lat": 24.83626057572865, "lng": 121.00443987376202}, "feature": {"sight_features": "", "sight_content": ""}}, {"title": "心鮮森林莊園", "address": "新鳳村倒別牛23號 芎林鄉, 新竹縣 307 Taiwan", "image": "", "rank": 47, "time": 2, "location": {"lat": 30.827987624082812, "lng": 111.79979567462287}, "feature": {"sight_features": "", "sight_content": ""}}, {"title": "沙湖壢藝術村", "address": "山湖路63號 寶山鄉, 新竹縣 308 Taiwan", "image": "", "rank": 48, "time": 2, "location": {"lat": 31.64699673296857, "lng": 120.73280359540641}, "feature": {"sight_features": "", "sight_content": ""}}, {"title": "城隍廟", "address": "竹東鎮, 新竹縣 310 Taiwan", "image": "", "rank": 49, "time": 2.25, "location": {"lat": 30.827987624082812, "lng": 111.79979567462287}, "feature": {"sight_features": "", "sight_content": ""}}, {"title": "张学良文化园区", "address": "新竹县五峰乡桃山村清泉部落", "image": "", "rank": 50, "time": null, "location": {"lat": 30.827987624082812, "lng": 111.79979567462287}, "feature": {"sight_features": "", "sight_content": ""}}, {"title": "幻多奇另类博物馆", "address": "新竹县横山乡内湾中正路(老街内)", "image": "", "rank": 51, "time": 2.0, "location": {"lat": 30.827987624082812, "lng": 111.79979567462287}, "feature": {"sight_features": "", "sight_content": ""}}, {"title": "味卫佳柿饼观光农场", "address": "新埔镇旱坑里11邻旱坑路一段283巷53号", "image": "", "rank": 52, "time": 2, "location": {"lat": 23.008323342159358, "lng": 114.02665838081488}, "feature": {"sight_features": "", "sight_content": ""}}, {"title": "天德堂", "address": "新丰乡坑子口段642号", "image": "", "rank": 53, "time": 2, "location": {"lat": 31.494485404373343, "lng": 118.70213682457046}, "feature": {"sight_features": "", "sight_content": ""}}, {"title": "新月沙滩", "address": "竹北市竹北市凤冈路五段", "image": "", "rank": 54, "time": 2, "location": {"lat": 24.83626057572865, "lng": 121.00443987376202}, "feature": {"sight_features": "", "sight_content": ""}}, {"title": "Lotus Park", "address": "竹北市Lianhua Rd., Zhubei City", "image": "", "rank": 55, "time": 2, "location": {"lat": 24.83626057572865, "lng": 121.00443987376202}, "feature": {"sight_features": "", "sight_content": ""}}]}