{"cityName": "滑县", "days": 2, "cityImage": "", "spots": [{"title": "图书馆", "address": "解放路与红旗路交叉口南", "image": "", "rank": 1, "time": 1.0, "location": {"lat": 29.92460962710348, "lng": 120.3330935229164}, "feature": {"sight_features": "", "sight_content": ""}}, {"title": "革命历史纪念馆", "address": "老史路", "image": "", "rank": 2, "time": 2, "location": {"lat": 35.475720066736834, "lng": 114.71001050096433}, "feature": {"sight_features": "", "sight_content": ""}}, {"title": "康庄生态柴鸡园", "address": "康庄村职教中心向南200米路西", "image": "", "rank": 3, "time": 2, "location": {"lat": 38.011061216675174, "lng": 114.64221484424468}, "feature": {"sight_features": "", "sight_content": ""}}, {"title": "关帝庙村", "address": "安阳市滑县", "image": "", "rank": 4, "time": 1.5, "location": {"lat": 35.58104540055751, "lng": 114.52555316618987}, "feature": {"sight_features": "", "sight_content": ""}}, {"title": "古镇民俗展馆", "address": "河南省安阳市滑县狮子巷1号附近", "image": "", "rank": 5, "time": 7.5, "location": {"lat": 35.58619662390058, "lng": 114.51854207134559}, "feature": {"sight_features": "", "sight_content": ""}}, {"title": "迷城密室逃脱(淘宝城店)", "address": "卫河路大宫桥西淘宝城二楼", "image": "", "rank": 6, "time": 2, "location": {"lat": 38.010381080199444, "lng": 114.46741977426439}, "feature": {"sight_features": "", "sight_content": ""}}, {"title": "永翔温泉会馆", "address": "王半路镇政府斜对过(靠临镇政府)", "image": "", "rank": 7, "time": 2, "location": {"lat": 38.93566910944656, "lng": 116.9295478872232}, "feature": {"sight_features": "", "sight_content": ""}}, {"title": "留固镇双营水上乐园", "address": "留固镇双营中街村", "image": "", "rank": 8, "time": 2, "location": {"lat": 35.4803818290865, "lng": 114.71672443634591}, "feature": {"sight_features": "", "sight_content": ""}}, {"title": "西湖水上体育俱乐部", "address": "西湖环湖路南侧", "image": "", "rank": 9, "time": 2, "location": {"lat": 28.661976709900657, "lng": 115.88353569365187}, "feature": {"sight_features": "", "sight_content": ""}}, {"title": "浪淘沙温泉", "address": "008县道牛屯镇王村小学西200米", "image": "", "rank": 10, "time": 2, "location": {"lat": 35.293580735157256, "lng": 114.49501297251267}, "feature": {"sight_features": "", "sight_content": ""}}, {"title": "滑县众鑫牛业农民专业合作社", "address": "215省道附近", "image": "", "rank": 11, "time": 2, "location": {"lat": 36.52111105176839, "lng": 115.24987145143434}, "feature": {"sight_features": "", "sight_content": ""}}, {"title": "龙源温泉会馆", "address": "213省道附近", "image": "", "rank": 12, "time": 2, "location": {"lat": 39.999164912284996, "lng": 116.42332353742155}, "feature": {"sight_features": "", "sight_content": ""}}, {"title": "黄金季图书行", "address": "028乡道与101省道交叉口北200米", "image": "", "rank": 13, "time": 2, "location": {"lat": 38.49443500611887, "lng": 112.88216180520445}, "feature": {"sight_features": "", "sight_content": ""}}, {"title": "同和裕银号旧址", "address": "道口镇大集街", "image": "", "rank": 14, "time": 2, "location": {"lat": 35.5867286298532, "lng": 114.5203328703289}, "feature": {"sight_features": "", "sight_content": ""}}, {"title": "葡萄采摘基地", "address": "漓江路北", "image": "", "rank": 15, "time": 2, "location": {"lat": 31.84658216319378, "lng": 119.97905375034851}, "feature": {"sight_features": "", "sight_content": ""}}, {"title": "沙澧红吉梨果观赏采摘园", "address": "道康路城关镇康庄小学西", "image": "", "rank": 16, "time": 2, "location": {"lat": 35.58281962195142, "lng": 114.5534438769349}, "feature": {"sight_features": "", "sight_content": ""}}, {"title": "世纪广场3区", "address": "河南省安阳市滑县道城路辅路", "image": "", "rank": 17, "time": 2, "location": {"lat": 35.57834379907294, "lng": 114.54089811074185}, "feature": {"sight_features": "", "sight_content": ""}}, {"title": "加倍爱儿童游乐场", "address": "新区万隆广场东北100米", "image": "", "rank": 18, "time": 2, "location": {"lat": 35.53660349072687, "lng": 114.5489910349118}, "feature": {"sight_features": "", "sight_content": ""}}, {"title": "华梦教育", "address": "河南安阳滑县人民路永华商住楼五单元202", "image": "", "rank": 19, "time": 2, "location": {"lat": 35.580047433645966, "lng": 114.54015624333984}, "feature": {"sight_features": "", "sight_content": ""}}, {"title": "碧水源温泉度假村", "address": "河南省安阳市滑县S222", "image": "", "rank": 20, "time": 2, "location": {"lat": 35.58104540055751, "lng": 114.52555316618987}, "feature": {"sight_features": "", "sight_content": ""}}, {"title": "炸鸡皇后延庆观", "address": "红旗路与解放路交叉口东100米", "image": "", "rank": 21, "time": 2, "location": {"lat": 29.92460962710348, "lng": 120.3339918284261}, "feature": {"sight_features": "", "sight_content": ""}}, {"title": "后屯村文化广场", "address": "河南省滑县滑台路新区锦和新城雅苑", "image": "", "rank": 22, "time": 2, "location": {"lat": 35.5465417645732, "lng": 114.54207057100874}, "feature": {"sight_features": "", "sight_content": ""}}, {"title": "科迪食文化广场滑县006店", "address": "河南省安阳市滑县222省道东街小学路口对面", "image": "", "rank": 23, "time": 2, "location": {"lat": 35.520648210189144, "lng": 114.71364085715742}, "feature": {"sight_features": "", "sight_content": ""}}, {"title": "乖宝宝儿童乐园", "address": "河南省安阳市滑县小铺乡小铺派出所(美佳购物广场西100米)", "image": "", "rank": 24, "time": 2, "location": {"lat": 35.53667525481157, "lng": 114.49314982939343}, "feature": {"sight_features": "", "sight_content": ""}}, {"title": "光腚猴儿童乐园", "address": "河南省安阳市滑县蔚橪国际15号楼102", "image": "", "rank": 25, "time": 2, "location": {"lat": 35.587819402079894, "lng": 114.52692353124533}, "feature": {"sight_features": "", "sight_content": ""}}, {"title": "老店天主堂", "address": "008县道老店完小附近", "image": "", "rank": 26, "time": 2, "location": {"lat": 35.455679553725915, "lng": 114.57751941590784}, "feature": {"sight_features": "", "sight_content": ""}}, {"title": "基督教会", "address": "河南省安阳市滑县", "image": "", "rank": 27, "time": 2, "location": {"lat": 35.58104540055751, "lng": 114.52555316618987}, "feature": {"sight_features": "", "sight_content": ""}}, {"title": "专业修教堂", "address": "河南省安阳市滑县人民路", "image": "", "rank": 28, "time": 2, "location": {"lat": 35.580047433645966, "lng": 114.54015624333984}, "feature": {"sight_features": "", "sight_content": ""}}, {"title": "滑县小麦文化广场", "address": "G45大广高速附近", "image": "", "rank": 29, "time": 2, "location": {"lat": 46.515285978951205, "lng": 125.0528009974096}, "feature": {"sight_features": "", "sight_content": ""}}, {"title": "产业集聚区展览馆", "address": "人民路与101省道交汇处", "image": "", "rank": 30, "time": 2, "location": {"lat": 33.9601906111337, "lng": 116.7625930471746}, "feature": {"sight_features": "", "sight_content": ""}}, {"title": "人民文化馆", "address": "解放路政府对过", "image": "", "rank": 31, "time": 2, "location": {"lat": 39.631292600945855, "lng": 118.20726368237942}, "feature": {"sight_features": "", "sight_content": ""}}, {"title": "民俗博物院", "address": "解放路政府对过文化馆大门口", "image": "", "rank": 32, "time": 2, "location": {"lat": 30.921742847148487, "lng": 113.9152578772935}, "feature": {"sight_features": "", "sight_content": ""}}, {"title": "哈咪儿童畅想小镇", "address": "卫河路与大功桥交汇处温尔顿购物中心3楼", "image": "", "rank": 33, "time": 2, "location": {"lat": 35.5830397151955, "lng": 114.53142758656386}, "feature": {"sight_features": "", "sight_content": ""}}, {"title": "鑫澳水魔方水上乐园", "address": "长江路六中南红绿灯向西600米路南(滑丰种业正对面)", "image": "", "rank": 34, "time": 2, "location": {"lat": 35.55162164192506, "lng": 114.52544644839358}, "feature": {"sight_features": "", "sight_content": ""}}, {"title": "碧水家园温泉会馆", "address": "008县道农村信用合作联社北侧", "image": "", "rank": 35, "time": 2, "location": {"lat": 38.090612757251215, "lng": 114.3358576287324}, "feature": {"sight_features": "", "sight_content": ""}}, {"title": "火笔画廊", "address": "文明路140附近", "image": "", "rank": 36, "time": 2, "location": {"lat": 32.24545306902416, "lng": 120.24378792076782}, "feature": {"sight_features": "", "sight_content": ""}}, {"title": "康源阁温泉会馆", "address": "瓦岗寨乡", "image": "", "rank": 37, "time": 2, "location": {"lat": 35.33459554419097, "lng": 114.60616425682343}, "feature": {"sight_features": "", "sight_content": ""}}, {"title": "海清温泉", "address": "后谭公路高平镇政府南50米路东", "image": "", "rank": 38, "time": 2, "location": {"lat": 35.3730962518001, "lng": 114.77796651779379}, "feature": {"sight_features": "", "sight_content": ""}}, {"title": "华元温泉", "address": "213省道附近", "image": "", "rank": 39, "time": 2, "location": {"lat": 39.999164912284996, "lng": 116.42332353742155}, "feature": {"sight_features": "", "sight_content": ""}}, {"title": "三教堂 Third Church", "address": "河南滑县高平乡三教堂村", "image": "", "rank": 40, "time": 2, "location": {"lat": 35.39132726227543, "lng": 114.81656627616749}, "feature": {"sight_features": "", "sight_content": ""}}, {"title": "瓦岗寨隋唐商业街 WaGangZhai Su...", "address": "河南滑县瓦岗寨乡人民政府附近", "image": "", "rank": 41, "time": 2, "location": {"lat": 35.33621744963413, "lng": 114.60489528171426}, "feature": {"sight_features": "", "sight_content": ""}}, {"title": "紫光步行街(红旗路)", "address": "河南滑县紫光步行街", "image": "", "rank": 42, "time": 2, "location": {"lat": 35.582257867272354, "lng": 114.52934971698706}, "feature": {"sight_features": "", "sight_content": ""}}]}