{"cityName": "华安", "days": 2, "cityImage": "", "spots": [{"title": "二宜楼", "address": "漳州市华安县仙都镇大地村近344县道", "image": "", "rank": 1, "time": 1.0, "location": {"lat": 25.023237966390838, "lng": 117.71090154959649}, "feature": {"sight_features": "", "sight_content": ""}}, {"title": "华安土楼", "address": "漳州市华安县沙建镇", "image": "", "rank": 2, "time": 2.0, "location": {"lat": 24.741118704592566, "lng": 117.5775704312542}, "feature": {"sight_features": "", "sight_content": ""}}, {"title": "新圩古渡口", "address": "漳州市华安县208省道附近", "image": "", "rank": 3, "time": 0.05, "location": {"lat": 24.868984477928652, "lng": 117.5856985124042}, "feature": {"sight_features": "", "sight_content": ""}}, {"title": "华安（贡鸭山）国家森林公园", "address": "漳州市华安县马坑乡", "image": "", "rank": 4, "time": 1.0, "location": {"lat": 24.932197601602255, "lng": 117.38034861721441}, "feature": {"sight_features": "", "sight_content": ""}}, {"title": "贡鸭山森林公园", "address": "福建省漳州市华安县马坑乡", "image": "", "rank": 5, "time": 2, "location": {"lat": 24.932197601602255, "lng": 117.38034861721441}, "feature": {"sight_features": "", "sight_content": ""}}, {"title": "假日温泉", "address": "华丰镇迎宾路九龙国际商贸中心4-19号(假日宾馆附近)", "image": "", "rank": 6, "time": 2, "location": {"lat": 24.9895977839818, "lng": 117.53633743312217}, "feature": {"sight_features": "", "sight_content": ""}}, {"title": "观音山休闲山庄", "address": "新圩镇新圩村观音山", "image": "", "rank": 7, "time": 2, "location": {"lat": 24.81167722937069, "lng": 118.30998250100338}, "feature": {"sight_features": "", "sight_content": ""}}, {"title": "悠乐农场", "address": "沙建镇汰内村西溪桥头", "image": "", "rank": 8, "time": 2, "location": {"lat": 24.7215656379568, "lng": 117.56544636650209}, "feature": {"sight_features": "", "sight_content": ""}}, {"title": "礼拜堂", "address": "后坑新村路与新村路交叉口西100米", "image": "", "rank": 9, "time": 2, "location": {"lat": 25.00631536825509, "lng": 117.53853810555302}, "feature": {"sight_features": "", "sight_content": ""}}, {"title": "沙建镇影剧院", "address": "沙建镇人民政府附近", "image": "", "rank": 10, "time": 2, "location": {"lat": 24.72025595778513, "lng": 117.56771973610289}, "feature": {"sight_features": "", "sight_content": ""}}, {"title": "铭华玉雕展示厅", "address": "福建省华安县龙乾大厦附近", "image": "", "rank": 11, "time": 2, "location": {"lat": 24.986425115703224, "lng": 117.53488862982667}, "feature": {"sight_features": "", "sight_content": ""}}, {"title": "仙字潭摩涯", "address": "福建省漳州市华安县", "image": "", "rank": 12, "time": 2, "location": {"lat": 25.010067731399424, "lng": 117.54058560970802}, "feature": {"sight_features": "", "sight_content": ""}}, {"title": "玉兰宫公园", "address": "福建省漳州市华安县G76(厦蓉高速公路)", "image": "", "rank": 13, "time": 2, "location": {"lat": 24.677804595336912, "lng": 117.44548883790978}, "feature": {"sight_features": "", "sight_content": ""}}, {"title": "浮山庙", "address": "漳州市华安县", "image": "", "rank": 14, "time": 2, "location": {"lat": 25.010067731399424, "lng": 117.54058560970802}, "feature": {"sight_features": "", "sight_content": ""}}, {"title": "华安城关基督教会", "address": "福建省漳州市华安县新村路后坑41-1", "image": "", "rank": 15, "time": 1.0, "location": {"lat": 25.032986375746965, "lng": 117.68135637660346}, "feature": {"sight_features": "", "sight_content": ""}}, {"title": "龙显宫", "address": "仙北路133(仙都镇下林村境内)", "image": "", "rank": 16, "time": 2, "location": {"lat": 25.034719929097363, "lng": 117.66183340774118}, "feature": {"sight_features": "", "sight_content": ""}}, {"title": "蒋氏宗祠", "address": "福建省漳州市华安县X344", "image": "", "rank": 17, "time": 1.5, "location": {"lat": 25.010067731399424, "lng": 117.54058560970802}, "feature": {"sight_features": "", "sight_content": ""}}, {"title": "竹类植物园", "address": "平湖路19号", "image": "", "rank": 18, "time": 2, "location": {"lat": 30.858078957225672, "lng": 120.2724830578089}, "feature": {"sight_features": "", "sight_content": ""}}, {"title": "奇石博物馆", "address": "208省道", "image": "", "rank": 19, "time": 1.0, "location": {"lat": 39.82817275160928, "lng": 115.96548677323707}, "feature": {"sight_features": "", "sight_content": ""}}, {"title": "玉雕刻艺术馆", "address": "九龙国际商贸中心", "image": "", "rank": 20, "time": 2, "location": {"lat": 24.9895977839818, "lng": 117.53633743312217}, "feature": {"sight_features": "", "sight_content": ""}}, {"title": "天然温泉", "address": "S208", "image": "", "rank": 21, "time": null, "location": {"lat": 34.54048884685719, "lng": 108.8593105828337}, "feature": {"sight_features": "", "sight_content": ""}}, {"title": "七彩官畲", "address": "漳州市华安县新圩镇官畲村43号", "image": "", "rank": 22, "time": 2, "location": {"lat": 24.930123893693402, "lng": 117.59056101856879}, "feature": {"sight_features": "", "sight_content": "七彩官畲景区内有备受游客青睐的七星瓢虫屋，瓢虫屋坐落于樱花丛中，推开窗可见云卷云舒；凤凰台每天演绎多场纯粹的畲歌和原生态的畲乡风情舞蹈；色彩斑斓的彩虹桥直通宁静村落。喜欢拍照的游客可在大型相框、浪漫秋千等多处拍照“打卡”。景区内各个角落绘有诸多畲族图腾和彩绘。"}}, {"title": "寨仔尾", "address": "漳州市-华安县", "image": "", "rank": 23, "time": 2, "location": {"lat": 25.010067731399424, "lng": 117.54058560970802}, "feature": {"sight_features": "", "sight_content": ""}}]}