{"cityName": "桦甸", "days": 2, "cityImage": "", "spots": [{"title": "红石国家森林公园", "address": "吉林市桦甸市红石林业局（距离桦甸27公里）", "image": "", "rank": 1, "time": 2, "location": {"lat": 42.991405620720755, "lng": 127.05948827771905}, "feature": {"sight_features": "特色1 被誉为 “天然氧吧”", "sight_content": "红石国家森林公园以其特有的自然景观、原始生态、森林文化、萨满历史、红色战迹地、古老风俗和深厚的文化底蕴令人心醉痴迷；以其神秘、神奇、神圣、神韵而令人心驰神往。园区四季景象分明，春观山花、夏游两湖、秋赏红叶、冬览雾凇，能使你在嗅觉、感觉、知觉、视觉、触觉上，感受林莽的浩瀚、湖泊的纯净、山花的芳香、白桦的圣洁、红叶的瑰丽、绿色食品的美味、林区人的粗犷和质朴，真正体会到“亲近大自然、感受原生态”的魅力。吉林红石国家森林公园位于长白山麓、松花江畔的桦甸市和靖宇县境内，省红石林业局辖区。公园占地面积28574.6公顷，水域面积2269公顷，森林覆盖率93.2%，依托白山湖、红石湖及沿岸的自然景观，山、岛、湖三位一体，生态系统完整、植物群落齐全、季节色彩分层、自然环境优美、人文景观丰富，森林和湖泊构成了特有的自然环境，被誉为“天然氧吧”。是目前吉林省境内占地面积最大、森林覆盖率最高、野生动植物最全、水土蕴含量最为充沛的多功能型国家级森林公园。红石国家森林公园可分为陆路景点和水路景点，陆路景点包括森林氧吧、杨靖宇密营、紫云阁；水路景点指的是乘船游览白山湖，可以看到小三峡、骆驼砬子、金龟岛、舰艇峰，还可以登小洞天、飞来石。景区全长50公里，车程大概1个小时左右。"}}, {"title": "桦甸欢乐城水上乐园", "address": "吉林市桦甸市大兴街与磐桦路交汇处（孔雀城西南侧）", "image": "", "rank": 2, "time": 2.5, "location": {"lat": 42.9739914964125, "lng": 126.7440096438042}, "feature": {"sight_features": "", "sight_content": ""}}, {"title": "白山发电厂工业旅游景区", "address": "吉林市吉林省桦甸市白山发电厂", "image": "", "rank": 3, "time": 1.0, "location": {"lat": 42.977982779881444, "lng": 126.75248423373108}, "feature": {"sight_features": "", "sight_content": ""}}, {"title": "金沙峡谷漂流", "address": "吉林市桦甸市民隆村刘家屯", "image": "", "rank": 4, "time": 2, "location": {"lat": 43.158731569086136, "lng": 126.80258466697263}, "feature": {"sight_features": "特色1 水量丰富，激流处水花翻滚，平缓处清澈见底", "sight_content": "﻿金沙河是在桦甸辖区内由四条河流汇集而成的，直接流入美丽的松花江，水流量丰富，激流处水花翻滚，平缓处清澈见底。金沙峡谷漂流起点位于桦甸市横道河子乡文华村，终点到桦甸市金沙乡民安屯。\n金沙峡谷漂流全程10公里，漂流时间约为1.5-3小时左右。漂流区河宽30-60米，落差大，水流急。景区修建的上下游码头达10000多平方米，日接待游客5000余人。\n景区内设有停车场、警务室、更衣室、洗手间、洗浴、休息大厅、超市、餐厅、客房、摄影区和免费医疗救护点等服务设施，并设有旅行社、团队、散客专用停车场和专用通道，为游客提供了热情快捷周到的服务。"}}, {"title": "众邦垂钓俱乐部", "address": "光明南路158号", "image": "", "rank": 5, "time": null, "location": {"lat": 22.943963188881213, "lng": 113.3693002924507}, "feature": {"sight_features": "", "sight_content": ""}}, {"title": "桦甸市图书馆", "address": "人民路161号", "image": "", "rank": 6, "time": 1.5, "location": {"lat": 42.977982779881444, "lng": 126.75248423373108}, "feature": {"sight_features": "", "sight_content": ""}}, {"title": "桦甸市科技馆", "address": "人民路101号", "image": "", "rank": 7, "time": null, "location": {"lat": 42.97109195461132, "lng": 126.75533069440057}, "feature": {"sight_features": "", "sight_content": ""}}, {"title": "桦甸市启新基督教活动点", "address": "吉林省吉林市桦甸市启新街道光明路金穗家园二期", "image": "", "rank": 8, "time": 2.5, "location": {"lat": 42.98160917838946, "lng": 126.74734449880656}, "feature": {"sight_features": "", "sight_content": ""}}, {"title": "桦甸市启新街基督教会", "address": "裕民胡同附近", "image": "", "rank": 9, "time": 2.5, "location": {"lat": 42.96868926470545, "lng": 126.76334751322939}, "feature": {"sight_features": "", "sight_content": ""}}, {"title": "华严寺", "address": "吉林市桦甸市", "image": "", "rank": 10, "time": 0.75, "location": {"lat": 42.977982779881444, "lng": 126.75248423373108}, "feature": {"sight_features": "", "sight_content": ""}}, {"title": "丹枫园", "address": "渤海大街北50米", "image": "", "rank": 11, "time": 2, "location": {"lat": 40.53235776637484, "lng": 120.68960461792337}, "feature": {"sight_features": "", "sight_content": ""}}, {"title": "儿童乐园", "address": "吉林省吉林市桦甸市明桦街道桦甸大街阳光嘉园", "image": "", "rank": 12, "time": 2, "location": {"lat": 42.97952678234059, "lng": 126.73395832019875}, "feature": {"sight_features": "", "sight_content": ""}}, {"title": "桦甸明华街基督教会", "address": "吉林省吉林市桦甸市渤海大街佳泰花园附近(桦甸客运总站南)", "image": "", "rank": 13, "time": 2.5, "location": {"lat": 42.983289431574406, "lng": 126.7368746564606}, "feature": {"sight_features": "", "sight_content": ""}}, {"title": "老陈水族馆观赏鱼", "address": "吉林省吉林市桦甸市桦甸大街与胜利街交叉口南100米", "image": "", "rank": 14, "time": 2, "location": {"lat": 42.97743783859745, "lng": 126.75733675433322}, "feature": {"sight_features": "", "sight_content": ""}}, {"title": "桦甸市永吉基督教会", "address": "永吉街西50米", "image": "", "rank": 15, "time": 2.5, "location": {"lat": 43.88271431604812, "lng": 125.34948566864246}, "feature": {"sight_features": "", "sight_content": ""}}, {"title": "松花江人口文化长廊", "address": "人民路与清水大街交叉口西100米", "image": "", "rank": 16, "time": 2, "location": {"lat": 42.96613857160785, "lng": 126.7551689221545}, "feature": {"sight_features": "", "sight_content": ""}}, {"title": "宝积寺", "address": "吉林省吉林市桦甸市", "image": "", "rank": 17, "time": 1.5, "location": {"lat": 42.977982779881444, "lng": 126.75248423373108}, "feature": {"sight_features": "", "sight_content": ""}}, {"title": "清水绿堤广场", "address": "人民路与清水大街交叉口西南100米", "image": "", "rank": 18, "time": 2, "location": {"lat": 42.96547882831645, "lng": 126.75606722766447}, "feature": {"sight_features": "", "sight_content": ""}}, {"title": "中兴园旅游渡假村", "address": "102省道", "image": "", "rank": 19, "time": 2, "location": {"lat": 36.224418920426714, "lng": 113.13112600949766}, "feature": {"sight_features": "", "sight_content": ""}}, {"title": "鲁卡奇儿童乐园", "address": "启新街道新华街道大兴街209号红宇时尚商城3楼", "image": "", "rank": 20, "time": 2, "location": {"lat": 42.97476035945028, "lng": 126.7563242202946}, "feature": {"sight_features": "", "sight_content": ""}}, {"title": "名峰生态度假村(新开河村店)", "address": "桦甸八道河子镇新开河村名峰山庄", "image": "", "rank": 21, "time": 2, "location": {"lat": 43.28441549554196, "lng": 126.52894271137053}, "feature": {"sight_features": "", "sight_content": ""}}, {"title": "cc哈哈儿童乐园", "address": "大兴街金城超市二楼(原百姓超市)", "image": "", "rank": 22, "time": 2, "location": {"lat": 30.498235668398436, "lng": 105.59299855641753}, "feature": {"sight_features": "", "sight_content": ""}}, {"title": "如意山庄", "address": "红石镇", "image": "", "rank": 23, "time": 2, "location": {"lat": 40.671315371492675, "lng": 125.02373123535487}, "feature": {"sight_features": "", "sight_content": ""}}, {"title": "韩仁和密营遗址", "address": "森林游吧附近", "image": "", "rank": 24, "time": 2, "location": {"lat": 42.8406681991989, "lng": 127.14504320799799}, "feature": {"sight_features": "", "sight_content": ""}}, {"title": "百老汇休闲广场", "address": "吉林省吉林市桦甸市胜利街道振兴路金都国际商厦西北50米", "image": "", "rank": 25, "time": 2, "location": {"lat": 42.975476960658746, "lng": 126.75839552325814}, "feature": {"sight_features": "", "sight_content": ""}}, {"title": "杨靖宇密营", "address": "吉林省吉林市桦甸市电厂路西50米", "image": "", "rank": 26, "time": 2, "location": {"lat": 42.977982779881444, "lng": 126.75248423373108}, "feature": {"sight_features": "", "sight_content": ""}}, {"title": "长白山松花石根雕艺术馆", "address": "金华路", "image": "", "rank": 27, "time": 4.5, "location": {"lat": 39.11995873093522, "lng": 121.72704541737417}, "feature": {"sight_features": "", "sight_content": ""}}, {"title": "桦甸市博物馆", "address": "渤海大街", "image": "", "rank": 28, "time": 2.5, "location": {"lat": 40.53201504799588, "lng": 120.68960461792337}, "feature": {"sight_features": "", "sight_content": ""}}, {"title": "科学技术馆", "address": "人民路101号", "image": "", "rank": 29, "time": 2, "location": {"lat": 40.47625203646634, "lng": 115.98298106643362}, "feature": {"sight_features": "", "sight_content": ""}}, {"title": "太乙生态园(西北一门店)", "address": "永吉街", "image": "", "rank": 30, "time": 2, "location": {"lat": 43.88271431604812, "lng": 125.34993482139744}, "feature": {"sight_features": "", "sight_content": ""}}, {"title": "德圣绿色果蔬种植基地", "address": "桦郊乡建设屯", "image": "", "rank": 31, "time": 2, "location": {"lat": 42.920261276016646, "lng": 126.79219015383183}, "feature": {"sight_features": "", "sight_content": ""}}, {"title": "欢乐qq农场", "address": "永胜胡同9号附近", "image": "", "rank": 32, "time": 2, "location": {"lat": 45.61450692540521, "lng": 122.85101723615118}, "feature": {"sight_features": "", "sight_content": ""}}, {"title": "肇大鸡山森林公园", "address": "吉林省桦甸市北部", "image": "", "rank": 33, "time": 2, "location": {"lat": 42.977982779881444, "lng": 126.75248423373108}, "feature": {"sight_features": "", "sight_content": ""}}, {"title": "振兴路步行街", "address": "吉林省桦甸市振兴路步行街", "image": "", "rank": 34, "time": 2, "location": {"lat": 42.98021449208458, "lng": 126.75802296542076}, "feature": {"sight_features": "", "sight_content": ""}}]}