{"cityName": "淮北", "days": "", "cityImage": "", "spots": [{"title": "相山公园", "address": "淮北市相山区相山路1号", "image": "", "rank": 1, "time": 1.5, "location": {"lat": 33.986493683142825, "lng": 116.80504400116797}, "feature": {"sight_features": "", "sight_content": ""}}, {"title": "南湖湿地公园", "address": "淮北市烈山区长山南路", "image": "", "rank": 2, "time": 2.0, "location": {"lat": 33.8996348764044, "lng": 116.79469684849028}, "feature": {"sight_features": "", "sight_content": ""}}, {"title": "淮海战役双堆集烈士陵园", "address": "安徽省淮北市", "image": "", "rank": 3, "time": 2, "location": {"lat": 33.96165630027632, "lng": 116.8045372670298}, "feature": {"sight_features": "", "sight_content": ""}}, {"title": "淮北汉画像石馆", "address": "淮北市", "image": "", "rank": 4, "time": 2, "location": {"lat": 33.96165630027632, "lng": 116.8045372670298}, "feature": {"sight_features": "", "sight_content": ""}}, {"title": "濉溪老城石板街", "address": "淮北市濉溪县", "image": "", "rank": 5, "time": 2, "location": {"lat": 33.92162919482287, "lng": 116.7723894280831}, "feature": {"sight_features": "", "sight_content": ""}}, {"title": "柳孜隋唐大运河码头遗址", "address": "淮北市濉溪县柳孜运河遗址（303省道北）", "image": "", "rank": 6, "time": 2, "location": {"lat": 33.86189422976158, "lng": 116.54427651162639}, "feature": {"sight_features": "", "sight_content": ""}}, {"title": "淮北市博物馆", "address": "安徽省淮北市博物馆路1号", "image": "", "rank": 7, "time": 2.5, "location": {"lat": 33.95821074254976, "lng": 116.80467042555046}, "feature": {"sight_features": "", "sight_content": ""}}, {"title": "双楼花海", "address": "淮北市杜集区高岳镇双楼村南", "image": "", "rank": 8, "time": 2, "location": {"lat": 34.02710788526668, "lng": 116.88127082282784}, "feature": {"sight_features": "", "sight_content": ""}}, {"title": "龙脊山", "address": "淮北市烈山区新蔡镇", "image": "", "rank": 9, "time": 2, "location": {"lat": 33.929541852980925, "lng": 116.92106591951317}, "feature": {"sight_features": "", "sight_content": ""}}, {"title": "淮海战役会议旧址", "address": "安徽省宿州萧县073乡道淮海战役会议旧址", "image": "", "rank": 10, "time": 2, "location": {"lat": 34.09642213277279, "lng": 116.89519434892732}, "feature": {"sight_features": "", "sight_content": ""}}, {"title": "刘开渠纪念馆", "address": "相山北路2号", "image": "", "rank": 11, "time": 2, "location": {"lat": 33.98666056218339, "lng": 116.80175889791799}, "feature": {"sight_features": "", "sight_content": ""}}, {"title": "儿童乐园", "address": "安徽省淮北市相山区相山北路2号", "image": "", "rank": 12, "time": 2, "location": {"lat": 33.98666056218339, "lng": 116.80175889791799}, "feature": {"sight_features": "", "sight_content": ""}}, {"title": "法制广场", "address": "人民中路与相山中路交叉口西南50米", "image": "", "rank": 13, "time": 2, "location": {"lat": 33.959901688982335, "lng": 116.8063746413572}, "feature": {"sight_features": "", "sight_content": ""}}, {"title": "淮北火车站南广场", "address": "淮北市相山区桓谭路与站前路交叉口东100米", "image": "", "rank": 14, "time": 2, "location": {"lat": 33.97095075492455, "lng": 116.81104517873757}, "feature": {"sight_features": "", "sight_content": ""}}, {"title": "科学技术馆", "address": "淮海路42号", "image": "", "rank": 15, "time": 2, "location": {"lat": 32.398109229286334, "lng": 119.4372289935421}, "feature": {"sight_features": "", "sight_content": ""}}, {"title": "临涣古城遗址", "address": "中国安徽省淮北濉溪县202省道临涣古城遗址", "image": "", "rank": 16, "time": 2, "location": {"lat": 33.69640989101407, "lng": 116.56154456747856}, "feature": {"sight_features": "", "sight_content": ""}}, {"title": "化家湖", "address": "淮北市烈山区", "image": "", "rank": 17, "time": 2, "location": {"lat": 33.84405351093967, "lng": 116.90818178049892}, "feature": {"sight_features": "", "sight_content": ""}}, {"title": "爱上水族", "address": "宏源超市三堤口店入口处", "image": "", "rank": 18, "time": 2, "location": {"lat": 38.01135042400881, "lng": 114.52664911148831}, "feature": {"sight_features": "", "sight_content": ""}}, {"title": "纳米汗蒸养生馆", "address": "东山路双星加油站站台对面巷口内", "image": "", "rank": 19, "time": 2, "location": {"lat": 42.06275751830077, "lng": 120.67080600758395}, "feature": {"sight_features": "", "sight_content": ""}}, {"title": "奥得乐水上乐园", "address": "体育中心南门", "image": "", "rank": 20, "time": 2, "location": {"lat": 39.64443903973303, "lng": 118.18212257790208}, "feature": {"sight_features": "", "sight_content": ""}}, {"title": "国购广场齐乐儿水上乐园", "address": "桓谭路119号", "image": "", "rank": 21, "time": 2, "location": {"lat": 33.97059241028446, "lng": 116.80616382881671}, "feature": {"sight_features": "", "sight_content": ""}}, {"title": "老猫洞生态园", "address": "宋疃镇马桥村X018", "image": "", "rank": 22, "time": 2, "location": {"lat": 33.840596880885606, "lng": 116.9059282912966}, "feature": {"sight_features": "", "sight_content": ""}}, {"title": "鼎尊葡萄采摘园", "address": "和谐大院5栋一单元2楼", "image": "", "rank": 23, "time": 2, "location": {"lat": 38.427333235984804, "lng": 115.3328102025596}, "feature": {"sight_features": "", "sight_content": ""}}, {"title": "烈山湿地公园", "address": "相山南路与迎宾路交叉口东南100米", "image": "", "rank": 24, "time": 2, "location": {"lat": 25.008777583945253, "lng": 118.79821750667048}, "feature": {"sight_features": "", "sight_content": ""}}, {"title": "方山陵园办事处", "address": "淮北市杜集区", "image": "", "rank": 25, "time": 4.0, "location": {"lat": 33.99728543639093, "lng": 116.83461226601221}, "feature": {"sight_features": "", "sight_content": ""}}, {"title": "淮北市文道灵璧石博物馆", "address": "安徽省淮北市杜集区孟庄矿医院附近", "image": "", "rank": 26, "time": 2, "location": {"lat": 34.16810814347826, "lng": 116.96802776313339}, "feature": {"sight_features": "", "sight_content": ""}}, {"title": "淮北火车站北广场", "address": "安徽省淮北市相山区孟山北路", "image": "", "rank": 27, "time": 2, "location": {"lat": 33.972106363531665, "lng": 116.80011513807209}, "feature": {"sight_features": "", "sight_content": ""}}, {"title": "沐云间", "address": "碱河路与烈山路交叉口西100米路南", "image": "", "rank": 28, "time": 2, "location": {"lat": 33.93784338619062, "lng": 116.78332186632602}, "feature": {"sight_features": "", "sight_content": ""}}, {"title": "赵庄农场", "address": "长山南路与009县道交叉口西150米", "image": "", "rank": 29, "time": 2, "location": {"lat": 28.04150874345655, "lng": 120.92491378709205}, "feature": {"sight_features": "", "sight_content": ""}}, {"title": "金鸡鳝丝汤", "address": "岱河路109院1号附近", "image": "", "rank": 30, "time": 2, "location": {"lat": 31.914453139980786, "lng": 117.38372988645729}, "feature": {"sight_features": "", "sight_content": ""}}, {"title": "农家乐美食村", "address": "濉河路110号附近", "image": "", "rank": 31, "time": 2, "location": {"lat": 33.93135022160093, "lng": 116.77464108923374}, "feature": {"sight_features": "", "sight_content": ""}}, {"title": "泰康图书馆", "address": "南坪镇半铺村半铺街附近", "image": "", "rank": 32, "time": 2, "location": {"lat": 33.55476251662051, "lng": 116.91677295520981}, "feature": {"sight_features": "", "sight_content": ""}}, {"title": "新村广场", "address": "安徽省淮北市濉溪县", "image": "", "rank": 33, "time": 2, "location": {"lat": 33.92162919482287, "lng": 116.7723894280831}, "feature": {"sight_features": "", "sight_content": ""}}, {"title": "淮北凤凰山公墓", "address": "后大街264号附近", "image": "", "rank": 34, "time": 2, "location": {"lat": 29.962919627514978, "lng": 121.72382577162045}, "feature": {"sight_features": "", "sight_content": ""}}, {"title": "濉溪县梦缘文化艺术团", "address": "虎山路", "image": "", "rank": 35, "time": 2, "location": {"lat": 30.070441332776486, "lng": 119.96205736903173}, "feature": {"sight_features": "", "sight_content": ""}}, {"title": "濉溪园林", "address": "岱河路55号附近", "image": "", "rank": 36, "time": 1.5, "location": {"lat": 31.921340088813576, "lng": 117.36730779275133}, "feature": {"sight_features": "", "sight_content": ""}}, {"title": "阿弥陀佛", "address": "安徽省淮北市相山区南黎办事处长山北路发现之旅西150米", "image": "", "rank": 37, "time": 2, "location": {"lat": 33.958289092257836, "lng": 116.8136723055405}, "feature": {"sight_features": "", "sight_content": ""}}, {"title": "烈士陵园", "address": "城隍庙街城隍庙 附近", "image": "", "rank": 38, "time": 2, "location": {"lat": 37.208723604843975, "lng": 112.19546862583842}, "feature": {"sight_features": "", "sight_content": ""}}, {"title": "儿童乐园", "address": "安徽省淮北市烈山区X009", "image": "", "rank": 39, "time": 2, "location": {"lat": 33.84405351093967, "lng": 116.90818178049892}, "feature": {"sight_features": "", "sight_content": ""}}, {"title": "笑咪咪儿童乐园", "address": "安徽省淮北市濉溪县经济开发区上阳北路濉溪凤凰城北50米", "image": "", "rank": 40, "time": 2, "location": {"lat": 33.90970414275717, "lng": 116.7452245589698}, "feature": {"sight_features": "", "sight_content": ""}}, {"title": "水上公园湖心岛", "address": "淮北市烈山区", "image": "", "rank": 41, "time": 2, "location": {"lat": 33.84405351093967, "lng": 116.90818178049892}, "feature": {"sight_features": "", "sight_content": ""}}, {"title": "小虫游乐场", "address": "影剧院北侧", "image": "", "rank": 42, "time": 2, "location": {"lat": 40.229542478919804, "lng": 116.24038586607831}, "feature": {"sight_features": "", "sight_content": ""}}, {"title": "七色童年儿童乐园", "address": "淮北市濉溪县", "image": "", "rank": 43, "time": 2, "location": {"lat": 33.92162919482287, "lng": 116.7723894280831}, "feature": {"sight_features": "", "sight_content": ""}}, {"title": "淘气堡(天骄国际店)", "address": "淮海中路与建安路交叉口西南向20米真棒超市一楼（天骄国际一楼大厅内）", "image": "", "rank": 44, "time": 2, "location": {"lat": 33.97744508879487, "lng": 116.79434001728747}, "feature": {"sight_features": "", "sight_content": ""}}, {"title": "贝啦水世界", "address": "长山路与桓谭路交叉口东100米路北国购广场3楼西北角", "image": "", "rank": 45, "time": 2, "location": {"lat": 33.97135720218354, "lng": 116.81385637822086}, "feature": {"sight_features": "", "sight_content": ""}}, {"title": "孩子王儿童乐园", "address": "安徽省淮北市杜集区李洼集交口", "image": "", "rank": 46, "time": 2, "location": {"lat": 33.99728543639093, "lng": 116.83461226601221}, "feature": {"sight_features": "", "sight_content": ""}}, {"title": "爱园", "address": "人民中路与孟山中路交叉口东100米", "image": "", "rank": 47, "time": 2, "location": {"lat": 33.960322018990546, "lng": 116.8016149750024}, "feature": {"sight_features": "", "sight_content": ""}}, {"title": "法制公园", "address": "安徽省淮北市濉溪县濉溪镇溪河路国利·溪岸名苑西400米", "image": "", "rank": 48, "time": 1.5, "location": {"lat": 33.914562677928394, "lng": 116.76966253187703}, "feature": {"sight_features": "", "sight_content": ""}}, {"title": "濉溪县基督教会", "address": "安徽省淮北市濉溪县濉溪镇北环路幸福家园西300米", "image": "", "rank": 49, "time": 2, "location": {"lat": 33.926527233492, "lng": 116.7847753632683}, "feature": {"sight_features": "", "sight_content": ""}}, {"title": "龙圣寺", "address": "长山南路附近", "image": "", "rank": 50, "time": 2, "location": {"lat": 28.04150874345655, "lng": 120.92491378709205}, "feature": {"sight_features": "", "sight_content": ""}}, {"title": "淮北中泰儿童乐园", "address": "安徽省淮北市人民路202号", "image": "", "rank": 51, "time": 2, "location": {"lat": 33.962094309942465, "lng": 116.80118079430534}, "feature": {"sight_features": "", "sight_content": ""}}, {"title": "基督教会", "address": "安徽省淮北市相山区任圩街道方安路余庄教堂管理委员会", "image": "", "rank": 52, "time": 2, "location": {"lat": 33.973508282513585, "lng": 116.83336128575901}, "feature": {"sight_features": "", "sight_content": ""}}, {"title": "中国石榴博物馆", "address": "013县道东50米", "image": "", "rank": 53, "time": 2, "location": {"lat": 44.74936812620221, "lng": 125.66530522926108}, "feature": {"sight_features": "", "sight_content": ""}}, {"title": "儿童乐园", "address": "任圩路与马庄路交叉口东100米", "image": "", "rank": 54, "time": 2, "location": {"lat": 33.97238709300816, "lng": 116.83027560633224}, "feature": {"sight_features": "", "sight_content": ""}}, {"title": "最游记动漫主题店", "address": "淮北市相山区万马相山庭院北门115号商铺", "image": "", "rank": 55, "time": 2, "location": {"lat": 33.952230857935845, "lng": 116.8156474287297}, "feature": {"sight_features": "", "sight_content": ""}}, {"title": "颐乐园", "address": "淮北四兴工贸公司对面", "image": "", "rank": 56, "time": 2, "location": {"lat": 33.97574597647623, "lng": 116.87895981242879}, "feature": {"sight_features": "", "sight_content": ""}}, {"title": "东北二人转演艺剧场", "address": "安徽省淮北市相山区长山北路85-1", "image": "", "rank": 57, "time": 2, "location": {"lat": 33.961327030714315, "lng": 116.81268169734277}, "feature": {"sight_features": "", "sight_content": ""}}, {"title": "九韵广场", "address": "濉河路与龙脊山路交叉口南200米", "image": "", "rank": 58, "time": 2, "location": {"lat": 33.93117333193338, "lng": 116.77447900617396}, "feature": {"sight_features": "", "sight_content": ""}}, {"title": "水生养性阁", "address": "安徽省淮北市濉溪县濉溪镇北环路光华茗苑附近", "image": "", "rank": 59, "time": 2, "location": {"lat": 33.92672632290981, "lng": 116.78121057978422}, "feature": {"sight_features": "", "sight_content": ""}}, {"title": "明珠广场", "address": "安徽省淮北市濉溪县濉溪镇闸河路九点阳光", "image": "", "rank": 60, "time": 1.5, "location": {"lat": 33.92950155802739, "lng": 116.79113802616155}, "feature": {"sight_features": "", "sight_content": ""}}]}