{"cityName": "淮阳", "days": 2, "cityImage": "", "spots": [{"title": "太昊伏羲陵", "address": "河南省周口市淮阳县龙都大道", "image": "", "rank": 1, "time": 3.0, "location": {"lat": 33.758834525783314, "lng": 114.89227264297084}, "feature": {"sight_features": "特色1 中国规模最大最古老的民间庙会", "sight_content": "太昊陵景区是中国十八大名陵之首，aaaa级景区，因太昊伏羲氏位居三皇之首，其陵墓被誉为天下第一陵。太昊陵占地875亩，规模宏大，肃穆庄严，始建于春秋，增制于盛唐，完善于明清，岁月3000年，历代帝王52次御祭，建国伊始至今党和国家领导人多次亲笔题词留念和咏叹。\n太昊陵庙以伏羲先天八卦数理兴建，是中国帝王陵庙大规模宫殿式古建筑群之孤例，分外城、内城、紫禁城三道皇城。一陵一湖一古城相辉相映，形成了11平方公里的羲皇故都风景名胜区，太昊陵是海内外华夏子孙寻根谒祖、祈福纳祥、旅游观光的圣地。\n人文始祖祭祀活动绵延千年历久不衰，每年的农历二月初二到三月初三，世界各地几百万人涌向淮阳县太昊陵庙朝圣伏羲，农历每月初一、十五，均有盛大祭祀活动，游客人数日达数十万。2008年3月22日（农历二月十五）参与庙会人数达825601人，被上海大世界吉尼斯总部列入吉尼斯世界记录，太昊陵庙会成为中国最古老的民间庙会。太昊陵人祖祭典入选国家非物质文化遗产。"}}, {"title": "龙湖国家湿地公园", "address": "周口市淮阳县城东侧", "image": "", "rank": 2, "time": 2, "location": {"lat": 33.737347183458404, "lng": 114.89258615518705}, "feature": {"sight_features": "", "sight_content": ""}}, {"title": "东方神话游乐园", "address": "周口市淮阳县东关于桥", "image": "", "rank": 3, "time": 1.5, "location": {"lat": 33.737347183458404, "lng": 114.89258615518705}, "feature": {"sight_features": "特色1 中国“豫东平原”最大的水陆主题游乐园", "sight_content": "淮阳东方神话游乐园，占地面积约260亩，总投资约3.5亿元。其水上项目共建有十多个主题游乐区、30多项游乐设备，如龙风海啸、九龙竞速滑道、极速滑道、螺旋滑道、欢乐水寨、酷玩水吧、龙都大喇叭滑道、冲天回旋滑道、巨兽碗滑道、魔幻漂流、大洪水、激流勇进等。\n\n\n游乐园以独具魅力的东方文化为亮点，以现代化的高科技游乐设施为主题，以满足各种消费群体为特色，以“你无我有，你有我优”为经营理念。游乐园的整体设计时尚、神奇、新颖、刺激、独特，美轮美奂，魅力四射。\n淮阳东方神话游乐园拥有十多个主题游乐区和世界水上游乐设施，让人乐不思蜀，流连忘返。"}}, {"title": "画卦台", "address": "河南周口市淮阳县", "image": "", "rank": 4, "time": 1.0, "location": {"lat": 33.737347183458404, "lng": 114.89258615518705}, "feature": {"sight_features": "", "sight_content": ""}}, {"title": "平粮台", "address": "河南淮阳县城东南4公里处", "image": "", "rank": 5, "time": 1.0, "location": {"lat": 33.737347183458404, "lng": 114.89258615518705}, "feature": {"sight_features": "", "sight_content": ""}}, {"title": "五谷台", "address": "周口市淮阳县城东北5公里处", "image": "", "rank": 6, "time": null, "location": {"lat": 33.737347183458404, "lng": 114.89258615518705}, "feature": {"sight_features": "", "sight_content": ""}}, {"title": "龙湖景区", "address": "河南省周口市淮阳县106国道", "image": "", "rank": 7, "time": 3.5, "location": {"lat": 33.902518360844276, "lng": 114.8698001867737}, "feature": {"sight_features": "", "sight_content": ""}}, {"title": "周口公园", "address": "文昌大道与东环交汇处", "image": "", "rank": 8, "time": 3.0, "location": {"lat": 29.557580736694177, "lng": 114.04365148780249}, "feature": {"sight_features": "", "sight_content": ""}}, {"title": "金海岸温泉广场", "address": "淮西公路柳林集东800米路北金海岸温泉广场", "image": "", "rank": 9, "time": 2, "location": {"lat": 33.798885214000485, "lng": 114.7963455655617}, "feature": {"sight_features": "", "sight_content": ""}}, {"title": "农民专业合作社", "address": "城关回族镇政府东20米", "image": "", "rank": 10, "time": 2, "location": {"lat": 29.65833125291544, "lng": 91.14510035237143}, "feature": {"sight_features": "", "sight_content": ""}}, {"title": "淮成苗木合作社", "address": "曹河乡", "image": "", "rank": 11, "time": 2, "location": {"lat": 33.76447524684786, "lng": 114.73742337066962}, "feature": {"sight_features": "", "sight_content": ""}}, {"title": "洪源池生态温泉度假村", "address": "龙都大道南段(龙湖新城对面)", "image": "", "rank": 12, "time": 2, "location": {"lat": 33.71399534527088, "lng": 114.87899289559985}, "feature": {"sight_features": "", "sight_content": ""}}, {"title": "修生温泉会馆", "address": "豆门乡贾营回龙禅寺马路对面", "image": "", "rank": 13, "time": 2, "location": {"lat": 33.46227486885397, "lng": 114.91640926582015}, "feature": {"sight_features": "", "sight_content": ""}}, {"title": "益源温泉客栈", "address": "东环路与陈胜路交叉口西侧220米路北", "image": "", "rank": 14, "time": 2, "location": {"lat": 33.731169095422445, "lng": 114.92821198872926}, "feature": {"sight_features": "", "sight_content": ""}}, {"title": "冬冬葡萄采摘园", "address": "白楼镇王妮庄", "image": "", "rank": 15, "time": null, "location": {"lat": 33.79282854658425, "lng": 114.85918400417202}, "feature": {"sight_features": "", "sight_content": ""}}, {"title": "平粮台古城", "address": "河南淮阳县城关镇 466700", "image": "", "rank": 16, "time": 2, "location": {"lat": 33.74573477922163, "lng": 114.88305737948995}, "feature": {"sight_features": "", "sight_content": ""}}, {"title": "祝湾沙场", "address": "106国道", "image": "", "rank": 17, "time": 2, "location": {"lat": 39.1725896711994, "lng": 116.39041588203045}, "feature": {"sight_features": "", "sight_content": ""}}, {"title": "淮阳泥塑艺术馆", "address": "河南淮阳县进步北大街", "image": "", "rank": 18, "time": 1.0, "location": {"lat": 33.756046052736906, "lng": 114.89929309007378}, "feature": {"sight_features": "", "sight_content": ""}}, {"title": "淮阳县苇园集美的专卖店", "address": "河南省周口市淮阳县G106(京广线)", "image": "", "rank": 19, "time": 2, "location": {"lat": 33.737347183458404, "lng": 114.89258615518705}, "feature": {"sight_features": "", "sight_content": ""}}, {"title": "唐楼教堂", "address": "河南省周口市淮阳县新站镇唐楼村北", "image": "", "rank": 20, "time": 2, "location": {"lat": 33.525908323533635, "lng": 114.9128317847877}, "feature": {"sight_features": "", "sight_content": ""}}, {"title": "呀噜嗒儿童乐园", "address": "文明北路西100米", "image": "", "rank": 21, "time": 2, "location": {"lat": 30.639035641199147, "lng": 120.10046766397495}, "feature": {"sight_features": "", "sight_content": ""}}, {"title": "西华门", "address": "龙都大道中段东50米", "image": "", "rank": 22, "time": 0.2, "location": {"lat": 33.75213529991456, "lng": 114.88965812837728}, "feature": {"sight_features": "", "sight_content": ""}}, {"title": "油坊庄清真寺", "address": "河南省周口市淮阳县城关回族镇段庄平安路育红幼儿园西北", "image": "", "rank": 23, "time": 1.0, "location": {"lat": 33.76132541651083, "lng": 114.90358814653067}, "feature": {"sight_features": "", "sight_content": ""}}, {"title": "基督教会", "address": "106国道西50米", "image": "", "rank": 24, "time": 2, "location": {"lat": 23.86424620577106, "lng": 113.53885608621688}, "feature": {"sight_features": "", "sight_content": ""}}, {"title": "万姓宗祠", "address": "河南省周口市淮阳县羲皇文化广场171", "image": "", "rank": 25, "time": 2, "location": {"lat": 33.752482203214505, "lng": 114.89409923134396}, "feature": {"sight_features": "", "sight_content": ""}}, {"title": "陈楚古街（淮阳县陈楚汇商业管理...", "address": "淮阳县东关于桥", "image": "", "rank": 26, "time": 2, "location": {"lat": 33.737347183458404, "lng": 114.89258615518705}, "feature": {"sight_features": "", "sight_content": ""}}, {"title": "泡泡球海洋乐园", "address": "进步北大街与进步南大街交叉口南100米", "image": "", "rank": 27, "time": null, "location": {"lat": 33.75128302445928, "lng": 114.89825053197009}, "feature": {"sight_features": "", "sight_content": ""}}, {"title": "淮阳县包公庙", "address": "河南省周口市淮阳县人民街286号", "image": "", "rank": 28, "time": 2, "location": {"lat": 33.738978776371454, "lng": 114.89420265595226}, "feature": {"sight_features": "", "sight_content": ""}}, {"title": "淮阳县念佛堂养生庄园", "address": "河南省周口市淮阳县冯塘乡陈老家行政村东部", "image": "", "rank": 29, "time": 2, "location": {"lat": 33.61647274187645, "lng": 114.98175970439925}, "feature": {"sight_features": "", "sight_content": ""}}, {"title": "百果园生态园", "address": "河南省周口市淮阳县指挥营北", "image": "", "rank": 30, "time": 2, "location": {"lat": 33.71419881352973, "lng": 114.75749419271294}, "feature": {"sight_features": "", "sight_content": ""}}, {"title": "小天使儿童乐园", "address": "周口市淮阳县龙都大道润德商场3层", "image": "", "rank": 31, "time": 2, "location": {"lat": 33.758834525783314, "lng": 114.89227264297084}, "feature": {"sight_features": "", "sight_content": ""}}, {"title": "羲皇文化广场", "address": "河南省周口市淮阳县龙都大道", "image": "", "rank": 32, "time": 2, "location": {"lat": 33.758834525783314, "lng": 114.89227264297084}, "feature": {"sight_features": "", "sight_content": ""}}, {"title": "净土宗项城市弥陀道场", "address": "文明北路东关基督教堂以北", "image": "", "rank": 33, "time": 2, "location": {"lat": 33.45377538703215, "lng": 114.92366258515199}, "feature": {"sight_features": "", "sight_content": ""}}, {"title": "梦幻儿童乐园", "address": "河南省周口市淮阳县", "image": "", "rank": 34, "time": 2, "location": {"lat": 33.737347183458404, "lng": 114.89258615518705}, "feature": {"sight_features": "", "sight_content": ""}}, {"title": "真耶稣教会", "address": "018县道附近", "image": "", "rank": 35, "time": 2, "location": {"lat": 40.21837834043955, "lng": 116.11557422055537}, "feature": {"sight_features": "", "sight_content": ""}}, {"title": "福音堂", "address": "206省道附近", "image": "", "rank": 36, "time": 1.0, "location": {"lat": 40.08163878542396, "lng": 117.10435023437643}, "feature": {"sight_features": "", "sight_content": ""}}, {"title": "剪枝公园", "address": "河南省淮阳县城关镇", "image": "", "rank": 37, "time": 2, "location": {"lat": 33.74573477922163, "lng": 114.88305737948995}, "feature": {"sight_features": "", "sight_content": ""}}, {"title": "阳城自然景区", "address": "河南省周口市川汇区城东北一里处", "image": "", "rank": 38, "time": 4.0, "location": {"lat": 33.65299710281438, "lng": 114.6576017405623}, "feature": {"sight_features": "", "sight_content": ""}}, {"title": "淮阳县图书馆", "address": "平等北街", "image": "", "rank": 39, "time": 2, "location": {"lat": 33.73794622539582, "lng": 114.89117133029697}, "feature": {"sight_features": "", "sight_content": ""}}, {"title": "窦门天沐温泉会馆", "address": "102省道", "image": "", "rank": 40, "time": 2, "location": {"lat": 36.224418920426714, "lng": 113.13112600949766}, "feature": {"sight_features": "", "sight_content": ""}}, {"title": "金谷书画社", "address": "平等北街", "image": "", "rank": 41, "time": 2, "location": {"lat": 33.73794622539582, "lng": 114.89117133029697}, "feature": {"sight_features": "", "sight_content": ""}}, {"title": "淮阳县新生农业种植专业合作社", "address": "东环路东50米", "image": "", "rank": 42, "time": 2, "location": {"lat": 31.3224838958287, "lng": 120.65576336888692}, "feature": {"sight_features": "", "sight_content": ""}}, {"title": "海景温泉馆", "address": "106国道淮阳县宇翔职业中等专业学校附近", "image": "", "rank": 43, "time": 2, "location": {"lat": 33.76016247256973, "lng": 114.89234585846312}, "feature": {"sight_features": "", "sight_content": ""}}, {"title": "途牛天下", "address": "弦歌东路与民生街交口南220米路西", "image": "", "rank": 44, "time": 2, "location": {"lat": 33.73017299592513, "lng": 114.92622802531554}, "feature": {"sight_features": "", "sight_content": ""}}, {"title": "今古轩画廊", "address": "环保路321", "image": "", "rank": 45, "time": 2, "location": {"lat": 28.081578221203, "lng": 113.03153472589405}, "feature": {"sight_features": "", "sight_content": ""}}, {"title": "紫晶葡萄庄园", "address": "刘振屯乡王三楼村向南700米路东", "image": "", "rank": 46, "time": 2, "location": {"lat": 33.60598054613641, "lng": 114.9451009875037}, "feature": {"sight_features": "", "sight_content": ""}}, {"title": "周口翔耀生态园", "address": "周口市搬口乡贾寨村", "image": "", "rank": 47, "time": 1.0, "location": {"lat": 33.676516786299715, "lng": 114.75651006129792}, "feature": {"sight_features": "", "sight_content": ""}}, {"title": "周口龙湖 Longhu Lake, Zhoukou", "address": "河南淮阳县龙都路", "image": "", "rank": 48, "time": 2, "location": {"lat": 33.76112400800864, "lng": 114.8930452629637}, "feature": {"sight_features": "", "sight_content": ""}}, {"title": "八卦柏", "address": "周口市-淮阳县-新华大街北路01号画卦台内", "image": "", "rank": 49, "time": 2, "location": {"lat": 33.74758910358093, "lng": 114.89797367960176}, "feature": {"sight_features": "", "sight_content": ""}}]}