{"cityName": "怀仁", "days": 2, "cityImage": "", "spots": [{"title": "壬山滑雪场", "address": "大同市朔州市怀仁县玉东街北坛公园东300米", "image": "", "rank": 1, "time": 2, "location": {"lat": 39.79357083603243, "lng": 113.11230462343235}, "feature": {"sight_features": "", "sight_content": ""}}, {"title": "道德图书馆", "address": "仁里南路与怀善西街交叉口东150米", "image": "", "rank": 2, "time": 2, "location": {"lat": 39.81637984025354, "lng": 113.10444603851221}, "feature": {"sight_features": "", "sight_content": ""}}, {"title": "光明剧场", "address": "朔州市怀仁县", "image": "", "rank": 3, "time": 2, "location": {"lat": 39.79357083603243, "lng": 113.11230462343235}, "feature": {"sight_features": "", "sight_content": ""}}, {"title": "国益茶吧", "address": "国益酒店二楼", "image": "", "rank": 4, "time": 2, "location": {"lat": 39.82175502283928, "lng": 113.13235627841904}, "feature": {"sight_features": "", "sight_content": ""}}, {"title": "朔州鹅毛口遗址", "address": "山西省怀仁县西北 038300", "image": "", "rank": 5, "time": 1.5, "location": {"lat": 39.79357083603243, "lng": 112.76825361311079}, "feature": {"sight_features": "", "sight_content": ""}}, {"title": "怀仁文殊寺", "address": "山西省朔州市怀仁县", "image": "", "rank": 6, "time": 2.0, "location": {"lat": 39.79357083603243, "lng": 113.11230462343235}, "feature": {"sight_features": "", "sight_content": ""}}, {"title": "大通寺", "address": "怀应线", "image": "", "rank": 7, "time": 1.0, "location": {"lat": 39.778561820001045, "lng": 113.27684276034024}, "feature": {"sight_features": "", "sight_content": ""}}, {"title": "鹅毛口遗址", "address": "鹅左线附近", "image": "", "rank": 8, "time": 2, "location": {"lat": 39.874925220439884, "lng": 112.9620768599831}, "feature": {"sight_features": "", "sight_content": ""}}, {"title": "怀仁天竺禅寺", "address": "山西省朔州市怀仁县S206(大忻线)", "image": "", "rank": 9, "time": 2, "location": {"lat": 39.76668475569553, "lng": 112.99093208943897}, "feature": {"sight_features": "", "sight_content": ""}}, {"title": "卡卡VR主题乐园", "address": "怀贤步行街A区D座32号(老凤祥向西20米)", "image": "", "rank": 10, "time": 2, "location": {"lat": 31.4707878758284, "lng": 104.75488769018823}, "feature": {"sight_features": "", "sight_content": ""}}, {"title": "庞家大院", "address": "山西省朔州市怀仁县世纪大道", "image": "", "rank": 11, "time": 2, "location": {"lat": 39.82374855724597, "lng": 113.15694178273507}, "feature": {"sight_features": "", "sight_content": ""}}, {"title": "白龙寺", "address": "山西省朔州市怀仁县G208(二长线)", "image": "", "rank": 12, "time": 2.5, "location": {"lat": 39.79357083603243, "lng": 113.11230462343235}, "feature": {"sight_features": "", "sight_content": ""}}, {"title": "怀仁县金沙滩生态旅游区崇国寺", "address": "山西省朔州市怀仁县新家园乡宋王线金沙滩生态旅游区", "image": "", "rank": 13, "time": 2, "location": {"lat": 39.78525749055185, "lng": 113.0081443191969}, "feature": {"sight_features": "", "sight_content": ""}}, {"title": "怀仁民俗博物馆", "address": "朔州市怀仁县通泰路何家堡村", "image": "", "rank": 14, "time": 1.0, "location": {"lat": 39.82145598043528, "lng": 113.06275355619991}, "feature": {"sight_features": "", "sight_content": ""}}, {"title": "鹅毛河湿地公园", "address": "海北头乡山西新星项目管理有限责任公司东北侧400米", "image": "", "rank": 15, "time": 2, "location": {"lat": 38.554723238950494, "lng": 112.89063416643536}, "feature": {"sight_features": "", "sight_content": ""}}, {"title": "明珠广场", "address": "迎宾东街37附近", "image": "", "rank": 16, "time": 1.5, "location": {"lat": 38.770862286848256, "lng": 115.5051910737869}, "feature": {"sight_features": "", "sight_content": ""}}, {"title": "鱼友水族馆", "address": "朔州市怀仁县天合东街59号", "image": "", "rank": 17, "time": 2, "location": {"lat": 39.82391480837157, "lng": 113.10628564063727}, "feature": {"sight_features": "", "sight_content": ""}}, {"title": "怀仁嘉年华游乐场", "address": "山西省朔州市怀仁县怀善西街云海生态园往南200米", "image": "", "rank": 18, "time": 2, "location": {"lat": 39.819102238094466, "lng": 113.148729791763}, "feature": {"sight_features": "", "sight_content": ""}}, {"title": "怀仁图书阅览中心", "address": "云州西街115号", "image": "", "rank": 19, "time": 2, "location": {"lat": 39.83361186176136, "lng": 113.10656633685487}, "feature": {"sight_features": "", "sight_content": ""}}, {"title": "图书馆", "address": "云州西街114号", "image": "", "rank": 20, "time": 1.0, "location": {"lat": 39.832571448215184, "lng": 113.1063833520225}, "feature": {"sight_features": "", "sight_content": ""}}, {"title": "哈乐迪尼欢乐儿童乐园", "address": "仁里路263号(翔宇酒店南30米路西)", "image": "", "rank": 21, "time": 2, "location": {"lat": 39.08123227888984, "lng": 116.6897608510708}, "feature": {"sight_features": "", "sight_content": ""}}, {"title": "老贾采摘园", "address": "大运公路（206省道）与西卢子沟大路交叉口加油站西200米路南(赵庄村与跃进村之间)", "image": "", "rank": 22, "time": 2, "location": {"lat": 24.09701218694945, "lng": 108.25104566533965}, "feature": {"sight_features": "", "sight_content": ""}}, {"title": "下寨农场", "address": "001乡道附近", "image": "", "rank": 23, "time": 2, "location": {"lat": 42.370177806786245, "lng": 117.99555275285643}, "feature": {"sight_features": "", "sight_content": ""}}, {"title": "格林屋创意美术馆", "address": "康乐街西41号", "image": "", "rank": 24, "time": 2, "location": {"lat": 39.8188990826078, "lng": 113.11738525892541}, "feature": {"sight_features": "", "sight_content": ""}}, {"title": "凤凰家园", "address": "海北头乡陈庄村(鹅毛河湿地公园旁)", "image": "", "rank": 25, "time": 6.0, "location": {"lat": 29.301612483695862, "lng": 120.20954668799908}, "feature": {"sight_features": "", "sight_content": ""}}, {"title": "男人代码", "address": "仁人北路与怀贤西街交叉口东南50米", "image": "", "rank": 26, "time": 2, "location": {"lat": 39.83346581482408, "lng": 113.11146421739373}, "feature": {"sight_features": "", "sight_content": ""}}, {"title": "玉仁茂业葡萄园", "address": "仁和北路北滩", "image": "", "rank": 27, "time": 2, "location": {"lat": 39.84665266183332, "lng": 113.18880390842787}, "feature": {"sight_features": "", "sight_content": ""}}, {"title": "天顺牧业", "address": "怀安东街", "image": "", "rank": 28, "time": 2, "location": {"lat": 39.82375128318172, "lng": 113.15996335099592}, "feature": {"sight_features": "", "sight_content": ""}}, {"title": "朔州金沙滩墓群", "address": "山西省怀仁县金沙滩镇第三作村", "image": "", "rank": 29, "time": 1.5, "location": {"lat": 39.685042995186286, "lng": 112.92163892329857}, "feature": {"sight_features": "", "sight_content": ""}}, {"title": "大同矿务局农场", "address": "朔州市-怀仁市-仁和北路南200米", "image": "", "rank": 30, "time": 2.5, "location": {"lat": 39.84788230142425, "lng": 113.17817550078652}, "feature": {"sight_features": "", "sight_content": ""}}]}