{"cityName": "怀集", "days": 2, "cityImage": "", "spots": [{"title": "世外桃源", "address": "肇庆市怀集县桥头村", "image": "", "rank": 1, "time": 1.5, "location": {"lat": 23.917842129185328, "lng": 112.19146878783033}, "feature": {"sight_features": "", "sight_content": ""}}, {"title": "燕岩", "address": "肇庆市怀集县桥头村", "image": "", "rank": 2, "time": null, "location": {"lat": 23.917842129185328, "lng": 112.19146878783033}, "feature": {"sight_features": "", "sight_content": ""}}, {"title": "怀集燕山风景区", "address": "肇庆市怀集县桥头镇燕山风景区", "image": "", "rank": 3, "time": 2.0, "location": {"lat": 23.777621496303606, "lng": 111.98133021101935}, "feature": {"sight_features": "特色1 总面积两万八千多平方米，为广东溶洞之冠", "sight_content": "怀集燕山风景区位于怀集县城40多公里的桥头燕岩，是著名的游览胜地之一，燕岩总面积28000多平方米，为广东溶洞之冠。岩洞内千姿百态，景致万千，洞里栖息的金丝燕数以万计，每年六月初六为怀集燕子节， 成千上万游客前往观尝桥头风光，当地人登洞攀岩掏取燕窝的绝技和惊险神奇的景象，被称为“天下第一奇观”。六月初六是燕岩采燕、男女对歌、搭棚唱戏之佳日，于此日前去揽胜者络绎不绝。抵燕 岩，人头涌动。张目四顾，但见洞口高大，岩内宽敞；石桥流水，山溪缓缓，穿越岩腹。石柱石幔，石笋石乳构成“将军骑马”、“三妹放歌”等众多景观，维妙维肖，令人目不暇给。当日，本地青年 男女，乔装打扮，“白马将军”与“刘家三妹”放开歌喉，隔峰对唱，时隐时现。\n燕岩腹地，顶似苍穹，群燕啁鸣。洞内“十二房”乃岩内之岩。拾级而上，可欣赏“观音坐莲”、“宝鸭倒影”；“聆听”、“和尚念经”；“拜会”、“庵中尼姑”；站在此处还可隔岸看贵儿戏演 出……燕岩之内，竖琴庙遗址尚存；为避土匪山贼倚岩而建之砖屋，断壁残垣，风貌依旧。六月初六，燕岩最能吸引游人的莫过于采燕者飞崖走壁之绝技。对采燕场面，早已听人述，现场目睹，真乃惊 险异常：采燕者赤裸上身，穿着短裤，攀援竹竿先抵岩腰，稍停，稳住脚步，双手搂住固定有岩壁之竹板，一步步向上攀登，高处，距地面五、六十米。他们抵壁上之洞，即钻身入内，掏取燕子燕窝； 其在岩顶之同伴则用丝绳子放下丝网，让采燕者将所获置入网中，吊出洞外。采燕者，毫无安全设施，只凭惊人绝技，攀岩穿穴掏燕，其惊险程度，远胜任何杂技表演！"}}, {"title": "绿竹园", "address": "肇庆市怀集县桥头镇新兴管理区石根村燕山风景区内", "image": "", "rank": 4, "time": 0.25, "location": {"lat": 23.777621496303606, "lng": 111.98133021101935}, "feature": {"sight_features": "", "sight_content": ""}}, {"title": "六祖岩", "address": "肇庆市怀集县冷坑镇龟嘴岭上", "image": "", "rank": 5, "time": 2, "location": {"lat": 24.080835484055985, "lng": 112.05283976542259}, "feature": {"sight_features": "", "sight_content": ""}}, {"title": "mr.j真人密室逃脱", "address": "沿江中路雅豪居门口(威记美食)", "image": "", "rank": 6, "time": 2, "location": {"lat": 23.91900031902592, "lng": 112.18383244270954}, "feature": {"sight_features": "", "sight_content": ""}}, {"title": "秀林休闲温泉度假村", "address": "大岗镇秀林村秀林山庄", "image": "", "rank": 7, "time": 2, "location": {"lat": 23.9385216200586, "lng": 112.08273732300604}, "feature": {"sight_features": "", "sight_content": ""}}, {"title": "怀集六十日黄菜基地", "address": "349省道", "image": "", "rank": 8, "time": 1.5, "location": {"lat": 23.989677280893872, "lng": 111.93413596949115}, "feature": {"sight_features": "", "sight_content": ""}}, {"title": "犀牛山生态山泉(芬芳食品商行)", "address": "沿江西路与金龙一路交叉口西50米", "image": "", "rank": 9, "time": 2, "location": {"lat": 23.91863107927111, "lng": 112.17816235629854}, "feature": {"sight_features": "", "sight_content": ""}}, {"title": "智乐儿童乐园", "address": "商业步行街3楼", "image": "", "rank": 10, "time": 2, "location": {"lat": 29.546335205928436, "lng": 114.05753705869296}, "feature": {"sight_features": "", "sight_content": ""}}, {"title": "羊羊儿童乐园", "address": "广东省肇庆市怀集县冷坑镇X425(旧)冷坑市场", "image": "", "rank": 11, "time": 2.0, "location": {"lat": 24.04115679566633, "lng": 112.05242983448291}, "feature": {"sight_features": "", "sight_content": ""}}, {"title": "冷坑影剧院", "address": "冷坑文化广场附近", "image": "", "rank": 12, "time": 2, "location": {"lat": 24.041539076822406, "lng": 112.0545362288522}, "feature": {"sight_features": "", "sight_content": ""}}, {"title": "欢记沙场", "address": "广东省肇庆市怀集县S263幸福大道(雷达摩托车城侧边)", "image": "", "rank": 13, "time": 2, "location": {"lat": 23.897153653232092, "lng": 112.19643848160491}, "feature": {"sight_features": "", "sight_content": ""}}, {"title": "富笃梁氏大宗堂", "address": "广东省肇庆市怀集县富笃村", "image": "", "rank": 14, "time": 2, "location": {"lat": 23.72662072729744, "lng": 112.20419222627277}, "feature": {"sight_features": "", "sight_content": ""}}, {"title": "华光寺", "address": "广东省肇庆市怀集县S349", "image": "", "rank": 15, "time": 7.5, "location": {"lat": 23.917842129185328, "lng": 112.19146878783033}, "feature": {"sight_features": "", "sight_content": ""}}, {"title": "富迪游乐园", "address": "肇庆市怀集县", "image": "", "rank": 16, "time": 2, "location": {"lat": 23.917842129185328, "lng": 112.19146878783033}, "feature": {"sight_features": "", "sight_content": ""}}, {"title": "大河马水上食街", "address": "金龙一路1号附近", "image": "", "rank": 17, "time": 2, "location": {"lat": 22.94568561803963, "lng": 112.0692968819816}, "feature": {"sight_features": "", "sight_content": ""}}, {"title": "燕都广场", "address": "肇庆市怀集县海景花园a1栋402房", "image": "", "rank": 18, "time": 2, "location": {"lat": 23.911799050879573, "lng": 112.18952997504879}, "feature": {"sight_features": "", "sight_content": ""}}, {"title": "冷坑文化广场", "address": "广东省肇庆市怀集县", "image": "", "rank": 19, "time": 2, "location": {"lat": 23.917842129185328, "lng": 112.19146878783033}, "feature": {"sight_features": "", "sight_content": ""}}, {"title": "怀城影剧院", "address": "广东省肇庆市怀集县解放北路2号", "image": "", "rank": 20, "time": 2, "location": {"lat": 23.920353160401095, "lng": 112.1905348195919}, "feature": {"sight_features": "", "sight_content": ""}}, {"title": "宝兴馆", "address": "263省道", "image": "", "rank": 21, "time": 2, "location": {"lat": 29.34326998665099, "lng": 109.2997209453384}, "feature": {"sight_features": "", "sight_content": ""}}, {"title": "图书馆", "address": "工业大道", "image": "", "rank": 22, "time": 1.0, "location": {"lat": 22.653704101695602, "lng": 113.61369443205918}, "feature": {"sight_features": "", "sight_content": ""}}, {"title": "燕城儿童乐园", "address": "城中路", "image": "", "rank": 23, "time": 2, "location": {"lat": 39.871398343353924, "lng": 116.55025304238771}, "feature": {"sight_features": "", "sight_content": ""}}, {"title": "孔英纪念馆", "address": "世外桃源风景区内", "image": "", "rank": 24, "time": 2, "location": {"lat": 34.70812337505495, "lng": 119.42589279571826}, "feature": {"sight_features": "", "sight_content": ""}}, {"title": "金辉动漫水上乐园", "address": "怀城镇横洞广佛肇经济合作区A区亿达建博汇内(煤气站对面直入1300米)", "image": "", "rank": 25, "time": 2, "location": {"lat": 43.949997375942125, "lng": 81.29403195906498}, "feature": {"sight_features": "", "sight_content": ""}}, {"title": "深雅画廊", "address": "沿江中路与沿江中路二巷交叉口西100米", "image": "", "rank": 26, "time": 2, "location": {"lat": 23.917528303960992, "lng": 112.18619459094559}, "feature": {"sight_features": "", "sight_content": ""}}, {"title": "岑元村旺地葡萄园", "address": "岑元村附近", "image": "", "rank": 27, "time": 2, "location": {"lat": 23.73895609549365, "lng": 111.91772006062406}, "feature": {"sight_features": "", "sight_content": ""}}, {"title": "怀集三岳", "address": "广东省怀集县蓝钟镇", "image": "", "rank": 28, "time": 1.5, "location": {"lat": 24.149144029533417, "lng": 111.94080588790054}, "feature": {"sight_features": "", "sight_content": ""}}, {"title": "茂名怀集三岳自然保护区", "address": "广东省怀集县蓝钟镇", "image": "", "rank": 29, "time": 5.0, "location": {"lat": 24.149144029533417, "lng": 111.94080588790054}, "feature": {"sight_features": "", "sight_content": ""}}, {"title": "肇庆怀集三岳", "address": "广东省怀集县蓝钟镇", "image": "", "rank": 30, "time": 2.5, "location": {"lat": 24.149144029533417, "lng": 111.94080588790054}, "feature": {"sight_features": "", "sight_content": ""}}, {"title": "新田崀", "address": "肇庆市-怀集县", "image": "", "rank": 31, "time": 2, "location": {"lat": 23.917842129185328, "lng": 112.19146878783033}, "feature": {"sight_features": "", "sight_content": ""}}, {"title": "刘氏家族娱乐活动中心", "address": "肇庆市-怀集县-凤岗镇上良村委会刘屋村", "image": "", "rank": 32, "time": 2, "location": {"lat": 24.034685383379472, "lng": 112.42162670568754}, "feature": {"sight_features": "", "sight_content": ""}}, {"title": "伯芒", "address": "肇庆市-怀集县", "image": "", "rank": 33, "time": 2, "location": {"lat": 23.917842129185328, "lng": 112.19146878783033}, "feature": {"sight_features": "", "sight_content": ""}}]}