{"cityName": "花莲", "days": "3", "cityImage": "", "spots": [{"title": "七星潭风景区", "address": "台湾花莲市新城乡海岸路", "image": "", "rank": 1, "time": 1.5, "location": {"lat": 23.99710141041564, "lng": 121.61485455893701}, "feature": {"sight_features": "", "sight_content": ""}}, {"title": "清水断崖", "address": "花莲县新城乡", "image": "", "rank": 2, "time": 0.75, "location": {"lat": 19.437612087581975, "lng": 110.47660228796693}, "feature": {"sight_features": "", "sight_content": ""}}, {"title": "太鲁阁国家公园", "address": "花莲县秀林乡富世村富世291号", "image": "", "rank": 3, "time": 7.5, "location": {"lat": 19.437612087581975, "lng": 110.47660228796693}, "feature": {"sight_features": "", "sight_content": ""}}, {"title": "瑞穗牧场", "address": "花莲县瑞穗乡舞鹤村6邻157号", "image": "", "rank": 4, "time": 2.0, "location": {"lat": 23.07733787983311, "lng": 108.70456114239654}, "feature": {"sight_features": "", "sight_content": ""}}, {"title": "石梯坪", "address": "台湾花莲市丰滨乡", "image": "", "rank": 5, "time": 1.5, "location": {"lat": 23.99710141041564, "lng": 121.61485455893701}, "feature": {"sight_features": "", "sight_content": ""}}, {"title": "花东纵谷", "address": "花莲县瑞穗乡鹤冈村17邻兴鹤路2段168号", "image": "", "rank": 6, "time": 4.5, "location": {"lat": 31.37496510111648, "lng": 121.760233216525}, "feature": {"sight_features": "", "sight_content": ""}}, {"title": "松园别馆", "address": "花莲县花莲市松园街65号", "image": "", "rank": 7, "time": 1.5, "location": {"lat": 22.821255937993435, "lng": 114.13582157921543}, "feature": {"sight_features": "", "sight_content": ""}}, {"title": "花莲观光糖厂", "address": "花莲县光复乡糖厂街19号", "image": "", "rank": 8, "time": 2.0, "location": {"lat": 45.8233474182004, "lng": 126.65524479853201}, "feature": {"sight_features": "", "sight_content": ""}}, {"title": "云山水自然生态农庄", "address": "花莲县寿丰乡丰坪路二段二巷201弄12号", "image": "", "rank": 9, "time": 2.0, "location": {"lat": 29.71902929573884, "lng": 119.09193183289756}, "feature": {"sight_features": "", "sight_content": ""}}, {"title": "鲤鱼潭风景区", "address": "花莲县寿丰乡池南村环潭北路100号", "image": "", "rank": 10, "time": 2.0, "location": {"lat": 43.802412316299254, "lng": 125.47161708672718}, "feature": {"sight_features": "", "sight_content": ""}}, {"title": "苏花公路", "address": "台湾花莲县秀林乡苏花公路", "image": "", "rank": 11, "time": 1.0, "location": {"lat": 24.0979631572479, "lng": 121.47672107867893}, "feature": {"sight_features": "", "sight_content": ""}}, {"title": "瑞穗温泉", "address": "花莲县万荣乡红叶村23号", "image": "", "rank": 12, "time": 2, "location": {"lat": 29.74857861398625, "lng": 121.5028724238123}, "feature": {"sight_features": "", "sight_content": ""}}, {"title": "花莲文化创意产业园", "address": "花莲县花莲市中华路144号", "image": "", "rank": 13, "time": 2.0, "location": {"lat": 47.360765275244994, "lng": 123.96923875057708}, "feature": {"sight_features": "", "sight_content": ""}}, {"title": "静浦北回归线标碑", "address": "花莲县丰滨乡台11线70.5公里处", "image": "", "rank": 14, "time": 0.5, "location": {"lat": 24.66970925996662, "lng": 118.46497350969337}, "feature": {"sight_features": "", "sight_content": ""}}, {"title": "林田山", "address": "花莲县凤林镇森荣里林森路20号", "image": "", "rank": 15, "time": 2.5, "location": {"lat": 30.86346481100636, "lng": 104.009630058913}, "feature": {"sight_features": "", "sight_content": ""}}, {"title": "七星潭滨海自行车道", "address": "花莲县新城乡海滨路", "image": "", "rank": 16, "time": 2, "location": {"lat": 19.437612087581975, "lng": 110.47660228796693}, "feature": {"sight_features": "", "sight_content": ""}}, {"title": "七星柴鱼博物馆", "address": "花莲县新城乡大汉村七星街148号", "image": "", "rank": 17, "time": 0.75, "location": {"lat": 26.88038481800489, "lng": 100.23222654544739}, "feature": {"sight_features": "", "sight_content": ""}}, {"title": "原野牧场", "address": "花莲县新城乡大汉村七星街9号", "image": "", "rank": 18, "time": 2.5, "location": {"lat": 24.929592558914052, "lng": 118.59505597263451}, "feature": {"sight_features": "", "sight_content": ""}}, {"title": "庆修院", "address": "花莲县中兴路345-1号", "image": "", "rank": 19, "time": 1.5, "location": {"lat": 29.876854461607387, "lng": 121.59172293155412}, "feature": {"sight_features": "", "sight_content": ""}}, {"title": "白杨步道", "address": "花莲县秀林乡太鲁阁国家公园白杨步道（步道口请于台八线中横公路167.9k明隧道进入）", "image": "", "rank": 20, "time": 1.5, "location": {"lat": 29.980654417088648, "lng": 122.24285029025906}, "feature": {"sight_features": "", "sight_content": ""}}, {"title": "花莲立川渔场", "address": "花莲县寿丰乡共和村鱼池路45号", "image": "", "rank": 21, "time": 1.5, "location": {"lat": 39.628068190721365, "lng": 116.12290645961947}, "feature": {"sight_features": "", "sight_content": ""}}, {"title": "长春祠", "address": "台湾花莲县秀林乡太鲁峡谷入口", "image": "", "rank": 22, "time": 0.75, "location": {"lat": 24.0979631572479, "lng": 121.47672107867893}, "feature": {"sight_features": "", "sight_content": ""}}, {"title": "砂卡当步道", "address": "花莲县秀林乡砂卡礑步道", "image": "", "rank": 23, "time": 1.5, "location": {"lat": 19.437612087581975, "lng": 110.47660228796693}, "feature": {"sight_features": "", "sight_content": ""}}, {"title": "燕子口", "address": "花莲县太鲁阁峡谷长春祠旁", "image": "", "rank": 24, "time": 0.75, "location": {"lat": 43.82195350104314, "lng": 125.3306020759069}, "feature": {"sight_features": "", "sight_content": ""}}, {"title": "台湾东华大学", "address": "花蓮縣壽豐鄉大學路二段一號", "image": "", "rank": 25, "time": 2.0, "location": {"lat": 44.000520578143416, "lng": 119.10892783718455}, "feature": {"sight_features": "", "sight_content": ""}}, {"title": "花莲港", "address": "花莲县花莲市东北角", "image": "", "rank": 26, "time": 2.5, "location": {"lat": 23.99710141041564, "lng": 121.61485455893701}, "feature": {"sight_features": "", "sight_content": ""}}, {"title": "慈母桥", "address": "花莲县秀林乡太鲁阁国家公园", "image": "", "rank": 27, "time": 0.5, "location": {"lat": 22.989324614324637, "lng": 112.99137777469475}, "feature": {"sight_features": "", "sight_content": ""}}, {"title": "九曲洞", "address": "花莲县秀林乡于中横公路174.5处，太鲁阁国家公园内", "image": "", "rank": 28, "time": 1.0, "location": {"lat": 29.980654417088648, "lng": 122.24285029025906}, "feature": {"sight_features": "", "sight_content": ""}}, {"title": "慕谷慕鱼", "address": "花莲秀林乡铜门村", "image": "", "rank": 29, "time": 2.0, "location": {"lat": 24.0979631572479, "lng": 121.47672107867893}, "feature": {"sight_features": "", "sight_content": ""}}, {"title": "绿水游憩区", "address": "花莲县秀林乡中横公路171.5公里处", "image": "", "rank": 30, "time": 1.5, "location": {"lat": 29.980654417088648, "lng": 122.24285029025906}, "feature": {"sight_features": "", "sight_content": ""}}, {"title": "北回归线纪念碑", "address": "台湾花莲县瑞穗乡舞鹤村", "image": "", "rank": 31, "time": 0.75, "location": {"lat": 23.523412503850388, "lng": 121.42696445481998}, "feature": {"sight_features": "", "sight_content": ""}}, {"title": "合欢山", "address": "台湾南投县仁爱乡", "image": "", "rank": 32, "time": 1.5, "location": {"lat": 24.031471435957354, "lng": 121.14154292753265}, "feature": {"sight_features": "", "sight_content": ""}}, {"title": "花东海岸公路", "address": "花莲县台11号公路", "image": "", "rank": 33, "time": 2, "location": {"lat": 39.8291297700274, "lng": 98.29816304731837}, "feature": {"sight_features": "", "sight_content": ""}}, {"title": "六十石山风景区", "address": "983台湾花蓮縣富里鄉花東公路86號", "image": "", "rank": 34, "time": 2.0, "location": {"lat": 24.086956718804895, "lng": 121.97387097871568}, "feature": {"sight_features": "", "sight_content": ""}}, {"title": "花莲远雄海洋公园", "address": "花莲县寿丰乡盐寮村福德189号", "image": "", "rank": 35, "time": 2.0, "location": {"lat": 21.681985724597418, "lng": 109.92480086051843}, "feature": {"sight_features": "特色1 全台湾知名的海洋公园，有精采的海狮秀、海豚秀。 搭乘公园的空中缆车，一览山海相依的美景。", "sight_content": "景点介绍：\n【花莲远雄海洋公园】\n全台湾相当著名的海洋公园，占地大约有50公顷。不同于一般游乐园着重于机械、人工的游乐设施，花莲远雄海洋公园呈现给游客的是一座结合游乐与教育意义的休闲园区。共有八大主题区、四大主题表演，结合慧诘的海豚精灵、逗趣海狮表演、美人鱼海牛生态解说、游乐设施、水晶城堡百老汇式歌舞高空特技秀、吉祥物迎宾游街等。\n蓝天、白云、森林、海洋，是您一踏入花莲远雄海洋公园可感受到的自然风光。阳光中的远红外线可以促进体内有害物质的代谢；背倚海岸山脉，丰沛森林资源充满着植物特有的芬多精；浩瀚的太平洋一览无际，含大量负离子的海风轻轻吹拂，舒缓了都市生活的压力与忙碌。徜徉在花莲远雄海洋公园，与大自然来段优雅的华尔兹，在呼吸间寻找心灵的沉淀，在欢乐中展现最灿烂的笑颜，身心与自然的平衡，获得最佳的休憩再出发。"}}, {"title": "秀姑峦溪", "address": "花莲县瑞穗乡瑞良村中山路三段215号", "image": "", "rank": 36, "time": 2.5, "location": {"lat": 38.66222906049726, "lng": 114.96165161435523}, "feature": {"sight_features": "", "sight_content": ""}}, {"title": "多罗满赏鲸", "address": "台湾花莲市民权路37号", "image": "", "rank": 37, "time": 2, "location": {"lat": 23.99710141041564, "lng": 121.61485455893701}, "feature": {"sight_features": "", "sight_content": ""}}, {"title": "布洛湾游憩区", "address": "花莲县秀林乡富世村中横燕子口", "image": "", "rank": 38, "time": 1.5, "location": {"lat": 19.437612087581975, "lng": 110.47660228796693}, "feature": {"sight_features": "", "sight_content": ""}}, {"title": "花莲铁道文化园区", "address": "花莲县花莲市中山路71号（一馆）、博爱街24巷35号（二馆）", "image": "", "rank": 39, "time": 2.0, "location": {"lat": 38.92475192734627, "lng": 121.64162023940474}, "feature": {"sight_features": "", "sight_content": ""}}, {"title": "花莲飞行伞体验", "address": "花莲火车站集合，部分市区酒店可接送。", "image": "", "rank": 40, "time": 1.5, "location": {"lat": 30.16567767483513, "lng": 120.25155029366263}, "feature": {"sight_features": "", "sight_content": ""}}, {"title": "花莲轻航机飞行伞体验", "address": "花莲县寿丰乡丰坪路三段600巷21弄191号日光轻航机场（花莲县寿丰乡月眉桥头旁）", "image": "", "rank": 41, "time": 1.5, "location": {"lat": 29.71902929573884, "lng": 119.09193183289756}, "feature": {"sight_features": "", "sight_content": ""}}, {"title": "南滨公园", "address": "970台湾花莲县花莲市海岸路‎", "image": "", "rank": 42, "time": 1.5, "location": {"lat": 19.437612087581975, "lng": 110.47660228796693}, "feature": {"sight_features": "", "sight_content": ""}}, {"title": "花莲溯溪体验", "address": "花莲县砂婆礑溪、三栈南溪、白鲍溪、翡翠谷、黄金峡谷、清水溪、青昌溪", "image": "", "rank": 43, "time": 2.5, "location": {"lat": 28.8515036480266, "lng": 104.97651330197829}, "feature": {"sight_features": "", "sight_content": ""}}, {"title": "天祥", "address": "花莲县秀林乡天祥路", "image": "", "rank": 44, "time": 2.0, "location": {"lat": 19.437612087581975, "lng": 110.47660228796693}, "feature": {"sight_features": "", "sight_content": ""}}, {"title": "赤科山", "address": "981台湾花莲县观音里高寮", "image": "", "rank": 45, "time": 2.0, "location": {"lat": 24.086956718804895, "lng": 121.97387097871568}, "feature": {"sight_features": "", "sight_content": ""}}, {"title": "花莲酒厂", "address": "970台湾花莲市美工路6号", "image": "", "rank": 46, "time": 2.0, "location": {"lat": 23.99710141041564, "lng": 121.61485455893701}, "feature": {"sight_features": "", "sight_content": ""}}, {"title": "矶崎海水浴场", "address": "977台湾花莲县丰滨乡", "image": "", "rank": 47, "time": 2, "location": {"lat": 23.59306189315068, "lng": 121.48780361658245}, "feature": {"sight_features": "", "sight_content": ""}}, {"title": "池南国家森林游乐区", "address": "花莲县寿丰乡林园路池南森林游乐区", "image": "", "rank": 48, "time": 2.0, "location": {"lat": 19.437612087581975, "lng": 110.47660228796693}, "feature": {"sight_features": "", "sight_content": ""}}, {"title": "马太鞍湿地生态园区", "address": "台灣花莲县光复乡大全村大全街42巷15号", "image": "", "rank": 49, "time": 1.5, "location": {"lat": 22.32496139051711, "lng": 114.17287972418698}, "feature": {"sight_features": "", "sight_content": ""}}, {"title": "云山水VillaHome民宿", "address": "花莲县寿丰乡丰坪路二段二巷201弄18号", "image": "", "rank": 50, "time": 2, "location": {"lat": 29.71902929573884, "lng": 119.09193183289756}, "feature": {"sight_features": "", "sight_content": ""}}, {"title": "长虹桥", "address": "977台湾花莲县丰滨乡长虹桥", "image": "", "rank": 51, "time": 1.5, "location": {"lat": 23.59306189315068, "lng": 121.48780361658245}, "feature": {"sight_features": "", "sight_content": ""}}, {"title": "靳珩公园", "address": "位于燕子口尽头", "image": "", "rank": 52, "time": 2, "location": {"lat": 40.3165771298692, "lng": 116.2075570837076}, "feature": {"sight_features": "", "sight_content": ""}}, {"title": "安通温泉", "address": "台灣花莲县玉里镇乐合里温泉36号", "image": "", "rank": 53, "time": 2, "location": {"lat": 19.437612087581975, "lng": 110.47660228796693}, "feature": {"sight_features": "", "sight_content": ""}}, {"title": "大禹岭(合欢山垭口)", "address": "靠近南投、台中两县交界", "image": "", "rank": 54, "time": 2, "location": {"lat": 26.091557030418777, "lng": 119.33696304538368}, "feature": {"sight_features": "", "sight_content": ""}}, {"title": "芭崎眺望台", "address": "977台湾花莲县丰滨乡海岸公路", "image": "", "rank": 55, "time": 2.0, "location": {"lat": 23.59306189315068, "lng": 121.48780361658245}, "feature": {"sight_features": "", "sight_content": ""}}, {"title": "延平郡王庙", "address": "花莲县花莲市国强里丰村72号", "image": "", "rank": 56, "time": 2, "location": {"lat": 36.19464873004664, "lng": 112.70561356086884}, "feature": {"sight_features": "", "sight_content": ""}}, {"title": "新光兆丰休闲农场", "address": "台灣花莲县凤林镇林荣里永福街20号", "image": "", "rank": 57, "time": 1.5, "location": {"lat": 44.41802277007713, "lng": 131.15421596740222}, "feature": {"sight_features": "", "sight_content": ""}}, {"title": "慈济堂", "address": "台灣花莲县花莲市中央路三段701号至707号", "image": "", "rank": 58, "time": 2.0, "location": {"lat": 46.80984636700933, "lng": 134.0314738503574}, "feature": {"sight_features": "", "sight_content": ""}}, {"title": "金三角商圈", "address": "花莲市区中山路、中正路、中华路一带", "image": "", "rank": 59, "time": 2.5, "location": {"lat": 42.02608588567344, "lng": 121.6731494358444}, "feature": {"sight_features": "", "sight_content": ""}}, {"title": "水琏湿地牛山海岸", "address": "974台湾花莲县寿丰乡海岸公路", "image": "", "rank": 60, "time": 1.5, "location": {"lat": 43.77224219990765, "lng": 87.62646712442684}, "feature": {"sight_features": "", "sight_content": ""}}]}