{"cityName": "黄南", "days": "", "cityImage": "", "spots": [{"title": "坎布拉国家森林公园", "address": "黄南州尖扎县西北部", "image": "", "rank": 1, "time": 3.5, "location": {"lat": 35.94428445986772, "lng": 102.0375073241969}, "feature": {"sight_features": "特色1 连绵陡峭的红色丹霞峰林，碧绿清澈的黄河水库 特色2 山水相映风光秀美，山间树木茂密，每到秋天都有金黄灿烂的树叶可以观赏。 特色3 国家森林/地质公园、国家级黄河水利风景区、藏教佛教后弘期发祥之地", "sight_content": "坎布拉国家森林公园在地质方位上处于青藏高原和黄土高原交会区域。公园内涵盖“丹霞”峰林地貌景观、新生界沉积环境和沉积构造类型以及3800万年以来的地质生态环境演化遗迹。坎布拉丹霞地貌由红色砂砾岩构成，岩体表面丹红如霞。奇峰、方山、洞穴、峭壁为主要地貌特征。\n坎布拉森林公园公园总面积约217平方公里，境内最高海拔为约4614米，但在目前呈现给大家的游览线路中，海拔保持在约2100-2850米之间，同时，坎布拉的森林和山峰面积占总面积的80％以上，年平均降水量约450-490毫米，年平均气温约－6℃－2.9℃。\n公园整体上西高东低，山峰相间，由山地、风蚀残丘、山间小盆地相间组成，以巨峰、方山、洞穴、峭壁为主，山体形状如巨柱、宝塔、城堡、宫殿、窗棂等，有帷幕式地貌和蜂窝状地貌等，千姿百态，栩栩如生，雄伟壮观，似人鬼斧神工之妙。\n\n坎布拉丹霞地貌多以奇峰、方山、洞穴、峭壁为其主要地貌特征。大型山体如柱状、塔形、城堡，陡峭直立，雄伟壮观，气宇非凡。小尺度的造型地貌似巨人、兽类，各种造型等栩栩如生，形态千奇百怪，有鬼斧神工之妙。"}}, {"title": "隆务寺", "address": "青海省同仁县隆务镇", "image": "", "rank": 2, "time": 2.5, "location": {"lat": 35.51499000724933, "lng": 102.01980814997115}, "feature": {"sight_features": "", "sight_content": ""}}, {"title": "吾屯下寺", "address": "青海省黄南藏族自治州同仁县203省道吾屯下寺", "image": "", "rank": 3, "time": 1.0, "location": {"lat": 35.56624278491786, "lng": 102.06375156131509}, "feature": {"sight_features": "", "sight_content": ""}}, {"title": "黄南热贡艺术乡", "address": "黄南藏族自治州同仁县五屯地区", "image": "", "rank": 4, "time": 3.5, "location": {"lat": 35.52186515052424, "lng": 102.02543778119538}, "feature": {"sight_features": "", "sight_content": ""}}, {"title": "郭麻日古堡", "address": "郭麻日村", "image": "", "rank": 5, "time": 2, "location": {"lat": 35.57720224808519, "lng": 102.05194506911606}, "feature": {"sight_features": "", "sight_content": ""}}, {"title": "吾屯上寺", "address": "青海省黄南藏族自治州同仁县203省道吾屯上寺", "image": "", "rank": 6, "time": 1.0, "location": {"lat": 35.5605160543673, "lng": 102.06042940386112}, "feature": {"sight_features": "", "sight_content": ""}}, {"title": "郭麻日寺", "address": "青海省黄南藏族自治州同仁县郭麻日寺", "image": "", "rank": 7, "time": 1.0, "location": {"lat": 35.573114567351524, "lng": 102.04931766743164}, "feature": {"sight_features": "", "sight_content": ""}}, {"title": "隆务河", "address": "黄南藏族自治州同仁县", "image": "", "rank": 8, "time": 1.5, "location": {"lat": 35.52186515052424, "lng": 102.02543778119538}, "feature": {"sight_features": "", "sight_content": ""}}, {"title": "阿琼南宗寺", "address": "坎布拉乡南南宗沟5公里的小溪东岸台地坎布拉国家森林公园内", "image": "", "rank": 9, "time": 2, "location": {"lat": 36.10462736197363, "lng": 101.74619452243333}, "feature": {"sight_features": "", "sight_content": ""}}, {"title": "和日寺", "address": "黄南藏族自治州泽库县", "image": "", "rank": 10, "time": 1.0, "location": {"lat": 35.042014495100005, "lng": 101.47359451318887}, "feature": {"sight_features": "", "sight_content": ""}}, {"title": "黄南泽库和日石经墙", "address": "黄南州泽库县和日寺后山", "image": "", "rank": 11, "time": 3.5, "location": {"lat": 35.23434847488863, "lng": 101.00966499188296}, "feature": {"sight_features": "", "sight_content": ""}}, {"title": "麦秀国家森林公园", "address": "青海省黄南藏族自治州泽库县", "image": "", "rank": 12, "time": 1.0, "location": {"lat": 35.042014495100005, "lng": 101.47359451318887}, "feature": {"sight_features": "", "sight_content": ""}}, {"title": "昂拉千户宅院", "address": "青海省尖扎县昂拉乡尖巴昂村", "image": "", "rank": 13, "time": 1.0, "location": {"lat": 35.895354170280534, "lng": 102.0484919486001}, "feature": {"sight_features": "", "sight_content": ""}}, {"title": "李家峡北岸生态园风景区", "address": "青海省海东地区化隆回族自治县", "image": "", "rank": 14, "time": 2, "location": {"lat": 36.07188303331666, "lng": 102.24397796342969}, "feature": {"sight_features": "", "sight_content": ""}}, {"title": "黄南德钦寺", "address": "黄南州尖扎县能科乡", "image": "", "rank": 15, "time": 3.5, "location": {"lat": 35.87932414226787, "lng": 101.94869534834228}, "feature": {"sight_features": "", "sight_content": ""}}, {"title": "旺嘉寺", "address": "同仁县曲库乎乡", "image": "", "rank": 16, "time": 1.0, "location": {"lat": 35.39714948681302, "lng": 102.047433002709}, "feature": {"sight_features": "", "sight_content": ""}}, {"title": "年都乎寺", "address": "黄南州同仁县年都乎乡(同仁县城以北1.5km)", "image": "", "rank": 17, "time": 2, "location": {"lat": 35.538201981746965, "lng": 102.03219746188674}, "feature": {"sight_features": "", "sight_content": ""}}, {"title": "家·宝贝儿童欢乐谷", "address": "雪莲东路2号附近", "image": "", "rank": 18, "time": 2, "location": {"lat": 44.428687062586285, "lng": 84.8994093301545}, "feature": {"sight_features": "", "sight_content": ""}}, {"title": "丹霞十八峰", "address": "坎布拉景区内", "image": "", "rank": 19, "time": 2, "location": {"lat": 36.15047044030588, "lng": 101.78728881592008}, "feature": {"sight_features": "", "sight_content": ""}}, {"title": "瑶池仙境", "address": "坎布拉国家森林公园", "image": "", "rank": 20, "time": 2, "location": {"lat": 36.12100327113237, "lng": 101.82555359976236}, "feature": {"sight_features": "", "sight_content": ""}}, {"title": "擎天一柱", "address": "坎布拉国家森林公园", "image": "", "rank": 21, "time": 2, "location": {"lat": 36.12100327113237, "lng": 101.82555359976236}, "feature": {"sight_features": "", "sight_content": ""}}, {"title": "佛手指天", "address": "坎布拉国家森林公园", "image": "", "rank": 22, "time": 2, "location": {"lat": 36.12100327113237, "lng": 101.82555359976236}, "feature": {"sight_features": "", "sight_content": ""}}, {"title": "点将台", "address": "坎布拉国家森林公园", "image": "", "rank": 23, "time": 0.3, "location": {"lat": 36.12100327113237, "lng": 101.82555359976236}, "feature": {"sight_features": "", "sight_content": ""}}, {"title": "双朋西乡", "address": "青海省黄南藏族自治州同仁双朋西乡", "image": "", "rank": 24, "time": 2, "location": {"lat": 35.58099937744863, "lng": 102.28253817115362}, "feature": {"sight_features": "", "sight_content": ""}}, {"title": "热贡艺术馆", "address": "热贡路52号", "image": "", "rank": 25, "time": 2, "location": {"lat": 35.5241897921093, "lng": 102.025148661567}, "feature": {"sight_features": "", "sight_content": ""}}, {"title": "烈士陵园", "address": "北大街2号", "image": "", "rank": 26, "time": 2, "location": {"lat": 39.72441498357338, "lng": 116.1839719207295}, "feature": {"sight_features": "", "sight_content": ""}}, {"title": "民族博物馆", "address": "热贡路52号", "image": "", "rank": 27, "time": 2.0, "location": {"lat": 35.5241897921093, "lng": 102.025148661567}, "feature": {"sight_features": "", "sight_content": ""}}, {"title": "泽曲镇牛奶供应及绵羊育肥基地", "address": "泽雄路附近", "image": "", "rank": 28, "time": 2, "location": {"lat": 35.03817214214491, "lng": 101.47695857120506}, "feature": {"sight_features": "", "sight_content": ""}}, {"title": "麦秀国家级森林公园", "address": "青海省泽库县东北部 811400", "image": "", "rank": 29, "time": 2, "location": {"lat": 35.042014495100005, "lng": 101.47359451318887}, "feature": {"sight_features": "", "sight_content": ""}}, {"title": "拉卡寺", "address": "黄南藏族自治州河南蒙古族自治县", "image": "", "rank": 30, "time": 1.0, "location": {"lat": 34.740396071091155, "lng": 101.62247338027404}, "feature": {"sight_features": "", "sight_content": ""}}, {"title": "瓜什则寺", "address": "青海省黄南藏族自治州同仁县瓜什则乡同夏公路瓜什寺", "image": "", "rank": 31, "time": 2, "location": {"lat": 35.551177677924194, "lng": 102.24036688661465}, "feature": {"sight_features": "", "sight_content": ""}}, {"title": "黄南影剧院", "address": "中山路32号附近", "image": "", "rank": 32, "time": 3.5, "location": {"lat": 39.170013299907986, "lng": 117.2125423655915}, "feature": {"sight_features": "", "sight_content": ""}}, {"title": "清泉山庄", "address": "青海省黄南藏族自治州尖扎县李坎公路卡布拉镇政府西南600米", "image": "", "rank": 33, "time": 2, "location": {"lat": 36.11041295548665, "lng": 101.80303254972866}, "feature": {"sight_features": "", "sight_content": ""}}, {"title": "黄南麦秀原始森林", "address": "青海省泽库县隆务镇 811500", "image": "", "rank": 34, "time": 2, "location": {"lat": 35.51499000724933, "lng": 102.01980814997115}, "feature": {"sight_features": "", "sight_content": ""}}, {"title": "尕沙日寺", "address": "黄南藏族自治州同仁县203省道", "image": "", "rank": 35, "time": 2, "location": {"lat": 35.365629366621135, "lng": 101.9696351327461}, "feature": {"sight_features": "", "sight_content": ""}}, {"title": "十世班禅大师纪念馆", "address": "青海省黄南藏族自治州同仁县德合隆南路", "image": "", "rank": 36, "time": 2, "location": {"lat": 35.51692112223032, "lng": 102.01964930979427}, "feature": {"sight_features": "", "sight_content": ""}}, {"title": "吾屯下庄寺", "address": "隆务镇", "image": "", "rank": 37, "time": 2, "location": {"lat": 35.51499000724933, "lng": 102.01980814997115}, "feature": {"sight_features": "", "sight_content": ""}}, {"title": "海心山度假村", "address": "青海省黄南藏族自治州泽库县s203", "image": "", "rank": 38, "time": 2, "location": {"lat": 35.042014495100005, "lng": 101.47359451318887}, "feature": {"sight_features": "", "sight_content": ""}}, {"title": "西卜沙寺", "address": "青海省黄南藏族自治州泽库县", "image": "", "rank": 39, "time": 2, "location": {"lat": 35.042014495100005, "lng": 101.47359451318887}, "feature": {"sight_features": "", "sight_content": ""}}, {"title": "立仓漂流度假村", "address": "青海省黄南藏族自治州同仁县立仓村", "image": "", "rank": 40, "time": 2, "location": {"lat": 35.367415537050846, "lng": 101.87874539421303}, "feature": {"sight_features": "", "sight_content": ""}}, {"title": "革命公墓", "address": "东大街1号", "image": "", "rank": 41, "time": 2, "location": {"lat": 22.61729942596652, "lng": 114.14733751642652}, "feature": {"sight_features": "", "sight_content": ""}}, {"title": "那达慕文化广场", "address": "西大街72号", "image": "", "rank": 42, "time": 2, "location": {"lat": 39.91344175881648, "lng": 116.67081380203402}, "feature": {"sight_features": "", "sight_content": ""}}, {"title": "泽库影剧院", "address": "幸福路193号", "image": "", "rank": 43, "time": 2, "location": {"lat": 35.042034920139294, "lng": 101.47165783028906}, "feature": {"sight_features": "", "sight_content": ""}}, {"title": "禾日寺", "address": "黄南藏族自治州泽库县", "image": "", "rank": 44, "time": 2, "location": {"lat": 35.042014495100005, "lng": 101.47359451318887}, "feature": {"sight_features": "", "sight_content": ""}}, {"title": "赛尔龙寺院", "address": "赛尔龙乡附近", "image": "", "rank": 45, "time": 2, "location": {"lat": 34.489425061174785, "lng": 102.1466838662}, "feature": {"sight_features": "", "sight_content": ""}}, {"title": "隆乌寺", "address": "青海省黄南藏族自治州同仁县东 70 米", "image": "", "rank": 46, "time": 2, "location": {"lat": 35.52186515052424, "lng": 102.02606659505237}, "feature": {"sight_features": "", "sight_content": ""}}, {"title": "优干宁镇社区宣传文化图书室", "address": "西大街40号", "image": "", "rank": 47, "time": 2, "location": {"lat": 39.91356786944232, "lng": 116.67342187487877}, "feature": {"sight_features": "", "sight_content": ""}}, {"title": "玉米绿洲生态园", "address": "203省道", "image": "", "rank": 48, "time": 2, "location": {"lat": 38.70057735317822, "lng": 114.30841754306506}, "feature": {"sight_features": "", "sight_content": ""}}, {"title": "热贡福田画院", "address": "203省道", "image": "", "rank": 49, "time": 2, "location": {"lat": 38.70057735317822, "lng": 114.30841754306506}, "feature": {"sight_features": "", "sight_content": ""}}, {"title": "藏乡画廊", "address": "203省道", "image": "", "rank": 50, "time": 2, "location": {"lat": 38.70057735317822, "lng": 114.30841754306506}, "feature": {"sight_features": "", "sight_content": ""}}, {"title": "黄南州热贡画院", "address": "隆务镇吾屯上庄93号", "image": "", "rank": 51, "time": 2, "location": {"lat": 35.56690385550805, "lng": 102.06329079616476}, "feature": {"sight_features": "", "sight_content": ""}}, {"title": "黄南藏族自治州图书馆", "address": "中山路58号", "image": "", "rank": 52, "time": 3.5, "location": {"lat": 41.80183843197536, "lng": 123.41078117898289}, "feature": {"sight_features": "", "sight_content": ""}}, {"title": "东山乐园", "address": "铁吾村东山路加油站旁", "image": "", "rank": 53, "time": 5.5, "location": {"lat": 35.52169202656071, "lng": 102.0271156344303}, "feature": {"sight_features": "", "sight_content": ""}}, {"title": "春沁园农家乐", "address": "德合隆路附近", "image": "", "rank": 54, "time": 2, "location": {"lat": 33.019798129044716, "lng": 100.28758748481783}, "feature": {"sight_features": "", "sight_content": ""}}, {"title": "鲁卡奇游乐园", "address": "马克堂镇马克唐镇黄河路", "image": "", "rank": 55, "time": 2, "location": {"lat": 35.94381325780805, "lng": 102.0414093288745}, "feature": {"sight_features": "", "sight_content": ""}}, {"title": "德龙尖巴", "address": "黄南藏族自治州-尖扎县", "image": "", "rank": 56, "time": 2, "location": {"lat": 35.94428445986772, "lng": 102.0375073241969}, "feature": {"sight_features": "", "sight_content": ""}}, {"title": "南宗尼姑寺", "address": "青海省黄南藏族自治州尖扎县坎布拉镇坎布拉景区内", "image": "", "rank": 57, "time": 2, "location": {"lat": 36.15047044030588, "lng": 101.78728881592008}, "feature": {"sight_features": "", "sight_content": ""}}, {"title": "夏吾才旦手工画廊", "address": "青海省黄南藏族自治州同仁县吾屯下庄村", "image": "", "rank": 58, "time": 2, "location": {"lat": 35.56457427223392, "lng": 102.06088779119675}, "feature": {"sight_features": "", "sight_content": ""}}, {"title": "木合沙寺", "address": "青海省黄南州同仁县曲库乎乡西北木合沙村", "image": "", "rank": 59, "time": 2, "location": {"lat": 35.39714948681302, "lng": 102.047433002709}, "feature": {"sight_features": "", "sight_content": ""}}, {"title": "南宗沟", "address": "青海省黄南藏族自治州尖扎县坎布拉镇坎布拉景区内", "image": "", "rank": 60, "time": 2, "location": {"lat": 36.15047044030588, "lng": 101.78728881592008}, "feature": {"sight_features": "", "sight_content": ""}}]}