{"cityName": "桓台", "days": null, "cityImage": "", "spots": [{"title": "马踏湖", "address": "淄博市桓台县起风镇华沟村北", "image": "", "rank": 1, "time": 2.5, "location": {"lat": 37.06945504551534, "lng": 118.06360466559569}, "feature": {"sight_features": "", "sight_content": ""}}, {"title": "王渔洋纪念馆", "address": "淄博市桓台县新城镇新立村", "image": "", "rank": 2, "time": 1.0, "location": {"lat": 36.95634595104303, "lng": 117.94719139596356}, "feature": {"sight_features": "", "sight_content": ""}}, {"title": "红莲湖公园", "address": "淄博市桓台县柳泉北路", "image": "", "rank": 3, "time": 2, "location": {"lat": 36.942497734627885, "lng": 118.08165445385181}, "feature": {"sight_features": "", "sight_content": ""}}, {"title": "桓台博物馆", "address": "中心大街796", "image": "", "rank": 4, "time": 2.5, "location": {"lat": 36.96551397211806, "lng": 118.10333910779467}, "feature": {"sight_features": "", "sight_content": ""}}, {"title": "马桥公园", "address": "山东省淄博市桓台县红辛路", "image": "", "rank": 5, "time": 2, "location": {"lat": 37.04505158498882, "lng": 117.90774449507018}, "feature": {"sight_features": "", "sight_content": ""}}, {"title": "一嗨租车(桓台少海公园送车点)", "address": "少海路惠仟佳购物广场停车场", "image": "", "rank": 6, "time": 2, "location": {"lat": 36.96660035433478, "lng": 118.09405486343368}, "feature": {"sight_features": "", "sight_content": ""}}, {"title": "万狮博物馆", "address": "建设街2188", "image": "", "rank": 7, "time": 2, "location": {"lat": 43.887468506025286, "lng": 125.30452933728797}, "feature": {"sight_features": "", "sight_content": ""}}, {"title": "东镇影剧院", "address": "索镇索镇二街", "image": "", "rank": 8, "time": 2, "location": {"lat": 36.95499909552388, "lng": 118.11635884961886}, "feature": {"sight_features": "", "sight_content": ""}}, {"title": "毕氏生态园", "address": "前毕村", "image": "", "rank": 9, "time": 2, "location": {"lat": 37.79778616378175, "lng": 118.5527750742567}, "feature": {"sight_features": "", "sight_content": ""}}, {"title": "淄博忠勤祠", "address": "山东省桓台县新城镇新立村 256403", "image": "", "rank": 10, "time": 2, "location": {"lat": 36.95634595104303, "lng": 117.94719139596356}, "feature": {"sight_features": "", "sight_content": ""}}, {"title": "唐山影剧院", "address": "山东省淄博市桓台县唐山镇", "image": "", "rank": 11, "time": 2.5, "location": {"lat": 36.98316784006719, "lng": 118.05949879048259}, "feature": {"sight_features": "", "sight_content": ""}}, {"title": "百姓大舞台", "address": "中心大街与兴唐路路口北20米路西", "image": "", "rank": 12, "time": 2, "location": {"lat": 36.96332803218864, "lng": 118.05132710647877}, "feature": {"sight_features": "", "sight_content": ""}}, {"title": "东镇花卉园", "address": "镇北大街861号", "image": "", "rank": 13, "time": null, "location": {"lat": 23.029900584841737, "lng": 113.33030107739229}, "feature": {"sight_features": "", "sight_content": ""}}, {"title": "极限运动", "address": "淄博市桓台县卫生街229号", "image": "", "rank": 14, "time": 2, "location": {"lat": 36.96193458598688, "lng": 118.10778784311046}, "feature": {"sight_features": "", "sight_content": ""}}, {"title": "马桥镇新农村建设规划展室", "address": "山东省桓台县红辛路", "image": "", "rank": 15, "time": 2, "location": {"lat": 37.04505158498882, "lng": 117.90774449507018}, "feature": {"sight_features": "", "sight_content": ""}}, {"title": "桃花源天然生态园", "address": "淄博市桓台县柳泉路甜源生活区附近", "image": "", "rank": 16, "time": 2, "location": {"lat": 36.89023336946301, "lng": 118.07911974471975}, "feature": {"sight_features": "", "sight_content": ""}}, {"title": "大草原啤酒广场", "address": "东岳路与桓台大道路口东40米路南大院内（山东大学齐鲁医院桓台分院南门对过）", "image": "", "rank": 17, "time": 2, "location": {"lat": 36.94971013131432, "lng": 118.09892568162073}, "feature": {"sight_features": "", "sight_content": ""}}, {"title": "鑫鹏游泳俱乐部", "address": "张田路121车站向西200米", "image": "", "rank": 18, "time": 2, "location": {"lat": 32.85753681707322, "lng": 120.33406396662056}, "feature": {"sight_features": "", "sight_content": ""}}, {"title": "湖心公园", "address": "山东省淄博市桓台县黄河路", "image": "", "rank": 19, "time": 2, "location": {"lat": 36.92912805103812, "lng": 118.06207978750098}, "feature": {"sight_features": "", "sight_content": ""}}, {"title": "快乐时光", "address": "索镇宝龙小区", "image": "", "rank": 20, "time": 2, "location": {"lat": 36.97491693197708, "lng": 118.099889507738}, "feature": {"sight_features": "", "sight_content": ""}}, {"title": "烈士陵园", "address": "张北路4107号", "image": "", "rank": 21, "time": 2, "location": {"lat": 36.976873709829455, "lng": 118.12085522801851}, "feature": {"sight_features": "", "sight_content": ""}}, {"title": "齐王阁", "address": "淄博市桓台县起凤镇荆夏路", "image": "", "rank": 22, "time": 2, "location": {"lat": 37.069065360477396, "lng": 118.06724541967505}, "feature": {"sight_features": "", "sight_content": ""}}, {"title": "哈哈宝贝同乐园", "address": "淄博市桓台县中心大街1650号惠仟佳购物广场F3", "image": "", "rank": 23, "time": 2, "location": {"lat": 36.96656629279299, "lng": 118.09417843344131}, "feature": {"sight_features": "", "sight_content": ""}}, {"title": "盛华园度假村", "address": "淄博市桓台县华沟村", "image": "", "rank": 24, "time": null, "location": {"lat": 37.06945504551534, "lng": 118.06360466559569}, "feature": {"sight_features": "", "sight_content": ""}}, {"title": "淄博泛舟(桓台店)", "address": "山东省淄博市桓台县俪都精品步行街御花园小区附近", "image": "", "rank": 25, "time": 3.5, "location": {"lat": 36.96650177611138, "lng": 118.1108999413568}, "feature": {"sight_features": "", "sight_content": ""}}, {"title": "下沉广场", "address": "崇德路与文昌路交叉口北100米", "image": "", "rank": 26, "time": 2, "location": {"lat": 36.889290212642926, "lng": 118.08724477971846}, "feature": {"sight_features": "", "sight_content": ""}}, {"title": "陈庄公园", "address": "万家园路11号", "image": "", "rank": 27, "time": 2, "location": {"lat": 37.0152044548715, "lng": 117.92909629088936}, "feature": {"sight_features": "", "sight_content": ""}}, {"title": "渔洋人家", "address": "英雄路", "image": "", "rank": 28, "time": 2, "location": {"lat": 37.33304299970271, "lng": 113.57311231399257}, "feature": {"sight_features": "", "sight_content": ""}}, {"title": "绿圣林度假村", "address": "桓台大道320", "image": "", "rank": 29, "time": 2, "location": {"lat": 36.94818834321563, "lng": 118.1222428450313}, "feature": {"sight_features": "", "sight_content": ""}}, {"title": "起凤影剧院", "address": "起凤镇府西邻起凤宾馆附近", "image": "", "rank": 30, "time": 2, "location": {"lat": 37.071371077931275, "lng": 118.11237308873211}, "feature": {"sight_features": "", "sight_content": ""}}, {"title": "华夏粮仓博物馆", "address": "侯庄路与果里大道交叉口东150米", "image": "", "rank": 31, "time": 2, "location": {"lat": 36.92118133196035, "lng": 118.09889163584191}, "feature": {"sight_features": "", "sight_content": ""}}, {"title": "桓台天承书画城", "address": "山东省淄博市文化体育中心天承楼", "image": "", "rank": 32, "time": 2.5, "location": {"lat": 36.95216472981259, "lng": 118.08975742287396}, "feature": {"sight_features": "", "sight_content": ""}}, {"title": "华严寺", "address": "淄博市桓台县", "image": "", "rank": 33, "time": 0.75, "location": {"lat": 36.965607980118264, "lng": 118.10443420778763}, "feature": {"sight_features": "", "sight_content": ""}}, {"title": "亲子游乐园", "address": "红莲湖二期南门外南20米", "image": "", "rank": 34, "time": 2, "location": {"lat": 30.765584515157986, "lng": 103.99932911776564}, "feature": {"sight_features": "", "sight_content": ""}}, {"title": "梦幻森林儿童主题乐园", "address": "银座广场二楼东南角", "image": "", "rank": 35, "time": 2, "location": {"lat": 27.782354626049052, "lng": 120.66877636275905}, "feature": {"sight_features": "", "sight_content": ""}}, {"title": "大川新村", "address": "工业街东岳路路口附近", "image": "", "rank": 36, "time": 2, "location": {"lat": 36.97663788082769, "lng": 118.09858066493199}, "feature": {"sight_features": "", "sight_content": ""}}, {"title": "王渔洋纪念馆-王渔洋故居", "address": "238省道东100米", "image": "", "rank": 37, "time": 2, "location": {"lat": 32.02406130021086, "lng": 119.88618860206677}, "feature": {"sight_features": "", "sight_content": ""}}, {"title": "桓台书画院", "address": "中心大街972号", "image": "", "rank": 38, "time": null, "location": {"lat": 36.96549545291071, "lng": 118.10138778431165}, "feature": {"sight_features": "", "sight_content": ""}}, {"title": "科学发展规划展", "address": "柳泉北路", "image": "", "rank": 39, "time": 2, "location": {"lat": 36.942497734627885, "lng": 118.08165445385181}, "feature": {"sight_features": "", "sight_content": ""}}, {"title": "万壶艺术馆", "address": "东岳路1251号齐商银行桓台支行1层南大厅", "image": "", "rank": 40, "time": 2, "location": {"lat": 36.96108751269582, "lng": 118.09844233037498}, "feature": {"sight_features": "", "sight_content": ""}}, {"title": "才瑞生态园", "address": "仁丰路68号", "image": "", "rank": 41, "time": 2, "location": {"lat": 37.04732636246235, "lng": 118.06865650132606}, "feature": {"sight_features": "", "sight_content": ""}}, {"title": "鹤伴山诗词书画展览馆", "address": "张田路7888号", "image": "", "rank": 42, "time": 2, "location": {"lat": 36.95648984894146, "lng": 117.94935316996992}, "feature": {"sight_features": "", "sight_content": ""}}, {"title": "创尔沃地源热泵展厅", "address": "238省道", "image": "", "rank": 43, "time": 2, "location": {"lat": 32.02406130021086, "lng": 119.88529029655679}, "feature": {"sight_features": "", "sight_content": ""}}, {"title": "桓台县图书馆", "address": "文体中心", "image": "", "rank": 44, "time": 2, "location": {"lat": 39.803966177984826, "lng": 116.48419955488258}, "feature": {"sight_features": "", "sight_content": ""}}, {"title": "千鸿画廊", "address": "公园路", "image": "", "rank": 45, "time": 2, "location": {"lat": 39.85630561225323, "lng": 116.5374093064604}, "feature": {"sight_features": "", "sight_content": ""}}, {"title": "舒云美术博物馆", "address": "兴桓路100号", "image": "", "rank": 46, "time": 2, "location": {"lat": 36.957618817608065, "lng": 118.10616494965777}, "feature": {"sight_features": "", "sight_content": ""}}, {"title": "桓台县档案馆", "address": "中心大街522号", "image": "", "rank": 47, "time": 2, "location": {"lat": 40.96152754481458, "lng": 117.80093782852789}, "feature": {"sight_features": "", "sight_content": ""}}, {"title": "农民书法美术研究会", "address": "文化街40号", "image": "", "rank": 48, "time": 2, "location": {"lat": 39.060523137097604, "lng": 115.87546524248786}, "feature": {"sight_features": "", "sight_content": ""}}, {"title": "毛主席影像展览馆", "address": "侯庄路", "image": "", "rank": 49, "time": 2, "location": {"lat": 39.7931062284285, "lng": 116.43408353065062}, "feature": {"sight_features": "", "sight_content": ""}}, {"title": "工业职业学院北区图书馆", "address": "东泰路与桓台路交口向西100米路南山东工业职业学院北区", "image": "", "rank": 50, "time": 2, "location": {"lat": 36.894686042809184, "lng": 118.08819077267472}, "feature": {"sight_features": "", "sight_content": ""}}, {"title": "小海豚游乐场", "address": "柳泉路北首红莲湖二期南岸沙滩处", "image": "", "rank": 51, "time": 2, "location": {"lat": 29.50268309883491, "lng": 106.66842977859555}, "feature": {"sight_features": "", "sight_content": ""}}, {"title": "红莲湖二期欢乐时光游乐园", "address": "红莲湖二期南侧", "image": "", "rank": 52, "time": 2, "location": {"lat": 36.94096491589946, "lng": 118.08955799905075}, "feature": {"sight_features": "", "sight_content": ""}}, {"title": "茶茗露天宜兴紫砂壶艺术馆", "address": "中心大街附近", "image": "", "rank": 53, "time": 2, "location": {"lat": 39.11753828312672, "lng": 117.72698127551898}, "feature": {"sight_features": "", "sight_content": ""}}, {"title": "浅墨书画苑", "address": "文化街40号附近", "image": "", "rank": 54, "time": 2, "location": {"lat": 39.060523137097604, "lng": 115.87546524248786}, "feature": {"sight_features": "", "sight_content": ""}}, {"title": "好乐迪水上乐园", "address": "好乐迪ktv东10米", "image": "", "rank": 55, "time": 2, "location": {"lat": 39.685298073350395, "lng": 118.27080986535869}, "feature": {"sight_features": "", "sight_content": ""}}, {"title": "桓台水上乐园", "address": "兴环路中医院往北1000米路西", "image": "", "rank": 56, "time": 2.5, "location": {"lat": 39.90220615050265, "lng": 117.75014496343316}, "feature": {"sight_features": "", "sight_content": ""}}, {"title": "瑞德斋画廊", "address": "镇南大街北150米", "image": "", "rank": 57, "time": 2, "location": {"lat": 29.32639355034304, "lng": 117.55477705272624}, "feature": {"sight_features": "", "sight_content": ""}}, {"title": "文仕阁画廊", "address": "狮子街与镇南大街交叉口东北200米", "image": "", "rank": 58, "time": 2, "location": {"lat": 36.96142388799031, "lng": 118.11811692782396}, "feature": {"sight_features": "", "sight_content": ""}}, {"title": "鲁讯画廊", "address": "信誉路417-423号附近", "image": "", "rank": 59, "time": 2, "location": {"lat": 36.95390446829176, "lng": 118.10304605628306}, "feature": {"sight_features": "", "sight_content": ""}}, {"title": "惠仟佳购物街", "address": "山东省桓台县少海路", "image": "", "rank": 60, "time": 2, "location": {"lat": 37.00778714958949, "lng": 118.09308185393918}, "feature": {"sight_features": "", "sight_content": ""}}]}