{"cityName": "黄平", "days": null, "cityImage": "", "spots": [{"title": "野洞河", "address": "黔东南苗族侗族自治州黄平县野洞河乡境内", "image": "", "rank": 1, "time": 1.5, "location": {"lat": 26.87456438453246, "lng": 107.86822228287556}, "feature": {"sight_features": "", "sight_content": ""}}, {"title": "洋码头水库", "address": "黔东南苗族侗族自治州黄平县旧州镇打米坡幺妹滩", "image": "", "rank": 2, "time": 1.0, "location": {"lat": 26.991991858332085, "lng": 107.71919107400478}, "feature": {"sight_features": "", "sight_content": ""}}, {"title": "飞云崖", "address": "黔东南苗族侗族自治州黄平县城东面东坡乡圣果桥畔", "image": "", "rank": 3, "time": 2.5, "location": {"lat": 26.911288643100754, "lng": 107.92354780621629}, "feature": {"sight_features": "", "sight_content": ""}}, {"title": "旧州古城", "address": "黔东南苗族侗族自治州黄平县旧州镇", "image": "", "rank": 4, "time": 2.5, "location": {"lat": 27.009821654501792, "lng": 107.75056169631895}, "feature": {"sight_features": "", "sight_content": ""}}, {"title": "黄平浪洞森林温泉", "address": "黔东南州黄平县北面浪洞乡温水塘村", "image": "", "rank": 5, "time": 2, "location": {"lat": 27.10981184641356, "lng": 107.69846978715192}, "feature": {"sight_features": "", "sight_content": "浪洞森林温泉度假山庄按国家AAAA级旅游度假区标准投资兴建，集温泉洗浴、观光度假、休闲娱乐于一体的原生态景区。位于贵州省黔东南州黄平县浪洞乡温水塘，处于三州（市）交界，距黄平县城48公里（4级油路），黔南州的瓮安县城38公里，遵义市的余庆县城40公里，凯里市100公里（凯里至黄平路段的52公里是2级油路），福泉市98公时，省会贵阳260公里。以优美的自然风光，浓郁的民族风光和古朴的民族建筑，被联合国教科文组织列为世界“返朴归真，重返大自然”的十大旅游圣地之一，被专家称为人类疲惫心灵的最后家园。\n浪洞森林温泉度假山庄气候宜人，冬无严寒，夏无酷暑，四季分明。温泉在挖掘地方民族文化的特有内涵基础上，以所在地的自然环境、人文环境和资源特点，提炼出鲜明的主题，以大巴山为载体，把大山的包容与奔放、森林的浪漫与神秘、温泉的灵气与热情、民族文化的绚丽与神奇融为一体，打造出一幅自然生态和谐相融的森林温泉公园。\n\n\n浪洞森林温泉度假山庄，其中以温泉主题公园为主，大小汤池50余个、石板浴及约2000平方米的休闲泳池，汤池水温常年保持在46℃—52℃间，汤池用水采用国际先进的水处理设备抽取（天然温泉达到国家饮用水标准）；另配套的还有48间三星级客房和可同时接待100人用餐的特色中餐大厅等经营项目。浪洞森林温泉度假山庄将用民族的形式表现天然的资源，以时尚的风格诠释传统的文化，无论您是观光旅游、休闲度假、商务洽谈浪洞森林温泉度假山庄将是您最好的去处！"}}, {"title": "黔南第一洞天", "address": "黄平县", "image": "", "rank": 6, "time": 2.5, "location": {"lat": 26.911288643100754, "lng": 107.92354780621629}, "feature": {"sight_features": "", "sight_content": ""}}, {"title": "中华苏维埃银行旧址", "address": "旧州镇", "image": "", "rank": 7, "time": 2, "location": {"lat": 24.659148576578637, "lng": 105.81084842458532}, "feature": {"sight_features": "", "sight_content": ""}}, {"title": "黄平战斗遗址", "address": "黄平县", "image": "", "rank": 8, "time": 2.5, "location": {"lat": 26.911288643100754, "lng": 107.92354780621629}, "feature": {"sight_features": "", "sight_content": ""}}, {"title": "仁寿宫", "address": "马家巷旧州镇派出所附近", "image": "", "rank": 9, "time": 2, "location": {"lat": 26.258504730683786, "lng": 106.14443748496294}, "feature": {"sight_features": "", "sight_content": ""}}, {"title": "黄平县林工商公司新桥后备林基地", "address": "204省道附近", "image": "", "rank": 10, "time": 2, "location": {"lat": 38.05803661623474, "lng": 114.77437992974008}, "feature": {"sight_features": "", "sight_content": ""}}, {"title": "飞云崖民族节日博物馆", "address": "贵州省黄平县县城东北 556100", "image": "", "rank": 11, "time": 2, "location": {"lat": 26.911288643100754, "lng": 107.92354780621629}, "feature": {"sight_features": "", "sight_content": ""}}, {"title": "黄平县县城总体规划展览厅", "address": "贵州省黄平县凯施路近县政府", "image": "", "rank": 12, "time": null, "location": {"lat": 26.92812403933992, "lng": 107.95880025995996}, "feature": {"sight_features": "", "sight_content": ""}}, {"title": "前进广场", "address": "黔东南苗族侗族自治州黄平县中街", "image": "", "rank": 13, "time": 2, "location": {"lat": 27.157808055197936, "lng": 107.72390282025059}, "feature": {"sight_features": "", "sight_content": ""}}, {"title": "四屏广场", "address": "西门街", "image": "", "rank": 14, "time": 2, "location": {"lat": 39.00402465412309, "lng": 112.30816988869645}, "feature": {"sight_features": "", "sight_content": ""}}, {"title": "相约舞台KTV", "address": "兴隆路附近", "image": "", "rank": 15, "time": 2, "location": {"lat": 39.77411025981237, "lng": 116.40881336931557}, "feature": {"sight_features": "", "sight_content": ""}}, {"title": "中国工农红军黄平战斗遗址", "address": "306省道附近", "image": "", "rank": 16, "time": 2, "location": {"lat": 44.29269479672118, "lng": 120.43504383645545}, "feature": {"sight_features": "", "sight_content": ""}}, {"title": "飞虎庄园", "address": "黔东南苗族侗族自治州黄平县旧州镇816县道西", "image": "", "rank": 17, "time": 2, "location": {"lat": 27.009821654501792, "lng": 107.75056169631895}, "feature": {"sight_features": "", "sight_content": "飞虎庄园位于贵州省黔东南苗族侗族自治州黄平县，建设内容包括休闲、运动、亲子、现代农业、养老度假别墅、木屋酒店、生态餐厅等功能。园区内有亲子乐园和儿童玩乐区、垂钓区、自助餐厅等，可以在亲子乐园和儿童玩乐区共度美好的亲子时光，体验童真乐趣；也可以在垂钓区钓鱼、放松，体验渔民生活；还可以骑着卡丁车穿梭于山林之间，体验速度于激情，呼吸着山里的新鲜空气，与大自然来一次亲密的接触。"}}, {"title": "黄平县图书馆", "address": "新州镇飞云大道", "image": "", "rank": 18, "time": 2, "location": {"lat": 26.91184611680954, "lng": 107.91448381379307}, "feature": {"sight_features": "", "sight_content": ""}}, {"title": "七星潭", "address": "新城乡北埔村(近花莲机场东侧)", "image": "", "rank": 19, "time": 0.3, "location": {"lat": 27.4903710705894, "lng": 120.61447885844697}, "feature": {"sight_features": "", "sight_content": ""}}, {"title": "寻梦缘山庄", "address": "旧州镇新桥", "image": "", "rank": 20, "time": 2, "location": {"lat": 26.272459916917608, "lng": 106.1459512195773}, "feature": {"sight_features": "", "sight_content": ""}}, {"title": "旧州商业步行街", "address": "贵州省黄平县S204省道平价大药店斜对面", "image": "", "rank": 21, "time": 2, "location": {"lat": 26.911288643100754, "lng": 107.92354780621629}, "feature": {"sight_features": "", "sight_content": ""}}, {"title": "黄平县步行街", "address": "贵州省黄平县四屏路", "image": "", "rank": 22, "time": 2, "location": {"lat": 26.902144245755437, "lng": 107.90515935589069}, "feature": {"sight_features": "", "sight_content": ""}}]}