{"cityName": "黄梅", "days": 2, "cityImage": "", "spots": [{"title": "五祖寺", "address": "黄冈市黄梅县059乡道旁", "image": "", "rank": 1, "time": 2.5, "location": {"lat": 30.18244060521652, "lng": 115.94509433985506}, "feature": {"sight_features": "", "sight_content": ""}}, {"title": "黄梅四祖寺", "address": "黄冈市黄梅县大河镇四祖寺", "image": "", "rank": 2, "time": 1.0, "location": {"lat": 30.125704627556985, "lng": 115.8034908490952}, "feature": {"sight_features": "", "sight_content": ""}}, {"title": "龙池河大峡谷景区", "address": "黄冈市黄梅县柳林乡老铺村", "image": "", "rank": 3, "time": 2, "location": {"lat": 30.280956209362277, "lng": 115.96261705903117}, "feature": {"sight_features": "", "sight_content": ""}}, {"title": "火焰洞", "address": "黄冈市黄梅县苦竹乡挪步园", "image": "", "rank": 4, "time": 1.5, "location": {"lat": 30.224361460720534, "lng": 115.8332100292651}, "feature": {"sight_features": "", "sight_content": ""}}, {"title": "伊甸园玫瑰观光景区", "address": "黄冈市黄梅县柳林乡老铺村", "image": "", "rank": 5, "time": 2, "location": {"lat": 30.280956209362277, "lng": 115.96261705903117}, "feature": {"sight_features": "", "sight_content": ""}}, {"title": "玫瑰谷水上乐园", "address": "黄冈市黄梅县柳林乡老铺村", "image": "", "rank": 6, "time": 1.0, "location": {"lat": 30.280956209362277, "lng": 115.96261705903117}, "feature": {"sight_features": "", "sight_content": ""}}, {"title": "黄梅县博物馆", "address": "五祖大街134", "image": "", "rank": 7, "time": 2, "location": {"lat": 30.082971444482098, "lng": 115.94946549446661}, "feature": {"sight_features": "", "sight_content": ""}}, {"title": "龙腾欢乐世界", "address": "黄冈市黄梅县龙感湖管理区雪龙大道", "image": "", "rank": 8, "time": 2, "location": {"lat": 29.879697031910798, "lng": 116.01030250646522}, "feature": {"sight_features": "", "sight_content": ""}}, {"title": "四祖寺风景区", "address": "黄冈市黄梅县其他城西北15公里的西山中", "image": "", "rank": 9, "time": 2, "location": {"lat": 30.076605056821283, "lng": 115.95046198476884}, "feature": {"sight_features": "", "sight_content": ""}}, {"title": "黄梅县图书馆", "address": "人民大道537号", "image": "", "rank": 10, "time": 2, "location": {"lat": 30.417822716566587, "lng": 120.31147600270772}, "feature": {"sight_features": "", "sight_content": ""}}, {"title": "云海游乐园", "address": "湖北省黄冈市黄梅县民营二路88号", "image": "", "rank": 11, "time": 2, "location": {"lat": 30.085354758531775, "lng": 115.94434129034605}, "feature": {"sight_features": "", "sight_content": ""}}, {"title": "汤用彤纪念馆", "address": "黄梅大道198号附近", "image": "", "rank": 12, "time": 2, "location": {"lat": 30.08883435848358, "lng": 115.95073496184719}, "feature": {"sight_features": "", "sight_content": ""}}, {"title": "黄冈鸡鸣山寨度假村", "address": "黄梅城乡社区8组", "image": "", "rank": 13, "time": 7.5, "location": {"lat": 30.07061955456619, "lng": 115.96501395911496}, "feature": {"sight_features": "", "sight_content": ""}}, {"title": "陈大屋文化广场", "address": "湖北省黄冈市黄梅县独黄线", "image": "", "rank": 14, "time": 2, "location": {"lat": 30.033609106928857, "lng": 116.07520303336005}, "feature": {"sight_features": "", "sight_content": ""}}, {"title": "青龙寺", "address": "105国道西50米", "image": "", "rank": 15, "time": 1.5, "location": {"lat": 23.06304361021549, "lng": 113.30875620787864}, "feature": {"sight_features": "", "sight_content": ""}}, {"title": "詹祠堂", "address": "湖北省黄冈市黄梅县詹祠堂附近", "image": "", "rank": 16, "time": 2, "location": {"lat": 30.09979071870953, "lng": 116.04403136324834}, "feature": {"sight_features": "", "sight_content": ""}}, {"title": "宝庆庵", "address": "湖北省黄冈市黄梅县分路镇张门村", "image": "", "rank": 17, "time": 2, "location": {"lat": 29.797441314805056, "lng": 115.92153289023626}, "feature": {"sight_features": "", "sight_content": ""}}, {"title": "快乐大巴儿童乐园", "address": "人民大道730号", "image": "", "rank": 18, "time": 2, "location": {"lat": 30.422147627952324, "lng": 120.32096017394302}, "feature": {"sight_features": "", "sight_content": ""}}, {"title": "大别山国家地质公园黄梅园区", "address": "黄冈市黄梅县", "image": "", "rank": 19, "time": 2, "location": {"lat": 30.076605056821283, "lng": 115.95046198476884}, "feature": {"sight_features": "", "sight_content": ""}}, {"title": "大雄宝殿", "address": "黄冈市黄梅县城西北15公里的西山中四祖寺风景区内", "image": "", "rank": 20, "time": 2, "location": {"lat": 30.125023910629746, "lng": 115.80420095510931}, "feature": {"sight_features": "", "sight_content": ""}}, {"title": "大雄宝殿", "address": "黄冈市黄梅县五祖寺内", "image": "", "rank": 21, "time": 2, "location": {"lat": 30.076605056821283, "lng": 115.95046198476884}, "feature": {"sight_features": "", "sight_content": ""}}, {"title": "开心玩国儿童主题乐园", "address": "黄梅镇凤凰路163号(天天快递向前100米)", "image": "", "rank": 22, "time": 2, "location": {"lat": 24.81938390502872, "lng": 111.29471144750858}, "feature": {"sight_features": "", "sight_content": ""}}, {"title": "李云迪 奏鸣曲 2019世界巡回钢琴...", "address": "黄冈黄梅戏大剧院湖北省黄冈市黄州区黄州大道97号", "image": "", "rank": 23, "time": 2, "location": {"lat": 30.440115416193755, "lng": 114.90519958552399}, "feature": {"sight_features": "", "sight_content": ""}}, {"title": "筝情真意-丁雪儿古筝独奏音乐会", "address": "黄冈黄梅戏大剧院湖北省黄冈市黄州区黄州大道97号", "image": "", "rank": 24, "time": 2, "location": {"lat": 30.440115416193755, "lng": 114.90519958552399}, "feature": {"sight_features": "", "sight_content": ""}}, {"title": "八喜·打开艺术之门系列-《“国...", "address": "黄冈黄梅戏大剧院湖北省黄冈市黄州区黄州大道97号", "image": "", "rank": 25, "time": 2, "location": {"lat": 30.440115416193755, "lng": 114.90519958552399}, "feature": {"sight_features": "", "sight_content": ""}}, {"title": "八喜·打开艺术之门系列-《琴上...", "address": "黄冈黄梅戏大剧院湖北省黄冈市黄州区黄州大道97号", "image": "", "rank": 26, "time": 2, "location": {"lat": 30.440115416193755, "lng": 114.90519958552399}, "feature": {"sight_features": "", "sight_content": ""}}, {"title": "中华优秀地方剧目展演汉味喜剧《...", "address": "黄冈黄梅戏大剧院湖北省黄冈市黄州区黄州大道97号", "image": "", "rank": 27, "time": 2, "location": {"lat": 30.440115416193755, "lng": 114.90519958552399}, "feature": {"sight_features": "", "sight_content": ""}}, {"title": "八喜·打开艺术之门系列--原创儿...", "address": "黄冈黄梅戏大剧院湖北省黄冈市黄州区黄州大道97号", "image": "", "rank": 28, "time": 2, "location": {"lat": 30.440115416193755, "lng": 114.90519958552399}, "feature": {"sight_features": "", "sight_content": ""}}, {"title": "黄梅县科技馆", "address": "环城西路45号", "image": "", "rank": 29, "time": 2, "location": {"lat": 30.27528868075369, "lng": 120.16112668136716}, "feature": {"sight_features": "", "sight_content": ""}}, {"title": "祖愿画廊", "address": "西河路33", "image": "", "rank": 30, "time": 2, "location": {"lat": 30.082902887602124, "lng": 115.9561233180928}, "feature": {"sight_features": "", "sight_content": ""}}, {"title": "黄梅戏剧院", "address": "黄梅镇文化公园路", "image": "", "rank": 31, "time": 1.5, "location": {"lat": 30.084356709122204, "lng": 115.94330702899205}, "feature": {"sight_features": "", "sight_content": ""}}, {"title": "黄梅县文新农机专业合作社", "address": "105国道东50米", "image": "", "rank": 32, "time": 2, "location": {"lat": 23.06304361021549, "lng": 113.30965451338832}, "feature": {"sight_features": "", "sight_content": ""}}, {"title": "阳光广场步行街", "address": "湖北省黄梅县环城西路与古塔西路交叉口", "image": "", "rank": 33, "time": 2, "location": {"lat": 30.076698228218643, "lng": 115.94850335626539}, "feature": {"sight_features": "", "sight_content": ""}}, {"title": "子杰农家乐", "address": "黄冈市-黄梅县-新开镇汪庙村", "image": "", "rank": 34, "time": 2, "location": {"lat": 29.803667800087727, "lng": 115.8221119667654}, "feature": {"sight_features": "", "sight_content": ""}}, {"title": "朱福二", "address": "黄冈市-黄梅县", "image": "", "rank": 35, "time": 2, "location": {"lat": 30.076605056821283, "lng": 115.95046198476884}, "feature": {"sight_features": "", "sight_content": ""}}, {"title": "南宋岳飞之子岳震 岳霆墓", "address": "黄冈市-黄梅县-苦竹乡养马村聂家湾", "image": "", "rank": 36, "time": 2, "location": {"lat": 30.122014331745078, "lng": 115.86896598146214}, "feature": {"sight_features": "", "sight_content": ""}}, {"title": "八喜·打开艺术之门系列-大型奇...", "address": "黄冈黄梅戏大剧院湖北省黄冈市黄州区黄州大道97号", "image": "", "rank": 37, "time": 2, "location": {"lat": 30.440115416193755, "lng": 114.90519958552399}, "feature": {"sight_features": "", "sight_content": ""}}, {"title": "中华地方剧目展演 国家艺术基金2...", "address": "黄冈黄梅戏大剧院湖北省黄冈市黄州区黄州大道97号", "image": "", "rank": 38, "time": 2, "location": {"lat": 30.440115416193755, "lng": 114.90519958552399}, "feature": {"sight_features": "", "sight_content": ""}}, {"title": "肖邦大学音乐学院室内乐团音乐会", "address": "黄冈黄梅戏大剧院湖北省黄冈市黄州区黄州大道97号", "image": "", "rank": 39, "time": 2, "location": {"lat": 30.440115416193755, "lng": 114.90519958552399}, "feature": {"sight_features": "", "sight_content": ""}}, {"title": "八喜·打开艺术之门系列-大型亲...", "address": "黄冈黄梅戏大剧院湖北省黄冈市黄州区黄州大道97号", "image": "", "rank": 40, "time": 2, "location": {"lat": 30.440115416193755, "lng": 114.90519958552399}, "feature": {"sight_features": "", "sight_content": ""}}, {"title": "黄梅老祖寺", "address": "湖北省黄冈市黄梅县老祖寺", "image": "", "rank": 41, "time": 2.5, "location": {"lat": 30.232922501905023, "lng": 115.85068911774259}, "feature": {"sight_features": "", "sight_content": ""}}]}