{"cityName": "湟源", "days": 2, "cityImage": "", "spots": [{"title": "日月山", "address": "西宁市湟源县西南40公里处", "image": "", "rank": 1, "time": 2.0, "location": {"lat": 36.39863751470896, "lng": 101.2624486115435}, "feature": {"sight_features": "特色1 海拔3520米，是游人进入青藏高原的必经之地 特色2 有“西海屏风”、“草原门户”之称，因文成公主进藏在此“摔镜”闻名，有日亭、月亭等标志建筑。", "sight_content": "青海湖东部的天然水坝，属祁连山脉，是我国地理上的重要分界线。因山体呈现红色，故古代称为赤岭，在藏语和蒙古语当中日月山是太阳和月亮的意思。\n相传文成公主把宝镜抛在两座小山上，东边映着落日的余晖，西边照着初升的月亮，日月山便因此而得名。\n日月山东侧一派塞上江南风光；西侧草原辽阔，牛羊成群，一幅塞外景色。两侧的反差在国内很罕见。日月山附近草场丰茂，山间有许多经幡随风飘扬，风光秀美。"}}, {"title": "丹噶尔古城", "address": "西宁市湟源县城关镇明清老街", "image": "", "rank": 2, "time": 1.5, "location": {"lat": 36.694742644229706, "lng": 101.27711360350244}, "feature": {"sight_features": "特色1 多民族文化交汇的历史古城（凭有效证件免费参观） 特色2 感受昔日茶马互市的繁荣热闹。", "sight_content": "青海湟源丹噶尔古城被誉为“海藏咽喉”、“茶马商都”的青海湟源丹噶尔古城。丹噶尔，即藏语“东科尔”的蒙语音译，意为“白海螺”，地处黄河北岸，西海之滨，湟水源头，距西宁市40公里。黄土高原与青藏高原在这里结合，农耕文化与草原文化在这里相交，唐蕃古道与丝绸南路在这里穿越，众多民族在这里集聚，素有“海藏咽喉”、“茶马商都”、“小北京”之美称。\n据记载，古城修筑后，同年设丹噶尔营，驻扎参将一员，千、把总共三员，建参将署一、千总署一、把总署二，及演武厅、军火库、火药局、草场各一、廒仓二十间。道光三年(1823年)，由于军事需要，将丹噶尔营升格为镇海协营，驻副将一员，负责环青海湖等地的军务，并保证丹噶尔商业贸易的正常进行。从建城之日起设立丹噶尔营、镇海营、将军府、千总府等，先后派副将14名、副总17名、参将7名、都司29名，千总4名，把总31名，足见其军事地理位置上的重要，是名符其实的“兵城”。\n古城得名于著名的藏传佛教寺院东科尔。清顺治五年(1648年)，东科尔寺从西藏迁至古城东百米处，成为青海和西藏声名远播的寺院。以后随着商业贸易的发展和各民族的文化交流，古城内又修建了城隍庙、金佛寺、火祖阁、玉皇庙、关帝庙、财神庙、北极山群庙、清真寺等，这些寺院庙宇建筑宏伟，布局严谨，刻镂精致，壁画精美，彰显出无穷的神秘魅力，同时也把儒、道为核心的汉文化，以藏传佛教为核心的藏文化和伊斯兰教为核心的回族文化展现得淋漓尽致。"}}, {"title": "赞普林卡", "address": "西宁市湟源县青藏路88号", "image": "", "rank": 3, "time": 2.0, "location": {"lat": 36.68673750481855, "lng": 101.27525163177359}, "feature": {"sight_features": "", "sight_content": ""}}, {"title": "湟源峡", "address": "西宁市湟源县青藏公路35公里至90公里处", "image": "", "rank": 4, "time": 1.5, "location": {"lat": 36.68858751490262, "lng": 101.2624486115435}, "feature": {"sight_features": "", "sight_content": ""}}, {"title": "城隍庙", "address": "西宁市湟源县城关镇明清老街", "image": "", "rank": 5, "time": 1.5, "location": {"lat": 36.694742644229706, "lng": 101.27711360350244}, "feature": {"sight_features": "", "sight_content": ""}}, {"title": "扎藏寺", "address": "西宁市湟源县城西15公里处", "image": "", "rank": 6, "time": 1.0, "location": {"lat": 36.63449697952408, "lng": 101.77241422413312}, "feature": {"sight_features": "", "sight_content": ""}}, {"title": "湟源县清真寺", "address": "西宁市湟源县万安街85号", "image": "", "rank": 7, "time": 1.0, "location": {"lat": 36.69392172221226, "lng": 101.28281318398012}, "feature": {"sight_features": "", "sight_content": ""}}, {"title": "石刻公园", "address": "西宁市湟源县青藏路，人民公园东侧", "image": "", "rank": 8, "time": 0.5, "location": {"lat": 36.68628942841178, "lng": 101.27009635975696}, "feature": {"sight_features": "", "sight_content": ""}}, {"title": "湟源人民公园", "address": "西宁市湟源县公园路11号", "image": "", "rank": 9, "time": 1.0, "location": {"lat": 36.68654710499263, "lng": 101.26957357559424}, "feature": {"sight_features": "", "sight_content": ""}}, {"title": "东科寺", "address": "西宁市湟源县西南约30公里处的日月乡寺滩村，日月山北麓和东科寺河之间", "image": "", "rank": 10, "time": 1.0, "location": {"lat": 36.53161671740982, "lng": 101.14043046708869}, "feature": {"sight_features": "", "sight_content": ""}}, {"title": "Mt.Ogi", "address": "山梨县", "image": "", "rank": 11, "time": 3.0, "location": {"lat": 41.84920034139036, "lng": 123.56072477435173}, "feature": {"sight_features": "", "sight_content": ""}}, {"title": "健身广场", "address": "西宁市湟源县建设西路74号", "image": "", "rank": 12, "time": 2, "location": {"lat": 36.68859800569633, "lng": 101.26316483052662}, "feature": {"sight_features": "", "sight_content": ""}}, {"title": "七彩水族馆", "address": "青海省西宁市湟源县东大街38号", "image": "", "rank": 13, "time": 2, "location": {"lat": 36.69312692736217, "lng": 101.28267997874758}, "feature": {"sight_features": "", "sight_content": ""}}, {"title": "宗家沟文化旅游景区", "address": "西宁市湟源县日月藏族乡大石头村166号", "image": "", "rank": 14, "time": 2, "location": {"lat": 36.56815450428848, "lng": 101.16892416361068}, "feature": {"sight_features": "", "sight_content": "宗家沟文化旅游区是集文化寻根、文化传承、休闲观光、探险娱乐、生态旅游为一体的原生态旅游风景区。景区内植被丰茂，风景如画，形成了雄、奇、险、秀的自然奇景。"}}, {"title": "湟源县图书馆", "address": "公园路7-1号附旁", "image": "", "rank": 15, "time": 2, "location": {"lat": 40.68889348513524, "lng": 122.2740452062235}, "feature": {"sight_features": "", "sight_content": ""}}, {"title": "中共委党校图书馆", "address": "近郊公园路13号", "image": "", "rank": 16, "time": 2, "location": {"lat": 40.58985734988381, "lng": 110.02672153911374}, "feature": {"sight_features": "", "sight_content": ""}}, {"title": "云峰书画", "address": "西大街66附近", "image": "", "rank": 17, "time": 2, "location": {"lat": 37.93765961177017, "lng": 115.21708515801595}, "feature": {"sight_features": "", "sight_content": ""}}, {"title": "青海湖", "address": "青海省西宁市青藏公路109国道距151公里处", "image": "", "rank": 18, "time": 6.0, "location": {"lat": 36.65154710290836, "lng": 101.65907950946675}, "feature": {"sight_features": "", "sight_content": ""}}, {"title": "丹嗝尔厅署", "address": "西宁市-湟源县-丹噶尔厅署(湟源县中医院西北)", "image": "", "rank": 19, "time": 2, "location": {"lat": 36.68193646666639, "lng": 101.2845367106604}, "feature": {"sight_features": "", "sight_content": ""}}, {"title": "宗家沟口", "address": "西宁市-湟源县", "image": "", "rank": 20, "time": 2, "location": {"lat": 36.68858751490262, "lng": 101.2624486115435}, "feature": {"sight_features": "", "sight_content": ""}}, {"title": "格尔木各拉丹东冰川", "address": "青海省格尔木市唐古拉山乡 816004", "image": "", "rank": 21, "time": 4.5, "location": {"lat": 34.222075516112824, "lng": 92.45097433683291}, "feature": {"sight_features": "", "sight_content": ""}}, {"title": "火祖阁", "address": "西宁市湟源县城关镇明清老街", "image": "", "rank": 22, "time": 2, "location": {"lat": 36.694742644229706, "lng": 101.27711360350244}, "feature": {"sight_features": "", "sight_content": ""}}]}