{"cityName": "湟中", "days": 2, "cityImage": "", "spots": [{"title": "塔尔寺", "address": "西宁市湟中县金塔路56号", "image": "", "rank": 1, "time": 1.5, "location": {"lat": 36.50033547919185, "lng": 101.57345859176111}, "feature": {"sight_features": "特色1 必看塔尔寺三绝-壁画、堆绣和酥油花 特色2 塔尔寺位于青海省西宁市西南25公里处的湟中县城鲁沙尔镇，塔尔寺又名塔儿寺。得名于大金瓦寺内为纪念黄教创始人宗喀巴而建的大银塔。", "sight_content": "塔尔寺是先有塔，而后有寺，故名塔尔寺。塔尔寺是青海省和中国西北地区的佛教中心和黄教的圣地。\n塔尔寺共有大金瓦寺、小金瓦寺、花寺、大经堂、九间殿、大拉浪、如意塔、太平塔、菩提塔、过门塔等大小建筑共1000多座院落，4500多间殿宇僧舍，规模宏大，宫殿、佛堂、习经堂、寝宫、喇嘛居住的扎厦以及庭院交相辉映、浑然一体，自古以来即为黄教中心及佛教圣地。\n塔尔寺内收藏有大量鎏金铜佛像、铜佛像、金银灯、金书藏经、木刻板藏经、法器、灵首塔、御赐匾额、壁画、堆绣等文物。其中壁画与堆绣、酥油花被誉为塔尔寺三绝。壁画多以矿物颜料画在布幔上，内容主要为经变、时轮、佛等。堆绣是用各色绸缎、羊皮、棉花等在布幔上堆绣成佛、菩萨、天王、罗汉、尊者、花卉、鸟兽等图案。"}}, {"title": "青海藏文化馆", "address": "西宁市湟中县迎宾路", "image": "", "rank": 2, "time": 2.5, "location": {"lat": 36.496658971854515, "lng": 101.58604984155761}, "feature": {"sight_features": "特色1 展示了有关藏民族和塔尔寺的历史文化。", "sight_content": "青海藏文化馆坐落于青海省西宁市湟中县鲁沙尔镇莲花湖畔，是一个集知识性、趣味性、观赏性和参与性于一体，整个场景充满梦幻般神秘色彩和强烈的感性震撼力的藏族文化场景。\n青海藏文化馆是目前国内第一个以现代展陈与表现理念为基点，充分运用现代科技手段和多媒体技术，全方位介绍藏族历史、文化、艺术、宗教和民俗风情的文化旅游景点。\n青海藏文化馆定位于西宁市湟中县有其积极的现实意义。首先，西宁市省会，是全省政治、经济、文化、交通和信息中心，第二，湟中县是青海的人口大县，全县总人口48万人，其中少数民族人口11万人，第三，藏传佛教圣地塔尔寺就在湟中县鲁沙尔镇。\n塔尔寺不仅仅作为藏传佛教格鲁派（俗称黄教）创始人宗喀巴大师的诞生地，而且是安多藏区最大的黄教寺院之一，享誉海内外。"}}, {"title": "大金瓦寺", "address": "西宁市湟中县鲁沙尔镇金堂巷2号", "image": "", "rank": 3, "time": 1.0, "location": {"lat": 36.50259911284262, "lng": 101.57255572794953}, "feature": {"sight_features": "", "sight_content": ""}}, {"title": "湟中县博物馆", "address": "西宁市湟中县和平路3号", "image": "", "rank": 4, "time": 1.0, "location": {"lat": 36.507238039361965, "lng": 101.57666357214832}, "feature": {"sight_features": "", "sight_content": ""}}, {"title": "八宝如意塔", "address": "西宁市湟中县鲁沙尔镇金塔路塔尔寺内", "image": "", "rank": 5, "time": 0.4, "location": {"lat": 36.49313263104922, "lng": 101.57545175801535}, "feature": {"sight_features": "", "sight_content": ""}}, {"title": "八瓣莲花非物质文化遗产传承体验...", "address": "西宁市湟中县迎宾路189号（塔尔寺向东500米）", "image": "", "rank": 6, "time": 2, "location": {"lat": 36.496551170655586, "lng": 101.58639850895995}, "feature": {"sight_features": "特色1 藏族地区独特的藏文化艺术精品展示", "sight_content": "八瓣莲花非物质文化遗产传承体验中心占地37.6亩，建筑面积16316平方米，距塔尔寺不足500米，是塔尔寺大景区内唐卡、泥塑、堆绣等十六种藏文化艺术的制作技艺展示，并可亲自参与体验的景点。\n中心是我省乃至藏族地区唯一的藏文化艺术精品展示，十六种手工技艺非遗项目体验互动的功能齐全的特色旅游综合地。在中心，能亲眼目睹到国内现存唯一的三十五佛鎏金坛城的容颜，并为家人和朋友祈福，更能为明末清初的银唐卡高超的制作技艺而折服！\n国内唯一一座三十五佛鎏金坛城\n底部用纯银打造的双龙戏珠，中间镶嵌具有百年历史的红珊瑚、绿松石、青金石等各种宝贵的宝石点缀，表现了其精湛的做工、悠久的历史和不菲的价值。\n‍\n绿松石释迦牟尼佛\n一件来自明末清初的文物臻品，佛身镶嵌绿松石，底部镶嵌珊瑚、玛瑙等各种宝石，不仅展示了传承百年的湟中银铜器制作工艺，同时渗透着藏传佛教文化思想的底蕴。\n明末清初银质唐卡\n二十多位国家非遗传承人用其高超的锻造和鎏金技艺历时五年，打造的国内唯一的纯银镶嵌宝石《千手观音》银唐卡。技艺高超，高贵奢华，传功颂德，祈福纳祥！\n全省藏族非遗项目声光介绍电子书   明清银铜器文物古董展示\n国家级非物质文化遗产——贵南塔秀寺密集金刚彩粉坛城"}}, {"title": "卡约文化遗址", "address": "西宁市湟中县云固川卡约村", "image": "", "rank": 7, "time": 1.0, "location": {"lat": 36.74726934070618, "lng": 101.57836709176827}, "feature": {"sight_features": "", "sight_content": ""}}, {"title": "万聚源生态园", "address": "西宁市湟中县多巴镇小寨村", "image": "", "rank": 8, "time": 2, "location": {"lat": 36.64143706502439, "lng": 101.60213348698471}, "feature": {"sight_features": "", "sight_content": ""}}, {"title": "药水滩温泉", "address": "西宁市湟中县玛脊峡谷内，近101省道", "image": "", "rank": 9, "time": 1.5, "location": {"lat": 36.367413669128354, "lng": 101.5152979871674}, "feature": {"sight_features": "", "sight_content": ""}}, {"title": "鲁沙尔清真寺", "address": "西宁市湟中县清泉路", "image": "", "rank": 10, "time": 1.0, "location": {"lat": 36.498415389572436, "lng": 101.56702851882464}, "feature": {"sight_features": "", "sight_content": ""}}, {"title": "莲花山风景区", "address": "西宁市湟中县清泉路附近", "image": "", "rank": 11, "time": 1.0, "location": {"lat": 36.498415389572436, "lng": 101.56702851882464}, "feature": {"sight_features": "", "sight_content": ""}}, {"title": "汉东清真大寺", "address": "西宁市湟中县汉东乡", "image": "", "rank": 12, "time": 1.0, "location": {"lat": 36.56783708639702, "lng": 101.50002149349527}, "feature": {"sight_features": "", "sight_content": ""}}, {"title": "南朔山旅游景区", "address": "西宁市湟中县鲁沙尔镇10多公里处", "image": "", "rank": 13, "time": 2.5, "location": {"lat": 36.50259911284262, "lng": 101.57255572794953}, "feature": {"sight_features": "", "sight_content": ""}}, {"title": "班禅行宫", "address": "中国青海省西宁市湟中县居板古巷35号", "image": "", "rank": 14, "time": 1.5, "location": {"lat": 36.493395957174975, "lng": 101.57407016414102}, "feature": {"sight_features": "", "sight_content": ""}}, {"title": "酥油花馆", "address": "西宁市湟中县塔尔寺景区内", "image": "", "rank": 15, "time": 2, "location": {"lat": 36.49450242609947, "lng": 101.5761819079203}, "feature": {"sight_features": "", "sight_content": ""}}, {"title": "湟中蚂蚁沟水库", "address": "西宁市湟中县", "image": "", "rank": 16, "time": 3.0, "location": {"lat": 36.50662754628146, "lng": 101.57861675781865}, "feature": {"sight_features": "", "sight_content": ""}}, {"title": "莲花湖", "address": "湟中县鲁沙尔镇", "image": "", "rank": 17, "time": 1.5, "location": {"lat": 36.50259911284262, "lng": 101.57255572794953}, "feature": {"sight_features": "", "sight_content": ""}}, {"title": "天降塔", "address": "西宁市湟中县金堂巷2号", "image": "", "rank": 18, "time": 2, "location": {"lat": 36.50662754628146, "lng": 101.57861675781865}, "feature": {"sight_features": "", "sight_content": ""}}, {"title": "菩提塔", "address": "西宁市湟中县金堂巷2号", "image": "", "rank": 19, "time": 0.75, "location": {"lat": 36.50662754628146, "lng": 101.57861675781865}, "feature": {"sight_features": "", "sight_content": ""}}, {"title": "湟河文化博物馆", "address": "近郊通宁路1号", "image": "", "rank": 20, "time": 2, "location": {"lat": 31.948284456556507, "lng": 119.15819457553992}, "feature": {"sight_features": "", "sight_content": ""}}, {"title": "福源山庄", "address": "总寨镇毛家沟村(城南新区周边)", "image": "", "rank": 21, "time": 2, "location": {"lat": 36.547339915408934, "lng": 101.71935446352462}, "feature": {"sight_features": "", "sight_content": ""}}, {"title": "百福农家园", "address": "近郊多巴东街", "image": "", "rank": 22, "time": 2, "location": {"lat": 36.66526989758651, "lng": 101.53367841203766}, "feature": {"sight_features": "", "sight_content": ""}}, {"title": "馥香农家乐", "address": "近郊黄茨湾巷", "image": "", "rank": 23, "time": 2, "location": {"lat": 36.49461847961022, "lng": 101.5816442468111}, "feature": {"sight_features": "", "sight_content": ""}}, {"title": "燕兴农家园", "address": "近郊多巴东街", "image": "", "rank": 24, "time": 2, "location": {"lat": 36.66526989758651, "lng": 101.53367841203766}, "feature": {"sight_features": "", "sight_content": ""}}, {"title": "孙家大院农家乐", "address": "鲁沙尔镇下庄隆40号", "image": "", "rank": 25, "time": 2, "location": {"lat": 36.50259911284262, "lng": 101.57255572794953}, "feature": {"sight_features": "", "sight_content": ""}}, {"title": "恒庆富熙湾垂钓园", "address": "李家山镇恒庆富熙湾垂钓园东", "image": "", "rank": 26, "time": 2, "location": {"lat": 36.804910081439836, "lng": 101.5659464173124}, "feature": {"sight_features": "", "sight_content": ""}}, {"title": "群加国家森林公园", "address": "青海省湟中县县境内拉脊山中 811600", "image": "", "rank": 27, "time": 2, "location": {"lat": 36.50662754628146, "lng": 101.57861675781865}, "feature": {"sight_features": "", "sight_content": ""}}, {"title": "岗隆岩书群", "address": "青海省门源回族自治县县内 810300", "image": "", "rank": 28, "time": 2, "location": {"lat": 37.382180626313485, "lng": 101.62843803902976}, "feature": {"sight_features": "", "sight_content": ""}}, {"title": "涅槃塔", "address": "西宁市湟中县金堂巷2号", "image": "", "rank": 29, "time": 2, "location": {"lat": 36.50662754628146, "lng": 101.57861675781865}, "feature": {"sight_features": "", "sight_content": ""}}, {"title": "尊胜塔", "address": "西宁市湟中县金堂巷2号", "image": "", "rank": 30, "time": 1.0, "location": {"lat": 36.50662754628146, "lng": 101.57861675781865}, "feature": {"sight_features": "", "sight_content": ""}}, {"title": "转法轮塔", "address": "西宁市湟中县金堂巷2号", "image": "", "rank": 31, "time": 2, "location": {"lat": 36.50662754628146, "lng": 101.57861675781865}, "feature": {"sight_features": "", "sight_content": ""}}, {"title": "善逝塔", "address": "西宁市湟中县金堂巷2号", "image": "", "rank": 32, "time": 2, "location": {"lat": 36.50662754628146, "lng": 101.57861675781865}, "feature": {"sight_features": "", "sight_content": ""}}, {"title": "神变塔", "address": "西宁市湟中县金堂巷2号", "image": "", "rank": 33, "time": 2, "location": {"lat": 36.50662754628146, "lng": 101.57861675781865}, "feature": {"sight_features": "", "sight_content": ""}}, {"title": "和平塔", "address": "西宁市湟中县金堂巷2号", "image": "", "rank": 34, "time": 1.0, "location": {"lat": 36.50662754628146, "lng": 101.57861675781865}, "feature": {"sight_features": "", "sight_content": ""}}, {"title": "莲湖公园", "address": "湟中县", "image": "", "rank": 35, "time": 1.0, "location": {"lat": 36.50662754628146, "lng": 101.57861675781865}, "feature": {"sight_features": "", "sight_content": ""}}, {"title": "城南博物馆", "address": "西宁市湟中县同安路", "image": "", "rank": 36, "time": 2, "location": {"lat": 36.563061888356366, "lng": 101.72865927998009}, "feature": {"sight_features": "", "sight_content": ""}}, {"title": "青海省国安艺术博物馆", "address": "湟中县", "image": "", "rank": 37, "time": 2, "location": {"lat": 36.50662754628146, "lng": 101.57861675781865}, "feature": {"sight_features": "", "sight_content": ""}}, {"title": "青海艺粹堂奇石博物馆", "address": "同安路青海奇石古玩城C区4栋4号", "image": "", "rank": 38, "time": 2, "location": {"lat": 36.61916836365493, "lng": 101.80988257390347}, "feature": {"sight_features": "", "sight_content": ""}}, {"title": "鲁卡奇儿童乐园", "address": "城南新区南京路42号海北小区门口二楼", "image": "", "rank": 39, "time": null, "location": {"lat": 36.55526645424702, "lng": 101.71926733148338}, "feature": {"sight_features": "", "sight_content": ""}}, {"title": "福宁寺", "address": "青海省西宁市湟中县S101", "image": "", "rank": 40, "time": 2, "location": {"lat": 36.50662754628146, "lng": 101.57861675781865}, "feature": {"sight_features": "", "sight_content": ""}}, {"title": "大崖沟上清真寺", "address": "青海省西宁市湟中县多巴镇大崖沟西宁南绕城高速公路北", "image": "", "rank": 41, "time": 2, "location": {"lat": 36.6436889729727, "lng": 101.70262881352244}, "feature": {"sight_features": "", "sight_content": ""}}, {"title": "大使命基督教会", "address": "包家庄村附近", "image": "", "rank": 42, "time": 2, "location": {"lat": 37.44525051137671, "lng": 115.5914097530241}, "feature": {"sight_features": "", "sight_content": ""}}, {"title": "转嘴村文化活动广场", "address": "湟中县共和镇转咀小学附近", "image": "", "rank": 43, "time": 2, "location": {"lat": 36.63597685406601, "lng": 101.44661408685779}, "feature": {"sight_features": "", "sight_content": ""}}, {"title": "上山庄花海", "address": "西宁市湟中县土门关乡上山庄村", "image": "", "rank": 44, "time": 2, "location": {"lat": 36.44565032075905, "lng": 101.68450816423277}, "feature": {"sight_features": "", "sight_content": "上山庄花海是西宁周边的一处观赏花海胜地。这里空气清新、景色宜人。山坡上种满了薰衣草、海棠、矢车菊、榆叶梅、红刺玫瑰等20余种的观赏性植物花卉，花期从七月开始一直持续到国庆节，鲜花满山遍野绽放。纵赏千亩花海，畅享田园风光，还有农家乐、果蔬采摘、乡村风情体验等，是田园乡村游的不错选择。"}}, {"title": "陈列馆", "address": "宁克果洛巷", "image": "", "rank": 45, "time": 1.0, "location": {"lat": 36.49531738882372, "lng": 101.57350153675318}, "feature": {"sight_features": "", "sight_content": ""}}, {"title": "白崖清真大寺", "address": "直线", "image": "", "rank": 46, "time": 2, "location": {"lat": 36.601520344596196, "lng": 101.50046121404239}, "feature": {"sight_features": "", "sight_content": ""}}, {"title": "农家凤凰山庄", "address": "103省道康家医药附近", "image": "", "rank": 47, "time": 2, "location": {"lat": 30.169747844203425, "lng": 120.31111136253512}, "feature": {"sight_features": "", "sight_content": ""}}, {"title": "占林清真寺", "address": "占林村附近", "image": "", "rank": 48, "time": 2, "location": {"lat": 36.49533714276272, "lng": 101.46213556281538}, "feature": {"sight_features": "", "sight_content": ""}}, {"title": "莲花山庄", "address": "迎宾路29号", "image": "", "rank": 49, "time": 2, "location": {"lat": 29.96260650674951, "lng": 122.31909732017449}, "feature": {"sight_features": "", "sight_content": ""}}, {"title": "石金阁红色文化陈列馆", "address": "青海省西宁市多巴镇南绕城出口", "image": "", "rank": 50, "time": 2, "location": {"lat": 36.661466689445945, "lng": 101.50577682011797}, "feature": {"sight_features": "", "sight_content": ""}}, {"title": "观景台", "address": "西宁市湟中县拉脊山", "image": "", "rank": 51, "time": 0.5, "location": {"lat": 36.50662754628146, "lng": 101.57861675781865}, "feature": {"sight_features": "", "sight_content": ""}}, {"title": "千紫缘农业科技博览园", "address": "西宁市湟中县田家寨镇千紫缘", "image": "", "rank": 52, "time": 2, "location": {"lat": 36.45899963869953, "lng": 101.80380210470311}, "feature": {"sight_features": "", "sight_content": "青海千紫缘农业科技博览园建成了田园观赏区、乡趣体验区、特色种植区、科普教育区4个特色功能区。在这里有一眼望不到边的花海，在这里有硕果累累等你尝鲜，在这里你还可以体验从五彩滑道上一飞而下360度旋转的惊险、刺激和畅快。这里你可以和你的家人朋友把酒言欢举杯畅饮共享田园之乐。"}}, {"title": "巴祖纪念馆", "address": "103省道", "image": "", "rank": 53, "time": 2, "location": {"lat": 39.16211906866746, "lng": 117.4666343312951}, "feature": {"sight_features": "", "sight_content": ""}}, {"title": "八宝藏饰展览馆", "address": "迎宾路29号对面", "image": "", "rank": 54, "time": 2, "location": {"lat": 38.07783877434632, "lng": 114.62068497732423}, "feature": {"sight_features": "", "sight_content": ""}}, {"title": "青海国际藏毯展览中心", "address": "南京路", "image": "", "rank": 55, "time": 2, "location": {"lat": 22.302274606420156, "lng": 114.17986437021983}, "feature": {"sight_features": "", "sight_content": ""}}, {"title": "银林山庄", "address": "创业路", "image": "", "rank": 56, "time": 2, "location": {"lat": 38.049793198095635, "lng": 114.45225952042694}, "feature": {"sight_features": "", "sight_content": ""}}, {"title": "3D奇幻艺术展", "address": "南京路56号国际会展中心C室馆", "image": "", "rank": 57, "time": 2, "location": {"lat": 22.301352709000792, "lng": 114.18561602097449}, "feature": {"sight_features": "", "sight_content": ""}}, {"title": "湟中书画院", "address": "迎宾路231号", "image": "", "rank": 58, "time": 2, "location": {"lat": 36.495210458172856, "lng": 101.57930051922709}, "feature": {"sight_features": "", "sight_content": ""}}, {"title": "鲁沙尔镇西村卫生室", "address": "S1113宁贵高速", "image": "", "rank": 59, "time": 2, "location": {"lat": 36.6198588680826, "lng": 101.76372491493511}, "feature": {"sight_features": "", "sight_content": ""}}]}