{"cityName": "环江", "days": 2, "cityImage": "", "spots": [{"title": "牛角寨瀑布景区", "address": "河池市环江毛南族自治县明伦镇八面村牛角", "image": "", "rank": 1, "time": 2, "location": {"lat": 25.078460899554052, "lng": 108.39515725288324}, "feature": {"sight_features": "特色1 形如七位仙女的裙带在空中飘逸，隽永秀丽，因此得名七仙女瀑布。", "sight_content": "牛角寨景区位于环江县中部的明伦镇八面村，距离环江县城42公里，距离河池市63公里。景区占地约10平方公里，北面与世界自然遗产地木论喀斯特核心区和贵州黔南州荔波旅游大县相邻，景区融喀斯特雄峻的峰丛、茂密的森林、深幽的峡谷、弯曲的溪流、洒脱的瀑布、碧绿的潭池于一体的自然生态景观，在景区游览3公里的线路上每隔100多米就有一级瀑布，共有大小瀑布十多级。\n其中有通天瀑布、双龙、孔雀、水帘洞、三叠泉、天梯瀑布、野猪滩、八戒池、七仙女瀑布等九个大瀑布形成三里九瀑的壮观景色，每一处瀑布各有形态，独具特色，特别是七仙女瀑布，宽60米、高50多米，瀑布分七股流水从高崖飘然而下，形如七位仙女的裙带在空中飘逸，隽永秀丽，因此得名七仙女瀑布。\n据专业人士了解，牛角寨景布群景区与全国同类景区相比，瀑布分布密度之大，数量之多，形态之美，牛角寨瀑布景区堪称“中国醉美瀑布群”。游览牛角寨不仅欣赏到秀美的山水景色，呼吸清新的空气，聆听鸟语虫鸣，感受自然生态之乐趣，还可以品食原生态香猪、香牛、香鸭、香糯、香菇的环江五香美食，同时欣赏毛南、壮、苗、瑶民歌民舞，丰富多彩的民族风情文化。令人眷恋不已，旅游环江牛角寨是全方位体验原生态的最佳选择。"}}, {"title": "木论喀斯特生态旅游景区", "address": "河池市环江毛南族自治县下寨屯", "image": "", "rank": 2, "time": 2, "location": {"lat": 25.149485989895645, "lng": 108.06503132553365}, "feature": {"sight_features": "特色1 落差达200米，拥有独特的喀斯特地貌", "sight_content": "木论古宾河喀斯特峡谷漂流号称“世界自然遗产地第一漂”，为亚洲最刺激的漂流之一。该河两岸风光秀丽，独特的喀斯特地貌造就了美不胜收的奇山丽水。木论古宾河喀斯特峡谷漂流以“滩多湾急，水急刺激、惊险安全、浪花飞溅、野趣横生”而出名。\n漂流时既可领略到鬼斧神工的大自然风光，又可体验原始漂流的狂野与激情、刺激与快感，尽显漂流本色。中间漂至终点大约4公里长，全长为9公里，全程漂流用时约3个小时左右。河道落差200多米，共有河湾30几个，险滩50多处，水潭30个。\n漂流途径40多个天然景点：如“仙人谷”，此处逍遥自在、犹如仙境、只品流水、不问世事，“鲤鱼跃龙门”此处落差几梯级，一蹦一跳，有如晴天霹雳之威力，“青龙入海”落差十几米直冲而下，有谁与争锋之势，“白龙出潭”急流将艇冲入深潭水雾淹没，突从水中窜出几米高度，有如世间唯我独尊之感 “青龙潭”水色清碧，如美女体肤之光滑，品之不厌，“白龙滩”涂滩卵石在阳光照射下，银光闪闪犹如龙鳞，应接不暇的美景，令您叹为观止、流连忘返。更高：落差达200米，顺水狂漂、激情澎湃、浪遏飞舟；更险：水流湍急、惊险狂野、险滩多个、惊心动魄；更爽：刺激快感、漂漂欲仙、高潮迭起！"}}, {"title": "古宾河峡谷", "address": "河池环江县川山镇社村村下寨屯", "image": "", "rank": 3, "time": 2, "location": {"lat": 25.12759231822277, "lng": 108.08725850569209}, "feature": {"sight_features": "特色1 全长十公里，落差一百米，59道急流险滩", "sight_content": "古宾河峡谷河段起于大沙坡，终于川山镇下寨屯，河段全长10公里，落差100米，峡谷两岸群山耸立、峰奇壁巨、林密竹茂。\n河道内奇石林立，千姿百态，阻挡着奔腾而下的河水，造就了59道急流险滩，形成“滩长、弯多、水急”的特点。"}}, {"title": "毛南族博物馆", "address": "广西壮族自治区河池市环江毛南族自治县X924(民族路)", "image": "", "rank": 4, "time": 2, "location": {"lat": 24.836085976841975, "lng": 108.25410141951396}, "feature": {"sight_features": "", "sight_content": ""}}, {"title": "平安茶叶种植专业合作社", "address": "309省道附近", "image": "", "rank": 5, "time": 2, "location": {"lat": 40.709016096764906, "lng": 116.52743651721413}, "feature": {"sight_features": "", "sight_content": ""}}, {"title": "大沙坡农场", "address": "205省道附近", "image": "", "rank": 6, "time": 2, "location": {"lat": 40.38230240600069, "lng": 116.84666042934258}, "feature": {"sight_features": "", "sight_content": ""}}, {"title": "杨梅坳景区", "address": "广西壮族自治区环江毛南族自治县东兴镇 547117", "image": "", "rank": 7, "time": 2, "location": {"lat": 25.21378361474223, "lng": 108.53814319355537}, "feature": {"sight_features": "", "sight_content": ""}}, {"title": "虹饮桥", "address": "广西壮族自治区全州县龙水镇龙水村 541512", "image": "", "rank": 8, "time": 2, "location": {"lat": 26.043745085963028, "lng": 111.00242097144655}, "feature": {"sight_features": "", "sight_content": ""}}, {"title": "环江思恩基督教堂", "address": "广西壮族自治区河池市环江毛南族自治县新建路37号", "image": "", "rank": 9, "time": 2, "location": {"lat": 24.839324577081825, "lng": 108.2658528698356}, "feature": {"sight_features": "", "sight_content": ""}}, {"title": "童之乐儿童乐园", "address": "广西壮族自治区河池市环江毛南族自治县桥东路86号", "image": "", "rank": 10, "time": 2, "location": {"lat": 24.836969250800802, "lng": 108.26359749419244}, "feature": {"sight_features": "", "sight_content": ""}}, {"title": "明伦镇基督教堂", "address": "广西壮族自治区河池市环江毛南族自治县X875", "image": "", "rank": 11, "time": null, "location": {"lat": 24.832087938550632, "lng": 108.2644430691687}, "feature": {"sight_features": "", "sight_content": ""}}, {"title": "水知音度假村", "address": "思恩镇中兴村肯才屯", "image": "", "rank": 12, "time": 2, "location": {"lat": 24.87767078936283, "lng": 108.21747567044271}, "feature": {"sight_features": "", "sight_content": ""}}, {"title": "九万大山杨梅避暑山庄", "address": "309省道附近", "image": "", "rank": 13, "time": 2, "location": {"lat": 40.709016096764906, "lng": 116.52743651721413}, "feature": {"sight_features": "", "sight_content": ""}}, {"title": "田园度假山庄", "address": "205省道附近", "image": "", "rank": 14, "time": 2, "location": {"lat": 40.38230240600069, "lng": 116.84666042934258}, "feature": {"sight_features": "", "sight_content": ""}}, {"title": "华山生态园", "address": "309省道", "image": "", "rank": 15, "time": 1.5, "location": {"lat": 40.709016096764906, "lng": 116.52743651721413}, "feature": {"sight_features": "", "sight_content": ""}}, {"title": "环江毛南族自治县图书馆", "address": "思恩镇田因街100号", "image": "", "rank": 16, "time": 2, "location": {"lat": 24.8367742224902, "lng": 108.26686495382282}, "feature": {"sight_features": "", "sight_content": ""}}, {"title": "广西木论保护区", "address": "广西壮族自治区环江毛南族自治县县城西北部", "image": "", "rank": 17, "time": 2, "location": {"lat": 24.832087938550632, "lng": 108.2644430691687}, "feature": {"sight_features": "", "sight_content": ""}}, {"title": "否峒", "address": "河池市-环江毛南族自治县", "image": "", "rank": 18, "time": 2, "location": {"lat": 24.832087938550632, "lng": 108.2644430691687}, "feature": {"sight_features": "", "sight_content": ""}}]}