{"cityName": "华宁", "days": 2, "cityImage": "", "spots": [{"title": "抚仙湖景区", "address": "玉溪市江川区澄川线", "image": "", "rank": 1, "time": 2.5, "location": {"lat": 24.575194071226957, "lng": 102.84157921688022}, "feature": {"sight_features": "", "sight_content": ""}}, {"title": "象鼻山温泉森林公园", "address": "玉溪市华宁县城东南8公里", "image": "", "rank": 2, "time": 2, "location": {"lat": 24.19858102716324, "lng": 102.9354918585251}, "feature": {"sight_features": "", "sight_content": ""}}, {"title": "冒险岛儿童乐园", "address": "云南省玉溪市华宁县宁州镇锦绣宁州小区A区2幢", "image": "", "rank": 3, "time": 2, "location": {"lat": 24.18917783312847, "lng": 102.93702477016548}, "feature": {"sight_features": "", "sight_content": ""}}, {"title": "通红甸太极鸳鸯温泉", "address": "通红甸乡太极谷061乡道附近", "image": "", "rank": 4, "time": 2, "location": {"lat": 24.32918637544055, "lng": 103.06921253872962}, "feature": {"sight_features": "", "sight_content": ""}}, {"title": "王源农家乐", "address": "江华公路北100米", "image": "", "rank": 5, "time": 2, "location": {"lat": 24.203411818420868, "lng": 102.95430219623671}, "feature": {"sight_features": "", "sight_content": ""}}, {"title": "成宽农家乐", "address": "江华公路附近", "image": "", "rank": 6, "time": 2, "location": {"lat": 24.202587830005406, "lng": 102.95430219623671}, "feature": {"sight_features": "", "sight_content": ""}}, {"title": "泉乡神韵", "address": "玉溪市华宁县", "image": "", "rank": 7, "time": 2, "location": {"lat": 24.19858102716324, "lng": 102.9354918585251}, "feature": {"sight_features": "", "sight_content": ""}}, {"title": "食圆随", "address": "云南省玉溪市华宁县江华线华宁华城盛景宁秀苑附近", "image": "", "rank": 8, "time": 2, "location": {"lat": 24.198569132802568, "lng": 102.9116676474756}, "feature": {"sight_features": "", "sight_content": ""}}, {"title": "华宁县图书馆", "address": "宁阳东路4号", "image": "", "rank": 9, "time": 2, "location": {"lat": 30.626328740167303, "lng": 118.99074136547574}, "feature": {"sight_features": "", "sight_content": ""}}, {"title": "嘉家乐", "address": "洗澡塘新村", "image": "", "rank": 10, "time": 2, "location": {"lat": 24.136500567321505, "lng": 102.96519766471275}, "feature": {"sight_features": "", "sight_content": ""}}, {"title": "青鱼湾沙滩", "address": "抚仙湖", "image": "", "rank": 11, "time": 2, "location": {"lat": 24.79553009847067, "lng": 102.54677478613746}, "feature": {"sight_features": "", "sight_content": ""}}, {"title": "龙泉森林公园", "address": "云南省易门县万寿寺路28号", "image": "", "rank": 12, "time": 1.0, "location": {"lat": 24.677404477592024, "lng": 102.16953549619623}, "feature": {"sight_features": "", "sight_content": ""}}]}