{"cityName": "桦南", "days": 2, "cityImage": "", "spots": [{"title": "桦南县博物馆", "address": "新兴路182号", "image": "", "rank": 1, "time": 2, "location": {"lat": 46.2478023478325, "lng": 130.58230349630884}, "feature": {"sight_features": "", "sight_content": ""}}, {"title": "林业局森林公园真人CS", "address": "林业局森林公园", "image": "", "rank": 2, "time": 2, "location": {"lat": 37.86836484885634, "lng": 114.46014602566868}, "feature": {"sight_features": "", "sight_content": ""}}, {"title": "真人密室逃脱", "address": "文教街四中斜对面", "image": "", "rank": 3, "time": 2, "location": {"lat": 29.71601776770613, "lng": 118.31671959380046}, "feature": {"sight_features": "", "sight_content": ""}}, {"title": "小韩休闲垂钓", "address": "桦新线附近", "image": "", "rank": 4, "time": 2, "location": {"lat": 46.42774456083627, "lng": 130.38811499760467}, "feature": {"sight_features": "", "sight_content": ""}}, {"title": "忠义大戏院", "address": "桦南镇前进路保利大厦1楼", "image": "", "rank": 5, "time": 2, "location": {"lat": 46.24753429668865, "lng": 130.57728892588423}, "feature": {"sight_features": "", "sight_content": ""}}, {"title": "灯火辉煌一手店啤酒广场", "address": "黑龙江省佳木斯市桦南县健康路", "image": "", "rank": 6, "time": 2, "location": {"lat": 46.244550917693516, "lng": 130.56929035074194}, "feature": {"sight_features": "", "sight_content": ""}}, {"title": "海蒸鲜啤酒广场", "address": "前进路与建材路交汇处东行100米道北", "image": "", "rank": 7, "time": 2, "location": {"lat": 21.61293072722965, "lng": 110.28910040903354}, "feature": {"sight_features": "", "sight_content": ""}}, {"title": "儿童乐园", "address": "黑龙江省佳木斯市桦南县前进路289号", "image": "", "rank": 8, "time": 2, "location": {"lat": 46.245112380022135, "lng": 130.57800330783257}, "feature": {"sight_features": "", "sight_content": ""}}, {"title": "添润水族馆", "address": "文林街20号附近", "image": "", "rank": 9, "time": 2, "location": {"lat": 45.74635386776222, "lng": 126.65178447729888}, "feature": {"sight_features": "", "sight_content": ""}}, {"title": "金缸村休闲广场", "address": "307省道附近", "image": "", "rank": 10, "time": 2, "location": {"lat": 40.264498296993764, "lng": 116.57268632168496}, "feature": {"sight_features": "", "sight_content": ""}}, {"title": "朋友圈啤酒广场", "address": "黑龙江省佳木斯市桦南县桦南镇文教街百盛小区附近", "image": "", "rank": 11, "time": 2, "location": {"lat": 46.243592462959924, "lng": 130.57158392323444}, "feature": {"sight_features": "", "sight_content": ""}}, {"title": "革命历史纪念馆", "address": "新兴路182号", "image": "", "rank": 12, "time": 2, "location": {"lat": 46.2478023478325, "lng": 130.58230349630884}, "feature": {"sight_features": "", "sight_content": ""}}, {"title": "桦南县档案馆", "address": "前进路240号(桦南县物价局东南)", "image": "", "rank": 13, "time": 2, "location": {"lat": 46.24841597701927, "lng": 130.57635061793158}, "feature": {"sight_features": "", "sight_content": ""}}, {"title": "涅槃传说", "address": "苗圃路与交通路交汇北50米", "image": "", "rank": 14, "time": 2, "location": {"lat": 25.277202129554784, "lng": 110.29539225670474}, "feature": {"sight_features": "", "sight_content": ""}}, {"title": "艺童书画班", "address": "前进路285附近", "image": "", "rank": 15, "time": 2, "location": {"lat": 38.909535678053345, "lng": 106.55669570755339}, "feature": {"sight_features": "", "sight_content": ""}}, {"title": "鳄鱼漆", "address": "交通路117号", "image": "", "rank": 16, "time": 2, "location": {"lat": 46.242234234893054, "lng": 130.57905857606093}, "feature": {"sight_features": "", "sight_content": ""}}, {"title": "魔都真人密室逃脱", "address": "前进路北岗中央红三楼", "image": "", "rank": 17, "time": 2, "location": {"lat": 44.58821527738708, "lng": 129.6285643328294}, "feature": {"sight_features": "", "sight_content": ""}}, {"title": "桦林图书馆", "address": "商业街与繁荣路交叉口西150米", "image": "", "rank": 18, "time": 2, "location": {"lat": 46.260159194944755, "lng": 130.61130125900183}, "feature": {"sight_features": "", "sight_content": ""}}, {"title": "桦南县共和山庄度假旅游有限公司", "address": "明义乡头道岗村", "image": "", "rank": 19, "time": 2, "location": {"lat": 46.423693179467044, "lng": 130.4448936693638}, "feature": {"sight_features": "", "sight_content": ""}}, {"title": "葫芦头沟屯", "address": "佳木斯市-桦南县", "image": "", "rank": 20, "time": 2, "location": {"lat": 46.245077476879636, "lng": 130.56038502152637}, "feature": {"sight_features": "", "sight_content": ""}}]}