{"cityName": "华容", "days": 2, "cityImage": "", "spots": [{"title": "君山区惠农粮食专业合作社", "address": "202省道东50米", "image": "", "rank": 1, "time": 2, "location": {"lat": 37.77792504283699, "lng": 114.12661586886976}, "feature": {"sight_features": "", "sight_content": ""}}, {"title": "华容县田园醉生态农庄", "address": "华容西高速出口与杏花村西路连接处", "image": "", "rank": 2, "time": 2, "location": {"lat": 29.5361089852627, "lng": 112.54693314323383}, "feature": {"sight_features": "", "sight_content": ""}}, {"title": "五谷寺", "address": "湖南省荆州市石首市", "image": "", "rank": 3, "time": 2, "location": {"lat": 29.72703397740694, "lng": 112.43141984370993}, "feature": {"sight_features": "", "sight_content": ""}}, {"title": "人民广场", "address": "岳阳市华容县城关镇马鞍山新区", "image": "", "rank": 4, "time": 1.5, "location": {"lat": 29.533079395207157, "lng": 112.54839497824737}, "feature": {"sight_features": "", "sight_content": ""}}, {"title": "南县剧院", "address": "南洲镇和平街133号", "image": "", "rank": 5, "time": null, "location": {"lat": 29.37551818997415, "lng": 112.42015933022867}, "feature": {"sight_features": "", "sight_content": ""}}, {"title": "七女峰", "address": "岳阳市华容县056乡道", "image": "", "rank": 6, "time": 2, "location": {"lat": 29.587450187775566, "lng": 112.69649371994824}, "feature": {"sight_features": "", "sight_content": ""}}, {"title": "华容县艺术团", "address": "港东中路103", "image": "", "rank": 7, "time": 2, "location": {"lat": 29.528969825189375, "lng": 112.56324087725314}, "feature": {"sight_features": "", "sight_content": ""}}, {"title": "田家湖生态休闲农庄", "address": "新沟村14组", "image": "", "rank": 8, "time": null, "location": {"lat": 37.83622093200335, "lng": 112.6448046010158}, "feature": {"sight_features": "", "sight_content": ""}}, {"title": "许家祠堂", "address": "岳阳市华容县零七六县道", "image": "", "rank": 9, "time": 2, "location": {"lat": 29.536286434381537, "lng": 112.54746151216173}, "feature": {"sight_features": "", "sight_content": ""}}, {"title": "刘大夏文化园", "address": "湖南省岳阳市华容县章华镇凤形村", "image": "", "rank": 10, "time": 2, "location": {"lat": 29.606789287124432, "lng": 112.63615056475936}, "feature": {"sight_features": "", "sight_content": ""}}, {"title": "杨家祠堂", "address": "岳阳市华容县零八四县道", "image": "", "rank": 11, "time": 2.0, "location": {"lat": 29.536286434381537, "lng": 112.54746151216173}, "feature": {"sight_features": "", "sight_content": ""}}, {"title": "孙家祠堂", "address": "岳阳市华容县零三二乡道", "image": "", "rank": 12, "time": 2, "location": {"lat": 29.536286434381537, "lng": 112.54746151216173}, "feature": {"sight_features": "", "sight_content": ""}}, {"title": "极乐寺", "address": "湖南省岳阳市华容县东正街50", "image": "", "rank": 13, "time": 1.5, "location": {"lat": 29.529430217519174, "lng": 112.57681427350443}, "feature": {"sight_features": "", "sight_content": ""}}, {"title": "杰克船长儿童乐园", "address": "桥西路潮流百货三楼C29号", "image": "", "rank": 14, "time": 2, "location": {"lat": 29.532301297230767, "lng": 112.57425473071739}, "feature": {"sight_features": "", "sight_content": ""}}, {"title": "李氏宗祠", "address": "湖南省岳阳市华容县XF76", "image": "", "rank": 15, "time": 1.0, "location": {"lat": 29.536286434381537, "lng": 112.54746151216173}, "feature": {"sight_features": "", "sight_content": ""}}, {"title": "陈家祠堂", "address": "岳阳市华容县", "image": "", "rank": 16, "time": 1.5, "location": {"lat": 29.536286434381537, "lng": 112.54746151216173}, "feature": {"sight_features": "", "sight_content": ""}}, {"title": "中国棉文化博物馆", "address": "306省道附近", "image": "", "rank": 17, "time": null, "location": {"lat": 44.29269479672118, "lng": 120.43504383645545}, "feature": {"sight_features": "", "sight_content": ""}}, {"title": "华容县大华游乐场", "address": "华都国际建材家居广场东侧300米", "image": "", "rank": 18, "time": 2, "location": {"lat": 23.03968122519122, "lng": 113.72409832165765}, "feature": {"sight_features": "", "sight_content": ""}}, {"title": "注滋口藕池河公园", "address": "注滋口大桥附近", "image": "", "rank": 19, "time": 2, "location": {"lat": 29.324657748134218, "lng": 112.70459643564557}, "feature": {"sight_features": "", "sight_content": ""}}, {"title": "华容图书馆", "address": "迎宾南路38", "image": "", "rank": 20, "time": 1.5, "location": {"lat": 29.52528503897353, "lng": 112.57343574648252}, "feature": {"sight_features": "", "sight_content": ""}}, {"title": "水世界游乐场", "address": "城光镇城市广场(恋上咖啡旁)", "image": "", "rank": 21, "time": 2, "location": {"lat": 39.93113929151741, "lng": 116.5192402465885}, "feature": {"sight_features": "", "sight_content": ""}}, {"title": "动漫水世界", "address": "城市广场三和电影院往北走50米", "image": "", "rank": 22, "time": 2, "location": {"lat": 38.86652908324492, "lng": 115.46634505304237}, "feature": {"sight_features": "", "sight_content": ""}}, {"title": "曙光农庄", "address": "078县道北50米(治河渡镇)", "image": "", "rank": 23, "time": 2, "location": {"lat": 29.467855575682268, "lng": 112.68407644288791}, "feature": {"sight_features": "", "sight_content": ""}}, {"title": "田家湖钓鱼台", "address": "护城乡", "image": "", "rank": 24, "time": 2, "location": {"lat": 29.050976720150075, "lng": 111.67199892345565}, "feature": {"sight_features": "", "sight_content": ""}}, {"title": "仙鹅寺", "address": "湖南省华容县桃花山", "image": "", "rank": 25, "time": 2, "location": {"lat": 29.617301741960194, "lng": 112.71346980763964}, "feature": {"sight_features": "", "sight_content": ""}}, {"title": "小龙城步行街", "address": "湖南省华容县北正街", "image": "", "rank": 26, "time": 2, "location": {"lat": 29.52919989803578, "lng": 112.57425148603788}, "feature": {"sight_features": "", "sight_content": ""}}, {"title": "枯凸岭", "address": "岳阳市-华容县", "image": "", "rank": 27, "time": 2, "location": {"lat": 29.536286434381537, "lng": 112.54746151216173}, "feature": {"sight_features": "", "sight_content": ""}}, {"title": "何长工纪念馆", "address": "岳阳市华容县华容大道东路（烈士公园内）", "image": "", "rank": 28, "time": 2, "location": {"lat": 29.546228406458805, "lng": 112.58103271617789}, "feature": {"sight_features": "", "sight_content": ""}}]}