{"cityName": "华亭", "days": 2, "cityImage": "", "spots": [{"title": "米家沟生态园", "address": "平凉市华亭县月圆村转咀社", "image": "", "rank": 1, "time": 2, "location": {"lat": 35.240601174936046, "lng": 106.72254200806032}, "feature": {"sight_features": "", "sight_content": ""}}, {"title": "方圆图书馆(南门)", "address": "304省道北50米", "image": "", "rank": 2, "time": 2, "location": {"lat": 38.00776959894438, "lng": 114.44892402313616}, "feature": {"sight_features": "", "sight_content": ""}}, {"title": "雅姿恒时疑颜眼霜体验馆", "address": "环城南路", "image": "", "rank": 3, "time": 2, "location": {"lat": 32.343803277365524, "lng": 118.8527646843988}, "feature": {"sight_features": "", "sight_content": ""}}, {"title": "安口广场", "address": "东大街", "image": "", "rank": 4, "time": 2, "location": {"lat": 22.617509352603705, "lng": 114.14733733676542}, "feature": {"sight_features": "", "sight_content": ""}}, {"title": "安口镇基督教会", "address": "甘肃省平凉市华亭县东大街14号", "image": "", "rank": 5, "time": 2, "location": {"lat": 35.222170105067846, "lng": 106.65584740530254}, "feature": {"sight_features": "", "sight_content": ""}}, {"title": "北城区文化活动中心阅览室", "address": "北环路", "image": "", "rank": 6, "time": 2, "location": {"lat": 38.0818836383811, "lng": 114.69308879219136}, "feature": {"sight_features": "", "sight_content": ""}}, {"title": "华亭县博物馆", "address": "南新街224号", "image": "", "rank": 7, "time": 2, "location": {"lat": 45.790912010432685, "lng": 126.66353777454059}, "feature": {"sight_features": "", "sight_content": ""}}, {"title": "红灯笼农家乐", "address": "101乡道西100米", "image": "", "rank": 8, "time": 2, "location": {"lat": 22.60919886263197, "lng": 114.24644262262933}, "feature": {"sight_features": "", "sight_content": ""}}, {"title": "大千画廊", "address": "304省道南200米", "image": "", "rank": 9, "time": 2, "location": {"lat": 38.005992592279526, "lng": 114.44892402313616}, "feature": {"sight_features": "", "sight_content": ""}}, {"title": "静海湾水族", "address": "仪州大道北50米", "image": "", "rank": 10, "time": 2, "location": {"lat": 35.2147267338618, "lng": 106.64548863034814}, "feature": {"sight_features": "", "sight_content": ""}}, {"title": "东升商贸步行街", "address": "甘肃省华亭县东升商贸步行街", "image": "", "rank": 11, "time": 2, "location": {"lat": 35.220566793590095, "lng": 106.65622687649912}, "feature": {"sight_features": "", "sight_content": ""}}, {"title": "鸿昊盛府商业街", "address": "甘肃省华亭县仪州大道附近", "image": "", "rank": 12, "time": 2, "location": {"lat": 35.21435810750414, "lng": 106.64548863034814}, "feature": {"sight_features": "", "sight_content": ""}}, {"title": "龙风山", "address": "平凉市-华亭市", "image": "", "rank": 13, "time": 2, "location": {"lat": 35.22355076289732, "lng": 106.6594859917707}, "feature": {"sight_features": "", "sight_content": ""}}]}