{"cityName": "花垣", "days": 2, "cityImage": "", "spots": [{"title": "边城公园", "address": "湘西土家族苗族自治州花垣县花垣镇", "image": "", "rank": 1, "time": 1.0, "location": {"lat": 28.58540637517441, "lng": 109.48051422213224}, "feature": {"sight_features": "", "sight_content": ""}}, {"title": "十八洞村", "address": "湘西土家族苗族自治州花垣县", "image": "", "rank": 2, "time": 2, "location": {"lat": 28.5779099343968, "lng": 109.48856183127808}, "feature": {"sight_features": "", "sight_content": ""}}, {"title": "翠翠岛", "address": "花垣县茶峒镇", "image": "", "rank": 3, "time": 0.75, "location": {"lat": 28.5779099343968, "lng": 109.48856183127808}, "feature": {"sight_features": "", "sight_content": ""}}, {"title": "花垣县", "address": "湖南省湘西土家族苗族自治州花垣县", "image": "", "rank": 4, "time": 2, "location": {"lat": 28.5779099343968, "lng": 109.48856183127808}, "feature": {"sight_features": "", "sight_content": ""}}, {"title": "天牛山", "address": "湘西土家族苗族自治州花垣县", "image": "", "rank": 5, "time": null, "location": {"lat": 28.5779099343968, "lng": 109.48856183127808}, "feature": {"sight_features": "", "sight_content": ""}}, {"title": "边城车站", "address": "湖南省湘西土家族苗族自治州花垣县", "image": "", "rank": 6, "time": 2, "location": {"lat": 28.5779099343968, "lng": 109.48856183127808}, "feature": {"sight_features": "", "sight_content": ""}}, {"title": "双龟桥", "address": "湘西州花垣县西北边境", "image": "", "rank": 7, "time": 2, "location": {"lat": 28.5779099343968, "lng": 109.48856183127808}, "feature": {"sight_features": "", "sight_content": ""}}, {"title": "紫霞水库", "address": "湘西土家族苗族自治州花垣县083乡道", "image": "", "rank": 8, "time": 2, "location": {"lat": 28.5779099343968, "lng": 109.48856183127808}, "feature": {"sight_features": "", "sight_content": ""}}, {"title": "德林生态草莓园", "address": "209国道附近", "image": "", "rank": 9, "time": 2, "location": {"lat": 29.50537463467816, "lng": 109.42537798613527}, "feature": {"sight_features": "", "sight_content": ""}}, {"title": "梅花井", "address": "湖南省花垣县吉卫乡 416400", "image": "", "rank": 10, "time": 2, "location": {"lat": 28.5779099343968, "lng": 109.48856183127808}, "feature": {"sight_features": "", "sight_content": ""}}, {"title": "崇山公园", "address": "湖南省花垣县狮山路 416400", "image": "", "rank": 11, "time": 2, "location": {"lat": 28.5779099343968, "lng": 109.48856183127808}, "feature": {"sight_features": "", "sight_content": ""}}, {"title": "崇山卫城垣遗址", "address": "湖南省花垣县吉卫镇老卫城村 416408", "image": "", "rank": 12, "time": 2, "location": {"lat": 28.33270759177857, "lng": 109.43933717675549}, "feature": {"sight_features": "", "sight_content": ""}}, {"title": "花垣锰矿", "address": "湖南省花垣县民乐镇 416400", "image": "", "rank": 13, "time": 2, "location": {"lat": 28.36606057220978, "lng": 109.32447295596236}, "feature": {"sight_features": "", "sight_content": ""}}, {"title": "黄瓜寨", "address": "湖南省花垣县雅酉镇黄瓜寨村 416400", "image": "", "rank": 14, "time": 2, "location": {"lat": 28.228210100864683, "lng": 109.40010218434827}, "feature": {"sight_features": "", "sight_content": ""}}, {"title": "五拱桥", "address": "湖南省花垣县犀牛潭村 416400", "image": "", "rank": 15, "time": 2, "location": {"lat": 28.5779099343968, "lng": 109.48856183127808}, "feature": {"sight_features": "", "sight_content": ""}}, {"title": "小龙洞", "address": "湖南省花垣县排碧乡 416400", "image": "", "rank": 16, "time": 2, "location": {"lat": 28.386973950251978, "lng": 109.54386696847357}, "feature": {"sight_features": "", "sight_content": ""}}, {"title": "小龙洞瀑布", "address": "湖南省花垣县补抽乡 416408", "image": "", "rank": 17, "time": 2, "location": {"lat": 28.29395347996689, "lng": 109.46104621339764}, "feature": {"sight_features": "", "sight_content": ""}}, {"title": "边城景区", "address": "湘西土家族苗族自治州花垣县境东南茶峒镇", "image": "", "rank": 18, "time": 12.0, "location": {"lat": 28.5779099343968, "lng": 109.48856183127808}, "feature": {"sight_features": "", "sight_content": ""}}, {"title": "大龙洞风景区", "address": "湘西自治州花垣县补抽乡兴中村四组119号", "image": "", "rank": 19, "time": 3.5, "location": {"lat": 28.3071852457282, "lng": 109.51075691677725}, "feature": {"sight_features": "", "sight_content": ""}}, {"title": "尖岩山", "address": "湖南省花垣县麻栗场镇尖岩村 416400", "image": "", "rank": 20, "time": 2, "location": {"lat": 28.457798879897908, "lng": 109.50092309000681}, "feature": {"sight_features": "", "sight_content": ""}}, {"title": "石栏杆景区", "address": "湖南省花垣县排吾乡 416400", "image": "", "rank": 21, "time": null, "location": {"lat": 28.38238763262439, "lng": 109.42279608811732}, "feature": {"sight_features": "", "sight_content": ""}}, {"title": "百家书法园", "address": "边城旅游景区内", "image": "", "rank": 22, "time": 2, "location": {"lat": 45.305040180289275, "lng": 130.9685403706702}, "feature": {"sight_features": "", "sight_content": ""}}, {"title": "花果山森林公园", "address": "赶秋路与边城大道交汇处西150米", "image": "", "rank": 23, "time": 2, "location": {"lat": 28.589197575642466, "lng": 109.48478400116898}, "feature": {"sight_features": "", "sight_content": ""}}, {"title": "童心儿童乐园", "address": "湖南省湘西土家族苗族自治州花垣县步行街46", "image": "", "rank": 24, "time": 2, "location": {"lat": 28.5779099343968, "lng": 109.48856183127808}, "feature": {"sight_features": "", "sight_content": ""}}, {"title": "贝儿健儿童成长乐园", "address": "湖南省湘西土家族苗族自治州花垣县建设中路41号", "image": "", "rank": 25, "time": 2, "location": {"lat": 28.58571439128413, "lng": 109.48184014531877}, "feature": {"sight_features": "", "sight_content": ""}}, {"title": "顺天福大型儿童游乐园", "address": "湖南省湘西土家族苗族自治州花垣县建设中路23号", "image": "", "rank": 26, "time": 2, "location": {"lat": 28.589952057275184, "lng": 109.48854877889902}, "feature": {"sight_features": "", "sight_content": ""}}, {"title": "儿童游乐园", "address": "湖南省湘西土家族苗族自治州花垣县G209(建设中路)", "image": "", "rank": 27, "time": 2, "location": {"lat": 28.587995678698462, "lng": 109.48560666306659}, "feature": {"sight_features": "", "sight_content": ""}}, {"title": "兄弟河度假村", "address": "凤凰湘西花垣县城南汽车站旁", "image": "", "rank": 28, "time": 2, "location": {"lat": 28.5779099343968, "lng": 109.48856183127808}, "feature": {"sight_features": "", "sight_content": ""}}, {"title": "民族博物馆", "address": "洪渡路", "image": "", "rank": 29, "time": 2.0, "location": {"lat": 33.35466696905806, "lng": 120.0060189009944}, "feature": {"sight_features": "", "sight_content": ""}}, {"title": "巧媳妇农家乐", "address": "十八洞村", "image": "", "rank": 30, "time": 2, "location": {"lat": 28.390250405046277, "lng": 109.51254865448924}, "feature": {"sight_features": "", "sight_content": ""}}, {"title": "平民农家乐大喵喵", "address": "猫儿乡五组", "image": "", "rank": 31, "time": 2, "location": {"lat": 28.44483501537458, "lng": 109.34452436022715}, "feature": {"sight_features": "", "sight_content": ""}}, {"title": "古苗河", "address": "湖南省吉首市花垣县", "image": "", "rank": 32, "time": 2.0, "location": {"lat": 28.267493127592708, "lng": 109.70444880967267}, "feature": {"sight_features": "", "sight_content": ""}}, {"title": "矮寨奇观旅游区", "address": "湘西土家族苗族自治州吉首市", "image": "", "rank": 33, "time": 2, "location": {"lat": 28.267493127592708, "lng": 109.70444880967267}, "feature": {"sight_features": "", "sight_content": ""}}]}