{"cityName": "化州", "days": 2, "cityImage": "", "spots": [{"title": "广垦（茂名）国家热带农业公园", "address": "茂名市化州市石湾街道国家热带农业公园", "image": "", "rank": 1, "time": 4.0, "location": {"lat": 21.68557226007986, "lng": 110.5478106144819}, "feature": {"sight_features": "特色1 农业生态观光旅游。 特色2 一年四季不同水果采摘活动。 特色3 热带农业展示馆、农业嘉年华。", "sight_content": "广垦热带农业公园是集农业生态观光旅游、商务会议接待、酒店旅业、科普教育、有机水果生产示范于一体的综合型景区，分为中心观光区、科普体验区、主题农业园区、主题酒店区等四大板块。\n其中番石榴园、杨桃园、青枣园、菠萝蜜园、龙眼园、荔枝园、火龙果园已具规模，建成的景点有热带农业展示馆、农业嘉年华（含蔬之物语、瓜样年华和灵草秘境）、花海、花山、水果大观园、缅茄广场等。\n休闲项目包括单人、双人、家庭单车骑行、一年四季不同水果采摘活动、钓鱼、儿童乐园。"}}, {"title": "华兴顺花木场", "address": "桔城西路(新路口往化州方向500米处)", "image": "", "rank": 2, "time": 2, "location": {"lat": 21.674976753039417, "lng": 110.64987888740845}, "feature": {"sight_features": "", "sight_content": ""}}, {"title": "石滩农场", "address": "500乡道东50米", "image": "", "rank": 3, "time": 2, "location": {"lat": 34.21241780083404, "lng": 118.71543529532319}, "feature": {"sight_features": "", "sight_content": ""}}, {"title": "北计农场", "address": "527乡道附近", "image": "", "rank": 4, "time": 2, "location": {"lat": 40.921404181287535, "lng": 124.0816069880581}, "feature": {"sight_features": "", "sight_content": ""}}, {"title": "博蒂剧场", "address": "642县道东50米", "image": "", "rank": 5, "time": 2, "location": {"lat": 24.93885867761378, "lng": 116.29383287248505}, "feature": {"sight_features": "", "sight_content": ""}}, {"title": "化州附城镇农场", "address": "418乡道东150米", "image": "", "rank": 6, "time": 4.0, "location": {"lat": 35.37720857982394, "lng": 113.08436330673442}, "feature": {"sight_features": "", "sight_content": ""}}, {"title": "化州市图书馆", "address": "民主路80号", "image": "", "rank": 7, "time": 1.5, "location": {"lat": 41.79334393874194, "lng": 123.4058381028972}, "feature": {"sight_features": "", "sight_content": ""}}, {"title": "广东省建设农场", "address": "下郭街道", "image": "", "rank": 8, "time": 2, "location": {"lat": 21.624268688328428, "lng": 110.62299794752317}, "feature": {"sight_features": "", "sight_content": ""}}, {"title": "钜园农业", "address": "那务镇新屋路口", "image": "", "rank": 9, "time": 2, "location": {"lat": 22.0233306270033, "lng": 110.60946647608833}, "feature": {"sight_features": "", "sight_content": ""}}, {"title": "平定影剧院", "address": "620县道附近", "image": "", "rank": 10, "time": 1.0, "location": {"lat": 23.69053419230798, "lng": 109.07362670109838}, "feature": {"sight_features": "", "sight_content": ""}}, {"title": "宝圩温泉", "address": "广东省化州市宝圩镇 525138", "image": "", "rank": 11, "time": 2, "location": {"lat": 22.145224650465806, "lng": 110.65901517096759}, "feature": {"sight_features": "", "sight_content": ""}}, {"title": "茂名温泉康乐园", "address": "广东省化州市那务镇 525100", "image": "", "rank": 12, "time": 5.0, "location": {"lat": 22.063318153738635, "lng": 110.63041750008378}, "feature": {"sight_features": "", "sight_content": ""}}, {"title": "博带剧场", "address": "广东省茂名市化州市X642", "image": "", "rank": 13, "time": 2, "location": {"lat": 21.670231093869553, "lng": 110.64643101120122}, "feature": {"sight_features": "", "sight_content": ""}}, {"title": "南盛影剧院", "address": "解放路附近", "image": "", "rank": 14, "time": 2, "location": {"lat": 38.31075478654948, "lng": 116.85852551801001}, "feature": {"sight_features": "", "sight_content": ""}}, {"title": "罗仙翁化橘红", "address": "广东省茂名市化州市下郭大道21号", "image": "", "rank": 15, "time": 2, "location": {"lat": 21.65224411683896, "lng": 110.63674763712905}, "feature": {"sight_features": "", "sight_content": ""}}, {"title": "童乐谷儿童主题公园", "address": "化州市其他吉州百货四楼，即电梯口", "image": "", "rank": 16, "time": 2, "location": {"lat": 21.670231093869553, "lng": 110.64643101120122}, "feature": {"sight_features": "", "sight_content": ""}}, {"title": "年年有鱼水族馆", "address": "广东省茂名市化州市罗江南路32号", "image": "", "rank": 17, "time": 2, "location": {"lat": 21.658810547136664, "lng": 110.63553285679168}, "feature": {"sight_features": "", "sight_content": ""}}, {"title": "哈比乐园", "address": "茂名市化州市民主北路兆康时代广场(化州市河西财政结算中心东)1层", "image": "", "rank": 18, "time": 2, "location": {"lat": 21.66592913270898, "lng": 110.639018796}, "feature": {"sight_features": "", "sight_content": ""}}, {"title": "化州市新安贝儿健儿童乐园", "address": "化州市新安镇新安开发区中国邮政东南侧180米", "image": "", "rank": 19, "time": 4.0, "location": {"lat": 21.68094020614478, "lng": 110.45109992903886}, "feature": {"sight_features": "", "sight_content": ""}}, {"title": "化善庵寺庙", "address": "广东省化州市新安镇庵下村", "image": "", "rank": 20, "time": 2, "location": {"lat": 21.68094020614478, "lng": 110.45109992903886}, "feature": {"sight_features": "", "sight_content": ""}}, {"title": "儿童游乐场", "address": "广东省茂名市化州市平定镇高车人民路小太阳幼儿园附近", "image": "", "rank": 21, "time": 2, "location": {"lat": 22.029872822032637, "lng": 110.42860674714441}, "feature": {"sight_features": "", "sight_content": ""}}, {"title": "新村文化广场", "address": "广东省茂名市化州市S372(化牛公路)", "image": "", "rank": 22, "time": 2, "location": {"lat": 21.677764769258673, "lng": 110.75747101698192}, "feature": {"sight_features": "", "sight_content": ""}}, {"title": "化州市家艺古广场", "address": "广东省茂名市化州市S372(北京东四路)", "image": "", "rank": 23, "time": 4.0, "location": {"lat": 21.669511022955284, "lng": 110.6755201198768}, "feature": {"sight_features": "", "sight_content": ""}}, {"title": "倒流湾渡假村", "address": "茂名市化州市", "image": "", "rank": 24, "time": 2, "location": {"lat": 21.670231093869553, "lng": 110.64643101120122}, "feature": {"sight_features": "", "sight_content": ""}}, {"title": "稽奉门", "address": "北京东二路附近", "image": "", "rank": 25, "time": 2, "location": {"lat": 39.7192985719024, "lng": 116.29787598142808}, "feature": {"sight_features": "", "sight_content": ""}}, {"title": "尖岗岭冼太古庙", "address": "广东省茂名市化州市幸福路043号", "image": "", "rank": 26, "time": 2, "location": {"lat": 21.658564399664794, "lng": 110.63991163304033}, "feature": {"sight_features": "", "sight_content": ""}}, {"title": "笪桥文化广场", "address": "207国道附近", "image": "", "rank": 27, "time": 2, "location": {"lat": 38.67484937592033, "lng": 114.04837902844483}, "feature": {"sight_features": "", "sight_content": ""}}, {"title": "文化公园", "address": "646县道附近", "image": "", "rank": 28, "time": 2, "location": {"lat": 25.537523253585242, "lng": 105.21968774751826}, "feature": {"sight_features": "", "sight_content": ""}}, {"title": "宝山公园", "address": "中山路80号", "image": "", "rank": 29, "time": 2, "location": {"lat": 39.167650902027944, "lng": 117.21023368449863}, "feature": {"sight_features": "", "sight_content": ""}}, {"title": "山口革命历史纪念馆", "address": "509乡道附近", "image": "", "rank": 30, "time": 2, "location": {"lat": 42.145678412047786, "lng": 116.69503930502708}, "feature": {"sight_features": "", "sight_content": ""}}, {"title": "崇善寺", "address": "284省道附近", "image": "", "rank": 31, "time": 1.5, "location": {"lat": 38.12910488015611, "lng": 117.54878068712999}, "feature": {"sight_features": "", "sight_content": ""}}, {"title": "化州学宫", "address": "中山路158号附近", "image": "", "rank": 32, "time": 0.5, "location": {"lat": 39.16174651108614, "lng": 117.20438809344336}, "feature": {"sight_features": "", "sight_content": ""}}, {"title": "莞塘村文化广场", "address": "广东省茂名市化州市", "image": "", "rank": 33, "time": 2, "location": {"lat": 21.670231093869553, "lng": 110.64643101120122}, "feature": {"sight_features": "", "sight_content": ""}}, {"title": "逸诚书画廊", "address": "河东沿江东路三横巷1号", "image": "", "rank": 34, "time": 2, "location": {"lat": 39.12662568466626, "lng": 117.2616931652718}, "feature": {"sight_features": "", "sight_content": ""}}, {"title": "龙湾湖高尔夫练习场", "address": "207国道杨梅新路口龙湾湖大道1号", "image": "", "rank": 35, "time": 2, "location": {"lat": 21.588259593278188, "lng": 110.57655054821267}, "feature": {"sight_features": "", "sight_content": ""}}, {"title": "新时代温泉", "address": "那务镇", "image": "", "rank": 36, "time": 2, "location": {"lat": 22.063318153738635, "lng": 110.63041750008378}, "feature": {"sight_features": "", "sight_content": ""}}, {"title": "全国3D魔幻艺术展(化州百汇地产...", "address": "汇福花园E座2楼(站前路加油站旁)", "image": "", "rank": 37, "time": 2, "location": {"lat": 26.072847261940964, "lng": 119.3225289215388}, "feature": {"sight_features": "", "sight_content": ""}}, {"title": "化州水上乐园", "address": "体育馆", "image": "", "rank": 38, "time": 2.5, "location": {"lat": 21.670231093869553, "lng": 110.64643101120122}, "feature": {"sight_features": "", "sight_content": ""}}, {"title": "橘雅书画苑", "address": "文雅路46号", "image": "", "rank": 39, "time": 2, "location": {"lat": 31.606242401869245, "lng": 119.9670518165146}, "feature": {"sight_features": "", "sight_content": ""}}, {"title": "周树坚艺术馆", "address": "河东沿江东路三横巷1号", "image": "", "rank": 40, "time": 2, "location": {"lat": 39.12662568466626, "lng": 117.2616931652718}, "feature": {"sight_features": "", "sight_content": ""}}, {"title": "化州市图书馆(合江分馆)", "address": "284省道附近", "image": "", "rank": 41, "time": 4.0, "location": {"lat": 38.12910488015611, "lng": 117.54878068712999}, "feature": {"sight_features": "", "sight_content": ""}}, {"title": "红阳农场(创富建材瓷砖店)", "address": "642县道", "image": "", "rank": 42, "time": 2, "location": {"lat": 24.93885867761378, "lng": 116.29338371973022}, "feature": {"sight_features": "", "sight_content": ""}}, {"title": "动漫小天地游乐城", "address": "589乡道北50米", "image": "", "rank": 43, "time": 2, "location": {"lat": 41.20783012676974, "lng": 118.51884433602535}, "feature": {"sight_features": "", "sight_content": ""}}, {"title": "闲雅斋书画廊", "address": "民安路与沿江北路交叉口东150米", "image": "", "rank": 44, "time": 2, "location": {"lat": 21.6630819557572, "lng": 110.64102981906994}, "feature": {"sight_features": "", "sight_content": ""}}, {"title": "三彩画廊", "address": "民安路58号附近", "image": "", "rank": 45, "time": 2, "location": {"lat": 22.892174187654565, "lng": 113.46005546927994}, "feature": {"sight_features": "", "sight_content": ""}}, {"title": "化州市剧院", "address": "民主路化州文化宫附近", "image": "", "rank": 46, "time": 2.0, "location": {"lat": 21.65629650906575, "lng": 110.64007945226446}, "feature": {"sight_features": "", "sight_content": ""}}, {"title": "霞山剧场", "address": "515乡道附近", "image": "", "rank": 47, "time": 2, "location": {"lat": 23.298431292359943, "lng": 110.50096453730482}, "feature": {"sight_features": "", "sight_content": ""}}, {"title": "化州县米西剧场", "address": "米西村附近", "image": "", "rank": 48, "time": 2, "location": {"lat": 35.77041605984001, "lng": 112.98117767017743}, "feature": {"sight_features": "", "sight_content": ""}}, {"title": "化州市曲艺团", "address": "向阳路美怡花园附近", "image": "", "rank": 49, "time": 4.0, "location": {"lat": 21.662138640091417, "lng": 110.65750984628941}, "feature": {"sight_features": "", "sight_content": ""}}, {"title": "小海豚童书馆", "address": "上街西路51号", "image": "", "rank": 50, "time": 2, "location": {"lat": 21.659208748556235, "lng": 110.64745536694001}, "feature": {"sight_features": "", "sight_content": ""}}, {"title": "下郭水上乐园", "address": "西堤南路与腾飞路交叉口西南", "image": "", "rank": 51, "time": 2, "location": {"lat": 24.473154220645934, "lng": 118.08241542828699}, "feature": {"sight_features": "", "sight_content": ""}}, {"title": "杨梅镇", "address": "广东省化州市南部", "image": "", "rank": 52, "time": 2, "location": {"lat": 21.670231093869553, "lng": 110.64643101120122}, "feature": {"sight_features": "", "sight_content": ""}}, {"title": "广东省茂名市民主路步行街", "address": "广东省化州市民主路", "image": "", "rank": 53, "time": 2, "location": {"lat": 21.6615928904151, "lng": 110.6397240152319}, "feature": {"sight_features": "", "sight_content": ""}}, {"title": "六十担谷岭", "address": "茂名市-化州市", "image": "", "rank": 54, "time": 2, "location": {"lat": 21.670231093869553, "lng": 110.64643101120122}, "feature": {"sight_features": "", "sight_content": ""}}, {"title": "累功坡", "address": "茂名市-化州市", "image": "", "rank": 55, "time": 2, "location": {"lat": 21.670231093869553, "lng": 110.64643101120122}, "feature": {"sight_features": "", "sight_content": ""}}, {"title": "南山寺观音殿", "address": "广东省茂名市化州市丽岗镇412乡道", "image": "", "rank": 56, "time": 2, "location": {"lat": 21.778423257151434, "lng": 110.64172945982463}, "feature": {"sight_features": "", "sight_content": ""}}]}