{"cityName": "壶关", "days": 2, "cityImage": "", "spots": [{"title": "太行山大峡谷", "address": "长治市壶关县桥上乡", "image": "", "rank": 1, "time": 2.5, "location": {"lat": 35.94179426543203, "lng": 113.60018459296035}, "feature": {"sight_features": "特色1 境内千峰竞秀，万壑争奇。 特色2 是旅游、观光、休闲、度假的理想之地。", "sight_content": "千里太行第一峡---太行山大峡谷自然风光旅游区地处晋豫两省交界，位于山西省长治市壶关县东南部,占地面积225平方公里。先后荣获“国家森林公园、国家地质公园、中国秀美十大峡谷之一、国家AAAA级景区、中国攀岩基地、 山西省风景名胜区”等荣誉称号。太行山大峡谷境内千峰竞秀，万壑争奇，集雄、奇、险、幽、秀、美于一体，主要景点有红豆峡、青龙峡、黑龙潭、紫团山等，绘成了一幅风光秀丽的壮美画卷。被称为“世界奇峡，天然氧吧”！\n\n\n太行大峡谷核心景区包括：泉潭叠瀑桃花谷、百里画廊太行天路、太行之魂王相岩、原始生态峡谷漂流、人间仙境仙霞谷。“青崖如点戴，赤壁若朝霞，树翳文禽，潭泓绿水，景物奇秀，为世所称”，太行大峡谷景区四季景色各异，令人神往。\n峡谷内民宅建筑就地取材，石街、石院、石墙、石柱、石梯、石楼与大自然浑然一体，古色古香，令人寻味。太行大峡谷景区交通便捷，接待设施完善，是休闲养生、漂流滑翔、避暑度假、绘画写生、寻古探幽、旅游观光的好地方。\n景区内有绿浪滔天的林海，刀削斧劈的悬崖，千姿百态的山石，如练似银的瀑布，碧波荡漾的深潭，雄伟壮观的庙宇，引人入胜的溶洞，令人神往的传说。置身其间，时见浓荫蔽日，溪水潺潺，时闻飞瀑泻银，珍禽飞鸣；驻足山颠，可望星月游移，奇峰变幻，可瞰云海苍茫，彩霞沐日，鬼斧神工，令人惊羡，雄奇险幽，叹为观止!\n\n\n黑龙潭紫团山风景旅游区位于太行山大峡谷自然风光旅游区（国家森林公园）。十八盘位于王莽峡东山上，西北距壶关县城43公里，是太行山大峡谷王莽峡风景区有名的观光线路。红豆峡雄奇险幽，集北方阳刚粗狂与南国阴柔和美于一体，可谓汇千峡之秀，纳万种风情。"}}, {"title": "红豆峡", "address": "长治市壶关县府前街19号", "image": "", "rank": 2, "time": 3.5, "location": {"lat": 36.121129326599316, "lng": 113.2140513075996}, "feature": {"sight_features": "", "sight_content": ""}}, {"title": "八泉峡", "address": "长治市壶关县桥上乡", "image": "", "rank": 3, "time": 2, "location": {"lat": 35.94179426543203, "lng": 113.60018459296035}, "feature": {"sight_features": "特色1 基本包括了太行山山水自然风光之精髓 特色2 因地貌营造了冬暖夏凉，清新润适的小气候", "sight_content": "八泉峡是太行山大峡谷中气势宏大、内涵丰富的一个高品位景区，基本包括了太行山山水自然风光之精髓。境内最高处山峰海拔达1700余米，沟壑最低处仅600余米，相对落差达1100余米。峡谷全长13公里流域面积60.33平方公里，泉源300余处，飞瀑30余条。峡谷后部有八股达的泉水同出一地，峡谷中部亦有两处泉群均为八个泉眼，三处泉处均合“八”数，故得名八泉峡。旅游项目为“地上看、天上观、水中游、云中行”。"}}, {"title": "常乐寺", "address": "长治市壶关县常平村", "image": "", "rank": 4, "time": 1.0, "location": {"lat": 36.13874834726963, "lng": 113.25226588514691}, "feature": {"sight_features": "", "sight_content": ""}}, {"title": "九龙洞风景区", "address": "长治壶关县桥上乡", "image": "", "rank": 5, "time": 2, "location": {"lat": 35.94179426543203, "lng": 113.60018459296035}, "feature": {"sight_features": "", "sight_content": ""}}, {"title": "万佛寺", "address": "长治市壶关县鹅屋乡沙岗沟村西", "image": "", "rank": 6, "time": 1.5, "location": {"lat": 35.88788017095324, "lng": 113.57355947879745}, "feature": {"sight_features": "", "sight_content": ""}}, {"title": "太行欢乐谷", "address": "长治市壶关县长治东高速收费站西2公里（325省道附近）", "image": "", "rank": 7, "time": 2.5, "location": {"lat": 36.17352120369576, "lng": 113.24144268714218}, "feature": {"sight_features": "特色1 风味小吃、民俗表演、游乐项目一应俱全", "sight_content": "太行欢乐谷规模宏大、气势恢宏，百余种民俗风味小吃带你尝尽各地美味，且有丰富的民俗表演（抬花轿、黄包车、戏剧）、高空蹦极、海盗船、摩天轮项目届时将一一亮相太行欢乐谷，令您流连忘返。"}}, {"title": "青龙峡(太行山大峡谷)", "address": "山西长治壶关县", "image": "", "rank": 8, "time": 2, "location": {"lat": 36.121334604236964, "lng": 113.21357985530864}, "feature": {"sight_features": "", "sight_content": ""}}, {"title": "女娲洞", "address": "山西省长治市壶关县桥上乡杨家池村", "image": "", "rank": 9, "time": 2, "location": {"lat": 35.93508940727968, "lng": 113.643214308126}, "feature": {"sight_features": "", "sight_content": ""}}, {"title": "畅和农家乐", "address": "327省道桥上乡丁家岩", "image": "", "rank": 10, "time": null, "location": {"lat": 35.923941904545515, "lng": 113.50248038698116}, "feature": {"sight_features": "", "sight_content": ""}}, {"title": "君臣上寿石刻", "address": "河北省永年县永年县城西北失山 057150", "image": "", "rank": 11, "time": 2, "location": {"lat": 36.770200181653436, "lng": 114.6416019871825}, "feature": {"sight_features": "", "sight_content": ""}}, {"title": "羊肠板", "address": "山西省壶关县五指峡风景区 047305", "image": "", "rank": 12, "time": 2, "location": {"lat": 36.121334604236964, "lng": 113.21357985530864}, "feature": {"sight_features": "", "sight_content": ""}}, {"title": "铁索攀岩", "address": "长治市壶关县太行大峡谷五指峡中黑龙潭景区孤山内", "image": "", "rank": 13, "time": 2, "location": {"lat": 35.951630667230695, "lng": 113.45228226660863}, "feature": {"sight_features": "", "sight_content": ""}}, {"title": "太行山峡谷农家乐", "address": "桥上乡土圪堆村紫团山景区服务区(近黑龙潭景区)", "image": "", "rank": 14, "time": 4.5, "location": {"lat": 35.910974638819376, "lng": 113.49214268717233}, "feature": {"sight_features": "", "sight_content": ""}}, {"title": "壶关太行大峡谷十八盘", "address": "山西省壶关县境内 047300", "image": "", "rank": 15, "time": 4.5, "location": {"lat": 36.121334604236964, "lng": 113.21357985530864}, "feature": {"sight_features": "", "sight_content": ""}}, {"title": "哆哆爱儿童乐园", "address": "壶关县古城路142号", "image": "", "rank": 16, "time": 2, "location": {"lat": 36.11517935829221, "lng": 113.21133597797527}, "feature": {"sight_features": "", "sight_content": ""}}, {"title": "板状交错层理", "address": "长治市壶关县桥上乡青龙峡景区内", "image": "", "rank": 17, "time": 2, "location": {"lat": 35.94179426543203, "lng": 113.60018459296035}, "feature": {"sight_features": "", "sight_content": ""}}, {"title": "七彩宝贝儿童游乐园", "address": "山西省长治市壶关县府前街45号", "image": "", "rank": 18, "time": 2, "location": {"lat": 36.12073692807536, "lng": 113.21523485654969}, "feature": {"sight_features": "", "sight_content": ""}}, {"title": "宝贝家儿童乐园", "address": "壶关汽车站千友超市B1层", "image": "", "rank": 19, "time": 2, "location": {"lat": 36.098089780051524, "lng": 113.20250145409832}, "feature": {"sight_features": "", "sight_content": ""}}, {"title": "民乐公园", "address": "长治市壶关县", "image": "", "rank": 20, "time": 3.0, "location": {"lat": 36.121334604236964, "lng": 113.21357985530864}, "feature": {"sight_features": "", "sight_content": ""}}, {"title": "玉皇大帝", "address": "长治市壶关县东南60公里的树掌镇紫团山风景区紫团洞内", "image": "", "rank": 21, "time": 0.75, "location": {"lat": 35.910546208924366, "lng": 113.4920434621423}, "feature": {"sight_features": "", "sight_content": ""}}, {"title": "壶关明德渡假村", "address": "长治长治壶关县桥上乡杨家村", "image": "", "rank": 22, "time": 4.5, "location": {"lat": 35.94179426543203, "lng": 113.60018459296035}, "feature": {"sight_features": "", "sight_content": ""}}, {"title": "西岭村剧场", "address": "贾掌镇008乡道南50米", "image": "", "rank": 23, "time": 2, "location": {"lat": 36.12280328682639, "lng": 113.16756698162915}, "feature": {"sight_features": "", "sight_content": ""}}, {"title": "七仙峪-滑索", "address": "长治市壶关县太行山大峡谷红豆峡七仙峪内", "image": "", "rank": 24, "time": 2, "location": {"lat": 35.910990309130476, "lng": 113.52866601146144}, "feature": {"sight_features": "", "sight_content": ""}}, {"title": "壶关太行山大峡谷国家地质公园博...", "address": "西城路161号", "image": "", "rank": 25, "time": 4.5, "location": {"lat": 39.05854541641575, "lng": 115.85790110783451}, "feature": {"sight_features": "", "sight_content": ""}}, {"title": "大河漂流", "address": "桥上乡青龙峡景区内(青龙峡旁边)", "image": "", "rank": 26, "time": 2, "location": {"lat": 40.460959355688594, "lng": 116.69303551241754}, "feature": {"sight_features": "", "sight_content": ""}}, {"title": "山西省壶关县图书馆", "address": "新建路220号", "image": "", "rank": 27, "time": 2, "location": {"lat": 37.69908621845332, "lng": 112.74578522812224}, "feature": {"sight_features": "", "sight_content": ""}}, {"title": "常平绿野山庄", "address": "常平村", "image": "", "rank": 28, "time": 2, "location": {"lat": 34.93475075624033, "lng": 110.9633953338982}, "feature": {"sight_features": "", "sight_content": ""}}, {"title": "黑龙潭秘境漂流", "address": "太行山大峡谷旅游开发区黑龙潭景区", "image": "", "rank": 29, "time": 2, "location": {"lat": 35.90494792242325, "lng": 113.4896093030409}, "feature": {"sight_features": "", "sight_content": ""}}, {"title": "三峻庙", "address": "山西省壶关县黄山乡南阳护村", "image": "", "rank": 30, "time": 2, "location": {"lat": 36.04113403292186, "lng": 113.17705666037553}, "feature": {"sight_features": "", "sight_content": ""}}, {"title": "紫团山", "address": "山西省壶关县树掌镇", "image": "", "rank": 31, "time": 2, "location": {"lat": 35.8975097188105, "lng": 113.42858751664645}, "feature": {"sight_features": "", "sight_content": ""}}, {"title": "太行欢乐谷名人蜡像馆", "address": "长治市-壶关县-325省道", "image": "", "rank": 32, "time": 2, "location": {"lat": 36.17352120369576, "lng": 113.24144268714218}, "feature": {"sight_features": "", "sight_content": ""}}]}