{"cityName": "呼和浩特", "days": "2", "cityImage": "", "spots": [{"title": "大召寺", "address": "呼和浩特市玉泉区大召前街", "image": "", "rank": 1, "time": 2.5, "location": {"lat": 40.80246963413368, "lng": 111.66110008323952}, "feature": {"sight_features": "特色1 皇家寺庙。 特色2 三万两白银铸造银佛，龙雕和壁画，“三绝”不可不看。 特色3 霸气侧漏皇上住过地方果然不一样。", "sight_content": "大召位于内蒙古呼和浩特市旧城内，蒙古语名“伊克召”，意思为“大庙”，始建于明代，是呼市内的黄教寺庙，也是蒙古少有的不设活佛的寺庙。原因是康熙皇帝曾在此住过几日，为了表示对皇帝的尊敬，僧侣们取消了活佛的转世规定大召寺院建筑考究，大殿是常见的藏汉式喇嘛庙形制，其余部分则是依照传统中式庙宇的式样而建，大殿内供奉有一座银铸佛像，所以又有“银佛寺”之称。大召的珍藏品极为丰富，堪称大召“三绝”的银佛、龙雕、壁画和佛殿内的各种彩塑、金铜造像、晾佛节展出的巨幅唐卡、108部的甘珠尔经卷，以及宗教活动使用的各种法器，面具等都是极为珍贵的历史文物和艺术珍品。\n\n\n银佛建于万历十四年（1586年），由尼泊尔工匠制作。当年银像落成时，达赖三世索南嘉措曾亲临大召寺，为银佛举行了“开光法会”。因此大召寺当年也有“银佛寺”之称。 在银佛座前，有两条造型生动的金色蟠龙，高约10米，分别雕在两根通天柱上，由下上望，双龙对翔，张牙舞爪，这就是龙雕。相传龙雕使用了粘土、料浆石为原料精制而成，工艺十分考究，是佛殿中的精品。 而那些布满了经堂和佛殿四壁的壁画，据说采用的是矿物原料，颜色至今不退。壁画的内容依据佛教经典中的故事，描绘了天上、人间和地狱的各种景象。画中所绘佛祖、人物等形象，生动逼真，栩栩如生。 大召寺在每年的农历正月十五和六月十五，都要将寺内珍藏的一幅巨大的迈达佛（未来佛）像，抬出来挂在佛殿前展晾。晾大佛时，要在佛像前举行法会，众僧诵经祈祷，演奏法乐。"}}, {"title": "内蒙古博物院", "address": "呼和浩特市新城区新华东街27号", "image": "", "rank": 2, "time": 2.5, "location": {"lat": 40.84903106344464, "lng": 111.74429032487365}, "feature": {"sight_features": "", "sight_content": ""}}, {"title": "伊斯兰风情街", "address": "呼和浩特市回民区中山西路与通道南路交汇处", "image": "", "rank": 3, "time": 1.5, "location": {"lat": 40.81838163861709, "lng": 111.6615697568856}, "feature": {"sight_features": "", "sight_content": ""}}, {"title": "昭君墓", "address": "呼和浩特市玉泉区小黑河镇209国道昭君博物院", "image": "", "rank": 4, "time": 1.5, "location": {"lat": 40.714571057763855, "lng": 111.68985699225901}, "feature": {"sight_features": "", "sight_content": ""}}, {"title": "清真大寺", "address": "呼和浩特市回民区通道南街28号", "image": "", "rank": 5, "time": 1.0, "location": {"lat": 40.815479662517994, "lng": 111.66165752852037}, "feature": {"sight_features": "", "sight_content": ""}}, {"title": "塞上老街", "address": "呼和浩特市玉泉区大召西夹道与通顺街交口东10米", "image": "", "rank": 6, "time": null, "location": {"lat": 40.80785186029977, "lng": 111.65916533169656}, "feature": {"sight_features": "", "sight_content": ""}}, {"title": "五塔寺", "address": "呼和浩特市玉泉区五塔寺后街48号", "image": "", "rank": 7, "time": 1.0, "location": {"lat": 40.805482242341995, "lng": 111.67162865590142}, "feature": {"sight_features": "", "sight_content": ""}}, {"title": "南山公园", "address": "呼和浩特市和林县城关镇南山", "image": "", "rank": 8, "time": 2.5, "location": {"lat": 40.40776083224912, "lng": 111.83059101131916}, "feature": {"sight_features": "", "sight_content": ""}}, {"title": "青城公园", "address": "呼和浩特市回民区中山西路", "image": "", "rank": 9, "time": 1.5, "location": {"lat": 40.81624210167627, "lng": 111.66951131478048}, "feature": {"sight_features": "", "sight_content": ""}}, {"title": "哈素海码头", "address": "呼和浩特市土默特左旗哈素海国家湿地公园", "image": "", "rank": 10, "time": 2, "location": {"lat": 40.60860167443888, "lng": 110.9832823949732}, "feature": {"sight_features": "特色1 碧波荡漾，微风轻拂，山青柳翠", "sight_content": "哈素海面积约30平方公里，它的水质肥沃，盛产草鱼、鲢鱼、鲤鱼、鲫鱼、河蟹等水产品。哈素海码头占地面积为4000平方米，建筑分为上下两层，整体造型酷似现代游艇。主要功能有，水上项目售票厅、休息大厅、游客接待中心、超市、医务室、母婴室、无障碍卫生间和普通卫生间等。其中水上项目售票厅是各类船只和水上娱乐项目的售卖点。海上碧波荡漾，微风轻拂，山青柳翠，颇有人间仙境之感。离老远便看见一艘画舫从西头行驶过来，而画舫上张灯结彩，顶上漆着红漆，船柱雕梁画凤，当其驶近，才发现船上张灯结彩个个人物都刻画得栩栩如生，呼之欲出。船上游客或凭或立，身着美裳三三两两聚集在一起，谈笑风生……。\n它是一艘观光型电动游船，满载乘客人数分为60人或40人两种，船行航线为荻花线，往返时间为一小时左右。船行舒缓平稳适用于团队接待或在节假日散客高峰乘坐。在浩淼的大海上，披荆斩棘犹如一艘喷气式飞机，划开碧海，直插水天相连的云端，留下一条白色的水痕，惊险刺激莫过于此。\n它是一艘娱乐型游船，满载乘客人数分别为7人、12人；船行航线为荻花线，往返时间为20分钟左右。船行速度极快，适用于喜好刺激的人群乘坐。"}}, {"title": "绥远城将军衙署", "address": "呼和浩特市新华大街31号", "image": "", "rank": 11, "time": 1.5, "location": {"lat": 40.83194223454697, "lng": 111.69359660485975}, "feature": {"sight_features": "", "sight_content": ""}}, {"title": "蒙古风情园", "address": "呼和浩特市玉泉区昭君路3公里处", "image": "", "rank": 12, "time": 2, "location": {"lat": 40.77009413394872, "lng": 111.6754912671875}, "feature": {"sight_features": "", "sight_content": ""}}, {"title": "成吉思汗公园", "address": "呼和浩特市新城区北二环路与成吉思汗东街之间", "image": "", "rank": 13, "time": 1.5, "location": {"lat": 40.87324366930231, "lng": 111.6854362161494}, "feature": {"sight_features": "", "sight_content": ""}}, {"title": "南湖湿地公园", "address": "呼和浩特市玉泉区南二环路以南昭君路以西大黑河以北沙梁村以东(近内蒙古大学新校区)", "image": "", "rank": 14, "time": 2.0, "location": {"lat": 40.77009413394872, "lng": 111.6754912671875}, "feature": {"sight_features": "", "sight_content": ""}}, {"title": "席力图召", "address": "呼和浩特市大南街112号", "image": "", "rank": 15, "time": 1.0, "location": {"lat": 40.807127562721654, "lng": 111.66217653261349}, "feature": {"sight_features": "", "sight_content": ""}}, {"title": "清水河老牛湾", "address": "呼和浩特市清水河县单台子乡老牛湾村", "image": "", "rank": 16, "time": 1.5, "location": {"lat": 39.69903139653817, "lng": 111.48034813742248}, "feature": {"sight_features": "特色1 古长城在此与黄河握手，伴着星空目送他带着清水奔向黄土高原。 特色2 不仅自然风光迷人，更蕴藏丰厚的历史文化资源。 特色3 老牛湾旅游区被誉为中国十大峡谷之一", "sight_content": "清水河老牛湾旅游区地处晋、陕、蒙黄河大峡谷的核心地段，峡谷两岸壁立万仞，河道中碧波万顷，河岸上长城耸立，村落中古迹遍布。这里是长城、黄河唯一交汇之处，拥有极高的历史文化内涵，鬼斧神工削劈的百里峡谷，上苍精凿的阎王鼻子，地质科学内涵深厚，是地质遗迹景观的天然博物馆，\n同时也是黄土文化、黄河文化和窑洞文化融汇于一体的特色地质景区，明代护水楼的雄姿，清代伏龙寺的袅袅香火，留存至今秀才院落的古色古韵，立体展现了两千年黄河古文化。\n\n老牛湾旅游区不仅自然风光迷人，更蕴藏丰厚的历史文化资源，古码头、古栈道、古商业让老牛湾尽显黄河文化古韵。骡驮轿婚礼、踢鼓子秧歌、抿豆面、古瓷窑、布艺、剪纸等非物质文化遗产，彰显老牛湾黄河民俗文化魅力。海红果、小香米、石磨豆腐、黄米糕、黄河鱼、洞穴蘑菇、有机玉米、莜面等健康绿色农副产品闻名中外。\n黄河大峡谷老牛湾旅游区被誉为中国最美十大峡谷之一、中国最美乡村之一，拥有世界级的旅游资源、国家级的地质公园、是国家4A级旅游景区，是长城黄河交汇之处，蒙汉文化交融之地。\n天下黄河九十九道湾，最美不过老牛湾！"}}, {"title": "观音寺", "address": "呼和浩特市玉泉区泉源巷37号", "image": "", "rank": 17, "time": 2.0, "location": {"lat": 40.799490474095904, "lng": 111.66051030974}, "feature": {"sight_features": "", "sight_content": ""}}, {"title": "大青山野生动物园", "address": "呼和浩特市回民区呼武公路向北1.5公里处", "image": "", "rank": 18, "time": 1.5, "location": {"lat": 41.00691391980926, "lng": 111.58553775074166}, "feature": {"sight_features": "", "sight_content": ""}}, {"title": "哈素海", "address": "呼和浩特市土默特左旗西70公里", "image": "", "rank": 19, "time": 1.5, "location": {"lat": 40.7352937117589, "lng": 110.5407728697391}, "feature": {"sight_features": "", "sight_content": ""}}, {"title": "清公主府", "address": "呼和浩特市新城区公主府街", "image": "", "rank": 20, "time": 1.5, "location": {"lat": 40.84468489639224, "lng": 111.66969767903821}, "feature": {"sight_features": "", "sight_content": ""}}, {"title": "昭君博物院", "address": "呼和浩特市玉泉区南郊6公里处", "image": "", "rank": 21, "time": 1.5, "location": {"lat": 40.75805896863502, "lng": 111.68157514366065}, "feature": {"sight_features": "", "sight_content": ""}}, {"title": "神泉生态旅游景区", "address": "呼和浩特市托克托县双河镇郝家窑村", "image": "", "rank": 22, "time": 4.5, "location": {"lat": 40.2027013855503, "lng": 111.23114248747258}, "feature": {"sight_features": "特色1 景区内神泉泉水几千年喷涌不息，泉水香甜纯洁 特色2 景区充分利用黄河、沙漠、湿地，兼具古典园林气息和自然地域风貌 特色3 黄河流经此过呈现山梁、湿地、河流、沙漠为一体的多元素旅游景观", "sight_content": "内蒙古神泉生态旅游景区是经国家旅游局批准设立的国家AAAA级风景旅游区。景区依托内蒙古托克托县准格尔旗得天独厚的黄河库布其沙漠，湿地草原、神泉及云中古郡文化自然历史旅游资源、投巨资精心打造而成，由江苏省无锡市江南公司控股的内蒙古神泉园林建设发展有限公司投资建设。景区位于自治区呼和浩特市托克托县城南11公里的黄河岸边，旅游资源丰富\n交通便捷，距呼和浩特、包头、鄂尔多斯仅一小时车程，有机场、火车站和多条高速公路与景区相通。黄河流经此过呈现山梁、湿地、河流、沙漠为一体的多元素旅游景观，波澜壮阔，规模宏大，景色优美，景区内有一股常年流淌、清澈甘甜的泉水，神泉由此而得名。景区拥有丰富多样、神秘独特的旅游资源，旅游资源的格局大致以黄河为中心，呈东左右翼均衡分布，总体构成一核两带格局，中心以黄河为主，左翼旅游带以江南园林、神泉、宗教文化、民族风情为主，右翼旅游带则以库布齐沙漠为主的沙漠旅游。\n托克托县（托县）位于内蒙古自治区中部、大青山南麓、黄河上中游分界处北岸的土默川平原上。辖区总面积1416.8平方公里，黄河流经县境37.5公里，县境内的河口古镇是黄河上、中游分界点。景区依托黄河、库布齐沙漠、海眼神泉等得天独厚的自然景观,着力打造了以“历史文化游、黄河风情游、沙漠探险游”三条特色游线路，向大家强势推介托县丰富独特的旅游资源。\n而集湖泊、湿地、黄河、沙漠、古典园林为一体的神泉生态旅游景区，一拨又一拨地游客从四面八方云集于此，感受蓝天、白云、草原、沙漠、黄河的美景，景区已成为托县乃至呼包鄂地区旅游的一张响亮名片。神泉生态旅游风景区由黄河两岸分布组成。左岸为古典园林景区，景区占地面积42万平方米，其中翡翠湖18万平方米，主要景点有神泉、茶楼、戏台、珍禽观赏园、奇石馆、翡翠湖荡舟、黄河母亲广场、喷泉广场、黄河大舞台、酒店、旅游商品店、餐饮等；右岸为库布其沙漠游乐园，旅游项目有沙漠冲浪、滑沙、骑骆驼、沙漠卡丁车、沙漠越野、野营俱乐部、沙雕区、凤鸣谷服务区、水上乐园、马术表演、沙漠游乐区等。两个景区由跨黄河840多米索道连接，黄河有豪华游轮、渡轮和黄河漂流，也具有古典园林气息和自然地域风貌的景观，给游客提供了一个优美的环境。黄河、沙漠与托县厚重的历史文化底蕴相融合，形成一个旅游观光、休闲度假的最佳游览景区之一。"}}, {"title": "宝尔汗佛塔", "address": "呼和浩特市鄂尔多斯大街南茶坊西300米74号(观音寺路南)", "image": "", "rank": 23, "time": 1.0, "location": {"lat": 40.798917593106424, "lng": 111.66098302415021}, "feature": {"sight_features": "", "sight_content": ""}}, {"title": "伊利工业园区", "address": "呼和浩特市土默特左旗金四路8号", "image": "", "rank": 24, "time": 2.5, "location": {"lat": 40.8035697995605, "lng": 111.5768147205368}, "feature": {"sight_features": "", "sight_content": ""}}, {"title": "内蒙古大学", "address": "呼和浩特市赛罕区大学西路235号", "image": "", "rank": 25, "time": 2.0, "location": {"lat": 40.81649319499544, "lng": 111.69762261432486}, "feature": {"sight_features": "", "sight_content": ""}}, {"title": "哈达门高原牧场", "address": "呼和浩特市武川县哈达门国家森林公园内", "image": "", "rank": 26, "time": 4.0, "location": {"lat": 41.015329473467624, "lng": 111.58769273535498}, "feature": {"sight_features": "", "sight_content": ""}}, {"title": "满都海公园", "address": "呼和浩特市赛罕区乌兰察布西街", "image": "", "rank": 27, "time": 1.5, "location": {"lat": 40.823792242800224, "lng": 111.69465726202283}, "feature": {"sight_features": "", "sight_content": ""}}, {"title": "内蒙古师范大学", "address": "呼和浩特市赛罕区昭乌达路81号", "image": "", "rank": 28, "time": 1.5, "location": {"lat": 40.811582459166424, "lng": 111.70168236504324}, "feature": {"sight_features": "", "sight_content": ""}}, {"title": "呼和浩特市人民体育场", "address": "呼和浩特市新城区公园东路66号", "image": "", "rank": 29, "time": 2.5, "location": {"lat": 40.81529132221254, "lng": 111.67638608188226}, "feature": {"sight_features": "", "sight_content": ""}}, {"title": "乌兰夫纪念馆", "address": "呼和浩特市回民区新华西街钢铁大桥西行", "image": "", "rank": 30, "time": 1.5, "location": {"lat": 40.822572177678985, "lng": 111.6522235294444}, "feature": {"sight_features": "", "sight_content": ""}}, {"title": "乌素图召", "address": "呼和浩特市区西北方向约12公里的乌素图村", "image": "", "rank": 31, "time": 2.5, "location": {"lat": 40.84812476563385, "lng": 111.58723963005575}, "feature": {"sight_features": "", "sight_content": ""}}, {"title": "蒙牛工业旅游景区", "address": "呼和浩特市和林格尔县盛乐经济园区", "image": "", "rank": 32, "time": 2.5, "location": {"lat": 40.487518652824356, "lng": 111.7856038623964}, "feature": {"sight_features": "", "sight_content": ""}}, {"title": "乌素图森林旅游开发区", "address": "呼和浩特市回民区大青山中段", "image": "", "rank": 33, "time": 2.5, "location": {"lat": 40.85599031221802, "lng": 111.58707480985909}, "feature": {"sight_features": "", "sight_content": ""}}, {"title": "万达国际影城(维多利店)", "address": "呼和浩特市回民区中山西路1号维多利购物中心7层", "image": "", "rank": 34, "time": 2, "location": {"lat": 40.82270554214362, "lng": 111.67586719277222}, "feature": {"sight_features": "", "sight_content": ""}}, {"title": "金刚座舍利宝塔", "address": "呼和浩特市玉泉区五塔寺后街48号", "image": "", "rank": 35, "time": 0.4, "location": {"lat": 40.805482242341995, "lng": 111.67162865590142}, "feature": {"sight_features": "", "sight_content": ""}}, {"title": "万部华严经塔（白塔）", "address": "呼和浩特市赛罕区河西路", "image": "", "rank": 36, "time": 1.5, "location": {"lat": 40.83053614431661, "lng": 111.90700625884789}, "feature": {"sight_features": "", "sight_content": ""}}, {"title": "公主府公园", "address": "呼和浩特市新城区海拉尔大街54号", "image": "", "rank": 37, "time": 1.0, "location": {"lat": 40.8415269124087, "lng": 111.6632184574118}, "feature": {"sight_features": "", "sight_content": ""}}, {"title": "星美国际电影城", "address": "呼和浩特市回民区中山西路25号工人文化宫3楼(近青城公园)", "image": "", "rank": 38, "time": 2, "location": {"lat": 40.81718548832383, "lng": 111.67043066669027}, "feature": {"sight_features": "", "sight_content": ""}}, {"title": "快乐依呀呀", "address": "呼和浩特市新城区呼伦贝尔北路(军区招待所对面)", "image": "", "rank": 39, "time": 2, "location": {"lat": 40.84609042470036, "lng": 111.67766607740343}, "feature": {"sight_features": "", "sight_content": ""}}, {"title": "大窑文化遗址", "address": "呼和浩特新城区保合少乡大窑村南山坡上", "image": "", "rank": 40, "time": 2.0, "location": {"lat": 40.95375552803218, "lng": 111.98957521712012}, "feature": {"sight_features": "", "sight_content": ""}}, {"title": "如意广场", "address": "呼和浩特市赛罕区如意和大街", "image": "", "rank": 41, "time": 1.0, "location": {"lat": 40.83710445789216, "lng": 111.7696963261713}, "feature": {"sight_features": "", "sight_content": ""}}, {"title": "太伟滑雪场", "address": "呼和浩特市新城区保合少镇古路板村", "image": "", "rank": 42, "time": 2, "location": {"lat": 40.93793556493715, "lng": 111.84349932642958}, "feature": {"sight_features": "", "sight_content": ""}}, {"title": "绿忆工坊", "address": "呼和浩特市回民区海亮广场C座2107", "image": "", "rank": 43, "time": 2, "location": {"lat": 40.82068890703795, "lng": 111.6770877635873}, "feature": {"sight_features": "", "sight_content": ""}}, {"title": "南湖湿地乐众冰雪世界", "address": "呼和浩特市玉泉区南湖湿地公园", "image": "", "rank": 44, "time": 2, "location": {"lat": 40.754349715307484, "lng": 111.6402399875175}, "feature": {"sight_features": "", "sight_content": ""}}, {"title": "喇嘛洞召", "address": "呼和浩特土默特左旗毕克齐镇", "image": "", "rank": 45, "time": 1.5, "location": {"lat": 40.80299061329693, "lng": 111.3626596377799}, "feature": {"sight_features": "", "sight_content": ""}}, {"title": "X-ROOM超级密室", "address": "呼和浩特市回民区海亮广场维多利时代城5楼", "image": "", "rank": 46, "time": 2, "location": {"lat": 40.82089564984222, "lng": 111.67727324840392}, "feature": {"sight_features": "", "sight_content": ""}}, {"title": "豆思主题乐园", "address": "呼和浩特万达广场西侧必胜客外向南200米处", "image": "", "rank": 47, "time": 2, "location": {"lat": 40.84190689517466, "lng": 111.74115911932363}, "feature": {"sight_features": "", "sight_content": ""}}, {"title": "白石头沟生态旅游区", "address": "呼和浩特市土左旗五一水库北", "image": "", "rank": 48, "time": 3.0, "location": {"lat": 40.77826568421338, "lng": 111.46483919641997}, "feature": {"sight_features": "", "sight_content": ""}}, {"title": "阿尔泰游乐园", "address": "呼和浩特市新城区兴安北路", "image": "", "rank": 49, "time": 2.0, "location": {"lat": 40.8596186070975, "lng": 111.69518476767932}, "feature": {"sight_features": "", "sight_content": ""}}, {"title": "千古马颂", "address": "呼和浩特市新城区保合少镇野马图村南侧内蒙古少数民族文化体育运动中心亮马圈", "image": "", "rank": 50, "time": 2, "location": {"lat": 40.94064756355796, "lng": 111.8798039941745}, "feature": {"sight_features": "特色1 凝聚了马背民族几代人的夙愿 特色2 将文化与旅游融合，彰显蒙古民族文化优势的马文化全景演出 特色3 非异域文化之下生疏的“舶来品” 特色4 它以震撼唯美的方式娓娓讲述民族大爱和旷世情怀", "sight_content": "通过讲述“我”——一个牧人之子的成长，艺术地体现了“蒙古马的精神”，折射出蒙古民族守望相助、砥砺奋进、追求文明进步的伟大历程，歌颂了马背民族开放包容、坚韧不拔的民族精神，展示了人与马、人与草原和谐共处、诗意栖息的大美境界。\n该剧汇集百匹名马和百名骑士，综合运用民族马术、马背杂技、舞马表演、蒙古族歌舞乐等艺术元素，融合高科技声光电、裸眼3D技术， 以《天降神驹》、《迁徙》、《马背家园》、《马背传奇》、《自由天驹》五个部分生动演绎了人马结缘的温情、马背家园的祥和、百骏出征的壮观、千古马颂的绝唱。\n\n\n在这英雄策马的数千里边疆，草原、森林、沙漠、湖泊，饱览美景过后，你是否也曾感觉，那一段长调，一首呼麦，一曲悠扬的马头琴，仍然不足以将蒙古民族文化、历史的厚重、博大，草原人民的自信、豪迈，人与自然的和谐、统一表达的酣畅淋漓，浓缩的绝代称奇\n\n\n凝聚了马背民族几代人的夙愿，一部将文化与旅游深度融合，充分彰显蒙古民族文化优势的马文化全景式驻场演出《千古马颂》，在今夏如约而至。它不是单纯的马秀、马术、马戏，也非异域文化之下生疏的“舶来品”，它以震撼唯美的方式娓娓讲述民族大爱和旷世情怀，无疑弥补了你我长久以来那一种难以名状的缺失与遗憾。"}}, {"title": "玉泉井", "address": "呼和浩特市玉泉区大召前街", "image": "", "rank": 51, "time": 0.25, "location": {"lat": 40.80246963413368, "lng": 111.66110008323952}, "feature": {"sight_features": "", "sight_content": ""}}, {"title": "敕勒川公园", "address": "呼和浩特市赛罕区鄂尔多斯东街（自治区政府对面）", "image": "", "rank": 52, "time": 1.0, "location": {"lat": 40.82317527219328, "lng": 111.77260187827554}, "feature": {"sight_features": "", "sight_content": ""}}, {"title": "碧海云天大浴场（中山西路）", "address": "呼和浩特市中山西路40号", "image": "", "rank": 53, "time": 2, "location": {"lat": 40.814312595799215, "lng": 111.66350887239672}, "feature": {"sight_features": "特色1 加速新陈代谢。 特色2 燃烧脂肪及排除多余的水分。 特色3 减少疼痛、增加肌腱组织的伸展性。", "sight_content": "【内蒙古碧海云天集团公司】\n是一家立足于服务行业，集沐浴、餐饮、娱乐、休闲、健身等为一体的大型综合性集团公司，创中国沐浴主题连锁会馆---“碧海云天”品牌。碧海云天以连锁经营方式，实现跨越式的发展，走出了一条以品牌为依托做大做强健康休闲产业的发展道路。经过十年的拼搏发展，碧海云天目前已拥有十二家分店的沐浴连锁企业，范围覆盖到北京、长沙、成都、内蒙古呼和浩特、包头、鄂尔多斯、乌海、临河等西部五市，在全国的沐浴行业中，已成为内蒙古乃至全国沐浴行业的领航者。\n门票包含项目：洗浴、桑拿、干蒸、湿蒸、泡池、洗漱用品、毛巾、四餐自助、电玩、台球、乒乓球、儿童乐园、大厅休息（共计24小时）。\n门票+搓澡包含项目：洗浴、桑拿、干蒸、湿蒸、泡池、洗漱用品、毛巾、四餐自助、电玩、台球、乒乓球、儿童乐园、大厅休息（共计24小时）搓澡一次。\n门票+养生足道包含项目：洗浴、桑拿、干蒸、湿蒸、泡池、洗漱用品、毛巾、四餐自助、电玩、台球、乒乓球、儿童乐园、大厅休息（共计24小时）养生足道一次（45分钟）。\n泡热水澡的好处：\n1、可以改善皮肤和肌肉的血液循环，加速新陈代谢，起到消除疲劳、舒筋活血、驱寒、健身、改善睡眠的功效；\n2、排出毛孔里的废物，让皮肤变得有光泽，拥有吹弹可破的水嫩肌肤；\n3、想变瘦又懒得运动的美人儿，可通过泡澡促进新陈代谢、燃烧脂肪及排除多余的水分，泡出自信好身材；\n4、泡温水浴的热疗效果，包括：有助解除肌肉痉孪、减少疼痛、增加肌腱组织的伸展性、改善血液循环及关节滑液的粘稠度、噬菌作用、消耗热量、增加内分泌、强化免疫系统等；\n5、泡澡的好处不少，特别是泡温水浴或温泉浴，因为泡温水浴本身的热度，浸泡其中又有水压力、浮力等机械力学效应，可改善许多病症，所以可以当作是一种辅助性自然疗法。"}}, {"title": "蓝色故乡", "address": "呼和浩特市玉泉区政府南一公里路西", "image": "", "rank": 54, "time": 2, "location": {"lat": 40.7526423524464, "lng": 111.68032954785069}, "feature": {"sight_features": "", "sight_content": ""}}, {"title": "仕奇公园", "address": "呼和浩特市赛罕区水上公园北街", "image": "", "rank": 55, "time": 1.0, "location": {"lat": 40.795559558845774, "lng": 111.6983480490242}, "feature": {"sight_features": "", "sight_content": ""}}, {"title": "身临其境3D魔幻艺术画展（魅力新...", "address": "呼和浩特市赛罕区维多利摩尔城向东100米魅力新天地4楼", "image": "", "rank": 56, "time": 2, "location": {"lat": 40.83755102897373, "lng": 111.72155018800743}, "feature": {"sight_features": "", "sight_content": ""}}, {"title": "内蒙古美术馆", "address": "中国内蒙古自治区呼和浩特市新城区新华大街43号", "image": "", "rank": 57, "time": 2, "location": {"lat": 40.83107197756679, "lng": 111.69031700013778}, "feature": {"sight_features": "", "sight_content": ""}}, {"title": "沐蓝爵汗蒸养生馆", "address": "呼和浩特市回民区阿拉善北路蓝爵小区南门", "image": "", "rank": 58, "time": 2, "location": {"lat": 40.81853916986957, "lng": 111.62832083612955}, "feature": {"sight_features": "", "sight_content": ""}}, {"title": "玉泉百坊民俗村", "address": "呼和浩特市南二环与西二环交汇处往南3公里即到", "image": "", "rank": 59, "time": 2, "location": {"lat": 40.78256682707213, "lng": 111.65325616756034}, "feature": {"sight_features": "", "sight_content": ""}}, {"title": "呼和浩特市植物园", "address": "呼和浩特市回民区新华西街24号", "image": "", "rank": 60, "time": 1.5, "location": {"lat": 40.82059354208997, "lng": 111.64749937849626}, "feature": {"sight_features": "", "sight_content": ""}}]}