{"cityName": "惠安", "days": 2, "cityImage": "", "spots": [{"title": "崇武古城", "address": "泉州市惠安县东南海滨", "image": "", "rank": 1, "time": 4.5, "location": {"lat": 25.03694981503913, "lng": 118.80341550029883}, "feature": {"sight_features": "特色1 为抵御倭寇所建古城", "sight_content": "崇武古城，坐落于福建省惠安县东南海滨，濒临台湾海峡。系1387年（明洪武二十年）江夏侯周德兴经略海防时为抵御倭寇所建，是万里海疆修筑的60多座卫所城堡中仍保存完好的一座。\n崇武古城是中国现存较完整的丁字型石砌古城，是明朝廷为抗击倭患，在万里海疆修筑的60多座卫所城堡中仍保存完好的一座。\n1988年被国务院列为第三批国家重点文物保护单位，为福建省“国防教育基地”，泉州市“爱国主义教育基地”和“国防教育基地”。国家级AAAA级旅游景区。\n南北气候分界线、东南海的分界线在崇武古城。"}}, {"title": "西沙湾", "address": "泉州市惠安县崇武镇店下南路联群西沙苑南100米", "image": "", "rank": 2, "time": 3.5, "location": {"lat": 24.88927413849524, "lng": 118.92902366788614}, "feature": {"sight_features": "", "sight_content": ""}}, {"title": "聚龙小镇", "address": "泉州市惠安县聚龙小镇(沈海高速公路北)", "image": "", "rank": 3, "time": 4.5, "location": {"lat": 25.0596227038662, "lng": 118.71753388777499}, "feature": {"sight_features": "特色1 聚龙小镇是一座集养生、休闲、文教、商务、酒店、医疗、运动、人居于一体的综合园区。", "sight_content": "聚龙小镇温泉公园，是泉州沿海首个岩脉温泉，经专家检测，聚龙温泉千载难逢，是温泉中的极品，也是目前泉州地区水质最好的温泉。温泉公园位置得天独厚，为泉州本地第一家温泉，打破了泉州北部无温泉这一说，你可以泡着温泉欣赏聚龙小镇的美景。温泉水经过专家检测，具有软化皮肤角质软化血管、美容养颜、抗衰老等作用。"}}, {"title": "中华石雕工艺博览园", "address": "泉州市惠安县崇武镇崇武古城景区旁", "image": "", "rank": 4, "time": 2.0, "location": {"lat": 24.881983130245416, "lng": 118.93541915935215}, "feature": {"sight_features": "", "sight_content": ""}}, {"title": "青山湾", "address": "泉州市惠安县山霞镇", "image": "", "rank": 5, "time": 2, "location": {"lat": 24.927376093394464, "lng": 118.89003129342422}, "feature": {"sight_features": "", "sight_content": "青山湾，是惠安一处不可多得的海滨浴场。海滩面积宽广，沙子细腻柔软，且海水风浪较小，非常适合游泳，踏浪，以及其他水上运动。来到青山湾度假区，游客可听海风，抓螃蟹，看日出，捡贝壳，吃海鲜。"}}, {"title": "中国雕艺城", "address": "泉州市惠安县国道324线福州至厦门段的中心位置", "image": "", "rank": 6, "time": 1.5, "location": {"lat": 25.03694981503913, "lng": 118.80341550029883}, "feature": {"sight_features": "", "sight_content": ""}}, {"title": "惠安县", "address": "福建省泉州市惠安县", "image": "", "rank": 7, "time": 2, "location": {"lat": 25.03694981503913, "lng": 118.80341550029883}, "feature": {"sight_features": "", "sight_content": ""}}, {"title": "惠安城北文体休闲公园", "address": "泉州市惠安县螺城镇建设北街北段东霞路", "image": "", "rank": 8, "time": 0.75, "location": {"lat": 25.03849381356641, "lng": 118.8128078323689}, "feature": {"sight_features": "", "sight_content": ""}}, {"title": "惠女湾", "address": "泉州市惠安县净峰镇东海", "image": "", "rank": 9, "time": 1.0, "location": {"lat": 25.01018789461898, "lng": 118.99696689372101}, "feature": {"sight_features": "", "sight_content": ""}}, {"title": "高明王宫庙", "address": "泉州市惠安县净峰镇赤土尾村", "image": "", "rank": 10, "time": 0.35, "location": {"lat": 24.983416616935273, "lng": 118.98588057664621}, "feature": {"sight_features": "", "sight_content": ""}}, {"title": "聚龙岛欢乐园", "address": "泉州市惠安县黄塘高速路口北向3公里处聚龙小镇在水一方", "image": "", "rank": 11, "time": 3.0, "location": {"lat": 25.0596227038662, "lng": 118.71753388777499}, "feature": {"sight_features": "特色1 自然景观与团队拓展训练为一体 特色2 可欢畅淋漓的运动，也可静谧的谈天说地", "sight_content": "【景区介绍】：\n聚龙岛欢乐园位于泉州聚龙小镇，占地一千多亩。园区由百亩荷花园、猕猴岛、鸽子广场、瞭望台、水上漂、《勇闯聚龙岛》大型闯关设备、300余米跨河滑索、丛林cs竞技、特色烧烤等集惠安黄塘溪自然生态景观与团队拓展训练设备为一体的大型旅游景区。园区位于惠安县聚龙小镇境内，距g15沈海高速公路惠安站（黄塘）出口处仅3km，前身为都视达团队策划的福建综合频道《勇闯聚龙岛》大型团队竞技栏目拍摄基地。在这里你可以独享潺潺流水的宁静，鸟语花香的诗意，更能鼓舞士气，让你的团队焕然一新。\n【项目介绍】\n一、空中路径\n大小冒险家，挑战福建首家室外高空游乐设施——空中路径。该设施身高14米，分上中下3层，集攀爬、钻网、穿越等为一体的27道关卡。该项目可追溯至古希腊的士兵训练到二十世纪初的法国海军标准培训课程。到了80年代，后人改良了此设备和玩法，其独特的绳索结合式体验设备，3层不同难度系数设置，更适合全家各个年龄游玩体验，让你和你的家人在此一起放飞梦想，翱翔蓝天。\n二、水上皮伐艇\n不怕狼一样的对手就怕猪一样的战友，你划桨来我泼水，默契指数大考验！\n三、家庭脚踏船\n炎炎夏日，邀上亲人来场水上脚踏船。这个夏天一起降降温~\n四、童年网事\n欢乐滑滑梯、步步高升梯、时空隧道机、勇者铁链锁、欢趣跷跷板，大小朋友齐上阵，快乐童年大比拼。\n五、水上乐园区\n1、水上冲关阵\n激情水上漂、飞跃滚动桥、齐心合力桥、巧过铁索桥、智抓空中杠，水上乐园大闯关。英雄比比看，够胆你就来，我不是高手谁是高手。\n2、儿童戏水池\n水上跷跷板，露天小喷泉，快乐打水仗，童年欢乐过！\n六、景区风景\n阳春三月入景区，茶花、月季杜鹃花、三角梅、凤凰花……等你来辨识。炎炎夏日，抱月亭前百亩荷花竞相绽放。秋高气爽，正是看云好时节。残冬落日，黄塘溪上泛舟踏余晖。漫步百米风车长廊，约上心爱的他（她），同结许愿符，心心齐相印。"}}, {"title": "惠安沿海大通道", "address": "泉州市惠安县，起点为国道324线泉州与莆田交界处，终点为泉州与厦门交界处的前坂。", "image": "", "rank": 12, "time": 4.5, "location": {"lat": 25.111091149150262, "lng": 118.74135150885526}, "feature": {"sight_features": "", "sight_content": ""}}, {"title": "浮山村", "address": "泉州市惠安县张坂镇浮山村", "image": "", "rank": 13, "time": 3.5, "location": {"lat": 24.871304470175893, "lng": 118.83703098089526}, "feature": {"sight_features": "", "sight_content": ""}}, {"title": "潮显妈祖宫", "address": "泉州市惠安县净峰镇上厅村濒海之滨（净峰镇上厅东宫庙）", "image": "", "rank": 14, "time": 0.25, "location": {"lat": 25.01476926248081, "lng": 118.99909009179316}, "feature": {"sight_features": "", "sight_content": ""}}, {"title": "灵山古寺", "address": "泉州市惠安县净峰镇东周（莲城）半岛黄崎卫城（莲城卫城）的南部", "image": "", "rank": 15, "time": 0.75, "location": {"lat": 25.04428921660655, "lng": 119.00533541173051}, "feature": {"sight_features": "", "sight_content": ""}}, {"title": "珍头村", "address": "泉州市惠安县净峰镇珍头村", "image": "", "rank": 16, "time": 3.0, "location": {"lat": 25.034801775516225, "lng": 119.00528181612889}, "feature": {"sight_features": "", "sight_content": ""}}, {"title": "欧景帝1街3D画展", "address": "泉州市惠安县世纪大道与中山南路交汇处（欧景帝苑2-9号商场）", "image": "", "rank": 17, "time": 2, "location": {"lat": 25.031374803576544, "lng": 118.79846623668644}, "feature": {"sight_features": "", "sight_content": ""}}, {"title": "大竹岛", "address": "泉州市惠安县净峰镇大竹岛", "image": "", "rank": 18, "time": 7.5, "location": {"lat": 25.083490375326267, "lng": 119.04997314404937}, "feature": {"sight_features": "", "sight_content": ""}}, {"title": "莲城卫城", "address": "泉州市惠安县净峰镇东北部东周（莲城）半岛", "image": "", "rank": 19, "time": 1.0, "location": {"lat": 25.04428921660655, "lng": 119.00533541173051}, "feature": {"sight_features": "", "sight_content": ""}}, {"title": "泉州惠安月亮湾沙滩", "address": "泉州市惠安县台商区201省道", "image": "", "rank": 20, "time": 1.5, "location": {"lat": 24.957083658287893, "lng": 118.91824975631508}, "feature": {"sight_features": "", "sight_content": "月亮湾沙滩位于泉州市惠安县201省道旁，这里水缓沙平，有安全温和的海滨浴场和丰富多彩的旅游项目。\n成就了无限遐想的旅游空间，成为了泉州距离市区较近得滨海旅游休闲度假区。"}}, {"title": "惠安女民俗风情园", "address": "泉州市惠安县崇武镇大岞村", "image": "", "rank": 21, "time": 4.5, "location": {"lat": 24.88770982878281, "lng": 118.97501722169385}, "feature": {"sight_features": "", "sight_content": ""}}, {"title": "施琅将军陵园", "address": "泉州市惠安县黄塘镇虎窟村", "image": "", "rank": 22, "time": 2, "location": {"lat": 25.02550056415757, "lng": 118.6533030073742}, "feature": {"sight_features": "", "sight_content": ""}}, {"title": "海豚湾公园", "address": "福建省泉州市惠安县滨海大道月亮湾68号", "image": "", "rank": 23, "time": 2, "location": {"lat": 25.03694981503913, "lng": 118.80341550029883}, "feature": {"sight_features": "", "sight_content": ""}}, {"title": "中新花园", "address": "螺城镇中新花园II组团29幢36-39号", "image": "", "rank": 24, "time": 2, "location": {"lat": 25.035500093628226, "lng": 118.80563020516003}, "feature": {"sight_features": "", "sight_content": ""}}, {"title": "青兰山", "address": "福建省泉州市惠安县净峰镇斗尾村青兰山", "image": "", "rank": 25, "time": 2, "location": {"lat": 25.05740073244737, "lng": 119.01466982734945}, "feature": {"sight_features": "", "sight_content": ""}}, {"title": "威方宫", "address": "泉州市惠安县净峰镇湖街村下湖街", "image": "", "rank": 26, "time": 0.25, "location": {"lat": 24.97369126298155, "lng": 118.97703648581853}, "feature": {"sight_features": "", "sight_content": ""}}, {"title": "崇武潮乐水关风景区", "address": "泉州市惠安县崇武古城西南角的潮乐村", "image": "", "rank": 27, "time": 2, "location": {"lat": 24.881983130245416, "lng": 118.93541915935215}, "feature": {"sight_features": "", "sight_content": ""}}, {"title": "镇风塔", "address": "泉州市洛江区鲤城区与惠安县交界处洛阳桥内", "image": "", "rank": 28, "time": 1.0, "location": {"lat": 24.946213653759614, "lng": 118.67741629493332}, "feature": {"sight_features": "", "sight_content": ""}}, {"title": "地震勘察台", "address": "净峰寺旅游景区", "image": "", "rank": 29, "time": 2, "location": {"lat": 24.982327802358853, "lng": 118.97010061777486}, "feature": {"sight_features": "", "sight_content": ""}}, {"title": "聚龙镕峰生态采摘园", "address": "聚龙路口在水一方对面", "image": "", "rank": 30, "time": 2, "location": {"lat": 39.919212267271845, "lng": 116.6514094921367}, "feature": {"sight_features": "", "sight_content": ""}}, {"title": "無間密室", "address": "螺城镇中新花园2号楼2层(酷乐儿儿童天地楼上)", "image": "", "rank": 31, "time": 2, "location": {"lat": 25.03626434861692, "lng": 118.80661520882937}, "feature": {"sight_features": "", "sight_content": ""}}, {"title": "惠安图书馆", "address": "科山路", "image": "", "rank": 32, "time": 1.5, "location": {"lat": 36.20652977252968, "lng": 117.10632916817761}, "feature": {"sight_features": "", "sight_content": ""}}, {"title": "革命历史纪念馆", "address": "科山路", "image": "", "rank": 33, "time": 2, "location": {"lat": 36.20652977252968, "lng": 117.10632916817761}, "feature": {"sight_features": "", "sight_content": ""}}, {"title": "植物景区", "address": "崇武古城风景区内", "image": "", "rank": 34, "time": 2, "location": {"lat": 24.87814394207041, "lng": 118.93924095882106}, "feature": {"sight_features": "", "sight_content": ""}}, {"title": "海豚星儿童主题乐园", "address": "东园镇旭峰花园16号楼2楼(黄鹤楼边上)", "image": "", "rank": 35, "time": 2, "location": {"lat": 24.917152050472154, "lng": 118.76046463930335}, "feature": {"sight_features": "", "sight_content": ""}}, {"title": "聚远高尔夫球馆", "address": "聚龙小镇内", "image": "", "rank": 36, "time": 2, "location": {"lat": 25.064977550872097, "lng": 118.7131696016088}, "feature": {"sight_features": "", "sight_content": ""}}, {"title": "龟山湾旅游区", "address": "福建省泉州市惠安县S201(沿海大通道)", "image": "", "rank": 37, "time": 2, "location": {"lat": 24.897721851208843, "lng": 118.70311322234326}, "feature": {"sight_features": "", "sight_content": ""}}, {"title": "晴霞古寺", "address": "福建省泉州市惠安县X308", "image": "", "rank": 38, "time": 2, "location": {"lat": 25.03694981503913, "lng": 118.80341550029883}, "feature": {"sight_features": "", "sight_content": ""}}, {"title": "崇武天后宫", "address": "福建省泉州市惠安县崇武镇西华惠崇公路黑脸三妈祖庙", "image": "", "rank": 39, "time": 2, "location": {"lat": 24.882877766273428, "lng": 118.93457870471731}, "feature": {"sight_features": "", "sight_content": ""}}, {"title": "东狱庙", "address": "洛阳街与蔡襄路交叉口北50米", "image": "", "rank": 40, "time": 2, "location": {"lat": 24.96177927497089, "lng": 118.6896911833839}, "feature": {"sight_features": "", "sight_content": ""}}, {"title": "山前基督教", "address": "福建省泉州市惠安县净峰镇净峰寺东200米", "image": "", "rank": 41, "time": 2, "location": {"lat": 24.982327802358853, "lng": 118.97189722879422}, "feature": {"sight_features": "", "sight_content": ""}}, {"title": "观音妈宫", "address": "福建省泉州市惠安县洋边村新刊", "image": "", "rank": 42, "time": 2, "location": {"lat": 24.992412385385922, "lng": 118.98331314943172}, "feature": {"sight_features": "", "sight_content": ""}}, {"title": "大人宫庙", "address": "福建省泉州市惠安县净峰镇东洋村西铺", "image": "", "rank": 43, "time": 2, "location": {"lat": 24.99348717449862, "lng": 118.98678440763308}, "feature": {"sight_features": "", "sight_content": ""}}, {"title": "海明亭", "address": "福建省泉州市惠安县净峰镇净峰寺旅游景区", "image": "", "rank": 44, "time": 2, "location": {"lat": 24.982327802358853, "lng": 118.97010061777486}, "feature": {"sight_features": "", "sight_content": ""}}, {"title": "宫山佛祖庙", "address": "山前村委会附近", "image": "", "rank": 46, "time": 2, "location": {"lat": 24.98210879106502, "lng": 118.97975503227401}, "feature": {"sight_features": "", "sight_content": ""}}, {"title": "点点儿童乐园", "address": "黄塘镇台商创业基地二号路东面路口", "image": "", "rank": 47, "time": 2, "location": {"lat": 25.032488373479094, "lng": 118.71696184772473}, "feature": {"sight_features": "", "sight_content": ""}}, {"title": "德济寺", "address": "螺城镇城北工业区水一方游泳馆旁", "image": "", "rank": 48, "time": 2, "location": {"lat": 25.053369787207917, "lng": 118.81790871018862}, "feature": {"sight_features": "", "sight_content": ""}}, {"title": "三世同卿第明代进士李慎故居", "address": "惠安县医院斜对面", "image": "", "rank": 49, "time": 2, "location": {"lat": 25.040070786076313, "lng": 118.80397263027425}, "feature": {"sight_features": "", "sight_content": ""}}, {"title": "福音堂", "address": "福建省泉州市惠安县201省道", "image": "", "rank": 50, "time": 1.0, "location": {"lat": 24.957083658287893, "lng": 118.91824975631508}, "feature": {"sight_features": "", "sight_content": ""}}, {"title": "净峰后楼公园", "address": "福建省泉州市惠安县净峰镇湖莲路后楼路口", "image": "", "rank": 51, "time": 2, "location": {"lat": 25.01018789461898, "lng": 118.99696689372101}, "feature": {"sight_features": "", "sight_content": ""}}, {"title": "将军宫", "address": "福建省泉州市惠安县净峰镇镇区水头村", "image": "", "rank": 52, "time": 2, "location": {"lat": 25.01018789461898, "lng": 118.99696689372101}, "feature": {"sight_features": "", "sight_content": ""}}, {"title": "东莲钱王爷宫", "address": "福建省泉州市惠安县城前村东莲村内", "image": "", "rank": 53, "time": 2, "location": {"lat": 25.035391076614175, "lng": 119.00472410045828}, "feature": {"sight_features": "", "sight_content": ""}}, {"title": "红爷宫", "address": "福建省泉州市惠安县杜厝村内", "image": "", "rank": 54, "time": 2, "location": {"lat": 25.013718295267296, "lng": 118.80528714138758}, "feature": {"sight_features": "", "sight_content": ""}}, {"title": "泉州惠安半月湾海岸城度假村", "address": "福建省泉州市惠安县半月湾度假村商业街26号", "image": "", "rank": 55, "time": 1.5, "location": {"lat": 24.88242278800421, "lng": 118.9464511244521}, "feature": {"sight_features": "", "sight_content": ""}}, {"title": "护海朝圣广场", "address": "福建省泉州市惠安县东岭镇护海路护海朝圣广场", "image": "", "rank": 56, "time": 2, "location": {"lat": 24.964556099343685, "lng": 118.92719334346101}, "feature": {"sight_features": "", "sight_content": ""}}, {"title": "文化法制广场", "address": "福建省泉州市惠安县螺城镇惠泉南路法治文化广场", "image": "", "rank": 57, "time": 2, "location": {"lat": 25.02516699559171, "lng": 118.79960838632842}, "feature": {"sight_features": "", "sight_content": ""}}, {"title": "萌想部落儿童游乐场", "address": "东桥镇后苑路与S201交叉口向南5米路东", "image": "", "rank": 58, "time": 2, "location": {"lat": 25.01793600547704, "lng": 118.9102087290537}, "feature": {"sight_features": "", "sight_content": ""}}, {"title": "安安游乐城堡", "address": "东岭镇大坵村委会对面", "image": "", "rank": 59, "time": 2, "location": {"lat": 26.94606396972365, "lng": 118.4991781089244}, "feature": {"sight_features": "", "sight_content": ""}}, {"title": "真耶稣教会惠安陈林柄教会", "address": "福建省泉州市惠安县X308(惠崇公路)", "image": "", "rank": 60, "time": 2, "location": {"lat": 24.9571356385087, "lng": 118.87544462921902}, "feature": {"sight_features": "", "sight_content": ""}}]}