{"cityName": "会昌", "days": 2, "cityImage": "", "spots": [{"title": "汉仙岩风景名胜区", "address": "赣州市会昌县筠门岭镇境内紧靠206国道", "image": "", "rank": 1, "time": 12.0, "location": {"lat": 25.230005840570303, "lng": 115.79269819071588}, "feature": {"sight_features": "特色1 有“虔南第一山•仙境汉仙岩”的美誉", "sight_content": "汉仙岩风景区地处江西省会昌县境内，闽粤赣三省交界处，距红都瑞金90公里，距赣州、龙岩、梅州市区均为180公里。现为国家级风景名胜区、国家4A级旅游景区、国家水利风景区和江西省优秀新旅游景区，有“虔南第一山•仙境汉仙岩”、“八仙圣地•风景独好”的美誉。\n汉仙岩有景点近百处，其中古建筑和古石刻48处。游人置身汉仙岩间，举目所见，皆为奇景，而且景中有景，景景有传说。有“群象出山、合掌门、僧帽石、壁立万仞、会仙台、仙人洞、天台、问天台、天子万年、汉钟离得道处、一线天、仙姑鞋、神豹、神马峰、神龙峰、神虎峰、祁雨台、神龙峡、天门、三龟觅仙、双蟒出水、雄鹰展翅、巨螺石、寿星观景、猿猴望天、老僧引路”等神奇景观，定会让您目不暇接，感觉美不胜收，仿佛进入了仙家圣地。"}}, {"title": "岚山公园", "address": "赣州市会昌县伏龙坪后街293号附近", "image": "", "rank": 2, "time": 2.0, "location": {"lat": 25.606661833811145, "lng": 115.79245964209457}, "feature": {"sight_features": "", "sight_content": ""}}, {"title": "汉仙湖十里画廊景区", "address": "筠门岭镇羊子岩码头", "image": "", "rank": 3, "time": 2.5, "location": {"lat": 25.239302777789074, "lng": 115.77088133944646}, "feature": {"sight_features": "", "sight_content": "汉仙湖景区属水库型水利风景区，沿途15公里，曲径通幽，有十里画廊之美称。景区植被覆盖率高，是天然氧吧，水路既有长江三峡之雄观，又具漓江水之佳景。\n\n\n沿途景观万丈石、骏马望江、双蟒出水、三星高照、田螺石、八戒洗浴、骆驼峰、人面石狮、寿星观景、雄鹰展翅、蛇咬蛙、老僧引路处处奇峰夹岸，群山环抱，碧水潆回，明净如镜，田园村舍，恰似一幅天然水墨画。"}}, {"title": "毛泽东与粤赣省纪念馆", "address": "文武坝毛泽东旧居公路", "image": "", "rank": 4, "time": 2, "location": {"lat": 25.616823343815952, "lng": 115.81157019350754}, "feature": {"sight_features": "", "sight_content": ""}}, {"title": "会昌县博物馆", "address": "206国道", "image": "", "rank": 5, "time": 2, "location": {"lat": 24.027693425509675, "lng": 115.9917729736661}, "feature": {"sight_features": "", "sight_content": ""}}, {"title": "采茶歌舞剧院", "address": "水东大道5号", "image": "", "rank": 6, "time": 2, "location": {"lat": 21.53107222959129, "lng": 111.02113756289349}, "feature": {"sight_features": "", "sight_content": ""}}, {"title": "中国旅行社(赣州会昌县店)", "address": "下渡街15号(清华酒业南侧)", "image": "", "rank": 7, "time": 2, "location": {"lat": 25.603500561838178, "lng": 115.79625243797346}, "feature": {"sight_features": "", "sight_content": ""}}, {"title": "刁子坑生态农庄", "address": "江西省赣州市会昌县X471(会杉线)", "image": "", "rank": 8, "time": 2, "location": {"lat": 25.606661833811145, "lng": 115.79245964209457}, "feature": {"sight_features": "", "sight_content": ""}}, {"title": "月季园景区", "address": "江西省赣州市会昌县月亮湾新区", "image": "", "rank": 9, "time": 2, "location": {"lat": 25.59656293599187, "lng": 115.8212345908758}, "feature": {"sight_features": "", "sight_content": ""}}, {"title": "龙光宝塔", "address": "江西省赣州市会昌县", "image": "", "rank": 10, "time": 2, "location": {"lat": 25.606661833811145, "lng": 115.79245964209457}, "feature": {"sight_features": "", "sight_content": ""}}, {"title": "儿童主题乐园", "address": "江西省赣州市会昌县文武坝镇水东大道财富广场", "image": "", "rank": 11, "time": 2, "location": {"lat": 25.607208885245043, "lng": 115.80529856399842}, "feature": {"sight_features": "", "sight_content": ""}}, {"title": "护生古寺", "address": "206国道东50米", "image": "", "rank": 12, "time": 2, "location": {"lat": 24.027693425509675, "lng": 115.99222212642094}, "feature": {"sight_features": "", "sight_content": ""}}, {"title": "会寻安中心县委旧址", "address": "江西省赣州市会昌县沿江路123号", "image": "", "rank": 13, "time": 2, "location": {"lat": 25.24697591316791, "lng": 115.7569200710456}, "feature": {"sight_features": "", "sight_content": ""}}, {"title": "棒棒糖儿童乐园", "address": "赣州市会昌县", "image": "", "rank": 14, "time": 2, "location": {"lat": 25.606661833811145, "lng": 115.79245964209457}, "feature": {"sight_features": "", "sight_content": ""}}, {"title": "小平广场", "address": "江西省赣州市会昌县复兴路52号附近", "image": "", "rank": 15, "time": 2, "location": {"lat": 25.246515886806893, "lng": 115.75895686739892}, "feature": {"sight_features": "", "sight_content": ""}}, {"title": "杨梅岗水上乐园", "address": "472县道附近", "image": "", "rank": 16, "time": 2, "location": {"lat": 25.28310749873164, "lng": 115.95633212639265}, "feature": {"sight_features": "", "sight_content": ""}}, {"title": "向化山", "address": "223省道附近", "image": "", "rank": 17, "time": 2, "location": {"lat": 37.1020176799816, "lng": 112.02619253560626}, "feature": {"sight_features": "", "sight_content": ""}}, {"title": "花果山生态休闲农庄", "address": "325省道", "image": "", "rank": 18, "time": 2, "location": {"lat": 40.38011571404755, "lng": 115.90477371737859}, "feature": {"sight_features": "", "sight_content": ""}}, {"title": "千奇乐园", "address": "湘江大道108号", "image": "", "rank": 19, "time": 2, "location": {"lat": 25.605116919383413, "lng": 115.79925607785192}, "feature": {"sight_features": "", "sight_content": ""}}, {"title": "丹枫画廊", "address": "文武坝镇财富广场16栋", "image": "", "rank": 20, "time": null, "location": {"lat": 25.607978978592598, "lng": 115.8043910257047}, "feature": {"sight_features": "", "sight_content": ""}}, {"title": "柯树垇", "address": "赣州市-于都县", "image": "", "rank": 21, "time": 2, "location": {"lat": 25.95789394275063, "lng": 115.4214992615303}, "feature": {"sight_features": "", "sight_content": ""}}, {"title": "到背仔", "address": "赣州市-会昌县", "image": "", "rank": 22, "time": 2, "location": {"lat": 25.606661833811145, "lng": 115.79245964209457}, "feature": {"sight_features": "", "sight_content": ""}}]}