{"cityName": "惠东", "days": 2, "cityImage": "", "spots": [{"title": "巽寮湾", "address": "惠州市巽寮湾海公园海趣馆", "image": "", "rank": 1, "time": 2.5, "location": {"lat": 22.69522791773807, "lng": 114.76657532418197}, "feature": {"sight_features": "特色1 在沙滩上踏浪，体验出海捕鱼", "sight_content": "巽寮处北回归线以南依山依山傍海，山海相嵌，海天交融。总长16公里的海岸线内、有八个海湾，海面隐隐约约分布着大大小小数十个洲。那洁白的沙滩，真的跟面粉一样细。宽在30-60米之间变化，海水清澈透明，是盛夏海滨旅游得天独厚的胜地.巽寮湾的山、海滩、海岛巨石遍布，海湾一带有摩崖石刻30多处形似凤凰。在巽寮湾后山三角洲是由三座相连的小山组成小岛，岛上有清澈的泉水，有柔软清净的沙滩，还有许多不用经过揣测就可定名的石景，如“绵羊戏海”、“龟璞飞鸟”、“骏马探海”等多处石景官有“动物石景公园”之称，嘉宏海公园度假村别墅区后面的哨所海、湖、江、泉、瀑、岛和名山古刹等各种旅游资源于一体，游客沿着石阶山路上到山顶，可以俯视整个巽寮海湾远眺：海天相接，远山淡云，浑然一体；俯瞰：“潮水汹涌，水浸湾环”，令游人叫绝。\n海之星游艇航线途经的景点:1.磨子石风景区：磨子石公园又称奇石海岸线，是巽寮一绝。这是一段风景奇丽的海岸线，在长沙湾与高排湾节点的沙滩上。设计最小干预的步道系统、多层次大视域的观景平台、烘托环境氛围安置\n的植物……2.三角洲岛：三角洲岛又名三角岛，位于巽寮湾的正南面，面积约1平方公里，三角岛的特点是：有如大海上的世外桃源，海水清澈碧绿，沙滩洁白无瑕，海底珊瑚礁琳琅满目，动物石像景观千姿百态，惟妙惟肖，\n它一向以“水清，石奇，沙幼”三绝著称于南海。它有“中国的马尔代夫”之美誉，是四季皆宜的亲海圣地！3.桑洲岛岛绿树成荫，林木茂盛，有热带，亚热带植物，高大茂密的桑树漫山遍野，因为是无人岛，岛上沙滩未开发，\n细沙银光闪闪，海水清澈见底，是游泳戏水的好地方，岛的周围有珊瑚礁可供观赏。 4.马鞭洲：这个岛的辨识度极高，与其他保持原貌、高高隆起的岛屿比起来，它大部分山体被夷为平地，像一艘抛锚在海湾内的超级油轮，\n全身布满输油管，承载着密密麻麻的柱形油罐。 5.海鸥岛：位于日暖凤池斜对面，是巽寮湾十八景的其中一景，岛上常年居住着无数海鸥的小岛，岛上聚集着成群结队的海鸥，场面十分壮观与美丽，可近距离欣赏在海岛上栖\n息和在低空自由飞翔的海鸥，当船舶靠近的时候，海鸥四处飞扬，此时您只要拿相机，以最快的速度拍下这美丽的画面就不枉此行了。6.海龟山：乘船出海的必去海龟山，大家海龟山以海龟的蕴意（长命百岁）而闻名，据说到\n过海龟山的人身体都比没有去过的好，你来了巽寮湾，能不去吗？"}}, {"title": "海滨温泉度假区", "address": "惠州市惠东县平海镇鹧鸪洞", "image": "", "rank": 2, "time": 2, "location": {"lat": 22.65456486895861, "lng": 114.81080040459378}, "feature": {"sight_features": "特色1 海洋温泉，临海而建景色优美。 特色2 位于北回归线附近，拥有亚热带海岛的绮丽景致。 特色3 给你一个温馨的享受", "sight_content": "海滨温泉必打卡网红景点。馆内特色：源自以色列的死海漂浮带你感受零重空间；温热的海矿盐疗助你除湿解乏；清新的盐雾沁肺带给你竹林般的富氧呵护。一票通玩，尽情畅享，“浮”不“浮”，你都要来！\n\n\n惠州海滨温泉惠州海滨温泉旅游度假区，是国家4A级旅游景区，是集温泉养生、风格客房、美食餐饮、休闲娱乐、商务会议于一体的大型旅游度假区。首期已开发出海洋区、养生区、娱乐区和儿童区等四个泡浴区，还有芳香世界、温泉迷宫、海龟砂浴、死海漂浮等特色温泉池。二、三期工程的SPA温泉大峡谷、高山观景别墅、野战、半岛风情园、农庄、四驱车俱乐部等也即将面市。广东首创“颠倒屋”，走进屋内床、马桶等都在头顶在，在颠倒屋内泡着温泉，好好的反思吧！\n\n\n\n\n海滨温泉是一个以海洋文化为主题的“养生+娱乐”型温泉，它以稔平半岛的海洋文化、古城文化为载体，融合温泉养生文化和时尚娱乐元素，营造养生、养性、养心的温泉度假文化！ 泉水水质 泉水是来自深海的地热之泉，水质微咸，泉水清澈、透明、爽滑。 度假区规模 度假区规模宏大，总占地面积1500多亩，露天温泉区接近200亩，建筑面积100000平方米，绿化率达70%。地面停车场可泊100辆大巴和500辆轿车，拥有多种风格的客房337间。\n\n\n海滨温泉坐落在美丽的稔平半岛南端,位于北回归线附近，拥有亚热带海岛的绮丽景致。度假区西接大亚湾和有“天赐白金堤”的巽寮湾，南临南门海湾和双月湾，东有红海湾，四周美景如绕。稔平半岛具有突出的地理优势，它同时接近粤东主要的大城市，海陆空交通网路发达，与香港、深圳、惠州正在形成一体化格局。随着一体化区域经济的发展，稔平半岛正逐渐成为一方耀眼的旅游新极地！以中国地图上的地形设计出来的“中华池”，各种新型水疗集中在这里，温泉水通过配套音波压泡喷射，使人体接受水力按摩刺激，可舒筋活血，松驰神经。"}}, {"title": "永记生态园", "address": "惠州市惠东县大岭镇桥新区永记大道", "image": "", "rank": 3, "time": 4.0, "location": {"lat": 23.045552429598246, "lng": 114.70714268516959}, "feature": {"sight_features": "特色1 可以看到上百斤的巨型番瓜和外形奇异的小型观赏南瓜，常年有美丽花海，亲子游的好去处。", "sight_content": "永记生态园是惠州市一个集旅游、娱乐、休闲、会议、度假于一身的现代化生态园，1997年由香港永记食品集团独家投资兴建，占地面积1300余亩，是惠州重点旅游项目之一，被评为“广东省生态示范园”。\n生态园于2004年正式对外开放，它引进国外各种高科技农业技术，并按照大自然生态平衡的模式，大力发展生态农业、环保农业、观光农业。园中各式各样品种蔬果直销海外，农业不断走向国际化、网络化、专业化、多元化，成为中国农业的模范先锋。\n永记生态园内所有景观具有浓郁的欧陆风情，让您仿佛置身于海外，重点设施包括多功能透视会议中心、彩虹俱乐部、生态度假酒店、特色大型生态宴会厅等，永记生态园是团队拓展训练、踏青、秋游、素质教育的理想基地。"}}, {"title": "大亚湾婚纱摄影", "address": "惠州市惠阳区大亚湾", "image": "", "rank": 4, "time": 2, "location": {"lat": 22.468984887712296, "lng": 114.60416128289582}, "feature": {"sight_features": "", "sight_content": ""}}, {"title": "双月湾出海捕鱼体验", "address": "惠州市惠东县双月湾", "image": "", "rank": 5, "time": 2, "location": {"lat": 22.584284493265343, "lng": 114.90280786871031}, "feature": {"sight_features": "", "sight_content": ""}}, {"title": "大甲岛游艇出海", "address": "惠州市惠东县大甲岛", "image": "", "rank": 6, "time": 2, "location": {"lat": 22.991443112002415, "lng": 114.72642585137605}, "feature": {"sight_features": "", "sight_content": ""}}, {"title": "巽寮湾出海捕鱼体验", "address": "惠州市惠东县巽寮湾", "image": "", "rank": 7, "time": 2.0, "location": {"lat": 22.68418746485804, "lng": 114.7671957164246}, "feature": {"sight_features": "特色1 在渔民的带领下，畅游百岛风情，亲身感受捕鱼的乐趣。", "sight_content": "巽寮湾是粤东数百公里中海水最洁净的海湾之一。海滩柔软细洁白的海沙，有“天赐白沙堤”美誉。踏足沙滩，你可以在沙滩上脱下鞋子尽情地嬉戏，感受脚板与细沙的摩擦。除此之外，出海捕鱼也是一种不错的海上体验。再渔民的带领下，畅游大海，亲身感受捕鱼的乐趣。"}}, {"title": "十里银滩", "address": "惠州市惠东县207县道", "image": "", "rank": 8, "time": 2.5, "location": {"lat": 22.80119027747884, "lng": 114.71729754027832}, "feature": {"sight_features": "", "sight_content": ""}}, {"title": "三角洲岛", "address": "惠州市惠东县巽寮湾度假村", "image": "", "rank": 9, "time": 5.0, "location": {"lat": 22.70605544004966, "lng": 114.75695859090405}, "feature": {"sight_features": "特色1 以“水清，石奇，沙幼”三绝著称 特色2 大海上的世外桃源", "sight_content": "三角洲岛又名三角岛，位于巽寮湾的正南面，面积约1平方公里。国家体育总局和深圳市国际弄潮儿有限公司合作经营，建成了三角洲海岛俱乐部。这里建有豪华别墅、会员会所，会议中心、中西餐厅、海水浴场、沙滩浴场、潜水项目、沙滩足球、生态岛，是巽寮滨海旅游度假区目前各项设施都完善的旅游景点。\n三角岛的特点是：有如大海上的世外桃源，海水清澈碧绿，沙滩洁白无瑕，海底珊瑚礁琳琅满目，动物石像景观千姿百态，惟妙惟肖。很多到过三角岛的游客，都说以后准备故地重游。海岛占地十六公顷，一向以“水清，石奇，沙幼”三绝著称于南海。\n海岛上分布有三个晶莹洁白的沙滩，一个新月形的内海湾和一个天然石雕公园，总面积约22公顷，其中陆地面积约为16公顷，由大小两个岛屿构成，退潮时两岛由沙滩相连。海岛绿树葱茏，楼阁隐现，形状各异的奇石天然成趣栩栩如生，仿佛传说中的篷莱仙岛，世外桃源。"}}, {"title": "海龟自然保护区", "address": "惠州市惠东县平海镇海龟湾1号", "image": "", "rank": 10, "time": 2.5, "location": {"lat": 22.56174364111649, "lng": 114.9074733082054}, "feature": {"sight_features": "", "sight_content": ""}}, {"title": "盐洲岛", "address": "惠州市惠东县东南部", "image": "", "rank": 11, "time": 2.5, "location": {"lat": 22.991443112002415, "lng": 114.72642585137605}, "feature": {"sight_features": "", "sight_content": ""}}, {"title": "天后宫", "address": "惠州市惠东县凤嘴路1号", "image": "", "rank": 12, "time": 1.5, "location": {"lat": 22.69684521598462, "lng": 114.76750766738571}, "feature": {"sight_features": "", "sight_content": ""}}, {"title": "巽寮湾帆船出海", "address": "惠州市惠东县巽寮湾", "image": "", "rank": 13, "time": 2.0, "location": {"lat": 22.68418746485804, "lng": 114.7671957164246}, "feature": {"sight_features": "特色1 扬帆海上，御风而行，驾着帆船看看这片还未被污染的蔚蓝大海。 特色2 高端游艇会所让您远离喧嚣，在这里少了一份拥挤多了一份宁静。", "sight_content": "海通联帆船游艇出海位于美丽的巽寮湾金融街游艇会，在这里您可以扬起风帆私享一片海，亲身体验水上运动的魅力，航线还经过磨子石公园和三角洲岛，无限风光尽收眼底。"}}, {"title": "平海古城", "address": "惠州市惠东县平海镇", "image": "", "rank": 14, "time": 2.0, "location": {"lat": 22.623343221449794, "lng": 114.87914198760014}, "feature": {"sight_features": "", "sight_content": ""}}, {"title": "金海湾嘉华度假酒店温泉", "address": "惠州市惠东县金海湾金海路磨子石", "image": "", "rank": 15, "time": 2, "location": {"lat": 22.647681705435183, "lng": 114.75507724452257}, "feature": {"sight_features": "特色1 边泡温泉边欣赏大海美景 特色2 释放心灵，舒缓肌体", "sight_content": "惠东金海湾嘉华度假酒店位于巽寮金海湾畔，方便游览天赐白沙提、雄奇磨子石林和红树林，周边是稀缺的白色沙滩和绮丽的热带花园，环境私密安静。\n酒店内的温泉透着浓郁的东南亚度假风情，整个温泉园区分为四个板块：六福洞天区、揽海养颜区、步浪区、叠海区。漂流河上有慕海、望海、观海、听海四座桥横跨上方，使得各泡池联系紧密又有各自空间。\n嘉华山谷温泉是惠东地区打造的海洋温泉度假区，富含偏硅酸、碘、锂、氢等二十余种对人体有益的矿物质和微量元素，可边泡温泉边欣赏大海美景，体验与众不同的惬意感觉。"}}, {"title": "南湖公园", "address": "惠州市惠东县惠东大道654号", "image": "", "rank": 16, "time": 2.5, "location": {"lat": 22.98249669921278, "lng": 114.7412545774754}, "feature": {"sight_features": "", "sight_content": ""}}, {"title": "白盆湖温泉度假村", "address": "惠州市惠东县白盆珠镇扶圳村S356省道边", "image": "", "rank": 17, "time": 2, "location": {"lat": 23.091496525455163, "lng": 115.15250348584357}, "feature": {"sight_features": "特色1 深、港、澳和珠江三角洲的后花园 特色2 两岸青山倒映其间，如入童话世界", "sight_content": "惠州市顺逸东方白盆湖温泉度假村位于广东省惠州市东部、惠东县白盆珠境内，距惠东县城25公里、惠州50公里、大亚湾90公里，坐落在风景秀丽的广东省第三大水库——白盆珠库区内；离经济特区深圳、省会城市广州仅两个多小时车程，是深、港、澳和珠江三角洲的后花园。\n白盆湖是白盆珠水库兴建后形成的人工湖，长约30公里，湖面最宽处约5公里，湖面波光粼粼，清如明镜，泛舟湖上，两岸青山倒映其间，如入童话世界。景区自然景观和人文景观遥相辉映，大坝、孤岛、瀑布、庙宇、青山和绿水形成了一幅美丽的山水画。\n区内温泉资源丰富，日流量高达3500吨，水温常年保持60℃，中心泉眼水温更高达85℃。素有“温泉水滴心头暖，冷热游泡换金身”之称的白盆湖温泉，千百年来，“不盈不虚，与日月同流”！\n度假村内还设有35间标准客房及28套各式花园式别墅（内均设有花园温泉池）；天然露天温泉泡池22个，大型拓展基地、水上乐园、会议室、特色客家餐厅、KTV、棋牌室、野炊及烧烤场地等配套设施及服务，完全满足您的商务与度假的需求。"}}, {"title": "南山漂流", "address": "惠州市惠东县增光镇长坑村", "image": "", "rank": 18, "time": 2, "location": {"lat": 23.02237220904728, "lng": 114.88573656063488}, "feature": {"sight_features": "特色1 于瀑布中漂流 特色2 这里山清水秀，人杰地灵。 特色3 有惊无险、激情四溢的南山漂流", "sight_content": "南山漂流旅游区位于惠东县多祝镇长坑村的南山河上，距县城25公里。漂流全程5公里，漂流时间约2小时，起点在南山河上游的跳鱼洞，漂流勇士们一路乘风破浪，奔腾而下，驾驭着气艇，时而与激流相遇，有惊无险，扣人心弦，时而轻涛拍岸，勇士们又与鱼虾同戏，其乐融融。\n南山河床全是大大小小的鹅卵石，河水清澈见底，两旁群山环抱，绿树倒影，风景如画。置身山溪，呼吸清新空气，饱览山川秀色，聆听林鸟鸣唱，在山水中尽情嬉戏，大有:“荡舟清波上，人在画中游”的感觉！无意间，人与自然融为一体！水的力量带给你一次次的碰撞，让你经受一次次的震撼，使你经不住发出一声声豪迈激情的欢呼声！蓦然，一种挑战自然的感觉油然而生，水流破关夺隘，轻舟高悬，飞流直下，刹那间如同经受短暂的失重，令你提心吊胆，然而，有惊无险，激流过后又一滩，让你回味无穷！！！\n登上有三百多年历史的龙岩寺，可以欣赏到南山云海，庙宇奇观，龙舌石下的神奇泉水，使人联想到“仙人指路”那动人的故事。古往今来到此观光旅游，烧香问卦的人络绎不绝，终年香火不断。"}}, {"title": "大辣甲岛", "address": "惠州市大亚湾澳头龙海街108号（澳头边防派出所对面）", "image": "", "rank": 19, "time": 2.0, "location": {"lat": 22.718564321089325, "lng": 114.54720280837826}, "feature": {"sight_features": "", "sight_content": ""}}, {"title": "城隍庙", "address": "惠州市惠东县平海古城西侧", "image": "", "rank": 20, "time": 1.5, "location": {"lat": 22.617777145127178, "lng": 114.87783831723767}, "feature": {"sight_features": "", "sight_content": ""}}, {"title": "大星山炮台", "address": "惠州市惠东县港口镇最南端的大星山西南面", "image": "", "rank": 21, "time": 1.0, "location": {"lat": 22.57592768047182, "lng": 114.90750768186572}, "feature": {"sight_features": "", "sight_content": ""}}, {"title": "南海洋水母王国", "address": "惠州市惠东县巽寮湾海滨旅游度假区海公园A座后", "image": "", "rank": 22, "time": 2, "location": {"lat": 22.692696340026597, "lng": 114.76327039083894}, "feature": {"sight_features": "特色1 让人有漫游于深海的错觉 特色2 一起漫游于深海 特色3 让人有漫游于深海的错觉", "sight_content": "目前水母馆里的水母已经全部到齐，先期将展示十几种来自全球各地的珍稀水母，后期将不定期更新水母种类，可以满足大家对不同水母观赏的要求。\n万花筒般色彩斑斓的水母在庞大缸中悠然游动。透过巨大的压克力窗口，令人难忘的景象尽显眼前，相信您已经为近在咫尺的远古“活化石”水母奇观兴奋不已。\n\n\n相关类型有机组合，像一对对不同搭配的舞蹈者，在同一缸体游弋，按照指示牌的标示能让您迅速辨认出类型，欣赏着不同品种的水母同时，且能认识到它的学名和来源地等信息。"}}, {"title": "金禧丽景水上世界", "address": "惠东县巽寮湾国际滨海度假区海公园度假公寓", "image": "", "rank": 23, "time": 2, "location": {"lat": 22.69041617853261, "lng": 114.76421126435181}, "feature": {"sight_features": "特色1 热情澎湃、体验新奇", "sight_content": "新奇快感，不可不玩，朋友家人坐在一次可坐四人的四叶草型浮圈里，从三层多楼高的平台出发，像被龙卷风滑倒一摔吸进去 一个巨大的喇叭当中，在快速滑行中大家尽情倾情欢叫，特别适合热情澎湃、喜欢体验新奇的游客。\n这个令人兴奋的水滑梯为小朋友提供数之不尽的快乐，爸妈可以放心让孩子在这里发现属于自己的一个有趣的水世界，小朋友 会从中发现难以置信的玩水乐趣。\n滑梯由5条各自独立，不同的滑道组成，5个游客可各自选一条滑道，从10米高的平台进入滑道，进入开放式的岖道，一路激起 水花片片，十分好玩。"}}, {"title": "龙腾峡漂流", "address": "惠州市惠东县巽寮镇龙印村", "image": "", "rank": 24, "time": 1.5, "location": {"lat": 22.705976249365733, "lng": 114.78149179945842}, "feature": {"sight_features": "", "sight_content": ""}}, {"title": "候鸟高尔夫球会", "address": "惠州市惠东县大岭镇十二托海龙工业园斜对面", "image": "", "rank": 25, "time": 2, "location": {"lat": 23.04155641967475, "lng": 114.65498257215671}, "feature": {"sight_features": "", "sight_content": ""}}, {"title": "亚婆角海滨旅游区", "address": "惠州市惠东县亚婆角滨海旅游区", "image": "", "rank": 26, "time": 2, "location": {"lat": 22.791630091189564, "lng": 114.73464424097556}, "feature": {"sight_features": "", "sight_content": ""}}, {"title": "七星井", "address": "惠州市惠东县平海古城内", "image": "", "rank": 27, "time": 1.0, "location": {"lat": 22.617777145127178, "lng": 114.87783831723767}, "feature": {"sight_features": "", "sight_content": ""}}, {"title": "九龙峰", "address": "惠州市惠东县城平山镇东14公里处", "image": "", "rank": 28, "time": 3.5, "location": {"lat": 22.98323895158995, "lng": 114.85572818359222}, "feature": {"sight_features": "", "sight_content": ""}}, {"title": "惠州巽秀剧场", "address": "惠州市惠东县巽寮湾度假区海公园度假村B栋后面", "image": "", "rank": 29, "time": 5.0, "location": {"lat": 22.687890093029196, "lng": 114.76184344151987}, "feature": {"sight_features": "特色1 一场充满惊险魔幻的主题剧", "sight_content": "巽寮湾原名鸭寮，当年北宋文豪苏东坡被贬惠州，不离不弃相随南下的就只有爱妾王朝云。苏东坡见鸭寮之鸭字与王朝云相冲，遂将之改名为“巽寮湾”，因纪念苏东坡与王朝云的爱情又名“情人湾”。《巽秀》将运用苏东坡的词牌名《水调歌头.明月几时有》来讲述情人间爱情故事。通过这个节目，讲述了北宋大文豪苏东坡与王朝云在巽寮湾浪漫爱情故事及巽寮湾的延伸和发展！\n同时，以妈祖为创作主线，包含在北宋年间《林默诞生》、《林默打怪》、《圣泉救疫》、《羽化升天》、《巽寮得佛》、《两村争佛》、《巽寮建庙》、《腾飞巽寮》等，一共八个篇章的妈祖故事，将妈祖的来历渊源诠释得淋漓尽致，向观众展示巽寮文化，让人们了解巽寮文化传说！\n揉合了音乐、舞蹈、魔术、杂技、高空吊环、特技动作等多种表演形式，通过声光电的运用，以全息、AR、激光等国际顶尖科技，辅以量身定制的舞台建筑，形成了非常戏剧性的科技呈现，让观众感受到非同凡响的感官体验，也表现了巽寮在未来的飞速发展。"}}, {"title": "千帆会帆船体验", "address": "惠州市惠东县大亚湾合正东部湾", "image": "", "rank": 30, "time": 2, "location": {"lat": 22.6121026438706, "lng": 114.70971985630395}, "feature": {"sight_features": "", "sight_content": ""}}, {"title": "古田自然保护区", "address": "惠州市惠东县城东北25公里", "image": "", "rank": 31, "time": 4.5, "location": {"lat": 22.991443112002415, "lng": 114.72642585137605}, "feature": {"sight_features": "", "sight_content": ""}}, {"title": "中航帆艇运动俱乐部", "address": "惠州市惠东巽寮湾中航元.屿海项目斜对面", "image": "", "rank": 32, "time": 2, "location": {"lat": 22.723065356576594, "lng": 114.75428064336609}, "feature": {"sight_features": "特色1 体验到海上御风而行的乐趣", "sight_content": "俱乐部由中航地产与国泰领航共同出资打造，于2012年5月成立，项目一期拥有专属高端帆船Daytripper26（8米）20艘，快艇8艘，专业帆艇教练8人，是华南沿海地区的顶级帆艇俱乐部。\n俱乐部专属高端帆船Daytripper26是荣获世界红点设计大奖的全球知名设计师Ocke Mannerfelt先生的倾心之作，既能让初学者很快体验到海上御风而行的乐趣，也能陪伴资深玩家尽享与海风追逐嬉戏的心跳滋味。"}}, {"title": "巽寮湾真人CS野战", "address": "惠州市惠东县巽尞国际滨海旅游区尧峦山村", "image": "", "rank": 33, "time": 2.0, "location": {"lat": 22.991443112002415, "lng": 114.72642585137605}, "feature": {"sight_features": "特色1 每个企业都希望自己的员工发挥最大的本能，为企业创造最大的效益，但都难以找到激发员工积极性和发扬团队合作精神的良方。 特色2 这次的训练导向:是根据模拟现实战斗而设计的，在活动过程中，可以领略到\"商场如战场\"的真实写照，通过各种战术游戏的亲身体验。 特色3 能令到参加者充分认识到团队合作精神的重要性，在一定程度上提高了他们的预测、决策能力，创新、应变能力，沟通、协调能力，组织、管理能力和工作责心。", "sight_content": "这次的训练导向：是根据模拟现实战斗而设计的，在活动过程中，可以领略到\"商场如战场\"的真实写照，通过各种战术游戏的亲身体验，能令到参加者充分认识到团队合作精神的重要性，在一定程度上提高了他们的预测、决策能力，创新、应变能力，沟通、协调能力，组织、管理能力和工作责心。\n真人CS野战游戏也叫\"生存游戏\"，最早源自美国中西部，此游戏不单只是业余爱好者的野外活动，同时又是一个体验个人意志和素质的机会，这种另类而有特别的游戏便迅速遍布全世界，作为一项合法而又健康的运动X-SPORTS（穿着军服，穿梭森林，效军人实战）。"}}, {"title": "同和生态园", "address": "惠州市惠东县平海镇六乡村", "image": "", "rank": 34, "time": 3.5, "location": {"lat": 22.619875597633744, "lng": 114.84577872064843}, "feature": {"sight_features": "", "sight_content": ""}}, {"title": "城门楼", "address": "惠州市惠东县平海镇东海村平海古城", "image": "", "rank": 35, "time": 0.75, "location": {"lat": 22.617777145127178, "lng": 114.87783831723767}, "feature": {"sight_features": "", "sight_content": ""}}, {"title": "皇思扬古围村", "address": "惠州市惠东县多祝镇（近国道356）", "image": "", "rank": 36, "time": 2.5, "location": {"lat": 23.034188915076417, "lng": 114.9567180362629}, "feature": {"sight_features": "", "sight_content": ""}}, {"title": "百丘田", "address": "惠州市惠东县百丘田村", "image": "", "rank": 37, "time": 2.5, "location": {"lat": 22.956174309279834, "lng": 114.71124151666783}, "feature": {"sight_features": "", "sight_content": ""}}, {"title": "御景峰国家森林公园", "address": "惠州市惠东县梁化镇梁化林场内", "image": "", "rank": 38, "time": 3.5, "location": {"lat": 23.196640855384047, "lng": 114.78497890376897}, "feature": {"sight_features": "", "sight_content": ""}}, {"title": "巽寮湾德泽园酒店沙滩", "address": "惠州市惠东县巽寮湾松园湾8号(近金海湾大道)", "image": "", "rank": 39, "time": null, "location": {"lat": 22.64384375676215, "lng": 114.78818167821622}, "feature": {"sight_features": "", "sight_content": ""}}, {"title": "巽寮湾小海狮潜水俱乐部", "address": "惠州市惠东县巽寮湾国际滨海旅游度假区金海湾嘉华度假酒店对面停车场内", "image": "", "rank": 40, "time": 2.0, "location": {"lat": 22.648976804901924, "lng": 114.75597902108473}, "feature": {"sight_features": "", "sight_content": ""}}, {"title": "巽寮极速卡丁车游乐场", "address": "惠州市惠东县巽寮湾望海路海公园度假公寓旁", "image": "", "rank": 41, "time": 2, "location": {"lat": 22.69041617853261, "lng": 114.76421126435181}, "feature": {"sight_features": "", "sight_content": "巽寮湾极速卡丁车俱乐部是一家以赛车文化为依托采用良好的设施和一流的服务，以“普及赛车运动事业”为宗旨的高水准赛车场，是省内最大的滨海卡丁车赛场之一，为赛车爱好者全天候提供赛车娱乐竞技的场所和设备，集体育运动、培训、竞赛、娱乐于一体的滨海赛车场所。\n卡丁车起源于20世纪50年代末的美国。卡丁车分无级变速和带档两种,又分普及型和竞赛型两种，普及型又称“休闲型”，这种车的速度并不很快，最高时速80公里/小时，不需要有驾驶执照。而竞赛型卡丁车的时速可达130公里/小时，由于其底盘极低（离地仅4厘米），所以车手感觉到的相对速度会比实际速度高2—3倍，也就是说感觉时速为300公里/小时，特别是在弯道上会产生3—4倍于重力的横向加速度，令车手体验到一般赛车达不到的趣。"}}, {"title": "巽寮湾三角洲岛俱乐部", "address": "惠州市惠东县巽寮湾度假村", "image": "", "rank": 42, "time": 2.0, "location": {"lat": 22.70605544004966, "lng": 114.75695859090405}, "feature": {"sight_features": "特色1 三角洲岛优质的海水，让你看到不一样的海底世界。 特色2 让你感受与海浪碰撞的速度与激情。", "sight_content": "三角洲岛又名三角岛，位于巽寮湾的正南面，国家体育总局和深圳市国际弄潮儿有限公司合作经营，建成了三角洲海岛俱乐部。这里建有豪华别墅、会员会所，会议中心、中西餐厅、海水浴场、沙滩浴场、潜水项目、沙滩足球、生态岛，是巽寮滨海旅游度假区目前各项设施都完善的旅游景点。三角洲岛俱乐部提供全方位的海岛游乐设施。\n中式游艇环岛游：如果您喜欢慢慢在海上漂移，欣赏美景，游艇环岛游最合适不过了。轻轻的吹着海风，无比惬意。\n双人透明皮划艇：教科书里是这样的描述死海的，我想在海上看报，冥想，发呆。发呆腻了，我想和亲爱的家人，恋人，朋友，一起划起桨。来吧这些体验，三角洲双人透明皮划艇就可以帮您实现。关键是玻璃的哦，不用深入海底也可以静静的欣赏海底世界的曼妙。\n摩托艇：如果您喜欢那种浪尖上颠簸、超速、急转和被浪花追逐的刺激，海上摩托艇就是最佳选择。在教练的陪同下，游客骑着摩托艇在碧蓝的海上飞驰，体验起航、加速、绕标、超越和冲刺等惊险刺激动作。行驶过程中马达轰鸣、浪花飞溅，不时的穿越动作更是高潮迭起、扣人心弦。\n香蕉船：它的外形很像一条海上的大香蕉，骑上香蕉船，随着快艇的加速，犹如一匹脱缰的野马，自由穿梭在碧海蓝天当中。喜欢刺激的人尽量占前排的位置哦。"}}, {"title": "巽寮湾海之星游艇", "address": "惠州市惠东县巽寮湾天后宫酒吧街A栋海之星游艇有限公司", "image": "", "rank": 43, "time": 2, "location": {"lat": 22.695714589073194, "lng": 114.76560679363907}, "feature": {"sight_features": "", "sight_content": "巽寮处北回归线以南依山依山傍海，山海相嵌，海天交融。总长16公里的海岸线内、有八个海湾，海面隐隐约约分布着大大小小数十个洲。那洁白的沙滩，真的跟面粉一样细。宽在30-60米之间变化，海水清澈透明，是盛夏海滨旅游得天独厚的胜地.巽寮湾的山、海滩、海岛巨石遍布，海湾一带有摩崖石刻30多处形似凤凰。在巽寮湾后山三角洲是由三座相连的小山组成小岛，岛上有清澈的泉水，有柔软清净的沙滩，还有许多不用经过揣测就可定名的石景，如“绵羊戏海”、“龟璞飞鸟”、“骏马探海”等多处石景官有“动物石景公园”之称，嘉宏海公园度假村别墅区后面的哨所海、湖、江、泉、瀑、岛和名山古刹等各种旅游资源于一体，游客沿着石阶山路上到山顶，可以俯视整个巽寮海湾远眺：海天相接，远山淡云，浑然一体；俯瞰：“潮水汹涌，水浸湾环”，令游人叫绝。\n海之星游艇航线途经的景点:1.磨子石风景区：磨子石公园又称奇石海岸线，是巽寮一绝。这是一段风景奇丽的海岸线，在长沙湾与高排湾节点的沙滩上。设计最小干预的步道系统、多层次大视域的观景平台、烘托环境氛围安置\n的植物……2.三角洲岛：三角洲岛又名三角岛，位于巽寮湾的正南面，面积约1平方公里，三角岛的特点是：有如大海上的世外桃源，海水清澈碧绿，沙滩洁白无瑕，海底珊瑚礁琳琅满目，动物石像景观千姿百态，惟妙惟肖，\n它一向以“水清，石奇，沙幼”三绝著称于南海。它有“中国的马尔代夫”之美誉，是四季皆宜的亲海圣地！3.桑洲岛岛绿树成荫，林木茂盛，有热带，亚热带植物，高大茂密的桑树漫山遍野，因为是无人岛，岛上沙滩未开发，\n细沙银光闪闪，海水清澈见底，是游泳戏水的好地方，岛的周围有珊瑚礁可供观赏。 4.马鞭洲：这个岛的辨识度极高，与其他保持原貌、高高隆起的岛屿比起来，它大部分山体被夷为平地，像一艘抛锚在海湾内的超级油轮，\n全身布满输油管，承载着密密麻麻的柱形油罐。 5.海鸥岛：位于日暖凤池斜对面，是巽寮湾十八景的其中一景，岛上常年居住着无数海鸥的小岛，岛上聚集着成群结队的海鸥，场面十分壮观与美丽，可近距离欣赏在海岛上栖\n息和在低空自由飞翔的海鸥，当船舶靠近的时候，海鸥四处飞扬，此时您只要拿相机，以最快的速度拍下这美丽的画面就不枉此行了。6.海龟山：乘船出海的必去海龟山，大家海龟山以海龟的蕴意（长命百岁）而闻名，据说到\n过海龟山的人身体都比没有去过的好，你来了巽寮湾，能不去吗？"}}, {"title": "巽寮湾玩海时代", "address": "惠州市惠东县巽寮金海湾金海路1号靠C区停车场附近", "image": "", "rank": 44, "time": 2.0, "location": {"lat": 22.658459207505647, "lng": 114.74439042816219}, "feature": {"sight_features": "特色1 享有“中国的马尔代夫”之称", "sight_content": "惠州巽寮湾享有“中国的马尔代夫”之称，绵延11公里，海滩沙质洁白细幼，形如白金，海沙含硅量达99%。\n海水更是青翠碧绿，原生态级的水质。海滩百米内水深不超过1米，属于天然海水浴场。空气负氧离子含量可高达65856个/m3，高于三亚，是国内比较有名的天然氧吧。\n玩海时代水上运动中心坐落在巽寮湾的喜来登度假酒店内；配有私人沙滩、独立会所和泳池；致力于打造以游艇、帆船、潜水、海钓为主题的海岛度假活动品牌，引领时尚海洋度假生活方式 。"}}, {"title": "巽寮冰雪乐园", "address": "惠州市惠东县巽寮国际旅游度假区金海湾大道心海路", "image": "", "rank": 45, "time": 2, "location": {"lat": 22.700789359101574, "lng": 114.76862408686299}, "feature": {"sight_features": "特色1 多个游乐项目，可同时容纳300多人滑雪", "sight_content": "冰上过山车、冰雪急速滑道、卡拉法特隧道、海绵宝宝儿童乐园、飞天大滑道、让萌娃一次过足玩雪瘾，将家长带回童年的快乐时光！\n\n\n园内设有雪上游乐活动区，有刺激、惊险、疯狂的冰上过山车滑雪体验滑道等；冰雕文化观赏区、东北人家冰雪木屋、冰雕艺术雕刻体验区以及室内飘雪乐园区，让您尽情体验冰雪乐趣！\n巽寮冰雪乐园雪场可同时容纳300多人滑雪、戏雪，一年四季皆宜，是您假日休闲游玩的好地方！"}}, {"title": "巽寮湾海世界儿童乐园", "address": "惠州市惠东县巽寮湾滨海旅游度假区金融街海世界", "image": "", "rank": 46, "time": 2, "location": {"lat": 22.596350045479213, "lng": 114.91141511769715}, "feature": {"sight_features": "", "sight_content": ""}}, {"title": "好奇岛儿童乐园（惠州）", "address": "惠州市惠东县黄埠镇人民一路49号名店城", "image": "", "rank": 47, "time": 2, "location": {"lat": 22.764807431549755, "lng": 114.96341641388912}, "feature": {"sight_features": "", "sight_content": ""}}, {"title": "惠州龙发温泉度假村", "address": "惠州市惠东县安墩镇热汤村村委斜对面", "image": "", "rank": 48, "time": 5.0, "location": {"lat": 23.27385439099053, "lng": 115.04309371142722}, "feature": {"sight_features": "", "sight_content": ""}}, {"title": "千帆游艇俱乐部", "address": "惠州市惠东县金海湾大道嘉华酒店前行20米（金融街游艇综合楼第一个保安亭进）", "image": "", "rank": 49, "time": 2, "location": {"lat": 22.706008394433297, "lng": 114.75512202864545}, "feature": {"sight_features": "", "sight_content": ""}}, {"title": "磨子石景区", "address": "惠州市惠东县巽寮湾磨子石景区", "image": "", "rank": 50, "time": 2, "location": {"lat": 22.647160043919744, "lng": 114.75405387781812}, "feature": {"sight_features": "", "sight_content": ""}}, {"title": "白盆珠水库", "address": "惠州市惠东县城东北34公里", "image": "", "rank": 51, "time": 1.5, "location": {"lat": 22.991443112002415, "lng": 114.72642585137605}, "feature": {"sight_features": "", "sight_content": ""}}, {"title": "哪都像互动艺术馆", "address": "惠州市惠东县巽寮天后宫南民俗文化街301商铺（文化街门口直入15米）", "image": "", "rank": 52, "time": 2, "location": {"lat": 22.6961022851196, "lng": 114.76451764402216}, "feature": {"sight_features": "", "sight_content": "巽寮湾天后宫岭南民俗文化街~较强配套《哪都像互动艺术馆》盛大开业。\n巽寮湾哪都像互动艺术馆内有各国领导人、中国富豪名人、国内外大牌明星、球星，等着你来零距离拍摄哦。\n\n\n\n更有3D途画，迷你万花筒，玻璃情侣房，亲子互动D9-VR互动游戏，小胖机器人与你相约。"}}, {"title": "鸽子岛", "address": "惠州市惠东县城平山镇巽寮湾景区（稔山一带）", "image": "", "rank": 53, "time": 4.5, "location": {"lat": 22.688884261557202, "lng": 114.76376984780401}, "feature": {"sight_features": "", "sight_content": ""}}, {"title": "黑排角", "address": "惠州市惠东县平海镇东和村", "image": "", "rank": 54, "time": 2, "location": {"lat": 22.647748420863806, "lng": 114.91861684644284}, "feature": {"sight_features": "", "sight_content": ""}}, {"title": "盐洲岛杨屋村海滩", "address": "惠州市惠东县", "image": "", "rank": 55, "time": 1.5, "location": {"lat": 22.991443112002415, "lng": 114.72642585137605}, "feature": {"sight_features": "", "sight_content": ""}}, {"title": "双月湾租船出海浮潜游", "address": "港口镇新民房东区一巷25号(港口中学)", "image": "", "rank": 56, "time": 2, "location": {"lat": 22.5766585088747, "lng": 114.90976713132436}, "feature": {"sight_features": "", "sight_content": ""}}, {"title": "情人沙滩", "address": "惠州市惠东县巽寮湾滨海旅游度假区", "image": "", "rank": 57, "time": 4.0, "location": {"lat": 22.596350045479213, "lng": 114.91141511769715}, "feature": {"sight_features": "", "sight_content": ""}}, {"title": "惠州水榭湾豪派特度假村", "address": "稔山镇巽寮湾亚婆角海滨度假区莱蒙水榭湾小区A4", "image": "", "rank": 58, "time": 5.0, "location": {"lat": 22.790589999386142, "lng": 114.772267998485}, "feature": {"sight_features": "", "sight_content": ""}}, {"title": "盐洲岛湾仔南海湾沙滩", "address": "黄阜镇盐洲西冲湾仔村(湾仔南海湾沙滩)", "image": "", "rank": 59, "time": 2, "location": {"lat": 22.283158654879294, "lng": 114.18355045728553}, "feature": {"sight_features": "", "sight_content": ""}}, {"title": "富力湾农家乐", "address": "大埔屯富力湾(大埔屯派出所)", "image": "", "rank": 60, "time": 2, "location": {"lat": 22.792859038531613, "lng": 114.83800547466629}, "feature": {"sight_features": "", "sight_content": ""}}]}