{"cityName": "会理", "days": 2, "cityImage": "", "spots": [{"title": "会理古城", "address": "凉山彝族自治州会理县北大街", "image": "", "rank": 1, "time": 1.5, "location": {"lat": 26.667801648422714, "lng": 102.2511598125367}, "feature": {"sight_features": "", "sight_content": ""}}, {"title": "龙肘山", "address": "凉山彝族自治州会理县龙肘村", "image": "", "rank": 2, "time": 1.0, "location": {"lat": 26.661199778427346, "lng": 102.25143634510819}, "feature": {"sight_features": "", "sight_content": ""}}, {"title": "会理白马寺", "address": "凉山彝族自治州会理县东北", "image": "", "rank": 3, "time": 3.0, "location": {"lat": 26.661199778427346, "lng": 102.25143634510819}, "feature": {"sight_features": "", "sight_content": ""}}, {"title": "精华温泉水上乐园", "address": "凉山州会理县老街乡沙坝村四组沙坝车辆检测站旁", "image": "", "rank": 4, "time": 2, "location": {"lat": 26.713787208229686, "lng": 102.25720487143016}, "feature": {"sight_features": "特色1 集水上海啸冲浪池、儿童亲水池、恒温游泳池、漂流河于一体的水上娱乐休闲度假目的地。", "sight_content": "精华温泉水上乐园集水上海啸冲浪池、儿童亲水池、恒温游泳池、漂流河、SPA水疗池、温泉、生态餐厅、生态烧烤等功能于一体，是川滇结合部山水园林和水上娱乐休闲度假目的地。"}}, {"title": "会理鹏睿琪休闲度假山庄", "address": "会理县鹿厂镇兴隆村108国道旁", "image": "", "rank": 5, "time": 2, "location": {"lat": 26.457987879260525, "lng": 102.08823417638143}, "feature": {"sight_features": "", "sight_content": ""}}, {"title": "仙人湖", "address": "会理县城东面的老街乡铁厂村", "image": "", "rank": 6, "time": 2, "location": {"lat": 26.713411160744542, "lng": 102.30698249318041}, "feature": {"sight_features": "", "sight_content": ""}}, {"title": "西岭泉琴", "address": "凉山州会理城郊西面果园乡羊木材", "image": "", "rank": 7, "time": 2, "location": {"lat": 26.661199778427346, "lng": 102.25143634510819}, "feature": {"sight_features": "", "sight_content": ""}}, {"title": "甜杏种植园", "address": "太平镇联合桥", "image": "", "rank": 8, "time": 2, "location": {"lat": 45.64015256119406, "lng": 126.2051753893417}, "feature": {"sight_features": "", "sight_content": ""}}, {"title": "飞来寺", "address": "会理县城西五公里的果元乡羊木村", "image": "", "rank": 9, "time": 2.0, "location": {"lat": 26.669291289774335, "lng": 102.22975682229357}, "feature": {"sight_features": "", "sight_content": ""}}, {"title": "会理县图书馆", "address": "西街122号", "image": "", "rank": 10, "time": 2, "location": {"lat": 26.661199778427346, "lng": 102.25143634510819}, "feature": {"sight_features": "", "sight_content": ""}}, {"title": "会理会议纪念地", "address": "凉山彝族自治州会理县", "image": "", "rank": 11, "time": 1.5, "location": {"lat": 26.661199778427346, "lng": 102.25143634510819}, "feature": {"sight_features": "", "sight_content": ""}}, {"title": "野租燕麦酒", "address": "城关镇广场路174号", "image": "", "rank": 12, "time": 2, "location": {"lat": 26.663262060860454, "lng": 102.25876615874499}, "feature": {"sight_features": "", "sight_content": ""}}, {"title": "福音堂", "address": "凉山彝族自治州会理县西关170号", "image": "", "rank": 13, "time": 1.0, "location": {"lat": 26.667890234341826, "lng": 102.2486590539639}, "feature": {"sight_features": "", "sight_content": ""}}, {"title": "佳贝爱儿童乐园", "address": "四川省凉山彝族自治州会理县守府路5", "image": "", "rank": 14, "time": 2, "location": {"lat": 26.661056202455196, "lng": 102.2522372060294}, "feature": {"sight_features": "", "sight_content": ""}}, {"title": "喜洋洋儿童乐园", "address": "建设路250号(高皮鞋名品店多面二楼)", "image": "", "rank": 15, "time": 2, "location": {"lat": 26.66439064370145, "lng": 102.25752884441393}, "feature": {"sight_features": "", "sight_content": ""}}, {"title": "会理县天主教爱国会", "address": "元天街71", "image": "", "rank": 16, "time": 2, "location": {"lat": 26.663960978877796, "lng": 102.25338099957047}, "feature": {"sight_features": "", "sight_content": ""}}, {"title": "玉龙源度假村", "address": "益门加油站对面", "image": "", "rank": 17, "time": 2.5, "location": {"lat": 34.33649873151652, "lng": 107.11761946626513}, "feature": {"sight_features": "", "sight_content": ""}}, {"title": "鑫添缘山庄", "address": "长安汽车特约服务连锁店附近", "image": "", "rank": 18, "time": 2, "location": {"lat": 21.67074739742297, "lng": 110.68069574390135}, "feature": {"sight_features": "", "sight_content": ""}}, {"title": "蜀南书画苑", "address": "金带路", "image": "", "rank": 19, "time": 2, "location": {"lat": 33.13096792048552, "lng": 120.02473757112648}, "feature": {"sight_features": "", "sight_content": ""}}, {"title": "金典成人游乐园", "address": "龙腾大街白马寺入口处左侧", "image": "", "rank": 20, "time": 2, "location": {"lat": 26.671331074902696, "lng": 102.2660561774477}, "feature": {"sight_features": "", "sight_content": ""}}, {"title": "衣尚街区", "address": "城关镇元天街59号", "image": "", "rank": 21, "time": 2, "location": {"lat": 26.66385064549896, "lng": 102.25339065455807}, "feature": {"sight_features": "", "sight_content": ""}}, {"title": "卡帝乐鳄鱼", "address": "元天街217号附近", "image": "", "rank": 22, "time": 2, "location": {"lat": 26.666462703871233, "lng": 102.25309166434886}, "feature": {"sight_features": "", "sight_content": ""}}, {"title": "下坝田", "address": "凉山彝族自治州-会理县", "image": "", "rank": 23, "time": 2, "location": {"lat": 26.661199778427346, "lng": 102.25143634510819}, "feature": {"sight_features": "", "sight_content": ""}}, {"title": "小草坝", "address": "四川省凉山彝族自治州会理县", "image": "", "rank": 24, "time": 2, "location": {"lat": 26.661199778427346, "lng": 102.25143634510819}, "feature": {"sight_features": "", "sight_content": ""}}]}