{"cityName": "惠来", "days": 2, "cityImage": "", "spots": [{"title": "惠来海滨度假村", "address": "揭阳市惠来县神泉镇澳角惠来海滨度假村", "image": "", "rank": 1, "time": 2, "location": {"lat": 22.948915253449012, "lng": 116.35131513842231}, "feature": {"sight_features": "", "sight_content": ""}}, {"title": "世铿院", "address": "揭阳市惠来县S17潮惠高速入口", "image": "", "rank": 2, "time": 2, "location": {"lat": 23.03922359342671, "lng": 115.97171740485696}, "feature": {"sight_features": "", "sight_content": ""}}, {"title": "惠来博物馆", "address": "揭阳市惠来县南门大街文化广场", "image": "", "rank": 3, "time": 2.5, "location": {"lat": 23.028894210579118, "lng": 116.30208738654234}, "feature": {"sight_features": "", "sight_content": ""}}, {"title": "海宁县遗址", "address": "揭阳市惠来县222乡道", "image": "", "rank": 4, "time": 2, "location": {"lat": 23.094513490618166, "lng": 116.00739181156294}, "feature": {"sight_features": "", "sight_content": ""}}, {"title": "百花山", "address": "揭阳市榕城区惠来县城东", "image": "", "rank": 5, "time": 4.0, "location": {"lat": 23.53074641796635, "lng": 116.37351589492418}, "feature": {"sight_features": "", "sight_content": ""}}, {"title": "海角甘泉", "address": "揭阳市惠来县236省道神泉镇东南角", "image": "", "rank": 6, "time": 2, "location": {"lat": 22.979963155478103, "lng": 116.32940615873642}, "feature": {"sight_features": "", "sight_content": ""}}, {"title": "靖海古城墙", "address": "揭阳市惠来县106县道", "image": "", "rank": 7, "time": 2, "location": {"lat": 22.961032617303754, "lng": 116.47343091337453}, "feature": {"sight_features": "", "sight_content": ""}}, {"title": "惠来峰德林景区", "address": "广东省揭阳市惠来县", "image": "", "rank": 8, "time": 2, "location": {"lat": 23.039645374524625, "lng": 116.30144448456024}, "feature": {"sight_features": "", "sight_content": ""}}, {"title": "葵阳公园", "address": "揭阳市惠来县惠南路", "image": "", "rank": 9, "time": 2, "location": {"lat": 23.034409557249358, "lng": 116.3015850693725}, "feature": {"sight_features": "", "sight_content": ""}}, {"title": "靖海炮台", "address": "揭阳市惠来县靖海港北", "image": "", "rank": 10, "time": 2, "location": {"lat": 23.00806989916947, "lng": 116.55014970549618}, "feature": {"sight_features": "", "sight_content": ""}}, {"title": "西来古寺", "address": "揭阳市惠来县337省道", "image": "", "rank": 11, "time": 2, "location": {"lat": 23.036254875202065, "lng": 116.39681856865917}, "feature": {"sight_features": "", "sight_content": ""}}, {"title": "榕石永福禅寺", "address": "揭阳市惠来县榕石路", "image": "", "rank": 12, "time": 2, "location": {"lat": 23.04378091133317, "lng": 116.30598139001147}, "feature": {"sight_features": "", "sight_content": ""}}, {"title": "惠来葵阳影剧院", "address": "惠来县南门大街52号-76号", "image": "", "rank": 13, "time": 2, "location": {"lat": 23.03697200410056, "lng": 116.3017339325192}, "feature": {"sight_features": "", "sight_content": ""}}, {"title": "大庚园", "address": "广东省惠来县葵潭镇g324北侧葵潭高速路口", "image": "", "rank": 14, "time": 2, "location": {"lat": 23.100584935853387, "lng": 116.02800531882244}, "feature": {"sight_features": "", "sight_content": ""}}, {"title": "黄光山佛光寺", "address": "广东省惠来县隆青路曲溪老村路口", "image": "", "rank": 15, "time": 2, "location": {"lat": 22.99296091411552, "lng": 116.18397172560097}, "feature": {"sight_features": "", "sight_content": ""}}, {"title": "惠来新力量跆拳道俱乐部", "address": "惠来县新南路192号惠来县文化广场内（世铿馆三楼）", "image": "", "rank": 16, "time": 2, "location": {"lat": 23.032983604675223, "lng": 116.30345713805468}, "feature": {"sight_features": "", "sight_content": ""}}, {"title": "客鸟尾", "address": "广东揭阳惠来靖海湾东部，距县城约三十公里", "image": "", "rank": 17, "time": 2, "location": {"lat": 23.039645374524625, "lng": 116.30144448456024}, "feature": {"sight_features": "", "sight_content": ""}}, {"title": "八国风情旅游度假区", "address": "广东省揭阳市大南山华侨管理区华南生态园", "image": "", "rank": 18, "time": 2, "location": {"lat": 23.01533461959582, "lng": 116.09829583761513}, "feature": {"sight_features": "", "sight_content": ""}}, {"title": "惠来石碑山灯塔", "address": "揭阳市惠来县东南角海边", "image": "", "rank": 19, "time": 2, "location": {"lat": 23.039645374524625, "lng": 116.30144448456024}, "feature": {"sight_features": "", "sight_content": ""}}, {"title": "赤松观龙藏洞", "address": "揭阳市惠来县164乡道附近", "image": "", "rank": 20, "time": 2, "location": {"lat": 23.053966432035896, "lng": 116.2916462172134}, "feature": {"sight_features": "", "sight_content": ""}}, {"title": "岗前天后宫", "address": "揭阳市惠来县", "image": "", "rank": 21, "time": 2, "location": {"lat": 23.039645374524625, "lng": 116.30144448456024}, "feature": {"sight_features": "", "sight_content": ""}}, {"title": "惠来大南山革命纪念馆", "address": "揭阳市惠来县171乡道", "image": "", "rank": 22, "time": 2, "location": {"lat": 23.152195304042905, "lng": 116.20002175014244}, "feature": {"sight_features": "", "sight_content": ""}}, {"title": "文昌阁塔", "address": "揭阳市惠来县新南路192号", "image": "", "rank": 23, "time": 7.5, "location": {"lat": 23.032983604675223, "lng": 116.30345713805468}, "feature": {"sight_features": "", "sight_content": ""}}, {"title": "仙石寺贺龙亭", "address": "惠来县溪西镇西湖詹村", "image": "", "rank": 24, "time": 2, "location": {"lat": 23.008776538660353, "lng": 116.13829332611185}, "feature": {"sight_features": "", "sight_content": ""}}, {"title": "澳角炮台", "address": "惠来县神泉镇", "image": "", "rank": 25, "time": 2, "location": {"lat": 22.979963155478103, "lng": 116.32940615873642}, "feature": {"sight_features": "", "sight_content": ""}}, {"title": "百岭天主教堂", "address": "惠来县西直五巷", "image": "", "rank": 26, "time": 2, "location": {"lat": 22.961829586654343, "lng": 115.9981186037865}, "feature": {"sight_features": "", "sight_content": ""}}, {"title": "盛达拓展真人CS野战俱乐部", "address": "惠来县236省道", "image": "", "rank": 27, "time": 2, "location": {"lat": 23.156104106474668, "lng": 116.20369483154099}, "feature": {"sight_features": "", "sight_content": ""}}, {"title": "镇江寺", "address": "揭阳市惠来县200乡道", "image": "", "rank": 28, "time": 1.0, "location": {"lat": 22.989603245557056, "lng": 116.20159737800643}, "feature": {"sight_features": "", "sight_content": ""}}, {"title": "东港文化公园", "address": "惠来县东港镇长青村", "image": "", "rank": 29, "time": 2, "location": {"lat": 22.969359109179273, "lng": 115.96118156580528}, "feature": {"sight_features": "", "sight_content": ""}}, {"title": "红岗农场", "address": "148乡道附近", "image": "", "rank": 30, "time": 2, "location": {"lat": 24.543272315057642, "lng": 115.90875274625853}, "feature": {"sight_features": "", "sight_content": ""}}, {"title": "塘池农场", "address": "337省道附近", "image": "", "rank": 31, "time": 2, "location": {"lat": 32.15389014139391, "lng": 119.04265762988193}, "feature": {"sight_features": "", "sight_content": ""}}, {"title": "前湖村农场", "address": "148乡道附近", "image": "", "rank": 32, "time": 2, "location": {"lat": 24.543272315057642, "lng": 115.90875274625853}, "feature": {"sight_features": "", "sight_content": ""}}, {"title": "葵潭农场葵峰作业区", "address": "102县道附近", "image": "", "rank": 33, "time": 2, "location": {"lat": 40.721556698715844, "lng": 112.17144916538355}, "feature": {"sight_features": "", "sight_content": ""}}, {"title": "石峻村农场", "address": "133乡道附近", "image": "", "rank": 34, "time": 2, "location": {"lat": 31.187478716156175, "lng": 118.70061199678085}, "feature": {"sight_features": "", "sight_content": ""}}, {"title": "鸟坑农场", "address": "200乡道附近", "image": "", "rank": 35, "time": 2, "location": {"lat": 26.735296232856083, "lng": 112.65777585417545}, "feature": {"sight_features": "", "sight_content": ""}}, {"title": "第一航标塔", "address": "广东省惠来县靖海镇西南 510300", "image": "", "rank": 36, "time": 2, "location": {"lat": 18.688498392495525, "lng": 116.51495828083225}, "feature": {"sight_features": "", "sight_content": ""}}, {"title": "神泉胜迹", "address": "广东省惠来县神泉镇 515225", "image": "", "rank": 37, "time": 2, "location": {"lat": 22.967367477327524, "lng": 116.32435082590436}, "feature": {"sight_features": "", "sight_content": ""}}, {"title": "古榕报石", "address": "广东省惠来县县城北部 515200", "image": "", "rank": 38, "time": 2, "location": {"lat": 23.039645374524625, "lng": 116.30144448456024}, "feature": {"sight_features": "", "sight_content": ""}}, {"title": "前詹老戏院", "address": "广东省揭阳市前詹镇X106", "image": "", "rank": 39, "time": 1.0, "location": {"lat": 22.97561004118378, "lng": 116.42360931058653}, "feature": {"sight_features": "", "sight_content": ""}}, {"title": "永福古寺", "address": "广东省揭阳市惠来县环城东路惠来县实验小学英内校区附近", "image": "", "rank": 40, "time": 2, "location": {"lat": 23.040843947227515, "lng": 116.30538768642555}, "feature": {"sight_features": "", "sight_content": ""}}, {"title": "葵潭镇", "address": "揭阳市惠来县", "image": "", "rank": 41, "time": 2, "location": {"lat": 23.039645374524625, "lng": 116.30144448456024}, "feature": {"sight_features": "", "sight_content": ""}}, {"title": "惠来影剧院", "address": "华湖镇文化路148号(曙明小学附近)", "image": "", "rank": 42, "time": 2, "location": {"lat": 23.041601446929594, "lng": 116.29993039062369}, "feature": {"sight_features": "", "sight_content": ""}}, {"title": "福德老爷戏台", "address": "铭德道附近", "image": "", "rank": 43, "time": 2, "location": {"lat": 39.115436347924664, "lng": 117.17863759467753}, "feature": {"sight_features": "", "sight_content": ""}}, {"title": "山顶公园", "address": "梅云厚洋村内", "image": "", "rank": 44, "time": 0.75, "location": {"lat": 23.52063316017952, "lng": 116.31532519112639}, "feature": {"sight_features": "", "sight_content": ""}}, {"title": "南海观音阁", "address": "广东省揭阳市惠来县吉新街", "image": "", "rank": 45, "time": 2, "location": {"lat": 23.07607852554969, "lng": 115.9843683545363}, "feature": {"sight_features": "", "sight_content": ""}}, {"title": "惠来县革命烈士陵园", "address": "广东省揭阳市惠来县榕石路附近", "image": "", "rank": 46, "time": 2, "location": {"lat": 23.04378091133317, "lng": 116.30598139001147}, "feature": {"sight_features": "", "sight_content": ""}}, {"title": "甘泉禅寺佛教寺院", "address": "土坑庵", "image": "", "rank": 47, "time": 2, "location": {"lat": 23.004293396644762, "lng": 116.43224887341916}, "feature": {"sight_features": "", "sight_content": ""}}, {"title": "风吹门", "address": "揭阳市惠来县", "image": "", "rank": 48, "time": 2, "location": {"lat": 23.039645374524625, "lng": 116.30144448456024}, "feature": {"sight_features": "", "sight_content": ""}}, {"title": "林氏隐祖祠", "address": "广东省揭阳市惠来县靖海镇小学教师宿舍楼附近(大德庙附近)", "image": "", "rank": 49, "time": null, "location": {"lat": 23.00963738596347, "lng": 116.53057392345637}, "feature": {"sight_features": "", "sight_content": ""}}, {"title": "顶溪基督教会", "address": "广东省揭阳市惠来县仙庵镇和惠公路顶溪水库南250米", "image": "", "rank": 50, "time": 7.5, "location": {"lat": 23.041853548127108, "lng": 116.44928887644586}, "feature": {"sight_features": "", "sight_content": ""}}, {"title": "帝王古庙", "address": "东河路与新兴街交叉口东北100米", "image": "", "rank": 51, "time": 2, "location": {"lat": 40.493721868754015, "lng": 115.3005993483797}, "feature": {"sight_features": "", "sight_content": ""}}, {"title": "大风车游乐园", "address": "惠城镇南环一路", "image": "", "rank": 52, "time": 1.0, "location": {"lat": 23.029289750732218, "lng": 116.30386252806001}, "feature": {"sight_features": "", "sight_content": ""}}, {"title": "关帝古庙", "address": "南门大街62号附近", "image": "", "rank": 53, "time": 2, "location": {"lat": 33.50740250193353, "lng": 119.15067478555653}, "feature": {"sight_features": "", "sight_content": ""}}, {"title": "惠来文化广场", "address": "广东省揭阳市惠来县南环一路与惠南路交叉口", "image": "", "rank": 54, "time": 1.0, "location": {"lat": 23.029289750732218, "lng": 116.30386252806001}, "feature": {"sight_features": "", "sight_content": ""}}, {"title": "三池埔村文化广场", "address": "广东省揭阳市惠来县S17(潮惠高速公路)", "image": "", "rank": 55, "time": 2, "location": {"lat": 23.418742752869385, "lng": 116.17050299631445}, "feature": {"sight_features": "", "sight_content": ""}}, {"title": "三清阁", "address": "三清阁(东南门)附近", "image": "", "rank": 56, "time": 1.0, "location": {"lat": 39.95895564175329, "lng": 116.35414412011467}, "feature": {"sight_features": "", "sight_content": ""}}, {"title": "惠来县鸿基实业有限公司靖海湾度...", "address": "靖海镇靖海镇绿洲", "image": "", "rank": 57, "time": 2, "location": {"lat": 23.00615381444115, "lng": 116.53329852449097}, "feature": {"sight_features": "", "sight_content": ""}}, {"title": "伯爷古庙", "address": "106县道附近", "image": "", "rank": 58, "time": 2, "location": {"lat": 44.380065726642144, "lng": 126.3584684828085}, "feature": {"sight_features": "", "sight_content": ""}}, {"title": "安南寺", "address": "150乡道附近", "image": "", "rank": 59, "time": 2, "location": {"lat": 23.33819493205566, "lng": 113.24334797863278}, "feature": {"sight_features": "", "sight_content": ""}}, {"title": "二圣古庙", "address": "广东省揭阳市惠来县", "image": "", "rank": 60, "time": 2, "location": {"lat": 23.039645374524625, "lng": 116.30144448456024}, "feature": {"sight_features": "", "sight_content": ""}}]}