{"cityName": "惠民", "days": 2, "cityImage": "", "spots": [{"title": "魏集古村落", "address": "滨州市惠民县魏集镇", "image": "", "rank": 1, "time": 2, "location": {"lat": 37.28888130162742, "lng": 117.78600466722168}, "feature": {"sight_features": "特色1 具有民俗风情的特色主题公园", "sight_content": "‍‍‍‍‍‍‍‍魏集古村落融合特色美食、手工作坊街、民俗风情、观光游水、民宿农家乐等元素，内有200多家小吃店，休闲旅游商品以及绣楼、剧场、穿越主题公园、游乐场等20多处景点，穿插上演扭秧歌、舞龙舞狮、皮影戏、杂技、说书、扬琴、古彩戏法、篝火晚会等地方民俗活动。\n什么是魏集古村落的灯光节？？是芙蓉河里五光十色的涟漪，是富士山下所有冰封的爱被灯光融化，是一场童话世界的梦幻之旅，是那海底凉爽的蓝色世界，是那倒映着满天的星辉，树林里萤火虫的飞舞……是一种非看不可的力量！\n【7.25-10.17灯光节：景点特色】\n一、奇幻灯盏、爱的浪漫之光、炫彩的童年之光、梦幻的大自然之光\n无论是海豚、水母、帆船等海洋元素，还是美人鱼、哆啦A梦等童话元素，或是孔雀开屏、大鹏展翅、天鹅等动物元素，再或者时空隧道、心形廊道、情侣求婚等浪漫元素，本届灯光节都应有尽有，造型独特丰富。夜幕降临，灯光节点亮了夜空，于五彩斑斓之中，尽情嬉戏玩耍、拍照留念。\n二、魔法泡泡秀\n泡泡机里，白、绿、蓝、黄、红五色泡泡会喷涌而出，将所有人笼罩在五彩缤纷的梦幻世界。\n三、十大主题——爽爆夏日\n在灯光节期间，景区将举办电音之夜、民谣晚会、泼水节、冰桶大赛、古装快闪砸金蛋等一系列消夏活动，让我们爽爆这个夏夜，嗨爆这个夏夜！"}}, {"title": "圣豪丽景温泉", "address": "滨州市惠民县经济开发区乐安二路388号", "image": "", "rank": 2, "time": 2, "location": {"lat": 37.47476847635817, "lng": 117.5854090044688}, "feature": {"sight_features": "特色1 东南亚热带雨林风情特色 特色2 凸显“东南亚热带雨林风情”特色", "sight_content": "圣豪丽景度假酒店座落于滨州市西郊“孙子故里”——惠民县经济开发区纬二路和纬三路之间的圣豪湖东岸，占地面积390亩（其中水面280亩，酒店及绿地占地110亩），总建筑面积43000平方米。客房楼两座(A座、B座)，238个房间；餐饮会议楼可同时容纳1500人就餐，各类会议室8个，大会议室可容纳600人。由温泉洗浴中心、客房楼、餐饮会议楼、别墅区、职工宿舍楼、圣豪湖等部分组成。\n温泉凸显“东南亚热带雨林风情”特色，室内外泡池和泳池风格迥异，魅力无疆。"}}, {"title": "武定府汉王府及渤海老区革命机关...", "address": "滨州市惠民县十字街北首", "image": "", "rank": 3, "time": 2, "location": {"lat": 37.493022285922876, "lng": 117.51620642255773}, "feature": {"sight_features": "特色1 学习红色文化，接受革命教育", "sight_content": "‍‍\n正月初一至二十，武定府衙景区又将迎来新一年新春庙会。在这台热闹的新年庙会中，不光大堂审案，还有郡主抛绣球、真假州官等实景演出，你不光可以看，甚至可能受邀登台体验、演出哦！游客可以穿上古装拍照留念！\n‍‍在传统文化景区，戏曲、曲艺往往引人关注。庙会主办方特意设置了地方戏曲擂台赛环节，专业演员与资深票友将现场飙技。‍‍\n‍\n‍其实，都说济南是“曲山艺海”，其实就惠民来说，它的戏曲、曲艺底蕴就很深哦！这正是惠民庙会的浓厚传统的缩影。\n‍‍\n‍讲两个故事足以证明——武定府衙此次庙会将上演的“大堂审案”再现的，就是一个明代江南艺妓在惠民的爱恨情仇；知道刘鹗《老残游记》里的黑妞嫁到哪里了吗？就是在惠民！就在魏氏庄园！\n\n\n‍\n武定府衙肇建于大中祥府八年（公元1015年），时为棣州，历经宋、金、元、明、清五代，均为州府治所。明洪武六年（公元1373年）改棣州为乐安州。永乐帝朱棣次子朱高煦叛乱被平定，改乐安州为武定州，州衙府迁原址。雍正十二年（公元1734年）升州为府，领九县一州。\n武定府署、汉王宫座落于惠民县城北部，主要建筑包括中路的大门、仪门、德政堂、退思堂、昌华堂、怡然堂，展示知府判案和明代汉王及家眷的后宫生活场景。东路建筑有土地庙、同知署、寅宾馆，现为渤海老区革命机关旧址。学习红色文化，接受革命教育。西路的建筑有通判厅、西花厅以及亭台水榭等汉王宫的后花园，建筑风格为仿明清建筑。\n\n\n\n\n‍‍"}}, {"title": "灵秀滑雪场", "address": "滨州市惠民县皂户李镇火把李村东北100米", "image": "", "rank": 4, "time": 2, "location": {"lat": 37.41082775820892, "lng": 117.42172700579998}, "feature": {"sight_features": "", "sight_content": ""}}, {"title": "三圣殿", "address": "山东省滨州市惠民县中国孙子兵法城德胜门", "image": "", "rank": 5, "time": 2, "location": {"lat": 37.51347388735926, "lng": 117.50943813430297}, "feature": {"sight_features": "", "sight_content": ""}}, {"title": "古城公园", "address": "黄浦区人民路333号(近福佑路)", "image": "", "rank": 6, "time": 1.5, "location": {"lat": 31.23417291389577, "lng": 121.5015797668316}, "feature": {"sight_features": "", "sight_content": ""}}, {"title": "惠民博物馆", "address": "故园南路8号", "image": "", "rank": 7, "time": 2.5, "location": {"lat": 37.489080801122924, "lng": 117.52001509598777}, "feature": {"sight_features": "", "sight_content": ""}}, {"title": "祥和垂钓园", "address": "239省道附近", "image": "", "rank": 8, "time": 2, "location": {"lat": 31.924010648137532, "lng": 119.82352882833763}, "feature": {"sight_features": "", "sight_content": ""}}, {"title": "润地物华高效有机农业生态园", "address": "大济路附近", "image": "", "rank": 9, "time": 2, "location": {"lat": 27.627253481454503, "lng": 119.08255317034242}, "feature": {"sight_features": "", "sight_content": ""}}, {"title": "华滨读书社", "address": "府前路南50米", "image": "", "rank": 10, "time": 2, "location": {"lat": 33.9920936211466, "lng": 119.7209932137324}, "feature": {"sight_features": "", "sight_content": ""}}, {"title": "惠民县图书馆", "address": "史河路与孙武二路交叉口南200米", "image": "", "rank": 11, "time": 2, "location": {"lat": 31.869253788182, "lng": 117.25017373804917}, "feature": {"sight_features": "", "sight_content": ""}}, {"title": "盛泽垂钓园", "address": "魏集镇桑王路西", "image": "", "rank": 12, "time": 2, "location": {"lat": 34.04690162672779, "lng": 117.98860923394246}, "feature": {"sight_features": "", "sight_content": ""}}, {"title": "孙武古城旅游区", "address": "山东省惠民县鼓楼街85号", "image": "", "rank": 13, "time": 2, "location": {"lat": 37.49909629863217, "lng": 117.51518495936234}, "feature": {"sight_features": "", "sight_content": ""}}, {"title": "福寿文化", "address": "滨州市惠民县魏集镇庄园路1号魏氏庄园景区福寿堂内", "image": "", "rank": 14, "time": 2, "location": {"lat": 37.29935845360085, "lng": 117.75760177411554}, "feature": {"sight_features": "", "sight_content": ""}}, {"title": "山东省惠民县鲁滨惠人博物馆", "address": "鼓楼街87附近", "image": "", "rank": 15, "time": 2, "location": {"lat": 28.01972039991664, "lng": 120.665169752375}, "feature": {"sight_features": "", "sight_content": ""}}, {"title": "惠民惠风民俗博物馆", "address": "滨州市惠民县孙武路中国孙子兵法城内", "image": "", "rank": 16, "time": 2, "location": {"lat": 37.51347388735926, "lng": 117.50943813430297}, "feature": {"sight_features": "", "sight_content": ""}}, {"title": "文化广场", "address": "庄园街南50米", "image": "", "rank": 17, "time": 1.5, "location": {"lat": 30.513406603839993, "lng": 103.62817040918834}, "feature": {"sight_features": "", "sight_content": ""}}, {"title": "庄园广场", "address": "滨州市惠民县魏集镇庄园路1号魏氏庄园景区内", "image": "", "rank": 18, "time": 2, "location": {"lat": 37.296584079283456, "lng": 117.76097839223935}, "feature": {"sight_features": "", "sight_content": ""}}, {"title": "麦咭儿童乐园", "address": "南环东路168号", "image": "", "rank": 19, "time": 2, "location": {"lat": 37.48645383220653, "lng": 117.5352091773158}, "feature": {"sight_features": "", "sight_content": ""}}, {"title": "山东古源恒昌生态旅游度假村", "address": "220国道巩家村", "image": "", "rank": 20, "time": 2, "location": {"lat": 37.31503130799843, "lng": 117.69673817662648}, "feature": {"sight_features": "", "sight_content": ""}}, {"title": "孙武广场", "address": "东门大街与环城东路交叉口西南100米", "image": "", "rank": 21, "time": 2, "location": {"lat": 31.653444839178373, "lng": 120.75550591900051}, "feature": {"sight_features": "", "sight_content": ""}}, {"title": "市民广场", "address": "山东省滨州市惠民县孙武街道武圣路武圣园东北200米", "image": "", "rank": 22, "time": 1.0, "location": {"lat": 37.50173587595063, "lng": 117.50553690845624}, "feature": {"sight_features": "", "sight_content": ""}}, {"title": "金山度假村", "address": "麻店派出所北侧", "image": "", "rank": 23, "time": 2, "location": {"lat": 37.43318618727764, "lng": 117.6359449721538}, "feature": {"sight_features": "", "sight_content": ""}}, {"title": "惠民县图书馆", "address": "故园路21号", "image": "", "rank": 24, "time": 2, "location": {"lat": 31.7995251004999, "lng": 119.98704602930776}, "feature": {"sight_features": "", "sight_content": ""}}, {"title": "极速卡丁生活馆(极速卡丁车馆)", "address": "滨州国际会展中心一楼西侧(近中海壹号)", "image": "", "rank": 25, "time": 2, "location": {"lat": 37.409397031336596, "lng": 117.96156351068215}, "feature": {"sight_features": "", "sight_content": ""}}, {"title": "早教式婴幼儿SPA水育乐园", "address": "阎北路宝贝计划母婴生活馆旁", "image": "", "rank": 26, "time": 2, "location": {"lat": 36.99044763070011, "lng": 115.2820847274459}, "feature": {"sight_features": "", "sight_content": ""}}, {"title": "孙武书画苑", "address": "环城南路69附近", "image": "", "rank": 27, "time": 2, "location": {"lat": 30.691375182493754, "lng": 118.41649115469293}, "feature": {"sight_features": "", "sight_content": ""}}, {"title": "惠民县书画协会美术教学点", "address": "环城东路62附近", "image": "", "rank": 28, "time": 2, "location": {"lat": 28.075543391757027, "lng": 119.1512311292367}, "feature": {"sight_features": "", "sight_content": ""}}, {"title": "惠民县老干部书画研究会", "address": "环城南路199", "image": "", "rank": 29, "time": 2, "location": {"lat": 50.24966097358422, "lng": 127.50026474544205}, "feature": {"sight_features": "", "sight_content": ""}}, {"title": "小老虎美术辅导班", "address": "南门大街225附近", "image": "", "rank": 30, "time": 2, "location": {"lat": 33.50071867812693, "lng": 119.15160157813085}, "feature": {"sight_features": "", "sight_content": ""}}, {"title": "田野美术", "address": "环城东路62号附近", "image": "", "rank": 31, "time": 2, "location": {"lat": 40.85500550364175, "lng": 122.76231958388408}, "feature": {"sight_features": "", "sight_content": ""}}, {"title": "彩艺美术", "address": "南关街130附近", "image": "", "rank": 32, "time": 2, "location": {"lat": 38.68484264474148, "lng": 115.78756330131826}, "feature": {"sight_features": "", "sight_content": ""}}, {"title": "水上皇宫水世界", "address": "大济路车管所东1公里路南", "image": "", "rank": 33, "time": 2, "location": {"lat": 38.06251381434445, "lng": 117.13696708581632}, "feature": {"sight_features": "", "sight_content": ""}}, {"title": "密室逃脱", "address": "中心路", "image": "", "rank": 34, "time": 2, "location": {"lat": 39.02339741954867, "lng": 117.07202799480481}, "feature": {"sight_features": "", "sight_content": ""}}, {"title": "惠民生态园", "address": "西环路东100米", "image": "", "rank": 35, "time": 7.5, "location": {"lat": 23.253262829749772, "lng": 116.43429766843917}, "feature": {"sight_features": "", "sight_content": ""}}, {"title": "鲁艺苑画廊", "address": "书会路与平和路交叉口西50米", "image": "", "rank": 36, "time": 2, "location": {"lat": 37.33732487225038, "lng": 117.73741879323946}, "feature": {"sight_features": "", "sight_content": ""}}, {"title": "众森园林绿化", "address": "大济路与滨石路交叉口东北150米", "image": "", "rank": 37, "time": 2, "location": {"lat": 42.85646580255288, "lng": 124.414086267546}, "feature": {"sight_features": "", "sight_content": ""}}, {"title": "艺雅画廊", "address": "恒迈路南50米", "image": "", "rank": 38, "time": 2, "location": {"lat": 31.34241253266284, "lng": 118.36874071202143}, "feature": {"sight_features": "", "sight_content": ""}}, {"title": "鲁滨惠人民间博物馆", "address": "316省道南50米", "image": "", "rank": 39, "time": 2, "location": {"lat": 39.27067052181942, "lng": 117.82159346542433}, "feature": {"sight_features": "", "sight_content": ""}}, {"title": "桐荫阁画廊", "address": "西关街与西环路交叉口东150米", "image": "", "rank": 40, "time": 2, "location": {"lat": 34.171727679815355, "lng": 112.83707477099712}, "feature": {"sight_features": "", "sight_content": ""}}, {"title": "惠民县坡刘花生种植专业合作社", "address": "姜楼镇西坡刘村内", "image": "", "rank": 41, "time": null, "location": {"lat": 37.26629062436392, "lng": 117.47005676749146}, "feature": {"sight_features": "", "sight_content": ""}}, {"title": "盖前村", "address": "滨州市-惠民县", "image": "", "rank": 42, "time": 2, "location": {"lat": 37.49580310894013, "lng": 117.5165096904979}, "feature": {"sight_features": "", "sight_content": ""}}, {"title": "孙武湖", "address": "山东省东营市广饶县", "image": "", "rank": 43, "time": 2, "location": {"lat": 37.059638498906146, "lng": 118.41349864392043}, "feature": {"sight_features": "", "sight_content": ""}}]}