{"cityName": "睢宁", "days": 2, "cityImage": "", "spots": [{"title": "水月禅寺", "address": "徐州市睢宁县下邳大道（徐淮公路睢宁城西收费站北200米）", "image": "", "rank": 1, "time": 0.35, "location": {"lat": 33.92091263158996, "lng": 117.89661455178462}, "feature": {"sight_features": "特色1 入选全球九大最美宗教建筑", "sight_content": "﻿近期在新加坡举行的2015年世界建筑节公布了“宗教类”入围名单，水月禅寺因其独特现代的设计入选全球九大最美宗教建筑，是中国唯一入团的宗教建筑。\n景区向游客提供画舫船、电瓶船、环保电瓶车、自行车等交通工具。游览线路方面，景区推出了步行游览、观光车游览、自行车游览及水上游览线路。主要游览线有供游客观景、休息的观景亭、亲水平台、椅凳，设置布局合理。\n景区游客中心，按照国家4A级标准建造，总面积超过780平方米，游客中心设施齐全规范，位置显著，服务项目内容丰富。具体提供有：多媒体游览信息触摸屏，提供查询、问讯、急救、投诉接待、茶水供应、轮椅、儿童推车、雨伞免费借用等系列服务。\n景区内规划约1400余亩水面和湿地，将水岸线空间与水体有机融合，充分体现自然特性、创造充满生态情趣的湿地环境。水面周边规划有湿地保育区、农耕体验区、科普教育区和佛教文化区等景观娱乐设施。其他区域广植各类乔木、灌木、地被、水生植物，点缀景观小品、建筑物及构筑物等，将打造成一个以水月禅寺为核心景点，并集水生植物观赏、生态疗养、养生休闲、科普教育、湿地游憩、高效农业等旅游项目为一体的湿地公园。\n水月禅寺位于白塘河湿地公园景区内，占据景区东南部区域，总占地面积超过300亩。寺院四周池塘水系丰富、水质优良，形成冬暖夏凉的小环境；场地内有一定量的林地，对净化空气、形成养生环境有着重要作用。"}}, {"title": "新天地草莓采摘园", "address": "戚姬路梁集中学向北608米路西为农服务中心(梁集高速入口向北1公里路西)", "image": "", "rank": 2, "time": 2, "location": {"lat": 33.970122421560546, "lng": 117.96218589087508}, "feature": {"sight_features": "", "sight_content": ""}}, {"title": "滨河植物园", "address": "青年中路", "image": "", "rank": 3, "time": 2, "location": {"lat": 32.02605032187361, "lng": 121.196389959516}, "feature": {"sight_features": "", "sight_content": ""}}, {"title": "钱币博物馆", "address": "八一东街", "image": "", "rank": 4, "time": 2, "location": {"lat": 35.25368947469812, "lng": 115.49801936551066}, "feature": {"sight_features": "", "sight_content": ""}}, {"title": "妮妮儿童乐园", "address": "江苏省徐州市睢宁县304县道X304号附近", "image": "", "rank": 5, "time": 1.0, "location": {"lat": 33.96120207410925, "lng": 117.92405688680894}, "feature": {"sight_features": "", "sight_content": ""}}, {"title": "牡丹园", "address": "睢城镇东升街", "image": "", "rank": 6, "time": 2.5, "location": {"lat": 33.90703589481688, "lng": 117.98091590840234}, "feature": {"sight_features": "", "sight_content": ""}}, {"title": "大自然垂钓休闲中心", "address": "邳睢路", "image": "", "rank": 7, "time": 2, "location": {"lat": 34.15388478839828, "lng": 117.90040001120367}, "feature": {"sight_features": "", "sight_content": ""}}, {"title": "万万儿童图书馆", "address": "睢城镇大鹏全羊馆斜对面", "image": "", "rank": 8, "time": 2, "location": {"lat": 33.905558458536575, "lng": 117.96875989271582}, "feature": {"sight_features": "", "sight_content": ""}}, {"title": "吕大种鹅基地", "address": "吕氏纪念堂附近", "image": "", "rank": 9, "time": 2, "location": {"lat": 33.80614940855647, "lng": 117.9103415582826}, "feature": {"sight_features": "", "sight_content": ""}}, {"title": "睢宁剧场", "address": "新市东街12号", "image": "", "rank": 10, "time": 1.5, "location": {"lat": 36.055852748988286, "lng": 113.06461304411403}, "feature": {"sight_features": "", "sight_content": ""}}, {"title": "江苏睢宁农业科技综合展示基地", "address": "环宇西路附近", "image": "", "rank": 11, "time": 2, "location": {"lat": 27.588804720254927, "lng": 113.98629445283974}, "feature": {"sight_features": "", "sight_content": ""}}, {"title": "新天地游乐园", "address": "青年路金像电影大世界西侧", "image": "", "rank": 12, "time": 2, "location": {"lat": 30.53873950506356, "lng": 120.69295713990019}, "feature": {"sight_features": "", "sight_content": ""}}, {"title": "睢宁县柳琴剧团", "address": "西胜街37号", "image": "", "rank": 13, "time": 2, "location": {"lat": 23.14768692117783, "lng": 113.27926708375959}, "feature": {"sight_features": "", "sight_content": ""}}, {"title": "八里垂钓园", "address": "八里垂钓园(八里游乐园附近)", "image": "", "rank": 14, "time": 2, "location": {"lat": 39.722814398743026, "lng": 122.01339509377138}, "feature": {"sight_features": "", "sight_content": ""}}, {"title": "垂钓乐园", "address": "八里金属机电产业园高仝线垂钓乐园", "image": "", "rank": 15, "time": 2, "location": {"lat": 33.899839149910306, "lng": 118.00551351918175}, "feature": {"sight_features": "", "sight_content": ""}}, {"title": "徐州佳沐卡丁车", "address": "江苏省徐州市睢宁县S324路南", "image": "", "rank": 16, "time": 2.5, "location": {"lat": 33.91878941781798, "lng": 117.94743277245068}, "feature": {"sight_features": "", "sight_content": ""}}, {"title": "沙集影剧院", "address": "睢宁县沙集镇卫生院附近", "image": "", "rank": 17, "time": 2, "location": {"lat": 33.90228600426455, "lng": 118.14244322069528}, "feature": {"sight_features": "", "sight_content": ""}}, {"title": "孔雀园农家乐", "address": "滨河路北50米", "image": "", "rank": 18, "time": 2, "location": {"lat": 22.535934361525495, "lng": 114.07505832799819}, "feature": {"sight_features": "", "sight_content": ""}}, {"title": "海纳利尔水族馆", "address": "森博家居广场一楼", "image": "", "rank": 19, "time": 2, "location": {"lat": 29.578753853755032, "lng": 105.06703249395012}, "feature": {"sight_features": "", "sight_content": ""}}, {"title": "天天儿童乐园", "address": "江苏省徐州市睢宁县中山路135附近", "image": "", "rank": 20, "time": 2, "location": {"lat": 33.82783025080207, "lng": 118.12840340535432}, "feature": {"sight_features": "", "sight_content": ""}}, {"title": "小不点儿童乐园", "address": "江苏省徐州市睢宁县X304", "image": "", "rank": 21, "time": 2, "location": {"lat": 33.91878941781798, "lng": 117.94743277245068}, "feature": {"sight_features": "", "sight_content": ""}}, {"title": "喜洋洋儿童乐园", "address": "中华街与永昌路交叉口西100米", "image": "", "rank": 22, "time": 2, "location": {"lat": 33.8321149757272, "lng": 118.1278967799111}, "feature": {"sight_features": "", "sight_content": ""}}, {"title": "啊嘻玩儿童乐园(万象店)", "address": "八一路与中山北路交界处万象天地购物广场3层", "image": "", "rank": 23, "time": 2, "location": {"lat": 33.90832128245726, "lng": 117.95495774386025}, "feature": {"sight_features": "", "sight_content": ""}}, {"title": "佳贝爱儿童乐园", "address": "八里金属机电产业园八里社区幼儿园南侧", "image": "", "rank": 24, "time": 2, "location": {"lat": 33.91026607908517, "lng": 118.01083663329477}, "feature": {"sight_features": "", "sight_content": ""}}, {"title": "基督教桃园镇中心教会", "address": "仔仙路170号附近", "image": "", "rank": 25, "time": 2, "location": {"lat": 33.863620249995996, "lng": 117.78630309149852}, "feature": {"sight_features": "", "sight_content": ""}}, {"title": "美又多金龟子儿童乐园", "address": "江苏省徐州市睢宁县X206(占李线)", "image": "", "rank": 26, "time": 2, "location": {"lat": 33.93859139357204, "lng": 117.74506419238399}, "feature": {"sight_features": "", "sight_content": ""}}, {"title": "淘气堡主题乐园", "address": "中心街与人民路交叉口南150米", "image": "", "rank": 27, "time": 2, "location": {"lat": 32.13136392586376, "lng": 121.29468010143357}, "feature": {"sight_features": "", "sight_content": ""}}, {"title": "柳园圣经专科教堂", "address": "江苏省徐州市睢宁县双沟镇官路官陈线圣经专科教堂", "image": "", "rank": 28, "time": 2, "location": {"lat": 34.09195280746706, "lng": 117.61299614634133}, "feature": {"sight_features": "", "sight_content": ""}}, {"title": "大余教会", "address": "大余村附近", "image": "", "rank": 29, "time": 2, "location": {"lat": 33.82696460608927, "lng": 117.9694935505038}, "feature": {"sight_features": "", "sight_content": ""}}, {"title": "八一基督教会", "address": "姚八线附近", "image": "", "rank": 30, "time": 2, "location": {"lat": 34.08978622857061, "lng": 117.84014614576596}, "feature": {"sight_features": "", "sight_content": ""}}, {"title": "李集镇生育文化园", "address": "金陵路南50米", "image": "", "rank": 31, "time": 2, "location": {"lat": 32.06201945799701, "lng": 118.8022102421627}, "feature": {"sight_features": "", "sight_content": ""}}, {"title": "法治广场", "address": "东升街北100米", "image": "", "rank": 32, "time": 2, "location": {"lat": 40.24992493196506, "lng": 116.14421094258574}, "feature": {"sight_features": "", "sight_content": ""}}, {"title": "法治文化广场", "address": "文学北路附近", "image": "", "rank": 33, "time": 2, "location": {"lat": 33.91152991788456, "lng": 117.9611571280491}, "feature": {"sight_features": "", "sight_content": ""}}, {"title": "开发区总部经济园广场", "address": "前进路附近", "image": "", "rank": 34, "time": 2, "location": {"lat": 40.194442644733925, "lng": 116.22980840942719}, "feature": {"sight_features": "", "sight_content": ""}}, {"title": "法制广场", "address": "江苏省徐州市睢宁县睢城镇睢河路银河星城(北区)西100米", "image": "", "rank": 35, "time": 2, "location": {"lat": 33.911243342845104, "lng": 117.94384472015899}, "feature": {"sight_features": "", "sight_content": ""}}, {"title": "碧浪浴场水上乐园", "address": "江苏省徐州市睢宁县X305(睢岚线)", "image": "", "rank": 36, "time": 2, "location": {"lat": 33.935967924995914, "lng": 117.80398320098644}, "feature": {"sight_features": "", "sight_content": ""}}, {"title": "星期六儿童成长主题乐园", "address": "元府路威尼斯商城威尼斯超级大卖场东侧", "image": "", "rank": 37, "time": 2, "location": {"lat": 35.07443998031251, "lng": 116.29363125792723}, "feature": {"sight_features": "", "sight_content": ""}}, {"title": "米米奇儿童游乐园", "address": "建设路3号附近", "image": "", "rank": 38, "time": 2, "location": {"lat": 39.208123623518986, "lng": 117.21698948091698}, "feature": {"sight_features": "", "sight_content": ""}}, {"title": "刘果教会", "address": "303县道基督教堂(睢宁县刘集果园场医院东南)附近", "image": "", "rank": 39, "time": 2, "location": {"lat": 34.089437025617215, "lng": 117.77304274752656}, "feature": {"sight_features": "", "sight_content": ""}}, {"title": "6 1儿童乐园", "address": "江苏省徐州市睢宁县元府中路", "image": "", "rank": 40, "time": 2, "location": {"lat": 33.90449152053035, "lng": 117.95798996692274}, "feature": {"sight_features": "", "sight_content": ""}}, {"title": "濉河", "address": "江苏省徐州市睢宁县", "image": "", "rank": 41, "time": 2, "location": {"lat": 33.91878941781798, "lng": 117.94743277245068}, "feature": {"sight_features": "", "sight_content": ""}}, {"title": "在水一方度假村", "address": "江苏省徐州市睢宁县睢城镇天虹大道阳光家园北200米", "image": "", "rank": 42, "time": 2, "location": {"lat": 33.89054237267729, "lng": 117.9694047278516}, "feature": {"sight_features": "", "sight_content": ""}}, {"title": "欢乐时光", "address": "城河西路", "image": "", "rank": 43, "time": 2, "location": {"lat": 29.956242629686308, "lng": 121.7215432824221}, "feature": {"sight_features": "", "sight_content": ""}}, {"title": "梦幻游乐城", "address": "元府路天元广场时代超市", "image": "", "rank": 44, "time": 2, "location": {"lat": 33.90444213329458, "lng": 117.9547226114947}, "feature": {"sight_features": "", "sight_content": ""}}, {"title": "开泰乐园", "address": "睢城河北街13号开泰欢乐广场3楼", "image": "", "rank": 45, "time": 2, "location": {"lat": 30.50817858233565, "lng": 105.58329865352077}, "feature": {"sight_features": "", "sight_content": ""}}, {"title": "熊出没水上乐园", "address": "中央步行街(时代大药房东侧)", "image": "", "rank": 46, "time": 2, "location": {"lat": 33.904380441119514, "lng": 117.95474862552396}, "feature": {"sight_features": "", "sight_content": ""}}, {"title": "唐人居野生园", "address": "环城北路附近", "image": "", "rank": 47, "time": 2, "location": {"lat": 29.27272097970845, "lng": 120.2518720606648}, "feature": {"sight_features": "", "sight_content": ""}}, {"title": "飞天画廊", "address": "皂伊线南50米", "image": "", "rank": 48, "time": 2, "location": {"lat": 34.10346146567041, "lng": 117.9689136125513}, "feature": {"sight_features": "", "sight_content": ""}}, {"title": "萤火虫少儿图书馆", "address": "睢城镇人民东路141号(紫金花城北门对面)", "image": "", "rank": 49, "time": 2, "location": {"lat": 33.913133919343224, "lng": 117.97119879217541}, "feature": {"sight_features": "", "sight_content": ""}}, {"title": "天健葡萄采摘园", "address": "沙集镇沙魏线天健葡萄采摘园", "image": "", "rank": 50, "time": 2, "location": {"lat": 33.91473818385412, "lng": 118.11428990380898}, "feature": {"sight_features": "", "sight_content": ""}}, {"title": "风尚演出团", "address": "121省道附近S121(旧)", "image": "", "rank": 51, "time": 2, "location": {"lat": 22.93097050788509, "lng": 113.09735627269136}, "feature": {"sight_features": "", "sight_content": ""}}, {"title": "乐CAR和平生态室外游乐园", "address": "文学南路红旗大桥南20米", "image": "", "rank": 52, "time": 2, "location": {"lat": 41.11312561467978, "lng": 117.65566578921788}, "feature": {"sight_features": "", "sight_content": ""}}, {"title": "复兴路商业街", "address": "江苏省睢宁县复兴路", "image": "", "rank": 53, "time": 2, "location": {"lat": 33.77155833922581, "lng": 117.8060761396382}, "feature": {"sight_features": "", "sight_content": ""}}, {"title": "中央步行街", "address": "江苏省睢宁县中山南路", "image": "", "rank": 54, "time": 2, "location": {"lat": 33.89768852025463, "lng": 117.95628080504588}, "feature": {"sight_features": "", "sight_content": ""}}, {"title": "八里商业街", "address": "江苏省睢宁县324省道附近", "image": "", "rank": 55, "time": 2, "location": {"lat": 34.101022772229115, "lng": 117.56430801824291}, "feature": {"sight_features": "", "sight_content": ""}}, {"title": "江苏省徐州市睢宁县新市步行街", "address": "江苏省睢宁县新市路", "image": "", "rank": 56, "time": 2, "location": {"lat": 33.90204581474263, "lng": 117.9584713445913}, "feature": {"sight_features": "", "sight_content": ""}}, {"title": "供销步行街", "address": "江苏省睢宁县供销步行街", "image": "", "rank": 57, "time": 2, "location": {"lat": 33.86523877717003, "lng": 117.79042585745013}, "feature": {"sight_features": "", "sight_content": ""}}]}