{"cityName": "辉南", "days": 2, "cityImage": "", "spots": [{"title": "吉林龙湾群国家森林公园", "address": "通化市辉南县", "image": "", "rank": 1, "time": 4.5, "location": {"lat": 42.690699881881976, "lng": 126.05358125712766}, "feature": {"sight_features": "特色1 水湖景致状观秀丽，湖水清澈见底，可观鱼游！ 特色2 龙湾，是古地质年代由火山喷发而形成的高山湖泊！ 特色3 野兔、狐狸、狍子经常出没山林，飞龙、野鸡栖息林间！", "sight_content": "吉林龙湾群国家森林公园坐落在长白山脉的北麓，属长白山系龙岗山脉中段，吉林省辉南县境内，大陆性季风气候 。平均海拔880米，公园占地面积 8102 公顷，其中：森林面积 6780 公顷，水域面积 227 公顷，其它面积为 1095 公顷。 1992 年被国家林业部批准为 “ 三角龙湾国家级森林公园 ” ， 1999 年，更名为 “ 吉林龙湾群国家森林公园 ”是国家AAAA级旅游风景区，全国科普基地，全国摄影家创作基地。公园规划为十大景区——“七湾、一瀑、两顶”，即三角龙湾、大龙湾、 二龙湾、小龙湾、东龙湾、南龙湾、旱龙湾、吊水壶瀑布、金龙顶子山和四方顶子山。辉南县山川秀丽，古迹繁多，旅游资源丰富，交通便捷，沈吉铁路斜穿境内。县东部山区是我国最大的 火山群 - 龙岗山脉火山群的一部分，大约 60 万年前，这里频繁而剧烈的火山运动，形成了众多火山口湖。吉林龙湾群国家森林公园内分布的火山口湖群，成为辉南县发展旅游业的重要依托 资源。公园内景象奇特，尤以 “ 三角龙湾 ” 久负盛名，被誉为龙岗山脉上的一颗明珠。\n龙湾，是古地质年代由火山喷发而形成的高山湖泊， 在中国古代的民间传说和故事里，是龙栖息生 存的独特区域，给人们一种神秘而又美轮美奂的想象空间 。极似七星北斗状排列的七个龙湾，平均水深 50 米左右，最深处达 126 米，湾水碧蓝如玉，形态景致各异，似颗颗明珠散落在崇 山峻岭之中。其数量之多、分布之集中、形态之炯异、保存程度之完整居国内首位。据有关部门初步认证，该龙湾群是目前国内所发现的最大的火山口湖群。 吉林龙湾群国家森林公园既有宏伟壮观的火山风貌，又有姿态各异的湿地景观；既有内涵丰富的人文建筑，又有美丽的传说。在这里，您能感受到水与火的交融，体味到情与景的热忱。 奇观 异景，浓缩世间山水精华，龙湾正以其独特的火山遗迹资源、丰富的森林生态资源而享誉国内外，其古朴、自然的原始风貌深蕴巨大的开发潜力。"}}, {"title": "大龙湾", "address": "吉林通化辉南县", "image": "", "rank": 2, "time": 4.5, "location": {"lat": 42.690699881881976, "lng": 126.05358125712766}, "feature": {"sight_features": "", "sight_content": ""}}, {"title": "龙潭宫", "address": "通化辉南县大龙湾景区", "image": "", "rank": 3, "time": 2, "location": {"lat": 42.348618712252524, "lng": 126.39934388439504}, "feature": {"sight_features": "", "sight_content": ""}}, {"title": "通化吊水壶景区", "address": "吉林省通化市辉南县金川镇吊水湖景区", "image": "", "rank": 4, "time": 4.0, "location": {"lat": 42.33220289959193, "lng": 126.44406861043086}, "feature": {"sight_features": "", "sight_content": ""}}, {"title": "龙湾冷水鱼垂钓", "address": "驼靖线", "image": "", "rank": 5, "time": 2, "location": {"lat": 42.35299500403787, "lng": 126.38694772649315}, "feature": {"sight_features": "", "sight_content": ""}}, {"title": "东来顺火锅", "address": "爱民大街283-12号", "image": "", "rank": 6, "time": 2, "location": {"lat": 43.880287613219835, "lng": 125.16896743496994}, "feature": {"sight_features": "", "sight_content": ""}}, {"title": "雨林休闲垂钓", "address": "抚长高速西", "image": "", "rank": 7, "time": 2, "location": {"lat": 30.40212400162996, "lng": 113.56711346842408}, "feature": {"sight_features": "", "sight_content": ""}}, {"title": "萨其城", "address": "吉林省珲春市东北部 133306", "image": "", "rank": 8, "time": 2, "location": {"lat": 42.86851511519159, "lng": 130.37261321858327}, "feature": {"sight_features": "", "sight_content": ""}}, {"title": "527烤肉音乐广场", "address": "南环路与向阳胡同交叉口东100米", "image": "", "rank": 9, "time": 2, "location": {"lat": 42.68348355073778, "lng": 126.04529440945915}, "feature": {"sight_features": "", "sight_content": ""}}, {"title": "贝美嘉儿童乐园", "address": "通化市辉南县", "image": "", "rank": 10, "time": 2, "location": {"lat": 42.690699881881976, "lng": 126.05358125712766}, "feature": {"sight_features": "", "sight_content": ""}}, {"title": "朝阳镇基督教会", "address": "爱民大街140-3附近", "image": "", "rank": 11, "time": 2, "location": {"lat": 43.880287613219835, "lng": 125.16896743496994}, "feature": {"sight_features": "", "sight_content": ""}}, {"title": "辉南县朝阳镇永胜赞美教堂", "address": "吉林省通化市辉南县朝庆线", "image": "", "rank": 12, "time": 2, "location": {"lat": 42.70222710989157, "lng": 126.09157485062121}, "feature": {"sight_features": "", "sight_content": ""}}, {"title": "得胜基督教堂", "address": "吉林省通化市辉南县辉南大路273号", "image": "", "rank": 13, "time": 2, "location": {"lat": 42.62833345042122, "lng": 126.27202781700859}, "feature": {"sight_features": "", "sight_content": ""}}, {"title": "天泰植物园", "address": "吉林省通化市辉南县复兴路", "image": "", "rank": 14, "time": 2, "location": {"lat": 42.69211057081955, "lng": 126.03612910164597}, "feature": {"sight_features": "", "sight_content": ""}}, {"title": "朝阳湖公园", "address": "健康胡同与爱民大街交汇", "image": "", "rank": 15, "time": 2, "location": {"lat": 42.693256070477375, "lng": 126.0436577372437}, "feature": {"sight_features": "", "sight_content": ""}}, {"title": "富强广场", "address": "富强大街与站前路交汇处", "image": "", "rank": 16, "time": 2, "location": {"lat": 42.687016575576116, "lng": 126.03634227493332}, "feature": {"sight_features": "", "sight_content": ""}}, {"title": "贵军生肉", "address": "吉林省通化市辉南县富强大街100", "image": "", "rank": 17, "time": 2, "location": {"lat": 42.684015648613816, "lng": 126.04209947542132}, "feature": {"sight_features": "", "sight_content": ""}}, {"title": "辉南县科技馆", "address": "兴工路97号", "image": "", "rank": 18, "time": 2, "location": {"lat": 42.690532415419995, "lng": 126.05362473511434}, "feature": {"sight_features": "", "sight_content": ""}}, {"title": "文化宫大戏院", "address": "爱民大街261号", "image": "", "rank": 19, "time": 2, "location": {"lat": 43.880287613219835, "lng": 125.16896743496994}, "feature": {"sight_features": "", "sight_content": ""}}, {"title": "开心乐游乐园", "address": "北山公园内", "image": "", "rank": 20, "time": 2, "location": {"lat": 43.851370329732134, "lng": 126.53062103891078}, "feature": {"sight_features": "", "sight_content": ""}}, {"title": "科普画苑", "address": "东前进街农科花园对面", "image": "", "rank": 21, "time": 2, "location": {"lat": 42.688805938380064, "lng": 126.05664332639071}, "feature": {"sight_features": "", "sight_content": ""}}, {"title": "森林经营局（龙湾宾馆）", "address": "辉南大路137号", "image": "", "rank": 22, "time": 2, "location": {"lat": 42.628301428777185, "lng": 126.27207293260624}, "feature": {"sight_features": "", "sight_content": ""}}, {"title": "吉林省辉南县艺术团", "address": "朝阳大街", "image": "", "rank": 23, "time": 4.5, "location": {"lat": 38.2719380123905, "lng": 115.24563992493975}, "feature": {"sight_features": "", "sight_content": ""}}, {"title": "辉南县老干部大学艺术团", "address": "北山路", "image": "", "rank": 24, "time": 2, "location": {"lat": 40.477608834205874, "lng": 124.08008394699814}, "feature": {"sight_features": "", "sight_content": ""}}, {"title": "龙湾火山湖", "address": "吉林省靖宇县城西", "image": "", "rank": 25, "time": 2, "location": {"lat": 42.3947657345783, "lng": 126.81949899257262}, "feature": {"sight_features": "", "sight_content": ""}}, {"title": "土门岭", "address": "通化市-辉南县", "image": "", "rank": 26, "time": 2, "location": {"lat": 42.690699881881976, "lng": 126.05358125712766}, "feature": {"sight_features": "", "sight_content": ""}}, {"title": "龙湾国家自然保护区", "address": "吉林省辉南县境内", "image": "", "rank": 27, "time": 2, "location": {"lat": 42.690699881881976, "lng": 126.05358125712766}, "feature": {"sight_features": "", "sight_content": ""}}, {"title": "大四方顶子", "address": "通化市辉南县金川镇龙湾群国家森林公园", "image": "", "rank": 28, "time": 2, "location": {"lat": 42.35604483050606, "lng": 126.419937784347}, "feature": {"sight_features": "", "sight_content": ""}}]}