{"cityName": "会宁", "days": "", "cityImage": "", "spots": [{"title": "红军会宁会师旧址", "address": "白银市会宁县会师镇会师北路7号", "image": "", "rank": 1, "time": 2, "location": {"lat": 35.696504038709335, "lng": 105.05874691390785}, "feature": {"sight_features": "", "sight_content": ""}}, {"title": "红军长征胜利景园", "address": "白银市会宁县瑞金路", "image": "", "rank": 2, "time": 2, "location": {"lat": 35.689414272590504, "lng": 105.07263604119446}, "feature": {"sight_features": "特色1 瞻仰革命遗迹，享受登山览胜的乐趣", "sight_content": "长征胜利景园由清华大学建筑学院设计，中央军委原副主席刘华清题写了园名。\n景园主要由入口剑形标志、毛泽东《长征》诗碑、景园大门、瑞金塔、红军长征门、遵义会址、强渡嘉陵江、赤水河、泸定桥、懋功会师桥、草地宿营、甘孜会师、 岷山栈道、俄界会议会址、天险腊子口、哈达铺纪念馆、榜罗镇会议会址、六盘山长征纪念亭、延安宝塔、红军会师广场等20个景点组成。\n长征胜利景园利用桃花山山形地貌和自然风景，采用摹拟与微缩相结合的手法，形象、逼真、生动地再现了红军二万五千里征程的千难万险、雄奇壮观，使参观者既可以满足瞻仰革命遗迹的渴望，又可享受登山览胜的乐趣。"}}, {"title": "长征会师旧址", "address": "甘肃省会宁县会师镇 730700", "image": "", "rank": 3, "time": 2, "location": {"lat": 35.681129128865074, "lng": 105.03357173131269}, "feature": {"sight_features": "", "sight_content": ""}}, {"title": "牛门洞新石器遗址", "address": "甘肃省会宁县头寨子镇牛门洞村 730700", "image": "", "rank": 4, "time": 2, "location": {"lat": 35.942252812191114, "lng": 104.76095053283787}, "feature": {"sight_features": "", "sight_content": ""}}, {"title": "会宁祖厉人家农家乐", "address": "甘肃省白银市会宁县王家咀", "image": "", "rank": 5, "time": 2, "location": {"lat": 35.77350070392701, "lng": 104.98582655001655}, "feature": {"sight_features": "", "sight_content": ""}}, {"title": "华藏寺", "address": "甘肃天祝县", "image": "", "rank": 6, "time": 1.0, "location": {"lat": 36.97759617654046, "lng": 103.14862131965808}, "feature": {"sight_features": "", "sight_content": ""}}, {"title": "阳屲山遗址", "address": "甘肃省白银市会宁县", "image": "", "rank": 7, "time": 2, "location": {"lat": 35.69850805309429, "lng": 105.0596069327387}, "feature": {"sight_features": "", "sight_content": ""}}, {"title": "红军长征胜利纪念馆", "address": "白银市会宁县会师南路22号", "image": "", "rank": 8, "time": 2, "location": {"lat": 35.695656710104195, "lng": 105.06214320851556}, "feature": {"sight_features": "", "sight_content": ""}}, {"title": "会宁县万寿寺", "address": "白银市会宁县", "image": "", "rank": 9, "time": 2, "location": {"lat": 35.69850805309429, "lng": 105.0596069327387}, "feature": {"sight_features": "", "sight_content": ""}}, {"title": "玄帝宫", "address": "白银市会宁县会师北路", "image": "", "rank": 10, "time": 0.75, "location": {"lat": 35.6997888402454, "lng": 105.05676960424304}, "feature": {"sight_features": "", "sight_content": ""}}, {"title": "会宁县南关清真寺", "address": "会师南路与南关西路交叉口南100米", "image": "", "rank": 11, "time": 2, "location": {"lat": 35.69304944687088, "lng": 105.06364683090531}, "feature": {"sight_features": "", "sight_content": ""}}, {"title": "桃花山游乐园", "address": "瑞金路与遵义东路交叉口西南200米", "image": "", "rank": 12, "time": 2, "location": {"lat": 35.689414272590504, "lng": 105.07263604119446}, "feature": {"sight_features": "", "sight_content": ""}}, {"title": "会宁牡丹园", "address": "207省道附近", "image": "", "rank": 13, "time": 1.0, "location": {"lat": 41.663861161619536, "lng": 118.91663300242887}, "feature": {"sight_features": "", "sight_content": ""}}, {"title": "洪宇广场", "address": "甘肃省白银市会宁县河畔镇", "image": "", "rank": 14, "time": 2, "location": {"lat": 36.12621571335312, "lng": 104.97443499411565}, "feature": {"sight_features": "", "sight_content": ""}}, {"title": "会宁县图书馆", "address": "会师镇北大街", "image": "", "rank": 15, "time": 2, "location": {"lat": 35.70354321465989, "lng": 105.05203923163094}, "feature": {"sight_features": "", "sight_content": ""}}, {"title": "铁木山", "address": "甘肃省会宁县头寨子镇香林村", "image": "", "rank": 16, "time": 2, "location": {"lat": 36.0607080964789, "lng": 104.7546371860188}, "feature": {"sight_features": "", "sight_content": ""}}]}