{"cityName": "惠水", "days": 2, "cityImage": "", "spots": [{"title": "涟江公园", "address": "黔南惠水县", "image": "", "rank": 1, "time": 2, "location": {"lat": 26.138209889396155, "lng": 106.6634526270886}, "feature": {"sight_features": "", "sight_content": ""}}, {"title": "好花红村（辉岩寨）", "address": "黔南布依族苗族自治州惠水县好花红村", "image": "", "rank": 2, "time": 2, "location": {"lat": 26.138209889396155, "lng": 106.6634526270886}, "feature": {"sight_features": "", "sight_content": ""}}, {"title": "千户布依寨", "address": "黔南布依族苗族自治州惠水县好花红村", "image": "", "rank": 3, "time": 2, "location": {"lat": 26.138209889396155, "lng": 106.6634526270886}, "feature": {"sight_features": "", "sight_content": ""}}, {"title": "天主教教堂", "address": "黔南惠水县", "image": "", "rank": 4, "time": 1.0, "location": {"lat": 26.138209889396155, "lng": 106.6634526270886}, "feature": {"sight_features": "", "sight_content": ""}}, {"title": "涟江燕子洞", "address": "", "image": "", "rank": 5, "time": 1.0, "location": {"lat": 30.290640555729922, "lng": 117.39339930894977}, "feature": {"sight_features": "", "sight_content": ""}}, {"title": "九龙景区", "address": "黔南布依族苗族自治州惠水县九龙山景区", "image": "", "rank": 6, "time": 2.5, "location": {"lat": 26.138209889396155, "lng": 106.6634526270886}, "feature": {"sight_features": "", "sight_content": ""}}, {"title": "龙摆尾生态休闲园", "address": "黔南布依族苗族自治州惠水县", "image": "", "rank": 7, "time": 2, "location": {"lat": 26.138209889396155, "lng": 106.6634526270886}, "feature": {"sight_features": "", "sight_content": ""}}, {"title": "九龙禅寺", "address": "黔南布依族苗族自治州惠水县九龙山", "image": "", "rank": 8, "time": 2, "location": {"lat": 26.14810297444165, "lng": 106.60091234238584}, "feature": {"sight_features": "", "sight_content": ""}}, {"title": "野梅岭森林公园", "address": "烂坝村", "image": "", "rank": 9, "time": 2, "location": {"lat": 30.408397589092104, "lng": 103.48596834153497}, "feature": {"sight_features": "", "sight_content": ""}}, {"title": "东山生态园", "address": "黔南惠水县，309省道附近", "image": "", "rank": 10, "time": 2, "location": {"lat": 26.070011304523543, "lng": 106.57833584445198}, "feature": {"sight_features": "", "sight_content": ""}}, {"title": "八角庙", "address": "黔南布依族苗族自治州惠水县太阳乡硐口村", "image": "", "rank": 11, "time": 2, "location": {"lat": 25.926744841206247, "lng": 106.75893303103443}, "feature": {"sight_features": "", "sight_content": ""}}, {"title": "山王庙", "address": "黔南惠水县", "image": "", "rank": 12, "time": 2, "location": {"lat": 26.138209889396155, "lng": 106.6634526270886}, "feature": {"sight_features": "", "sight_content": ""}}, {"title": "2426密室逃脱", "address": "涟江中路23号", "image": "", "rank": 13, "time": 2, "location": {"lat": 26.13546066101619, "lng": 106.66969084981355}, "feature": {"sight_features": "", "sight_content": ""}}, {"title": "涟江垂钓园", "address": "高镇镇高镇村", "image": "", "rank": 14, "time": 2, "location": {"lat": 26.191254506947704, "lng": 106.68592021715739}, "feature": {"sight_features": "", "sight_content": ""}}, {"title": "惠水县城南白果苑生态农庄", "address": "贵惠布依山庄附近", "image": "", "rank": 15, "time": 2, "location": {"lat": 26.4375777735182, "lng": 106.67037658360121}, "feature": {"sight_features": "", "sight_content": ""}}, {"title": "世外竹园休闲山庄", "address": "005乡道北", "image": "", "rank": 16, "time": 2, "location": {"lat": 42.08321631584341, "lng": 117.86149951990792}, "feature": {"sight_features": "", "sight_content": ""}}, {"title": "喜洋洋草莓园", "address": "101省道南50米", "image": "", "rank": 17, "time": 2, "location": {"lat": 41.03207910565533, "lng": 111.82384508727836}, "feature": {"sight_features": "", "sight_content": ""}}, {"title": "燕子洞景区", "address": "贵州省惠水县断杉镇 550605", "image": "", "rank": 18, "time": 2, "location": {"lat": 25.842895869855656, "lng": 106.58682959253767}, "feature": {"sight_features": "", "sight_content": ""}}, {"title": "贵大·惠水校县联合农业科技馆", "address": "贵州省惠水县S101省道", "image": "", "rank": 19, "time": 2, "location": {"lat": 26.138209889396155, "lng": 106.6634526270886}, "feature": {"sight_features": "", "sight_content": ""}}, {"title": "基督教会", "address": "惠民西路与长征路交叉口东南100米", "image": "", "rank": 20, "time": 2, "location": {"lat": 26.137991160324766, "lng": 106.66706077177845}, "feature": {"sight_features": "", "sight_content": ""}}, {"title": "人民广场", "address": "黔南布依族苗族自治州惠水县县府路1号", "image": "", "rank": 21, "time": 1.5, "location": {"lat": 26.13958227621317, "lng": 106.6663610708373}, "feature": {"sight_features": "", "sight_content": ""}}, {"title": "金田度假城", "address": "黔南布依族苗族自治州惠水县", "image": "", "rank": 22, "time": 2, "location": {"lat": 26.138209889396155, "lng": 106.6634526270886}, "feature": {"sight_features": "", "sight_content": ""}}, {"title": "喷泉广场", "address": "贵州省黔南布依族苗族自治州惠水县涟江中路涟江公园内", "image": "", "rank": 23, "time": 2, "location": {"lat": 26.135010397755423, "lng": 106.67022190886703}, "feature": {"sight_features": "", "sight_content": ""}}, {"title": "都美·国际欢乐岛", "address": "黔南布依族苗族自治州惠水县涟江中路", "image": "", "rank": 24, "time": 2, "location": {"lat": 26.137910567435252, "lng": 106.67303054458546}, "feature": {"sight_features": "", "sight_content": ""}}, {"title": "爱燕广场", "address": "羡塘乡984县道羡塘镇中心小学", "image": "", "rank": 25, "time": 2, "location": {"lat": 25.7263961920631, "lng": 106.83904144065781}, "feature": {"sight_features": "", "sight_content": ""}}, {"title": "惠水县图书馆", "address": "栖凤路96号", "image": "", "rank": 26, "time": 2, "location": {"lat": 30.676781356124433, "lng": 120.63706638295157}, "feature": {"sight_features": "", "sight_content": ""}}, {"title": "长新农家乐", "address": "上马路西100米", "image": "", "rank": 27, "time": 2, "location": {"lat": 31.61439050981134, "lng": 120.06780100329114}, "feature": {"sight_features": "", "sight_content": ""}}, {"title": "鲟味鱼文化主题馆", "address": "惠水高镇镇姚新村险峰机械厂旁", "image": "", "rank": 28, "time": 2, "location": {"lat": 26.181724505261755, "lng": 106.67692507625824}, "feature": {"sight_features": "", "sight_content": ""}}, {"title": "惠水县车鲁班", "address": "黔南布依族苗族自治州-惠水县-和平镇嘉禾中央城二期下沉式广场", "image": "", "rank": 29, "time": 2, "location": {"lat": 26.12626509097094, "lng": 106.65762833575721}, "feature": {"sight_features": "", "sight_content": ""}}]}