{"cityName": "会同", "days": 2, "cityImage": "", "spots": [{"title": "高椅古村", "address": "怀化市会同县高椅古乡高椅古村", "image": "", "rank": 1, "time": 2, "location": {"lat": 26.95810877108793, "lng": 110.02482099149307}, "feature": {"sight_features": "", "sight_content": ""}}, {"title": "粟裕故居", "address": "怀化市会同县（069县道南）", "image": "", "rank": 2, "time": 2.5, "location": {"lat": 26.893383817273584, "lng": 109.74158556791785}, "feature": {"sight_features": "", "sight_content": ""}}, {"title": "坪村影剧院", "address": "湖南省怀化市会同县", "image": "", "rank": 3, "time": 2, "location": {"lat": 26.893383817273584, "lng": 109.74158556791785}, "feature": {"sight_features": "", "sight_content": ""}}, {"title": "会同县图书馆", "address": "林城大道与李园路交界", "image": "", "rank": 4, "time": 2, "location": {"lat": 26.877486464531607, "lng": 109.72374149252772}, "feature": {"sight_features": "", "sight_content": ""}}, {"title": "青山禅寺", "address": "湖南省怀化市会同县林城镇大冲村6组", "image": "", "rank": 5, "time": 2.0, "location": {"lat": 26.84036245799778, "lng": 109.67342435567481}, "feature": {"sight_features": "", "sight_content": ""}}, {"title": "朗江水上乐园", "address": "湖南省怀化市会同县青朗乡坡脚村马路头", "image": "", "rank": 6, "time": 2, "location": {"lat": 26.95743154773613, "lng": 109.63199640009462}, "feature": {"sight_features": "", "sight_content": ""}}, {"title": "下寨家祠", "address": "怀化市会同县高椅古村内", "image": "", "rank": 7, "time": 2, "location": {"lat": 26.95810877108793, "lng": 110.02482099149307}, "feature": {"sight_features": "", "sight_content": ""}}, {"title": "儿童成长主题乐园", "address": "希望路与林城大道交叉口南150米", "image": "", "rank": 8, "time": null, "location": {"lat": 26.880089938061744, "lng": 109.72368490916197}, "feature": {"sight_features": "", "sight_content": ""}}, {"title": "火车站广场", "address": "怀化市会同县将军北路", "image": "", "rank": 9, "time": 2, "location": {"lat": 26.89524658704409, "lng": 109.74390940701713}, "feature": {"sight_features": "", "sight_content": ""}}, {"title": "粟裕纪念碑", "address": "将军南路", "image": "", "rank": 10, "time": 2, "location": {"lat": 30.016771311763446, "lng": 115.74342963335884}, "feature": {"sight_features": "", "sight_content": ""}}, {"title": "粟裕公园", "address": "湖南省怀化市会同县将军南路", "image": "", "rank": 11, "time": 2, "location": {"lat": 26.871213086009618, "lng": 109.72388684554564}, "feature": {"sight_features": "", "sight_content": ""}}, {"title": "粟裕同志纪念馆", "address": "湖南省怀化市会同县", "image": "", "rank": 12, "time": 2, "location": {"lat": 26.893383817273584, "lng": 109.74158556791785}, "feature": {"sight_features": "", "sight_content": ""}}, {"title": "鹰嘴界国家级自然保护区", "address": "222省道", "image": "", "rank": 13, "time": 2, "location": {"lat": 36.77202196628758, "lng": 114.17537319703483}, "feature": {"sight_features": "", "sight_content": ""}}, {"title": "尚品轩画廊", "address": "林城镇奥林匹克花园m347号", "image": "", "rank": 14, "time": 2, "location": {"lat": 26.87970776272894, "lng": 109.72101483347518}, "feature": {"sight_features": "", "sight_content": ""}}, {"title": "向警予同志纪念馆", "address": "湖南省溆浦县卢峰镇解放街", "image": "", "rank": 15, "time": 1.0, "location": {"lat": 27.913351109965095, "lng": 110.60031586904786}, "feature": {"sight_features": "", "sight_content": ""}}, {"title": "粟裕纪念碑 Su Yu Monument", "address": "湖南省会同县粟裕公园内", "image": "", "rank": 16, "time": 2, "location": {"lat": 26.86967399856881, "lng": 109.7241575211652}, "feature": {"sight_features": "", "sight_content": ""}}, {"title": "诸葛井", "address": "湖南省会同县魏家巷", "image": "", "rank": 17, "time": 2, "location": {"lat": 26.893383817273584, "lng": 109.74158556791785}, "feature": {"sight_features": "", "sight_content": ""}}]}