{"cityName": "徽县", "days": 2, "cityImage": "", "spots": [{"title": "月亮峡", "address": "甘肃陇南徽县嘉陵镇", "image": "", "rank": 1, "time": 2, "location": {"lat": 33.70382192101488, "lng": 106.20803167565835}, "feature": {"sight_features": "", "sight_content": ""}}, {"title": "三滩漂流", "address": "陇南市徽县嘉陵镇严坪村三滩景区内", "image": "", "rank": 2, "time": 2, "location": {"lat": 33.66637381614202, "lng": 106.22613788738184}, "feature": {"sight_features": "", "sight_content": ""}}, {"title": "新修白水路记摩崖石刻", "address": "甘肃省徽县大河店乡瓦泉村 742313", "image": "", "rank": 3, "time": 2, "location": {"lat": 33.629793540367956, "lng": 106.06502435616615}, "feature": {"sight_features": "", "sight_content": ""}}, {"title": "黄沙河大桥", "address": "甘肃省徽县境内 742308", "image": "", "rank": 4, "time": 2, "location": {"lat": 33.77519418708969, "lng": 106.0944178700463}, "feature": {"sight_features": "", "sight_content": ""}}, {"title": "东河沿清真寺", "address": "甘肃省陇南市徽县城关镇G316(旧)正德医院", "image": "", "rank": 5, "time": 2, "location": {"lat": 33.77874042246354, "lng": 106.0856561268818}, "feature": {"sight_features": "", "sight_content": ""}}, {"title": "泰山庙", "address": "甘肃省陇南市徽县水阳乡泰山庙", "image": "", "rank": 6, "time": 1.0, "location": {"lat": 33.731589470730626, "lng": 106.10988117173908}, "feature": {"sight_features": "", "sight_content": ""}}, {"title": "江洛镇清真寺", "address": "甘肃省陇南市徽县江洛镇政府附近", "image": "", "rank": 7, "time": 2, "location": {"lat": 33.89513611460875, "lng": 105.8361531719437}, "feature": {"sight_features": "", "sight_content": ""}}, {"title": "河池度假村", "address": "甘肃省陇南市徽县G316(福兰线)", "image": "", "rank": 8, "time": 2, "location": {"lat": 33.77519418708969, "lng": 106.0944178700463}, "feature": {"sight_features": "", "sight_content": ""}}, {"title": "东关清真寺", "address": "甘肃省陇南市徽县城关镇G316(旧)东关回民小学附近", "image": "", "rank": 9, "time": 2, "location": {"lat": 33.77693467820905, "lng": 106.09565927705766}, "feature": {"sight_features": "", "sight_content": ""}}, {"title": "石咀山庄", "address": "316国道附近", "image": "", "rank": 10, "time": 2, "location": {"lat": 26.297698208697987, "lng": 118.8318521786658}, "feature": {"sight_features": "", "sight_content": ""}}, {"title": "伊和苑休闲山庄", "address": "316国道", "image": "", "rank": 11, "time": 2, "location": {"lat": 26.297698208697987, "lng": 118.8318521786658}, "feature": {"sight_features": "", "sight_content": ""}}, {"title": "徽县档案馆", "address": "西街9号", "image": "", "rank": 12, "time": 1.0, "location": {"lat": 33.774400778316995, "lng": 106.09147335933041}, "feature": {"sight_features": "", "sight_content": ""}}, {"title": "河池书画院", "address": "建新路", "image": "", "rank": 13, "time": 1.5, "location": {"lat": 32.20343457332961, "lng": 119.44787326885199}, "feature": {"sight_features": "", "sight_content": ""}}, {"title": "春光画廊", "address": "城关镇北街48号", "image": "", "rank": 14, "time": 2, "location": {"lat": 35.1695275488743, "lng": 114.21002533208222}, "feature": {"sight_features": "", "sight_content": ""}}, {"title": "飞天画廊", "address": "北街48号", "image": "", "rank": 15, "time": 2, "location": {"lat": 33.77622767018835, "lng": 106.09084369208318}, "feature": {"sight_features": "", "sight_content": ""}}, {"title": "三滩诚信农家乐", "address": "嘉陵镇上滩村三滩景区", "image": "", "rank": 16, "time": null, "location": {"lat": 33.66637381614202, "lng": 106.22613788738184}, "feature": {"sight_features": "", "sight_content": ""}}, {"title": "银杏休闲园", "address": "嘉陵镇田河村", "image": "", "rank": 17, "time": 2, "location": {"lat": 33.742957206807525, "lng": 106.18466261534185}, "feature": {"sight_features": "", "sight_content": ""}}, {"title": "道口香休闲园", "address": "316国道西50米", "image": "", "rank": 18, "time": 2, "location": {"lat": 26.297698208697987, "lng": 118.83140302591096}, "feature": {"sight_features": "", "sight_content": ""}}, {"title": "龙床沟", "address": "陇南市-徽县", "image": "", "rank": 19, "time": 2, "location": {"lat": 33.77519418708969, "lng": 106.0944178700463}, "feature": {"sight_features": "", "sight_content": ""}}]}