{"cityName": "会泽", "days": 2, "cityImage": "", "spots": [{"title": "大海草山", "address": "曲靖市会泽县大海乡东南部", "image": "", "rank": 1, "time": 2.5, "location": {"lat": 26.22749041988024, "lng": 103.27359160640934}, "feature": {"sight_features": "特色1 全国108个绝美地标之一", "sight_content": "﻿大海草山属亚热带高山草甸，有云南的“新西兰”之美誉，乌蒙山最高峰，曾被南诏国王以降云弄山之名封为“东岳”，又因“集合蒙古风情、西藏景观于一体”的神奇兼得之美，被《国家人文地理》杂志推荐为全国108个绝美地标之一。\n会泽大海草山位于云南省曲靖市会泽县大海乡东南部，距县城40公里（昆明出发约3小时直达），海拔在3300-4017米之间，最高峰牯牛寨海拔为4017米。草山地势平缓，广阔无垠，近20万亩，全为“天然”草甸，是曲靖最高峰，乌蒙最高峰（这里所说的乌蒙即是毛泽东著名诗句“乌蒙磅礴走泥丸”中的乌蒙山系）。\n大海草土著是彝族，他们以省内外绝无仅有的“石板房”居住。石板房以天然石材塑造，青石为墙，石板为顶，房子的整体构造让你似乎看到那历经千万年风雨后的岩石化石般，最后，与岩石房子一样让人赞叹的便是当地淳朴的民风和独特的文化。"}}, {"title": "会泽古镇", "address": "曲靖市会泽县", "image": "", "rank": 2, "time": null, "location": {"lat": 26.424215045560672, "lng": 103.3034872919241}, "feature": {"sight_features": "", "sight_content": ""}}, {"title": "会泽雨碌大地缝", "address": "曲靖市会泽县雨碌乡", "image": "", "rank": 3, "time": 2.5, "location": {"lat": 26.374334008075394, "lng": 103.62037124924697}, "feature": {"sight_features": "特色1 天下第一缝", "sight_content": "﻿位于云南省曲靖市会泽县雨碌乡境内，景区距会泽县城60公里，距昆明200公里，路况较好，能方便快捷的到达景区。\n景区因上亿年的地壳变化，山字性地层错落而形成，是大自然鬼斧神工的精品力作，地缝全长10余公里，出入口海拔落差300多米，最宽处不到20米、最窄处仅为0.7米，至今没有人能全程穿越，素有“天下第一缝”的美称。地缝深幽奇险，移步换景，集雄、奇、险、峻、幽、秀、于一身，景区由‘生命之门“、“大思想者”、一线天“、”神泉“、”生命之根“等景观，\n进入景区，抬头一线天，低头水潺潺，两旁悬崖绝壁高耸如云，在加之洞内千奇百怪的石芽，石峰、石柱、和崖壁上的奇树怪石，真有恍若隔世之感。"}}, {"title": "唐继尧故居", "address": "曲靖市会泽县金钟镇三道巷29号", "image": "", "rank": 4, "time": 1.0, "location": {"lat": 26.420754253123672, "lng": 103.30413253399205}, "feature": {"sight_features": "", "sight_content": ""}}, {"title": "江西会馆", "address": "曲靖市会泽县金钟镇三道巷49号", "image": "", "rank": 5, "time": 1.0, "location": {"lat": 26.420635360088507, "lng": 103.30354472239193}, "feature": {"sight_features": "", "sight_content": ""}}, {"title": "金钟山森林公园", "address": "曲靖市会泽县金钟镇", "image": "", "rank": 6, "time": 2.5, "location": {"lat": 26.417472456418707, "lng": 103.31333946029645}, "feature": {"sight_features": "", "sight_content": ""}}, {"title": "万亩草山", "address": "云南省曲靖市会泽县", "image": "", "rank": 7, "time": 2, "location": {"lat": 26.424215045560672, "lng": 103.3034872919241}, "feature": {"sight_features": "", "sight_content": ""}}, {"title": "会泽公园", "address": "云南省曲靖市会泽县 303省道", "image": "", "rank": 8, "time": 3.0, "location": {"lat": 26.500349583511014, "lng": 103.11527306390798}, "feature": {"sight_features": "", "sight_content": ""}}, {"title": "以礼河景区", "address": "云南省会泽县会泽县境内", "image": "", "rank": 9, "time": 3.5, "location": {"lat": 26.424215045560672, "lng": 103.3034872919241}, "feature": {"sight_features": "", "sight_content": ""}}, {"title": "白雾村", "address": "云南省会泽县娜姑镇", "image": "", "rank": 10, "time": 2, "location": {"lat": 26.52008958261811, "lng": 103.15511607619604}, "feature": {"sight_features": "", "sight_content": ""}}, {"title": "大桥国家级黑颈鹤自然保护区", "address": "云南省曲靖市会泽县025乡道", "image": "", "rank": 11, "time": 2, "location": {"lat": 26.70046610260346, "lng": 103.2753682633684}, "feature": {"sight_features": "", "sight_content": ""}}, {"title": "会泽红色文化展览馆", "address": "云南省曲靖市会泽县 二道巷", "image": "", "rank": 12, "time": 3.5, "location": {"lat": 26.420118431701248, "lng": 103.30375352452462}, "feature": {"sight_features": "", "sight_content": ""}}, {"title": "大海梁子", "address": "云南省会泽县乌蒙山主峰", "image": "", "rank": 13, "time": 2, "location": {"lat": 26.424215045560672, "lng": 103.3034872919241}, "feature": {"sight_features": "", "sight_content": ""}}, {"title": "会泽会馆", "address": "云南省会泽县白龙路401号", "image": "", "rank": 14, "time": 2, "location": {"lat": 26.424215045560672, "lng": 103.3034872919241}, "feature": {"sight_features": "", "sight_content": ""}}, {"title": "杨梅山观鸟", "address": "云南省会泽县大桥乡大桥村", "image": "", "rank": 15, "time": 2, "location": {"lat": 26.68835643345364, "lng": 103.34026557866072}, "feature": {"sight_features": "", "sight_content": ""}}, {"title": "水城扩红生态园", "address": "金钟镇水城村", "image": "", "rank": 16, "time": 1.0, "location": {"lat": 26.439985729549733, "lng": 103.27535299217475}, "feature": {"sight_features": "", "sight_content": ""}}, {"title": "会泽县图书馆", "address": "西内街26会泽县海泓百货有限责任公司附近", "image": "", "rank": 17, "time": 2, "location": {"lat": 26.41924163751349, "lng": 103.3053268545231}, "feature": {"sight_features": "", "sight_content": ""}}, {"title": "丁丁乐园", "address": "曲靖市会泽县南内街82号", "image": "", "rank": 18, "time": 2, "location": {"lat": 26.418894329210932, "lng": 103.30621330689158}, "feature": {"sight_features": "", "sight_content": ""}}, {"title": "大桥乡", "address": "云南会泽县县城西北", "image": "", "rank": 19, "time": 2, "location": {"lat": 26.424215045560672, "lng": 103.3034872919241}, "feature": {"sight_features": "", "sight_content": ""}}, {"title": "上村清真寺", "address": "上村乡大松树村", "image": "", "rank": 20, "time": 2, "location": {"lat": 26.13066324212156, "lng": 103.57655385041784}, "feature": {"sight_features": "", "sight_content": ""}}, {"title": "金钟基督教堂", "address": "北外街与灯草巷交叉口东北100米", "image": "", "rank": 21, "time": 2, "location": {"lat": 26.42152770411133, "lng": 103.30661541538689}, "feature": {"sight_features": "", "sight_content": ""}}, {"title": "云峰寺", "address": "云锋村", "image": "", "rank": 22, "time": 2, "location": {"lat": 28.816787139197597, "lng": 105.35249134762797}, "feature": {"sight_features": "", "sight_content": ""}}, {"title": "童天儿童游乐城", "address": "303省道会泽公园附近", "image": "", "rank": 23, "time": 2, "location": {"lat": 26.42590710435465, "lng": 103.30244471136311}, "feature": {"sight_features": "", "sight_content": ""}}, {"title": "马店清真寺", "address": "新街乡马店清真寺", "image": "", "rank": 24, "time": 2, "location": {"lat": 26.41368474298385, "lng": 103.55994262028887}, "feature": {"sight_features": "", "sight_content": ""}}, {"title": "鑫乐园", "address": "213国道", "image": "", "rank": 25, "time": 2, "location": {"lat": 24.055864840380938, "lng": 102.20969505158318}, "feature": {"sight_features": "", "sight_content": ""}}, {"title": "牿牛寨休闲山庄", "address": "207省道", "image": "", "rank": 26, "time": 2, "location": {"lat": 41.663861161619536, "lng": 118.91663300242887}, "feature": {"sight_features": "", "sight_content": ""}}, {"title": "堂琅古乐园", "address": "二道巷19号", "image": "", "rank": 27, "time": 2, "location": {"lat": 26.41993711717707, "lng": 103.30319594898967}, "feature": {"sight_features": "", "sight_content": ""}}, {"title": "欣欣游乐园", "address": "二道巷65号", "image": "", "rank": 28, "time": 2, "location": {"lat": 26.419496276307452, "lng": 103.3015487486342}, "feature": {"sight_features": "", "sight_content": ""}}, {"title": "洞经音乐园", "address": "二道巷30号", "image": "", "rank": 29, "time": 2, "location": {"lat": 26.42024137727173, "lng": 103.30352039448212}, "feature": {"sight_features": "", "sight_content": ""}}, {"title": "火红革命烈士纪念馆", "address": "火红乡政府附近", "image": "", "rank": 30, "time": 2, "location": {"lat": 26.827537859866606, "lng": 103.6626131163308}, "feature": {"sight_features": "", "sight_content": ""}}, {"title": "唐继饶故居", "address": "二道巷", "image": "", "rank": 31, "time": 2, "location": {"lat": 41.085800382665724, "lng": 113.98067960988939}, "feature": {"sight_features": "", "sight_content": ""}}, {"title": "墨眉星罗真人密室逃脱", "address": "东直街好望角二楼", "image": "", "rank": 32, "time": 2, "location": {"lat": 39.88698109318977, "lng": 116.33549486025275}, "feature": {"sight_features": "", "sight_content": ""}}, {"title": "铜都画廊", "address": "东直街96号附近", "image": "", "rank": 33, "time": 2, "location": {"lat": 29.583580077167554, "lng": 120.93075781194976}, "feature": {"sight_features": "", "sight_content": ""}}, {"title": "会泽县马路乡农业综合服务中心", "address": "马路乡马路村", "image": "", "rank": 34, "time": 2, "location": {"lat": 26.216554297213232, "lng": 106.2996264361703}, "feature": {"sight_features": "", "sight_content": ""}}, {"title": "会泽古城", "address": "云南省会泽县钟屏镇南北街村", "image": "", "rank": 35, "time": 1.5, "location": {"lat": 26.419720133815275, "lng": 103.30521763584431}, "feature": {"sight_features": "", "sight_content": ""}}, {"title": "会泽县步行街", "address": "云南省会泽县堂琅街", "image": "", "rank": 36, "time": 2, "location": {"lat": 26.417116050443457, "lng": 103.30362141791976}, "feature": {"sight_features": "", "sight_content": ""}}, {"title": "丁家弯", "address": "曲靖市-会泽县-二四四乡道", "image": "", "rank": 37, "time": 2, "location": {"lat": 26.336456653678106, "lng": 103.75534996499577}, "feature": {"sight_features": "", "sight_content": ""}}, {"title": "刮爬山", "address": "曲靖市-会泽县-大海草山", "image": "", "rank": 38, "time": 2, "location": {"lat": 26.25255299557876, "lng": 103.25087578039262}, "feature": {"sight_features": "", "sight_content": ""}}, {"title": "会泽黑颈鹤保护区", "address": "云南省会泽县大桥乡", "image": "", "rank": 39, "time": 2, "location": {"lat": 26.6742495298196, "lng": 103.3310376194311}, "feature": {"sight_features": "", "sight_content": ""}}, {"title": "念湖", "address": "云南省曲靖市会泽县025乡道", "image": "", "rank": 40, "time": 2, "location": {"lat": 26.70046610260346, "lng": 103.2753682633684}, "feature": {"sight_features": "", "sight_content": ""}}]}