{"cityName": "湖口", "days": 2, "cityImage": "", "spots": [{"title": "石钟山", "address": "九江市湖口县双中镇", "image": "", "rank": 1, "time": 1.5, "location": {"lat": 29.737131514561977, "lng": 116.25847134558812}, "feature": {"sight_features": "特色1 远可眺庐山烟云，近可睹江湖清浊 特色2 \" 石钟山鄱湖长江，湖光山色，素有“小蓬莱”之雅称。中国千古奇音第一一山，被联合国列为世界文化景观。集风光、古迹、名胜、园林于一身，堪称世界之最 苏轼在此写下了千古名篇《石钟山记》，石钟山名场四海 \" 特色3 周围自然环境优美，后山，上树木茂密，古树参天", "sight_content": "登临山上，既可远眺庐山烟云，又可近睹江湖清浊。（因为水的密度，高低，流向不同，所以江和湖不会混成一体）如在月色之夜，可谓“湖光影玉壁，长天一月空”。自古以来，文人雅士络绎不绝来此山赏景。\n\n如唐代李勃，宋代苏拭、陆游，元代文天祥，明代朱元璋，清代曾国藩等。郭沫若留诗《登湖口石钟山》于此。石钟山从唐代起就有建筑，经历代兴废，现仍存怀苏亭、半山亭、绀园、船厅、江天一览亭、钟石、极慈禅林、听涛眺雨轩、芸芍斋、石钟洞、同根树 等景点，但多为清代重建。"}}, {"title": "鞋山", "address": "九江市湖口县石钟山南侧九公里的鄱阳湖中", "image": "", "rank": 2, "time": 2, "location": {"lat": 29.678984717567335, "lng": 116.22923400572375}, "feature": {"sight_features": "", "sight_content": ""}}, {"title": "休闲钓鱼", "address": "湖口兰亭汪榜", "image": "", "rank": 3, "time": 2, "location": {"lat": 29.66938900119588, "lng": 116.26621967976186}, "feature": {"sight_features": "", "sight_content": ""}}, {"title": "姜太公休闲垂钓中心", "address": "301省道", "image": "", "rank": 4, "time": 2, "location": {"lat": 38.13474737719127, "lng": 114.42863974573754}, "feature": {"sight_features": "", "sight_content": ""}}, {"title": "湖口县鑫隆中药材种植专业合作社", "address": "254县道与306省道交叉口南200米", "image": "", "rank": 5, "time": 2, "location": {"lat": 36.99321345239428, "lng": 114.34034700394227}, "feature": {"sight_features": "", "sight_content": ""}}, {"title": "坝场垂钓中心", "address": "马影镇杭瑞高速公路坝场垂钓中心", "image": "", "rank": 6, "time": 2, "location": {"lat": 29.694024407179214, "lng": 116.29645493553896}, "feature": {"sight_features": "", "sight_content": ""}}, {"title": "鄱阳湖口国家森林公园", "address": "江西省九江市星子县境内 332500", "image": "", "rank": 7, "time": 2, "location": {"lat": 29.360271442186413, "lng": 115.964882561425}, "feature": {"sight_features": "", "sight_content": ""}}, {"title": "茗湖螃蟹", "address": "江西省九江市湖口县S301(台山大道)", "image": "", "rank": 8, "time": 2, "location": {"lat": 29.737752552964952, "lng": 116.25959594862859}, "feature": {"sight_features": "", "sight_content": ""}}, {"title": "长安公园", "address": "南门路南50米", "image": "", "rank": 9, "time": 2.5, "location": {"lat": 37.87584627729858, "lng": 112.50933231485321}, "feature": {"sight_features": "", "sight_content": ""}}, {"title": "湖口水上游乐园", "address": "江西省九江市湖口县双钟镇景湖路联想专卖店", "image": "", "rank": 10, "time": 1.5, "location": {"lat": 29.746004231144617, "lng": 116.23415565722138}, "feature": {"sight_features": "", "sight_content": ""}}, {"title": "大佛寺", "address": "江西省九江市湖口县三里大道", "image": "", "rank": 11, "time": 1.5, "location": {"lat": 29.73499214804857, "lng": 116.26174611832366}, "feature": {"sight_features": "", "sight_content": ""}}, {"title": "蔡祠堂", "address": "九江市湖口县二六五县道", "image": "", "rank": 12, "time": 2, "location": {"lat": 29.579259483513663, "lng": 116.28371238295189}, "feature": {"sight_features": "", "sight_content": ""}}, {"title": "洋港森林公园", "address": "江西省九江市湖口县洋港路", "image": "", "rank": 13, "time": 2, "location": {"lat": 29.747897033110586, "lng": 116.24140826599117}, "feature": {"sight_features": "", "sight_content": ""}}, {"title": "城山镇体育公园", "address": "九江市湖口县", "image": "", "rank": 14, "time": 2, "location": {"lat": 29.737131514561977, "lng": 116.25847134558812}, "feature": {"sight_features": "", "sight_content": ""}}, {"title": "流泗镇市民休闲广场", "address": "江西省九江市湖口县流泗镇流泗新街（客多购物中心门口）", "image": "", "rank": 15, "time": 2, "location": {"lat": 29.79318243916652, "lng": 116.37703734235268}, "feature": {"sight_features": "", "sight_content": ""}}, {"title": "九龙寺", "address": "773乡道附近", "image": "", "rank": 16, "time": 1.0, "location": {"lat": 27.505796932930362, "lng": 114.14718794855915}, "feature": {"sight_features": "", "sight_content": ""}}, {"title": "湖口县城市规划展示馆", "address": "盛源路", "image": "", "rank": 17, "time": 2, "location": {"lat": 29.70569996009233, "lng": 121.43480759885213}, "feature": {"sight_features": "", "sight_content": ""}}, {"title": "湖口县城市建设档案馆", "address": "盛源路", "image": "", "rank": 18, "time": 2, "location": {"lat": 29.70569996009233, "lng": 121.43480759885213}, "feature": {"sight_features": "", "sight_content": ""}}, {"title": "湖口县博物馆", "address": "306省道旁", "image": "", "rank": 19, "time": 2, "location": {"lat": 44.29269479672118, "lng": 120.43504383645545}, "feature": {"sight_features": "", "sight_content": ""}}, {"title": "湖口县博物馆", "address": "三里街双钟镇政府建筑物政府大楼文博中心", "image": "", "rank": 20, "time": 2, "location": {"lat": 31.884245808773972, "lng": 117.2715763393331}, "feature": {"sight_features": "", "sight_content": ""}}, {"title": "江西省湖口县青阳腔剧团", "address": "大中路25号附近", "image": "", "rank": 21, "time": 2, "location": {"lat": 24.4608482308145, "lng": 118.08433802306085}, "feature": {"sight_features": "", "sight_content": ""}}, {"title": "时代茗湖步行街", "address": "江西省湖口县S301省道", "image": "", "rank": 22, "time": 2, "location": {"lat": 29.737131514561977, "lng": 116.25847134558812}, "feature": {"sight_features": "", "sight_content": ""}}]}