{"cityName": "虎林", "days": 2, "cityImage": "", "spots": [{"title": "珍宝岛", "address": "鸡西市虎林市，乌苏里江主航道中国一侧", "image": "", "rank": 1, "time": 1.0, "location": {"lat": 45.76894691288418, "lng": 132.94346566318296}, "feature": {"sight_features": "", "sight_content": ""}}, {"title": "月牙湖", "address": "鸡西市虎林市虎头镇", "image": "", "rank": 2, "time": null, "location": {"lat": 45.99137546756838, "lng": 133.6748946258319}, "feature": {"sight_features": "", "sight_content": ""}}, {"title": "侵华日军虎头要塞遗址博物馆", "address": "鸡西市虎林市", "image": "", "rank": 3, "time": 1.0, "location": {"lat": 45.76894691288418, "lng": 132.94346566318296}, "feature": {"sight_features": "", "sight_content": ""}}, {"title": "乌苏里江", "address": "黑龙江省虎林市虎头镇", "image": "", "rank": 4, "time": 2.5, "location": {"lat": 45.99137546756838, "lng": 133.6748946258319}, "feature": {"sight_features": "", "sight_content": ""}}, {"title": "月亮岛俄罗斯风情水上乐园", "address": "鸡西市虎林市杨岗镇石头河水库风景区（密山兴凯镇东10公里）", "image": "", "rank": 5, "time": 2, "location": {"lat": 45.719824951683655, "lng": 132.2897213193251}, "feature": {"sight_features": "特色1 月亮岛俄罗斯风情水上乐园空气清新，自然风光怡人。 特色2 乐园内的海浪池也是目前黑龙江省内极大的海浪池，拥有国内先进的水处理设备。 特色3 是全国少有一处具有俄罗斯风情的水上风光体验地。", "sight_content": "月亮岛俄罗斯风情水上乐园空气清新，自然风光怡人，拥有目前东北最大的野外露营基地，同时，乐园内的海浪池也是目前黑龙江省内最大的海浪池，拥有国内最先进的水处理设备，是全国唯一一处具有俄罗斯风情的水上风光体验地。\n月亮岛俄罗斯风情水上乐园项目总投资9.5亿元，分三期工程建设，打造集旅游观光、休闲娱乐、养生度假为一体的综合性旅游胜地。建成后，年可接待游客50万人次，将成为黑龙江省较大的全年开放综合性旅游示范区。项目建设初期就配备了省内最大的海浪池，东北最大的野外宿营基地，国内领先的水处理设备，同时依托边陲虎林毗邻俄罗斯的地理位置，打造出具有独特俄罗斯风情的水上乐园。"}}, {"title": "第二次世界大战终结地纪念园", "address": "鸡西市虎林市虎头镇靠近211省道", "image": "", "rank": 6, "time": 2, "location": {"lat": 46.47447006837411, "lng": 133.59346776240488}, "feature": {"sight_features": "", "sight_content": ""}}, {"title": "虎头关帝庙", "address": "鸡西市虎林市虎头村正南", "image": "", "rank": 7, "time": 1.0, "location": {"lat": 45.9890051096041, "lng": 133.67575048191503}, "feature": {"sight_features": "", "sight_content": ""}}, {"title": "乌苏里江国家森林公园", "address": "鸡西市虎林市东部虎头林场施业区内", "image": "", "rank": 8, "time": 1.0, "location": {"lat": 45.76894691288418, "lng": 132.94346566318296}, "feature": {"sight_features": "", "sight_content": ""}}, {"title": "天下第一虎", "address": "鸡西市虎林市虎头镇靠近211省道", "image": "", "rank": 9, "time": 2, "location": {"lat": 46.47447006837411, "lng": 133.59346776240488}, "feature": {"sight_features": "", "sight_content": ""}}, {"title": "珍宝岛湿地公园", "address": "虎林市饶河县珍宝岛乡", "image": "", "rank": 10, "time": 7.5, "location": {"lat": 46.22573172101651, "lng": 133.59617375953331}, "feature": {"sight_features": "", "sight_content": ""}}, {"title": "南岔湖湿地公园", "address": "黑龙江省鸡西市虎林市Y553", "image": "", "rank": 11, "time": 2.5, "location": {"lat": 45.76894691288418, "lng": 132.94346566318296}, "feature": {"sight_features": "", "sight_content": ""}}, {"title": "虎头影视城", "address": "鸡西市虎林市虎头镇靠近211省道", "image": "", "rank": 12, "time": 2, "location": {"lat": 46.47447006837411, "lng": 133.59346776240488}, "feature": {"sight_features": "", "sight_content": ""}}, {"title": "八五八千岛林景区", "address": "鸡西市虎林市八五八农场", "image": "", "rank": 13, "time": 2, "location": {"lat": 45.72682985189711, "lng": 133.34014740070901}, "feature": {"sight_features": "", "sight_content": ""}}, {"title": "八五〇农场水稻科技园", "address": "309省道附近", "image": "", "rank": 14, "time": 2, "location": {"lat": 40.709016096764906, "lng": 116.52743651721413}, "feature": {"sight_features": "", "sight_content": ""}}, {"title": "嘉兴钓场", "address": "856农场向原村村道C760", "image": "", "rank": 15, "time": 4.5, "location": {"lat": 45.61928761223672, "lng": 132.75338995834096}, "feature": {"sight_features": "", "sight_content": ""}}, {"title": "神顶峰景区", "address": "鸡西市虎林市东方红局青山经营所21林班", "image": "", "rank": 16, "time": 2, "location": {"lat": 45.76894691288418, "lng": 132.94346566318296}, "feature": {"sight_features": "", "sight_content": "顶峰景区是完达山那丹哈达拉岭的主峰，海拔831米，位于东方红林业局青山林场至奇源林场之间，距离局址56公里，是我国较早见到太阳的地方。日出、松涛、云海是神顶峰的景观“三绝”。景区有露营基地，可自带装备露营。"}}, {"title": "迎春沼泽地", "address": "黑龙江省虎林市迎春镇 158400", "image": "", "rank": 17, "time": 2, "location": {"lat": 46.033085421608085, "lng": 132.9958832413522}, "feature": {"sight_features": "", "sight_content": ""}}, {"title": "鸡西虎林鑫人合旅游滑雪山庄", "address": "鸡西虎林市宝东镇太兴村四方山", "image": "", "rank": 18, "time": 1.0, "location": {"lat": 45.76166162162193, "lng": 132.89039873140123}, "feature": {"sight_features": "", "sight_content": ""}}, {"title": "清云寺", "address": "黑龙江省鸡西市虎林市X122", "image": "", "rank": 19, "time": 2, "location": {"lat": 45.76894691288418, "lng": 132.94346566318296}, "feature": {"sight_features": "", "sight_content": ""}}, {"title": "烈士陵园", "address": "309省道附近", "image": "", "rank": 20, "time": 2, "location": {"lat": 40.709016096764906, "lng": 116.52743651721413}, "feature": {"sight_features": "", "sight_content": ""}}, {"title": "北山生态公园", "address": "黑龙江省鸡西市虎林市迎春路", "image": "", "rank": 21, "time": 2, "location": {"lat": 46.063783159058914, "lng": 132.95586411266228}, "feature": {"sight_features": "", "sight_content": ""}}, {"title": "北山公园", "address": "鸡西市虎林市", "image": "", "rank": 22, "time": 1.0, "location": {"lat": 45.76894691288418, "lng": 132.94346566318296}, "feature": {"sight_features": "", "sight_content": ""}}, {"title": "吉祥广场", "address": "解放西街北150米", "image": "", "rank": 23, "time": 2, "location": {"lat": 30.17814669807527, "lng": 121.24388264779428}, "feature": {"sight_features": "", "sight_content": ""}}, {"title": "八里沟旅游渡假村", "address": "黑龙江省鸡西市虎林市迎春镇曙光林场八里沟", "image": "", "rank": 24, "time": 4.5, "location": {"lat": 46.19717486466874, "lng": 133.04061964985146}, "feature": {"sight_features": "", "sight_content": ""}}, {"title": "公司南二岛", "address": "黑龙江省鸡西市虎林市", "image": "", "rank": 25, "time": 2, "location": {"lat": 45.76894691288418, "lng": 132.94346566318296}, "feature": {"sight_features": "", "sight_content": ""}}, {"title": "虎林哈尼运动儿童乐园", "address": "黑龙江省鸡西市虎林市平安南路23号", "image": "", "rank": 26, "time": 2, "location": {"lat": 45.772149010401414, "lng": 132.9733532307209}, "feature": {"sight_features": "", "sight_content": ""}}, {"title": "庆丰公园", "address": "黑龙江省鸡西市虎林市清丰路与一二六县道交叉口处", "image": "", "rank": 27, "time": 2, "location": {"lat": 45.792523515704765, "lng": 133.0702971486459}, "feature": {"sight_features": "", "sight_content": ""}}, {"title": "虎口湿地保护区", "address": "309省道", "image": "", "rank": 28, "time": 2, "location": {"lat": 40.709016096764906, "lng": 116.52743651721413}, "feature": {"sight_features": "", "sight_content": ""}}, {"title": "锦艺画廊", "address": "邮政路19", "image": "", "rank": 29, "time": 2, "location": {"lat": 47.361269521615775, "lng": 123.97327492706398}, "feature": {"sight_features": "", "sight_content": ""}}, {"title": "森林动物园", "address": "211省道", "image": "", "rank": 30, "time": 5.0, "location": {"lat": 36.51043423729015, "lng": 114.22165389690889}, "feature": {"sight_features": "", "sight_content": ""}}, {"title": "虎林市图书馆", "address": "建设街8号", "image": "", "rank": 31, "time": 1.5, "location": {"lat": 41.67502688611182, "lng": 115.69297304084702}, "feature": {"sight_features": "", "sight_content": ""}}, {"title": "东兴胜利采摘园", "address": "宝东镇东兴铁路口", "image": "", "rank": 32, "time": 2.0, "location": {"lat": 29.59848572858322, "lng": 105.08254748773004}, "feature": {"sight_features": "", "sight_content": ""}}, {"title": "我去海伦农场", "address": "鸡西市-虎林市", "image": "", "rank": 33, "time": 2, "location": {"lat": 45.76894691288418, "lng": 132.94346566318296}, "feature": {"sight_features": "", "sight_content": ""}}, {"title": "八五六二十队", "address": "鸡西市-虎林市", "image": "", "rank": 34, "time": 2, "location": {"lat": 45.76894691288418, "lng": 132.94346566318296}, "feature": {"sight_features": "", "sight_content": ""}}, {"title": "公司养牛点", "address": "鸡西市-虎林市", "image": "", "rank": 35, "time": 2, "location": {"lat": 45.76894691288418, "lng": 132.94346566318296}, "feature": {"sight_features": "", "sight_content": ""}}, {"title": "大王砬子山", "address": "鸡西市-虎林市", "image": "", "rank": 36, "time": 2, "location": {"lat": 45.76894691288418, "lng": 132.94346566318296}, "feature": {"sight_features": "", "sight_content": ""}}, {"title": "八五六农场", "address": "虎林市和密山市境内", "image": "", "rank": 37, "time": 2, "location": {"lat": 45.76894691288418, "lng": 132.94346566318296}, "feature": {"sight_features": "", "sight_content": ""}}]}