{"cityName": "葫芦岛", "days": "", "cityImage": "", "spots": [{"title": "兴城海滨风景区", "address": "葫芦岛市兴城市兴海南路5段", "image": "", "rank": 1, "time": 1.5, "location": {"lat": 40.61640810562827, "lng": 120.79286995753505}, "feature": {"sight_features": "", "sight_content": ""}}, {"title": "东戴河", "address": "葫芦岛市绥中县东戴河止锚湾", "image": "", "rank": 2, "time": 2.5, "location": {"lat": 40.02182004953817, "lng": 119.91545434725933}, "feature": {"sight_features": "", "sight_content": ""}}, {"title": "兴城古城", "address": "葫芦岛市兴城市古城延辉街南端", "image": "", "rank": 3, "time": 1.5, "location": {"lat": 40.62732124193862, "lng": 120.71977448964559}, "feature": {"sight_features": "特色1 古城呈正方形，城墙高8.8米，四城设门。 特色2 登上古城墙，俯瞰保存完整的明代古城全貌。 参观蓟辽督师府、文庙等古迹，重温明清史话、领略民俗风情。 特色3 城内正中有钟鼓楼一座，还有明代祖氏石坊和文庙等古迹。", "sight_content": "中国十佳古城之一，是我国目前保存较完整的四座明代古城之一，也是唯一一座方形卫城。\n城墙设有东南西北四门，城中心设有钟鼓楼，城门外筑有半圆形瓮城，城墙四角仍筑有炮台，用来架设红夷大炮。\n集“城、泉、山、海、岛”五大景观于一体，是北方沿海旅游风景区中极其特色的。\n兴城古城始建于明宣德三年（公元1428年），为宁远卫城，清代重修，改称宁远州城。宁远古城与西安古城、荆州古城和山西平遥古城同被列为我国迄今保留完整的四座古代城池，为全国重点文物保护单位。\n\n兴城古城内四街十字相交，正中有古楼一座，登楼鸟瞰全城，古朴典雅的明代一条街、乾隆帝赋诗评价过的祖氏石坊尽收眼底。城设四门，东为春和门、南为延辉门，西为永宁门，北为威远门，门上皆筑门楼，四角各设角台，东南角台上有魁星楼一座。\n古城呈正方形，城墙高8.8米，周长3200米，四城设门，城内正中有钟鼓楼一座，还有明代祖氏石坊和文庙等古迹。明代为边防重地，明将袁崇焕驻兵于此，屡败清兵。天启六年（公元1626年）1月，清太祖努尔哈赤率兵13万围攻宁远城，身负重伤而败退。天启七年5月，清太祖统军再攻宁远城，再败城下。兴城古城是五百年前留下来的一份珍贵的历史遗产，是我国目前保存最完整的明代古城之一，它经历了570多年的风雨浸蚀和战争摧残，外城现已无存，内城经历代维修，基本保持原貌。\n\n\n兴城古城始建于明宣德三年（公元1428年），为宁远卫城，清代重修，改称宁远州城。宁远古城与西安古城、荆州古城和山西平遥古城同被列为我国迄今保留完整的四座古代城池，为全国重点文物保护单位。古城呈正方形，城墙高8.8米，周长3200米，四城设门，城内正中有钟鼓楼一座，还有明代祖氏石坊和文庙等古迹。明代为边防重地，明将袁崇焕驻兵于此，屡败清兵。天启六年（公元1626年）1月，清太祖努尔哈赤率兵13万围攻宁远城，身负重伤而败退。天启七年5月，清太祖统军再攻宁远城，再败城下。兴城古城是五百年前留下来的一份珍贵的历史遗产，是我国目前保存较完整的一座明代古城，它经历了570多年的风雨浸蚀和战争摧残，外城现已无存，内城经历代维修，基本保持原貌。"}}, {"title": "九门口水上长城", "address": "葫芦岛市绥中县李家堡乡", "image": "", "rank": 4, "time": 3.0, "location": {"lat": 40.11599955349402, "lng": 119.82156507769618}, "feature": {"sight_features": "特色1 参观万里长城中最独特的一段城墙。 特色2 在长城隧道中探秘古代军事设施，爬上长城饱览山河风光。", "sight_content": "九门口长城是蓟镇长城上的一个关隘，原称“一片石关”，自明末万历年间修了九座水门之后又称为九门口关，山海关以东的第一个重要关隘，因此古称“京东首关”它始建于明洪武十四年（公元1381年），明景泰和万历年间都复修过。1985年辽宁省人民响应邓小平 “爱我中华，修我长城”的号召，集资500多万元修复九门口，根据清理城墙基础时发现的九门口建筑档案石碑的记载，按照石碑上的数据进行了修复，使这段长城基本上恢复了它原有的风貌。\n东边第一个敌楼以上都是未加修复的600多年前的古长城原貌，敌楼以西是重新修复过的新墙体，全长1980米，西边还有200米的野长城。2002年10月10日九门口长城被联合国教科文组织确定为世界文化遗产地。九门口长城除聚集了万里长城的建筑精华之外，还独有四个奇绝景观。"}}, {"title": "止锚湾", "address": "葫芦岛市绥中县万家镇", "image": "", "rank": 5, "time": 1.5, "location": {"lat": 40.059647138880344, "lng": 119.86725674427446}, "feature": {"sight_features": "", "sight_content": ""}}, {"title": "葫芦山庄", "address": "葫芦岛市龙港区北港经济技术开发区葫芦山庄", "image": "", "rank": 6, "time": 1.5, "location": {"lat": 40.785242639921485, "lng": 120.95254928471589}, "feature": {"sight_features": "特色1 鸟语花香，四季如春的就餐环境使您留连忘返，乐此忘彼！ 特色2 以博大精深的葫芦文化和原生态关东民俗文化为主体内容的旅游景区！ 特色3 景区内建有大型餐饮、住宿、购物和高档婚礼、会议设施，被誉为葫芦岛市的“会客厅”！", "sight_content": "葫芦山庄位于葫芦岛市东北部渤海岸边的天角山下，是全国唯一一处以博大精深的葫芦文化和原生态关东民俗文化为主体内容的旅游景区。距市区仅6公里，与著名景区笔架山隔海相望，为国家AAAA级旅游景区，是全国农业旅游示范点、辽宁省十佳旅游景区。葫芦山庄现有景观景点60多处，包括影视拍摄基地、仙岛博览园、匠人街、葫芦大观园、葫芦仙女雕像、现代游乐场、民俗村、圣水湖、生态农业采摘观光园、明代烽火台遗址、笊笠岛等。“中国葫芦文化博物馆”、“中国关东民俗博物馆”是两座国家级专题性博物馆，馆藏文物展品丰富，文化影响深远，展陈规模居全国第一。仙岛艺术团常年在景区进行东北二人转、民间绝技、绝活表演，浓郁的地方特色吸引大批游客驻足观赏。景区内还建有大型餐饮、住宿、购物和高档婚礼、会议设施，被誉为葫芦岛市的“会客厅”。\n葫芦山庄襟渤海之辽阔，仰天角之雄奇，挖掘古老葫芦文化，传承厚重关东民俗，文化底蕴深厚，人文魅力突出，是环渤海旅游观光带上的一处重要的人文景区，是名副其实的中国葫芦文化代表地和中国关东民俗文化代表地。葫芦山庄占地213亩，目前拥有生态餐厅和豪华别墅消费区，尤其生态餐厅是本市第一家纯生态餐厅。鸟语花香，四季如春的就餐环境。宏业集团所属葫芦山庄酒店座落在秀美的海滨，占地213亩，目前拥有生态餐厅和豪华别墅消费区，尤其生态餐厅是本市第一家纯生态餐厅。鸟语花香，四季如春的就餐环境使您留连忘返，乐此忘彼。观光园内共有五个园区，其中趣味瓜果园以各种奇特瓜果为主，有佛手瓜、飞碟瓜、黄皮黄瓤西瓜、迷你型无刺小黄瓜。葫芦园收集葫芦品种十余个，有虫具、青光、亚腰大葫芦、小葫芦，形状各异。蔬菜园种植各种稀有蔬菜，枣园、葡萄园内早晚熟品种齐全。使您留连忘返，乐此忘彼。\n葫芦山庄旅游景区真实还原了上世纪民国期间关东地区旧貌：市井繁华、商家林立，行当俱全，有绣楼招亲、评书广场、茶馆小曲儿、打把式卖艺、货郎挑儿，满族风情舞蹈、东北大烟袋和东北二人转表演，还有中国关东民俗博物馆、中国葫芦文化馆以及生态采摘园、欢乐园等。参观“中国葫芦文化博物馆”、“中国关东民俗博物馆”、“葫芦岛历史馆”，访“求爷爷告奶奶”主景地，逛匠人一条街：评书广场、茶馆小曲儿、耍把式卖艺、货郎挑儿等，欣赏绣楼招亲、萨满风情舞蹈、东北大烟袋、东北二人转精彩演出，采摘园里采摘绿色果菜。"}}, {"title": "龙湾海滨", "address": "葫芦岛市龙港区龙湾新区（近1路汽车终点站）", "image": "", "rank": 7, "time": 2.0, "location": {"lat": 40.7040258603199, "lng": 120.84827363077851}, "feature": {"sight_features": "", "sight_content": ""}}, {"title": "觉华岛", "address": "葫芦岛市兴城市觉华岛菊花街道办事处北村", "image": "", "rank": 8, "time": null, "location": {"lat": 40.506075683972554, "lng": 120.82100929139777}, "feature": {"sight_features": "特色1 干净的海水，淳朴的渔民 特色2 悠闲漫步于岛上，垂钓、拾贝、捉蟹都别有一番乐趣 特色3 菊花岛古称觉华岛，是渤海湾最大的岛屿", "sight_content": "觉华岛现为国家AAAA级景区、国家著名风景名胜区、国家级海洋公园、中国十大美丽海岛，觉华岛历史文化悠久，文化底蕴深厚。4000多年前，觉华岛就有人类繁衍生息；2300年前，因燕太子丹在岛上避难，始称桃花岛；辽金时期，高僧觉华兴建大龙宫寺等17座庙宇，形成中国北方闻名遐迩的佛教文化圣地，岛屿更名为觉华岛；明清时期，觉华岛又称为军事重镇，著名的“觉华岛之战”的主战场就在这里。觉华岛风景秀丽，景色宜人，现有菩提文化园、大龙宫寺、九鼎石景区、史迹宫博物馆等自然及人文景观，岛上现存北方罕见的菩提古树108棵。\n兴城觉华岛又名菊花岛，是国家AAAA级风景名胜区，是辽东湾最大的岛屿，素有“北方佛岛”之称，有南有普陀山 北有觉华岛之美誉。俗称大海山，在唐宋时代称桃花岛，辽金时代称觉华岛。因岛上盛开野菊花，于民国十一年（1922年）改称菊花岛。\n觉华岛与古城、温泉并称“兴城三宝”是兴城市不可或缺的 城、泉、山、海、岛五大景观之一。位于兴城东南10余公里、距海滨浴场9公里的海中，从海滨出发50分钟之后就可以抵达。辽代兴城县城暨在此设立。觉华岛成长葫芦形，面积13.5平方公里，地势南高北低，最高海拔198.2米，海岸线长27公里，是渤海湾中第二大的岛屿。其面积堪称“北方小澳门”。\n觉华岛山石秀美、古树参天，南有张家山岛和杨家山岛，北有磨盘山，一大三小相映成趣。名胜古迹众多，著名的有：辽代大龙宫寺、明代大悲阁、海云寺、石佛寺、八角井、唐王洞等。具有优越的地理位置，加之环境幽雅，树木葱茏，野花飘香，是得天独厚的避暑、游玩、休养之地。岛上有北国罕见的菩提树和历史悠久的八角井。"}}, {"title": "灵山风景名胜区", "address": "葫芦岛市连山区山神庙子乡凉水井子村", "image": "", "rank": 9, "time": 4.5, "location": {"lat": 40.96528598135583, "lng": 120.52471753342984}, "feature": {"sight_features": "特色1 北方喀斯特地貌的典型代表，辽宁省十佳森林公园之一。", "sight_content": "灵山风景名胜区位于辽宁省葫芦岛市连山区山神庙子乡凉水井子村西南，距葫芦岛市区48公里。景区的喀斯特地貌为辽西地区所独有，儒释道三教合一的宗教建筑更是全国罕见。灵山风景名胜区风景灵秀、历史悠久、文化底蕴深厚，集观光游览、宗教文化、会议度假、户外运动、休闲养生、乡村采摘、拓展训练于一体，是国家AAAA级旅游景区，辽宁省十佳森林公园。灵山古寺院建筑群始建于1738年（乾隆三年），后经1806年（嘉庆十一年）和民国初期的两次扩建，形成了上、中、下三个院落群。除自成体系的寺院建筑群外，更有南天门、金蟾护神、十二生肖石等景观百余处。\n灵山风景名胜区集山岳之壮美，融百花之娇媚，聚奇石之永驻，汇山泉而不竭，向四方游客展示着大自然给予灵山浑然天成的风景奇观。金猪石，鹰嘴石，骆驼峰等象形山石惟妙惟肖，让您感叹大自然的鬼斧神工，给您带来畅怀古今的遐思。千年古泉凉水井清甜甘冽，散发着与世隔绝的自然魅力，宛如一位清淡如菊的少女向您述说着灵山这方圣土的不朽传奇。\n灵山风景名胜区自然风光秀丽，洞奇石美，茂树成荫，是北方喀斯特地貌的典型代表。金鸡报晓、玉兔迎宾、虎啸长空、金蝉护天门、蛟龙玉腾、定山锁、骆驼峰、 回头鹰、情侣石，形态逼真，惟妙惟肖。大自然的鬼斧神工造化了灵山奇石。灵山四季分明，风景如画。春看满山新绿，杜鹃、杏花红霞映山；夏听蝉鸣翠谷，沐森林氧吧，清溪消暑；秋赏红叶、黄菊，野采果山珍；冬踏瑞雪，觅山鸡野兔踪迹。"}}, {"title": "银泰水星海洋乐园", "address": "葫芦岛市绥中县东戴河新区滨海大道28号", "image": "", "rank": 10, "time": 1.0, "location": {"lat": 40.06084074771846, "lng": 119.95369033232525}, "feature": {"sight_features": "", "sight_content": ""}}, {"title": "龙回头", "address": "葫芦岛市兴城市兴城海滨(近313海滨)", "image": "", "rank": 11, "time": 1.5, "location": {"lat": 40.616924484507045, "lng": 120.80434241213527}, "feature": {"sight_features": "", "sight_content": ""}}, {"title": "张作霖别墅", "address": "葫芦岛市兴城市兴海路三段（铁路疗养院北院）", "image": "", "rank": 12, "time": 1.0, "location": {"lat": 40.62025406684682, "lng": 120.74122444240955}, "feature": {"sight_features": "", "sight_content": ""}}, {"title": "首山", "address": "葫芦岛市兴城市首山路国家级森林公园", "image": "", "rank": 13, "time": 3.5, "location": {"lat": 40.62356171387239, "lng": 120.76075880179216}, "feature": {"sight_features": "", "sight_content": ""}}, {"title": "绥中海滩", "address": "葫芦岛市绥中县绥中电厂江家海滨度假村附近", "image": "", "rank": 14, "time": 3.0, "location": {"lat": 40.086216534973275, "lng": 119.99233093215898}, "feature": {"sight_features": "", "sight_content": ""}}, {"title": "钟鼓楼", "address": "葫芦岛市兴城市兴城古城内", "image": "", "rank": 15, "time": 0.75, "location": {"lat": 40.628912292663045, "lng": 120.71928843539857}, "feature": {"sight_features": "", "sight_content": ""}}, {"title": "望海寺", "address": "葫芦岛市龙港区望海街道", "image": "", "rank": 16, "time": 1.5, "location": {"lat": 40.74105660124102, "lng": 120.90062076023611}, "feature": {"sight_features": "", "sight_content": ""}}, {"title": "新东北影城", "address": "连山区宏运新天地购物广场5楼(老区百货大楼对面)", "image": "", "rank": 17, "time": 2, "location": {"lat": 40.76139420249508, "lng": 120.8617405706449}, "feature": {"sight_features": "", "sight_content": ""}}, {"title": "龙潭大峡谷", "address": "葫芦岛市建昌县大老丈子乡龙潭大峡谷景区", "image": "", "rank": 18, "time": 2.0, "location": {"lat": 40.5622028675759, "lng": 119.36283666444555}, "feature": {"sight_features": "", "sight_content": "龙潭大峡谷位于葫芦岛市建昌县老大杖子乡，小部分位于青龙境内。古传在此峡谷深潭中有两位龙神居住，每缝干旱无雨时，众百姓便来到此潭跪拜求雨，而龙神也非常体谅百姓，每缝百姓求雨必有恩泽，十分灵验，故对此峡谷命名为“龙潭大峡谷”。龙潭大峡谷总长54.5公里，纵深648米，最宽处210米，海拔760平方米，最高峰860米。峡谷中可供观赏的景点很多，有深不可测的龙潭，震耳欲聋的龙潭瀑布、金葫芦瀑布，神奇的蝙蝠洞、龙骨洞、蛤蟆峰、神龟石、天狗石、弥勒大佛、卧虎山、情侣峰、忘忧峰等。龙潭大峡谷特色更绝的是冬季的冰瀑。冬天的龙潭大峡谷被一片银白世界所覆盖，众多的冰瀑随处可见，千姿百态，冰瀑最宽处达30多米，最高处达36米。在其分支峡谷——石林峡谷中，石林蜿蜒连绵，石窟首尾相连，凤凰石形象逼真，展现了大自然的鬼斧神工。春季的龙潭大峡谷开满杜鹃花，万紫千红，风景迷人。"}}, {"title": "祖氏石坊", "address": "葫芦岛兴城市兴城古城内南大街", "image": "", "rank": 19, "time": 0.4, "location": {"lat": 40.62670871501697, "lng": 120.78487068171451}, "feature": {"sight_features": "", "sight_content": ""}}, {"title": "百大万美温泉水上乐园", "address": "葫芦岛市连山区锦郊街道二台子村（百大物流院内）", "image": "", "rank": 20, "time": null, "location": {"lat": 40.793886996311706, "lng": 120.90248761874695}, "feature": {"sight_features": "特色1 多元的温泉文化 特色2 葫芦岛市百大万美温泉酒店温馨舒适与温泉文化的完美结合 特色3 完善的设施与贴心的服务", "sight_content": "葫芦岛百大万美温泉水上乐园依托于百大万美温泉酒店，百大万美温泉酒店是由葫芦岛市百大集团投资3.1亿元兴建，建筑51000平方米，位于葫芦岛市连山区 东城经济开发区，是葫芦岛市一家集商务会所、300间豪华客房、温泉汤浴、特色餐厅、休闲娱乐等多元素为一体多功能温泉度假休闲酒店。\n多元的温泉 文化，绿色的天然氧吧是酒店的独特之处，2100米深的地热温泉，富含矿物质。多种特色温泉，星座温泉泡池、养生温泉泡池、情侣温泉泡池、特色池中池水上 餐厅、休闲小池及玉石炕等设施。海浪池、大型水寨、游泳池、儿童戏水池、小鱼温泉等水上娱乐设施构成了全家老少共享的温泉乐园。大型水疗区、时尚主题 KTV、咖啡厅、足疗休息厅、会议室、SPA、汗蒸、各式中餐特色风味小吃和儿童淘气堡乐园、书吧、游艺区、健身区等项目，将打造一个生态自然、时尚高 雅、轻松动感的温泉梦幻天堂。\n葫芦岛市百大万美温泉酒店高端舒适与温泉文化的完美结合，极尽奢华，彰显品味生活。共享生活之美，倾力为您打造一座现代休闲娱乐王国，是您家庭聚会、商务洽谈、休闲度假的上佳选择。"}}, {"title": "飞天广场", "address": "葫芦岛市龙港区龙湾大街", "image": "", "rank": 21, "time": 1.0, "location": {"lat": 40.727492539824446, "lng": 120.85710227524586}, "feature": {"sight_features": "", "sight_content": ""}}, {"title": "塔山烈士纪念塔", "address": "葫芦岛市连山区塔山乡塔山村", "image": "", "rank": 22, "time": 1.0, "location": {"lat": 40.85325719698094, "lng": 120.95192304360589}, "feature": {"sight_features": "", "sight_content": ""}}, {"title": "大地数字影城", "address": "龙港区飞天广场富尔沃财富街内", "image": "", "rank": 23, "time": 2, "location": {"lat": 40.727324721754734, "lng": 120.8562573802866}, "feature": {"sight_features": "", "sight_content": ""}}, {"title": "虹螺山", "address": "葫芦岛市区北30公里", "image": "", "rank": 24, "time": 1.0, "location": {"lat": 40.71736443636189, "lng": 120.8433983399283}, "feature": {"sight_features": "", "sight_content": ""}}, {"title": "乌金塘水库", "address": "葫芦岛市南票区乌金塘村附近", "image": "", "rank": 25, "time": 1.0, "location": {"lat": 41.06866020899412, "lng": 120.75145544598143}, "feature": {"sight_features": "", "sight_content": ""}}, {"title": "蓟辽督师府", "address": "葫芦岛市兴城市兴城古城内", "image": "", "rank": 26, "time": 0.6, "location": {"lat": 40.628912292663045, "lng": 120.71928843539857}, "feature": {"sight_features": "", "sight_content": ""}}, {"title": "兴城文庙", "address": "葫芦岛市兴城市春和门里北二道胡同", "image": "", "rank": 27, "time": 2.0, "location": {"lat": 40.616555664043666, "lng": 120.76455846701454}, "feature": {"sight_features": "", "sight_content": ""}}, {"title": "将军府", "address": "葫芦岛兴城市兴城古城内", "image": "", "rank": 28, "time": null, "location": {"lat": 40.628912292663045, "lng": 120.71928843539857}, "feature": {"sight_features": "", "sight_content": ""}}, {"title": "水调歌头", "address": "葫芦岛市兴城市海滨南路瑞心商旅兴城水调歌头酒店", "image": "", "rank": 29, "time": 2, "location": {"lat": 40.73114762964322, "lng": 120.86663355092719}, "feature": {"sight_features": "特色1 高温弱碱性食盐矿泉 特色2 出浴神清气爽，恍至仙境、乐而忘返。 特色3 健康人沐浴温泉，可以爽身提神，解除疲劳。", "sight_content": "城水调歌头温泉酒店，位于兴城市东南的温泉街，距海滨浴场仅3.5公里。兴城温泉水储量相当丰富，共有4穴12眼，日涌水量可达3000吨。泉水无色无臭，清澈透明，水温67度左右，属于高温弱碱性食盐矿泉。\n泉水中含有钾、钠、钙、铵、硫、镁等多种矿物质，还含有一定数量的放射性元素氡和镭。\n室外露天温泉区综合面积1400平方米，绿荫如盖，花木扶疏。以历史典故和泉池功能命名的唐王池、贵妃池、桃花池、古汤池、药浴池、养生池、天地人和池，七个造型各异的露天温泉池错落有致，掩映其间。泉池上香风缭绕，水气氤氲，置身于温润清澈的泉水中，可有解乏消烦，宁神息虑之感。可谓入泉则宠辱皆忘，出浴而神清气爽，令人恍至仙境，乐而忘返。"}}, {"title": "三角公园", "address": "葫芦岛市连山区群英街与红星路交界处", "image": "", "rank": 30, "time": 2.5, "location": {"lat": 40.76827000195859, "lng": 120.87238704680328}, "feature": {"sight_features": "", "sight_content": ""}}, {"title": "大虹螺山灵隐寺", "address": "葫芦岛市连山区大虹螺山北麓", "image": "", "rank": 31, "time": 1.0, "location": {"lat": 40.940282589786136, "lng": 120.71691469273253}, "feature": {"sight_features": "", "sight_content": ""}}, {"title": "三礁揽胜", "address": "葫芦岛市兴城市兴城海滨风景区内", "image": "", "rank": 32, "time": 2, "location": {"lat": 40.53286936506443, "lng": 120.64613983902635}, "feature": {"sight_features": "", "sight_content": ""}}, {"title": "龙湾海滨滑雪场", "address": "葫芦岛兴城市龙湾大街南延路海滨浴场前行15公里兴城夹山", "image": "", "rank": 33, "time": 2, "location": {"lat": 40.727492539824446, "lng": 120.85710227524586}, "feature": {"sight_features": "", "sight_content": ""}}, {"title": "龙湾公园", "address": "葫芦岛市龙港区龙湾大街与海日路交界处", "image": "", "rank": 34, "time": 1.0, "location": {"lat": 40.72430927315567, "lng": 120.85058840867086}, "feature": {"sight_features": "", "sight_content": ""}}, {"title": "兴城温泉", "address": "葫芦岛市兴城市欣和园小区南150米", "image": "", "rank": 35, "time": 0.7, "location": {"lat": 40.62374280359871, "lng": 120.74468109955431}, "feature": {"sight_features": "", "sight_content": ""}}, {"title": "葫芦岛港", "address": "葫芦岛市龙港区渤海辽东湾内", "image": "", "rank": 36, "time": 1.5, "location": {"lat": 40.74105660124102, "lng": 120.90062076023611}, "feature": {"sight_features": "", "sight_content": ""}}, {"title": "连山河公园", "address": "葫芦岛市连山区北河路与抚民路交汇处", "image": "", "rank": 37, "time": 1.0, "location": {"lat": 40.77028967982284, "lng": 120.87839506496934}, "feature": {"sight_features": "", "sight_content": ""}}, {"title": "红海滩", "address": "兴城市区南10公里处", "image": "", "rank": 38, "time": 2.5, "location": {"lat": 40.616555664043666, "lng": 120.76455846701454}, "feature": {"sight_features": "", "sight_content": ""}}, {"title": "绥中斜塔", "address": "葫芦岛绥中县前卫镇", "image": "", "rank": 39, "time": 1.0, "location": {"lat": 40.197045933063144, "lng": 120.10319154546774}, "feature": {"sight_features": "", "sight_content": ""}}, {"title": "张山岛", "address": "葫芦岛市兴城市菊花岛西南二、三海里处", "image": "", "rank": 40, "time": 3.0, "location": {"lat": 40.51559497621874, "lng": 120.82299015386087}, "feature": {"sight_features": "", "sight_content": ""}}, {"title": "前所古城", "address": "葫芦岛市绥中县城西42公里处", "image": "", "rank": 41, "time": 1.5, "location": {"lat": 40.33184347539701, "lng": 120.35042453538213}, "feature": {"sight_features": "", "sight_content": ""}}, {"title": "张学良筑港纪念碑", "address": "葫芦岛市龙港区港码头西山", "image": "", "rank": 42, "time": 0.4, "location": {"lat": 40.74105660124102, "lng": 120.90062076023611}, "feature": {"sight_features": "", "sight_content": ""}}, {"title": "葫芦岛博物馆", "address": "葫芦岛市连山区红星路5号", "image": "", "rank": 43, "time": 1.0, "location": {"lat": 40.76469655037768, "lng": 120.87409218157654}, "feature": {"sight_features": "", "sight_content": ""}}, {"title": "芳萃园", "address": "葫芦岛市连山区化机路", "image": "", "rank": 44, "time": 1.0, "location": {"lat": 40.75398469160949, "lng": 120.83905923506074}, "feature": {"sight_features": "", "sight_content": ""}}, {"title": "莲花广场", "address": "葫芦岛市龙港区海滨路11号", "image": "", "rank": 45, "time": 1.0, "location": {"lat": 40.73013965697703, "lng": 120.8538216778963}, "feature": {"sight_features": "", "sight_content": ""}}, {"title": "锥子山长城", "address": "葫芦岛市绥中县永安堡乡", "image": "", "rank": 46, "time": 1.0, "location": {"lat": 40.23801416811894, "lng": 119.82069372224981}, "feature": {"sight_features": "", "sight_content": ""}}, {"title": "沙锅屯人类洞穴遗址", "address": "葫芦岛市南票区沙锅屯乡东南媳妇山上1.2公里处", "image": "", "rank": 47, "time": 1.0, "location": {"lat": 41.1437600020631, "lng": 120.66038661677035}, "feature": {"sight_features": "", "sight_content": ""}}, {"title": "沙锅屯金代石塔", "address": "葫芦岛市南票区沙锅屯乡沙锅屯村石龙山顶", "image": "", "rank": 48, "time": 0.4, "location": {"lat": 41.13755744712921, "lng": 120.70546406785449}, "feature": {"sight_features": "", "sight_content": ""}}, {"title": "三点水温泉", "address": "葫芦岛市龙港区龙程街玉皇商城金钱柜KTV西行10米", "image": "", "rank": 49, "time": 2, "location": {"lat": 40.74058150598234, "lng": 120.88520931592382}, "feature": {"sight_features": "", "sight_content": ""}}, {"title": "安昌岘舍利塔", "address": "葫芦岛市南票区暖池镇安昌岘村东的小山上", "image": "", "rank": 50, "time": 0.6, "location": {"lat": 41.11309759582292, "lng": 120.75649312082375}, "feature": {"sight_features": "", "sight_content": ""}}, {"title": "绥中电厂海滨", "address": "葫芦岛市绥中县前所镇", "image": "", "rank": 51, "time": 2.5, "location": {"lat": 40.13256917568054, "lng": 119.96677912958891}, "feature": {"sight_features": "", "sight_content": ""}}, {"title": "碣石宫遗址", "address": "葫芦岛市绥中县万家镇止锚湾海滨", "image": "", "rank": 52, "time": 1.0, "location": {"lat": 40.0108272171925, "lng": 119.92346593166195}, "feature": {"sight_features": "", "sight_content": ""}}, {"title": "龙背山森林公园", "address": "葫芦岛市龙湾区南侧的龙背山上", "image": "", "rank": 53, "time": 1.5, "location": {"lat": 40.722146538826024, "lng": 119.49601121985945}, "feature": {"sight_features": "", "sight_content": ""}}, {"title": "富都露天温泉", "address": "葫芦岛市兴城市兴海南路5段（近龙兴路）富都国际饭店洗浴部", "image": "", "rank": 54, "time": 2, "location": {"lat": 40.61387823297274, "lng": 120.78077711877673}, "feature": {"sight_features": "", "sight_content": ""}}, {"title": "暖泉", "address": "葫芦岛市南票区暖池塘镇暖池村西八里", "image": "", "rank": 55, "time": 0.4, "location": {"lat": 41.03059063035501, "lng": 120.68188601765942}, "feature": {"sight_features": "", "sight_content": ""}}, {"title": "葫芦岛文化博物馆", "address": "葫芦岛市龙港区葫芦山庄内", "image": "", "rank": 56, "time": null, "location": {"lat": 40.7876728715245, "lng": 120.95151728439687}, "feature": {"sight_features": "", "sight_content": ""}}, {"title": "塔山阻击战纪念馆", "address": "葫芦岛市连山区塔山乡", "image": "", "rank": 57, "time": 1.0, "location": {"lat": 40.86110527756074, "lng": 120.95533254959274}, "feature": {"sight_features": "", "sight_content": ""}}, {"title": "葫芦山庄滑雪场", "address": "葫芦岛市北港经济开发区葫芦山庄", "image": "", "rank": 58, "time": 2, "location": {"lat": 40.785242639921485, "lng": 120.95254928471589}, "feature": {"sight_features": "", "sight_content": ""}}, {"title": "小河口长城", "address": "葫芦岛市绥中县永安堡乡西沟村", "image": "", "rank": 59, "time": null, "location": {"lat": 40.23801416811894, "lng": 119.82069372224981}, "feature": {"sight_features": "", "sight_content": ""}}, {"title": "明代一条街", "address": "葫芦岛市兴城市延辉街", "image": "", "rank": 60, "time": 1.0, "location": {"lat": 40.62732124193862, "lng": 120.71977448964559}, "feature": {"sight_features": "", "sight_content": ""}}]}