{"cityName": "呼玛", "days": 2, "cityImage": "", "spots": [{"title": "呼玛河口景区", "address": "大兴安岭地区呼玛县呼玛镇", "image": "", "rank": 1, "time": 2, "location": {"lat": 51.73506394745615, "lng": 126.66801358354068}, "feature": {"sight_features": "", "sight_content": ""}}, {"title": "美人松原始森林", "address": "加漠公路", "image": "", "rank": 2, "time": 2, "location": {"lat": 50.486092003902755, "lng": 124.23807652699143}, "feature": {"sight_features": "", "sight_content": ""}}, {"title": "呼中国家级自然保护区管理局自然...", "address": "中新大街26号", "image": "", "rank": 3, "time": 2, "location": {"lat": 52.04046712618978, "lng": 123.59887325923735}, "feature": {"sight_features": "", "sight_content": ""}}, {"title": "南山公园", "address": "公交地铁接驳专线8路;公交地铁接驳专线8路", "image": "", "rank": 4, "time": 2.5, "location": {"lat": 28.902622265507468, "lng": 105.45063014659402}, "feature": {"sight_features": "", "sight_content": ""}}, {"title": "韩家园北药五味子种植示范园", "address": "和顺街附近", "image": "", "rank": 5, "time": 2, "location": {"lat": 39.89180687332839, "lng": 117.82786709725849}, "feature": {"sight_features": "", "sight_content": ""}}, {"title": "白银纳民族乡", "address": "黑龙江省呼玛县白银纳乡 150000", "image": "", "rank": 6, "time": 2, "location": {"lat": 51.730946747239756, "lng": 126.65964991907305}, "feature": {"sight_features": "", "sight_content": ""}}, {"title": "呼玛博物馆", "address": "正棋路71号", "image": "", "rank": 7, "time": 2.5, "location": {"lat": 37.19406050776968, "lng": 122.09218034971015}, "feature": {"sight_features": "", "sight_content": ""}}, {"title": "乐乐派游乐园", "address": "正棋路81号附近", "image": "", "rank": 8, "time": 2, "location": {"lat": 37.19406050776968, "lng": 122.09218034971015}, "feature": {"sight_features": "", "sight_content": ""}}, {"title": "鄂伦春民族村", "address": "黑龙江省呼玛县鄂伦春民族村", "image": "", "rank": 9, "time": 2, "location": {"lat": 51.730946747239756, "lng": 126.65964991907305}, "feature": {"sight_features": "", "sight_content": ""}}, {"title": "猩猩山水帘洞", "address": "黑龙江省大兴安岭地区呼中区呼源镇", "image": "", "rank": 10, "time": 2, "location": {"lat": 51.762315678191946, "lng": 123.57954277747656}, "feature": {"sight_features": "", "sight_content": ""}}, {"title": "南瓮河", "address": "黑龙江省大兴安岭地区松岭区伊勒呼里山", "image": "", "rank": 11, "time": 2, "location": {"lat": 51.31952949551065, "lng": 123.59018635659974}, "feature": {"sight_features": "", "sight_content": ""}}]}