{"cityName": "珲春", "days": 2, "cityImage": "", "spots": [{"title": "防川风景区", "address": "延边朝鲜族自治州珲春市敬信镇防川村", "image": "", "rank": 1, "time": 4.5, "location": {"lat": 42.44493285159786, "lng": 130.60103388282974}, "feature": {"sight_features": "特色1 远东豹保护区的核心地带", "sight_content": "珲春城以南约70公里处的敬信镇防川村，位于张鼓峰下，海拔仅3米，是吉林省的最低点。往前数公里便是1886年由清政府钦差大臣吴大澄会同沙俄代表巴拉诺夫监立的“土”字界碑。从这里到图们江口只有15公里，可以远眺日本海。登上附近山包上的了望塔，远处那雾气蒙蒙的日本海连着天际；近处中朝俄三国的景致尽收眼底，左侧是俄罗斯的边城包德哥尔那亚，右侧隔江则是朝鲜的豆满江市。防川的军民自豪地说，这里是“眼看三疆山川风貌，耳听三国鸡鸣狗吠”。\n莲花湖水面面积为48万平方米，东系宽480米，南北最长处可达1000米，潭水清澈。东依群山，三侧环林，每年天然生长出满池的荷花，常有当地居民来采莲，日久不败，可谓一奇。每年8月中旬时节，湖面上红、白、粉三色荷花相映成辉，明艳照眼，凌波翠盖，美不胜收，那碧蓝、葱绿、鲜红构成了这幅清新、洁净、秀美的山水画的主色调，朵朵荷花或含苞待放或笑脸迎宾，微风徐来，清香扑鼻。常有野鸭、海鸟、丹顶鹤、白鹭嬉戏其间，别有一番情趣。清末诗人韩文泉有佳句“幽谷如临君子国，深山得睹美人仙”盛赞此景。"}}, {"title": "珲春", "address": "延边朝鲜族自治州图们江下游地区", "image": "", "rank": 2, "time": 4.5, "location": {"lat": 42.88766435955777, "lng": 130.2836423459585}, "feature": {"sight_features": "", "sight_content": ""}}, {"title": "龙虎石刻", "address": "延边朝鲜族自治州珲春市新安路河南街龙源公园内", "image": "", "rank": 3, "time": null, "location": {"lat": 42.868477137996074, "lng": 130.36885348932893}, "feature": {"sight_features": "", "sight_content": ""}}, {"title": "龙源公园", "address": "延边朝鲜族自治州珲春市西滨河南街", "image": "", "rank": 4, "time": 1.0, "location": {"lat": 42.859796460854916, "lng": 130.3559084110655}, "feature": {"sight_features": "", "sight_content": ""}}, {"title": "图们江国家森林公园", "address": "延边朝鲜族自治州珲春市珲春林业局敬信林场", "image": "", "rank": 5, "time": 1.5, "location": {"lat": 42.64308763657876, "lng": 130.49015191320578}, "feature": {"sight_features": "", "sight_content": ""}}, {"title": "珲春欧式街", "address": "延边朝鲜族自治州珲春市", "image": "", "rank": 6, "time": 4.5, "location": {"lat": 42.86851511519159, "lng": 130.37261321858327}, "feature": {"sight_features": "", "sight_content": ""}}, {"title": "张鼓峰事件纪念馆", "address": "延边朝鲜族自治州珲春市敬信镇防川村", "image": "", "rank": 7, "time": 1.0, "location": {"lat": 42.44493285159786, "lng": 130.60103388282974}, "feature": {"sight_features": "", "sight_content": ""}}, {"title": "连城山", "address": "延边朝鲜族自治州珲春市连城山", "image": "", "rank": 8, "time": 1.5, "location": {"lat": 42.56003638601806, "lng": 130.6187640387142}, "feature": {"sight_features": "", "sight_content": ""}}, {"title": "畅颐园", "address": "延边朝鲜族自治州珲春阳光胡同与河南西街交汇处", "image": "", "rank": 9, "time": 1.0, "location": {"lat": 42.86440891884878, "lng": 130.37738961677647}, "feature": {"sight_features": "", "sight_content": ""}}, {"title": "八连城遗址", "address": "延边朝鲜族自治州珲春市三家子乡八连城村", "image": "", "rank": 10, "time": 1.0, "location": {"lat": 42.85749195571886, "lng": 130.2781568065313}, "feature": {"sight_features": "", "sight_content": ""}}, {"title": "莲花湖公园", "address": "延边朝鲜族自治州珲春市沙草峰北侧", "image": "", "rank": 11, "time": 1.0, "location": {"lat": 42.47662871900952, "lng": 130.5939441655923}, "feature": {"sight_features": "", "sight_content": ""}}, {"title": "珲春市博物馆", "address": "延边朝鲜族自治州珲春市森林山大路", "image": "", "rank": 12, "time": 1.0, "location": {"lat": 42.879238580610334, "lng": 130.37996951876045}, "feature": {"sight_features": "", "sight_content": ""}}, {"title": "沙丘公园", "address": "中朝和朝俄界河图们江入海口", "image": "", "rank": 13, "time": 2, "location": {"lat": 38.91003208384343, "lng": 121.59883215927488}, "feature": {"sight_features": "", "sight_content": ""}}, {"title": "东方第一哨和望海阁", "address": "位于中朝和朝俄界河图们江入海口", "image": "", "rank": 14, "time": 1.5, "location": {"lat": 38.91003208384343, "lng": 121.59883215927488}, "feature": {"sight_features": "", "sight_content": ""}}, {"title": "延边防川鸟瞰三疆", "address": "吉林省珲春市珲春南部 133000", "image": "", "rank": 15, "time": 1.5, "location": {"lat": 42.86851511519159, "lng": 130.37261321858327}, "feature": {"sight_features": "", "sight_content": ""}}, {"title": "洋馆坪大堤", "address": "中朝和朝俄界河图们江入海口", "image": "", "rank": 16, "time": 2, "location": {"lat": 38.91003208384343, "lng": 121.59883215927488}, "feature": {"sight_features": "", "sight_content": ""}}, {"title": "干沟子山城遗址", "address": "延边朝鲜族自治州珲春市哈达门乡干沟子口东北山上", "image": "", "rank": 17, "time": 1.0, "location": {"lat": 42.940201898986565, "lng": 130.49914064469806}, "feature": {"sight_features": "", "sight_content": ""}}, {"title": "玄武岩柱石", "address": "延边朝鲜族自治州珲春市老爷岭山脉东南", "image": "", "rank": 18, "time": 1.5, "location": {"lat": 43.18252687627687, "lng": 130.7840716137288}, "feature": {"sight_features": "", "sight_content": ""}}, {"title": "红色文化民俗博物馆", "address": "珲春市边境济经合作区2号小区合欢街与旺民路交汇处", "image": "", "rank": 19, "time": 2, "location": {"lat": 42.847427030174835, "lng": 130.39974170183189}, "feature": {"sight_features": "", "sight_content": ""}}, {"title": "金沙滩公园", "address": "延边朝鲜族自治州珲春市防川国家级风景名胜区内", "image": "", "rank": 20, "time": 1.0, "location": {"lat": 42.43542021424119, "lng": 130.64478441989593}, "feature": {"sight_features": "", "sight_content": ""}}, {"title": "灵宝禅寺", "address": "文化路北山景区附近", "image": "", "rank": 21, "time": 2, "location": {"lat": 42.8929576114438, "lng": 130.36485518270743}, "feature": {"sight_features": "", "sight_content": ""}}, {"title": "海洋生物馆", "address": "新安路公安局对面公厕胡同北20米", "image": "", "rank": 22, "time": 0.3, "location": {"lat": 30.064400686806085, "lng": 112.23650157583852}, "feature": {"sight_features": "", "sight_content": ""}}, {"title": "新视野图书店", "address": "文化路1035号附近", "image": "", "rank": 23, "time": null, "location": {"lat": 37.78465098993014, "lng": 117.39381622577514}, "feature": {"sight_features": "", "sight_content": ""}}, {"title": "干沟子山城", "address": "吉林省珲春市哈达门乡 133309", "image": "", "rank": 24, "time": 1.0, "location": {"lat": 42.940201898986565, "lng": 130.49914064469806}, "feature": {"sight_features": "", "sight_content": ""}}, {"title": "玄武岩柱石景观", "address": "吉林省珲春市密江乡 133302", "image": "", "rank": 25, "time": 2, "location": {"lat": 43.08574287771578, "lng": 130.2270237836823}, "feature": {"sight_features": "", "sight_content": ""}}, {"title": "警民休闲岛", "address": "延边朝鲜族自治州珲春市", "image": "", "rank": 26, "time": 2, "location": {"lat": 42.86851511519159, "lng": 130.37261321858327}, "feature": {"sight_features": "", "sight_content": ""}}, {"title": "珲春市新安基督教会", "address": "吉林省延边朝鲜族自治州珲春市口岸大路589-2", "image": "", "rank": 27, "time": 4.5, "location": {"lat": 42.87784789932995, "lng": 130.35481123869695}, "feature": {"sight_features": "", "sight_content": ""}}, {"title": "爱就推门儿童游乐城", "address": "轻工胡同统帅电器二楼", "image": "", "rank": 28, "time": 2, "location": {"lat": 40.104396724651764, "lng": 116.22207259223985}, "feature": {"sight_features": "", "sight_content": ""}}, {"title": "文华生态水上乐园", "address": "吉林省延边朝鲜族自治州珲春市", "image": "", "rank": 29, "time": 2, "location": {"lat": 42.86851511519159, "lng": 130.37261321858327}, "feature": {"sight_features": "", "sight_content": ""}}, {"title": "珲春殡仪服务中心", "address": "口岸大路39号", "image": "", "rank": 30, "time": 4.5, "location": {"lat": 42.882530915637524, "lng": 130.3517966610344}, "feature": {"sight_features": "", "sight_content": ""}}, {"title": "静水庵", "address": "明盛南街东50米", "image": "", "rank": 31, "time": 2, "location": {"lat": 42.852618164235956, "lng": 130.36643643576105}, "feature": {"sight_features": "", "sight_content": ""}}, {"title": "乐之翼儿童乐园", "address": "延边朝鲜族自治州珲春市沿河街南洋购物广场3层", "image": "", "rank": 32, "time": 2, "location": {"lat": 42.87256819515007, "lng": 130.36908696611744}, "feature": {"sight_features": "", "sight_content": ""}}, {"title": "河南基督教会", "address": "吉林省延边朝鲜族自治州珲春市靖和街道迎春西街皇冠商务附近", "image": "", "rank": 33, "time": 2, "location": {"lat": 42.87778356145918, "lng": 130.37066525116964}, "feature": {"sight_features": "", "sight_content": ""}}, {"title": "珲春市基督教会", "address": "延边朝鲜族自治州珲春市龙源华府西门北侧", "image": "", "rank": 34, "time": 4.5, "location": {"lat": 42.88651559094426, "lng": 130.3818336598971}, "feature": {"sight_features": "", "sight_content": ""}}, {"title": "鲁卡奇乐园", "address": "延边朝鲜族自治州珲春市沿河西街1568号现代百货3层", "image": "", "rank": 35, "time": 2, "location": {"lat": 42.87081322097676, "lng": 130.3669950272797}, "feature": {"sight_features": "", "sight_content": ""}}, {"title": "世纪广场", "address": "珲春西街与森林山大路交汇处", "image": "", "rank": 36, "time": 2.5, "location": {"lat": 42.87818280689428, "lng": 130.3648725056309}, "feature": {"sight_features": "", "sight_content": ""}}, {"title": "春天儿童主题乐园", "address": "森林山大路龙源华府门市北侧", "image": "", "rank": 37, "time": 2, "location": {"lat": 42.88651559094426, "lng": 130.3818336598971}, "feature": {"sight_features": "", "sight_content": ""}}, {"title": "龙旭山庄", "address": "二零一省道河北村", "image": "", "rank": 38, "time": null, "location": {"lat": 42.948129830546826, "lng": 130.52544562253993}, "feature": {"sight_features": "", "sight_content": ""}}, {"title": "珲春市图书馆", "address": "森林山大路", "image": "", "rank": 39, "time": 1.5, "location": {"lat": 42.879238580610334, "lng": 130.37996951876045}, "feature": {"sight_features": "", "sight_content": ""}}, {"title": "味乐园", "address": "靖和街道珲春西街323号", "image": "", "rank": 40, "time": 2, "location": {"lat": 42.88219472035747, "lng": 130.3745968568104}, "feature": {"sight_features": "", "sight_content": ""}}, {"title": "玉源水上游乐中心", "address": "南堤胡同208号", "image": "", "rank": 41, "time": 2, "location": {"lat": 42.87076170545215, "lng": 130.36716553464856}, "feature": {"sight_features": "", "sight_content": ""}}, {"title": "珲春市硕霖富硒苹果采摘园", "address": "板石人民大街", "image": "", "rank": 42, "time": 4.5, "location": {"lat": 42.78337859719191, "lng": 130.34052876048014}, "feature": {"sight_features": "", "sight_content": ""}}, {"title": "蒲公英儿童图书馆", "address": "学苑小区26号楼104(一小幼儿园对面)", "image": "", "rank": 43, "time": 2.5, "location": {"lat": 46.589694577519886, "lng": 125.151271450803}, "feature": {"sight_features": "", "sight_content": ""}}, {"title": "星之舞艺术团", "address": "永乐胡同", "image": "", "rank": 44, "time": 2, "location": {"lat": 31.563719509221073, "lng": 120.31131983319311}, "feature": {"sight_features": "", "sight_content": ""}}, {"title": "珲春建筑装饰材料一条街", "address": "吉林省珲春市兴源小区南门东侧", "image": "", "rank": 45, "time": 4.5, "location": {"lat": 42.87405503436615, "lng": 130.3719313741588}, "feature": {"sight_features": "", "sight_content": ""}}, {"title": "甩湾子断桥", "address": "吉林省延边朝鲜族自治州珲春市英安镇甩湾子村 紧挨着朝鲜边境，国道G302上", "image": "", "rank": 46, "time": 2, "location": {"lat": 42.9182885091953, "lng": 130.2503232792201}, "feature": {"sight_features": "", "sight_content": ""}}]}