{"cityName": "浑源", "days": 2, "cityImage": "", "spots": [{"title": "恒山", "address": "大同市浑源县东南郊恒山脚下", "image": "", "rank": 1, "time": 1.5, "location": {"lat": 39.698952969845486, "lng": 113.70560028821707}, "feature": {"sight_features": "特色1 “五岳”中的北岳，登上主峰天峰岭俯瞰群山，豁然开朗。 特色2 道教圣地，自古为兵家据险以守之地，以丰富的景观特色著称于世 特色3 西衔雁门关、东跨太行山，南障三晋，北瞰云、代二州，莽莽苍苍", "sight_content": "恒山为国家AAAA风景区是国务院1982年公布的全国第一批44个国家重点风景名胜区之一。据1984年规划，全景区为4个等级的保护区和1个自然保护区。一、二级保护区面积为62.10平方公里，以双峰并峙的天峰岭和翠屏峰为中心，包括天峰岭景区、翠屏峰景区、千佛岭景区、温泉景区和浑源城景点群；龙山一带为自然保护区。恒山主峰分东西两峰，东为大峰岭西为翠屏峰，两峰对峙，风格独具，断崖绿带、层次分明。金龙峡，居于天峰岭、翠屏峰之间，峡谷幽深，峭壁侧立，石夹青天，最窄处不过三丈。这里自古为兵家必争之地。北魏时，道武帝发兵数万人，在此劈山凿道据守，作为进退中原的门户。宋代，杨业父子在此以险为凭，抵抗外族的人侵。\n\n\n恒山松，为恒山一景。“四大夫松”，古松根部悬于石外，紧抓岩石，傲然挺立，姿态雄健。在虎风门观松，或立于丹崖上，或倒挂于绝壁问，如伞如翼如亭如龙如桥，千姿百态，仪态万方。恒山云，变幻无穷。出云洞在后土夫人庙的不远处山腰，晴日郎郎，洞口寂静，阴雨来临，洞口便游出缕缕白云，引人遐思。\n恒山景观中，果老岭、姑嫂岩，飞石窟、还原洞、虎风日、大宇湾等处，充满了神奇色彩，还伴有优美的神话传说。悬根松、紫芝峪、苦甜井更是自然景观中的奇景。苦甜井位于恒山半腰，双井并列，相隔1米，水质迥然不同。一井水如甘露，甜美清凉、水井深数尺，取之不尽，可供万人饮用，唐玄宗李隆基赐匾“龙泉观”。另一井水苦涩难饮，成为鲜明对照。现苦井已封。"}}, {"title": "汤头温泉", "address": "大同市浑源县汤头村", "image": "", "rank": 2, "time": 2, "location": {"lat": 39.4092946055757, "lng": 113.94835202001016}, "feature": {"sight_features": "", "sight_content": ""}}, {"title": "恒山九天宫", "address": "浑源县恒山九天宫", "image": "", "rank": 3, "time": 1.5, "location": {"lat": 39.698952969845486, "lng": 113.70560028821707}, "feature": {"sight_features": "", "sight_content": ""}}, {"title": "真武庙", "address": "大同市浑源县停旨岭村，恒山索道附近", "image": "", "rank": 4, "time": 1.0, "location": {"lat": 39.669197794831916, "lng": 113.73921988665704}, "feature": {"sight_features": "", "sight_content": ""}}, {"title": "北岳庙", "address": "恒山", "image": "", "rank": 5, "time": 1.0, "location": {"lat": 45.21697188315374, "lng": 130.91138523344475}, "feature": {"sight_features": "", "sight_content": ""}}, {"title": "恒山水库", "address": "大同市浑源县", "image": "", "rank": 6, "time": 2, "location": {"lat": 39.698952969845486, "lng": 113.70560028821707}, "feature": {"sight_features": "", "sight_content": ""}}, {"title": "栗毓美墓", "address": "山西浑源县城东门外", "image": "", "rank": 7, "time": 2, "location": {"lat": 39.698952969845486, "lng": 113.70560028821707}, "feature": {"sight_features": "", "sight_content": ""}}, {"title": "仙人洞府", "address": "恒州常山曲阳县", "image": "", "rank": 8, "time": 2, "location": {"lat": 38.62838410412241, "lng": 114.75145481380322}, "feature": {"sight_features": "", "sight_content": ""}}, {"title": "浑源千佛岭", "address": "大同市浑源县", "image": "", "rank": 9, "time": 1.5, "location": {"lat": 39.698952969845486, "lng": 113.70560028821707}, "feature": {"sight_features": "", "sight_content": ""}}, {"title": "兴胜舞台", "address": "下辛安村附近", "image": "", "rank": 10, "time": 2, "location": {"lat": 39.851813282484, "lng": 113.65569972705319}, "feature": {"sight_features": "", "sight_content": ""}}, {"title": "神农草莓采摘园", "address": "永安镇神农草莓采摘园", "image": "", "rank": 11, "time": 2, "location": {"lat": 40.21238141341787, "lng": 116.43239094340872}, "feature": {"sight_features": "", "sight_content": ""}}, {"title": "吉姆考拉儿童水上乐园", "address": "永安东街", "image": "", "rank": 12, "time": 2, "location": {"lat": 40.776040439595945, "lng": 114.74729528919016}, "feature": {"sight_features": "", "sight_content": ""}}, {"title": "何昌寺", "address": "山西省大同市浑源县", "image": "", "rank": 13, "time": 2, "location": {"lat": 39.698952969845486, "lng": 113.70560028821707}, "feature": {"sight_features": "", "sight_content": ""}}, {"title": "三官大帝", "address": "大同市浑源县二零三省道北岳恒山姑嫂崖内", "image": "", "rank": 14, "time": 2, "location": {"lat": 39.66640761191209, "lng": 113.72878690717599}, "feature": {"sight_features": "", "sight_content": ""}}, {"title": "白虎殿", "address": "大同市浑源县二〇三省道北岳恒山内", "image": "", "rank": 15, "time": 2, "location": {"lat": 39.66640761191209, "lng": 113.72878690717599}, "feature": {"sight_features": "", "sight_content": ""}}, {"title": "体育休闲广场", "address": "和顺北路南150米", "image": "", "rank": 16, "time": 2, "location": {"lat": 23.175627367955805, "lng": 113.26492527697533}, "feature": {"sight_features": "", "sight_content": ""}}, {"title": "通天寺", "address": "山西省大同市浑源县王庄堡镇王庄堡鹿鸣山", "image": "", "rank": 17, "time": 2, "location": {"lat": 39.44431364871191, "lng": 113.91648954397823}, "feature": {"sight_features": "", "sight_content": ""}}, {"title": "柳河园", "address": "大同市浑源县", "image": "", "rank": 18, "time": 2, "location": {"lat": 39.698952969845486, "lng": 113.70560028821707}, "feature": {"sight_features": "", "sight_content": ""}}, {"title": "女娲娘娘庙", "address": "大同市浑源县二零三省道北岳恒山内", "image": "", "rank": 19, "time": 2, "location": {"lat": 39.66640761191209, "lng": 113.72878690717599}, "feature": {"sight_features": "", "sight_content": ""}}, {"title": "雷音殿", "address": "大同市浑源县东南郊恒山脚下悬空寺内", "image": "", "rank": 20, "time": 2, "location": {"lat": 39.667059184320316, "lng": 113.72164419620162}, "feature": {"sight_features": "", "sight_content": ""}}, {"title": "迎宾公园", "address": "203省道附近", "image": "", "rank": 21, "time": 0.75, "location": {"lat": 38.70057735317822, "lng": 114.30841754306506}, "feature": {"sight_features": "", "sight_content": ""}}, {"title": "圆觉寺砖塔", "address": "山西省大同市浑源县", "image": "", "rank": 22, "time": 1.5, "location": {"lat": 39.698952969845486, "lng": 113.70560028821707}, "feature": {"sight_features": "", "sight_content": ""}}, {"title": "悬空寺 Hengshan Hanging Temple...", "address": "山西省大同市恒山", "image": "", "rank": 23, "time": 2, "location": {"lat": 40.0824687161612, "lng": 113.30643625858623}, "feature": {"sight_features": "", "sight_content": ""}}, {"title": "麻庄汉墓群", "address": "山西省浑源县麻庄村", "image": "", "rank": 24, "time": null, "location": {"lat": 39.51516715538607, "lng": 113.67135741307527}, "feature": {"sight_features": "", "sight_content": ""}}, {"title": "滴泪佛", "address": "山西省浑源县翠屏峰南侧", "image": "", "rank": 25, "time": 2, "location": {"lat": 39.698952969845486, "lng": 113.70560028821707}, "feature": {"sight_features": "", "sight_content": ""}}, {"title": "栗家坟", "address": "大同市浑源县城东门外", "image": "", "rank": 26, "time": 2, "location": {"lat": 39.698952969845486, "lng": 113.70560028821707}, "feature": {"sight_features": "", "sight_content": ""}}, {"title": "恒山壮观碑", "address": "山西省大同市城区博物馆碑廊", "image": "", "rank": 27, "time": 2, "location": {"lat": 40.09803967132115, "lng": 113.3031508858446}, "feature": {"sight_features": "", "sight_content": ""}}, {"title": "三教殿", "address": "东南郊恒山脚下悬空寺内", "image": "", "rank": 28, "time": 2, "location": {"lat": 39.667059184320316, "lng": 113.72164419620162}, "feature": {"sight_features": "", "sight_content": ""}}]}