{"cityName": "霍城", "days": 2, "cityImage": "", "spots": [{"title": "果子沟大桥", "address": "维吾尔自治区伊犁哈萨克自治州霍城县", "image": "", "rank": 1, "time": 1.0, "location": {"lat": 44.062249507398526, "lng": 80.8852811232011}, "feature": {"sight_features": "", "sight_content": ""}}, {"title": "汉家公主薰衣草园", "address": "伊犁市霍城县芦草沟镇赛马场对面", "image": "", "rank": 2, "time": 2.5, "location": {"lat": 44.24505668731134, "lng": 80.86241447662245}, "feature": {"sight_features": "", "sight_content": ""}}, {"title": "惠远古城历史文化展览馆", "address": "伊犁哈萨克自治州霍城县060乡道", "image": "", "rank": 3, "time": 2, "location": {"lat": 44.062249507398526, "lng": 80.8852811232011}, "feature": {"sight_features": "", "sight_content": ""}}, {"title": "中华福寿山景区", "address": "伊犁州霍城县大西沟乡境内", "image": "", "rank": 4, "time": 2, "location": {"lat": 44.32632696958939, "lng": 80.7817326365249}, "feature": {"sight_features": "", "sight_content": ""}}, {"title": "科古尔琴薰衣草园", "address": "伊犁哈萨克自治州霍城县芦草沟镇四宫村", "image": "", "rank": 5, "time": 1.5, "location": {"lat": 44.284770567465905, "lng": 80.90552698833747}, "feature": {"sight_features": "", "sight_content": ""}}, {"title": "薰衣草园", "address": "65团8连", "image": "", "rank": 6, "time": 2, "location": {"lat": 44.26014977468732, "lng": 80.91233143770086}, "feature": {"sight_features": "", "sight_content": ""}}, {"title": "央布拉克民俗村", "address": "伊犁哈萨克自治州霍城县060乡道", "image": "", "rank": 7, "time": 2, "location": {"lat": 44.062249507398526, "lng": 80.8852811232011}, "feature": {"sight_features": "", "sight_content": ""}}, {"title": "边防史馆", "address": "725县道", "image": "", "rank": 8, "time": 2, "location": {"lat": 29.47854170358305, "lng": 117.62968035863315}, "feature": {"sight_features": "", "sight_content": ""}}, {"title": "果子沟瀑布", "address": "中国新疆维吾尔自治区伊犁哈萨克自治州霍城县", "image": "", "rank": 9, "time": 2, "location": {"lat": 44.062249507398526, "lng": 80.8852811232011}, "feature": {"sight_features": "", "sight_content": ""}}, {"title": "图开沙漠", "address": "新疆维吾尔自治区伊犁哈萨克自治州霍城县 ‎", "image": "", "rank": 10, "time": 2, "location": {"lat": 44.062249507398526, "lng": 80.8852811232011}, "feature": {"sight_features": "", "sight_content": ""}}, {"title": "阿伊朵薰衣草文化旅游景区", "address": "伊犁霍城县惠远镇", "image": "", "rank": 11, "time": 2, "location": {"lat": 43.99761420664095, "lng": 80.97530867448367}, "feature": {"sight_features": "", "sight_content": ""}}, {"title": "惠远古城陈列馆", "address": "惠远古城东大街(钟鼓楼旁)", "image": "", "rank": 12, "time": 2, "location": {"lat": 40.01504540963074, "lng": 119.76249305532639}, "feature": {"sight_features": "", "sight_content": ""}}, {"title": "科古尔琴薰衣草庄园", "address": "芦草沟镇四宫村", "image": "", "rank": 13, "time": 2, "location": {"lat": 44.284770567465905, "lng": 80.90552698833747}, "feature": {"sight_features": "", "sight_content": ""}}, {"title": "霍城县图书馆", "address": "世纪广场内", "image": "", "rank": 14, "time": 2, "location": {"lat": 22.52974837028714, "lng": 113.05032537813872}, "feature": {"sight_features": "", "sight_content": ""}}, {"title": "绿尚源农家乐", "address": "城西1村", "image": "", "rank": 15, "time": 2, "location": {"lat": 31.404904632149112, "lng": 121.4497012285619}, "feature": {"sight_features": "", "sight_content": ""}}, {"title": "吐虎鲁克·铁木尔汗麻札", "address": "新疆维吾尔自治区霍城县大麻扎乡 835200", "image": "", "rank": 16, "time": 2, "location": {"lat": 44.062249507398526, "lng": 80.8852811232011}, "feature": {"sight_features": "", "sight_content": ""}}, {"title": "泰康图书室", "address": "北京东路", "image": "", "rank": 17, "time": 2, "location": {"lat": 31.70964147503772, "lng": 119.99157021291751}, "feature": {"sight_features": "", "sight_content": ""}}, {"title": "熏衣草基地", "address": "哈萨克自治州霍城县", "image": "", "rank": 18, "time": 2, "location": {"lat": 44.062249507398526, "lng": 80.8852811232011}, "feature": {"sight_features": "", "sight_content": ""}}, {"title": "海力亚图书馆", "address": "新荣西路与海里亚街北二巷交叉口西北50米", "image": "", "rank": 19, "time": 2, "location": {"lat": 44.05899625144499, "lng": 80.87595725485356}, "feature": {"sight_features": "", "sight_content": ""}}, {"title": "库日干休闲农家乐", "address": "新荣西路与新荣西路南二巷交叉处西侧路北", "image": "", "rank": 20, "time": 2, "location": {"lat": 39.63066079909864, "lng": 118.20639924927531}, "feature": {"sight_features": "", "sight_content": ""}}, {"title": "舍尔布休闲农家乐", "address": "725县道西50米", "image": "", "rank": 21, "time": 2, "location": {"lat": 29.50627111617505, "lng": 106.60401238032686}, "feature": {"sight_features": "", "sight_content": ""}}, {"title": "清水小吃一条街", "address": "新疆维吾尔自治区霍城县清水商业大楼南侧", "image": "", "rank": 22, "time": 2, "location": {"lat": 44.1932527531146, "lng": 80.75053807309725}, "feature": {"sight_features": "", "sight_content": ""}}, {"title": "塔尔吉五队", "address": "伊犁哈萨克自治州-霍城县-三道河乡塔尔吉村五组", "image": "", "rank": 23, "time": 2, "location": {"lat": 44.05099914748973, "lng": 80.8036917167824}, "feature": {"sight_features": "", "sight_content": ""}}, {"title": "四宫村二组", "address": "伊犁哈萨克自治州-霍城县", "image": "", "rank": 24, "time": 2, "location": {"lat": 44.062249507398526, "lng": 80.8852811232011}, "feature": {"sight_features": "", "sight_content": ""}}, {"title": "四宫三队", "address": "伊犁哈萨克自治州-霍城县-一二三乡道", "image": "", "rank": 25, "time": null, "location": {"lat": 44.062249507398526, "lng": 80.8852811232011}, "feature": {"sight_features": "", "sight_content": ""}}, {"title": "清水河镇", "address": "中国新疆维吾尔自治区伊犁哈萨克自治州霍城县清水河镇‎", "image": "", "rank": 26, "time": 2, "location": {"lat": 44.184987999129554, "lng": 80.81703766585592}, "feature": {"sight_features": "", "sight_content": ""}}, {"title": "果子沟牧场", "address": "中国新疆维吾尔自治区伊犁哈萨克自治州霍城县果子沟牧场", "image": "", "rank": 27, "time": 2, "location": {"lat": 44.32261694146477, "lng": 80.94526902957224}, "feature": {"sight_features": "", "sight_content": ""}}, {"title": "解忧公主薰衣草园", "address": "伊宁市霍城县清水河镇上海南路", "image": "", "rank": 28, "time": 2.5, "location": {"lat": 43.92690184042136, "lng": 81.25915722139693}, "feature": {"sight_features": "特色1 在广袤薰衣草田和七彩花田中拍出摄影大片。 参观薰衣草博物馆，了解关于薰衣草的种植、加工过程和品种分类等知识。", "sight_content": "“国家aaa级景区”、新疆十大“游客最喜爱景区”——解忧公主薰衣草园，位于古丝绸之路的北道重镇新疆伊犁清水河镇。这里地处天山北麓伊犁河谷，北纬43°39′～44°50′，与世界薰衣草原产地法国普罗旺斯的地理位置、气候条件和土壤环境非常相似，是全世界继法国普罗旺斯、日本富良野之后的第三大薰衣草种植基地，是中国薰衣草主产地，有“中国薰衣草之乡”的美称。\n\n解忧公主薰衣草园由“农业产业化国家重点龙头企业”天药生物的全资子公司——新疆天然芳香农业科技有限公司，按照“展现薰衣草天然本色，展示薰衣草产业全貌，展演解忧公主品牌文化”的理念投资建设。园区占地面积220余亩，由薰衣草博物馆、薰衣草香草园和薰衣草gmp芳香车间三部分组成。\n“解忧公主”薰衣草博物馆是目前中国唯一一家薰衣草主题博物馆，分为主题馆、精油馆、标本馆、文化馆四部分。馆内汇集了有关薰衣草的实物、标本、产品、文献、图片以及陈列的法式经典蒸馏炉、调香台，是人们全面了解薰衣草生物特性、文化知识、加工工艺等最直观的资料。同时，也是人们对薰衣草进行专业研究、学术交流、文化创作的场所。\n景区内的“香草文化长廊”是以薰衣草为代表的“香草科普知识、香草文化知识、香草文化研究、香草生产加工”等内容的香草主题科普文化园地，为喜爱香草植物的人们了解世界香草知识，传播香草美好文化，建设了一个研究、交流、学习和品赏的园地。\n景区内的“香草品种园”是目前中国唯一一个、也是薰衣草、香草品种最多的香草植物品种景观园。园内种植了薰衣草、神香草、薄荷、迷迭香、香紫苏、紫雏菊等97种30多个品系的香草植物。\n解忧公主薰衣草园经典景点包括薰衣草蒸馏炉、七彩花田、香草恋人、香草品种园、大风车、香帅先生、一路缘、紫海云天观景台及可供参观薰衣草产品生产加工过程的芳香文化长廊、可以选购产品的薰衣草小街等。\n每年六月，薰衣草盛花期，解忧公主薰衣草园呈献给世界各地的游客亲近薰衣草、拥抱薰衣草，尽情释放对薰衣草的热爱之情的盛情；为走过千山万水寻香采美的旅人、调香师、摄影爱好者、书画家、香草研究者筑就了一个薰衣草的美好家园、主理了一个释放情怀、艺术创作的沙龙。\n每年六月，与您相约。解忧公主薰衣草园欢迎您！"}}, {"title": "解忧公主薰衣草庄园", "address": "伊犁哈萨克自治州霍城县清水河镇218国道", "image": "", "rank": 29, "time": 1.0, "location": {"lat": 44.1880096609302, "lng": 80.7537315661632}, "feature": {"sight_features": "", "sight_content": ""}}]}