{"cityName": "获嘉", "days": 2, "cityImage": "", "spots": [{"title": "同盟山", "address": "新乡市获嘉县", "image": "", "rank": 1, "time": 1.0, "location": {"lat": 35.2658092841611, "lng": 113.66341666994346}, "feature": {"sight_features": "", "sight_content": ""}}, {"title": "平阳寺", "address": "308省道附近", "image": "", "rank": 2, "time": 1.0, "location": {"lat": 40.337133976011295, "lng": 116.52614205897426}, "feature": {"sight_features": "", "sight_content": ""}}, {"title": "飞龙寺", "address": "河南省新乡市获嘉县", "image": "", "rank": 3, "time": 2.0, "location": {"lat": 35.2658092841611, "lng": 113.66341666994346}, "feature": {"sight_features": "", "sight_content": ""}}, {"title": "永安杏梅园", "address": "获武路中岳气站向南200米路东", "image": "", "rank": 4, "time": 2.5, "location": {"lat": 22.6280325385315, "lng": 114.04309373260644}, "feature": {"sight_features": "", "sight_content": ""}}, {"title": "红豆杉生态园", "address": "308省道附近", "image": "", "rank": 5, "time": 2, "location": {"lat": 40.337133976011295, "lng": 116.52614205897426}, "feature": {"sight_features": "", "sight_content": ""}}, {"title": "亚嘉庄园", "address": "230省道", "image": "", "rank": 6, "time": 2, "location": {"lat": 36.0895617983312, "lng": 111.58252815779157}, "feature": {"sight_features": "", "sight_content": ""}}, {"title": "固香园有机葡萄", "address": "亢村镇刘固堤西街村", "image": "", "rank": 7, "time": 2, "location": {"lat": 35.14554842280693, "lng": 113.72032257949127}, "feature": {"sight_features": "", "sight_content": ""}}, {"title": "科迪食文化广场", "address": "河南省新乡市获嘉县北干道西段北50米", "image": "", "rank": 8, "time": 2, "location": {"lat": 35.27626938388424, "lng": 113.63736540591663}, "feature": {"sight_features": "", "sight_content": ""}}, {"title": "侯世祠堂", "address": "河南省新乡市获嘉县s309", "image": "", "rank": 9, "time": 2, "location": {"lat": 35.2658092841611, "lng": 113.66341666994346}, "feature": {"sight_features": "", "sight_content": ""}}, {"title": "楼村纪念堂", "address": "楼离线东50米", "image": "", "rank": 10, "time": 2, "location": {"lat": 35.31539315949701, "lng": 113.6980122063539}, "feature": {"sight_features": "", "sight_content": ""}}, {"title": "获嘉城关教会", "address": "城关镇文化路10号", "image": "", "rank": 11, "time": 2, "location": {"lat": 34.162650802101375, "lng": 112.48406367075616}, "feature": {"sight_features": "", "sight_content": ""}}, {"title": "西刘基督教堂", "address": "刘固堤西街村附近", "image": "", "rank": 12, "time": null, "location": {"lat": 35.14554842280693, "lng": 113.72032257949127}, "feature": {"sight_features": "", "sight_content": ""}}, {"title": "中国基督教会大新庄堂", "address": "大新庄村附近", "image": "", "rank": 13, "time": 2, "location": {"lat": 39.61093674460916, "lng": 117.55421468538026}, "feature": {"sight_features": "", "sight_content": ""}}, {"title": "帅庄基督教堂", "address": "帅庄村附近", "image": "", "rank": 14, "time": 2, "location": {"lat": 33.13771177063151, "lng": 112.57888180438613}, "feature": {"sight_features": "", "sight_content": ""}}, {"title": "登觉寺", "address": "河南省新乡市获嘉县大新庄乡", "image": "", "rank": 15, "time": 2, "location": {"lat": 35.184212998421735, "lng": 113.65677654742733}, "feature": {"sight_features": "", "sight_content": ""}}, {"title": "崔氏宗祠", "address": "309省道附近", "image": "", "rank": 16, "time": 2, "location": {"lat": 40.709016096764906, "lng": 116.52743651721413}, "feature": {"sight_features": "", "sight_content": ""}}, {"title": "净云寺", "address": "建设街北100米", "image": "", "rank": 17, "time": 2, "location": {"lat": 38.09400606225244, "lng": 114.62444471286672}, "feature": {"sight_features": "", "sight_content": ""}}, {"title": "城隍公园", "address": "健康路与民主路交叉口东南150米", "image": "", "rank": 18, "time": 2, "location": {"lat": 43.80371257381955, "lng": 87.63084846896695}, "feature": {"sight_features": "", "sight_content": ""}}, {"title": "大黄蜂儿童乐园", "address": "新乡市获嘉县", "image": "", "rank": 19, "time": 2, "location": {"lat": 35.2658092841611, "lng": 113.66341666994346}, "feature": {"sight_features": "", "sight_content": ""}}, {"title": "乐翻天主题乐园", "address": "新乡市获嘉县行政路景文百货获嘉店3层", "image": "", "rank": 20, "time": 2, "location": {"lat": 35.26731627432793, "lng": 113.66292537588039}, "feature": {"sight_features": "", "sight_content": ""}}, {"title": "望景度假村", "address": "获嘉县冯庄镇王井村", "image": "", "rank": 21, "time": 2, "location": {"lat": 35.06745995414491, "lng": 113.65232689888032}, "feature": {"sight_features": "", "sight_content": ""}}, {"title": "吴庄祖师庙", "address": "吴庄村附近", "image": "", "rank": 22, "time": 2, "location": {"lat": 40.05312099413259, "lng": 116.72606393600141}, "feature": {"sight_features": "", "sight_content": ""}}, {"title": "关帝大殿", "address": "中兴二路附近", "image": "", "rank": 23, "time": 2, "location": {"lat": 36.76935937145132, "lng": 114.89639637999069}, "feature": {"sight_features": "", "sight_content": ""}}, {"title": "民族英雄岳飞纪念馆", "address": "新华街南段", "image": "", "rank": 24, "time": 2, "location": {"lat": 42.28574580118976, "lng": 123.84479030058296}, "feature": {"sight_features": "", "sight_content": ""}}, {"title": "同盟温泉休闲会所", "address": "同盟山景区西侧同盟庄园内", "image": "", "rank": 25, "time": 2, "location": {"lat": 35.27319862122249, "lng": 113.69806382658173}, "feature": {"sight_features": "", "sight_content": ""}}, {"title": "孟春画廊", "address": "建设街北50米", "image": "", "rank": 26, "time": 2, "location": {"lat": 38.093651086351066, "lng": 114.62444471286672}, "feature": {"sight_features": "", "sight_content": ""}}, {"title": "鑫宇火龙果采摘园", "address": "中和镇红绿灯路口向南2公里", "image": "", "rank": 27, "time": 2, "location": {"lat": 22.6280325385315, "lng": 114.04309373260644}, "feature": {"sight_features": "", "sight_content": ""}}, {"title": "高旗营优质鲜桃釆摘园", "address": "031县道附近", "image": "", "rank": 28, "time": 2, "location": {"lat": 32.00179835822073, "lng": 117.42212392208955}, "feature": {"sight_features": "", "sight_content": ""}}, {"title": "草莓采摘园", "address": "225省道东100米", "image": "", "rank": 29, "time": 2, "location": {"lat": 36.171635087060416, "lng": 113.15802657646893}, "feature": {"sight_features": "", "sight_content": ""}}, {"title": "高飞园林老崔钓鱼园", "address": "008乡道附近", "image": "", "rank": 30, "time": 2, "location": {"lat": 41.737958580181754, "lng": 117.99106634564795}, "feature": {"sight_features": "", "sight_content": ""}}, {"title": "凯富葡萄农庄", "address": "亢村镇山头王村", "image": "", "rank": 31, "time": 2, "location": {"lat": 35.15678852576857, "lng": 113.73879832445749}, "feature": {"sight_features": "", "sight_content": ""}}, {"title": "亢村老五鱼坑", "address": "230省道附近", "image": "", "rank": 32, "time": 2, "location": {"lat": 36.0895617983312, "lng": 111.58252815779157}, "feature": {"sight_features": "", "sight_content": ""}}]}