{"cityName": "霍林郭勒", "days": 2, "cityImage": "", "spots": [{"title": "可汗山", "address": "通辽市霍林郭勒市", "image": "", "rank": 1, "time": 2, "location": {"lat": 45.53751332060997, "lng": 119.67046591393887}, "feature": {"sight_features": "", "sight_content": ""}}, {"title": "静湖度假村", "address": "内蒙古通辽市霍林郭勒市漫山", "image": "", "rank": 2, "time": 2, "location": {"lat": 45.53751332060997, "lng": 119.67046591393887}, "feature": {"sight_features": "", "sight_content": ""}}, {"title": "沙尔呼热镇基督教堂", "address": "内蒙古自治区通辽市霍林郭勒市人民法院沙尔呼热人民法庭西南", "image": "", "rank": 3, "time": 2, "location": {"lat": 45.54485073596663, "lng": 119.67129567873845}, "feature": {"sight_features": "", "sight_content": ""}}, {"title": "玲玲儿童乐园", "address": "达来胡硕街与创业路交汇北侧", "image": "", "rank": 4, "time": 2, "location": {"lat": 38.049793198095635, "lng": 114.45225952042694}, "feature": {"sight_features": "", "sight_content": ""}}, {"title": "霍林河滑雪场", "address": "观音山旅游风景区", "image": "", "rank": 5, "time": 2, "location": {"lat": 35.58145090438342, "lng": 119.64956500446269}, "feature": {"sight_features": "", "sight_content": ""}}, {"title": "鸿雁湖", "address": "内蒙古通辽市霍林郭勒市西南30公里处", "image": "", "rank": 6, "time": 2, "location": {"lat": 45.3477978027347, "lng": 119.67046591393887}, "feature": {"sight_features": "", "sight_content": ""}}, {"title": "游乐场", "address": "通辽市霍林郭勒市", "image": "", "rank": 7, "time": null, "location": {"lat": 45.53751332060997, "lng": 119.67046591393887}, "feature": {"sight_features": "", "sight_content": ""}}, {"title": "天润有机肥", "address": "振兴路鸿宇大厦9-G05号", "image": "", "rank": 8, "time": 2, "location": {"lat": 42.0179480941238, "lng": 121.66233137974038}, "feature": {"sight_features": "", "sight_content": ""}}, {"title": "振兴步行街", "address": "内蒙古自治区霍林郭勒市振兴路", "image": "", "rank": 9, "time": 2, "location": {"lat": 45.53737001602372, "lng": 119.66260798828691}, "feature": {"sight_features": "", "sight_content": ""}}, {"title": "霍林郭勒友谊金街", "address": "内蒙古自治区霍林郭勒市友谊路与泰丰大街交叉口", "image": "", "rank": 10, "time": 2, "location": {"lat": 45.544636521491626, "lng": 119.66898945001961}, "feature": {"sight_features": "", "sight_content": ""}}]}