{"cityName": "霍邱", "days": 2, "cityImage": "", "spots": [{"title": "临淮岗风景区", "address": "六安市霍邱县临淮岗乡", "image": "", "rank": 1, "time": 12.0, "location": {"lat": 32.46129514150109, "lng": 116.32877518020743}, "feature": {"sight_features": "", "sight_content": ""}}, {"title": "霍邱县孔庙", "address": "六安市霍邱县城东北角", "image": "", "rank": 2, "time": null, "location": {"lat": 32.3593435909225, "lng": 116.28439133775672}, "feature": {"sight_features": "", "sight_content": ""}}, {"title": "李家圩地主庄园", "address": "安徽省六安市霍邱县马店镇", "image": "", "rank": 3, "time": 1.0, "location": {"lat": 32.24729406593869, "lng": 115.96466139665992}, "feature": {"sight_features": "", "sight_content": ""}}, {"title": "红土地农家乐草莓采摘园", "address": "宋店乡八里村", "image": "", "rank": 4, "time": 2, "location": {"lat": 32.295434294590336, "lng": 116.2682329236671}, "feature": {"sight_features": "", "sight_content": ""}}, {"title": "霍邱剧场", "address": "东湖路517号附近", "image": "", "rank": 5, "time": 1.5, "location": {"lat": 36.195674358051775, "lng": 117.14703483359057}, "feature": {"sight_features": "", "sight_content": ""}}, {"title": "超级课堂", "address": "城关镇光明大道逸夫小学路口向北20米", "image": "", "rank": 6, "time": 2, "location": {"lat": 22.464120095020736, "lng": 112.73032052062767}, "feature": {"sight_features": "", "sight_content": ""}}, {"title": "霍邱县明清生态园", "address": "周集中学西北250米", "image": "", "rank": 7, "time": 2, "location": {"lat": 32.49715207699966, "lng": 116.02581782557574}, "feature": {"sight_features": "", "sight_content": ""}}, {"title": "李家祠堂", "address": "六安市霍邱县三一零省道", "image": "", "rank": 8, "time": 2, "location": {"lat": 32.40605895486282, "lng": 116.41028750752186}, "feature": {"sight_features": "", "sight_content": ""}}, {"title": "王家祠堂", "address": "六安市霍邱县零一三县道", "image": "", "rank": 9, "time": 2, "location": {"lat": 32.3593435909225, "lng": 116.28439133775672}, "feature": {"sight_features": "", "sight_content": ""}}, {"title": "泡泡糖儿童乐园", "address": "安徽省六安市霍邱县光明大道189", "image": "", "rank": 10, "time": 2, "location": {"lat": 32.34996509469259, "lng": 116.28398011595188}, "feature": {"sight_features": "", "sight_content": ""}}, {"title": "霍邱县观音阁寺庙", "address": "安徽省六安市霍邱县五岳路", "image": "", "rank": 11, "time": 2, "location": {"lat": 32.335526469275166, "lng": 116.27858307399029}, "feature": {"sight_features": "", "sight_content": ""}}, {"title": "周集教堂", "address": "安徽省六安市霍邱县G105(京珠线)", "image": "", "rank": 12, "time": 2, "location": {"lat": 32.3593435909225, "lng": 116.28439133775672}, "feature": {"sight_features": "", "sight_content": ""}}, {"title": "霍邱县观音山农业生态园", "address": "六安市霍邱县马店镇谢老庄西南侧", "image": "", "rank": 13, "time": 2, "location": {"lat": 32.24257960076174, "lng": 116.00153358957179}, "feature": {"sight_features": "", "sight_content": ""}}, {"title": "五塔寺", "address": "安徽省六安市霍邱县", "image": "", "rank": 14, "time": 1.0, "location": {"lat": 32.3593435909225, "lng": 116.28439133775672}, "feature": {"sight_features": "", "sight_content": ""}}, {"title": "胡祠堂", "address": "六安市霍邱县一零五国道", "image": "", "rank": 15, "time": 2, "location": {"lat": 32.3593435909225, "lng": 116.28439133775672}, "feature": {"sight_features": "", "sight_content": ""}}, {"title": "烈士塔", "address": "安徽省六安市霍邱县城关镇东湖路霍邱烈士陵园", "image": "", "rank": 16, "time": 2, "location": {"lat": 32.336416068407075, "lng": 116.29376965895885}, "feature": {"sight_features": "", "sight_content": ""}}, {"title": "卧阳景观", "address": "卧阳大道与蓼城路交叉口东南50米", "image": "", "rank": 17, "time": 2, "location": {"lat": 32.35483265507927, "lng": 116.29861155979324}, "feature": {"sight_features": "", "sight_content": ""}}, {"title": "尚品文化广场（原霍邱图书城）", "address": "安徽省六安市霍邱县东湖路246", "image": "", "rank": 18, "time": 2, "location": {"lat": 32.33934064211806, "lng": 116.28471221248488}, "feature": {"sight_features": "", "sight_content": ""}}, {"title": "安阳山革命烈士陵园", "address": "六安市霍邱县", "image": "", "rank": 19, "time": 2, "location": {"lat": 32.3593435909225, "lng": 116.28439133775672}, "feature": {"sight_features": "", "sight_content": ""}}, {"title": "成功图书阅览馆", "address": "西湖中路", "image": "", "rank": 20, "time": 2, "location": {"lat": 23.102761212464117, "lng": 113.86844284251481}, "feature": {"sight_features": "", "sight_content": ""}}, {"title": "霍邱书画院艺术馆", "address": "东湖路448", "image": "", "rank": 21, "time": 2, "location": {"lat": 25.307059476626765, "lng": 117.44213410667746}, "feature": {"sight_features": "", "sight_content": ""}}, {"title": "燕子农家乐", "address": "032县道与霍临路交叉口东", "image": "", "rank": 22, "time": 2, "location": {"lat": 30.756286562523456, "lng": 118.07102254281895}, "feature": {"sight_features": "", "sight_content": ""}}, {"title": "霍邱平硕农业科技有限公司", "address": "中国安徽省六安市霍邱县", "image": "", "rank": 23, "time": 2, "location": {"lat": 32.3593435909225, "lng": 116.28439133775672}, "feature": {"sight_features": "", "sight_content": ""}}, {"title": "金沙湾水上乐园", "address": "岔路镇310省道莲花道班向北200米路西", "image": "", "rank": 24, "time": 2, "location": {"lat": 27.133462711027768, "lng": 113.96854067422115}, "feature": {"sight_features": "", "sight_content": ""}}, {"title": "李国家渔类生产基地", "address": "冯瓴乡曹庙", "image": "", "rank": 25, "time": 2, "location": {"lat": 32.230638326615576, "lng": 116.48618509302588}, "feature": {"sight_features": "", "sight_content": ""}}, {"title": "霍邱县连媛生态园有限公司", "address": "冯井镇周楼村刘家堰湾陈郢子", "image": "", "rank": 26, "time": 2, "location": {"lat": 32.326238630472645, "lng": 115.94081590923655}, "feature": {"sight_features": "", "sight_content": ""}}, {"title": "霍邱县玉皇生态农业示范园", "address": "侧200米", "image": "", "rank": 27, "time": 2, "location": {"lat": 49.07585558465927, "lng": 123.03278049880403}, "feature": {"sight_features": "", "sight_content": ""}}, {"title": "安徽余氏农业发展有限公司", "address": "高塘镇龙井村西北300米", "image": "", "rank": 28, "time": 2, "location": {"lat": 32.38202442986079, "lng": 116.0007384005513}, "feature": {"sight_features": "", "sight_content": ""}}, {"title": "新东环步行街", "address": "安徽省霍邱县东环步行街", "image": "", "rank": 29, "time": 2, "location": {"lat": 32.34434562285167, "lng": 116.27783469477163}, "feature": {"sight_features": "", "sight_content": ""}}, {"title": "霍邱水门塘公园", "address": "安徽省六安市霍邱县 ‎", "image": "", "rank": 30, "time": 2, "location": {"lat": 32.3593435909225, "lng": 116.28439133775672}, "feature": {"sight_features": "", "sight_content": ""}}]}