{"cityName": "加查", "days": 2, "cityImage": "", "spots": [{"title": "拉姆拉错", "address": "山南市加查县曲科杰丛山之中", "image": "", "rank": 1, "time": 2.0, "location": {"lat": 29.14608747478364, "lng": 92.6004488814891}, "feature": {"sight_features": "", "sight_content": ""}}, {"title": "琼果杰寺", "address": "山南市加查县崔久乡", "image": "", "rank": 2, "time": 1.0, "location": {"lat": 29.455504118313087, "lng": 92.71450153805085}, "feature": {"sight_features": "", "sight_content": ""}}, {"title": "那玉河谷", "address": "山南市加查县", "image": "", "rank": 3, "time": 2, "location": {"lat": 29.14608747478364, "lng": 92.6004488814891}, "feature": {"sight_features": "", "sight_content": ""}}, {"title": "拉姆拉措", "address": "加查县城东北部", "image": "", "rank": 4, "time": 1.5, "location": {"lat": 36.605707645661155, "lng": 101.8095690383313}, "feature": {"sight_features": "", "sight_content": ""}}, {"title": "加查县", "address": "山南市东南部", "image": "", "rank": 5, "time": 2, "location": {"lat": 29.243026939249226, "lng": 91.77867513851903}, "feature": {"sight_features": "", "sight_content": ""}}, {"title": "加查布拉丹山", "address": "西藏自治区加查县境内 856400", "image": "", "rank": 6, "time": 2.0, "location": {"lat": 29.14608747478364, "lng": 92.6004488814891}, "feature": {"sight_features": "", "sight_content": ""}}, {"title": "诺米村碉楼遗址", "address": "西藏自治区加查县安绕诺米村北 856400", "image": "", "rank": 7, "time": 2, "location": {"lat": 29.156880244285983, "lng": 92.58528873545332}, "feature": {"sight_features": "", "sight_content": ""}}, {"title": "朗巴郎增寺", "address": "西藏自治区芒康县邦达乡然堆村", "image": "", "rank": 8, "time": 2, "location": {"lat": 29.412590180496743, "lng": 98.81272271301454}, "feature": {"sight_features": "", "sight_content": ""}}]}