{"cityName": "嘉禾", "days": 2, "cityImage": "", "spots": [{"title": "丙穴公园", "address": "郴州市嘉禾县晋屏大道与080县道交叉区域", "image": "", "rank": 1, "time": 0.75, "location": {"lat": 25.600972501288116, "lng": 112.36912485659776}, "feature": {"sight_features": "", "sight_content": ""}}, {"title": "忠良新牌坊", "address": "湖南省郴州市嘉禾县", "image": "", "rank": 2, "time": 2, "location": {"lat": 25.593421718267894, "lng": 112.37558377831412}, "feature": {"sight_features": "", "sight_content": ""}}, {"title": "浦溪水上乐园", "address": "湖南省郴州市嘉禾县S322", "image": "", "rank": 3, "time": 2, "location": {"lat": 25.593421718267894, "lng": 112.37558377831412}, "feature": {"sight_features": "", "sight_content": ""}}, {"title": "金泰华城游乐场", "address": "湖南省郴州市嘉禾县珠泉镇晋屏大道金泰华城三期附近", "image": "", "rank": 4, "time": null, "location": {"lat": 25.57987500226713, "lng": 112.37153729736607}, "feature": {"sight_features": "", "sight_content": ""}}, {"title": "欢乐岛亲子乐园", "address": "北湖区中伟神农步行街11栋111号(近德克士)", "image": "", "rank": 5, "time": 2, "location": {"lat": 25.790814594339682, "lng": 113.01748199382278}, "feature": {"sight_features": "", "sight_content": ""}}, {"title": "童颜无际儿童摄影", "address": "中国湖南省郴州市嘉禾县体育路3号", "image": "", "rank": 6, "time": 2, "location": {"lat": 25.593832939735073, "lng": 112.37246315768381}, "feature": {"sight_features": "", "sight_content": ""}}, {"title": "华美健身", "address": "嘉禾大道", "image": "", "rank": 7, "time": null, "location": {"lat": 23.219659873787993, "lng": 113.27296365782865}, "feature": {"sight_features": "", "sight_content": ""}}, {"title": "世纪园林", "address": "珠泉东路88号", "image": "", "rank": 8, "time": 2, "location": {"lat": 32.068345974016374, "lng": 118.64532165196391}, "feature": {"sight_features": "", "sight_content": ""}}, {"title": "嘉禾三汇生态农业科技有限公司", "address": "普满乡西山头板背完小东侧330米", "image": "", "rank": 9, "time": 2, "location": {"lat": 25.67019727672738, "lng": 112.5417407774895}, "feature": {"sight_features": "", "sight_content": ""}}, {"title": "嘉禾普济寺", "address": "湖南省嘉禾县城关镇", "image": "", "rank": 10, "time": 1.5, "location": {"lat": 25.596649448554437, "lng": 112.3748021043003}, "feature": {"sight_features": "", "sight_content": ""}}, {"title": "宁远抗日阵亡将士纪念碑", "address": "湖南省宁远县城关镇丁字街", "image": "", "rank": 11, "time": 4.5, "location": {"lat": 25.59927850548535, "lng": 111.950855501129}, "feature": {"sight_features": "", "sight_content": ""}}, {"title": "帅家村", "address": "郴州市-嘉禾县", "image": "", "rank": 12, "time": 2, "location": {"lat": 25.593421718267894, "lng": 112.37558377831412}, "feature": {"sight_features": "", "sight_content": ""}}, {"title": "萧克故居", "address": "湖南省郴州市嘉禾县泮头乡小街田村", "image": "", "rank": 13, "time": 2, "location": {"lat": 25.54536148655282, "lng": 112.4443864471657}, "feature": {"sight_features": "", "sight_content": ""}}]}