{"cityName": "夹江", "days": 2, "cityImage": "", "spots": [{"title": "夹江千佛岩", "address": "乐山市夹江县城西3公里", "image": "", "rank": 1, "time": 1.0, "location": {"lat": 29.743846302985492, "lng": 103.57841009994}, "feature": {"sight_features": "", "sight_content": ""}}, {"title": "夹江县万紫千红生态采摘园", "address": "往成都高速的快速通道右侧2公里处(罗华10队)", "image": "", "rank": 2, "time": 2, "location": {"lat": 38.345483138218604, "lng": 106.2189095086042}, "feature": {"sight_features": "", "sight_content": ""}}, {"title": "千佛岩望龙坪", "address": "乐山市夹江县145县道", "image": "", "rank": 3, "time": 2, "location": {"lat": 29.743846302985492, "lng": 103.57841009994}, "feature": {"sight_features": "", "sight_content": ""}}, {"title": "古泾口", "address": "乐山市夹江县145县道", "image": "", "rank": 4, "time": 2, "location": {"lat": 29.743846302985492, "lng": 103.57841009994}, "feature": {"sight_features": "", "sight_content": ""}}, {"title": "东风堰", "address": "乐山市夹江县145县道", "image": "", "rank": 5, "time": 2, "location": {"lat": 29.743846302985492, "lng": 103.57841009994}, "feature": {"sight_features": "", "sight_content": ""}}, {"title": "艺草画廊", "address": "建设路151号", "image": "", "rank": 6, "time": 2, "location": {"lat": 29.648805738364345, "lng": 104.07681426353618}, "feature": {"sight_features": "", "sight_content": ""}}, {"title": "天福茶博物馆", "address": "夹江天福服务区", "image": "", "rank": 7, "time": 2, "location": {"lat": 29.79918733691139, "lng": 103.69898174251772}, "feature": {"sight_features": "", "sight_content": ""}}, {"title": "阳光水岸水吧", "address": "漹城镇", "image": "", "rank": 8, "time": 2, "location": {"lat": 29.743668202828164, "lng": 103.58513248208605}, "feature": {"sight_features": "", "sight_content": ""}}, {"title": "太公垂钓", "address": "新场镇红旗村8组", "image": "", "rank": 9, "time": 2, "location": {"lat": 29.787728924675246, "lng": 103.65054509506282}, "feature": {"sight_features": "", "sight_content": ""}}, {"title": "古佛寺摩崖造像", "address": "四川省夹江县境内 614100", "image": "", "rank": 10, "time": 2, "location": {"lat": 29.743846302985492, "lng": 103.57841009994}, "feature": {"sight_features": "", "sight_content": ""}}, {"title": "皇甫坦故里", "address": "四川省夹江县甘江镇陶渡村 614102", "image": "", "rank": 11, "time": 2, "location": {"lat": 29.666378630552032, "lng": 103.64720875067103}, "feature": {"sight_features": "", "sight_content": ""}}, {"title": "庞坡洞", "address": "四川省夹江县木城镇新农村 614106", "image": "", "rank": 12, "time": 2, "location": {"lat": 29.81938202712926, "lng": 103.44716745028055}, "feature": {"sight_features": "", "sight_content": ""}}, {"title": "唐宋石缸银摩崖造像", "address": "四川省夹江县马村乡上村 614111", "image": "", "rank": 13, "time": 2, "location": {"lat": 29.841623806777715, "lng": 103.58697348826203}, "feature": {"sight_features": "", "sight_content": ""}}, {"title": "古冰川遗迹", "address": "四川省夹江县吴场镇 614119", "image": "", "rank": 14, "time": 4.0, "location": {"lat": 29.883380388726117, "lng": 103.63124851086694}, "feature": {"sight_features": "", "sight_content": ""}}, {"title": "广博城市广场", "address": "四川省乐山市夹江县s305", "image": "", "rank": 15, "time": 2, "location": {"lat": 29.743846302985492, "lng": 103.57841009994}, "feature": {"sight_features": "", "sight_content": ""}}, {"title": "亲子儿童乐园", "address": "四川省乐山市夹江县体育路", "image": "", "rank": 16, "time": 2, "location": {"lat": 29.738632189978816, "lng": 103.58472984718374}, "feature": {"sight_features": "", "sight_content": ""}}, {"title": "欢乐岛儿童乐园", "address": "千佛北路155号", "image": "", "rank": 17, "time": 2, "location": {"lat": 29.740087131659703, "lng": 103.57295716451308}, "feature": {"sight_features": "", "sight_content": ""}}, {"title": "高祠堂", "address": "乐山市夹江县一零三省道", "image": "", "rank": 18, "time": 2, "location": {"lat": 29.743846302985492, "lng": 103.57841009994}, "feature": {"sight_features": "", "sight_content": ""}}, {"title": "嘻多哆儿童乐园(夹江店)", "address": "焉城镇邓沟路5号", "image": "", "rank": 19, "time": 2, "location": {"lat": 29.74849821365925, "lng": 103.58764387729477}, "feature": {"sight_features": "", "sight_content": ""}}, {"title": "果色天香水上乐园", "address": "四川省乐山市夹江县焉城镇中心干道果色天香附近", "image": "", "rank": 20, "time": 2, "location": {"lat": 29.76175592019631, "lng": 103.64877116625757}, "feature": {"sight_features": "", "sight_content": ""}}, {"title": "爱心园老年公园", "address": "四川省乐山市夹江县迎江乡卫生院", "image": "", "rank": 21, "time": 2, "location": {"lat": 29.804655242419738, "lng": 103.50521630265531}, "feature": {"sight_features": "", "sight_content": ""}}, {"title": "磁佛寺", "address": "乐山市夹江县", "image": "", "rank": 22, "time": 2, "location": {"lat": 29.743846302985492, "lng": 103.57841009994}, "feature": {"sight_features": "", "sight_content": ""}}, {"title": "界牌村文体活动广场", "address": "四川省乐山市夹江县甘江镇成乐公路龙马药业东南500米", "image": "", "rank": 23, "time": 2, "location": {"lat": 29.674236436105037, "lng": 103.69051165849406}, "feature": {"sight_features": "", "sight_content": ""}}, {"title": "龙门洞佛地雪雨", "address": "四川省乐山市夹江县杨油坊巷", "image": "", "rank": 24, "time": 2, "location": {"lat": 29.750525176241513, "lng": 103.59403477951754}, "feature": {"sight_features": "", "sight_content": ""}}, {"title": "凤翎湖养生观光度假庄园", "address": "黄土镇马坝村2组", "image": "", "rank": 25, "time": 2, "location": {"lat": 29.752763103404178, "lng": 103.63300218018803}, "feature": {"sight_features": "", "sight_content": ""}}, {"title": "时代广场", "address": "四川省乐山市夹江县广场路32号", "image": "", "rank": 26, "time": 2.0, "location": {"lat": 29.738438908161566, "lng": 103.58924808315156}, "feature": {"sight_features": "", "sight_content": ""}}, {"title": "乐山矮哥啤酒广场", "address": "建设西路与迎春西路交叉口东100米", "image": "", "rank": 27, "time": 7.5, "location": {"lat": 29.738603893474973, "lng": 103.57246327344893}, "feature": {"sight_features": "", "sight_content": ""}}, {"title": "桃园休闲山庄", "address": "103省道附近", "image": "", "rank": 28, "time": 1.5, "location": {"lat": 39.16211906866746, "lng": 117.4666343312951}, "feature": {"sight_features": "", "sight_content": ""}}, {"title": "大千纸坊(夹江县马村石子清纸坊)", "address": "夹江县马村乡大千纸坊(夹江县马村石子清纸坊)", "image": "", "rank": 29, "time": 2, "location": {"lat": 29.842081398490517, "lng": 103.59625333361787}, "feature": {"sight_features": "", "sight_content": ""}}, {"title": "夹江县图书馆", "address": "体育路150号", "image": "", "rank": 30, "time": 2, "location": {"lat": 29.995188886799824, "lng": 122.2177904959132}, "feature": {"sight_features": "", "sight_content": ""}}, {"title": "贝乐水上乐园", "address": "迎春西路滨江广场金色时光溜冰场东30米", "image": "", "rank": 31, "time": 2, "location": {"lat": 29.737624898922792, "lng": 103.57078978148782}, "feature": {"sight_features": "", "sight_content": ""}}, {"title": "余芳画苑", "address": "体育路183附近", "image": "", "rank": 32, "time": 2, "location": {"lat": 26.56682924970856, "lng": 106.70749031378465}, "feature": {"sight_features": "", "sight_content": ""}}, {"title": "奇境俱乐部无间密室VR", "address": "水果街二楼(好又多超市二楼，原皇家网吧)", "image": "", "rank": 33, "time": 2, "location": {"lat": 23.070205026185803, "lng": 113.79737799155923}, "feature": {"sight_features": "", "sight_content": ""}}, {"title": "手工造纸博物馆", "address": "环城北路与西河路交叉口", "image": "", "rank": 34, "time": 2, "location": {"lat": 29.27272097970845, "lng": 120.2518720606648}, "feature": {"sight_features": "", "sight_content": ""}}, {"title": "新艺术", "address": "金桥路14号", "image": "", "rank": 35, "time": 2, "location": {"lat": 28.00704247462336, "lng": 120.69357779186402}, "feature": {"sight_features": "", "sight_content": ""}}, {"title": "夹江古典红木艺术馆", "address": "东市巷60号附近", "image": "", "rank": 36, "time": 1.0, "location": {"lat": 29.743991719231598, "lng": 103.58986519198773}, "feature": {"sight_features": "", "sight_content": ""}}, {"title": "涐眉山夕画廊", "address": "邓沟路100号附近", "image": "", "rank": 37, "time": 2, "location": {"lat": 29.746970500079097, "lng": 103.58968101112059}, "feature": {"sight_features": "", "sight_content": ""}}, {"title": "成号农家乐", "address": "145县道西150米", "image": "", "rank": 38, "time": 2, "location": {"lat": 40.43413539434948, "lng": 116.6416511347038}, "feature": {"sight_features": "", "sight_content": ""}}, {"title": "夹江县新荣家庭农场", "address": "甘霖镇新生村5组加油站西北80米路东", "image": "", "rank": 39, "time": 2, "location": {"lat": 24.09701218694945, "lng": 108.25212363195126}, "feature": {"sight_features": "", "sight_content": ""}}, {"title": "启航葡萄园", "address": "吴场公路乐山启航农业公司东南侧", "image": "", "rank": 40, "time": 2, "location": {"lat": 29.55794071745811, "lng": 103.7725376036347}, "feature": {"sight_features": "", "sight_content": ""}}, {"title": "金像寺", "address": "四川省夹江县焉城镇千佛村", "image": "", "rank": 41, "time": 2, "location": {"lat": 29.766901831894366, "lng": 103.5434887113021}, "feature": {"sight_features": "", "sight_content": ""}}, {"title": "牛仙寺", "address": "四川省夹江县牛仙山", "image": "", "rank": 42, "time": 2, "location": {"lat": 29.743846302985492, "lng": 103.57841009994}, "feature": {"sight_features": "", "sight_content": ""}}, {"title": "东山园林", "address": "四川省阆中市城东", "image": "", "rank": 43, "time": 2, "location": {"lat": 31.564074553640427, "lng": 106.01156526641945}, "feature": {"sight_features": "", "sight_content": ""}}, {"title": "紫府洞", "address": "四川省夹江县南安乡白岩村", "image": "", "rank": 44, "time": 2, "location": {"lat": 29.751470116114472, "lng": 103.51690341992955}, "feature": {"sight_features": "", "sight_content": ""}}, {"title": "薛碾房", "address": "乐山市-夹江县", "image": "", "rank": 45, "time": 2, "location": {"lat": 29.743846302985492, "lng": 103.57841009994}, "feature": {"sight_features": "", "sight_content": ""}}]}