{"cityName": "佳木斯", "days": "", "cityImage": "", "spots": [{"title": "黑瞎子岛", "address": "佳木斯市抚远县地处黑龙江、乌苏里江交汇的三角地带", "image": "", "rank": 1, "time": 2, "location": {"lat": 48.36044862157318, "lng": 134.96087829106253}, "feature": {"sight_features": "", "sight_content": ""}}, {"title": "三江口", "address": "佳木斯市同江市", "image": "", "rank": 2, "time": 3.0, "location": {"lat": 47.64798067666648, "lng": 132.51750949205328}, "feature": {"sight_features": "", "sight_content": ""}}, {"title": "佳木斯冰雪大世界", "address": "佳木斯市向阳区滨江路外滩公园", "image": "", "rank": 3, "time": 3.0, "location": {"lat": 46.8277907148883, "lng": 130.3615062002629}, "feature": {"sight_features": "", "sight_content": ""}}, {"title": "乌苏镇", "address": "佳木斯市抚远县乌苏镇", "image": "", "rank": 4, "time": 2.0, "location": {"lat": 48.26654025336917, "lng": 134.6853779623417}, "feature": {"sight_features": "", "sight_content": ""}}, {"title": "街津口", "address": "佳木斯市同江市区东北45公里处", "image": "", "rank": 5, "time": 2.0, "location": {"lat": 47.64798067666648, "lng": 132.51750949205328}, "feature": {"sight_features": "", "sight_content": ""}}, {"title": "抚远口岸", "address": "佳木斯市抚远县沿江路", "image": "", "rank": 6, "time": 2.0, "location": {"lat": 48.37725628365155, "lng": 134.31061669922622}, "feature": {"sight_features": "", "sight_content": ""}}, {"title": "卧佛山滑雪场", "address": "佳木斯市大来镇中大村", "image": "", "rank": 7, "time": 2, "location": {"lat": 46.760299926297286, "lng": 130.1578137388564}, "feature": {"sight_features": "", "sight_content": ""}}, {"title": "富锦国家湿地公园", "address": "佳木斯市富锦市西南50公里", "image": "", "rank": 8, "time": 4.5, "location": {"lat": 46.949235606244045, "lng": 132.04453879527813}, "feature": {"sight_features": "", "sight_content": ""}}, {"title": "滨水游乐园区", "address": "佳木斯市向阳区滨江路外滩公园下江沙滩", "image": "", "rank": 9, "time": 2, "location": {"lat": 46.8277907148883, "lng": 130.3615062002629}, "feature": {"sight_features": "", "sight_content": ""}}, {"title": "佳木斯市水源山公园", "address": "佳木斯市前进区胜利路光华路267号", "image": "", "rank": 10, "time": 2.0, "location": {"lat": 46.80113943821887, "lng": 130.39127793130532}, "feature": {"sight_features": "", "sight_content": ""}}, {"title": "北大荒鱼展馆", "address": "佳木斯市同江市勤得力农场", "image": "", "rank": 11, "time": 2, "location": {"lat": 47.64798067666648, "lng": 132.51750949205328}, "feature": {"sight_features": "", "sight_content": ""}}, {"title": "三江自然湿地保护区", "address": "佳木斯市抚远县", "image": "", "rank": 12, "time": 3.0, "location": {"lat": 47.92610519989178, "lng": 134.29604416395506}, "feature": {"sight_features": "", "sight_content": ""}}, {"title": "洪河自然保护区", "address": "佳木斯市同江市", "image": "", "rank": 13, "time": 3.0, "location": {"lat": 47.64798067666648, "lng": 132.51750949205328}, "feature": {"sight_features": "", "sight_content": ""}}, {"title": "拉哈苏苏海关旧址博物馆", "address": "佳木斯市同江市通江街北段东侧，南距海关100米。", "image": "", "rank": 14, "time": 1.0, "location": {"lat": 47.659945953148544, "lng": 132.51744952207574}, "feature": {"sight_features": "", "sight_content": ""}}, {"title": "敖其湾龙源赫哲水寨", "address": "佳木斯市郊区敖其镇敖其村", "image": "", "rank": 15, "time": 2, "location": {"lat": 46.75280313975105, "lng": 130.10268839299854}, "feature": {"sight_features": "", "sight_content": ""}}, {"title": "东极广场", "address": "佳木斯市抚远水道与乌苏里江交汇处", "image": "", "rank": 16, "time": 2, "location": {"lat": 48.36044862157318, "lng": 134.96087829106253}, "feature": {"sight_features": "", "sight_content": ""}}, {"title": "佳木斯博物馆", "address": "黑龙江省佳木斯市前进区长安路922号", "image": "", "rank": 17, "time": 2.5, "location": {"lat": 46.819044270190076, "lng": 130.37580058550412}, "feature": {"sight_features": "", "sight_content": ""}}, {"title": "丽水温泉", "address": "佳木斯市汤原县哈肇路88号", "image": "", "rank": 18, "time": 0.7, "location": {"lat": 46.73548385293962, "lng": 129.8949644442599}, "feature": {"sight_features": "特色1 拥有药浴温泉、温泉游泳池、四味养生池", "sight_content": "汤原县丽水温泉特设了各种功效的泡浴池，在泉水中加入中草药、香料等材料，形成具有更好养生功效的药浴温泉，有针对性的提高了保健和调养功能。温泉游泳池：水深1.20～1.65米，水温长年保持在36～39摄 氏度。四味养生池:通过不同滋养功能的中药，满足人体的各种需求。首乌可补肾填精，乌须发；防风可祛风除湿，宜痹止痛；红花可活血通络，化淤止痛；菊花可清热解毒，除暑祛烦。\n在泡温泉时，温泉中的矿物质会透过身体皮肤促进血液循环、加速新陈代谢。温泉本身的矿物质透过表皮渗入身体皮肤时，其化学物质可刺激自律神经、内分泌及免疫系统。因此，泡温泉既能驱寒、健身，还有利于一些疾病的治疗。"}}, {"title": "玉佛寺", "address": "佳木斯市四丰山政府办公楼附近", "image": "", "rank": 19, "time": 1.0, "location": {"lat": 46.76855937150394, "lng": 130.3782294526878}, "feature": {"sight_features": "", "sight_content": ""}}, {"title": "知青广场", "address": "佳木斯市前进区和平街与滨江路交叉口北50米", "image": "", "rank": 20, "time": 2, "location": {"lat": 46.82551511177501, "lng": 130.38184211765218}, "feature": {"sight_features": "", "sight_content": ""}}, {"title": "大亮子河国家森林公园", "address": "佳木斯市汤原县大亮子河红松母树林场境内", "image": "", "rank": 21, "time": 2, "location": {"lat": 46.73532672046088, "lng": 129.91164504154594}, "feature": {"sight_features": "", "sight_content": ""}}, {"title": "沿江公园", "address": "黑龙江省佳木斯市", "image": "", "rank": 22, "time": 2, "location": {"lat": 46.80568999085779, "lng": 130.327359092573}, "feature": {"sight_features": "", "sight_content": ""}}, {"title": "松花江广场", "address": "沿江路松花江边", "image": "", "rank": 23, "time": 2, "location": {"lat": 27.14584058946384, "lng": 114.95737420352243}, "feature": {"sight_features": "", "sight_content": ""}}, {"title": "东极宝塔", "address": "佳木斯市抚远市黑瞎子岛", "image": "", "rank": 24, "time": 2, "location": {"lat": 48.37094469627278, "lng": 134.31448962575448}, "feature": {"sight_features": "", "sight_content": ""}}, {"title": "佳木斯麒麟山庄", "address": "黑龙江省佳木斯市郊区四丰山水库风景区内", "image": "", "rank": 25, "time": 2.0, "location": {"lat": 46.763583369732295, "lng": 130.38294884261677}, "feature": {"sight_features": "", "sight_content": ""}}, {"title": "前董家子古山寨", "address": "黑龙江省佳木斯市郊区长发乡前董家子屯", "image": "", "rank": 26, "time": 2, "location": {"lat": 46.81616811282895, "lng": 130.3333780988121}, "feature": {"sight_features": "", "sight_content": ""}}, {"title": "鱼展馆", "address": "迎宾路", "image": "", "rank": 27, "time": 2, "location": {"lat": 40.19033466276813, "lng": 117.30191343601585}, "feature": {"sight_features": "", "sight_content": ""}}, {"title": "东明寺", "address": "佳木斯市抚远县", "image": "", "rank": 28, "time": null, "location": {"lat": 47.92610519989178, "lng": 134.29604416395506}, "feature": {"sight_features": "", "sight_content": ""}}, {"title": "佳木斯乌苏里江", "address": "黑龙江省抚远县境内", "image": "", "rank": 29, "time": 2.0, "location": {"lat": 47.92610519989178, "lng": 134.29604416395506}, "feature": {"sight_features": "", "sight_content": ""}}, {"title": "桦南县博物馆", "address": "新兴路182号", "image": "", "rank": 30, "time": 2, "location": {"lat": 46.2478023478325, "lng": 130.58230349630884}, "feature": {"sight_features": "", "sight_content": ""}}, {"title": "同江街津口赫哲族旅游度假区", "address": "佳木斯市同江市街津口乡", "image": "", "rank": 31, "time": 2.0, "location": {"lat": 47.64798067666648, "lng": 132.51750949205328}, "feature": {"sight_features": "", "sight_content": ""}}, {"title": "街津山国家森林公园", "address": "黑龙江省佳木斯同江市街津山国家森林公园", "image": "", "rank": 32, "time": 2.5, "location": {"lat": 47.64798067666648, "lng": 132.51750949205328}, "feature": {"sight_features": "", "sight_content": ""}}, {"title": "青少年科技活动馆", "address": "正大街", "image": "", "rank": 33, "time": 2, "location": {"lat": 37.80004907126463, "lng": 115.39053598656331}, "feature": {"sight_features": "", "sight_content": ""}}, {"title": "五顶山森林公园", "address": "砚山镇石砬山林场", "image": "", "rank": 34, "time": 2, "location": {"lat": 47.20939255735593, "lng": 132.2851859850087}, "feature": {"sight_features": "", "sight_content": ""}}, {"title": "富锦市城建档案馆", "address": "正大街", "image": "", "rank": 35, "time": 2, "location": {"lat": 37.80004907126463, "lng": 115.39053598656331}, "feature": {"sight_features": "", "sight_content": ""}}, {"title": "富锦博物馆", "address": "佳木斯市富锦市清真路附近", "image": "", "rank": 36, "time": 2.5, "location": {"lat": 47.268170298602726, "lng": 132.04701861884186}, "feature": {"sight_features": "", "sight_content": ""}}, {"title": "添津千层大麻花(富锦总店)", "address": "南五街与向阳路交叉口南50米", "image": "", "rank": 37, "time": 2, "location": {"lat": 47.26218834506432, "lng": 132.04447955921617}, "feature": {"sight_features": "", "sight_content": ""}}, {"title": "创业农场一区", "address": "306省道附近", "image": "", "rank": 38, "time": 2, "location": {"lat": 44.29269479672118, "lng": 120.43504383645545}, "feature": {"sight_features": "", "sight_content": ""}}, {"title": "莽吉塔站故城", "address": "黑龙江省抚远县抚远镇", "image": "", "rank": 39, "time": 2, "location": {"lat": 48.37682790222006, "lng": 134.29688608692982}, "feature": {"sight_features": "", "sight_content": ""}}, {"title": "四丰山", "address": "佳木斯市郊区四丰路南段", "image": "", "rank": 40, "time": 2, "location": {"lat": 46.80568999085779, "lng": 130.327359092573}, "feature": {"sight_features": "", "sight_content": ""}}, {"title": "帕弗尔洗浴", "address": "佳木斯市前进区长安路908号，永安街与长安路交汇处", "image": "", "rank": 41, "time": 2, "location": {"lat": 46.8193195537772, "lng": 130.3772361145396}, "feature": {"sight_features": "", "sight_content": ""}}, {"title": "抚远鱼文化体验馆", "address": "佳木斯市抚远市佛山路与沿江路交叉口（气象局斜对面）", "image": "", "rank": 42, "time": 2, "location": {"lat": 48.37506474554283, "lng": 134.29614181925547}, "feature": {"sight_features": "", "sight_content": ""}}, {"title": "智慧种子阅读馆", "address": "西林路270号", "image": "", "rank": 43, "time": 2, "location": {"lat": 46.81857937455453, "lng": 130.36210572936025}, "feature": {"sight_features": "", "sight_content": ""}}, {"title": "高尔夫滑雪场", "address": "共和湖长寿屯", "image": "", "rank": 44, "time": 2, "location": {"lat": 36.28870331786534, "lng": 100.62662348005355}, "feature": {"sight_features": "", "sight_content": ""}}, {"title": "敖其黑土山庄", "address": "221国道", "image": "", "rank": 45, "time": 2, "location": {"lat": 46.78547435958703, "lng": 130.18676592601932}, "feature": {"sight_features": "", "sight_content": ""}}, {"title": "中国联通郊区长安新城通讯店(郊...", "address": "万新街大润发对面", "image": "", "rank": 46, "time": 2, "location": {"lat": 46.80783616963291, "lng": 130.33842807954161}, "feature": {"sight_features": "", "sight_content": ""}}, {"title": "垂钓俱乐部", "address": "071乡道附近", "image": "", "rank": 47, "time": 2, "location": {"lat": 41.03196352981676, "lng": 117.27779874529557}, "feature": {"sight_features": "", "sight_content": ""}}, {"title": "西浦植物园", "address": "友谊路与苗圃巷交叉口旁", "image": "", "rank": 48, "time": 2, "location": {"lat": 46.81502514907977, "lng": 130.31676527688018}, "feature": {"sight_features": "", "sight_content": ""}}, {"title": "金地儿童乐园", "address": "红旗街金地家园小区进门50米", "image": "", "rank": 49, "time": 2, "location": {"lat": 40.777831994617635, "lng": 114.89442833904214}, "feature": {"sight_features": "", "sight_content": ""}}, {"title": "梨园戏楼", "address": "长安路980号附近", "image": "", "rank": 50, "time": 2, "location": {"lat": 46.81692580584465, "lng": 130.36756799997988}, "feature": {"sight_features": "", "sight_content": ""}}, {"title": "天山葡萄园", "address": "学府街", "image": "", "rank": 51, "time": 2, "location": {"lat": 39.11862204572397, "lng": 117.17256638700698}, "feature": {"sight_features": "", "sight_content": ""}}, {"title": "于家采摘园", "address": "085乡道北50米", "image": "", "rank": 52, "time": 2, "location": {"lat": 41.20783012676974, "lng": 118.51884433602535}, "feature": {"sight_features": "", "sight_content": ""}}, {"title": "魏三大戏院", "address": "佳木斯市前进区滨江路与中山街交叉口（近抗洪纪念塔）", "image": "", "rank": 53, "time": 2, "location": {"lat": 46.82632022633643, "lng": 130.37020835522978}, "feature": {"sight_features": "", "sight_content": ""}}, {"title": "欢乐牧场", "address": "光复西路万达广场商场3楼", "image": "", "rank": 54, "time": 2, "location": {"lat": 46.800579798979264, "lng": 130.34300398133487}, "feature": {"sight_features": "", "sight_content": ""}}, {"title": "新千禧啤酒广场", "address": "中兴街与新宜胡同交叉口东北50米", "image": "", "rank": 55, "time": 2, "location": {"lat": 46.819382865917426, "lng": 130.36913454328078}, "feature": {"sight_features": "", "sight_content": ""}}, {"title": "小海钉啤酒演艺广场", "address": "佳大尚都北门斜对面", "image": "", "rank": 56, "time": 2, "location": {"lat": 46.79746423231605, "lng": 130.3793023807042}, "feature": {"sight_features": "", "sight_content": ""}}, {"title": "荣歌礼拜堂", "address": "佳木斯市郊区", "image": "", "rank": 57, "time": 2, "location": {"lat": 46.80568999085779, "lng": 130.327359092573}, "feature": {"sight_features": "", "sight_content": ""}}, {"title": "佳木斯市基督教佳西福音堂", "address": "黑龙江省佳木斯市郊区红跃街", "image": "", "rank": 58, "time": 2.0, "location": {"lat": 46.810830286105805, "lng": 130.34420860902378}, "feature": {"sight_features": "", "sight_content": ""}}, {"title": "开心哈乐儿童游乐园", "address": "金地家园14号楼", "image": "", "rank": 59, "time": 2, "location": {"lat": 46.8046845885659, "lng": 130.35722401113412}, "feature": {"sight_features": "", "sight_content": ""}}, {"title": "开心园", "address": "佳木斯市东风区", "image": "", "rank": 60, "time": 2, "location": {"lat": 46.828385151991114, "lng": 130.41056077772154}, "feature": {"sight_features": "", "sight_content": ""}}]}