{"cityName": "江孜", "days": 2, "cityImage": "", "spots": [{"title": "卡若拉冰川", "address": "日喀则市江孜县卡若拉山口", "image": "", "rank": 1, "time": 1.5, "location": {"lat": 28.901844732012655, "lng": 90.17238583477982}, "feature": {"sight_features": "", "sight_content": ""}}, {"title": "白居寺", "address": "日喀则市江孜县城西北约1km处", "image": "", "rank": 2, "time": 1.5, "location": {"lat": 28.9176346842389, "lng": 89.61201219495427}, "feature": {"sight_features": "", "sight_content": ""}}, {"title": "帕拉庄园", "address": "日喀则市江孜县江热乡班觉伦布村", "image": "", "rank": 3, "time": 2.5, "location": {"lat": 28.905478779974697, "lng": 89.58378917495956}, "feature": {"sight_features": "", "sight_content": ""}}, {"title": "满拉水库", "address": "日喀则市江孜县龙马乡年楚河之上", "image": "", "rank": 4, "time": 0.75, "location": {"lat": 28.852349893426982, "lng": 89.93530419396943}, "feature": {"sight_features": "", "sight_content": ""}}, {"title": "江孜宗山古堡", "address": "日喀则市江孜县白居寺背山顶上", "image": "", "rank": 5, "time": 1.0, "location": {"lat": 28.926245192872635, "lng": 89.60393365679042}, "feature": {"sight_features": "", "sight_content": ""}}, {"title": "金嘎溶洞", "address": "日喀则市江孜县金嘎乡", "image": "", "rank": 6, "time": 1.0, "location": {"lat": 28.80239230315752, "lng": 89.33454647627784}, "feature": {"sight_features": "", "sight_content": ""}}, {"title": "斯米拉山", "address": "日喀则市江孜县斯米拉山（满拉水库旁）", "image": "", "rank": 7, "time": 2.5, "location": {"lat": 28.833578981199782, "lng": 89.8624622845122}, "feature": {"sight_features": "", "sight_content": ""}}, {"title": "江孜县", "address": "西藏自治区日喀则市东部", "image": "", "rank": 8, "time": 2.0, "location": {"lat": 29.275657822511512, "lng": 88.89370303482552}, "feature": {"sight_features": "", "sight_content": ""}}, {"title": "江孜历史文化陈列馆", "address": "日喀则市江孜县英雄路15号（宗山脚下）", "image": "", "rank": 9, "time": 1.5, "location": {"lat": 28.919057241837237, "lng": 89.60755016910626}, "feature": {"sight_features": "", "sight_content": ""}}, {"title": "年楚河", "address": "日喀则地区日喀则市 ‎", "image": "", "rank": 10, "time": 2, "location": {"lat": 29.275657822511512, "lng": 88.89370303482552}, "feature": {"sight_features": "", "sight_content": ""}}, {"title": "藏山城", "address": "西藏自治区江孜县境内 857400", "image": "", "rank": 11, "time": 2, "location": {"lat": 28.9176346842389, "lng": 89.61201219495427}, "feature": {"sight_features": "", "sight_content": ""}}, {"title": "江孜老街", "address": "西藏自治区江孜县境内 857400", "image": "", "rank": 12, "time": 3.0, "location": {"lat": 28.9176346842389, "lng": 89.61201219495427}, "feature": {"sight_features": "", "sight_content": ""}}, {"title": "英雄城度假村", "address": "上海路13号", "image": "", "rank": 13, "time": 2, "location": {"lat": 33.600184176346666, "lng": 119.0316717945629}, "feature": {"sight_features": "", "sight_content": ""}}, {"title": "岗庆托玉", "address": "日喀则市-江孜县", "image": "", "rank": 16, "time": 2, "location": {"lat": 28.9176346842389, "lng": 89.61201219495427}, "feature": {"sight_features": "", "sight_content": ""}}, {"title": "江孜古城", "address": "西藏自治区日喀则地区江孜县", "image": "", "rank": 17, "time": 1.5, "location": {"lat": 28.9176346842389, "lng": 89.61201219495427}, "feature": {"sight_features": "", "sight_content": ""}}, {"title": "坛城", "address": "日喀则白居寺内", "image": "", "rank": 18, "time": 1.5, "location": {"lat": 28.926245192872635, "lng": 89.60393365679042}, "feature": {"sight_features": "", "sight_content": ""}}]}