{"cityName": "监利", "days": 2, "cityImage": "", "spots": [{"title": "柳直旬烈士纪念园", "address": "湖北省荆州市监利县S215(直旬大道)", "image": "", "rank": 1, "time": 2, "location": {"lat": 29.845735162836444, "lng": 112.91142023009189}, "feature": {"sight_features": "", "sight_content": ""}}, {"title": "玉清寺", "address": "永兴大道北50米", "image": "", "rank": 2, "time": 2, "location": {"lat": 24.995474348333893, "lng": 109.99929843686053}, "feature": {"sight_features": "", "sight_content": ""}}, {"title": "真人魔方密室逃脱", "address": "交通路与宋家湾交叉口龙武道馆五楼真人魔方密室逃脱", "image": "", "rank": 3, "time": 2, "location": {"lat": 33.577112364013985, "lng": 114.03941618791396}, "feature": {"sight_features": "", "sight_content": ""}}, {"title": "寻乡味", "address": "新沟镇报国村", "image": "", "rank": 4, "time": 2, "location": {"lat": 30.14073950779603, "lng": 112.91794163256532}, "feature": {"sight_features": "", "sight_content": ""}}, {"title": "监利县数字图书馆", "address": "民主路305-3号附近", "image": "", "rank": 5, "time": 2, "location": {"lat": 29.820912548893148, "lng": 112.89882424682838}, "feature": {"sight_features": "", "sight_content": ""}}, {"title": "欢乐谷亲子乐园", "address": "监利县网市镇邮局路8号", "image": "", "rank": 6, "time": 2, "location": {"lat": 30.10442037264608, "lng": 113.11440465249751}, "feature": {"sight_features": "", "sight_content": ""}}, {"title": "监利剧场", "address": "民主路388", "image": "", "rank": 7, "time": 1.5, "location": {"lat": 29.822562294768826, "lng": 112.89883257142553}, "feature": {"sight_features": "", "sight_content": ""}}, {"title": "监利县道康家庭农场", "address": "新沟镇柳口村二组", "image": "", "rank": 8, "time": 2, "location": {"lat": 30.154211772923205, "lng": 112.89913681762977}, "feature": {"sight_features": "", "sight_content": ""}}, {"title": "监利县花鼓戏剧团演艺厅", "address": "沿江路西18号", "image": "", "rank": 9, "time": 2, "location": {"lat": 22.259911347872375, "lng": 113.34322056202917}, "feature": {"sight_features": "", "sight_content": ""}}, {"title": "儿童乐园", "address": "实中路与容城大道交叉口东南200米", "image": "", "rank": 10, "time": 2, "location": {"lat": 29.82222180324817, "lng": 112.91333707121896}, "feature": {"sight_features": "", "sight_content": ""}}, {"title": "潘家祠堂", "address": "华容路与移民五巷交叉口西南100米", "image": "", "rank": 11, "time": 2, "location": {"lat": 29.826857558058393, "lng": 112.92238119492094}, "feature": {"sight_features": "", "sight_content": ""}}, {"title": "监利县汪桥镇灵隐寺", "address": "湖北省荆州市监利县汪桥镇章清村往西200米", "image": "", "rank": 12, "time": 2, "location": {"lat": 29.98494820445699, "lng": 112.70439008409032}, "feature": {"sight_features": "", "sight_content": ""}}, {"title": "护国仙山祖师庙", "address": "护国山路24", "image": "", "rank": 13, "time": 2, "location": {"lat": 29.810096247773636, "lng": 113.02003787331996}, "feature": {"sight_features": "", "sight_content": ""}}, {"title": "中国工农红军第六军建军纪念碑", "address": "湖北省荆州市监利县S103", "image": "", "rank": 14, "time": 2, "location": {"lat": 29.845735162836444, "lng": 112.91142023009189}, "feature": {"sight_features": "", "sight_content": ""}}, {"title": "普庵寺", "address": "白洋村一组41", "image": "", "rank": 15, "time": 1.0, "location": {"lat": 29.98779017700385, "lng": 112.91352386127343}, "feature": {"sight_features": "", "sight_content": ""}}, {"title": "党家祠堂", "address": "荆州市监利县", "image": "", "rank": 16, "time": 2, "location": {"lat": 29.845735162836444, "lng": 112.91142023009189}, "feature": {"sight_features": "", "sight_content": ""}}, {"title": "(监利服务区)长途客车司机疲劳休...", "address": "监利服务区附近", "image": "", "rank": 17, "time": 2, "location": {"lat": 29.80135330430227, "lng": 113.08353542650946}, "feature": {"sight_features": "", "sight_content": ""}}, {"title": "富迪团结购物广场", "address": "容城镇容城大道71号", "image": "", "rank": 18, "time": 2, "location": {"lat": 29.822136408815144, "lng": 112.91668598110822}, "feature": {"sight_features": "", "sight_content": ""}}, {"title": "穿眼祠堂", "address": "荆州市监利县一零三省道", "image": "", "rank": 19, "time": 2, "location": {"lat": 29.845735162836444, "lng": 112.91142023009189}, "feature": {"sight_features": "", "sight_content": ""}}, {"title": "清爽家具厂鲁卡奇游乐场", "address": "湖北省荆州市监利县教育巷", "image": "", "rank": 20, "time": 2, "location": {"lat": 29.82076496472619, "lng": 112.90482746175289}, "feature": {"sight_features": "", "sight_content": ""}}, {"title": "长峰游乐场", "address": "朱河工业大道", "image": "", "rank": 21, "time": null, "location": {"lat": 29.748346020198714, "lng": 113.13021353223418}, "feature": {"sight_features": "", "sight_content": ""}}, {"title": "玉沙广场", "address": "荆州市监利县江城路60-14号", "image": "", "rank": 22, "time": 2, "location": {"lat": 29.835966540992075, "lng": 112.91394951345784}, "feature": {"sight_features": "", "sight_content": ""}}, {"title": "博雅书画", "address": "容城镇国庆二路51号", "image": "", "rank": 23, "time": 2, "location": {"lat": 29.828473745807948, "lng": 112.91842818086455}, "feature": {"sight_features": "", "sight_content": ""}}, {"title": "容城天骄水上乐园", "address": "容城大道中百购物广场后面", "image": "", "rank": 24, "time": 2, "location": {"lat": 34.847465042952194, "lng": 119.13179228965201}, "feature": {"sight_features": "", "sight_content": ""}}, {"title": "中百游泳冲浪水上乐园", "address": "容城大道东17号", "image": "", "rank": 25, "time": 2, "location": {"lat": 29.82198837354372, "lng": 112.91093218070849}, "feature": {"sight_features": "", "sight_content": ""}}, {"title": "湘鄂西革命根据地纪念馆", "address": "周老嘴镇直荀大道60号", "image": "", "rank": 26, "time": 2, "location": {"lat": 31.310061038338997, "lng": 117.26386813515884}, "feature": {"sight_features": "", "sight_content": ""}}, {"title": "鳄鱼漆", "address": "福田大道附近附近", "image": "", "rank": 27, "time": 2, "location": {"lat": 22.69750405082335, "lng": 113.8362907896276}, "feature": {"sight_features": "", "sight_content": ""}}, {"title": "田园风光", "address": "湘鄂路", "image": "", "rank": 28, "time": 2, "location": {"lat": 29.464622382496373, "lng": 109.43871042540817}, "feature": {"sight_features": "", "sight_content": ""}}, {"title": "魔方密室逃脱", "address": "宋家湾1号交通路交叉口(宝岛眼镜，龙武教育5楼)", "image": "", "rank": 29, "time": 2, "location": {"lat": 28.247998006750652, "lng": 113.04312244207041}, "feature": {"sight_features": "", "sight_content": ""}}, {"title": "欢乐谷", "address": "芦陵大道", "image": "", "rank": 30, "time": 4.5, "location": {"lat": 29.735724157164107, "lng": 113.131334507917}, "feature": {"sight_features": "", "sight_content": ""}}, {"title": "常安步行街", "address": "湖北省监利县常安步行街", "image": "", "rank": 31, "time": 2, "location": {"lat": 29.83169284747351, "lng": 112.91095288665048}, "feature": {"sight_features": "", "sight_content": ""}}]}