{"cityName": "剑阁", "days": 2, "cityImage": "", "spots": [{"title": "剑门关", "address": "广元市剑阁县河东街64号", "image": "", "rank": 1, "time": 2.0, "location": {"lat": 32.04435678529149, "lng": 105.47749744578326}, "feature": {"sight_features": "", "sight_content": ""}}, {"title": "翠云廊", "address": "广元剑阁县剑门关镇北街", "image": "", "rank": 2, "time": 2.5, "location": {"lat": 32.21359162760938, "lng": 105.56238005744902}, "feature": {"sight_features": "", "sight_content": ""}}, {"title": "剑门蜀道", "address": "广元市剑阁县剑门关风景区剑门蜀道", "image": "", "rank": 3, "time": 2, "location": {"lat": 32.21153876678626, "lng": 105.57378692317074}, "feature": {"sight_features": "", "sight_content": ""}}, {"title": "梁山寺", "address": "广元市剑阁县大剑山绝顶", "image": "", "rank": 4, "time": 1.0, "location": {"lat": 32.29347851677268, "lng": 105.53157601886727}, "feature": {"sight_features": "", "sight_content": ""}}, {"title": "剑门关漂流", "address": "广元市剑阁县下寺镇下普快速通道凉水沟", "image": "", "rank": 5, "time": 2, "location": {"lat": 32.22254183292336, "lng": 105.57231451060933}, "feature": {"sight_features": "", "sight_content": ""}}, {"title": "宝龙寺", "address": "四川省广元市剑阁县翰林路", "image": "", "rank": 6, "time": 2, "location": {"lat": 32.29040216479735, "lng": 105.51463492016985}, "feature": {"sight_features": "", "sight_content": ""}}, {"title": "觉苑寺", "address": "广元市剑阁县觉苑街", "image": "", "rank": 7, "time": 2, "location": {"lat": 31.890633901750203, "lng": 105.28335500697669}, "feature": {"sight_features": "", "sight_content": ""}}, {"title": "翠屏峰", "address": "四川省广元市剑阁县", "image": "", "rank": 8, "time": 2, "location": {"lat": 32.29347851677268, "lng": 105.53157601886727}, "feature": {"sight_features": "", "sight_content": ""}}, {"title": "昭化湖太子河钓鱼俱乐部", "address": "4063县道昭化湖太子河钓鱼俱乐部", "image": "", "rank": 9, "time": 2, "location": {"lat": 41.25922617804354, "lng": 123.1886044449972}, "feature": {"sight_features": "", "sight_content": ""}}, {"title": "红军攻克剑门关纪念馆", "address": "四川省剑阁县剑门关 628300", "image": "", "rank": 10, "time": 2, "location": {"lat": 32.20537764631349, "lng": 105.5739604982529}, "feature": {"sight_features": "", "sight_content": ""}}, {"title": "翠云湖", "address": "其他青剑路", "image": "", "rank": 11, "time": 2, "location": {"lat": 32.35295915697773, "lng": 105.25669012033735}, "feature": {"sight_features": "", "sight_content": ""}}, {"title": "剑阁县下寺镇剑溪农家餐饮休闲山...", "address": "剑阁县大仓村3组6号绵广高速剑门关收费站西南侧150米", "image": "", "rank": 12, "time": 2, "location": {"lat": 32.27803829667714, "lng": 105.52847007366819}, "feature": {"sight_features": "", "sight_content": ""}}, {"title": "先秦古蜀道", "address": "四川省广元市剑阁县", "image": "", "rank": 13, "time": 2, "location": {"lat": 32.29347851677268, "lng": 105.53157601886727}, "feature": {"sight_features": "", "sight_content": ""}}, {"title": "蓝宝童儿童乐园", "address": "临津街68", "image": "", "rank": 14, "time": 2, "location": {"lat": 32.285318161318216, "lng": 105.53413658123189}, "feature": {"sight_features": "", "sight_content": ""}}, {"title": "志公寺", "address": "广元市剑阁县一零八国道", "image": "", "rank": 15, "time": 2, "location": {"lat": 32.36043776534903, "lng": 105.60479806878273}, "feature": {"sight_features": "", "sight_content": ""}}, {"title": "怡心文化艺术展馆", "address": "四川省广元市剑阁县龙剑一街123", "image": "", "rank": 16, "time": 2, "location": {"lat": 32.207978365102896, "lng": 105.5743265739177}, "feature": {"sight_features": "", "sight_content": ""}}, {"title": "母家祠堂", "address": "广元市剑阁县闻溪路", "image": "", "rank": 17, "time": 2, "location": {"lat": 32.04312004397056, "lng": 105.48279202001159}, "feature": {"sight_features": "", "sight_content": ""}}, {"title": "多福山庄", "address": "四川省广元市剑阁县城北镇G108(旧)抄手小学校西", "image": "", "rank": 18, "time": 2, "location": {"lat": 32.11729510222649, "lng": 105.47828181399524}, "feature": {"sight_features": "", "sight_content": ""}}, {"title": "邓艾墓", "address": "四川省广元市剑阁县北庙乡石桥青剑路邓艾墓", "image": "", "rank": 19, "time": 2, "location": {"lat": 32.35295915697773, "lng": 105.25669012033735}, "feature": {"sight_features": "", "sight_content": ""}}, {"title": "马鞍山", "address": "广元市利州区剑阁县杨村镇", "image": "", "rank": 20, "time": 2.0, "location": {"lat": 31.848336603359602, "lng": 105.6584279488645}, "feature": {"sight_features": "", "sight_content": ""}}, {"title": "康乐餐厅", "address": "下寺镇环山路24号", "image": "", "rank": 21, "time": 2, "location": {"lat": 32.28943999013003, "lng": 105.53199157704945}, "feature": {"sight_features": "", "sight_content": ""}}, {"title": "顶呱呱温泉", "address": "下寺镇温泉小镇3号楼", "image": "", "rank": 22, "time": 2, "location": {"lat": 39.27254212431298, "lng": 116.34978489859351}, "feature": {"sight_features": "", "sight_content": ""}}, {"title": "剑阁县图书馆", "address": "龙江大道34", "image": "", "rank": 23, "time": 2, "location": {"lat": 32.28800044415764, "lng": 105.52464198246625}, "feature": {"sight_features": "", "sight_content": ""}}, {"title": "剑阁县元山镇俊达农场", "address": "剑盐路", "image": "", "rank": 24, "time": 2, "location": {"lat": 31.720277335273657, "lng": 105.40946908140431}, "feature": {"sight_features": "", "sight_content": ""}}, {"title": "杨家窝上善农家乐", "address": "S302观音寺南200米", "image": "", "rank": 25, "time": 2, "location": {"lat": 39.00981888158422, "lng": 117.39265677769998}, "feature": {"sight_features": "", "sight_content": ""}}, {"title": "剑门蜀道风景区", "address": "四川省梓潼县境内", "image": "", "rank": 26, "time": 2, "location": {"lat": 31.648313467681294, "lng": 105.17756684281485}, "feature": {"sight_features": "", "sight_content": ""}}, {"title": "中郎上", "address": "广元市-剑阁县", "image": "", "rank": 27, "time": 2, "location": {"lat": 32.29347851677268, "lng": 105.53157601886727}, "feature": {"sight_features": "", "sight_content": ""}}, {"title": "四川省剑门关发展投资有限公司-...", "address": "广元市-剑阁县-剑门关镇108国道附近剑门关景区内", "image": "", "rank": 28, "time": 2, "location": {"lat": 32.221342462472286, "lng": 105.57220794193177}, "feature": {"sight_features": "", "sight_content": ""}}, {"title": "转头垭", "address": "广元市-剑阁县", "image": "", "rank": 29, "time": 2, "location": {"lat": 32.29347851677268, "lng": 105.53157601886727}, "feature": {"sight_features": "", "sight_content": ""}}, {"title": "剑门关4D电影院", "address": "广元市-剑阁县-剑门关镇108国道附近剑门关景区内", "image": "", "rank": 30, "time": 2, "location": {"lat": 32.221342462472286, "lng": 105.57220794193177}, "feature": {"sight_features": "", "sight_content": ""}}, {"title": "剑门关景区游客中心-影视厅", "address": "广元市-剑阁县-剑门关景区北门剑门关景区-游客中心内", "image": "", "rank": 31, "time": 2, "location": {"lat": 32.221342462472286, "lng": 105.57220794193177}, "feature": {"sight_features": "", "sight_content": ""}}, {"title": "鹤鸣山道教造像", "address": "四川省剑阁县城东", "image": "", "rank": 32, "time": 2, "location": {"lat": 32.29347851677268, "lng": 105.53157601886727}, "feature": {"sight_features": "", "sight_content": ""}}, {"title": "剑溪桥", "address": "四川省剑阁县剑门关外", "image": "", "rank": 33, "time": 2, "location": {"lat": 32.20537764631349, "lng": 105.5739604982529}, "feature": {"sight_features": "", "sight_content": ""}}, {"title": "红军血战剑门关遗址", "address": "境内", "image": "", "rank": 34, "time": 2, "location": {"lat": 39.02791335253634, "lng": 111.10395246312886}, "feature": {"sight_features": "", "sight_content": ""}}, {"title": "宝龙山公园", "address": "四川省广元市剑阁县宝龙山", "image": "", "rank": 35, "time": 2, "location": {"lat": 32.28864221583995, "lng": 105.52937299467187}, "feature": {"sight_features": "", "sight_content": ""}}]}