{"cityName": "建瓯", "days": 2, "cityImage": "", "spots": [{"title": "湖头村", "address": "南平市建瓯市小松镇湖头村", "image": "", "rank": 1, "time": 2, "location": {"lat": 27.125459553315437, "lng": 118.37075476325963}, "feature": {"sight_features": "", "sight_content": ""}}, {"title": "建瓯博物馆", "address": "建瓯市仓长路163号", "image": "", "rank": 2, "time": 2.5, "location": {"lat": 27.046061822593042, "lng": 118.33562173833518}, "feature": {"sight_features": "", "sight_content": ""}}, {"title": "欢乐水世界", "address": "北门坡底打锡巷对面(原俊德中学门口)", "image": "", "rank": 3, "time": 3.5, "location": {"lat": 25.731271052238803, "lng": 101.33053461519566}, "feature": {"sight_features": "", "sight_content": ""}}, {"title": "东岳庙", "address": "南平市建瓯市", "image": "", "rank": 4, "time": 2.5, "location": {"lat": 27.028955089428838, "lng": 118.31146073368568}, "feature": {"sight_features": "", "sight_content": ""}}, {"title": "光孝禅寺", "address": "南平市建瓯市光孝街15号附近", "image": "", "rank": 5, "time": 2, "location": {"lat": 27.034517862246066, "lng": 118.33191865353261}, "feature": {"sight_features": "", "sight_content": ""}}, {"title": "建瓯太保庙", "address": "南平市建瓯市城墙街", "image": "", "rank": 6, "time": 2, "location": {"lat": 27.053738844193212, "lng": 118.34175455988031}, "feature": {"sight_features": "", "sight_content": ""}}, {"title": "建瓯市水边月休闲山庄", "address": "打锡巷与校场路交叉口东北50米", "image": "", "rank": 7, "time": 2, "location": {"lat": 27.051767471791866, "lng": 118.33611074621057}, "feature": {"sight_features": "", "sight_content": ""}}, {"title": "九匡人家", "address": "徐墩镇九匡村内", "image": "", "rank": 8, "time": 2, "location": {"lat": 27.268577070118507, "lng": 118.25771125951421}, "feature": {"sight_features": "", "sight_content": ""}}, {"title": "辰山自然保护区", "address": "福建省南平市建瓯市东游镇", "image": "", "rank": 9, "time": 2, "location": {"lat": 27.167872871638114, "lng": 118.64446396502346}, "feature": {"sight_features": "", "sight_content": ""}}, {"title": "布鲁斯水上乐园", "address": "南门村郡城大道三清宫路口", "image": "", "rank": 10, "time": 2.5, "location": {"lat": 28.397982185552653, "lng": 121.34255615226424}, "feature": {"sight_features": "", "sight_content": ""}}, {"title": "欢乐多儿童乐园", "address": "中山西路宏发江景3号楼2层11-13号店面(新华都蓝调店隔壁)", "image": "", "rank": 11, "time": 2, "location": {"lat": 27.03637103896801, "lng": 118.32222000826678}, "feature": {"sight_features": "", "sight_content": ""}}, {"title": "百年乌龙茶厂", "address": "204省道附近", "image": "", "rank": 12, "time": 2, "location": {"lat": 38.05803661623474, "lng": 114.77437992974008}, "feature": {"sight_features": "", "sight_content": ""}}, {"title": "七夕休闲农庄", "address": "205国道北50米", "image": "", "rank": 13, "time": 2, "location": {"lat": 37.341020872944675, "lng": 118.07089300716441}, "feature": {"sight_features": "", "sight_content": ""}}, {"title": "宝石寺", "address": "南平市建瓯市", "image": "", "rank": 14, "time": 2, "location": {"lat": 27.028955089428838, "lng": 118.31146073368568}, "feature": {"sight_features": "", "sight_content": ""}}, {"title": "海会塔", "address": "福建省南平市建瓯市G205(山深线)", "image": "", "rank": 15, "time": 2, "location": {"lat": 27.028955089428838, "lng": 118.31146073368568}, "feature": {"sight_features": "", "sight_content": ""}}, {"title": "建瓯市八角楼天主堂", "address": "八角楼22", "image": "", "rank": 16, "time": 2, "location": {"lat": 21.976692644148564, "lng": 108.63292810691796}, "feature": {"sight_features": "", "sight_content": ""}}, {"title": "艮泉井", "address": "磨房前21号", "image": "", "rank": 17, "time": null, "location": {"lat": 27.04677306454707, "lng": 118.33218940281324}, "feature": {"sight_features": "", "sight_content": ""}}, {"title": "法云寺", "address": "横街18", "image": "", "rank": 18, "time": 2, "location": {"lat": 30.915746059499742, "lng": 120.51173788208226}, "feature": {"sight_features": "", "sight_content": ""}}, {"title": "大型游乐园", "address": "兴泰街18号附近", "image": "", "rank": 19, "time": 2, "location": {"lat": 39.7658743666776, "lng": 116.31929760343287}, "feature": {"sight_features": "", "sight_content": ""}}, {"title": "建瓯通仙门", "address": "仓长路附近", "image": "", "rank": 20, "time": 2, "location": {"lat": 27.041229053785504, "lng": 118.3366793089202}, "feature": {"sight_features": "", "sight_content": ""}}, {"title": "鑫湖度假村", "address": "太湖山水城旅游区山水西路158号(三国城南)", "image": "", "rank": 21, "time": 2, "location": {"lat": 30.460113290447975, "lng": 116.31547630162399}, "feature": {"sight_features": "", "sight_content": ""}}, {"title": "永安三圣庙", "address": "凤排园附近", "image": "", "rank": 22, "time": 2.5, "location": {"lat": 27.043723025506647, "lng": 118.3458822736973}, "feature": {"sight_features": "", "sight_content": ""}}, {"title": "基督教会", "address": "东游镇胡林街166号附近", "image": "", "rank": 23, "time": 2, "location": {"lat": 27.17045988747186, "lng": 118.64284770230975}, "feature": {"sight_features": "", "sight_content": ""}}, {"title": "酒城休闲山庄", "address": "五里街附近", "image": "", "rank": 24, "time": 2, "location": {"lat": 31.58569688862205, "lng": 120.29109177265163}, "feature": {"sight_features": "", "sight_content": ""}}, {"title": "天主堂", "address": "福建省南平市建瓯市超骧路37号", "image": "", "rank": 25, "time": 0.4, "location": {"lat": 27.12036594598291, "lng": 118.26456557219727}, "feature": {"sight_features": "", "sight_content": ""}}, {"title": "徐墩影剧院", "address": "福建省南平市建瓯市中山路", "image": "", "rank": 26, "time": 2, "location": {"lat": 27.041618951280658, "lng": 118.3355769380428}, "feature": {"sight_features": "", "sight_content": ""}}, {"title": "吉祥山庄", "address": "打锡巷与校场路交叉口东南200米", "image": "", "rank": 27, "time": null, "location": {"lat": 27.051767471791866, "lng": 118.33745820447508}, "feature": {"sight_features": "", "sight_content": ""}}, {"title": "农夫山庄", "address": "204省道附近", "image": "", "rank": 28, "time": 2, "location": {"lat": 38.05803661623474, "lng": 114.77437992974008}, "feature": {"sight_features": "", "sight_content": ""}}, {"title": "淘气堡儿童主题游乐场", "address": "福建省南平市建瓯市御花苑14幢", "image": "", "rank": 29, "time": 2, "location": {"lat": 27.04528698839601, "lng": 118.33013650523195}, "feature": {"sight_features": "", "sight_content": ""}}, {"title": "农民乐园", "address": "城墙街", "image": "", "rank": 30, "time": 2, "location": {"lat": 36.12770131796845, "lng": 111.4611252888314}, "feature": {"sight_features": "", "sight_content": ""}}, {"title": "姜荣板雕艺术馆", "address": "丰乐九三小学附近", "image": "", "rank": 31, "time": 2, "location": {"lat": 27.209337647992623, "lng": 118.21328542938033}, "feature": {"sight_features": "", "sight_content": ""}}, {"title": "建瓯市档案馆", "address": "建贸路199号", "image": "", "rank": 32, "time": 1.0, "location": {"lat": 27.02758112178099, "lng": 118.30524167121838}, "feature": {"sight_features": "", "sight_content": ""}}, {"title": "美吉乐儿童乐园", "address": "县前路龙成华庭1号楼2层8号(芝城公园灯光篮球场对面)", "image": "", "rank": 33, "time": 2, "location": {"lat": 39.9713834064013, "lng": 116.40031107205354}, "feature": {"sight_features": "", "sight_content": ""}}, {"title": "喵喵乐园", "address": "仓长路150附近", "image": "", "rank": 34, "time": 2, "location": {"lat": 27.042123605829925, "lng": 118.33690460843356}, "feature": {"sight_features": "", "sight_content": ""}}, {"title": "卡奇乐儿童乐园(春天广场店)", "address": "中山路春天广场三楼", "image": "", "rank": 35, "time": 2, "location": {"lat": 29.770675618942914, "lng": 104.85919203685337}, "feature": {"sight_features": "", "sight_content": ""}}, {"title": "建瓯市东峰镇福苑茶叶专业合作社", "address": "东峰镇大房村", "image": "", "rank": 36, "time": 2, "location": {"lat": 27.08492813411069, "lng": 118.46618221658719}, "feature": {"sight_features": "", "sight_content": ""}}, {"title": "建瓯孔庙", "address": "福建省建瓯市建瓯市", "image": "", "rank": 37, "time": 2.0, "location": {"lat": 27.028955089428838, "lng": 118.31146073368568}, "feature": {"sight_features": "", "sight_content": ""}}, {"title": "江滨商业街", "address": "福建省建瓯市前街", "image": "", "rank": 38, "time": 2, "location": {"lat": 26.88118798021372, "lng": 118.31931250773889}, "feature": {"sight_features": "", "sight_content": ""}}, {"title": "伍石山庄", "address": "建瓯市徐墩镇伍石村（G3高速丰乐服务区300米）", "image": "", "rank": 39, "time": 2, "location": {"lat": 27.18967882965816, "lng": 118.1826566196713}, "feature": {"sight_features": "", "sight_content": ""}}, {"title": "建瓯万木林", "address": "福建省建瓯市房道乡", "image": "", "rank": 40, "time": 2, "location": {"lat": 27.028955089428838, "lng": 118.31146073368568}, "feature": {"sight_features": "", "sight_content": ""}}]}