{"cityName": "江华", "days": 2, "cityImage": "", "spots": [{"title": "盘王殿", "address": "湖南省永州江华县平头岩公园内。", "image": "", "rank": 1, "time": 1.0, "location": {"lat": 25.1896194539089, "lng": 111.58459879823045}, "feature": {"sight_features": "", "sight_content": ""}}, {"title": "秦岩风景区", "address": "永州市江华瑶族自治县白芒营镇", "image": "", "rank": 2, "time": 2.5, "location": {"lat": 24.94822913261489, "lng": 111.56050388012069}, "feature": {"sight_features": "", "sight_content": ""}}, {"title": "宝镜古居", "address": "永州市江华瑶族自治县大圩镇宝镜村", "image": "", "rank": 3, "time": 2, "location": {"lat": 24.885733792265356, "lng": 111.72307372441273}, "feature": {"sight_features": "", "sight_content": ""}}, {"title": "鱼古坝", "address": "永州市江华瑶族自治县", "image": "", "rank": 4, "time": 2, "location": {"lat": 25.19134892401461, "lng": 111.58545203844761}, "feature": {"sight_features": "", "sight_content": ""}}, {"title": "晨光农家乐", "address": "长征路102-1号", "image": "", "rank": 5, "time": 2, "location": {"lat": 32.40929933497134, "lng": 119.44131555418844}, "feature": {"sight_features": "", "sight_content": ""}}, {"title": "青兰阁艺术品画廊(大路铺分店)", "address": "大路铺大市场(近大路铺中学)", "image": "", "rank": 6, "time": 2, "location": {"lat": 29.04278585523267, "lng": 119.22951318853853}, "feature": {"sight_features": "", "sight_content": ""}}, {"title": "仙人居铜门", "address": "事业部江华冯乘路450号", "image": "", "rank": 7, "time": 2, "location": {"lat": 25.178881030954155, "lng": 111.57774157712392}, "feature": {"sight_features": "", "sight_content": ""}}, {"title": "涔天河水库", "address": "湖南省江华瑶族自治县车回乡 425500", "image": "", "rank": 8, "time": 2, "location": {"lat": 25.19134892401461, "lng": 111.58545203844761}, "feature": {"sight_features": "", "sight_content": ""}}, {"title": "不老泉", "address": "湖南省江华瑶族自治县黑山口乡虾塘村 425500", "image": "", "rank": 9, "time": 2, "location": {"lat": 25.027721182818745, "lng": 111.57082021552615}, "feature": {"sight_features": "", "sight_content": ""}}, {"title": "龙凤阁", "address": "湖南省江华瑶族自治县江华瑶族自治县境内 425500", "image": "", "rank": 10, "time": 2, "location": {"lat": 25.19134892401461, "lng": 111.58545203844761}, "feature": {"sight_features": "", "sight_content": ""}}, {"title": "浪石寺", "address": "湖南省江华瑶族自治县江华瑶族自治县南郊 425500", "image": "", "rank": 11, "time": 2, "location": {"lat": 25.19134892401461, "lng": 111.58545203844761}, "feature": {"sight_features": "", "sight_content": ""}}, {"title": "九龙井原始檵木林", "address": "湖南省江华瑶族自治县沱江镇莲花地村 425500", "image": "", "rank": 12, "time": 2, "location": {"lat": 25.219464202481028, "lng": 111.6335610020187}, "feature": {"sight_features": "", "sight_content": ""}}, {"title": "羊角山", "address": "湖南省江华瑶族自治县涛圩镇 425505", "image": "", "rank": 13, "time": 2, "location": {"lat": 24.805751606610084, "lng": 111.55783497851921}, "feature": {"sight_features": "", "sight_content": ""}}, {"title": "东田乡窑址", "address": "湖南省江华瑶族自治县东田乡 425500", "image": "", "rank": 14, "time": 2, "location": {"lat": 25.16648773861419, "lng": 111.63926374363159}, "feature": {"sight_features": "", "sight_content": ""}}, {"title": "把口岩", "address": "湖南省江华瑶族自治县路口镇船岭脚村 425506", "image": "", "rank": 15, "time": 2, "location": {"lat": 24.718976536918596, "lng": 111.49241215719864}, "feature": {"sight_features": "", "sight_content": ""}}, {"title": "大龙瀑布", "address": "湖南省江华瑶族自治县码市镇大龙村 425507", "image": "", "rank": 16, "time": 2, "location": {"lat": 24.86899204895396, "lng": 112.11319534058343}, "feature": {"sight_features": "", "sight_content": ""}}, {"title": "佛爷岩", "address": "湖南省江华瑶族自治县沱江镇山口铺村 425500", "image": "", "rank": 17, "time": 2, "location": {"lat": 25.16708579378725, "lng": 111.55217466926538}, "feature": {"sight_features": "", "sight_content": ""}}, {"title": "穿岩", "address": "湖南省江华瑶族自治县香炉峰山腰 425500", "image": "", "rank": 18, "time": 1.0, "location": {"lat": 25.19134892401461, "lng": 111.58545203844761}, "feature": {"sight_features": "", "sight_content": ""}}, {"title": "暖谷", "address": "湖南省江华瑶族自治县沱江镇老县村 425500", "image": "", "rank": 19, "time": 2, "location": {"lat": 25.180839614190425, "lng": 111.61320023570926}, "feature": {"sight_features": "", "sight_content": ""}}, {"title": "江华总管庙", "address": "湖南省江华瑶族自治县中洞乡源口村 425500", "image": "", "rank": 20, "time": 1.0, "location": {"lat": 24.85552676958255, "lng": 111.56981513293208}, "feature": {"sight_features": "", "sight_content": ""}}, {"title": "天书女字峰", "address": "湖南省江华瑶族自治县沱江镇喜鹊塘村 425500", "image": "", "rank": 21, "time": 2, "location": {"lat": 25.221556750836044, "lng": 111.59958911421978}, "feature": {"sight_features": "", "sight_content": ""}}, {"title": "西佛桥", "address": "湖南省江华瑶族自治县沱江镇沱江之上 425500", "image": "", "rank": 22, "time": 2, "location": {"lat": 25.24843418102633, "lng": 111.57998183399559}, "feature": {"sight_features": "", "sight_content": ""}}, {"title": "原始榷木林", "address": "湖南省江华瑶族自治县沱江镇莲花地村 425500", "image": "", "rank": 23, "time": 2, "location": {"lat": 25.219464202481028, "lng": 111.6335610020187}, "feature": {"sight_features": "", "sight_content": ""}}, {"title": "永州凌云塔", "address": "湖南省江华瑶族自治县豸山寺 425500", "image": "", "rank": 24, "time": null, "location": {"lat": 25.227203786910533, "lng": 111.61824054887319}, "feature": {"sight_features": "", "sight_content": ""}}, {"title": "江华瑶族自治县谷道源五谷店", "address": "沱江镇春晓路104号", "image": "", "rank": 25, "time": 1.0, "location": {"lat": 25.190630954368725, "lng": 111.5821650875126}, "feature": {"sight_features": "", "sight_content": ""}}, {"title": "湖南江华涔天河国家湿地公园", "address": "沱江镇冯乘路86号", "image": "", "rank": 26, "time": 2, "location": {"lat": 25.187088603032, "lng": 111.57754208576212}, "feature": {"sight_features": "", "sight_content": ""}}, {"title": "江华瑶族自治县豸山公园", "address": "湖南省永州市江华瑶族自治县X070(豸山路)", "image": "", "rank": 27, "time": 1.0, "location": {"lat": 25.195867893905305, "lng": 111.59766210876585}, "feature": {"sight_features": "", "sight_content": ""}}, {"title": "绿林源山庄", "address": "冯乘路附近", "image": "", "rank": 28, "time": 2, "location": {"lat": 25.183108497776317, "lng": 111.57776672130366}, "feature": {"sight_features": "", "sight_content": ""}}, {"title": "滨江休闲农场", "address": "沱江镇沿江路北", "image": "", "rank": 29, "time": 2, "location": {"lat": 23.70938746656101, "lng": 113.03870579187947}, "feature": {"sight_features": "", "sight_content": ""}}, {"title": "一号农庄", "address": "207国道黑洞村大堂", "image": "", "rank": 30, "time": 2, "location": {"lat": 22.18919700751974, "lng": 113.55648488269162}, "feature": {"sight_features": "", "sight_content": ""}}, {"title": "大岗庙", "address": "湖南省江华瑶族自治县河路口乡大干斗村", "image": "", "rank": 31, "time": 2, "location": {"lat": 25.23402948706861, "lng": 111.53604387987214}, "feature": {"sight_features": "", "sight_content": ""}}, {"title": "豸山 Zhi Mountain", "address": "湖南省江华瑶族自治县沱江镇东", "image": "", "rank": 32, "time": 2, "location": {"lat": 25.221556750836044, "lng": 111.59958911421978}, "feature": {"sight_features": "", "sight_content": ""}}, {"title": "溪江晓雾", "address": "湖南省江华瑶族自治县东田乡蒋家寨村", "image": "", "rank": 33, "time": 2, "location": {"lat": 25.16648773861419, "lng": 111.63926374363159}, "feature": {"sight_features": "", "sight_content": ""}}, {"title": "潇湘源头", "address": "湖南省江华瑶族自治县大圩镇源头村", "image": "", "rank": 34, "time": 2, "location": {"lat": 24.867046844724303, "lng": 111.68658468127056}, "feature": {"sight_features": "", "sight_content": ""}}, {"title": "奇兽岩,虚明洞", "address": "湖南省江华瑶族自治县喜鹊塘村", "image": "", "rank": 35, "time": 2, "location": {"lat": 25.19134892401461, "lng": 111.58545203844761}, "feature": {"sight_features": "", "sight_content": ""}}, {"title": "梧岭南屏", "address": "湖南省江华瑶族自治县河路口镇秀鱼塘村", "image": "", "rank": 36, "time": 2, "location": {"lat": 24.75211748761022, "lng": 111.56384503314186}, "feature": {"sight_features": "", "sight_content": ""}}, {"title": "倒流坪", "address": "永州市-江华瑶族自治县", "image": "", "rank": 37, "time": 2, "location": {"lat": 25.19134892401461, "lng": 111.58545203844761}, "feature": {"sight_features": "", "sight_content": ""}}, {"title": "豸山寺", "address": "湖南省永州市江华瑶族自治县", "image": "", "rank": 38, "time": 2, "location": {"lat": 25.19134892401461, "lng": 111.58545203844761}, "feature": {"sight_features": "", "sight_content": ""}}]}