{"cityName": "建湖", "days": 2, "cityImage": "", "spots": [{"title": "瀚阳水上世界", "address": "盐城市建湖县九龙口支线999号", "image": "", "rank": 1, "time": 2, "location": {"lat": 33.4465843127757, "lng": 119.62971267726856}, "feature": {"sight_features": "特色1 所有的游乐项目和表演全部实行一票制，所有项目通票尽情玩！ 特色2 在这里你可以欢乐嬉水、激情漂流、呐喊冲浪！ 特色3 苏北地区最专业、最火爆、水质最健康、性价比最高的水上世界！", "sight_content": "江苏省盐城市建湖县颜单镇九龙大道999号，苏北第一个大型水上休闲乐园，是苏北地区最大、最专业、水质最健康、性价比最高的水上乐园。景区内所有的游乐项目和表演全部实行一票制，所有项目通票尽情玩！不再产生二次消费。水上世界按功能规划为：服务区、景观区、种植区、养殖区、休闲娱乐区，儿童乐园、餐饮、棋牌、垂钓、园林绿化和乡村情调于一体的多功能休闲园区，已于2011年盛夏七月隆重开园。\n水上娱乐项目有欢乐嬉水区、激情漂流区、呐喊冲浪区、国标游泳池等；岸上常年开放的娱乐项目有儿童城堡、动漫游乐城、4D动感影院、大摆锤、摇头飞椅、立环跑车、自控飞机、蜗牛特工队、豪华转马、咖啡杯、迪斯科转盘等。所有建设设施先进、地理位置优越、北靠建湖双湖公园，西邻九龙口旅游风景区,交通便利。\n门票主要包含： （1）水上游乐项目：欢乐嬉水区、激情漂流区、呐喊冲浪区（今年进行了全新改造，使人如临大海，切身体会沙滩和海浪的魅力）、国标游泳池、儿童欢乐谷等； （2）岸上游乐项目：儿童城堡、动漫游乐城、5D动感影院、超级大摆锤、摇头飞椅、立环跑车、自控飞机、蜗牛特工队、豪华转马、浪漫莲花杯、迪斯科转盘等； （3）海狮表演馆：有专业的双狮表演，免费观看“海底世界”，聪明可爱的海狮绝对让您和孩子乐翻天； （4）动物表演：神兽“草泥马”、老虎、狮子、狗熊、矮骄马等一系列珍稀动物的专场演出； （5）瀚阳演艺大舞台（每周双休天）：歌曲、舞蹈、东北二人转、魔术、杂技等综艺节目表演。景区内泳池水是采用高科技纳米技术，进行多重水循环处理，水质清澈、洁净、健康、安全，达到国家优质专业泳池标准。"}}, {"title": "双湖公园", "address": "盐城市建湖县公园路", "image": "", "rank": 2, "time": 2.0, "location": {"lat": 33.45530024960953, "lng": 119.78052661210026}, "feature": {"sight_features": "", "sight_content": ""}}, {"title": "九龙口风景名胜区", "address": "盐城市建湖县九龙口镇九龙大道", "image": "", "rank": 3, "time": 1.0, "location": {"lat": 33.41506362842049, "lng": 119.65747677993672}, "feature": {"sight_features": "", "sight_content": "被誉为“里下河的明珠”的九龙口自然保护区，地处射阳湖腹部的建湖县，由蚬河等9条自然河道汇集而成的水面约10万亩。"}}, {"title": "圣泉湾水上乐园", "address": "盐城市建湖县明星南路666号", "image": "", "rank": 4, "time": 2, "location": {"lat": 33.47229552386935, "lng": 119.8274029505105}, "feature": {"sight_features": "", "sight_content": ""}}, {"title": "建湖县人民广场", "address": "滨河南路", "image": "", "rank": 5, "time": 2, "location": {"lat": 30.367690908243333, "lng": 120.03701415558193}, "feature": {"sight_features": "", "sight_content": ""}}, {"title": "建湖县博物馆", "address": "盐城市建湖县汇文东路189双湖公园内", "image": "", "rank": 6, "time": 2, "location": {"lat": 33.4724321709402, "lng": 119.80583715047138}, "feature": {"sight_features": "", "sight_content": ""}}, {"title": "保卫盟军抗日纪念基地", "address": "江苏省盐城市建湖县", "image": "", "rank": 7, "time": 2, "location": {"lat": 33.469832978385014, "lng": 119.80553127744521}, "feature": {"sight_features": "", "sight_content": ""}}, {"title": "乔冠华故居", "address": "盐城建湖县庆丰镇东乔村东乔庄", "image": "", "rank": 8, "time": 2, "location": {"lat": 33.453094325701926, "lng": 119.92954696230325}, "feature": {"sight_features": "", "sight_content": ""}}, {"title": "陆秀夫纪念馆", "address": "文化路附近", "image": "", "rank": 9, "time": 2, "location": {"lat": 39.74005789896059, "lng": 116.15120920962735}, "feature": {"sight_features": "", "sight_content": ""}}, {"title": "雅欣画廊", "address": "湖中南路235号", "image": "", "rank": 10, "time": 2, "location": {"lat": 33.474185374968634, "lng": 119.79936584740804}, "feature": {"sight_features": "", "sight_content": ""}}, {"title": "建湖大剧院", "address": "近湖镇湖中南路", "image": "", "rank": 11, "time": 2, "location": {"lat": 33.440201046558585, "lng": 119.79301898481039}, "feature": {"sight_features": "", "sight_content": ""}}, {"title": "悠贝亲子图书馆", "address": "近湖镇东方广场东南角四区2062号(圣伽瑜伽旁)", "image": "", "rank": 12, "time": 2, "location": {"lat": 33.47824939705447, "lng": 119.80907962104015}, "feature": {"sight_features": "", "sight_content": ""}}, {"title": "春雨垂钓中心", "address": "建宝线附近", "image": "", "rank": 13, "time": 2, "location": {"lat": 33.56696340639106, "lng": 119.84177320932992}, "feature": {"sight_features": "", "sight_content": ""}}, {"title": "裴刘影剧院", "address": "裴刘路附近", "image": "", "rank": 14, "time": 2, "location": {"lat": 33.33897545476948, "lng": 119.80202546053142}, "feature": {"sight_features": "", "sight_content": ""}}, {"title": "香香水果产销专业合作社", "address": "234省道附近", "image": "", "rank": 15, "time": 2, "location": {"lat": 38.2624574136461, "lng": 114.98072501724845}, "feature": {"sight_features": "", "sight_content": ""}}, {"title": "兴湖世纪园", "address": "滨河南路", "image": "", "rank": 16, "time": 2, "location": {"lat": 30.367690908243333, "lng": 120.03701415558193}, "feature": {"sight_features": "", "sight_content": ""}}, {"title": "九龙锦江国际大酒店-杜鹃厅", "address": "双湖路999号九龙锦江国际大酒店1层", "image": "", "rank": 17, "time": 2, "location": {"lat": 33.4469759483471, "lng": 119.78023957115082}, "feature": {"sight_features": "", "sight_content": ""}}, {"title": "增岁公园", "address": "盐城建湖县建宝路", "image": "", "rank": 18, "time": 2, "location": {"lat": 33.475516279707264, "lng": 119.7825229523673}, "feature": {"sight_features": "", "sight_content": ""}}, {"title": "建湖圣水湾乐园", "address": "江苏省盐城市建湖县太平路", "image": "", "rank": 19, "time": 2, "location": {"lat": 33.472169172942934, "lng": 119.78806447329558}, "feature": {"sight_features": "", "sight_content": ""}}, {"title": "欢乐果游乐园", "address": "盐城市建湖县人民路乐天玛特建湖店1层", "image": "", "rank": 20, "time": 2, "location": {"lat": 33.48154347459189, "lng": 119.80950876493823}, "feature": {"sight_features": "", "sight_content": ""}}, {"title": "宝宝王游乐园", "address": "江苏省盐城市建湖县人民南路271-10号3层", "image": "", "rank": 21, "time": 2, "location": {"lat": 33.47393564575065, "lng": 119.80663943251216}, "feature": {"sight_features": "", "sight_content": ""}}, {"title": "建湖湖垛游乐园", "address": "建湖县其他森达路88号", "image": "", "rank": 22, "time": 2, "location": {"lat": 33.4570889897667, "lng": 119.79763140347987}, "feature": {"sight_features": "", "sight_content": ""}}, {"title": "乐貝儿游乐园", "address": "盐城市建湖县湖中南路哥伦布城市广场1层", "image": "", "rank": 23, "time": 2, "location": {"lat": 33.440201046558585, "lng": 119.79301898481039}, "feature": {"sight_features": "", "sight_content": ""}}, {"title": "建湖花炮文化陈列馆", "address": "南环路淮夷珍稀古树研究所内", "image": "", "rank": 24, "time": 2, "location": {"lat": 33.428362448148235, "lng": 119.82153404483404}, "feature": {"sight_features": "", "sight_content": ""}}, {"title": "芦沟禅寺", "address": "江苏省盐城市建湖县芦沟镇王家祠堂(登达生态园附近)", "image": "", "rank": 25, "time": 2, "location": {"lat": 33.42999055792508, "lng": 119.87197334676141}, "feature": {"sight_features": "", "sight_content": ""}}, {"title": "儿童乐园", "address": "江苏省盐城市建湖县建冈东路207号附近", "image": "", "rank": 26, "time": 2, "location": {"lat": 33.55589977945329, "lng": 119.92781376334298}, "feature": {"sight_features": "", "sight_content": ""}}, {"title": "凤翥园", "address": "江苏省盐城市建湖县西吉冈高线冈西镇政府北50米", "image": "", "rank": 27, "time": 2, "location": {"lat": 33.555021630076645, "lng": 119.91928612510708}, "feature": {"sight_features": "", "sight_content": ""}}, {"title": "上冈人民公园", "address": "港口大道东150米", "image": "", "rank": 28, "time": 2, "location": {"lat": 31.920994255883173, "lng": 119.99519593026095}, "feature": {"sight_features": "", "sight_content": ""}}, {"title": "冈西基督教堂", "address": "创业北路西200米", "image": "", "rank": 29, "time": 2, "location": {"lat": 33.556492905990545, "lng": 119.92420966394621}, "feature": {"sight_features": "", "sight_content": ""}}, {"title": "高作公园", "address": "江苏省盐城市建湖县X205(人民西路)", "image": "", "rank": 30, "time": 2, "location": {"lat": 33.5586118546737, "lng": 119.77793605800954}, "feature": {"sight_features": "", "sight_content": ""}}, {"title": "乐贝儿儿童游乐园", "address": "近湖镇家乐福一楼", "image": "", "rank": 31, "time": 2, "location": {"lat": 33.47290565324027, "lng": 119.79852647073952}, "feature": {"sight_features": "", "sight_content": ""}}, {"title": "刘家祠堂", "address": "江苏省盐城市建湖县S234", "image": "", "rank": 32, "time": 2, "location": {"lat": 33.469832978385014, "lng": 119.80553127744521}, "feature": {"sight_features": "", "sight_content": ""}}, {"title": "水秀公园", "address": "江苏省盐城市建湖县跃进路恒济镇文化活动中心附近", "image": "", "rank": 33, "time": 2, "location": {"lat": 33.36047278173912, "lng": 119.66487737106706}, "feature": {"sight_features": "", "sight_content": ""}}, {"title": "麇王寺", "address": "江苏省盐城市建湖县X205(永建线)", "image": "", "rank": 34, "time": 2, "location": {"lat": 33.38137233961511, "lng": 119.74961006165168}, "feature": {"sight_features": "", "sight_content": ""}}, {"title": "湖垛公园游乐场-激光战船", "address": "森达路南150米", "image": "", "rank": 35, "time": 2, "location": {"lat": 33.45400024347689, "lng": 119.81161192540837}, "feature": {"sight_features": "", "sight_content": ""}}, {"title": "童爱岛儿童游乐园", "address": "江苏省盐城市建湖县兴建东路幸福家园明星城大酒店", "image": "", "rank": 36, "time": 1.5, "location": {"lat": 33.47263093414378, "lng": 119.81940407084271}, "feature": {"sight_features": "", "sight_content": ""}}, {"title": "湖垛公园游乐场-海盗船", "address": "明星路西100米", "image": "", "rank": 37, "time": 2, "location": {"lat": 39.023867164464306, "lng": 117.67728625474052}, "feature": {"sight_features": "", "sight_content": ""}}, {"title": "建湖县沈杨公园", "address": "江苏省盐城市建湖县颜单镇航空路沈杨公园", "image": "", "rank": 38, "time": 2, "location": {"lat": 33.42168201138856, "lng": 119.77061684257873}, "feature": {"sight_features": "", "sight_content": ""}}, {"title": "建湖县湖垛欢乐城", "address": "明星路东50米", "image": "", "rank": 39, "time": 2, "location": {"lat": 39.023867164464306, "lng": 117.67863371300548}, "feature": {"sight_features": "", "sight_content": ""}}, {"title": "清洁庵", "address": "南京路西200米", "image": "", "rank": 40, "time": 2, "location": {"lat": 22.302274606420156, "lng": 114.17806775920047}, "feature": {"sight_features": "", "sight_content": ""}}, {"title": "湖垛公园游乐场-豪华转马", "address": "明星路西150米", "image": "", "rank": 41, "time": 2, "location": {"lat": 39.023867164464306, "lng": 117.67683710198553}, "feature": {"sight_features": "", "sight_content": ""}}, {"title": "四宜园", "address": "江苏省盐城市建湖县建宝路559号", "image": "", "rank": 42, "time": 2, "location": {"lat": 33.47609893683288, "lng": 119.78234274779047}, "feature": {"sight_features": "", "sight_content": ""}}, {"title": "超级大迷宫", "address": "盐城市建湖县", "image": "", "rank": 43, "time": 2, "location": {"lat": 33.469832978385014, "lng": 119.80553127744521}, "feature": {"sight_features": "", "sight_content": ""}}, {"title": "双墩公墓", "address": "江苏省盐城市建湖县北朱家墩", "image": "", "rank": 44, "time": 2, "location": {"lat": 33.51530803421902, "lng": 119.91370456131239}, "feature": {"sight_features": "", "sight_content": ""}}, {"title": "龙王古庙", "address": "文化南路18号", "image": "", "rank": 45, "time": 0.25, "location": {"lat": 32.24102625274313, "lng": 119.82879712515351}, "feature": {"sight_features": "", "sight_content": ""}}, {"title": "冈西影剧院", "address": "建冈东路附近", "image": "", "rank": 46, "time": 2, "location": {"lat": 33.55476327486593, "lng": 119.92443144389865}, "feature": {"sight_features": "", "sight_content": ""}}, {"title": "罗汉院", "address": "秀夫南路1699", "image": "", "rank": 47, "time": 1.0, "location": {"lat": 33.4560246766581, "lng": 119.78880165693268}, "feature": {"sight_features": "", "sight_content": ""}}, {"title": "延寿寺", "address": "兴颜南路附近", "image": "", "rank": 48, "time": 1.0, "location": {"lat": 33.389233538486515, "lng": 119.72108123689272}, "feature": {"sight_features": "", "sight_content": ""}}, {"title": "冈东影剧院", "address": "江苏省盐城市建湖县人民南路148号附近", "image": "", "rank": 49, "time": 2, "location": {"lat": 33.47952824353972, "lng": 119.80914531591873}, "feature": {"sight_features": "", "sight_content": ""}}, {"title": "建湖县市民广场", "address": "盐城市建湖县人民路", "image": "", "rank": 50, "time": 2, "location": {"lat": 33.35529117417952, "lng": 119.66063595872032}, "feature": {"sight_features": "", "sight_content": ""}}, {"title": "盐城市荣宝轩古陶瓷博物馆", "address": "江苏省盐城市建湖县明珠西路建湖五洲国际商贸城附近", "image": "", "rank": 51, "time": 3.0, "location": {"lat": 33.49407098221566, "lng": 119.78589496218383}, "feature": {"sight_features": "", "sight_content": ""}}, {"title": "蚬河", "address": "江苏省盐城市建湖县", "image": "", "rank": 52, "time": 1.0, "location": {"lat": 33.469832978385014, "lng": 119.80553127744521}, "feature": {"sight_features": "", "sight_content": ""}}, {"title": "建湖画廊", "address": "人民南路445号", "image": "", "rank": 53, "time": 2.0, "location": {"lat": 33.47107246643368, "lng": 119.80574642161487}, "feature": {"sight_features": "", "sight_content": ""}}, {"title": "冠华书画院", "address": "人民南路440号", "image": "", "rank": 54, "time": 2, "location": {"lat": 33.47080970820722, "lng": 119.80608238787559}, "feature": {"sight_features": "", "sight_content": ""}}, {"title": "ET精品真人密室逃脱", "address": "汇文东路159号盛世豪庭4楼(县院西侧百花苑自助餐四楼)", "image": "", "rank": 55, "time": 2, "location": {"lat": 33.47347489762377, "lng": 119.80289969145375}, "feature": {"sight_features": "", "sight_content": ""}}, {"title": "陆秀夫纪念馆", "address": "234省道", "image": "", "rank": 56, "time": 2, "location": {"lat": 38.2624574136461, "lng": 114.98072501724845}, "feature": {"sight_features": "", "sight_content": ""}}, {"title": "御温泉", "address": "秀夫南路869号", "image": "", "rank": 57, "time": 2, "location": {"lat": 33.470499350009746, "lng": 119.79268649723777}, "feature": {"sight_features": "", "sight_content": ""}}, {"title": "盐城市刘以勇精品葡萄园(东南门)", "address": "234省道附近", "image": "", "rank": 58, "time": 3.0, "location": {"lat": 38.2624574136461, "lng": 114.98072501724845}, "feature": {"sight_features": "", "sight_content": ""}}, {"title": "鳄鱼漆", "address": "上冈镇上冈宾馆西100米", "image": "", "rank": 59, "time": 2, "location": {"lat": 33.53934246806333, "lng": 120.02614080607887}, "feature": {"sight_features": "", "sight_content": ""}}, {"title": "百姓大舞台", "address": "上冈镇易家乐生活广场", "image": "", "rank": 60, "time": 2, "location": {"lat": 33.53593610533929, "lng": 120.02563587034832}, "feature": {"sight_features": "", "sight_content": ""}}]}