{"cityName": "犍为", "days": 2, "cityImage": "", "spots": [{"title": "嘉阳小火车", "address": "乐山市犍为县石溪镇和芭沟镇跃进桥嘉阳国家矿山公园", "image": "", "rank": 1, "time": 2.5, "location": {"lat": 29.270972947124765, "lng": 103.82683444050578}, "feature": {"sight_features": "特色1 乘坐客运窄轨蒸汽火车。 特色2 工业革命的活化石。 特色3 具有历史和文化的魅力。", "sight_content": "嘉阳小火车的轨距只有普通火车轨矩的一半，车厢只能座二十个人，人们亲切的称它为“嘉阳小火车”。这个窄轨的小火车看上去就感到很亲切，它象一个硕大的玩具，让你回忆起童年；坐上去就感到很兴奋，它仿佛把你带进了儿童乐园，让你童心飞扬起来。这个冒着黑烟，飘着煤灰，吐着白雾、鸣着汽笛的黑铁皮长龙轻轻的摇晃着身子，越过田野，爬上山坡，穿过隧道，路过农舍......在绿色的山野中欢快地奔跑着，展现着原生态火车的风采。\n车窗外的梯田，水库，果树，鸡鸭近在咫尺，仿佛伸手可触，令游客兴奋不已。 嘉阳小火车之旅非常简陋，正是这个简陋，使他充满了原生态的气息，全程有八个站，其中一个还是招呼站，汽车有招呼站，招手就停，人们已见惯不惊，可这火车的招呼站我真还是第一次听到！\n火车站也很简单，有的一个站牌便是一个站，火车常常驶过晒坝路过农家，很有原生态特色。 进入高科技的21世纪后，这个“世界第一次工业革命的活化石”，曾对世界文明作出过巨大贡献的“最后的蒸汽机”——“原生态蒸汽机小火车”显得越发珍稀，也越发具有历史和文化的魅力。"}}, {"title": "嘉阳桫椤湖旅游景区", "address": "乐山市犍为县同兴乡桫椤湖", "image": "", "rank": 2, "time": 1.5, "location": {"lat": 29.168860564712485, "lng": 103.82087526590718}, "feature": {"sight_features": "", "sight_content": ""}}, {"title": "嘉阳国家矿山公园", "address": "乐山市犍为县芭沟镇", "image": "", "rank": 3, "time": 2.5, "location": {"lat": 29.236957236264505, "lng": 103.77988408443193}, "feature": {"sight_features": "特色1 可供人们游览观赏、进行科学考察与科学知识普及的人类矿业遗迹景观", "sight_content": "嘉阳国家矿山公园是以展示人类矿业遗迹景观为主体，体现矿业发展历史内涵，具备研究价值和教育功能，可供人们游览观赏、进行科学考察与科学知识普及的特定的空间地域。穿上工装，戴上安全帽，身背矿灯和自救器，在矿工导游的带领下，进行他们的矿井探秘旅游。"}}, {"title": "蜀南茉莉香都", "address": "乐山市犍为县清溪镇沉犀村", "image": "", "rank": 4, "time": 2, "location": {"lat": 29.166821192540958, "lng": 103.91064140028551}, "feature": {"sight_features": "", "sight_content": ""}}, {"title": "芭蕉沟", "address": "乐山市犍为县芭沟镇", "image": "", "rank": 5, "time": 2.5, "location": {"lat": 29.236957236264505, "lng": 103.77988408443193}, "feature": {"sight_features": "", "sight_content": ""}}, {"title": "佛灵寺", "address": "乐山市犍为县县城以北岷江大桥桥头", "image": "", "rank": 6, "time": 2.0, "location": {"lat": 29.214219463759488, "lng": 103.95550653594924}, "feature": {"sight_features": "", "sight_content": ""}}, {"title": "泉水溶洞群", "address": "乐山市犍为县泉水镇三块田村和陈家塝村境内的黑儿凼山上", "image": "", "rank": 7, "time": 2.5, "location": {"lat": 29.28812855156626, "lng": 103.721625402263}, "feature": {"sight_features": "", "sight_content": ""}}, {"title": "兴福寺", "address": "乐山市犍为县罗城古镇内", "image": "", "rank": 8, "time": 1.0, "location": {"lat": 29.38947102635436, "lng": 104.03781191518814}, "feature": {"sight_features": "", "sight_content": ""}}, {"title": "茉莉漂流", "address": "乐山市犍为县清溪镇沉犀村", "image": "", "rank": 9, "time": 2, "location": {"lat": 29.166821192540958, "lng": 103.91064140028551}, "feature": {"sight_features": "", "sight_content": ""}}, {"title": "铁炉乡古镇", "address": "乐山市犍为县009乡道", "image": "", "rank": 10, "time": 2, "location": {"lat": 29.214219463759488, "lng": 103.95550653594924}, "feature": {"sight_features": "", "sight_content": ""}}, {"title": "瞿氏画廊", "address": "米井街", "image": "", "rank": 11, "time": 2, "location": {"lat": 45.78780280222436, "lng": 126.62824211229004}, "feature": {"sight_features": "", "sight_content": ""}}, {"title": "菜子坝农家乐", "address": "024乡道东150米", "image": "", "rank": 12, "time": 2, "location": {"lat": 35.37720857982394, "lng": 113.08436330673442}, "feature": {"sight_features": "", "sight_content": ""}}, {"title": "核桃树来凤鱼", "address": "学府街83号附近", "image": "", "rank": 13, "time": 2, "location": {"lat": 38.44472809577531, "lng": 116.10472589425059}, "feature": {"sight_features": "", "sight_content": ""}}, {"title": "凤凰山庄", "address": "四川省乐山市犍为县玉津镇成渝环线高速公路雨湘居度假村", "image": "", "rank": 14, "time": 2, "location": {"lat": 29.219652778250122, "lng": 103.93632039122933}, "feature": {"sight_features": "", "sight_content": ""}}, {"title": "蜜蜂岩", "address": "四川省乐山市犍为县", "image": "", "rank": 15, "time": 2, "location": {"lat": 29.214219463759488, "lng": 103.95550653594924}, "feature": {"sight_features": "", "sight_content": ""}}, {"title": "蜀南茉莉香都度假村", "address": "沉犀村四组(国道213线犍为清溪大转弯处右转前行700米)", "image": "", "rank": 16, "time": 2, "location": {"lat": 29.166821192540958, "lng": 103.91064140028551}, "feature": {"sight_features": "", "sight_content": ""}}, {"title": "犍为海豚湾四季水上乐园", "address": "梧荫街281号", "image": "", "rank": 17, "time": 2, "location": {"lat": 29.220245012001854, "lng": 103.94362604302306}, "feature": {"sight_features": "", "sight_content": ""}}, {"title": "枫叶财富中心水上乐园", "address": "滨江路2号", "image": "", "rank": 18, "time": null, "location": {"lat": 30.12538124460366, "lng": 120.1847496755835}, "feature": {"sight_features": "", "sight_content": ""}}, {"title": "百家园农家乐", "address": "岷东乡葫芦村8组", "image": "", "rank": 19, "time": 2, "location": {"lat": 29.255070568492776, "lng": 103.92270467400888}, "feature": {"sight_features": "", "sight_content": ""}}, {"title": "八筒啤酒广场", "address": "乐山市犍为县", "image": "", "rank": 20, "time": 2, "location": {"lat": 29.214219463759488, "lng": 103.95550653594924}, "feature": {"sight_features": "", "sight_content": ""}}, {"title": "情人榕", "address": "四川省乐山市犍为县", "image": "", "rank": 21, "time": 2.5, "location": {"lat": 29.214219463759488, "lng": 103.95550653594924}, "feature": {"sight_features": "", "sight_content": ""}}, {"title": "茉莉花博览馆", "address": "三山村四组", "image": "", "rank": 22, "time": 2, "location": {"lat": 34.6353797712377, "lng": 112.40596547929518}, "feature": {"sight_features": "", "sight_content": ""}}, {"title": "蓝天儿童游乐园", "address": "四川省乐山市犍为县清溪镇三山清正街印象名邸", "image": "", "rank": 23, "time": 2.5, "location": {"lat": 29.16159004242218, "lng": 103.92535583946639}, "feature": {"sight_features": "", "sight_content": ""}}, {"title": "翠湖山庄", "address": "四川省乐山市犍为县公园路143号", "image": "", "rank": 24, "time": 2, "location": {"lat": 29.206736896043815, "lng": 103.95097312945197}, "feature": {"sight_features": "", "sight_content": ""}}, {"title": "金中湾度假村", "address": "犍罗路南50米", "image": "", "rank": 25, "time": 2, "location": {"lat": 29.31372241663178, "lng": 103.95773462376593}, "feature": {"sight_features": "", "sight_content": ""}}, {"title": "柏杨山庄", "address": "上渡口附近", "image": "", "rank": 26, "time": 2, "location": {"lat": 31.078444087735406, "lng": 118.36569571415629}, "feature": {"sight_features": "", "sight_content": ""}}, {"title": "古郡·花果溪", "address": "乐山市犍为县城东下渡乡白杨村", "image": "", "rank": 27, "time": 2, "location": {"lat": 29.211784983956846, "lng": 103.99457789751634}, "feature": {"sight_features": "特色1 游山看水间品田园之美", "sight_content": "古郡·花果溪位于四川省乐山市犍为（Qiánwéi）县城东下渡乡白杨村，利用山形地貌和区位优势，以四季花展、婚庆文创、农旅观光为创意，打造集餐饮、娱乐、休闲、度假、观光为一体的农旅融合乡村度假近郊游。"}}, {"title": "秋水伊人生活艺术馆", "address": "玉津街94号", "image": "", "rank": 28, "time": 2, "location": {"lat": 29.467102509457405, "lng": 103.77483658123067}, "feature": {"sight_features": "", "sight_content": ""}}, {"title": "犍为县图书馆", "address": "书田街257号", "image": "", "rank": 29, "time": 2, "location": {"lat": 29.21416137987431, "lng": 103.95390934875303}, "feature": {"sight_features": "", "sight_content": ""}}, {"title": "风雨廊街鞋业连锁犍为二店", "address": "书田街美宜佳对面", "image": "", "rank": 30, "time": 2, "location": {"lat": 29.214719400629207, "lng": 103.95302503974149}, "feature": {"sight_features": "", "sight_content": ""}}, {"title": "若瑟堂", "address": "凤岭街45号", "image": "", "rank": 31, "time": 1.5, "location": {"lat": 29.223308339264182, "lng": 103.94334738518052}, "feature": {"sight_features": "", "sight_content": ""}}, {"title": "龙家生态园", "address": "赵家山附近", "image": "", "rank": 32, "time": null, "location": {"lat": 40.36003346410929, "lng": 114.94427040075458}, "feature": {"sight_features": "", "sight_content": ""}}, {"title": "峡谷井高庙老窖", "address": "金竹林街242号附近", "image": "", "rank": 33, "time": 2, "location": {"lat": 29.205824066420956, "lng": 103.95431699979332}, "feature": {"sight_features": "", "sight_content": ""}}, {"title": "赛马王", "address": "正北街19号附近", "image": "", "rank": 34, "time": 2, "location": {"lat": 30.879486702754576, "lng": 104.02096041056461}, "feature": {"sight_features": "", "sight_content": ""}}, {"title": "水亭坊农家乐", "address": "清溪镇", "image": "", "rank": 35, "time": 2, "location": {"lat": 28.988125826343918, "lng": 120.09039515504229}, "feature": {"sight_features": "", "sight_content": ""}}, {"title": "芭沟镇", "address": "四川省乐山市犍为县芭沟镇", "image": "", "rank": 36, "time": 2, "location": {"lat": 29.236957236264505, "lng": 103.77988408443193}, "feature": {"sight_features": "", "sight_content": ""}}]}