{"cityName": "将乐", "days": 2, "cityImage": "", "spots": [{"title": "玉华洞", "address": "三明市将乐县梅花村", "image": "", "rank": 1, "time": 2.5, "location": {"lat": 26.710785051121977, "lng": 117.51888507822244}, "feature": {"sight_features": "特色1 福建省十佳石灰岩溶洞之一。 特色2 洞内演示光洁如玉，光华四射，遍布幽奥。 特色3 洞中形态各异的石笋、石钟乳瑰丽多姿，是一处幻化的人间仙境。", "sight_content": "玉华洞于汉初被人发现后，游踪不断。宋代杨时、李纲等曾游此洞。明徐霞客游后有此洞“弘含奇瑰，炫巧争奇，遍布幽奥”的赞语。洞进出口处岩壁上保留不少宋以来的摩崖石刻。明万历年间(1573～1619年)，廖九峰为玉华洞修志7卷，清康熙年间(1662～1722年)邑人廖云友重修《玉华洞志》。在将乐县城东南5公里的天阶山下，因洞内岩石光洁如玉，华光四射而得名，是福建省较大的石灰岩溶洞，第二批省级风景名胜区。\n\n全洞总长约6公里，有两条通道，由藏禾洞、雷公洞、果子洞、黄泥洞、溪源洞、白云洞等6个支洞和石泉、井泉、灵泉等3条宽1至3米，深不及膝的小阴河组成。洞内小径盘曲，有“琼楼玉宇”、“渴龙饮水”、“朝天曙色”、“蓬莱叠翠”、“雄鹰独立”、“风飘泪烛”等180多景，均为石灰岩溶蚀而成，其中尤以“仙人田”、“炼丹炉”、“荔枝柱”、“苍龙出海”、“童子拜观音”等形象最为逼真。进口为“一扇风”，风声不止，出口是“五更天”，可以使人体验到由昏暗转为光亮的景色。1987年以来不断整修，遇斜坡砌石阶，过溪流架桥梁，主要观景处平缓宽敞，并装有彩灯衬景照明。有水泥公路直达洞口，洞口安放着徐霞客铜像，还建有擂茶馆、动物世界标本馆、荷花池等游览设施。"}}, {"title": "龙栖山大峡谷漂流", "address": "三明市将乐县龙栖山自然保护区", "image": "", "rank": 2, "time": 2, "location": {"lat": 26.517322579568003, "lng": 117.38923002455128}, "feature": {"sight_features": "", "sight_content": ""}}, {"title": "云衢山漂流", "address": "三明市将乐县高唐镇常口云衢山旅游景区内", "image": "", "rank": 3, "time": 2, "location": {"lat": 26.765297640055458, "lng": 117.62231491999646}, "feature": {"sight_features": "", "sight_content": ""}}, {"title": "将乐县上河洲公园", "address": "福建省三明市将乐县滨河南路", "image": "", "rank": 4, "time": 2, "location": {"lat": 26.730892716069757, "lng": 117.48295241676718}, "feature": {"sight_features": "", "sight_content": ""}}, {"title": "含云寺", "address": "花巷附近", "image": "", "rank": 5, "time": 2, "location": {"lat": 23.01548729528952, "lng": 113.37430826751459}, "feature": {"sight_features": "", "sight_content": ""}}, {"title": "杨时纪念馆", "address": "府前路", "image": "", "rank": 6, "time": 2, "location": {"lat": 40.6095122160732, "lng": 117.1166282749851}, "feature": {"sight_features": "", "sight_content": ""}}, {"title": "福建省图书馆(将乐县分馆)", "address": "滨河北路36", "image": "", "rank": 7, "time": 2, "location": {"lat": 36.15848408974471, "lng": 112.25784605855254}, "feature": {"sight_features": "", "sight_content": ""}}, {"title": "龙栖山影剧院", "address": "龙栖山森林派出所附近", "image": "", "rank": 8, "time": 2, "location": {"lat": 26.51398551780249, "lng": 117.30309240753346}, "feature": {"sight_features": "", "sight_content": ""}}, {"title": "福建省将乐县越剧团", "address": "古镛镇府前西路", "image": "", "rank": 9, "time": 2, "location": {"lat": 26.732358764900113, "lng": 117.47327876685216}, "feature": {"sight_features": "", "sight_content": ""}}, {"title": "天阶山国家森林公园", "address": "福建省将乐县古镛镇梅花村 353300", "image": "", "rank": 10, "time": 2, "location": {"lat": 26.710785051121977, "lng": 117.51888507822244}, "feature": {"sight_features": "", "sight_content": ""}}, {"title": "摩天轮", "address": "美食街夏华商厦114号-2", "image": "", "rank": 11, "time": 2, "location": {"lat": 26.737387382021637, "lng": 117.4798450190091}, "feature": {"sight_features": "", "sight_content": ""}}, {"title": "回龙寺", "address": "204省道附近", "image": "", "rank": 12, "time": 0.5, "location": {"lat": 38.05803661623474, "lng": 114.77437992974008}, "feature": {"sight_features": "", "sight_content": ""}}, {"title": "白云寺", "address": "三明市将乐县", "image": "", "rank": 13, "time": 1.5, "location": {"lat": 26.735209519833294, "lng": 117.47740904083985}, "feature": {"sight_features": "", "sight_content": ""}}, {"title": "新农夫山庄", "address": "三零四省道", "image": "", "rank": 14, "time": 2, "location": {"lat": 29.80432194334088, "lng": 121.47674359201162}, "feature": {"sight_features": "", "sight_content": ""}}, {"title": "黄潭基督教堂", "address": "南新东路附近", "image": "", "rank": 15, "time": null, "location": {"lat": 27.270323925371468, "lng": 120.468271005827}, "feature": {"sight_features": "", "sight_content": ""}}, {"title": "龙栖山自然博物馆", "address": "204省道", "image": "", "rank": 16, "time": 2, "location": {"lat": 38.05803661623474, "lng": 114.77437992974008}, "feature": {"sight_features": "", "sight_content": ""}}, {"title": "郑忠华英雄事迹陈列馆", "address": "滨河北路36", "image": "", "rank": 17, "time": 2, "location": {"lat": 36.15848408974471, "lng": 112.25784605855254}, "feature": {"sight_features": "", "sight_content": ""}}, {"title": "建设档案馆", "address": "三华南路30号", "image": "", "rank": 18, "time": 2, "location": {"lat": 31.228549877920955, "lng": 118.24055300442578}, "feature": {"sight_features": "", "sight_content": ""}}, {"title": "规划建筑设计院(将乐分院)", "address": "白云路2-1号", "image": "", "rank": 19, "time": 2, "location": {"lat": 31.567046513227613, "lng": 121.07509881910023}, "feature": {"sight_features": "", "sight_content": ""}}, {"title": "将乐镛城影剧院", "address": "204省道福建恒欣车业有限公司东50米", "image": "", "rank": 20, "time": 2, "location": {"lat": 26.723047460905942, "lng": 117.50463614365158}, "feature": {"sight_features": "", "sight_content": ""}}, {"title": "鳄鱼", "address": "东门街8号附近", "image": "", "rank": 21, "time": 2, "location": {"lat": 31.203368943004705, "lng": 121.71624218510767}, "feature": {"sight_features": "", "sight_content": ""}}, {"title": "玉珍百香果生态农场", "address": "南口乡里坊村玉珍农场", "image": "", "rank": 22, "time": 2, "location": {"lat": 26.58961495971109, "lng": 117.40579333457283}, "feature": {"sight_features": "", "sight_content": ""}}, {"title": "三明杨时故里 Sanming Yang Shi ...", "address": "福建省将乐县龟山村", "image": "", "rank": 23, "time": 2.5, "location": {"lat": 26.735209519833294, "lng": 117.47740904083985}, "feature": {"sight_features": "", "sight_content": ""}}, {"title": "将乐县七星步行街", "address": "福建省将乐县七星街", "image": "", "rank": 24, "time": 2, "location": {"lat": 26.73377570353902, "lng": 117.47957556239012}, "feature": {"sight_features": "", "sight_content": ""}}, {"title": "何坑厂", "address": "三明市-将乐县-三零四省道", "image": "", "rank": 25, "time": 2, "location": {"lat": 26.766621660501027, "lng": 117.48512018067397}, "feature": {"sight_features": "", "sight_content": ""}}, {"title": "盖竹洋", "address": "三明市-将乐县", "image": "", "rank": 26, "time": 2, "location": {"lat": 26.735209519833294, "lng": 117.47740904083985}, "feature": {"sight_features": "", "sight_content": ""}}, {"title": "动物世界标本馆", "address": "福建省将乐县天阶山国家森林公园旁", "image": "", "rank": 27, "time": 2, "location": {"lat": 26.702654345289517, "lng": 117.5082348435573}, "feature": {"sight_features": "", "sight_content": ""}}]}