{"cityName": "吉安县", "days": 2, "cityImage": "", "spots": [{"title": "天祥景区", "address": "吉安市吉安县", "image": "", "rank": 1, "time": null, "location": {"lat": 27.044989078994433, "lng": 114.91459130140301}, "feature": {"sight_features": "", "sight_content": ""}}, {"title": "吉州窑景区", "address": "吉安市吉安县749县道", "image": "", "rank": 2, "time": 2, "location": {"lat": 27.029928711431598, "lng": 115.01410307051006}, "feature": {"sight_features": "", "sight_content": ""}}, {"title": "革命烈士纪念馆", "address": "吉安市吉安县城庐陵大道25号", "image": "", "rank": 3, "time": 2, "location": {"lat": 27.04505243614999, "lng": 114.91261599406182}, "feature": {"sight_features": "", "sight_content": ""}}, {"title": "上水塘农场", "address": "756县道附近", "image": "", "rank": 4, "time": 2, "location": {"lat": 36.06504680178999, "lng": 113.80945833160084}, "feature": {"sight_features": "", "sight_content": ""}}, {"title": "吉安县弥陀寺", "address": "江西省吉安市吉安县朝阳路", "image": "", "rank": 5, "time": 0.4, "location": {"lat": 27.029835771928838, "lng": 114.90082596601007}, "feature": {"sight_features": "", "sight_content": ""}}, {"title": "亲子游乐园", "address": "江西省吉安市吉安县文山路39号", "image": "", "rank": 6, "time": 2, "location": {"lat": 27.046566437243552, "lng": 114.91391067777596}, "feature": {"sight_features": "", "sight_content": ""}}, {"title": "梨山公园", "address": "吉安市吉安县", "image": "", "rank": 7, "time": 2, "location": {"lat": 27.044989078994433, "lng": 114.91459130140301}, "feature": {"sight_features": "", "sight_content": ""}}, {"title": "龙飞休闲广场", "address": "白云路", "image": "", "rank": 8, "time": 2, "location": {"lat": 39.110385615546605, "lng": 117.35948567984518}, "feature": {"sight_features": "", "sight_content": ""}}, {"title": "吉安县壹号生态农场", "address": "吉安县永阳镇良枧村委山前村", "image": "", "rank": 9, "time": 3.0, "location": {"lat": 26.93507560332428, "lng": 114.73555837193341}, "feature": {"sight_features": "", "sight_content": ""}}, {"title": "油田生态广场", "address": "油田互通312县道路口附近", "image": "", "rank": 10, "time": 2, "location": {"lat": 27.502314935902188, "lng": 114.7941114512755}, "feature": {"sight_features": "", "sight_content": ""}}, {"title": "室内儿童主题亲子乐园", "address": "东昌路与兴华路交叉口东北50米", "image": "", "rank": 11, "time": 2, "location": {"lat": 27.04057966954671, "lng": 114.92811443117287}, "feature": {"sight_features": "", "sight_content": ""}}, {"title": "君山湖公园", "address": "君山大道附近", "image": "", "rank": 12, "time": 2, "location": {"lat": 34.98553329086269, "lng": 117.72604590233043}, "feature": {"sight_features": "", "sight_content": ""}}, {"title": "桐坪公园", "address": "235省道附近", "image": "", "rank": 13, "time": 2, "location": {"lat": 38.72736549768279, "lng": 115.81277537552413}, "feature": {"sight_features": "", "sight_content": ""}}, {"title": "敖城文化广场", "address": "319国道附近", "image": "", "rank": 14, "time": null, "location": {"lat": 25.761668573925817, "lng": 116.38626783390552}, "feature": {"sight_features": "", "sight_content": ""}}, {"title": "君山湖度假村", "address": "吉安市吉安县君山大道325号", "image": "", "rank": 15, "time": 2, "location": {"lat": 27.03152243387757, "lng": 114.91759182146644}, "feature": {"sight_features": "", "sight_content": ""}}, {"title": "140乡道", "address": "江西省吉安市吉安县", "image": "", "rank": 16, "time": 2, "location": {"lat": 27.044989078994433, "lng": 114.91459130140301}, "feature": {"sight_features": "", "sight_content": ""}}, {"title": "吉安县城市展示馆", "address": "吉安宣传文化活动中心影剧院旁", "image": "", "rank": 17, "time": 3.0, "location": {"lat": 27.119726826070448, "lng": 115.00051072001253}, "feature": {"sight_features": "", "sight_content": ""}}, {"title": "岭下葡萄庄园", "address": "仕石段", "image": "", "rank": 18, "time": 2, "location": {"lat": 23.57949460757891, "lng": 111.60996302292367}, "feature": {"sight_features": "", "sight_content": ""}}, {"title": "龙湖水上乐园", "address": "白云路31号", "image": "", "rank": 19, "time": 2, "location": {"lat": 39.10119261659702, "lng": 117.2199344560568}, "feature": {"sight_features": "", "sight_content": ""}}, {"title": "吉安县小星星乐园", "address": "敦厚镇吉州路", "image": "", "rank": 20, "time": 3.0, "location": {"lat": 27.048286879372544, "lng": 114.93448420505045}, "feature": {"sight_features": "", "sight_content": ""}}, {"title": "桐坪陈家葡萄基地", "address": "104乡道", "image": "", "rank": 21, "time": 2, "location": {"lat": 32.377745597307516, "lng": 116.85154074351719}, "feature": {"sight_features": "", "sight_content": ""}}, {"title": "吉安县美术馆", "address": "高新街道文山路16号", "image": "", "rank": 22, "time": 3.0, "location": {"lat": 43.80484890178055, "lng": 126.57744221058306}, "feature": {"sight_features": "", "sight_content": ""}}, {"title": "宋街壹号", "address": "749县道与107乡道交叉口东50米", "image": "", "rank": 23, "time": 2, "location": {"lat": 21.801838779691586, "lng": 112.01103334654474}, "feature": {"sight_features": "", "sight_content": ""}}, {"title": "梦幻岛欢乐水世界", "address": "二七路与天祥北路交汇处(县庐陵学校大门正对面天祥公园公交终点站北300处)", "image": "", "rank": 24, "time": 2, "location": {"lat": 27.053262098370418, "lng": 114.93100161023355}, "feature": {"sight_features": "", "sight_content": ""}}, {"title": "亿都沙滩水世界", "address": "井冈山大道188号", "image": "", "rank": 25, "time": 2, "location": {"lat": 28.632496269612364, "lng": 115.92372164275187}, "feature": {"sight_features": "", "sight_content": ""}}, {"title": "吉州古窑 Jizhou Ancient Kiln", "address": "江西省吉安县永和镇赣江江畔", "image": "", "rank": 26, "time": 2, "location": {"lat": 27.016155901011434, "lng": 115.0533389953584}, "feature": {"sight_features": "", "sight_content": ""}}, {"title": "金庐陵步行街", "address": "江西省吉安县文山路与凤凰路交叉口", "image": "", "rank": 27, "time": 2, "location": {"lat": 27.046630537076076, "lng": 114.91336243383866}, "feature": {"sight_features": "", "sight_content": ""}}, {"title": "美博步行街", "address": "江西省吉安县富川路", "image": "", "rank": 28, "time": 2, "location": {"lat": 27.036196364786132, "lng": 114.92130780773275}, "feature": {"sight_features": "", "sight_content": ""}}]}