{"cityName": "江山", "days": 2, "cityImage": "", "spots": [{"title": "廿八都", "address": "衢州市江山市廿八都古镇", "image": "", "rank": 1, "time": 2.5, "location": {"lat": 28.301099352169672, "lng": 118.48756122207321}, "feature": {"sight_features": "特色1 在“一脚踏三省”的古镇看白墙飞檐的老建筑。 特色2 去文昌宫看精美的雕刻和彩绘壁画，在许愿台的小卡片上写下心愿。", "sight_content": "廿八都距离江山市县城70公里，是一个古老小镇。全镇有800余户4000余人口。北宋熙宁四年（1071年）江山设都四十四，此地排行第廿八，得名廿八都，至今已有900余年历史。由于历史上少受战乱，使镇上古建筑风貌依旧，保存较为完好。\n据统计现保完整、规模大的明清古建筑民居、厅堂共有36幢，公共建筑物有孔庙、大王庙、文昌阁、万寿宫、真武宙、忠义祠、观音阁、老衙门、新兴社等11幢。在这些众多的寺、庙、宫、殿中，以大王庙规模最大，孔庙最雄伟壮观。孔庙建于宣统年间，占地1500余平方米，整体布局沿中轴线依次为照壁门庭、正门、前殿、天井、正殿、天井、寝殿共计三进三天井，左右为厢房，以檐廊连结，结构上，明间均为抬梁式、边贴为穿斗式，正殿为两层重檐歇山顶楼阁，四面飞檐出挑，十分高大雄伟。\n建筑内以精湛的木雕艺术和丰富的彩绘最具特色，所有的梁、枋、脊标、天花板，均绘月山水、人物故事以及龙、凤、花、鸟等绘画作品，几何图形、牛腿、雀替、窗扇、栏板等木构件均有浮雕或镂空雕，题材丰富，形象极为生动，犹如一座艺术宝库。"}}, {"title": "江郎山景区", "address": "衢州市江山市江郎乡", "image": "", "rank": 2, "time": 7.5, "location": {"lat": 28.53720198716986, "lng": 118.55260640384225}, "feature": {"sight_features": "特色1 登顶江郎山，其险不输华山。", "sight_content": "江郎山作为浙江首个世界遗产，中国第八大世界自然遗产，具有独特的地貌科学价值和自然美学价值。巍巍江郎山，千万年大自然造化，因为有了它，中国丹霞才足够老。\n神奇江郎山，千百年文人墨客的至爱。江郎山是国家AAAA级旅游风景区，由三石峰、十八曲、塔山、须女湖、仙居寺和入口区等六部分组成，以“奇峰赤壁”为主要特色。\n江郎山有三绝：郎山三绝“三爿石”、“一线天”、“伟人峰”。伟人峰，酷似一代伟人邓小平的侧面头像，神形兼备，栩栩如生。\n江郎山的主峰海拔824米，坡度为88°以上，是一个壮观的标志性景观、是丹霞地貌的杰作。江郎山，青山绿水，空气十分清新，是远离城市喧嚣和污染的好地方。\n江郎山不仅风景优美震撼人心，还有千年古刹——开明禅寺可供游人观赏。\n江郎山素有“雄奇冠天下，秀丽甲东南”只美誉，江郎山的森林植被茂密，林中“危机四伏”，张纪中新版《西游记》，在此拍摄，江郎山走出了一位勇敢的唐僧。"}}, {"title": "浮盖山", "address": "衢州市江山市峡口廿八都富强村", "image": "", "rank": 3, "time": null, "location": {"lat": 28.29983424829289, "lng": 118.48705439810465}, "feature": {"sight_features": "特色1 徐霞客曾留下“怪石拿云，飞霞削翠”的赞誉", "sight_content": "“浮盖山”即“浮盖堆石洞群“，是华东地区旅游景区的一个“新面孔”.景区内形态各异的顽石星罗棋布，峰顶由巨石累叠而成，下者如盘，上者如盖，有“集大地之顽石于一身”之誉，又“似盖之浮动”，因而得名。在徐霞客的《江山游记》中，浮盖山被描述为“怪石拿云、飞霞削翠”的神奇之山。\n浮盖山的花岗岩巨石布满山谷，大者如屋如室，小者如斗如盘，巨石垒叠，乱中有序，错落有致，宛如一个奇石博物馆。 浮盖堆石洞群的垒垒巨石，巧夺天工般地堆砌在一起，散落在整个山麓，营造出一处处奇妙的堆石洞群景观。\n浮盖山最高处海拔932米，各种因地壳运动而形成的垒垒巨石，巧夺天工般地堆砌在一起，散落在整个山麓，营造出一处处奇妙的堆石洞群景观，并因山顶有巨石为盖，若浮若动，而得名“浮盖”。据江山市旅游局负责人介绍，“浮盖堆石洞群”有“四怪”：云怪、石怪、洞怪、泉怪。\n浮盖山绝顶位于浮盖山最东头，出一线天，可逶迤攀登绝顶。峰顶有石，踞石而坐，下视峰麓，只见崩坑坠谷，层层如碧玉轻绡，远近万状。由此而西，则蜿蜒数峰，迭起迭伏，止于三叠石(三叠石为最西头，称为西隅)。三叠峰下即为白花岩。"}}, {"title": "仙霞关戴笠故居", "address": "衢州市江山市保安乡", "image": "", "rank": 4, "time": 2.5, "location": {"lat": 28.363389396091446, "lng": 118.52016980729502}, "feature": {"sight_features": "特色1 有“东南锁钥”之美誉", "sight_content": "仙霞关戴笠故居位于江山市保安乡仙霞岭，古称古泉山、泉岭山。为唐乾符五年（878年）黄巢起义军进军福建时所辟径道。义军在此仅开辟山路，并未建防御设施，然周围丛山峻岭，峭壁谷深，易守难攻，是天设之雄关。仙霞岭地形险要，自辟出山路之后，成为历代农民起义的活动地区。\n仙霞关现存石块路面修筑于南宋绍兴年间（1131—1162）。岭上设有4关，用条石建成，每关设双重大门，门为拱卷顶。关门高3.20米、宽2.40米，墙厚5米，大门已被毁。关门两边都是高山，若关门紧闭，则万夫莫天，有“东南锁钥”之美誉。\n戴笠故居是原国民党军统局长、世界谍王戴笠于1943年亲自设计建造的，外看是一座粉墙黛瓦的普通房屋，走进去却是一座前二层后三层的秘宅，300多个平方的主楼有122扇窗85扇门，整个建筑环环相扣，步入其中似走迷宫。石鼓香溪是仙霞关森林公园的一个重要组成部分。\n境内山水清音，浑然天成。清清溪水四季常流，古木参天，长藤老树不计其数，飞禽走兽出没其间。更为可贵的是，景区没有进行过人为开发和破坏，依然保持着原生态自然风貌，被时人誉为“浙江的西双版纳”。仙霞关1963年被列为首批省级重点文物保护单位。岭南的廿八都古镇，保存着大批古建筑群，具有丰富的建筑文化内涵，为省级历史文化名镇。"}}, {"title": "清漾毛氏文化村", "address": "江山市石门镇南部距江山市中心25km", "image": "", "rank": 5, "time": 5.0, "location": {"lat": 28.554453762590178, "lng": 118.59159948527065}, "feature": {"sight_features": "特色1 历史上曾出了8个尚书，83个进士", "sight_content": "清漾又叫青龙头，村庄则如一颗明珠，整个地理环境形成一幅游龙戏珠之美景，东侧有古老的清漾塔，一条“文”字形的文川溪从村中穿过，魁梧的千年老樟树屹立在村头。清漾村是江南毛氏发祥地，毛泽东祖居地，也是奉化蒋介石原配夫人毛福梅和民国第一位总理熊希龄夫人毛彦文的祖籍地。\n\n清漾毛氏文化村，距市区约20公里，位于江郎山麓，全村数百户人家皆姓毛，自江南毛氏第八代先祖清漾公毛元琼迁到这里已有1500年的历史。历史上曾出了8个尚书，83个进士，积淀了“历史悠久、人才辈出、耕读传家、贵而不富”的历史文化底蕴。\n清漾村是个贵而不富的“进士村”，毛泽东韶山家谱中所记“毛氏祖居三衢”中的“三衢”，便是指这个历史上共出过6个尚书，80个进士的清漾村。清漾村还存有“清漾祖宅”一匾，乃胡适亲笔题写，清漾村已被列为江山市文保单位。"}}, {"title": "开明禅寺", "address": "衢州市江山市江郎山风景区内", "image": "", "rank": 6, "time": 1.5, "location": {"lat": 28.53987515124939, "lng": 118.57399013351696}, "feature": {"sight_features": "", "sight_content": ""}}, {"title": "须江公园", "address": "衢州市江山市江滨路40号", "image": "", "rank": 7, "time": 2.0, "location": {"lat": 28.74197514639341, "lng": 118.64386638075774}, "feature": {"sight_features": "", "sight_content": ""}}, {"title": "和睦彩陶文化村景区", "address": "衢州市江山市清湖镇和睦村", "image": "", "rank": 8, "time": 2, "location": {"lat": 28.63175546235457, "lng": 118.58252729760623}, "feature": {"sight_features": "", "sight_content": ""}}, {"title": "仙霞古道", "address": "浙江省衢州市", "image": "", "rank": 9, "time": 2, "location": {"lat": 28.975545802265025, "lng": 118.86659674035565}, "feature": {"sight_features": "", "sight_content": ""}}, {"title": "仙霞森林公园", "address": "衢州市江山市东南部保安乡、双溪口乡、廿八都镇境内", "image": "", "rank": 10, "time": 3.0, "location": {"lat": 28.389351260998385, "lng": 118.70055889062648}, "feature": {"sight_features": "", "sight_content": ""}}, {"title": "耕读农场", "address": "衢州市江山市贺村镇耕读村", "image": "", "rank": 11, "time": 2, "location": {"lat": 28.702529811816238, "lng": 118.47181385552237}, "feature": {"sight_features": "", "sight_content": ""}}, {"title": "龙潭湾峡谷漂流", "address": "衢州市江山市塘源口乡仓坂村菇田自然村", "image": "", "rank": 12, "time": 2, "location": {"lat": 28.60650948709573, "lng": 118.72696092408182}, "feature": {"sight_features": "", "sight_content": ""}}, {"title": "绿然腾农场", "address": "衢州市江山市石门镇西山村老鼠山", "image": "", "rank": 13, "time": 2, "location": {"lat": 28.560885113070114, "lng": 118.55430558913756}, "feature": {"sight_features": "", "sight_content": ""}}, {"title": "大陈村", "address": "浙江省衢州江山市大陈村", "image": "", "rank": 14, "time": 2, "location": {"lat": 28.825974890134994, "lng": 118.6025034166829}, "feature": {"sight_features": "", "sight_content": ""}}, {"title": "大峦口乡", "address": "浙江省衢州市江山市大峦口乡", "image": "", "rank": 15, "time": 2, "location": {"lat": 28.46052706303849, "lng": 118.60523099380364}, "feature": {"sight_features": "", "sight_content": ""}}, {"title": "文昌殿", "address": "浙江省衢州市江山市 ‎", "image": "", "rank": 16, "time": 0.25, "location": {"lat": 28.74286848011839, "lng": 118.63358329792732}, "feature": {"sight_features": "", "sight_content": ""}}, {"title": "江山会展中心", "address": "浙江省衢州市江山市北 0.1 米", "image": "", "rank": 17, "time": 2.5, "location": {"lat": 28.742876397603382, "lng": 118.63358329792732}, "feature": {"sight_features": "", "sight_content": ""}}, {"title": "江郎山-廿八都旅游区廿八都古镇", "address": "衢州市江山市浦南高速", "image": "", "rank": 18, "time": 2, "location": {"lat": 28.74286848011839, "lng": 118.63358329792732}, "feature": {"sight_features": "", "sight_content": ""}}, {"title": "远涵农业生态园", "address": "48省道西50米", "image": "", "rank": 19, "time": null, "location": {"lat": 39.997659860817414, "lng": 119.72443871302443}, "feature": {"sight_features": "", "sight_content": ""}}, {"title": "江山市图书馆(贺村分馆)", "address": "淤达路97号附近", "image": "", "rank": 20, "time": 2.5, "location": {"lat": 28.62504767250692, "lng": 118.5131490431871}, "feature": {"sight_features": "", "sight_content": ""}}, {"title": "后花园农场", "address": "碗窑乡上江坝村", "image": "", "rank": 21, "time": 2, "location": {"lat": 28.691549312909913, "lng": 118.67443566604878}, "feature": {"sight_features": "", "sight_content": ""}}, {"title": "凤三影剧院", "address": "西街83号附近大泉线", "image": "", "rank": 22, "time": 2, "location": {"lat": 32.54998977114762, "lng": 118.66372110474148}, "feature": {"sight_features": "", "sight_content": ""}}, {"title": "廿八都漂流", "address": "浮盖山205国道旁", "image": "", "rank": 23, "time": 2, "location": {"lat": 37.34066223973322, "lng": 118.07089300716441}, "feature": {"sight_features": "", "sight_content": ""}}, {"title": "江山", "address": "衢州市江山市", "image": "", "rank": 24, "time": 4.5, "location": {"lat": 28.74286848011839, "lng": 118.63358329792732}, "feature": {"sight_features": "", "sight_content": ""}}, {"title": "玖鼎陈列馆", "address": "浙江省江山市中山路", "image": "", "rank": 25, "time": 2, "location": {"lat": 28.74265996097752, "lng": 118.63388284059442}, "feature": {"sight_features": "", "sight_content": ""}}, {"title": "山峰农庄", "address": "浙江省江山市廿八都镇 324100", "image": "", "rank": 26, "time": 2, "location": {"lat": 28.331888196275624, "lng": 118.59742049419371}, "feature": {"sight_features": "", "sight_content": ""}}, {"title": "关帝庙", "address": "衢州市江山市廿八都古镇枫桥路", "image": "", "rank": 27, "time": 0.5, "location": {"lat": 28.301099352169672, "lng": 118.48756122207321}, "feature": {"sight_features": "", "sight_content": ""}}, {"title": "观音殿", "address": "衢州市江山市廿八都古镇枫岭路", "image": "", "rank": 28, "time": 2, "location": {"lat": 28.301099352169672, "lng": 118.48756122207321}, "feature": {"sight_features": "", "sight_content": ""}}, {"title": "南坞杨氏内宗祠", "address": "南坞村", "image": "", "rank": 29, "time": 2, "location": {"lat": 40.2091339453414, "lng": 116.86958618577125}, "feature": {"sight_features": "", "sight_content": ""}}, {"title": "大公殿", "address": "衢州市江山市", "image": "", "rank": 30, "time": 2, "location": {"lat": 28.74286848011839, "lng": 118.63358329792732}, "feature": {"sight_features": "", "sight_content": ""}}, {"title": "翁氏宗祠", "address": "浙江省江山市塘源口乡洪福村", "image": "", "rank": 31, "time": 2, "location": {"lat": 28.603461592851076, "lng": 118.76230550624194}, "feature": {"sight_features": "", "sight_content": ""}}, {"title": "海底世界", "address": "毛坞村", "image": "", "rank": 32, "time": 2.5, "location": {"lat": 29.17097686088407, "lng": 118.82723418227792}, "feature": {"sight_features": "", "sight_content": ""}}, {"title": "江山市海底世界双塔石林", "address": "浙江省衢州市江山市双塔街道新塘坞村", "image": "", "rank": 33, "time": 2.5, "location": {"lat": 28.827391847865204, "lng": 118.6318608465193}, "feature": {"sight_features": "", "sight_content": ""}}, {"title": "姜氏宗祠", "address": "浙江省衢州市江山市X418(贺下线)", "image": "", "rank": 34, "time": 2, "location": {"lat": 28.65559813145635, "lng": 118.44131764918114}, "feature": {"sight_features": "", "sight_content": ""}}, {"title": "灵峰禅寺", "address": "浙江省衢州市江山市石门镇江郎山风景区", "image": "", "rank": 35, "time": 1.0, "location": {"lat": 28.53987515124939, "lng": 118.57399013351696}, "feature": {"sight_features": "", "sight_content": ""}}, {"title": "地史故事厅", "address": "衢州市江山市石门镇江郎乡江郎山风景区江郎山展示馆内", "image": "", "rank": 36, "time": 2, "location": {"lat": 28.53987515124939, "lng": 118.57399013351696}, "feature": {"sight_features": "", "sight_content": ""}}, {"title": "社山公园", "address": "碗窑村", "image": "", "rank": 37, "time": 2, "location": {"lat": 39.78089087989233, "lng": 112.87282775429445}, "feature": {"sight_features": "", "sight_content": ""}}, {"title": "南坞杨氏宗祠", "address": "清南线附近", "image": "", "rank": 38, "time": 2, "location": {"lat": 28.545756353712054, "lng": 118.46063001929974}, "feature": {"sight_features": "", "sight_content": ""}}, {"title": "江山市千年古刹天福寺", "address": "贺峡线附近", "image": "", "rank": 39, "time": 2.5, "location": {"lat": 28.630093928557574, "lng": 118.51454404417618}, "feature": {"sight_features": "", "sight_content": ""}}, {"title": "江山市茅坂天葬坟", "address": "凤林镇茅坂村", "image": "", "rank": 40, "time": 2.5, "location": {"lat": 28.54500110775426, "lng": 118.50186587763652}, "feature": {"sight_features": "", "sight_content": ""}}, {"title": "江山市徐氏大宗祠(茅坂)", "address": "413县道茅坂村附近", "image": "", "rank": 41, "time": 2.5, "location": {"lat": 28.5412380180882, "lng": 118.52685669828871}, "feature": {"sight_features": "", "sight_content": ""}}, {"title": "徐志澄故居", "address": "浙江省衢州市江山市茅坂村", "image": "", "rank": 42, "time": 2, "location": {"lat": 28.54500110775426, "lng": 118.50186587763652}, "feature": {"sight_features": "", "sight_content": ""}}, {"title": "陆家祠堂", "address": "浙江省衢州市江山市G3(京台高速公路)", "image": "", "rank": 43, "time": null, "location": {"lat": 28.873723385810106, "lng": 118.73049960909475}, "feature": {"sight_features": "", "sight_content": ""}}, {"title": "儿童乐园", "address": "浙江省衢州市江山市解放路57号", "image": "", "rank": 44, "time": 2, "location": {"lat": 28.73869214991038, "lng": 118.6321348701235}, "feature": {"sight_features": "", "sight_content": ""}}, {"title": "福赐德", "address": "浙江省衢州市江山市江东大道71号", "image": "", "rank": 45, "time": 2, "location": {"lat": 28.735756671084587, "lng": 118.64145937114455}, "feature": {"sight_features": "", "sight_content": ""}}, {"title": "小金铃儿童智乐园(城中路店)", "address": "城中路与解放路交叉口(肯德基隔壁的米兰时尚内)", "image": "", "rank": 46, "time": 2, "location": {"lat": 28.738609735423797, "lng": 118.63213657690397}, "feature": {"sight_features": "", "sight_content": ""}}, {"title": "张氏宗祠", "address": "浙江省江山市塘源口乡洪公村", "image": "", "rank": 47, "time": 2, "location": {"lat": 28.55865074837682, "lng": 118.79305693375473}, "feature": {"sight_features": "", "sight_content": ""}}, {"title": "双塔公园", "address": "浙江省衢州市江山市上余镇迎宾村鹿溪北路", "image": "", "rank": 48, "time": 1.5, "location": {"lat": 28.758304151498738, "lng": 118.64977803679149}, "feature": {"sight_features": "", "sight_content": ""}}, {"title": "徐氏祠堂", "address": "浙江省江山市塘源口龙旗村", "image": "", "rank": 49, "time": 2, "location": {"lat": 28.6031499983469, "lng": 118.74796247237236}, "feature": {"sight_features": "", "sight_content": ""}}, {"title": "徽派建筑群", "address": "浙江省江山市大陈乡乌龙村", "image": "", "rank": 50, "time": 2, "location": {"lat": 28.815215018338158, "lng": 118.5931036987449}, "feature": {"sight_features": "", "sight_content": ""}}, {"title": "五谷皇殿", "address": "浙江省衢州市江山市长达线", "image": "", "rank": 51, "time": 2.5, "location": {"lat": 28.78836980233411, "lng": 118.59629364179624}, "feature": {"sight_features": "", "sight_content": ""}}, {"title": "关帝庙-广场", "address": "衢州市江山市廿八都古镇枫桥路关帝庙内", "image": "", "rank": 52, "time": null, "location": {"lat": 28.29655441698534, "lng": 118.48913415502065}, "feature": {"sight_features": "", "sight_content": ""}}, {"title": "人防广场", "address": "凝秀南路404号附近", "image": "", "rank": 53, "time": 2, "location": {"lat": 28.75705049448751, "lng": 118.63892686825166}, "feature": {"sight_features": "", "sight_content": ""}}, {"title": "虎山公园", "address": "浙江省衢州市江山市清湖镇虎山三街虎山公园", "image": "", "rank": 54, "time": 2, "location": {"lat": 28.717181484490805, "lng": 118.62694512383803}, "feature": {"sight_features": "", "sight_content": ""}}, {"title": "金山角度假村", "address": "城南经济开发区通达路1号（与虎山四街交汇处）", "image": "", "rank": 55, "time": 2, "location": {"lat": 28.714281649874852, "lng": 118.61973000045889}, "feature": {"sight_features": "", "sight_content": ""}}, {"title": "长台健康广场", "address": "长台镇长台健康广场", "image": "", "rank": 56, "time": 2, "location": {"lat": 28.60435507187078, "lng": 118.6414517355477}, "feature": {"sight_features": "", "sight_content": ""}}, {"title": "仙霞古道文化陈列馆", "address": "保安支线南50米", "image": "", "rank": 57, "time": 2, "location": {"lat": 28.392929781916475, "lng": 118.52697342859817}, "feature": {"sight_features": "", "sight_content": ""}}, {"title": "日月湖度假村", "address": "衢州江山市碗窑乡碗窑村（碗窑水库风景区）", "image": "", "rank": 58, "time": 2, "location": {"lat": 28.68043723429096, "lng": 118.67758711760733}, "feature": {"sight_features": "", "sight_content": ""}}, {"title": "江山蜜蜂博物馆", "address": "金义线东50米", "image": "", "rank": 59, "time": 2.5, "location": {"lat": 28.660001790336366, "lng": 118.69807852718198}, "feature": {"sight_features": "", "sight_content": ""}}, {"title": "戴笠与军统女特工陈列馆", "address": "衢州市江山市廿八都古镇内", "image": "", "rank": 60, "time": 2, "location": {"lat": 28.301099352169672, "lng": 118.48756122207321}, "feature": {"sight_features": "", "sight_content": ""}}]}