{"cityName": "建宁", "days": 2, "cityImage": "", "spots": [{"title": "中央苏区反“围剿”纪念馆", "address": "三明市建宁县城北溪口街49号", "image": "", "rank": 1, "time": 2.0, "location": {"lat": 26.846856537932883, "lng": 116.84361300743504}, "feature": {"sight_features": "", "sight_content": ""}}, {"title": "建宁民俗馆", "address": "三明市建宁县溪口街49号", "image": "", "rank": 2, "time": 0.5, "location": {"lat": 26.846856537932883, "lng": 116.84361300743504}, "feature": {"sight_features": "", "sight_content": ""}}, {"title": "上坪古村", "address": "三明市建宁县上坪村", "image": "", "rank": 3, "time": 2, "location": {"lat": 26.99353102308231, "lng": 116.96090750844559}, "feature": {"sight_features": "", "sight_content": ""}}, {"title": "闽江源生态旅游区", "address": "建宁县境内东南部", "image": "", "rank": 4, "time": 4.5, "location": {"lat": 26.83682465534918, "lng": 116.85250622659105}, "feature": {"sight_features": "", "sight_content": ""}}, {"title": "金铙山星空隧道", "address": "福建省三明泰宁大龙乡金饶山风景区", "image": "", "rank": 5, "time": 2, "location": {"lat": 26.71706135836538, "lng": 117.02177388976331}, "feature": {"sight_features": "", "sight_content": ""}}, {"title": "金源生态家庭农场(直销店)", "address": "黄舟坊南路21号附近", "image": "", "rank": 6, "time": 2, "location": {"lat": 26.841573666259627, "lng": 116.85059230428314}, "feature": {"sight_features": "", "sight_content": ""}}, {"title": "莲兴广场", "address": "三明市建宁县中山南路2号", "image": "", "rank": 7, "time": 2, "location": {"lat": 26.835874370313164, "lng": 116.85358257625275}, "feature": {"sight_features": "", "sight_content": ""}}, {"title": "体育公园", "address": "建宁县第三中学附近", "image": "", "rank": 8, "time": 1.0, "location": {"lat": 26.85150884644543, "lng": 116.8400222772958}, "feature": {"sight_features": "", "sight_content": ""}}, {"title": "报国禅寺", "address": "三明市建宁县", "image": "", "rank": 9, "time": 2, "location": {"lat": 26.83682465534918, "lng": 116.85250622659105}, "feature": {"sight_features": "", "sight_content": ""}}, {"title": "金水湾休闲山庄", "address": "三滩加油站附近", "image": "", "rank": 10, "time": 2, "location": {"lat": 26.749857552195905, "lng": 116.82822558561378}, "feature": {"sight_features": "", "sight_content": ""}}, {"title": "技术宅创意视效", "address": "荷花西路北50米", "image": "", "rank": 11, "time": 2, "location": {"lat": 31.85937164262112, "lng": 117.18742597709193}, "feature": {"sight_features": "", "sight_content": ""}}, {"title": "中央苏区反围剿纪念园 Zhongyang...", "address": "福建省三明市溪口街49号", "image": "", "rank": 12, "time": 2, "location": {"lat": 26.846856537932883, "lng": 116.84361300743504}, "feature": {"sight_features": "", "sight_content": ""}}, {"title": "建宁红一方面军总司令部、总前委...", "address": "福建省建宁县溪口镇", "image": "", "rank": 13, "time": 2, "location": {"lat": 26.852915452758623, "lng": 116.8379273767455}, "feature": {"sight_features": "", "sight_content": ""}}, {"title": "金饶山", "address": "福建三明市建宁金饶山风景区", "image": "", "rank": 14, "time": 2, "location": {"lat": 26.83682465534918, "lng": 116.85250622659105}, "feature": {"sight_features": "", "sight_content": ""}}, {"title": "反围剿纪念园", "address": "城北溪口街49号", "image": "", "rank": 15, "time": 2, "location": {"lat": 36.656293630836586, "lng": 101.77240488175582}, "feature": {"sight_features": "", "sight_content": ""}}]}