{"cityName": "江永", "days": 2, "cityImage": "", "spots": [{"title": "浦美村", "address": "永州市江永县上江圩镇浦美村", "image": "", "rank": 1, "time": 3.0, "location": {"lat": 25.345741492823244, "lng": 111.42547081329535}, "feature": {"sight_features": "", "sight_content": ""}}, {"title": "千家峒", "address": "永州市江永县千家峒瑶族乡", "image": "", "rank": 2, "time": 3.5, "location": {"lat": 25.349283762163857, "lng": 111.26977079362588}, "feature": {"sight_features": "", "sight_content": ""}}, {"title": "上甘棠村", "address": "永州市江永县城西南25公里的夏层铺镇", "image": "", "rank": 3, "time": 1.0, "location": {"lat": 25.15499001688222, "lng": 111.19561475573347}, "feature": {"sight_features": "", "sight_content": ""}}, {"title": "勾蓝瑶寨", "address": "永州市江永县兰溪瑶族乡", "image": "", "rank": 4, "time": 2.5, "location": {"lat": 25.111138140693708, "lng": 111.19135393998911}, "feature": {"sight_features": "", "sight_content": ""}}, {"title": "江永女书生态博物馆", "address": "湖南省永州县上江圩镇", "image": "", "rank": 5, "time": 1.0, "location": {"lat": 25.345741492823244, "lng": 111.42547081329535}, "feature": {"sight_features": "", "sight_content": ""}}, {"title": "旭日升生态休闲农业园", "address": "湖南省永州市江永县允山镇山爻头村", "image": "", "rank": 6, "time": 2, "location": {"lat": 25.277814917245255, "lng": 111.2855831930041}, "feature": {"sight_features": "", "sight_content": ""}}, {"title": "古宅水库", "address": "湖南省江永县新圩镇古宅村", "image": "", "rank": 7, "time": 2, "location": {"lat": 25.27972066791849, "lng": 111.3504366323604}, "feature": {"sight_features": "", "sight_content": ""}}, {"title": "女书文化村", "address": "湖南省江永县上江圩镇", "image": "", "rank": 8, "time": 2, "location": {"lat": 25.345741492823244, "lng": 111.42547081329535}, "feature": {"sight_features": "", "sight_content": ""}}, {"title": "达尊农家乐", "address": "永阳路", "image": "", "rank": 9, "time": 2, "location": {"lat": 31.514618551730376, "lng": 113.59175218027377}, "feature": {"sight_features": "", "sight_content": ""}}, {"title": "紫薇苑农家乐", "address": "74县道附近", "image": "", "rank": 10, "time": null, "location": {"lat": 36.06504680178999, "lng": 113.80945833160084}, "feature": {"sight_features": "", "sight_content": ""}}, {"title": "甘棠水乡园农家乐", "address": "甘棠村上甘棠村湘村驿站西北120米", "image": "", "rank": 11, "time": 2, "location": {"lat": 22.944879237788232, "lng": 113.35855566024941}, "feature": {"sight_features": "", "sight_content": ""}}, {"title": "大泊水瀑布", "address": "湖南省江永县千家峒瑶族乡 425400", "image": "", "rank": 12, "time": 1.0, "location": {"lat": 25.349283762163857, "lng": 111.26977079362588}, "feature": {"sight_features": "", "sight_content": ""}}, {"title": "双溪口温泉", "address": "湖南省江永县千家峒瑶族自治乡 425400", "image": "", "rank": 13, "time": 2, "location": {"lat": 25.27972066791849, "lng": 111.3504366323604}, "feature": {"sight_features": "", "sight_content": ""}}, {"title": "上甘棠村古建筑群", "address": "湖南省江永县上甘棠村 425402", "image": "", "rank": 14, "time": 2, "location": {"lat": 25.154810213096866, "lng": 111.19412064729786}, "feature": {"sight_features": "", "sight_content": ""}}, {"title": "浦美岛", "address": "湖南省江永县上江圩镇浦尾村 425409", "image": "", "rank": 15, "time": 2, "location": {"lat": 25.35345221884792, "lng": 111.46116392541694}, "feature": {"sight_features": "", "sight_content": ""}}, {"title": "回龙圩音花艺境浪漫主题乐园", "address": "湖南省永州市江永县X078", "image": "", "rank": 16, "time": 2, "location": {"lat": 25.27972066791849, "lng": 111.3504366323604}, "feature": {"sight_features": "", "sight_content": ""}}, {"title": "知青广场", "address": "永州市江永县永明中路3号", "image": "", "rank": 17, "time": 2, "location": {"lat": 25.27933474038242, "lng": 111.35237146924177}, "feature": {"sight_features": "", "sight_content": ""}}, {"title": "江永县文化馆少年儿童艺术学校", "address": "消浦镇五一路34", "image": "", "rank": 18, "time": 2, "location": {"lat": 25.272392240239267, "lng": 111.35755902725502}, "feature": {"sight_features": "", "sight_content": ""}}, {"title": "小古源漂流", "address": "允山镇千家峒国家森林公园风景名胜区", "image": "", "rank": 19, "time": 2, "location": {"lat": 40.84911586971793, "lng": 111.59617656255745}, "feature": {"sight_features": "", "sight_content": ""}}, {"title": "艳阳天画廊", "address": "潇浦镇金地广场", "image": "", "rank": 20, "time": 2, "location": {"lat": 25.26849476194311, "lng": 111.36623998220892}, "feature": {"sight_features": "", "sight_content": ""}}, {"title": "江永县图书馆", "address": "永明北路85号", "image": "", "rank": 21, "time": 2, "location": {"lat": 25.28127110632156, "lng": 111.35294848500625}, "feature": {"sight_features": "", "sight_content": ""}}, {"title": "葫芦山庄", "address": "允山镇中桂村三组66号", "image": "", "rank": 22, "time": 1.5, "location": {"lat": 25.32877917533022, "lng": 111.28489517183118}, "feature": {"sight_features": "", "sight_content": ""}}, {"title": "大远源口自然保护区", "address": "湖南省江永县高泽源林场境内", "image": "", "rank": 23, "time": 2, "location": {"lat": 25.301866499688202, "lng": 111.2438561007909}, "feature": {"sight_features": "", "sight_content": ""}}, {"title": "源口水库", "address": "湖南省江永县桃川镇", "image": "", "rank": 24, "time": 2, "location": {"lat": 25.137846524304912, "lng": 111.09419208958687}, "feature": {"sight_features": "", "sight_content": ""}}, {"title": "苦竹冲风景区", "address": "湖南省江永县千家峒瑶族自治乡", "image": "", "rank": 25, "time": 2, "location": {"lat": 25.27972066791849, "lng": 111.3504366323604}, "feature": {"sight_features": "", "sight_content": ""}}, {"title": "潘家源瀑布", "address": "湖南省江永县千家峒瑶族自治乡", "image": "", "rank": 26, "time": 2, "location": {"lat": 25.27972066791849, "lng": 111.3504366323604}, "feature": {"sight_features": "", "sight_content": ""}}, {"title": "寿萱亭", "address": "湖南省江永县上甘棠村", "image": "", "rank": 27, "time": 2, "location": {"lat": 25.154810213096866, "lng": 111.19412064729786}, "feature": {"sight_features": "", "sight_content": ""}}]}