{"cityName": "集安", "days": null, "cityImage": "", "spots": [{"title": "五女峰国家森林公园", "address": "通化市集安市集锡303国道21公里处", "image": "", "rank": 1, "time": 4.5, "location": {"lat": 41.369650434497856, "lng": 126.04846486826503}, "feature": {"sight_features": "特色1 奇峰美景，山高林密，被誉为“天然氧吧”。", "sight_content": "五女峰国家森林公园，座落在吉林省东南部鸭绿江畔,长白山南麓的老岭山脉。总面积68.6公顷。森林覆盖率94.5%，年平均气温6.5℃，年降雨量947毫米。较大山峰26座，最高海拔1337米，是国家首批20个重点风景示范园之一。\n该区风景奇异秀丽，山高林密，大树参天，珍贵的松、椴、楸、桦树等天然植物百余科、千余种，青翠欲滴，华盖苍苍。山峦峰叠，陡峭挺拔，千姿百态，雄伟壮观。这里不仅是野兽、飞禽的乐园，而且还是关东三宝---人参、鹿茸、貂皮的产地，也是野菜、鲜果、山珍的故乡，森林资源丰富，为国家级森林公园。春天的映山红，满山开放，夏季的奇花异草，散发着清幽芳香，秋季的五彩山，霜打枫叶层林尽染，冬季的皑皑白雪，树挂雪景奇特。\n公园始建于1993年。园内五女峰、小江南、洞天皓月、美容泉、大峡谷、老虎岩、抗联遗址、植物园、仙人台、观峰台、老岭松涛、一线天、高句丽古代采石场、枫叶岭十四大景区，56处景点形成了以原始生态为特色的自然风景旅游区，林荫古道、小桥流水、迤峰叠岭、云雾缭绕、风光秀丽、尽展神姿仙态，天高云淡、风清气爽、红叶披秋、冬暖夏凉、气候宜人、胜览江南绝色。是大自然奉献给世界历史文化名城集安的绚丽瑰宝。"}}, {"title": "鸭绿江国境铁路大桥", "address": "通化市集安市区内东15公里", "image": "", "rank": 2, "time": 2, "location": {"lat": 41.131299724033404, "lng": 126.19957737200077}, "feature": {"sight_features": "", "sight_content": ""}}, {"title": "万亩油菜花海", "address": "通化市集安市凉水朝鲜族乡通天村", "image": "", "rank": 3, "time": 2, "location": {"lat": 40.91190331454238, "lng": 125.81352254913477}, "feature": {"sight_features": "", "sight_content": ""}}, {"title": "云峰大坝", "address": "通化市集安市青石村青石镇", "image": "", "rank": 4, "time": 2, "location": {"lat": 41.367835402681806, "lng": 126.52591109017276}, "feature": {"sight_features": "", "sight_content": ""}}, {"title": "高句丽文物展示中心博物馆", "address": "通化市集安市云水路与建设街交汇处", "image": "", "rank": 5, "time": 2, "location": {"lat": 41.13139248950064, "lng": 126.19822282430871}, "feature": {"sight_features": "特色1 一座高句丽专题展览馆", "sight_content": "高句丽文物展示中心是一座高句丽专题展览馆，极具特色。中心总占地面积13120平方米，建筑面积6459平方米，展览面积2954平方米。外观呈八瓣莲花状，由当代著名建筑设计师齐康先生设计。\n体现了我国传统的风水理念以及高句丽人喜爱莲花、崇尚石文化的特点。中心内展出文物1000余件，有金银饰品、随葬冥器、生活用具、兵器、马具、建筑遗址和墓葬复原模型、服饰和生活场景复原、高句丽古墓壁画摹本等。"}}, {"title": "集安洞沟古墓", "address": "通化市集安市集安县境内", "image": "", "rank": 6, "time": 2.5, "location": {"lat": 41.131299724033404, "lng": 126.19957737200077}, "feature": {"sight_features": "", "sight_content": ""}}, {"title": "高句丽文物古迹旅游景区", "address": "通化市集安市迎宾路49号", "image": "", "rank": 7, "time": 5.0, "location": {"lat": 41.13662724263789, "lng": 126.19435298871123}, "feature": {"sight_features": "", "sight_content": ""}}, {"title": "鸭绿江漂流", "address": "通化市集安市上解放村", "image": "", "rank": 8, "time": null, "location": {"lat": 41.20062036608623, "lng": 126.30155760922445}, "feature": {"sight_features": "", "sight_content": ""}}, {"title": "国东大穴旅游景区", "address": "通化市集安市太王镇上解放村汞洞子沟内", "image": "", "rank": 9, "time": 2, "location": {"lat": 41.20062036608623, "lng": 126.30155760922445}, "feature": {"sight_features": "特色1 高句丽文化和自然景观相结合的景区", "sight_content": "集安市国东大穴旅游景区位于集安市太王镇上解放村汞洞子沟，距司投资2、3亿元建设，2015年8月1日正式对游客开放。景区占地面积2.25平方公里，其规划轮廓与原自然地貌巧合，最高点海拔为787.6米，最低点195.68米，相对高差为591.92米，形成了三面环山、一面向水的狭长椭圆形龙椅型地貌。\n\n\n国东大穴文化遗产就座落在龙椅椅面的地台上，这既符合中国道家的左青龙、右白虎、前朱雀、后玄武的“主富贵、利长寿”的选址标准，也符合佛家“择地而居”名山宝刹、“风水宝地”的择地标准，实属大自然的神奇造化与恩赐。景区为高句丽文化和自然景观相结合的景区，是古代高句丽民族和东盟祭天、祭祖有历史记载的文化遗址，最早记载在《三国志、高句丽传》中，以十月祭天，国中大会，名曰东盟。、、、、其中，国东有大穴，名燧穴，十月国中大会，迎隧神还于国东上祭之，置木隧于神坐。又因国东大穴位于高句丽古都城“国内城”的东侧，始称国东大穴。\n\n\n国东大穴景区是在高句丽文化遗址的基础上，开发并扩建的一处具有祈福、旅游、宗教、餐饮、娱乐、休闲为一体的，国家级3AAA旅游新景区。景区奇峰突兀、谷深幽静，现有摩崖石刻、燧神洞、祭天台、海东菩提洞等高句丽古文化遗址，供大家祭天祈福。当我们站在祭天台时，会有“会当凌绝顶，一览众山小”的感觉，真可谓“天地合一清境界，祭天祈福在国东”。景区内另外有长相爱、龙虎门、三杨开泰、财神洞、祈福洞、长生龟、玄武岩、一线天、九曲湾、仙人洞等众多景点供游人游览。景区还有国家三星级酒店--国东酒店，可供游客餐饮、住宿、商务等活动。国东酒店是您旅游、休闲、商务、出行的最佳选择。您在景区祈福游览的同时，会使您置身于天然大氧吧，吸取国东之灵气，感受大自然的鬼斧神工，感叹了“仁者乐山，智者乐水”的乐趣。这里，佛家文化与绿色生态交流荟萃，可让你忘记烦恼，放松心情、享受愉悦、流连忘返！这里，让你处处能感受到无微不至、体贴入微的服务与关怀。来吧，朋友！美丽的国东景区将以最优质的服务欢迎您及家人、朋友前来旅游观光。"}}, {"title": "爱家太极湾观景台", "address": "通化市集安市花老线", "image": "", "rank": 10, "time": 2, "location": {"lat": 41.15444182340909, "lng": 125.91876379795298}, "feature": {"sight_features": "", "sight_content": ""}}, {"title": "高句丽王城(洞沟古墓群)", "address": "吉林省集安市", "image": "", "rank": 11, "time": 2, "location": {"lat": 41.131299724033404, "lng": 126.19957737200077}, "feature": {"sight_features": "", "sight_content": ""}}, {"title": "高句丽遗址公园", "address": "吉林省通化市集安市", "image": "", "rank": 12, "time": 2, "location": {"lat": 41.131299724033404, "lng": 126.19957737200077}, "feature": {"sight_features": "", "sight_content": ""}}, {"title": "集安市政府", "address": "吉林省通化市集安市迎宾路339号", "image": "", "rank": 13, "time": 4.5, "location": {"lat": 41.135874264878844, "lng": 126.19079141860445}, "feature": {"sight_features": "", "sight_content": ""}}, {"title": "爱家太极湾安子哨码头", "address": "通化市集安市集丹公路7公里处安子哨码头", "image": "", "rank": 14, "time": 2, "location": {"lat": 41.131299724033404, "lng": 126.19957737200077}, "feature": {"sight_features": "", "sight_content": ""}}, {"title": "俸源垂钓园", "address": "303国道附近", "image": "", "rank": 15, "time": 2, "location": {"lat": 43.53481831055721, "lng": 118.65925526872917}, "feature": {"sight_features": "", "sight_content": ""}}, {"title": "福尔阳光温泉会馆", "address": "西盛街199附近", "image": "", "rank": 16, "time": 2, "location": {"lat": 41.12778685039895, "lng": 126.18808555622188}, "feature": {"sight_features": "", "sight_content": ""}}, {"title": "北国江南文化娱乐城", "address": "山城路第五人民医院东南侧100米", "image": "", "rank": 17, "time": 2, "location": {"lat": 41.135725172154466, "lng": 126.18310943506972}, "feature": {"sight_features": "", "sight_content": ""}}, {"title": "通化凉水泉朝鲜族民俗度假村", "address": "通化集安市凉水乡集丹公路40.5公里处", "image": "", "rank": 18, "time": 4.0, "location": {"lat": 40.93678661547658, "lng": 125.8667171211461}, "feature": {"sight_features": "", "sight_content": ""}}, {"title": "集安市影剧院", "address": "集安市文化路409号", "image": "", "rank": 19, "time": 2, "location": {"lat": 41.13352002638256, "lng": 126.192195133252}, "feature": {"sight_features": "", "sight_content": ""}}, {"title": "高句丽文化旅游区", "address": "吉林省集安市洞沟古墓群，大碑村", "image": "", "rank": 20, "time": 2, "location": {"lat": 41.11638398446961, "lng": 126.18105801340371}, "feature": {"sight_features": "", "sight_content": ""}}, {"title": "国内城", "address": "吉林省集安市通沟平原上 134200", "image": "", "rank": 21, "time": 2, "location": {"lat": 41.131299724033404, "lng": 126.19957737200077}, "feature": {"sight_features": "", "sight_content": ""}}, {"title": "凉水基督教堂", "address": "集丹线东50米", "image": "", "rank": 22, "time": 2, "location": {"lat": 31.642216908003483, "lng": 118.73676493084376}, "feature": {"sight_features": "", "sight_content": ""}}, {"title": "太平古墓群", "address": "集丹线西50米", "image": "", "rank": 23, "time": 2, "location": {"lat": 31.642216908003483, "lng": 118.73586662533378}, "feature": {"sight_features": "", "sight_content": ""}}, {"title": "五女峰国家森林公园-宝塔峰", "address": "迎宾路608号五女峰景区内", "image": "", "rank": 24, "time": 2, "location": {"lat": 41.28256420049379, "lng": 126.14721918619894}, "feature": {"sight_features": "", "sight_content": ""}}, {"title": "醇香度假村", "address": "城后路附近", "image": "", "rank": 25, "time": 2, "location": {"lat": 29.98988345004124, "lng": 102.99351173695393}, "feature": {"sight_features": "", "sight_content": ""}}, {"title": "仁隆休闲山庄", "address": "麻线乡石庙村", "image": "", "rank": 26, "time": 2, "location": {"lat": 41.14224346755413, "lng": 126.11557769781398}, "feature": {"sight_features": "", "sight_content": ""}}, {"title": "正通度假村", "address": "胜利路", "image": "", "rank": 27, "time": 2, "location": {"lat": 40.04776893701776, "lng": 117.40590902883763}, "feature": {"sight_features": "", "sight_content": ""}}, {"title": "第一家度假村", "address": "通化集安市将军路", "image": "", "rank": 28, "time": 2, "location": {"lat": 41.16160105217988, "lng": 126.23485305683487}, "feature": {"sight_features": "", "sight_content": ""}}, {"title": "巍盛度假村", "address": "吉林省通化市集安市太王镇集青线蓝梦度假村附近", "image": "", "rank": 29, "time": 2, "location": {"lat": 41.15731087205937, "lng": 126.2394060087189}, "feature": {"sight_features": "", "sight_content": ""}}, {"title": "洞沟古墓群千秋墓", "address": "集丹线南50米", "image": "", "rank": 30, "time": 2, "location": {"lat": 31.64183263653545, "lng": 118.73631577808877}, "feature": {"sight_features": "", "sight_content": ""}}, {"title": "山里红度假村", "address": "303国道附近", "image": "", "rank": 31, "time": 2, "location": {"lat": 43.53481831055721, "lng": 118.65925526872917}, "feature": {"sight_features": "", "sight_content": ""}}, {"title": "新开河漂游度假村", "address": "清财线北50米", "image": "", "rank": 32, "time": 2, "location": {"lat": 41.36915811633546, "lng": 125.84508257109134}, "feature": {"sight_features": "", "sight_content": ""}}, {"title": "高句丽民俗文化产业园", "address": "将军路", "image": "", "rank": 33, "time": 2, "location": {"lat": 38.737517146736124, "lng": 114.18314535427328}, "feature": {"sight_features": "", "sight_content": ""}}, {"title": "鸭绿江国境铁路大桥景区", "address": "通化市集安市", "image": "", "rank": 34, "time": 2, "location": {"lat": 41.131299724033404, "lng": 126.19957737200077}, "feature": {"sight_features": "", "sight_content": ""}}, {"title": "龙乐园", "address": "黎明街601号", "image": "", "rank": 35, "time": 3.0, "location": {"lat": 41.13060596165976, "lng": 126.19457740353222}, "feature": {"sight_features": "", "sight_content": ""}}, {"title": "集安市朝鲜族文化馆", "address": "迎宾路518号", "image": "", "rank": 36, "time": 2, "location": {"lat": 41.128524698108485, "lng": 126.2021236189688}, "feature": {"sight_features": "", "sight_content": ""}}, {"title": "科学技术馆", "address": "文化路350号", "image": "", "rank": 37, "time": 2, "location": {"lat": 40.47625203646634, "lng": 115.98298106643362}, "feature": {"sight_features": "", "sight_content": ""}}, {"title": "X道口密室逃脱", "address": "鸭江路2158号，新七中路口前行200米", "image": "", "rank": 38, "time": 2, "location": {"lat": 41.13646677814336, "lng": 126.20778083266372}, "feature": {"sight_features": "", "sight_content": ""}}, {"title": "万杰游乐园", "address": "胜利路正通度假村对面", "image": "", "rank": 39, "time": 2, "location": {"lat": 41.11741514838405, "lng": 126.14873097059254}, "feature": {"sight_features": "", "sight_content": ""}}, {"title": "高句丽壁画", "address": "高句丽王城内", "image": "", "rank": 40, "time": 2, "location": {"lat": 45.7659258929767, "lng": 126.6534520602069}, "feature": {"sight_features": "", "sight_content": ""}}, {"title": "罗蒙", "address": "新乐路与黎明街交叉口东50米", "image": "", "rank": 41, "time": 2, "location": {"lat": 41.13329029284823, "lng": 126.19890002269707}, "feature": {"sight_features": "", "sight_content": ""}}, {"title": "三友生态园", "address": "集丹线北50米", "image": "", "rank": 42, "time": 2, "location": {"lat": 31.642601177867764, "lng": 118.73631577808877}, "feature": {"sight_features": "", "sight_content": ""}}, {"title": "集安步行街", "address": "吉林省集安市团结路与黎明街交叉口", "image": "", "rank": 43, "time": 3.0, "location": {"lat": 41.1314833166096, "lng": 126.1939856887945}, "feature": {"sight_features": "", "sight_content": ""}}, {"title": "双兴六队", "address": "通化市-集安市", "image": "", "rank": 44, "time": 2, "location": {"lat": 41.131299724033404, "lng": 126.19957737200077}, "feature": {"sight_features": "", "sight_content": ""}}, {"title": "家什房子沟", "address": "通化市-集安市-三零三国道", "image": "", "rank": 45, "time": 2, "location": {"lat": 41.26709983190031, "lng": 126.14515182589828}, "feature": {"sight_features": "", "sight_content": ""}}, {"title": "丸都山城", "address": "吉林省集安市", "image": "", "rank": 46, "time": 3.0, "location": {"lat": 41.131299724033404, "lng": 126.19957737200077}, "feature": {"sight_features": "", "sight_content": ""}}, {"title": "将军坟", "address": "集安市集青公路与将军路交汇处刀茅沟附近", "image": "", "rank": 47, "time": 1.5, "location": {"lat": 41.16160105217988, "lng": 126.23485305683487}, "feature": {"sight_features": "", "sight_content": ""}}, {"title": "集安爱家太极湾旅游度假区", "address": "吉林省集安市太极湾旅游度假区", "image": "", "rank": 48, "time": 2, "location": {"lat": 41.131299724033404, "lng": 126.19957737200077}, "feature": {"sight_features": "", "sight_content": ""}}]}