{"cityName": "江口", "days": 2, "cityImage": "", "spots": [{"title": "寨沙侗寨", "address": "贵州省江口县太平乡梵净山", "image": "", "rank": 1, "time": 2, "location": {"lat": 27.821203283684362, "lng": 108.81629728284555}, "feature": {"sight_features": "", "sight_content": ""}}, {"title": "云舍景区", "address": "铜仁市江口县", "image": "", "rank": 2, "time": 2.5, "location": {"lat": 27.70592169504263, "lng": 108.84540005923948}, "feature": {"sight_features": "", "sight_content": ""}}, {"title": "太平河漂流", "address": "铜仁市江口县", "image": "", "rank": 3, "time": 2, "location": {"lat": 27.70592169504263, "lng": 108.84540005923948}, "feature": {"sight_features": "", "sight_content": ""}}, {"title": "老金顶", "address": "铜仁市江口县太平乡黑湾河梵净山景区", "image": "", "rank": 4, "time": 0.5, "location": {"lat": 27.821203283684362, "lng": 108.81629728284555}, "feature": {"sight_features": "", "sight_content": ""}}, {"title": "蘑菇石", "address": "铜仁市江口县太平乡黑湾河梵净山景区内", "image": "", "rank": 5, "time": 0.25, "location": {"lat": 27.821203283684362, "lng": 108.81629728284555}, "feature": {"sight_features": "", "sight_content": ""}}, {"title": "梵净山公园", "address": "大坪乡", "image": "", "rank": 6, "time": 2, "location": {"lat": 34.22984363121443, "lng": 112.07068841382187}, "feature": {"sight_features": "", "sight_content": ""}}, {"title": "远航山庄", "address": "江口县太平镇梵净山小河安置区", "image": "", "rank": 7, "time": 2, "location": {"lat": 27.848686011818447, "lng": 108.79155100071583}, "feature": {"sight_features": "", "sight_content": ""}}, {"title": "梵净山生态植物园", "address": "梵净山自然保护区东南边缘的云天峡谷，盘溪一带。", "image": "", "rank": 8, "time": 2, "location": {"lat": 27.83495074810797, "lng": 108.77120757529593}, "feature": {"sight_features": "", "sight_content": ""}}, {"title": "太子石", "address": "铜仁市江口县太平乡黑湾河梵净山景区", "image": "", "rank": 9, "time": 0.15000000000000002, "location": {"lat": 27.821203283684362, "lng": 108.81629728284555}, "feature": {"sight_features": "", "sight_content": ""}}, {"title": "凤凰山金顶", "address": "铜仁市江口县太平乡黑湾河梵净山景区", "image": "", "rank": 10, "time": 0.3, "location": {"lat": 27.821203283684362, "lng": 108.81629728284555}, "feature": {"sight_features": "", "sight_content": ""}}, {"title": "盛世嘉年华", "address": "龙井阁加油站旁江源山水2楼", "image": "", "rank": 11, "time": 2, "location": {"lat": 42.7715348683491, "lng": 129.43263477701413}, "feature": {"sight_features": "", "sight_content": ""}}, {"title": "萨伦", "address": "滨江街与胜利街交叉口西50米", "image": "", "rank": 12, "time": 2, "location": {"lat": 27.70010147427066, "lng": 108.85553900445935}, "feature": {"sight_features": "", "sight_content": ""}}, {"title": "江口梵净山小溪沟农家乐", "address": "江口梵净山小溪沟", "image": "", "rank": 13, "time": 3.0, "location": {"lat": 27.821203283684362, "lng": 108.81629728284555}, "feature": {"sight_features": "", "sight_content": ""}}, {"title": "开心堡儿童乐园", "address": "贵州省铜仁市江口县双江街道梵净山大道天元大酒店西50米", "image": "", "rank": 14, "time": 2, "location": {"lat": 27.69637103461117, "lng": 108.8527489025802}, "feature": {"sight_features": "", "sight_content": ""}}, {"title": "快乐王国儿童乐园", "address": "贵州省铜仁市江口县三星西路8号", "image": "", "rank": 15, "time": 2, "location": {"lat": 27.70592169504263, "lng": 108.84540005923948}, "feature": {"sight_features": "", "sight_content": ""}}, {"title": "龙井广场", "address": "贵州省铜仁市江口县双江街道龙井社区三星路林业局附近", "image": "", "rank": 16, "time": 0.75, "location": {"lat": 27.699954253970418, "lng": 108.85882503026801}, "feature": {"sight_features": "", "sight_content": ""}}, {"title": "兄弟连度假村", "address": "X508寨抱村院子组", "image": "", "rank": 17, "time": 2, "location": {"lat": 27.77227732232377, "lng": 108.74903117724627}, "feature": {"sight_features": "", "sight_content": ""}}, {"title": "图书馆", "address": "三星路2号江口县人民检察院附近", "image": "", "rank": 18, "time": 1.0, "location": {"lat": 27.703941886906335, "lng": 108.84680906580431}, "feature": {"sight_features": "", "sight_content": ""}}, {"title": "江口县领地庄园", "address": "双江镇回龙路与卓山路交叉口西北侧150米", "image": "", "rank": 19, "time": 2, "location": {"lat": 27.704831296081327, "lng": 108.85341980384672}, "feature": {"sight_features": "", "sight_content": ""}}, {"title": "童心王国主题游乐园", "address": "三星东路龙井阁加油站旁", "image": "", "rank": 20, "time": 2, "location": {"lat": 42.7715348683491, "lng": 129.43263477701413}, "feature": {"sight_features": "", "sight_content": ""}}, {"title": "江口县永胜生态旅游专业合作社", "address": "回龙路与卓山路交叉口西北侧150米", "image": "", "rank": 21, "time": 2, "location": {"lat": 27.704831296081327, "lng": 108.85341980384672}, "feature": {"sight_features": "", "sight_content": ""}}, {"title": "太平河", "address": "贵州省江口县梵净山南麓", "image": "", "rank": 22, "time": 1.0, "location": {"lat": 27.821203283684362, "lng": 108.81629728284555}, "feature": {"sight_features": "", "sight_content": ""}}, {"title": "黑湾河", "address": "贵州省江口县梵净山", "image": "", "rank": 23, "time": 2, "location": {"lat": 27.821203283684362, "lng": 108.81629728284555}, "feature": {"sight_features": "", "sight_content": ""}}, {"title": "梵净山步行街", "address": "贵州省江口县梵净山步行街", "image": "", "rank": 24, "time": 2, "location": {"lat": 27.697866174356662, "lng": 108.85529664792098}, "feature": {"sight_features": "", "sight_content": ""}}, {"title": "双江镇小区商业步行街", "address": "贵州省江口县梵净山中路", "image": "", "rank": 25, "time": 2, "location": {"lat": 27.707113271403347, "lng": 108.84390842294067}, "feature": {"sight_features": "", "sight_content": ""}}, {"title": "闵家坊", "address": "铜仁市-江口县", "image": "", "rank": 26, "time": 2, "location": {"lat": 27.70592169504263, "lng": 108.84540005923948}, "feature": {"sight_features": "", "sight_content": ""}}, {"title": "江口国家湿地公园", "address": "中国贵州省铜仁市江口县585县道", "image": "", "rank": 27, "time": 4.5, "location": {"lat": 27.70592169504263, "lng": 108.84540005923948}, "feature": {"sight_features": "", "sight_content": ""}}, {"title": "龙泉禅寺", "address": "太平镇龙泉圣景国际大酒店龙泉禅寺", "image": "", "rank": 28, "time": 0.75, "location": {"lat": 28.070657271441053, "lng": 119.14341766791351}, "feature": {"sight_features": "", "sight_content": ""}}, {"title": "梵净山", "address": "铜仁地区江口县", "image": "", "rank": 29, "time": 3.0, "location": {"lat": 27.72880957525466, "lng": 108.77862291940302}, "feature": {"sight_features": "", "sight_content": ""}}]}