{"cityName": "尖扎", "days": 2, "cityImage": "", "spots": [{"title": "丹霞十八峰", "address": "坎布拉景区内", "image": "", "rank": 1, "time": 2, "location": {"lat": 36.15047044030588, "lng": 101.78728881592008}, "feature": {"sight_features": "", "sight_content": ""}}, {"title": "瑶池仙境", "address": "坎布拉国家森林公园", "image": "", "rank": 2, "time": 2, "location": {"lat": 36.12100327113237, "lng": 101.82555359976236}, "feature": {"sight_features": "", "sight_content": ""}}, {"title": "擎天一柱", "address": "坎布拉国家森林公园", "image": "", "rank": 3, "time": 2, "location": {"lat": 36.12100327113237, "lng": 101.82555359976236}, "feature": {"sight_features": "", "sight_content": ""}}, {"title": "佛手指天", "address": "坎布拉国家森林公园", "image": "", "rank": 4, "time": 2, "location": {"lat": 36.12100327113237, "lng": 101.82555359976236}, "feature": {"sight_features": "", "sight_content": ""}}, {"title": "点将台", "address": "坎布拉国家森林公园", "image": "", "rank": 5, "time": 0.3, "location": {"lat": 36.12100327113237, "lng": 101.82555359976236}, "feature": {"sight_features": "", "sight_content": ""}}, {"title": "清泉山庄", "address": "青海省黄南藏族自治州尖扎县李坎公路卡布拉镇政府西南600米", "image": "", "rank": 6, "time": 2, "location": {"lat": 36.11041295548665, "lng": 101.80303254972866}, "feature": {"sight_features": "", "sight_content": ""}}, {"title": "鲁卡奇游乐园", "address": "马克堂镇马克唐镇黄河路", "image": "", "rank": 7, "time": 2, "location": {"lat": 35.94381325780805, "lng": 102.0414093288745}, "feature": {"sight_features": "", "sight_content": ""}}, {"title": "德龙尖巴", "address": "黄南藏族自治州-尖扎县", "image": "", "rank": 8, "time": 2, "location": {"lat": 35.94428445986772, "lng": 102.0375073241969}, "feature": {"sight_features": "", "sight_content": ""}}, {"title": "南宗尼姑寺", "address": "青海省黄南藏族自治州尖扎县坎布拉镇坎布拉景区内", "image": "", "rank": 9, "time": 2, "location": {"lat": 36.15047044030588, "lng": 101.78728881592008}, "feature": {"sight_features": "", "sight_content": ""}}, {"title": "南宗沟", "address": "青海省黄南藏族自治州尖扎县坎布拉镇坎布拉景区内", "image": "", "rank": 10, "time": 2, "location": {"lat": 36.15047044030588, "lng": 101.78728881592008}, "feature": {"sight_features": "", "sight_content": ""}}]}