{"cityName": "简阳", "days": 2, "cityImage": "", "spots": [{"title": "三岔湖风景区", "address": "成都市简阳市简三路附近", "image": "", "rank": 1, "time": 3.0, "location": {"lat": 30.41745149135266, "lng": 104.55349406265084}, "feature": {"sight_features": "特色1 分布着113个大小岛屿的人工湖泊，烧烤、垂钓、喝茶任你选择。", "sight_content": "三岔湖风景区，位于简阳市西南，是一个人工湖泊，岛屿密布。山、水、岛交相辉映，以岛为主的景点有凌雨烟阁、水上迷宫、水天一色、花岛、月亮岛、鸟岛、斩龙岛、女祸石，湖周山区有幽美险峻的丹景山、张飞营、乾封庙、三峨眉、牛角寨、石洞沟和古老的摩岩石刻等景观。在这里可以烧烤、钓鱼、坐船游览、喝茶聊天，很是悠闲。"}}, {"title": "五凤山森林公园", "address": "成都市简阳市望水乡老鹰水库旁", "image": "", "rank": 2, "time": 2, "location": {"lat": 30.19017618480171, "lng": 104.46718082957227}, "feature": {"sight_features": "", "sight_content": ""}}, {"title": "简阳白塔园", "address": "简阳市区南郊", "image": "", "rank": 3, "time": 3.0, "location": {"lat": 40.05189138740657, "lng": 113.22645661564142}, "feature": {"sight_features": "", "sight_content": ""}}, {"title": "三岔湖天堂岛水乐园", "address": "成都市简阳市三岔湖长岛天堂洲际酒店内", "image": "", "rank": 4, "time": 2, "location": {"lat": 30.41745149135266, "lng": 104.55349406265084}, "feature": {"sight_features": "特色1 恒温泳池、高温汤池、桑拿、尽情游玩。", "sight_content": "三岔湖水乐园坐落于成都高新区新民乡三岔湖风景区旁，距离成都市仅45公里，成都双流国际机场60公里，占地面积14500㎡左右，全区共设有室内恒温游泳池1个，室外无边际游泳池一个，汤池6个，儿童游乐池1个，并设有恒温泳池及高温汤池，一年四季都可以去玩耍。门票包含：恒温泳池、高温汤池、桑拿。"}}, {"title": "樱桃沟旅游区", "address": "成都市简阳市老君井乡", "image": "", "rank": 5, "time": 2, "location": {"lat": 30.478787019567818, "lng": 104.29841579971763}, "feature": {"sight_features": "", "sight_content": ""}}, {"title": "聚得山庄", "address": "四川省成都市简阳市玉成乡街邻村玉高路南", "image": "", "rank": 6, "time": 2, "location": {"lat": 30.347700291003424, "lng": 104.34456955285364}, "feature": {"sight_features": "", "sight_content": ""}}, {"title": "草池影剧院", "address": "168乡道附近", "image": "", "rank": 7, "time": 2, "location": {"lat": 24.797891984281197, "lng": 113.70778450341511}, "feature": {"sight_features": "", "sight_content": ""}}, {"title": "三岔湖高家庄休闲庄园", "address": "三岔镇清水村3组", "image": "", "rank": 8, "time": 2, "location": {"lat": 30.31704916399348, "lng": 104.28510903491012}, "feature": {"sight_features": "", "sight_content": ""}}, {"title": "缘湖山庄", "address": "三岔镇三岔水库附近250米", "image": "", "rank": 9, "time": 2, "location": {"lat": 30.30326952891763, "lng": 104.30408812380952}, "feature": {"sight_features": "", "sight_content": ""}}, {"title": "石榴岛", "address": "成都市简阳市三岔镇三岔湖内", "image": "", "rank": 10, "time": 2, "location": {"lat": 30.301273729189337, "lng": 104.29698858360135}, "feature": {"sight_features": "", "sight_content": ""}}, {"title": "简阳市贾家基督教堂", "address": "成都市简阳市中心西路", "image": "", "rank": 11, "time": 3.0, "location": {"lat": 30.41745149135266, "lng": 104.55349406265084}, "feature": {"sight_features": "", "sight_content": ""}}, {"title": "董家埂万缘寺", "address": "四川省成都市简阳市红苹果幼儿园东北200米", "image": "", "rank": 12, "time": 2, "location": {"lat": 30.570760769133194, "lng": 104.28426845091899}, "feature": {"sight_features": "", "sight_content": ""}}, {"title": "地藏殿", "address": "成都市简阳市五凤山森林公园黑水寺内", "image": "", "rank": 13, "time": 2.5, "location": {"lat": 30.41745149135266, "lng": 104.55349406265084}, "feature": {"sight_features": "", "sight_content": ""}}, {"title": "曾家祠堂", "address": "成都市简阳市", "image": "", "rank": 14, "time": 2, "location": {"lat": 30.41745149135266, "lng": 104.55349406265084}, "feature": {"sight_features": "", "sight_content": ""}}, {"title": "财干校休闲度假村", "address": "四川省成都市简阳市三岔镇三岔湖景区三岔水库附近", "image": "", "rank": 15, "time": 2, "location": {"lat": 30.277020113959704, "lng": 104.28319905503987}, "feature": {"sight_features": "", "sight_content": ""}}, {"title": "简阳市冰雪奇缘儿童主题室内游乐...", "address": "射洪路南段3号", "image": "", "rank": 16, "time": null, "location": {"lat": 30.41278763340646, "lng": 104.55481648325727}, "feature": {"sight_features": "", "sight_content": ""}}, {"title": "奇影幻境动感体验馆", "address": "四川省成都市简阳市三岔镇三岔湖景区镜湖主题酒店附近", "image": "", "rank": 17, "time": 2, "location": {"lat": 30.277020113959704, "lng": 104.28319905503987}, "feature": {"sight_features": "", "sight_content": ""}}, {"title": "阳晨小广场", "address": "广场路169号附近", "image": "", "rank": 18, "time": 2, "location": {"lat": 29.81297428986947, "lng": 119.68286090614319}, "feature": {"sight_features": "", "sight_content": ""}}, {"title": "龙椅山植物园", "address": "四川省成都市龙泉驿区", "image": "", "rank": 19, "time": 2, "location": {"lat": 30.56269784099964, "lng": 104.28139696435632}, "feature": {"sight_features": "", "sight_content": ""}}, {"title": "简阳龙山生态旅游山庄", "address": "四川省成都市简阳市简三路北50米", "image": "", "rank": 20, "time": 3.0, "location": {"lat": 30.41745149135266, "lng": 104.55349406265084}, "feature": {"sight_features": "", "sight_content": ""}}, {"title": "新桥游乐园", "address": "318国道附近", "image": "", "rank": 21, "time": 2, "location": {"lat": 31.023348267795328, "lng": 120.88254137011852}, "feature": {"sight_features": "", "sight_content": ""}}, {"title": "镜水山庄", "address": "成都市简阳市金湖山庄北路", "image": "", "rank": 22, "time": 2, "location": {"lat": 30.41745149135266, "lng": 104.55349406265084}, "feature": {"sight_features": "", "sight_content": ""}}, {"title": "140乡道", "address": "四川省成都市简阳市", "image": "", "rank": 23, "time": 2, "location": {"lat": 30.41745149135266, "lng": 104.55349406265084}, "feature": {"sight_features": "", "sight_content": ""}}, {"title": "元堡山", "address": "成都市-简阳市", "image": "", "rank": 24, "time": 2, "location": {"lat": 30.41745149135266, "lng": 104.55349406265084}, "feature": {"sight_features": "", "sight_content": ""}}, {"title": "半山云居休闲庄", "address": "成都市-简阳市-丹景乡全安村3组3号全安村村民委员会东南180米", "image": "", "rank": 25, "time": 2, "location": {"lat": 30.353231383974716, "lng": 104.24136350859206}, "feature": {"sight_features": "", "sight_content": ""}}, {"title": "三岔湖月亮沟休闲庄", "address": "成都市-简阳市", "image": "", "rank": 26, "time": 2, "location": {"lat": 30.41745149135266, "lng": 104.55349406265084}, "feature": {"sight_features": "", "sight_content": ""}}, {"title": "黄岭咀", "address": "成都市-简阳市-一零六乡道", "image": "", "rank": 27, "time": 2, "location": {"lat": 30.41745149135266, "lng": 104.55349406265084}, "feature": {"sight_features": "", "sight_content": ""}}, {"title": "瓦子铺", "address": "成都市-简阳市-一八三乡道", "image": "", "rank": 28, "time": 2, "location": {"lat": 30.41745149135266, "lng": 104.55349406265084}, "feature": {"sight_features": "", "sight_content": ""}}, {"title": "奇迹高坡生态农家乐", "address": "成都市-简阳市-贾家镇高坡子村六组9号", "image": "", "rank": 29, "time": 2, "location": {"lat": 30.462015568653257, "lng": 104.37339315387078}, "feature": {"sight_features": "", "sight_content": ""}}, {"title": "华家院子", "address": "成都市-简阳市", "image": "", "rank": 30, "time": 2, "location": {"lat": 30.41745149135266, "lng": 104.55349406265084}, "feature": {"sight_features": "", "sight_content": ""}}]}