{"cityName": "江安", "days": 2, "cityImage": "", "spots": [{"title": "夕佳山民居", "address": "宜宾市江安县夕佳山镇", "image": "", "rank": 1, "time": 2.0, "location": {"lat": 28.60333138175325, "lng": 105.11268527735933}, "feature": {"sight_features": "", "sight_content": ""}}, {"title": "世纪竹园农家乐", "address": "蜀南竹海", "image": "", "rank": 2, "time": 2, "location": {"lat": 28.480780697579995, "lng": 105.01443608383258}, "feature": {"sight_features": "", "sight_content": ""}}, {"title": "海锐原生态活水稻花鱼", "address": "四面山镇响滩子", "image": "", "rank": 3, "time": 2, "location": {"lat": 28.808466106734734, "lng": 105.18799897054514}, "feature": {"sight_features": "", "sight_content": ""}}, {"title": "百竹海", "address": "四川省江安县仁和乡 617201", "image": "", "rank": 4, "time": 2, "location": {"lat": 28.50232538606857, "lng": 105.18249998707947}, "feature": {"sight_features": "", "sight_content": ""}}, {"title": "仁和响水洞", "address": "四川省江安县仁和原始竹海 644000", "image": "", "rank": 5, "time": 2, "location": {"lat": 28.72960972185531, "lng": 105.07359488518999}, "feature": {"sight_features": "", "sight_content": ""}}, {"title": "油榨坪祠堂", "address": "四川省江安县留耕镇新场村 644002", "image": "", "rank": 6, "time": 2, "location": {"lat": 28.638438715709473, "lng": 105.14065534889541}, "feature": {"sight_features": "", "sight_content": ""}}, {"title": "宜宾蜀南竹海碧海湾度假村", "address": "宜宾市蜀南竹海迎风湾景区向西300米", "image": "", "rank": 7, "time": 3.0, "location": {"lat": 28.49119798517103, "lng": 105.02107603836338}, "feature": {"sight_features": "", "sight_content": ""}}, {"title": "七洞沟飞泉人文纪念园", "address": "四川省宜宾市江安县竹海大道188", "image": "", "rank": 8, "time": 2, "location": {"lat": 28.731372998501527, "lng": 105.08127404983951}, "feature": {"sight_features": "", "sight_content": ""}}, {"title": "夕佳山民俗博物馆(江安县夕佳山...", "address": "四川省宜宾市江安县江红路夕佳山景区夕佳山民俗博物馆", "image": "", "rank": 9, "time": 2, "location": {"lat": 28.604888485437506, "lng": 105.1193274596878}, "feature": {"sight_features": "", "sight_content": ""}}, {"title": "天籁轩音乐厅", "address": "竹都大道西段金盾公寓附近", "image": "", "rank": 10, "time": 2, "location": {"lat": 28.734166373159095, "lng": 105.0655143297913}, "feature": {"sight_features": "", "sight_content": ""}}, {"title": "王家大院", "address": "四川省宜宾市江安县鹿鸣村", "image": "", "rank": 11, "time": 2.5, "location": {"lat": 28.520122835024768, "lng": 105.15549256937165}, "feature": {"sight_features": "", "sight_content": ""}}, {"title": "观云台", "address": "蜀南竹海风景区名胜区内", "image": "", "rank": 12, "time": 0.4, "location": {"lat": 31.17092071318257, "lng": 119.70158923620812}, "feature": {"sight_features": "", "sight_content": ""}}, {"title": "大世界花园广场", "address": "宜宾市江安县西正街1号", "image": "", "rank": 13, "time": 2, "location": {"lat": 28.736138917703183, "lng": 105.07520683603727}, "feature": {"sight_features": "", "sight_content": ""}}, {"title": "江安剧场", "address": "四川省宜宾市江安县北正街67-～69号", "image": "", "rank": 14, "time": 1.5, "location": {"lat": 28.73823750569216, "lng": 105.0763924474964}, "feature": {"sight_features": "", "sight_content": ""}}, {"title": "百竹海生态度假村", "address": "四川省宜宾市江安县底蓬镇仁和乡响水洞(近高速路Y023)", "image": "", "rank": 15, "time": 2, "location": {"lat": 28.50232538606857, "lng": 105.18249998707947}, "feature": {"sight_features": "", "sight_content": ""}}, {"title": "红粉佳人音乐厅", "address": "四川省宜宾市江安县滨江路7号", "image": "", "rank": 16, "time": 2, "location": {"lat": 28.737225138474482, "lng": 105.08040188502015}, "feature": {"sight_features": "", "sight_content": ""}}, {"title": "国立剧专史料江安陈列馆", "address": "剧专大道278号", "image": "", "rank": 17, "time": null, "location": {"lat": 28.735891449167063, "lng": 105.07231183273561}, "feature": {"sight_features": "", "sight_content": ""}}, {"title": "山外农家乐", "address": "江红路", "image": "", "rank": 18, "time": 2, "location": {"lat": 31.558389742637264, "lng": 121.27630592517644}, "feature": {"sight_features": "", "sight_content": ""}}, {"title": "江安县满塘红养殖专合社", "address": "宜宾市-江安县-Y012", "image": "", "rank": 19, "time": 2, "location": {"lat": 28.72960972185531, "lng": 105.07359488518999}, "feature": {"sight_features": "", "sight_content": ""}}, {"title": "江安县大妙乡方程家庭农场", "address": "宜宾市-江安县-大妙乡顺河村", "image": "", "rank": 20, "time": 2, "location": {"lat": 28.586977857635926, "lng": 105.15999265866986}, "feature": {"sight_features": "", "sight_content": ""}}]}