{"cityName": "建平", "days": 2, "cityImage": "", "spots": [{"title": "天秀山森林公园", "address": "朝阳市建平县万寿街道办事处小平房村柴家营子村民组", "image": "", "rank": 1, "time": 2, "location": {"lat": 41.346375025643454, "lng": 119.65972483978054}, "feature": {"sight_features": "特色1 原始自然的花草树木", "sight_content": "天秀山森林公园隶属于建平县万寿街道小平房村。按照建平县委、县政府确立的“创建生态大县，发展特色经济，彰显人文精神”的发展目标，小平房村提出了“长期建设生态，构建美好家园”的远大目标，努力打造建设天秀山森林公园。以原始自然的花草树木为基础，精心打造风光无限的自然美；以名山异水为依托，全力打造环境美；以植树造林为契机，认真打造生态美。据悉，天秀山森林公园，现有乔、灌、草等植物140多种，野生动物30多种，于2008年12月被辽宁省正式批准为天秀山森林公园。\n走近天秀山，蓝蓝的天空白云飘逸，群鸟嬉戏，满目葱茏，雾霭缭绕，林海苍茫。驻足天秀山山巅，远望群山，横岭侧峰，高低不同，有的陡峭、有的舒缓、有的黛碧、有的莹翠，近者清晰矗立，远者飘渺于雾霭之间，虚虚实实，好一幅青山叠翠的美好画卷。天秀山上怪石嶙峋，玉皇顶上富有传奇色彩的四门洞、神仙洞、天权宫、朝凤鸟、石头人、八戒石怪状独特，别具一格。2007年以来，小平房村投资1500多万元对天秀山进行修建，依山谷底建起库容7万立方米的蓄水湖――秀水潭，设计科学、精巧、奇特、美观。有了秀山、秀水，小平房村便开始着力打造旅游业。其发展思路是“五在山”、“五到家”。“五在山”是：登山健身游在山；和谐文化游在山；生态农业游在山；观赏美景游在山；享受生活游在山。“五到家”为：吃饭到农家院；吃水果到农家果园；买散养鸡、笨鸡蛋到农家栏；买绿色农产品到农家店美好的生活来自于自然，自然的美好来自于发展，相信明天的天秀山更秀、更美，也更加相信那些建设天秀山的村民们的生活会更秀、更美。"}}, {"title": "燕长城遗址", "address": "辽宁省建平县烧锅营子乡 122414", "image": "", "rank": 2, "time": 2.0, "location": {"lat": 42.21502942366257, "lng": 119.57026391904247}, "feature": {"sight_features": "", "sight_content": ""}}, {"title": "建平县博物馆", "address": "中兴街15-5", "image": "", "rank": 3, "time": 2, "location": {"lat": 38.79491746834297, "lng": 114.64977903477451}, "feature": {"sight_features": "", "sight_content": ""}}, {"title": "建平县人大常委会八家农场人大工...", "address": "208省道附近", "image": "", "rank": 4, "time": 2, "location": {"lat": 39.82817275160928, "lng": 115.96548677323707}, "feature": {"sight_features": "", "sight_content": ""}}, {"title": "铁南街道办事处无公害蔬菜生产基...", "address": "站前路附近", "image": "", "rank": 5, "time": null, "location": {"lat": 40.131500583359475, "lng": 116.27284120218751}, "feature": {"sight_features": "", "sight_content": ""}}, {"title": "建平县图书馆", "address": "万寿路64", "image": "", "rank": 6, "time": 2, "location": {"lat": 41.40548698426909, "lng": 119.65029447345206}, "feature": {"sight_features": "", "sight_content": ""}}, {"title": "大方广图书馆", "address": "兴工路5a-2号附近", "image": "", "rank": 7, "time": 2, "location": {"lat": 41.41246309783751, "lng": 119.65037442623569}, "feature": {"sight_features": "", "sight_content": ""}}, {"title": "朝阳寺", "address": "辽宁省朝阳市建平县建三线", "image": "", "rank": 8, "time": 2, "location": {"lat": 41.70410554365001, "lng": 119.68512548268583}, "feature": {"sight_features": "", "sight_content": ""}}, {"title": "辽宁朝阳建平永兴寺", "address": "辽宁省朝阳市建平县张家营子镇海棠村", "image": "", "rank": 9, "time": 2, "location": {"lat": 41.798296931156955, "lng": 119.59565035704274}, "feature": {"sight_features": "", "sight_content": ""}}, {"title": "海盗船", "address": "万寿路28-13", "image": "", "rank": 10, "time": 2, "location": {"lat": 41.41089455797811, "lng": 119.65990003181264}, "feature": {"sight_features": "", "sight_content": ""}}, {"title": "叶镇水族馆", "address": "辽宁省朝阳市建平县人民路56号", "image": "", "rank": 11, "time": 2, "location": {"lat": 41.40506622238201, "lng": 119.64235992054354}, "feature": {"sight_features": "", "sight_content": ""}}, {"title": "喇嘛山灵泉寺", "address": "辽宁省朝阳市建平县", "image": "", "rank": 12, "time": 2, "location": {"lat": 41.409455511027, "lng": 119.64938035776511}, "feature": {"sight_features": "", "sight_content": ""}}, {"title": "弥陀寺", "address": "朱碌科镇弥陀寺", "image": "", "rank": 13, "time": 0.4, "location": {"lat": 41.66403159781214, "lng": 119.9308100804605}, "feature": {"sight_features": "", "sight_content": ""}}, {"title": "普善宫", "address": "昌隆大街东100米", "image": "", "rank": 14, "time": 2, "location": {"lat": 42.01285002409101, "lng": 119.41633277965043}, "feature": {"sight_features": "", "sight_content": ""}}, {"title": "兴隆地文体广场", "address": "208省道附近", "image": "", "rank": 15, "time": 4.5, "location": {"lat": 39.82817275160928, "lng": 115.96548677323707}, "feature": {"sight_features": "", "sight_content": ""}}, {"title": "基督教堂(上窝铺)", "address": "101国道附近", "image": "", "rank": 16, "time": 2, "location": {"lat": 42.37729533175982, "lng": 122.53808546078889}, "feature": {"sight_features": "", "sight_content": ""}}, {"title": "镜湖社区图书阅览室", "address": "京沈路", "image": "", "rank": 17, "time": 2, "location": {"lat": 40.38794136129464, "lng": 116.82439766729556}, "feature": {"sight_features": "", "sight_content": ""}}, {"title": "建平县城乡建设档案馆", "address": "文化街29号", "image": "", "rank": 18, "time": 2, "location": {"lat": 39.327226344099834, "lng": 115.8870332696079}, "feature": {"sight_features": "", "sight_content": ""}}, {"title": "文化图书馆", "address": "建敖线附近", "image": "", "rank": 19, "time": 2, "location": {"lat": 42.15786164237032, "lng": 119.74496415131684}, "feature": {"sight_features": "", "sight_content": ""}}, {"title": "牛河梁遗址博物馆", "address": "富山街道", "image": "", "rank": 20, "time": 2, "location": {"lat": 41.379051009821225, "lng": 119.59989121513499}, "feature": {"sight_features": "", "sight_content": ""}}, {"title": "建平县中街步行街", "address": "辽宁省建平县市场路附近", "image": "", "rank": 21, "time": 2, "location": {"lat": 41.409935846619845, "lng": 119.64913039527391}, "feature": {"sight_features": "", "sight_content": ""}}, {"title": "叶柏寿东桥", "address": "朝阳市-建平县-叶柏寿东桥", "image": "", "rank": 22, "time": 2, "location": {"lat": 41.40817192288826, "lng": 119.65606352618298}, "feature": {"sight_features": "", "sight_content": ""}}, {"title": "潘家营子", "address": "朝阳市-建平县", "image": "", "rank": 23, "time": 2, "location": {"lat": 41.409455511027, "lng": 119.64938035776511}, "feature": {"sight_features": "", "sight_content": ""}}]}