{"cityName": "剑川", "days": 2, "cityImage": "", "spots": [{"title": "沙溪古镇", "address": "大理白族自治州剑川县084县道", "image": "", "rank": 1, "time": 3.5, "location": {"lat": 26.39510970423998, "lng": 99.86294458135504}, "feature": {"sight_features": "", "sight_content": ""}}, {"title": "石宝山", "address": "大理白族自治州剑川县县城西南25公里处", "image": "", "rank": 2, "time": 2.5, "location": {"lat": 26.542516534180685, "lng": 99.91209123511192}, "feature": {"sight_features": "特色1 参观历史悠久、造像精美的珍贵石窟，感受奇峰林立的独特地貌。", "sight_content": "‍‍剑川石宝山位于剑川县城西南25公里处，因山上的红砂石成龟背状裂纹，如狮似象像钟，得石宝之名。这里林木茂盛、石趣无限，庙宇别致，景色独特，尤以石窟和摩崖造像而声名久远。山中开凿于唐宋年间的石窟，享有“西南敦煌”的美誉，为国家重点文物保护单位。这些艺术瑰宝有：17个雕刻精细、形象生动、内容独特、地方民族色彩浓郁的石窟。这些石窟分布在石宝山的石钟寺、狮子关、沙登箐3处，绵延六七公里的地带，约造像140躯。‍‍\n‍‍白族所崇信的佛教密宗神祗在这里栩栩如生；阁罗凤出巡的宏大场面也不再神秘，为寻常老百姓可目睹；善男信女们还在神佛边虔诚地跪拜“阿央白”，祈求子孙。石窟所选细奴逻、阁逻凤、异牟寻三代南诏国主，是三个极有代表性的人物。透过这些形象，反映了南诏一代历史。它既是南诏艺术珍品，也是富贵的民族史料，为后人研究南诏的政治、军事、文化，以至服饰、风尚等都提供了宝贵的资料。其次是栩栩如生的宗教人物。在石窟中雕像最多的，是宗教人物。如观音、阿难、迦叶、文殊、普贤、八大名王、多闻天王、增长天王等等。这些形象，大都雕刻精细，形象生动各有个性。如：同是观音，在雕刻家的手下，形象各不相同：有悉面观音、甘露观音、细腰观音等等。这些白族的文化和历史都被先人以细腻典雅的石斧留在了石壁上，天地间。没有绚丽的色彩，没有造作的神态，没有拘谨的庄严，一切都显得那么优雅、纯厚和生动。到石钟山来吧，来听一听白族人民的历史来看一看这些震撼人心的石窟。到石宝山旅游的最佳时间是农历7月末8月初，一年一度的传统歌会令人流连忘返。‍‍"}}, {"title": "海云居", "address": "大理白族自治州剑川县石宝山山门左侧的石伞山麓", "image": "", "rank": 3, "time": 1.5, "location": {"lat": 26.39010449449061, "lng": 99.84471666002062}, "feature": {"sight_features": "", "sight_content": ""}}, {"title": "沙溪寺登街", "address": "大理白族自治州剑川县南部沙溪镇", "image": "", "rank": 4, "time": 1.5, "location": {"lat": 26.314970872749843, "lng": 99.85470676949213}, "feature": {"sight_features": "", "sight_content": ""}}, {"title": "石钟山石窟", "address": "大理白族自治州剑川县城西南25公里处的石宝山", "image": "", "rank": 5, "time": 2, "location": {"lat": 26.39010449449061, "lng": 99.84471666002062}, "feature": {"sight_features": "", "sight_content": ""}}, {"title": "宝相寺", "address": "大理白族自治州剑川县城西石宝山", "image": "", "rank": 6, "time": 1.5, "location": {"lat": 26.39010449449061, "lng": 99.84471666002062}, "feature": {"sight_features": "", "sight_content": ""}}, {"title": "玉津桥", "address": "大理白族自治州剑川县", "image": "", "rank": 7, "time": 0.35, "location": {"lat": 26.542516534180685, "lng": 99.91209123511192}, "feature": {"sight_features": "", "sight_content": ""}}, {"title": "沙溪兴教寺", "address": "大理白族自治州剑川县沙溪镇寺登街", "image": "", "rank": 8, "time": 1.0, "location": {"lat": 26.32250869150527, "lng": 99.85934666656834}, "feature": {"sight_features": "", "sight_content": ""}}, {"title": "千狮山", "address": "大理白族自治州剑川县", "image": "", "rank": 9, "time": 1.0, "location": {"lat": 26.542516534180685, "lng": 99.91209123511192}, "feature": {"sight_features": "", "sight_content": ""}}, {"title": "剑湖", "address": "大理白族自治州剑川县城东南方", "image": "", "rank": 10, "time": 2.0, "location": {"lat": 26.542516534180685, "lng": 99.91209123511192}, "feature": {"sight_features": "", "sight_content": ""}}, {"title": "狮子关石窟", "address": "大理白族自治州剑川县", "image": "", "rank": 11, "time": 0.75, "location": {"lat": 26.542516534180685, "lng": 99.91209123511192}, "feature": {"sight_features": "", "sight_content": ""}}, {"title": "西门街古建筑群", "address": "大理白族自治州剑川县西门街", "image": "", "rank": 12, "time": 1.5, "location": {"lat": 26.53774772192287, "lng": 99.90988373915242}, "feature": {"sight_features": "", "sight_content": ""}}, {"title": "甸南镇", "address": "大理白族自治州剑川县甸南镇", "image": "", "rank": 13, "time": 4.5, "location": {"lat": 26.463067492280544, "lng": 99.9239912903174}, "feature": {"sight_features": "", "sight_content": ""}}, {"title": "寺登街古戏台", "address": "大理剑川沙溪古镇", "image": "", "rank": 14, "time": 0.5, "location": {"lat": 26.320777807193096, "lng": 99.85571585403724}, "feature": {"sight_features": "", "sight_content": ""}}, {"title": "石钟寺", "address": "大理白族自治州剑川县沙溪乡石宝山景区内", "image": "", "rank": 15, "time": 1.0, "location": {"lat": 26.39010449449061, "lng": 99.84471666002062}, "feature": {"sight_features": "", "sight_content": ""}}, {"title": "城隍古庙", "address": "大理白族自治州剑川县滇藏公路", "image": "", "rank": 16, "time": null, "location": {"lat": 26.54339742301252, "lng": 99.91524123321216}, "feature": {"sight_features": "", "sight_content": ""}}, {"title": "长乐村", "address": "大理白族自治州剑川县长乐村", "image": "", "rank": 17, "time": 1.5, "location": {"lat": 26.320922603222545, "lng": 99.8443203177484}, "feature": {"sight_features": "", "sight_content": ""}}, {"title": "白龙潭", "address": "云南省大理祥云县白龙潭", "image": "", "rank": 18, "time": 1.0, "location": {"lat": 25.878329673068844, "lng": 100.40021673104924}, "feature": {"sight_features": "", "sight_content": ""}}, {"title": "欧阳大院", "address": "大理州剑川县南部沙溪镇寺登四方街西北侧", "image": "", "rank": 19, "time": 2, "location": {"lat": 26.314970872749843, "lng": 99.85470676949213}, "feature": {"sight_features": "", "sight_content": ""}}, {"title": "慈荫庵", "address": "大理白族自治州剑川县沙溪镇甸头村东北方向", "image": "", "rank": 20, "time": 2, "location": {"lat": 26.348982052487276, "lng": 99.85943580811899}, "feature": {"sight_features": "", "sight_content": ""}}, {"title": "羊岑乡", "address": "大理白族自治州剑川县中北部", "image": "", "rank": 21, "time": 2, "location": {"lat": 26.542516534180685, "lng": 99.91209123511192}, "feature": {"sight_features": "", "sight_content": ""}}, {"title": "沙登菁石窟景区", "address": "大理白族自治州剑川县沙登", "image": "", "rank": 22, "time": 2, "location": {"lat": 26.33433096095195, "lng": 99.8514990911951}, "feature": {"sight_features": "", "sight_content": ""}}, {"title": "石钟山", "address": "云南省大理白族自治州剑川县城西南25公里处", "image": "", "rank": 23, "time": 1.5, "location": {"lat": 26.542516534180685, "lng": 99.91209123511192}, "feature": {"sight_features": "", "sight_content": ""}}, {"title": "Adventure Shaxi", "address": "云南省剑川县沙溪镇 671300", "image": "", "rank": 24, "time": 2, "location": {"lat": 26.314970872749843, "lng": 99.85470676949213}, "feature": {"sight_features": "", "sight_content": ""}}, {"title": "烘焙剧场", "address": "云南省大理白族自治州剑川县环城东路81号", "image": "", "rank": 25, "time": 2, "location": {"lat": 26.53414298162778, "lng": 99.91260560484676}, "feature": {"sight_features": "", "sight_content": ""}}, {"title": "下登村", "address": "云南省大理剑川县", "image": "", "rank": 26, "time": 2, "location": {"lat": 26.542516534180685, "lng": 99.91209123511192}, "feature": {"sight_features": "", "sight_content": ""}}, {"title": "甸头村", "address": "云南省大理白族自治州剑川县甸头村", "image": "", "rank": 27, "time": 2, "location": {"lat": 26.348982052487276, "lng": 99.85943580811899}, "feature": {"sight_features": "", "sight_content": ""}}, {"title": "l老街小屋", "address": "寺登街203号(信用社往南300米)", "image": "", "rank": 28, "time": 2, "location": {"lat": 26.322056236285622, "lng": 99.85641899818343}, "feature": {"sight_features": "", "sight_content": ""}}, {"title": "迎宾清真堂", "address": "金华镇文照街亿达购物广场附近", "image": "", "rank": 29, "time": 2, "location": {"lat": 26.534602412022565, "lng": 99.91357298196537}, "feature": {"sight_features": "", "sight_content": ""}}, {"title": "盆景花卉园", "address": "文照街36号附近", "image": "", "rank": 30, "time": 2, "location": {"lat": 26.53506983343042, "lng": 99.91204245712274}, "feature": {"sight_features": "", "sight_content": ""}}, {"title": "回龙庵", "address": "大理白族自治州剑川县沙溪古镇内", "image": "", "rank": 31, "time": 2, "location": {"lat": 26.322309002128826, "lng": 99.85931665418126}, "feature": {"sight_features": "", "sight_content": ""}}, {"title": "明光寺", "address": "214国道与311省道交叉口西南200米", "image": "", "rank": 32, "time": 2, "location": {"lat": 31.909199228140412, "lng": 121.30903625505988}, "feature": {"sight_features": "", "sight_content": ""}}, {"title": "剑川民族博物馆", "address": "金华镇景风公园内", "image": "", "rank": 33, "time": 3.0, "location": {"lat": 26.539444925887313, "lng": 99.90484200397086}, "feature": {"sight_features": "", "sight_content": ""}}, {"title": "老君山景区", "address": "云南省大理白族自治州剑川县", "image": "", "rank": 34, "time": 2, "location": {"lat": 26.542516534180685, "lng": 99.91209123511192}, "feature": {"sight_features": "", "sight_content": ""}}, {"title": "南门社区体育休闲广场", "address": "环城南路南门村附近", "image": "", "rank": 35, "time": 2, "location": {"lat": 29.9501686578419, "lng": 120.98948381824651}, "feature": {"sight_features": "", "sight_content": ""}}, {"title": "腾龙度假村", "address": "云南省大理白族自治州剑川县老君山镇八十一工业园区", "image": "", "rank": 36, "time": 2, "location": {"lat": 26.60036983359765, "lng": 99.5652311687786}, "feature": {"sight_features": "", "sight_content": ""}}, {"title": "白坛神庙", "address": "大理白族自治州剑川县", "image": "", "rank": 37, "time": 2, "location": {"lat": 26.542516534180685, "lng": 99.91209123511192}, "feature": {"sight_features": "", "sight_content": ""}}, {"title": "狮河木雕艺术展览馆", "address": "河狮小学附近", "image": "", "rank": 38, "time": 2, "location": {"lat": 23.100931760317003, "lng": 113.27528273950196}, "feature": {"sight_features": "", "sight_content": ""}}, {"title": "沙坪村稻田国际青年旅舍暨满天星...", "address": "沙溪古镇沙坪村", "image": "", "rank": 39, "time": 2, "location": {"lat": 26.320777807193096, "lng": 99.85571585403724}, "feature": {"sight_features": "", "sight_content": ""}}, {"title": "温匡基场", "address": "大理白族自治州-剑川县", "image": "", "rank": 40, "time": 2, "location": {"lat": 26.542516534180685, "lng": 99.91209123511192}, "feature": {"sight_features": "", "sight_content": ""}}, {"title": "南古宗巷", "address": "云南省大理白族自治州剑川县", "image": "", "rank": 41, "time": 1.0, "location": {"lat": 26.542516534180685, "lng": 99.91209123511192}, "feature": {"sight_features": "", "sight_content": ""}}, {"title": "沙溪南门", "address": "大理白族自治州剑川县沙溪南门", "image": "", "rank": 42, "time": 2, "location": {"lat": 26.542516534180685, "lng": 99.91209123511192}, "feature": {"sight_features": "", "sight_content": ""}}, {"title": "剑川满贤林", "address": "云南省剑川县千狮山", "image": "", "rank": 43, "time": 3.0, "location": {"lat": 26.542516534180685, "lng": 99.91209123511192}, "feature": {"sight_features": "", "sight_content": ""}}]}