{"cityName": "剑河", "days": 2, "cityImage": "", "spots": [{"title": "剑河", "address": "贵州省黔东南苗族侗族自治州剑河县南寨乡", "image": "", "rank": 1, "time": 0.9, "location": {"lat": 26.63214622828232, "lng": 108.77523357577665}, "feature": {"sight_features": "", "sight_content": ""}}, {"title": "剑河温泉城", "address": "黔东南苗族侗族自治州剑河县岑松镇温泉热水沟", "image": "", "rank": 2, "time": 2, "location": {"lat": 26.75552259263954, "lng": 108.55738325008043}, "feature": {"sight_features": "特色1 冬日舒享温泉体验", "sight_content": "剑河温泉城温泉水属稀有高热氡硫温泉，出水口温度达50多度，温泉水富含氡、硫、铁、钾、钙、铝、铜、镁、锌等多种有益于人体微量元素，作为贵州三大名泉之一，享有“苗乡圣水”之美誉。剑河苗乡圣水温泉城四面青山逶迤。远望群山如黛，莽莽苍苍，近看树木葱茏，青翠欲滴。\n剑河温泉城其中有圣水温泉、温泉国际酒店、仰阿莎酒店、温泉汤屋、温泉别院、温泉街、温泉剧场、温泉文博馆等，集健康、养生、休闲、度假、旅游于一体。\n剑河温泉城致力于打造世界苗族文化主题风情温泉城，使之成为“世界知名、贵州一绝”的温泉度假旅游目的地。"}}, {"title": "剑河温泉大池", "address": "黔东南苗族侗族自治州剑河县", "image": "", "rank": 3, "time": 2, "location": {"lat": 26.73404755888132, "lng": 108.44751710322788}, "feature": {"sight_features": "", "sight_content": ""}}, {"title": "八万山", "address": "黔东南苗族侗族自治州剑河县西南部，处于雷山、台江、榕江三县交界地带", "image": "", "rank": 4, "time": 2.0, "location": {"lat": 26.73404755888132, "lng": 108.44751710322788}, "feature": {"sight_features": "", "sight_content": ""}}, {"title": "剑河温泉体验馆", "address": "黔东南州剑河县仰阿莎东大道18号常弛大酒店负一楼", "image": "", "rank": 5, "time": 2, "location": {"lat": 26.73319009579593, "lng": 108.45396567915967}, "feature": {"sight_features": "", "sight_content": "剑河温泉体验馆位于剑河县常驰大酒店负一楼，为室内恒温温泉，体验馆内四季恒温中央空调、泡池、儿童池、中草池、多功能戏水池、鱼疗池、木桶浴、跑步机、按摩椅、干蒸房、湿蒸房等设施齐全，应有尽有，地处剑河县城中心，交通方便。"}}, {"title": "剑河温泉", "address": "校场坝一路", "image": "", "rank": 6, "time": 0.7, "location": {"lat": 30.223079615212516, "lng": 110.51610413382434}, "feature": {"sight_features": "", "sight_content": ""}}, {"title": "剑河县图书馆城南社区图书小站", "address": "杏花巷64号附近", "image": "", "rank": 7, "time": 2, "location": {"lat": 26.734099183919707, "lng": 108.45988641077398}, "feature": {"sight_features": "", "sight_content": ""}}, {"title": "久格里吉温泉", "address": "剑河风景区内", "image": "", "rank": 8, "time": 2, "location": {"lat": 26.528445141395117, "lng": 108.62909842302162}, "feature": {"sight_features": "", "sight_content": ""}}, {"title": "圣水温泉", "address": "岑送镇温泉热水沟内", "image": "", "rank": 9, "time": 2, "location": {"lat": 44.97485663870472, "lng": 81.03114554648644}, "feature": {"sight_features": "", "sight_content": ""}}, {"title": "剑河县城市规划展厅", "address": "贵州省剑河县校场一路附近", "image": "", "rank": 10, "time": 2, "location": {"lat": 26.736869934999593, "lng": 108.47181274141563}, "feature": {"sight_features": "", "sight_content": ""}}, {"title": "儿童主题亲子乐园", "address": "贵州省黔东南苗族侗族自治州剑河县便民路", "image": "", "rank": 11, "time": 2, "location": {"lat": 26.73404755888132, "lng": 108.44751710322788}, "feature": {"sight_features": "", "sight_content": ""}}, {"title": "南岳庙", "address": "贵州省黔东南苗族侗族自治州剑河县", "image": "", "rank": 12, "time": 2, "location": {"lat": 26.73404755888132, "lng": 108.44751710322788}, "feature": {"sight_features": "", "sight_content": ""}}, {"title": "观音殿", "address": "S31152附近", "image": "", "rank": 13, "time": 2, "location": {"lat": 36.86233069413362, "lng": 115.39286825895547}, "feature": {"sight_features": "", "sight_content": ""}}, {"title": "阳光广场", "address": "广场东路与广场路交叉口西100米", "image": "", "rank": 14, "time": 2, "location": {"lat": 27.832759180698048, "lng": 120.76796964213916}, "feature": {"sight_features": "", "sight_content": ""}}, {"title": "桂花村", "address": "黔东南苗族侗族自治州黄平县", "image": "", "rank": 15, "time": 4.0, "location": {"lat": 26.911288643100754, "lng": 107.92354780621629}, "feature": {"sight_features": "", "sight_content": ""}}, {"title": "十里长滩", "address": "311省道", "image": "", "rank": 16, "time": 2, "location": {"lat": 40.42605053578163, "lng": 117.19514906888342}, "feature": {"sight_features": "", "sight_content": ""}}, {"title": "剑河温泉村杨梅采摘园", "address": "温泉村温泉景区内", "image": "", "rank": 17, "time": 2, "location": {"lat": 26.772490993405714, "lng": 108.49976468334991}, "feature": {"sight_features": "", "sight_content": ""}}, {"title": "翁密河原始森林漂流", "address": "翁密河漂流风景区", "image": "", "rank": 18, "time": 2, "location": {"lat": 26.492707323244293, "lng": 108.47916225040072}, "feature": {"sight_features": "", "sight_content": ""}}, {"title": "剑河馨泉山庄", "address": "剑河温泉景区内", "image": "", "rank": 19, "time": 2, "location": {"lat": 26.75893405404677, "lng": 108.51198421282517}, "feature": {"sight_features": "", "sight_content": ""}}, {"title": "剑河县剑河商业中心步行街", "address": "贵州省剑河县便民路附近", "image": "", "rank": 20, "time": 2, "location": {"lat": 26.73404755888132, "lng": 108.44751710322788}, "feature": {"sight_features": "", "sight_content": ""}}, {"title": "剑河县金泰世纪广场步行街", "address": "贵州省剑河县仰阿莎东大道", "image": "", "rank": 21, "time": 2, "location": {"lat": 26.73265100653852, "lng": 108.45329423980816}, "feature": {"sight_features": "", "sight_content": ""}}, {"title": "仰阿莎大雕像", "address": "黔东南苗族侗族自治州剑河县", "image": "", "rank": 22, "time": 0.75, "location": {"lat": 26.73404755888132, "lng": 108.44751710322788}, "feature": {"sight_features": "", "sight_content": ""}}]}