{"cityName": "蛟河", "days": 2, "cityImage": "", "spots": [{"title": "拉法山国家森林公园", "address": "蛟河市039县道", "image": "", "rank": 1, "time": 3.0, "location": {"lat": 43.56889982988189, "lng": 127.09382299022637}, "feature": {"sight_features": "特色1 以洞闻名于世 特色2 奇洞怪石著名，集幽、奇、秀、险于一身", "sight_content": "吉林拉法山国家森林公园位于吉林省东部蛟河市境内距市中心36公里现有景点200余处其中历史人文景点5处自然景点150多处有著名的十二景总面积34194公顷包括六大景区是一个以自然生态森林红叶人文和谐为特色的森林公园拉法山国家森林公园内森林覆盖率达到84.8%公园属于北温带大陆季风气候。\n拉法山自古以洞闻名于世在众多的天然岩洞中较有名的有穿心洞、太和洞、太极洞通天洞等七十二洞各有特色独具风格穿心洞硕大无朋悬羊洞高不见顶无底洞通天彻地春天这里小草吐绿万木发芽进入5月山谷里便野花争艳蝶飞蜂舞百鸟争鸣暮春登上山峰会看到茫茫去海中的山峰如大海中一个个小岛好似莲花浮水业盛夏这里林木丛丛古洞幽凉大雨过后云蒸霞蔚纤云异巧山峰若隐若现宛若瑶池仙境又如九重洞天秋天这里天高云淡红叶染彤红红火火冬季山野一片寂静瑞雪将这里变成银白世界分外妖娆。"}}, {"title": "蛟河红叶谷", "address": "蛟河市庆岭解放村旁", "image": "", "rank": 2, "time": 2.0, "location": {"lat": 43.763295096963596, "lng": 127.0878845036017}, "feature": {"sight_features": "", "sight_content": ""}}, {"title": "保安睡佛", "address": "吉林蛟河市拉法镇保安村附近", "image": "", "rank": 3, "time": 2.5, "location": {"lat": 43.906548389636235, "lng": 127.37521307788604}, "feature": {"sight_features": "", "sight_content": ""}}, {"title": "龙凤漂流", "address": "蛟河市龙凤水库", "image": "", "rank": 4, "time": 2, "location": {"lat": 43.9666146436409, "lng": 127.48961904073748}, "feature": {"sight_features": "", "sight_content": ""}}, {"title": "关东第一漂", "address": "蛟河市漂流镇干沟子", "image": "", "rank": 5, "time": 2.0, "location": {"lat": 43.640881714268005, "lng": 127.19934479602485}, "feature": {"sight_features": "", "sight_content": ""}}, {"title": "白石山国家森林公园", "address": "蛟河市白石山镇大趟子", "image": "", "rank": 6, "time": 2, "location": {"lat": 43.58779732703085, "lng": 127.56483672934337}, "feature": {"sight_features": "", "sight_content": ""}}, {"title": "鹿角沟", "address": "吉林省吉林市蛟河市庆岭镇", "image": "", "rank": 7, "time": 1.5, "location": {"lat": 43.80568101691423, "lng": 126.95651511736435}, "feature": {"sight_features": "", "sight_content": ""}}, {"title": "插树岭漂流", "address": "红叶谷景区插树岭峡谷漂流内", "image": "", "rank": 8, "time": 2, "location": {"lat": 43.668654575966244, "lng": 127.06682908931263}, "feature": {"sight_features": "", "sight_content": ""}}, {"title": "蛟河市", "address": "吉林省蛟河市", "image": "", "rank": 9, "time": 2.0, "location": {"lat": 43.73000387050733, "lng": 127.3514801867702}, "feature": {"sight_features": "", "sight_content": ""}}, {"title": "庆岭风景区", "address": "吉林省吉林市蛟河市Z009", "image": "", "rank": 10, "time": null, "location": {"lat": 43.73000387050733, "lng": 127.3514801867702}, "feature": {"sight_features": "", "sight_content": ""}}, {"title": "西土山", "address": "吉林市蛟河市", "image": "", "rank": 11, "time": 2, "location": {"lat": 43.73000387050733, "lng": 127.3514801867702}, "feature": {"sight_features": "", "sight_content": ""}}, {"title": "石冰河大峡谷漂流", "address": "吉林市蛟河市白石山镇大趟子村", "image": "", "rank": 12, "time": 2, "location": {"lat": 43.58779732703085, "lng": 127.56483672934337}, "feature": {"sight_features": "", "sight_content": ""}}, {"title": "民俗冬季垂钓馆", "address": "河南街道深圳大街民俗村东北", "image": "", "rank": 13, "time": 2, "location": {"lat": 43.750976778565615, "lng": 127.35040476146452}, "feature": {"sight_features": "", "sight_content": ""}}, {"title": "蛟河市白石山基督教会", "address": "302国道附近", "image": "", "rank": 14, "time": 2.0, "location": {"lat": 45.75877779746667, "lng": 122.5732323727896}, "feature": {"sight_features": "", "sight_content": ""}}, {"title": "牤牛河漂流", "address": "天岗镇红星水库", "image": "", "rank": 15, "time": 2, "location": {"lat": 43.98874288566514, "lng": 127.079055267151}, "feature": {"sight_features": "", "sight_content": ""}}, {"title": "雪花啤酒广场", "address": "乐迪动漫娱乐城旁", "image": "", "rank": 16, "time": 2, "location": {"lat": 43.73745372834116, "lng": 127.34527600203673}, "feature": {"sight_features": "", "sight_content": ""}}, {"title": "情人坪", "address": "吉林市蛟河市红叶谷景区内", "image": "", "rank": 17, "time": 2, "location": {"lat": 43.667178039932644, "lng": 127.04256137045212}, "feature": {"sight_features": "", "sight_content": ""}}, {"title": "报恩寺", "address": "吉林市蛟河市三零二国道", "image": "", "rank": 18, "time": 2, "location": {"lat": 43.731116071586435, "lng": 127.11081506506655}, "feature": {"sight_features": "", "sight_content": ""}}, {"title": "地藏殿", "address": "吉林市蛟河市三零二国道报恩寺内", "image": "", "rank": 19, "time": 2.5, "location": {"lat": 43.73135741564828, "lng": 127.11021098066193}, "feature": {"sight_features": "", "sight_content": ""}}, {"title": "革命烈士纪念碑", "address": "吉林省吉林市蛟河市迎宾大道烈士陵园革命烈士纪念碑", "image": "", "rank": 20, "time": 0.4, "location": {"lat": 43.728685880576755, "lng": 127.3584983791263}, "feature": {"sight_features": "", "sight_content": ""}}, {"title": "美其乐", "address": "蛟河市其他佳乐家超市一楼收银台对面", "image": "", "rank": 21, "time": 2, "location": {"lat": 43.73000387050733, "lng": 127.3514801867702}, "feature": {"sight_features": "", "sight_content": ""}}, {"title": "首钢游乐园", "address": "蛟河市其他首钢百家乐三楼", "image": "", "rank": 22, "time": 2, "location": {"lat": 43.73000387050733, "lng": 127.3514801867702}, "feature": {"sight_features": "", "sight_content": ""}}, {"title": "天北马鹿沟富荣生态农场", "address": "吉林省蛟河市天北镇马鹿沟村富荣生态农场", "image": "", "rank": 23, "time": 2, "location": {"lat": 44.01588373147801, "lng": 127.01022768736661}, "feature": {"sight_features": "", "sight_content": ""}}, {"title": "乌林朝鲜族友谊民俗村", "address": "吉林蛟河市乌林朝鲜族乡", "image": "", "rank": 24, "time": 2, "location": {"lat": 43.74872051566998, "lng": 127.423678952625}, "feature": {"sight_features": "", "sight_content": ""}}, {"title": "富强生态山庄", "address": "吉林市蛟河市白石山镇富强村唐家岗子屯", "image": "", "rank": 25, "time": 2, "location": {"lat": 43.63244254405137, "lng": 127.4615497405689}, "feature": {"sight_features": "", "sight_content": ""}}, {"title": "高丽度假村", "address": "吉林省吉林市蛟河市", "image": "", "rank": 26, "time": 2, "location": {"lat": 43.73000387050733, "lng": 127.3514801867702}, "feature": {"sight_features": "", "sight_content": ""}}, {"title": "蛟河市铁东基督教会", "address": "工农路附近", "image": "", "rank": 27, "time": 2.0, "location": {"lat": 38.42216268398484, "lng": 115.32654473093268}, "feature": {"sight_features": "", "sight_content": ""}}, {"title": "庆岭瀑布", "address": "吉林市蛟河市红叶谷景区庆岭风景区内", "image": "", "rank": 28, "time": 2, "location": {"lat": 43.731380116424994, "lng": 127.10843973868789}, "feature": {"sight_features": "", "sight_content": ""}}, {"title": "瑶池岛渡假村", "address": "杨木沟小学附近", "image": "", "rank": 29, "time": 2, "location": {"lat": 40.53477759676745, "lng": 119.13509994396352}, "feature": {"sight_features": "", "sight_content": ""}}, {"title": "蛟河市苏尔哈湖湾度假村", "address": "苏尔哈渔场", "image": "", "rank": 30, "time": 2.0, "location": {"lat": 43.5112940664699, "lng": 127.24410402238207}, "feature": {"sight_features": "", "sight_content": ""}}, {"title": "红叶谷中谷", "address": "吉林省吉林市蛟河市302国道行车40分钟", "image": "", "rank": 31, "time": 2, "location": {"lat": 43.6274999292388, "lng": 127.67880214341}, "feature": {"sight_features": "", "sight_content": ""}}, {"title": "铭山绿洲生态休闲旅游度假村", "address": "022乡道附近", "image": "", "rank": 32, "time": 2, "location": {"lat": 44.94424451484579, "lng": 124.49739371199831}, "feature": {"sight_features": "", "sight_content": ""}}, {"title": "浩洋温泉水上乐园", "address": "吉林市蛟河市迎宾大道东150米", "image": "", "rank": 33, "time": 2, "location": {"lat": 43.73860919812175, "lng": 127.34229987456011}, "feature": {"sight_features": "", "sight_content": ""}}, {"title": "蛟河市图书馆", "address": "站北街", "image": "", "rank": 34, "time": 1.5, "location": {"lat": 40.86830823738537, "lng": 122.7519487788223}, "feature": {"sight_features": "", "sight_content": ""}}, {"title": "红叶漂流", "address": "庆岭解放村旁", "image": "", "rank": 35, "time": 2, "location": {"lat": 40.218805626882975, "lng": 116.49165236451223}, "feature": {"sight_features": "", "sight_content": ""}}, {"title": "蛟龙温泉会馆", "address": "红星路", "image": "", "rank": 36, "time": 2, "location": {"lat": 38.06220757646981, "lng": 114.96435050498876}, "feature": {"sight_features": "", "sight_content": ""}}, {"title": "南山植物园", "address": "白林宾馆附近", "image": "", "rank": 37, "time": 2.5, "location": {"lat": 43.584996442916356, "lng": 127.56817549646622}, "feature": {"sight_features": "", "sight_content": ""}}, {"title": "天北庆丰漂流", "address": "天北庆丰水库下游", "image": "", "rank": 38, "time": 2, "location": {"lat": 28.144537247252593, "lng": 116.20775804342914}, "feature": {"sight_features": "", "sight_content": ""}}, {"title": "九月红农家乐", "address": "302国道", "image": "", "rank": 39, "time": 2, "location": {"lat": 45.75877779746667, "lng": 122.5732323727896}, "feature": {"sight_features": "", "sight_content": ""}}, {"title": "冰湖沟泉水漂流", "address": "天岗镇冰湖沟泉水漂流中心", "image": "", "rank": 40, "time": 2, "location": {"lat": 43.92391747640389, "lng": 126.97583469369611}, "feature": {"sight_features": "", "sight_content": ""}}, {"title": "糖果乐园", "address": "民主街道首钢商厦三楼", "image": "", "rank": 41, "time": 2, "location": {"lat": 43.7306039905157, "lng": 127.34444540360963}, "feature": {"sight_features": "", "sight_content": ""}}, {"title": "庆岭红叶滑雪场", "address": "庆岭镇解放村", "image": "", "rank": 42, "time": 2, "location": {"lat": 43.763295096963596, "lng": 127.0878845036017}, "feature": {"sight_features": "", "sight_content": ""}}, {"title": "吉林玉皇阁", "address": "吉林省蛟河市境内", "image": "", "rank": 43, "time": 2, "location": {"lat": 43.73000387050733, "lng": 127.3514801867702}, "feature": {"sight_features": "", "sight_content": ""}}, {"title": "南湖瀑布", "address": "吉林省蛟河市庆岭镇", "image": "", "rank": 44, "time": 2, "location": {"lat": 43.80568101691423, "lng": 126.95651511736435}, "feature": {"sight_features": "", "sight_content": ""}}, {"title": "庆岭活鱼街", "address": "吉林省蛟河市庆岭镇302国道", "image": "", "rank": 45, "time": 2, "location": {"lat": 43.76390557008223, "lng": 127.094193990402}, "feature": {"sight_features": "", "sight_content": ""}}, {"title": "土门岭", "address": "吉林市-蛟河市-三零二国道", "image": "", "rank": 46, "time": 2, "location": {"lat": 43.731116071586435, "lng": 127.11081506506655}, "feature": {"sight_features": "", "sight_content": ""}}, {"title": "橡胶坝小宝贝娱乐园", "address": "吉林市-蛟河市-新华大街30-4号", "image": "", "rank": 47, "time": 2, "location": {"lat": 43.72037540990787, "lng": 127.35085334918534}, "feature": {"sight_features": "", "sight_content": ""}}, {"title": "老爷岭", "address": "吉林市蛟河市西南十三公里处", "image": "", "rank": 48, "time": 2, "location": {"lat": 43.64525766077739, "lng": 127.3514801867702}, "feature": {"sight_features": "", "sight_content": ""}}]}