{"cityName": "蕉岭", "days": 2, "cityImage": "", "spots": [{"title": "镇山国家森林公园", "address": "梅州市蕉岭县蕉城镇205国道镇山公园", "image": "", "rank": 1, "time": 2, "location": {"lat": 24.66854197395175, "lng": 116.1772568604754}, "feature": {"sight_features": "", "sight_content": ""}}, {"title": "白马村上合花海", "address": "广东省梅州市蕉岭县白马村", "image": "", "rank": 2, "time": 2, "location": {"lat": 24.696964516968837, "lng": 116.1599405853858}, "feature": {"sight_features": "", "sight_content": ""}}, {"title": "锡林纪念公园", "address": "锡林良娣大道与043县道交叉口旁", "image": "", "rank": 3, "time": 2, "location": {"lat": 24.581611750313833, "lng": 116.28888796655269}, "feature": {"sight_features": "", "sight_content": ""}}, {"title": "西堤公园", "address": "梅州市蕉岭县东山路89号", "image": "", "rank": 4, "time": 2, "location": {"lat": 24.652519518403494, "lng": 116.17566419624744}, "feature": {"sight_features": "", "sight_content": ""}}, {"title": "蕉岭县长潭旅游区", "address": "蕉岭县长潭镇长潭码头", "image": "", "rank": 5, "time": 2, "location": {"lat": 24.718304076697837, "lng": 116.1295489076703}, "feature": {"sight_features": "", "sight_content": ""}}, {"title": "广东省蕉岭华侨农场", "address": "蕉华管理区", "image": "", "rank": 6, "time": 2, "location": {"lat": 24.5930867646389, "lng": 116.15729202052273}, "feature": {"sight_features": "", "sight_content": ""}}, {"title": "零展周边", "address": "新东北路173号附近", "image": "", "rank": 7, "time": null, "location": {"lat": 37.584492653312225, "lng": 112.78727738740753}, "feature": {"sight_features": "", "sight_content": ""}}, {"title": "计划生育服站", "address": "城南朝阳路11号", "image": "", "rank": 8, "time": 2, "location": {"lat": 33.47875545930031, "lng": 119.16196444307023}, "feature": {"sight_features": "", "sight_content": ""}}, {"title": "罗福星百年故居", "address": "蕉岭县蓝坊镇大地村", "image": "", "rank": 9, "time": 2, "location": {"lat": 24.593309105792326, "lng": 116.23888705569682}, "feature": {"sight_features": "", "sight_content": ""}}, {"title": "谢晋元纪念馆", "address": "谢晋元纪念馆附近", "image": "", "rank": 10, "time": 2, "location": {"lat": 24.564064213365178, "lng": 116.12183525617397}, "feature": {"sight_features": "", "sight_content": ""}}, {"title": "吴嵩喜纪念公园", "address": "桂岭大道南与127乡道交叉口东100米", "image": "", "rank": 11, "time": 2, "location": {"lat": 24.651536389993556, "lng": 116.17733139917169}, "feature": {"sight_features": "", "sight_content": ""}}, {"title": "澳洲缩影公园", "address": "广东省梅州市蕉岭县长潭镇蕉岭长潭绿园", "image": "", "rank": 12, "time": 2, "location": {"lat": 24.690555823683557, "lng": 116.15477769484184}, "feature": {"sight_features": "", "sight_content": ""}}, {"title": "林洪公祖祠", "address": "205国道附近", "image": "", "rank": 13, "time": 2, "location": {"lat": 37.34066223973322, "lng": 118.07089300716441}, "feature": {"sight_features": "", "sight_content": ""}}, {"title": "飞来庵", "address": "962县道附近", "image": "", "rank": 14, "time": 2, "location": {"lat": 24.63361028794265, "lng": 116.1638251584437}, "feature": {"sight_features": "", "sight_content": ""}}, {"title": "徐氏宗祠", "address": "129乡道附近", "image": "", "rank": 15, "time": 2, "location": {"lat": 31.37019131410693, "lng": 118.64916262666347}, "feature": {"sight_features": "", "sight_content": ""}}, {"title": "秀鯍山庄", "address": "117乡道附近", "image": "", "rank": 16, "time": 2, "location": {"lat": 39.76776996479397, "lng": 119.28284943171745}, "feature": {"sight_features": "", "sight_content": ""}}, {"title": "天主堂(安宁街)", "address": "蕉城镇安宁街5-3", "image": "", "rank": 17, "time": 2, "location": {"lat": 24.662216380619927, "lng": 116.1783460873466}, "feature": {"sight_features": "", "sight_content": ""}}, {"title": "华侨影剧院", "address": "广东省梅州市蕉岭县新铺镇镇郊法刚路新铺文化广场", "image": "", "rank": 18, "time": 2, "location": {"lat": 24.5211717092464, "lng": 116.1413603665966}, "feature": {"sight_features": "", "sight_content": ""}}, {"title": "广宁碧翠湖宝锭山(财神山)", "address": "广东省广宁县南街镇 526300", "image": "", "rank": 19, "time": 2.0, "location": {"lat": 23.649613531435875, "lng": 112.4689313193188}, "feature": {"sight_features": "", "sight_content": ""}}, {"title": "国英园", "address": "广东省梅州市蕉岭县蕉城镇桃园东路碧翠园附近", "image": "", "rank": 20, "time": 2, "location": {"lat": 24.65617610876847, "lng": 116.16776608400282}, "feature": {"sight_features": "", "sight_content": ""}}, {"title": "七圣宫", "address": "梅州市蕉岭县", "image": "", "rank": 21, "time": 2, "location": {"lat": 24.664992548661576, "lng": 116.17743924793456}, "feature": {"sight_features": "", "sight_content": ""}}, {"title": "贝之乐儿童乐园", "address": "蕉城镇上城喜多多超市二楼", "image": "", "rank": 22, "time": 2, "location": {"lat": 30.248398420425882, "lng": 120.17557880007278}, "feature": {"sight_features": "", "sight_content": ""}}, {"title": "湿地公园", "address": "蕉城镇蕉岭碧桂园房地产开发有限公司逢甲大道", "image": "", "rank": 23, "time": 2, "location": {"lat": 24.672167246156988, "lng": 116.16632013282731}, "feature": {"sight_features": "", "sight_content": ""}}, {"title": "环保园", "address": "逢甲大道西50米", "image": "", "rank": 24, "time": 1.0, "location": {"lat": 24.672167246156988, "lng": 116.16587098007247}, "feature": {"sight_features": "", "sight_content": ""}}, {"title": "成桐公园", "address": "环城路与逢甲大道交叉口西北100米", "image": "", "rank": 25, "time": 2, "location": {"lat": 24.67010946366913, "lng": 116.17540055436001}, "feature": {"sight_features": "", "sight_content": ""}}, {"title": "蕉岭县佛教居士林", "address": "长兴路47号", "image": "", "rank": 26, "time": 2, "location": {"lat": 31.255639911021813, "lng": 121.46782012076599}, "feature": {"sight_features": "", "sight_content": ""}}, {"title": "儿童乐园", "address": "广东省梅州市蕉岭县新铺镇镇郊新东路新铺文化广场附近", "image": "", "rank": 27, "time": 2, "location": {"lat": 24.52269211107806, "lng": 116.14112025557286}, "feature": {"sight_features": "", "sight_content": ""}}, {"title": "慈渡寺", "address": "186乡道西50米", "image": "", "rank": 28, "time": 2, "location": {"lat": 22.60919886263197, "lng": 114.24644262262933}, "feature": {"sight_features": "", "sight_content": ""}}, {"title": "古塔文池寺", "address": "205国道西200米", "image": "", "rank": 29, "time": 2, "location": {"lat": 37.34066223973322, "lng": 118.06909639614446}, "feature": {"sight_features": "", "sight_content": ""}}, {"title": "太行山森林公园", "address": "广东省梅州市蕉岭县蕉城镇高岭上长深高速公路东400米", "image": "", "rank": 30, "time": 4.0, "location": {"lat": 24.341640709151594, "lng": 116.10060869492953}, "feature": {"sight_features": "", "sight_content": ""}}, {"title": "小天地亲子乐园", "address": "广东省梅州市蕉岭县华侨农场晋元大道华侨新村", "image": "", "rank": 31, "time": 2, "location": {"lat": 24.605098346724926, "lng": 116.15994915072882}, "feature": {"sight_features": "", "sight_content": ""}}, {"title": "关爷宫", "address": "广东省梅州市蕉岭县", "image": "", "rank": 32, "time": 2, "location": {"lat": 24.664992548661576, "lng": 116.17743924793456}, "feature": {"sight_features": "", "sight_content": ""}}, {"title": "润富广场", "address": "梅州市蕉岭县二零五国道", "image": "", "rank": 33, "time": 2, "location": {"lat": 24.462182901352655, "lng": 116.18142098710622}, "feature": {"sight_features": "", "sight_content": ""}}, {"title": "长潭澳洲山庄旅游度假村", "address": "广东省梅州市蕉岭县X046", "image": "", "rank": 34, "time": 2, "location": {"lat": 24.664992548661576, "lng": 116.17743924793456}, "feature": {"sight_features": "", "sight_content": ""}}, {"title": "彭祖祠", "address": "306乡道附近", "image": "", "rank": 35, "time": 2, "location": {"lat": 33.08316994588349, "lng": 118.46929958558924}, "feature": {"sight_features": "", "sight_content": ""}}, {"title": "龙门广场", "address": "梅州市蕉岭县环东路2号", "image": "", "rank": 36, "time": 2, "location": {"lat": 24.665908059222275, "lng": 116.18052555617417}, "feature": {"sight_features": "", "sight_content": ""}}, {"title": "涂氏宗祠", "address": "046县道附近", "image": "", "rank": 37, "time": 2, "location": {"lat": 31.13979744346422, "lng": 118.35186886728903}, "feature": {"sight_features": "", "sight_content": ""}}, {"title": "关帝祠", "address": "306乡道彭祖祠附近", "image": "", "rank": 38, "time": 2, "location": {"lat": 24.42542221480111, "lng": 116.14978491281903}, "feature": {"sight_features": "", "sight_content": ""}}, {"title": "台湾度假村", "address": "长潭大道4号", "image": "", "rank": 39, "time": 2, "location": {"lat": 24.686597179959175, "lng": 116.15488638980851}, "feature": {"sight_features": "", "sight_content": ""}}, {"title": "澳洲文物展览馆", "address": "澳洲山庄附近", "image": "", "rank": 40, "time": 2, "location": {"lat": 22.248099085154177, "lng": 113.56232150146954}, "feature": {"sight_features": "", "sight_content": ""}}, {"title": "法刚博物馆", "address": "环城路", "image": "", "rank": 41, "time": 2, "location": {"lat": 37.35144421170158, "lng": 111.19625655224671}, "feature": {"sight_features": "", "sight_content": ""}}, {"title": "黄桂清图书馆", "address": "环城路", "image": "", "rank": 42, "time": 2, "location": {"lat": 37.35144421170158, "lng": 111.19625655224671}, "feature": {"sight_features": "", "sight_content": ""}}, {"title": "丘逢甲陈列室", "address": "石伯公路", "image": "", "rank": 43, "time": 2, "location": {"lat": 24.667562601324338, "lng": 116.18007314167204}, "feature": {"sight_features": "", "sight_content": ""}}, {"title": "吴郁青科技馆", "address": "蕉城镇石伯公路", "image": "", "rank": 44, "time": 2, "location": {"lat": 24.667562601324338, "lng": 116.18007314167204}, "feature": {"sight_features": "", "sight_content": ""}}, {"title": "欣庄园", "address": "蕉东台公路与046县道交叉口西200米", "image": "", "rank": 45, "time": 2, "location": {"lat": 24.65640700802898, "lng": 116.14174058697984}, "feature": {"sight_features": "", "sight_content": ""}}, {"title": "蕉岭润丰生态农场", "address": "长潭镇新泉村淋泉坝", "image": "", "rank": 46, "time": 2, "location": {"lat": 24.686214626571335, "lng": 116.16563914448822}, "feature": {"sight_features": "", "sight_content": ""}}, {"title": "蕉岭客家红文创体验中心", "address": "九岭村吉塘三路(九岭荷花基地)", "image": "", "rank": 47, "time": 2, "location": {"lat": 24.573245753226853, "lng": 116.1314996984575}, "feature": {"sight_features": "", "sight_content": ""}}, {"title": "皇佑笔保护区", "address": "广东省蕉岭县东北部山区", "image": "", "rank": 48, "time": 2, "location": {"lat": 24.664992548661576, "lng": 116.17743924793456}, "feature": {"sight_features": "", "sight_content": ""}}]}