{"cityName": "胶州", "days": 2, "cityImage": "", "spots": [{"title": "少海新城", "address": "青岛市胶州市香港路与正阳路交界处", "image": "", "rank": 1, "time": 2.0, "location": {"lat": 36.25658132769581, "lng": 120.00465106826216}, "feature": {"sight_features": "", "sight_content": ""}}, {"title": "艾山", "address": "青岛市胶州市洋河镇", "image": "", "rank": 2, "time": 3.5, "location": {"lat": 36.11301643253481, "lng": 119.94587357781145}, "feature": {"sight_features": "", "sight_content": ""}}, {"title": "城隍庙", "address": "青岛市胶州市兰州东路95号", "image": "", "rank": 3, "time": 1.5, "location": {"lat": 36.291253121568126, "lng": 120.0182810137481}, "feature": {"sight_features": "", "sight_content": ""}}, {"title": "三里河公园", "address": "青岛市胶州市青岛路厦门路2号", "image": "", "rank": 4, "time": 2.0, "location": {"lat": 36.265501770615046, "lng": 120.04043412592966}, "feature": {"sight_features": "", "sight_content": ""}}, {"title": "高凤翰纪念馆", "address": "青岛市胶州市澳门路西端", "image": "", "rank": 5, "time": 0.75, "location": {"lat": 36.26146096849694, "lng": 120.03291354274252}, "feature": {"sight_features": "", "sight_content": ""}}, {"title": "胶州公园", "address": "青岛市胶州市郑州路郑州东路128号", "image": "", "rank": 6, "time": 1.0, "location": {"lat": 36.29634985884346, "lng": 120.03703520737155}, "feature": {"sight_features": "", "sight_content": ""}}, {"title": "少海湿地公园", "address": "青岛市胶州市胶州市397省道", "image": "", "rank": 7, "time": 2, "location": {"lat": 36.094810106470405, "lng": 119.8229400789064}, "feature": {"sight_features": "", "sight_content": ""}}, {"title": "胶州市博物馆", "address": "青岛市胶州市澳门路与广州路交叉口东北侧", "image": "", "rank": 8, "time": 1.0, "location": {"lat": 36.27034908804922, "lng": 120.03953537126692}, "feature": {"sight_features": "", "sight_content": ""}}, {"title": "玉皇大帝庙", "address": "青岛市胶州市胶北镇玉皇庙村", "image": "", "rank": 9, "time": 0.75, "location": {"lat": 36.387291820507876, "lng": 119.95840627545596}, "feature": {"sight_features": "", "sight_content": ""}}, {"title": "胶州革命烈士陵园", "address": "青岛市胶州市福州北路32号", "image": "", "rank": 10, "time": 0.75, "location": {"lat": 36.29546018662453, "lng": 120.02928615455083}, "feature": {"sight_features": "", "sight_content": ""}}, {"title": "大沽河博物馆", "address": "青岛市胶州市少海新城", "image": "", "rank": 11, "time": 1.0, "location": {"lat": 36.249774446546866, "lng": 120.08658956608342}, "feature": {"sight_features": "", "sight_content": ""}}, {"title": "九兴博物馆", "address": "青岛市胶州市胶州湾工业园二区株洲路", "image": "", "rank": 12, "time": 1.5, "location": {"lat": 36.28412713837355, "lng": 120.07595338360787}, "feature": {"sight_features": "", "sight_content": ""}}, {"title": "青岛宝龙美术馆", "address": "青岛市胶州市少海北路10号（大沽河畔）", "image": "", "rank": 13, "time": 1.0, "location": {"lat": 36.26459626393565, "lng": 120.09871324816139}, "feature": {"sight_features": "", "sight_content": ""}}, {"title": "幸福源薰衣草花田", "address": "青岛市胶州市三里河办事处卜落林村", "image": "", "rank": 14, "time": 2, "location": {"lat": 36.23071588523424, "lng": 119.98312097676535}, "feature": {"sight_features": "", "sight_content": ""}}, {"title": "艾山星空主题公园", "address": "青岛胶州市洋河镇艾山风景区", "image": "", "rank": 15, "time": 2.0, "location": {"lat": 36.124941825730694, "lng": 119.94860706219016}, "feature": {"sight_features": "", "sight_content": ""}}, {"title": "慈云寺", "address": "青岛市胶州市胶州市397省道", "image": "", "rank": 16, "time": 1.5, "location": {"lat": 36.094810106470405, "lng": 119.8229400789064}, "feature": {"sight_features": "", "sight_content": ""}}, {"title": "西石", "address": "山东省青岛市胶州市洋河镇张应镇、董城乡交汇处艾山风景名胜区内", "image": "", "rank": 17, "time": 2, "location": {"lat": 36.12205190908827, "lng": 119.93660609493298}, "feature": {"sight_features": "", "sight_content": ""}}, {"title": "东石", "address": "山东省青岛市胶州市洋河镇张应镇、董城乡交汇处艾山风景名胜区内", "image": "", "rank": 18, "time": 2, "location": {"lat": 36.12205190908827, "lng": 119.93660609493298}, "feature": {"sight_features": "", "sight_content": ""}}, {"title": "黄埠岭", "address": "山东省青岛市胶州市217省道", "image": "", "rank": 19, "time": 2, "location": {"lat": 36.165745548809156, "lng": 119.84019643792251}, "feature": {"sight_features": "", "sight_content": ""}}, {"title": "莲花山滑雪场", "address": "青岛市胶州市洋河镇东石风景区南500米", "image": "", "rank": 20, "time": 2, "location": {"lat": 36.12076114200608, "lng": 119.97090078792982}, "feature": {"sight_features": "", "sight_content": ""}}, {"title": "原生态葡萄采摘", "address": "胶北街道办事处刁家屯村(马铁路)", "image": "", "rank": 21, "time": 2, "location": {"lat": 36.30391861231477, "lng": 119.93669575839915}, "feature": {"sight_features": "", "sight_content": ""}}, {"title": "福润泽农业大沽河农场", "address": "移河路", "image": "", "rank": 22, "time": 2, "location": {"lat": 36.41562519989451, "lng": 120.14986294715386}, "feature": {"sight_features": "", "sight_content": ""}}, {"title": "收藏与鉴赏家协会展览馆", "address": "兰州东路113号", "image": "", "rank": 23, "time": 2, "location": {"lat": 35.727867675864246, "lng": 107.67370159812567}, "feature": {"sight_features": "", "sight_content": ""}}, {"title": "可可小爱儿童剧社", "address": "常州路胶州人民会堂", "image": "", "rank": 24, "time": 2, "location": {"lat": 36.29306520563385, "lng": 120.02187800867115}, "feature": {"sight_features": "", "sight_content": ""}}, {"title": "艾山必捷滑雪场(艾山店)", "address": "洋河镇艾山风景区东石南侧1公里", "image": "", "rank": 25, "time": 2, "location": {"lat": 36.11347223507945, "lng": 119.97090078792982}, "feature": {"sight_features": "", "sight_content": ""}}, {"title": "尚教乐学少儿科技馆", "address": "联谊大街南150米", "image": "", "rank": 26, "time": 2, "location": {"lat": 36.35655920152093, "lng": 120.16903829334957}, "feature": {"sight_features": "", "sight_content": ""}}, {"title": "胶州草莓大棚", "address": "草莓采摘大棚", "image": "", "rank": 27, "time": 2, "location": {"lat": 40.194180748499456, "lng": 116.52076336669933}, "feature": {"sight_features": "", "sight_content": ""}}, {"title": "青岛远东马术俱乐部", "address": "李哥庄镇大沽河附近", "image": "", "rank": 28, "time": 0.75, "location": {"lat": 36.401395461552255, "lng": 120.12730941618953}, "feature": {"sight_features": "", "sight_content": ""}}, {"title": "可花葡萄采摘园", "address": "胶北镇泉子崖村", "image": "", "rank": 29, "time": 2, "location": {"lat": 36.38050131871693, "lng": 119.92262740928196}, "feature": {"sight_features": "", "sight_content": ""}}, {"title": "庸生祠", "address": "山东省胶州市砚水湖之西 266300", "image": "", "rank": 30, "time": 2, "location": {"lat": 36.27034908804922, "lng": 120.03953537126692}, "feature": {"sight_features": "", "sight_content": ""}}, {"title": "世外桃园度假村", "address": "青岛近郊胶州市营海镇", "image": "", "rank": 31, "time": 2, "location": {"lat": 36.22425838379048, "lng": 120.08615888428632}, "feature": {"sight_features": "", "sight_content": ""}}, {"title": "洋河影剧院", "address": "冷家村胶州市第五人民医院附近", "image": "", "rank": 32, "time": 1.5, "location": {"lat": 36.14118903835874, "lng": 119.91962550942027}, "feature": {"sight_features": "", "sight_content": ""}}, {"title": "胶州市人民剧场", "address": "常州路15", "image": "", "rank": 33, "time": 2, "location": {"lat": 33.30549776936942, "lng": 113.53267333347704}, "feature": {"sight_features": "", "sight_content": ""}}, {"title": "群众文化广场", "address": "山东省青岛市胶州市中云街道北辛置幼儿园北150米", "image": "", "rank": 34, "time": 0.4, "location": {"lat": 36.28490780126812, "lng": 119.98744558567691}, "feature": {"sight_features": "", "sight_content": ""}}, {"title": "碰碰车王国", "address": "山东省青岛市胶州市湖州路161号", "image": "", "rank": 35, "time": 2, "location": {"lat": 36.29554215106915, "lng": 120.02460689642056}, "feature": {"sight_features": "", "sight_content": ""}}, {"title": "青山高尔夫练习场", "address": "扬州东路256号", "image": "", "rank": 36, "time": 2, "location": {"lat": 26.040581644339483, "lng": 119.28731309530399}, "feature": {"sight_features": "", "sight_content": ""}}, {"title": "青岛电视台小白帆艺术团", "address": "苏州路159附近", "image": "", "rank": 37, "time": 0.75, "location": {"lat": 36.29747978743737, "lng": 120.02060627756067}, "feature": {"sight_features": "", "sight_content": ""}}, {"title": "海湾天泰金融广场", "address": "青岛胶州市府前澳门路333号", "image": "", "rank": 38, "time": 2, "location": {"lat": 36.26249103549922, "lng": 120.04334880394855}, "feature": {"sight_features": "", "sight_content": ""}}, {"title": "胶州站-站前广场", "address": "站西街1附近", "image": "", "rank": 39, "time": 2, "location": {"lat": 39.911788394349536, "lng": 116.43296136740756}, "feature": {"sight_features": "", "sight_content": ""}}, {"title": "太平寺", "address": "市胶东镇大店村", "image": "", "rank": 40, "time": 1.0, "location": {"lat": 36.39635155961543, "lng": 120.11933738597513}, "feature": {"sight_features": "", "sight_content": ""}}, {"title": "麻湾渔乐休闲公园", "address": "渔乐湖小区南侧", "image": "", "rank": 41, "time": 2, "location": {"lat": 23.097023450044553, "lng": 113.2646901365251}, "feature": {"sight_features": "", "sight_content": ""}}, {"title": "小蚂蚁极限运动乐园", "address": "青岛市胶州市苏州路118号新源购物广场F1", "image": "", "rank": 42, "time": 2, "location": {"lat": 36.29620550778544, "lng": 120.02096479128971}, "feature": {"sight_features": "", "sight_content": ""}}, {"title": "中国·青岛宝龙房车公园", "address": "青岛市胶州市青岛胶州市少海北路4号", "image": "", "rank": 43, "time": 2, "location": {"lat": 36.27650491530174, "lng": 120.11603003798578}, "feature": {"sight_features": "", "sight_content": ""}}, {"title": "胶州朝鲜族基督教会", "address": "温州路190", "image": "", "rank": 44, "time": 2, "location": {"lat": 30.906922863767267, "lng": 120.65732598659272}, "feature": {"sight_features": "", "sight_content": ""}}, {"title": "胶州湾基督教会", "address": "广州南路", "image": "", "rank": 45, "time": 2, "location": {"lat": 33.592182973671115, "lng": 119.12138853833733}, "feature": {"sight_features": "", "sight_content": ""}}, {"title": "青岛自然奇石博物馆", "address": "青岛市胶州市s395", "image": "", "rank": 46, "time": 0.75, "location": {"lat": 36.27034908804922, "lng": 120.03953537126692}, "feature": {"sight_features": "", "sight_content": ""}}, {"title": "胶东食品药品文化公园", "address": "山东省青岛市胶州市胶东镇渔乐湖小区南侧", "image": "", "rank": 47, "time": 2, "location": {"lat": 36.39570959997508, "lng": 120.11766414553898}, "feature": {"sight_features": "", "sight_content": ""}}, {"title": "烈士纪念馆", "address": "阜安街道福州北路32号", "image": "", "rank": 48, "time": 2, "location": {"lat": 36.29546018662453, "lng": 120.02928615455083}, "feature": {"sight_features": "", "sight_content": ""}}, {"title": "汇英生态园", "address": "204国道北50米", "image": "", "rank": 49, "time": 2, "location": {"lat": 31.67457964218071, "lng": 120.84129504740726}, "feature": {"sight_features": "", "sight_content": ""}}, {"title": "胶州中央公园", "address": "福州南路华仁烟酒向西40米", "image": "", "rank": 50, "time": 2.5, "location": {"lat": 36.29034622725885, "lng": 120.03052401954358}, "feature": {"sight_features": "", "sight_content": ""}}, {"title": "富民广场", "address": "青岛市胶州市福州南路15号", "image": "", "rank": 51, "time": null, "location": {"lat": 36.29096169982306, "lng": 120.0312925434879}, "feature": {"sight_features": "", "sight_content": ""}}, {"title": "小木屋养生会所", "address": "华鲁新制衣公司旁", "image": "", "rank": 52, "time": 2, "location": {"lat": 23.372444039721564, "lng": 116.72510117310289}, "feature": {"sight_features": "", "sight_content": ""}}, {"title": "文化广场", "address": "诚大路与397省道交叉口西100米", "image": "", "rank": 53, "time": 1.5, "location": {"lat": 36.110613570220316, "lng": 119.84639121021088}, "feature": {"sight_features": "", "sight_content": ""}}, {"title": "基督教胶州市朝鲜族活动点", "address": "温州路190号", "image": "", "rank": 54, "time": 2, "location": {"lat": 30.906922863767267, "lng": 120.65732598659272}, "feature": {"sight_features": "", "sight_content": ""}}, {"title": "刘公馆发艺", "address": "山东省青岛市胶州市常州路473号", "image": "", "rank": 55, "time": 2, "location": {"lat": 36.274939550605595, "lng": 120.02560051394175}, "feature": {"sight_features": "", "sight_content": ""}}, {"title": "鑫桃花源农家乐", "address": "山东省青岛市胶州市香港路", "image": "", "rank": 56, "time": 2, "location": {"lat": 36.25658132769581, "lng": 120.00465106826216}, "feature": {"sight_features": "", "sight_content": ""}}, {"title": "闳皓堂博物馆", "address": "青岛市胶州市板桥镇内", "image": "", "rank": 57, "time": 2, "location": {"lat": 36.25590791485889, "lng": 120.08534020816997}, "feature": {"sight_features": "", "sight_content": ""}}, {"title": "艾山风景名胜区-青岛城市星光公...", "address": "洋河镇艾山风景区", "image": "", "rank": 58, "time": 2, "location": {"lat": 36.124941825730694, "lng": 119.94860706219016}, "feature": {"sight_features": "", "sight_content": ""}}, {"title": "阿弥陀佛", "address": "山东省青岛市胶州市广州南路市中小区(新华书店西100米)", "image": "", "rank": 59, "time": 2, "location": {"lat": 36.286374530376115, "lng": 120.01077953392593}, "feature": {"sight_features": "", "sight_content": ""}}, {"title": "普门阁", "address": "山东省青岛市胶州市阜安街道福州北路周易应用研究院附近", "image": "", "rank": 60, "time": 2, "location": {"lat": 36.30567877772282, "lng": 120.02584362954836}, "feature": {"sight_features": "", "sight_content": ""}}]}