{"cityName": "嘉善", "days": 2, "cityImage": "", "spots": [{"title": "西塘风景区", "address": "嘉兴市嘉善县西塘镇南苑路258号", "image": "", "rank": 1, "time": 3.0, "location": {"lat": 30.945875087786536, "lng": 120.89521021853932}, "feature": {"sight_features": "特色1 行走于环秀桥、石皮弄，感受古镇风情。 特色2 在茶楼里品茶，或坐船赏古镇夜景，品味水乡慢生活。 特色3 起个大早，用相机镜头捕捉古镇居民的生活点滴。", "sight_content": "西塘——生活着的千年古镇，世界历史文化遗产预备名单，中国首批历史文化名镇，国家AAAAA级旅游风景区，水乡魅力影视基地。西塘历史悠久，人文资源丰富，自然风景优美，是古代吴越文化的发祥地之一。\n西塘风景秀丽，人才辈出，文化底蕴深厚。据统计，西塘历史上这里曾出过进士十九人，举人三十一人。周鼎在《萍川十景诗》中描绘了西塘许多的景致，如西塘晓市、北翠春耕、南泓夜泛、环秀断虹、雁塔湾头等，揭示了古镇西塘当时的生活场景，展示了西塘一幅幅美丽的画卷。\n西塘素以桥多、弄多、廊棚多而闻名。西塘民风淳厚，橹声悠扬，到处洋溢着中国古代传统文化特有的人文积淀。西塘古镇是专家们研究“江南水乡民俗文化”的圣地；艺术家们描绘“江南水乡民俗文化”的基地；游客们品味“江南水乡民俗文化”的净地。\n西塘人有闲情意志，喜欢养鸟种花，有“杜鹃之乡”的美誉。从清代中期已有人开始种养，杜鹃花生性娇嫩，要细心栽培，种养杜鹃也是修身养性的行为。\n西街：西塘东西走向的主要街道，分上下两段，东为上，西为下，所以有上西街和下西街之分。西街有着水乡极为典型的街道格局，它的最小宽度仅供农民挑担换肩，即一根扁担的宽度。\n塘东街：是民国至解放时期西塘最为繁华的街道之一，塘东街上还有好多酒楼，以前有“借问酒家何处有，胥塘河边处处楼”的说法。说起这条商业街不得不说说西塘的商人。有位来西塘的作者说：西塘是儒商文化与平民文化的交会点。\n烧香港：烧香港不是要把香港烧了的意思，而是以前河道两岸庙宇众多，善男信女们乘着小船来此烧香，故名烧香港。西塘烧香港的景点有倪天增祖居纪念馆、五福桥、圣堂、明清木雕馆等。\n塔湾街：塔湾街因西面原有一寺庙名雁塔禅院，又地处市河转弯处而得名。这一带在明时酒店云集，明代有一诗人周鼎写了一首《西塘晓市》来描写这里的繁华：旭日满晴川，翩翩贾客船。\n西塘临河而建的沿街廊棚最为引人，这里的街道临河而建，商铺的生意就在河边做成。往昔，水乡农家的出行以河为道，以舟代步，许多交易只能在船上岸边进行，为此，一种连接河道与店铺又可遮阳避雨的特殊建筑———廊棚便应运而生，并代代传承，相沿成习。实用的廊棚是水乡特有的建筑，西塘至今保存着1300多米长的廊棚已变成当代人赏古、探幽的休闲一餐。\n西塘是个平民化的小镇，所有一切都如此朴素，没有周庄的繁华，没有南浔的富甲之态，没有浓厚的商业氛围，但是西塘的独特魅力令留宿旅者陶醉！西塘是古典的，也是现代的。"}}, {"title": "烟雨长廊", "address": "嘉兴市嘉善县西塘镇南苑路258号西塘古镇景区内", "image": "", "rank": 2, "time": 2.0, "location": {"lat": 30.949085024886582, "lng": 120.89439139240594}, "feature": {"sight_features": "", "sight_content": ""}}, {"title": "送子来凤桥", "address": "嘉兴市嘉善县", "image": "", "rank": 3, "time": 0.15000000000000002, "location": {"lat": 30.83712219382042, "lng": 120.93251060584033}, "feature": {"sight_features": "", "sight_content": ""}}, {"title": "西园", "address": "嘉兴市嘉善县西塘古镇苏家弄", "image": "", "rank": 4, "time": 1.5, "location": {"lat": 30.949521246978268, "lng": 120.8991014273813}, "feature": {"sight_features": "", "sight_content": ""}}, {"title": "烧香港", "address": "嘉兴市嘉善县西塘镇上西街119号", "image": "", "rank": 5, "time": 0.3, "location": {"lat": 30.95054206923754, "lng": 120.89974770070418}, "feature": {"sight_features": "", "sight_content": ""}}, {"title": "石皮弄", "address": "嘉兴市嘉善县西塘古镇西街", "image": "", "rank": 6, "time": 0.2, "location": {"lat": 30.94985173312398, "lng": 120.90040291396349}, "feature": {"sight_features": "", "sight_content": ""}}, {"title": "云澜湾温泉", "address": "嘉兴市嘉善县大云温泉大道883号，云澜湾4A景区内", "image": "", "rank": 7, "time": 2, "location": {"lat": 30.81624384818085, "lng": 120.98718956392717}, "feature": {"sight_features": "特色1 云澜泉水是长期地质环境中形成的天然水资源。 特色2 云澜泉水清澈透明，无色、无味、无污染，淡雅可口。 特色3 云澜湾温泉，更适合女人的女人温泉。", "sight_content": "云澜湾温泉，是浙江省首批特色小镇大云甜蜜特色小镇的核心内容，是中国·大云13平方公里省级旅游度假区的核心内容，更是云澜湾4A景区的核心内容；是以云澜湾为核心，配套泓庐SPA精品酒店、四季花海乐园、樱花风情街、希尔顿五星酒店、斯维登度假酒店公寓、国际宴会中心、一站式蜜月基地等八大项目，是集温泉养生、休闲度假、购物玩乐、商务会议、餐饮住宿为一体的一站式新型“玩美”度假胜地一站式旅游目的地。\n云澜湾温泉，配套齐全：\n旅游度假休闲多样化，如：四季花海乐园、樱花女人街、户外拓展、一站式蜜月基地、中国青少年拓展基地、中医养生基地等等；\n度假酒店选择空间大，如：泓庐SPA精品酒店、希尔顿五星度假酒店、云澜湾温泉度假酒店、斯维登度假酒店公寓等；\n商务功能配套齐全，如：希尔顿·国际宴会中心、多元餐饮等，提供各项配套服务；\n云澜湾温泉，是集温泉养生、休闲度假、购物玩乐、商务会议、餐饮住宿为一体的一站式新型“玩美”度假胜地。\n云澜湾温泉，源自地底五亿年奥陶岩层，泡出嫩滑肌肤；\n云澜湾温泉，源自地底5亿年前奥陶岩层，富含多种对人体有益的矿物质微量元素，水质嫩滑，具有美肤、美容、养颜等功效，“泡出嫩滑肌肤”备受女性游客青睐，更适合女人的女人温泉！\n云澜湾温泉，是杭嘉湖平原地区第一口真温泉！也是国内罕见的3A级温泉之一；2014年4月，浙江省国土资源厅颁发的矿产证上注明，云澜湾温泉出地底五亿年前奥陶系岩层，属于国内罕见的天然偏硅酸·锂温泉，经过国家权威机构检测认证，素有“美人汤”、“神经镇痛剂”之美誉。\n云澜湾温泉，更适合女人的女人温泉；\n云澜湾温泉，“三星九区六十汤”，满足游客“吃喝玩乐购”一站式需求！美容美肤、健康养生、专属关爱、精神分享等“美丽服务计划”，让您身心全享，泡出更美丽的自己！双莲温泉，“游、购、娱、住”旅游配套齐全，是专注女人的女人温泉！\n云澜湾温泉——更适合女人的女人温泉！项目处处彰显对女人的关爱，并将围绕女性需求，打造更适合女人旅游度假的旅游目的地。\n泡云澜湾温泉，游四季花海乐园 “春随芳草，夏梦雨，秋思明月，冬听雪”在四季花海乐园里宠爱你的女人。乐园有百万郁金香、薰衣草公园、樱花林等四季花海，通过坡地和水岸花海拼布的方式，游走之间，感受女人般如花的美丽。泡云澜湾温泉，慢享樱花风情街樱花女人街，从宠爱女人开始，一条集餐饮、休闲、娱乐、文化艺术为一体的浪漫、风情、文化街区！。东情西韵的立面，唯美的樱花树，淙淙的溪流，精美的甜品美食，全部为女性而精心打造。\n\n\n泡云澜湾温泉，入住精致的泓庐SPA精品酒店泓庐SPA精品酒店，从宠爱女人开始。“梦栖泓庐，自在于心”，集禅意SPA、花宴养生餐、高端住宿、商务会务、休闲娱乐为一体。在空间布局和景观营造上具有明显的传统文化特色，营造了一个能够让人完全放松身心的优雅浪漫空间。泡双莲温泉，甜蜜在一站式蜜月基地一站式蜜月基地，从宠爱女人开始，为女人打造一场终身经典难忘的婚礼。一站式蜜月基地，集婚庆策划、求婚仪式、婚纱摄影、婚礼宴会、婚庆用品、蜜月度假等于一体的华东区一站式蜜月基地。可以承接中式婚礼、西式婚礼、草坪婚礼等，能满足您各种婚礼的需求。\n云澜湾温泉，荣誉满载：\n2016年获中国国家旅游.劲旅奖---年度最佳温泉旅游景区奖；\n2016年获同程旅游最受网民欢迎的温泉景区；\n2016年第五届华东最美温泉”；\n“携程2016年度人气温泉”；\n“携程2016年度人气温泉酒店”；\n2015年获游客最信任的华东旅游温泉奖；\n2014年获游客最愉悦的华东旅游温泉奖。"}}, {"title": "永宁桥", "address": "嘉兴市嘉善县西塘古镇内", "image": "", "rank": 8, "time": 0.25, "location": {"lat": 30.94985173312398, "lng": 120.90040291396349}, "feature": {"sight_features": "", "sight_content": ""}}, {"title": "环秀桥", "address": "嘉兴市嘉善县下西街88号", "image": "", "rank": 9, "time": 0.1, "location": {"lat": 30.950788043410558, "lng": 120.89818644213462}, "feature": {"sight_features": "", "sight_content": ""}}, {"title": "安境桥", "address": "嘉兴市嘉善县西塘古镇胥塘河上", "image": "", "rank": 10, "time": 0.5, "location": {"lat": 30.94985173312398, "lng": 120.90040291396349}, "feature": {"sight_features": "", "sight_content": ""}}, {"title": "歌斐颂巧克力小镇", "address": "嘉善县大云镇巧克力大道9号", "image": "", "rank": 11, "time": 1.5, "location": {"lat": 30.79447229699532, "lng": 120.96536230039138}, "feature": {"sight_features": "特色1 感受可可豆的神奇魅力。", "sight_content": "斯麦乐巧克力乐园是由斯麦乐集团投资打造的省级重点项目、是集巧克力生产、研发、展示、体验、休闲度假于一体的巧克力工业旅游与主题乐园相结合的特色旅游产品。\n一幢幢欧式建筑充满着浪漫、清新的异国情调，让您身在国内却犹如游览于“异国他乡”；一件件先进设备构成的国际顶尖巧克力流水线，让您观赏到巧克力生产的神奇奥秘；一粒粒可可豆给您讲述奇妙的巧克力故事，让您感受到可可豆的神奇魅力。\n一个个家庭携子进入儿童亲手制作区，让您享受着亲子活动带来的天伦之乐；一次次世界大师的巧克力手工制作表演，让您享受着亲密接触与甜蜜口福带来的乐趣……每个区域每个环节都可以让您体验到巧克力文化的无穷魅力、享受到“歌斐颂”巧克力带来的的无限甜蜜!"}}, {"title": "醉园", "address": "嘉兴市嘉善县西塘镇塔湾街31号", "image": "", "rank": 12, "time": 0.5, "location": {"lat": 30.946102126362298, "lng": 120.89662887021086}, "feature": {"sight_features": "", "sight_content": ""}}, {"title": "卧龙桥", "address": "浙江省绍兴市西塘镇北栅市河口", "image": "", "rank": 13, "time": 0.1, "location": {"lat": 30.0363693113069, "lng": 120.58547847885335}, "feature": {"sight_features": "", "sight_content": ""}}, {"title": "塘东街", "address": "嘉兴市嘉善县西塘镇南苑路258号", "image": "", "rank": 14, "time": 1.0, "location": {"lat": 30.945875087786536, "lng": 120.89521021853932}, "feature": {"sight_features": "", "sight_content": ""}}, {"title": "圣堂", "address": "嘉兴市嘉善县西塘镇烧香港北街", "image": "", "rank": 15, "time": 0.5, "location": {"lat": 30.951261887268775, "lng": 120.90088683832816}, "feature": {"sight_features": "", "sight_content": ""}}, {"title": "倪宅", "address": "嘉兴市嘉善县西塘古镇烧香港南街(五福桥西侧)", "image": "", "rank": 16, "time": 0.3, "location": {"lat": 30.95056041169353, "lng": 120.90546100998498}, "feature": {"sight_features": "", "sight_content": ""}}, {"title": "种福堂", "address": "嘉兴市嘉善县西塘古镇邮电东路", "image": "", "rank": 17, "time": 0.3, "location": {"lat": 30.950074026303433, "lng": 120.90775885931001}, "feature": {"sight_features": "", "sight_content": ""}}, {"title": "五福桥", "address": "嘉兴市嘉善县西塘镇烧香港", "image": "", "rank": 18, "time": 0.1, "location": {"lat": 30.96896502822896, "lng": 120.8958731221921}, "feature": {"sight_features": "", "sight_content": ""}}, {"title": "张正根雕艺术馆", "address": "嘉兴市嘉善县西塘镇计家弄9号", "image": "", "rank": 19, "time": 0.3, "location": {"lat": 30.949674655854324, "lng": 120.90104044857036}, "feature": {"sight_features": "", "sight_content": ""}}, {"title": "薛宅", "address": "西塘西街北边", "image": "", "rank": 20, "time": 0.3, "location": {"lat": 30.949268707465365, "lng": 120.89939169863736}, "feature": {"sight_features": "", "sight_content": ""}}, {"title": "中国酒文化博物馆", "address": "嘉兴市嘉善县西塘镇椿竹街", "image": "", "rank": 21, "time": 0.5, "location": {"lat": 30.96896502822896, "lng": 120.8958731221921}, "feature": {"sight_features": "", "sight_content": ""}}, {"title": "尊闻堂", "address": "嘉兴市嘉善县西塘古镇内石皮弄3号", "image": "", "rank": 22, "time": 0.3, "location": {"lat": 30.950192638204214, "lng": 120.89773908599065}, "feature": {"sight_features": "", "sight_content": ""}}, {"title": "吴镇纪念馆", "address": "省嘉兴市嘉善县魏塘镇花园路178号", "image": "", "rank": 23, "time": 1.5, "location": {"lat": 30.847161748111546, "lng": 120.92286224232392}, "feature": {"sight_features": "", "sight_content": ""}}, {"title": "望仙桥", "address": "西塘镇南烧香港底福源宫前", "image": "", "rank": 24, "time": 0.1, "location": {"lat": 21.48227169154335, "lng": 109.13205319212635}, "feature": {"sight_features": "", "sight_content": ""}}, {"title": "护国随粮王庙（七老爷庙）", "address": "嘉兴市嘉善县西塘镇塔湾街", "image": "", "rank": 25, "time": 0.3, "location": {"lat": 30.950252908247332, "lng": 120.89484679197746}, "feature": {"sight_features": "", "sight_content": ""}}, {"title": "江南瓦当陈列馆", "address": "嘉兴市嘉善县西塘镇邮电西路", "image": "", "rank": 26, "time": 1.5, "location": {"lat": 30.948940572449597, "lng": 120.89918118972415}, "feature": {"sight_features": "", "sight_content": ""}}, {"title": "浙北桃花岛", "address": "嘉兴市嘉善县姚庄镇北鹤村", "image": "", "rank": 27, "time": 4.0, "location": {"lat": 30.956246872940742, "lng": 120.95815592021738}, "feature": {"sight_features": "", "sight_content": ""}}, {"title": "碧云花园", "address": "嘉兴市嘉善县大云镇缪家村", "image": "", "rank": 28, "time": 2, "location": {"lat": 30.788308075184062, "lng": 120.96351673351775}, "feature": {"sight_features": "", "sight_content": ""}}, {"title": "中国纽扣博物馆", "address": "嘉兴市嘉善县西塘古镇内", "image": "", "rank": 29, "time": 1.5, "location": {"lat": 30.94985173312398, "lng": 120.90040291396349}, "feature": {"sight_features": "", "sight_content": ""}}, {"title": "陈家老宅", "address": "嘉兴市嘉善县西塘镇朝南埭17号(送子来凤桥与永宁桥之间的烟雨长廊中心段)", "image": "", "rank": 30, "time": 2, "location": {"lat": 30.95123989848866, "lng": 120.90068516874118}, "feature": {"sight_features": "", "sight_content": ""}}, {"title": "五姑娘主题公园", "address": "嘉兴市嘉善县西塘古镇西线入口处", "image": "", "rank": 31, "time": 2, "location": {"lat": 30.94985173312398, "lng": 120.90040291396349}, "feature": {"sight_features": "", "sight_content": ""}}, {"title": "东岳庙", "address": "嘉兴市嘉善县西塘凤凰村内", "image": "", "rank": 32, "time": 2.5, "location": {"lat": 30.953537147812263, "lng": 120.91169804844588}, "feature": {"sight_features": "", "sight_content": ""}}, {"title": "陆坟银杏", "address": "嘉兴市嘉善县西塘古镇内邮电路坟浜弄口", "image": "", "rank": 33, "time": 1.0, "location": {"lat": 30.94962819989961, "lng": 120.9033940090065}, "feature": {"sight_features": "", "sight_content": ""}}, {"title": "云澜湾·四季花海乐园", "address": "嘉兴市嘉善县温泉大道877号", "image": "", "rank": 34, "time": 2, "location": {"lat": 30.815622611808948, "lng": 120.98860500146162}, "feature": {"sight_features": "特色1 最具创意的坡地四季花海乐园", "sight_content": "云澜湾·四季花海乐园是长三角平原地区非常具有创意的坡地四季花海乐园，乐园有百万郁金香、薰衣草公园、樱花林、向日葵等四季花海，通过坡地和水岸花海拼布的方式，结合亲子游乐、烧烤区、白沙滩、草坪休闲区、情侣临水管屋、霍比特小屋、游船、跑马场等，为游客提供一个亲子互动、家庭游乐的欢乐场所。\n风和日丽的日子里，在云澜湾四季花海乐园，一起赏百万花海、放飞风筝，亦或是尝试用雕花大灶烧野米饭、烧烤BBQ、包一包饺子，还有手打年糕，感受不一样的民俗风情！\n待到夜幕降临，在四季花海乐园逛花灯展，漫步于时光隧道，在花影灯海里，遇见最美的世界感受。不妨再来个篝火晚会，烤全羊，感受不一样的夜晚魅力！\n花讯：三四月：樱花、郁金香\n五六月：薰衣草花海。提到薰衣草，第一反应就是普罗旺斯，那一片的紫色花田令人沉醉\n云澜湾四季花海乐园里几万株血统纯正的薰衣草，浓浓的欧式风格还是扑面而来。夏日的风、洁白的云、蓝蓝的天，还有热气球，给人各种憧憬，仿佛置身浪漫的紫色海洋里......\n七八月：向日葵花海。夏日炎炎，我们迎来了向日葵花海，向日葵代表着勇敢地去追求自己想要的幸福，满满的正能量。它绽放的不仅是爱情，还有对梦想、对生活的热爱。这个季节除了向日葵，还有百日菊、醉蝶花、凌霄花、格桑花等。\n十月十一月：硫华菊、格桑花、硫华菊花海：硫华菊如朝阳般绽放，秋风吹过，橘黄色的花儿随风摇曳，花香四溢，令人陶醉。\n格桑花，在藏语中，“格桑 ” 是 “美好时光 ”或 “ 幸福”的意思。藏族有个美丽的传说：不管是谁，只要找到了八瓣格桑花，就找到了幸福。在格桑花海里，寻找你的幸福吧。"}}, {"title": "药师庵", "address": "嘉兴市嘉善县西塘镇宏福路188号", "image": "", "rank": 35, "time": 0.75, "location": {"lat": 30.946140434597652, "lng": 120.90016356764681}, "feature": {"sight_features": "", "sight_content": ""}}, {"title": "新西塘越里", "address": "嘉兴市嘉善县嘉善大道", "image": "", "rank": 36, "time": 1.5, "location": {"lat": 30.795454621870224, "lng": 120.89648980982301}, "feature": {"sight_features": "", "sight_content": ""}}, {"title": "明清木雕馆", "address": "嘉兴市嘉善县西塘古镇内", "image": "", "rank": 37, "time": 1.0, "location": {"lat": 30.94985173312398, "lng": 120.90040291396349}, "feature": {"sight_features": "", "sight_content": ""}}, {"title": "天凝古镇", "address": "嘉兴市嘉善县天凝镇", "image": "", "rank": 38, "time": 1.5, "location": {"lat": 30.889327878549803, "lng": 120.83022972822009}, "feature": {"sight_features": "", "sight_content": ""}}, {"title": "嘉善国际木雕文化园", "address": "嘉兴市嘉善县木业大道777号", "image": "", "rank": 39, "time": 2, "location": {"lat": 30.884378660754468, "lng": 120.94097605011882}, "feature": {"sight_features": "", "sight_content": ""}}, {"title": "西塘陪弄", "address": "嘉兴市嘉善县西塘古镇内", "image": "", "rank": 40, "time": 1.0, "location": {"lat": 30.94985173312398, "lng": 120.90040291396349}, "feature": {"sight_features": "", "sight_content": ""}}, {"title": "碧云花海农场", "address": "嘉兴市平湖市嘉善县大云镇缪家村", "image": "", "rank": 41, "time": 2, "location": {"lat": 30.788308075184062, "lng": 120.96351673351775}, "feature": {"sight_features": "", "sight_content": "嘉兴碧云花园由观光农业、盆景杜鹃、水果采摘、拓展烧烤等休闲项目组成。此外，碧云花园中种植着凤梨、杜鹃、天堂鸟、非洲菊、郁金香、香水百合、大花蕙兰等花卉，让人眼花缭乱，应接不暇。\n碧云花园一贯注重自然生态环境的保护和利用，坚持“抓生态建设，建一流农庄”。鲜花盛开，阳光明媚，人们在这里漫步犹如进入了花影缤纷、群树苍翠、鸟声悠扬、湖水清澈的人间天堂。"}}, {"title": "北栅街", "address": "嘉兴市嘉善县西塘古镇内", "image": "", "rank": 42, "time": 1.0, "location": {"lat": 30.94985173312398, "lng": 120.90040291396349}, "feature": {"sight_features": "", "sight_content": ""}}, {"title": "圆觉禅寺", "address": "嘉兴市嘉善县陶庄镇圆觉路", "image": "", "rank": 43, "time": 1.0, "location": {"lat": 30.97935689338953, "lng": 120.81828764668569}, "feature": {"sight_features": "", "sight_content": ""}}, {"title": "大云旅游度假村", "address": "浙江省嘉兴市大云镇东部", "image": "", "rank": 44, "time": 2, "location": {"lat": 30.79447229699532, "lng": 120.96536230039138}, "feature": {"sight_features": "", "sight_content": ""}}, {"title": "触电仙剑奇侠传", "address": "嘉兴市嘉善县嘉善大道新西塘越里南区15栋", "image": "", "rank": 45, "time": 2, "location": {"lat": 30.795454621870224, "lng": 120.89648980982301}, "feature": {"sight_features": "", "sight_content": ""}}, {"title": "颠九宫真人密室逃脱", "address": "嘉兴市嘉善县嘉善大道乔克国贸中心2号楼2101", "image": "", "rank": 46, "time": 2, "location": {"lat": 30.827174055726083, "lng": 120.93162726699845}, "feature": {"sight_features": "", "sight_content": ""}}, {"title": "迎秀桥", "address": "嘉兴市嘉善县西塘古镇内", "image": "", "rank": 47, "time": 0.25, "location": {"lat": 30.94985173312398, "lng": 120.90040291396349}, "feature": {"sight_features": "", "sight_content": ""}}, {"title": "胥塘河", "address": "嘉兴市嘉善县西塘古镇内", "image": "", "rank": 48, "time": 1.0, "location": {"lat": 30.94985173312398, "lng": 120.90040291396349}, "feature": {"sight_features": "", "sight_content": ""}}, {"title": "里仁港", "address": "嘉兴市嘉善县西塘古镇内", "image": "", "rank": 49, "time": 0.75, "location": {"lat": 30.94985173312398, "lng": 120.90040291396349}, "feature": {"sight_features": "", "sight_content": ""}}, {"title": "坟浜弄", "address": "嘉兴市嘉善县西塘古镇烧香港南", "image": "", "rank": 50, "time": 0.75, "location": {"lat": 30.94948365530249, "lng": 120.9072482741361}, "feature": {"sight_features": "", "sight_content": ""}}, {"title": "礼耕堂", "address": "嘉兴市嘉善县西塘古镇内", "image": "", "rank": 51, "time": 0.5, "location": {"lat": 30.94985173312398, "lng": 120.90040291396349}, "feature": {"sight_features": "", "sight_content": ""}}, {"title": "洛七原创书屋", "address": "嘉兴市嘉善县西塘古镇内", "image": "", "rank": 52, "time": 2, "location": {"lat": 30.94985173312398, "lng": 120.90040291396349}, "feature": {"sight_features": "", "sight_content": ""}}, {"title": "渡禅桥", "address": "嘉兴市嘉善县西塘古镇内", "image": "", "rank": 53, "time": 0.25, "location": {"lat": 30.94985173312398, "lng": 120.90040291396349}, "feature": {"sight_features": "", "sight_content": ""}}, {"title": "安善桥", "address": "嘉兴市嘉善县西塘古镇内", "image": "", "rank": 54, "time": 0.25, "location": {"lat": 30.94985173312398, "lng": 120.90040291396349}, "feature": {"sight_features": "", "sight_content": ""}}, {"title": "清宁桥", "address": "嘉兴市嘉善县西塘古镇内", "image": "", "rank": 55, "time": 0.25, "location": {"lat": 30.94985173312398, "lng": 120.90040291396349}, "feature": {"sight_features": "", "sight_content": ""}}, {"title": "吴镇书画院", "address": "嘉兴市嘉善县亭桥南路159号4-5楼", "image": "", "rank": 56, "time": 2, "location": {"lat": 30.846259854189636, "lng": 120.92539150592798}, "feature": {"sight_features": "", "sight_content": ""}}, {"title": "安泰桥", "address": "嘉兴市嘉善县西塘古镇内", "image": "", "rank": 57, "time": 0.25, "location": {"lat": 30.94985173312398, "lng": 120.90040291396349}, "feature": {"sight_features": "", "sight_content": ""}}, {"title": "独瓦亭", "address": "嘉兴市嘉善县西塘古镇内", "image": "", "rank": 58, "time": 0.25, "location": {"lat": 30.94985173312398, "lng": 120.90040291396349}, "feature": {"sight_features": "", "sight_content": ""}}, {"title": "狮子桥", "address": "嘉兴市嘉善县西塘古镇内", "image": "", "rank": 59, "time": 0.25, "location": {"lat": 30.94985173312398, "lng": 120.90040291396349}, "feature": {"sight_features": "", "sight_content": ""}}, {"title": "水阳楼", "address": "嘉兴市嘉善县西塘古镇内", "image": "", "rank": 60, "time": 1.0, "location": {"lat": 30.94985173312398, "lng": 120.90040291396349}, "feature": {"sight_features": "", "sight_content": ""}}]}