{"cityName": "郏县", "days": 2, "cityImage": "", "spots": [{"title": "天池水上乐园", "address": "平顶山市郏县白庙乡大郭庄村眼明寺森林公园", "image": "", "rank": 1, "time": 2.0, "location": {"lat": 34.0277390530345, "lng": 113.23458121136872}, "feature": {"sight_features": "", "sight_content": "天池水上游乐园位于平顶山市郏县白庙乡眼明寺森林公园内，是一家集参与性、娱乐性、趣味性和大型演出于一体的主题水上乐园。园区汇聚夏威夷海浪池、深海龙卷风、欢乐水寨、飓风眼回漩、彩虹竞速滑道、标准泳池、原野漂流、水力理疗池、大型舞台等休闲娱乐设施，是目前平顶山市范围内项目全、玩法多的水上乐园。"}}, {"title": "北海福泉温泉", "address": "河南省平顶山市郏县S238北海岸酒店旁边(凤翔大道)", "image": "", "rank": 2, "time": 3.0, "location": {"lat": 33.986001761468756, "lng": 113.26142052198894}, "feature": {"sight_features": "", "sight_content": ""}}, {"title": "广阔天地大有作为纪念馆", "address": "平顶山市郏县广阔天地乡吴堂村", "image": "", "rank": 3, "time": 2, "location": {"lat": 33.96305110985915, "lng": 113.17546613411416}, "feature": {"sight_features": "", "sight_content": ""}}, {"title": "广阔天地博物馆", "address": "河南省平顶山市郏县广阔天地乡吴堂村25号", "image": "", "rank": 4, "time": 2, "location": {"lat": 33.96305110985915, "lng": 113.17546613411416}, "feature": {"sight_features": "", "sight_content": ""}}, {"title": "薛店人民广场", "address": "河南省平顶山市郏县S238", "image": "", "rank": 5, "time": 2, "location": {"lat": 33.977486289176724, "lng": 113.21960622765287}, "feature": {"sight_features": "", "sight_content": ""}}, {"title": "郏县绿水青山家庭农场", "address": "堂街镇蝎子山", "image": "", "rank": 6, "time": 2, "location": {"lat": 33.90072853281187, "lng": 113.3526715033032}, "feature": {"sight_features": "", "sight_content": ""}}, {"title": "疯狂魔幻车", "address": "体育场", "image": "", "rank": 7, "time": 2, "location": {"lat": 38.08362149416435, "lng": 114.46870917055273}, "feature": {"sight_features": "", "sight_content": ""}}, {"title": "绿禾农业", "address": "长桥镇东长桥村10号", "image": "", "rank": 8, "time": 2, "location": {"lat": 33.94138584076314, "lng": 113.36246014171653}, "feature": {"sight_features": "", "sight_content": ""}}, {"title": "汝河水上乐园", "address": "汝河桥北东侧50米", "image": "", "rank": 9, "time": 2, "location": {"lat": 33.13385011234753, "lng": 114.17851858054073}, "feature": {"sight_features": "", "sight_content": ""}}, {"title": "老张家甜瓜面瓜生态园", "address": "冢头镇大楼往东1500米路北延晓家宴后", "image": "", "rank": 10, "time": 2, "location": {"lat": 26.528371974369946, "lng": 108.9318816275556}, "feature": {"sight_features": "", "sight_content": ""}}, {"title": "文安寨野山鸡散养基地", "address": "段李庄村附近", "image": "", "rank": 11, "time": 1.0, "location": {"lat": 38.45826341024724, "lng": 116.091809760289}, "feature": {"sight_features": "", "sight_content": ""}}, {"title": "神奇世界亲子阅读馆", "address": "新世纪小学与经二路交叉口", "image": "", "rank": 12, "time": 2, "location": {"lat": 33.98511807329171, "lng": 113.23180583271595}, "feature": {"sight_features": "", "sight_content": ""}}, {"title": "新创客机器人公益图书馆", "address": "龙山大道307号附近", "image": "", "rank": 13, "time": 2, "location": {"lat": 33.98151492376939, "lng": 113.22584597899642}, "feature": {"sight_features": "", "sight_content": ""}}, {"title": "创客公益图书馆", "address": "三官庙街与麒麟阁街交叉口西南50米", "image": "", "rank": 14, "time": 2, "location": {"lat": 33.975608832873526, "lng": 113.22282133673414}, "feature": {"sight_features": "", "sight_content": ""}}, {"title": "龙湖乐钓园", "address": "渣元乡238省道(青龙湖附近)", "image": "", "rank": 15, "time": 2, "location": {"lat": 33.98796013247017, "lng": 113.20437812120703}, "feature": {"sight_features": "", "sight_content": ""}}, {"title": "苏轼父子墓", "address": "河南郏县茨芭乡苏坟村 467000", "image": "", "rank": 16, "time": 2, "location": {"lat": 34.086341150098036, "lng": 113.0678514354775}, "feature": {"sight_features": "", "sight_content": ""}}, {"title": "海底世界", "address": "经二路老汽车站向南300米路西", "image": "", "rank": 17, "time": 2.5, "location": {"lat": 33.97485196559158, "lng": 113.23358602989764}, "feature": {"sight_features": "", "sight_content": ""}}, {"title": "人民广场", "address": "紫云路附近", "image": "", "rank": 18, "time": 1.5, "location": {"lat": 45.59257390648157, "lng": 126.64782383572908}, "feature": {"sight_features": "", "sight_content": ""}}, {"title": "地源广场", "address": "民生路与龙山大道交叉口东南100米", "image": "", "rank": 19, "time": 2, "location": {"lat": 33.98094912630264, "lng": 113.2484084328294}, "feature": {"sight_features": "", "sight_content": ""}}, {"title": "基督教会", "address": "八一路421", "image": "", "rank": 20, "time": 2, "location": {"lat": 39.9726493373737, "lng": 116.29135025722036}, "feature": {"sight_features": "", "sight_content": ""}}, {"title": "河南狮王寺寿圣寺", "address": "河南省郏县安良狮王寺村", "image": "", "rank": 21, "time": 2, "location": {"lat": 34.05072678135906, "lng": 113.32050471100857}, "feature": {"sight_features": "", "sight_content": ""}}, {"title": "小崔庄清真中寺", "address": "河南省平顶山市郏县幸福路姚庄回族乡小崔庄村民委员会北", "image": "", "rank": 22, "time": 2, "location": {"lat": 33.87252466463818, "lng": 113.2850574381441}, "feature": {"sight_features": "", "sight_content": ""}}, {"title": "郏县健康休闲主题广场", "address": "经一路与龙山大道交叉口东南200米", "image": "", "rank": 23, "time": 2, "location": {"lat": 33.98661105706408, "lng": 113.23768228056548}, "feature": {"sight_features": "", "sight_content": ""}}, {"title": "二龙山休闲庄园", "address": "安良镇小二刘山前石线西100米", "image": "", "rank": 24, "time": 2, "location": {"lat": 29.734479862459942, "lng": 105.41796108654701}, "feature": {"sight_features": "", "sight_content": ""}}, {"title": "民族文化广场", "address": "民族团结大道与生态路交叉口东50米", "image": "", "rank": 25, "time": 0.4, "location": {"lat": 33.878755264806685, "lng": 113.2872675921903}, "feature": {"sight_features": "", "sight_content": ""}}, {"title": "基督教会(二郎庙街)", "address": "二郎庙街16号附近", "image": "", "rank": 26, "time": 2, "location": {"lat": 34.6246028331656, "lng": 112.48359088584958}, "feature": {"sight_features": "", "sight_content": ""}}, {"title": "二郎庙", "address": "平顶山市郏县", "image": "", "rank": 27, "time": 1.0, "location": {"lat": 33.977486289176724, "lng": 113.21960622765287}, "feature": {"sight_features": "", "sight_content": ""}}, {"title": "天爷庙路", "address": "河南省平顶山市郏县", "image": "", "rank": 28, "time": 2, "location": {"lat": 33.977486289176724, "lng": 113.21960622765287}, "feature": {"sight_features": "", "sight_content": ""}}, {"title": "蓝天生态园", "address": "文化路西头", "image": "", "rank": 29, "time": 2, "location": {"lat": 24.542556549071236, "lng": 118.59238790825377}, "feature": {"sight_features": "", "sight_content": ""}}, {"title": "鑫海岸温泉广场", "address": "复兴路536号", "image": "", "rank": 30, "time": null, "location": {"lat": 25.703183443189207, "lng": 100.16579644158253}, "feature": {"sight_features": "", "sight_content": ""}}, {"title": "童话王国儿童乐园", "address": "堂街镇富轻购物广场东50米", "image": "", "rank": 31, "time": 2, "location": {"lat": 33.903466983744025, "lng": 113.32350562003927}, "feature": {"sight_features": "", "sight_content": ""}}, {"title": "刘海杰桃园", "address": "茨坝平盘", "image": "", "rank": 32, "time": 2, "location": {"lat": 25.15270547746619, "lng": 102.7443909257536}, "feature": {"sight_features": "", "sight_content": ""}}, {"title": "颐丰奶油草莓园", "address": "中医院北800米路东", "image": "", "rank": 33, "time": 2, "location": {"lat": 22.330367665176887, "lng": 108.31168933336558}, "feature": {"sight_features": "", "sight_content": ""}}, {"title": "晓组织", "address": "文化大道鸿兴装饰对面", "image": "", "rank": 34, "time": 2, "location": {"lat": 33.96990178488467, "lng": 113.22193306978824}, "feature": {"sight_features": "", "sight_content": ""}}, {"title": "李家钧窑艺术馆", "address": "236省道附近", "image": "", "rank": 35, "time": 2, "location": {"lat": 39.929207438628275, "lng": 115.51073811390424}, "feature": {"sight_features": "", "sight_content": ""}}, {"title": "郏县文庙", "address": "河南省郏县城关南街", "image": "", "rank": 36, "time": 1.0, "location": {"lat": 33.977486289176724, "lng": 113.21960622765287}, "feature": {"sight_features": "", "sight_content": ""}}, {"title": "河南省平顶山市郏县龙祥步行街", "address": "河南省郏县龙祥步行街", "image": "", "rank": 37, "time": 2, "location": {"lat": 33.978007965545906, "lng": 113.22122952589586}, "feature": {"sight_features": "", "sight_content": ""}}, {"title": "豫西抗日根据地曹沟旧址", "address": "平顶山市郏县安良镇曹沟村", "image": "", "rank": 38, "time": 2, "location": {"lat": 34.07407506731423, "lng": 113.26333732987935}, "feature": {"sight_features": "", "sight_content": ""}}]}