{"cityName": "嘉祥", "days": 2, "cityImage": "", "spots": [{"title": "青山寺", "address": "嘉祥县纸坊镇青山寺风景区", "image": "", "rank": 1, "time": 1.0, "location": {"lat": 35.34220422005116, "lng": 116.31416315862951}, "feature": {"sight_features": "", "sight_content": ""}}, {"title": "武氏墓群石刻博物馆", "address": "山东省济宁市嘉祥县", "image": "", "rank": 2, "time": 2, "location": {"lat": 35.41325504410229, "lng": 116.34861308510659}, "feature": {"sight_features": "", "sight_content": ""}}, {"title": "萌山", "address": "济宁市嘉祥县嘉祥镇杜庄社区南", "image": "", "rank": 3, "time": 1.5, "location": {"lat": 35.39279989997996, "lng": 116.35912207381007}, "feature": {"sight_features": "", "sight_content": ""}}, {"title": "法云寺", "address": "济宁市嘉祥县", "image": "", "rank": 4, "time": 2, "location": {"lat": 35.41325504410229, "lng": 116.34861308510659}, "feature": {"sight_features": "", "sight_content": ""}}, {"title": "曾子庙", "address": "济宁市嘉祥县满硐镇252省道附近", "image": "", "rank": 5, "time": 1.0, "location": {"lat": 35.21055765538117, "lng": 116.32246598984796}, "feature": {"sight_features": "", "sight_content": ""}}, {"title": "战狼真人cs俱乐部", "address": "中心大街64号", "image": "", "rank": 6, "time": 2, "location": {"lat": 39.11289441886737, "lng": 117.72451538557202}, "feature": {"sight_features": "", "sight_content": ""}}, {"title": "曾庙景区", "address": "济宁市嘉祥县满硐镇南武山村西", "image": "", "rank": 7, "time": 2, "location": {"lat": 35.41325504410229, "lng": 116.34861308510659}, "feature": {"sight_features": "", "sight_content": "曾庙是供奉宗圣曾子的专庙，最早建于周考王十五年(公元前426年)，之后经明、清年间多次扩建和增建，最终形成现在的规模。\n曾庙建筑布局沿中轴线分正、左、右三路，前后共五进院落，围以红色墙垣。其主要建筑有：三坊、宗圣门、戟门、景胜门、育英门、宗圣殿、东西庑、寝殿、三省堂、莱芜侯祠、万历碑亭、乾隆御碑亭、涌泉井等。"}}, {"title": "青山景区水上乐园", "address": "济宁市嘉祥县纸坊镇青山村", "image": "", "rank": 8, "time": 2, "location": {"lat": 35.335275986134945, "lng": 116.31133203562831}, "feature": {"sight_features": "", "sight_content": ""}}, {"title": "武氏祠景区", "address": "济宁市嘉祥县纸坊镇武翟山村", "image": "", "rank": 9, "time": 2, "location": {"lat": 35.28728913638756, "lng": 116.35426903488566}, "feature": {"sight_features": "", "sight_content": "武氏祠景区位于嘉祥县南15公里纸坊镇武翟山村，原是东汉末年嘉祥仕宦世家武氏的一处祠堂，祠堂始建于桓帝建和元年(公元147年)。\n武氏祠汉画像石是目前保存最完整的汉碑、汉画像石群。画像内容丰富、取材广泛，从各个不同的角度反映了东汉期的社会状况、风土人情、典章制度、宗教信仰等。"}}, {"title": "青山景区游乐场", "address": "济宁市嘉祥县纸坊镇青山村", "image": "", "rank": 10, "time": 2, "location": {"lat": 35.335275986134945, "lng": 116.31133203562831}, "feature": {"sight_features": "", "sight_content": "青山景区游乐场位于嘉祥县城南7.5公里处，在风景秀丽的青山景区。\n游乐场设置太空漫步、自控飞机、花果山漂流、丛林飞鼠、海龙宫、海盗船、碰碰车和旋转木马等游乐设施，供游客游玩，为游客及儿童提供了娱乐场地。"}}, {"title": "禾润家庭农场", "address": "纸坊镇", "image": "", "rank": 11, "time": 2, "location": {"lat": 36.50315505948381, "lng": 118.49222504288217}, "feature": {"sight_features": "", "sight_content": ""}}, {"title": "嘉祥县由由客农业有限公司", "address": "卧龙山街道北马官屯村东", "image": "", "rank": 12, "time": 2, "location": {"lat": 35.448376334718354, "lng": 116.29028130869739}, "feature": {"sight_features": "", "sight_content": ""}}, {"title": "云农场", "address": "万张镇", "image": "", "rank": 13, "time": 2, "location": {"lat": 31.635678848494116, "lng": 120.19413213258422}, "feature": {"sight_features": "", "sight_content": ""}}, {"title": "袁氏农业", "address": "327国道北50米", "image": "", "rank": 14, "time": 2, "location": {"lat": 35.50229436004592, "lng": 116.76031052743309}, "feature": {"sight_features": "", "sight_content": ""}}, {"title": "云泊湾", "address": "金屯镇105国道嘉祥县良种场西北侧", "image": "", "rank": 15, "time": 2, "location": {"lat": 35.244093069586135, "lng": 116.44637644450364}, "feature": {"sight_features": "", "sight_content": ""}}, {"title": "密室逃脱", "address": "建设北路112号", "image": "", "rank": 16, "time": 2, "location": {"lat": 39.256309875094445, "lng": 117.82706743647317}, "feature": {"sight_features": "", "sight_content": ""}}, {"title": "祥菊秋韵菊花茶基地", "address": "昌盛街1号", "image": "", "rank": 17, "time": null, "location": {"lat": 37.75908863153846, "lng": 114.53500183279819}, "feature": {"sight_features": "", "sight_content": ""}}, {"title": "长城画廊", "address": "兖兰东街168号", "image": "", "rank": 18, "time": 2, "location": {"lat": 35.40109022426137, "lng": 116.3600053057536}, "feature": {"sight_features": "", "sight_content": ""}}, {"title": "金屯湿地庄园", "address": "105国道东50米", "image": "", "rank": 19, "time": 2, "location": {"lat": 23.06304361021549, "lng": 113.30965451338832}, "feature": {"sight_features": "", "sight_content": ""}}, {"title": "钓鱼台姜子牙庙", "address": "山东省济宁市嘉祥县东山头", "image": "", "rank": 20, "time": 2, "location": {"lat": 35.33540629342562, "lng": 116.34436503877367}, "feature": {"sight_features": "", "sight_content": ""}}, {"title": "唐宁乐儿童乐园", "address": "济宁市嘉祥县唐宁街3楼", "image": "", "rank": 21, "time": 2, "location": {"lat": 35.40366309922425, "lng": 116.35310245672328}, "feature": {"sight_features": "", "sight_content": ""}}, {"title": "佳佳乐儿童乐园", "address": "山东省济宁市嘉祥县S338", "image": "", "rank": 22, "time": 2, "location": {"lat": 35.41325504410229, "lng": 116.34861308510659}, "feature": {"sight_features": "", "sight_content": ""}}, {"title": "关帝庙", "address": "山东省济宁市嘉祥县呈祥大道", "image": "", "rank": 23, "time": 0.5, "location": {"lat": 35.41334273176903, "lng": 116.4443896936479}, "feature": {"sight_features": "", "sight_content": ""}}, {"title": "芒果TV", "address": "济宁市嘉祥县呈祥街62号银座购物广场F4", "image": "", "rank": 24, "time": 2, "location": {"lat": 35.41228405357088, "lng": 116.3471996912172}, "feature": {"sight_features": "", "sight_content": ""}}, {"title": "济宁青龙山人文纪念园", "address": "山东省济宁市嘉祥县", "image": "", "rank": 25, "time": 2.5, "location": {"lat": 35.41325504410229, "lng": 116.34861308510659}, "feature": {"sight_features": "", "sight_content": ""}}, {"title": "阳光植物园", "address": "327国道附近", "image": "", "rank": 26, "time": 2, "location": {"lat": 35.501927055963634, "lng": 116.76031052743309}, "feature": {"sight_features": "", "sight_content": ""}}, {"title": "山水画廊", "address": "获麟街", "image": "", "rank": 27, "time": 4.5, "location": {"lat": 35.40557261646337, "lng": 116.34469558825218}, "feature": {"sight_features": "", "sight_content": ""}}, {"title": "圣乡书画院", "address": "武城路", "image": "", "rank": 28, "time": 2, "location": {"lat": 36.08174894004999, "lng": 120.33026069380324}, "feature": {"sight_features": "", "sight_content": ""}}, {"title": "科教图书馆(演武路店)", "address": "潘家大院", "image": "", "rank": 29, "time": 2, "location": {"lat": 35.41932719122953, "lng": 116.58739767608957}, "feature": {"sight_features": "", "sight_content": ""}}, {"title": "满洞采摘园", "address": "嘉祥满洞镇中心向北300米路东", "image": "", "rank": 30, "time": 2, "location": {"lat": 35.41325504410229, "lng": 116.34861308510659}, "feature": {"sight_features": "", "sight_content": ""}}, {"title": "山东嘉祥亿嘉利牛羊合作社", "address": "畜牧产业园1号(济广高速嘉祥出口西邻)", "image": "", "rank": 31, "time": 2, "location": {"lat": 35.48892903966082, "lng": 116.36166691313338}, "feature": {"sight_features": "", "sight_content": ""}}, {"title": "人民剧院", "address": "中心西街与建设南路交叉口西150米", "image": "", "rank": 32, "time": 2, "location": {"lat": 35.4029614125778, "lng": 116.34358564106574}, "feature": {"sight_features": "", "sight_content": ""}}, {"title": "嘉冠剧场", "address": "顺河路山东嘉祥县文化馆附近", "image": "", "rank": 33, "time": 2, "location": {"lat": 35.40614741344555, "lng": 116.33912865156609}, "feature": {"sight_features": "", "sight_content": ""}}, {"title": "嘉祥县城市规划展览馆", "address": "山东省嘉祥县呈祥街", "image": "", "rank": 34, "time": 2, "location": {"lat": 35.41647416502433, "lng": 116.35824660322615}, "feature": {"sight_features": "", "sight_content": ""}}, {"title": "嘉祥商业步行街", "address": "山东省嘉祥县青年路", "image": "", "rank": 35, "time": 2, "location": {"lat": 35.402723553365966, "lng": 116.34933218405718}, "feature": {"sight_features": "", "sight_content": ""}}, {"title": "青山景区", "address": "济宁市嘉祥县纸坊镇青山景区", "image": "", "rank": 36, "time": 2, "location": {"lat": 35.35283017204715, "lng": 116.31416048976384}, "feature": {"sight_features": "", "sight_content": ""}}, {"title": "青山寺", "address": "济宁市嘉祥县纸坊镇青山景区内", "image": "", "rank": 37, "time": 1.0, "location": {"lat": 35.35283017204715, "lng": 116.31416048976384}, "feature": {"sight_features": "", "sight_content": "嘉祥县城南的青山，林泉茂美，有鲁西南\"小岱宗\"之美誉。掩映于青山西麓长松翠柏中的千年古刹青山寺，是周武王所封诸侯国君王的神庙，古称\"焦王祠\"，俗称\"青山寺\"。\n青山寺常年香火不断，钟磬长鸣，诵经声、祷告声不绝于耳。适逢青山庙会，更是人流如潮，热闹非凡。"}}, {"title": "杏花村", "address": "济宁市嘉祥县", "image": "", "rank": 38, "time": 2, "location": {"lat": 35.41325504410229, "lng": 116.34861308510659}, "feature": {"sight_features": "", "sight_content": ""}}]}