{"cityName": "嘉荫", "days": 2, "cityImage": "", "spots": [{"title": "茅兰沟国家森林公园", "address": "伊春市汤旺河区汤旺河国家公园东大门", "image": "", "rank": 1, "time": 3.0, "location": {"lat": 48.460614389844885, "lng": 129.5774742240349}, "feature": {"sight_features": "特色1 原生态的自然风光，大峡谷的风景让人惊艳。 特色2 北方小九寨深潭奇峰美不胜收 特色3 一年四季不失殊容", "sight_content": "茅兰沟风景区位于嘉荫县城西67公里处小兴安岭林海中，面积为48平方公里，海拨400多米，山高平均近80米，山峰最高为200米，山沟深100多米，风景区有茅兰瀑布、黑龙潭、仙女池、太子峰、熊头峰、鸽子峰、石头人、石婆、镇潭石、丹凤泉。\n素有北方“九寨沟”之称的国家森林公园茅兰沟，为地壳变迁的褶皱断裂而形成的构造深谷。茅兰沟国家森林公园，河谷总长15公里。大自然的鬼斧神工塑造了这里丰富多样的造型地貌，如石老妪、观音峰、骆驼峰、马鞍峰等；发源于小兴安岭深处（五子旗大岗）的茅兰河受地形影响，形成跌水并发育成众多瀑布和深潭，前者如茅兰瀑布、迷你瀑布、袖珍瀑布，后者如黑龙潭、三阶潭、五阶潭、仙女池等。"}}, {"title": "嘉荫恐龙国家地质公园", "address": "伊春市小兴安岭北部嘉荫县城西9公里处", "image": "", "rank": 2, "time": 3.0, "location": {"lat": 48.594104799402146, "lng": 129.84001097928004}, "feature": {"sight_features": "特色1 恐龙化石挖掘地、国家4A级景区", "sight_content": "嘉荫是中国较早发现并经科学记录的恐龙化石挖掘地。也因埋藏大量古生物化石而蜚声中外。1902年，俄罗斯人将在此挖掘的恐龙化石组装成一具高4.5米，长8米的完整恐龙化石骨架，定名为“黑龙江满洲龙”，至今陈列在俄罗斯圣彼得堡地质博物馆内。嘉荫恐龙山出土的恐龙化石属平头鸭嘴龙亚科，是晚白垩世大型鸭嘴龙的典型代表，同时又是恐龙接近灭绝时期的产物，对研究恐龙灭绝这一千古之谜具有非常重要的意义。\n1981年嘉荫龙骨山被省政府批准为省级文物保护单位予以重点保护,1998年4月再次被省政府确立为省级自然保护区,同时，颁布实施《嘉荫恐龙化石省级自然保护区管理办法》,2001年12月，国土资源部批准建立国家地质公园，2002年9月成立嘉荫恐龙国家地质公园管理局，隶属县政府。博物馆总面积4650㎡,是一座集科普、娱乐、观光、休闲于一体，2005年8月6日正式对外开放，2010年7月正式冠名为中国地质博物馆嘉荫恐龙馆,是即我国自四川自贡、云南禄丰、江苏常州、内蒙二连浩特四家后第五家恐龙博物馆，也是我国少有的集保护区和展览馆于一身的园中馆。中国地质博物馆嘉荫恐龙馆以典藏量大，珍品率高，陈列精美，科研成果丰硕而倍受中外学者所青睐。"}}, {"title": "龙骨山", "address": "伊春市嘉荫县境内", "image": "", "rank": 3, "time": 12.0, "location": {"lat": 48.894983469563904, "lng": 130.41055547771902}, "feature": {"sight_features": "", "sight_content": ""}}, {"title": "太平岛", "address": "伊春市嘉荫县红光乡太平村", "image": "", "rank": 4, "time": 2.5, "location": {"lat": 48.88484366654803, "lng": 130.34911177159904}, "feature": {"sight_features": "", "sight_content": ""}}, {"title": "茅兰瀑布", "address": "伊春市嘉荫县向阳乡茅兰沟国家森林公园内", "image": "", "rank": 5, "time": 0.6, "location": {"lat": 49.09933125240641, "lng": 129.77157300806948}, "feature": {"sight_features": "", "sight_content": ""}}, {"title": "仙女池", "address": "伊春市嘉荫县向阳乡茅兰沟国家森林公园内", "image": "", "rank": 6, "time": 0.25, "location": {"lat": 49.09933125240641, "lng": 129.77157300806948}, "feature": {"sight_features": "", "sight_content": ""}}, {"title": "黑龙潭", "address": "伊春市嘉荫县向阳乡茅兰沟国家森林公园内", "image": "", "rank": 7, "time": 2.5, "location": {"lat": 49.09933125240641, "lng": 129.77157300806948}, "feature": {"sight_features": "", "sight_content": ""}}, {"title": "石老妪", "address": "伊春市嘉荫县向阳乡茅兰沟国家森林公园内", "image": "", "rank": 8, "time": 0.3, "location": {"lat": 49.09933125240641, "lng": 129.77157300806948}, "feature": {"sight_features": "", "sight_content": ""}}, {"title": "野鸽峰", "address": "伊春市嘉荫县向阳乡茅兰沟国家森林公园内", "image": "", "rank": 9, "time": 0.4, "location": {"lat": 49.09933125240641, "lng": 129.77157300806948}, "feature": {"sight_features": "", "sight_content": ""}}, {"title": "神州恐龙博物馆", "address": "黑龙江省嘉荫县红光乡燎原村", "image": "", "rank": 10, "time": 2, "location": {"lat": 48.837098593474295, "lng": 130.2765689430555}, "feature": {"sight_features": "", "sight_content": ""}}, {"title": "中心公园", "address": "天津市和平区中心地带", "image": "", "rank": 11, "time": 1.0, "location": {"lat": 39.12339025327971, "lng": 117.22146699490091}, "feature": {"sight_features": "", "sight_content": ""}}, {"title": "嘉荫农场第二农业管理区", "address": "311省道东50米", "image": "", "rank": 12, "time": 3.0, "location": {"lat": 40.42605053578163, "lng": 117.1955982216384}, "feature": {"sight_features": "", "sight_content": ""}}, {"title": "东来顺火锅", "address": "崇文路和团结大街的交叉口附近", "image": "", "rank": 13, "time": 2, "location": {"lat": 48.38610288202209, "lng": 130.2564135284805}, "feature": {"sight_features": "", "sight_content": ""}}, {"title": "嘉荫县向阳乡黄鱼卧子村海芳农家...", "address": "311省道黄鱼卧子村进村直行800米", "image": "", "rank": 14, "time": 2, "location": {"lat": 49.09320651865262, "lng": 129.8676211159772}, "feature": {"sight_features": "", "sight_content": ""}}, {"title": "小淘气儿童乐园", "address": "伊春市嘉荫县繁荣街103号", "image": "", "rank": 15, "time": 2, "location": {"lat": 48.90039718144614, "lng": 130.40629191016404}, "feature": {"sight_features": "", "sight_content": ""}}, {"title": "知青园", "address": "建设街与通江路交汇处", "image": "", "rank": 16, "time": 2, "location": {"lat": 38.92997383580803, "lng": 121.63456975549713}, "feature": {"sight_features": "", "sight_content": ""}}, {"title": "碰碰车游乐场", "address": "黑龙江省伊春市嘉荫县神州龙路与鸭嘴龙街交叉口北150米", "image": "", "rank": 17, "time": 2, "location": {"lat": 48.903104986819415, "lng": 130.40769922282456}, "feature": {"sight_features": "", "sight_content": ""}}, {"title": "小淘气儿童乐园", "address": "伊春市嘉荫县繁荣街103号", "image": "", "rank": 18, "time": 2, "location": {"lat": 48.90039718144614, "lng": 130.40629191016404}, "feature": {"sight_features": "", "sight_content": ""}}, {"title": "江边广场", "address": "伊春市嘉荫县", "image": "", "rank": 19, "time": 2, "location": {"lat": 48.894983469563904, "lng": 130.41055547771902}, "feature": {"sight_features": "", "sight_content": ""}}, {"title": "龙乡园新发度假村", "address": "伊春嘉荫县朝阳镇新发村", "image": "", "rank": 20, "time": 2, "location": {"lat": 48.90526672448067, "lng": 130.43816768590867}, "feature": {"sight_features": "", "sight_content": ""}}, {"title": "嘉荫翼龙旅游度假村", "address": "伊春市嘉荫县红光乡辽原村毗邻恐龙博物馆", "image": "", "rank": 21, "time": 3.0, "location": {"lat": 48.870622860588036, "lng": 130.33457456809035}, "feature": {"sight_features": "", "sight_content": ""}}, {"title": "江边公园", "address": "临江路21号", "image": "", "rank": 22, "time": 1.0, "location": {"lat": 30.73106576969356, "lng": 121.3195394182521}, "feature": {"sight_features": "", "sight_content": ""}}, {"title": "七彩虹美术社", "address": "朝阳路88号", "image": "", "rank": 23, "time": 2, "location": {"lat": 48.89812937331233, "lng": 130.40191297023802}, "feature": {"sight_features": "", "sight_content": ""}}, {"title": "新发岛江上公园乐园", "address": "朝阳镇城东2公里处", "image": "", "rank": 24, "time": 2, "location": {"lat": 36.605707645661155, "lng": 101.8095690383313}, "feature": {"sight_features": "", "sight_content": ""}}, {"title": "金宝贝乐园", "address": "育新路和新城街的交叉口附近", "image": "", "rank": 25, "time": null, "location": {"lat": 48.89650832161516, "lng": 130.40020133891932}, "feature": {"sight_features": "", "sight_content": ""}}, {"title": "嘉荫农场食用菌园区", "address": "汤嘉公路西50米", "image": "", "rank": 26, "time": 3.0, "location": {"lat": 48.859522863193504, "lng": 130.05062970225345}, "feature": {"sight_features": "", "sight_content": ""}}, {"title": "伊春市滨亚牧业有限公司", "address": "鹤嘉西线金林林场东南侧", "image": "", "rank": 27, "time": 12.0, "location": {"lat": 48.30302689846651, "lng": 129.78952578112725}, "feature": {"sight_features": "", "sight_content": ""}}]}