{"cityName": "嘉鱼", "days": 2, "cityImage": "", "spots": [{"title": "三湖连江", "address": "湖北省咸宁市嘉鱼县二乔公园西南580米", "image": "", "rank": 1, "time": 2, "location": {"lat": 29.967546508181712, "lng": 113.9265603892102}, "feature": {"sight_features": "", "sight_content": ""}}, {"title": "二乔公园", "address": "咸宁市嘉鱼县殷家坡路与沿湖大道交叉口西50米", "image": "", "rank": 2, "time": 2, "location": {"lat": 29.973751611862667, "lng": 113.92688983017959}, "feature": {"sight_features": "", "sight_content": ""}}, {"title": "儿童乐园", "address": "代湾路与烟墩路交叉口北100米", "image": "", "rank": 3, "time": 2, "location": {"lat": 29.97645361129148, "lng": 113.93626783068356}, "feature": {"sight_features": "", "sight_content": ""}}, {"title": "荷塘农家", "address": "102省道", "image": "", "rank": 4, "time": 2, "location": {"lat": 36.224418920426714, "lng": 113.13112600949766}, "feature": {"sight_features": "", "sight_content": ""}}, {"title": "官桥八组田野山庄", "address": "官桥镇田野大道1号距离山湖温泉车程15-20分钟", "image": "", "rank": 5, "time": 2, "location": {"lat": 29.92362143153935, "lng": 113.95980681715746}, "feature": {"sight_features": "", "sight_content": ""}}, {"title": "茶庵基督教会", "address": "湖北省咸宁市嘉鱼县烟墩路93", "image": "", "rank": 6, "time": 2, "location": {"lat": 29.972546429544856, "lng": 113.93806206119332}, "feature": {"sight_features": "", "sight_content": ""}}, {"title": "嘉鱼山湖温泉", "address": "湖北省嘉鱼县鱼岳镇连江大道", "image": "", "rank": 7, "time": 2, "location": {"lat": 29.975903957443457, "lng": 113.94011864721702}, "feature": {"sight_features": "", "sight_content": ""}}, {"title": "山湖温泉-水上飞车", "address": "山湖温泉度假酒店", "image": "", "rank": 8, "time": 2, "location": {"lat": 29.95105244644866, "lng": 113.91346084731866}, "feature": {"sight_features": "", "sight_content": ""}}, {"title": "开心一乐儿童主题乐园", "address": "湖北省咸宁市嘉鱼县鱼岳镇北街南嘉商业城购物广场旁", "image": "", "rank": 9, "time": 2, "location": {"lat": 29.980139178964325, "lng": 113.91285420184524}, "feature": {"sight_features": "", "sight_content": ""}}, {"title": "南如寺", "address": "湖滨路东150米", "image": "", "rank": 10, "time": 2, "location": {"lat": 31.566115968952804, "lng": 120.29118290394901}, "feature": {"sight_features": "", "sight_content": ""}}, {"title": "官桥教堂", "address": "沿湖路西50米", "image": "", "rank": 11, "time": 2, "location": {"lat": 38.228335123468604, "lng": 115.53362309714412}, "feature": {"sight_features": "", "sight_content": ""}}, {"title": "望湖农庄", "address": "嘉鱼县渡普镇湾湖陈", "image": "", "rank": 12, "time": 2, "location": {"lat": 29.98535678267146, "lng": 114.15528732345828}, "feature": {"sight_features": "", "sight_content": ""}}, {"title": "基督教红光感恩堂", "address": "咸宁市嘉鱼县", "image": "", "rank": 13, "time": 2, "location": {"lat": 29.976353520898183, "lng": 113.94557046335528}, "feature": {"sight_features": "", "sight_content": ""}}, {"title": "嘉鱼县北门湖基督教会", "address": "湖北省咸宁市嘉鱼县北门四路118号", "image": "", "rank": 14, "time": 2, "location": {"lat": 29.98844069968864, "lng": 113.91393276672832}, "feature": {"sight_features": "", "sight_content": ""}}, {"title": "田野开心农场", "address": "咸宁市嘉鱼县官桥镇田野大道6号田野现代农业示范园", "image": "", "rank": 15, "time": 2, "location": {"lat": 29.9245111995858, "lng": 113.95880051587945}, "feature": {"sight_features": "", "sight_content": ""}}, {"title": "大众乐园", "address": "东岳路69", "image": "", "rank": 16, "time": 2, "location": {"lat": 32.65082431649007, "lng": 110.77802410891148}, "feature": {"sight_features": "", "sight_content": ""}}, {"title": "嘉鱼县三湖茶麻专业合作社", "address": "官桥镇阳光大道43号", "image": "", "rank": 17, "time": 2, "location": {"lat": 29.924810437989162, "lng": 113.95455264566408}, "feature": {"sight_features": "", "sight_content": ""}}, {"title": "密室风暴", "address": "发展大道186号", "image": "", "rank": 18, "time": 2, "location": {"lat": 22.622118786119998, "lng": 113.08890080463733}, "feature": {"sight_features": "", "sight_content": ""}}, {"title": "引马村", "address": "咸宁市-嘉鱼县", "image": "", "rank": 19, "time": 2, "location": {"lat": 29.976353520898183, "lng": 113.94557046335528}, "feature": {"sight_features": "", "sight_content": ""}}, {"title": "嘉鱼县嘉多宝生态果蔬专业合作社", "address": "咸宁市-嘉鱼县-S102", "image": "", "rank": 20, "time": 2, "location": {"lat": 29.976353520898183, "lng": 113.94557046335528}, "feature": {"sight_features": "", "sight_content": ""}}]}