{"cityName": "鸡东", "days": 2, "cityImage": "", "spots": [{"title": "麒麟山风景区", "address": "鸡西市鸡东县兴农镇", "image": "", "rank": 1, "time": 1.0, "location": {"lat": 45.50808664729991, "lng": 130.9650559963089}, "feature": {"sight_features": "", "sight_content": ""}}, {"title": "哈达河风景区", "address": "黑龙江省鸡西市鸡东县哈达河风景区", "image": "", "rank": 2, "time": 1.0, "location": {"lat": 45.311510196920594, "lng": 131.23191312585348}, "feature": {"sight_features": "", "sight_content": ""}}, {"title": "影剧院", "address": "中心大街437号", "image": "", "rank": 3, "time": 2, "location": {"lat": 48.48012983865591, "lng": 124.8903259171077}, "feature": {"sight_features": "", "sight_content": ""}}, {"title": "八楞山风景区", "address": "黑龙江省鸡东县平阳镇 158223", "image": "", "rank": 4, "time": 2, "location": {"lat": 45.190334832765096, "lng": 131.24777270963222}, "feature": {"sight_features": "", "sight_content": ""}}, {"title": "开心岛儿童乐园", "address": "黑龙江省鸡西市鸡东县南华大街239号", "image": "", "rank": 5, "time": 2, "location": {"lat": 45.25839936614606, "lng": 131.14989321999317}, "feature": {"sight_features": "", "sight_content": ""}}, {"title": "新明基督教堂", "address": "黑龙江省鸡西市鸡东县南华大街282号", "image": "", "rank": 6, "time": 2, "location": {"lat": 45.25894797953135, "lng": 131.1485656681783}, "feature": {"sight_features": "", "sight_content": ""}}, {"title": "迎宾广场", "address": "黑龙江省鸡西市鸡东县南华大街211", "image": "", "rank": 7, "time": 0.35, "location": {"lat": 45.258030828893624, "lng": 131.15063892495635}, "feature": {"sight_features": "", "sight_content": ""}}, {"title": "八楞山", "address": "鸡西市鸡东县", "image": "", "rank": 8, "time": 2, "location": {"lat": 45.26618456082589, "lng": 131.1305584829592}, "feature": {"sight_features": "", "sight_content": ""}}, {"title": "鸡东县图书馆", "address": "中心大街363号", "image": "", "rank": 9, "time": 2, "location": {"lat": 45.259230809139694, "lng": 131.15344615303098}, "feature": {"sight_features": "", "sight_content": ""}}, {"title": "八楞山风景区水上乐园", "address": "黑龙江省鸡西市鸡东县凤鸣路八楞山风景区水上乐园", "image": "", "rank": 10, "time": 2, "location": {"lat": 45.04642375077144, "lng": 131.2136236256702}, "feature": {"sight_features": "", "sight_content": ""}}, {"title": "美术书法培训", "address": "中心大街635附近", "image": "", "rank": 11, "time": 2, "location": {"lat": 36.965052138181484, "lng": 118.10524866516188}, "feature": {"sight_features": "", "sight_content": ""}}, {"title": "鸡东县哈达河水稻专业合作社", "address": "东海镇新华中学附近", "image": "", "rank": 12, "time": 2, "location": {"lat": 45.30239668195554, "lng": 131.24778367075606}, "feature": {"sight_features": "", "sight_content": ""}}, {"title": "欢乐qq农场", "address": "054乡道北100米", "image": "", "rank": 13, "time": 2, "location": {"lat": 41.20783012676974, "lng": 118.51884433602535}, "feature": {"sight_features": "", "sight_content": ""}}, {"title": "袁家垂钓园", "address": "新胜村内", "image": "", "rank": 14, "time": 2, "location": {"lat": 33.97008116233904, "lng": 118.3129362957069}, "feature": {"sight_features": "", "sight_content": ""}}, {"title": "锅盔山庄 Guokui Villa", "address": "黑龙江省鸡东县永安镇", "image": "", "rank": 15, "time": 2, "location": {"lat": 45.344417055353304, "lng": 131.47059212192354}, "feature": {"sight_features": "", "sight_content": ""}}, {"title": "黑龙江凤凰山国家级自然保护区", "address": "黑龙江省鸡西市鸡东县", "image": "", "rank": 16, "time": 2, "location": {"lat": 45.26618456082589, "lng": 131.1305584829592}, "feature": {"sight_features": "", "sight_content": ""}}]}