{"cityName": "界首", "days": 2, "cityImage": "", "spots": [{"title": "界首植物园", "address": "大桥南路406号", "image": "", "rank": 1, "time": 3.5, "location": {"lat": 30.400846256981136, "lng": 119.98196255736573}, "feature": {"sight_features": "", "sight_content": ""}}, {"title": "华夏翰墨文化园", "address": "安徽省界首市华夏画佛第一村（司营村）", "image": "", "rank": 2, "time": 2, "location": {"lat": 33.204777636762664, "lng": 115.31461294757266}, "feature": {"sight_features": "", "sight_content": ""}}, {"title": "玉华温泉", "address": "阜阳市界首市小郭寨村(自界首至小黄方向行至高速公路口)", "image": "", "rank": 3, "time": 2, "location": {"lat": 33.29350533296291, "lng": 115.36088418289987}, "feature": {"sight_features": "", "sight_content": ""}}, {"title": "欢乐多亲子游乐园", "address": "阜阳市界首市人民路与解放四大街(界首师范附属小学斜对面)", "image": "", "rank": 4, "time": 2, "location": {"lat": 33.26978768372515, "lng": 115.36029774840193}, "feature": {"sight_features": "", "sight_content": ""}}, {"title": "中国邮政", "address": "人民东路75号(华信购物广场对面)", "image": "", "rank": 5, "time": 2, "location": {"lat": 33.26198243721779, "lng": 115.38768502044256}, "feature": {"sight_features": "", "sight_content": ""}}, {"title": "界首市彦德农业种植专业合作社", "address": "019县道附近", "image": "", "rank": 6, "time": 2, "location": {"lat": 39.85877177435227, "lng": 115.71171510734608}, "feature": {"sight_features": "", "sight_content": ""}}, {"title": "518垂钓园", "address": "陶庙镇徐庄", "image": "", "rank": 7, "time": 2, "location": {"lat": 33.141448498868854, "lng": 115.39132053605333}, "feature": {"sight_features": "", "sight_content": ""}}, {"title": "668儿童乐园", "address": "界首市国祯广场南区商业街6#楼304室", "image": "", "rank": 8, "time": 2, "location": {"lat": 33.25528165511103, "lng": 115.40305178348792}, "feature": {"sight_features": "", "sight_content": ""}}, {"title": "张寨温泉度假村", "address": "界首市砖集镇姜洼村南界临郸路西58号", "image": "", "rank": 9, "time": 2, "location": {"lat": 33.13399498544483, "lng": 115.30519380826645}, "feature": {"sight_features": "", "sight_content": ""}}, {"title": "两湾湿地公园", "address": "安徽省阜阳市界首市", "image": "", "rank": 10, "time": 2, "location": {"lat": 33.26277523623148, "lng": 115.38060984722048}, "feature": {"sight_features": "", "sight_content": ""}}, {"title": "东风剧场", "address": "中州路与迎祥街交叉口东150米", "image": "", "rank": 11, "time": 2, "location": {"lat": 33.26583469910888, "lng": 115.35847299436864}, "feature": {"sight_features": "", "sight_content": ""}}, {"title": "未来星儿童乐园", "address": "阜阳市界首市", "image": "", "rank": 12, "time": 2.5, "location": {"lat": 33.26277523623148, "lng": 115.38060984722048}, "feature": {"sight_features": "", "sight_content": ""}}, {"title": "七彩童年儿童乐园", "address": "人民路与东升路交叉口北100米(华信购物广场北100米路东新华仓储2楼)", "image": "", "rank": 13, "time": 2, "location": {"lat": 38.057119539195526, "lng": 114.46943844640641}, "feature": {"sight_features": "", "sight_content": ""}}, {"title": "沐浴休闲广场", "address": "大桥北路109号", "image": "", "rank": 14, "time": 2, "location": {"lat": 30.50353845318953, "lng": 120.62077831552939}, "feature": {"sight_features": "", "sight_content": ""}}, {"title": "泉阳教会", "address": "030县道附近", "image": "", "rank": 15, "time": 2, "location": {"lat": 43.49713899926016, "lng": 126.75477976363129}, "feature": {"sight_features": "", "sight_content": ""}}, {"title": "大黄庙公园", "address": "012县道附近", "image": "", "rank": 16, "time": 2, "location": {"lat": 40.15507522393554, "lng": 116.62437778513727}, "feature": {"sight_features": "", "sight_content": ""}}, {"title": "胡集教堂", "address": "安徽省阜阳市界首市017县道附近", "image": "", "rank": 17, "time": 2, "location": {"lat": 33.11276541762023, "lng": 115.44295862758207}, "feature": {"sight_features": "", "sight_content": ""}}, {"title": "中共沈丘县委员会旧址", "address": "信义街68号", "image": "", "rank": 18, "time": 2, "location": {"lat": 28.767628953545668, "lng": 104.62770953697975}, "feature": {"sight_features": "", "sight_content": ""}}, {"title": "乐水汤泉（界首馆）", "address": "阜阳市界首市天安路36号国祯广场2号楼3楼", "image": "", "rank": 19, "time": 2, "location": {"lat": 33.25364141041446, "lng": 115.40173857671374}, "feature": {"sight_features": "", "sight_content": "乐水汤泉（界首馆）坐落于界首市天安路36号国祯广场2号楼3楼，是集温泉洗浴、健身游泳、汗蒸洗浴、儿童乐园、特色餐饮、影视休闲等休闲体验于一体的大型休闲娱乐场所。"}}, {"title": "艺宝画廊", "address": "中原路220号", "image": "", "rank": 20, "time": 2, "location": {"lat": 34.753097674709295, "lng": 113.62916318761019}, "feature": {"sight_features": "", "sight_content": ""}}, {"title": "饭桶庄园", "address": "光武镇大声路888号", "image": "", "rank": 21, "time": 2, "location": {"lat": 33.386561069298565, "lng": 115.38448659244544}, "feature": {"sight_features": "", "sight_content": ""}}, {"title": "杰伟无公害采摘园", "address": "王集镇李彬庄", "image": "", "rank": 22, "time": 2, "location": {"lat": 33.86614853106651, "lng": 118.77815467611447}, "feature": {"sight_features": "", "sight_content": ""}}, {"title": "界首影剧院", "address": "中原东路与中原路交叉口西100米", "image": "", "rank": 23, "time": 2, "location": {"lat": 35.77623216552359, "lng": 115.12428842827507}, "feature": {"sight_features": "", "sight_content": ""}}, {"title": "琴之缘军乐团", "address": "人民路33号", "image": "", "rank": 24, "time": 2, "location": {"lat": 39.950652564945734, "lng": 116.30656079909856}, "feature": {"sight_features": "", "sight_content": ""}}, {"title": "密室`-x(国祯广场店)", "address": "天安路36号铺10号楼301室(与胜利路交叉口)", "image": "", "rank": 25, "time": 2, "location": {"lat": 33.256019869427135, "lng": 115.40262453052296}, "feature": {"sight_features": "", "sight_content": ""}}, {"title": "迪士昵乐园", "address": "阜阳市-界首市-中原东路万家福超市西20米巷内", "image": "", "rank": 26, "time": 2, "location": {"lat": 33.1999897795254, "lng": 115.33625960588736}, "feature": {"sight_features": "", "sight_content": ""}}]}