{"cityName": "介休", "days": 2, "cityImage": "", "spots": [{"title": "绵山景区", "address": "晋中市介休市翼家庄村", "image": "", "rank": 1, "time": 2.5, "location": {"lat": 37.03268640360337, "lng": 111.92356319719394}, "feature": {"sight_features": "特色1 步步有景，景景有典。 特色2 佛教禅林-中国请明文化的发源地。", "sight_content": "绵山，亦名绵上，后因春秋五霸之晋文公名臣介子推（介之推）携母隐居被焚又称介山。也因此成为中华民族最古老的纪念性节日——寒食清明节的发源地，是中国历史文化名山之一。绵山毗邻古城平遥，又与灵石王家大院近在咫尺。绵山跨介休、灵石、沁源三市县地界，最高海拔2566.6米，相对高度1000米以上，是太岳山（霍山）向北延伸的一条支脉。有人说绵山“无峰不奇，无水不秀，无洞不幽，无道不险”，这大概不是夸大。这里山光水色、文物胜迹、革命遗址集于一山，可说是步步有景，景景有典。绵山山势陡峭，多悬崖绝壁，苍松翠柏，自然景色非常优美，是省级风景名胜区。\n\n绵山之所以享誉海内外，千百年来登临者络绎不绝，在于它步步有景，景景有典。奇岩、险道、秀水、古柏、唐碑、宋塑、名刹、巨宫和道佛人物组成了绵山独特的自然和人文景观，使人目不暇接，思绪万千，流连忘返。\n绵山的景观很多，有白云庵、光岩寺、云中寺、地藏殿、世姑庙、龙王庙、柏龙、说法台、棋盘石、五龙墓、舍身崖等。绵山之所以享誉海内外，千百年来登临者络绎不绝，在于它步步有景，景景有典。椤严会、李姑岩、蜂房泉、天桥、朱家凹、抱腹岩、小蜂房泉、银公洞等数以百计的天然岩洞，堪称奇观。兔桥、鹿桥、天桥、古云梯、铁索岭、慑神崖等险道惊魂慑魄，令人赞叹叫绝。绵山铁瓦寺始建于东汉建安年间，距今1800余年，是我国最早建成的山区佛教寺院，抱腹寺始建于三国曹魏时期，鸾公岩铁佛寺始建于北魏。回銮寺建于唐代之前，因唐太宗李世民朝绵山遇雨回銮至此而得名。五龙寺为北宋前建筑。其它众多寺庙也多为清代前所建。绵山云峰寺和棋盘洞保留有许多唐、宋、元明石刻和塑像。铁索岭的铁索和下方的云梯最早悬挂于唐代之前。"}}, {"title": "张壁古堡", "address": "晋中市介休市龙凤乡张壁村", "image": "", "rank": 2, "time": 2.0, "location": {"lat": 36.970372153046455, "lng": 111.98347449741864}, "feature": {"sight_features": "特色1 被列为“国家级文物保护单位” 特色2 中国北方古村落的“活化石”被历史遗忘的聚宝盆 特色3 历史悠久，国内古代地下军事遗址", "sight_content": "张壁古堡以其深厚的历史文化底蕴荣膺2005年“中国十大魅力名镇”,2006年被评为“中国历史文化名村”，同年被列为“国家级文物保护单位”，2010年被评为“中国特色旅游景观名村”。\n张壁古堡位于山西省介休市绵山北麓，南有群山相依，东西南环沟壑，南、北、东有厚厚的城堡墙，墙板夯土筑成，堡内设有堡门、巷门、次巷门、院门、地道五级古军事防御体系。地下已发掘古代地道1500米，待开发地道尚有8500米，总长约万米，地道上中下三层，深于地表20米，且城堡与地道相连互通。可谓是“上有千年古堡相环，下有万米地下长城相通”。世所罕见。\n村西南有金代墓穴，城堡内有北朝、隋、唐、元、明、清历代所建庙宇群，金碧辉煌，流光溢彩。寺庙或立于城堡顶端，或建于地面高台，依堡而筑，随势构形，琉璃覆顶，富丽堂皇，十分独特和神秘。\n\n\n著名的明代空王佛行宫，建造在北门丁字门顶上，坐北向南，大殿三间，殿内塑坐像空王佛，山墙绘空王佛成佛的故事壁画。殿顶为明代三彩琉璃装饰，刀工细腻，烧制精致，形象逼真，栩栩如生。行宫前廊下有两通罕见的琉璃碑，通体琉璃烧造，孔雀蓝底，黑字书写，碑额为青黄绿二龙戏珠，两边蓝黑龙纹花卉装饰图案。东侧一通记述着空王佛修行成佛的历程，西侧一通记载空王行宫修建缘起。此外，堡内还保留着真武庙、三大士殿、吕祖阁、二郎庙、关帝庙、兴隆寺、可罕庙等古代建筑。称奇的是街中有一株根深叶茂的槐抱柳，相传植于宋代，给古堡增添了情趣。\n张壁的民宅，起源于金，繁盛于明清。古朴的民居，抱柳的古槐，别致的巷口门楼，充满了古色古香的北方民间建筑的色彩。在民居形态上，张壁古堡尚有我国多数古城均已消失的隋唐城市遗存的“里坊”，巷门、门楼配备得当，可谓堡中奇观。\n由于长期处在汉文化和少数民族文化相互冲突和交融的重要位置上，张壁在上千年的演变过程中兼容并蓄了诸多文明，形成了“小村落、大文化”的鲜明特色。如今，无论是造形别致的元代古戏台，或是生生不息的古堡人家，也已成为张壁村富有特定意韵的精神标识，定格着经久不衰的魅力和别具一格的辉煌。"}}, {"title": "后土庙", "address": "介休县城西北角", "image": "", "rank": 3, "time": 2, "location": {"lat": 37.03268640360337, "lng": 111.92356319719394}, "feature": {"sight_features": "", "sight_content": ""}}, {"title": "水涛沟", "address": "晋中市介休市翼家庄村绵山景区内", "image": "", "rank": 4, "time": 2.0, "location": {"lat": 36.88424181565238, "lng": 111.9705955092882}, "feature": {"sight_features": "", "sight_content": ""}}, {"title": "祆神楼", "address": "晋中市介休市顺城路东端", "image": "", "rank": 5, "time": 1.0, "location": {"lat": 37.03914872543199, "lng": 111.93323681836638}, "feature": {"sight_features": "", "sight_content": ""}}, {"title": "云峰寺", "address": "晋中市介休市翼家庄村绵山景区内", "image": "", "rank": 6, "time": 2, "location": {"lat": 36.88424181565238, "lng": 111.9705955092882}, "feature": {"sight_features": "", "sight_content": ""}}, {"title": "秦柏风景区", "address": "介休城西南15公里西欢村柏树岭", "image": "", "rank": 7, "time": 2.5, "location": {"lat": 36.948930591359314, "lng": 111.90819585159744}, "feature": {"sight_features": "", "sight_content": ""}}, {"title": "欢乐岛海洋主题乐园", "address": "晋中介休市西大街同至人购物中心四层", "image": "", "rank": 8, "time": 2, "location": {"lat": 37.03321292653878, "lng": 111.92474721146628}, "feature": {"sight_features": "", "sight_content": ""}}, {"title": "云峰栈道", "address": "晋中市介休市翼家庄村绵山景区内", "image": "", "rank": 9, "time": 2, "location": {"lat": 36.88424181565238, "lng": 111.9705955092882}, "feature": {"sight_features": "", "sight_content": ""}}, {"title": "龙头寺", "address": "晋中市介休市翼家庄村绵山景区内", "image": "", "rank": 10, "time": 0.5, "location": {"lat": 36.88424181565238, "lng": 111.9705955092882}, "feature": {"sight_features": "", "sight_content": ""}}, {"title": "大罗宫", "address": "晋中市介休市翼家庄村绵山景区内", "image": "", "rank": 11, "time": 0.5, "location": {"lat": 36.88424181565238, "lng": 111.9705955092882}, "feature": {"sight_features": "", "sight_content": ""}}, {"title": "湿地公园快乐大本营", "address": "湿地公园西南门", "image": "", "rank": 12, "time": 2, "location": {"lat": 40.678565619259686, "lng": 122.18073330276417}, "feature": {"sight_features": "", "sight_content": ""}}, {"title": "史公塔", "address": "介休市", "image": "", "rank": 13, "time": 2, "location": {"lat": 37.03268640360337, "lng": 111.92356319719394}, "feature": {"sight_features": "", "sight_content": ""}}, {"title": "君昂童子军乐园（山西晋中店）", "address": "晋中市介休市政府广场向东200米同至人购物中心", "image": "", "rank": 14, "time": 2, "location": {"lat": 37.03321292653878, "lng": 111.92474721146628}, "feature": {"sight_features": "", "sight_content": ""}}, {"title": "秦柏禅院", "address": "介休市", "image": "", "rank": 15, "time": 2, "location": {"lat": 37.03268640360337, "lng": 111.92356319719394}, "feature": {"sight_features": "", "sight_content": ""}}, {"title": "栖贤谷", "address": "山西省介休市绵山风景区", "image": "", "rank": 16, "time": 2.0, "location": {"lat": 36.89390961932064, "lng": 111.99510421477127}, "feature": {"sight_features": "", "sight_content": ""}}, {"title": "正果寺", "address": "山西省介休市绵山风景区", "image": "", "rank": 17, "time": 1.5, "location": {"lat": 36.89390961932064, "lng": 111.99510421477127}, "feature": {"sight_features": "", "sight_content": ""}}, {"title": "秦柏旅游生态园区", "address": "山西省晋中市介休市西南15公里西欢村柏树岭上", "image": "", "rank": 18, "time": 3.0, "location": {"lat": 36.948930591359314, "lng": 111.90819585159744}, "feature": {"sight_features": "", "sight_content": ""}}, {"title": "介公岭", "address": "山西省介休市绵山风景区", "image": "", "rank": 19, "time": null, "location": {"lat": 36.89390961932064, "lng": 111.99510421477127}, "feature": {"sight_features": "", "sight_content": ""}}, {"title": "朱家凹", "address": "山西省介休市绵山风景区", "image": "", "rank": 20, "time": 2, "location": {"lat": 36.89390961932064, "lng": 111.99510421477127}, "feature": {"sight_features": "", "sight_content": ""}}, {"title": "龙脊岭", "address": "山西省介休市绵山风景区", "image": "", "rank": 21, "time": 2, "location": {"lat": 36.89390961932064, "lng": 111.99510421477127}, "feature": {"sight_features": "", "sight_content": ""}}, {"title": "古藤谷", "address": "山西省介休市绵山风景区", "image": "", "rank": 22, "time": 2, "location": {"lat": 36.89390961932064, "lng": 111.99510421477127}, "feature": {"sight_features": "", "sight_content": ""}}, {"title": "晋中侯家农家小院", "address": "晋中介休绵山镇南槐志村", "image": "", "rank": 23, "time": 6.0, "location": {"lat": 36.91246283787756, "lng": 111.96491361644601}, "feature": {"sight_features": "", "sight_content": ""}}, {"title": "介公墓", "address": "位于绵山介公祠上方百米处5公里的柏树岭下的圆形山丘", "image": "", "rank": 24, "time": 2, "location": {"lat": 36.8741092835272, "lng": 111.99845286145813}, "feature": {"sight_features": "", "sight_content": ""}}, {"title": "蜂房泉", "address": "山西省介休市绵山风景区", "image": "", "rank": 25, "time": 2, "location": {"lat": 36.89390961932064, "lng": 111.99510421477127}, "feature": {"sight_features": "", "sight_content": ""}}, {"title": "一斗泉", "address": "山西省介休市绵山风景区", "image": "", "rank": 26, "time": 2, "location": {"lat": 36.89390961932064, "lng": 111.99510421477127}, "feature": {"sight_features": "", "sight_content": ""}}, {"title": "银空洞", "address": "绵山景区云峰寺东北方向", "image": "", "rank": 27, "time": 2, "location": {"lat": 36.87944113785609, "lng": 111.98242462351489}, "feature": {"sight_features": "", "sight_content": ""}}, {"title": "李姑岩", "address": "山西省介休市绵山风景区", "image": "", "rank": 28, "time": 2, "location": {"lat": 36.89390961932064, "lng": 111.99510421477127}, "feature": {"sight_features": "", "sight_content": ""}}, {"title": "兔桥", "address": "山西省介休市绵山风景区", "image": "", "rank": 29, "time": 2, "location": {"lat": 36.89390961932064, "lng": 111.99510421477127}, "feature": {"sight_features": "", "sight_content": ""}}, {"title": "张兰村", "address": "山西省晋中市介休市张兰镇", "image": "", "rank": 30, "time": 2, "location": {"lat": 37.136504998263476, "lng": 112.07910597572175}, "feature": {"sight_features": "", "sight_content": ""}}, {"title": "汾河湿地公园", "address": "滨河东路森林公园南门对面", "image": "", "rank": 31, "time": 2, "location": {"lat": 37.906790042828824, "lng": 112.54620819351258}, "feature": {"sight_features": "", "sight_content": ""}}, {"title": "绵山天桥", "address": "介休市绵山风景区内", "image": "", "rank": 32, "time": 2.0, "location": {"lat": 36.89390961932064, "lng": 111.99510421477127}, "feature": {"sight_features": "", "sight_content": ""}}, {"title": "碧溪垂钓", "address": "南20公里处新地村绵山风景区水涛沟内", "image": "", "rank": 33, "time": 2, "location": {"lat": 36.89390961932064, "lng": 111.99510421477127}, "feature": {"sight_features": "", "sight_content": ""}}, {"title": "山西省介休市河东村老三农家乐", "address": "016乡道", "image": "", "rank": 34, "time": 2, "location": {"lat": 40.09290812128219, "lng": 116.66926323689323}, "feature": {"sight_features": "", "sight_content": ""}}, {"title": "介休市凌云生态农业园区", "address": "108国道附近", "image": "", "rank": 35, "time": 2.0, "location": {"lat": 36.13357010619177, "lng": 111.55186297208911}, "feature": {"sight_features": "", "sight_content": ""}}, {"title": "关帝庙大剧场(东南门)", "address": "东大街165附近", "image": "", "rank": 36, "time": 2, "location": {"lat": 22.61729942596652, "lng": 114.14733751642652}, "feature": {"sight_features": "", "sight_content": ""}}, {"title": "荷花池垂钓", "address": "381县道东100米", "image": "", "rank": 37, "time": 2, "location": {"lat": 24.376482559841886, "lng": 113.45152578897387}, "feature": {"sight_features": "", "sight_content": ""}}, {"title": "水涛沟-舞台", "address": "晋中市介休市城东南20公里处新地村绵山风景区水涛沟内", "image": "", "rank": 38, "time": 2, "location": {"lat": 36.89390961932064, "lng": 111.99510421477127}, "feature": {"sight_features": "", "sight_content": ""}}, {"title": "哀号坡", "address": "介公岭山脚下", "image": "", "rank": 39, "time": 2, "location": {"lat": 31.26395338154683, "lng": 118.98665548305009}, "feature": {"sight_features": "", "sight_content": ""}}, {"title": "洪山窑址", "address": "山西省介休市洪山镇", "image": "", "rank": 40, "time": 2, "location": {"lat": 37.0272645165784, "lng": 112.03959406715353}, "feature": {"sight_features": "", "sight_content": ""}}, {"title": "避火洞", "address": "介公岭鱼龟山", "image": "", "rank": 41, "time": 2, "location": {"lat": 27.27493261379334, "lng": 114.21362184237495}, "feature": {"sight_features": "", "sight_content": ""}}, {"title": "刘武周庙", "address": "山西省介休市龙凤镇", "image": "", "rank": 42, "time": 2, "location": {"lat": 36.97527016305409, "lng": 112.01419689530074}, "feature": {"sight_features": "", "sight_content": ""}}, {"title": "太和岩牌楼", "address": "山西省介休市义安镇北辛武村", "image": "", "rank": 43, "time": 2, "location": {"lat": 37.134542962610446, "lng": 112.01546345845962}, "feature": {"sight_features": "", "sight_content": ""}}, {"title": "介休东岳庙", "address": "山西省介休市绵山镇小靳村", "image": "", "rank": 44, "time": 2.5, "location": {"lat": 36.94593114422853, "lng": 111.94570174155506}, "feature": {"sight_features": "", "sight_content": ""}}, {"title": "龙凤镇", "address": "山西省介休市龙凤镇", "image": "", "rank": 45, "time": 2, "location": {"lat": 36.97527016305409, "lng": 112.01419689530074}, "feature": {"sight_features": "", "sight_content": ""}}, {"title": "永红歌舞团", "address": "体育路附近", "image": "", "rank": 46, "time": 2, "location": {"lat": 37.077619308586534, "lng": 115.15794488598672}, "feature": {"sight_features": "", "sight_content": ""}}, {"title": "活着真人密室逃脱", "address": "绵山南街如家酒店地下室", "image": "", "rank": 47, "time": 2, "location": {"lat": 37.02865614233356, "lng": 111.91191385276421}, "feature": {"sight_features": "", "sight_content": ""}}, {"title": "郭有道文化展厅", "address": "晋中市介休市城东南20公里处新地村绵山风景区介公岭景区内", "image": "", "rank": 48, "time": 2, "location": {"lat": 36.89390961932064, "lng": 111.99510421477127}, "feature": {"sight_features": "", "sight_content": ""}}, {"title": "方神庙", "address": "晋中市介休市城东南20公里处新地村绵山风景区龙头寺内", "image": "", "rank": 49, "time": 2, "location": {"lat": 36.89390961932064, "lng": 111.99510421477127}, "feature": {"sight_features": "", "sight_content": ""}}, {"title": "唐市", "address": "山西省晋中市介休市绵山镇绵山风景区龙头寺", "image": "", "rank": 50, "time": 2, "location": {"lat": 36.88916333720693, "lng": 111.9586532157537}, "feature": {"sight_features": "", "sight_content": ""}}, {"title": "子乔成仙洞", "address": "晋中市介休市城东南20公里处新地村绵山风景区龙脊岭内", "image": "", "rank": 51, "time": 2, "location": {"lat": 36.88916333720693, "lng": 111.9586532157537}, "feature": {"sight_features": "", "sight_content": ""}}, {"title": "可可小鬼当家儿童乐园(一店)", "address": "山西省晋中市新建西路美特好超市三楼", "image": "", "rank": 52, "time": 2, "location": {"lat": 37.02923129709244, "lng": 111.92310854591092}, "feature": {"sight_features": "", "sight_content": ""}}, {"title": "可可小鬼当家儿童乐园(二店)", "address": "军民路嘉和园南500米美特好2楼", "image": "", "rank": 53, "time": 2, "location": {"lat": 37.04809144767273, "lng": 111.91869589048312}, "feature": {"sight_features": "", "sight_content": ""}}, {"title": "童话城儿童乐园", "address": "裕华路易欣商厦国美电器B1层", "image": "", "rank": 54, "time": 2, "location": {"lat": 38.012087686284076, "lng": 114.53758291425729}, "feature": {"sight_features": "", "sight_content": ""}}, {"title": "古藤迷宫", "address": "晋中市介休市水涛沟附近古藤谷内", "image": "", "rank": 55, "time": 2, "location": {"lat": 36.872860631076, "lng": 111.99855042192804}, "feature": {"sight_features": "", "sight_content": ""}}, {"title": "三官殿", "address": "晋中市介休市城东南20公里处新地村绵山风景区天桥内", "image": "", "rank": 56, "time": 2, "location": {"lat": 36.89390961932064, "lng": 111.99510421477127}, "feature": {"sight_features": "", "sight_content": ""}}, {"title": "阿弥陀佛殿", "address": "晋中市介休市塔林附近云峰寺内", "image": "", "rank": 57, "time": 2, "location": {"lat": 36.87944113785609, "lng": 111.98242462351489}, "feature": {"sight_features": "", "sight_content": ""}}, {"title": "洞玄宫", "address": "晋中市介休市卧龙宾馆附近朱家凹内", "image": "", "rank": 58, "time": 2, "location": {"lat": 36.881552468046365, "lng": 111.972934046463}, "feature": {"sight_features": "", "sight_content": ""}}, {"title": "白云庵", "address": "晋中市介休市妈祖庙附近大罗宫内", "image": "", "rank": 59, "time": 0.5, "location": {"lat": 36.887084218877455, "lng": 111.96253768640605}, "feature": {"sight_features": "", "sight_content": ""}}, {"title": "东配殿", "address": "晋中市介休市城东南20公里处新地村绵山风景区一斗泉景区内", "image": "", "rank": 60, "time": 2, "location": {"lat": 36.88410422783537, "lng": 111.97040922947122}, "feature": {"sight_features": "", "sight_content": ""}}]}