{"cityName": "揭西", "days": 2, "cityImage": "", "spots": [{"title": "黄满寨瀑布", "address": "揭阳市揭西县京溪园镇粗坑村", "image": "", "rank": 1, "time": 12.0, "location": {"lat": 23.53117895882358, "lng": 116.0674830854801}, "feature": {"sight_features": "特色1 岩石若水洗，层叠似铁关 特色2 我国东南的一大瀑布，四季如春", "sight_content": "黄满寨瀑布旅游区位于广东省揭阳市揭西县，这里四季如春，年平均气温21.5℃左右。旅游区总面积约7000亩。黄满寨瀑布宽80米、落差50多米， 三股水流分别从顶端飞悬而下，盛水时节，更是连成一片，十分壮观。而瀑下潭水碧清，潭边的海龟石、海龙石等景观栩栩如生。\n从飞瀑断崖处远望，岩石若水洗，层叠似铁关，溪水深碧，偶尔在阳光照耀下，蜿蜒不知所踪。而据说在下游，还有一个三叠瀑布，水流在三个落差各6米的断崖处唱阳关三叠。弃车登山间小路，沿着溪流逶迤前行，越岭穿竹林，便可在豁然开朗之间听到一片水声，来到瀑布的顶端。\n黄满寨景区一大特色是廊、桥、亭特别多，粗略统计共有70 多座，建筑风格简约，线条明快。主要提供给游客通行、小憩、和点缀观景的作用。其中“廊”有：观关廊、双层长廊、烧烤长廊、休息长廊等。“桥”有: 泛绿桥、春晖桥、连心桥、迎翠桥、湿地曲桥、聚源桥等。“亭”有：园亭、四角亭、六角亭、八角亭等。\n客家风水廊桥有交通功能和风水作用，讲究锁水聚气，倚重拦财聚宝。廊桥建筑一般为石、砖、木结构。廊桥建筑艺术与地形风水相承，依山形水势走向，巧妙与山水自然融合，建筑独特，造型优美，极具客家特色，充分体现了客家人民聪明才智和鲜明的建桥艺术风格。\n在景点河婆寮内，有布衣粗服的河婆为大家现磨现制的养生擂茶。客家人的擂茶也是中华茶道的品类之一，茶味纯，香气浓，不仅能生津止渴，清凉解暑，而且还有健脾养胃，滋补长寿之功能。是有名的养生茶饮。客家人热情好客，吃擂茶往往见者有份，越吃人越多，客人吃了一碗又一碗，主人添满这碗舀那碗，欢声笑语，彼此间感情得以充分交流。喝秦人擂茶一要趁热，二要慢咽，只有这样才会有“九曲回肠，心旷神怡”之感。\n\n黄满寨瀑布景区有两个餐厅可供选择，农家乐餐厅和粗坑餐厅。景区的餐厅卫生条件很好，窗明几净，价格优惠，出品都是以大盆鱼为代表风味纯正的粗坑特色菜式。另外，有兴趣体验做一回山里人家的朋友，可以在自助炊事区体验自助炊事，自己采摘粗坑村有机蔬菜，自己加工；自助生柴火煮饭做菜，景区可以提供各种食材和炊具。烧纸柴火土菜，包饺子，包粽子，体验农家乐趣。"}}, {"title": "京明温泉度假村", "address": "揭阳市揭西县京溪园镇京明温泉度假村云香楼附近", "image": "", "rank": 2, "time": 2, "location": {"lat": 23.512409967580954, "lng": 116.05000922155322}, "feature": {"sight_features": "", "sight_content": ""}}, {"title": "龙山温泉度假村", "address": "揭阳市揭西县龙湖村517乡道和602乡道交界处", "image": "", "rank": 3, "time": 2, "location": {"lat": 23.611411742567253, "lng": 116.06637365302309}, "feature": {"sight_features": "", "sight_content": ""}}, {"title": "大洋国际生态旅游度假区", "address": "大洋村大洋生态旅游度假区", "image": "", "rank": 4, "time": 2, "location": {"lat": 29.831361157892797, "lng": 106.44278612439919}, "feature": {"sight_features": "", "sight_content": "‍‍\n揭西县五经富镇“大洋度假区”项目是集旅游、度假、休闲、会议、培训为一体的综合型旅游度假区，是广东省休闲度假的好去处、假日观光新亮点。旅游区地处大洋乡海拔600~1000米的高山盆地之中，这里山清水秀、空气清新。高海拔和亚热带气候的特点，使这里经常云雾缭绕，恰似仙境。这里既有“三坑一潭”百文悬崖，亦有诱人的山泉，美丽的溪流和高山湖泊等天然景色，特别是山上有一个国际标准的十八洞高尔夫球场，它随着山势起伏而建造，爱好高尔夫球的人士可一试高山上打高尔球的魅力。旅游区气候冬暖夏凉，最高温度不超过30度，夏天气温比潮汕平原低4-6度，是南国得天独厚的避暑胜地。旅游区中部有一个因湖内经常云雾缭绕而得名的云景湖度假村，度假村环湖而建八十多幢马来西亚风格的乡村别墅，还有二十套标准客房，二十套适合家庭式休闲度假的。度假村内娱乐设施一度经过业主精心布设，日臻完善。早在20世纪二十年代就有英、美、法、德等国传教士、商人将大洋乡视为“宝地”，在此建有别墅、教堂、学校。它们依山伴水、环数十亩翠湖而建。在度假村里早看朝阳升起、晚观夕阳西下、月下漫步湖边小径，是您远离都市尘嚣、回归自然的理想去处。1999年被广东省旅游局评为\"旅游度假好去处\" 。\n‍‍情人湖‍‍‍‍‍‍\n粤东魔力情人湖，蓝色的湖水共长天一色\n位于海拔1000米的乌崇山上，高山人烟罕至，湖水宛如天上来，与蓝天一色，水蓝清澈见底，是为今广东省少见的天然高山湖之一。宽广无垠的草木及风化山貌覆盖，古意绵延。情人湖状似一颗人心，局促在山中谷地，碧蓝如翡翠终年不竭。据说这源于一个姑娘为逝去的心上人流下眼泪变成蓝色，后化成湖的美好爱情传说。听说情人湖上的情人桥有某种魔力，凡是携手走过的情人便有好的姻缘。\n‍‍火焰山\n粤东地区不得多见山貌风化山体，静穆中透着神奇\n火焰山坐落位于揭阳大洋山上，是黑色裸石的风化山貌绵延80千米，东西横贯15-30千米，主要由古老的结晶盐组成，山势险峻，一般海拔500-1000。火焰山由南向北，海拔高度逐渐降低，东西部山势减缓，山峰陡峭，黑色岩石裸露，是粤东地区不得多见山貌风化山体。火焰山是最古老的天然山体，历代高官、文人雅士，墨客都在这里留下自己的诗文墨宝。中国最为著名的火焰山位于新疆吐鲁番，而现在不用去到新疆也能看到奇妙的火焰山。\n‍‍万寿山风景区‍‍\n传奇千古万寿山，寓意富贵荣获，寿福绵延\n万寿山位于大洋山西北处，海拔800-1000米，南宋时期，揭阳县官为庆祝六十寿辰于大洋山建长寿亭，并改名为万寿山，为大洋山最具传奇色彩的一座山，因为这座山由古至今，蕴藏这宝藏传说，长寿之说，神明庇佑之说，故名其为万寿山，寓意富贵荣获，神明庇佑，具天地之灵气，寿福绵延。“会仙楼”凉亭的四面佛，可供游客祈福保平安；千年“百寿图”石雕书法和天然“龟石”的天然造型景点寓意寿比南山；比南山宝藏之谜站字石，寻宝探险当归与此。\n‍‍‍‍忠塔茶园‍‍‍‍\n高山茶园风景美不胜收，茶香满山飘香\n大洋的最具特色莫过于高山的茶园，绵延不绝。当走入雾气缭绕的山区，山野茶园间是一片片被整齐划分的茶园，间或能看到穿戴鲜艳的采茶女辛勤劳作。一杯好茶，嗅着缕缕飘荡的茶香，伴着度假慵懒的节奏，感受着沉淀千年的自然风景的完美，仿佛置身画中。高山茶，出自海拔1200至1600公尺的茶园，日夜温差大，茶树生长缓慢，由于湿度和雾珠的增多，高山茶新销肥壮，色泽翠绿，茸毛多，节间长，鲜嫩度好，民间尚有茶谚：高山出好茶。\n‍‍"}}, {"title": "石内河漂流", "address": "揭阳市揭西县坪上镇石内路8号", "image": "", "rank": 5, "time": 2, "location": {"lat": 23.394020442173247, "lng": 115.89334009912027}, "feature": {"sight_features": "", "sight_content": ""}}, {"title": "京明温泉度假村动物观赏园", "address": "京溪园镇新洪村", "image": "", "rank": 6, "time": 2, "location": {"lat": 23.51318101601523, "lng": 116.04952794898658}, "feature": {"sight_features": "", "sight_content": ""}}, {"title": "茂兴生态农庄", "address": "广东省揭阳市揭西县金和大圆往钱坑方向直行4公里", "image": "", "rank": 7, "time": 2, "location": {"lat": 23.392611061541444, "lng": 116.01124644050498}, "feature": {"sight_features": "", "sight_content": ""}}, {"title": "三山国王宫", "address": "河婆镇", "image": "", "rank": 8, "time": 2, "location": {"lat": 23.431786445868905, "lng": 115.84553100160628}, "feature": {"sight_features": "", "sight_content": ""}}, {"title": "黄龙寺", "address": "广东省揭阳市揭西县S335五经富", "image": "", "rank": 9, "time": 1.5, "location": {"lat": 23.43729970820865, "lng": 115.84856088727683}, "feature": {"sight_features": "", "sight_content": ""}}, {"title": "大北山森林公园-京明度假村", "address": "广东省揭阳市揭西县南山镇大北山森林公园", "image": "", "rank": 10, "time": 2, "location": {"lat": 23.503127766265244, "lng": 115.95915011077652}, "feature": {"sight_features": "", "sight_content": ""}}, {"title": "丘氏宗祠", "address": "大成岭附近", "image": "", "rank": 11, "time": 1.0, "location": {"lat": 24.14420817442405, "lng": 114.44055994492939}, "feature": {"sight_features": "", "sight_content": ""}}, {"title": "龙潭飞瀑", "address": "广东省揭西县南山镇 515427", "image": "", "rank": 12, "time": 2.0, "location": {"lat": 23.5266578861255, "lng": 115.9549605477269}, "feature": {"sight_features": "", "sight_content": ""}}, {"title": "汤边温泉村", "address": "五经富镇汤边村", "image": "", "rank": 13, "time": 2, "location": {"lat": 23.56692224030568, "lng": 116.08102290307143}, "feature": {"sight_features": "", "sight_content": ""}}, {"title": "好日子广场", "address": "河婆镇(近滨江公园)", "image": "", "rank": 14, "time": 2, "location": {"lat": 23.43212096845228, "lng": 115.85365762929797}, "feature": {"sight_features": "", "sight_content": ""}}, {"title": "东星温泉", "address": "541乡道附近", "image": "", "rank": 15, "time": 2, "location": {"lat": 41.260956664905464, "lng": 123.89435430619768}, "feature": {"sight_features": "", "sight_content": ""}}, {"title": "汤埔祈福温泉", "address": "541乡道", "image": "", "rank": 16, "time": 2, "location": {"lat": 41.260956664905464, "lng": 123.89435430619768}, "feature": {"sight_features": "", "sight_content": ""}}, {"title": "天竺岩", "address": "河婆镇", "image": "", "rank": 17, "time": 2, "location": {"lat": 23.431786445868905, "lng": 115.84553100160628}, "feature": {"sight_features": "", "sight_content": ""}}, {"title": "揭西县图书馆", "address": "河婆街道好日子广场", "image": "", "rank": 18, "time": 2, "location": {"lat": 27.92488569953056, "lng": 118.53453128158012}, "feature": {"sight_features": "", "sight_content": ""}}, {"title": "揭西县钱坑镇金随岭原生态农庄", "address": "钱坑大茶石小学北面", "image": "", "rank": 19, "time": 2, "location": {"lat": 23.412312087771316, "lng": 116.03524492282334}, "feature": {"sight_features": "", "sight_content": ""}}, {"title": "石林温泉", "address": "越君大道美清园", "image": "", "rank": 20, "time": 0.7, "location": {"lat": 23.454582706802444, "lng": 115.84386706402256}, "feature": {"sight_features": "", "sight_content": ""}}, {"title": "金坑林海", "address": "广东省连山壮族瑶族自治县金坑乡 513200", "image": "", "rank": 21, "time": 1.0, "location": {"lat": 24.576845604092956, "lng": 112.10042570408524}, "feature": {"sight_features": "", "sight_content": ""}}, {"title": "揭西独山", "address": "广东省揭西县良田乡古石村", "image": "", "rank": 22, "time": 3.5, "location": {"lat": 23.59115952479589, "lng": 115.86294985510035}, "feature": {"sight_features": "", "sight_content": ""}}, {"title": "顺达公园", "address": "云景湖度假村附近", "image": "", "rank": 23, "time": 2, "location": {"lat": 23.625648678777587, "lng": 116.01495853621009}, "feature": {"sight_features": "", "sight_content": ""}}, {"title": "揭阳京溪园镇粗坑村", "address": "广东省揭西县京溪园镇 515431", "image": "", "rank": 24, "time": 2, "location": {"lat": 23.53117895882358, "lng": 116.0674830854801}, "feature": {"sight_features": "", "sight_content": ""}}, {"title": "叶洞古庙", "address": "揭西县京溪园镇新洪村隆衣寨", "image": "", "rank": 25, "time": 2, "location": {"lat": 23.51318101601523, "lng": 116.04952794898658}, "feature": {"sight_features": "", "sight_content": ""}}, {"title": "上砂天主堂", "address": "广东省揭阳市揭西县上砂白石村", "image": "", "rank": 26, "time": 2, "location": {"lat": 23.386650273021782, "lng": 115.99148137022307}, "feature": {"sight_features": "", "sight_content": ""}}, {"title": "五经富天主教堂", "address": "广东省揭阳市揭西县S224", "image": "", "rank": 27, "time": 2, "location": {"lat": 23.43729970820865, "lng": 115.84856088727683}, "feature": {"sight_features": "", "sight_content": ""}}, {"title": "温氏宗祠富公祠", "address": "岭新村", "image": "", "rank": 28, "time": 2, "location": {"lat": 22.670501756924686, "lng": 113.99868942497426}, "feature": {"sight_features": "", "sight_content": ""}}, {"title": "钱南儿童乐园", "address": "广东省揭阳市揭西县X100", "image": "", "rank": 29, "time": 2, "location": {"lat": 23.43729970820865, "lng": 115.84856088727683}, "feature": {"sight_features": "", "sight_content": ""}}, {"title": "大型游乐园", "address": "广东省揭阳市揭西县农化路7号", "image": "", "rank": 30, "time": 2, "location": {"lat": 23.435946406847112, "lng": 115.84764210040153}, "feature": {"sight_features": "", "sight_content": ""}}, {"title": "棉湖基督教会礼拜堂", "address": "揭阳市揭西县棉湖镇解放路51号(花果寺旁边)", "image": "", "rank": 31, "time": 2, "location": {"lat": 23.450011681369325, "lng": 116.14430665865132}, "feature": {"sight_features": "", "sight_content": ""}}, {"title": "乐贝儿儿童乐园", "address": "广东省揭阳市揭西县棉湖镇湖滨西路星湖城附近", "image": "", "rank": 32, "time": 2, "location": {"lat": 23.442489422017264, "lng": 116.14623575536048}, "feature": {"sight_features": "", "sight_content": ""}}, {"title": "揭西县基督教大洋堂", "address": "新仓村", "image": "", "rank": 33, "time": 2, "location": {"lat": 42.22923110951994, "lng": 116.4924622417261}, "feature": {"sight_features": "", "sight_content": ""}}, {"title": "慈云古佛", "address": "揭西凤江镇慈云寺(随心善舍)", "image": "", "rank": 34, "time": 2, "location": {"lat": 23.4475131847388, "lng": 116.13039830763142}, "feature": {"sight_features": "", "sight_content": ""}}, {"title": "东山公园", "address": "广东省揭阳市揭西县上砂大桥", "image": "", "rank": 35, "time": 2, "location": {"lat": 23.48083689597179, "lng": 115.70850808567018}, "feature": {"sight_features": "", "sight_content": ""}}, {"title": "彰德祠", "address": "广东省揭阳市揭西县上砂镇庙背村11号旁", "image": "", "rank": 36, "time": 2, "location": {"lat": 23.49270670924805, "lng": 115.682315493941}, "feature": {"sight_features": "", "sight_content": ""}}, {"title": "独山三山国王庙", "address": "广东省揭阳市揭西县", "image": "", "rank": 37, "time": 2, "location": {"lat": 23.43729970820865, "lng": 115.84856088727683}, "feature": {"sight_features": "", "sight_content": ""}}, {"title": "基督教", "address": "广东省揭阳市揭西县南兴街", "image": "", "rank": 38, "time": 2, "location": {"lat": 23.508233174510533, "lng": 115.97300809200988}, "feature": {"sight_features": "", "sight_content": ""}}, {"title": "交历池村文化公园", "address": "广东省揭阳市揭西县荣华路", "image": "", "rank": 39, "time": 2, "location": {"lat": 23.466776331891964, "lng": 116.14477865621359}, "feature": {"sight_features": "", "sight_content": ""}}, {"title": "绍祖公祠", "address": "534乡道附近", "image": "", "rank": 40, "time": 2, "location": {"lat": 40.95785553561725, "lng": 123.86525369920194}, "feature": {"sight_features": "", "sight_content": ""}}, {"title": "棉湖天主堂", "address": "广东省揭阳市揭西县解放路", "image": "", "rank": 41, "time": 2, "location": {"lat": 23.450282394435366, "lng": 116.1455424584393}, "feature": {"sight_features": "", "sight_content": ""}}, {"title": "李氏德立祠", "address": "552乡道附近", "image": "", "rank": 42, "time": 2, "location": {"lat": 40.1348257059596, "lng": 116.74161949995818}, "feature": {"sight_features": "", "sight_content": ""}}, {"title": "顶埠基督教堂", "address": "揭阳市揭西县", "image": "", "rank": 43, "time": 2, "location": {"lat": 23.43729970820865, "lng": 115.84856088727683}, "feature": {"sight_features": "", "sight_content": ""}}, {"title": "广东大北山革命历史纪念馆", "address": "广东省揭阳市揭西县南山镇大北山希望学校东350米", "image": "", "rank": 44, "time": 2, "location": {"lat": 23.555228431830717, "lng": 115.93731140553066}, "feature": {"sight_features": "", "sight_content": ""}}, {"title": "法青古庙", "address": "238省道附近", "image": "", "rank": 45, "time": 2, "location": {"lat": 32.02406130021086, "lng": 119.88529029655679}, "feature": {"sight_features": "", "sight_content": ""}}, {"title": "三奶圣庙", "address": "098县道附近", "image": "", "rank": 46, "time": 2, "location": {"lat": 26.607518118425244, "lng": 112.70495234428849}, "feature": {"sight_features": "", "sight_content": ""}}, {"title": "达摩祖师宫", "address": "新灰埕附近", "image": "", "rank": 47, "time": 2, "location": {"lat": 23.444970450468997, "lng": 116.1424459786864}, "feature": {"sight_features": "", "sight_content": ""}}, {"title": "同心善堂", "address": "广东省揭阳市揭西县钱坑镇寨后山村北侧", "image": "", "rank": 48, "time": 2, "location": {"lat": 23.4020325609415, "lng": 115.98817624554097}, "feature": {"sight_features": "", "sight_content": ""}}, {"title": "金利纪念馆", "address": "后埔村附近", "image": "", "rank": 49, "time": 2, "location": {"lat": 24.77246344173485, "lng": 118.04165483734454}, "feature": {"sight_features": "", "sight_content": ""}}, {"title": "弘基公园", "address": "金岭文化公园附近", "image": "", "rank": 50, "time": 2, "location": {"lat": 23.574849823345403, "lng": 116.09050778037172}, "feature": {"sight_features": "", "sight_content": ""}}, {"title": "姑娘宫", "address": "揭阳市揭西县兴业路36号", "image": "", "rank": 51, "time": 2, "location": {"lat": 23.438688970294155, "lng": 116.1512902033616}, "feature": {"sight_features": "", "sight_content": ""}}, {"title": "革命烈士纪念碑", "address": "广东省揭阳市揭西县S238附近", "image": "", "rank": 52, "time": 0.4, "location": {"lat": 23.43729970820865, "lng": 115.84856088727683}, "feature": {"sight_features": "", "sight_content": ""}}, {"title": "福德古庙", "address": "521乡道附近", "image": "", "rank": 53, "time": 1.0, "location": {"lat": 23.73360321591703, "lng": 113.84984388417438}, "feature": {"sight_features": "", "sight_content": ""}}, {"title": "美德基督教会", "address": "587乡道附近", "image": "", "rank": 54, "time": 2, "location": {"lat": 27.698672888718885, "lng": 113.83205159609686}, "feature": {"sight_features": "", "sight_content": ""}}, {"title": "员峰公祠", "address": "东联村附近", "image": "", "rank": 55, "time": 2, "location": {"lat": 46.370859719330596, "lng": 127.93374474623505}, "feature": {"sight_features": "", "sight_content": ""}}, {"title": "虎山佛堂", "address": "096县道附近", "image": "", "rank": 56, "time": 7.5, "location": {"lat": 30.640520676306924, "lng": 116.34252544832658}, "feature": {"sight_features": "", "sight_content": ""}}, {"title": "石灵寺", "address": "广东省揭西县钱坑镇", "image": "", "rank": 57, "time": 2, "location": {"lat": 23.401782786014685, "lng": 115.99081325819517}, "feature": {"sight_features": "", "sight_content": ""}}, {"title": "惇静公祠", "address": "237省道附近", "image": "", "rank": 58, "time": 2, "location": {"lat": 32.526201013272924, "lng": 119.52409395778015}, "feature": {"sight_features": "", "sight_content": ""}}, {"title": "基督教金坑堂", "address": "金和镇金新学校", "image": "", "rank": 59, "time": 2, "location": {"lat": 23.38743673289884, "lng": 116.07953921857299}, "feature": {"sight_features": "", "sight_content": ""}}, {"title": "革命烈士纪念亭", "address": "335省道附近", "image": "", "rank": 60, "time": 2, "location": {"lat": 38.65605367468026, "lng": 115.46499190580862}, "feature": {"sight_features": "", "sight_content": ""}}]}