{"cityName": "吉隆", "days": 2, "cityImage": "", "spots": [{"title": "吉隆沟", "address": "日喀则市吉隆县境内", "image": "", "rank": 1, "time": 4.5, "location": {"lat": 28.85850166495536, "lng": 85.30407376898663}, "feature": {"sight_features": "", "sight_content": ""}}, {"title": "帕巴寺", "address": "日喀则市吉隆县东部", "image": "", "rank": 2, "time": 2, "location": {"lat": 28.85850166495536, "lng": 85.30407376898663}, "feature": {"sight_features": "", "sight_content": ""}}, {"title": "吉隆藏布峡谷", "address": "日喀则市吉隆县吉隆镇附近", "image": "", "rank": 3, "time": 2.5, "location": {"lat": 28.39893152999436, "lng": 85.33731659625592}, "feature": {"sight_features": "", "sight_content": ""}}, {"title": "大唐天竺使出铭", "address": "日喀则市吉隆县", "image": "", "rank": 4, "time": 0.5, "location": {"lat": 28.85850166495536, "lng": 85.30407376898663}, "feature": {"sight_features": "", "sight_content": ""}}, {"title": "乃村", "address": "吉隆镇乃村", "image": "", "rank": 5, "time": 1.5, "location": {"lat": 28.39893152999436, "lng": 85.33731659625592}, "feature": {"sight_features": "", "sight_content": ""}}, {"title": "开热瀑布", "address": "西藏自治区日喀则市吉隆县吉隆镇", "image": "", "rank": 6, "time": 2.0, "location": {"lat": 28.39893152999436, "lng": 85.33731659625592}, "feature": {"sight_features": "", "sight_content": ""}}, {"title": "吉普大峡谷", "address": "西藏自治区日喀则市吉隆县吉隆镇", "image": "", "rank": 7, "time": 1.0, "location": {"lat": 28.39893152999436, "lng": 85.33731659625592}, "feature": {"sight_features": "", "sight_content": ""}}, {"title": "朗吉错", "address": "西藏自治区日喀则地区吉隆县", "image": "", "rank": 8, "time": 1.0, "location": {"lat": 28.85850166495536, "lng": 85.30407376898663}, "feature": {"sight_features": "", "sight_content": ""}}, {"title": "招提壁垒", "address": "西藏自治区日喀则市吉隆县吉隆镇", "image": "", "rank": 9, "time": 1.0, "location": {"lat": 28.39893152999436, "lng": 85.33731659625592}, "feature": {"sight_features": "", "sight_content": ""}}, {"title": "扎村景区", "address": "西藏自治区日喀则市吉隆县吉隆镇", "image": "", "rank": 10, "time": 1.5, "location": {"lat": 28.39893152999436, "lng": 85.33731659625592}, "feature": {"sight_features": "", "sight_content": ""}}, {"title": "孔塘拉姆雪山", "address": "西藏自治区日喀则市吉隆县", "image": "", "rank": 11, "time": 2, "location": {"lat": 28.85850166495536, "lng": 85.30407376898663}, "feature": {"sight_features": "", "sight_content": ""}}, {"title": "米拉迪朗玛厅", "address": "平安路13号", "image": "", "rank": 12, "time": 2, "location": {"lat": 39.84597508229204, "lng": 118.17020200000498}, "feature": {"sight_features": "", "sight_content": ""}}, {"title": "塔", "address": "西藏自治区日喀则市吉隆县", "image": "", "rank": 13, "time": 1.5, "location": {"lat": 28.85850166495536, "lng": 85.30407376898663}, "feature": {"sight_features": "", "sight_content": ""}}, {"title": "查嘎寺", "address": "西藏自治区日喀则地区吉隆县", "image": "", "rank": 14, "time": 2, "location": {"lat": 28.85850166495536, "lng": 85.30407376898663}, "feature": {"sight_features": "", "sight_content": ""}}]}