{"cityName": "吉木萨尔", "days": 2, "cityImage": "", "spots": [{"title": "五彩湾古海温泉", "address": "昌吉回族自治州吉木萨尔县", "image": "", "rank": 1, "time": 2, "location": {"lat": 44.005717795203225, "lng": 89.1871228581408}, "feature": {"sight_features": "特色1 中国唯一的古海温泉", "sight_content": "七亿年前的古海温泉，古海温泉出水温度为75℃，具有高渗自喷等特性，温泉水中含钙、锂、锶、铁、锌等26种活性元素。能有效治疗动脉硬化、关节炎、痛风、肩周炎、各种皮肤病等症状，且极具美肤润滑，是中国唯一的古海温泉。\n国家aaa五彩湾古海温泉旅游度假区，位于卡拉麦里有蹄类自然保护区内。在这举世闻名的卡拉麦里有蹄类动物保护区，您还可以走进神秘的动物王国，近距离亲近珍稀动物，周边有让您叹为观止的全国最大的煤电煤化工基地。\n景区周边有野马养殖中心、古尔班通古特沙洲生态园、五彩城、玛瑙滩、天然梭梭林及盐湖等景点，是进行拓展训练和徒步野营的理想之地。\n五彩湾温泉度假区周边有著名的五彩城、恐龙沟、硅化木群、胡杨林、姐妹“魔鬼城”、将军戈壁、石钱滩等自然景区和唐代北庭都护府遗址、北庭高昌回鹃佛寺壁画、军师古道等人文景观。"}}, {"title": "火烧山", "address": "昌吉回族自治州吉木萨尔县五彩湾景区内，近216国道", "image": "", "rank": 2, "time": 0.35, "location": {"lat": 44.78773170877238, "lng": 88.86729058243964}, "feature": {"sight_features": "", "sight_content": ""}}, {"title": "古尔班通古特沙漠", "address": "昌吉回族自治州昌吉市", "image": "", "rank": 3, "time": 2, "location": {"lat": 44.020126845938606, "lng": 87.27386462195048}, "feature": {"sight_features": "", "sight_content": ""}}, {"title": "五彩湾", "address": "昌吉回族自治州吉木萨尔县以北100余公里的古尔班通古特沙漠中", "image": "", "rank": 4, "time": 4.5, "location": {"lat": 44.92483000416991, "lng": 89.12706035863604}, "feature": {"sight_features": "", "sight_content": ""}}, {"title": "吉木萨尔千佛洞", "address": "新疆维吾尔自治区昌吉回族自治州吉木萨尔县城西南5千米", "image": "", "rank": 5, "time": 2.0, "location": {"lat": 44.005717795203225, "lng": 89.1871228581408}, "feature": {"sight_features": "", "sight_content": ""}}, {"title": "吉木萨尔县野马场", "address": "昌吉州吉木萨尔县，奇台以北的戈壁荒漠中", "image": "", "rank": 6, "time": 2, "location": {"lat": 43.93042028509054, "lng": 90.2542230699027}, "feature": {"sight_features": "", "sight_content": ""}}, {"title": "奇台火烧山", "address": "昌吉回族自治州奇台县五彩湾景区", "image": "", "rank": 7, "time": 0.35, "location": {"lat": 44.026897819017556, "lng": 89.6010808117238}, "feature": {"sight_features": "", "sight_content": ""}}, {"title": "玫瑰香缇3D画展", "address": "昌吉吉木萨尔县中心路文博中心大楼", "image": "", "rank": 8, "time": 2, "location": {"lat": 43.99411479787205, "lng": 89.17367037542363}, "feature": {"sight_features": "", "sight_content": ""}}, {"title": "吉木萨尔地质公园", "address": "昌吉回族自治州吉木萨尔县文化西路", "image": "", "rank": 9, "time": 3.0, "location": {"lat": 44.00164560846452, "lng": 89.17028785938514}, "feature": {"sight_features": "", "sight_content": ""}}, {"title": "普氏野马", "address": "吉木萨尔县境内的新疆普氏野马", "image": "", "rank": 10, "time": 2, "location": {"lat": 44.005717795203225, "lng": 89.1871228581408}, "feature": {"sight_features": "", "sight_content": ""}}, {"title": "博林植物园", "address": "北庭路75号", "image": "", "rank": 11, "time": 3.5, "location": {"lat": 26.667054392634036, "lng": 119.57545433414903}, "feature": {"sight_features": "", "sight_content": ""}}, {"title": "打谷场农家乐", "address": "大奇高速附近", "image": "", "rank": 12, "time": 2, "location": {"lat": 44.106196605938045, "lng": 88.71094790561452}, "feature": {"sight_features": "", "sight_content": ""}}, {"title": "高昌回鹤佛寺遗址", "address": "新疆维吾尔自治区昌吉回族自治州吉木萨尔县", "image": "", "rank": 13, "time": 2, "location": {"lat": 44.005717795203225, "lng": 89.1871228581408}, "feature": {"sight_features": "", "sight_content": ""}}, {"title": "星期六儿童亲子成长主题乐园", "address": "文明路第1商业广场2楼", "image": "", "rank": 14, "time": 2, "location": {"lat": 44.00370550179384, "lng": 89.20699767073032}, "feature": {"sight_features": "", "sight_content": ""}}, {"title": "星期六儿童水上乐园", "address": "新疆维吾尔自治区昌吉回族自治州吉木萨尔县文明路", "image": "", "rank": 15, "time": 2, "location": {"lat": 44.00542419133741, "lng": 89.18894484503377}, "feature": {"sight_features": "", "sight_content": ""}}, {"title": "吉木萨尔县文博中心", "address": "中心路与民主巷交汇处北侧", "image": "", "rank": 16, "time": 2, "location": {"lat": 43.99999459536038, "lng": 89.17505961351854}, "feature": {"sight_features": "", "sight_content": ""}}, {"title": "玫瑰岛生态旅游度假村", "address": "303省道附近", "image": "", "rank": 17, "time": 2, "location": {"lat": 38.25466494631471, "lng": 114.66726867564682}, "feature": {"sight_features": "", "sight_content": ""}}, {"title": "北庭书画院", "address": "文化西路", "image": "", "rank": 18, "time": 2, "location": {"lat": 31.05712142170989, "lng": 121.75141812479286}, "feature": {"sight_features": "", "sight_content": ""}}, {"title": "普氏野马场", "address": "回族自治州", "image": "", "rank": 19, "time": 2, "location": {"lat": 32.38354048483857, "lng": 118.44647492805589}, "feature": {"sight_features": "", "sight_content": ""}}, {"title": "首届3d魔幻艺术展", "address": "中心路文博中心大楼", "image": "", "rank": 20, "time": 2, "location": {"lat": 32.07118307150039, "lng": 121.0831563212873}, "feature": {"sight_features": "", "sight_content": ""}}, {"title": "北庭故城", "address": "新疆维吾尔自治区吉木萨尔县城北二十公里处", "image": "", "rank": 21, "time": 2, "location": {"lat": 44.005717795203225, "lng": 89.1871228581408}, "feature": {"sight_features": "", "sight_content": ""}}, {"title": "车师古道", "address": "新疆维吾尔自治区吉木萨尔县子街乡", "image": "", "rank": 22, "time": 2.0, "location": {"lat": 44.005717795203225, "lng": 89.1871228581408}, "feature": {"sight_features": "", "sight_content": ""}}, {"title": "北庭商贸城", "address": "新疆维吾尔自治区吉木萨尔县北庭路68号", "image": "", "rank": 23, "time": 2, "location": {"lat": 44.0016527866478, "lng": 89.18841314716514}, "feature": {"sight_features": "", "sight_content": ""}}]}