{"cityName": "济南", "days": "2", "cityImage": "", "spots": [{"title": "趵突泉景区", "address": "济南市历下区趵突泉南路1号", "image": "", "rank": 1, "time": 2.5, "location": {"lat": 36.667022844737446, "lng": 117.02417233540554}, "feature": {"sight_features": "特色1 属于天下第一泉景区，可看其他三股泉水喷发的壮丽景象。 特色2 四面荷花三面柳，一城山色半城湖。 特色3 是以泉水、人文景观为主的文化名园。", "sight_content": "趵突泉位于山东省济南市市中区，南靠千佛山，东临泉城广场，北望大明湖、五龙潭。趵突泉面积达158亩，是以泉为主的国家AAAAA级旅游景区特色园林、国家首批重点公园。\n\n\n趵突泉位居济南七十二名泉之首，被誉为“天下第一泉”，也是最早见于古代文献的济南名泉之一。\n趵突泉是泉城济南的象征与标志，与济南千佛山、大明湖并称为济南三大名胜。\n趵突泉周边的名胜古迹枚不胜数，尤以泺源堂、观澜亭、尚志堂、李清照纪念堂、李苦禅纪念馆等景点最为人称道。"}}, {"title": "大明湖景区", "address": "济南市历下区大明湖路271号", "image": "", "rank": 2, "time": 3.0, "location": {"lat": 36.6780789145717, "lng": 117.03011900020357}, "feature": {"sight_features": "特色1 中国第一泉水湖，泛舟大明湖，赏两岸秀美景色。 特色2 大明湖四季分明，景色秀丽，春色扬烟，夏挹荷浪，秋容芦雪 特色3 皇上，你还记得大明湖畔的夏雨荷吗？", "sight_content": "“四面荷花三面柳，一城山色半城湖”，作为济南市三大名胜之首，大明湖早在唐宋时期就已经闻名于世。\n中国第一泉水湖，泛舟大明湖，赏两岸秀美景色。 徒步园中，参观老舍纪念馆。 夏天在园中看满池怒放的荷花。"}}, {"title": "千佛山", "address": "济南市历下区经十一路18号", "image": "", "rank": 3, "time": 3.5, "location": {"lat": 36.65149673217743, "lng": 117.03966103848323}, "feature": {"sight_features": "特色1 济南三大必玩名胜之一。 特色2 登上山顶可俯瞰济南市区全景。 特色3 隋开皇年间，依山势凿窟，镌佛像多尊，始称千佛山，并建千佛寺。", "sight_content": "千佛山位于济南市南部偏东之处，是泰山的余脉，海拔285米，占地166.1公顷，距市中心2.5公里，千佛山峰峦起伏，林木森森，恰似济南的天然屏障，是济南三大名胜之一。千佛山是济南三大名胜之一，属于来济南必玩之地。推荐从北大门登山，体力充足一般不到1小时就能登顶，当然也可以乘坐缆车，到山顶可以俯瞰济南市区全景。\n千佛山，东西嶂列如屏，风景秀丽、名胜众多。兴国禅寺居于山腰，是全国142所汉传佛教重点寺院之一，内有大雄宝殿、观音堂、弥勒殿、对华亭。南侧千佛崖，存隋开皇年间佛像130余尊。山崖上，由西向东，依次有龙泉洞、极乐洞、黔娄洞、吕祖洞。历山院，在兴国禅寺东侧，曾是儒、道、佛三教合一的院落，现内有舜祠、三圣殿、《舜典》石刻等，为弘扬大舜文化的重要景点。在山北麓建有集中国四大石窟于一体的万佛洞，内塑大小佛像28888尊，游人在此可一瞻北魏、唐、宋造像之风采。山东麓的弥勒胜苑，主像高30米，通体贴金，其体积之大、气势之伟，号称“江北第一大佛”。辛亥革命烈士陵园在千佛山东麓，安葬着辛亥革命中牺牲的23位烈士，是市级重点文物保护单位。此外，景区内还散落着秦琼拴马处的唐槐亭、“遥望齐州九点烟，一泓海水杯中泻”的“齐烟九点”古坊、“峰回路转时、曲径通幽处”的“云径禅关”古坊，以及可俯瞰泉城丰姿、“一览众山小”的一览亭等名胜。\n\n\n近年来，千佛山景区有了长足的发展，先后增添了游览索道、瀛芳园、舜能滑道、十八罗汉、卧佛、大舜石图园、梨园等景点及设施。2011年，市政府投入专项资金对千佛山进行环境改造提升，加强生态绿化景观效果，突出佛、舜两条文化主线，全面提升了千佛山风景区的整体景观和文化品位。2013年，在山南麓兴建了集山东碑刻文化之大成的齐鲁碑刻文化苑，是济南市首家碑刻文化主题公园。至此，千佛山成为一处融历史、文化、风景、宗教于一体，服务功能齐全的旅游胜地。"}}, {"title": "芙蓉街", "address": "济南市历下区", "image": "", "rank": 4, "time": 2.0, "location": {"lat": 36.67216295004278, "lng": 117.08256731389552}, "feature": {"sight_features": "", "sight_content": ""}}, {"title": "九如山瀑布群风景区", "address": "济南市历城区西营镇葫芦峪村", "image": "", "rank": 5, "time": 2.0, "location": {"lat": 36.49304087540382, "lng": 117.30547647319402}, "feature": {"sight_features": "特色1 泉城新八景之一。 特色2 济南避暑胜地，漫步于登山木栈道，吐纳纯净空气。 特色3 灵山碧水，九如胜景十里栈道，蜿蜒山间，踏山水栈道，觅泉城之源高悬的瀑布穿过峡谷，层九落秋意九如山万木红遍，层林尽染。", "sight_content": "九如山瀑布群风景区，AAAA 级景区，国家森林公园。位于泰山北麓，泉城之巅，东临章丘，南接莱芜和泰安，距离济南市区48公里，景区面积三十六平方公里，群山连绵，峰峦叠嶂，峡谷纵横，森林茂密，山泉遍布，溪流交错，瀑布成群，这些令人震撼的景观由长度堪称世界第一的实木栈道巧妙连缀在一起，形成了以八潭、九瀑、二十四泉、三十六峰为核心景观，以山峰、栈道、山泉、溪流、瀑布、深潭为特色的大型生态自然景区，同时它又是泉城七十二名泉的发源地，济南南部山区三川之一锦绣川的源头。\n\n\n\n4月- 6月 山花烂漫，踏春赏花：早春初至，已有迎春、连翘、山茶、山茱萸、蔷薇、山杏花、山桃花、爆马丁香、红王子锦带等，争相斗艳，只见漫山遍野，花枝抖擞，一片金黄，把九如山装扮的分外妩媚，称之为“山花烂漫九如山”。春深之后，更见峡谷增绿，藤萝加密，峰峦染青，朱翠披离，天然植被楚楚依人，遍处释放温柔。此又称“春意盎然九如山”。游人来此踏青探春，感受自然生态，最觉心旷神怡。\n\n\n7月-10月生态避暑休闲游:夏日的九如山，绿色覆盖，如翡如翠，植被最为茂密，人称“葱茏九如山”。当此之际，层峦高树把烈日挡在山外，让山里阴凉尽透，一股股凉气从密林藤萝中穿透而出，送来阵阵寒意。更有群瀑喷雾，溪水起沫，涧壑生风，处处隔绝外部热浪，造就出远离暑气的低温小气候。所以这里又有“世外避暑地，清凉九如山”的美誉。游人置身其间，最能感觉林风凉爽，驱散酷热，潭水起波，寒气袭人，就好比进入天然的空调机房，由衷体验世外凉夏的清爽快乐。\n\n\n\n11月: 秋——层林尽染 : 入秋而来，九如山万木红遍，层林尽染，五彩缤纷，争色斗艳，各类植物都在这个季节迸现最强的魅力，所以人称 “多彩九如山”。\n\n\n与此同时，漫山遍野，果实全熟，板栗出硬壳，合柿呈金黄，秋梨挂枝头，山楂挤锦团，硕果累累，收不胜收。此时此刻，你会觉得九如群山更像一座美丽的画廊，红的绚烂，黄的明丽，绿的深沉，紫的妖娆，真是画中有画，景中套景，让游人目不暇接，尽情体验万般风韵。"}}, {"title": "黑虎泉", "address": "济南市历下区南护城河东端南岸陡壁下", "image": "", "rank": 6, "time": 2.0, "location": {"lat": 36.6678386036621, "lng": 117.02939580228497}, "feature": {"sight_features": "", "sight_content": ""}}, {"title": "红叶谷", "address": "济南市南部山区锦绣川水库南3公里处", "image": "", "rank": 7, "time": 0.5, "location": {"lat": 36.49419076933738, "lng": 117.17006009666804}, "feature": {"sight_features": "特色1 泉的源头、云的故乡、花的世界、林的海洋。 特色2 秋季来此，登高远眺山谷，可赏山谷中满山红叶，层林尽染，无比鲜艳。 蔷薇园、樱花园、百合园，每年会举行各种花展，景色非常绚丽。 特色3 红叶谷并不是只有在秋天观赏红叶，而是一谷有四季，四季不同天。", "sight_content": "红叶谷风景区占地4000余亩，植被以野生的黄栌灌木丛为主。黄栌是红叶谷独有的观赏树种。所处的南部山区是“泉城”济南市泉水的主要涵养补给地且景区海拔在500米在左右。景区占地4000余亩，由济南园林开发建设集团投资建设，是一处融吃、住、行、游、购、娱于一体的高档次生态文化旅游区。\n平均气温比市区低5摄氏度左右，山地小气候较为明显，又景区的植被覆盖率较高，达97%，空气中负氧离子的含量是市区的300多倍又是“天然氧吧”，故称红叶谷是“泉的源头、云的故乡、花的世界、林的海洋、休闲度假的天堂”。\n红叶谷并不是只有在秋天观赏红叶，而是一谷有四季，四季不同天，是一年四季休闲度假的好去处。\n春天，杂花生树，群莺乱飞，红的碧桃，白的梨花，黄的连翘星罗棋布的点缀在一片生机盎然的山林中；夏日，谷中一片心动的郁郁葱葱，飞瀑湍流，山风送爽，谷长景深，流水潺潺，是难得的避暑胜地；\n秋天，登高送目，万山红遍，层林尽染，美不胜收；冬日，白雪皑皑，玉树琼花，阳光纯净而明媚。"}}, {"title": "泉城广场", "address": "济南市历下区泺源大街99号（趵突泉南路口）", "image": "", "rank": 8, "time": 2.0, "location": {"lat": 36.66788209801562, "lng": 117.0292276394935}, "feature": {"sight_features": "", "sight_content": ""}}, {"title": "济南动物园", "address": "济南市天桥区济泺路87号", "image": "", "rank": 9, "time": 2.5, "location": {"lat": 36.70795747874612, "lng": 117.00015004798324}, "feature": {"sight_features": "特色1 环境优美的大型城市动物园。 特色2 可看到大熊猫、金丝猴、亚洲象等珍稀动物，还建有摩天轮等娱乐项目可供游玩。 特色3 济南动物园积淀了深厚的金牛文化和形象文化底蕴。", "sight_content": "济南动物园始建于1959年，位于美丽泉城的北部，占地60余公顷，是我国大型动物园之一，1995年被国家建设部及中国动物园协会命名为“全国十佳动物园”。\n园内一山（金牛山）、一湖（金牛湖）、两河（小清河、工商河），花木扶疏，绿草如茵，路径曲折，各种动物的生态化展示区随地势分布在环山路两侧。自然生态环境浑然天成，人文景观古色古韵，动、植物种类丰富，有各种乔灌木近百种，包括黄连木、七叶树、银杏、水杉等古树名木十余种；还有金牛阁、夕照亭等一批古建筑，及韩美林、启功作品——雄浑精美的牛;展示着来自世界各地的珍稀动物2８0余种，3000余头（只），如金丝猴、扭角羚、丹顶鹤等国家重点保护动物，及世界珍稀动物大熊猫、大猩猩、猩猩、黑猩猩、非洲象、长颈鹿、金刚鹦鹉等。\n园区分为动物展区、娱乐游玩区，科普教育区，餐饮服务区等。从东门进入，直至工商河桥以东园区，即将建成开放的“精灵世界游乐场” 投资1.2亿元人民币，集休闲、娱乐、餐饮为一体，主要有：摩天轮、过山车、大摆锤、激流勇进、云霄跳跃、５Ｄ影院等大型游乐设施。动物展馆、景区和其它经营服务设施分布在工商河以西。一条6米宽的柏油主游览路环绕全园，动物展区按动物进化顺序，结合生活习性和地理分区布置在主环路两侧。沿主环路右行，可到达嘤鸣馆、猛兽区、草食动物区、杂食动物区、非洲动物散养区、大熊猫馆等各动物展区。\n各展区均有园林植物、山石、雕塑、小品做配景，游人在参观动物的同时，可尽赏园林景色之美。另外，济南动物园积淀了深厚的金牛文化和形象文化底蕴，广为流传的“金牛的传说”已被确定为第三批济南市非物质文化遗产，并正在积极申报山东省非物质文化遗产；集济南市形象标志——市鸟白鹭；市花荷花；市树柳树；市吉祥动物“金牛”于一园，有很强的地域代表性。\n动物园广大职工大力开展优质服务、微笑服务、星级服务，努力做到视游客为先，用笑脸温暖游人、用真诚感动游人，已让动物园成为了植物宜生、动物宜居、人们宜往的好去处。"}}, {"title": "五龙潭公园", "address": "济南市历下区趵突泉北路筐市街18号", "image": "", "rank": 10, "time": 1.5, "location": {"lat": 36.67096235232653, "lng": 117.02174890836007}, "feature": {"sight_features": "特色1 济南四大名泉之一 特色2 公园包含27处小泉 特色3 具有较高的游园性价比", "sight_content": "五龙潭又称龙居泉、灰湾泉，位于五龙潭公园内。潭池以自然山石驳岸，长70m，宽35m，水深6m余，是济南最深的一处泉水。五龙潭水面宽阔，澄澈如镜。潭边曲栏画桥、亭台楼阁、杨柳倒垂、青松翠竹、怪石嶙峋。\n\n\n西、南面两岸以条石砌就，东、北为自然石驳岸。四周植以垂柳，潭北叠以假山，怪石嶙峋，配植以青松翠竹。"}}, {"title": "大明湖海底世界", "address": "济南市历下区大明湖路271号", "image": "", "rank": 11, "time": 2, "location": {"lat": 36.6780789145717, "lng": 117.03011900020357}, "feature": {"sight_features": "特色1 集海洋旅游、海底观光、科普为一体。 特色2 徜徉“零距离”的海底世界。", "sight_content": "大明湖海底世界位于泉城济南美丽的大明湖畔，是一座集海洋旅游、海底观光、科普为一体的现代化海洋生物展览馆。\n大明湖海底世界主体建筑分为二层，地下：淡水生物区、活珊瑚观赏区、海底观光隧道、3d海洋体验馆、海底美人鱼表演区、梦幻水母宫；一楼：海洋表演剧场、鳄鱼鳄龟观赏区、人鱼同乐区。\n大明湖海底世界推出了“人鲨共舞”、“美人鱼表演”、“海底芭蕾”“海洋剧场—海狮运动会”等众多特色表演项目，目前正在筹备“海底探险”、“海底婚礼”等时尚旅游体验项目。作为济南市“海底世界”海洋主题展馆，大明湖海底世界正以全新的面貌打造属于泉城济南的“泉城海洋”。\n\n海底隧道是海底世界的精彩之处，头顶是湛蓝湛蓝的海水和成群结队、绚丽多彩的鱼群；头顶时而游过一只正在飞翔的鳐鱼，时而一只美丽的海龟游过你的头顶，回过头突然看见鲨鱼正在你身后向你游来，还有包公鱼、圆燕鱼、玳瑁、护士鲨、银鲳鱼……围绕在身边，让你仿佛身处浩瀚神奇的海底深处。\n饲养各类水生物、海洋动物约500多种，是济南市大型海洋生物主题展览馆，是济南市青少年海洋科普教育基地。"}}, {"title": "天下第一泉风景区", "address": "济南市历下区西北角", "image": "", "rank": 12, "time": 3.0, "location": {"lat": 36.67216295004278, "lng": 117.08256731389552}, "feature": {"sight_features": "特色1 自然风光秀美，人文底蕴深厚， 特色2 春日红花，夏日柳绿，秋日黄叶，冬日银雪覆盖", "sight_content": "趵突泉闻名遐迩、誉满天下，位居济南七十二名泉之冠，是泉城济南的象征标志，素有“游济南不游趵突泉不成游”之说。园内名泉众多，趵突泉与附近的金线泉、漱玉泉、柳絮泉、马跑泉和无忧泉等二十多处名泉组成趵突泉群，是“济南四大泉群”之首。乾隆皇帝南巡时因趵突泉水泡茶味醇甘美，曾册封趵突泉为“天下第一泉”。\n位于五龙潭景区中部，北魏郦道元《水经注》称净池，是古大明湖的一部分。金代《名泉碑》收录，称灰湾泉。元代潭旁建五龙庙，此潭改名为五龙潭。池长70米，宽35米，以石砌岸，溢水标高25.80米，日涌水量最高4.3万立方米。五龙潭为秦琼府第的传说最早见于元代散曲家张养浩所著《复龙祥观施田记》中。\n大明湖四季分明，景色秀丽，春色扬烟，夏挹荷浪，秋容芦雪，冬泛冰天，沿湖亭台楼阁、水榭长廊，名胜古迹点缀其间。重建后的超然楼为一钢筋混凝土仿木楼阁式建筑，坐落在宽大的花岗石台基上，瓦面及附件、门、栏杆等采用铜质材料，匾额和抱柱采用掐丝景泰蓝铜工艺制作，建筑面积5673平方米，楼高51.7米，上下共七层。有电梯可直达楼顶，顶层观光，下面几层以木雕、壁画、图片、文字、三维动画等形式，体现济南泉文化、城市园林文化及老济南的民俗文化，登楼远眺，大明湖乃至泉城的秀丽景色犹如一幅画卷，尽收眼底。\n“玉斌府”是在原东玉斌府街6号的基础上修复而成。仪宾是清代宗室诸王女婿的称谓。据传，曾有陈姓仪宾世居此处，其所在街巷也以仪宾的谐音“玉斌”而名之。恢复后的“玉斌府”是目前济南古城区石砌四合院中最大、建筑质量最好、砖石木雕最精美的院落。\n秋柳诗社大门上方悬秋柳园匾额，两边楹联：“尚书天北斗；司寇鲁东家。”这是清代钱名世赠王渔洋的一幅联,此联由现代国学大师季羡林先生书丹。季羡林先生曾在秋柳园附近的正谊中学求学，先生对济南一直怀有深厚的感情，得知修复秋柳园，以98岁高龄欣然题写了这副对联。秋柳人家位于原秋柳园街11号“王家大院”，这里曾是一户世代行医的老宅子，典型的北方四合院形式。室内按照传统药商进行设计布展，装饰风格体现了民国时期中等富裕人家的生活方式。无论是外地人还是本地人，走进秋柳人家，都能在传统文化的缩影中寻找到家的恬淡和温馨。\n沧浪荷韵：每逢盛夏，大明湖小沧浪水池中荷花盛开，清香弥漫，目之所及，碧波绿影，菡萏映日，如绿漪，似彩霞，别致动人，蔚为壮观。沧浪荷韵的匾额由董其昌所书，楹联：“环城纳湖月，五柳在门墙。”由金代元遗山（元好问）撰，济南书家任晓麓书。历下秋风——旧时济南八景之一。盛夏，人们从炙热逼人的骄阳之下，乘船来到大明湖历下亭岛，顿觉四面清风阵阵，荷香四溢，遍体生凉。特别是秋日来临，秋风乍起，湖边芦苇摇曳，更是清爽异常。古时将这一景观命名为历下秋风。\n大明湖海底世界是一座集海洋旅游、海底观光、科普为一体的现代化海洋生物展览馆。饲养各类水生物、海洋动物约500多种，是济南市首家大型海洋生物主题展览馆，是济南市首家青少年海洋科普教育基地。大明湖海底世界推出了“人鲨共舞”、“美人鱼表演”、“海底芭蕾”“海洋剧场—海狮运动会”等众多特色表演项目，大明湖海底世界正以全新的面貌打造属于泉城济南的“泉城海洋”。"}}, {"title": "济南方特东方神画", "address": "济南市槐荫区吴家堡镇济齐路（西客站北侧）", "image": "", "rank": 13, "time": 3.5, "location": {"lat": 36.70892551294945, "lng": 116.88717489896166}, "feature": {"sight_features": "特色1 感受精彩玩乐项目带来的独特体验。 特色2 神奇东方画卷，合家主题乐园。 特色3 以非遗文化为核心、结合现代科研技术的第四代高科技的主题公园。", "sight_content": "方特东方神画，国家AAAA级景区，是一个充满传奇故事的大型高科技主题乐园，是深圳华强文化科技集团在继方特欢乐世界、方特梦幻王国、方特水上乐园之后，花巨资打造的又一个全新的大型高科技主题乐园。\n方特东方神画是一幅神奇的东方画卷，它利用高超的科技手段，以不可思议的表现形式，向人们展开一幅华夏五千年历史文明精粹的灿烂画卷，如梦如幻、如泣如诉、如诗如画。方特东方神画是一个老少皆宜的主题乐园，适合家庭亲子休闲旅游，同时也适合年轻人寻奇探险。这里有长者钟爱的各种演艺，有孩子们喜欢的熊出没主题区，也有年轻人向往的惊险刺激的游乐项目群，一家人各得其所，浪漫温馨，其乐融融。\n济南方特东方神画位于济南市槐荫区济齐路（西客站北侧）,包含八个大型主题区，拥有十几个大型主题项目及1000余个文化小类。以主题项目、游乐项目、歌舞演艺、精品景观小品、特色雕塑、美食美味组成的上百个精彩子项，值得你花上一整天时间，感受华夏五千年历史文明的悠远厚重，感受现代高新科技的精彩绝伦。\n推荐路线：\n华夏探险之旅\n非遗小镇 → 九州神韵 → 孟姜女 → 女娲传奇 → 梨园游记 → 极地快车 → 惊魂之旅 → 丛林飞龙 → 飞跃河谷 → 仙岛探秘 → 烈焰风云- → 节庆广场 → UFO → 海盗船\n爱情传说之旅\n女娲传奇 → 化蝶传说 → 决战金山寺 → 雷峰塔 → 牛郎织女 → 孟姜女 → 节庆广场 → 七彩王国 → 双层转马 → 波浪小火车\n温馨欢乐之旅\n非遗小镇 → 九州神韵 → 孟姜女 → 梨园游记 → 节庆广场 → 化蝶传说 → 熊出没剧场 → 亲子摩天轮 → 星际战车 → 开心蛙蛙跳 → 音乐船 → 逍遥水母\n中华文明之旅\n非遗小镇 → 九州神韵 → 孟姜女 → 女娲传奇 → 梨园游记 → 雷峰塔 → 节庆广场 → 七彩王国→ 决战金山寺 → 仙岛探秘\nVR体验之旅\n九州神韵 → 女娲传奇 → 梨园游记→牛郎织女→烈焰风云 → 化蝶传说 → 熊出没剧场"}}, {"title": "灵岩寺", "address": "济南市长清县万德镇境内", "image": "", "rank": 14, "time": 2.0, "location": {"lat": 36.34382652573876, "lng": 116.92866719838258}, "feature": {"sight_features": "特色1 欣赏九层辟支塔塔基上的浮雕。 特色2 风景幽深、泉石秀丽。 特色3 千佛殿中塑有通体贴金的“三身佛”。", "sight_content": "灵岩寺座落于泰山西北麓的崇山峻岭之中，与泰山一起被联合国教科文组织列入世界自然与文化遗产名录。寺院创建于东晋时期，距今已有1600多年的历史，自唐代起就与浙江国清寺、南京栖霞寺、湖北玉泉寺并称“海内四大名刹”。灵岩寺，现为全国重点文物保护单位、全国首批AAAA级旅游区。\n\n灵岩寺蕴含了丰富的自然和文化积淀，素有“灵岩奇异出尘寰，压尽江南万重山”的美誉，不但历代文人墨客趋之若鹜，就是历代皇帝去泰山封禅也喜欢驻跸此地。公园665年，唐高宗和武则天到泰山封禅曾在这里逗留十天之久。而大家所熟悉的乾隆皇帝，曾经九次驻跸灵岩寺，留下一百多篇诗文。\n另外，自宋神宗熙宁3年至明代，灵岩寺的主持一律由皇帝钦定，可见其地位之高，名声之大。唐朝名相李吉甫把灵岩寺与浙江天台国清寺、南京西霞寺和江陵玉泉寺并称域内四绝，灵岩寺位列其首。"}}, {"title": "珍珠泉", "address": "济南市历下区院前街1号人大常委会内", "image": "", "rank": 15, "time": 0.5, "location": {"lat": 36.657572953285204, "lng": 117.12640291600198}, "feature": {"sight_features": "", "sight_content": ""}}, {"title": "山东博物馆", "address": "济南市历下区经十路11899号", "image": "", "rank": 16, "time": 2.0, "location": {"lat": 36.66239915345027, "lng": 117.10159549069954}, "feature": {"sight_features": "", "sight_content": ""}}, {"title": "曲水亭街", "address": "济南市历下区", "image": "", "rank": 17, "time": 2.0, "location": {"lat": 36.67216295004278, "lng": 117.08256731389552}, "feature": {"sight_features": "", "sight_content": ""}}, {"title": "百脉泉公园", "address": "济南市章丘市明水汇泉路2017号", "image": "", "rank": 18, "time": 3.5, "location": {"lat": 36.72089332591445, "lng": 117.54484700730181}, "feature": {"sight_features": "特色1 以群泉自然喷涌成湖而著称 特色2 百脉泉游人如织，湖面柳絮惹人烦 特色3 以独特的泉水为载体，彰显鲜明的地域特色", "sight_content": "百脉泉公园景区位于山东省章丘市境内，因闻名遐迩的百脉泉而得名，是全球优秀生态旅游景区、国家4A级旅游景区、山东省服务名牌，总面积1300亩。景区以独特的泉水为载体，以深厚的文化为底蕴，彰显鲜明的地域特色，弘扬卓然一家的清照文化，形成了泉水景观、生态景观、文化景观于一体的山水文化园林。百脉泉为济南七十二名泉之一，与趵突泉齐名并列，曾巩云：“岱阴诸泉，皆伏地而发，西则趵突为魁，东则百脉为冠。”“百脉寒泉珍珠滚”，居章丘八景之首，是中国北方独具特色的泉景公园。百脉泉公园因地缘势，沿水之滨，建有儿童乐园区、名泉水景区、花园景树区、幽静学习区、密林散步区、龙泉寺、清照园。\n百脉泉景区以东、西麻湾两大泉系为主轴，以潭、溪、池、塘为纽带，以桥、岛、堤、栈相连，恰似银线串珠般串连起自然景观与人文景观，灵秀而又和谐。千百年来，浮珠涌翠、透泄天真的百脉泉，倾倒了无数历史名人，元好问、王世禛、蒲松龄、李开先等文人墨客，在它身边流连忘返，酣吟唱咏，留下了许多佳词丽句。百脉泉、梅花泉、墨泉、东麻湾、西麻湾、眼明泉等群泉竟涌、仪态万千。景区内溪流纵横、绿荫匝地、花木婆娑，亭台楼阁映水生辉，庭深院幽意蕴深远，优美的自然风光宛若一轴巨幅画卷次递展开。\n景区内的百脉泉公园以群泉自然喷涌成湖而著称，沿水之滨建有自然风光区、龙泉寺、清照园，层次变化丰富，意韵含蓄深远。自然风光区以万泉湖为中心抒发诗情画意，夹岸、水中，掇山叠石，峭拔岩峻，玲珑空透。湖面烟波荡漾，清澈如镜，重青浅碧，拖练柔蓝；湖中水草袅袅，鱼翔浅底，绿叶红鳞，相映成趣。始建于明景泰元年的龙泉寺，泉畔古柏森郁，竹影婆娑，鸟语蝉鸣，是泉水文化、历史文化、宗教文化有机融合的名胜景点。为纪念宋代女词人李清照而修建的清照园，是一座集中国南北园林风格于一体的园中园，建有易安楼、海棠轩、吟风榭、感月亭、溪亭、燕寝凝香、漱玉堂、碑廊。\n百脉泉公园景区是我市“两泉三河五湖”水系框架中的核心景区，为加快景区建设，下步将实施荷花公园、荷花广场、眼明泉公园与清照词园的对接融合工程，从水路和陆路相互联通，真正实现百脉泉公园、清照词园和眼明泉公园、荷花公园的自然衔接，成为一处体验泉水情趣、寻觅清照文化精髓的旅游胜地。"}}, {"title": "济南野生动物世界", "address": "济南市章丘区经十东路与埠村路交叉口南行7公里（紧邻济南植物园）", "image": "", "rank": 19, "time": 7.5, "location": {"lat": 36.62383333076811, "lng": 117.4807668032562}, "feature": {"sight_features": "特色1 人与动物零距离自由和谐共处 特色2 占地2200亩，是以野生动物观赏、展示和体验为核心。 特色3 森林覆盖面积高达92%，景色优美、空气清新、环境宜人。", "sight_content": "‍‍‍‍‍‍济南野生动物世界位于济南市章丘区西南部的埠村镇，距离济南市区35公里，2016年4月26日正式开门纳客。景区占地面积约2200亩，平均海拔159米，景区内的森林覆盖面积高达92%，以乔木、灌木、地被、水生植物、爬藤植物等树种为主，景色优美、空气清新、环境宜人，空气中的负氧离子含量很高，平均气温要比市区低2-4度。‍‍‍‍‍‍\n\n\n‍‍‍‍‍‍景区共分为南北两大部分，北部为步行游览区，南部为乘车游览区。步行游览区以“主题式”展示分区，包括鸟鸣花谷、吉象领地、虎啸山谷、林梢王国、熊猫馆、花豹小径、青龙印象等9个区域；乘车游览区以“地理生境”展示分区，由非洲草原、高寒地带、澳洲山林、狂野地带、亚洲草原5个区域组成，以散养和圈养相结合的方式，饲养着各类珍稀保护动物200余种，近3000多（头）只。‍\n\n\n目前，拥有双角白犀牛群、豹群、南非动物种群、白虎群、雪虎群、金虎群。"}}, {"title": "九顶塔中华民俗欢乐园", "address": "济南市历城区柳埠镇秦家庄", "image": "", "rank": 20, "time": 3.5, "location": {"lat": 36.42535632057788, "lng": 117.1412147162338}, "feature": {"sight_features": "特色1 大型原生态民族文化4A级景区", "sight_content": "济南九顶塔中华民俗欢乐园是集中华民族风情、风景名胜、游乐探险、系列实景剧演出和休闲度假于一体的大型原生态文化旅游区，位于山东济南市历城区柳埠镇，距济南市20余公里。\n\n\n总投资超亿元，汇集了中国傣、壮、藏、彝、佤、摩梭等16个少数民族和泉城人家、泰山人家、黄河人家、沂蒙人家、胶东人家和微山湖人家等6个齐鲁民居，分别展现了少数民族和齐鲁不同地域的民居建筑、民俗、歌舞、服饰、餐饮和民间工艺等六大文化。\n\n\n游览风景名胜区内国家级保护文物九顶塔、济南七十二名泉之一的缎华泉，漫步在植被茂密的山从中，感受大自然的美丽。\n\n\n“杂把地”里的斜屋、倒屋、横屋、隐身小屋、魅影空间和老照相馆等异域空间，供您欣赏拍照留念，另有迷宫、鬼屋等设施，挑战您的心理极限。方队巡游，身着节日盛装的水傣、汉傣和花腰傣的小普冒和小普哨们敲起芒锣和象脚鼓，在欢快的乐曲中欢度泼水节。"}}, {"title": "跑马岭生态休闲度假区", "address": "济南市历城区柳埠镇跑马岭生态休闲度假区", "image": "", "rank": 21, "time": 2, "location": {"lat": 36.45102723837093, "lng": 117.20853094640447}, "feature": {"sight_features": "特色1 阖家出游，亲近自然 特色2 被人们称为“天然氧吧”，有小云南之美誉 特色3 天然氧吧，亲子乐园", "sight_content": "济南跑马岭生态休闲度假区集自然美、生态美、动物科普、园林景观、国防教育基地、娱乐休闲于一体，御马亭、望岳亭、良心桥、携手亭、图腾园、齐长城、游禽湖、奇石林等近百处景点纵向分布，高低错落，与山岳、森林环境完美融合。\n奇石林内松林茂密，怪石林立，让人体验到“鸟鸣山更幽”的原始生态。\n跑马岭春天百花怒放，夏天松涛宜人，秋天红枫胜火，冬天雪满枝头。\n尤其是在夏天，您既可以感觉到春天的温暖、秋天的凉爽，到了晚上甚至可以感觉到初冬寒风时时袭来，真可谓是“一山有四季，十里不同天”。更是消夏避暑，休闲度假的好去处。济南跑马岭是亲近大自然的好地方。\n作为回归自然的乐园，您能充分体验自然原始的美，放松身心。"}}, {"title": "济南国际园博园", "address": "济南市长清区大学路3366号", "image": "", "rank": 22, "time": 4.0, "location": {"lat": 36.55787101717779, "lng": 116.81866735137649}, "feature": {"sight_features": "", "sight_content": ""}}, {"title": "洪家楼教堂", "address": "济南市历城区洪家楼1号", "image": "", "rank": 23, "time": 2.0, "location": {"lat": 36.69198572508897, "lng": 117.07171912143826}, "feature": {"sight_features": "", "sight_content": ""}}, {"title": "朱家峪", "address": "济南市经十东路东首朱家峪", "image": "", "rank": 24, "time": 2.0, "location": {"lat": 36.66268691651476, "lng": 117.59531956000762}, "feature": {"sight_features": "特色1 游人登门顶部，可迎旭瞻麓，一览山乡之秀美", "sight_content": "“齐鲁古村，江北聚落标本”——朱家峪位于明水城东南五公里处，胡山东北脚下，距省会济南约45公里，从309国道（济王路）南行2公里便到该村。朱家峪古村为梯形聚落，上下盘道，高地参差，错落有致，该村三面环山，北临齐鲁世博精品园，南接胡山，西连胡山森林公园，村南头，文峰独秀，庄北首，文昌阁楼，笔架山依偎着村西首，东崖下，清泉长流，村四周尚有九山不露头，这风光此处独有。\n古村大小古建筑近二百处，大小石桥三十余座，井泉二十余处，庙宇十余处。康熙立交桥、文昌阁、魁星楼、关帝庙、朱氏家祠、双轨古道、坛井七桥，东领朝霞，古柏亭立、团山瀑布，碧塘倒影，狮子洞、云雾洞、朝阳洞、仙人桌、仙人桥、人文景观，自然景观数不胜数。因此，朱家峪被专家誉为“齐鲁古村，江北聚落标本”。\n游人登门顶部，可迎旭瞻麓，一览山乡之秀美。深秋季节，可赏漫山红叶，大雪过后，玉树琼枝，群山玉峰，更让人留恋。二00二年官庄乡政府成立了朱家峪旅游公司，并投资修建、新建多处景点，在原魁星楼后面新建魁星楼一座,上下三层，并用黄铜铸造高1.7米，重达1.5吨的“齐鲁状元钟”。民间体育大世界内民间体育器械一应俱全，欢乐谷内各种游乐器械更是让儿童流连忘返，文峰山的西侧，一座石雕“送子观音”在山脚下便可清楚可见。魁星楼、文昌阁内更是重新塑了魁星、文昌二星。"}}, {"title": "济南植物园", "address": "济南市章丘市埠村镇埠西村济南植物园", "image": "", "rank": 25, "time": 3.0, "location": {"lat": 36.627413669037495, "lng": 117.46759009601872}, "feature": {"sight_features": "特色1 具有植物科普、游览观赏等功能。 特色2 艺术外貌与科学内涵、文化内涵有机结合。 特色3 拥抱大自然，感受清新健康。", "sight_content": "济南植物园距济南市区35公里，占地约1150亩，东邻省道243线，北距309国道4.8公里,南接济青高速南线,距济南国际机场26公里,交通条件十分便利。植物园自2006年开园以来，以优美的生态环境，深受广大游客的喜爱。济南植物园先后被评为“国家AAAA级旅游景区”、“齐鲁山水新十景”、“济南市优秀旅游景区”。\n济南植物园具备植物科普、游览观赏等功能。已建成竹园、紫薇石榴园、樱花园、海棠园、蔷薇园、牡丹园、木兰园等十二个植物观赏园，同时还有彩色植物区、童乐园、月季园等特色园区。成功举办的全民植树节、踏青节、春季百花展、暑期全民消夏露营节、国庆花展、红红火火过大年等游园活动，受到广大游客的好评。"}}, {"title": "泉城公园", "address": "济南市历下区经十路106号", "image": "", "rank": 26, "time": 2.5, "location": {"lat": 36.65127276158178, "lng": 117.02625263130555}, "feature": {"sight_features": "", "sight_content": ""}}, {"title": "五峰山", "address": "济南市长清区东南十公里处", "image": "", "rank": 27, "time": 1.0, "location": {"lat": 36.5602158799097, "lng": 116.84821764194412}, "feature": {"sight_features": "特色1 以秀、幽、奇、古的景色而著称", "sight_content": "素有齐鲁仙境美誉的五峰山，位于济南市长清区境内，毗邻大学科技园，南接泰山、曲阜，西望黄河，以五个并列于青山白云间的秀丽山峰而得名，自西向东依次为迎仙峰、望仙峰、会仙峰、志仙峰、群仙峰，五仙峰宛若俊俏的五位仙女携手并立，婀娜多姿，更增添了五峰山的神韵。\n五峰山常年掩映在绿树浓荫之中，宫、观、亭、台相互辉映，风景绝佳。古今有内外八景之称，内八景是：七星泉、迎仙桥、更鸡桥、无影庙、仙人台、青龙峪、白虎峪、清泠泉；外八景是青崖积翠、润玉七峰、明泉早照、凤山烟雨、滚粟朝霞、鱼台钓月、杏堤春晓、薛岭牧樵。内外八景景景生辉，处处生情，优美的自然景观和悠久的历史文化浑然融为一体。\n五峰山以秀、幽、奇、古的景色而著称。峰峦之中泉水随处可见，终年不竭，更增添了五峰仙境的妩媚。众多泉眼中，清泠泉、七星泉、白虎泉、鹿泉更以四时不绝而闻名，泉水甘洌清澈，沁人心脾。泉水草木带来秀丽，也制造了这里宜人的小气候，暑季气温比外界低3-7℃，是理想的游览和避暑胜地。山间古木历经多年风霜，依旧生机盎然，最奇的是植根于岩石之上，形成“石生树、树抱石”的天然奇观，而面对集五种枝叶于一身的千年古树“五叶松”，和那株树龄两千余年、35米高、叶冠覆盖2540平方米、雌雄同株的古银杏树时，只能让人感叹天地造化之神奇了。\n五峰山是有名的道教圣地，其道观分南北两观，南观又名玄都观，是明德王的香火院，在道佛山南麓有明德王陵墓九座。北观即洞真观。据《五峰山志》记载：“五峰山始建于秦，兴发于北魏，广拓于金元，繁荣于朱明，垢污于明末清初。” 金宣宗敕封为“洞真观”，元代敕封为“护国神虚宫”，明代敕封为“保国隆寿宫”，建有皇宫门、午朝门、三清殿、玉皇殿等、朝阳洞、青帝宫、卧龙池、清泠亭、碑林等景观，两观占地2085亩，规模宏大，气势雄伟。去年，管委会多方筹集资金修复了青帝宫、九莲圣母殿，丰富了景区旅游内涵，为香客居士提供了一个活动场所，同时，为宣传五峰山推广五峰山起到了积极作用。“仙者，人在山也”，古时就有“登泰山而小天下，上五峰始知清幽”之说，奇秀清幽的五峰山，期待着您探访的足迹。"}}, {"title": "金象山橡谷国际营地", "address": "济南市历城区锦绣川商家村金象山风景区", "image": "", "rank": 28, "time": 2, "location": {"lat": 36.51416242273904, "lng": 117.15527472458432}, "feature": {"sight_features": "特色1 汇集200余种游乐设施", "sight_content": "济南金象山乐园汇集了200余种游乐设施，项目参与、互动性强，开发智力、增加体力、有竞技的快感，增加交际能力和挑战意识，在挑战中互相配合，增进家庭感情，增加团队凝聚力，成为家长与孩子互动，领导与员工互动的特色游乐项目。加上周围的气势磅礴的高山和飞鸟让人流连忘返。林立其间的宇宙飞车、世纪飞碟、太空椅等大型电动游乐设施，人们在飞速的旋转和运动中放声大笑…\n\n花香伴着湿润的气息弥漫在空气中，阳光透过参天的绿色植被，撒下金子般的光芒，露珠懒洋洋的从灌木丛的绿色叶子上，洒落下来。天空中的诽诽细雨，在阳光的照射下，形成了七彩的虹，在强烈的光和作用下，每一面新绿都吐出湿润的氧气，走过丛林看到了飞溅的瀑布，霎时瀑布与布满青苔的石头发出了悦耳的撞击声，几只彩色的鸟儿，飞过丛林，不远处的亭台依稀可见——支着油伞，细细品位热带雨林的美景。\n\n逍遥门——江南串门，分布于整个逍遥谷，最深处有逍遥亭。香茗坊——香茗古筝为伴，手捧一杯香茗，耳听高山流水，不似而胜似庄周的逍遥游。文溪——尚父台、竹简书法三绝壁、乌篷船、吐珠潭、水帘洞，竹桥——翠绿修长的细竹所制，体验古香古色的感觉。\n\n一个散播快乐的舞台，一个释放压力的地方，喜洋洋与灰太郎话剧表演、优美迷人的白雪公主、笨拙可爱的小矮人、婉约动人的豌豆公主，宛如一个童话世界；卡通玩偶大联欢、宠物大巡园、舞台魔术秀、小品故事会…每天都有新创意、每周都有新故事、每月都有新精彩，置身欢乐的海洋，让你把欢乐带回家。\n\n碰碰船、缅甸桥、步云桥、五彩桥。大人孩子在水间嬉戏，在加上21种新奇的过桥方式，时而攀爬时而滑行。水上项目可以让一家老小一起参与，携手同行，更显情趣！"}}, {"title": "水帘峡风景区", "address": "济南市历城区柳埠镇簸箕掌村", "image": "", "rank": 29, "time": 4.5, "location": {"lat": 36.42115154088964, "lng": 117.22142688735649}, "feature": {"sight_features": "特色1 国家AAAA级旅游区、国家地质公园。 特色2 泉城原始植被被保存的原生态风景区。 特色3 远离都市，寻找世外桃园。", "sight_content": "水帘峡风景区位于济南市历城区的柳埠镇。是国家AAAA级旅游区、国家地质公园、国家森林公园、山东摄影家协会创作基地。景区地跨济南、泰安两地，占地10平方公里，是济南的原生态风景旅游区。以高山、险峡、山泉、瀑布、 泰山奇石、桃花水母著称，内有济南最高峰、最大的峡谷和省内最大的天然瀑布群之一，是泉城济南的水源涵养地，素有“泉城之巅、趵突之源”的美誉。\n\n景区内群山环绕，飞瀑成群，内有济南高峰，海拔976米的梯子山，和大峡谷—九十九峡。古齐长城蜿蜒而过，众多历史名人曾在此留下足迹，更有许多美丽的神话传说流传至今。这是一个毓秀钟灵的地方，“水帘峡”之名即唐太宗李世民所赐。雄奇秀丽的自然风光和多姿多彩的民俗风景使每一位到此一游的朋友们都流连忘返，乐不思归。这钟灵毓秀的风水宝地，神仙也分外眷恋。青山绿水中，金光熠熠的关公像气势宏伟，是长江以北最大的财神像之一。水帘洞的观世音菩萨和药王庙的药王二仙，至今仍吸引着四方百姓来此求子祈福。\n山间小径蜿蜒曲折，林间四季溪水潺潺。山中泉水众多，以水帘泉、龙虎泉、饮马泉、淘米泉、公主泉、苇泉六泉为最，在清代郝植恭所著的《济南七十二名泉》中就有关于水帘泉、饮马泉的记载。其中饮马泉是济南海拔高度最高的泉眼。水帘泉所在的水帘洞由巨石坍塌形成，泉水常年不息从洞中石缝流出，甘醇清冽，素有神水之称。传说此水百病皆治，附近村民因长年饮此泉水，村中百岁老人甚多，是远近闻名的“长寿村”。经专业人士分析，这是因为大峡谷中生长着灵芝、何首乌等丰富的中药材，泉水经过这些珍稀药材的浸润、岩层过滤，包含的多种有益元素具有强身健体的功效。更让人称奇的是，在水帘泉旁的峭壁上，一个白色石纹图案形如齐天大圣孙悟空腾空飞起，手持长长的金箍棒，正望向水帘洞，给水帘洞凭添了几分神秘，使它更加名副其实。\n在水帘峡风景区您还可以一览济南海拔最高的活水深潭之一——水母天池。天池水源来自地下泉水和山体渗水，这在海拔900多米的山上实为罕见，因为此处水温较低，天池内的河虾、河蟹、河鱼肉味鲜美。早在06年夏天这里就发现了生活在淡水中“桃花水母”，是地球上最为原始的单细胞无脊椎生物之一，距今已有6.5亿年的历史，被誉为生物进化研究的“活化石”，堪比大熊猫和中华鲟，有“水中大熊猫”的美誉。据悉，桃花水母对水质要求极高。水母天池的水质柔软纯净、没有污染，桃花水母在这里安家落户，进一步印证了水帘峡原始纯美的自然条件。"}}, {"title": "解放阁", "address": "济南市历下区下河涯街22号", "image": "", "rank": 30, "time": 2, "location": {"lat": 36.66924828573589, "lng": 117.04094190266582}, "feature": {"sight_features": "", "sight_content": ""}}, {"title": "大明湖景区游船", "address": "济南市历下区大明湖路271号", "image": "", "rank": 31, "time": 2, "location": {"lat": 36.6780789145717, "lng": 117.03011900020357}, "feature": {"sight_features": "", "sight_content": ""}}, {"title": "李清照纪念堂", "address": "济南市历下区泺源大街91号", "image": "", "rank": 32, "time": 1.0, "location": {"lat": 36.66949046705871, "lng": 117.0220222860827}, "feature": {"sight_features": "", "sight_content": ""}}, {"title": "漱玉泉", "address": "济南市历下区趵突泉南路1号趵突泉公园李清照纪念馆内", "image": "", "rank": 33, "time": 1.0, "location": {"lat": 36.667926391018675, "lng": 117.02299718022213}, "feature": {"sight_features": "", "sight_content": ""}}, {"title": "四门塔", "address": "济南市南部山区", "image": "", "rank": 34, "time": 2.0, "location": {"lat": 36.65655420178723, "lng": 117.12639941261048}, "feature": {"sight_features": "特色1 全国重点文物保护单位", "sight_content": "四门塔位于济南南部山区，地处柳埠国家森林公园。气候属季风气候，地形属山陵地形。该地历史悠久，文化灿烂，郎公和尚曾在神通寺做过主持，当时僧人达 500余众(公元351年)。内有隋代的四门塔，唐代的千佛崖和龙虎塔，唐以后的主要遗迹有元、明、清代的碑刻、故墓、塔林、涌泉、瀑布、竹林；景区内的金牛山空中花园，每年夏季为夏令营基地和农业生态游基地。\n四门塔建于隋朝后期，距今已有一千三百多年，是目前中国古老的单层亭阁式石塔。四门塔呈平面四方形，全部用当地出产的大青石砌成，非常坚硬，一千多年来尚无风化侵蚀的情况。\n\n它由塔基、塔身、塔檐和宝顶组成，塔身上用石块垒砌挑出五层作为塔四角攒尖的锥状屋顶，上置石刻塔刹。 一九六一年，国务院首批公布为全国重点文物保护单位。涌泉位于四门塔西，白虎山之阳的涌泉庵遗趾东侧。崇祯、乾隆《历城县志》有载，称“在神通寺西，瀑布飞悬，流入锦阳川”。泉水从峪中白虎山腰处岩隙中涌出，通过暗渠由一石雕龙头口中吐入池中，池名“净池”，建于明天启三年。泉水旺盛，一年四季不涸。\n\n池中水草浮动，银鳞小鱼戏 游。水从池南壁流出，经过明万历六年建造的涌泉桥下，依山势向南三迭而下：一迭注入石砌方形“青龙潭”；二迭流入山石砌岸的不规则小池；最后一迭由10米余高的悬崖上跌落至名为“卧龙洞”的小石潭。水由石潭溢出，形成三处各具特色的景观。首先是一段细长弯曲的小溪，潺潺涓涓，称“细水常流”。然后流经竹林，铺绿描翠，浪花飞溅，称“锦上添花”。最后缓缓地穿过柳树林、芳草地，汇入锦阳川。泉池旁有“望岳亭”。置身亭内，信目南眺：近处平野宽绰，阡陌纵横，点点农舍，袅袅炊烟；平野尽处，群峦叠嶂，白云缭绕，泰岱明灭可见。"}}, {"title": "趵突泉景区游船", "address": "济南市历下区趵突泉北路", "image": "", "rank": 35, "time": 2, "location": {"lat": 36.67289974465188, "lng": 117.02264081164667}, "feature": {"sight_features": "", "sight_content": ""}}, {"title": "天下第一泉风景区游船", "address": "济南市历下区西北角", "image": "", "rank": 36, "time": 2, "location": {"lat": 36.67216295004278, "lng": 117.08256731389552}, "feature": {"sight_features": "", "sight_content": ""}}, {"title": "环城公园", "address": "济南市历下区南门大街2号", "image": "", "rank": 37, "time": 2.0, "location": {"lat": 36.667527138279844, "lng": 117.03401432867463}, "feature": {"sight_features": "", "sight_content": ""}}, {"title": "金线泉", "address": "济南市历下区趵突泉公园内", "image": "", "rank": 38, "time": 1.0, "location": {"lat": 36.668169801322314, "lng": 117.02274584961165}, "feature": {"sight_features": "", "sight_content": ""}}, {"title": "宽厚里", "address": "济南市历下区半边街", "image": "", "rank": 39, "time": 2.0, "location": {"lat": 36.66813682824203, "lng": 117.03717171354212}, "feature": {"sight_features": "", "sight_content": ""}}, {"title": "山东省科技馆", "address": "济南市历下区南门大街1号", "image": "", "rank": 40, "time": 2.0, "location": {"lat": 36.66761498005535, "lng": 117.03321988884093}, "feature": {"sight_features": "", "sight_content": ""}}, {"title": "杜康泉", "address": "济南市历下区趵突泉南路1号趵突泉景区内", "image": "", "rank": 41, "time": 0.4, "location": {"lat": 36.667487174165664, "lng": 117.02280574323322}, "feature": {"sight_features": "", "sight_content": ""}}, {"title": "山东大学", "address": "济南市历城区山大南路27号", "image": "", "rank": 42, "time": null, "location": {"lat": 36.677793914544885, "lng": 117.06666100026423}, "feature": {"sight_features": "", "sight_content": ""}}, {"title": "柳絮泉", "address": "济南市历下区趵突泉南路1号趵突泉景区内", "image": "", "rank": 43, "time": 0.4, "location": {"lat": 36.667487174165664, "lng": 117.02280574323322}, "feature": {"sight_features": "", "sight_content": ""}}, {"title": "济南解放纪念馆", "address": "济南市历下区黑虎泉北路与黑虎泉西路交汇外", "image": "", "rank": 44, "time": 1.0, "location": {"lat": 36.67304383005355, "lng": 117.04113918852191}, "feature": {"sight_features": "", "sight_content": ""}}, {"title": "泉城夜宴明湖秀", "address": "济南市大明湖路271号大明湖北岸奇石馆前", "image": "", "rank": 45, "time": 2.0, "location": {"lat": 36.6780789145717, "lng": 117.03011900020357}, "feature": {"sight_features": "特色1 济南市重点打造的城市品牌、民心工程和旅游精品项目。 特色2 通过声光电的完美搭配，将观众带入到大明湖畔撼人心魄的极致美景之中。", "sight_content": "“泉城夜宴”是济南市重点打造的城市品牌、民心工程和旅游精品项目。演出地点位于济南市大明湖路271号大明湖北岸奇石馆前。\n\n\n作为“泉城夜宴”的精华部分，“明湖秀”是一场汇集喷泉、喷火、喷雾、矩阵光毯、表演大船、升降亭台、投影激光等综合演绎的“视听体验，综合水秀”。\n\n\n整场演出以大明湖为载体，用济南故事展现人文画卷，追求视觉大意大美、以恢弘音乐、矩形水幕、气爆摇摆喷泉阵列。\n\n\n通过声光电的完美搭配，将观众带入到大明湖畔撼人心魄的极致美景之中，宏大的视觉盛宴完全通过智能技术精准操作，讲述济南从历史走向未来的动人篇章。\n\n\n泉城济南明湖秀，欢迎您的到来！"}}, {"title": "王府池子", "address": "济南市历下区曲池子街（近芙蓉街）", "image": "", "rank": 46, "time": 1.0, "location": {"lat": 36.672612926338594, "lng": 117.02945462153316}, "feature": {"sight_features": "", "sight_content": ""}}, {"title": "舜玉公园", "address": "济南市市中区舜玉路", "image": "", "rank": 47, "time": 0.6, "location": {"lat": 36.63197053625152, "lng": 117.02450446769836}, "feature": {"sight_features": "", "sight_content": ""}}, {"title": "石湾泉", "address": "济南市历下区趵突泉南路1号趵突泉景区内", "image": "", "rank": 48, "time": 0.4, "location": {"lat": 36.667487174165664, "lng": 117.02280574323322}, "feature": {"sight_features": "", "sight_content": ""}}, {"title": "泉城路", "address": "济南市历下区泉城路", "image": "", "rank": 49, "time": 3.0, "location": {"lat": 36.67134121420814, "lng": 117.03244196345575}, "feature": {"sight_features": "", "sight_content": ""}}, {"title": "芙蓉泉", "address": "济南市历下区芙蓉街69号居民院前", "image": "", "rank": 50, "time": 0.4, "location": {"lat": 36.67336674714031, "lng": 117.02925207340337}, "feature": {"sight_features": "", "sight_content": ""}}, {"title": "济南森林公园", "address": "济南市槐荫区张庄路321号（近兴济河）", "image": "", "rank": 51, "time": 1.5, "location": {"lat": 36.66872989868001, "lng": 116.9485263688681}, "feature": {"sight_features": "", "sight_content": ""}}, {"title": "浅井泉", "address": "济南市历下区趵突泉南路1号趵突泉景区内", "image": "", "rank": 52, "time": 0.4, "location": {"lat": 36.667487174165664, "lng": 117.02280574323322}, "feature": {"sight_features": "", "sight_content": ""}}, {"title": "九女泉", "address": "济南市历下区解放阁南侧护城河北岸边", "image": "", "rank": 53, "time": 0.3, "location": {"lat": 36.66918360441298, "lng": 117.0401425023891}, "feature": {"sight_features": "", "sight_content": ""}}, {"title": "百花公园", "address": "济南市历城区闵子骞路10号", "image": "", "rank": 54, "time": 1.0, "location": {"lat": 36.68134773050259, "lng": 117.07359873049751}, "feature": {"sight_features": "", "sight_content": ""}}, {"title": "湛露泉", "address": "济南市历下区趵突泉南路1号趵突泉景区内", "image": "", "rank": 55, "time": 0.4, "location": {"lat": 36.667487174165664, "lng": 117.02280574323322}, "feature": {"sight_features": "", "sight_content": ""}}, {"title": "玛瑙泉", "address": "济南市历下区黑虎泉东侧（护城河南岸）", "image": "", "rank": 56, "time": 0.25, "location": {"lat": 36.66842547262109, "lng": 117.03738581567738}, "feature": {"sight_features": "", "sight_content": ""}}, {"title": "商河温泉基地", "address": "济南市商河县商西路8号（商西路与新城街交叉口）", "image": "", "rank": 57, "time": null, "location": {"lat": 37.269661444265196, "lng": 117.14186944171323}, "feature": {"sight_features": "特色1 集康体、温泉度假、休闲疗养等为一体", "sight_content": "商河温泉基地是由济南商河石油天然气开发总公司投资兴建，委托济南舜耕山庄酒店管理公司经营管理的，集餐饮、客房、会议、康体、温泉度假、休闲疗养为一体的，吃、住、娱、购配套的全新含温泉的国家星级旅游饭店。酒店整体占地11.7万平方米，为园林式景观建筑群，景色宜人、环境优美。基地距离县城中心乘车约十分钟左右，靠近316省道，位置优越，交通出行便利。\n\n商河温泉基地客房中心配有四栋风格迥异的度假式温泉别墅、85间温馨舒适的客房供客人度假休息；温泉为酒店特色项目，含有大型室内SPA池、标准泳池、亲亲鱼池、太极八卦泉、宝石泉、死海漂浮等功能各异的室内外汤池60余个，同时还设有南洋SPA、保健按摩、奇石理疗等休闲保健项目；康体中心为宾客提供室内网球、羽毛球、3D高尔夫、KTV等多种健身娱乐项目；酒店还配有设备先进，功能齐全，可同时容纳300人的会议中心；餐饮中心设有布局合理的中餐厅、风格各异的宴会厅、格调优雅的多功能厅及茶社等，可同时容纳300人就餐，菜品以鲁菜为主，兼具各菜系精华，并结合商河特色产品，推出商河温泉文化宴，以绿色健康为出品理念，采用酒店自己的绿色蔬菜基地及无公害果园盛产的无公害蔬菜及瓜果，为八方宾客提供营养、美味的各色菜肴。\n\n商河温泉以其独特的温泉特色魅力,丰富的文化内涵,全新的经营理念,完善的配套设施,周到的特色服务, 赢得了社会各界以及广大消费者的一致好评，成为广大宾客休闲度假、商务会议的理想选择。酒店开业时间2009年10月，新近装修时间2012年12月，局部装修，主楼高3层，附楼高3层，客房总数85间（套）。"}}, {"title": "白石泉", "address": "济南市历下区黑虎泉东北（解放阁南侧河岸边）", "image": "", "rank": 58, "time": 0.3, "location": {"lat": 36.66842547262109, "lng": 117.03738581567738}, "feature": {"sight_features": "", "sight_content": ""}}, {"title": "李苦禅纪念馆", "address": "济南市历下区趵突泉南路1号趵突泉景区万竹园内", "image": "", "rank": 59, "time": 1.0, "location": {"lat": 36.666434115612105, "lng": 117.02095016204976}, "feature": {"sight_features": "", "sight_content": ""}}, {"title": "明湖牌坊", "address": "济南市历下区大明湖景区南门处", "image": "", "rank": 60, "time": 0.25, "location": {"lat": 36.68362879016729, "lng": 117.03409112840592}, "feature": {"sight_features": "", "sight_content": ""}}]}