{"cityName": "金昌", "days": null, "cityImage": "", "spots": [{"title": "骊靬古城", "address": "金昌市永昌县焦家庄乡者来寨村", "image": "", "rank": 1, "time": 2.5, "location": {"lat": 38.26991444141269, "lng": 101.84741888228226}, "feature": {"sight_features": "", "sight_content": ""}}, {"title": "紫荆花广场", "address": "金昌市金川区天津路101号", "image": "", "rank": 2, "time": 2, "location": {"lat": 38.55738296976746, "lng": 102.18902339078468}, "feature": {"sight_features": "", "sight_content": ""}}, {"title": "金昌花文化博览馆", "address": "金昌市金川区天津路与昆明路西北角", "image": "", "rank": 3, "time": 2, "location": {"lat": 38.53670159267659, "lng": 102.18979419620041}, "feature": {"sight_features": "", "sight_content": "自从花博馆一开，就成了名副其实的拍照圣地。各种自拍、摆拍，单照、合影，怎么拍都是美美的。\n这次迎来玫瑰展，自然更是美不胜收，所以来之前一定要把手机充满电，保证有足够的内存空间拍拍拍！玫瑰展还吸引了画家前来创作，将玫瑰的美丽风情艺术呈现，带来了别致的视觉享受。"}}, {"title": "西湖公园", "address": "金昌市昆明路与上海路交叉口旁", "image": "", "rank": 4, "time": 1.5, "location": {"lat": 38.54806291507543, "lng": 102.18107801059985}, "feature": {"sight_features": "", "sight_content": ""}}, {"title": "龙泉公园", "address": "金昌市金川区永昌路", "image": "", "rank": 5, "time": 2, "location": {"lat": 38.50802840392753, "lng": 102.1795728368365}, "feature": {"sight_features": "", "sight_content": ""}}, {"title": "金川国家矿山公园", "address": "金川区龙首山北坡", "image": "", "rank": 6, "time": 2.5, "location": {"lat": 38.48739945129792, "lng": 102.1658974263121}, "feature": {"sight_features": "", "sight_content": ""}}, {"title": "圣容寺塔", "address": "甘肃省金昌市永昌县城关镇御山圣容寺附近", "image": "", "rank": 7, "time": 2, "location": {"lat": 38.32683433652199, "lng": 101.9352972770678}, "feature": {"sight_features": "", "sight_content": ""}}, {"title": "津香苑农家乐", "address": "城关镇北环路北海子四社", "image": "", "rank": 8, "time": 2, "location": {"lat": 38.258393500897526, "lng": 101.97899625948249}, "feature": {"sight_features": "", "sight_content": ""}}, {"title": "风华一代儿童乐园", "address": "环城西路16号", "image": "", "rank": 9, "time": 2, "location": {"lat": 40.862689031953266, "lng": 122.75352285710979}, "feature": {"sight_features": "", "sight_content": ""}}, {"title": "金昌火车站广场", "address": "甘肃省金昌市永昌县河西堡镇金昌火车站东", "image": "", "rank": 10, "time": 2, "location": {"lat": 38.376723087754364, "lng": 102.0704540756404}, "feature": {"sight_features": "", "sight_content": ""}}, {"title": "金川区图书馆", "address": "拥军路", "image": "", "rank": 11, "time": 2, "location": {"lat": 46.65723169628984, "lng": 131.1789711959784}, "feature": {"sight_features": "", "sight_content": ""}}, {"title": "循环经济展览馆", "address": "新华东路68号", "image": "", "rank": 12, "time": 2, "location": {"lat": 37.74124345968128, "lng": 115.69906732508781}, "feature": {"sight_features": "", "sight_content": ""}}, {"title": "休闲垂钓园", "address": "河雅公路", "image": "", "rank": 13, "time": 2, "location": {"lat": 38.53395218989729, "lng": 102.22704843934399}, "feature": {"sight_features": "", "sight_content": ""}}, {"title": "品广场泡泡堂儿童水上乐园", "address": "品广场一楼", "image": "", "rank": 14, "time": 2, "location": {"lat": 34.2960612591157, "lng": 108.95652845878607}, "feature": {"sight_features": "", "sight_content": ""}}, {"title": "金昌市图书馆", "address": "建设路74附近", "image": "", "rank": 15, "time": 1.5, "location": {"lat": 39.488321032245686, "lng": 115.99892717589731}, "feature": {"sight_features": "", "sight_content": ""}}, {"title": "金海水族 生活体验馆", "address": "上海路中国电信旁", "image": "", "rank": 16, "time": 2, "location": {"lat": 38.958963902248165, "lng": 117.33795895429911}, "feature": {"sight_features": "", "sight_content": ""}}, {"title": "快乐影吧", "address": "天水路步行街附近", "image": "", "rank": 17, "time": 2, "location": {"lat": 38.515363690228554, "lng": 102.1942372529816}, "feature": {"sight_features": "", "sight_content": ""}}, {"title": "永昌县博物馆", "address": "312国道(永昌县粮食局西)", "image": "", "rank": 18, "time": 2, "location": {"lat": 38.254477935444434, "lng": 101.97323087004145}, "feature": {"sight_features": "", "sight_content": ""}}, {"title": "永昌县图书馆", "address": "东大街1号", "image": "", "rank": 19, "time": 2, "location": {"lat": 22.61729942596652, "lng": 114.14733751642652}, "feature": {"sight_features": "", "sight_content": ""}}, {"title": "东润苑农家乐", "address": "永皇路西50米", "image": "", "rank": 20, "time": 2, "location": {"lat": 38.135969149374645, "lng": 102.02787498555247}, "feature": {"sight_features": "", "sight_content": ""}}, {"title": "永昌影剧院", "address": "楼外楼酒店附近北街", "image": "", "rank": 21, "time": 2, "location": {"lat": 49.428990444023775, "lng": 127.33187318969534}, "feature": {"sight_features": "", "sight_content": ""}}, {"title": "香盛缘餐庄", "address": "北京路与金河路交叉口东北100米", "image": "", "rank": 22, "time": 2, "location": {"lat": 38.39136012728757, "lng": 102.09073491612213}, "feature": {"sight_features": "", "sight_content": ""}}, {"title": "民族度假村", "address": "甘肃省金昌市永昌县城关镇北海子公园", "image": "", "rank": 23, "time": 2, "location": {"lat": 38.265046047061816, "lng": 101.98706298457222}, "feature": {"sight_features": "", "sight_content": ""}}, {"title": "北海子公园", "address": "金昌市永昌县环城北路", "image": "", "rank": 24, "time": 1.5, "location": {"lat": 38.25634802230842, "lng": 101.98522639266893}, "feature": {"sight_features": "", "sight_content": ""}}, {"title": "永光书画社", "address": "G312", "image": "", "rank": 25, "time": 2, "location": {"lat": 32.19917404861056, "lng": 114.51769299297756}, "feature": {"sight_features": "", "sight_content": ""}}, {"title": "金川图书馆", "address": "北京路31号", "image": "", "rank": 26, "time": 1.5, "location": {"lat": 38.31400205855723, "lng": 116.78202501230534}, "feature": {"sight_features": "", "sight_content": ""}}, {"title": "金龙儿童乐园", "address": "金龙商场二楼", "image": "", "rank": 27, "time": 2, "location": {"lat": 25.285581310957248, "lng": 112.5640082565314}, "feature": {"sight_features": "", "sight_content": ""}}, {"title": "金昌市植物园", "address": "甘肃省金昌市金川区天津路", "image": "", "rank": 28, "time": 3.5, "location": {"lat": 38.53670159267659, "lng": 102.18979419620041}, "feature": {"sight_features": "", "sight_content": ""}}, {"title": "永昌县城关清真寺", "address": "城关镇", "image": "", "rank": 29, "time": 2, "location": {"lat": 33.8523792245012, "lng": 113.47977737169182}, "feature": {"sight_features": "", "sight_content": ""}}, {"title": "金教育文化广场", "address": "甘肃省金昌市永昌县玉河路", "image": "", "rank": 30, "time": 2, "location": {"lat": 38.377925797027856, "lng": 102.07891463403523}, "feature": {"sight_features": "", "sight_content": ""}}, {"title": "豹子头森林公园", "address": "甘肃省金昌市永昌县", "image": "", "rank": 31, "time": 2, "location": {"lat": 38.252940956889034, "lng": 101.97946358316133}, "feature": {"sight_features": "", "sight_content": ""}}, {"title": "河西堡清真寺", "address": "永河路与车站路交叉口北100米", "image": "", "rank": 32, "time": 2, "location": {"lat": 38.374788673196, "lng": 102.07575343765744}, "feature": {"sight_features": "", "sight_content": ""}}, {"title": "金川区基督教会礼拜堂", "address": "甘肃省金昌市金川区昌荣西巷6", "image": "", "rank": 33, "time": 2, "location": {"lat": 38.52813247949495, "lng": 102.18223491580851}, "feature": {"sight_features": "", "sight_content": ""}}, {"title": "基督家庭教会", "address": "金昌市金川区", "image": "", "rank": 34, "time": 2, "location": {"lat": 38.52577224559433, "lng": 102.20058588613941}, "feature": {"sight_features": "", "sight_content": ""}}, {"title": "正法寺", "address": "泰安路", "image": "", "rank": 35, "time": null, "location": {"lat": 38.718615461517, "lng": 117.1581785240945}, "feature": {"sight_features": "", "sight_content": ""}}, {"title": "卡奇乐儿童乐园", "address": "步行街时代广场B座苏宁电器一楼佳惠超市对面", "image": "", "rank": 36, "time": 2, "location": {"lat": 40.762153428598445, "lng": 120.86643179150964}, "feature": {"sight_features": "", "sight_content": ""}}, {"title": "龙首湖", "address": "重庆路南50米", "image": "", "rank": 37, "time": 2, "location": {"lat": 45.748415340946615, "lng": 132.8153958761508}, "feature": {"sight_features": "", "sight_content": ""}}, {"title": "金昌亥姆寺文博陈列馆", "address": "甘肃省金昌市永昌县", "image": "", "rank": 38, "time": 2, "location": {"lat": 38.252940956889034, "lng": 101.97946358316133}, "feature": {"sight_features": "", "sight_content": ""}}, {"title": "金佰盛儿童主题乐园", "address": "甘肃省金昌市金川区天津路与泰安路交叉口金佰盛购物中心一楼(近金佰盛购物中心)", "image": "", "rank": 39, "time": 2, "location": {"lat": 38.53525047180218, "lng": 102.18953322138196}, "feature": {"sight_features": "", "sight_content": ""}}, {"title": "福羊儿童乐园", "address": "北京路75号", "image": "", "rank": 40, "time": 2, "location": {"lat": 43.8469288865032, "lng": 126.56560026136725}, "feature": {"sight_features": "", "sight_content": ""}}, {"title": "金玉轩画廊", "address": "滨河路10号", "image": "", "rank": 41, "time": 2, "location": {"lat": 39.65812790662322, "lng": 118.21445978953162}, "feature": {"sight_features": "", "sight_content": ""}}, {"title": "综合档案馆", "address": "拥军路", "image": "", "rank": 42, "time": 1.0, "location": {"lat": 46.65723169628984, "lng": 131.1789711959784}, "feature": {"sight_features": "", "sight_content": ""}}, {"title": "金昌画院", "address": "公园路23号对面", "image": "", "rank": 43, "time": 1.0, "location": {"lat": 39.62620890421342, "lng": 122.01674613444241}, "feature": {"sight_features": "", "sight_content": ""}}, {"title": "鑫天地儿童乐园", "address": "金川路与北京路交口西50米", "image": "", "rank": 44, "time": 2, "location": {"lat": 38.50982942183782, "lng": 102.18776213301815}, "feature": {"sight_features": "", "sight_content": ""}}, {"title": "三义书画社", "address": "天津路10-1号", "image": "", "rank": 45, "time": null, "location": {"lat": 34.1949119535218, "lng": 117.20041944168335}, "feature": {"sight_features": "", "sight_content": ""}}, {"title": "金戈市场时尚犬业", "address": "金三角金戈市厂时尚犬业(金三角)", "image": "", "rank": 46, "time": 2, "location": {"lat": 39.03236544127244, "lng": 117.60824003188654}, "feature": {"sight_features": "", "sight_content": ""}}, {"title": "甘肃省党校农场", "address": "323乡道附近", "image": "", "rank": 47, "time": 2, "location": {"lat": 39.770914088886464, "lng": 116.75193617941808}, "feature": {"sight_features": "", "sight_content": ""}}, {"title": "许家沟人参果采摘园", "address": "许家沟村4队", "image": "", "rank": 48, "time": 2, "location": {"lat": 38.01810407659305, "lng": 113.35132174986765}, "feature": {"sight_features": "", "sight_content": ""}}, {"title": "金昌市博物馆", "address": "新华大道", "image": "", "rank": 49, "time": 2.5, "location": {"lat": 30.215380023581467, "lng": 120.30100731917588}, "feature": {"sight_features": "", "sight_content": ""}}, {"title": "伊洋画廊", "address": "车站路东200米", "image": "", "rank": 50, "time": 2, "location": {"lat": 39.79105851691385, "lng": 116.27734233441993}, "feature": {"sight_features": "", "sight_content": ""}}, {"title": "藏韵庄园", "address": "南昌路与天津路交叉口北100米", "image": "", "rank": 51, "time": 2, "location": {"lat": 38.5411282185529, "lng": 102.18979705191363}, "feature": {"sight_features": "", "sight_content": ""}}, {"title": "富香隆休闲园", "address": "宁远堡镇马夹岸子羊肉一条街", "image": "", "rank": 52, "time": 2, "location": {"lat": 38.48553810200493, "lng": 102.20635265088616}, "feature": {"sight_features": "", "sight_content": ""}}, {"title": "紫金花城水上乐园", "address": "天津路羊肉一条街", "image": "", "rank": 53, "time": 2, "location": {"lat": 38.542952655881926, "lng": 102.18954895879618}, "feature": {"sight_features": "", "sight_content": ""}}, {"title": "天水路步行街", "address": "甘肃省金昌市天水路步行街", "image": "", "rank": 54, "time": 2, "location": {"lat": 38.515363690228554, "lng": 102.1942372529816}, "feature": {"sight_features": "", "sight_content": ""}}, {"title": "帝凯乐娱乐会所(延安路)", "address": "金昌市-金川区-延安路22区蜀缘足浴向西50米", "image": "", "rank": 55, "time": 2, "location": {"lat": 38.53078211714903, "lng": 102.27899963885145}, "feature": {"sight_features": "", "sight_content": ""}}, {"title": "锦都国际酒店-会议室", "address": "金昌市-金川区-上海路锦都国际酒店2楼", "image": "", "rank": 56, "time": 2, "location": {"lat": 38.523906307494315, "lng": 102.18093873821188}, "feature": {"sight_features": "", "sight_content": ""}}, {"title": "金水湖", "address": "金昌市金川区福州路与新华大道十字南边", "image": "", "rank": 57, "time": 2, "location": {"lat": 38.5349244482724, "lng": 102.25028656893747}, "feature": {"sight_features": "", "sight_content": ""}}, {"title": "南坝滑雪场", "address": "金昌市永昌县南坝乡云庄寺路口处", "image": "", "rank": 58, "time": 2, "location": {"lat": 38.046286933209196, "lng": 102.08582128738938}, "feature": {"sight_features": "", "sight_content": ""}}]}