{"cityName": "金川", "days": 2, "cityImage": "", "spots": [{"title": "观音桥", "address": "阿坝藏族自治州市金川县观音桥镇", "image": "", "rank": 1, "time": 3.5, "location": {"lat": 31.808802622094337, "lng": 101.66424572553942}, "feature": {"sight_features": "", "sight_content": ""}}, {"title": "大树子沟", "address": "阿坝藏族羌族自治州金川县索乌山风景区内", "image": "", "rank": 2, "time": 1.0, "location": {"lat": 31.462508262521247, "lng": 102.11200335098661}, "feature": {"sight_features": "", "sight_content": ""}}, {"title": "金川县", "address": "四川省阿坝藏族羌族自治州金川县", "image": "", "rank": 3, "time": 7.5, "location": {"lat": 31.482005950337257, "lng": 102.0706104212229}, "feature": {"sight_features": "", "sight_content": ""}}, {"title": "土基钦波观音庙", "address": "四川阿坝藏族羌族自治州金川县观音桥镇", "image": "", "rank": 4, "time": 1.0, "location": {"lat": 31.808802622094337, "lng": 101.66424572553942}, "feature": {"sight_features": "", "sight_content": ""}}, {"title": "广法寺", "address": "阿坝藏族羌族自治州金川县安宁镇末末扎境内", "image": "", "rank": 5, "time": 2.5, "location": {"lat": 31.338479855784634, "lng": 102.03925504493948}, "feature": {"sight_features": "", "sight_content": ""}}, {"title": "情人海", "address": "阿坝藏族自治州金川县阿科里乡撒尔脚村境内", "image": "", "rank": 6, "time": 3.5, "location": {"lat": 31.52156655197265, "lng": 101.7183330775835}, "feature": {"sight_features": "", "sight_content": ""}}, {"title": "沙耳乡", "address": "中国四川省阿坝州金川沙耳乡", "image": "", "rank": 7, "time": 2, "location": {"lat": 31.5312246120367, "lng": 102.02129907032099}, "feature": {"sight_features": "", "sight_content": ""}}, {"title": "嘎尖草坪", "address": "阿坝藏族羌族自治州金川县河东乡，距离县城18公里", "image": "", "rank": 8, "time": 2.0, "location": {"lat": 31.393363295092907, "lng": 102.07631117129435}, "feature": {"sight_features": "", "sight_content": ""}}, {"title": "金川镇", "address": "四川省阿坝藏族羌族自治州金川县金川镇", "image": "", "rank": 9, "time": 2, "location": {"lat": 31.48394045061552, "lng": 102.06842137106801}, "feature": {"sight_features": "", "sight_content": ""}}, {"title": "金川红叶谷", "address": "川西金川县", "image": "", "rank": 10, "time": 1.0, "location": {"lat": 31.482005950337257, "lng": 102.0706104212229}, "feature": {"sight_features": "", "sight_content": ""}}, {"title": "御制平定金川之碑", "address": "阿坝藏族羌族自治州金川县安宁镇炭厂沟口", "image": "", "rank": 11, "time": 0.6, "location": {"lat": 31.31104738398476, "lng": 102.11461440171414}, "feature": {"sight_features": "", "sight_content": ""}}, {"title": "索乌山风景区", "address": "阿坝藏族羌族自治州金川县万林乡二甲村线碉沟内", "image": "", "rank": 12, "time": 2.5, "location": {"lat": 31.48221066003412, "lng": 102.11098206745233}, "feature": {"sight_features": "", "sight_content": ""}}, {"title": "阿科里风景区", "address": "阿坝藏族羌族自治州金川县阿科里乡", "image": "", "rank": 13, "time": 2.5, "location": {"lat": 31.549458805267058, "lng": 101.67942994257463}, "feature": {"sight_features": "", "sight_content": ""}}, {"title": "菩萨沟", "address": "阿坝藏族羌族自治州金川县索乌山风景区内", "image": "", "rank": 14, "time": 1.0, "location": {"lat": 31.462508262521247, "lng": 102.11200335098661}, "feature": {"sight_features": "", "sight_content": ""}}, {"title": "竹厂沟", "address": "阿坝藏族羌族自治州金川县索乌山风景区", "image": "", "rank": 15, "time": 1.0, "location": {"lat": 31.462508262521247, "lng": 102.11200335098661}, "feature": {"sight_features": "", "sight_content": ""}}, {"title": "滴水观音寺", "address": "211省道滴水观音寺附近", "image": "", "rank": 16, "time": 2, "location": {"lat": 30.45030022215029, "lng": 116.33162891266}, "feature": {"sight_features": "", "sight_content": ""}}, {"title": "金川神仙包", "address": "阿坝州金川县沙耳乡丹扎木村西方向", "image": "", "rank": 17, "time": 0.6, "location": {"lat": 31.515271426538526, "lng": 102.06546517699067}, "feature": {"sight_features": "", "sight_content": ""}}, {"title": "额日则", "address": "阿坝藏族羌族自治州-金川县", "image": "", "rank": 18, "time": 2, "location": {"lat": 31.482005950337257, "lng": 102.0706104212229}, "feature": {"sight_features": "", "sight_content": ""}}, {"title": "红军革命纪念基地", "address": "四川省金川县城厢乡 624100", "image": "", "rank": 19, "time": 2, "location": {"lat": 31.482005950337257, "lng": 102.0706104212229}, "feature": {"sight_features": "", "sight_content": ""}}, {"title": "金川河谷", "address": "四川省阿坝藏族自治州金川县", "image": "", "rank": 20, "time": 2, "location": {"lat": 31.482005950337257, "lng": 102.0706104212229}, "feature": {"sight_features": "", "sight_content": ""}}, {"title": "马尔邦乡", "address": "四川省阿坝藏族羌族自治州金川县东南部", "image": "", "rank": 21, "time": 2, "location": {"lat": 31.482005950337257, "lng": 102.0706104212229}, "feature": {"sight_features": "", "sight_content": ""}}]}