{"cityName": "江达", "days": 2, "cityImage": "", "spots": [{"title": "生钦朗扎山", "address": "西藏自治区江达县岗托乡境内", "image": "", "rank": 1, "time": 1.0, "location": {"lat": 31.568020188935787, "lng": 98.56178783917862}, "feature": {"sight_features": "", "sight_content": ""}}, {"title": "波罗古泽", "address": "昌都地区江达县波罗乡境内", "image": "", "rank": 2, "time": 1.0, "location": {"lat": 31.813700173194704, "lng": 98.03637532100646}, "feature": {"sight_features": "", "sight_content": ""}}, {"title": "波罗吉荣大峡谷", "address": "昌都地区江达县同普乡与波罗乡交界处", "image": "", "rank": 3, "time": 2.0, "location": {"lat": 31.813700173194704, "lng": 98.03637532100646}, "feature": {"sight_features": "", "sight_content": ""}}, {"title": "果布白宗山", "address": "昌都地区江达县", "image": "", "rank": 4, "time": 2, "location": {"lat": 31.813700173194704, "lng": 98.03637532100646}, "feature": {"sight_features": "", "sight_content": ""}}, {"title": "搬根寺", "address": "西藏自治区昌都市江达县", "image": "", "rank": 5, "time": 2, "location": {"lat": 31.50520701797964, "lng": 98.22459452096771}, "feature": {"sight_features": "", "sight_content": ""}}, {"title": "德登寺", "address": "昌都市江达县", "image": "", "rank": 6, "time": 2, "location": {"lat": 31.50520701797964, "lng": 98.22459452096771}, "feature": {"sight_features": "", "sight_content": ""}}, {"title": "吉祥瓦拉寺", "address": "昌都地区江达县", "image": "", "rank": 7, "time": 2, "location": {"lat": 31.813700173194704, "lng": 98.03637532100646}, "feature": {"sight_features": "", "sight_content": ""}}, {"title": "埃拉山", "address": "西藏自治区昌都地区江达县", "image": "", "rank": 8, "time": null, "location": {"lat": 31.813700173194704, "lng": 98.03637532100646}, "feature": {"sight_features": "", "sight_content": ""}}]}