{"cityName": "景泰", "days": 2, "cityImage": "", "spots": [{"title": "景泰黄河石林", "address": "白银市景泰县中泉乡龙湾村", "image": "", "rank": 1, "time": 3.0, "location": {"lat": 36.89549701862528, "lng": 104.31067684169115}, "feature": {"sight_features": "特色1 观赏宏大高耸的壮观石林，在戈壁之上感受苍凉悲壮。 乘驴车、坐羊皮筏子、围着篝火听西北小调，体验原始淳朴的西北民俗。", "sight_content": "景泰黄河石林位于甘肃白银市景泰县东南部。距离兰州160公里(经白银)，中川机场距离黄河石林大约120公里，黄河石林距离白银市区和景泰县城均为75公里。\n景区面积34平方公里，其中石林面积10平方公里。黄河石林生成于210万年前的新生代第四纪，景区内陡崖凌空，景象万千，峰回路转，步移景变，石柱石笋大多高达80－200多米，山水相依、动静结合、气势磅礴。\n2004年1月被国土资源部批准为国家地质公园。这里群山环抱，环境幽静，空气清新，风景秀丽。黄河石林景区将黄河、石林、沙漠、戈壁、绿洲、农庄等多种资源巧妙结合在一起，山水相依，动静结合，气势磅礴，素有“陇上小江南”、 “世外桃源”之美誉。\n她集东西南北自然景色之大成，在全国实属罕见在北方更是独树一帜。因其造型独特。规模大、景区组合优越，可称之为“中华自然奇观”。 在此拍摄的电视连续《天下粮仓》、《神话》、《美丽的大脚》、《西部热土》、《汗血宝马》、《惊天传奇》、《大漠敦煌》等播出后，更使黄河石林名扬天下。"}}, {"title": "永泰古城", "address": "白银市景泰县西南27公里处", "image": "", "rank": 2, "time": 3.0, "location": {"lat": 36.99309462505076, "lng": 104.069444384363}, "feature": {"sight_features": "", "sight_content": ""}}, {"title": "寿鹿山森林公园", "address": "白银市景泰县位于甘蒙宁三省区交界处", "image": "", "rank": 3, "time": 2, "location": {"lat": 37.18740626009718, "lng": 104.069444384363}, "feature": {"sight_features": "", "sight_content": ""}}, {"title": "黄河石林滑雪场", "address": "白银市景泰县中泉镇红岘台村旁黄河石林国际露营地内（s217线与黄河石林景区道路交汇处）", "image": "", "rank": 4, "time": 2, "location": {"lat": 36.91159145478563, "lng": 104.31067159109544}, "feature": {"sight_features": "", "sight_content": ""}}, {"title": "馨源农家乐", "address": "中泉乡龙湾村", "image": "", "rank": 5, "time": 2, "location": {"lat": 36.89549701862528, "lng": 104.31067684169115}, "feature": {"sight_features": "", "sight_content": ""}}, {"title": "五佛寺", "address": "甘肃省白银市景泰县五佛乡。", "image": "", "rank": 6, "time": 2, "location": {"lat": 37.19844628585959, "lng": 104.36206748957734}, "feature": {"sight_features": "", "sight_content": ""}}, {"title": "金龙湾农家乐", "address": "昌林路13号", "image": "", "rank": 7, "time": 2, "location": {"lat": 30.372574388258787, "lng": 114.87090672511532}, "feature": {"sight_features": "", "sight_content": ""}}, {"title": "富军农家乐", "address": "中泉乡龙湾村农行附近", "image": "", "rank": 8, "time": 2, "location": {"lat": 39.98852010300561, "lng": 117.41182943077575}, "feature": {"sight_features": "", "sight_content": ""}}, {"title": "景泰县图书馆", "address": "西街24号附近", "image": "", "rank": 9, "time": 2, "location": {"lat": 23.100931760317003, "lng": 113.27528273950196}, "feature": {"sight_features": "", "sight_content": ""}}, {"title": "人民公园", "address": "南街附近", "image": "", "rank": 10, "time": 2.5, "location": {"lat": 23.100931760317003, "lng": 113.27528273950196}, "feature": {"sight_features": "", "sight_content": ""}}, {"title": "长城", "address": "中卫市沙坡头区", "image": "", "rank": 11, "time": 1.0, "location": {"lat": 37.50570141870293, "lng": 105.20357090088713}, "feature": {"sight_features": "", "sight_content": ""}}, {"title": "兰州轴承厂农场", "address": "201省道附近", "image": "", "rank": 12, "time": 1.0, "location": {"lat": 38.686331107748025, "lng": 113.87626234527481}, "feature": {"sight_features": "", "sight_content": ""}}, {"title": "名家画廊", "address": "一条山镇大安路十字", "image": "", "rank": 13, "time": 2, "location": {"lat": 37.20285270905661, "lng": 104.07686907882679}, "feature": {"sight_features": "", "sight_content": ""}}, {"title": "新庄园", "address": "长城路", "image": "", "rank": 14, "time": 2, "location": {"lat": 39.11377717825691, "lng": 117.21651838884651}, "feature": {"sight_features": "", "sight_content": ""}}, {"title": "龙湾剧院", "address": "龙湾村附近", "image": "", "rank": 15, "time": 2, "location": {"lat": 39.47976165295157, "lng": 118.34269575499758}, "feature": {"sight_features": "", "sight_content": ""}}, {"title": "金龙湾农家乐", "address": "黄河石林国家地质公园", "image": "", "rank": 16, "time": 2, "location": {"lat": 24.77770196131961, "lng": 103.2965081767583}, "feature": {"sight_features": "", "sight_content": ""}}, {"title": "寿鹿山自然保护区", "address": "甘肃省景泰县寺滩乡", "image": "", "rank": 17, "time": 2, "location": {"lat": 37.192452314266205, "lng": 103.96362834667949}, "feature": {"sight_features": "", "sight_content": ""}}, {"title": "五佛沿寺石窟", "address": "甘肃省景泰县五佛乡", "image": "", "rank": 18, "time": 2, "location": {"lat": 37.19844628585959, "lng": 104.36206748957734}, "feature": {"sight_features": "", "sight_content": ""}}, {"title": "音乐吧", "address": "白银市-景泰县-昌林路寿鹿小区向东20米", "image": "", "rank": 19, "time": 2, "location": {"lat": 37.21005511553507, "lng": 104.07480770393575}, "feature": {"sight_features": "", "sight_content": ""}}, {"title": "细葫芦沙屲", "address": "白银市-景泰县", "image": "", "rank": 20, "time": 2, "location": {"lat": 37.18740626009718, "lng": 104.069444384363}, "feature": {"sight_features": "", "sight_content": ""}}, {"title": "条山现代农业观光休闲园", "address": "条山现代农业观光休闲园", "image": "", "rank": 21, "time": 2, "location": {"lat": 31.190071237105983, "lng": 118.39451148554262}, "feature": {"sight_features": "", "sight_content": ""}}]}