{"cityName": "靖远", "days": 2, "cityImage": "", "spots": [{"title": "太白山玉清观", "address": "白银市靖远县331县道附近", "image": "", "rank": 1, "time": 2, "location": {"lat": 36.473776324232446, "lng": 104.47249511244384}, "feature": {"sight_features": "", "sight_content": ""}}, {"title": "乌兰山", "address": "白银市靖远县乌兰镇", "image": "", "rank": 2, "time": 1.0, "location": {"lat": 36.52755729666568, "lng": 104.77667012648246}, "feature": {"sight_features": "", "sight_content": ""}}, {"title": "靖远县博物馆", "address": "靖远县乌兰镇鹿鸣园", "image": "", "rank": 3, "time": 2, "location": {"lat": 36.57015635786221, "lng": 104.68928677438886}, "feature": {"sight_features": "", "sight_content": ""}}, {"title": "寺儿湾石窟", "address": "白银市靖远县北湾镇天字村东", "image": "", "rank": 4, "time": 1.5, "location": {"lat": 36.490583385153805, "lng": 104.52450526864024}, "feature": {"sight_features": "", "sight_content": ""}}, {"title": "靖远县图书馆", "address": "乌兰镇城关镇东大街13号", "image": "", "rank": 5, "time": 2, "location": {"lat": 36.56941340652786, "lng": 104.6911532395142}, "feature": {"sight_features": "", "sight_content": ""}}, {"title": "毓生元画廊", "address": "109国道", "image": "", "rank": 6, "time": 2, "location": {"lat": 39.790711104970946, "lng": 109.99633110015151}, "feature": {"sight_features": "", "sight_content": ""}}, {"title": "靖远翡翠湾休闲农庄", "address": "东湾镇翡翠湾", "image": "", "rank": 7, "time": 2, "location": {"lat": 43.838511339059345, "lng": 89.36079466508258}, "feature": {"sight_features": "", "sight_content": ""}}, {"title": "生态休闲娱乐园", "address": "中泉乡龙湾村轮渡线北岸家滩", "image": "", "rank": 8, "time": 2, "location": {"lat": 36.90583351208642, "lng": 104.3302354993395}, "feature": {"sight_features": "", "sight_content": ""}}, {"title": "永新剧院", "address": "308省道附近", "image": "", "rank": 9, "time": 2, "location": {"lat": 40.337133976011295, "lng": 116.52614205897426}, "feature": {"sight_features": "", "sight_content": ""}}, {"title": "龙王庙道观", "address": "甘肃省白银市白银区X331(五金段)", "image": "", "rank": 10, "time": 2, "location": {"lat": 36.54146356806949, "lng": 104.15541276065119}, "feature": {"sight_features": "", "sight_content": ""}}, {"title": "观音普陀寺", "address": "路家湾", "image": "", "rank": 11, "time": 2, "location": {"lat": 30.046035761640386, "lng": 120.58028906044767}, "feature": {"sight_features": "", "sight_content": ""}}, {"title": "三官庙", "address": "白银市靖远县", "image": "", "rank": 12, "time": 2, "location": {"lat": 36.577096288836835, "lng": 104.682515077963}, "feature": {"sight_features": "", "sight_content": ""}}, {"title": "靖远县嘏萃园生态度假村", "address": "甘肃省白银市靖远县东湾镇红柳村滨河路边", "image": "", "rank": 13, "time": 2, "location": {"lat": 36.68735164270954, "lng": 104.74122585844991}, "feature": {"sight_features": "", "sight_content": ""}}, {"title": "靖远腾飞滑雪场", "address": "糜滩乡207省道东侧", "image": "", "rank": 14, "time": 2, "location": {"lat": 41.663861161619536, "lng": 118.91663300242887}, "feature": {"sight_features": "", "sight_content": ""}}, {"title": "黄河园农家乐", "address": "滨河路(糜滩吊桥向西100米处)", "image": "", "rank": 15, "time": 2, "location": {"lat": 34.49529164140067, "lng": 113.07951467489686}, "feature": {"sight_features": "", "sight_content": ""}}, {"title": "金童游乐城", "address": "钟鼓楼步行街二楼", "image": "", "rank": 16, "time": 2, "location": {"lat": 31.4707878758284, "lng": 104.75488769018823}, "feature": {"sight_features": "", "sight_content": ""}}, {"title": "石门剧院", "address": "石门乡附近", "image": "", "rank": 17, "time": 2.0, "location": {"lat": 39.00432136364255, "lng": 114.56695362105884}, "feature": {"sight_features": "", "sight_content": ""}}, {"title": "三道湾农家乐", "address": "糜三公路9公里处", "image": "", "rank": 18, "time": 2, "location": {"lat": 47.6610036911349, "lng": 132.50769649249278}, "feature": {"sight_features": "", "sight_content": ""}}, {"title": "靖远商业步行街", "address": "甘肃省靖远县意大利风情街近劲霸男装", "image": "", "rank": 19, "time": 2, "location": {"lat": 36.57189938818454, "lng": 104.68776231670113}, "feature": {"sight_features": "", "sight_content": ""}}, {"title": "榆树沟台", "address": "白银市-靖远县", "image": "", "rank": 20, "time": 2, "location": {"lat": 36.577096288836835, "lng": 104.682515077963}, "feature": {"sight_features": "", "sight_content": ""}}, {"title": "榆树沟梁", "address": "白银市-靖远县", "image": "", "rank": 21, "time": 2, "location": {"lat": 36.577096288836835, "lng": 104.682515077963}, "feature": {"sight_features": "", "sight_content": ""}}]}