{"cityName": "景县", "days": 2, "cityImage": "", "spots": [{"title": "景县舍利塔", "address": "衡水市景县景州镇县医院", "image": "", "rank": 1, "time": 1.0, "location": {"lat": 37.72081735217352, "lng": 116.28452695134632}, "feature": {"sight_features": "", "sight_content": ""}}, {"title": "亚夫陵园", "address": "衡水市景县中心街", "image": "", "rank": 2, "time": 2, "location": {"lat": 37.69824400541062, "lng": 116.26949581545136}, "feature": {"sight_features": "", "sight_content": ""}}, {"title": "北齐高氏墓群", "address": "河北省景县王瞳镇 053500", "image": "", "rank": 3, "time": 2.5, "location": {"lat": 37.57030896227986, "lng": 116.18887287077828}, "feature": {"sight_features": "", "sight_content": ""}}, {"title": "智慧树儿童乐园", "address": "龙华镇政府东", "image": "", "rank": 4, "time": null, "location": {"lat": 37.61143828115302, "lng": 116.02979071194791}, "feature": {"sight_features": "", "sight_content": ""}}, {"title": "衡水主教府", "address": "河北省衡水市景县南城墙街", "image": "", "rank": 5, "time": 1.0, "location": {"lat": 37.69500923439696, "lng": 116.27134831185371}, "feature": {"sight_features": "", "sight_content": ""}}, {"title": "景州", "address": "衡水市景县王千寺镇境内", "image": "", "rank": 6, "time": 5.5, "location": {"lat": 37.69881455139486, "lng": 116.27741078529978}, "feature": {"sight_features": "", "sight_content": ""}}, {"title": "儿童乐园", "address": "河北省衡水市景县董仲舒路", "image": "", "rank": 7, "time": 2, "location": {"lat": 37.698491568876435, "lng": 116.28764826026455}, "feature": {"sight_features": "", "sight_content": ""}}, {"title": "董子公园", "address": "衡水市景县281省道", "image": "", "rank": 8, "time": 2, "location": {"lat": 37.573729211388304, "lng": 116.28183260434209}, "feature": {"sight_features": "", "sight_content": ""}}, {"title": "开心岛儿童水上乐园", "address": "河北省衡水市景县高适路", "image": "", "rank": 9, "time": 2, "location": {"lat": 37.692583283869894, "lng": 116.25493579677939}, "feature": {"sight_features": "", "sight_content": ""}}, {"title": "景县图书馆", "address": "景华大街296", "image": "", "rank": 10, "time": 1.5, "location": {"lat": 37.70205719312154, "lng": 116.2651145854452}, "feature": {"sight_features": "", "sight_content": ""}}, {"title": "东柳高堡村", "address": "衡水市-景县", "image": "", "rank": 11, "time": null, "location": {"lat": 37.69881455139486, "lng": 116.27741078529978}, "feature": {"sight_features": "", "sight_content": ""}}, {"title": "景县民间民俗及手工艺术收藏馆", "address": "衡水市-景县-景开大街和市场路的交叉口附近", "image": "", "rank": 12, "time": 2, "location": {"lat": 37.68678978949007, "lng": 116.26677240377235}, "feature": {"sight_features": "", "sight_content": ""}}, {"title": "景州塔", "address": "河北衡水景县景州塔", "image": "", "rank": 13, "time": 2, "location": {"lat": 37.69853381163096, "lng": 116.27567166583246}, "feature": {"sight_features": "", "sight_content": ""}}]}