{"cityName": "静宁", "days": 2, "cityImage": "", "spots": [{"title": "成纪文化城", "address": "平凉市静宁县人民路", "image": "", "rank": 1, "time": 1.0, "location": {"lat": 35.52524754400007, "lng": 105.7382723339487}, "feature": {"sight_features": "", "sight_content": ""}}, {"title": "龙飞獒园基地(东北门)", "address": "312国道附近", "image": "", "rank": 2, "time": 2, "location": {"lat": 31.33241303413939, "lng": 120.99854638594724}, "feature": {"sight_features": "", "sight_content": ""}}, {"title": "红寺人民舞台", "address": "红寺乡附近", "image": "", "rank": 3, "time": 2, "location": {"lat": 35.504714351751446, "lng": 105.48844850697735}, "feature": {"sight_features": "", "sight_content": ""}}, {"title": "静宁剧院", "address": "北环路361号", "image": "", "rank": 4, "time": null, "location": {"lat": 30.013495403478753, "lng": 106.28235055660149}, "feature": {"sight_features": "", "sight_content": ""}}, {"title": "番子坪", "address": "平凉市静宁县", "image": "", "rank": 5, "time": 2, "location": {"lat": 35.52825718913639, "lng": 105.73841580322}, "feature": {"sight_features": "", "sight_content": ""}}, {"title": "基督教会", "address": "甘肃省平凉市静宁县李老四酸汤水饺附近", "image": "", "rank": 6, "time": 2, "location": {"lat": 35.52825718913639, "lng": 105.73841580322}, "feature": {"sight_features": "", "sight_content": ""}}, {"title": "兰亭书画阁", "address": "中街195号", "image": "", "rank": 7, "time": 2, "location": {"lat": 35.5282223034745, "lng": 105.74479097322087}, "feature": {"sight_features": "", "sight_content": ""}}, {"title": "西岭游乐园", "address": "滨河路距312国道100米处(县城内乘坐2路公交至西岭游乐园站下车—西河湾桥头向南100米)", "image": "", "rank": 8, "time": 2, "location": {"lat": 35.54038412195692, "lng": 105.7357686783398}, "feature": {"sight_features": "", "sight_content": ""}}, {"title": "博物馆", "address": "人民巷", "image": "", "rank": 9, "time": 2, "location": {"lat": 40.82088972274849, "lng": 111.68017679189701}, "feature": {"sight_features": "", "sight_content": ""}}, {"title": "金和苑大剧场", "address": "城区街道工路段", "image": "", "rank": 10, "time": 2, "location": {"lat": 37.85786536146987, "lng": 113.61283811718747}, "feature": {"sight_features": "", "sight_content": ""}}, {"title": "威戎人民舞台", "address": "北街附近S218(旧)", "image": "", "rank": 11, "time": 2, "location": {"lat": 23.100931760317003, "lng": 113.27528273950196}, "feature": {"sight_features": "", "sight_content": ""}}, {"title": "七里村人民舞台", "address": "312国道附近", "image": "", "rank": 12, "time": 2, "location": {"lat": 31.33241303413939, "lng": 120.99854638594724}, "feature": {"sight_features": "", "sight_content": ""}}, {"title": "成纪文化街", "address": "甘肃省静宁县城关镇中心地带", "image": "", "rank": 13, "time": 2, "location": {"lat": 35.526079759856074, "lng": 105.76384747090269}, "feature": {"sight_features": "", "sight_content": ""}}, {"title": "瓦岔沟", "address": "平凉市-静宁县", "image": "", "rank": 14, "time": 2, "location": {"lat": 35.52825718913639, "lng": 105.73841580322}, "feature": {"sight_features": "", "sight_content": ""}}]}