{"cityName": "靖州", "days": 2, "cityImage": "", "spots": [{"title": "地笋苗寨", "address": "怀化市靖州苗族侗族自治县地笋村", "image": "", "rank": 1, "time": 4.5, "location": {"lat": 26.62787093426221, "lng": 109.45849963315911}, "feature": {"sight_features": "", "sight_content": ""}}, {"title": "靖州文峰塔", "address": "湖南省怀化市靖州县", "image": "", "rank": 2, "time": 2.0, "location": {"lat": 26.58132135106617, "lng": 109.702451607033}, "feature": {"sight_features": "", "sight_content": ""}}, {"title": "飞山", "address": "靖州县西北（距城5公里）", "image": "", "rank": 3, "time": 5.5, "location": {"lat": 26.58132135106617, "lng": 109.702451607033}, "feature": {"sight_features": "", "sight_content": ""}}, {"title": "排牙山", "address": "靖州县排牙山", "image": "", "rank": 4, "time": 6.5, "location": {"lat": 26.522445974637414, "lng": 109.61898005836109}, "feature": {"sight_features": "", "sight_content": ""}}, {"title": "岩脚侗寨", "address": "靖州县寨牙乡岩脚村", "image": "", "rank": 5, "time": 4.0, "location": {"lat": 26.479579336756938, "lng": 109.78129750126256}, "feature": {"sight_features": "", "sight_content": ""}}, {"title": "五老峰", "address": "靖州县城渠江东岸", "image": "", "rank": 6, "time": null, "location": {"lat": 26.58132135106617, "lng": 109.702451607033}, "feature": {"sight_features": "", "sight_content": ""}}, {"title": "观音禅寺", "address": "湖南省怀化市靖州苗族侗族自治县G209(呼北线)", "image": "", "rank": 7, "time": 2, "location": {"lat": 26.58132135106617, "lng": 109.702451607033}, "feature": {"sight_features": "", "sight_content": ""}}, {"title": "林氏先祠", "address": "湖南省靖州苗族侗族自治县甘棠镇寨姓村 418405", "image": "", "rank": 8, "time": 7.5, "location": {"lat": 26.74156502218965, "lng": 109.81459835933727}, "feature": {"sight_features": "", "sight_content": ""}}, {"title": "江边村", "address": "靖州县平茶镇江边村（距县城41公里）", "image": "", "rank": 9, "time": 4.0, "location": {"lat": 26.385580729100734, "lng": 109.33743649709466}, "feature": {"sight_features": "", "sight_content": ""}}, {"title": "水酿塘电站花木园", "address": "靖州县江东乡泡里村水酿塘水电站（距县城东南4公里）", "image": "", "rank": 10, "time": null, "location": {"lat": 26.512182238422323, "lng": 109.6809006622792}, "feature": {"sight_features": "", "sight_content": ""}}, {"title": "聚源生态农庄", "address": "209国道附近(罗家院子)", "image": "", "rank": 11, "time": 2, "location": {"lat": 29.50537463467816, "lng": 109.42537798613527}, "feature": {"sight_features": "", "sight_content": ""}}, {"title": "排牙山森林公园", "address": "湖南省靖州苗族侗族自治县靖州苗族侗族自治县西南部 418400", "image": "", "rank": 12, "time": 2, "location": {"lat": 26.58132135106617, "lng": 109.702451607033}, "feature": {"sight_features": "", "sight_content": ""}}, {"title": "九老仙都景区", "address": "湖南省靖州苗族侗族自治县荆北路38号 434000", "image": "", "rank": 13, "time": 2, "location": {"lat": 26.58132135106617, "lng": 109.702451607033}, "feature": {"sight_features": "", "sight_content": ""}}, {"title": "木洞杨梅林", "address": "湖南省靖州苗族侗族自治县坳上镇 418408", "image": "", "rank": 14, "time": 2, "location": {"lat": 26.639293505550942, "lng": 109.57633063455903}, "feature": {"sight_features": "", "sight_content": ""}}, {"title": "龙凤溶洞", "address": "湖南省靖州苗族侗族自治县铺口乡同乐村 418413", "image": "", "rank": 15, "time": 2, "location": {"lat": 26.53705249666935, "lng": 109.57083286560243}, "feature": {"sight_features": "", "sight_content": ""}}, {"title": "渠阳古城", "address": "湖南省靖州苗族侗族自治县全滩小村 418400", "image": "", "rank": 16, "time": 2, "location": {"lat": 26.58132135106617, "lng": 109.702451607033}, "feature": {"sight_features": "", "sight_content": ""}}, {"title": "南无井", "address": "梅林路与诚州路交叉口西南50米", "image": "", "rank": 17, "time": 2, "location": {"lat": 26.57704279867807, "lng": 109.69525732434167}, "feature": {"sight_features": "", "sight_content": ""}}, {"title": "武庙绿园", "address": "渠阳东路96", "image": "", "rank": 18, "time": 2, "location": {"lat": 26.581868023621777, "lng": 109.70420662650727}, "feature": {"sight_features": "", "sight_content": ""}}, {"title": "港都休闲广场", "address": "梅林中路456", "image": "", "rank": 19, "time": 2, "location": {"lat": 26.576998642343685, "lng": 109.68883003825044}, "feature": {"sight_features": "", "sight_content": ""}}, {"title": "潩溪园", "address": "河街76", "image": "", "rank": 20, "time": 2, "location": {"lat": 26.578988250646965, "lng": 109.70195231894935}, "feature": {"sight_features": "", "sight_content": ""}}, {"title": "靖州展览馆", "address": "永平路895号", "image": "", "rank": 21, "time": 2.5, "location": {"lat": 31.023063408339425, "lng": 121.43779758611696}, "feature": {"sight_features": "", "sight_content": ""}}, {"title": "少年儿童图书馆", "address": "鹤山路298号", "image": "", "rank": 22, "time": 2, "location": {"lat": 36.404382992439636, "lng": 120.47117790610265}, "feature": {"sight_features": "", "sight_content": ""}}, {"title": "苗侗靖州杨梅酒杨梅糖", "address": "渠阳西路144号附近", "image": "", "rank": 23, "time": 2, "location": {"lat": 26.585908652248854, "lng": 109.68744580335837}, "feature": {"sight_features": "", "sight_content": ""}}, {"title": "中国杨梅生态博物馆", "address": "响水村响水交管站对面(国道209)", "image": "", "rank": 24, "time": 2, "location": {"lat": 34.20474300276, "lng": 119.58460112201573}, "feature": {"sight_features": "", "sight_content": ""}}, {"title": "靖州长征纪念碑", "address": "湖南省靖州苗族侗族自治县新厂乡", "image": "", "rank": 25, "time": 1.0, "location": {"lat": 26.362482488686272, "lng": 109.4701797607182}, "feature": {"sight_features": "", "sight_content": ""}}, {"title": "诸葛桥", "address": "湖南省靖州苗族侗族自治县太阳坪乡", "image": "", "rank": 26, "time": 2, "location": {"lat": 26.715109042274985, "lng": 109.71015608683007}, "feature": {"sight_features": "", "sight_content": ""}}, {"title": "梨子岩", "address": "湖南省靖州苗族侗族自治县马路口村", "image": "", "rank": 27, "time": 2, "location": {"lat": 26.39353287795717, "lng": 109.4156616442509}, "feature": {"sight_features": "", "sight_content": ""}}, {"title": "飞山庙", "address": "湖南省靖州苗族侗族自治县渠阳镇飞山中路", "image": "", "rank": 28, "time": 2, "location": {"lat": 26.581459449300084, "lng": 109.68772566145685}, "feature": {"sight_features": "", "sight_content": ""}}, {"title": "文锋塔", "address": "湖南省会同县长寨乡小市村", "image": "", "rank": 29, "time": 2, "location": {"lat": 26.908720634406517, "lng": 110.07499160573433}, "feature": {"sight_features": "", "sight_content": ""}}, {"title": "马王桥", "address": "湖南省靖州苗族侗族自治县大南门外", "image": "", "rank": 30, "time": 2, "location": {"lat": 26.58132135106617, "lng": 109.702451607033}, "feature": {"sight_features": "", "sight_content": ""}}, {"title": "斗篷坡遗址", "address": "湖南省靖州苗族侗族自治县新厂乡金星村", "image": "", "rank": 31, "time": 2, "location": {"lat": 26.351796220202388, "lng": 109.45604524691335}, "feature": {"sight_features": "", "sight_content": ""}}, {"title": "帝豪步行街", "address": "湖南省靖州苗族侗族自治县异溪北路与诚州路交叉口", "image": "", "rank": 32, "time": 2, "location": {"lat": 26.579797965575832, "lng": 109.69501467765062}, "feature": {"sight_features": "", "sight_content": ""}}]}