{"cityName": "泾县", "days": 2, "cityImage": "", "spots": [{"title": "桃花潭", "address": "宣城市泾县桃花潭镇", "image": "", "rank": 1, "time": 3.5, "location": {"lat": 30.490596846951323, "lng": 118.15879825858981}, "feature": {"sight_features": "特色1 移步皆成景、四时景宜人。 特色2 水平浪稳，使游人跌宕之心转而为柔情惬意。 特色3 李白笔下的“桃花潭水深千尺”，登怀仙阁俯看桃花潭和陈村，赏清潭晨曦与黄昏。", "sight_content": "‍‍‍‍‍‍桃花潭，位于泾县以西40公里处，南临黄山、西接九华山，与太平湖紧紧相连，因唐代诗人李白《赠汪伦》――\"桃花潭水深千尺,不及汪伦送我情\"这首脍炙人口的千古绝唱，而名扬天下。后人在桃花潭旁建有“踏歌古岸”楼阁，酌海楼和纪念李白的文昌阁。潭东岸，有东园古渡，系汪伦踏歌送别李白处，有明朝建踏歌岸阁，西岸有垒玉墩、书板石、彩虹岗、谪仙楼、钓隐台、怀仙阁、汪伦墓等景点。\n下游东岸有建于乾隆年间的文昌阁。阁重檐飞角，方圆八面，气宇轩昂，昔为文人兴会之所，游人登临极目之处。 踏歌岸阁位于泾县桃花潭东岸东国古渡的渡口，即汪伦送李白处。阁因李白《赠汪伦》诗中“忽闻岸上踏歌声”之句而得名。\n桃花潭潭面水光潋艳，碧波涵空。潭岸怪石耸立，古树青藤纷披，春季绿韬如毡，桃花似火如霞，飞阁危楼隐约其中，犹如蓬莱仙境，又疑武陵人家。桃花潭四周点缀着众多的自然人文景观，屹立千年的垒玉墩，深藏奥妙的书板石、李白醉卧的彩虹岗、踏歌声声的古岸阁、青砖黑瓦的古民居……桃潭烟波使人陶醉，桃林春色让您留恋，移步皆成景、四时景宜人。县志《桃花潭记》称“层岩衍曲，回湍深”，“清泠皎洁，烟波无际”。峭岩上古藤缀拂，烟雾缭绕，朝阳夕晕，山光水色，尤显旖旎。驾一叶扁舟泛游其上，一篙新绿，微波涟漪，足见“千尺潭光九里烟，桃花如雨柳如绵”。\n\n据袁枚《随园诗话》所记，桃花潭豪士汪伦邀请李白的信云：“此地有十里桃花，万家酒店。”李白欣然应邀，却不见桃花酒店，汪伦解释说：“十里桃花是指十里处有桃花渡，万家酒店，是说潭边有姓万的酒肆”。李白听罢，大笑不已。主人盛情款待，客人开情畅饮。李白甚感汪伦的诚意，临别作《赠汪伦》诗一首：“李白乘舟将欲行，忽闻岸上踏歌声。桃花潭水深千尺，不及汪伦送我情。”千古传唱，桃花潭也随之扬名。溯桃花潭而上，就是闻名遐迩的“黄山情侣”太平湖。\n同时景区旅游资源十分丰富，既有地文景观、水域风光、生物景观，又有遗址、遗迹、古建筑，还有民俗节庆色彩浓厚的人文活动。可谓丰富多彩，现已有记载的各级旅游资源达61处，其中省级文保单位3处。景区内现有木本植物600余种，古树名木70多株。野生动物多达百余种。被列为中国历史文化名镇。"}}, {"title": "水墨汀溪风景区", "address": "宣城市泾县汀溪乡", "image": "", "rank": 2, "time": 2.5, "location": {"lat": 30.587734786382686, "lng": 118.55651428351825}, "feature": {"sight_features": "特色1 水墨汀溪风景区紧紧围绕“生态、休闲、养身”为主题。 特色2 景区内群山逶迤，地形呈峡谷分布。 特色3 是不可多得的休闲、度假、避暑、探幽的好场所。", "sight_content": "泾县水墨汀溪风景区位于汀溪乡东南，包含大南坑景区、马家岭景区、桃岭景区，规划面积40平方公里。景区内群山逶迤，地形呈峡谷分布，是休闲度假的胜地。泾县“水墨汀溪”风景区森林覆盖率达80%，是泾县重点自然生态保护区，这里层峦叠障，碧水潺潺，茶园滴翠，鸟语花香，自然条件得天独厚，生态环境雅致清新，并有江淮大地上仅存的原始林区，以及桃岭盘山公路、秀丽梯田、无心拱桥、鬼魔剑、棋盘石、青龙潭等各具特色的自然景观，素有“绿色净土”之称，是游客不可多得的休闲、度假、避暑、探幽的好场所。\n当你驶入山林，仿佛错过了一个季节，正值炎炎夏日，拂面的风却带着阵阵凉意，轻抚过裸露的肌肤。清新的空气和湿润的泥土气息、山林间特有的草木清香混合在一起，吸入肺腑，顿觉神清气爽。举目四望：一派山光水色，青山叠翠，起伏连绵，草木葳蕤，绿意深深。湖水在山林间若隐若现，似犹抱琵琶半遮面的少女，欲语还羞，转瞬即逝。一潭静影，惊鸿一瞥，就此在心里扎了根，恨不得一亲芳泽。刚下过一场雨，湖面上、山林间，雾气缭绕，如梦似幻，恍若人间仙境。"}}, {"title": "皖南事变烈士陵园", "address": "宣城市泾县水西路", "image": "", "rank": 3, "time": 1.5, "location": {"lat": 30.701960615766712, "lng": 118.40298577453716}, "feature": {"sight_features": "", "sight_content": ""}}, {"title": "江南第一漂", "address": "宣城市泾县榔桥镇境内，徽水河畔", "image": "", "rank": 4, "time": 7.5, "location": {"lat": 30.566417545185814, "lng": 118.40458296173391}, "feature": {"sight_features": "特色1 景区内河道蜿蜒曲折，水流湍急 特色2 中国宣纸之乡十佳魅力景区 特色3 景区内终日云雾缭绕，而水平浪稳", "sight_content": "人人都说江南好，江南有个第一漂。“江南第一漂”，是指泾县境内徽水河流域的一项漂流活动。“中国宣纸之乡十佳最具魅力景区”，地处中国著名风景区黄山和九华山之间（距黄山约90公里，距九华山约80公里，距205国道5公里），景区内河道蜿蜒曲折，水流湍急，两岸奇峰怪石千姿百态，层峦叠嶂，风光秀丽。穿过崇山峻岭间那条幽深的公路，便来到了江南第一漂的源头——泾县榔桥镇乌溪姚村小河口码头。\n登上精心制作的竹筏，首先来到因雾多而得名的早雾山景区，古木桥、龙潭石、龙凤石、小赤、长寿石、刁潭古印、蟹形山和明朝古墓群等这些独具特色的景点在您眼前闪现。就在您目不暇接之时，您乘坐的竹筏又来到了第二大景区：胡老湾景区。随之而来的便是惊心动魄的胡老湾冲浪，一湾三拐，摊中有垄，垄中有摊，冲浪时涛风沫雪，风韵独具，有惊无险十分刺激，堪称一绝。在这里可以观赏到古栈道、燕子笼、鸡公石、跳水崖等景点，并在回归自然游泳场尽情沐浴一番后走上岸去，品尝地方特色的柴烧农家饭。\n古老的徽水河源自绩溪徽岭，经泾县，汇入青弋江。河流蜿蜒曲折，时而湍急时而静谧，河水清澈见底，鱼儿时而闪现；两岸山崖灵秀、植被丰富、景色幽静。这条美丽的河曾经承载了徽商三百年辉煌，神韵犹存；如今又喜迎着八方客人游玩，新姿焕发。江南第一漂位于徽水河流经泾县的最后一段，上起乌溪乡姚村，下止黄村镇，景区全长约20公里。景区内河道蜿蜒曲折，水流湍急，两岸层峦叠翠风光绮丽，是休闲旅游的好去处。江南第一漂景区有古韵悠远的竹筏漂流，又有精彩刺激的皮划艇漂流。竹筏漂流全程11.2公里。经“下三湾”、“早雾山”、“胡老湾”、“平垣”四大景区，共有49个湾，49个滩，49个潭，更有“神秘的龙凤石”、“神奇的刁潭古印”和“琢磨不透的古墓群”三大谜团。游客可随竹筏一边逐波漂流、泼水狂欢，尽享戏水欢乐，一边探寻风景的绮丽与奥妙。\n皮划艇漂流全程7.2公里。经祚坑（翠屏峰）、狮子潭、情人谷、乌溪竹海至程家坦，有景点16处，激流多处。游客乘坐轻盈绚丽的皮划艇，荡漾在风景如画的徽水河上。平缓处可轻扬木浆，观赏美景；或挥浆竞舟，泼水尽欢；或窃窃私语，倾述衷肠。激流处可人艇合一，驾驭皮艇，尽享浪遏飞舟、勇搏激流的惊险刺激。"}}, {"title": "云岭新四军军部旧址", "address": "宣城市泾县云岭乡罗里村", "image": "", "rank": 5, "time": 2, "location": {"lat": 30.659405902265213, "lng": 118.2313421920487}, "feature": {"sight_features": "", "sight_content": ""}}, {"title": "绿林谷景区", "address": "宣城市泾县桃花潭镇桃花渡村1号", "image": "", "rank": 6, "time": 2, "location": {"lat": 30.50711703632083, "lng": 118.1530646952147}, "feature": {"sight_features": "", "sight_content": "桃花潭绿林谷景区位于安徽泾县桃花潭北入口处，周边旅游资源相当丰富，距离泾县县城35公里，黄山景区约30公里，桃花潭景区6公里，查济古村落22公里，合福高铁泾县站约35公里，无论远道而来，还是自驾出行，桃花潭绿林谷景区周边交通都特别便捷。\n景区内生态系统完好，空气清新，在这犹如人间仙境的自然山水间，步履轻松；原生态的皖南山野风情，天人相应。漫步绿林谷木屋度假村，沉浸在天然的氧吧中。\n绿林特色的莫过于分布在溪流旁，山林间的小木屋，设施完善，环境幽雅，每幢木屋都是独立的套间。朋友放下繁忙的工作，邀请上你的亲朋好友，带上你的行囊，走进桃花潭绿林谷，日落隐居绿林木屋，品尝原汁原味的家常土菜，真真切切感受世外桃源般的生活。\n未来，绿林谷景区开发的目标是要建设成为集生态旅游、户外拓展、休闲度假、体育运动、避暑养生于一体复合型的生态旅游度假区，下一步还将继续按照景区的总体规划和中长远发展的要求追加投资，集中精力创建国家体育旅游精品景区和国家4A级旅游景区。"}}, {"title": "文昌阁", "address": "宣城市泾县桃花潭风景区内", "image": "", "rank": 7, "time": 0.75, "location": {"lat": 30.487926959542442, "lng": 118.15599098739654}, "feature": {"sight_features": "", "sight_content": ""}}, {"title": "踏歌岸阁", "address": "宣城市泾县桃花潭风景区内", "image": "", "rank": 8, "time": 0.5, "location": {"lat": 30.487926959542442, "lng": 118.15599098739654}, "feature": {"sight_features": "", "sight_content": ""}}, {"title": "桃花潭畔旅游度假区", "address": "宣城市泾县桃花潭镇桃花潭村", "image": "", "rank": 9, "time": 2, "location": {"lat": 30.487507424841276, "lng": 118.14831295730436}, "feature": {"sight_features": "", "sight_content": ""}}, {"title": "太平湖景区", "address": "宣城市泾县桃花潭风景区东（上游3公里）处", "image": "", "rank": 10, "time": 7.5, "location": {"lat": 30.487926959542442, "lng": 118.15599098739654}, "feature": {"sight_features": "", "sight_content": ""}}, {"title": "宝峰岩景区", "address": "宣城市泾县西南桃花潭镇宝峰岩风景区", "image": "", "rank": 11, "time": 1.0, "location": {"lat": 30.490596846951323, "lng": 118.15879825858981}, "feature": {"sight_features": "", "sight_content": "皖南川藏线，这条深居皖南山区的“江南天路”，位于皖南318国道。该公路线东起宁国市的青龙乡，西至泾县的蔡村镇，其最神秘精华路段全长120公里。\n宝峰岩景区位于泾县西南桃花潭镇宝峰村境内，距离县城40公里，距离4A级桃花潭景区10公里、4A级查济景区6公里、皖南事变发生地 烈士林园5公里·3A级王稼祥纪念馆4公里。\n宝峰岩山清水秀，林木葱郁，奇峰怪石，潭谷洞府，钟乳奇异，古树泉瀑，绿林鲜花，一派清新秀逸的风光。唐代大诗人李白在游览泾县所作的《与谢良辅游泾川陵岩寺》一诗中，“乘君素舸泛泾西，宛似云门对若溪”指的就是这里。清代翰林赵青藜有“宝气凝容结无边光明世界，峰腰挂瀑流不尽活泼天机”的赞誉。\n除了自然风光，还有很多体验感的项目。步步惊心，勇气和定力的考验，空中漫步，一种别致的浪漫。高空秋千，不同高度，不同角度的风景，尽在眼前。高空滑道，感受与风赛跑，亲密拥抱大自然。"}}, {"title": "宣城章老根山庄", "address": "宣城宣城泾县蔡村镇月亮湾村西湾组26号", "image": "", "rank": 12, "time": 12.0, "location": {"lat": 30.710912868158196, "lng": 118.57309501438405}, "feature": {"sight_features": "", "sight_content": ""}}, {"title": "新四军史料陈列馆", "address": "云岭镇", "image": "", "rank": 13, "time": 2, "location": {"lat": 24.35029881176886, "lng": 113.44982264754108}, "feature": {"sight_features": "", "sight_content": ""}}, {"title": "皖南事变激战地", "address": "安徽省宣城市泾县茂林镇", "image": "", "rank": 14, "time": 2, "location": {"lat": 30.51053976865648, "lng": 118.26019507962208}, "feature": {"sight_features": "", "sight_content": ""}}, {"title": "一树山", "address": "One Tree Hill, Hamilton Island", "image": "", "rank": 15, "time": 1.5, "location": {"lat": 22.818048062965723, "lng": 108.41970584851269}, "feature": {"sight_features": "", "sight_content": ""}}, {"title": "水西森林公园", "address": "安徽省泾县泾川镇西郊", "image": "", "rank": 16, "time": 2, "location": {"lat": 30.668257894293557, "lng": 118.46336629925516}, "feature": {"sight_features": "", "sight_content": ""}}, {"title": "荣禄大夫第", "address": "安徽泾县黄田村", "image": "", "rank": 17, "time": 2, "location": {"lat": 30.46475083382496, "lng": 118.50787395695093}, "feature": {"sight_features": "", "sight_content": ""}}, {"title": "马头祥景区", "address": "宣城市泾县琴溪镇马头村", "image": "", "rank": 18, "time": 2, "location": {"lat": 30.78831724366439, "lng": 118.50930871524028}, "feature": {"sight_features": "", "sight_content": ""}}, {"title": "桃花潭云霄飞景", "address": "宣城市泾县桃花潭景区", "image": "", "rank": 19, "time": 2, "location": {"lat": 30.484145120826042, "lng": 118.15251214749551}, "feature": {"sight_features": "", "sight_content": ""}}, {"title": "安徽徽王莓岭蓝莓生态园", "address": "068县道北侧", "image": "", "rank": 20, "time": 2, "location": {"lat": 30.022408273049543, "lng": 116.11335028560431}, "feature": {"sight_features": "", "sight_content": ""}}, {"title": "云海山庄", "address": "月亮湾汪村073县道", "image": "", "rank": 21, "time": 2, "location": {"lat": 30.691632272875776, "lng": 118.58407670941298}, "feature": {"sight_features": "", "sight_content": ""}}, {"title": "爱民休闲山庄", "address": "安徽省宣城市泾县月亮湾景区", "image": "", "rank": 22, "time": 2, "location": {"lat": 30.694672488541514, "lng": 118.42643469241686}, "feature": {"sight_features": "", "sight_content": ""}}, {"title": "宣城大雾山农家乐", "address": "汪村月亮湾漂流(宣城泾县县道073)", "image": "", "rank": 23, "time": 12.0, "location": {"lat": 30.70193239738348, "lng": 118.63487517634088}, "feature": {"sight_features": "", "sight_content": ""}}, {"title": "义门", "address": "安徽省泾县桃花潭镇万村 242554", "image": "", "rank": 24, "time": 1.0, "location": {"lat": 30.48431714756711, "lng": 118.1521691744518}, "feature": {"sight_features": "", "sight_content": ""}}, {"title": "世源客庄", "address": "XD76桃岭村西150米", "image": "", "rank": 25, "time": 2, "location": {"lat": 36.48809515165107, "lng": 112.71889587200377}, "feature": {"sight_features": "", "sight_content": ""}}, {"title": "洪公祠", "address": "安徽省宣城市泾县山查路", "image": "", "rank": 26, "time": 1.5, "location": {"lat": 30.518820782306076, "lng": 118.04612670898314}, "feature": {"sight_features": "", "sight_content": ""}}, {"title": "象山防空洞", "address": "宣城市泾县榔桥镇黄田村", "image": "", "rank": 27, "time": 1.0, "location": {"lat": 30.46432072921261, "lng": 118.50532377540476}, "feature": {"sight_features": "", "sight_content": ""}}, {"title": "宣城月亮湾休闲山庄", "address": "蔡村月亮湾", "image": "", "rank": 28, "time": 12.0, "location": {"lat": 39.63399751213005, "lng": 115.6549287667532}, "feature": {"sight_features": "", "sight_content": ""}}, {"title": "丁家湾水库山庄", "address": "月亮湾风景区丁家湾43号", "image": "", "rank": 29, "time": 2, "location": {"lat": 27.840491699034366, "lng": 102.34944677621691}, "feature": {"sight_features": "", "sight_content": ""}}, {"title": "泾县徽源堂", "address": "安徽省泾县水西路", "image": "", "rank": 30, "time": 3.5, "location": {"lat": 30.701960615766712, "lng": 118.40298577453716}, "feature": {"sight_features": "", "sight_content": ""}}, {"title": "宣城栗林农家客栈", "address": "宣城泾县蔡村镇蔡村村", "image": "", "rank": 31, "time": 12.0, "location": {"lat": 30.698033026430142, "lng": 118.60778449468643}, "feature": {"sight_features": "", "sight_content": ""}}, {"title": "董村祠堂", "address": "榔桥镇浙溪桥66号", "image": "", "rank": 32, "time": 2, "location": {"lat": 30.41845368482762, "lng": 118.44870620126466}, "feature": {"sight_features": "", "sight_content": ""}}, {"title": "汪家祠堂", "address": "宣城市泾县零七三县道", "image": "", "rank": 33, "time": 2, "location": {"lat": 30.694672488541514, "lng": 118.42643469241686}, "feature": {"sight_features": "", "sight_content": ""}}, {"title": "汪伦墓", "address": "宣城市泾县桃花潭镇玉屏路46号桃花潭风景区内", "image": "", "rank": 34, "time": 2, "location": {"lat": 30.487926959542442, "lng": 118.15599098739654}, "feature": {"sight_features": "", "sight_content": ""}}, {"title": "梦潭轩", "address": "宣城市泾县陈村镇水东街62号", "image": "", "rank": 35, "time": 2, "location": {"lat": 30.485815035455744, "lng": 118.15602757627826}, "feature": {"sight_features": "", "sight_content": ""}}, {"title": "安徽泾县佛宝寺", "address": "安徽省宣城市泾县S322(水西路)", "image": "", "rank": 36, "time": 2, "location": {"lat": 30.701960615766712, "lng": 118.40298577453716}, "feature": {"sight_features": "", "sight_content": ""}}, {"title": "菲特游乐场", "address": "安徽省宣城市泾县泾川镇泾川大道南海客栈西南门", "image": "", "rank": 37, "time": 2, "location": {"lat": 30.697973025587142, "lng": 118.42709195920257}, "feature": {"sight_features": "", "sight_content": ""}}, {"title": "艾玩儿童乐园", "address": "宣城市泾县", "image": "", "rank": 38, "time": 2, "location": {"lat": 30.694672488541514, "lng": 118.42643469241686}, "feature": {"sight_features": "", "sight_content": ""}}, {"title": "泾县漕溪河畔度假村", "address": "宣城泾县泾川镇古坝村委会向南200米", "image": "", "rank": 39, "time": 2, "location": {"lat": 30.668257894293557, "lng": 118.46336629925516}, "feature": {"sight_features": "", "sight_content": ""}}, {"title": "泾县开心岛儿童乐园", "address": "泾县泾川镇红星广场50号东辉商务宾馆北侧", "image": "", "rank": 40, "time": 3.5, "location": {"lat": 30.692220836987, "lng": 118.42569853105144}, "feature": {"sight_features": "", "sight_content": ""}}, {"title": "中马广场", "address": "共和路申马广场(西门)附近", "image": "", "rank": 41, "time": 2, "location": {"lat": 30.475953226967135, "lng": 118.46807833924842}, "feature": {"sight_features": "", "sight_content": ""}}, {"title": "荷花塘·城市文化广场", "address": "宣城市泾县云岭路101号", "image": "", "rank": 42, "time": 2, "location": {"lat": 30.696820387398848, "lng": 118.41355477813345}, "feature": {"sight_features": "", "sight_content": ""}}, {"title": "白桦山庄", "address": "205国道附近", "image": "", "rank": 43, "time": 2, "location": {"lat": 37.34066223973322, "lng": 118.07089300716441}, "feature": {"sight_features": "", "sight_content": ""}}, {"title": "陵园", "address": "Z003附近", "image": "", "rank": 44, "time": 3.5, "location": {"lat": 23.100931760317003, "lng": 113.27528273950196}, "feature": {"sight_features": "", "sight_content": ""}}, {"title": "龙映山高山急速水滑道漂流", "address": "宣城市泾县蔡村镇爱民村龙映山景区", "image": "", "rank": 45, "time": 2, "location": {"lat": 30.650525167205956, "lng": 118.64462768849982}, "feature": {"sight_features": "", "sight_content": "龙映山高山急速水滑道漂流是龙映山风景区中的特色漂流项目，坐落于安徽省泾县蔡村镇爱民村境内，一条河流蜿蜒曲折，环绕着山岩峭壁自东向西流出，在小河之上由水泥钢结构加花岗岩结构铺设而成了一条长两千米左右，九段高山急速水滑道和10段形状各异的碧水水池，构成了一条巨龙型的游客激情体验的游乐场所，漂流惊险刺激，此起彼伏。"}}, {"title": "吴氏大宗祠", "address": "069县道", "image": "", "rank": 46, "time": 2, "location": {"lat": 37.02854860036221, "lng": 120.8911308811676}, "feature": {"sight_features": "", "sight_content": ""}}, {"title": "月亮湾宋村农家乐", "address": "蔡村镇宋村村水沙河组1号(近泾县蔡村镇宋村村委会)", "image": "", "rank": 47, "time": 2, "location": {"lat": 30.646745315561105, "lng": 118.60304110652578}, "feature": {"sight_features": "", "sight_content": ""}}, {"title": "红星美术馆", "address": "谢园东路", "image": "", "rank": 48, "time": 2, "location": {"lat": 30.69560287931592, "lng": 118.43036892470295}, "feature": {"sight_features": "", "sight_content": ""}}, {"title": "卡奇乐儿童乐园", "address": "泾川镇云岭路168号东", "image": "", "rank": 49, "time": 2, "location": {"lat": 30.69570983154901, "lng": 118.41352490139047}, "feature": {"sight_features": "", "sight_content": ""}}, {"title": "淘气堡儿童乐园", "address": "环城南路296-298号", "image": "", "rank": 50, "time": 2, "location": {"lat": 30.68958548504971, "lng": 118.41107750665569}, "feature": {"sight_features": "", "sight_content": ""}}, {"title": "翟记农家乐", "address": "桃花潭老街", "image": "", "rank": 51, "time": 2, "location": {"lat": 30.487295939121545, "lng": 118.15875096909285}, "feature": {"sight_features": "", "sight_content": ""}}, {"title": "三吴纪念馆", "address": "茂林风景区", "image": "", "rank": 52, "time": 2, "location": {"lat": 31.212113194916512, "lng": 121.44419275808994}, "feature": {"sight_features": "", "sight_content": ""}}, {"title": "归来兮农家乐", "address": "蔡村镇月亮湾汪村", "image": "", "rank": 53, "time": 2, "location": {"lat": 30.691782914345783, "lng": 118.58112472749018}, "feature": {"sight_features": "", "sight_content": ""}}, {"title": "望江亭钓鱼", "address": "桃花潭西路19号", "image": "", "rank": 54, "time": 2, "location": {"lat": 30.684450660335703, "lng": 118.41352289816919}, "feature": {"sight_features": "", "sight_content": ""}}, {"title": "皖南第一漂", "address": "琴溪镇赤滩村", "image": "", "rank": 55, "time": 2, "location": {"lat": 30.740335410626383, "lng": 118.47531744469215}, "feature": {"sight_features": "", "sight_content": ""}}, {"title": "绿林", "address": "桃花潭镇野鹿村东南80米", "image": "", "rank": 56, "time": 2, "location": {"lat": 34.74829017221147, "lng": 111.25423960196541}, "feature": {"sight_features": "", "sight_content": ""}}, {"title": "程氏庄园", "address": "073县道东50米蔡村工商所附近", "image": "", "rank": 57, "time": 2, "location": {"lat": 30.71863766135958, "lng": 118.56289044345179}, "feature": {"sight_features": "", "sight_content": ""}}, {"title": "汀溪乡茶香人家农家乐", "address": "汀溪乡", "image": "", "rank": 58, "time": 2, "location": {"lat": 30.587734786382686, "lng": 118.55651428351825}, "feature": {"sight_features": "", "sight_content": ""}}, {"title": "黄坑农家乐", "address": "宋村村黄坑1号(黄坑村口第一家)", "image": "", "rank": 59, "time": 2, "location": {"lat": 27.992130138405994, "lng": 120.42285149618917}, "feature": {"sight_features": "", "sight_content": ""}}, {"title": "泾县汀溪简朴寨农家乐", "address": "水墨汀溪风景区停车场向北50米(水墨汀溪风景区售票处向北100米)", "image": "", "rank": 60, "time": 3.5, "location": {"lat": 30.584380230280686, "lng": 118.62775418639373}, "feature": {"sight_features": "", "sight_content": ""}}]}