{"cityName": "井研", "days": 2, "cityImage": "", "spots": [{"title": "雷畅故居", "address": "乐山市井研县千佛镇境内", "image": "", "rank": 1, "time": 0.4, "location": {"lat": 29.59580389255786, "lng": 104.05972398324839}, "feature": {"sight_features": "", "sight_content": ""}}, {"title": "望君楼休闲山庄", "address": "213国道", "image": "", "rank": 2, "time": 2, "location": {"lat": 24.055864840380938, "lng": 102.20969505158318}, "feature": {"sight_features": "", "sight_content": ""}}, {"title": "锦绣花园", "address": "城南街与213国道交叉口(近锦绣花园山庄)", "image": "", "rank": 3, "time": 2, "location": {"lat": 22.212834216437308, "lng": 113.56094119666405}, "feature": {"sight_features": "", "sight_content": ""}}, {"title": "千禧果品种植基地", "address": "大石包附近", "image": "", "rank": 4, "time": 2, "location": {"lat": 31.64309504690447, "lng": 108.5030740771337}, "feature": {"sight_features": "", "sight_content": ""}}, {"title": "井研县红提葡萄专业合作社", "address": "白塔街16号附近", "image": "", "rank": 5, "time": 2, "location": {"lat": 29.56119998109566, "lng": 103.7660897122117}, "feature": {"sight_features": "", "sight_content": ""}}, {"title": "悠闲居", "address": "建设路169--附1号附近", "image": "", "rank": 6, "time": 2, "location": {"lat": 32.43664775790709, "lng": 119.56771286973319}, "feature": {"sight_features": "", "sight_content": ""}}, {"title": "娃娃帮儿童乐园", "address": "四川省乐山市井研县世园街3号-附10号", "image": "", "rank": 7, "time": 2, "location": {"lat": 29.65619725238271, "lng": 104.0762334964479}, "feature": {"sight_features": "", "sight_content": ""}}, {"title": "宋祠堂", "address": "乐山市井研县一四五县道", "image": "", "rank": 8, "time": 2, "location": {"lat": 29.65730305907957, "lng": 104.07651071352818}, "feature": {"sight_features": "", "sight_content": ""}}, {"title": "天主教堂", "address": "城关街146号", "image": "", "rank": 9, "time": 1.0, "location": {"lat": 40.0481990108845, "lng": 117.36277467365633}, "feature": {"sight_features": "", "sight_content": ""}}, {"title": "欢乐谷休闲山庄", "address": "四川省乐山市井研县马踏镇马踏街石泉幼儿园东北150米", "image": "", "rank": 10, "time": 2, "location": {"lat": 29.52203075504359, "lng": 104.00034418166776}, "feature": {"sight_features": "", "sight_content": ""}}, {"title": "毛祠堂", "address": "乐山市井研县零零七乡道", "image": "", "rank": 11, "time": 2, "location": {"lat": 29.65730305907957, "lng": 104.07651071352818}, "feature": {"sight_features": "", "sight_content": ""}}, {"title": "公园99号", "address": "四川省乐山市井研县研城镇迎宾大道15-44号近", "image": "", "rank": 12, "time": 2, "location": {"lat": 29.645059801569307, "lng": 104.06825186604513}, "feature": {"sight_features": "", "sight_content": ""}}, {"title": "金家湾啤酒广场(烧烤)", "address": "研城镇和美家园C区39号门市(金家湾市场)", "image": "", "rank": 13, "time": 2, "location": {"lat": 29.65746408431954, "lng": 104.0448519480438}, "feature": {"sight_features": "", "sight_content": ""}}, {"title": "世外桃源", "address": "夏家桥街与希望大道交叉口", "image": "", "rank": 14, "time": 1.5, "location": {"lat": 29.671104728442447, "lng": 104.06964738006121}, "feature": {"sight_features": "", "sight_content": ""}}, {"title": "星期六儿童主题乐园", "address": "迎宾大道118号附近", "image": "", "rank": 15, "time": 2, "location": {"lat": 34.224614076165956, "lng": 117.23671483262727}, "feature": {"sight_features": "", "sight_content": ""}}, {"title": "YP space", "address": "书院街与民主街交叉口南50米", "image": "", "rank": 16, "time": 2, "location": {"lat": 29.65676939302751, "lng": 104.0765909834136}, "feature": {"sight_features": "", "sight_content": ""}}, {"title": "乐彩星星艺术团", "address": "世园街11号-附1号", "image": "", "rank": 17, "time": 2, "location": {"lat": 29.656811399149003, "lng": 104.0763606066775}, "feature": {"sight_features": "", "sight_content": ""}}, {"title": "红星湖", "address": "四川省井研县高凤乡红星村", "image": "", "rank": 18, "time": 2, "location": {"lat": 29.657547723174826, "lng": 104.23070808726648}, "feature": {"sight_features": "", "sight_content": ""}}, {"title": "朱氏节孝坊", "address": "四川省井研县竹园镇广胜乡杨佳村", "image": "", "rank": 19, "time": 2, "location": {"lat": 29.517099614461998, "lng": 104.15807182329637}, "feature": {"sight_features": "", "sight_content": ""}}, {"title": "井研世园商城", "address": "四川省井研县世园街", "image": "", "rank": 20, "time": 2, "location": {"lat": 29.65662222053523, "lng": 104.07615811514106}, "feature": {"sight_features": "", "sight_content": ""}}, {"title": "金盛广场步行街", "address": "四川省井研县书院街", "image": "", "rank": 21, "time": 2, "location": {"lat": 29.65580292751766, "lng": 104.07712209127502}, "feature": {"sight_features": "", "sight_content": ""}}, {"title": "御林步行街", "address": "四川省井研县西门街", "image": "", "rank": 22, "time": 2, "location": {"lat": 29.65875341960833, "lng": 104.07466332668818}, "feature": {"sight_features": "", "sight_content": ""}}, {"title": "高龙桥村", "address": "乐山市-井研县", "image": "", "rank": 23, "time": 2, "location": {"lat": 29.65730305907957, "lng": 104.07651071352818}, "feature": {"sight_features": "", "sight_content": ""}}]}