{"cityName": "靖边", "days": 2, "cityImage": "", "spots": [{"title": "波浪谷", "address": "榆林市靖边县龙洲乡", "image": "", "rank": 1, "time": 2.5, "location": {"lat": 37.53553947534687, "lng": 108.99612903190473}, "feature": {"sight_features": "", "sight_content": ""}}, {"title": "统万城遗址", "address": "榆林市靖边县红墩界镇白城则村", "image": "", "rank": 2, "time": 2.5, "location": {"lat": 37.99144202996443, "lng": 108.87685683222433}, "feature": {"sight_features": "", "sight_content": ""}}, {"title": "毛乌素沙漠", "address": "榆林市靖边县", "image": "", "rank": 3, "time": 2, "location": {"lat": 37.60506319395491, "lng": 108.80060049853356}, "feature": {"sight_features": "", "sight_content": ""}}, {"title": "金鸡沙", "address": "榆林市靖边县东坑镇金鸡沙村", "image": "", "rank": 4, "time": 2, "location": {"lat": 37.63595714641655, "lng": 108.5194277361293}, "feature": {"sight_features": "", "sight_content": ""}}, {"title": "龙州丹霞地貌", "address": "龙州乡龙洲盆地", "image": "", "rank": 5, "time": 2.5, "location": {"lat": 19.672730050428324, "lng": 110.26902114831488}, "feature": {"sight_features": "", "sight_content": ""}}, {"title": "韩氏桃园", "address": "张家畔镇胡伙场村三组856号", "image": "", "rank": 6, "time": 2, "location": {"lat": 37.64340624588426, "lng": 108.83229173238273}, "feature": {"sight_features": "", "sight_content": ""}}, {"title": "香丰农家院", "address": "北大街", "image": "", "rank": 7, "time": 2, "location": {"lat": 39.865658405513635, "lng": 116.29212178217878}, "feature": {"sight_features": "", "sight_content": ""}}, {"title": "宥州农家院", "address": "榆靖路", "image": "", "rank": 8, "time": 2, "location": {"lat": 37.64666744344687, "lng": 108.89409856143693}, "feature": {"sight_features": "", "sight_content": ""}}, {"title": "从化温泉美妙时光豪华别墅", "address": "温泉镇林阴路12号", "image": "", "rank": 9, "time": 2, "location": {"lat": 23.642510043951287, "lng": 113.66483669665836}, "feature": {"sight_features": "", "sight_content": ""}}, {"title": "鳄鱼漆", "address": "张家畔镇长庆路王家庙建材市场座7号附近", "image": "", "rank": 10, "time": 2, "location": {"lat": 37.601867282466344, "lng": 108.7921292080828}, "feature": {"sight_features": "", "sight_content": ""}}, {"title": "西江月", "address": "长庆路与民生路十字东北角向北150米", "image": "", "rank": 11, "time": null, "location": {"lat": 30.253642535517027, "lng": 120.18063403409292}, "feature": {"sight_features": "", "sight_content": ""}}, {"title": "激情啤酒广场", "address": "靖边县其他北大街中段", "image": "", "rank": 12, "time": 2, "location": {"lat": 37.61075531146028, "lng": 108.8132322011232}, "feature": {"sight_features": "", "sight_content": ""}}, {"title": "靖边博物馆", "address": "陕西省榆林市靖边县五台森林公园内", "image": "", "rank": 13, "time": 2.5, "location": {"lat": 37.582841159426685, "lng": 108.85784156856204}, "feature": {"sight_features": "", "sight_content": ""}}, {"title": "东坑天主堂", "address": "陕西省榆林市靖边县G307", "image": "", "rank": 14, "time": 2, "location": {"lat": 37.60506319395491, "lng": 108.80060049853356}, "feature": {"sight_features": "", "sight_content": ""}}, {"title": "海贝儿儿童乐园", "address": "其他东大街建华商厦5楼", "image": "", "rank": 15, "time": 2, "location": {"lat": 37.60067040617269, "lng": 108.81564125438223}, "feature": {"sight_features": "", "sight_content": ""}}, {"title": "靖边河东教堂", "address": "陕西省榆林市靖边县南关东街", "image": "", "rank": 16, "time": 2.5, "location": {"lat": 37.59174859885607, "lng": 108.82636233481321}, "feature": {"sight_features": "", "sight_content": ""}}, {"title": "小鸭先知儿童水上主题乐园", "address": "张家畔镇长城路凯立蓉大酒店二楼", "image": "", "rank": 17, "time": 2, "location": {"lat": 37.60720903855479, "lng": 108.8035098046565}, "feature": {"sight_features": "", "sight_content": ""}}, {"title": "天主堂", "address": "南关东街附近", "image": "", "rank": 18, "time": 0.4, "location": {"lat": 39.054564830913975, "lng": 115.87901173737005}, "feature": {"sight_features": "", "sight_content": ""}}, {"title": "靖边法治文化广场", "address": "林荫路与西大街交叉口东北50米", "image": "", "rank": 19, "time": 2.5, "location": {"lat": 37.601674632728084, "lng": 108.80844611739998}, "feature": {"sight_features": "", "sight_content": ""}}, {"title": "东河湾人民广场", "address": "榆林市夏都巷", "image": "", "rank": 20, "time": 2, "location": {"lat": 37.602787867837044, "lng": 108.8184181188323}, "feature": {"sight_features": "", "sight_content": ""}}, {"title": "靖边县体育广场", "address": "东大街与南大街交叉口东150米", "image": "", "rank": 21, "time": 2, "location": {"lat": 22.617509352603705, "lng": 114.14733733676542}, "feature": {"sight_features": "", "sight_content": ""}}, {"title": "五庄果遗址", "address": "陕西省榆林市靖边县", "image": "", "rank": 22, "time": 2, "location": {"lat": 37.60506319395491, "lng": 108.80060049853356}, "feature": {"sight_features": "", "sight_content": ""}}, {"title": "南关广场", "address": "南大街", "image": "", "rank": 23, "time": 2, "location": {"lat": 39.99223922822961, "lng": 116.48539491834674}, "feature": {"sight_features": "", "sight_content": ""}}, {"title": "镇靖乡文化广场", "address": "靖志路东150米", "image": "", "rank": 24, "time": 2, "location": {"lat": 36.99178061972941, "lng": 108.61741897317658}, "feature": {"sight_features": "", "sight_content": ""}}, {"title": "王家庙白云观", "address": "陕西省榆林市靖边县永丰巷26", "image": "", "rank": 25, "time": 2, "location": {"lat": 37.60111000661782, "lng": 108.79752802419776}, "feature": {"sight_features": "", "sight_content": ""}}, {"title": "发展规划展览馆", "address": "延长中煤榆林能源化工有限公司西700米", "image": "", "rank": 26, "time": 2, "location": {"lat": 36.58532880170461, "lng": 110.01847172588649}, "feature": {"sight_features": "", "sight_content": ""}}, {"title": "镇靖乡伙场坬村图书室", "address": "林荫路", "image": "", "rank": 27, "time": 2, "location": {"lat": 31.21826542997723, "lng": 121.49318334475527}, "feature": {"sight_features": "", "sight_content": ""}}, {"title": "民乐园", "address": "西大街", "image": "", "rank": 28, "time": 2, "location": {"lat": 39.91357131364959, "lng": 116.6700940616933}, "feature": {"sight_features": "", "sight_content": ""}}, {"title": "兴隆水上乐园", "address": "长庆路住房公基金向北1000米", "image": "", "rank": 29, "time": 2.5, "location": {"lat": 26.588511483618962, "lng": 118.74881945582858}, "feature": {"sight_features": "", "sight_content": ""}}, {"title": "水世界水上乐园", "address": "长城路北段幸福家园向北300米", "image": "", "rank": 30, "time": 2, "location": {"lat": 37.619012557514885, "lng": 108.80130943944542}, "feature": {"sight_features": "", "sight_content": ""}}, {"title": "奇趣玩国游乐园", "address": "北大街老车站城建宾馆对面新百大卖场三楼", "image": "", "rank": 31, "time": 2, "location": {"lat": 43.913511813751484, "lng": 125.33514247127654}, "feature": {"sight_features": "", "sight_content": ""}}, {"title": "斌丞纪念馆", "address": "南大街", "image": "", "rank": 32, "time": 2, "location": {"lat": 39.99223922822961, "lng": 116.48539491834674}, "feature": {"sight_features": "", "sight_content": ""}}, {"title": "现代农业采摘观光园区", "address": "东坑镇陆家山村36号", "image": "", "rank": 33, "time": 2, "location": {"lat": 37.584072614081414, "lng": 108.6872582228297}, "feature": {"sight_features": "", "sight_content": ""}}, {"title": "靖边县图书馆", "address": "统万路159", "image": "", "rank": 34, "time": 2, "location": {"lat": 37.60432255526833, "lng": 108.79430148655364}, "feature": {"sight_features": "", "sight_content": ""}}, {"title": "夏都游乐园", "address": "东河湾紫禁城对面", "image": "", "rank": 35, "time": 2, "location": {"lat": 24.338968896711062, "lng": 109.41550445965113}, "feature": {"sight_features": "", "sight_content": ""}}, {"title": "靖边老车站广场", "address": "榆林市-靖边县-北大街与统万路交叉口东南50米", "image": "", "rank": 36, "time": 2.5, "location": {"lat": 37.605505007263304, "lng": 108.81400327064074}, "feature": {"sight_features": "", "sight_content": ""}}, {"title": "东胜滩", "address": "榆林市-靖边县", "image": "", "rank": 37, "time": 2, "location": {"lat": 37.60506319395491, "lng": 108.80060049853356}, "feature": {"sight_features": "", "sight_content": ""}}, {"title": "曹飞杨桥畔大会菜", "address": "榆林市-靖边县-G307(南关东街", "image": "", "rank": 38, "time": 2, "location": {"lat": 37.59174859885607, "lng": 108.82636233481321}, "feature": {"sight_features": "", "sight_content": ""}}, {"title": "神树涧", "address": "榆林市靖边县红墩界镇", "image": "", "rank": 39, "time": 2, "location": {"lat": 37.923572757168444, "lng": 108.8749248070386}, "feature": {"sight_features": "", "sight_content": ""}}]}