{"cityName": "井陉", "days": 2, "cityImage": "", "spots": [{"title": "苍岩山风景区", "address": "石家庄市井陉县苍岩山镇", "image": "", "rank": 1, "time": 3.0, "location": {"lat": 37.8515520148094, "lng": 114.14668757394739}, "feature": {"sight_features": "特色1 苍岩山銮台垴銮台寺原名志公寺，始建于隋代！<br> 通往山顶的弯延曲径平坦畅通的山道上，可感受到大自然的美丽，体会到刺激、爽快的乐趣！<br> 集休闲娱乐、会议观光、旅游房产、生态农业示范、农业体验旅游为一体的综合性生态农业园区！<br>", "sight_content": "位于河北省井陉县东南，距石家庄市70公里，海拔1000余米，是我国国家级重点风景名胜区之一。苍岩山最大的特点是：这里不仅自然风光优美，而且宗教寺庙众多，山峦中有不少名殿古刹。"}}, {"title": "石头村", "address": "石家庄市井陉县城微水镇西南约15公里处", "image": "", "rank": 2, "time": 3.0, "location": {"lat": 38.02957228063526, "lng": 114.15678087357273}, "feature": {"sight_features": "", "sight_content": ""}}, {"title": "窦王岭游乐场", "address": "石家庄市山前大道最南端与衡井线交叉口西行3千米", "image": "", "rank": 3, "time": null, "location": {"lat": 38.03027126733116, "lng": 114.3454441358297}, "feature": {"sight_features": "特色1 走进历史、了解历史、感受历史", "sight_content": "窦王岭，位于石家庄市山大道最南端，占地约1000余亩，因隋末农民起义军领袖窦建德曾在此屯兵练兵、生活而得名。 窦王岭是及历史文化与现代游乐为一体的大型综合型游乐场，全园分为三大主题：第一部分是中山国长城，第二部分是窦王寨，第三部分是游乐场。\n窦王寨是非物质文化遗产窦建德传说遗迹之一，它建在太行山麓，并直接利用了战国中山长城隘口，面向平原，居高临下，一夫当关，万夫莫开。窦建德居住在探花楼，从山上可以俯瞰山下窦王城和屯兵三寨。在窦王寨您可以走进历史、了解历史、感受历史；同时还有古老的中山长城蜿蜒在游乐场的群山之上。\n窦王岭游乐场是依山而建的游乐场，它以高山为依托修建起许多惊险刺激的游乐项目，如真正修建在山谷中的过山车；我园区自行研制的全世界独创的游乐设施，如旋转摄影屋、旋转台等等让您体验不一样的超炫刺激感。窦王岭游乐场既突出了奇特之处，又充分展现了高山与游乐的融合和吸引人的刺激性。让我们一起感受超炫、超酷的窦王岭游乐场吧！"}}, {"title": "桥楼殿", "address": "石家庄市井陉县苍岩山景区内", "image": "", "rank": 4, "time": 2, "location": {"lat": 37.83749597943024, "lng": 114.15597571875091}, "feature": {"sight_features": "", "sight_content": ""}}, {"title": "秦皇古道", "address": "石家庄市井陉县上安华能电厂相邻", "image": "", "rank": 5, "time": 1.5, "location": {"lat": 38.06687948257171, "lng": 114.21607991121948}, "feature": {"sight_features": "特色1 被称为冀晋通衢之孔道", "sight_content": "世界文化遗产协调官员亨利克利尔考察这里后说，“这里的古道比罗马古道至少早100年”，深及尺余的历历车辙显示出当年这里车水马龙的繁华景象，保存完好的清驿铺为研究中国古代邮驿史提供了重要物证。著名的韩信以少胜多的背水之战、抗击八国联军的庚子之战均发生在这里。到秦皇古驿道可观古驿道叹古今巨变，临古战场感兵法玄机。\n\n\n这里关山环立，地势险要，是山西、陕西通京的交通要冲，为历代兵家必争之地。古驿道长约百里，贯穿太行山、建在山岭沟谷中。这条古驿道的历史可追溯到秦代，曾是古代燕赵通向秦晋的交通要隘，控制冀晋两省的咽喉所在。秦始皇统一中国后，修筑了以咸阳为中心的驿道，井陉古驿道就是当时的主干线上的重要一段。\n\n\n通向古道的上行石路比较陡峭，路边保留着或立或卧、残缺不全的石马、石兽，以及明清两代文官武将的石像。绕过一个山口，一座雄关豁然出现，这就是扼守古驿道的东天门，门匾上题有“西通秦晋”四个蓝底金字。东天门是一座关城，分东阁、西阁，两阁相距不足50米。南北两峰直插两阁，浑然成为一体，阁在正中如同两把铁锁，牢牢地封锁着关隘。接近关城，古驿道渐渐出现了。"}}, {"title": "福庆寺", "address": "河北省石家庄井陉县苍岩山风景区", "image": "", "rank": 6, "time": 2.0, "location": {"lat": 37.8379384877495, "lng": 114.17272446418778}, "feature": {"sight_features": "", "sight_content": ""}}, {"title": "锦山风景区", "address": "石家庄市井陉县测鱼镇南寺掌", "image": "", "rank": 7, "time": 3.0, "location": {"lat": 37.73668930857649, "lng": 114.10447120075999}, "feature": {"sight_features": "", "sight_content": ""}}, {"title": "苍岩山天王殿", "address": "河北省石家庄井陉县苍岩山风景区", "image": "", "rank": 8, "time": 2, "location": {"lat": 37.8379384877495, "lng": 114.17272446418778}, "feature": {"sight_features": "", "sight_content": ""}}, {"title": "挂云山", "address": "石家庄市井陉县东北部", "image": "", "rank": 9, "time": 3.0, "location": {"lat": 38.03838621492678, "lng": 114.15146299927575}, "feature": {"sight_features": "", "sight_content": ""}}, {"title": "豌豆农庄油菜花节", "address": "石家庄市井陉县孙庄靖港湿地豌豆农庄", "image": "", "rank": 10, "time": 2, "location": {"lat": 38.03838621492678, "lng": 114.15146299927575}, "feature": {"sight_features": "", "sight_content": ""}}, {"title": "秦皇古道CS", "address": "石家庄市井陉县秦皇古道滑雪场附近", "image": "", "rank": 11, "time": 2, "location": {"lat": 38.05146434490748, "lng": 114.18537861812705}, "feature": {"sight_features": "", "sight_content": ""}}, {"title": "锦山自然生态风景区", "address": "河北省石家庄市井陉县南部锦山自然生态风景区", "image": "", "rank": 12, "time": 2, "location": {"lat": 37.755915767644375, "lng": 114.10480793327532}, "feature": {"sight_features": "", "sight_content": ""}}, {"title": "石林", "address": "河北省石家庄市井陉矿区清凉山风景区内", "image": "", "rank": 13, "time": 1.5, "location": {"lat": 38.080003152450175, "lng": 114.02480614440476}, "feature": {"sight_features": "", "sight_content": ""}}, {"title": "水龙洞", "address": "河北省石家庄市井陉矿区清凉山景区", "image": "", "rank": 14, "time": 2, "location": {"lat": 38.07975398242145, "lng": 114.02468262380391}, "feature": {"sight_features": "", "sight_content": ""}}, {"title": "神女峰", "address": "河北省石家庄市井陉矿区清凉山风景区内", "image": "", "rank": 15, "time": 2.5, "location": {"lat": 38.080003152450175, "lng": 114.02480614440476}, "feature": {"sight_features": "", "sight_content": ""}}, {"title": "风挡山", "address": "井陉县测鱼镇", "image": "", "rank": 16, "time": 2, "location": {"lat": 37.76916187881754, "lng": 114.11670241539736}, "feature": {"sight_features": "", "sight_content": ""}}, {"title": "皇姑坟", "address": "河北石家庄市井陉县仓岩山镇", "image": "", "rank": 17, "time": 2, "location": {"lat": 37.83784467417095, "lng": 114.15660943106786}, "feature": {"sight_features": "", "sight_content": ""}}, {"title": "七十二景观", "address": "河北省石家庄市井陉县（仓岩山镇西2.1公里）", "image": "", "rank": 18, "time": 2, "location": {"lat": 37.83784467417095, "lng": 113.96796527397248}, "feature": {"sight_features": "", "sight_content": ""}}, {"title": "隐凤山", "address": "石家庄市井陉县南障城镇北障城村村北", "image": "", "rank": 19, "time": 2, "location": {"lat": 37.91586812058069, "lng": 114.09093329924984}, "feature": {"sight_features": "", "sight_content": ""}}, {"title": "﻿天护陀罗尼经幢", "address": "石家庄市井陉矿区天户村原东禅院遗址内", "image": "", "rank": 20, "time": 1.0, "location": {"lat": 38.085285044159505, "lng": 114.07724363441362}, "feature": {"sight_features": "", "sight_content": ""}}, {"title": "金华寺森林公园", "address": "石家庄市井陉县南王庄乡", "image": "", "rank": 21, "time": 2, "location": {"lat": 37.91307048450743, "lng": 114.20337912264796}, "feature": {"sight_features": "", "sight_content": ""}}, {"title": "公主祠", "address": "石家庄市井陉县苍岩山镇苍岩山景区内", "image": "", "rank": 22, "time": 0.4, "location": {"lat": 37.83749597943024, "lng": 114.15597571875091}, "feature": {"sight_features": "", "sight_content": ""}}, {"title": "万仙堂", "address": "石家庄市井陉县苍岩山镇苍岩山景区内", "image": "", "rank": 23, "time": 0.4, "location": {"lat": 37.83749597943024, "lng": 114.15597571875091}, "feature": {"sight_features": "", "sight_content": ""}}, {"title": "说法危台", "address": "石家庄市井陉县苍岩山镇苍岩山景区内", "image": "", "rank": 24, "time": 0.4, "location": {"lat": 37.83749597943024, "lng": 114.15597571875091}, "feature": {"sight_features": "", "sight_content": ""}}, {"title": "灵岩寺", "address": "石家庄市井陉县秀林镇西柏岩村", "image": "", "rank": 25, "time": 2.0, "location": {"lat": 37.98614636167719, "lng": 114.10992384962924}, "feature": {"sight_features": "", "sight_content": ""}}, {"title": "白城剧场", "address": "202省道附近", "image": "", "rank": 26, "time": 1.5, "location": {"lat": 37.77792504283699, "lng": 114.12616671611477}, "feature": {"sight_features": "", "sight_content": ""}}, {"title": "胡家滩剧场", "address": "061县道附近", "image": "", "rank": 27, "time": 2, "location": {"lat": 43.224068078932625, "lng": 124.79710948268877}, "feature": {"sight_features": "", "sight_content": ""}}, {"title": "井陉大剧院", "address": "建设南路2号", "image": "", "rank": 28, "time": 2.0, "location": {"lat": 38.03842443952331, "lng": 114.15074435486777}, "feature": {"sight_features": "", "sight_content": ""}}, {"title": "董家庄剧场", "address": "河北省石家庄市井陉县", "image": "", "rank": 29, "time": 2, "location": {"lat": 38.03838621492678, "lng": 114.15146299927575}, "feature": {"sight_features": "", "sight_content": ""}}, {"title": "将军救孤", "address": "河北省石家庄市井陉矿区清凉山风风景区内", "image": "", "rank": 30, "time": 2, "location": {"lat": 38.07056583451666, "lng": 114.06863186515059}, "feature": {"sight_features": "", "sight_content": ""}}, {"title": "好汉寨", "address": "河北省石家庄市井陉矿区清凉山风景区内", "image": "", "rank": 31, "time": 2, "location": {"lat": 38.080003152450175, "lng": 114.02480614440476}, "feature": {"sight_features": "", "sight_content": ""}}, {"title": "白云观", "address": "河北省石家庄市井陉矿区清凉山风景区内", "image": "", "rank": 32, "time": 1.0, "location": {"lat": 38.080003152450175, "lng": 114.02480614440476}, "feature": {"sight_features": "", "sight_content": ""}}, {"title": "赵孤园", "address": "河北石家庄市井经县北孤村赵孤山东麓", "image": "", "rank": 33, "time": 2, "location": {"lat": 38.0483119268727, "lng": 114.52153190157445}, "feature": {"sight_features": "", "sight_content": ""}}, {"title": "三绝", "address": "河北省石家庄市井陉县（仓岩山镇西2.1公里）", "image": "", "rank": 34, "time": 2, "location": {"lat": 37.83784467417095, "lng": 113.96796527397248}, "feature": {"sight_features": "", "sight_content": ""}}, {"title": "一奇", "address": "河北省石家庄市井陉县（仓岩山镇西2.1公里）", "image": "", "rank": 35, "time": 2, "location": {"lat": 37.83784467417095, "lng": 113.96796527397248}, "feature": {"sight_features": "", "sight_content": ""}}, {"title": "龙岩寺", "address": "河北省井陉县苍岩山景区", "image": "", "rank": 36, "time": 2.0, "location": {"lat": 37.83784467417095, "lng": 114.15660943106786}, "feature": {"sight_features": "", "sight_content": ""}}, {"title": "石家庄长城", "address": "河北省井陉县辛庄乡白土岭村北", "image": "", "rank": 37, "time": 1.0, "location": {"lat": 38.13058264005666, "lng": 113.90912460928848}, "feature": {"sight_features": "", "sight_content": ""}}, {"title": "长岗剧场", "address": "长岗村委会附近福康西街", "image": "", "rank": 38, "time": 2, "location": {"lat": 38.03274812260806, "lng": 114.12671334759386}, "feature": {"sight_features": "", "sight_content": ""}}, {"title": "南河头公园", "address": "冶河西路东200米", "image": "", "rank": 39, "time": 2, "location": {"lat": 38.032020495036086, "lng": 114.13420525507252}, "feature": {"sight_features": "", "sight_content": ""}}, {"title": "五龙圣母庙", "address": "福康东街与福康西街交叉口西北100米", "image": "", "rank": 40, "time": 2, "location": {"lat": 38.033553085339385, "lng": 114.13199905806206}, "feature": {"sight_features": "", "sight_content": ""}}, {"title": "三清殿", "address": "石家庄市井陉县仓岩山镇苍岩山景区玉皇顶内", "image": "", "rank": 41, "time": 0.35, "location": {"lat": 37.83548416997014, "lng": 114.15042455810622}, "feature": {"sight_features": "", "sight_content": ""}}, {"title": "大雄宝殿", "address": "石家庄市井陉县仓岩山镇苍岩山景区菩萨顶内", "image": "", "rank": 42, "time": 2, "location": {"lat": 37.837244674965866, "lng": 114.1496211136581}, "feature": {"sight_features": "", "sight_content": ""}}, {"title": "卧佛寺", "address": "河北省石家庄市井陉县仓岩山镇苍岩山景区内", "image": "", "rank": 43, "time": 2.0, "location": {"lat": 37.83749597943024, "lng": 114.15597571875091}, "feature": {"sight_features": "", "sight_content": ""}}, {"title": "村王庙", "address": "石家庄市井陉县", "image": "", "rank": 44, "time": 2, "location": {"lat": 38.03838621492678, "lng": 114.15146299927575}, "feature": {"sight_features": "", "sight_content": ""}}, {"title": "为民公园", "address": "北鄣城村", "image": "", "rank": 45, "time": 2, "location": {"lat": 37.93224194092588, "lng": 114.09816612643637}, "feature": {"sight_features": "", "sight_content": ""}}, {"title": "北正旭跃公园", "address": "北正学校附近", "image": "", "rank": 46, "time": 2, "location": {"lat": 39.57199576033353, "lng": 115.87453001123158}, "feature": {"sight_features": "", "sight_content": ""}}, {"title": "水上公园-儿童游乐场", "address": "冶河东路与307国道交叉口西北150米", "image": "", "rank": 47, "time": 2, "location": {"lat": 39.754319199493544, "lng": 118.4675874287618}, "feature": {"sight_features": "", "sight_content": ""}}, {"title": "宝林禅寺", "address": "小作镇赵西岭村", "image": "", "rank": 48, "time": 1.5, "location": {"lat": 38.143055205933734, "lng": 114.02953177396377}, "feature": {"sight_features": "", "sight_content": ""}}, {"title": "寨湾公园", "address": "威州镇", "image": "", "rank": 49, "time": 2, "location": {"lat": 38.121586505767524, "lng": 114.16040414213535}, "feature": {"sight_features": "", "sight_content": ""}}, {"title": "中关村太行智慧城", "address": "陉山大道附近", "image": "", "rank": 50, "time": 2, "location": {"lat": 38.030648577342504, "lng": 114.14876180448861}, "feature": {"sight_features": "", "sight_content": ""}}, {"title": "雅园", "address": "307国道东150米", "image": "", "rank": 51, "time": 2, "location": {"lat": 38.073000928506836, "lng": 114.40263550800415}, "feature": {"sight_features": "", "sight_content": ""}}, {"title": "陉山广场", "address": "陉山大道南50米", "image": "", "rank": 52, "time": 1.0, "location": {"lat": 38.030293291353644, "lng": 114.14876180448861}, "feature": {"sight_features": "", "sight_content": ""}}, {"title": "大梁江古村落", "address": "石家庄市井陉县南障城镇大梁江村", "image": "", "rank": 53, "time": 2, "location": {"lat": 37.91699596572125, "lng": 113.98205842350818}, "feature": {"sight_features": "", "sight_content": "大梁江古村落位于河北省井陉县西部，因其隐藏在群山环抱之中，古风古貌得以完整保存下来。这里有一处完整的明清建筑群，房屋建筑以石头作为主要材料，木质门窗，碧瓦青砖，斗拱飞檐，气势宏伟，向人们展示着一代晋商曾经的辉煌，有人称之为河北的\"乔家大院\"。"}}, {"title": "井陉书画艺术馆", "address": "冶河西路39号", "image": "", "rank": 54, "time": 3.0, "location": {"lat": 38.04514922532112, "lng": 114.13998239434964}, "feature": {"sight_features": "", "sight_content": ""}}, {"title": "常坪村剧场舞台", "address": "112乡道附近", "image": "", "rank": 55, "time": 2, "location": {"lat": 39.60752948315243, "lng": 118.9392613182252}, "feature": {"sight_features": "", "sight_content": ""}}, {"title": "马峪剧场", "address": "马峪村附近", "image": "", "rank": 56, "time": 2, "location": {"lat": 37.98868875274291, "lng": 114.12113799198855}, "feature": {"sight_features": "", "sight_content": ""}}, {"title": "新庄剧场", "address": "辛庄公园附近", "image": "", "rank": 57, "time": 2, "location": {"lat": 36.70360213489559, "lng": 117.31447336579187}, "feature": {"sight_features": "", "sight_content": ""}}, {"title": "苍岩山 Cangyan Mountain", "address": "河北省石家庄市井陉县东南", "image": "", "rank": 58, "time": 2, "location": {"lat": 38.03838621492678, "lng": 114.15146299927575}, "feature": {"sight_features": "", "sight_content": ""}}, {"title": "荆蒲兰村", "address": "石家庄市-井陉矿区", "image": "", "rank": 59, "time": 2, "location": {"lat": 38.07056583451666, "lng": 114.06863186515059}, "feature": {"sight_features": "", "sight_content": ""}}, {"title": "井陉县苍岩山镇志强养殖场", "address": "石家庄市-井陉县-国家堡", "image": "", "rank": 60, "time": null, "location": {"lat": 37.85225281384176, "lng": 113.99929699158369}, "feature": {"sight_features": "", "sight_content": ""}}]}