{"cityName": "靖江", "days": 2, "cityImage": "", "spots": [{"title": "牧城公园", "address": "泰州市靖江市滨江路附近", "image": "", "rank": 1, "time": 1.0, "location": {"lat": 31.974519596427967, "lng": 120.30266450958746}, "feature": {"sight_features": "", "sight_content": ""}}, {"title": "孤山风景区", "address": "泰州市靖江市孤山镇清河路（近孤山中路）", "image": "", "rank": 2, "time": 2.5, "location": {"lat": 32.06603971186076, "lng": 120.31636080302005}, "feature": {"sight_features": "", "sight_content": ""}}, {"title": "马洲公园", "address": "泰州市靖江市滨江新城阳光大道行政中心南首", "image": "", "rank": 3, "time": 1.0, "location": {"lat": 31.988681342085524, "lng": 120.28402382764486}, "feature": {"sight_features": "", "sight_content": ""}}, {"title": "靖江人民公园", "address": "泰州市靖江市人民北路56号", "image": "", "rank": 4, "time": 2.5, "location": {"lat": 32.02548190270749, "lng": 120.27667396562327}, "feature": {"sight_features": "", "sight_content": ""}}, {"title": "孤山烈士陵园", "address": "泰州市靖江市孤山中路", "image": "", "rank": 5, "time": 1.0, "location": {"lat": 32.06868163819963, "lng": 120.31261951418124}, "feature": {"sight_features": "", "sight_content": ""}}, {"title": "岳王庙及刘国钧故居", "address": "泰州市靖江市生祠镇中街", "image": "", "rank": 6, "time": 1.0, "location": {"lat": 32.0546255660028, "lng": 120.12810312480254}, "feature": {"sight_features": "", "sight_content": ""}}, {"title": "孤山寺", "address": "江苏省泰州市靖江市同兴路", "image": "", "rank": 7, "time": 2, "location": {"lat": 32.06486976128439, "lng": 120.31834110494052}, "feature": {"sight_features": "", "sight_content": ""}}, {"title": "靖江梦幻乐园", "address": "泰州市靖江市新汽车站北润晖国际广场", "image": "", "rank": 8, "time": 1.5, "location": {"lat": 32.012251000939266, "lng": 120.25894702118099}, "feature": {"sight_features": "", "sight_content": ""}}, {"title": "李亮专业盲人推拿（御水湾店）", "address": "泰州市靖江市中洲路御水湾二期人民医院南门对面", "image": "", "rank": 9, "time": 2, "location": {"lat": 31.996295139715095, "lng": 120.28046135819577}, "feature": {"sight_features": "", "sight_content": ""}}, {"title": "摩斯密室", "address": "渔婆南路38号康家乐药房南(尚一品斜对面)巷内100米(康家乐药房)", "image": "", "rank": 10, "time": 2, "location": {"lat": 32.02495205152609, "lng": 120.26726831527259}, "feature": {"sight_features": "", "sight_content": ""}}, {"title": "一水天休闲农场", "address": "公新公路302县", "image": "", "rank": 11, "time": 2, "location": {"lat": 32.0094713334522, "lng": 120.06079332560103}, "feature": {"sight_features": "", "sight_content": ""}}, {"title": "靖江市生态园", "address": "229省道", "image": "", "rank": 12, "time": 7.5, "location": {"lat": 39.64350034548962, "lng": 117.03562195777462}, "feature": {"sight_features": "", "sight_content": ""}}, {"title": "靖江市老干部图书阅览室", "address": "骥江东路162号附近", "image": "", "rank": 13, "time": 2, "location": {"lat": 32.02291933358058, "lng": 120.27786884849398}, "feature": {"sight_features": "", "sight_content": ""}}, {"title": "东兴影剧院", "address": "跃进路", "image": "", "rank": 14, "time": 2.0, "location": {"lat": 40.06281047006506, "lng": 116.19666351783904}, "feature": {"sight_features": "", "sight_content": ""}}, {"title": "靖江市锡剧团实验剧场", "address": "江苏省泰州市靖江市西环城路国税局第五分局(速8酒店西北)", "image": "", "rank": 15, "time": 2, "location": {"lat": 32.03321555725764, "lng": 120.25776819462297}, "feature": {"sight_features": "", "sight_content": ""}}, {"title": "靖江市西来影剧院", "address": "兴隆东街附近", "image": "", "rank": 16, "time": 2, "location": {"lat": 37.29514156385141, "lng": 112.33297119114853}, "feature": {"sight_features": "", "sight_content": ""}}, {"title": "惠丰影剧院", "address": "吉祥路附近", "image": "", "rank": 17, "time": 2, "location": {"lat": 39.91751906216139, "lng": 116.67130774430173}, "feature": {"sight_features": "", "sight_content": ""}}, {"title": "季市影剧院", "address": "季市镇季市中路28号同德堂药房附近", "image": "", "rank": 18, "time": 2, "location": {"lat": 32.13787147563449, "lng": 120.31349115349215}, "feature": {"sight_features": "", "sight_content": ""}}, {"title": "艺海生态植物园", "address": "四圩港路", "image": "", "rank": 19, "time": 2, "location": {"lat": 32.06510410522339, "lng": 120.18819560246895}, "feature": {"sight_features": "", "sight_content": ""}}, {"title": "云水山房茶会所", "address": "中洲路通江路路口", "image": "", "rank": 20, "time": 2, "location": {"lat": 31.997540543982343, "lng": 120.27897135501587}, "feature": {"sight_features": "", "sight_content": ""}}, {"title": "刘国钧故居", "address": "岳王庙附近", "image": "", "rank": 21, "time": 1.0, "location": {"lat": 38.860008290655436, "lng": 115.50797779444504}, "feature": {"sight_features": "", "sight_content": ""}}, {"title": "江苏江阴靖江工业园区规划馆", "address": "江苏省靖江市S336省道与S229省道交叉口", "image": "", "rank": 22, "time": 2, "location": {"lat": 31.988170075210594, "lng": 120.28353203592053}, "feature": {"sight_features": "", "sight_content": ""}}, {"title": "潮音寺桥", "address": "江苏省泰州市靖江市", "image": "", "rank": 23, "time": 2, "location": {"lat": 31.988170075210594, "lng": 120.28353203592053}, "feature": {"sight_features": "", "sight_content": ""}}, {"title": "哼哈儿童乐园", "address": "凯旋国际南门2-09二楼(春江花城北门)", "image": "", "rank": 24, "time": 1.5, "location": {"lat": 31.998929306824493, "lng": 120.26692214066804}, "feature": {"sight_features": "", "sight_content": ""}}, {"title": "羊羊乐儿童乐园", "address": "人民中路凯旋国际4-09", "image": "", "rank": 25, "time": 2, "location": {"lat": 28.198479775466446, "lng": 113.0166702122015}, "feature": {"sight_features": "", "sight_content": ""}}, {"title": "靖江市海鸿生态园", "address": "泰州市靖江市生祠镇金星村朱家坝朱惠路与201县道交汇处", "image": "", "rank": 26, "time": 2.5, "location": {"lat": 32.01428507263692, "lng": 120.19907924026502}, "feature": {"sight_features": "", "sight_content": ""}}, {"title": "平安法治公园", "address": "江苏省泰州市靖江市火炬路靖江开发区城南园区委员会南", "image": "", "rank": 27, "time": 2, "location": {"lat": 31.986013144337633, "lng": 120.24040909011752}, "feature": {"sight_features": "", "sight_content": ""}}, {"title": "淘淘宝贝乐园", "address": "莲兴公寓2-3", "image": "", "rank": 28, "time": 2, "location": {"lat": 31.98229480650365, "lng": 120.24629515792077}, "feature": {"sight_features": "", "sight_content": ""}}, {"title": "戏鱼墩公园", "address": "江苏省泰州市靖江市北二环路", "image": "", "rank": 29, "time": 1.5, "location": {"lat": 32.04926553293935, "lng": 120.29159158714248}, "feature": {"sight_features": "", "sight_content": ""}}, {"title": "爱德乐儿童乐园", "address": "人民北路1号德诚城市广场8号楼2楼", "image": "", "rank": 30, "time": null, "location": {"lat": 32.02477836976635, "lng": 120.27419122166833}, "feature": {"sight_features": "", "sight_content": ""}}, {"title": "东平寺", "address": "江苏省泰州市靖江市X303(沿江路)", "image": "", "rank": 31, "time": 2, "location": {"lat": 31.975686277595052, "lng": 120.30115166878659}, "feature": {"sight_features": "", "sight_content": ""}}, {"title": "植物园", "address": "江苏省泰州市靖江市新西北路2号", "image": "", "rank": 32, "time": 1.0, "location": {"lat": 32.026730496354446, "lng": 120.27170794322164}, "feature": {"sight_features": "", "sight_content": ""}}, {"title": "兴明农民公园", "address": "飞跃路76号附近", "image": "", "rank": 33, "time": 2, "location": {"lat": 32.00254729272841, "lng": 120.07488261896783}, "feature": {"sight_features": "", "sight_content": ""}}, {"title": "小天才游乐园", "address": "皓月路与老公新公路东兴段交叉口东50米", "image": "", "rank": 34, "time": 2, "location": {"lat": 29.59848572858322, "lng": 105.08254748773004}, "feature": {"sight_features": "", "sight_content": ""}}, {"title": "靖江雷音寺", "address": "横港四队", "image": "", "rank": 35, "time": 7.5, "location": {"lat": 31.33031016346542, "lng": 121.12530609769743}, "feature": {"sight_features": "", "sight_content": ""}}, {"title": "爱我家园", "address": "渔婆北路138号附近", "image": "", "rank": 36, "time": 2, "location": {"lat": 32.03135789441981, "lng": 120.27077396225692}, "feature": {"sight_features": "", "sight_content": ""}}, {"title": "国税小游园", "address": "渔婆北路与真武河南路交叉口东南100米", "image": "", "rank": 37, "time": 2, "location": {"lat": 32.038719750082514, "lng": 120.27516998301303}, "feature": {"sight_features": "", "sight_content": ""}}, {"title": "茶安寺", "address": "江苏省泰州市靖江市X301(敦土路)", "image": "", "rank": 38, "time": 2, "location": {"lat": 32.08490828895573, "lng": 120.44559946158778}, "feature": {"sight_features": "", "sight_content": ""}}, {"title": "天生港", "address": "中洲路与通江路交叉口东100米", "image": "", "rank": 39, "time": 2, "location": {"lat": 31.997540543982343, "lng": 120.27986966052585}, "feature": {"sight_features": "", "sight_content": ""}}, {"title": "靖江市滨江公园", "address": "工农路附近", "image": "", "rank": 40, "time": 3.5, "location": {"lat": 38.42216268398484, "lng": 115.32654473093268}, "feature": {"sight_features": "", "sight_content": ""}}, {"title": "弘正法文化广场", "address": "同安路与阳光大道交叉口东北100米", "image": "", "rank": 41, "time": 2, "location": {"lat": 30.610648972856424, "lng": 104.3237930426627}, "feature": {"sight_features": "", "sight_content": ""}}, {"title": "季市公园", "address": "季市镇", "image": "", "rank": 42, "time": 2, "location": {"lat": 32.11630306509142, "lng": 120.33657357799498}, "feature": {"sight_features": "", "sight_content": ""}}, {"title": "靖江市春江广场", "address": "人民中路89号", "image": "", "rank": 43, "time": 2, "location": {"lat": 30.91898011598693, "lng": 121.46590742352159}, "feature": {"sight_features": "", "sight_content": ""}}, {"title": "银厦休闲广场", "address": "人民中路与江阳路交叉口东200米", "image": "", "rank": 44, "time": 2, "location": {"lat": 32.00434535839593, "lng": 120.27179903229867}, "feature": {"sight_features": "", "sight_content": ""}}, {"title": "中泰广场", "address": "泰州市靖江市人民中路133号", "image": "", "rank": 45, "time": 2, "location": {"lat": 32.008285772261885, "lng": 120.271231325674}, "feature": {"sight_features": "", "sight_content": ""}}, {"title": "靖江市西来烈士陵园", "address": "江平路57号", "image": "", "rank": 46, "time": 2, "location": {"lat": 32.01959820384362, "lng": 120.27282782746364}, "feature": {"sight_features": "", "sight_content": ""}}, {"title": "绿禾农庄", "address": "336省道", "image": "", "rank": 47, "time": 2, "location": {"lat": 31.893686636307606, "lng": 121.10505712819689}, "feature": {"sight_features": "", "sight_content": ""}}, {"title": "靖江市图书馆(虹兴分馆)", "address": "桃园路", "image": "", "rank": 48, "time": 2, "location": {"lat": 39.8778338450539, "lng": 116.41456027432413}, "feature": {"sight_features": "", "sight_content": ""}}, {"title": "神龙书画社展厅", "address": "东兴街47号", "image": "", "rank": 49, "time": 2, "location": {"lat": 45.79939303866746, "lng": 126.6565363382771}, "feature": {"sight_features": "", "sight_content": ""}}, {"title": "靖江市图书馆(布市里社区分馆)", "address": "解放北路17号", "image": "", "rank": 50, "time": 2, "location": {"lat": 37.905458252595636, "lng": 112.5683420774647}, "feature": {"sight_features": "", "sight_content": ""}}, {"title": "文泽轩书画院", "address": "东兴街61-1号", "image": "", "rank": 51, "time": 2, "location": {"lat": 32.02347333322879, "lng": 120.28197931125331}, "feature": {"sight_features": "", "sight_content": ""}}, {"title": "西来科技植物园", "address": "花苑路", "image": "", "rank": 52, "time": 2, "location": {"lat": 35.64451154733983, "lng": 111.47024701086123}, "feature": {"sight_features": "", "sight_content": ""}}, {"title": "动漫亲子水上乐园", "address": "天一国际广场南侧20米", "image": "", "rank": 53, "time": 2, "location": {"lat": 26.623061298543515, "lng": 106.64986108955755}, "feature": {"sight_features": "", "sight_content": ""}}, {"title": "江苏大桥酒店高尔夫球馆", "address": "长江玫瑰园西侧江苏大桥酒店", "image": "", "rank": 54, "time": 2, "location": {"lat": 31.958766593245848, "lng": 120.27953734857192}, "feature": {"sight_features": "", "sight_content": ""}}, {"title": "大陆画苑书法班", "address": "新建街56附近", "image": "", "rank": 55, "time": 2, "location": {"lat": 18.243225084511963, "lng": 109.51214584621394}, "feature": {"sight_features": "", "sight_content": ""}}, {"title": "喜洋洋儿童乐园", "address": "精亚新天地15栋2楼", "image": "", "rank": 56, "time": 2, "location": {"lat": 32.026349862613216, "lng": 120.27304630165179}, "feature": {"sight_features": "", "sight_content": ""}}, {"title": "马洲生态园", "address": "马桥镇", "image": "", "rank": 57, "time": 2, "location": {"lat": 31.0163649548378, "lng": 121.37139770512236}, "feature": {"sight_features": "", "sight_content": ""}}, {"title": "靖江市新马泰农场", "address": "江苏省泰州市靖江市", "image": "", "rank": 58, "time": 2, "location": {"lat": 31.988170075210594, "lng": 120.28353203592053}, "feature": {"sight_features": "", "sight_content": ""}}, {"title": "孙家老宅古文化博览园", "address": "马桥镇徐周村火花巷西畔", "image": "", "rank": 59, "time": 2, "location": {"lat": 32.04613835791529, "lng": 120.22147610315518}, "feature": {"sight_features": "", "sight_content": ""}}, {"title": "靖江市金星休闲农庄", "address": "朱惠路东50米", "image": "", "rank": 60, "time": 2, "location": {"lat": 32.01428507263692, "lng": 120.19952839302002}, "feature": {"sight_features": "", "sight_content": ""}}]}