{"cityName": "荆州", "days": "", "cityImage": "", "spots": [{"title": "荆州古城", "address": "荆州市荆州区张居正街2号", "image": "", "rank": 1, "time": 1.5, "location": {"lat": 30.354819722165885, "lng": 112.22260883197394}, "feature": {"sight_features": "特色1 历史古城，风貌犹存，建筑壮观，异彩纷呈。 特色2 漫步在南方地区保存为完整的古城墙上，感受历史的沧桑与世事变迁。 关羽关老爷曾经镇守荆州长达10年，这里有太多的老故事，是三国迷的最爱。 特色3 荆州城又名江陵城，国务院1982年首批公布的全国历史文化名城之可登临其上居高临下，饱览古城的万千神韵古老的荆州城正焕发出新的青春和更加迷人的异彩荆州古城墙在时间上跨越数千年，它是历史的巨大遗赠。", "sight_content": "荆州古城历史文化旅游区为国家4A级景区、全国重点文物保护单位。景区位于荆州市区，长江航线、宜黄高速、荆襄高速可达。景区主要参观主体为完整的古城墙，现存的城墙为清朝顺治三年（公元1646年）依明代旧基重建，采用糯米石灰浆灌缝、砖城墙和土城墙互相依托而成。\n禹定九州，始有荆州。荆州古城墙在时间上跨越数千年，其沧桑岁月背后隐显的文化、艺术、建筑、历史、军事、民风等内容包罗万象，异彩纷呈，它是历史的巨大遗赠。荆州古城东西长3.75公里，南北宽1.2公里，周长11.28公里，城墙高8.83米，城垛4567个，炮台26座，藏兵洞5座，有城门和城楼6座。\n\n荆州古城保存完好，是楚文化的发祥地，是我国南方保存完好、规模宏大的一座古代城垣。荆州古城是感受三国文化、楚文化不可替代的人文景观。游览项目有“荆州古城环城游”、“荆州古城墙考古游”、“三国遗迹游”、“荆州古城墙民俗游”、“历史文化节庆游”等。主要景观有宾阳楼、藏兵洞、炮台、文字砖、朝宗楼、城墙博物馆、公安门（水门）、仲宣楼遗址、曲城、南纪门、远安门、安澜门等。荆州城素以历史悠久和文化底蕴深厚闻名于世，她那众多的古迹名胜和丰饶的历史文化遗存，已成为人类共有的精神财富。荆州是楚文化的发祥地和三国文化的繁衍胜地，大禹治水的息壤，雄楚立国的故都，三国纷争的遗迹，历代名人的胜踪……似繁星点点，数不胜数。荆州古城墙的修造史可以追溯到2800多年以前，是我国延续时代长、跨越朝代多、由土城发展演变而来的唯一古城垣。"}}, {"title": "关羽祠", "address": "荆州市新南门内环南路76号", "image": "", "rank": 2, "time": 1.5, "location": {"lat": 30.35398608970518, "lng": 112.19040457944124}, "feature": {"sight_features": "特色1 古城中重要的景点，来这里拜祭关公关老爷。 走一走33级天梯，当地人相信可以让你的人生登上一个新台阶。", "sight_content": "中国历史的三国时期，风云漫卷，英雄辈出。关羽以其忠、义、仁、勇精神名扬天下，深受世人敬仰，为儒、佛、道等所有宗教崇拜，被尊为武圣、财神、福禄神……荆州卸甲山在1800多年前，是关羽镇守荆州时，常战罢归来，宽卸铠甲，犒赏将士，庆祝胜利的地方，故后人将此处称为“卸甲山”。\n明代初年，荆州百姓为纪念关公，在卸甲山修建关羽祠，以关公的忠、义、仁、勇精神，教育后人“读好书、说好话、行好事、作好人”。相传，明代宰相之杰张居正的第三个儿子张懋修，曾在此读书考中状元。\n因而卸甲山自古享有地灵人杰之美誉。原卸甲山关羽祠，毁于日寇侵华战火。现经国家文物局和湖北省人民政府批准复建的关羽祠，具有明清时期地方建筑风格，是中外游客理想的观光胜境。"}}, {"title": "荆州博物馆", "address": "荆州市荆州区荆州中路134号", "image": "", "rank": 3, "time": 2.5, "location": {"lat": 30.358870917943847, "lng": 112.18590586544728}, "feature": {"sight_features": "", "sight_content": ""}}, {"title": "张居正故居", "address": "荆州市荆州区荆南路2号", "image": "", "rank": 4, "time": 1.5, "location": {"lat": 30.35249999567983, "lng": 112.22157199966958}, "feature": {"sight_features": "特色1 了解先贤的传奇人生，凭吊先贤的丰功伟绩", "sight_content": "张居正，字叔大，号太岳，明代湖广荆州府人。我国古代著名的改革家，他自幼聪敏好学，12岁中秀才，16岁中举人，被称为“荆州神童”；23岁中进士，42岁入阁。48岁任内阁首辅执掌朝政，通过推行“考成法”,实行“一条鞭法”等一系列改革措施，使摇摇欲坠的明王朝走上了中兴之路，他的一生充满了传奇色彩。\n\n张居正故居位于荆州城内东隅，原名“张大学士府”。公元1572年，张居正为尊藏万厉皇帝褒奖他的手书而兴建。明末改为“张文忠公祠”,清初称“张相旧府”，后几经兴废，民国时被毁，20世纪80年代又陆续修复。现故居占地十余亩，南北向，前后四重院落，东房西园。故居内现有“太师居、太岳堂、纯忠堂、捧日楼、张文忠公祠、文昌阁”等建筑，还存有张居正和历代文人墨客的诗词书法作品三百多幅；故居主体建筑以中抽对称，高低错落，布局严整；乐志园内小桥流水，亭内楼阁，假山翠竹等园林景观，灵动雅致。游客游于园内，既能了解历史先贤的传奇人生，凭吊先贤的丰功伟绩；又能领略南国古典园林之秀色，仿佛置身于世外桃园，使人流连忘返。"}}, {"title": "悦兮半岛温泉", "address": "荆州市洪湖市乌林镇胡洲村", "image": "", "rank": 5, "time": 2, "location": {"lat": 29.88328583060533, "lng": 113.58264532765982}, "feature": {"sight_features": "特色1 真正意义上的四季度假温泉 特色2 温泉水立方，畅泡一冬 特色3 全天候温泉嬉水乐园", "sight_content": "悦兮半岛国际温泉度假村是室内温泉馆—温泉“水立方”。温泉“水立方”是由建造北京奥运“水立方”的原班人马精心打造的建筑精品，全部采用法国进口玻璃，每块厚7-8厘米，含夹胶、真空、Low-E等6层结构，有效解决了安全通透、结露滴水、隔热、防紫外线等技术难题。 温泉“水立方”的落成从此突破了温泉产品因受季节和天气制约而不能正常经营的瓶颈，无论艳阳高照，还是风雨飘摇，客人都可以在这里惬意地沐浴，游乐、观赏、休闲SPA，尽情享受真正意义上的四季度假温泉。\n其中包括：\n① 玫瑰园别墅SPA，玫瑰园庭院别墅融现代中式与东南亚风格于一体，依山环湖，独立别墅内设有私家游泳池，室内外温泉SPA，无论举家旅行或是好友相聚都为您带来无限的荣耀。\n② 中国温泉区，中国温泉池从国医药材中提取精粹配以传统中医理念疗法，让您修身养性、强身健体、舒筋活血，润养容颜肌肤、内调外养。\n③ 东洋温泉区，户外温泉池，感受东洋秘境，四木汤屋、沐樱池、冷泉等东洋风情，不用远道去日本，便可感受日本温泉的精致与禅意。\n④ 情侣温泉区专为情侣们设置的温泉池池区西高东低深浅不同。鸟语花香中氤氲入池，沐浴暖暖温泉如世外桃源般恍如人间仙境。池区水中凹位按人之体形设计，舒适安逸。\n⑤ 悦兮SPA，悦兮SPA房归隐于花园之中，俯视千亩森林，与大自然亲密接触，花香树茂，皓月当空，星月浑然一体。悦兮SPA结合泰式按摩和香熏疗法，缓解身心压力，伴随着美妙的音乐，将您带入梦幻般的享受。\n\n悦兮半岛的地热田紧邻穿过湖南、湖北两省，绵延200公里的湘阴—沙湖深大断裂，具有国内多数温泉不能与之相比的独特大地构造背景。悦兮半岛的地热水具有来源深（推算约8000米深）、开采浅（约100米深）、温度高、水量大、水质优、地下水补给区广袤而明确等六大特点。"}}, {"title": "关帝庙", "address": "荆州市荆州区爱民路关公馆", "image": "", "rank": 6, "time": 0.5, "location": {"lat": 30.35547137226071, "lng": 112.20406893272312}, "feature": {"sight_features": "特色1 荆州联系海内外的一条重要纽带", "sight_content": "荆州是一座文化源远流长的历史名城，是我国历史文化宝库中一颗灿烂夺目的明珠，尤以灿烂的三国文化享誉中外。“闻听三国事，每欲到荆州”。\n荆州关帝庙位于荆州古城老南门内。原为三国时期关羽镇守荆州时的官邸，据《荆州府志》记载，其建筑规模宏大，雄伟壮观，建有头门、牌楼、二门、仪门、正殿、三义殿、御书楼、崇圣祠，东西两边分别有东廊、三元阁、真武阁、钟楼、鼓楼等。总占地面积约五十余亩，并置有良田、湖田共计四百余亩。关帝庙始建于明洪武二十九年（1396年），清乾隆五十三年重修，后因年久失修，古殿宇毁失殆尽，仅存古银杏两棵。现关帝庙于1987年在古关帝庙遗址上复建，现有仪门、正殿、三义殿、陈列楼等仿古建筑，占地约4900平方米。\n1987年修复时，因历史原因，当时是以关公纪念馆的形式存在的，后来，为顺应老百姓及游客的需要，满足大家的需求，故改为关帝庙。自开放以来，荆州关庙已经成为了荆州联系海内外的一条重要纽带。"}}, {"title": "洈水风景区", "address": "荆州市松滋市洈水镇洈水风景区", "image": "", "rank": 7, "time": 2, "location": {"lat": 29.99431851965199, "lng": 111.68059584911556}, "feature": {"sight_features": "特色1 融山、水、林、泉、洞、坝于一体", "sight_content": "洈水旅游风景区总面积286平方公里，核心景区52.8平方公里。这里旅游资源和自然景观得天独厚，融山、水、林、泉、洞、坝于一体，属山水型风景区。景区主要由“湖面泛舟水上游、溶洞观光地下游、旅游度假休闲游、登山科考生态游、传统教育红色游”五大板块组成。\n景区主要由“湖面泛舟水上游、溶洞观光地下游、旅游度假休闲游、登山科考生态游、传统教育红色游”五大板块组成。景区内森林覆盖率达90%以上，湖水碧波浩淼，水质甘冽,属国家地表一级直接饮用水。洈水大坝巍峨壮观，似绿色巨龙伸臂，守望湖光山色；新神洞内， 溶洞奇观――“乾坤神柱”、“天宫大幕”让你惊叹大自然的鬼斧神工；漫步洈水，颜将军洞里泛舟水府洞天，依稀可闻远古巴国将士金戈铁马、刀劈剑击的拼杀与呐喊。"}}, {"title": "万寿宝塔", "address": "荆州市沙市区荆堤路99号", "image": "", "rank": 8, "time": 1.5, "location": {"lat": 30.32091307208214, "lng": 112.23838536830652}, "feature": {"sight_features": "", "sight_content": ""}}, {"title": "章华寺", "address": "荆州市沙市区太师渊路", "image": "", "rank": 9, "time": 1.5, "location": {"lat": 30.312941908196475, "lng": 112.27337785514214}, "feature": {"sight_features": "", "sight_content": ""}}, {"title": "九龙桥", "address": "荆州市荆州区荆州南路", "image": "", "rank": 10, "time": 0.75, "location": {"lat": 30.35318887949271, "lng": 112.21501581841352}, "feature": {"sight_features": "", "sight_content": ""}}, {"title": "铁女寺", "address": "荆州市荆州古城三义街", "image": "", "rank": 11, "time": 1.0, "location": {"lat": 30.36139638043867, "lng": 112.19392238514037}, "feature": {"sight_features": "", "sight_content": ""}}, {"title": "三国公园", "address": "荆州市荆州区荆州北路108号", "image": "", "rank": 12, "time": 1.5, "location": {"lat": 30.36302541514315, "lng": 112.19211011216385}, "feature": {"sight_features": "", "sight_content": ""}}, {"title": "新神洞", "address": "荆州松滋市洈水风景区西部", "image": "", "rank": 13, "time": 2, "location": {"lat": 29.98458541437918, "lng": 111.43760803103675}, "feature": {"sight_features": "", "sight_content": ""}}, {"title": "太子山王莽洞景区", "address": "荆州市京山县太子山林场", "image": "", "rank": 14, "time": 2, "location": {"lat": 30.960512486032123, "lng": 112.85956150306544}, "feature": {"sight_features": "特色1 历史蕴含丰厚", "sight_content": "太子山国家森林公园依托交通区位、生态环境、自然资源、发展基础和管理体制等优势，结合国家产业政策发展方向，借势“中国农谷”建设机遇，把太子山定位为“中国农谷”的生态安全屏障、中国农谷生态旅游产业的核心区和服务接待中心。\n中国农谷文化产业的聚集区；建成“国际知名，国内一流”的“文化博鳌”基地来策划项目，重点规划森林资源保护、基础设施建设、森林生态旅游开发、苗木产业发展、生态养殖及加工、林下中药材种植与加工等项目，以推动太子山社会经济跨越发展。\n以生态文明为总要求，以市场为导向，立足资源优势，突出发展特色，着力在农业主导产业发展、农业科技示范、休闲观光农业展示、农耕文化传承、体制机制创新等方面进行集中探索实践，奋力打造“产业之谷、绿色之谷、创新之谷、富民之谷”，率先实现农业现代化。"}}, {"title": "荆州海洋世界水上乐园", "address": "荆州市沙市区天谷大道6号路与318国道交汇处", "image": "", "rank": 15, "time": 7.5, "location": {"lat": 30.348296021551572, "lng": 112.35183275922961}, "feature": {"sight_features": "特色1 交通便捷、配套齐全，是华中最大的水上主题乐园之一！ 特色2 国内以海洋风情、海盗元素为主题，安装有10多项时下全球最流行、最先进的高端硬件设备及配套设施！ 特色3 荆州海洋世界通过世界尖端科技缔造！", "sight_content": "荆州海洋世界水上乐园是华中最大的水上主题乐园之一，也是湖北省唯一一个有儿童主题项目的亲子水上乐园，项目包含六大主题片区，二十多项惊险刺激的高端硬件游乐设备，更有亲子主题乐园，引入小喇叭、儿童组合滑梯、儿童水寨、山涧游泳池等十余项亲子玩水设备，更适合青少年及亲子家庭游玩。\n惊涛海啸池---真空造浪，效果逼真，巨浪可达5米高，游客既可在浪池中体验海上拍岸巨浪袭身的惊险刺激感觉，也可在池边享受浪花摩挲脚丫的惬意触感。\n超级大喇叭---游客坐在四叶草形浮圈内，从高空平台起点开始滑行，飞一般旋冲入巨大的喇叭形滑道内，如同被龙卷风吸进去一般，在急速滑行中体验犹如风中滑行之美，特别适合喜欢体验刺激新奇的游客\n惊奇巨兽碗---顾名思义，活脱脱的碗状大滑道！从通道中俯冲穿越，猛然发现自己来到了一个巨大的黑洞中，随着波流被吸进洞口。突如其来的变化实在让人措手不及！还没回过神来呢，你就发现已经从黑洞中出来到现实当中了。\n冲天回旋---灵魂出窍般的紧张与刺激，与家人或朋友一道挑战地心引力，在黑暗中感受一冲而下和高速惯性上冲的水重力双重体验。\n竞速彩虹滑道---滑道颜色艳丽犹若彩虹，游客趴在飞毯似的滑板上，体验疾速俯冲下滑，尽享风驰电掣般的竞速快感。"}}, {"title": "洪湖生态旅游风景区", "address": "荆州市洪湖市瞿家湾镇", "image": "", "rank": 16, "time": null, "location": {"lat": 29.94934605145296, "lng": 113.22133944154389}, "feature": {"sight_features": "特色1 全国颇具价值的湖泊休闲旅游理想胜地之一 特色2 全国农业旅游示范点", "sight_content": "洪湖生态旅游风景区是全国农业旅游示范点、全国百家红色旅游经典景区。\n现经过十多年的打造，已形成了集旅游观光、文化体验、休闲度假、传统教育、科普教育、生态养生、会议娱乐等多项旅游功能于一体的综合性旅游风景区，是全国颇具价值的湖泊休闲旅游理想胜地之一。\n“人人都说天堂美，怎比我洪湖鱼米香……”一曲《洪湖水、浪打浪》使得人们很自然地联想起美丽的洪湖。\n洪湖水面辽阔，呈多边几何形，湖岸平直，湖底平坦，湖水呈淡绿色，水草茂盛，清澈见底，鱼虾丰富，是野鸭飞雁等候鸟栖息的理想场所。"}}, {"title": "瞿家湾", "address": "荆州市洪湖市西部", "image": "", "rank": 17, "time": 2, "location": {"lat": 29.83277032976022, "lng": 113.48255290195605}, "feature": {"sight_features": "", "sight_content": ""}}, {"title": "八岭山古墓群", "address": "荆州市荆州区八岭山国家森林公园内", "image": "", "rank": 18, "time": 2.5, "location": {"lat": 30.442061629509748, "lng": 112.08925052816797}, "feature": {"sight_features": "", "sight_content": ""}}, {"title": "金凤腾飞", "address": "荆州城东门外", "image": "", "rank": 19, "time": 2, "location": {"lat": 30.353812350447765, "lng": 112.22460217190059}, "feature": {"sight_features": "", "sight_content": ""}}, {"title": "松滋颜将军洞", "address": "荆州市松滋市洈水风景区严家湾", "image": "", "rank": 20, "time": 2, "location": {"lat": 29.989862599719483, "lng": 111.52373884069542}, "feature": {"sight_features": "", "sight_content": ""}}, {"title": "楚王车马阵景区（熊家冢国家考古...", "address": "荆州市荆州区川店镇张场村", "image": "", "rank": 21, "time": 2, "location": {"lat": 30.610787323320725, "lng": 112.02873634906466}, "feature": {"sight_features": "特色1 春秋战国时期楚文化高水平的杰出代表之一", "sight_content": "楚王车马阵景区（熊家冢国家考古遗址公园）位于湖北省荆州市荆州区川店镇张场村，东南距楚故都纪南城约26公里，距荆州古城约35公里。景区占地面积731亩，是按国家5A级规划设计，现有车马阵展示区，主、祔冢复原展示区、殉葬坑展示区、园林及生态农业等景区。\n“北有秦皇兵马俑，南有楚王车马阵”，熊家冢是目前所见规模大、保存好、分布完整的楚王陵，是春秋战国时期楚文化高水平的杰出代表，是楚纪南故城大型古文化遗址的重要组成部分。楚纪南故城是东周时期楚国郢都故址。\n2005—2008年，经国家文物局批准，熊家冢考古发掘面积累计已达31000平方米，出土珍贵文物3000余件（套）。同步实施的考古发掘现场和出土文物保护工作更被誉为南方土遗址保护的杰出典范。"}}, {"title": "曲尺河温泉度假村", "address": "荆州市松滋市卸甲坪土家族乡曲尺河村", "image": "", "rank": 22, "time": 2, "location": {"lat": 30.028379762404864, "lng": 111.32082405719648}, "feature": {"sight_features": "特色1 享受健康养生，舒畅的身心 特色2 中高端养生温泉 特色3 热带风情洋溢的世外桃源泡池", "sight_content": "酒店内会议、餐饮、休闲等配套设施齐全，可同时接待600人住宿、600人就餐、500人会务。酒店区、温泉中心，别墅区三部分是曲尺河温泉小镇的主要构成。\n温泉区设置室内和室外区，有温泉中心、室内泡池、室外泡池等，温泉中心建筑面积1万平方米，可同时接待1200多人。温泉酒店大堂往东依次是：娱乐康体楼层、客房楼层。大堂往西依次是宴会厅、客房楼层。330间客房均拥有良好的观景视线，酒店客房端头还设有豪华的全景式客房，可为客人提供更多选择。"}}, {"title": "九老仙都", "address": "荆州市荆北路38号荆州古城内", "image": "", "rank": 23, "time": null, "location": {"lat": 30.363504400595783, "lng": 112.20465645956055}, "feature": {"sight_features": "特色1 过一把穿越瘾", "sight_content": "‍\n九老仙都景区是千年古都荆州的特色文化旅游景区，为游客提供吃、游、购、娱、休闲等全方位服务。主旨在于打造5A级景点，景区内设有松甲山、八仙园、湘东苑、玄妙观、长生街等。整个景区以荆楚三国文化为核心，集皇家园林文化，名观文化，古城文化，非物质文化，名俗文化于一体。\n\n在5个点中游览，可以让游客好好地过一把穿越瘾，游客会穿越到三国、南北朝、元代、明末清初这4个不同的朝代。\n首先会穿越到三国时期关公松甲山所在地感受闻名世界的三国文化，并且还会穿插关公带兵巡城，操练的表演，再现关公当年的忠义勇精神。之后会踏入南北朝时期，去南北朝第一个皇家园林湘东苑体会荆楚“苑”系园林文化，在湘东苑会有梁元帝及他的随从带领游客游园，品茶，还可以在养心殿听听养生讲座，并且在湘东苑的古画舫船上还会上演编钟乐舞表演。感受了南北朝的园林文化，还会穿越到到元代，在八仙园以及千年古观玄妙观寻找第9仙并感受荆楚的名观文化，在玄妙观还会定点上演元顺帝赐封第九仙的仪式表演。最后回到明末清初时期，去长生街民俗观光街区去感受荆楚的民俗文化和美食文化，长生街集餐饮，娱乐，休闲，客栈于一体，包括特色茶艺，特色酒吧，还会定时在大舞台上演最具荆楚特色的民俗表演，白天上演湖北大鼓、南曲、荆州花鼓戏、 编钟等，晚上上演龙舞、地龙灯、郧阳凤凰灯，天天歌舞升平，热闹非凡。"}}, {"title": "悦兮半岛水上乐园", "address": "洪湖市乌林镇湖洲村悦兮半岛温泉度假村内", "image": "", "rank": 24, "time": 2, "location": {"lat": 29.899728755616376, "lng": 113.5926576091079}, "feature": {"sight_features": "特色1 室内温泉馆—温泉“水立方”嬉水乐园！", "sight_content": "悦兮海洋梦幻水上乐园----集互动性、观赏性、趣味性、娱乐性为一体的水上动感乐园。是洪湖地区首家大型水上乐园，世界级的亲水游玩体验，是您夏季玩水的狂欢乐园。由全球顶级规划机构倾力设计，以海洋文化为主题的现代主题型水上乐园，欢乐、芳香、刺激的梦幻水上体验天堂。园区优越的空间规划，让园区充分释放与游客的互动性，全方位呈现水上娱乐魅力。\n十几个水上游乐设备领冠全球，包括全球双造浪滩之王----疯狂海啸、激情冲浪区、国内首屈一指的大型互动水寨-----风情水寨、儿童亲水乐园、惊心动魄的水上人体滑行项目-----波利尼西亚竞赛滑道组合、螺旋组合滑道、深海漩涡体验项目----超级大喇叭、冲天回旋、世界水上刺激之王-----巨蟒滑道、最浪漫、最静态水上体验---浪漫水晶浴、温泉亲亲鱼疗等众多国际领先、国内先进水上娱乐设备，让您尽情领略跌宕起伏的水上探险，给您带来前所未有的超凡感官体验。\n悦兮海洋梦幻水上乐园是一座充满梦幻水上体验的空间，以风情海滩、文化海滩、游乐海滩、飘香海滩为主的海洋文化。暑期，这里将化身海洋狂欢节主会场，每周举办水上音乐派对，每天上演盛大的水上演义，成为游客盛夏戏水狂欢、暑消暑、休闲娱乐的梦幻乐园。\n水陆游乐狂欢、亲子娱乐体验、生态观光休闲,让我们暂别都市的喧嚣，开启一场奇妙的仲夏欢畅清凉之旅吧。在这个富有激情、时尚动感的水上乐园中尽情欢乐！"}}, {"title": "东岳寺", "address": "荆州市石首市三义寺汽渡口附近", "image": "", "rank": 25, "time": 1.5, "location": {"lat": 29.766000807912476, "lng": 112.40676288458855}, "feature": {"sight_features": "", "sight_content": ""}}, {"title": "南岳山森林公园", "address": "荆州市石首市南岳山大道", "image": "", "rank": 26, "time": 2.5, "location": {"lat": 29.715374827801856, "lng": 112.44582209926855}, "feature": {"sight_features": "", "sight_content": ""}}, {"title": "关公义园", "address": "荆州市南湖路与学苑路交叉口西", "image": "", "rank": 27, "time": 2.0, "location": {"lat": 30.331717322274997, "lng": 112.2322816392816}, "feature": {"sight_features": "特色1 以多种方式生动展现关公“义薄云天”的一生", "sight_content": "关公义园位于荆州古城东南侧，以“义”为主题，以多种方式生动展现关公“义薄云天”的一生。园内矗立着世界最大体量关公青铜雕像，是世界和平艺术家、当代艺术大师、“福娃之父”韩美林的收山之作。\n关公圣像双目微醺，不怒而威，侧身迎风而立，右手拖一把70米长大刀，整个身躯如山峦般屹立。雕像总高58米，寓意关公一生度过了58个春秋，重1200余吨，内部采用钢构固定，外贴4000多片青铜片。"}}, {"title": "荆州《刘备招亲》演出", "address": "荆州市九龙渊公园", "image": "", "rank": 28, "time": 7.5, "location": {"lat": 30.356248398504246, "lng": 112.22421602719238}, "feature": {"sight_features": "", "sight_content": ""}}, {"title": "真人CS城市体验馆", "address": "荆州市红门路81号3楼", "image": "", "rank": 29, "time": null, "location": {"lat": 30.322804712385505, "lng": 112.2724016584597}, "feature": {"sight_features": "", "sight_content": ""}}, {"title": "星期8小镇（荆州店）", "address": "荆州市沙市区关沮镇合心村海洋世界C6（合心村村委会对面）", "image": "", "rank": 30, "time": 2, "location": {"lat": 30.355638973631258, "lng": 112.27447367288121}, "feature": {"sight_features": "特色1 让少年儿童真实体验成人世界的微缩社区！", "sight_content": "星期8小镇是国内首家定位于“让少年儿童真实体验成人世界的微缩社区”，针对3-13岁孩子提供一系列逼真的社会场景和职场角色扮演，让孩子感动劳动的喜悦，体会学习的乐趣，全面提升孩子的综合素质。星期8模式为孩子创造一个全新的成长空间，一切由孩子说了算，让他们尝尝做大人的滋味！在还原真实的模拟社区里扮演大人们的角色，让孩子独立自主的自由体验、娱乐、创造、学习。脱离从星期一到星期日的传统成长轨迹，用新颖独特、更为有益的星期8模式为孩子明天做好准备！\n\n\n特色一：模拟真实“成人世界”，8大社会领域20多种社会角色体验\n政府机构，民生服务，美食餐饮，文化艺术，卫生医疗，交通运输，休闲娱乐，创意设计\n消防局、医院、空港、警局、银行、电视台、酒店……一应俱全\n飞行员、医生、消防员、电力抢修员、新闻主播、烘焙师……提前实现\n特色二：风靡全球的儿童角色扮演\n模仿是孩子的天性。已有的生活经验是他们建立游戏兴趣的最根本的基础，由模仿大人而得到的快感是他们游戏情趣的重要来源。用自己的方式扮演孩子眼中的社会。星期8小镇就是利用孩子们的模仿天性，扮演各种社会角色---飞行员、警察、司机、消防员等，来体验他人的情感与行为经验，从而获得有益的成长经验，全面提升孩子的素质。\n特色三：以“货币”为载体的新“经济体系”\n与成人世界别无二致的一整套“金融系统”的介入，让孩子体验打工、赚钱、消费的辛苦与乐趣……\n特色四：4大能力培养，星期8能做到\n作为国内首家儿童社会角色体验中心覆盖各行业的仿真流程或游戏设计，我们有专业道具，运营，和带动小朋友玩乐的经验。可以开发儿童重要的4大能力。\n团队协作，抗挫折能力，动手能力，统筹协作\n星期8小镇荆州站温馨提示：\n\n1、进场前，每位小朋友可以免费领取到一份小镇地图、一张E币旅行支票。如需[星期8] 护照和钱包，一套20元自行购买。\n2、打开地图，搜寻中意工作的主题馆位置；或至小镇职业介绍中心，询问工作人员适合自己打工的主题馆位置。\n3、来到主题馆前，按照辅导员指示耐心排队等候主题馆开放。如排队人数过多，可以考虑先至其他场馆游玩。\n4、进入主题馆后，听从辅导员指挥，更换工作制服，完成个人卫生清洁等准备工作。\n5、部分主题馆需收取一定比例的E币；在前往时，请确保手中拥有足够的E币现钞。\n6、在主题馆活动期间，听从辅导员的指挥，不打闹、不嬉戏，认真完成辅导员布置的工作。\n7、任务完成，辅导员会在小朋友的 [星期8] 护照上登记已学会的职业技能，并支付小朋友E币工资（仅限于职业性主题馆）。"}}, {"title": "滨湖公园", "address": "荆州市松滋市洈水镇响水洞村", "image": "", "rank": 31, "time": 1.5, "location": {"lat": 29.981003879890125, "lng": 111.46790048102734}, "feature": {"sight_features": "", "sight_content": ""}}, {"title": "玉桥欢乐世界", "address": "荆州市沙市区江津东路121号", "image": "", "rank": 32, "time": 2, "location": {"lat": 30.30453580776131, "lng": 112.29254522079171}, "feature": {"sight_features": "", "sight_content": ""}}, {"title": "荆州《入城仪式》演出", "address": "荆州市荆州区内环北路明月公园", "image": "", "rank": 33, "time": 7.5, "location": {"lat": 30.361977341715928, "lng": 112.21606232546824}, "feature": {"sight_features": "", "sight_content": ""}}, {"title": "中山公园", "address": "荆州市沙市区公园路7号", "image": "", "rank": 34, "time": 1.5, "location": {"lat": 30.31987251462269, "lng": 112.25287557606408}, "feature": {"sight_features": "", "sight_content": ""}}, {"title": "熊家冢遗址博物馆", "address": "湖北省荆州市荆州区前新路(位于楚故都纪南城遗址西北，地处川店镇宗北村与张场村)", "image": "", "rank": 35, "time": 2, "location": {"lat": 30.610787323320725, "lng": 112.02873634906466}, "feature": {"sight_features": "", "sight_content": ""}}, {"title": "L真人密室逃生", "address": "荆州沙市区红门路维多利亚酒店502", "image": "", "rank": 36, "time": 2, "location": {"lat": 30.312385034241927, "lng": 112.2677491330031}, "feature": {"sight_features": "", "sight_content": ""}}, {"title": "湘鄂西历史革命纪念馆", "address": "荆州市，洪湖市新堤镇西南部", "image": "", "rank": 37, "time": 2, "location": {"lat": 29.81064031061551, "lng": 113.45178768006384}, "feature": {"sight_features": "", "sight_content": ""}}, {"title": "龙泉农业生态园", "address": "荆州石首市久合垸殷家洲村", "image": "", "rank": 38, "time": 2.0, "location": {"lat": 29.575942225839075, "lng": 112.38273633740944}, "feature": {"sight_features": "", "sight_content": ""}}, {"title": "长江大学文理学院", "address": "湖北省荆州市荆州城郢都路18号", "image": "", "rank": 39, "time": 2, "location": {"lat": 30.356312482874262, "lng": 112.19044615302025}, "feature": {"sight_features": "", "sight_content": ""}}, {"title": "长江大学东校区", "address": "湖北省荆州市新南路一号", "image": "", "rank": 40, "time": 2, "location": {"lat": 30.340842107742912, "lng": 112.24552262926137}, "feature": {"sight_features": "", "sight_content": ""}}, {"title": "万寿园", "address": "湖北省荆州市沙市区荆堤路99号", "image": "", "rank": 41, "time": 2.5, "location": {"lat": 30.32091307208214, "lng": 112.23838536830652}, "feature": {"sight_features": "", "sight_content": ""}}, {"title": "荆州", "address": "荆州市荆州南路", "image": "", "rank": 42, "time": 1.5, "location": {"lat": 30.35318887949271, "lng": 112.21501581841352}, "feature": {"sight_features": "", "sight_content": ""}}, {"title": "荆州长江大桥", "address": "湖北省长江中游的荆江河段", "image": "", "rank": 43, "time": 1.5, "location": {"lat": 30.445374947379115, "lng": 114.2016775900798}, "feature": {"sight_features": "", "sight_content": ""}}, {"title": "荆州古城历史文化旅游区", "address": "湖北省荆州市荆州区辖区内 434000", "image": "", "rank": 44, "time": 1.0, "location": {"lat": 30.358989490775382, "lng": 112.19641397381135}, "feature": {"sight_features": "", "sight_content": ""}}, {"title": "星空快巴儿童职业体验馆", "address": "荆州市洪湖市荷花广场星空快巴", "image": "", "rank": 45, "time": 2, "location": {"lat": 29.81227952596144, "lng": 113.47901224965406}, "feature": {"sight_features": "", "sight_content": ""}}, {"title": "云雾湖", "address": "荆州市洪湖市沙口镇下新河云雾湖休闲农庄", "image": "", "rank": 46, "time": 2, "location": {"lat": 29.98683507868292, "lng": 113.36776360163903}, "feature": {"sight_features": "", "sight_content": ""}}, {"title": "荆州玄妙观", "address": "湖北省荆州市荆州区荆北路", "image": "", "rank": 47, "time": 1.5, "location": {"lat": 30.37022193318074, "lng": 112.20057339781418}, "feature": {"sight_features": "", "sight_content": ""}}, {"title": "洪湖革命历史博物馆", "address": "玉沙路29号", "image": "", "rank": 48, "time": 1.5, "location": {"lat": 29.819893961856923, "lng": 113.46949818730604}, "feature": {"sight_features": "", "sight_content": ""}}, {"title": "八岭山", "address": "湖北省荆州市荆州区城西北", "image": "", "rank": 49, "time": 2.5, "location": {"lat": 30.358989490775382, "lng": 112.19641397381135}, "feature": {"sight_features": "", "sight_content": ""}}, {"title": "梵高画廊", "address": "五一路64", "image": "", "rank": 50, "time": 2, "location": {"lat": 22.770894733891893, "lng": 113.85360136496875}, "feature": {"sight_features": "", "sight_content": ""}}, {"title": "麋鹿国家级自然保护区", "address": "大垸镇新码头", "image": "", "rank": 51, "time": 3.5, "location": {"lat": 29.814457285325098, "lng": 112.54224118935333}, "feature": {"sight_features": "", "sight_content": ""}}, {"title": "洪湖烈士陵园", "address": "湖北省洪湖市市西南郊", "image": "", "rank": 52, "time": 3.0, "location": {"lat": 29.83277032976022, "lng": 113.48255290195605}, "feature": {"sight_features": "", "sight_content": ""}}, {"title": "红姐农家乐", "address": "长江路1-14附近", "image": "", "rank": 53, "time": 2, "location": {"lat": 41.29112836235283, "lng": 124.13019004495425}, "feature": {"sight_features": "", "sight_content": ""}}, {"title": "龙渊湖公园", "address": "江陵大道北50米", "image": "", "rank": 54, "time": 2, "location": {"lat": 22.53631198765858, "lng": 113.45197314511769}, "feature": {"sight_features": "", "sight_content": ""}}, {"title": "柳直旬烈士纪念园", "address": "湖北省荆州市监利县S215(直旬大道)", "image": "", "rank": 55, "time": 2, "location": {"lat": 29.845735162836444, "lng": 112.91142023009189}, "feature": {"sight_features": "", "sight_content": ""}}, {"title": "玉清寺", "address": "永兴大道北50米", "image": "", "rank": 56, "time": null, "location": {"lat": 24.995474348333893, "lng": 109.99929843686053}, "feature": {"sight_features": "", "sight_content": ""}}, {"title": "走马岭遗址", "address": "湖北省石首市焦山河镇走马岭村 477108", "image": "", "rank": 57, "time": 0.4, "location": {"lat": 29.66609110778636, "lng": 112.5311914396009}, "feature": {"sight_features": "", "sight_content": ""}}, {"title": "三袁文化广场", "address": "油江路", "image": "", "rank": 58, "time": 2, "location": {"lat": 30.063161384872252, "lng": 112.23008356385125}, "feature": {"sight_features": "", "sight_content": ""}}, {"title": "荷花广场", "address": "荆州市洪湖市沿河西路9号", "image": "", "rank": 59, "time": 1.5, "location": {"lat": 29.813601804129103, "lng": 113.47850908987367}, "feature": {"sight_features": "", "sight_content": ""}}, {"title": "洪湖湿地", "address": "湖北省洪湖市市辖区内", "image": "", "rank": 60, "time": 3.0, "location": {"lat": 29.83277032976022, "lng": 113.48255290195605}, "feature": {"sight_features": "", "sight_content": ""}}]}