{"cityName": "泾川", "days": 2, "cityImage": "", "spots": [{"title": "泾川天池四季国际滑雪场", "address": "平凉市泾川县城关镇天池村（王母宫山顶上）", "image": "", "rank": 1, "time": 2, "location": {"lat": 35.34006311343818, "lng": 107.3224882111255}, "feature": {"sight_features": "", "sight_content": ""}}, {"title": "温泉", "address": "城关北新街", "image": "", "rank": 2, "time": 0.7, "location": {"lat": 29.65833125291544, "lng": 91.14510035237143}, "feature": {"sight_features": "", "sight_content": ""}}, {"title": "泾川县动漫水世界", "address": "滛池山庄", "image": "", "rank": 3, "time": 2, "location": {"lat": 38.63857953200335, "lng": 113.10628399943309}, "feature": {"sight_features": "", "sight_content": ""}}, {"title": "无极瑶池金母宝殿", "address": "罗郿一级附近", "image": "", "rank": 4, "time": 2, "location": {"lat": 35.34282473391536, "lng": 107.3589483432152}, "feature": {"sight_features": "", "sight_content": ""}}, {"title": "吴焕先烈士纪念馆", "address": "甘肃省泾川县郑家沟村", "image": "", "rank": 5, "time": 2, "location": {"lat": 35.31220202782014, "lng": 107.25984018184259}, "feature": {"sight_features": "", "sight_content": ""}}, {"title": "王母宫石窖", "address": "甘肃省平凉市泾川县西环路附近", "image": "", "rank": 6, "time": 2, "location": {"lat": 35.34137176709253, "lng": 107.36462651707258}, "feature": {"sight_features": "", "sight_content": ""}}, {"title": "丈八寺石窟", "address": "甘肃省平凉市泾川县罗汉洞乡青兰高速公路泾河附近", "image": "", "rank": 7, "time": 2, "location": {"lat": 35.405442069578655, "lng": 107.11395815176925}, "feature": {"sight_features": "", "sight_content": ""}}, {"title": "元游乐城", "address": "312国道附近", "image": "", "rank": 8, "time": 2, "location": {"lat": 31.33241303413939, "lng": 120.99854638594724}, "feature": {"sight_features": "", "sight_content": ""}}, {"title": "泾川县图书馆", "address": "安定街1号", "image": "", "rank": 9, "time": 2, "location": {"lat": 45.772877479225, "lng": 126.61948481124621}, "feature": {"sight_features": "", "sight_content": ""}}, {"title": "泾川博物馆", "address": "泾川县城安定街5号", "image": "", "rank": 10, "time": 2.5, "location": {"lat": 35.337475785349575, "lng": 107.37070997134214}, "feature": {"sight_features": "", "sight_content": ""}}, {"title": "泾川大云寺博物馆", "address": "甘肃省平凉市泾川县城北新区大云寺", "image": "", "rank": 11, "time": 2, "location": {"lat": 35.35140022168362, "lng": 107.36316294204079}, "feature": {"sight_features": "", "sight_content": ""}}]}