{"cityName": "泾源", "days": 2, "cityImage": "", "spots": [{"title": "六盘山国家森林公园", "address": "固原市泾源县河泾镇", "image": "", "rank": 1, "time": 3.5, "location": {"lat": 35.50436163767883, "lng": 106.3373934308267}, "feature": {"sight_features": "特色1 六盘山区植被类型丰富，动植物种类多样。 特色2 我国最年轻的山脉之一，主峰米缸山海拔2942米，登上主峰远眺，朝雾迷漫，云海苍茫。 特色3 六盘山区是宁夏境内降水最多、水资源最丰富的地区，有黄土高原的\"湿岛\"之称。", "sight_content": "六盘山脉位于宁夏回族自治区南部，向南延伸至甘肃、陕西交界地区。山脉由两列近南北向的平行山体组成，是陕北高原与陇中高原的分界线。六盘山脉是地质史上最年轻的山脉之一，长度200多公里，宽30~60公里。山脊海拔一般超过2500米。主峰米缸山位于隆德县南部，海拔2942米。因山体秀美高耸，又名美高山。\n\n\n狭义的六盘山位于隆德县北部，海拔2928米，因山路曲折盘旋，六重始达山顶，故名。山脉东列为小关山，西列为大关山，其间为5公里宽的新生代断陷盆地。山脉北端有须弥山，东麓有崆峒山，都有丰富的历史文物。\n\n\n六盘山区是宁夏境内降水最多、水资源最丰富的地区，有黄土高原的\"湿岛\"之称，发源有数条河流。北坡的清水河向北流至中宁县汇入黄河，西坡的葫芦河汇入渭河，东坡的泾河水系向东流至西安市以北汇入渭河。六盘山为三个水系的分水岭。\n\n\n六盘山区植被类型丰富，动植物种类多样。主要物种有山杨、桦、辽东栎、混生椴、山柳、华山松、箭竹、川榛等数百种。药用植物有党参、黄芪、贝母、桃儿七等600余种。动物有金钱豹、林麝、金雕、红腹绵鸡等200余种。1988年六盘山自然保护区划定为国家级保护区，面积达2.7万公顷，被誉为黄土高原上的\"天然动植物园\"。"}}, {"title": "野荷谷", "address": "固原市泾源县城西8公里处", "image": "", "rank": 2, "time": 2, "location": {"lat": 35.50436163767883, "lng": 106.3373934308267}, "feature": {"sight_features": "特色1 峡长15千米，景色异彩纷呈", "sight_content": "野荷谷处在固原市泾源县城西8公里处，为一条南北走向的峡谷，谷地野荷遍布河床，叶片如盖，清澈的河水掩映于荷叶之中，有江南水乡之神韵，北岸峭壁参天，华山松布满石崖，有西岳华山之险峻，南岸天然野荷谷树种丰富，有原始森林的韵味。野荷谷沟长10公里，宽10多米长。两岸奇峰对峙欲合，松林层层，竹木萧萧，遮天蔽日，形成一道天然绿色长廊。春暖花开，“绿廊”下溪流涓涓，蜿蜒淙淙歌唱。河床两岸野荷碧叶重重，花黄灿灿沁香，彩蝶翩翩飞舞，百鸟嘤嘤歌唱，其山石，林木、溪流、花草与峡谷浑然一体，如锦缎、如团花，妩媚丽人。\n每年夏季，野荷花陈铺两岸，景色异彩纷呈，苍翠欲滴。峡谷两旁绿的松柏，随风起浪，红的柳叶，如同香山的红枫，点缀在绿丛中，红得醉人。白桦树，枝桠红白相间，夹杂在万木锦秀之中。这里有个“香水独山”，四周繁茂的野荷与潺潺的流水，使它显得挺拔秀美。右边的叫“草沟”，有4千米长，很开阔，野荷的生长也很壮观，还有挺拔对峙的群峰。"}}, {"title": "六盘山滑雪场", "address": "固原市泾源县六盘山镇周沟村", "image": "", "rank": 3, "time": 2, "location": {"lat": 35.657625041190244, "lng": 106.26729798444214}, "feature": {"sight_features": "", "sight_content": ""}}, {"title": "白云寺景区", "address": "固原市原州区泾源县东山坡", "image": "", "rank": 4, "time": 2, "location": {"lat": 36.009367675762505, "lng": 106.29451461391893}, "feature": {"sight_features": "", "sight_content": ""}}, {"title": "固原泾源知味来农家乐", "address": "固原冶家村19号", "image": "", "rank": 5, "time": 1.0, "location": {"lat": 35.398773052833846, "lng": 106.3837442883611}, "feature": {"sight_features": "", "sight_content": ""}}, {"title": "六盘山生态植物园-凉亭", "address": "固原市泾源县六盘山生态植物园内", "image": "", "rank": 6, "time": 2, "location": {"lat": 35.36895555707748, "lng": 106.31494756087943}, "feature": {"sight_features": "", "sight_content": ""}}, {"title": "彩霞农家乐", "address": "冶家村103号", "image": "", "rank": 7, "time": 2, "location": {"lat": 35.39873425722486, "lng": 106.38424132079976}, "feature": {"sight_features": "", "sight_content": ""}}, {"title": "周沟休闲度假区", "address": "固原市泾源县六盘山镇", "image": "", "rank": 8, "time": 2, "location": {"lat": 35.6551259623421, "lng": 106.33783398679796}, "feature": {"sight_features": "", "sight_content": ""}}, {"title": "客来香农家乐", "address": "泾源镇冶家村115", "image": "", "rank": 9, "time": 2, "location": {"lat": 35.398885175803265, "lng": 106.38405326054125}, "feature": {"sight_features": "", "sight_content": ""}}, {"title": "香水瑞丰苗木基地", "address": "101省道北50米", "image": "", "rank": 10, "time": 2, "location": {"lat": 41.032759359537806, "lng": 111.82384508727836}, "feature": {"sight_features": "", "sight_content": ""}}, {"title": "大庄农家乐", "address": "泾隆路和泾隆公路的交叉口附近", "image": "", "rank": 11, "time": 2, "location": {"lat": 35.49809132004785, "lng": 106.24665999296083}, "feature": {"sight_features": "", "sight_content": ""}}, {"title": "泾源县图书馆(香水街)", "address": "香水西街24", "image": "", "rank": 12, "time": 2, "location": {"lat": 35.50436095561442, "lng": 106.3335435997331}, "feature": {"sight_features": "", "sight_content": ""}}, {"title": "崆峒胭脂峡漂流", "address": "宁夏固原泾源县城东北8千米的黄花乡羊槽村东侧", "image": "", "rank": 13, "time": 2, "location": {"lat": 35.5107283298462, "lng": 106.41547209671911}, "feature": {"sight_features": "", "sight_content": ""}}, {"title": "石窑湾石窟", "address": "宁夏回族自治区泾源县新民乡张家台村 756400", "image": "", "rank": 14, "time": 2, "location": {"lat": 35.35449552968685, "lng": 106.47357583288479}, "feature": {"sight_features": "", "sight_content": ""}}, {"title": "固原泾源新月生态园", "address": "固原泾源县城向东八公里101省道旁", "image": "", "rank": 15, "time": 1.0, "location": {"lat": 35.37520049198965, "lng": 106.43124955830636}, "feature": {"sight_features": "", "sight_content": ""}}, {"title": "泾源艺诚国际旅游度假村", "address": "龙潭街附近", "image": "", "rank": 16, "time": 3.5, "location": {"lat": 30.10590998205465, "lng": 122.1418975137194}, "feature": {"sight_features": "", "sight_content": ""}}, {"title": "清真华寺", "address": "宁夏回族自治区固原市泾源县泾河源镇泾白路龙源创维电器专卖店", "image": "", "rank": 17, "time": 2, "location": {"lat": 35.41746351903545, "lng": 106.40919074754233}, "feature": {"sight_features": "", "sight_content": ""}}, {"title": "上胭清真寺", "address": "宁夏回族自治区固原市泾源县黄花乡上胭村村民委员会附近", "image": "", "rank": 18, "time": 2, "location": {"lat": 35.52068070946292, "lng": 106.35146713204811}, "feature": {"sight_features": "", "sight_content": ""}}, {"title": "儿童乐园", "address": "固原市泾源县", "image": "", "rank": 19, "time": 2, "location": {"lat": 35.50436163767883, "lng": 106.3373934308267}, "feature": {"sight_features": "", "sight_content": ""}}, {"title": "蒿店南坊清真寺", "address": "宁夏回族自治区固原市泾源县六盘山镇蒿店村村委会东南350米", "image": "", "rank": 20, "time": 2, "location": {"lat": 35.67132871061937, "lng": 106.41922493327526}, "feature": {"sight_features": "", "sight_content": ""}}, {"title": "王洛宾文化园", "address": "固原市原州区", "image": "", "rank": 21, "time": 2, "location": {"lat": 36.009367675762505, "lng": 106.29451461391893}, "feature": {"sight_features": "", "sight_content": ""}}, {"title": "萧关遗址文化园", "address": "宁夏回族自治区固原市瓦亭村", "image": "", "rank": 22, "time": 2, "location": {"lat": 35.70024469876299, "lng": 106.30337783236877}, "feature": {"sight_features": "", "sight_content": ""}}, {"title": "大园子", "address": "101省道附近", "image": "", "rank": 23, "time": 2, "location": {"lat": 41.03241923348195, "lng": 111.82384508727836}, "feature": {"sight_features": "", "sight_content": ""}}, {"title": "六盘山生态植物园", "address": "百泉街24号", "image": "", "rank": 24, "time": 2, "location": {"lat": 35.49590741014634, "lng": 106.34371301008939}, "feature": {"sight_features": "", "sight_content": ""}}, {"title": "宁夏泾水书画院", "address": "荣盛路12号", "image": "", "rank": 25, "time": 2, "location": {"lat": 35.49599711737031, "lng": 106.34614644874979}, "feature": {"sight_features": "", "sight_content": ""}}, {"title": "伊香源农家乐", "address": "冶家村58号", "image": "", "rank": 26, "time": 2, "location": {"lat": 35.39899025652464, "lng": 106.38410600634587}, "feature": {"sight_features": "", "sight_content": ""}}, {"title": "归田园居农家乐", "address": "园子农家乐16号", "image": "", "rank": 27, "time": 2, "location": {"lat": 34.494736121369996, "lng": 109.53957404259677}, "feature": {"sight_features": "", "sight_content": ""}}, {"title": "泾源县图书馆", "address": "荣盛路12附近", "image": "", "rank": 28, "time": 2, "location": {"lat": 35.49599711737031, "lng": 106.34614644874979}, "feature": {"sight_features": "", "sight_content": ""}}, {"title": "农家乐", "address": "泾河源镇", "image": "", "rank": 29, "time": 2, "location": {"lat": 35.39251435961297, "lng": 106.39190178452772}, "feature": {"sight_features": "", "sight_content": ""}}, {"title": "宁夏建宁生态农牧专业合作社", "address": "新民乡上湾村内", "image": "", "rank": 30, "time": 2, "location": {"lat": 35.37070158975084, "lng": 106.46441943536398}, "feature": {"sight_features": "", "sight_content": ""}}, {"title": "二龙河", "address": "宁夏回族自治区泾源县城南30公里", "image": "", "rank": 31, "time": 2, "location": {"lat": 35.50436163767883, "lng": 106.3373934308267}, "feature": {"sight_features": "", "sight_content": ""}}, {"title": "凉殿峡", "address": "宁夏回族自治区泾源县城西南20公里", "image": "", "rank": 32, "time": 2, "location": {"lat": 35.50436163767883, "lng": 106.3373934308267}, "feature": {"sight_features": "", "sight_content": ""}}, {"title": "泾河源风景区", "address": "宁夏回族自治区泾源县大弯镇", "image": "", "rank": 33, "time": 2, "location": {"lat": 35.50436163767883, "lng": 106.3373934308267}, "feature": {"sight_features": "", "sight_content": ""}}, {"title": "北伍家清真寺", "address": "宁夏回族自治区泾源县园子乡北伍家村", "image": "", "rank": 34, "time": 2, "location": {"lat": 35.470396767549275, "lng": 106.40017597507159}, "feature": {"sight_features": "", "sight_content": ""}}, {"title": "六盘山国家级自然保护区", "address": "宁夏回族自治区固原市原州区跨泾源、固原、隆德三县", "image": "", "rank": 35, "time": 2, "location": {"lat": 36.009367675762505, "lng": 106.29451461391893}, "feature": {"sight_features": "", "sight_content": ""}}]}