{"cityName": "金湖", "days": 2, "cityImage": "", "spots": [{"title": "金湖荷花荡景区", "address": "淮安市金湖县闵桥镇横桥乡", "image": "", "rank": 1, "time": 2.0, "location": {"lat": 32.878054673588416, "lng": 119.23181718796702}, "feature": {"sight_features": "特色1 荷花荡景区是品种全、花期长的观荷园，总面积12000亩，是国家4A级旅游景区。 特色2 景区三面环湖，荡内是铺天盖地的万亩荷田，荡外是烟波浩渺的高邮湖。 特色3 景区共分为荷乡梵音体验区、荷藕文化科技示范区、荻洲起雁奇趣园、莲荷田田观赏园四大片区。", "sight_content": "荷花荡景区是品种全、花期长的观荷园，总面积12000亩，是国家4A级旅游景区、全国农业旅游示范点和国家水利风景区。\n景区三面环湖，荡内是铺天盖地的万亩荷田，荡外是烟波浩渺的高邮湖，这一独特的地理位置形成了景区独有的自然生态风光。\n景区共分为荷乡梵音体验区、荷藕文化科技示范区、荻洲起雁奇趣园、莲荷田田观赏园四大片区，分布着少游憩园、荷博园、百荷园、百莲园、水上亲子乐园、荷仙广场、荷文化体验馆、青山寺等数十个景点。\n景区内外配套建有星 塘度假村、观湖楼、燕来居等餐宿配套服务设施。盛夏时节荷花盛开，游客赏景采摘、品尝美食，既可领略杨万里“接天莲叶无穷碧，映日荷花别样红”的胜境，也可感受苏东坡“酒沽横荡桥头月，茶煮青山庙后泉”的诗情。"}}, {"title": "尧帝公园", "address": "淮安市金湖县健康西路与环城西路交会处", "image": "", "rank": 2, "time": 2, "location": {"lat": 33.024661572655134, "lng": 118.99996188314556}, "feature": {"sight_features": "", "sight_content": ""}}, {"title": "金湖水上森林公园", "address": "淮安市金湖县涂沟镇360乡道", "image": "", "rank": 3, "time": 3.5, "location": {"lat": 33.066737874193095, "lng": 119.23519820419463}, "feature": {"sight_features": "", "sight_content": "金湖水上森林公园的植被以大片水杉林为主，此外还有金枝垂柳、银杏等，条条河道从林间穿过，许多野生鸟类在此安家，白鹭不时划过树林上空。每到4月，水杉林下的二月兰和油菜花开放，煞是好看，来此踏青很不错。"}}, {"title": "尧帝古城", "address": "淮安市金湖县人民路288号", "image": "", "rank": 4, "time": 1.5, "location": {"lat": 33.004042576544926, "lng": 119.02735431101065}, "feature": {"sight_features": "", "sight_content": ""}}, {"title": "柳树湾湿地公园", "address": "淮安市金湖县淮河西路与园林路交汇处", "image": "", "rank": 5, "time": 2.0, "location": {"lat": 33.045345393371996, "lng": 118.99942445929793}, "feature": {"sight_features": "", "sight_content": ""}}, {"title": "马草滩赛车俱乐部", "address": "淮安市金湖县金南镇滨湖大道8号", "image": "", "rank": 6, "time": 2, "location": {"lat": 32.91676397884765, "lng": 119.1118690951362}, "feature": {"sight_features": "", "sight_content": ""}}, {"title": "金湖县档案馆", "address": "康乐路4号", "image": "", "rank": 7, "time": 2, "location": {"lat": 39.8301584072967, "lng": 119.53001247058181}, "feature": {"sight_features": "", "sight_content": ""}}, {"title": "城市温泉", "address": "长乐路88号", "image": "", "rank": 8, "time": 2, "location": {"lat": 32.02305111669704, "lng": 118.79419480852096}, "feature": {"sight_features": "", "sight_content": ""}}, {"title": "银河休闲温泉", "address": "人民南路", "image": "", "rank": 9, "time": 2, "location": {"lat": 31.00852796492261, "lng": 121.23549181138162}, "feature": {"sight_features": "", "sight_content": ""}}, {"title": "动漫水上乐园", "address": "金湖西路宏源国际正对面(盛世豪庭广场内)", "image": "", "rank": 10, "time": 2, "location": {"lat": 33.01858958696087, "lng": 119.01363677355106}, "feature": {"sight_features": "", "sight_content": ""}}, {"title": "金湖鲜盛大闸蟹专业合作社", "address": "朝阳路19-1号附近", "image": "", "rank": 11, "time": 4.5, "location": {"lat": 39.39090542120371, "lng": 115.72189693048792}, "feature": {"sight_features": "", "sight_content": ""}}, {"title": "金湖十方寺", "address": "江苏省淮安市金湖县", "image": "", "rank": 12, "time": 2, "location": {"lat": 33.03128382675661, "lng": 119.02646908662551}, "feature": {"sight_features": "", "sight_content": ""}}, {"title": "东方园林农耕园", "address": "江苏省淮安市金湖县陈桥镇张坝村张丰东路北350米", "image": "", "rank": 13, "time": 1.5, "location": {"lat": 33.18574851849853, "lng": 119.02765211006688}, "feature": {"sight_features": "", "sight_content": ""}}, {"title": "起点公园", "address": "江苏省淮安市金湖县金荷路", "image": "", "rank": 14, "time": 2, "location": {"lat": 33.024120613806126, "lng": 119.00077926031214}, "feature": {"sight_features": "", "sight_content": ""}}, {"title": "柏祠堂", "address": "淮安市金湖县", "image": "", "rank": 15, "time": 2, "location": {"lat": 33.03128382675661, "lng": 119.02646908662551}, "feature": {"sight_features": "", "sight_content": ""}}, {"title": "金湖极乐寺", "address": "陆庄附近", "image": "", "rank": 16, "time": 1.0, "location": {"lat": 32.294922015091785, "lng": 118.89755334912591}, "feature": {"sight_features": "", "sight_content": ""}}, {"title": "星塘度假村", "address": "江苏省淮安市金湖县荷花荡高邮湖旁", "image": "", "rank": 17, "time": 2, "location": {"lat": 32.83533704530578, "lng": 119.27487211946666}, "feature": {"sight_features": "", "sight_content": ""}}, {"title": "戴楼镇文化广场", "address": "崔庄路附近", "image": "", "rank": 18, "time": 2, "location": {"lat": 32.51125405908309, "lng": 119.46310269850186}, "feature": {"sight_features": "", "sight_content": ""}}, {"title": "金湖三园农业观光旅游度假村", "address": "江苏省淮安市金湖县吕良镇三园村白马湖环湖大道与Y553交叉口东北100米", "image": "", "rank": 19, "time": 2, "location": {"lat": 33.19784342676994, "lng": 119.11726293463862}, "feature": {"sight_features": "", "sight_content": ""}}, {"title": "复兴圩文化广场", "address": "同心东路与同心西路交叉口东北150米", "image": "", "rank": 20, "time": 2, "location": {"lat": 42.54810676748877, "lng": 129.01198127636334}, "feature": {"sight_features": "", "sight_content": ""}}, {"title": "静苑度假村", "address": "203县道附近", "image": "", "rank": 21, "time": 2, "location": {"lat": 40.12395873324355, "lng": 116.69630133443806}, "feature": {"sight_features": "", "sight_content": ""}}, {"title": "白马湖影剧院", "address": "白马湖幼儿园附近", "image": "", "rank": 22, "time": 2, "location": {"lat": 33.16106341775997, "lng": 119.17422739573958}, "feature": {"sight_features": "", "sight_content": ""}}, {"title": "佳盛画廊", "address": "园林路162号", "image": "", "rank": 23, "time": 2, "location": {"lat": 33.02028512012639, "lng": 119.01978599995346}, "feature": {"sight_features": "", "sight_content": ""}}, {"title": "金湖县少儿图书馆", "address": "健康西路8号", "image": "", "rank": 24, "time": 2, "location": {"lat": 33.025019453138405, "lng": 119.0186400846144}, "feature": {"sight_features": "", "sight_content": ""}}, {"title": "金湖县尧乡长毛兔专业合作社", "address": "为民南路附近", "image": "", "rank": 25, "time": 2, "location": {"lat": 46.0686026623447, "lng": 125.99012331398151}, "feature": {"sight_features": "", "sight_content": ""}}, {"title": "鳄鱼漆", "address": "中央公园南大门", "image": "", "rank": 26, "time": 2, "location": {"lat": 36.17172400463114, "lng": 120.43179439503591}, "feature": {"sight_features": "", "sight_content": ""}}, {"title": "草莓村", "address": "金湖西路101-30号附近", "image": "", "rank": 27, "time": 2, "location": {"lat": 33.019723819304346, "lng": 119.01277211048074}, "feature": {"sight_features": "", "sight_content": ""}}, {"title": "白马湖湿地", "address": "江苏省金湖县金湖县前锋镇白马湖村", "image": "", "rank": 28, "time": 2, "location": {"lat": 33.17030535283934, "lng": 119.15906214283196}, "feature": {"sight_features": "", "sight_content": ""}}, {"title": "富康路商贸街", "address": "江苏省金湖县商贸街", "image": "", "rank": 29, "time": 2, "location": {"lat": 33.03128382675661, "lng": 119.02646908662551}, "feature": {"sight_features": "", "sight_content": ""}}, {"title": "中鑫步行街", "address": "江苏省金湖县人民路", "image": "", "rank": 30, "time": 2, "location": {"lat": 33.01351312638953, "lng": 119.02723423630975}, "feature": {"sight_features": "", "sight_content": ""}}]}