{"cityName": "晋江", "days": 2, "cityImage": "", "spots": [{"title": "五店市传统街区", "address": "泉州市晋江市梅岭街道五店市传统街区", "image": "", "rank": 1, "time": 1.5, "location": {"lat": 24.824777252876995, "lng": 118.58625450819987}, "feature": {"sight_features": "", "sight_content": ""}}, {"title": "安平桥", "address": "晋江市安海镇兴安路3号", "image": "", "rank": 2, "time": 0.25, "location": {"lat": 24.728789228776186, "lng": 118.46048844647842}, "feature": {"sight_features": "", "sight_content": ""}}, {"title": "晋江博物馆", "address": "泉州市晋江市青阳街道象山洪山小区", "image": "", "rank": 3, "time": 2.0, "location": {"lat": 24.787824575144548, "lng": 118.55843052000408}, "feature": {"sight_features": "", "sight_content": ""}}, {"title": "草庵寺", "address": "泉州市晋江市华表山麓", "image": "", "rank": 4, "time": 2.5, "location": {"lat": 24.787824575144548, "lng": 118.55843052000408}, "feature": {"sight_features": "", "sight_content": ""}}, {"title": "紫帽山风景名胜区", "address": "泉州市晋江市紫帽镇后厝街", "image": "", "rank": 5, "time": 3.5, "location": {"lat": 24.86917502991307, "lng": 118.5333704912005}, "feature": {"sight_features": "", "sight_content": ""}}, {"title": "深沪湾海底古森林遗迹自然保护区", "address": "泉州市晋江市深沪镇华峰村", "image": "", "rank": 6, "time": 2.5, "location": {"lat": 24.631334890673916, "lng": 118.65280335368021}, "feature": {"sight_features": "", "sight_content": ""}}, {"title": "衙口滨海休闲度假旅游区", "address": "泉州市晋江市龙湖镇衙口村施氏大宗祠西侧", "image": "", "rank": 7, "time": 2, "location": {"lat": 24.67479026055262, "lng": 118.65167714716442}, "feature": {"sight_features": "", "sight_content": ""}}, {"title": "蔡氏家庙", "address": "泉州市晋江市青阳区五店市传统街区内", "image": "", "rank": 8, "time": 0.25, "location": {"lat": 24.824777252876995, "lng": 118.58625450819987}, "feature": {"sight_features": "", "sight_content": ""}}, {"title": "晋江市科技馆", "address": "晋江市罗山街道罗山世纪大道384号", "image": "", "rank": 9, "time": 1.5, "location": {"lat": 24.802300373721494, "lng": 118.56858157707713}, "feature": {"sight_features": "", "sight_content": ""}}, {"title": "东石古寨", "address": "泉州市晋江市东石镇", "image": "", "rank": 10, "time": 3.0, "location": {"lat": 24.66236815599294, "lng": 118.49385522747427}, "feature": {"sight_features": "", "sight_content": ""}}, {"title": "围头村", "address": "泉州市晋江市金井镇围头村中环北路99号", "image": "", "rank": 11, "time": 1.5, "location": {"lat": 24.575299153606817, "lng": 118.61685848425307}, "feature": {"sight_features": "", "sight_content": ""}}, {"title": "溜石塔公园", "address": "泉州市晋江市池店镇溜石村江滨南路上", "image": "", "rank": 12, "time": 1.5, "location": {"lat": 24.885616803581012, "lng": 118.59087554894512}, "feature": {"sight_features": "", "sight_content": ""}}, {"title": "施琅纪念馆", "address": "泉州市晋江市龙湖镇衙口村施氏大宗祠西侧", "image": "", "rank": 13, "time": 1.5, "location": {"lat": 24.67479026055262, "lng": 118.65167714716442}, "feature": {"sight_features": "", "sight_content": ""}}, {"title": "深沪镇", "address": "泉州市晋江市深沪镇", "image": "", "rank": 14, "time": 3.0, "location": {"lat": 24.63540726914438, "lng": 118.65508513950536}, "feature": {"sight_features": "", "sight_content": ""}}, {"title": "慈元塔", "address": "泉州市晋江市东石镇塔头刘村", "image": "", "rank": 15, "time": 0.25, "location": {"lat": 24.61794902948128, "lng": 118.53255676474778}, "feature": {"sight_features": "", "sight_content": ""}}, {"title": "安海白塔", "address": "泉州市晋江市安海镇安平桥头超然亭的东北侧。", "image": "", "rank": 16, "time": 0.2, "location": {"lat": 24.713422114599236, "lng": 118.45113152009469}, "feature": {"sight_features": "", "sight_content": ""}}, {"title": "苏夫人姑庙", "address": "泉州市晋江市紫帽镇的紫帽山麓", "image": "", "rank": 17, "time": 1.0, "location": {"lat": 24.864702266225606, "lng": 118.51958931688483}, "feature": {"sight_features": "", "sight_content": ""}}, {"title": "庄家民族手工风情馆", "address": "泉州市晋江市青阳世纪大道万达广场室外金街A002", "image": "", "rank": 18, "time": 2, "location": {"lat": 24.88927647235078, "lng": 118.60471786732363}, "feature": {"sight_features": "", "sight_content": ""}}, {"title": "古檗山庄", "address": "泉州市晋江市东石镇檗谷村", "image": "", "rank": 19, "time": 2.0, "location": {"lat": 24.66337074139615, "lng": 118.47974507751144}, "feature": {"sight_features": "", "sight_content": ""}}, {"title": "八仙山公园", "address": "泉州市晋江市西环路", "image": "", "rank": 20, "time": 2, "location": {"lat": 24.577274008561414, "lng": 118.60495199628183}, "feature": {"sight_features": "", "sight_content": ""}}, {"title": "慈元行宫", "address": "泉州市晋江市东石镇塔头刘村", "image": "", "rank": 21, "time": 0.75, "location": {"lat": 24.61794902948128, "lng": 118.53255676474778}, "feature": {"sight_features": "", "sight_content": ""}}, {"title": "万达金街儿童娱乐场", "address": "浦西万达广场金街3B门(哈根达斯对面)", "image": "", "rank": 22, "time": 2, "location": {"lat": 30.33694429105212, "lng": 120.12511891347465}, "feature": {"sight_features": "", "sight_content": ""}}, {"title": "灵源禅寺", "address": "福建泉州晋江市326县道灵源禅寺", "image": "", "rank": 23, "time": 2, "location": {"lat": 24.753628255002987, "lng": 118.5101922327786}, "feature": {"sight_features": "", "sight_content": ""}}, {"title": "李五纪念馆", "address": "龙池路", "image": "", "rank": 24, "time": 2, "location": {"lat": 32.410209241846516, "lng": 120.53145375666944}, "feature": {"sight_features": "", "sight_content": ""}}, {"title": "晋江敏月公园-水上乐园", "address": "福建省泉州市晋江市梅岭街道新华街敏月公园旁", "image": "", "rank": 25, "time": 2.5, "location": {"lat": 24.816297894013285, "lng": 118.58126098776994}, "feature": {"sight_features": "", "sight_content": ""}}, {"title": "英华马术俱乐部(英林店)", "address": "英灵镇英华集团", "image": "", "rank": 26, "time": 2, "location": {"lat": 24.63461405585908, "lng": 118.58572005594706}, "feature": {"sight_features": "", "sight_content": ""}}, {"title": "定光庵", "address": "泉州市晋江市龙湖镇衙口村施氏大宗祠西侧衙口滨海休闲旅游区内", "image": "", "rank": 27, "time": 2, "location": {"lat": 24.67479026055262, "lng": 118.65167714716442}, "feature": {"sight_features": "", "sight_content": ""}}, {"title": "深沪湾海底森林", "address": "泉州市晋江市", "image": "", "rank": 28, "time": 2, "location": {"lat": 24.787824575144548, "lng": 118.55843052000408}, "feature": {"sight_features": "", "sight_content": ""}}, {"title": "英林影剧院", "address": "龙英路264号", "image": "", "rank": 29, "time": 2, "location": {"lat": 24.36271307666524, "lng": 114.13417096694195}, "feature": {"sight_features": "", "sight_content": ""}}, {"title": "圣井湖莲宫", "address": "泉安中路781号附近", "image": "", "rank": 30, "time": 7.5, "location": {"lat": 24.91120476170526, "lng": 118.61843245923491}, "feature": {"sight_features": "", "sight_content": ""}}, {"title": "晋江市动物园", "address": "梅岭街道敏月公园(阳光广场)", "image": "", "rank": 31, "time": 1.0, "location": {"lat": 24.816297894013285, "lng": 118.58126098776994}, "feature": {"sight_features": "", "sight_content": ""}}, {"title": "晋江城市展馆", "address": "罗山街道世纪大道", "image": "", "rank": 32, "time": 3.5, "location": {"lat": 24.800112946206422, "lng": 118.5667327134229}, "feature": {"sight_features": "", "sight_content": ""}}, {"title": "北纬30度", "address": "世纪大道888号万达广场2层213", "image": "", "rank": 33, "time": 2, "location": {"lat": 46.600634722326475, "lng": 125.10010872997353}, "feature": {"sight_features": "", "sight_content": ""}}, {"title": "革命烈士陵园", "address": "岱峰中心小学附近", "image": "", "rank": 34, "time": 2, "location": {"lat": 25.349201991577637, "lng": 119.16761431912222}, "feature": {"sight_features": "", "sight_content": ""}}, {"title": "罗裳山生态公园", "address": "福兴路附近", "image": "", "rank": 35, "time": null, "location": {"lat": 38.0897642190079, "lng": 114.61188529871805}, "feature": {"sight_features": "", "sight_content": ""}}, {"title": "汤姆猫游乐园", "address": "泉州市晋江市和平中路阳光时代广场2层", "image": "", "rank": 36, "time": 2, "location": {"lat": 24.817095348379375, "lng": 118.59821851107968}, "feature": {"sight_features": "", "sight_content": ""}}, {"title": "庐思立艺术馆", "address": "兴泰路23号", "image": "", "rank": 37, "time": 2, "location": {"lat": 24.87757475795733, "lng": 118.56159327404256}, "feature": {"sight_features": "", "sight_content": ""}}, {"title": "爱乐园儿童主题亲子馆", "address": "阳光时代广场新华都3楼", "image": "", "rank": 38, "time": 2, "location": {"lat": 31.619210151028355, "lng": 117.89551006539737}, "feature": {"sight_features": "", "sight_content": ""}}, {"title": "罗汉堂刺青馆", "address": "时代广场莲华路A家酒店旁", "image": "", "rank": 39, "time": 2, "location": {"lat": 24.896677557017583, "lng": 118.5999377537404}, "feature": {"sight_features": "", "sight_content": ""}}, {"title": "泉州高尔夫球会练习场", "address": "紫帽镇泉州高尔夫俱乐部内", "image": "", "rank": 40, "time": 1.5, "location": {"lat": 24.873302189657014, "lng": 118.52418037398878}, "feature": {"sight_features": "", "sight_content": ""}}, {"title": "浮华农场", "address": "在南天路旁边", "image": "", "rank": 41, "time": 2, "location": {"lat": 30.29611162421277, "lng": 120.11102699282088}, "feature": {"sight_features": "", "sight_content": ""}}, {"title": "菲莉大剧院", "address": "社马路附近", "image": "", "rank": 42, "time": 2, "location": {"lat": 24.739315236190524, "lng": 118.56390844000215}, "feature": {"sight_features": "", "sight_content": ""}}, {"title": "萧妃村剧台", "address": "南环路附近", "image": "", "rank": 43, "time": 2, "location": {"lat": 38.02445208545248, "lng": 114.78866638114692}, "feature": {"sight_features": "", "sight_content": ""}}, {"title": "晋江市24小时自助图书馆", "address": "中兴路附近", "image": "", "rank": 44, "time": 2, "location": {"lat": 38.70935513883943, "lng": 117.51340835180949}, "feature": {"sight_features": "", "sight_content": ""}}, {"title": "晋江市24小时自助图书馆", "address": "英山路与金山路交叉口北50米", "image": "", "rank": 45, "time": 2, "location": {"lat": 24.63621011448187, "lng": 118.5847169011166}, "feature": {"sight_features": "", "sight_content": ""}}, {"title": "晋江市24小时自助图书馆", "address": "泉安中路599-72号附近", "image": "", "rank": 46, "time": 2, "location": {"lat": 24.91120476170526, "lng": 118.61843245923491}, "feature": {"sight_features": "", "sight_content": ""}}, {"title": "承源教材", "address": "兴德路与泉安中路交叉口东南50米", "image": "", "rank": 47, "time": 2, "location": {"lat": 24.80933790808922, "lng": 118.5866528069815}, "feature": {"sight_features": "", "sight_content": ""}}, {"title": "晋江戏剧中心", "address": "世纪大道西侧", "image": "", "rank": 48, "time": null, "location": {"lat": 35.36022836725064, "lng": 111.24461191295032}, "feature": {"sight_features": "", "sight_content": ""}}, {"title": "开心钓鱼场", "address": "池店镇凤池路耀星大厦东450米", "image": "", "rank": 49, "time": 2, "location": {"lat": 24.864601649166826, "lng": 118.57398789224472}, "feature": {"sight_features": "", "sight_content": ""}}, {"title": "黄一农场", "address": "锦丰路4号", "image": "", "rank": 50, "time": 2, "location": {"lat": 31.553140904941888, "lng": 119.74208041096871}, "feature": {"sight_features": "", "sight_content": ""}}, {"title": "晋江市景俊种植农民专业合作社", "address": "站前路", "image": "", "rank": 51, "time": 3.5, "location": {"lat": 40.131500583359475, "lng": 116.27284120218751}, "feature": {"sight_features": "", "sight_content": ""}}, {"title": "深林宫剧台", "address": "泉州市晋江市深沪湾深林寺内", "image": "", "rank": 52, "time": 2, "location": {"lat": 24.65518971469592, "lng": 118.68223863606192}, "feature": {"sight_features": "", "sight_content": ""}}, {"title": "乌大门", "address": "福建省泉州市晋江市状元街3号", "image": "", "rank": 53, "time": 2, "location": {"lat": 24.823581494718027, "lng": 118.5861134661501}, "feature": {"sight_features": "", "sight_content": ""}}, {"title": "沿塘西堡境", "address": "泉安中路532号附近", "image": "", "rank": 54, "time": 2, "location": {"lat": 24.91120476170526, "lng": 118.61843245923491}, "feature": {"sight_features": "", "sight_content": ""}}, {"title": "镇龙圣宫", "address": "泉州市晋江市崇贤路", "image": "", "rank": 55, "time": 2, "location": {"lat": 24.801804407138654, "lng": 118.58383041461249}, "feature": {"sight_features": "", "sight_content": ""}}, {"title": "青龙宫", "address": "福建省泉州市晋江市塘岸街孙氏家庙(晋江市委西100米)", "image": "", "rank": 56, "time": 2, "location": {"lat": 24.81989494016464, "lng": 118.58444706451436}, "feature": {"sight_features": "", "sight_content": ""}}, {"title": "悫实林公家宅", "address": "七一路与中兴路交叉口西50米", "image": "", "rank": 57, "time": null, "location": {"lat": 38.70935513883943, "lng": 117.51340835180949}, "feature": {"sight_features": "", "sight_content": ""}}, {"title": "孙氏家庙", "address": "塘岸街与梅山路交叉口西北50米", "image": "", "rank": 58, "time": 2, "location": {"lat": 24.819258079244037, "lng": 118.58674467758429}, "feature": {"sight_features": "", "sight_content": ""}}, {"title": "普照寺", "address": "福建省泉州市南安市", "image": "", "rank": 59, "time": 0.75, "location": {"lat": 24.966362350467605, "lng": 118.39257197205464}, "feature": {"sight_features": "", "sight_content": ""}}, {"title": "泉山公园", "address": "福建省泉州市晋江市G72(泉南高速)", "image": "", "rank": 60, "time": 2.5, "location": {"lat": 24.787824575144548, "lng": 118.55843052000408}, "feature": {"sight_features": "", "sight_content": ""}}]}