{"cityName": "金门", "days": "2", "cityImage": "", "spots": [{"title": "金门民俗文化村", "address": "金门县金沙镇山后村中堡", "image": "", "rank": 1, "time": 0.75, "location": {"lat": 24.491489593448584, "lng": 118.43516355755814}, "feature": {"sight_features": "", "sight_content": ""}}, {"title": "莒光楼", "address": "金门县金城镇贤城路1号", "image": "", "rank": 2, "time": 1.5, "location": {"lat": 24.418263244327836, "lng": 118.33054118467763}, "feature": {"sight_features": "", "sight_content": ""}}, {"title": "翟山坑道", "address": "金门县金城镇古岗村古岗湖东南方翟山腹里", "image": "", "rank": 3, "time": 1.0, "location": {"lat": 24.39763592877423, "lng": 118.32692137998227}, "feature": {"sight_features": "", "sight_content": ""}}, {"title": "金门国家公园", "address": "金门县金宁乡伯玉路二段460号", "image": "", "rank": 4, "time": 1.0, "location": {"lat": 24.45538617766783, "lng": 118.34640752999663}, "feature": {"sight_features": "", "sight_content": ""}}, {"title": "水头古厝群", "address": "金门县金沙镇", "image": "", "rank": 5, "time": 1.0, "location": {"lat": 24.491489593448584, "lng": 118.43516355755814}, "feature": {"sight_features": "", "sight_content": ""}}, {"title": "清总兵衙门", "address": "金门县金城镇浯江街53号", "image": "", "rank": 6, "time": 1.5, "location": {"lat": 24.418263244327836, "lng": 118.33054118467763}, "feature": {"sight_features": "", "sight_content": ""}}, {"title": "金门岛", "address": "金门县", "image": "", "rank": 7, "time": 1.5, "location": {"lat": 24.440444541055168, "lng": 118.33041515960107}, "feature": {"sight_features": "", "sight_content": ""}}, {"title": "金门模范街", "address": "金门县金城镇模范街", "image": "", "rank": 8, "time": 1.0, "location": {"lat": 24.418263244327836, "lng": 118.33054118467763}, "feature": {"sight_features": "", "sight_content": ""}}, {"title": "邱良功母节孝牌坊", "address": "金门县金城镇东门里莒光路一段之观音亭边", "image": "", "rank": 9, "time": 1.5, "location": {"lat": 24.418263244327836, "lng": 118.33054118467763}, "feature": {"sight_features": "", "sight_content": ""}}, {"title": "建功屿", "address": "金门县金城镇南门浯江溪口", "image": "", "rank": 10, "time": 2, "location": {"lat": 24.418263244327836, "lng": 118.33054118467763}, "feature": {"sight_features": "", "sight_content": ""}}, {"title": "北山古洋楼", "address": "金门县金宁乡", "image": "", "rank": 11, "time": 1.5, "location": {"lat": 24.45538617766783, "lng": 118.34640752999663}, "feature": {"sight_features": "", "sight_content": ""}}, {"title": "狮山榴炮主题园区", "address": "890金門縣金沙鎮", "image": "", "rank": 12, "time": 1.5, "location": {"lat": 27.465354872613517, "lng": 106.22644163900851}, "feature": {"sight_features": "", "sight_content": ""}}, {"title": "古宁头战史馆", "address": "金门县金宁乡林厝村往古宁头村道路右侧", "image": "", "rank": 13, "time": 1.5, "location": {"lat": 24.45538617766783, "lng": 118.34640752999663}, "feature": {"sight_features": "", "sight_content": ""}}, {"title": "八二三战史馆", "address": "泉州市金门县金湖镇安民村1之11号（正中公园内）", "image": "", "rank": 14, "time": 1.5, "location": {"lat": 24.439824998713306, "lng": 118.42310965765276}, "feature": {"sight_features": "", "sight_content": ""}}, {"title": "金门慈湖", "address": "金门县金宁乡慈湖路三段", "image": "", "rank": 15, "time": 1.0, "location": {"lat": 24.45538617766783, "lng": 118.34640752999663}, "feature": {"sight_features": "", "sight_content": ""}}, {"title": "马山观测站", "address": "", "image": "", "rank": 16, "time": 1.0, "location": {"lat": 23.713877725360007, "lng": 108.18356215633243}, "feature": {"sight_features": "", "sight_content": ""}}, {"title": "琼林战斗村", "address": "金门县金湖镇琼林村", "image": "", "rank": 17, "time": 1.5, "location": {"lat": 24.439824998713306, "lng": 118.42310965765276}, "feature": {"sight_features": "", "sight_content": ""}}, {"title": "太武山风景区", "address": "金门县金湖镇玉章路", "image": "", "rank": 18, "time": 1.0, "location": {"lat": 24.439824998713306, "lng": 118.42310965765276}, "feature": {"sight_features": "", "sight_content": ""}}, {"title": "金城民防坑道", "address": "金门县金城镇民生路", "image": "", "rank": 19, "time": 1.5, "location": {"lat": 24.436398754622335, "lng": 118.33262355386607}, "feature": {"sight_features": "", "sight_content": ""}}, {"title": "九宫坑道", "address": "金门县烈屿乡九宫码头与罗厝之间", "image": "", "rank": 20, "time": 1.5, "location": {"lat": 24.431762709585918, "lng": 118.25816255113448}, "feature": {"sight_features": "", "sight_content": ""}}, {"title": "将军堡", "address": "894金门县烈屿乡", "image": "", "rank": 21, "time": 1.5, "location": {"lat": 24.431762709585918, "lng": 118.25816255113448}, "feature": {"sight_features": "", "sight_content": ""}}, {"title": "中山纪念林", "address": "金门县金宁乡伯玉路", "image": "", "rank": 22, "time": 0.4, "location": {"lat": 24.45538617766783, "lng": 118.34640752999663}, "feature": {"sight_features": "", "sight_content": ""}}, {"title": "珠山聚落", "address": "金城镇金山路珠水路", "image": "", "rank": 23, "time": 1.5, "location": {"lat": 31.735863698733926, "lng": 119.59740745519652}, "feature": {"sight_features": "", "sight_content": ""}}, {"title": "中正公园", "address": "泉州市金门县金湖镇太湖路", "image": "", "rank": 24, "time": 1.5, "location": {"lat": 24.439824998713306, "lng": 118.42310965765276}, "feature": {"sight_features": "", "sight_content": ""}}, {"title": "山后聚落", "address": "890金门县金沙镇", "image": "", "rank": 25, "time": 1.5, "location": {"lat": 24.491489593448584, "lng": 118.43516355755814}, "feature": {"sight_features": "", "sight_content": ""}}, {"title": "湖井头战史馆", "address": "894金门县烈屿乡", "image": "", "rank": 26, "time": 1.5, "location": {"lat": 24.431762709585918, "lng": 118.25816255113448}, "feature": {"sight_features": "", "sight_content": ""}}, {"title": "成功沙滩", "address": "金门县金湖镇", "image": "", "rank": 27, "time": 2, "location": {"lat": 24.439824998713306, "lng": 118.42310965765276}, "feature": {"sight_features": "", "sight_content": ""}}, {"title": "陈景兰洋楼", "address": "金门县金湖镇", "image": "", "rank": 28, "time": 1.5, "location": {"lat": 24.439824998713306, "lng": 118.42310965765276}, "feature": {"sight_features": "", "sight_content": ""}}, {"title": "八达楼子", "address": "泉州市金门县烈屿乡九井路", "image": "", "rank": 29, "time": 1.0, "location": {"lat": 24.431762709585918, "lng": 118.25816255113448}, "feature": {"sight_features": "", "sight_content": ""}}, {"title": "陵水湖", "address": "泉州市金门县烈屿乡", "image": "", "rank": 30, "time": 1.0, "location": {"lat": 24.431762709585918, "lng": 118.25816255113448}, "feature": {"sight_features": "", "sight_content": ""}}, {"title": "太武山步道", "address": "金门县Yuzhang Rd., Jinhu Township", "image": "", "rank": 31, "time": 2, "location": {"lat": 24.440444541055168, "lng": 118.33041515960107}, "feature": {"sight_features": "", "sight_content": ""}}, {"title": "将军第", "address": "金门县金城镇珠浦北路24号", "image": "", "rank": 32, "time": 2, "location": {"lat": 24.418263244327836, "lng": 118.33054118467763}, "feature": {"sight_features": "", "sight_content": ""}}, {"title": "金城民防坑道展示馆", "address": "金门县金城镇民生路7号", "image": "", "rank": 33, "time": 2, "location": {"lat": 24.436398754622335, "lng": 118.33262355386607}, "feature": {"sight_features": "", "sight_content": ""}}, {"title": "太湖水库", "address": "金门县金湖镇", "image": "", "rank": 34, "time": 1.5, "location": {"lat": 24.439824998713306, "lng": 118.42310965765276}, "feature": {"sight_features": "", "sight_content": ""}}, {"title": "Guningtou Monument", "address": "金门县Dinglin Rd., Jinning Township", "image": "", "rank": 35, "time": 2, "location": {"lat": 24.440444541055168, "lng": 118.33041515960107}, "feature": {"sight_features": "", "sight_content": ""}}, {"title": "金门植物园", "address": "金门县金湖镇太武山10号", "image": "", "rank": 36, "time": 3.5, "location": {"lat": 24.439824998713306, "lng": 118.42310965765276}, "feature": {"sight_features": "", "sight_content": ""}}, {"title": "金门大学", "address": "892金门县金甯乡大学路1号", "image": "", "rank": 37, "time": 1.0, "location": {"lat": 24.440444541055168, "lng": 118.33041515960107}, "feature": {"sight_features": "", "sight_content": ""}}, {"title": "金门历史民俗博物馆", "address": "Kinmen and Matsu Islands", "image": "", "rank": 38, "time": 1.5, "location": {"lat": 24.440444541055168, "lng": 118.33041515960107}, "feature": {"sight_features": "", "sight_content": ""}}, {"title": "尚义海滩", "address": "金门县尚义机场南部", "image": "", "rank": 39, "time": 3.0, "location": {"lat": 24.440444541055168, "lng": 118.33041515960107}, "feature": {"sight_features": "", "sight_content": ""}}, {"title": "Jin Cheng Bikeway", "address": "金门县No. 1, Huandao N. Rd., Jincheng Township", "image": "", "rank": 40, "time": 2, "location": {"lat": 24.440444541055168, "lng": 118.33041515960107}, "feature": {"sight_features": "", "sight_content": ""}}, {"title": "金水国小", "address": "Kinmen and Matsu Islands", "image": "", "rank": 41, "time": 2, "location": {"lat": 34.80607044566173, "lng": 113.66644773239523}, "feature": {"sight_features": "", "sight_content": ""}}, {"title": "叶华成故居", "address": "金门县金城镇", "image": "", "rank": 42, "time": 2, "location": {"lat": 24.418263244327836, "lng": 118.33054118467763}, "feature": {"sight_features": "", "sight_content": ""}}, {"title": "金门森林游乐区", "address": "金门县金沙镇东山31号", "image": "", "rank": 43, "time": 2.5, "location": {"lat": 24.491489593448584, "lng": 118.43516355755814}, "feature": {"sight_features": "", "sight_content": ""}}, {"title": "南太武山", "address": "福建省龙海市港尾镇 363105", "image": "", "rank": 44, "time": 2.0, "location": {"lat": 24.34606588118033, "lng": 118.09108336948897}, "feature": {"sight_features": "", "sight_content": ""}}, {"title": "浯江书院", "address": "Kinmen and Matsu Islands, 金城镇金门县", "image": "", "rank": 45, "time": 2, "location": {"lat": 24.418263244327836, "lng": 118.33054118467763}, "feature": {"sight_features": "", "sight_content": ""}}, {"title": "沙美老街", "address": "金门县金沙镇", "image": "", "rank": 46, "time": 2, "location": {"lat": 24.491489593448584, "lng": 118.43516355755814}, "feature": {"sight_features": "", "sight_content": ""}}, {"title": "和平纪念园区", "address": "892金门县金甯乡", "image": "", "rank": 47, "time": 2, "location": {"lat": 24.440444541055168, "lng": 118.33041515960107}, "feature": {"sight_features": "", "sight_content": ""}}, {"title": "后湖海滨公园", "address": "金门县金城鎮后湖", "image": "", "rank": 48, "time": 2, "location": {"lat": 24.440444541055168, "lng": 118.33041515960107}, "feature": {"sight_features": "", "sight_content": ""}}, {"title": "尚义环保公园", "address": "金门县金湖镇", "image": "", "rank": 49, "time": 2, "location": {"lat": 24.439824998713306, "lng": 118.42310965765276}, "feature": {"sight_features": "", "sight_content": ""}}, {"title": "古岗湖", "address": "金城镇金门县 893", "image": "", "rank": 50, "time": 2, "location": {"lat": 24.418263244327836, "lng": 118.33054118467763}, "feature": {"sight_features": "", "sight_content": ""}}, {"title": "溪边海水浴场", "address": "金门县金湖镇", "image": "", "rank": 51, "time": 2, "location": {"lat": 24.439824998713306, "lng": 118.42310965765276}, "feature": {"sight_features": "", "sight_content": ""}}, {"title": "象山金刚寺", "address": "金門縣金沙鎮顶兰1号", "image": "", "rank": 52, "time": 1.0, "location": {"lat": 27.465354872613517, "lng": 106.22644163900851}, "feature": {"sight_features": "", "sight_content": ""}}, {"title": "文台宝塔", "address": "金城镇金门县 893", "image": "", "rank": 53, "time": 2, "location": {"lat": 24.418263244327836, "lng": 118.33054118467763}, "feature": {"sight_features": "", "sight_content": ""}}, {"title": "湖下海堤", "address": "金门县金宁乡", "image": "", "rank": 54, "time": 2, "location": {"lat": 24.45538617766783, "lng": 118.34640752999663}, "feature": {"sight_features": "", "sight_content": ""}}, {"title": "金门农业试验所", "address": "金门县金湖镇后垄31号", "image": "", "rank": 55, "time": 1.5, "location": {"lat": 24.439824998713306, "lng": 118.42310965765276}, "feature": {"sight_features": "", "sight_content": ""}}, {"title": "乳山游客中心", "address": "金门县金宁乡桃园路乳山游客中心", "image": "", "rank": 56, "time": 1.5, "location": {"lat": 24.45538617766783, "lng": 118.34640752999663}, "feature": {"sight_features": "", "sight_content": ""}}, {"title": "枫香林", "address": "金门县金沙镇", "image": "", "rank": 57, "time": 2, "location": {"lat": 24.491489593448584, "lng": 118.43516355755814}, "feature": {"sight_features": "", "sight_content": ""}}, {"title": "古岗楼", "address": "金门县金城镇", "image": "", "rank": 58, "time": 2, "location": {"lat": 24.418263244327836, "lng": 118.33054118467763}, "feature": {"sight_features": "", "sight_content": ""}}, {"title": "汉影云根碣", "address": "金门县金城镇", "image": "", "rank": 59, "time": 2, "location": {"lat": 24.418263244327836, "lng": 118.33054118467763}, "feature": {"sight_features": "", "sight_content": ""}}]}