{"cityName": "金平", "days": 2, "cityImage": "", "spots": [{"title": "天生桥", "address": "金平县马鞍底乡蝴蝶谷景区内", "image": "", "rank": 1, "time": 0.3, "location": {"lat": 22.773582640645362, "lng": 103.5259564736866}, "feature": {"sight_features": "", "sight_content": ""}}, {"title": "金平分水岭自然保护区", "address": "云南省金平苗族瑶族傣族自治县境内", "image": "", "rank": 2, "time": 2, "location": {"lat": 22.785560606183154, "lng": 103.23246860578698}, "feature": {"sight_features": "", "sight_content": ""}}, {"title": "勐拉温泉", "address": "勐拉热水塘段", "image": "", "rank": 3, "time": 2, "location": {"lat": 22.66419900170994, "lng": 103.0570090583806}, "feature": {"sight_features": "", "sight_content": ""}}, {"title": "马鞍底拉灯瀑布群", "address": "红河哈尼族彝族自治州金平苗族瑶族傣族自治县马鞍底乡", "image": "", "rank": 4, "time": 1.5, "location": {"lat": 22.773582640645362, "lng": 103.5259564736866}, "feature": {"sight_features": "", "sight_content": ""}}, {"title": "勐桥温泉", "address": "金平县勐桥乡", "image": "", "rank": 5, "time": 2, "location": {"lat": 22.908151073833206, "lng": 103.43859111198631}, "feature": {"sight_features": "", "sight_content": ""}}, {"title": "坪河草原", "address": "金平县马鞍底乡蝴蝶谷景区内", "image": "", "rank": 6, "time": 1.5, "location": {"lat": 22.773582640645362, "lng": 103.5259564736866}, "feature": {"sight_features": "", "sight_content": ""}}, {"title": "迁城所摩崖", "address": "金平苗族瑶族傣族自治县金河镇五家寨", "image": "", "rank": 7, "time": 2, "location": {"lat": 22.791247432867923, "lng": 103.23707849047611}, "feature": {"sight_features": "", "sight_content": ""}}, {"title": "西隆山保护区", "address": "金平苗族瑶族傣族自治县者米乡", "image": "", "rank": 8, "time": 2.0, "location": {"lat": 22.783389207771638, "lng": 102.7052006411133}, "feature": {"sight_features": "", "sight_content": ""}}, {"title": "普洱温泉", "address": "金平县普尔温泉", "image": "", "rank": 9, "time": 0.7, "location": {"lat": 22.785560606183154, "lng": 103.23246860578698}, "feature": {"sight_features": "", "sight_content": ""}}, {"title": "金平烈土陵园", "address": "育才路金平中学附近", "image": "", "rank": 10, "time": 4.5, "location": {"lat": 22.788273140976578, "lng": 103.23296184288469}, "feature": {"sight_features": "", "sight_content": ""}}, {"title": "白石岩摩崖石刻", "address": "金平县金水河乡白石岩西南藤条江边", "image": "", "rank": 11, "time": 1.5, "location": {"lat": 22.837442106354978, "lng": 103.40456969072329}, "feature": {"sight_features": "", "sight_content": ""}}, {"title": "蔓耗风景区", "address": "云南省个旧蔓耗镇 661014", "image": "", "rank": 12, "time": 2, "location": {"lat": 23.02550889411212, "lng": 103.35507778132852}, "feature": {"sight_features": "", "sight_content": ""}}, {"title": "金平影剧院", "address": "文化路36", "image": "", "rank": 13, "time": 2, "location": {"lat": 22.785980014250615, "lng": 103.23250897743318}, "feature": {"sight_features": "", "sight_content": ""}}, {"title": "金平正宜水上乐园", "address": "前哨北路10号附近", "image": "", "rank": 14, "time": 2, "location": {"lat": 22.787731242265362, "lng": 103.23430614396469}, "feature": {"sight_features": "", "sight_content": ""}}, {"title": "勐拉大佛寺", "address": "老乌寨段", "image": "", "rank": 15, "time": 2, "location": {"lat": 22.654534687144068, "lng": 103.07941728931961}, "feature": {"sight_features": "", "sight_content": ""}}, {"title": "金平农场", "address": "勐拉乡", "image": "", "rank": 16, "time": 3.5, "location": {"lat": 22.668164762696616, "lng": 103.09152855231991}, "feature": {"sight_features": "", "sight_content": ""}}, {"title": "金平苗族瑶族傣族自治县廉政文化...", "address": "河东南路16", "image": "", "rank": 17, "time": null, "location": {"lat": 22.77845291041699, "lng": 103.2354168390799}, "feature": {"sight_features": "", "sight_content": ""}}, {"title": "金平民族歌舞团", "address": "文化路16育才路", "image": "", "rank": 18, "time": 2, "location": {"lat": 45.77241084570361, "lng": 132.98105408945108}, "feature": {"sight_features": "", "sight_content": ""}}, {"title": "乐善桥", "address": "云南省金平苗族瑶族傣族自治县阿得博乡阿得博村", "image": "", "rank": 19, "time": 2, "location": {"lat": 22.911590393213757, "lng": 103.22996361439863}, "feature": {"sight_features": "", "sight_content": ""}}, {"title": "中国·红河蝴蝶谷", "address": "金平县马鞍底乡", "image": "", "rank": 20, "time": 2, "location": {"lat": 22.773582640645362, "lng": 103.5259564736866}, "feature": {"sight_features": "", "sight_content": ""}}]}