{"cityName": "锦屏", "days": 2, "cityImage": "", "spots": [{"title": "隆里古城", "address": "黔东南苗族侗族自治州锦屏县隆里乡二零二省道旁边", "image": "", "rank": 1, "time": 3.5, "location": {"lat": 26.425080323697816, "lng": 109.10858658212736}, "feature": {"sight_features": "", "sight_content": ""}}, {"title": "青界山", "address": "黔东南苗族侗族自治州锦屏县境西南", "image": "", "rank": 2, "time": 2.5, "location": {"lat": 26.682631631864552, "lng": 109.2074384694816}, "feature": {"sight_features": "", "sight_content": ""}}, {"title": "文斗村", "address": "黔东南苗族侗族自治州锦屏县", "image": "", "rank": 3, "time": 2.5, "location": {"lat": 26.682631631864552, "lng": 109.2074384694816}, "feature": {"sight_features": "", "sight_content": ""}}, {"title": "天龙山庙", "address": "锦屏县", "image": "", "rank": 4, "time": 2, "location": {"lat": 26.682631631864552, "lng": 109.2074384694816}, "feature": {"sight_features": "", "sight_content": ""}}, {"title": "赤溪坪风雨桥", "address": "黔东南苗族侗族自治州锦屏县三江镇赤溪坪风雨桥", "image": "", "rank": 5, "time": 2, "location": {"lat": 26.681766974867905, "lng": 109.22586007356864}, "feature": {"sight_features": "", "sight_content": ""}}, {"title": "思州古城", "address": "贵州省岑巩县境内 557800", "image": "", "rank": 6, "time": 2, "location": {"lat": 27.17990241739444, "lng": 108.82248096195714}, "feature": {"sight_features": "", "sight_content": ""}}, {"title": "吉祥油画店", "address": "小江路", "image": "", "rank": 7, "time": 2, "location": {"lat": 26.679972230447472, "lng": 109.20630915752366}, "feature": {"sight_features": "", "sight_content": ""}}, {"title": "锦屏县国有林场", "address": "三江镇风雨桥社区", "image": "", "rank": 8, "time": 2, "location": {"lat": 26.680916077745962, "lng": 109.20150857515108}, "feature": {"sight_features": "", "sight_content": ""}}, {"title": "六街坡美食1条街", "address": "贵州省锦屏县202省道", "image": "", "rank": 9, "time": 2, "location": {"lat": 26.469252402467877, "lng": 109.11306761297588}, "feature": {"sight_features": "", "sight_content": ""}}, {"title": "飞山宫", "address": "贵州省黔东南苗族侗族自治州锦屏县飞山路", "image": "", "rank": 10, "time": 2, "location": {"lat": 26.687497726840085, "lng": 109.20931726377712}, "feature": {"sight_features": "", "sight_content": ""}}, {"title": "龙标书院", "address": "黔东南苗族侗族自治州锦屏县隆里古城", "image": "", "rank": 11, "time": 2, "location": {"lat": 26.42296592072623, "lng": 109.11007664908647}, "feature": {"sight_features": "", "sight_content": ""}}]}