{"cityName": "津市", "days": 2, "cityImage": "", "spots": [{"title": "嘉山风景区", "address": "常德市津市市新洲镇", "image": "", "rank": 1, "time": null, "location": {"lat": 29.538667412643374, "lng": 111.86520245076413}, "feature": {"sight_features": "", "sight_content": ""}}, {"title": "毛里湖农家乐", "address": "保和堤大山村8队", "image": "", "rank": 2, "time": 2, "location": {"lat": 40.45082384082049, "lng": 118.02306429243893}, "feature": {"sight_features": "", "sight_content": ""}}, {"title": "孟姜女祠", "address": "湖南省澧县嘉山之颠 415500", "image": "", "rank": 3, "time": 2, "location": {"lat": 29.554340745237848, "lng": 111.90831758039664}, "feature": {"sight_features": "", "sight_content": ""}}, {"title": "李杨祠堂", "address": "常德市津市市零二九县道", "image": "", "rank": 4, "time": 2, "location": {"lat": 29.611258543006777, "lng": 111.88451734601949}, "feature": {"sight_features": "", "sight_content": ""}}, {"title": "澹津公园", "address": "车胤大道", "image": "", "rank": 5, "time": 2, "location": {"lat": 29.635061253025306, "lng": 111.89312754504164}, "feature": {"sight_features": "", "sight_content": ""}}, {"title": "儿童乐园", "address": "常德市津市市", "image": "", "rank": 6, "time": 2, "location": {"lat": 29.611258543006777, "lng": 111.88451734601949}, "feature": {"sight_features": "", "sight_content": ""}}, {"title": "特产", "address": "湖南省常德市津市市人民路", "image": "", "rank": 7, "time": 2, "location": {"lat": 29.631900836705064, "lng": 111.89063694271093}, "feature": {"sight_features": "", "sight_content": ""}}, {"title": "法治广场", "address": "三洲驿街道车胤大道", "image": "", "rank": 8, "time": 2, "location": {"lat": 29.635061253025306, "lng": 111.89312754504164}, "feature": {"sight_features": "", "sight_content": ""}}, {"title": "湖南嘉山森林公园", "address": "湖南省常德市津市市大同路", "image": "", "rank": 9, "time": 2, "location": {"lat": 29.611940423270255, "lng": 111.87731495522264}, "feature": {"sight_features": "", "sight_content": ""}}, {"title": "百乐新村老年人乐园", "address": "双济路", "image": "", "rank": 10, "time": 2, "location": {"lat": 29.635338194415834, "lng": 111.89757924082542}, "feature": {"sight_features": "", "sight_content": ""}}, {"title": "古大同寺", "address": "湖南省津市市大同山", "image": "", "rank": 11, "time": 2, "location": {"lat": 29.611258543006777, "lng": 111.88451734601949}, "feature": {"sight_features": "", "sight_content": ""}}, {"title": "药山寺", "address": "湖南省津市市棠华乡药山", "image": "", "rank": 12, "time": 2, "location": {"lat": 29.37428615707937, "lng": 111.87411992327058}, "feature": {"sight_features": "", "sight_content": ""}}, {"title": "城隍庙商业步行城", "address": "湖南省津市市城隍庙商业步行城", "image": "", "rank": 13, "time": 2, "location": {"lat": 29.630376202252155, "lng": 111.88301160632417}, "feature": {"sight_features": "", "sight_content": ""}}]}