{"cityName": "金沙", "days": "", "cityImage": "", "spots": [{"title": "冷水河自然保护区", "address": "毕节市金沙县西北", "image": "", "rank": 1, "time": 2, "location": {"lat": 27.465354872613517, "lng": 106.22644163900851}, "feature": {"sight_features": "", "sight_content": ""}}, {"title": "金沙温泉度假中心", "address": "毕节市金沙县安底镇八寨村小龙井", "image": "", "rank": 2, "time": 2, "location": {"lat": 27.412438454550365, "lng": 106.39678318599385}, "feature": {"sight_features": "", "sight_content": ""}}, {"title": "敖家古墓石刻", "address": "贵州省毕节市金沙县", "image": "", "rank": 3, "time": 2, "location": {"lat": 27.465354872613517, "lng": 106.22644163900851}, "feature": {"sight_features": "", "sight_content": ""}}, {"title": "三丈水省级森林公园", "address": "贵州省毕节市金沙县", "image": "", "rank": 4, "time": 2, "location": {"lat": 27.465354872613517, "lng": 106.22644163900851}, "feature": {"sight_features": "", "sight_content": ""}}, {"title": "金沙桂花温泉", "address": "毕节市金沙县安底镇高石坎西北侧50米", "image": "", "rank": 5, "time": 2, "location": {"lat": 27.218418070851822, "lng": 106.41621085631952}, "feature": {"sight_features": "", "sight_content": "桂花温泉为贵州省内最好的硫磺矿泉，对人体风湿、关节炎、皮肤病等有很好的理疗效果。桂花温泉于2017年1月1日正式开业，目前桂花温泉主要服务项目有：休闲宾馆、足浴、中药池、洗浴桑拿、游泳池、水上乐园、情趣泡池、室内泡池等。"}}, {"title": "云莱院山庄", "address": "西洛街道群立村", "image": "", "rank": 6, "time": 2, "location": {"lat": 27.48809739937693, "lng": 106.20447978146711}, "feature": {"sight_features": "", "sight_content": ""}}, {"title": "山溪农家乐", "address": "龙坝乡新坝村中心组", "image": "", "rank": 7, "time": 2, "location": {"lat": 27.472315182954983, "lng": 106.28568175048913}, "feature": {"sight_features": "", "sight_content": ""}}, {"title": "德福休闲山庄", "address": "G56杭瑞高速附近", "image": "", "rank": 8, "time": 2, "location": {"lat": 29.523585591880604, "lng": 118.1931793201066}, "feature": {"sight_features": "", "sight_content": ""}}, {"title": "花漾啤酒广场", "address": "贵州省毕节市金沙县黎明路", "image": "", "rank": 9, "time": 2, "location": {"lat": 27.4701892289245, "lng": 106.24055312924314}, "feature": {"sight_features": "", "sight_content": ""}}, {"title": "金沙县杜鹃园", "address": "326国道附近", "image": "", "rank": 10, "time": 2, "location": {"lat": 28.504838334466942, "lng": 108.62811511625138}, "feature": {"sight_features": "", "sight_content": ""}}, {"title": "灵江寺", "address": "贵州省毕节市金沙县花滩路", "image": "", "rank": 11, "time": 2, "location": {"lat": 27.397661992952404, "lng": 106.6054060150878}, "feature": {"sight_features": "", "sight_content": ""}}, {"title": "平坝生态公园", "address": "贵州省毕节市金沙县740县道西50米", "image": "", "rank": 12, "time": 1.5, "location": {"lat": 27.465354872613517, "lng": 106.22644163900851}, "feature": {"sight_features": "", "sight_content": ""}}, {"title": "天主教堂", "address": "张家湾路附近", "image": "", "rank": 13, "time": 1.0, "location": {"lat": 27.92830809375604, "lng": 110.5897445397421}, "feature": {"sight_features": "", "sight_content": ""}}, {"title": "尚可水族馆", "address": "河滨路62号附近", "image": "", "rank": 14, "time": 2, "location": {"lat": 37.50007857249829, "lng": 121.27450850927474}, "feature": {"sight_features": "", "sight_content": ""}}, {"title": "三教寺", "address": "贵州省毕节市金沙县", "image": "", "rank": 15, "time": 7.5, "location": {"lat": 27.465354872613517, "lng": 106.22644163900851}, "feature": {"sight_features": "", "sight_content": ""}}, {"title": "民心广场", "address": "贵州省毕节市金沙县X023", "image": "", "rank": 16, "time": 2, "location": {"lat": 27.465354872613517, "lng": 106.22644163900851}, "feature": {"sight_features": "", "sight_content": ""}}, {"title": "金沙县星期六儿童成长主题乐园", "address": "贵州省毕节市金沙县河滨路224号", "image": "", "rank": 17, "time": 2, "location": {"lat": 27.467618924052605, "lng": 106.22945895738496}, "feature": {"sight_features": "", "sight_content": ""}}, {"title": "鼓韵广场", "address": "贵州省毕节市金沙县城治路1号", "image": "", "rank": 18, "time": 2, "location": {"lat": 27.465243316804376, "lng": 106.22856976967621}, "feature": {"sight_features": "", "sight_content": ""}}, {"title": "清凉一夏", "address": "永丰村", "image": "", "rank": 19, "time": 2, "location": {"lat": 31.297297852275175, "lng": 118.52551147957124}, "feature": {"sight_features": "", "sight_content": ""}}, {"title": "民间文化艺术影视工作站", "address": "326国道附近", "image": "", "rank": 20, "time": 2, "location": {"lat": 28.504838334466942, "lng": 108.62811511625138}, "feature": {"sight_features": "", "sight_content": ""}}, {"title": "冷水河峡谷景区漂流", "address": "平坝镇冷水河", "image": "", "rank": 21, "time": 2, "location": {"lat": 27.51757233191144, "lng": 106.0228635121992}, "feature": {"sight_features": "", "sight_content": ""}}, {"title": "毕节抗日司令部旧址", "address": "贵州省毕节市和平路74号", "image": "", "rank": 22, "time": 3.0, "location": {"lat": 27.46324975055106, "lng": 106.22683891462016}, "feature": {"sight_features": "", "sight_content": ""}}, {"title": "前普村", "address": "毕节市-金沙县", "image": "", "rank": 23, "time": 2, "location": {"lat": 27.465354872613517, "lng": 106.22644163900851}, "feature": {"sight_features": "", "sight_content": ""}}]}