{"cityName": "金塔", "days": 2, "cityImage": "", "spots": [{"title": "金塔胡杨林", "address": "酒泉市金塔县城以西约6公里", "image": "", "rank": 1, "time": 2, "location": {"lat": 39.99002925409325, "lng": 98.9083682361721}, "feature": {"sight_features": "", "sight_content": ""}}, {"title": "鸳鸯池水库", "address": "甘肃省酒泉市肃州区", "image": "", "rank": 2, "time": null, "location": {"lat": 39.75124550996345, "lng": 98.51432185303162}, "feature": {"sight_features": "", "sight_content": ""}}, {"title": "金鼎湖清泽溪风景区", "address": "城西南5公里处", "image": "", "rank": 3, "time": 2, "location": {"lat": 36.59828759801125, "lng": 101.77241422413312}, "feature": {"sight_features": "", "sight_content": ""}}, {"title": "生地湾农场", "address": "金塔镇", "image": "", "rank": 4, "time": 2, "location": {"lat": 39.99624441164037, "lng": 98.91012938388712}, "feature": {"sight_features": "", "sight_content": ""}}, {"title": "金塔乡农场", "address": "酒航路附近", "image": "", "rank": 5, "time": 2, "location": {"lat": 40.15058455900166, "lng": 99.02292619950227}, "feature": {"sight_features": "", "sight_content": ""}}, {"title": "居廷遗址", "address": "甘肃省金塔县境内 735300", "image": "", "rank": 6, "time": 2, "location": {"lat": 39.99002925409325, "lng": 98.9083682361721}, "feature": {"sight_features": "", "sight_content": ""}}, {"title": "柴墩子", "address": "酒泉市玉门市", "image": "", "rank": 7, "time": 2, "location": {"lat": 40.29762002088378, "lng": 97.05171169118218}, "feature": {"sight_features": "", "sight_content": ""}}, {"title": "二十里小墩", "address": "酒泉市金塔县", "image": "", "rank": 8, "time": 2, "location": {"lat": 39.99002925409325, "lng": 98.9083682361721}, "feature": {"sight_features": "", "sight_content": ""}}, {"title": "千手观音杨", "address": "酒泉市金塔县X258", "image": "", "rank": 9, "time": 2, "location": {"lat": 39.99002925409325, "lng": 98.9083682361721}, "feature": {"sight_features": "", "sight_content": ""}}, {"title": "金塔县金源国际度假村", "address": "甘肃省酒泉市金塔县新城胡扬大道1号", "image": "", "rank": 10, "time": 2, "location": {"lat": 39.99002925409325, "lng": 98.9083682361721}, "feature": {"sight_features": "", "sight_content": ""}}, {"title": "金塔县博物馆", "address": "金塔镇解放路251号", "image": "", "rank": 11, "time": 2, "location": {"lat": 39.98462137624995, "lng": 98.90777454606055}, "feature": {"sight_features": "", "sight_content": ""}}, {"title": "金塔县图书馆", "address": "文化街2号", "image": "", "rank": 12, "time": 2, "location": {"lat": 39.33163478873587, "lng": 115.88727550846833}, "feature": {"sight_features": "", "sight_content": ""}}, {"title": "蓝翼装饰玻璃家居生活艺术吧", "address": "解放路附近", "image": "", "rank": 13, "time": null, "location": {"lat": 38.31075478654948, "lng": 116.85852551801001}, "feature": {"sight_features": "", "sight_content": ""}}, {"title": "聚星乐生态园", "address": "东环路", "image": "", "rank": 14, "time": 2, "location": {"lat": 38.71201808028218, "lng": 117.07603604175296}, "feature": {"sight_features": "", "sight_content": ""}}, {"title": "金塔鸳鸯湖", "address": "甘肃省金塔县西南", "image": "", "rank": 15, "time": 2, "location": {"lat": 39.99002925409325, "lng": 98.9083682361721}, "feature": {"sight_features": "", "sight_content": ""}}, {"title": "金波湖", "address": "酒泉市金塔县金塔城以西约6公里中国金塔沙漠胡杨林景区内", "image": "", "rank": 16, "time": 2, "location": {"lat": 40.043046385819636, "lng": 98.82787325871215}, "feature": {"sight_features": "", "sight_content": ""}}, {"title": "金鼎湖景区", "address": "甘肃省酒泉市金塔县金鼎湖旅游风景区", "image": "", "rank": 17, "time": 2, "location": {"lat": 39.942723780936085, "lng": 98.89034911426948}, "feature": {"sight_features": "", "sight_content": ""}}, {"title": "金塔沙漠森林公园", "address": "甘肃省酒泉市金塔县", "image": "", "rank": 18, "time": 2.5, "location": {"lat": 39.99002925409325, "lng": 98.9083682361721}, "feature": {"sight_features": "", "sight_content": ""}}]}