{"cityName": "金堂", "days": 2, "cityImage": "", "spots": [{"title": "金堂云顶山风景区", "address": "成都市金堂县境内龙泉山脉中段", "image": "", "rank": 1, "time": 3.0, "location": {"lat": 30.868358423946407, "lng": 104.41844263261966}, "feature": {"sight_features": "特色1 不错的登山休闲之地，非常的清幽，山上还有千年古寺可以祈福。", "sight_content": "金堂云顶山风景区，由大云顶山、小云顶山、沱江金堂小三峡、三学寺、炮台山等组成。山上的的慈云寺历史悠久，现存的建筑是清代重建的。大云顶山，又称“石城山”，山中有宋代的城堡遗址，还有唐代的摩岩石刻。小云顶山距离大云顶山大约2.5公里，山中草木茂盛，在山顶上，还能看到金堂小三峡。"}}, {"title": "五凤溪古镇", "address": "成都市金堂县小凤街五凤溪古镇景区", "image": "", "rank": 2, "time": 3.0, "location": {"lat": 30.61510641153672, "lng": 104.48934301194458}, "feature": {"sight_features": "特色1 历史悠久的古镇，镇内的清代民居丰富且独具特色。", "sight_content": "五凤溪古镇位于成都金堂县，是一个历史悠久的古镇，这里的商业气息并不是很重，可以细细品味古镇的魅力。古镇内分布着一些明清时期的建筑，值得慢慢观赏。你还可以去镇上的观音殿祈福，或者去镇上的教堂，感受一下西式风情。"}}, {"title": "云顶石城", "address": "成都市金堂县淮口镇", "image": "", "rank": 3, "time": 2.0, "location": {"lat": 30.746740449481152, "lng": 104.53049519583162}, "feature": {"sight_features": "", "sight_content": ""}}, {"title": "三学寺", "address": "成都市金堂县", "image": "", "rank": 4, "time": 2.5, "location": {"lat": 30.868358423946407, "lng": 104.41844263261966}, "feature": {"sight_features": "", "sight_content": ""}}, {"title": "梨花沟风景区", "address": "成都市金堂县栖贤乡集三路附近", "image": "", "rank": 5, "time": 2, "location": {"lat": 30.91516735269383, "lng": 104.50137753540409}, "feature": {"sight_features": "", "sight_content": ""}}, {"title": "三溪白庙村", "address": "成都市金堂县三溪镇白庙村", "image": "", "rank": 6, "time": 2.5, "location": {"lat": 30.733449340746606, "lng": 104.63197218793573}, "feature": {"sight_features": "", "sight_content": ""}}, {"title": "金堂芍药园", "address": "成都市金堂县广兴镇宝塔村21组", "image": "", "rank": 7, "time": 3.0, "location": {"lat": 30.604692525476757, "lng": 104.76805691993064}, "feature": {"sight_features": "", "sight_content": ""}}, {"title": "成都乐翻天", "address": "成都市金堂县赵镇石子岭村", "image": "", "rank": 8, "time": 2.5, "location": {"lat": 30.8314425507791, "lng": 104.43558643395538}, "feature": {"sight_features": "特色1 农业观光体验为特色的农业风情园", "sight_content": "成都乐翻天风情园，坐落于成都金堂县赵镇石子岭村，是一个以农业观光体验为特色的农业风情园。\n\n\n园区目前由农耕年华、浪漫花海、滑草场、闯关酷地带、游乐园、农家餐饮等几大功能区组成，设施齐全，景色宜人，是大家旅游观光、体验乡村生活、休闲度假以及拓展培训的好去处。"}}, {"title": "花田广兴宝塔浪漫樱花园", "address": "成都市金堂县广兴镇宝塔村宝塔樱花园", "image": "", "rank": 9, "time": 2, "location": {"lat": 30.604692525476757, "lng": 104.76805691993064}, "feature": {"sight_features": "", "sight_content": ""}}, {"title": "三溪镇", "address": "四川省成都金堂县三溪镇", "image": "", "rank": 10, "time": 2, "location": {"lat": 30.7581402691869, "lng": 104.62579270390884}, "feature": {"sight_features": "", "sight_content": ""}}, {"title": "云顶山有机农场", "address": "淮口镇团结村", "image": "", "rank": 11, "time": 2, "location": {"lat": 30.710700778869747, "lng": 104.53086640980396}, "feature": {"sight_features": "", "sight_content": ""}}, {"title": "广兴花田", "address": "竹篙镇广兴芍药花田", "image": "", "rank": 12, "time": 2, "location": {"lat": 30.632914426588716, "lng": 104.7390024166686}, "feature": {"sight_features": "", "sight_content": ""}}, {"title": "九龙镇", "address": "四川省成都金堂县九龙镇", "image": "", "rank": 13, "time": 2, "location": {"lat": 30.723783051137538, "lng": 104.56057728693604}, "feature": {"sight_features": "", "sight_content": ""}}, {"title": "金龙镇高粱村图书室", "address": "兴石路", "image": "", "rank": 14, "time": 2, "location": {"lat": 31.634704447048197, "lng": 118.91987250409795}, "feature": {"sight_features": "", "sight_content": ""}}, {"title": "官仓镇红旗村阅览室", "address": "中孚街", "image": "", "rank": 15, "time": 2, "location": {"lat": 30.927985316241013, "lng": 104.4288368430315}, "feature": {"sight_features": "", "sight_content": ""}}, {"title": "明月村图书室", "address": "真武路", "image": "", "rank": 16, "time": 2, "location": {"lat": 38.27639994563623, "lng": 114.69994980533748}, "feature": {"sight_features": "", "sight_content": ""}}, {"title": "向前村图书室", "address": "101省道", "image": "", "rank": 17, "time": 2, "location": {"lat": 41.03241923348195, "lng": 111.82384508727836}, "feature": {"sight_features": "", "sight_content": ""}}, {"title": "金堂县规划建设展览馆", "address": "金沙街", "image": "", "rank": 18, "time": 2, "location": {"lat": 26.92726474857836, "lng": 120.22472253192365}, "feature": {"sight_features": "", "sight_content": ""}}, {"title": "中国农民工博物馆", "address": "金沙街96号附近", "image": "", "rank": 19, "time": 2, "location": {"lat": 30.86423074457985, "lng": 104.41147501576205}, "feature": {"sight_features": "", "sight_content": ""}}, {"title": "银杏生态园", "address": "金乐路", "image": "", "rank": 20, "time": 2, "location": {"lat": 22.606096835738253, "lng": 113.06091671180987}, "feature": {"sight_features": "", "sight_content": ""}}, {"title": "金堂县档案馆", "address": "十里大道二段", "image": "", "rank": 21, "time": 2, "location": {"lat": 30.87049735267491, "lng": 104.40482602786885}, "feature": {"sight_features": "", "sight_content": ""}}, {"title": "土桥镇高山村图书室", "address": "050乡道", "image": "", "rank": 22, "time": 2, "location": {"lat": 29.530191510088745, "lng": 120.15491506164761}, "feature": {"sight_features": "", "sight_content": ""}}, {"title": "鑫涛城市温泉", "address": "滨江路2段-172", "image": "", "rank": 23, "time": 2, "location": {"lat": 30.86486204031914, "lng": 104.41240754761027}, "feature": {"sight_features": "", "sight_content": ""}}, {"title": "美茵庄园", "address": "赵镇中河二桥桥头(金堂中学新校区对面)", "image": "", "rank": 24, "time": 2, "location": {"lat": 30.87147583461084, "lng": 104.42606034059854}, "feature": {"sight_features": "", "sight_content": ""}}, {"title": "金堂梨花沟温泉度假村", "address": "梨花沟3组", "image": "", "rank": 25, "time": 3.0, "location": {"lat": 38.735955434795905, "lng": 114.17048849014628}, "feature": {"sight_features": "", "sight_content": ""}}, {"title": "成都凉金堂凉水井", "address": "四川省金堂县先锋村 611946", "image": "", "rank": 26, "time": 2.5, "location": {"lat": 30.871862757220203, "lng": 104.4027477774105}, "feature": {"sight_features": "", "sight_content": ""}}, {"title": "张家祠堂", "address": "成都市金堂县环城路", "image": "", "rank": 27, "time": 2, "location": {"lat": 30.868358423946407, "lng": 104.41844263261966}, "feature": {"sight_features": "", "sight_content": ""}}, {"title": "凉水井休闲山庄", "address": "十里大道二段860号", "image": "", "rank": 28, "time": 2, "location": {"lat": 30.872039455676664, "lng": 104.40156409281627}, "feature": {"sight_features": "", "sight_content": ""}}, {"title": "龙王山汉代崖墓群", "address": "四川省金堂县白果镇石燕村龙王山 620800", "image": "", "rank": 29, "time": 2, "location": {"lat": 30.694558980536005, "lng": 104.55059306405725}, "feature": {"sight_features": "", "sight_content": ""}}, {"title": "清代岳钟琪墓", "address": "四川省金堂县栖贤乡岳公村 610400", "image": "", "rank": 30, "time": 2, "location": {"lat": 30.872424295931214, "lng": 104.47196787538071}, "feature": {"sight_features": "", "sight_content": ""}}, {"title": "双拥公园", "address": "四川省成都市金堂县金凤路", "image": "", "rank": 31, "time": 2, "location": {"lat": 30.857234618856985, "lng": 104.40121085663212}, "feature": {"sight_features": "", "sight_content": ""}}, {"title": "泰迪熊魔法乐园", "address": "兰天城市广场3楼", "image": "", "rank": 32, "time": 2, "location": {"lat": 34.58291138713175, "lng": 105.72878458476255}, "feature": {"sight_features": "", "sight_content": ""}}, {"title": "张家祠堂", "address": "成都市青白江区", "image": "", "rank": 33, "time": null, "location": {"lat": 30.884421372736316, "lng": 104.25751245813483}, "feature": {"sight_features": "", "sight_content": ""}}, {"title": "米诺具公园", "address": "四川省成都市金堂县文化街111号", "image": "", "rank": 34, "time": 2, "location": {"lat": 30.859953543508862, "lng": 104.44275284582233}, "feature": {"sight_features": "", "sight_content": ""}}, {"title": "云鹤公园", "address": "云桥街与南华街交叉口西200米", "image": "", "rank": 35, "time": 2, "location": {"lat": 30.516703673592794, "lng": 104.76086283306753}, "feature": {"sight_features": "", "sight_content": ""}}, {"title": "湿地公园(淮口巴德小镇)", "address": "吉林东路与蓉州街交叉口西北150米", "image": "", "rank": 36, "time": 2, "location": {"lat": 30.700906429747818, "lng": 104.60845570131218}, "feature": {"sight_features": "", "sight_content": ""}}, {"title": "叶家祠堂", "address": "成都市金堂县广松路", "image": "", "rank": 37, "time": 2, "location": {"lat": 30.868358423946407, "lng": 104.41844263261966}, "feature": {"sight_features": "", "sight_content": ""}}, {"title": "五凤镇如意湾生活文化创意园", "address": "五凤镇烈士寺旁", "image": "", "rank": 38, "time": 2, "location": {"lat": 30.62556111600767, "lng": 104.52009937835122}, "feature": {"sight_features": "", "sight_content": ""}}, {"title": "成野假日山庄", "address": "十里大道二段附近", "image": "", "rank": 39, "time": 2, "location": {"lat": 30.87049735267491, "lng": 104.40482602786885}, "feature": {"sight_features": "", "sight_content": ""}}, {"title": "圆觉寺村", "address": "四川省成都市金堂县兴石路", "image": "", "rank": 40, "time": 2, "location": {"lat": 30.82417798779712, "lng": 104.66999202722138}, "feature": {"sight_features": "", "sight_content": ""}}, {"title": "兄弟啤酒广场", "address": "成都近郊观潮路", "image": "", "rank": 41, "time": 2, "location": {"lat": 30.853809107264496, "lng": 104.4442841234455}, "feature": {"sight_features": "", "sight_content": ""}}, {"title": "景阳岗啤酒广场", "address": "赵镇温州商业城56号(城邦耗儿鱼旁)", "image": "", "rank": 42, "time": 2, "location": {"lat": 30.857727346809327, "lng": 104.44057053565369}, "feature": {"sight_features": "", "sight_content": ""}}, {"title": "卓恒广场", "address": "金堂赵镇泰吉街178号", "image": "", "rank": 43, "time": 2, "location": {"lat": 30.868358423946407, "lng": 104.41844263261966}, "feature": {"sight_features": "", "sight_content": ""}}, {"title": "贝咔啦儿童城堡游乐园", "address": "四川省成都市金堂县永安街二段", "image": "", "rank": 44, "time": 2, "location": {"lat": 30.865288900943877, "lng": 104.41460185015748}, "feature": {"sight_features": "", "sight_content": ""}}, {"title": "佳博儿童游乐中心", "address": "古城街276号附近", "image": "", "rank": 45, "time": 2, "location": {"lat": 30.854706577252415, "lng": 104.44050663289462}, "feature": {"sight_features": "", "sight_content": ""}}, {"title": "清心儿童乐园", "address": "四川省成都市金堂县金泉路", "image": "", "rank": 46, "time": 2, "location": {"lat": 30.855552977916005, "lng": 104.41512573654106}, "feature": {"sight_features": "", "sight_content": ""}}, {"title": "文武宫", "address": "四川省成都市金堂县白果镇莲花街文武宫", "image": "", "rank": 47, "time": 2, "location": {"lat": 30.670037931766185, "lng": 104.55231043644648}, "feature": {"sight_features": "", "sight_content": ""}}, {"title": "何氏故居", "address": "四川省成都市金堂县顺江街169附近", "image": "", "rank": 48, "time": 2, "location": {"lat": 30.672622171799784, "lng": 104.54773176785926}, "feature": {"sight_features": "", "sight_content": ""}}, {"title": "仙女坟", "address": "成都市金堂县金乐路", "image": "", "rank": 49, "time": 2, "location": {"lat": 30.58250922417375, "lng": 104.78443796736292}, "feature": {"sight_features": "", "sight_content": ""}}, {"title": "高家祠堂", "address": "成都市金堂县零五五县道", "image": "", "rank": 50, "time": 2, "location": {"lat": 30.82163187598017, "lng": 104.58494384994506}, "feature": {"sight_features": "", "sight_content": ""}}, {"title": "彩虹城儿童乐园", "address": "四川省成都市金堂县书院街387号", "image": "", "rank": 51, "time": 2, "location": {"lat": 30.718733903949403, "lng": 104.56635815687594}, "feature": {"sight_features": "", "sight_content": ""}}, {"title": "室内儿童游乐园", "address": "滨江路83-85号附近", "image": "", "rank": 52, "time": 2, "location": {"lat": 29.72938812870887, "lng": 115.98785062775983}, "feature": {"sight_features": "", "sight_content": ""}}, {"title": "悦贝贝游乐园", "address": "四川省成都市金堂县现代大道", "image": "", "rank": 53, "time": 2, "location": {"lat": 30.714337791790935, "lng": 104.55334392705436}, "feature": {"sight_features": "", "sight_content": ""}}, {"title": "七堆瓦天主教教堂", "address": "四川省成都市金堂县高板镇天堂村五组", "image": "", "rank": 54, "time": 2, "location": {"lat": 30.727412203517545, "lng": 104.64430949784366}, "feature": {"sight_features": "", "sight_content": ""}}, {"title": "古真多治道观", "address": "城南路金山森林公园北门", "image": "", "rank": 55, "time": 2, "location": {"lat": 39.74693950339387, "lng": 118.45383095514819}, "feature": {"sight_features": "", "sight_content": ""}}, {"title": "欢乐时光游乐园", "address": "四川省成都市金堂县迎宾大道一段", "image": "", "rank": 56, "time": null, "location": {"lat": 30.866089981642833, "lng": 104.4168562700043}, "feature": {"sight_features": "", "sight_content": ""}}, {"title": "小广场", "address": "四川省成都市金堂县金龙路现代阳光园(现代生态水城附近)", "image": "", "rank": 57, "time": 1.5, "location": {"lat": 30.85638851684355, "lng": 104.43496941305312}, "feature": {"sight_features": "", "sight_content": ""}}, {"title": "白果镇生育文化茶园", "address": "清明街77-79", "image": "", "rank": 58, "time": 2, "location": {"lat": 30.67550811966928, "lng": 104.58764350593486}, "feature": {"sight_features": "", "sight_content": ""}}, {"title": "金堂县基督教会", "address": "温州商业城28栋二楼", "image": "", "rank": 59, "time": 2, "location": {"lat": 40.665991170238016, "lng": 109.83389734190408}, "feature": {"sight_features": "", "sight_content": ""}}, {"title": "驼峰金堂机场空中游览", "address": "成都市金堂县白果镇", "image": "", "rank": 60, "time": 2, "location": {"lat": 30.672394410257024, "lng": 104.54786382417208}, "feature": {"sight_features": "", "sight_content": ""}}]}