{"cityName": "金乡", "days": null, "cityImage": "", "spots": [{"title": "羊山古镇军事旅游区", "address": "济宁市金乡县西北部羊山镇驻地", "image": "", "rank": 1, "time": 3.0, "location": {"lat": 35.161526408295174, "lng": 116.26392313140663}, "feature": {"sight_features": "特色1 远近闻名的红色旅游景区 特色2 以军事题材为主题，以奇石、水韵、古镇为景观基底 特色3 设战争军事、主题文化、古镇民俗、体育拓展和田园休闲五条主线", "sight_content": "羊山古镇国际军事旅游度假区地处鲁西南革命老区，充分利用羊山悠久的历史文化、地质资源，以军事题材为主题，以奇石、水韵、古镇为景观基底，以军事旅游、古镇文化体验为主题，辅以田园观光、红色文化、体育拓展等活动，是一个满足大众体验观光和休闲需求的军事旅游度假区。\n\n\n主要规划建设主题文化纪念区、古镇文化体验区、战役模拟区、拓展运动区、地质公园区、农业生态休闲区六大功能分区，内设战争军事、主题文化、古镇民俗、体育拓展和田园休闲五条主体游线。"}}, {"title": "羊山景区四季滑雪场", "address": "济宁市金乡县羊山地质公园内", "image": "", "rank": 2, "time": 2, "location": {"lat": 35.072569118665015, "lng": 116.31852982171351}, "feature": {"sight_features": "", "sight_content": ""}}, {"title": "王杰纪念馆", "address": "济宁市金乡县城北华堌村(今王杰村)东面", "image": "", "rank": 3, "time": 2, "location": {"lat": 35.109399390718984, "lng": 116.31426443538932}, "feature": {"sight_features": "", "sight_content": ""}}, {"title": "金乡县金平湖公园", "address": "济宁市金乡县胡庄村东北侧600米", "image": "", "rank": 4, "time": 2, "location": {"lat": 35.081735615248604, "lng": 116.38858194821317}, "feature": {"sight_features": "", "sight_content": ""}}, {"title": "羊山马术俱乐部", "address": "平章路041县", "image": "", "rank": 5, "time": 2, "location": {"lat": 30.504445781070086, "lng": 120.17183162823119}, "feature": {"sight_features": "", "sight_content": ""}}, {"title": "铂林商务宾馆有限公司", "address": "文峰路153号", "image": "", "rank": 6, "time": 2, "location": {"lat": 32.898835722319696, "lng": 115.83987611460708}, "feature": {"sight_features": "", "sight_content": ""}}, {"title": "新贵族养生庄园", "address": "奎星路68附近", "image": "", "rank": 7, "time": 2, "location": {"lat": 30.105525134102187, "lng": 105.34593893946655}, "feature": {"sight_features": "", "sight_content": ""}}, {"title": "太阳部落", "address": "中心街90号", "image": "", "rank": 8, "time": 3.0, "location": {"lat": 35.08806163264383, "lng": 111.04310876220855}, "feature": {"sight_features": "", "sight_content": ""}}, {"title": "四季行游乐园", "address": "平章线", "image": "", "rank": 9, "time": 2, "location": {"lat": 35.17576312078079, "lng": 116.2456471183824}, "feature": {"sight_features": "", "sight_content": ""}}, {"title": "绿色农场", "address": "金乡街道金山街北50米中行对过", "image": "", "rank": 10, "time": 2, "location": {"lat": 35.07625711140276, "lng": 116.31752455406816}, "feature": {"sight_features": "", "sight_content": ""}}, {"title": "绘本儿童图画书借阅馆", "address": "中心街附近", "image": "", "rank": 11, "time": 2, "location": {"lat": 40.1070240234082, "lng": 116.50201480006159}, "feature": {"sight_features": "", "sight_content": ""}}, {"title": "金马湖文化广场", "address": "奎星路与缗城路交叉口东北100米", "image": "", "rank": 12, "time": 2, "location": {"lat": 35.0594640152699, "lng": 116.32183478560002}, "feature": {"sight_features": "", "sight_content": ""}}, {"title": "老剧院烧烤", "address": "山东省济宁市金乡县鸡黍镇府前街中国农业银行东北100米", "image": "", "rank": 13, "time": 2, "location": {"lat": 34.96320008176041, "lng": 116.20303236736234}, "feature": {"sight_features": "", "sight_content": ""}}, {"title": "紫金广场", "address": "山东省济宁市金乡县奎星路临湖丽舍(诚信购物中心东)", "image": "", "rank": 14, "time": 2, "location": {"lat": 35.07412694331745, "lng": 116.32443135564272}, "feature": {"sight_features": "", "sight_content": ""}}, {"title": "恒翔航空飞行俱乐部", "address": "山东省济宁市金乡县缗城路", "image": "", "rank": 15, "time": 2, "location": {"lat": 35.05976662457791, "lng": 116.31690478794425}, "feature": {"sight_features": "", "sight_content": ""}}, {"title": "清荷园度假村", "address": "山东省济宁市金乡县S346", "image": "", "rank": 16, "time": 2, "location": {"lat": 35.072569118665015, "lng": 116.31852982171351}, "feature": {"sight_features": "", "sight_content": ""}}, {"title": "小鬼当家儿童职业体验城", "address": "体委淘宝女人街2楼", "image": "", "rank": 17, "time": 2, "location": {"lat": 30.4273478370996, "lng": 112.90510885147371}, "feature": {"sight_features": "", "sight_content": ""}}, {"title": "金乡悦悦象儿童乐园", "address": "金乡县其他中心街客都购物广场三楼", "image": "", "rank": 18, "time": 2, "location": {"lat": 35.069297788596984, "lng": 116.32490251867932}, "feature": {"sight_features": "", "sight_content": ""}}, {"title": "宝宝乐儿童游乐园", "address": "中心街与枣曹路交叉口东150米", "image": "", "rank": 19, "time": 2, "location": {"lat": 40.1070240234082, "lng": 116.50201480006159}, "feature": {"sight_features": "", "sight_content": ""}}, {"title": "欢乐谷儿童乐园", "address": "山东省济宁市金乡县S348", "image": "", "rank": 20, "time": 2, "location": {"lat": 35.072569118665015, "lng": 116.31852982171351}, "feature": {"sight_features": "", "sight_content": ""}}, {"title": "摇摇车", "address": "济宁市金乡县文峰东路23号诚信购物中心F3", "image": "", "rank": 21, "time": 2, "location": {"lat": 35.07601645599539, "lng": 116.32223200821177}, "feature": {"sight_features": "", "sight_content": ""}}, {"title": "金乡羊山省级地质公园", "address": "山东省济宁市金乡县平章线羊山古镇国际军事旅游度假区", "image": "", "rank": 22, "time": 2, "location": {"lat": 35.17576312078079, "lng": 116.2456471183824}, "feature": {"sight_features": "", "sight_content": ""}}, {"title": "佛缘殿", "address": "036县道附近", "image": "", "rank": 23, "time": 2, "location": {"lat": 45.86033063587241, "lng": 128.87654583799372}, "feature": {"sight_features": "", "sight_content": ""}}, {"title": "清真街", "address": "山东省济宁市金乡县", "image": "", "rank": 24, "time": 2, "location": {"lat": 35.072569118665015, "lng": 116.31852982171351}, "feature": {"sight_features": "", "sight_content": ""}}, {"title": "得益乳业订奶点", "address": "向阳路机关幼儿园南20米路西", "image": "", "rank": 25, "time": 2, "location": {"lat": 34.30348212172453, "lng": 119.25734760367953}, "feature": {"sight_features": "", "sight_content": ""}}, {"title": "鲁西南战役纪念馆", "address": "山东省济宁市金乡县平章线羊山古镇国际军事旅游度假区", "image": "", "rank": 26, "time": null, "location": {"lat": 35.17576312078079, "lng": 116.2456471183824}, "feature": {"sight_features": "", "sight_content": ""}}, {"title": "老梨园农家菜馆", "address": "金水湖公园南门向西300米路南(凌通驾校南邻)", "image": "", "rank": 27, "time": null, "location": {"lat": 36.1017677094384, "lng": 115.80082967292022}, "feature": {"sight_features": "", "sight_content": ""}}, {"title": "深蓝星剧场", "address": "金城东路与金山街交叉口东南20米", "image": "", "rank": 28, "time": 2, "location": {"lat": 35.065089646177114, "lng": 116.32124948656023}, "feature": {"sight_features": "", "sight_content": ""}}, {"title": "京信有机大蒜种植专业合作社", "address": "035县道与346省道交叉口东南100米", "image": "", "rank": 29, "time": 2, "location": {"lat": 23.494386671660774, "lng": 116.51093198121578}, "feature": {"sight_features": "", "sight_content": ""}}, {"title": "休闲1+1书吧", "address": "文峰路112号附近", "image": "", "rank": 30, "time": 2, "location": {"lat": 32.89858309734334, "lng": 115.83653187949858}, "feature": {"sight_features": "", "sight_content": ""}}, {"title": "金乡县图书馆", "address": "中心街", "image": "", "rank": 31, "time": 2, "location": {"lat": 40.1070240234082, "lng": 116.50201480006159}, "feature": {"sight_features": "", "sight_content": ""}}, {"title": "彭井浪威采摘园", "address": "金司路", "image": "", "rank": 32, "time": 2, "location": {"lat": 34.99196483334797, "lng": 116.309909232887}, "feature": {"sight_features": "", "sight_content": ""}}, {"title": "金乡剧院", "address": "中心街附近", "image": "", "rank": 33, "time": 2.0, "location": {"lat": 40.1070240234082, "lng": 116.50201480006159}, "feature": {"sight_features": "", "sight_content": ""}}, {"title": "京信合作社", "address": "卜集镇政府南58米路东", "image": "", "rank": 34, "time": 2, "location": {"lat": 30.20478603715017, "lng": 120.2265286943605}, "feature": {"sight_features": "", "sight_content": ""}}, {"title": "鑫源商业广场", "address": "山东省金乡县中心街", "image": "", "rank": 35, "time": 2, "location": {"lat": 35.069297788596984, "lng": 116.32490251867932}, "feature": {"sight_features": "", "sight_content": ""}}, {"title": "金海花园商业步行街", "address": "山东省金乡县金海花园商业步行街", "image": "", "rank": 36, "time": 2, "location": {"lat": 35.0679760840209, "lng": 116.3178388900305}, "feature": {"sight_features": "", "sight_content": ""}}, {"title": "大地影院(济宁金乡贵和购物广场)", "address": "济宁市-金乡县-中心街贵和购物中心5F", "image": "", "rank": 37, "time": 2, "location": {"lat": 35.069297788596984, "lng": 116.32490251867932}, "feature": {"sight_features": "", "sight_content": ""}}]}