{"cityName": "进贤", "days": 2, "cityImage": "", "spots": [{"title": "西湖李家", "address": "南昌市进贤县前坊镇太平村委会西湖李家", "image": "", "rank": 1, "time": 2.5, "location": {"lat": 28.505268987064483, "lng": 116.21312134413569}, "feature": {"sight_features": "特色1 “马头墙，红石路，碧绿水，满村树”", "sight_content": "西湖李家是一座具有600多年历史的古村庄，位于青岚湖和军山湖之间。全村山水相济，树木苍翠，田园秀美，乡 风古朴，民俗浓郁，具有得天独厚的自然生态优势。自2006年以来，积极相应党中央的号召，打造社会主义新农村。按照“传承华夏文化，恢复古村精华，重墨青山绿水，美我故乡天下”的 宗旨，围绕“古村神韵，田园稻香，塘中莲藕，山间鹭翔，农家饭菜，湖边泳场”的建设思路，突出了“马头墙，红石路，碧绿水，满村树”的特色，按照先村庄，后田庄，先村容，后文化 的做法，进行大量卓有成效的建设。\n建设中，本着“村容整洁，不乱不脏，南北通路，拆除违章，搞活水系，绿化村庄”的要求，清理卫生死角，拆除 乱搭乱建；硬化道路广场，绿化山间路旁；复活东西两水，整理村容田庄。从而在村容村貌、生态环境、文明乡风等方面得到明显的提升，实现了道路硬化、村庄绿化、水面净化、民宅美化 ，先后建成了陇西堂、古戏台、古门头、乡心亭、万家桥、俊明泳场、农博馆、油榨坊、会议室、陇西亭、沙凼农舍、楹联墙、楹联馆、农夫草堂、游泳场、游艇码头等一批旅游景点，显著 的改善了当地的生态环境和人居环境。良好的生态吸引了大量野生禽类，夏天的白鹭满山，冬天的天鹅栖息，形成了人与自然相和谐的动人景象。\n同时，李家优美的自然风光，浓郁的民俗文化，也吸引了大批热情的游客前来参观、游玩，已经成为了乡村旅游的 胜地，初步达到了中国最具特色的乡村之一，并总结出西湖李家九大看点：一看古村神韵，二看田园风光，三看乌岗积翠，四看鹭鸟天堂，五看青岚荡漾，六看沙滩泳场，七看农博馆场，八 看翰墨飘香，九看农夫模样。目前在建设过程中取得一定的成效，休闲农业、生态旅游、乡风文明等亮点频出，慕名前来观光休闲旅游的人数逐年增多。先后被评为南昌市十佳旅游景观村、 十佳乡村旅馆，江西省乡村旅游示范点，江西省省级生态村，全国休闲农业与乡村旅游四星级园区，全国休闲农业与乡村旅游示范点，中国幸福村等荣誉称号；中央电视 台新闻综合频道、中央4台国际频道、中央7台农业频道、中央五台体育频道先后播报我村在社会主义新农村建设中带来的巨大变化，并成功举办了第三届中国新农村电视艺术节暨小康电视工 程颁奖典礼和中国（南昌）第四届国际楹联文化艺术节暨中国（西湖李家）首届农村楹联文化艺术节。"}}, {"title": "李渡烧酒作坊遗址", "address": "南昌市进贤县李渡镇江西李渡酒业有限公司内", "image": "", "rank": 2, "time": 1.0, "location": {"lat": 28.229770790060847, "lng": 116.17471144713573}, "feature": {"sight_features": "", "sight_content": ""}}, {"title": "陈家湖", "address": "南昌市进贤县陈家湖", "image": "", "rank": 3, "time": 1.0, "location": {"lat": 28.672806150095354, "lng": 116.39607369462884}, "feature": {"sight_features": "", "sight_content": ""}}, {"title": "青岚湖森林公园", "address": "江西省南昌市进贤县近水胡家", "image": "", "rank": 4, "time": 2, "location": {"lat": 28.40579298491975, "lng": 116.24963324735647}, "feature": {"sight_features": "", "sight_content": ""}}, {"title": "云水间生态农业旅游景区", "address": "昌万公路加油站对面", "image": "", "rank": 5, "time": 2, "location": {"lat": 24.09701218694945, "lng": 108.252842276359}, "feature": {"sight_features": "", "sight_content": ""}}, {"title": "世外小桃园", "address": "军山湖生态区湖边", "image": "", "rank": 6, "time": 2, "location": {"lat": 28.483779088472268, "lng": 116.34941220755604}, "feature": {"sight_features": "", "sight_content": ""}}, {"title": "陈氏牌坊", "address": "江西省进贤县七里乡罗源陈家村 331713", "image": "", "rank": 7, "time": 2, "location": {"lat": 28.331719516673626, "lng": 116.3780388595722}, "feature": {"sight_features": "", "sight_content": ""}}, {"title": "中国毛笔文化博物馆", "address": "古城路与晏殊大道交叉口南100米", "image": "", "rank": 8, "time": 2, "location": {"lat": 28.00331175032601, "lng": 116.35259779113075}, "feature": {"sight_features": "", "sight_content": ""}}, {"title": "九龙湾公园", "address": "北际大道附近", "image": "", "rank": 9, "time": 2, "location": {"lat": 28.265379594378345, "lng": 116.26187189995943}, "feature": {"sight_features": "", "sight_content": ""}}, {"title": "喜洋洋卡奇乐儿童乐园", "address": "南昌市进贤县云桥北路", "image": "", "rank": 10, "time": 2, "location": {"lat": 28.38107957490814, "lng": 116.25641535154774}, "feature": {"sight_features": "", "sight_content": ""}}, {"title": "章氏祠堂", "address": "祥云路与进贤大道交叉口北100米", "image": "", "rank": 11, "time": 2, "location": {"lat": 28.37570200482109, "lng": 116.26405787970536}, "feature": {"sight_features": "", "sight_content": ""}}, {"title": "生活驿站水上公园加盟店", "address": "民和镇碧水茗苑4栋", "image": "", "rank": 12, "time": 2, "location": {"lat": 28.37007402646594, "lng": 116.28067435414191}, "feature": {"sight_features": "", "sight_content": ""}}, {"title": "民俗广场", "address": "江西省南昌市进贤县X073(罗溪大道)", "image": "", "rank": 13, "time": 2, "location": {"lat": 28.42140363501164, "lng": 116.16699594692665}, "feature": {"sight_features": "", "sight_content": ""}}, {"title": "腾飞公园", "address": "江西省南昌市进贤县中山大道", "image": "", "rank": 14, "time": 2, "location": {"lat": 28.38078154574727, "lng": 116.25101936689354}, "feature": {"sight_features": "", "sight_content": ""}}, {"title": "钟陵公园", "address": "人民大道与滨湖大道交叉口东北50米", "image": "", "rank": 15, "time": 2, "location": {"lat": 28.38349210588741, "lng": 116.27149301696824}, "feature": {"sight_features": "", "sight_content": ""}}, {"title": "岩石园", "address": "江西省南昌市进贤县民和镇北一路半岛豪园西150米", "image": "", "rank": 16, "time": 2, "location": {"lat": 28.400181320657577, "lng": 116.25457578625382}, "feature": {"sight_features": "", "sight_content": ""}}, {"title": "幸福baby儿童乐园", "address": "江西省南昌市进贤县民和镇云桥北路新贤城小区", "image": "", "rank": 17, "time": 2, "location": {"lat": 28.38350343929463, "lng": 116.2538849596728}, "feature": {"sight_features": "", "sight_content": ""}}, {"title": "架桥影剧院", "address": "028县道附近", "image": "", "rank": 18, "time": 2, "location": {"lat": 31.284814956884386, "lng": 118.49953017108598}, "feature": {"sight_features": "", "sight_content": ""}}, {"title": "永桥农场", "address": "零六九县道(永桥农场)", "image": "", "rank": 19, "time": 2, "location": {"lat": 28.39455077130518, "lng": 116.5069572173864}, "feature": {"sight_features": "", "sight_content": ""}}, {"title": "中洲岛", "address": "江西省进贤县李渡镇 331725", "image": "", "rank": 20, "time": 2.0, "location": {"lat": 28.230976739917523, "lng": 116.18162815162795}, "feature": {"sight_features": "", "sight_content": ""}}, {"title": "爱乐堡儿童主题乐园", "address": "太阳城步行街内", "image": "", "rank": 21, "time": 2, "location": {"lat": 28.376140579379463, "lng": 116.27313466310073}, "feature": {"sight_features": "", "sight_content": ""}}, {"title": "天主教江西教区善导圣母修会", "address": "江西省南昌市进贤县架桥荣华汗城路天主堂", "image": "", "rank": 22, "time": 2, "location": {"lat": 28.447745929792056, "lng": 116.08007765121752}, "feature": {"sight_features": "", "sight_content": ""}}, {"title": "弘洲游乐园", "address": "进贤大道1129号附近", "image": "", "rank": 23, "time": 2, "location": {"lat": 23.54065165083885, "lng": 116.36613037556612}, "feature": {"sight_features": "", "sight_content": ""}}, {"title": "大社宫庙戏台", "address": "大社宫附近", "image": "", "rank": 24, "time": 2, "location": {"lat": 28.338514093950987, "lng": 116.14890013579033}, "feature": {"sight_features": "", "sight_content": ""}}, {"title": "何寺段", "address": "江西省南昌市进贤县", "image": "", "rank": 25, "time": null, "location": {"lat": 28.382758944473657, "lng": 116.24853779343151}, "feature": {"sight_features": "", "sight_content": ""}}, {"title": "琪美画廊", "address": "军湖路541号", "image": "", "rank": 26, "time": 2, "location": {"lat": 28.38031591518628, "lng": 116.27478924192717}, "feature": {"sight_features": "", "sight_content": ""}}, {"title": "进贤县档案馆", "address": "民和路", "image": "", "rank": 27, "time": 2, "location": {"lat": 31.611058449056507, "lng": 120.29941117042031}, "feature": {"sight_features": "", "sight_content": ""}}, {"title": "义学龄摄影艺术馆", "address": "赤路岗希望小学附近", "image": "", "rank": 28, "time": 2, "location": {"lat": 28.3315567634106, "lng": 116.3979684904404}, "feature": {"sight_features": "", "sight_content": ""}}, {"title": "红壤农业博览园", "address": "320国道", "image": "", "rank": 29, "time": 2, "location": {"lat": 27.256565251327487, "lng": 111.28158164529765}, "feature": {"sight_features": "", "sight_content": ""}}, {"title": "进贤县图书馆", "address": "胜利中路75号附近", "image": "", "rank": 30, "time": 2, "location": {"lat": 34.30406439966735, "lng": 119.26896459294139}, "feature": {"sight_features": "", "sight_content": ""}}, {"title": "博雅画廊", "address": "进贤大道上岛麻将机旁", "image": "", "rank": 31, "time": null, "location": {"lat": 36.77992444891302, "lng": 114.97901904615276}, "feature": {"sight_features": "", "sight_content": ""}}, {"title": "乐视tv超级电视", "address": "前进路116号附近", "image": "", "rank": 32, "time": 2, "location": {"lat": 42.28984200912209, "lng": 125.75381953811036}, "feature": {"sight_features": "", "sight_content": ""}}, {"title": "盛中国艺术剧院", "address": "李渡大道15号", "image": "", "rank": 33, "time": 2, "location": {"lat": 28.228544224774534, "lng": 116.17270769495059}, "feature": {"sight_features": "", "sight_content": ""}}, {"title": "太阳城·步行街", "address": "江西省进贤县步行街", "image": "", "rank": 34, "time": 3.0, "location": {"lat": 28.382758944473657, "lng": 116.24853779343151}, "feature": {"sight_features": "", "sight_content": ""}}, {"title": "排头熊家", "address": "南昌市-进贤县", "image": "", "rank": 35, "time": 2, "location": {"lat": 28.382758944473657, "lng": 116.24853779343151}, "feature": {"sight_features": "", "sight_content": ""}}, {"title": "排头杨家", "address": "南昌市-进贤县", "image": "", "rank": 36, "time": 2, "location": {"lat": 28.382758944473657, "lng": 116.24853779343151}, "feature": {"sight_features": "", "sight_content": ""}}, {"title": "排咀刘家", "address": "南昌市-进贤县", "image": "", "rank": 37, "time": 2, "location": {"lat": 28.382758944473657, "lng": 116.24853779343151}, "feature": {"sight_features": "", "sight_content": ""}}, {"title": "枫林寺盛家村", "address": "南昌市-进贤县", "image": "", "rank": 38, "time": 2, "location": {"lat": 28.382758944473657, "lng": 116.24853779343151}, "feature": {"sight_features": "", "sight_content": ""}}]}