{"cityName": "金溪", "days": 2, "cityImage": "", "spots": [{"title": "何源太山", "address": "抚州市金溪县何源村", "image": "", "rank": 1, "time": 2, "location": {"lat": 27.9657726240948, "lng": 116.998712303261}, "feature": {"sight_features": "", "sight_content": ""}}, {"title": "竹桥古村", "address": "抚州市金溪县付秀段与942县道交叉口东200米", "image": "", "rank": 2, "time": 2, "location": {"lat": 28.009628800719046, "lng": 116.75095431584094}, "feature": {"sight_features": "", "sight_content": ""}}, {"title": "金溪县档案馆", "address": "府前中路", "image": "", "rank": 3, "time": 2, "location": {"lat": 32.7863702669498, "lng": 120.54071074644125}, "feature": {"sight_features": "", "sight_content": ""}}, {"title": "江西巨丰果业有限公司葡萄园基地", "address": "206国道附近", "image": "", "rank": 4, "time": 2, "location": {"lat": 24.027693425509675, "lng": 115.9917729736661}, "feature": {"sight_features": "", "sight_content": ""}}, {"title": "金溪水上乐园", "address": "象山北路尽头处皇族家居公司对面", "image": "", "rank": 5, "time": 2.5, "location": {"lat": 27.9292301093035, "lng": 116.78856924210893}, "feature": {"sight_features": "", "sight_content": ""}}, {"title": "波尔度假村", "address": "金溪316国道旁", "image": "", "rank": 6, "time": 2, "location": {"lat": 27.92345866919769, "lng": 116.6162210656659}, "feature": {"sight_features": "", "sight_content": ""}}, {"title": "厦门 观音山", "address": "江西省抚州市金溪县", "image": "", "rank": 7, "time": 3.5, "location": {"lat": 27.925329188976068, "lng": 116.76040404065004}, "feature": {"sight_features": "", "sight_content": ""}}, {"title": "白马湖湿地公园", "address": "206国道金溪县工业园区A区东北侧", "image": "", "rank": 8, "time": 2, "location": {"lat": 27.971059925010742, "lng": 116.80422706646489}, "feature": {"sight_features": "", "sight_content": ""}}, {"title": "东岳府", "address": "江西省抚州市金溪县G35(济广高速)", "image": "", "rank": 9, "time": null, "location": {"lat": 27.925329188976068, "lng": 116.76040404065004}, "feature": {"sight_features": "", "sight_content": ""}}, {"title": "金溪县水上乐园售票处", "address": "秀谷中大道134号附近", "image": "", "rank": 10, "time": 2, "location": {"lat": 27.915244602733473, "lng": 116.77869339110957}, "feature": {"sight_features": "", "sight_content": ""}}, {"title": "陆象山纪念馆", "address": "G35济广高速", "image": "", "rank": 11, "time": 2, "location": {"lat": 27.97155977153004, "lng": 116.8175537880232}, "feature": {"sight_features": "", "sight_content": ""}}, {"title": "陆九渊纪念馆", "address": "胜利路", "image": "", "rank": 12, "time": 2, "location": {"lat": 40.04776893701776, "lng": 117.40590902883763}, "feature": {"sight_features": "", "sight_content": ""}}, {"title": "51密室逃脱", "address": "秀谷中大道格子铺旁", "image": "", "rank": 13, "time": 2, "location": {"lat": 27.915646013581764, "lng": 116.77789226848202}, "feature": {"sight_features": "", "sight_content": ""}}, {"title": "疏山寺", "address": "江西省金溪县浒湾镇", "image": "", "rank": 14, "time": 2, "location": {"lat": 27.91259909233101, "lng": 116.56933954315004}, "feature": {"sight_features": "", "sight_content": ""}}, {"title": "陆九渊之墓", "address": "江西省金溪县陆坊乡青田村", "image": "", "rank": 15, "time": 2, "location": {"lat": 27.9891981946175, "lng": 116.84087968115901}, "feature": {"sight_features": "", "sight_content": ""}}, {"title": "翠云山", "address": "江西省金溪县县城东南", "image": "", "rank": 16, "time": 2, "location": {"lat": 27.925329188976068, "lng": 116.76040404065004}, "feature": {"sight_features": "", "sight_content": ""}}, {"title": "彩虹步行街", "address": "江西省金溪县府前西路", "image": "", "rank": 17, "time": 2, "location": {"lat": 27.922347948459652, "lng": 116.7585089385163}, "feature": {"sight_features": "", "sight_content": ""}}, {"title": "玉山刘家", "address": "抚州市-金溪县", "image": "", "rank": 18, "time": 3.5, "location": {"lat": 27.925329188976068, "lng": 116.76040404065004}, "feature": {"sight_features": "", "sight_content": ""}}, {"title": "金溪县象山公园", "address": "江西省抚州市金溪县秀谷中大道象山公园", "image": "", "rank": 19, "time": 2, "location": {"lat": 27.922178937383855, "lng": 116.76802868983309}, "feature": {"sight_features": "", "sight_content": ""}}, {"title": "东峰峡谷", "address": "江西省金溪县何源镇", "image": "", "rank": 20, "time": 2, "location": {"lat": 27.991623208221267, "lng": 116.95686111732807}, "feature": {"sight_features": "", "sight_content": ""}}, {"title": "何源村", "address": "江西省抚州市金溪县何源村", "image": "", "rank": 21, "time": 2, "location": {"lat": 27.9657726240948, "lng": 116.998712303261}, "feature": {"sight_features": "", "sight_content": ""}}]}