{"cityName": "晋州", "days": 2, "cityImage": "", "spots": [{"title": "周家庄农业特色观光园", "address": "石家庄市晋州市中部", "image": "", "rank": 1, "time": 2, "location": {"lat": 38.039491309735894, "lng": 115.05052901469845}, "feature": {"sight_features": "", "sight_content": "晋州市周家庄乡农业特色观光园，国家AAA级旅游景区，坐落于晋州市东郊，以休闲、观光、赏花、采摘为主题，突出农业休闲、绿色生态游。观光园规划占地1030公顷，建成了合作社史纪念馆、观光台、观光园、葡萄采摘长廊、民俗展厅、苗圃迷宫、采摘大棚等，实现了土地千亩成方、百亩一色。每年都陆续举办梨花节、草莓采摘节、金秋采摘节等活动。“周家庄文化”与“魏征文化”、“梨乡文化”一道，共同构成晋州文化的闪亮名片。\n独具特色的娱乐项目：钓鱼、打秋千、走苗木迷宫、欣赏丝瓜、北瓜、亚葫芦等特色农作物长廊，观赏火鸡、山羊、孔雀、胡狼等珍贵动物，参观不同年代的劳动工具，了解中国农村的伟大变革和历史变迁；\n感受田园风光：周家庄的大田野，200多亩油菜花，3000多亩梨花以及玉兰花、榆叶梅等在清明时节竞相开放，让你置身于绿色、白色和黄色的海洋；人物和谐，是仁者、智者、雅者、儒者人生一大趣事。"}}, {"title": "巴厘岛水世界", "address": "石家庄市晋州市世纪街新世纪商城东门", "image": "", "rank": 2, "time": 2, "location": {"lat": 38.02673266899814, "lng": 115.07251855532802}, "feature": {"sight_features": "", "sight_content": "巴厘岛水世界是一所集游泳、洗浴、汗蒸、儿童乐园、餐饮、健身、休闲于一身的大众消费综合体，地理位置优越、环境优美、宽敞舒适，是朋友宴请、家庭聚会的可选之地。"}}, {"title": "夏威夷假日酒店温泉", "address": "石家庄市晋州市光明街与朝阳路交叉口西行50米", "image": "", "rank": 3, "time": 2, "location": {"lat": 38.0358621497761, "lng": 115.04531247734774}, "feature": {"sight_features": "特色1 馆内 特色汗蒸、儿童乐园、儿童戏水、特色自助餐、运动休闲、茶艺于一体。 特色2 为您打造全新的生活方式，让生活更健康，让养生更多变。", "sight_content": "夏威夷酒店作为温浴文化的代表，主要经营范围为健康沐浴、养生、生活休闲及时尚餐饮。\n馆内 特色汗蒸、儿童乐园、儿童戏水、特色自助餐、运动休闲、茶艺于一体。 为您打造全新的生活方式，让生活更健康，让养生更多变，让自由美丽财富融入生活。"}}, {"title": "温泉圣地", "address": "石家庄市晋州市003县道温泉圣地", "image": "", "rank": 4, "time": 2, "location": {"lat": 37.98498884972025, "lng": 115.13577685205235}, "feature": {"sight_features": "特色1 集游泳，洗浴，儿童乐园休闲于一身", "sight_content": "晋州温泉圣地是一所集游泳、洗浴、儿童乐园休闲于一身的的大众消费综合体，地理位置优越，环境优美、宽敞舒适，服务人性化。"}}, {"title": "紫城农庄", "address": "307国道晋县东紫城村紫城农庄", "image": "", "rank": 5, "time": 2, "location": {"lat": 38.020009080511315, "lng": 114.9940137404881}, "feature": {"sight_features": "", "sight_content": ""}}, {"title": "彦周菊花种植基地", "address": "富强路与光明街交叉口北行100米", "image": "", "rank": 6, "time": 2, "location": {"lat": 45.312419447095934, "lng": 130.97499562370905}, "feature": {"sight_features": "", "sight_content": ""}}, {"title": "晋州市后儒林鲜桃采摘基地", "address": "东卓宿镇后儒林村", "image": "", "rank": 7, "time": 2, "location": {"lat": 38.02335914979929, "lng": 115.20753843866629}, "feature": {"sight_features": "", "sight_content": ""}}, {"title": "鸿业獒园", "address": "307国道南50米", "image": "", "rank": 8, "time": 2, "location": {"lat": 37.56194066372158, "lng": 112.16350655736949}, "feature": {"sight_features": "", "sight_content": ""}}, {"title": "鱼水清苑垂钓园", "address": "槐树镇鱼水清苑垂钓园", "image": "", "rank": 9, "time": 2, "location": {"lat": 38.77100177474947, "lng": 115.49660588179071}, "feature": {"sight_features": "", "sight_content": ""}}, {"title": "周家庄乡", "address": "晋州周家庄乡(县城中部)", "image": "", "rank": 10, "time": 4.5, "location": {"lat": 38.02533169337813, "lng": 115.10521751997626}, "feature": {"sight_features": "", "sight_content": ""}}, {"title": "魏征公园-玄成门", "address": "滨河路北50米", "image": "", "rank": 11, "time": 2, "location": {"lat": 22.535934361525495, "lng": 114.07505832799819}, "feature": {"sight_features": "", "sight_content": ""}}, {"title": "家宝贝儿童欢乐谷", "address": "世纪商城北门", "image": "", "rank": 12, "time": 2, "location": {"lat": 38.03032718628041, "lng": 115.07046935876475}, "feature": {"sight_features": "", "sight_content": ""}}, {"title": "千秋金鉴大殿", "address": "河北省石家庄市晋州市晋州镇仿唐街魏徽公园魏征博物馆", "image": "", "rank": 13, "time": 2, "location": {"lat": 38.031279821397014, "lng": 115.02219807766026}, "feature": {"sight_features": "", "sight_content": ""}}, {"title": "海盗船", "address": "河北省石家庄市晋州市中兴路", "image": "", "rank": 14, "time": 2, "location": {"lat": 38.03163134802968, "lng": 115.04444475914038}, "feature": {"sight_features": "", "sight_content": ""}}, {"title": "激情碰碰车", "address": "南京路与聚财街交叉口西北50米", "image": "", "rank": 15, "time": 2, "location": {"lat": 38.03048200548902, "lng": 115.07073767543415}, "feature": {"sight_features": "", "sight_content": ""}}, {"title": "慈玉济寺", "address": "河北省石家庄市晋州市", "image": "", "rank": 16, "time": 2, "location": {"lat": 38.039491309735894, "lng": 115.05052901469845}, "feature": {"sight_features": "", "sight_content": ""}}, {"title": "泉渡天主堂", "address": "河北省石家庄市晋州市X003", "image": "", "rank": 17, "time": 2, "location": {"lat": 38.039491309735894, "lng": 115.05052901469845}, "feature": {"sight_features": "", "sight_content": ""}}, {"title": "普光寺", "address": "迎宾大道1号", "image": "", "rank": 18, "time": 2.5, "location": {"lat": 38.043686879175624, "lng": 115.06602244915125}, "feature": {"sight_features": "", "sight_content": ""}}, {"title": "长青园", "address": "307国道南50米", "image": "", "rank": 19, "time": 2, "location": {"lat": 37.56194066372158, "lng": 112.16350655736949}, "feature": {"sight_features": "", "sight_content": ""}}, {"title": "晋州市世纪广场", "address": "石家庄市晋州市中兴路", "image": "", "rank": 20, "time": 2.0, "location": {"lat": 38.03163134802968, "lng": 115.04444475914038}, "feature": {"sight_features": "", "sight_content": ""}}, {"title": "儿童欢乐谷", "address": "石家庄市晋州市", "image": "", "rank": 21, "time": 2, "location": {"lat": 38.039491309735894, "lng": 115.05052901469845}, "feature": {"sight_features": "", "sight_content": ""}}, {"title": "晋州天平店", "address": "中兴街100号", "image": "", "rank": 22, "time": 2, "location": {"lat": 38.853031443559765, "lng": 114.20156067741429}, "feature": {"sight_features": "", "sight_content": ""}}, {"title": "商业街游乐场", "address": "中兴路电视塔对过", "image": "", "rank": 23, "time": 2, "location": {"lat": 38.02622044357135, "lng": 114.54212479811915}, "feature": {"sight_features": "", "sight_content": ""}}, {"title": "马于温泉", "address": "马于镇村北马于小区", "image": "", "rank": 24, "time": 2, "location": {"lat": 37.95341767599247, "lng": 115.13753781112322}, "feature": {"sight_features": "", "sight_content": ""}}, {"title": "凡庄花卉基地(东门)", "address": "252乡道附近", "image": "", "rank": 25, "time": 2, "location": {"lat": 40.666855263465955, "lng": 117.40204077529462}, "feature": {"sight_features": "", "sight_content": ""}}, {"title": "弘增画廊", "address": "和平街193号", "image": "", "rank": 26, "time": 2, "location": {"lat": 47.73834013080559, "lng": 128.91863073249203}, "feature": {"sight_features": "", "sight_content": ""}}, {"title": "藏珍阁画廊", "address": "向阳街66号附近", "image": "", "rank": 27, "time": 2, "location": {"lat": 37.76031588936778, "lng": 114.52924372861483}, "feature": {"sight_features": "", "sight_content": ""}}, {"title": "艺美轩画廊", "address": "世纪街附近", "image": "", "rank": 28, "time": 2, "location": {"lat": 28.012464637190963, "lng": 113.33983080259517}, "feature": {"sight_features": "", "sight_content": ""}}, {"title": "晋州影剧院", "address": "市府路", "image": "", "rank": 29, "time": 2, "location": {"lat": 38.03931225411484, "lng": 115.05060868810905}, "feature": {"sight_features": "", "sight_content": ""}}, {"title": "悠悠乐电影单间", "address": "石家庄市-晋州市-冀中花园二楼", "image": "", "rank": 30, "time": 2, "location": {"lat": 38.0305237475241, "lng": 115.066600000306}, "feature": {"sight_features": "", "sight_content": ""}}]}