{"cityName": "晋中", "days": "3", "cityImage": "", "spots": [{"title": "平遥古城", "address": "晋中市平遥县照壁南街58号", "image": "", "rank": 1, "time": 1.5, "location": {"lat": 37.211523063924005, "lng": 112.19106177975233}, "feature": {"sight_features": "特色1 我国保存较为完好的四大古城之一。 特色2 平遥票号日升昌，是中国现代银行的开衫鼻祖 特色3 游览原汁原味古城，感受浓郁的晋商文化气息", "sight_content": "平遥古城，位于山西中部平遥县，是一座具有2700多年历史的文化名城，与同为第二批国家历史文化名城的四川阆中、云南丽江、安徽歙县并称为“保存最为完好的四大古城”，也是中国仅有的以整座古城申报世界文化遗产获得成功的两座古县城之一（另一座为丽江古城）。\n平遥古城是中国境内保存最为完整的一座古代县城之一，是中国汉民族城市在明清时期的杰出范例，在中国历史的发展中，为人们展示了一幅非同寻常的文化、社会、经济及宗教发展的完整画卷。\n平遥旧称“古陶”，明朝初年，为防御外族南扰，始建城墙，洪武三年（公元1370年）在旧墙垣基础上重筑扩修，并全面包砖。以后景泰、正德、嘉靖、隆庆和万历各代进行过十次的补修和修葺，更新城楼，增设敌台。康熙四十三年（公元1703年）因皇帝西巡路经平遥，而筑了四面大城楼，使城池更加壮观。平遥城墙总周长6163米，墙高约12米，把面积约2.25平方公里的平遥县城一隔为两个风格迥异的世界。城墙以内街道、铺面、市楼保留明清形制；城墙以外称新城。这是一座古代与现代建筑各成一体、交相辉映、令人遐思不已的佳地。2009年，平遥古城荣膺世界纪录协会中国现存最完整的古代县城之一，再获殊荣。\n八小街和七十二条蚰蜒巷，名称各有由来，有的得名于附近的建筑或醒目标志，例如衙门街、书院街、校场巷、贺兰桥巷、旗杆街、三眼井街、照壁南街、小察院巷等；有的得名于祠庙，例如文庙街、城隍庙街、罗汉庙街、火神庙街、关帝庙街、真武庙街、五道庙街等；有的得名于当地的大户，例如赵举人街、雷家院街、宋梦槐巷、阎家巷、冀家巷、郭家巷、范家街、邵家巷、马家巷等；古城东北角有一座相对封闭的城中之城，类似于古代城市中的坊，附近的四条街道也就被命名为东壁景堡、中壁景堡、西壁景堡和堡外街；还有一些街巷则已经无法探究名称来历了，例如仁义街、甜水巷、豆芽街 、葫芦肚巷等。\n\n\n平遥古城民居，以砖墙瓦顶的木结构四合院为主，布局严谨，左右对称，尊卑有序。大家族则修建二进、三进院落甚至更大的院群，院落之间多用装饰华丽的垂花门分隔。民居院内大多装饰精美，进门通常建有砖雕照壁，檐下梁枋有木雕雀替，柱础、门柱、石鼓多用石雕装饰。\n民间有句俗语：“平遥古城十大怪”，其中一条是“房子半边盖。”平遥民居之所以大多为单坡内落水，流传最广的说法称之为“四水归堂”或“肥水不流外人田”，山西地处干旱，且风沙较大，将房屋建成单坡，能增加房屋临街外墙的高度，而临街又不开窗户，则能够有效地抵御风沙和提高安全系数。而院内紧凑的布局则显示对外排斥，对内凝聚的民族性格。\n平遥夜景人称平遥有三宝，古城墙便是其一。平遥县城墙。明洪武三年(1370年)建，周长6.4公里，是山西现存历史较早、规模较大的一座城城墙。一宝古城墙即平遥县城墙。明洪武三年(1370年)建，周长6.4公里，是山西现存历史较早、规模最大的一座城城墙之一。明、清两代都有补修，但基本上还是明初的形制和构造。二宝镇国寺出古城北门，它是古城的第二宝。该寺的万佛殿建于五代(公元10世纪)时期，目前是中国排名第三位的古老木结构建筑，距今已有1000余年的历史。殿内的五代时期彩塑更是不可多得的雕塑艺术珍品。三宝双林寺位于古城西南。该寺修建于北齐武平二年(公元571年)。寺内10余座大殿内保存有元代至明代(公元13～17世纪)的彩塑造像2000余尊，被人们誉为“彩塑艺术的宝库”。\n1986年平遥县为第二批中国历史文化名城，平遥古城是中国四大古城之一。\n1997年12月，中国仅有的以整座古城申报世界文化遗产获得成功的两座古县城之一（另一座为丽江古城）。\n山西省平遥古城获得“华夏第一古城”的荣誉称号。\n2007年11月19日，平遥古城获得由中国旅游论坛组委会授予的“中国休闲旅游县”、“中国十大古城”荣誉称号。\n2009年平遥古城荣膺世界纪录协会中国现存最完整的古代县城之一，美国《纽约时报》评选出2011年全球最值得旅游的41个地方，中国仅有杭州和平遥榜上有名。\n2013年11月6日，2014年全球百大优价旅游目的地排行榜正式发布，平遥古城高居前十名，位列世界第八名。\n2013年11月12日，第四届中国最令人向往的地方”评选活动中，被中国旅游电视协会授予20家“中国最令人向往的地方”之一。\n中国适宜旅游目的地、魅力城镇、资源节约型及环境友好型景区、中国美丽十大古城、国际精品文化旅游县、全国低碳旅游示范县等荣誉称号，并入围“中国十大完美旅游线路”。\n平遥古城—世界文化遗产，是一座历史文化名城，人文历史，“三分靠看，七分靠听”建议您买古城门票后考虑带解说，可以让您更好的认识平遥，了解平遥！"}}, {"title": "王家大院", "address": "晋中市灵石县静升镇静升村王家大院", "image": "", "rank": 2, "time": 2.5, "location": {"lat": 36.90201733254357, "lng": 111.8801288358198}, "feature": {"sight_features": "特色1 历经300余年修建而成的晋商宅院，装饰颇为讲究 特色2 王家大院是清代民居建筑的集大成者。 特色3 汉族传统民俗文化建筑艺术的瑰宝。", "sight_content": "王家大院景区位于山西省灵石县静升镇，包括王家大院、资寿寺、静升文庙三个已开放的景点。王家大院为国家aaaa级旅游景区，是静升王氏家族于明清两朝、经300余年修建的一组大型建筑群，总面积25万平方米，现已开放的三座城堡依山而建，层楼叠院，气势雄宏，结构奇巧，院内的砖、木、石“三雕”装饰品随处可见，内容丰富，雕艺精湛，堪称一绝。王家大院自开放以来受到国内外游人的一致好评，被称为“华夏民居第一宅”、“山西的紫禁城”和“中国的民间故宫”。\n山西晋中市王家大院是清代民居建筑的集大成者，由历史上灵石县四大家族之一的太原王氏后裔——静升王家于清康熙、雍正、乾隆、嘉庆年间先后建成。建筑规模宏大，拥有 “五巷”、“五堡” 、“五祠堂”。其中，五座古堡的院落布局分别被喻为“龙”、“凤”、“龟”、“麟”、“虎”五瑞兽造型，总面积达25万平方米以上。现以“中国民居艺术馆”、“中华王氏博物馆”和“力群美术 馆”开放的红门堡（龙）、高家崖（凤）、崇宁堡（虎）三大建筑群和王氏宗祠等，共有大小院落231 座，房屋2078间，面积8万平方米。\n王家大院作为中国传统的建筑文化遗产和民居艺术珍品，开放近10年来，在海内外产生了极大的影响，被广誉为“华夏民居第一宅”、“中国民间故宫”和“山西的紫禁城”。另外，还有一个流 传很广的口碑——“王家归来不看院”。王家大院作为中国传统建筑文化遗产和民居艺术珍品，开放近10年来，在海内外产生了极大的影响，被广誉为“华夏民居第一宅”、“中国民间故宫” 和“山西的紫禁城”。另外，还有一个流传很广的口碑——“王家归来不看院”。"}}, {"title": "常家庄园", "address": "晋中市榆次区东阳镇车辋村", "image": "", "rank": 3, "time": 2.5, "location": {"lat": 37.548722745729144, "lng": 112.64760594429104}, "feature": {"sight_features": "特色1 山西民居中较大的影壁。 特色2 经过了200多年的修筑，北方庭院中充满了南国园林的秀色。 特色3 三晋民居建筑之一，彰显北国庄园的方正之气。", "sight_content": "从山西省会城市太原南下，在晋中市榆次区东阳镇车辋村，我们将走进一个规模庞大的民居建筑群，这就是近年来名声大振的常家庄园。其大规模修建时间可追溯到清雍正年间，后经150多年的不断发展，形成了今日之规模：占地300余亩，大院80余处，房屋3500余间，楼房50余幢，堡墙4公里。庄园严格遵循中国四合院建筑规则，内外两进院落，中间夹阁楼分隔，中轴线布局，左右对称，除主院外都带有偏院，有严格的上下偏正之分，明显地体现了儒家等级森严的秩序。\n\n常家庄园位于榆次西南东阳镇车辋村。车辋由四个小自然村组成，四寨中心建一大寺， 与四寨相距各半华里，形成一个车辐状，故名“车辋”。车辋常氏始祖常仲林于明代弘治初年，由太谷惠安迁此为人牧羊，到清康熙、乾隆年间，七世祖常进全开始经商，八世祖常威率九世万已、万达，从事商业活动，赢利颇丰，逐渐使常氏成为晋中望族，晋商中的一支劲旅，开始大规模地营造住宅大院。常万已在车辆村建“ 南祠堂”，立“世荣堂”，以村西南为轴心，向东、南发展；常万达在村北建“北 祠堂”，立“世和堂”，由东向西毗连修建，成一条新街，俗称“后街”。从清康熙年间到光绪末年，经过二百余年的修筑，常氏在车辋整整建起了南北、东西两条大街。街两侧深宅大院，鳞次栉比，楼台亭阁，相映成辉，雕梁画栋，蔚为壮观。共占地一百余亩，楼房40余幢，房屋1500余间，使原先四个自然村连成了一片。有谚曰：“乔家一个院，常家二条街。”常氏宅院的建设规模当时称为三晋民居建筑之首。\n堡门是常家庄园的进出口，门洞上方刻有“敦艮吉”匾额，“敦”代表厚道、敦厚、诚恳；“艮”在八卦中表示东北方向，还代表大山，象征积蓄和包藏；“吉”代表吉祥、顺利、如意。\n\n常氏祠堂又称家庙，是中国传统敬祖思想的重要表现形式。早在西周时期，朝庭制定礼乐，一些豪门贵族开始修筑家祠，之后两千多年此风延绵兴盛。祠堂除了用于祭祀祖宗或先贤外，还是处理家族事务的重要场所。其目的是为了弘扬中华民 族尊崇先人、提倡孝道为第一人品的思想，维护和发展宗族统治。"}}, {"title": "绵山景区", "address": "晋中市介休市翼家庄村", "image": "", "rank": 4, "time": 2.5, "location": {"lat": 37.03268640360337, "lng": 111.92356319719394}, "feature": {"sight_features": "特色1 步步有景，景景有典。 特色2 佛教禅林-中国请明文化的发源地。", "sight_content": "绵山，亦名绵上，后因春秋五霸之晋文公名臣介子推（介之推）携母隐居被焚又称介山。也因此成为中华民族最古老的纪念性节日——寒食清明节的发源地，是中国历史文化名山之一。绵山毗邻古城平遥，又与灵石王家大院近在咫尺。绵山跨介休、灵石、沁源三市县地界，最高海拔2566.6米，相对高度1000米以上，是太岳山（霍山）向北延伸的一条支脉。有人说绵山“无峰不奇，无水不秀，无洞不幽，无道不险”，这大概不是夸大。这里山光水色、文物胜迹、革命遗址集于一山，可说是步步有景，景景有典。绵山山势陡峭，多悬崖绝壁，苍松翠柏，自然景色非常优美，是省级风景名胜区。\n\n绵山之所以享誉海内外，千百年来登临者络绎不绝，在于它步步有景，景景有典。奇岩、险道、秀水、古柏、唐碑、宋塑、名刹、巨宫和道佛人物组成了绵山独特的自然和人文景观，使人目不暇接，思绪万千，流连忘返。\n绵山的景观很多，有白云庵、光岩寺、云中寺、地藏殿、世姑庙、龙王庙、柏龙、说法台、棋盘石、五龙墓、舍身崖等。绵山之所以享誉海内外，千百年来登临者络绎不绝，在于它步步有景，景景有典。椤严会、李姑岩、蜂房泉、天桥、朱家凹、抱腹岩、小蜂房泉、银公洞等数以百计的天然岩洞，堪称奇观。兔桥、鹿桥、天桥、古云梯、铁索岭、慑神崖等险道惊魂慑魄，令人赞叹叫绝。绵山铁瓦寺始建于东汉建安年间，距今1800余年，是我国最早建成的山区佛教寺院，抱腹寺始建于三国曹魏时期，鸾公岩铁佛寺始建于北魏。回銮寺建于唐代之前，因唐太宗李世民朝绵山遇雨回銮至此而得名。五龙寺为北宋前建筑。其它众多寺庙也多为清代前所建。绵山云峰寺和棋盘洞保留有许多唐、宋、元明石刻和塑像。铁索岭的铁索和下方的云梯最早悬挂于唐代之前。"}}, {"title": "乔家大院", "address": "晋中市祁县东观镇乔家堡村", "image": "", "rank": 5, "time": 2.5, "location": {"lat": 37.4119359976842, "lng": 112.44303101629858}, "feature": {"sight_features": "特色1 一栋带有历史印记的宅院。 特色2 著名晋商乔家乔致庸宅院，“囍”字布局，影视作品取景地。 特色3 保存完整有着悠久的历史和深厚的文化。", "sight_content": "乔家大院位于山西省祁县乔家堡村，北距太原54公里，南距东观镇仅2公里。它又名“在中堂”，是清代全国有名的商业金融资本家乔致庸的宅第之一。始建于清代乾隆年间，以后曾有两次增修，一次扩建，经过几代人的不断努力，于民国初年建成一座宏伟的建筑群体，并集中体现了我国清代北方民居的独特风格。2006年2月13日以乔致庸人物为背景，由胡玫导演，朱秀海编剧，陈建斌和蒋勤勤主演的45集电视连续剧《乔家大院》在中央电视台一套黄金档开播。拥有出版权的上海辞书出版社也推出了《乔家大院》同名长篇历史小说。\n大院为全封闭式的城堡式建筑群，建筑面积4175平方米,分6个大院，20个小院，313间房屋。院三面临街，不与周围民居相连。外围是封闭的砖墙，高10米有余，上层是女墙式的垛口，还有更楼，眺阁点缀其间，显得气势宏伟，威严高大。大门坐西朝东，上有高大的顶楼，中间城门洞式的门道，大门对面是砖雕百寿图照壁。大门以里，是一条石铺的东西走向的甬道，甬道两侧靠墙有护墙围台，甬道尽头是祖先祠堂，与大门遥遥相对，为庙堂式结构。北面三个大院，都是芜廊出檐大门，暗棂暗柱，三大开间，车轿出入绰绰有余，门外侧有栓马柱和上马石，从东往西数，依次为老院，西北院，书房院。布所有院落都是正偏结构，正院主人居住，偏院则是客房佣人住室及灶房。在建筑上偏院较为低矮，房顶结构也大不相同，正院都为瓦房出檐，偏院则为方砖铺顶的平房，既表现了伦理上的尊卑有序，又显示了建筑上层次感。大院有主楼四座，门楼，更楼，眺阁六座。各院房顶有走道相通，便于夜间巡更护院。\n综观全院布局严谨，设计精巧，俯视成“囍”字形，建筑考究，砖瓦磨合，精工细做，斗拱飞檐，彩饰金装，砖石木雕，工艺精湛，充分显示了我国劳动人民高超的建筑工艺水平，被专家学者誉之为：“北方民居建筑史上一颗璀璨的明珠”，因此素有“皇家有故宫，民宅看乔家”之说，名扬三晋，誉满海内外。"}}, {"title": "日升昌票号", "address": "晋中市平遥县西大街38号", "image": "", "rank": 6, "time": 1.0, "location": {"lat": 37.21148277926846, "lng": 112.19012183239214}, "feature": {"sight_features": "特色1 这里是中国最早的私人银行，其经营网点曾经几乎遍布整个中国，是平遥古城中的必游之地。", "sight_content": "日升昌票号位于平遥古城中的西大街，当时的经营网点几乎遍布整个中国，而如今日升昌票号成为中国票号博物馆。这里保留了一些当时经营所用的实物资料，向人们展示着中国古代银行业的辉煌历史。日升昌票号大院墙高宅深，为了防盗，院落上空都架设有铁丝天网，网上系有响铃。"}}, {"title": "榆次老城", "address": "晋中市俞家街榆次老城", "image": "", "rank": 7, "time": 3.5, "location": {"lat": 37.684997576401344, "lng": 112.75873023452124}, "feature": {"sight_features": "特色1 《乔家大院》、《走西口》拍摄地。 特色2 在一千四百年的古城中欣赏众多的民俗表演，如社火、县太爷升堂、锣鼓等。 特色3 晋商旅游黄金线路的起点。", "sight_content": "榆次老城 迄今已有3000多年历史。榆次，春秋时期称为涂水、魏榆，战国时期改称榆次，隶属太原郡。是游览晋商文化走廊的起点之一。榆次老城，是隋开皇二年（公元582年），在汉城旧址上修筑起来的，迄今已有1400多年的历史。榆次老城历史悠久，文化深厚，旅游资源独具特色，集古民居、古城墙、古县衙、古寺院、古街道、古商铺等人文景观和山、水、林、泉、瀑等自然景色为一体，融晋商文化、民族文化、黄河文化、三晋文化、都市文化于一炉。同时，晋中古朴的民俗和多姿多彩的民间艺术赋予老城灵气与生机，自然、人文、历史、艺术，巧妙地融合在一起。 《乔家大院》、《走西口》等影视剧均在此拍摄。\n\n\n榆次老城占地100万平方米，古建筑群和园林建筑面积60万不方米。老城内有城隍庙、县衙、文庙、凤鸣书院、南北大街、市楼、思凤楼、清虚阁、大乘寺、西花园、桑芸故居遗址公园等众多历史古迹和人文景观。建筑斗拱交错、重檐飞翘组成了庙、市、街、景合一特有的明清风格及宏伟景观。2003年9月29日，“中国民间文化艺术博物馆”在榆次老城揭幕，100万平方米的老城与老城景区“馆园合一”。"}}, {"title": "双林寺", "address": "晋中市平遥县", "image": "", "rank": 8, "time": 1.5, "location": {"lat": 37.195600690703, "lng": 112.182455563814}, "feature": {"sight_features": "特色1 寺中拥有两千余尊宋元明清等各朝代的彩绘泥塑，个个都是稀世珍宝。", "sight_content": "双林寺是与平遥古城墙、镇国寺等景点一同列入《世界遗产名录》的古寺，寺内比较珍贵的是全部由木胎泥塑而成的雕塑，集宋、元、明、清历代彩塑之精华。"}}, {"title": "镇国寺", "address": "晋中市平遥县", "image": "", "rank": 9, "time": 1.5, "location": {"lat": 37.195600690703, "lng": 112.182455563814}, "feature": {"sight_features": "特色1 寺内有保存完好的五代时期的木结构建筑，万佛殿内可观赏与众不同的菩萨塑像。", "sight_content": "镇国寺位于平遥县城，是我国现存古老的木结构建筑之一。镇国寺面积并不大，其重要的建筑是中轴线上的大殿，也称为万佛殿，殿堂整体“梁架”结构严密，工艺精湛，完整保留了一千多年前五代时期的木结构建筑架构；在万佛殿内，千年前的塑像依然色彩鲜艳，是古代雕塑艺术中的精品。在万佛殿后的三佛殿内，墙壁上画满了明代的佛教故事壁画，细腻生动。"}}, {"title": "平遥古县衙", "address": "晋中市平遥古城内", "image": "", "rank": 10, "time": 1.0, "location": {"lat": 37.21528229945167, "lng": 112.18926920571734}, "feature": {"sight_features": "", "sight_content": ""}}, {"title": "石膏山", "address": "晋中市灵石县城南关镇峪口村", "image": "", "rank": 11, "time": 3.0, "location": {"lat": 36.89556009913235, "lng": 111.65694643623941}, "feature": {"sight_features": "特色1 太岳山主峰，清泉巨瀑，溶洞名刹。 特色2 素有“高原翡翠” 之美誉。", "sight_content": "石膏山坐落在灵石县城城东南，距离县城35公里，距离省城太原180公里，1987年被省人民政府批准为省级风景名胜区，1992年被林业部批准为国家级森林公园，2009年被山西省国土资源厅批准为拟建的省级地质公园，其中龙吟书院在2011年评为市级非物质文化遗产。\n\n\n石膏山形成于四亿年前，地质构造属于古生代太古界，为汾河断裂带发育起来的东部隆起，天河、白杨河、二沟水三道水系把它和周围其他山峰隔离开来。\n石膏山地处晋中、临汾、长治三地交界处，是灵石县城的东南屏障，与介休的绵山、沁源的灵空山鼎足而立相隔不远，同属于太岳山脉，最高海拔2532米。\n这里群山环抱、古树参天。山上有飞瀑、溶洞、古刹以及各种珍贵的物种，自古以来就是人们参谒、登临、神游、咏诵的历史名山。\n风景区总面积约60平方公里，群山怀抱，奇峰耸翠，有清清河水，千尺飞瀑，还有古刹、溶洞，以及荫郁的白皮松林。\n\n\n由灵石通宇实业有限公司投资开发，包括天河景区、客服中心景区、卧龙景区、红叶景区、乾龙观景区、龙吟谷景区、花石岩景区、天竺景区、水库景区和白杨河野营探险区十个主要景区。\n以山、水、峡谷、森林及喀斯特景观为主，同时还有丰富多彩的人文景观资源，游人在此享受高山、峡谷、森林、流泉的自然生态美景，体验登山穿林探险的乐趣，得到科普考察、教学的满意收获，而且是休闲度假的好去处。"}}, {"title": "平遥古城墙", "address": "晋中市平遥县照壁南街58号平遥古城内", "image": "", "rank": 12, "time": 3.0, "location": {"lat": 37.211523063924005, "lng": 112.19106177975233}, "feature": {"sight_features": "特色1 平遥古城墙是国内保存最好的古县城城墙，距今已经有六百多年的历史。 特色2 是中国现存完好的四座古城墙之一。 特色3 游览原汁原味古城，感受浓郁的晋商文化气息。", "sight_content": "平遥古城墙是平遥古城的一道宏伟的风景线，平遥古城墙是由瓮城（东西各两座城门都是瓮城）、城楼、角楼、点将台等建筑设施组成。如果你有兴趣登上平遥古城墙，还可以看到平遥古城墙顶上设有的望孔、射孔、垛口、铁炮等御敌设施。你可以从北门登上平遥古城墙，然后走到南门下平遥古城墙。"}}, {"title": "《又见平遥》", "address": "晋中市平遥县顺城路154号", "image": "", "rank": 13, "time": 2, "location": {"lat": 37.20438166485773, "lng": 112.17835920085794}, "feature": {"sight_features": "特色1 看平遥古城曾经的繁华与沧桑。 特色2 现实与虚拟世界，似看客似亲历者。", "sight_content": "《又见平遥》演出简介\n演出名称：“印象”系列演出——《又见平遥》大型情境体验剧\n总导演：王潮歌\n总策划：王潮歌樊跃\n剧场：《又见平遥》剧场\n《又见平遥》剧场于2013年1月20日宣告落成。这是《又见平遥》 大型情境体验剧专门设计、建造的剧场，以黄土和瓦作为主要语汇，融传统与现代于一体，与两千年的平遥古城遥相呼应，是《又见平遥》总策划樊跃与总导演王潮歌共同参与设计的。《又见平遥》剧场内部有着繁复和奇特的空间分割，完全不同于传统剧场:没有前厅，没有主入场口，没有观众席，没有传统舞台。观众从不同的门进入剧场，在90分钟的时间里，步行穿过几个不同形态的主题空间。而表演者更深入观众中间，让观众有机会成为戏剧的一部分。\n\n\n演出简介:《又见平遥》使用了大量的艺术语汇，戏剧、舞蹈、影像、音乐....制造奇特空间，希望观众能产生幻觉，穿越回一百年前。我们很少这样去看一个演出，这更像一个博物馆，或者说，更像一回穿越。我们有时像一个看客，有时又像亲历者。在一个又一个互不关联的场景中，我们捡拾祖先生活的片段:清末的平遥城，镖局、赵家大院、街市、南门广场....从纷繁的碎片中窥视了故事倪端。慢慢的，隐藏在真实场景中的主线渐渐清晰起来:平遥城票号东家赵易硕抵尽家产，从沙俄保回了分号王掌柜的一条血脉。同兴公镖局232名镖师同去。七年过后，赵东家本人连同镖师全部死在途中，而王家血脉得以延卖。这是平遥城的仁德，也是山西人的仗义，更是中华民族的传统美德。\n\n\n项目背景：《又见平遥》大型实景演艺项目是印象系列演艺项目在我国北方地区的第一个项目，是山西省在“十二五”期间由能源大省向文化大省转型跨越的重要旅游发展项目之一，这一项目的建设倾注了山西省委省政府、晋中市委市政府以及平遥县委县政府的大量心血，是省、市倾力支持并寄予厚望的建设文化强省、文化强市的重大战略项目。《又见平遥》是印象团队致力创新并取得重大突破的独创性项目，印象团队作为我国大型实景演出的创始者、引领者，对《又见平遥》了新创意、新突破、新跨越，由室外实景演出走向室内情境体验，《又见平遥》不仅仅是印象团队在北方打造的第一台节目，而且将成为我国第一部大型情境体验演出项目。\n\n“又见平遥”剧场简介\n“又见平遥”剧场设计灵感来源于古城内绵延起伏的屋面，有高潮、有低谷，一波三折，起起落落，仿佛在演绎着一幕幕人生大戏，也展示着古城曾经的繁华与沧桑。“又见平遥”剧场是展示平遥传统艺术魅力的场馆，本身就是一座艺术品。运用平遥具有代表性的“土”与“瓦”以巧妙的穿插、悬挑、转折、叠落等现代简洁的手法聚合成一座“灵气往来、求之无端”的“舞动剧场”，赋予建筑以节奏感很强的造型意境，并表达出传统建筑的精神内涵。“古城”与“舞动的剧场”将会以一种对话的姿态相处----古与今之间的对话，大城与小城之间的对话。  “又见平遥”剧场内部的建筑全部是仿古建筑，是全面反映平遥古城建筑文化的重要载体，是对平遥古城现存历史建筑精华的集中展示。该仿古建筑部分主要分为A、B、C、D四个区。\n\n“又见平遥”剧场A区引导区\n该区为观众等待区，该区可容纳观众300人以上。该区由A1、A2、A3三组建筑组成，共计1683平方米，建筑面积578平方米。采用我国清末时期同兴公镖局铺面为蓝本，真实反应了平遥最鼎盛时期的建筑特色，使观众在进入该区后，充分体验到从当代到清末的历史穿越，从而产生对平遥历史文化的深切体验。\n“又见平遥”剧场B区商业文化展示区\n该区由大街、小巷、牌楼、店铺、小庙等共计22组建筑物组成，采用石雕、砖雕、木雕、磨砖对缝等传统工艺建造，全面真实地反映了平遥古城最鼎盛时期商业活动的繁华景象。该区共计2845平方米，建筑面积2021平方米。观众进入该区后可看到平遥古城在清末时的各种商业活动情况，真切的体味生活在150年前的平遥古人是如何用自己的聪明才智，在中国商业历史的舞台上，谱写着非同寻常的华美乐章。\n\n\n“又见平遥”剧场C区生活场景展示区\n该区由10组建筑物组成，共计2200平方米，建筑面积1030平方米，采用仿真的手法，复建了平遥古城具有代表性的民居建筑。同时，为了演艺的需要，对部分建筑采用了局部解剖放大的方法，使该区更具有表演性和娱乐性。通过该区的建筑和表演的手段，使观众在该区真切的体味到平遥古城最为富庶时期商贾家庭富可敌国的生活场景，和悲欢离合的人生长歌。\n“又见平遥”剧场D区综合文化演艺区\n该区共计2200平方米，建筑面积156平方米。将采用现代化的声、光、电等表现手法，全方位为观众展示平遥古城2000多年的历史、政治、经济、宗教等方面的综合文化，使观众对平遥古城有一个全面而新鲜的认识。"}}, {"title": "千朝浪屿水世界", "address": "晋中市祁县208国道与龙城高速交汇处（乔家大院往北3公里）", "image": "", "rank": 14, "time": 2, "location": {"lat": 37.43482803048503, "lng": 112.44529143592791}, "feature": {"sight_features": "特色1 华北最大、设备最多、最先进的室内水上乐园", "sight_content": "千朝浪屿水世界是全华北最大，水上游乐设备最多、最先进的室内水上乐园。千朝水上乐园占地3.8万平方米，园内水处理系统引进世界最先进的臭氧水循环处理系统，不仅能够使水质完全符合国家质检部门的要求，更能在完全不刺激眼睛和皮肤的情况下，消灭水中出现细菌的苗头，使园内用水变的更纯净，更安全。\n\n\n我们的娱乐项目具体包括：“大喇叭”滑道，被誉为华北最大的魔幻互动水寨，滑板冲浪，能同时容纳8000人冲浪的造浪池，山西最长的漂流河，以及造浪池中心舞台每日均有精彩表演。园内项目引进美国、加拿大、瑞典和国内先进设备和技术。"}}, {"title": "乌金山国家森林公园", "address": "晋中市榆次区乌金山镇森林公园(近太原寿阳交汇处)", "image": "", "rank": 15, "time": 3.5, "location": {"lat": 37.81536697507867, "lng": 112.75257032816464}, "feature": {"sight_features": "", "sight_content": ""}}, {"title": "麻田八路军总部纪念馆", "address": "左权县麻田镇麻田村（距左权县城约45公里）", "image": "", "rank": 16, "time": 1.0, "location": {"lat": 36.7980133844154, "lng": 113.52361985122526}, "feature": {"sight_features": "", "sight_content": ""}}, {"title": "城隍庙", "address": "晋中市平遥县城隍庙街", "image": "", "rank": 17, "time": 1.5, "location": {"lat": 37.208560616363236, "lng": 112.19558011184033}, "feature": {"sight_features": "", "sight_content": ""}}, {"title": "文庙", "address": "晋中市平遥县城隍庙街67号", "image": "", "rank": 18, "time": 1.5, "location": {"lat": 37.20736945617572, "lng": 112.19668463326148}, "feature": {"sight_features": "", "sight_content": ""}}, {"title": "同兴公镖局", "address": "晋中市平遥古城南大街105号", "image": "", "rank": 19, "time": 0.75, "location": {"lat": 37.195600690703, "lng": 112.182455563814}, "feature": {"sight_features": "", "sight_content": ""}}, {"title": "清虚观", "address": "平遥东大街东段路北", "image": "", "rank": 20, "time": 0.5, "location": {"lat": 39.63066079909864, "lng": 118.20639924927531}, "feature": {"sight_features": "", "sight_content": ""}}, {"title": "榆次县衙", "address": "晋中市榆次区府兴路225号(榆次老城内)", "image": "", "rank": 21, "time": 1.5, "location": {"lat": 37.68571057797868, "lng": 112.76048991709997}, "feature": {"sight_features": "", "sight_content": ""}}, {"title": "中国镖局博物馆", "address": "晋中市平遥县南大街61号", "image": "", "rank": 22, "time": 0.75, "location": {"lat": 37.209893321127424, "lng": 112.19200634799608}, "feature": {"sight_features": "", "sight_content": ""}}, {"title": "雷履泰故居", "address": "晋中市平遥县古城内书院街（近南门）", "image": "", "rank": 23, "time": 0.75, "location": {"lat": 37.204603551122815, "lng": 112.18831438870605}, "feature": {"sight_features": "", "sight_content": ""}}, {"title": "中国商会博物馆", "address": "晋中市平遥县东大街15号", "image": "", "rank": 24, "time": 1.0, "location": {"lat": 37.21225428827464, "lng": 112.19213900885548}, "feature": {"sight_features": "", "sight_content": ""}}, {"title": "蔚泰厚票号博物馆", "address": "平遥古城内西大街路南", "image": "", "rank": 25, "time": 1.0, "location": {"lat": 37.21528229945167, "lng": 112.18926920571734}, "feature": {"sight_features": "", "sight_content": ""}}, {"title": "张壁古堡", "address": "晋中市介休市龙凤乡张壁村", "image": "", "rank": 26, "time": 2.0, "location": {"lat": 36.970372153046455, "lng": 111.98347449741864}, "feature": {"sight_features": "特色1 被列为“国家级文物保护单位” 特色2 中国北方古村落的“活化石”被历史遗忘的聚宝盆 特色3 历史悠久，国内古代地下军事遗址", "sight_content": "张壁古堡以其深厚的历史文化底蕴荣膺2005年“中国十大魅力名镇”,2006年被评为“中国历史文化名村”，同年被列为“国家级文物保护单位”，2010年被评为“中国特色旅游景观名村”。\n张壁古堡位于山西省介休市绵山北麓，南有群山相依，东西南环沟壑，南、北、东有厚厚的城堡墙，墙板夯土筑成，堡内设有堡门、巷门、次巷门、院门、地道五级古军事防御体系。地下已发掘古代地道1500米，待开发地道尚有8500米，总长约万米，地道上中下三层，深于地表20米，且城堡与地道相连互通。可谓是“上有千年古堡相环，下有万米地下长城相通”。世所罕见。\n村西南有金代墓穴，城堡内有北朝、隋、唐、元、明、清历代所建庙宇群，金碧辉煌，流光溢彩。寺庙或立于城堡顶端，或建于地面高台，依堡而筑，随势构形，琉璃覆顶，富丽堂皇，十分独特和神秘。\n\n\n著名的明代空王佛行宫，建造在北门丁字门顶上，坐北向南，大殿三间，殿内塑坐像空王佛，山墙绘空王佛成佛的故事壁画。殿顶为明代三彩琉璃装饰，刀工细腻，烧制精致，形象逼真，栩栩如生。行宫前廊下有两通罕见的琉璃碑，通体琉璃烧造，孔雀蓝底，黑字书写，碑额为青黄绿二龙戏珠，两边蓝黑龙纹花卉装饰图案。东侧一通记述着空王佛修行成佛的历程，西侧一通记载空王行宫修建缘起。此外，堡内还保留着真武庙、三大士殿、吕祖阁、二郎庙、关帝庙、兴隆寺、可罕庙等古代建筑。称奇的是街中有一株根深叶茂的槐抱柳，相传植于宋代，给古堡增添了情趣。\n张壁的民宅，起源于金，繁盛于明清。古朴的民居，抱柳的古槐，别致的巷口门楼，充满了古色古香的北方民间建筑的色彩。在民居形态上，张壁古堡尚有我国多数古城均已消失的隋唐城市遗存的“里坊”，巷门、门楼配备得当，可谓堡中奇观。\n由于长期处在汉文化和少数民族文化相互冲突和交融的重要位置上，张壁在上千年的演变过程中兼容并蓄了诸多文明，形成了“小村落、大文化”的鲜明特色。如今，无论是造形别致的元代古戏台，或是生生不息的古堡人家，也已成为张壁村富有特定意韵的精神标识，定格着经久不衰的魅力和别具一格的辉煌。"}}, {"title": "渠家大院", "address": "晋中市祁县古城东街33号", "image": "", "rank": 27, "time": 1.5, "location": {"lat": 37.36413128347519, "lng": 112.34244242768281}, "feature": {"sight_features": "特色1 省级爱国主义教育基地。", "sight_content": "山西省晋商文化博物馆坐落在国家级历史文化名城--祁县古城内的渠家大院，是一所以晋商文化为主要陈列内容的县级博物馆，是山西省重点文物保护单位，全国首家研究晋商文化的博物馆。\n渠家大院始建于清乾隆年间，距今已有300年的历史，它当年的主人在县城内建有40个院落，人称“渠半城”，整个建筑总面积为23628平方米，现已开发出5317平方米，是当时“渠半城”的五分之一。\n\n渠家大院始建于清乾隆年间，为全国罕见的五进式穿堂院，内分3个大院，19个小院，房屋240间。明楼院、统楼院、栏杆院、戏台院巧妙组合，错落有致。\n\n\n\n悬山顶、歇山顶、卷棚顶、硬山顶形式各异，主次分明。牌楼巍峨壮观，眺阁玲珑精致，院院之间有过厅，牌楼相隔，层次分明，活泼有趣。屋内屋外彩绘华丽，堆金沥粉。\n木、石、砖雕俯仰可见，题材广泛，寓意祥和，刀法精良。我国著名考古专家郑孝燮先生由衷地赞叹，渠家大院的每一个建筑构件都是不可多得的艺术品，是当之无愧的民居瑰宝。\n大院外观为城堡式，墙头为垛口式女儿墙，内分8个大院，19个四合小院，共有240间房屋，每个四合小院都自成体系，而各院落之间有牌楼、过厅相隔，形成院套院、门连门的美妙格局。\n\n整个大院墙高院深、气势恢弘。\n其中石雕栏杆院、五进式穿堂院、牌楼院、戏台院错落有致，主次分明，堪称渠家大院的四大建筑特色。被建筑专家赞誉为\"集宋、元、明、清之法式，汇江南河北之大成\"。"}}, {"title": "华北第一镖局", "address": "晋中市平遥县东大街24号", "image": "", "rank": 28, "time": 1.5, "location": {"lat": 37.21182399296075, "lng": 112.1926018104644}, "feature": {"sight_features": "", "sight_content": ""}}, {"title": "协同庆票号(中国钱庄博物馆)", "address": "晋中市平遥县南大街南大街市楼旁边 ‎", "image": "", "rank": 29, "time": 1.0, "location": {"lat": 37.20892890040647, "lng": 112.19246622921378}, "feature": {"sight_features": "", "sight_content": ""}}, {"title": "乌金山狂欢谷", "address": "晋中市榆次区乌金山镇", "image": "", "rank": 30, "time": 3.0, "location": {"lat": 37.81536697507867, "lng": 112.75257032816464}, "feature": {"sight_features": "特色1 华北最大的游乐中心、综合主题公园", "sight_content": "榆次乌金山欢乐谷，又名乌金山狂欢谷主题公园，是国家AAAA级景区，山西第一个主题公园，华北最大的欢乐谷之一。榆次乌金山欢乐谷总投资3亿元，占地面积53.3万平方米，由8大主题24个游乐项目组成，和上海迪士尼、北京欢乐谷等众多城市主题公园不同，乌金山欢乐谷是建在森林公园内的生态主题公园。浪漫的深海漂流，神秘的旷谷部落，刺激的星际嘉年华。在森林和大山之间林立，让你尽情体验世外桃源的无穷魅力。\n乌金山欢乐谷精心设置24项体验项目，集人文生态景观、艺术表演、主题游戏等于一体，它能供各种人群游玩。小孩可以光着脚丫在阳光沙滩上奔跑，也可以抛开细沙在里面寻宝，还可以在泡泡球的世界里游泳，去享受美好的童年时光。青年人可以参加速度与力量的挑战----快乐向前冲；也可以坐着过山车，一起体验穿越时空、挑战心跳的刺激；还可以成为一个古老传说里凄美爱情故事的主角，去体验那栩栩如生的画面和扣人心弦的情节。老年人可以在这个背山靠水、木质长廊的世外桃源里去亲近大自然，放松自己的心情；还可以在立体的画面里去触及虚实结合的矿产资源文化及现实的生活场景。"}}, {"title": "大寨村", "address": "晋中市昔阳县大寨镇大寨村", "image": "", "rank": 31, "time": 2.5, "location": {"lat": 37.57637988825252, "lng": 113.72573056640718}, "feature": {"sight_features": "", "sight_content": ""}}, {"title": "百川通票号", "address": "晋中市平遥县南大街109号", "image": "", "rank": 32, "time": 1.0, "location": {"lat": 37.20841292747653, "lng": 112.19234752442877}, "feature": {"sight_features": "", "sight_content": ""}}, {"title": "明清古街", "address": "晋中市平遥县南大街", "image": "", "rank": 33, "time": 1.0, "location": {"lat": 37.20892890040647, "lng": 112.19246622921378}, "feature": {"sight_features": "", "sight_content": ""}}, {"title": "听雨楼", "address": "晋中市平遥古城老县衙外", "image": "", "rank": 34, "time": 2, "location": {"lat": 37.210078757929764, "lng": 112.19001737742744}, "feature": {"sight_features": "", "sight_content": ""}}, {"title": "迎薰门", "address": "晋中市平遥县平遥古城南门迎薰门", "image": "", "rank": 35, "time": 0.25, "location": {"lat": 37.20554315416468, "lng": 112.19358193453853}, "feature": {"sight_features": "", "sight_content": ""}}, {"title": "古市楼（金井楼）", "address": "晋中市平遥古城南街", "image": "", "rank": 36, "time": 1.0, "location": {"lat": 37.195600690703, "lng": 112.182455563814}, "feature": {"sight_features": "", "sight_content": ""}}, {"title": "汇武林武术陈列馆", "address": "晋中市平遥县平遥古城西大街", "image": "", "rank": 37, "time": 1.5, "location": {"lat": 37.2111286342882, "lng": 112.18689480728828}, "feature": {"sight_features": "", "sight_content": ""}}, {"title": "红崖峡谷", "address": "晋中市灵石县小柏沟村东", "image": "", "rank": 38, "time": null, "location": {"lat": 36.87755388928225, "lng": 111.93865651020309}, "feature": {"sight_features": "特色1 太岳山国家森林公园八大景区之一。 特色2 红崖峭壁一线天，高山飞瀑万亩甸。 特色3 有“华北绿肺天然氧吧”之美誉。", "sight_content": "红崖大峡谷属太行山系，是太岳山国家森林公园八大景区之一。景区内还有海拔高达2566.6米的太岳山最高峰之一——牛角鞍，登高而望，极目远眺，万千美景尽收眼底，仰躺在一望无垠的万亩草甸，望着一碧如洗的蓝天，我们会再次惊叹大自然所赐予我们的这块土地的神奇与妙曼。\n红崖大峡谷属太行山系，是太岳山国家森林公园八大景区之一。峡谷位于灵石县城东20公里处的马和乡柏沟村，距大运高速灵石出口5公里，北邻绵山景区6公里，西距华夏民居第一宅的王家大院也只有3公里。\n峡谷景区总规划面积3634.8公顷，森林覆盖率达96.84%，素有“华北绿肺”、“天然氧吧”之美誉。在景区内，四季常青的云海奇松，旭日艳丽的红叶坡，断崖壁立、峰峦起伏的”U”形峡谷，让您目不暇接，流连忘返。"}}, {"title": "祁县古城", "address": "晋中市祁县古城", "image": "", "rank": 39, "time": 1.5, "location": {"lat": 37.36413128347519, "lng": 112.34244242768281}, "feature": {"sight_features": "", "sight_content": ""}}, {"title": "后沟古村", "address": "晋中市榆次区", "image": "", "rank": 40, "time": 3.0, "location": {"lat": 37.703940486801216, "lng": 112.71450350211099}, "feature": {"sight_features": "特色1 称北方民俗文化的活化石", "sight_content": "榆次后沟古村位于榆次区东赵乡，与寿阳县相邻，全村有75户人家、280多口人，是榆次区一个有着悠久历史的古村落，有文字可考的历史可追溯到唐代。村中精巧别致的古戏台、观音堂、菩萨殿，堪称北方民俗文化的活化石，充分反映了传统的“神权”和“族权”。\n2003年1月，榆次后沟古村被中国民间文艺家协会确定为中国民间文化遗产抢救工程的古村落农耕文化遗产保护采样地。2004年3月，榆次投资8000万元对后沟古村进行修复，工程按照整旧如旧、恢复原貌的原则，再次呈现了千年古村的田园风光，使它呈现在世人面前的是一处原汁原味的、较为完整的古村风貌建筑。\n后沟地貌为典型的黄土高原低山丘陵，民居多为清、民国年间建造的独立式窑洞，其特点是依涯就势、随形生变、层窑叠院，参差别致。以传统的三合院、四合院为主，门前的抱鼓石、门枕石、门楣及照壁保存完好。遥相呼应的石窑、土窑、砖窑、明券窑、土挖窑、独体窑、里外窑等，形成了后沟浑然天成的独特风景。\n后沟古村神庙系统相当完善，方圆不足一平方公里的村落共建庙13座，神塑18尊，观音庙、真武庙、关帝庙、文昌阁、魁星楼、河神庙、山神庙等神庙依风水而建，按方位而立，将佛教、道教、儒教囊括为一统，这一现象在国内尚为罕见。\n后沟古村完整的排水系统、等级分明的窑居建筑格局、威严的张家祠堂、精致的古戏台、自给自足的生产作坊、防患未然的仓储制度等充分显示出族权势力的统治地位。尤其是排水系统的科学性与实用性独创中华之最。\n观音堂坐落于后沟古村西南方向的半崖之上，坐南朝北，与村中玉皇殿隔河相峙，俗称南寺。全寺占地面积490.17平方米，共有大小房间20间；依次由山门、钟鼓二楼、东西廊房、耳殿和南大殿三大部分构成，为长方形四合院堂式寺庙，是一座保持着明、清建筑风格且保存较为完整的砖木结构建筑寺院。观音堂大殿面阔五间，主祀观音及送子、财神等塑像；其斗拱木雕龙首凤喙为民间寺庙所少见，檐板真金贴绘龙纹和梁间龙纹彩绘为明清两代盛世佳作，具有极强的时代特征和很高的艺术价值。观音堂始建年代不详，唯据寺内壁龛大明天启六年（1626）重修碑记载：“有古刹一座，年代替远，不知深浅”，后陆续又经大清康熙、乾隆、道光和清末民国等年代数次扩建维修，始成今日之规模。\n玄天宫（真武庙）坐北向南，坐落于后沟村北高阜处，为村中最高建筑，和观音堂子午相对，与村南山岗上的魁星楼遥相呼应。玄天宫原称玄武庙，是北方正神安天玄武大帝的宫阙。中国道教中，玄武乃龟蛇结合的形体，传为玄武大帝的胃、肠所化，故玄武帝神通广大，道法无边。宋时因避帝祖名讳而改“玄”为“真”，故后世又称真武庙。玄天宫始建于明朝崇祯十六年（1643），大清康熙五十年（1711）补修，嘉庆十九年（1814）重修，清末民国时期亦曾维修，毁于文革“大破四旧”中，2005年5月重建。"}}, {"title": "孔祥熙宅院", "address": "晋中市太谷县向观巷1号", "image": "", "rank": 41, "time": 2.0, "location": {"lat": 37.42739557731329, "lng": 112.55738411926058}, "feature": {"sight_features": "", "sight_content": ""}}, {"title": "榆次城隍庙", "address": "晋中市榆次区府兴路榆次老城景区内", "image": "", "rank": 42, "time": 1.0, "location": {"lat": 37.682544125095895, "lng": 112.75663279715549}, "feature": {"sight_features": "", "sight_content": ""}}, {"title": "曹家大院", "address": "晋中市太谷县北汪乡北汪村", "image": "", "rank": 43, "time": 1.0, "location": {"lat": 37.40133648867964, "lng": 112.51092543272598}, "feature": {"sight_features": "", "sight_content": ""}}, {"title": "平遥大戏堂", "address": "平遥古城内城隍庙街", "image": "", "rank": 44, "time": 6.0, "location": {"lat": 37.21528229945167, "lng": 112.18926920571734}, "feature": {"sight_features": "", "sight_content": ""}}, {"title": "古民居博览苑", "address": "晋中市平遥古城西大街18号", "image": "", "rank": 45, "time": 1.0, "location": {"lat": 37.21162099681272, "lng": 112.19092110510947}, "feature": {"sight_features": "", "sight_content": ""}}, {"title": "平遥牛肉博物馆", "address": "晋中市平遥县平遥古城北大街附近，距离北门200米处", "image": "", "rank": 46, "time": 1.5, "location": {"lat": 37.21468505821653, "lng": 112.1887640247494}, "feature": {"sight_features": "", "sight_content": ""}}, {"title": "晋中榆次明乐庄园", "address": "晋中市榆次区修文镇西白村明乐庄园", "image": "", "rank": 47, "time": 6.0, "location": {"lat": 37.58398948834294, "lng": 112.68451376220283}, "feature": {"sight_features": "特色1 近记录接近中外名马", "sight_content": "山西辽原马术俱乐部总占地14066平方米,共有马厩96间，并设有无菌产房、无菌医疗室，共有马匹90余匹，其中最为壮观和罕见的是从土库曼斯坦进口的血统纯正的汗血宝马、高大威武的德国温血马、英国纯血马、荷兰弗里斯兰皇家御马等28匹名马。\n俱乐部现有国家级马术教练、副教练、运动员、专业配餐师、高级兽医等80余人。同时俱乐部还与山西省体育学院、山西省体育局合作成立了山西省马术代表队，将于2013年代表山西参加第十二届全国运动会。马术表演馆内，您将看到中外名马的风姿，并可以零距离的接近她。俱乐部拥有马术表演训练基地，完善的马术训练设施，当然也拥有目前享誉国内外的各种名马，在这里您可以体验高贵的骑马运动、观看精彩的马术表演、拍摄尊贵时尚的婚纱摄影等，马术俱乐部现已成为太原和榆次爱马人士家喻户晓的地标性场所。\n明乐庄园百鸟园占地10000平方米，是山西省内面积最大、品种最多的鸟园，园中现已乐居了东非冠鹤、丹顶鹤、黑白天鹅、火烈鸟、白头鹤、黄嘴鹳、火鸡等珍奇异鸟500余种700余只。优雅的白天鹅、高贵的黑天鹅、奔跑的鸵鸟、漂亮的雉鸡、翩飞的仙鹤、聪明的鹦鹉，在园中，游客们可以尽情欣赏五彩斑斓的珍奇鸟类，聆听悦耳的鸟鸣，更可以体验到亲手喂鸟的乐趣，人鸟同乐，佳趣天成。"}}, {"title": "崇宁堡度假村", "address": "晋中灵石县静升镇静升村", "image": "", "rank": 48, "time": 2, "location": {"lat": 36.90222202340433, "lng": 111.87702673806322}, "feature": {"sight_features": "特色1 独特的古堡型度假酒店 特色2 含私汤和露天温泉", "sight_content": "崇宁古堡温泉度假酒店是靖烨投资有限公司全资直属企业，投资约4亿，是全国独有的古堡式温泉度假酒店。座落在灵石县静升镇静升村崇宁堡，毗临著名景点王家大院。距离大运高速路灵石出口处2公里，距省会太原140公里.  崇宁堡是王家大院的一个重要组成部分，代表着王家的农耕时期，比红门堡（经商时期）早34年，比高家崖（入仕时期）早76年。王家的历史可以追溯到500多年前，它的中兴时期则从雍正二年开始，历经300余年。\n既然崇宁堡是王家大院不可或缺的重要组成部分，那么就必须在吃、住、行、游、购、娱六大旅游要素上创新新的业态。  吃——该酒店正在策划和收集以“王家家宴”为主题的本土美食，创造一个集晋商特色美食、本土风味小吃、王家豆腐系列为大全的美食风情园，为中外游客来灵石旅游提供美食大餐；住——将利用我们的古堡院落优势，打造返璞归真，回归历史的窑洞住宿，让游客尽享王家明清时期的居所场景，体验庭院深深，曲径通幽的院落文化；行——无论游客用什么交通方式下榻崇宁堡，在本区域内我们将尽可能提供王家古老的代步工具，如轿子、毛驴、马车等；游——是否游罢王家大院，有些视觉疲劳，再看院落窑洞、三雕艺术已是多余之事，那么我们将要着力提供的是，让游客参与活动的项目，不泛体验一把古人的生活细节、劳动过程、闲暇竞技等活动项目；购——集中开发一批以王家大院人文历史、信仰崇拜、寓教于人的工艺品，仿制特制一批具有代表性的砖、木、石三雕艺术品，以百工坊的形式，现场制作销售，不断拓宽品种，让游客参与进来，增加购买欲望，带走特色，回味感悟，传播文化；娱——主要打造民俗表演、地方秧歌、传统曲艺，让游客住下来，丰富夜生活。\n除此以外，该酒店还将着力搭建会议会展、写生书画、研讨论坛、影视拍摄、传统喜寿文化、温泉养生文化、享老健康基地等服务平台。在软件和硬件上下功夫，不断刷新旅游新业态。灵石崇宁堡温泉酒店为独特的古堡型度假酒店，外观宏伟大气，极富历史感，仿佛历经千年风霜的建筑重现人间；内部装饰典雅雍容、美轮美奂，客房布置将古典中式元素与现代居住理念相融合，配以丹青画作，古韵浓郁；多款房型内均配以中央空调、小冰箱、24小时热水、独立卫浴等设施，打造惬意休眠空间。酒店附设中、西餐厅、会议厅，还设有KTV、桌球、乒乓球、健身、SPA、温泉等休闲项目，使宾客尊享温情，感受远离尘嚣的闲适从容。"}}, {"title": "山西海立方海洋公园", "address": "晋中市榆次区定阳路汇通风情商业广场负一层", "image": "", "rank": 49, "time": 1.5, "location": {"lat": 37.746126466189814, "lng": 112.73217353081445}, "feature": {"sight_features": "", "sight_content": ""}}, {"title": "颐景水宫", "address": "晋中市榆次区西顺城街71号", "image": "", "rank": 50, "time": 2, "location": {"lat": 37.68954182778174, "lng": 112.75097393506996}, "feature": {"sight_features": "", "sight_content": ""}}, {"title": "何家大院", "address": "山西省祁县南街路东", "image": "", "rank": 51, "time": 1.0, "location": {"lat": 37.36413128347519, "lng": 112.34244242768281}, "feature": {"sight_features": "", "sight_content": ""}}, {"title": "凤麒庄园滑雪", "address": "晋中市榆次区乌金山镇河口村凤麒庄园", "image": "", "rank": 52, "time": 2, "location": {"lat": 37.7984462871135, "lng": 112.69975567201114}, "feature": {"sight_features": "", "sight_content": ""}}, {"title": "清凉寺", "address": "晋中市平遥县卜宜乡永城村北", "image": "", "rank": 53, "time": 1.0, "location": {"lat": 37.10765924322414, "lng": 112.23228283582452}, "feature": {"sight_features": "", "sight_content": ""}}, {"title": "介林景区", "address": "灵石县马和乡张嵩村东", "image": "", "rank": 54, "time": 2, "location": {"lat": 36.84241660078571, "lng": 111.95366556215541}, "feature": {"sight_features": "", "sight_content": ""}}, {"title": "悦隆庄温泉", "address": "晋中市榆次区迎宾西街345号万豪美悦国际大酒店", "image": "", "rank": 55, "time": 2, "location": {"lat": 37.70391429200587, "lng": 112.69275857995315}, "feature": {"sight_features": "特色1 富含对人体有益的微量元素 特色2 集住宿、美食、温泉为一体的度假区", "sight_content": "悦隆庄温泉度假酒店是山西万豪华府房地产开发有限公司投资开发的，项目占地15000平米，总投资3个亿，是按照国家4A级景区的要求和五星级温泉酒店的标准，以新中式风格建造，取明风清韵、晋商文化之内涵，辅以特色饰品陈设，追溯三晋历史文化之传承，将其独特的人文底蕴融入在绿色园林景观建筑之中。\n\n\n悦隆庄温泉分室内和露天两个部分，由温泉别墅、VIP汤屋区、情侣泡池区、中药保健区、溶洞瀑布区、spa水疗动感区、亲子水寨区、热带雨林区八大功能板块，六十多个功能板块，六十多个功能各异的大众泡池和30多个专属泡池以及完善的服务配套设施组成。各泡池之间以景观长廊、庭院楼阁、花草树木相连，交辉成趣。\n\n\n悦隆庄温泉度假酒店是集住宿美食、纯正温泉、保健养生、休闲娱乐为一体的综合型、高品质、大众化温泉项目，是您旅游度假、商务接待首选之地。"}}, {"title": "三晋乐园", "address": "晋中市榆次区安宁东街368号东外环与百草坡交叉口", "image": "", "rank": 56, "time": 2, "location": {"lat": 37.71079129449965, "lng": 112.76749008046451}, "feature": {"sight_features": "", "sight_content": ""}}, {"title": "后土庙", "address": "介休县城西北角", "image": "", "rank": 57, "time": 2, "location": {"lat": 37.03268640360337, "lng": 111.92356319719394}, "feature": {"sight_features": "", "sight_content": ""}}, {"title": "方山国家森林公园", "address": "晋中市寿阳县城内街39号", "image": "", "rank": 58, "time": 1.0, "location": {"lat": 37.896613686362635, "lng": 113.17786729036943}, "feature": {"sight_features": "", "sight_content": ""}}, {"title": "蔚盛长珍藏博物馆", "address": "晋中市平遥县南大街13号", "image": "", "rank": 59, "time": 1.0, "location": {"lat": 37.21157378520092, "lng": 112.19154658804963}, "feature": {"sight_features": "", "sight_content": ""}}, {"title": "苗世民藏报博物馆", "address": "晋中市平遥县南大街142号", "image": "", "rank": 60, "time": 1.0, "location": {"lat": 37.20744770244153, "lng": 112.19326635621965}, "feature": {"sight_features": "", "sight_content": ""}}]}