{"cityName": "金寨", "days": null, "cityImage": "", "spots": [{"title": "天堂寨", "address": "六安市金寨县天堂寨风景名胜区", "image": "", "rank": 1, "time": 7.5, "location": {"lat": 31.54782215179516, "lng": 115.80506968660528}, "feature": {"sight_features": "特色1 登海拔1729米的大别山第二高峰。 特色2 一眼观安徽、湖北两省。 特色3 尊重原始，体验自然。", "sight_content": "天堂寨位于安徽省金寨县的西南部，与湖北省的罗田县、英山县相毗邻，景区总面积120平方公里，境内千米以上的高峰25座，主峰天堂寨海拔1729.13米，为大别山主峰之一，系江淮分水岭，日降水量2200毫米，湿度85%，年均气温12.6度，水质为地表一级卫生饮用水。其间，雄关漫道，崇山峻岭，茂林修竹，龙潭飞瀑，奇松怪石颇多，古称“吴楚东南第一关”，气势雄伟壮观。\n天堂寨为大别山主峰，海拔1729.13米，位于湖北罗田、英山和安徽省金寨三县交界处，处于北纬31度，东经115度。天堂寨古称“衡山”、“多云山”，元后改称“天堂寨”。\n天堂寨——圣水的世界。它由于地理条件特殊，云山高耸，森林广阔，圣水之水源于原始森林丰富的植被。山有多高，水有多长，绿水长流，瀑布高悬。景区内有瀑布118条，形成喷珠泻玉，独特壮观的瀑布群。其中40米以上常年不涸的18条，百日无雨仍可见飞流直泻。天堂寨水质清纯甘甜，ph值6.9，为地表一级卫生饮用水。清澈圣洁之水给天堂寨带来了活力，带来了无限生机。"}}, {"title": "燕子河大峡谷", "address": "六安市金寨县燕子河镇西南部茶铺村", "image": "", "rank": 2, "time": 12.0, "location": {"lat": 31.25767480744759, "lng": 115.905764433373}, "feature": {"sight_features": "特色1 以险崖、奇石、幽谷、秀水而著称", "sight_content": "燕子河大峡谷天坑仙境位于大别山鄂豫皖革命老区，全国第二大将军县安徽省金寨县燕子河境内，燕子河大峡谷与华东最后一片原始森林天堂寨风景区相连，全长约5000米。燕子河大峡谷天作地成，气象成千。远望如卧龙饮涧深山，风光旖旎，变化神奇；近观群峰环绕，河谷幽长；林深水冽，奇石千姿；原始野趣，美不胜收，自然生态环境极佳，为华东最后一片“净土”。\n燕子河大峡谷奇峡绵延，以险崖、奇石、幽谷、秀水而著称。在面积不大，长度约2000米的步道游览空间，集中分布有鬼斧神工、险不可攀的天坑绝景；有深不可知、天设地造的“仙人洞”，有如雪似烟若雾是水、变幻无穷的神韵瀑布；天然奇石、石纹、石穴千姿百态，色彩斑谰，无不让人感叹大自然的神奇造化；燕子河大峡谷奇峡异滩，大大小的潭、池、湖、岛，奇观胜景，令人惊叹不已，恍若步入人间仙境；飞瀑流泉，古树名木，犹如置身桃花源中；青山秀水，蓝天白云，春夏秋冬，各显风韵，燕子河大峡谷是令人神往的绿色旅游佳境。畅游大峡谷，享受自然美。峡谷漫步，乐而忘忧。\n燕子河大峡谷河谷最高峰海拔568米，最低处 海拔约350米，河谷最深处约218米。燕子河大峡谷景区内奇石怪潭、险峰绝壁、陡崖飞瀑、云雾飘渺、原始原 貌；茂林修竹、清静幽雅、风光旖旎。春夏鸟语花香，万紫千红尽收眼底；青山绿水，五光十色满人间。燕子河大峡谷秋冬花黄树赤，层林尽染一片红；银装素裹，冰洁如镜漫山白。四季景色各异，实为罕 见，堪称人间仙境。\n燕子河大峡谷一直人迹罕至，生态系统保存完整，属亚热带落叶、阔叶混交林，物种资源丰富多 样，其中就有狗骨冬青、天目杜鹃等一大批珍稀物种。燕子河大峡谷空气清新，夏天天气凉爽，是一个 避暑的好去处，也是大家回归大自然的绝佳地方。"}}, {"title": "梅山水库风景区", "address": "六安市金寨县梅山镇史河路南端", "image": "", "rank": 3, "time": 2.5, "location": {"lat": 31.6880157976166, "lng": 115.88590291112367}, "feature": {"sight_features": "", "sight_content": ""}}, {"title": "白马大峡谷", "address": "六安市金寨县天堂寨镇009乡道天堂寨景区内", "image": "", "rank": 4, "time": 5.0, "location": {"lat": 31.155917090200813, "lng": 115.77584190380358}, "feature": {"sight_features": "", "sight_content": ""}}, {"title": "金寨县革命博物馆", "address": "六安市金寨县梅山镇红村", "image": "", "rank": 5, "time": 1.0, "location": {"lat": 31.688802579062113, "lng": 115.87791191588333}, "feature": {"sight_features": "", "sight_content": ""}}, {"title": "天水涧漂流", "address": "六安市金寨县天堂寨镇", "image": "", "rank": 6, "time": 2, "location": {"lat": 31.13623374963797, "lng": 115.78759818521613}, "feature": {"sight_features": "特色1 具有天堂寨下第一河、大别山中第一漂的美称！ 特色2 地处国家4a级森林公园——天堂寨脚下！ 特色3 让您感受惊、奇、险、趣与一体的快乐！", "sight_content": "天水涧漂流位于安徽省大别山腹地，国家4a级森林公园——天堂寨脚下，具有天堂寨下第一河、大别山中第一漂的美称，天造地设的河道，全程有3.8公里，纯净清澈的溪水，游鱼可数，当你在漂流时，您会遇到十余个相对总落差达百余米的大小龙潭，使您感受惊、奇、险、趣与一体的快乐。在您漂流的过程中，既有可以满足冒险爱好者的惊险刺激的探险漂，又有让您漫心消意的快乐休闲漂。\n当橡皮筏在溪流中有节奏的跌宕起伏，高歌猛进，浪击卵石，筏漫水浪，有惊无险，惊呼嬉闹之间，心已化作浪花一片。一浪未平、一浪又起，大龙潭处，斜坡涌现，皮筏飞去，浪花飞舞，惊声一片，您是否会有一种昔日英雄的豪迈，是否使在您离开了大都市的喧嚣，来到天水涧挑战自然中，更加信心倍增，勇气十足呢？\n然而在当橡皮筏荡漾在平缓的溪流，并在森林中穿梭时，您又同时可坐观风景，饱览秀色，白沙银滩，绿树成荫，一路漂来，水清石现，沁心透肺，两岸鸟语花香，水中小鱼嬉戏，周遍美丽的田园风光，使你完全置身于这处处充满诗情画意的大自然的意境中，还可以领略到老鼠墩、钟石、海狮石、龟石等大自然鬼斧神工之作，使您乐而忘优，流涟忘返。大自然为我们奉献出了这样的一条美丽的河流，供我们漂浮其上，让您暂时释放一下长途跋涉的神经 。"}}, {"title": "大别山地质博物馆", "address": "六安市金寨县天堂寨镇009乡道天堂寨景区门口", "image": "", "rank": 7, "time": 1.0, "location": {"lat": 31.155917090200813, "lng": 115.77584190380358}, "feature": {"sight_features": "", "sight_content": ""}}, {"title": "天堂寨飞龙峡漂流", "address": "六安市金寨县054县道（距天堂寨游客中心东880米处）", "image": "", "rank": 8, "time": 2, "location": {"lat": 31.240177093275005, "lng": 115.67448591345168}, "feature": {"sight_features": "特色1 漂流全长近4000米，落差近百米", "sight_content": "安徽天堂寨\"飞龙峡漂流\"地处华东最后一片原始森林、大别山国家地质公园、国家五A级风景名胜区——安徽天堂寨内，与燕子河天坑仙境风景区相邻。漂流景区汇聚天堂寨瀑布群之水，与自然风貌浑然天成，九曲蜿蜒，像一条巨龙，奔腾环绕在青山绿水之中。\n以龙文化为主题的冲浪体验式漂流，漂流全长近4000米，落差近百米，时而急时而缓，有平湖亦有激流，一个个自然形成的冲浪口气势磅礴、惊险刺激。河道流淌着原始森林渗透出甜美的山泉，岸边怪石嶙峋、竹涛林涌、山鸟鸣翠、禅钟远扬，艇下溪急湍流，一波三折，更有那清风扑面夹着绿野芳香，令人心旷神怡。把惊、险、奇、趣巧妙地融入一体，河道中数条巨龙交相辉映，漂流艇自龙尾进，龙嘴出，巨龙时而喷水，时而吐纳，亦奇亦幻。抬头可望白马山峰的雄伟挺拔，低头可顾清泉河畔的旖旎风光，九潭十八险尽显张扬激情，金河沙滩又具端庄安详。在漂流中您能接受大自然的洗礼，体验挑战大自然的乐趣。"}}, {"title": "金寨革命烈士陵园", "address": "安徽省金寨县梅山镇", "image": "", "rank": 9, "time": 6.0, "location": {"lat": 31.68299121043063, "lng": 115.8856385434053}, "feature": {"sight_features": "", "sight_content": ""}}, {"title": "瀑布群", "address": "金寨县", "image": "", "rank": 10, "time": 3.5, "location": {"lat": 31.73346173438129, "lng": 115.94044120714393}, "feature": {"sight_features": "", "sight_content": ""}}, {"title": "御龙湾国际度假村", "address": "安徽省六安市金寨县天堂寨风景区大别山度假村对面", "image": "", "rank": 11, "time": 2, "location": {"lat": 31.18746666514106, "lng": 115.78960439067428}, "feature": {"sight_features": "", "sight_content": ""}}, {"title": "十八盘漂流", "address": "六安市金寨县054县道南50米", "image": "", "rank": 12, "time": 2, "location": {"lat": 31.73346173438129, "lng": 115.94044120714393}, "feature": {"sight_features": "", "sight_content": "金寨县吴家店镇，漂流线长3.5公里，全程落差103米。乘山泉之水，置身青山之间，洗手濯足，纵情山水；操桨弄舟，随波逐流，水上漂流时间1-2小时。\n\n\n\n\n杨柳河十八盘，沿途奇峰相叠、嵌空而立，高低相错的山峦，如旌旗招展，气势磅礴的岩峰，如万马奔腾。山与水的完美结合是杨柳河最突出的特色，水绕山行，山临水立，仰角适中，滩潭交错。\n\n\n\n\n山不高，有高山之气魄，水不深，集水景之大成，十八盘每盘自成异境，浅的成滩，深的成潭，沿途有“九滩”“九潭”，两岸山峰竞秀，花木争荣，水碧山丹，风景如画。十八盘漂流，是少者猎奇探险之地，是老者吐故纳新之所，更是都市白领休闲绝妙去处。"}}, {"title": "奇峰怪石", "address": "金寨县", "image": "", "rank": 13, "time": 2, "location": {"lat": 31.73346173438129, "lng": 115.94044120714393}, "feature": {"sight_features": "", "sight_content": ""}}, {"title": "合肥金三角漂流", "address": "天堂寨风景区内", "image": "", "rank": 14, "time": 2.5, "location": {"lat": 31.152209441554742, "lng": 115.7782054551936}, "feature": {"sight_features": "", "sight_content": ""}}, {"title": "大别山地质公园", "address": "安徽省金寨县境内", "image": "", "rank": 15, "time": 2, "location": {"lat": 31.73346173438129, "lng": 115.94044120714393}, "feature": {"sight_features": "", "sight_content": ""}}, {"title": "六安红石谷", "address": "安徽省金寨县响洪甸", "image": "", "rank": 16, "time": 2, "location": {"lat": 31.603956971012977, "lng": 116.08810233127979}, "feature": {"sight_features": "", "sight_content": ""}}, {"title": "古寨遗风", "address": "金寨县", "image": "", "rank": 17, "time": 2, "location": {"lat": 31.73346173438129, "lng": 115.94044120714393}, "feature": {"sight_features": "", "sight_content": ""}}, {"title": "六安天堂寨天泰度假村", "address": "安徽省六安市金寨县天堂寨镇加油站北侧001号", "image": "", "rank": 18, "time": 2, "location": {"lat": 31.13623374963797, "lng": 115.78759818521613}, "feature": {"sight_features": "", "sight_content": ""}}, {"title": "金寨县香一村农家乐", "address": "汤汇村前往泗河处300米(汤汇村前往泗河300米处)", "image": "", "rank": 19, "time": 2, "location": {"lat": 31.62179816052808, "lng": 115.59389138487678}, "feature": {"sight_features": "", "sight_content": ""}}, {"title": "泻玉瀑", "address": "六安市金寨县天堂寨风景区瀑布群景区内", "image": "", "rank": 20, "time": 2, "location": {"lat": 31.73346173438129, "lng": 115.94044120714393}, "feature": {"sight_features": "", "sight_content": ""}}, {"title": "吴老祠堂", "address": "六安市金寨县二一零省道", "image": "", "rank": 21, "time": 2, "location": {"lat": 31.713206340568373, "lng": 115.84482700595069}, "feature": {"sight_features": "", "sight_content": ""}}, {"title": "儿童乐园", "address": "安徽省六安市金寨县梅江路724号", "image": "", "rank": 22, "time": null, "location": {"lat": 31.69550336835449, "lng": 115.89601170292582}, "feature": {"sight_features": "", "sight_content": ""}}, {"title": "正和一中公园", "address": "梅山镇江店经济开发区金寨一中对面", "image": "", "rank": 23, "time": 2, "location": {"lat": 31.69513543293735, "lng": 115.89624026418656}, "feature": {"sight_features": "", "sight_content": ""}}, {"title": "李家祠堂", "address": "六安市金寨县红军大道", "image": "", "rank": 24, "time": 2, "location": {"lat": 31.725241589090594, "lng": 115.94814694636787}, "feature": {"sight_features": "", "sight_content": ""}}, {"title": "鲵鱼潭", "address": "金寨县", "image": "", "rank": 25, "time": 2, "location": {"lat": 31.73346173438129, "lng": 115.94044120714393}, "feature": {"sight_features": "", "sight_content": ""}}, {"title": "金寨县岛上人家茶谷农家小院", "address": "麻埠镇齐山村", "image": "", "rank": 26, "time": 2, "location": {"lat": 31.526898827337817, "lng": 116.12509607301189}, "feature": {"sight_features": "", "sight_content": ""}}, {"title": "六安市大别山玉石奇石文化产业协...", "address": "安徽省金寨县金光大道", "image": "", "rank": 27, "time": 6.0, "location": {"lat": 31.697082620830475, "lng": 115.89009289009013}, "feature": {"sight_features": "", "sight_content": ""}}, {"title": "禅堂庙", "address": "安徽省六安市金寨县", "image": "", "rank": 28, "time": 2, "location": {"lat": 31.73346173438129, "lng": 115.94044120714393}, "feature": {"sight_features": "", "sight_content": ""}}, {"title": "金寨县历史文物馆", "address": "安徽省六安市金寨县江环南路", "image": "", "rank": 29, "time": 2, "location": {"lat": 31.716301247045173, "lng": 115.940649266378}, "feature": {"sight_features": "", "sight_content": ""}}, {"title": "二龙岗生态公园", "address": "安徽省六安市金寨县江环北路", "image": "", "rank": 30, "time": 2, "location": {"lat": 31.734760676909996, "lng": 115.94130311960278}, "feature": {"sight_features": "", "sight_content": ""}}, {"title": "星期六儿童成长主题乐园", "address": "红军大道58号", "image": "", "rank": 31, "time": 2, "location": {"lat": 31.725535880847826, "lng": 115.94782518860539}, "feature": {"sight_features": "", "sight_content": ""}}, {"title": "吴家祠堂", "address": "六安市金寨县零六一县道", "image": "", "rank": 32, "time": 2, "location": {"lat": 31.73346173438129, "lng": 115.94044120714393}, "feature": {"sight_features": "", "sight_content": ""}}, {"title": "杨家祠堂", "address": "六安市金寨县零五六县道", "image": "", "rank": 33, "time": 2.0, "location": {"lat": 31.73346173438129, "lng": 115.94044120714393}, "feature": {"sight_features": "", "sight_content": ""}}, {"title": "滨溪园", "address": "六安市金寨县", "image": "", "rank": 34, "time": 2, "location": {"lat": 31.73346173438129, "lng": 115.94044120714393}, "feature": {"sight_features": "", "sight_content": ""}}, {"title": "徐家祠堂", "address": "六安市金寨县零五四县道", "image": "", "rank": 35, "time": 1.5, "location": {"lat": 31.73346173438129, "lng": 115.94044120714393}, "feature": {"sight_features": "", "sight_content": ""}}, {"title": "金寨县观音禅寺", "address": "安徽省六安市金寨县梅山镇观音冲路观音禅寺", "image": "", "rank": 36, "time": 2, "location": {"lat": 31.683703176863173, "lng": 115.88408142961737}, "feature": {"sight_features": "", "sight_content": ""}}, {"title": "多云山度假村", "address": "天堂寨马石叉路口天堂寨土特产交易市场东南侧100米", "image": "", "rank": 37, "time": 2, "location": {"lat": 36.55570806407891, "lng": 113.66987234249092}, "feature": {"sight_features": "", "sight_content": ""}}, {"title": "仙境度假村", "address": "燕子河镇大峡谷村仙境度假村高尔夫练习场附近", "image": "", "rank": 38, "time": 2, "location": {"lat": 31.2543135916801, "lng": 115.90677262679941}, "feature": {"sight_features": "", "sight_content": ""}}, {"title": "图书馆新馆", "address": "文化中心内", "image": "", "rank": 39, "time": 1.5, "location": {"lat": 25.329479837090755, "lng": 118.29914298618093}, "feature": {"sight_features": "", "sight_content": ""}}, {"title": "金寨华安奥普乐水上乐园", "address": "新城区大别山玉博园东侧(明德小学附近)", "image": "", "rank": 40, "time": 6.0, "location": {"lat": 34.272724469532555, "lng": 108.96739103850439}, "feature": {"sight_features": "", "sight_content": ""}}, {"title": "天堂寨老朱农家乐", "address": "天堂寨风景区内300米(白马大峡谷对面)", "image": "", "rank": 41, "time": null, "location": {"lat": 31.152209441554742, "lng": 115.7782054551936}, "feature": {"sight_features": "", "sight_content": ""}}, {"title": "长江河漂流", "address": "013乡道长江河漂流", "image": "", "rank": 42, "time": 2, "location": {"lat": 40.115696897150926, "lng": 116.62995365726826}, "feature": {"sight_features": "", "sight_content": ""}}, {"title": "自然农家乐", "address": "茶卜路附近", "image": "", "rank": 43, "time": 2, "location": {"lat": 31.252973032298673, "lng": 115.90398069327439}, "feature": {"sight_features": "", "sight_content": ""}}, {"title": "欢乐谷", "address": "金顾路17-18号附近", "image": "", "rank": 44, "time": 4.5, "location": {"lat": 31.729482147937638, "lng": 115.94242104329298}, "feature": {"sight_features": "", "sight_content": ""}}, {"title": "艺缘书画廊", "address": "梅山镇流波路28号", "image": "", "rank": 45, "time": 2, "location": {"lat": 31.68670344602795, "lng": 115.88573773130535}, "feature": {"sight_features": "", "sight_content": ""}}, {"title": "可乐书吧", "address": "胜利巷与金光大道交叉口东南150米", "image": "", "rank": 46, "time": null, "location": {"lat": 31.697082620830475, "lng": 115.89009289009013}, "feature": {"sight_features": "", "sight_content": ""}}, {"title": "半亩田园农家驿站", "address": "军平电器经营部东北侧50米", "image": "", "rank": 47, "time": 2, "location": {"lat": 33.38685120869077, "lng": 120.13036259222805}, "feature": {"sight_features": "", "sight_content": ""}}, {"title": "怀里农家乐(009号店)", "address": "怀里村", "image": "", "rank": 48, "time": 2, "location": {"lat": 31.68001791791004, "lng": 115.90032496444218}, "feature": {"sight_features": "", "sight_content": ""}}, {"title": "红二十八军部旧址", "address": "安徽省金寨县南溪镇", "image": "", "rank": 49, "time": 2, "location": {"lat": 31.501521244933045, "lng": 115.64840884739566}, "feature": {"sight_features": "", "sight_content": ""}}, {"title": "南溪鱼友农家小院", "address": "六安市-金寨县-卷棚村", "image": "", "rank": 50, "time": 2, "location": {"lat": 31.73346173438129, "lng": 115.94044120714393}, "feature": {"sight_features": "", "sight_content": ""}}, {"title": "金寨县西茶谷农庄", "address": "六安市-金寨县-面冲村西", "image": "", "rank": 51, "time": 2, "location": {"lat": 31.52235970618938, "lng": 116.02457646527624}, "feature": {"sight_features": "", "sight_content": ""}}, {"title": "峡谷上站游览车候车点", "address": "六安市-金寨县-天堂寨风景区内", "image": "", "rank": 52, "time": 2, "location": {"lat": 31.152209441554742, "lng": 115.7782054551936}, "feature": {"sight_features": "", "sight_content": ""}}, {"title": "倒凹子", "address": "六安市-金寨县", "image": "", "rank": 53, "time": 2, "location": {"lat": 31.73346173438129, "lng": 115.94044120714393}, "feature": {"sight_features": "", "sight_content": ""}}, {"title": "塘家塆", "address": "六安市-金寨县", "image": "", "rank": 54, "time": null, "location": {"lat": 31.73346173438129, "lng": 115.94044120714393}, "feature": {"sight_features": "", "sight_content": ""}}, {"title": "铁冲乡野生玉兰谷", "address": "六安金寨铁冲乡玉兰谷（望春谷）013乡道", "image": "", "rank": 55, "time": 2, "location": {"lat": 31.70668162088801, "lng": 115.67794007779864}, "feature": {"sight_features": "", "sight_content": ""}}]}