{"cityName": "吉水", "days": 2, "cityImage": "", "spots": [{"title": "吉水桃花岛", "address": "吉安市吉水县城南郊赣江河道中央", "image": "", "rank": 1, "time": 1.0, "location": {"lat": 27.484236375727402, "lng": 115.14149808094264}, "feature": {"sight_features": "", "sight_content": ""}}, {"title": "毛泽东祖籍游览苑", "address": "吉安市吉水县105国道1880号公桩", "image": "", "rank": 2, "time": 1.0, "location": {"lat": 27.377375307140046, "lng": 115.20244899011391}, "feature": {"sight_features": "", "sight_content": ""}}, {"title": "杨万里墓", "address": "江西省吉安市吉水县湴塘村", "image": "", "rank": 3, "time": 2, "location": {"lat": 27.320631673636907, "lng": 115.03310345643024}, "feature": {"sight_features": "", "sight_content": ""}}, {"title": "船游赣江", "address": "吉安市吉水县新县政府右侧（靠近吉水赣江大桥）吉水码头", "image": "", "rank": 4, "time": 2, "location": {"lat": 27.182281969432363, "lng": 115.10901305674537}, "feature": {"sight_features": "", "sight_content": ""}}, {"title": "吉水县文峰白鹅基地孵化育雏中心", "address": "331省道附近", "image": "", "rank": 5, "time": 2, "location": {"lat": 38.76243571351783, "lng": 115.64385441420583}, "feature": {"sight_features": "", "sight_content": ""}}, {"title": "儿童成长主题乐园", "address": "龙华北大道万尚·庐陵文化商业广场三楼C-021", "image": "", "rank": 6, "time": 2, "location": {"lat": 24.308293618054236, "lng": 109.44141354795805}, "feature": {"sight_features": "", "sight_content": ""}}, {"title": "吉水县陇聚源农庄", "address": "文峰镇文水村一队双陇里城北市场后面分左手黎洞新村五百米处", "image": "", "rank": 7, "time": 2, "location": {"lat": 27.2235496767719, "lng": 115.1449065035719}, "feature": {"sight_features": "", "sight_content": ""}}, {"title": "盘谷镇谷村", "address": "吉安市吉水县盘松段", "image": "", "rank": 8, "time": 2, "location": {"lat": 27.433042556372314, "lng": 115.00994301769472}, "feature": {"sight_features": "", "sight_content": ""}}, {"title": "八都公园", "address": "吉安市吉水县", "image": "", "rank": 9, "time": 2, "location": {"lat": 27.235259745038604, "lng": 115.14256983128013}, "feature": {"sight_features": "", "sight_content": ""}}, {"title": "云隐禅寺", "address": "江西省吉安市吉水县", "image": "", "rank": 10, "time": 2, "location": {"lat": 27.235259745038604, "lng": 115.14256983128013}, "feature": {"sight_features": "", "sight_content": ""}}, {"title": "金沙洲水上乐园", "address": "新县政府右侧吉水码头(靠近吉水赣江大桥)", "image": "", "rank": 11, "time": null, "location": {"lat": 27.182281969432363, "lng": 115.10901305674537}, "feature": {"sight_features": "", "sight_content": ""}}, {"title": "醪桥休闲广场", "address": "醪桥大道与105国道交叉口南100米", "image": "", "rank": 12, "time": 2, "location": {"lat": 27.305338061473666, "lng": 115.15832724447979}, "feature": {"sight_features": "", "sight_content": ""}}, {"title": "龙华寺", "address": "龙华中大道140号附近", "image": "", "rank": 13, "time": 2.0, "location": {"lat": 27.209532106070316, "lng": 115.14562753926893}, "feature": {"sight_features": "", "sight_content": ""}}, {"title": "七里湾山庄", "address": "331省道附近", "image": "", "rank": 14, "time": 2, "location": {"lat": 38.76243571351783, "lng": 115.64385441420583}, "feature": {"sight_features": "", "sight_content": ""}}, {"title": "红黄蓝美术培训基地", "address": "时代商贸城步行街18附近", "image": "", "rank": 15, "time": 2, "location": {"lat": 27.229442985125104, "lng": 115.1435846470144}, "feature": {"sight_features": "", "sight_content": ""}}, {"title": "白沙镇步行街", "address": "江西省吉水县227省道", "image": "", "rank": 16, "time": 2, "location": {"lat": 27.086643988013908, "lng": 115.5407467128545}, "feature": {"sight_features": "", "sight_content": ""}}]}