{"cityName": "九龙", "days": 2, "cityImage": "", "spots": [{"title": "猛董", "address": "甘孜藏族自治州九龙县三岩龙乡", "image": "", "rank": 1, "time": 6.0, "location": {"lat": 28.784914786352882, "lng": 101.28323753116118}, "feature": {"sight_features": "", "sight_content": ""}}, {"title": "吉日寺", "address": "甘孜藏族自治州九龙县", "image": "", "rank": 2, "time": 1.5, "location": {"lat": 29.006431902924817, "lng": 101.5134156671805}, "feature": {"sight_features": "", "sight_content": ""}}, {"title": "日鲁库大草原", "address": "甘孜藏族自治州九龙县", "image": "", "rank": 3, "time": 3.5, "location": {"lat": 29.006431902924817, "lng": 101.5134156671805}, "feature": {"sight_features": "", "sight_content": ""}}, {"title": "九龙县档案馆", "address": "西巷子8号", "image": "", "rank": 4, "time": 2, "location": {"lat": 32.028129389879936, "lng": 112.15479231031222}, "feature": {"sight_features": "", "sight_content": ""}}, {"title": "仙女湖", "address": "四川省甘孜藏族自治州九龙县", "image": "", "rank": 5, "time": 1.0, "location": {"lat": 29.006431902924817, "lng": 101.5134156671805}, "feature": {"sight_features": "", "sight_content": ""}}, {"title": "康兰农家乐", "address": "215省道西150米", "image": "", "rank": 6, "time": 2, "location": {"lat": 36.52111105176839, "lng": 115.24852399316939}, "feature": {"sight_features": "", "sight_content": ""}}, {"title": "呷尔河畔休闲山庄", "address": "215省道附近", "image": "", "rank": 7, "time": 2, "location": {"lat": 36.52111105176839, "lng": 115.24987145143434}, "feature": {"sight_features": "", "sight_content": ""}}, {"title": "民族广场", "address": "西巷子1号", "image": "", "rank": 8, "time": 2, "location": {"lat": 32.028129389879936, "lng": 112.15479231031222}, "feature": {"sight_features": "", "sight_content": ""}}]}