{"cityName": "酒泉", "days": "3", "cityImage": "", "spots": [{"title": "鸣沙山月牙泉", "address": "酒泉市敦煌市南6公里", "image": "", "rank": 1, "time": 4.0, "location": {"lat": 40.106491779975926, "lng": 94.66852702576244}, "feature": {"sight_features": "特色1 这里沙山与泉水共处，历来以“沙漠奇观”著称于世。 特色2 它是敦煌的名片之一。爬鸣沙山、骑骆驼，在山顶上看沙海和日落，感受西北大漠的苍凉广阔。 玩一玩滑沙，感受从沙山的高处飞速而下的快感，身边黄沙飞舞，耳旁响起隆隆的轰鸣声。", "sight_content": "月牙泉处于鸣沙山环抱之中，其形酷似一弯新月而得名。古称沙井，又名药泉，一度讹传渥洼池，清代正名月牙泉。面积13.2亩，平均水深4.2米。水质甘冽，澄清如镜。流沙与泉水之间仅数十米。但虽遇烈风而泉不被流沙所掩没，地处戈壁而泉水不浊不涸。这种沙泉共生，泉沙共存的独特地貌。\n鸣沙山像一条巨龙，横卧在敦煌城南。山体由流沙堆积而成。它像金子一样灿黄，绸缎一样柔软，少女一样娴静，凤凰一样美丽。它东起莫高窟，西止睡佛山下的党河水库，绵延40多公里，南北广布20多公里，最高处海拔1715米。远远望去，峰峦高低起伏，如刀削斧劈，景色奇丽，蔚为壮观。\n游人非常喜欢登鸣沙山。但要登上山顶，可真不容易，虽无攀华山之惊险，但与登泰山一样艰难。绵绵细沙，进一步，退半步，似平行而无进，只好手脚并用往上爬。登上山顶，那一道道沙峰如大海中的金色波浪，气势磅礴，汹涌澎湃。细看那山坡上的沙浪如轻波荡漾的涟漪，时而湍急，时而潺缓，时而萦回涡旋，真是迭宕有致，妙趣横生。还有那沙山下的一泓清泉，像一个妙龄少女，温存地依偎在情人的怀抱中。极目远眺，天地豁然开朗，心胸顿时开阔，童心不由萌发。下山最为有趣，顺坡而下，只觉两肋生风，一跳十步，驾空驭虚，仿佛有羽化成仙飘飘然的感觉。当人多结伴下滑，推动流沙疾速下跌，只见沙浪滚滚，犹如山洪奔泻。此时就会听到咚咚咚的响声，似敲锣打鼓，又像笙笛吹奏，令人动魄惊心而又玩味无穷。\n酒泉市旅游局官方推荐，欢迎点击酒泉旅游旗舰店了解最全的酒泉旅游资讯和产品，更多门票产品等你来点击！！"}}, {"title": "莫高窟", "address": "酒泉市敦煌市东南25公里处鸣沙山东麓、宕泉河西岸的断崖上", "image": "", "rank": 2, "time": 4.0, "location": {"lat": 39.97777232593531, "lng": 94.63411166428476}, "feature": {"sight_features": "特色1 丝绸之路上文化交融的宝库；中华千年历史文明艺术瑰宝 特色2 依山而建的石胎泥塑题材，堪称佛教彩塑博物馆 特色3 洞窟建筑、彩塑、绘画三位一体的综合性艺术 特色4 中国古代美术史的光辉篇章，中国古代史研究的形象史", "sight_content": "莫高窟简介：\n莫高窟，俗称千佛洞，坐落在河西走廊西端的敦煌。它始建于十六国的前秦时期，历经十六国、北朝、隋、唐、五代、西夏、元等历代的兴建，形成巨大的规模，有洞窟约735个，壁画约4.5万平方米、泥质彩塑约2415尊，是世界上现存规模较大、内容丰富的佛教艺术地。1961年，莫高窟被中华人民共和国国务院公布为第一批全国重点文物保护单位之一。1987年，莫高窟被列为世界文化遗产。\n莫高窟\n莫高窟于敦煌市东南约25公里处鸣沙山东麓、宕泉河西岸的断崖上。坐西朝东，面向三危山。洞窟密布在南北长约2公里的崖面上，高约40米至50米，岩质为酒泉系砾石岩层，由积沙与卵石沉淀粘结而成，沙层疏松，不适于雕刻，故石窟中以泥塑彩绘为主。\n莫高窟历史\n晋时曾称“仙岩寺”，十六国前秦时正式名为“莫高窟”。其后，隋末唐初曾称“崇教寺”，元代称“皇庆寺”，清末又称“雷音寺”，但都属在某一短时期内以一窟、一寺之名代称整个莫高窟。莫高窟的始建年代，据第159窟前室北壁晚唐墨书《莫高窟记》，莫高窟始建于西晋末年；又据P.2691《沙州地志》，洞窟始建于东晋永和九年（353）；再据敦煌研究院藏武周圣历元年（698）《李君修莫高窟佛龛碑》载，前秦建元二年(366)沙门乐僔始凿第一窟。目前三说并存，但通常多依前秦建元二年说。前秦之后，又经北凉、北魏、西魏、北周、隋、唐（分初、盛、中、晚四期）、五代、宋、回鹘、西夏、元等，前后共十一个时代，十四个时期，历时千年，在武周(初唐)时已有“窟室千余”。\n主题电影千年莫高\n“千年莫高”用富感染力的电影艺术语言，史诗般凝练地为观众呈现出敦煌莫高窟延续至今1600余年的历史文化背景。使观众在参观洞窟之前能对丝路文化、敦煌历史、莫高窟起源以及洞窟开凿、彩塑与壁画制作等相关内容有概括的了解，还能使观众领略敦煌莫高窟极高的历史与人文价值。\n\n\n球幕电影梦幻佛宫\n“梦幻佛宫”是以人文景观敦煌石窟艺术为表现题材的高清8K数字球幕电影。影片以虚拟漫游的形式对莫高窟不同历史时期具有艺术价值的7个特级洞窟（45、220、285、61、130、420、428）进行了全方位的展示。球幕电影“梦幻佛宫”是莫高窟数字展示中心核心的展陈内容，这种特殊的球幕技术通常被科技馆、天文馆用来播放自然奇观和天文科普类影片，而用球幕电影手法展示璀璨绚丽的莫高窟佛教艺术在全球范围内尚属前例。"}}, {"title": "雅丹地质公园", "address": "酒泉市敦煌市西北约180公里处", "image": "", "rank": 3, "time": 3.0, "location": {"lat": 40.14786748424431, "lng": 94.66852702576244}, "feature": {"sight_features": "特色1 魔鬼城开启你的冒险之旅。 特色2 观赏造型各异的雅丹地貌群，景色奇幻壮观，是拍出摄影大片的绝妙地点。 特色3 一座罕见的天然雕塑博物馆。", "sight_content": "甘肃敦煌雅丹国家地质公园位于我国历史文化名城敦煌市西北约 180 公里处，玉门关西北约 100 公里处。公园面积 398 平方公里。它主要由风蚀作用形成的雅丹地貌景观。 公园内集中连片地分布着各种各样造型奇特的风蚀地貌，例如，“蒙古包”、“骆驼”、“石鸟”、“石人”、“石佛”、“石马”等，千姿百态，惟妙惟肖。\n它宛如一座中世纪的古城，令世人瞠目。夜幕降临之后，尖厉的劲风发出恐怖的啸叫，犹如千万只野兽在怒吼，令人毛骨悚然，也因此得名“魔鬼城”。\n敦煌雅丹国家地质公园以其独特的大漠风光、形态各异的地质奇观、古老的民间传说，吸引了无数勇敢的探险者前来揭开“魔鬼城”神秘的面纱，探寻大自然的奥秘。\n酒泉市旅游局官方推荐，欢迎点击酒泉旅游旗舰店了解最全的酒泉旅游资讯和产品，更多门票产品等你来点击！！\nhttps://pages.ctrip.com/commerce/promote/201508/destination/jq/index.html"}}, {"title": "玉门关", "address": "酒泉市敦煌市城西北80公里戈壁滩上", "image": "", "rank": 4, "time": 1.0, "location": {"lat": 40.14786748424431, "lng": 94.66852702576244}, "feature": {"sight_features": "特色1 一望无际的戈壁风光，虚无缥缈的海市蜃楼。 特色2 汉代时期重要的军事关隘和丝路交通要道。", "sight_content": "说起玉门关，人们马上会想到一首脍炙人口的唐诗，这就是王之涣的《凉州词》：黄河远上白云间，一片孤城万仞山。羌笛何须怨杨柳，春风不度玉门关。诗中那悲壮苍凉的情绪强烈地感染着人们，引发起人们对这座古老而富有神奇传说的关塞的向往。\n玉门关顾名思义是和田玉进出的关卡，一开始的丝绸之路主要是向中原运送和田玉的玉石之路，相传丝绸之路畅通之后，西域诸国的商队络绎不绝地经玉门关入关。于阗国的特产“和田玉”也源源不断地经此运往内地。于阗国王为换回中原王朝的大批丝绸，派了官兵，专门押解运送玉石。官兵押运了几次后，就出现了怪事——驮运玉石的骆驼一进城就口吐白沫，昏迷不醒。押运官对此束手无策。一个拉骆驼老人告诉押运官：“骆驼入关生病，事出有因。咱们长年途经此地运玉石，从未祭礼关神。再不祭祀，恐怕下一趟也要生病”。 押运官问：“依你之见，如何才能消病除灾，确保人畜平安呢？”老人说：“用上等玉石，在此城关门上镶嵌一圈，这样关楼就有了光彩，关神也就高兴了。”押运官按老人的建议办了，骆驼灾病果然消除，平安到达了长安。关城因为城门砌了一圈闪光的玉石从此就称为玉门关。\n玉门关又称小方盘城，耸立在敦煌城西北90公里处的一个沙石岗上。关城呈方形，四周城垣保存完好，为黄胶土夯筑，开西北两门。\n关城东西长24米，南北宽26米，垣高9.7米。西、北各有一门，总面积有630多平方米。它没有山海关的高大壮实，也没有嘉峪关的雄伟厚重，更没有居庸关的巍峨气派，它甚至会让各位觉得完全不符合最初的想象，但是，就是这个看上去快要风干的土垒，见证了多少历史沧桑。\n酒泉市旅游局官方推荐，欢迎点击酒泉旅游旗舰店了解最全的酒泉旅游资讯和产品，更多门票产品等你来点击！！"}}, {"title": "敦煌影视古城", "address": "酒泉市敦煌市西南18公里处的大漠戈壁滩", "image": "", "rank": 5, "time": 2.0, "location": {"lat": 40.02366423187944, "lng": 94.66852702576244}, "feature": {"sight_features": "特色1 漫步西北特色的古城内，拍摄古色古香的漂亮照片 特色2 行走在众多影视作品的拍摄地，寻找心中熟悉的场景 特色3 敦煌影视古城戈壁沙漠让你感受另一种韵味！", "sight_content": "“敦煌，大也；煌，盛也。”古人以盛大辉煌来形容古代敦煌的繁荣昌盛，而今坐落在距敦煌市区西16公里的敦煌影视城为我们再现了敦煌昔日的辉煌和神奇的传说。\n敦煌影视城以宋代《清明上河图》为蓝本，被称为“中国西北古代建筑艺术的博物馆”，参考中国古代建筑风格精心设计、建造而成。建筑面积1.5万平方米，融千年西域民俗于一体，城开东、西、南三门，城楼高耸；城内由北宋时期的高昌、敦煌、甘州、兴庆和汴梁五条主要街道组成，点缀以不同地域的过街楼、佛庙、当铺、货栈、丝绸店、酒肆、饭馆、住宅等为拍摄的道具，互为背景，相辅相成。敦煌影视城已为《敦煌》、《大敦煌》、《神探狄仁杰》、《成吉思汗》、《怒剑啸狂沙》、《封神榜》、《情剑山河》、《鸿门宴》等一百多部中外影视片拍摄提供了场景，现已成为西北最完整的影视拍摄基地。\n如今的敦煌影视城已成为集观光、娱乐于一体的国家AAA级旅游景区。游客可参与影视剧的拍摄，参加跑马、跑车、射箭、古装摄影、篝火晚会等活动，参观仿敦煌石窟和佛寺，可观赏中国工艺美术大师阮文辉艺术馆和阮大师撰写的近百幅生动的对联，若有兴趣还可下榻驿馆，品尝传统的风味小吃……除以上展示外，先后在这里拍摄过《封神演义》、《怒剑啸狂沙》、《春桃》、《敦煌夜谈》、《沙州王子》、《海市蜃楼》等多部中外影视剧目。"}}, {"title": "敦煌博物馆", "address": "酒泉市敦煌市鸣山北路1390号", "image": "", "rank": 6, "time": 2.0, "location": {"lat": 40.14523667643105, "lng": 94.6749005931863}, "feature": {"sight_features": "", "sight_content": ""}}, {"title": "阳关遗址", "address": "酒泉市敦煌市阳关镇阳关景区", "image": "", "rank": 7, "time": 2.5, "location": {"lat": 39.94071531032935, "lng": 94.06125690733201}, "feature": {"sight_features": "特色1 千年遗址位于戈壁滩上，场面十分壮观。 特色2 西出阳关无故人，一座被流沙掩埋的古城 特色3 领略大汉盛唐历史文化的灿烂与辉煌，欣赏大漠自然风光的奇险。", "sight_content": "《渭城曲》王维“渭城朝雨浥轻尘，客舍青青柳色新。劝君更尽一杯酒，西出阳关无故人。”阳关景区是国家AAAA级旅游景区，位于甘肃省敦煌市区西南70公里处，是由汉唐历史遗迹、大漠自然风光、生态农业观光以及阳关博物馆等景观构成的具有文化价值型、旅游观光型、休闲体验型等多元素的特色景区。 阳关，始建于公元前1世纪西汉武帝时期，曾是中国汉唐时期重要的边塞关隘和最早的海关，为保疆安民、维护西域稳定，保障丝绸之路畅通起到了重要的作用。唐代诗人王维的《渭城曲》“劝君更尽一杯酒，西出阳关无故人”，及历代文人纷纷吟唱，使阳关成为人们告别故土，告别亲人，出征远游，表达离情别绪的场所。为了祝福远行的亲友，人们寄希望于阳关道成为广阔、平坦的“阳关大道”，约定俗成，阳关大道就成为了希望大道、光明大道、康庄大道的代名词，于是有了俗语“你走你的阳关道，我过我的独木桥”。\n阳关景区现存有汉唐时期的古关、古城、古烽燧、古水源、古道、古塞墙、古墓葬、古陶窑等众多文物遗址。为了更好的保护这些文物遗址、承传发扬敦煌文化，景区内兴建了阳关博物馆。阳关博物馆整体呈现仿汉建筑风格，占地约10万平方米，是目前中国西北地区最大的景点式遗址博物馆。馆藏文物丰富，陈展风格新颖，能够系统的反映汉唐时期敦煌及阳关的繁华与变迁。\n游客游览阳关景区，通过参与凭吊古迹、参观展览、登城远眺、持牒出关、饮酒壮别、骑射练兵、刻石留名、漫步阳关道、攀行独木桥、沙漠探险、品尝农家餐饮等特色活动，可以亲身领略大汉盛唐历史文化的灿烂与辉煌，欣赏大漠自然风光的奇险与广阔，体验风土人情的淳朴与自然。\n酒泉市旅游局官方推荐，欢迎点击酒泉旅游旗舰店了解最全的酒泉旅游资讯和产品，更多门票产品等你来点击！！\nhttps://pages.ctrip.com/commerce/promote/201508/destination/jq/index.html"}}, {"title": "汉长城", "address": "酒泉市敦煌西北部的荒漠中(玉门关以西)", "image": "", "rank": 8, "time": 1.0, "location": {"lat": 40.358215339913286, "lng": 93.87186925959655}, "feature": {"sight_features": "", "sight_content": ""}}, {"title": "赤金峡风景区", "address": "酒泉市玉门赤金峡水利风景区", "image": "", "rank": 9, "time": 4.0, "location": {"lat": 40.29762002088378, "lng": 97.05171169118218}, "feature": {"sight_features": "特色1 参观戈壁上树木葱郁的绿洲，还有清澈的河流湖水，优美的环境西北罕见。 体验激情漂流，感受夏日里玩水的畅快惬意。", "sight_content": "赤金峡水利风景区依山傍水，景色独特秀丽，气候宜人，旅游资源十分丰富。景区内自然景观和人文景观较多，有雄伟壮观的水库大坝、气势恢弘的坝后水电站、红柳仙子救唐僧的红柳湾、五颜六色的月季坛、争奇斗妍的玫瑰园、具有神奇传说的黑石仙山、妖魔山、空窿山环抱景区；有公元前121年的玉门关遗址、赤金断水碑记、有林则徐等名人途径赤金峡留下的传说和千古绝句。\n景区内空气清新、水面宽广、花草茂盛，自然景观和人文景观在此相互照应，相互依托。\n甘肃省酒泉市赤金峡水利风景区始建于2001年。按照水利部搞好水利风景区建设与管理的有关精神，结合2001年赤金峡水库除险加固国债项目的实施，甘肃省疏勒河流域水资源管理局花海灌区管理处依托赤金峡水库水利工程景观、自然风景区及历史文化遗迹创建了赤金峡水利风景区。\n目前，赤金峡水利风景区已被水利部水利风景区评审委员会评为第四批国家水利风景区。赤金峡水利风景区地理位置优越，交通十分便利，距312国道仅12公里。有酒泉航天城、长城嘉峪关、敦煌莫高窟等将在全国及世界享有盛名的城市景观及古代遗迹贯通一线。赤金峡水利风景区已成为一个集观光旅游、避暑、休闲、娱乐、餐饮于一体的旅游胜地，具有一定的区域代表性。\n酒泉市旅游局官方推荐，欢迎点击酒泉旅游旗舰店了解最全的酒泉旅游资讯和产品，更多门票产品等你来点击！！\nhttps://pages.ctrip.com/commerce/promote/201508/destination/jq/index.html"}}, {"title": "西千佛洞", "address": "敦煌市区35公里处", "image": "", "rank": 10, "time": 1.0, "location": {"lat": 40.14786748424431, "lng": 94.66852702576244}, "feature": {"sight_features": "特色1 西千佛洞是敦惶佛教艺术体系的一部分，内塑佛像，四壁大多画着贤劫千佛、佛跌坐说法图等。", "sight_content": "敦煌境内还有一石窟，它位于鸣沙山的西端，莫高窟的西端，敦煌城的西端，也开凿在党河河谷西岸的悬崖峭壁上，因此，被称之为西千佛洞。从敦煌市西南行至阳关途中，道左不远处即为党河，河床北岸为寸草不生的戈壁滩，南岸是逶迤蛇曲的沙山，西千佛就位于沙山尽头的河床北岸陡崖上，西千佛洞始创年代应早于莫高窟，至少应与莫高窟属同时代建造,西千佛洞规模虽小，但风光绮丽，环境幽雅。石窟内艳丽夺目的壁画、妙趣横生的故事、神态逼真的佛像，更给这世外桃源蒙上了一层神秘的面纱，使这块佛教圣地溢彩生辉，引人入胜。\n西千佛洞是敦煌佛教艺术体系的一个组成部分。现存北魏至宋代17个洞窟。其中一至三窟为唐代窟，四至八窟为魏代窟，十六窟为晚唐窟，其他洞窟因风化模糊，时代难以辨认。其洞窟形制及壁画艺术风格与莫高窟同时作品相同。开凿年代因无纪年题记和确切记载，故无从考知。但从巴黎藏敦煌遗书《沙州都督府图经》卷所记佛龛之文中推断，西千佛洞的创建年代至少与莫高窟为同一时期。\n西千佛洞在近一千年的岁月里，受到了自然和人为的破坏，使这座古老的艺术宝库损失惨重。直到80年代初，这里依然荒凉破败，有的洞窟摇摇欲坠，随时都会坍榻，近年来，在各级部门的关注下，对洞窟进行了全面的修缮和加固，使面临崩塌的崖体和洞窟稳固坚定，使古老的石窟焕发了青春，粮美的艺术得到了有效的保护.西千佛洞得到了有效的保护，有10个洞窟开放，成为游人在敦煌至阳关旅游线上重要的参观内容。"}}, {"title": "藏经洞", "address": "酒泉市敦煌市110专道敦煌莫高窟内", "image": "", "rank": 11, "time": 0.4, "location": {"lat": 40.0486548577321, "lng": 94.81571641284448}, "feature": {"sight_features": "", "sight_content": ""}}, {"title": "榆林窟", "address": "酒泉市瓜州县", "image": "", "rank": 12, "time": 2.5, "location": {"lat": 40.526105978950454, "lng": 95.78873636451216}, "feature": {"sight_features": "特色1 敦煌艺术的代表", "sight_content": "榆林窟又名万佛峡，始建于北魏。保存最完整的是第二十五号窟该窟为中唐开凿，壁画结构严谨，造型逼真，色彩鲜艳，可别是线描，潇洒流畅，为唐代壁画所罕见。西夏窟唐僧取经故事中，孙悟空已成为猴王出现，比《西游记》早三百年。榆林窟无论祠窟制型、壁画内容、艺术风格都与莫高窟有密切关系，是敦煌艺术的一个组成部分，有较高的历史和艺术价值。榆林窟是敦煌石窟的组成部分，开凿于隋唐以前。现存唐、五代、宋、西夏、元等朝代洞窟43个，分布在榆林河东、西两岸的悬崖峭壁上，东崖32个、西崖11个、壁画4200平方米，彩塑259身，约占莫高窟壁画总面积的九分之一。榆林窟在内容、艺术风格、绘画形式方面同莫高窟一脉相承，同为姊妹窟。\n榆林窟的价值主要表现在精美的壁画上，有精美的佛和菩萨画像，有场面宏大的佛教故事画，有种类繁多的花卉禽兽，有极为精致的装饰图案。壁画多为唐代至元代800年间的作品，有些形象为其他地区石窟所未见，如描写瓜州节度使曹氏家族的供养像（第19窟）、都勾当画院画家的形象、沙州工匠都勾当画院使保供养像、知画手武保琳供养像（第35窟）、西夏时期党项武官画像、唐僧取经图等。其中第25窟的唐代壁画，更是世所罕见的珍品。"}}, {"title": "沙州市场", "address": "酒泉市敦煌市阳关中路", "image": "", "rank": 13, "time": 2.5, "location": {"lat": 40.14713711649718, "lng": 94.65899305965613}, "feature": {"sight_features": "", "sight_content": ""}}, {"title": "西汉酒泉胜迹", "address": "酒泉市肃州区城东1.9公里处（肃州区公园路100号）", "image": "", "rank": 14, "time": 1.5, "location": {"lat": 39.749919322920896, "lng": 98.53920159192762}, "feature": {"sight_features": "", "sight_content": ""}}, {"title": "敦煌雷音寺", "address": "敦煌市鸣山路鸣沙山下", "image": "", "rank": 15, "time": 4.0, "location": {"lat": 40.133732702944855, "lng": 94.669365755651}, "feature": {"sight_features": "", "sight_content": ""}}, {"title": "九层楼", "address": "敦煌市东南25公里处鸣沙山东麓、宕泉河西岸的断崖上", "image": "", "rank": 16, "time": 0.4, "location": {"lat": 39.97777232593531, "lng": 94.63411166428476}, "feature": {"sight_features": "", "sight_content": ""}}, {"title": "钟鼓楼", "address": "酒泉市肃州区东大街与北大街交叉处", "image": "", "rank": 17, "time": 0.75, "location": {"lat": 39.75124550996345, "lng": 98.51432185303162}, "feature": {"sight_features": "", "sight_content": ""}}, {"title": "河仓城", "address": "酒泉市敦煌市西北60公里处的戈壁滩中，西距玉门关(小方盘城)20公里", "image": "", "rank": 18, "time": 1.0, "location": {"lat": 40.358215339913286, "lng": 93.87186925959655}, "feature": {"sight_features": "", "sight_content": ""}}, {"title": "反弹琵琶雕像", "address": "敦煌市正圆花坛环岛中心，阳关中路与沙州路交叉口", "image": "", "rank": 19, "time": 0.35, "location": {"lat": 40.14713711649718, "lng": 94.65899305965613}, "feature": {"sight_features": "", "sight_content": ""}}, {"title": "酒泉天宝大景区", "address": "酒泉市肃州区富康路4号酒泉富康购物中心4楼", "image": "", "rank": 20, "time": 1.0, "location": {"lat": 39.73749271806777, "lng": 98.51013707615235}, "feature": {"sight_features": "", "sight_content": "酒泉天宝大景区，坐落于甘肃省酒泉市，景区是以西北戈壁生态绿洲休闲度假为主题，打造的西部地域特色鲜明、民族历史文化浓郁的大型场景再现式文化旅游景区。景区总投资45亿元，占地面积233亩，总建筑面积50万平方米。景区包含文化观光板块、公共服务系统、生态度假板块，景区文化内涵丰富，充分展现了地方风俗、弘扬中华文化、倡导绿色生态休闲生活方式。目前，景区已建成丝路天宝•中国观赏石景园和天宝皇家赏珍馆两个主题景区。\n丝路天宝•中国观赏石景园，面积12404㎡包含25个展区，景区以规模化、艺术化展示中国古代四大名石、当代知名观赏石等。打破传统展览模式，采取展架、展柜与情景结合，与雅丹地貌结合，与生态植物结合，与现代科技结合的独特手法将国内外各类名石、水晶、翡翠、根雕、根艺进行展示。所展藏品：翡翠如露珠凝滴，水晶如冰清玉莹。幽兰如石中君子，太湖如石中帝王。形成多种文化风格、地域景观、意境情景。\n\n\n\n\n天宝皇家赏珍馆，包含12个展区，主展区构造严谨、威严肃穆、金碧辉煌，庄严绚丽、雍容华贵尽显皇家气象。全景呈现了满汉全席、后宫花宴、锦绣隆恩的写实场景，深度还原出古代帝王身份之尊贵，宫廷陈设家居之精美。天宝皇家赏珍馆集东西方文化和生活品位为一体，弥漫着关于品味与潮流的皇家家居，唤醒人们深藏对居家生活的艺术情感，享受凝聚皇族超凡的奢华生活。摒弃繁杂，简约中透出尊贵。将怀古的浪漫情怀与现代人对生活的需求相结合。从奢华到简约，从冲突到协调，低调而不动声色，却在细节中体现精致。独具匠心的设计与精湛的纯手工打造，皇家家居摒弃了过于复杂的机理与装饰，而保留了经典所拥有的精致雕刻，风格骨感奢华，以低调的人文处世哲学为设计精神，传递典雅高贵的生活情态。\n\n\n\n\n\n\n\n\n\n\n\n\n\n\n\n\n\n\n\n\n\n\n酒泉天宝大景区开启研学之旅：酒泉天宝大景区将科学与艺术结合，人文与自然融汇，在这里开启孩子的观赏石艺术审美之旅；非物质文化遗产——赏石文化的历史沿革，奇石珍宝形成机理、鉴赏要素及主要观赏石种类的知识学习之旅；中国奇石珍宝的产出地、观赏性、实用性、雕刻工艺等工艺研学之旅；体验绘画写实、雕刻、古石加工、颜料运用（青金石、绿松石、孔雀石等矿物颜料在壁画中的运用），根雕根艺技法研究等工艺美术之旅；研学奇石产地、形成原因，深入研究地质地貌形成变迁等地质研学之旅；对古典石文化发展史研究，探究历史年代背后的人文、社会、经济的发展与现代赏石文化的传承石文化鉴赏之旅。\n酒泉天宝大景区开启寻宝之旅：中华文明，上下五千年，渺渺时间长河，茫茫丝路古道，埋藏了凤凰涅槃、女娲补天的毁灭和重生，埋藏了张骞西出、玄奘东归的壮志和激昂，埋藏了米芾拜石、徽宗夺宝的癫狂和荒诞。留下的是先贤开辟的道路，继续前行的精神和遗落在这里的珍宝。酒泉天宝大景区采取生动活泼任务闯关的形式带你探寻解密来自古丝绸之路上大宛、大夏、夜郎国、天竺、暹罗、满剌加等驿站的珍宝，还有珍宝的那些不为人知的故事和秘密。"}}, {"title": "《丝路花雨》演出", "address": "酒泉市敦煌市文博东路2713号敦煌大剧院", "image": "", "rank": 21, "time": 2, "location": {"lat": 40.12677780479684, "lng": 94.70913753142698}, "feature": {"sight_features": "特色1 活的敦煌壁画，美的艺术享受", "sight_content": "《丝路花雨》大量舞蹈动作、造型设计都取材于敦煌壁画，舞剧中所跳的“反弹琵琶舞”、“千手观音”等都可以在壁画中找到原型，是敦煌舞的最杰出的代表。\n\n\n自1979年诞生以来，久演不衰，开创了舞蹈史的先河，曾获得“中国舞剧的里程碑”，东方的《天鹅湖》等荣誉。《丝路花雨》在新落成的敦煌大剧院进行常态化演出。敦煌大剧院是敦煌文博会永久场馆，是“中国钢结构金奖”得主。"}}, {"title": "敦煌石窟艺术保护研究陈列中心", "address": "酒泉市敦煌市莫高窟景区内(莫高窟广场对面)", "image": "", "rank": 22, "time": 1.0, "location": {"lat": 40.04778366373091, "lng": 94.81508116801835}, "feature": {"sight_features": "", "sight_content": ""}}, {"title": "白马塔", "address": "酒泉市敦煌市沙州古城东南部，党河乡红星村内", "image": "", "rank": 23, "time": 1.0, "location": {"lat": 40.116068996023, "lng": 94.64431329057155}, "feature": {"sight_features": "", "sight_content": ""}}, {"title": "党河水库", "address": "敦煌市境内的党河口处", "image": "", "rank": 24, "time": 1.0, "location": {"lat": 39.961228022505324, "lng": 94.33219083473693}, "feature": {"sight_features": "", "sight_content": ""}}, {"title": "敦煌民俗博物馆", "address": "甘肃省敦煌市鸣沙山麓月牙泉景区内", "image": "", "rank": 25, "time": 1.0, "location": {"lat": 40.09529341834727, "lng": 94.68014233519301}, "feature": {"sight_features": "", "sight_content": ""}}, {"title": "敦煌历史博览园", "address": "敦煌市敦月公路鸣山路口北侧", "image": "", "rank": 26, "time": 1.5, "location": {"lat": 40.133732702944855, "lng": 94.669365755651}, "feature": {"sight_features": "", "sight_content": ""}}, {"title": "《又见敦煌》演出", "address": "酒泉市敦煌市莫高窟数字中心西侧", "image": "", "rank": 27, "time": 2, "location": {"lat": 40.04666623190564, "lng": 94.81179759188772}, "feature": {"sight_features": "特色1 揭露千年莫高神秘面纱的全过程。 特色2 带您穿梭重顾千年前的历史故事。", "sight_content": "﻿“又见敦煌”将再现一个莫高窟从开窟到繁盛，再到王道士揭露千年莫高神秘面纱的全过程。每个演绎空间将重建今人与历史的连接点，带您穿越时空，梦回千年，拉近历史，横跨古今；让您感触千年敦煌的发展历程，让您触摸大漠敦煌的神域风尘，更让您触及敦煌民俗文化的传承与美德；在行走中观演，体验中又见，访古问今，与古人对话，鉴今人前行，划破岁月时空，再现历史繁荣。\n\n“又见敦煌”将带您重新解读敦煌舞乐的神秘与曼妙艺术，复活和还原敦煌莫高窟壁画精美绝伦、浑然天成的东方古典美。“又见敦煌”将敦煌博大精深的东方神韵艺术在沉睡数千年后再现舞台；别具一格的敦煌飞天，无可比拟的“又见敦煌”，今天终于掸去千年尘埃，展开霓裳羽衣，飞出莫高窟，飞向全世界，震撼全人类。\n\n“又见敦煌”在历史中又见，在岁月里重温，跨越历史长河，又见丝绸之路古文明；“又见敦煌”是一场文化精神的洗礼，一次心灵深处的呼唤，记住华夏本来，延续中华根脉；“又见敦煌”将肩负历史文化使命，把敦煌文化传播遍及到世界的每一个角落。"}}, {"title": "丝绸之路博物馆", "address": "酒泉市肃州区雄关路177号", "image": "", "rank": 28, "time": 4.5, "location": {"lat": 39.75680293745485, "lng": 98.50168135652955}, "feature": {"sight_features": "", "sight_content": ""}}, {"title": "锁阳城", "address": "酒泉市瓜州县桥子乡南坝村", "image": "", "rank": 29, "time": 1.0, "location": {"lat": 40.31552799777319, "lng": 96.20991155159633}, "feature": {"sight_features": "特色1 保存最为完好的唐至西夏时期古城之一", "sight_content": "锁阳城遗址，位于甘肃省瓜州县东南68公里处，是国务院公布的第四批全国重点文物保护单位，2014年第38届世界遗产大会将锁阳城遗址列入世界遗产名录。\n锁阳城遗址始建于西晋，是西晋时期的晋昌郡治所，唐武德年间设瓜州，西夏时设立西平监军司，自西夏军队撤出后，城废至今。是公元7——13世纪丝绸之路河西走廊西端典型的交通保障性城址，也是古代丝绸之路上连接中原与西域地区的交通枢纽，同时还是河西走廊上人类土地利用的杰出范例，展现了长距离交通条件下人类对荒漠戈壁自然环境的依托、利用和改造，与丝路沿线的商贸活动密切关联。\n锁阳城遗址是集古城址、佛寺遗址、古渠系和古垦区、墓葬群等多种遗迹为一体的文化遗产，这些类型丰富的遗址遗迹及它们之间的空间关系，很好地体现了在丝绸之路长距离的交通和交流过程中，锁阳城作为屯田绿洲典型保障性城镇为之提供的交通保障作用。\n锁阳城遗址是我国目前保存较为完好的唐至西夏时期古城之一。保存了中国古代最为完好的军事防御体系和农业灌溉水利体系，充分体现了河西走廊边疆城市的防御特征，是人类在长距离交通和交流条件下的防御和安全体系的突出例证;是我国古绿洲沙漠化演进过程当中的典型标本，对于今天绿洲地区的开发建设及沙漠化的防治更具有重要的借鉴意义。"}}, {"title": "渥洼池", "address": "敦煌市西南70公里处，南湖乡政府东南4公里处", "image": "", "rank": 30, "time": 1.0, "location": {"lat": 39.90958790446452, "lng": 94.13903710223566}, "feature": {"sight_features": "", "sight_content": ""}}, {"title": "酒泉市博物馆", "address": "酒泉市区东大街56号", "image": "", "rank": 31, "time": 1.0, "location": {"lat": 39.736224011062895, "lng": 98.49844728461873}, "feature": {"sight_features": "", "sight_content": ""}}, {"title": "月牙泉小镇", "address": "酒泉市敦煌市鸣山路", "image": "", "rank": 32, "time": 2, "location": {"lat": 40.133732702944855, "lng": 94.669365755651}, "feature": {"sight_features": "", "sight_content": ""}}, {"title": "敦煌西湖国家级自然保护区", "address": "敦煌市沙州镇鸣山北路1331号", "image": "", "rank": 33, "time": 1.5, "location": {"lat": 40.134729692453135, "lng": 94.66830033657038}, "feature": {"sight_features": "", "sight_content": ""}}, {"title": "敦煌大剧院", "address": "敦煌市阳关中路777号", "image": "", "rank": 34, "time": 4.0, "location": {"lat": 40.147581307024076, "lng": 94.66969155039844}, "feature": {"sight_features": "", "sight_content": ""}}, {"title": "金塔胡杨林", "address": "酒泉市金塔县城以西约6公里", "image": "", "rank": 35, "time": 2, "location": {"lat": 39.99002925409325, "lng": 98.9083682361721}, "feature": {"sight_features": "", "sight_content": ""}}, {"title": "三危圣境", "address": "甘肃省敦煌市东南 736200", "image": "", "rank": 36, "time": 1.0, "location": {"lat": 40.14786748424431, "lng": 101.28185219022015}, "feature": {"sight_features": "", "sight_content": ""}}, {"title": "阳关烽燧", "address": "敦煌市西南七十公里处阳关景区内", "image": "", "rank": 37, "time": 0.0, "location": {"lat": 39.94071531032935, "lng": 94.06125690733201}, "feature": {"sight_features": "", "sight_content": ""}}, {"title": "东千佛洞", "address": "酒泉市瓜州县桥子乡南三十五公里峡谷两岸", "image": "", "rank": 38, "time": 2.5, "location": {"lat": 40.08978403347872, "lng": 96.2099357564383}, "feature": {"sight_features": "", "sight_content": ""}}, {"title": "寿昌城", "address": "敦煌市南湖东面", "image": "", "rank": 39, "time": 1.0, "location": {"lat": 30.772105175682338, "lng": 120.7636050953768}, "feature": {"sight_features": "", "sight_content": ""}}, {"title": "透明梦柯冰川", "address": "酒泉市肃北蒙古族自治县石包城乡老虎沟", "image": "", "rank": 40, "time": null, "location": {"lat": 39.532760047117485, "lng": 96.51147113566807}, "feature": {"sight_features": "", "sight_content": ""}}, {"title": "敦煌书画院", "address": "敦煌市沙州镇鸣山路36号", "image": "", "rank": 41, "time": 1.0, "location": {"lat": 40.13882358578785, "lng": 94.66856417069529}, "feature": {"sight_features": "", "sight_content": ""}}, {"title": "《敦煌盛典》演出", "address": "酒泉市敦煌市敦月路敦煌山庄内", "image": "", "rank": 42, "time": 2, "location": {"lat": 40.11131376635576, "lng": 94.67582211630048}, "feature": {"sight_features": "特色1 重现古丝绸之路昔日繁华", "sight_content": "首台大型沙漠实景演出。以鸣沙山为舞台背景，真山真水。内容表现形式独特。充分利用声、光、电、水、火、风等现代舞美科技，再现了古丝绸之路重镇敦煌独特的人文历史。\n独创360度旋转并前后移动观众席。身未动而景已变，这种奇妙的创意和前沿的设计在目前旅游演艺市场也是唯一的。首次将裸眼3D墙体投影、互动包裹式剧场、多介质水面造影、震撼墙体灯光秀等表演元素溶进到实景演出中。\n作为敦煌的一张特色名片被敦煌政府评为“向外地游客重点推介的旅游文化项目”"}}, {"title": "阳关沙漠森林公园", "address": "敦煌市西南80公里处的南胡林场附近，距阳关故城10公里", "image": "", "rank": 43, "time": 2.5, "location": {"lat": 39.88915539523258, "lng": 94.10683024461699}, "feature": {"sight_features": "", "sight_content": ""}}, {"title": "西云观", "address": "甘肃省敦煌市西郊 736200", "image": "", "rank": 44, "time": 1.0, "location": {"lat": 40.14786748424431, "lng": 94.66852702576244}, "feature": {"sight_features": "", "sight_content": ""}}, {"title": "悬泉置遗址", "address": "甘肃省敦煌市安敦公路", "image": "", "rank": 45, "time": 1.0, "location": {"lat": 40.14786748424431, "lng": 94.66852702576244}, "feature": {"sight_features": "", "sight_content": ""}}, {"title": "148窟", "address": "敦煌市东南25公里处鸣沙山东麓、宕泉河西岸的断崖上", "image": "", "rank": 46, "time": 0.6, "location": {"lat": 39.97777232593531, "lng": 94.63411166428476}, "feature": {"sight_features": "", "sight_content": ""}}, {"title": "桥湾城", "address": "酒泉市瓜州县东85公里处的312国道南侧", "image": "", "rank": 47, "time": 1.0, "location": {"lat": 41.64399227811595, "lng": 95.23943736720155}, "feature": {"sight_features": "", "sight_content": "城廊呈长方形，东西320米，南北122米，黄土版筑，墙体保存较完整，残高5～8米，开南北两座城门，均有垛墙及城楼残迹，城四角有角墩，城内有东西大道及房屋庙宇建筑遗迹，城西、南等处均有房屋建筑遗迹。康熙夜梦桥湾城、怒斩贪官陈金山父子的传说，使该城声名远播。"}}, {"title": "破城子遗址", "address": "酒泉市瓜州县踏实乡破城子村二队", "image": "", "rank": 48, "time": 1.0, "location": {"lat": 40.26937455740069, "lng": 95.98735154298853}, "feature": {"sight_features": "", "sight_content": ""}}, {"title": "富康梦天堂", "address": "酒泉市肃州区富康路富康购物中心内", "image": "", "rank": 49, "time": 2.0, "location": {"lat": 39.73749271806777, "lng": 98.51013707615235}, "feature": {"sight_features": "", "sight_content": ""}}, {"title": "南湖自然保护区", "address": "敦煌市西南70公里的南湖乡境内（阳关遗址附近）", "image": "", "rank": 50, "time": 1.5, "location": {"lat": 39.914886612429456, "lng": 94.07346860538387}, "feature": {"sight_features": "", "sight_content": ""}}, {"title": "古董滩", "address": "敦煌市西南七十公里处阳关景区内（阳关烽燧以南1.5公里处）", "image": "", "rank": 51, "time": 1.0, "location": {"lat": 39.94071531032935, "lng": 94.06125690733201}, "feature": {"sight_features": "", "sight_content": ""}}, {"title": "大法幢寺", "address": "", "image": "", "rank": 52, "time": 1.0, "location": {"lat": 39.770724258995905, "lng": 98.51020274857328}, "feature": {"sight_features": "", "sight_content": ""}}, {"title": "敦煌打铁花民俗表演", "address": "酒泉市敦煌市敦月公路敦煌历史博览园对面（原环幕影院）", "image": "", "rank": 53, "time": 4.0, "location": {"lat": 40.11616780375755, "lng": 94.67757482982508}, "feature": {"sight_features": "", "sight_content": ""}}, {"title": "敦德冰川", "address": "酒泉市阿克塞县城东南300多公里", "image": "", "rank": 54, "time": 1.0, "location": {"lat": 39.640045316916535, "lng": 94.34676019039637}, "feature": {"sight_features": "", "sight_content": ""}}, {"title": "石油小镇", "address": "酒泉市阿克塞哈萨克族自治县215国道与281县道交叉口南150米阿克塞老县城", "image": "", "rank": 55, "time": 2.0, "location": {"lat": 38.50820370898792, "lng": 94.49305400371547}, "feature": {"sight_features": "", "sight_content": ""}}, {"title": "都尉府", "address": "敦煌市西南七十公里处阳关景区内", "image": "", "rank": 56, "time": 1.0, "location": {"lat": 39.94071531032935, "lng": 94.06125690733201}, "feature": {"sight_features": "", "sight_content": ""}}, {"title": "民族风情园", "address": "酒泉市阿克塞哈萨克族自治县境内", "image": "", "rank": 57, "time": 2, "location": {"lat": 39.640045316916535, "lng": 94.34676019039637}, "feature": {"sight_features": "", "sight_content": ""}}, {"title": "五个庙石窟", "address": "敦煌市肃北蒙古族自治县境内（县城西北约20公里处的山崖中）", "image": "", "rank": 58, "time": 2, "location": {"lat": 39.518329738436066, "lng": 94.8836923954122}, "feature": {"sight_features": "", "sight_content": ""}}, {"title": "张骞铜像", "address": "敦煌市西南七十公里处阳关景区内（阳关博物馆前）", "image": "", "rank": 59, "time": 12.5, "location": {"lat": 39.94071531032935, "lng": 94.06125690733201}, "feature": {"sight_features": "", "sight_content": ""}}, {"title": "药王洞遗址", "address": "甘肃省酒泉市敦煌市月牙泉镇鸣山路", "image": "", "rank": 60, "time": 1.5, "location": {"lat": 40.133732702944855, "lng": 94.669365755651}, "feature": {"sight_features": "", "sight_content": ""}}]}