{"cityName": "九寨沟", "days": 2, "cityImage": "", "spots": [{"title": "九寨沟风景区", "address": "阿坝藏族羌族自治州九寨沟县漳扎镇九寨沟沟口301省道旁边", "image": "", "rank": 1, "time": 3.0, "location": {"lat": 33.14199531801748, "lng": 103.73734425088509}, "feature": {"sight_features": "", "sight_content": ""}}, {"title": "五彩池", "address": "阿坝藏族羌族自治州九寨沟县漳扎镇九寨沟风景名胜区内", "image": "", "rank": 2, "time": 0.75, "location": {"lat": 33.27145267766172, "lng": 103.92801498521096}, "feature": {"sight_features": "", "sight_content": ""}}, {"title": "五花海", "address": "阿坝藏族羌族自治州九寨沟县漳扎镇九寨沟风景名胜区内", "image": "", "rank": 3, "time": 0.75, "location": {"lat": 33.27145267766172, "lng": 103.92801498521096}, "feature": {"sight_features": "", "sight_content": ""}}, {"title": "诺日朗瀑布", "address": "阿坝藏族羌族自治州九寨沟县漳扎镇九寨沟景区内", "image": "", "rank": 4, "time": 1.0, "location": {"lat": 33.304969699110025, "lng": 103.86152712566972}, "feature": {"sight_features": "", "sight_content": ""}}, {"title": "长海", "address": "阿坝藏族羌族自治州九寨沟县漳扎镇九寨沟景区内", "image": "", "rank": 5, "time": 1.5, "location": {"lat": 33.304969699110025, "lng": 103.86152712566972}, "feature": {"sight_features": "", "sight_content": ""}}, {"title": "镜海", "address": "阿坝藏族羌族自治州九寨沟县九寨沟景区内（日则沟）", "image": "", "rank": 6, "time": 0.75, "location": {"lat": 33.16746633395841, "lng": 103.91597391849412}, "feature": {"sight_features": "", "sight_content": ""}}, {"title": "芦苇海", "address": "阿坝藏族羌族自治州九寨沟县漳扎镇九寨沟风景名胜区内", "image": "", "rank": 7, "time": 1.0, "location": {"lat": 33.27145267766172, "lng": 103.92801498521096}, "feature": {"sight_features": "", "sight_content": ""}}, {"title": "珍珠滩瀑布", "address": "阿坝藏族羌族自治州九寨沟县漳扎镇九寨沟景区内（日则沟）", "image": "", "rank": 8, "time": 1.0, "location": {"lat": 33.16746633395841, "lng": 103.91597391849412}, "feature": {"sight_features": "", "sight_content": ""}}, {"title": "盆景滩", "address": "阿坝藏族羌族自治州九寨沟县漳扎镇九寨沟风景名胜区内", "image": "", "rank": 9, "time": 1.0, "location": {"lat": 33.27145267766172, "lng": 103.92801498521096}, "feature": {"sight_features": "", "sight_content": ""}}, {"title": "火花海", "address": "阿坝藏族羌族自治州九寨沟县漳扎镇九寨沟景区内（树正沟）", "image": "", "rank": 10, "time": 0.75, "location": {"lat": 33.24007180366197, "lng": 103.92689623552884}, "feature": {"sight_features": "", "sight_content": ""}}, {"title": "老虎海", "address": "阿坝藏族羌族自治州九寨沟县漳扎镇九寨沟风景名胜区内", "image": "", "rank": 11, "time": 1.0, "location": {"lat": 33.27145267766172, "lng": 103.92801498521096}, "feature": {"sight_features": "", "sight_content": ""}}, {"title": "日则沟", "address": "阿坝藏族羌族自治州九寨沟县漳扎镇九寨沟景区内", "image": "", "rank": 12, "time": 4.0, "location": {"lat": 33.304969699110025, "lng": 103.86152712566972}, "feature": {"sight_features": "", "sight_content": ""}}, {"title": "原始森林", "address": "阿坝藏族羌族自治州九寨沟县漳扎镇九寨沟风景名胜区内", "image": "", "rank": 13, "time": 2.5, "location": {"lat": 33.27145267766172, "lng": 103.92801498521096}, "feature": {"sight_features": "", "sight_content": ""}}, {"title": "九寨千古情", "address": "阿坝藏族羌族自治州九寨沟县漳扎镇九寨千古情景区", "image": "", "rank": 14, "time": 2, "location": {"lat": 33.304969699110025, "lng": 103.86152712566972}, "feature": {"sight_features": "", "sight_content": ""}}, {"title": "树正沟", "address": "阿坝藏族羌族自治州九寨沟县漳扎镇九寨沟景区内", "image": "", "rank": 15, "time": 3.0, "location": {"lat": 33.304969699110025, "lng": 103.86152712566972}, "feature": {"sight_features": "", "sight_content": ""}}, {"title": "树正瀑布", "address": "阿坝藏族羌族自治州九寨沟县漳扎镇九寨沟景区内", "image": "", "rank": 16, "time": 1.5, "location": {"lat": 33.304969699110025, "lng": 103.86152712566972}, "feature": {"sight_features": "", "sight_content": ""}}, {"title": "熊猫海", "address": "阿坝藏族羌族自治州九寨沟县漳扎镇九寨沟景区内（日则沟）", "image": "", "rank": 17, "time": 0.75, "location": {"lat": 33.16746633395841, "lng": 103.91597391849412}, "feature": {"sight_features": "", "sight_content": ""}}, {"title": "犀牛海", "address": "阿坝藏族羌族自治州九寨沟县漳扎镇九寨沟景区内（树正沟）", "image": "", "rank": 18, "time": 0.75, "location": {"lat": 33.24007180366197, "lng": 103.92689623552884}, "feature": {"sight_features": "", "sight_content": ""}}, {"title": "箭竹海", "address": "阿坝藏族羌族自治州九寨沟县漳扎镇九寨沟风景名胜区内", "image": "", "rank": 19, "time": 0.75, "location": {"lat": 33.27145267766172, "lng": 103.92801498521096}, "feature": {"sight_features": "", "sight_content": ""}}, {"title": "树正群海", "address": "阿坝藏族羌族自治州九寨沟县漳扎镇九寨沟风景名胜区内", "image": "", "rank": 20, "time": 1.0, "location": {"lat": 33.27145267766172, "lng": 103.92801498521096}, "feature": {"sight_features": "", "sight_content": ""}}, {"title": "熊猫海瀑布", "address": "阿坝藏族羌族自治州九寨沟县漳扎镇九寨沟景区内", "image": "", "rank": 21, "time": 1.0, "location": {"lat": 33.304969699110025, "lng": 103.86152712566972}, "feature": {"sight_features": "", "sight_content": ""}}, {"title": "则查洼沟", "address": "阿坝藏族羌族自治州九寨沟县内", "image": "", "rank": 22, "time": 2.5, "location": {"lat": 33.257591509496066, "lng": 104.24954673402509}, "feature": {"sight_features": "", "sight_content": ""}}, {"title": "珍珠滩", "address": "阿坝藏族羌族自治州九寨沟县漳扎镇九寨沟风景名胜区内", "image": "", "rank": 23, "time": 0.4, "location": {"lat": 33.27145267766172, "lng": 103.92801498521096}, "feature": {"sight_features": "", "sight_content": ""}}, {"title": "下季节海", "address": "阿坝藏族羌族自治州九寨沟县漳扎镇九寨沟风景区内", "image": "", "rank": 24, "time": 0.25, "location": {"lat": 33.04250348049155, "lng": 103.93989251451141}, "feature": {"sight_features": "", "sight_content": ""}}, {"title": "天鹅海", "address": "阿坝藏族羌族自治州九寨沟县漳扎镇九寨沟风景名胜区内", "image": "", "rank": 25, "time": 0.75, "location": {"lat": 33.27145267766172, "lng": 103.92801498521096}, "feature": {"sight_features": "", "sight_content": ""}}, {"title": "卧龙海", "address": "阿坝藏族羌族自治州九寨沟县漳扎镇九寨沟景区内（树正沟）", "image": "", "rank": 26, "time": 1.5, "location": {"lat": 33.24007180366197, "lng": 103.92689623552884}, "feature": {"sight_features": "", "sight_content": ""}}, {"title": "甲蕃古城", "address": "阿坝藏族羌族自治州九寨沟县九寨沟著名的风景区甘海子", "image": "", "rank": 27, "time": 1.5, "location": {"lat": 33.26502137358402, "lng": 103.77145830093201}, "feature": {"sight_features": "", "sight_content": ""}}, {"title": "上季节海", "address": "阿坝藏族羌族自治州九寨沟县漳扎镇九寨沟风景区", "image": "", "rank": 28, "time": 0.25, "location": {"lat": 33.04250348049155, "lng": 103.93989251451141}, "feature": {"sight_features": "", "sight_content": ""}}, {"title": "箭竹海瀑布", "address": "阿坝藏族羌族自治州九寨沟县漳扎镇九寨沟风景名胜区内", "image": "", "rank": 29, "time": 1.5, "location": {"lat": 33.27145267766172, "lng": 103.92801498521096}, "feature": {"sight_features": "", "sight_content": ""}}, {"title": "边边街", "address": "阿坝藏族羌族自治州九寨沟县", "image": "", "rank": 30, "time": 1.5, "location": {"lat": 33.257591509496066, "lng": 104.24954673402509}, "feature": {"sight_features": "", "sight_content": ""}}, {"title": "芳草海", "address": "阿坝藏族羌族自治州九寨沟县漳扎镇九寨沟风景名胜区内", "image": "", "rank": 31, "time": 0.4, "location": {"lat": 33.27145267766172, "lng": 103.92801498521096}, "feature": {"sight_features": "", "sight_content": ""}}, {"title": "双龙海", "address": "阿坝藏族羌族自治州九寨沟县漳扎镇九寨沟风景名胜区内", "image": "", "rank": 32, "time": 1.5, "location": {"lat": 33.27145267766172, "lng": 103.92801498521096}, "feature": {"sight_features": "", "sight_content": ""}}, {"title": "荷叶寨", "address": "阿坝藏族羌族自治州九寨沟县漳扎镇九寨沟风景名胜区内", "image": "", "rank": 33, "time": 1.0, "location": {"lat": 33.27145267766172, "lng": 103.92801498521096}, "feature": {"sight_features": "", "sight_content": ""}}, {"title": "甘海子", "address": "阿坝藏族羌族自治州九寨沟县甘海子潘县和交界处的弓杠岭甘海子景区", "image": "", "rank": 34, "time": 2.0, "location": {"lat": 33.26502137358402, "lng": 103.77145830093201}, "feature": {"sight_features": "", "sight_content": ""}}, {"title": "神仙池风景区", "address": "阿坝藏族羌族自治州九寨沟县，岷山山脉南段", "image": "", "rank": 35, "time": 3.5, "location": {"lat": 33.257591509496066, "lng": 104.24954673402509}, "feature": {"sight_features": "", "sight_content": ""}}, {"title": "扎如沟", "address": "阿坝藏族羌族自治州九寨沟县漳扎镇九寨沟风景名胜区内", "image": "", "rank": 36, "time": 1.5, "location": {"lat": 33.27145267766172, "lng": 103.92801498521096}, "feature": {"sight_features": "", "sight_content": ""}}, {"title": "树正寨", "address": "阿坝藏族羌族自治州九寨沟县漳扎镇九寨沟风景名胜区内", "image": "", "rank": 37, "time": 1.0, "location": {"lat": 33.27145267766172, "lng": 103.92801498521096}, "feature": {"sight_features": "", "sight_content": ""}}, {"title": "九寨沟《藏谜》演出", "address": "阿坝藏族羌族自治州九寨沟县九寨高原红演艺中心", "image": "", "rank": 38, "time": 4.5, "location": {"lat": 33.257591509496066, "lng": 104.24954673402509}, "feature": {"sight_features": "", "sight_content": ""}}, {"title": "金铃海", "address": "阿坝藏族羌族自治州九寨沟县漳扎镇九寨沟风景名胜区内", "image": "", "rank": 39, "time": 1.0, "location": {"lat": 33.27145267766172, "lng": 103.92801498521096}, "feature": {"sight_features": "", "sight_content": ""}}, {"title": "扎如寺", "address": "阿坝藏族羌族自治州九寨沟县漳扎镇九寨沟风景区内", "image": "", "rank": 40, "time": 1.5, "location": {"lat": 33.04250348049155, "lng": 103.93989251451141}, "feature": {"sight_features": "", "sight_content": ""}}, {"title": "剑岩悬泉", "address": "阿坝藏族羌族自治州九寨沟县漳扎镇九寨沟风景名胜区内", "image": "", "rank": 41, "time": 0.25, "location": {"lat": 33.27145267766172, "lng": 103.92801498521096}, "feature": {"sight_features": "", "sight_content": ""}}, {"title": "诺日朗旅游服务中心", "address": "阿坝藏族羌族自治州九寨沟县漳扎镇九寨沟风景名胜区内", "image": "", "rank": 42, "time": 2.0, "location": {"lat": 33.27145267766172, "lng": 103.92801498521096}, "feature": {"sight_features": "", "sight_content": ""}}, {"title": "孔雀河道", "address": "阿坝藏族羌族自治州九寨沟县漳扎镇九寨沟风景名胜区内", "image": "", "rank": 43, "time": null, "location": {"lat": 33.27145267766172, "lng": 103.92801498521096}, "feature": {"sight_features": "", "sight_content": ""}}, {"title": "瑶池", "address": "阿坝藏族羌族自治州九寨沟县神仙池风景区内", "image": "", "rank": 44, "time": 0.3, "location": {"lat": 33.257591509496066, "lng": 104.24954673402509}, "feature": {"sight_features": "", "sight_content": ""}}, {"title": "诺日朗群海", "address": "阿坝藏族羌族自治州九寨沟县漳扎镇九寨沟风景名胜区内", "image": "", "rank": 45, "time": 1.0, "location": {"lat": 33.27145267766172, "lng": 103.92801498521096}, "feature": {"sight_features": "", "sight_content": ""}}, {"title": "九寨沟民俗文化村", "address": "阿坝藏族羌族自治州九寨沟县漳扎镇九寨沟风景名胜区内", "image": "", "rank": 46, "time": 2.0, "location": {"lat": 33.27145267766172, "lng": 103.92801498521096}, "feature": {"sight_features": "", "sight_content": ""}}, {"title": "九寨沟《藏王宴舞》演出", "address": "阿坝藏族羌族自治州九寨沟县彭丰村", "image": "", "rank": 47, "time": 4.5, "location": {"lat": 33.27919345079936, "lng": 103.91393963020911}, "feature": {"sight_features": "", "sight_content": ""}}, {"title": "九寨天堂洲际大饭店天浴温泉", "address": "阿坝市九寨沟县漳扎镇甘海子九寨天堂洲际大饭店内", "image": "", "rank": 48, "time": 2, "location": {"lat": 33.26872241229383, "lng": 103.77869282232272}, "feature": {"sight_features": "", "sight_content": ""}}, {"title": "天堂口民俗文化街", "address": "阿坝藏族羌族自治州九寨沟县彭丰村内", "image": "", "rank": 49, "time": 0.75, "location": {"lat": 33.27919345079936, "lng": 103.91393963020911}, "feature": {"sight_features": "", "sight_content": ""}}, {"title": "宝镜崖", "address": "阿坝藏族羌族自治州九寨沟县漳扎镇九寨沟风景名胜区内", "image": "", "rank": 50, "time": 0.25, "location": {"lat": 33.27145267766172, "lng": 103.92801498521096}, "feature": {"sight_features": "", "sight_content": ""}}, {"title": "中查沟", "address": "阿坝藏族羌族自治州九寨沟县漳扎镇中查沟", "image": "", "rank": 51, "time": 1.5, "location": {"lat": 33.28954282980234, "lng": 103.81183902004709}, "feature": {"sight_features": "", "sight_content": ""}}, {"title": "则查洼寨", "address": "阿坝藏族羌族自治州九寨沟县漳扎镇九寨沟风景名胜区内", "image": "", "rank": 52, "time": 0.5, "location": {"lat": 33.27145267766172, "lng": 103.92801498521096}, "feature": {"sight_features": "", "sight_content": ""}}, {"title": "磨坊", "address": "阿坝藏族羌族自治州九寨沟县九寨沟风景区内树正寨", "image": "", "rank": 53, "time": 0.4, "location": {"lat": 33.19152126534365, "lng": 103.93310135539836}, "feature": {"sight_features": "", "sight_content": ""}}, {"title": "黑角桥", "address": "阿坝藏族羌族自治州九寨沟县漳扎镇九寨沟风景名胜区内", "image": "", "rank": 54, "time": 0.2, "location": {"lat": 33.27145267766172, "lng": 103.92801498521096}, "feature": {"sight_features": "", "sight_content": ""}}, {"title": "褡裢海", "address": "阿坝藏族羌族自治州九寨沟县景区内", "image": "", "rank": 55, "time": 0.25, "location": {"lat": 33.257591509496066, "lng": 104.24954673402509}, "feature": {"sight_features": "", "sight_content": ""}}, {"title": "公主海", "address": "阿坝藏族羌族自治州九寨沟县九寨沟景区内(树正群海和树正瀑布之间的一个小海子)", "image": "", "rank": 56, "time": 0.25, "location": {"lat": 33.204387854691674, "lng": 103.90158797615881}, "feature": {"sight_features": "", "sight_content": ""}}, {"title": "扎如马道", "address": "阿坝藏族羌族自治州九寨沟县九寨沟景区扎如沟扎如马道", "image": "", "rank": 57, "time": 0.5, "location": {"lat": 33.25093056425688, "lng": 103.96552013676144}, "feature": {"sight_features": "", "sight_content": ""}}, {"title": "草海", "address": "阿坝藏族羌族自治州九寨沟县漳扎镇九寨沟内", "image": "", "rank": 58, "time": 2.0, "location": {"lat": 33.304969699110025, "lng": 103.86152712566972}, "feature": {"sight_features": "", "sight_content": ""}}, {"title": "仙女池", "address": "阿坝藏族羌族自治州九寨沟县神仙池风景区内", "image": "", "rank": 59, "time": 0.25, "location": {"lat": 33.257591509496066, "lng": 104.24954673402509}, "feature": {"sight_features": "", "sight_content": ""}}, {"title": "翡翠河", "address": "阿坝藏族羌族自治州九寨沟县漳扎镇九寨沟风景区内", "image": "", "rank": 60, "time": 0.4, "location": {"lat": 33.04250348049155, "lng": 103.93989251451141}, "feature": {"sight_features": "", "sight_content": ""}}]}