{"cityName": "久治", "days": 2, "cityImage": "", "spots": [{"title": "隆格山垭口", "address": "果洛藏族自治州久治县", "image": "", "rank": 1, "time": 0.5, "location": {"lat": 33.43477349940803, "lng": 101.4885322558532}, "feature": {"sight_features": "", "sight_content": ""}}, {"title": "仙女湖（希门错）", "address": "位于年保主峰的北侧", "image": "", "rank": 2, "time": 2, "location": {"lat": 28.17276770370885, "lng": 100.54224473489535}, "feature": {"sight_features": "", "sight_content": ""}}, {"title": "妖女湖", "address": "青海省果洛州久治县年保玉则景区仙女湖以南", "image": "", "rank": 3, "time": 9.0, "location": {"lat": 33.402533504436, "lng": 101.11373110438218}, "feature": {"sight_features": "", "sight_content": ""}}, {"title": "下文措（俄错尕玛）", "address": "青海省果洛州久治县年保玉则景区内", "image": "", "rank": 4, "time": null, "location": {"lat": 33.402533504436, "lng": 101.11373110438218}, "feature": {"sight_features": "", "sight_content": ""}}, {"title": "果洛白玉寺", "address": "青海省,久治县,西南部,814000", "image": "", "rank": 5, "time": 4.5, "location": {"lat": 33.43477349940803, "lng": 101.4885322558532}, "feature": {"sight_features": "", "sight_content": ""}}, {"title": "白玉乡", "address": "青海省果洛藏族自治州久治县", "image": "", "rank": 6, "time": 2, "location": {"lat": 33.43477349940803, "lng": 101.4885322558532}, "feature": {"sight_features": "", "sight_content": ""}}, {"title": "地质博物馆", "address": "南环路与长江路交叉口东100米", "image": "", "rank": 7, "time": 2, "location": {"lat": 30.182863499678465, "lng": 120.19798833535879}, "feature": {"sight_features": "", "sight_content": ""}}, {"title": "智青革命公墓", "address": "陵园路1号", "image": "", "rank": 8, "time": 2, "location": {"lat": 40.82144747801514, "lng": 114.90584918688913}, "feature": {"sight_features": "", "sight_content": ""}}, {"title": "千姆角", "address": "果洛藏族自治州-久治县", "image": "", "rank": 9, "time": 2, "location": {"lat": 33.43477349940803, "lng": 101.4885322558532}, "feature": {"sight_features": "", "sight_content": ""}}, {"title": "夏门提杂让玛", "address": "果洛藏族自治州-久治县", "image": "", "rank": 10, "time": 2, "location": {"lat": 33.43477349940803, "lng": 101.4885322558532}, "feature": {"sight_features": "", "sight_content": ""}}, {"title": "年保玉则主峰", "address": "青海省果洛州久治县年保玉则景区内", "image": "", "rank": 11, "time": 2, "location": {"lat": 33.402533504436, "lng": 101.11373110438218}, "feature": {"sight_features": "", "sight_content": ""}}, {"title": "龙格寺", "address": "果洛州久治县址西偏南段，白玉乡的隆格沟阴山面", "image": "", "rank": 12, "time": 2, "location": {"lat": 33.161846279850884, "lng": 100.91025239926455}, "feature": {"sight_features": "", "sight_content": ""}}, {"title": "上文措", "address": "青海省久治县索呼日麻乡年保玉则景区", "image": "", "rank": 13, "time": 2, "location": {"lat": 33.402533504436, "lng": 101.11373110438218}, "feature": {"sight_features": "", "sight_content": ""}}]}