{"cityName": "集贤", "days": 2, "cityImage": "", "spots": [{"title": "安邦河国家湿地公园", "address": "双鸭山市集贤县福利镇东北45公里", "image": "", "rank": 1, "time": 2.5, "location": {"lat": 46.74174990915534, "lng": 131.53630406738606}, "feature": {"sight_features": "", "sight_content": ""}}, {"title": "三八水库", "address": "黑龙江省集贤县贤镇南方 155921", "image": "", "rank": 2, "time": 2, "location": {"lat": 46.73451778855666, "lng": 131.1474344994225}, "feature": {"sight_features": "", "sight_content": ""}}, {"title": "鑫盛源啤酒广场", "address": "双鸭山市集贤县建工路49号", "image": "", "rank": 3, "time": 2, "location": {"lat": 46.74163432747163, "lng": 131.14789860896423}, "feature": {"sight_features": "", "sight_content": ""}}, {"title": "集贤县开心儿童欢乐堡", "address": "景苑山水步行街20号", "image": "", "rank": 4, "time": 2, "location": {"lat": 31.4707878758284, "lng": 104.75488769018823}, "feature": {"sight_features": "", "sight_content": ""}}, {"title": "御绿公园", "address": "中央大街", "image": "", "rank": 5, "time": 2, "location": {"lat": 22.540723318225652, "lng": 114.07211691104746}, "feature": {"sight_features": "", "sight_content": ""}}, {"title": "黑龙江省农村信用社(集贤分馆)", "address": "保卫路中国移动旁", "image": "", "rank": 6, "time": 2, "location": {"lat": 47.580852597651344, "lng": 130.8437805573744}, "feature": {"sight_features": "", "sight_content": ""}}, {"title": "佳贝爱儿童乐园", "address": "福利新四海南门", "image": "", "rank": 7, "time": 2, "location": {"lat": 18.818610367272836, "lng": 109.47509639517955}, "feature": {"sight_features": "", "sight_content": ""}}, {"title": "二九一有机果蔬种植基地", "address": "G1011哈同高速附近", "image": "", "rank": 8, "time": null, "location": {"lat": 45.793111091324825, "lng": 126.85415866369152}, "feature": {"sight_features": "", "sight_content": ""}}, {"title": "晟达彩印图书馆", "address": "保卫路177号", "image": "", "rank": 9, "time": 2, "location": {"lat": 46.734630139162824, "lng": 131.14221909214007}, "feature": {"sight_features": "", "sight_content": ""}}, {"title": "黑龙江省图书馆", "address": "福利镇保卫路163号", "image": "", "rank": 10, "time": 2, "location": {"lat": 46.735176818524664, "lng": 131.14211760877}, "feature": {"sight_features": "", "sight_content": ""}}, {"title": "富锦湿地公园", "address": "黑龙江省双鸭山市集贤县G1011(哈同高速公路)", "image": "", "rank": 11, "time": 3.0, "location": {"lat": 46.76592935451436, "lng": 131.11968216994617}, "feature": {"sight_features": "", "sight_content": ""}}, {"title": "福霆公园", "address": "双鸭山市集贤县", "image": "", "rank": 12, "time": 2, "location": {"lat": 46.73451778855666, "lng": 131.1474344994225}, "feature": {"sight_features": "", "sight_content": ""}}, {"title": "零度啤酒广场", "address": "学府路与园丁街交汇处", "image": "", "rank": 13, "time": 2, "location": {"lat": 49.21637892355281, "lng": 119.76930328111612}, "feature": {"sight_features": "", "sight_content": ""}}, {"title": "集贤县城镇建设档案馆", "address": "友谊街6号", "image": "", "rank": 14, "time": 2, "location": {"lat": 38.924924229354325, "lng": 121.63789979737855}, "feature": {"sight_features": "", "sight_content": ""}}, {"title": "儿童彩旗挖掘机乐园", "address": "福双路与体育街交叉口润生村镇银行旁", "image": "", "rank": 15, "time": 2, "location": {"lat": 46.73552241566489, "lng": 131.14493968313982}, "feature": {"sight_features": "", "sight_content": ""}}, {"title": "红果果儿童乐园", "address": "新四海商厦三楼", "image": "", "rank": 16, "time": 2, "location": {"lat": 45.75904863229525, "lng": 126.65996746198607}, "feature": {"sight_features": "", "sight_content": ""}}, {"title": "文化馆", "address": "体育街158号", "image": "", "rank": 17, "time": 2, "location": {"lat": 46.73524290636859, "lng": 131.14309047363733}, "feature": {"sight_features": "", "sight_content": ""}}, {"title": "欢乐qq农场", "address": "体育街210号附近", "image": "", "rank": 18, "time": 2, "location": {"lat": 29.841911319740973, "lng": 114.34247675657649}, "feature": {"sight_features": "", "sight_content": ""}}, {"title": "九龍密室逃脱吧", "address": "福双路27号", "image": "", "rank": 19, "time": 2, "location": {"lat": 46.74438620754971, "lng": 131.14428088114997}, "feature": {"sight_features": "", "sight_content": ""}}, {"title": "七星峰 Qixing Peak", "address": "黑龙江省集贤县七星林场", "image": "", "rank": 20, "time": 2, "location": {"lat": 46.71633931933334, "lng": 130.95090854420505}, "feature": {"sight_features": "", "sight_content": ""}}]}