{"cityName": "鸡西", "days": "", "cityImage": "", "spots": [{"title": "兴凯湖", "address": "鸡西市密山市境内", "image": "", "rank": 1, "time": 3.0, "location": {"lat": 45.53564080974782, "lng": 131.85353110655427}, "feature": {"sight_features": "", "sight_content": ""}}, {"title": "北大荒书法艺术长廊", "address": "鸡西市密山市北16公里处（青年水库东南侧）", "image": "", "rank": 2, "time": 1.0, "location": {"lat": 45.6821915020614, "lng": 131.8234334496118}, "feature": {"sight_features": "", "sight_content": ""}}, {"title": "珍宝岛", "address": "鸡西市虎林市，乌苏里江主航道中国一侧", "image": "", "rank": 3, "time": 1.0, "location": {"lat": 45.76894691288418, "lng": 132.94346566318296}, "feature": {"sight_features": "", "sight_content": ""}}, {"title": "密山口岸国门", "address": "鸡西市密山市", "image": "", "rank": 4, "time": 1.0, "location": {"lat": 45.53564080974782, "lng": 131.85353110655427}, "feature": {"sight_features": "", "sight_content": ""}}, {"title": "月牙湖", "address": "鸡西市虎林市虎头镇", "image": "", "rank": 5, "time": 1.0, "location": {"lat": 45.99137546756838, "lng": 133.6748946258319}, "feature": {"sight_features": "", "sight_content": ""}}, {"title": "侵华日军虎头要塞遗址博物馆", "address": "鸡西市虎林市", "image": "", "rank": 6, "time": 1.0, "location": {"lat": 45.76894691288418, "lng": 132.94346566318296}, "feature": {"sight_features": "", "sight_content": ""}}, {"title": "王震将军纪念碑", "address": "鸡西市密山市", "image": "", "rank": 7, "time": 1.0, "location": {"lat": 45.53564080974782, "lng": 131.85353110655427}, "feature": {"sight_features": "", "sight_content": ""}}, {"title": "莲花泡风景区", "address": "鸡西市密山市", "image": "", "rank": 8, "time": 1.0, "location": {"lat": 45.53564080974782, "lng": 131.85353110655427}, "feature": {"sight_features": "", "sight_content": ""}}, {"title": "乌苏里江", "address": "黑龙江省虎林市虎头镇", "image": "", "rank": 9, "time": 2.5, "location": {"lat": 45.99137546756838, "lng": 133.6748946258319}, "feature": {"sight_features": "", "sight_content": ""}}, {"title": "麒麟山风景区", "address": "鸡西市鸡东县兴农镇", "image": "", "rank": 10, "time": 1.0, "location": {"lat": 45.50808664729991, "lng": 130.9650559963089}, "feature": {"sight_features": "", "sight_content": ""}}, {"title": "月亮岛俄罗斯风情水上乐园", "address": "鸡西市虎林市杨岗镇石头河水库风景区（密山兴凯镇东10公里）", "image": "", "rank": 11, "time": 2, "location": {"lat": 45.719824951683655, "lng": 132.2897213193251}, "feature": {"sight_features": "特色1 月亮岛俄罗斯风情水上乐园空气清新，自然风光怡人。 特色2 乐园内的海浪池也是目前黑龙江省内极大的海浪池，拥有国内先进的水处理设备。 特色3 是全国少有一处具有俄罗斯风情的水上风光体验地。", "sight_content": "月亮岛俄罗斯风情水上乐园空气清新，自然风光怡人，拥有目前东北最大的野外露营基地，同时，乐园内的海浪池也是目前黑龙江省内最大的海浪池，拥有国内最先进的水处理设备，是全国唯一一处具有俄罗斯风情的水上风光体验地。\n月亮岛俄罗斯风情水上乐园项目总投资9.5亿元，分三期工程建设，打造集旅游观光、休闲娱乐、养生度假为一体的综合性旅游胜地。建成后，年可接待游客50万人次，将成为黑龙江省较大的全年开放综合性旅游示范区。项目建设初期就配备了省内最大的海浪池，东北最大的野外宿营基地，国内领先的水处理设备，同时依托边陲虎林毗邻俄罗斯的地理位置，打造出具有独特俄罗斯风情的水上乐园。"}}, {"title": "鸡冠区", "address": "黑龙江省鸡西市东部", "image": "", "rank": 12, "time": 2, "location": {"lat": 45.300872317823895, "lng": 130.97561865876668}, "feature": {"sight_features": "", "sight_content": ""}}, {"title": "鸿象戏雪乐园", "address": "鸡西市城子河区穆棱河公园内", "image": "", "rank": 13, "time": 2, "location": {"lat": 45.319376472526564, "lng": 131.000051144824}, "feature": {"sight_features": "", "sight_content": ""}}, {"title": "哈达河风景区", "address": "黑龙江省鸡西市鸡东县哈达河风景区", "image": "", "rank": 14, "time": 1.0, "location": {"lat": 45.311510196920594, "lng": 131.23191312585348}, "feature": {"sight_features": "", "sight_content": ""}}, {"title": "第二次世界大战终结地纪念园", "address": "鸡西市虎林市虎头镇靠近211省道", "image": "", "rank": 15, "time": 2, "location": {"lat": 46.47447006837411, "lng": 133.59346776240488}, "feature": {"sight_features": "", "sight_content": ""}}, {"title": "虎头关帝庙", "address": "鸡西市虎林市虎头村正南", "image": "", "rank": 16, "time": 1.0, "location": {"lat": 45.9890051096041, "lng": 133.67575048191503}, "feature": {"sight_features": "", "sight_content": ""}}, {"title": "图腾柱广场", "address": "穆棱河南岸", "image": "", "rank": 17, "time": 2, "location": {"lat": 29.50268309883491, "lng": 106.66842977859555}, "feature": {"sight_features": "", "sight_content": ""}}, {"title": "鸡西八五六青山湖旅游度假区", "address": "鸡西市虎林市区32公里外的八五六农场内", "image": "", "rank": 18, "time": 1.0, "location": {"lat": 45.632164753727736, "lng": 132.71061588026214}, "feature": {"sight_features": "", "sight_content": ""}}, {"title": "乌苏里江国家森林公园", "address": "鸡西市虎林市东部虎头林场施业区内", "image": "", "rank": 19, "time": 1.0, "location": {"lat": 45.76894691288418, "lng": 132.94346566318296}, "feature": {"sight_features": "", "sight_content": ""}}, {"title": "穆棱河公园", "address": "黑龙江省鸡西市城子河区", "image": "", "rank": 20, "time": 2, "location": {"lat": 45.37968976028333, "lng": 131.0277042986771}, "feature": {"sight_features": "", "sight_content": ""}}, {"title": "鸡西市博物馆", "address": "黑龙江省鸡西市鸡冠区文化路", "image": "", "rank": 21, "time": 2.5, "location": {"lat": 45.308344386515465, "lng": 130.9512647645601}, "feature": {"sight_features": "", "sight_content": ""}}, {"title": "鸡西恒山区", "address": "黑龙江省鸡西市下辖的一个区", "image": "", "rank": 22, "time": 1.0, "location": {"lat": 45.300872317823895, "lng": 130.97561865876668}, "feature": {"sight_features": "", "sight_content": ""}}, {"title": "哈达河水库", "address": "黑龙江省鸡西市鸡东县北部的新华乡境内", "image": "", "rank": 23, "time": 2, "location": {"lat": 45.295345384060866, "lng": 131.2358998928424}, "feature": {"sight_features": "", "sight_content": ""}}, {"title": "兴凯湖新开流景区", "address": "鸡西市密山市兴凯湖国家级自然保护区内", "image": "", "rank": 24, "time": 2, "location": {"lat": 45.35452108702261, "lng": 132.326726559368}, "feature": {"sight_features": "", "sight_content": ""}}, {"title": "开心农场水上乐园", "address": "密山市铁西新公安局路口西侧1500处", "image": "", "rank": 25, "time": 2, "location": {"lat": 45.53564080974782, "lng": 131.85353110655427}, "feature": {"sight_features": "", "sight_content": ""}}, {"title": "天下第一虎", "address": "鸡西市虎林市虎头镇靠近211省道", "image": "", "rank": 26, "time": 2, "location": {"lat": 46.47447006837411, "lng": 133.59346776240488}, "feature": {"sight_features": "", "sight_content": ""}}, {"title": "珍宝岛湿地公园", "address": "虎林市饶河县珍宝岛乡", "image": "", "rank": 27, "time": 7.5, "location": {"lat": 46.22573172101651, "lng": 133.59617375953331}, "feature": {"sight_features": "", "sight_content": ""}}, {"title": "铁西森林公园", "address": "黑龙江省鸡西市密山市", "image": "", "rank": 28, "time": 2, "location": {"lat": 45.53564080974782, "lng": 131.85353110655427}, "feature": {"sight_features": "", "sight_content": ""}}, {"title": "麻山乡李佑民建华图书馆", "address": "中心街附近", "image": "", "rank": 29, "time": 2, "location": {"lat": 40.1070240234082, "lng": 116.50201480006159}, "feature": {"sight_features": "", "sight_content": ""}}, {"title": "鸡西动植物园", "address": "中国黑龙江省鸡西市鸡冠区向南街43号", "image": "", "rank": 30, "time": 2, "location": {"lat": 45.309806344311816, "lng": 130.98763160852113}, "feature": {"sight_features": "", "sight_content": ""}}, {"title": "穆棱河", "address": "黑龙江省东部穆棱、鸡西、鸡东、密山、虎林", "image": "", "rank": 31, "time": 2, "location": {"lat": 45.26618456082589, "lng": 131.1305584829592}, "feature": {"sight_features": "", "sight_content": ""}}, {"title": "兴凯湖博物馆", "address": "Z452县道", "image": "", "rank": 32, "time": 2, "location": {"lat": 36.06504680178999, "lng": 113.80945833160084}, "feature": {"sight_features": "", "sight_content": ""}}, {"title": "当壁镇兴凯湖旅游度假区", "address": "黑龙江省鸡西市密山市", "image": "", "rank": 33, "time": 2, "location": {"lat": 45.53564080974782, "lng": 131.85353110655427}, "feature": {"sight_features": "", "sight_content": ""}}, {"title": "乌苏里江第一塔", "address": "鸡西乌苏里江畔", "image": "", "rank": 34, "time": 2, "location": {"lat": 45.300872317823895, "lng": 130.97561865876668}, "feature": {"sight_features": "", "sight_content": ""}}, {"title": "南山公园", "address": "公交地铁接驳专线8路;公交地铁接驳专线8路", "image": "", "rank": 35, "time": 2.5, "location": {"lat": 28.902622265507468, "lng": 105.45063014659402}, "feature": {"sight_features": "", "sight_content": ""}}, {"title": "新开流遗址", "address": "黑龙江省鸡西市密山市 ‎", "image": "", "rank": 36, "time": 2, "location": {"lat": 45.53564080974782, "lng": 131.85353110655427}, "feature": {"sight_features": "", "sight_content": ""}}, {"title": "密山铁西森林水上乐园", "address": "铁西森林公园内", "image": "", "rank": 37, "time": 3.0, "location": {"lat": 41.81060193765239, "lng": 123.33096969882953}, "feature": {"sight_features": "", "sight_content": ""}}, {"title": "俄罗斯艺术中俄贸易史展览馆", "address": "密山口岸附近", "image": "", "rank": 38, "time": 2, "location": {"lat": 45.277257432498914, "lng": 132.00104835987716}, "feature": {"sight_features": "", "sight_content": ""}}, {"title": "多多魚婴童水世界", "address": "穆棱街245号(人民医院住院部28号门市)", "image": "", "rank": 39, "time": 2, "location": {"lat": 35.637870474118735, "lng": 111.22685651018948}, "feature": {"sight_features": "", "sight_content": ""}}, {"title": "翠园", "address": "东环路与兴凯路交叉口东南200米", "image": "", "rank": 40, "time": 2, "location": {"lat": 45.62360560270273, "lng": 132.47619080634138}, "feature": {"sight_features": "", "sight_content": ""}}, {"title": "开心大戏院", "address": "中心街道密山火车站", "image": "", "rank": 41, "time": 2.0, "location": {"lat": 45.55781052132079, "lng": 131.88015982471902}, "feature": {"sight_features": "", "sight_content": ""}}, {"title": "杨老师美术书法学校", "address": "光复路108附近", "image": "", "rank": 42, "time": 2, "location": {"lat": 30.25407205477851, "lng": 120.17780957472199}, "feature": {"sight_features": "", "sight_content": ""}}, {"title": "南岔湖湿地公园", "address": "黑龙江省鸡西市虎林市Y553", "image": "", "rank": 43, "time": 2.5, "location": {"lat": 45.76894691288418, "lng": 132.94346566318296}, "feature": {"sight_features": "", "sight_content": ""}}, {"title": "兴凯湖龙王庙", "address": "黑龙江省鸡西市密山市", "image": "", "rank": 44, "time": 2, "location": {"lat": 45.53564080974782, "lng": 131.85353110655427}, "feature": {"sight_features": "", "sight_content": ""}}, {"title": "天禧汤泉", "address": "鸡西市城子河区交警大队对面禧汤泉酒店", "image": "", "rank": 45, "time": 2, "location": {"lat": 45.30582700109001, "lng": 130.98904338546063}, "feature": {"sight_features": "", "sight_content": "天禧汤泉酒店总面积8千余平米，是集大型室内汤泉、韩式汗蒸广场、健康洗浴、女士SPA、儿童戏水乐园、客房、特色餐饮等为一体的综合型温泉酒店。"}}, {"title": "蓝湖湾汤泉", "address": "鸡西市鸡冠区康新路", "image": "", "rank": 46, "time": null, "location": {"lat": 45.30275668465496, "lng": 130.9537841027866}, "feature": {"sight_features": "", "sight_content": "鸡西市蓝湖湾汤泉是集洗浴、超大韩式汗蒸、盐房、窑洞、黄泥房、玉石房、淘气宝、精美美食、各式客房、棋牌室、影视厅、休息大厅、大韩松骨、按摩房为一体的大型商务度假综合性场所。\n韩式建筑风格，格调新颖，气势恢弘。"}}, {"title": "东来顺火锅", "address": "东大街与八道街交叉口东北100米", "image": "", "rank": 47, "time": 2, "location": {"lat": 42.85646580255288, "lng": 124.414086267546}, "feature": {"sight_features": "", "sight_content": ""}}, {"title": "鸡西市水博物馆", "address": "鸡西市鸡冠区", "image": "", "rank": 48, "time": 1.0, "location": {"lat": 45.309806344311816, "lng": 130.98763160852113}, "feature": {"sight_features": "", "sight_content": ""}}, {"title": "虎头影视城", "address": "鸡西市虎林市虎头镇靠近211省道", "image": "", "rank": 49, "time": 2, "location": {"lat": 46.47447006837411, "lng": 133.59346776240488}, "feature": {"sight_features": "", "sight_content": ""}}, {"title": "八五八千岛林景区", "address": "鸡西市虎林市八五八农场", "image": "", "rank": 50, "time": 2, "location": {"lat": 45.72682985189711, "lng": 133.34014740070901}, "feature": {"sight_features": "", "sight_content": ""}}, {"title": "八五七农场老干部活动中心", "address": "朝阳大街与青山路交叉口西北100米", "image": "", "rank": 51, "time": 2, "location": {"lat": 45.62904343177374, "lng": 132.4749527275519}, "feature": {"sight_features": "", "sight_content": ""}}, {"title": "八五〇农场水稻科技园", "address": "309省道附近", "image": "", "rank": 52, "time": 2, "location": {"lat": 40.709016096764906, "lng": 116.52743651721413}, "feature": {"sight_features": "", "sight_content": ""}}, {"title": "神奇世界儿童图书借阅馆", "address": "延寿路183", "image": "", "rank": 53, "time": 2, "location": {"lat": 45.547243116342656, "lng": 131.8817661961913}, "feature": {"sight_features": "", "sight_content": ""}}, {"title": "嘉兴钓场", "address": "856农场向原村村道C760", "image": "", "rank": 54, "time": 4.5, "location": {"lat": 45.61928761223672, "lng": 132.75338995834096}, "feature": {"sight_features": "", "sight_content": ""}}, {"title": "神顶峰景区", "address": "鸡西市虎林市东方红局青山经营所21林班", "image": "", "rank": 55, "time": 2, "location": {"lat": 45.76894691288418, "lng": 132.94346566318296}, "feature": {"sight_features": "", "sight_content": "顶峰景区是完达山那丹哈达拉岭的主峰，海拔831米，位于东方红林业局青山林场至奇源林场之间，距离局址56公里，是我国较早见到太阳的地方。日出、松涛、云海是神顶峰的景观“三绝”。景区有露营基地，可自带装备露营。"}}, {"title": "迎春沼泽地", "address": "黑龙江省虎林市迎春镇 158400", "image": "", "rank": 56, "time": 2, "location": {"lat": 46.033085421608085, "lng": 132.9958832413522}, "feature": {"sight_features": "", "sight_content": ""}}, {"title": "北大荒纪念园", "address": "黑龙江省密山市8510农场内 158100", "image": "", "rank": 57, "time": 2, "location": {"lat": 45.30943223140293, "lng": 131.3003657619015}, "feature": {"sight_features": "", "sight_content": ""}}, {"title": "影剧院", "address": "中心大街437号", "image": "", "rank": 58, "time": 2, "location": {"lat": 48.48012983865591, "lng": 124.8903259171077}, "feature": {"sight_features": "", "sight_content": ""}}, {"title": "八楞山风景区", "address": "黑龙江省鸡东县平阳镇 158223", "image": "", "rank": 59, "time": 2, "location": {"lat": 45.190334832765096, "lng": 131.24777270963222}, "feature": {"sight_features": "", "sight_content": ""}}, {"title": "刀背山墓地", "address": "黑龙江省鸡西市鸡冠区西郊乡太阳升村 158100", "image": "", "rank": 60, "time": 2, "location": {"lat": 45.30277149300723, "lng": 131.03022351563234}, "feature": {"sight_features": "", "sight_content": ""}}]}