{"cityName": "巨鹿", "days": 2, "cityImage": "", "spots": [{"title": "欢乐谷水上乐园", "address": "魏征北街1号", "image": "", "rank": 1, "time": 1.5, "location": {"lat": 37.22846670687353, "lng": 115.04030216578956}, "feature": {"sight_features": "", "sight_content": ""}}, {"title": "巨鹿怡园乡情采摘园", "address": "巨鹿镇董巨线东", "image": "", "rank": 2, "time": 2, "location": {"lat": 37.25794332354075, "lng": 115.03166875544851}, "feature": {"sight_features": "", "sight_content": ""}}, {"title": "欢乐谷亲子儿童乐园", "address": "邢台市巨鹿县中央馨府北门", "image": "", "rank": 3, "time": 2, "location": {"lat": 37.2320544142478, "lng": 115.04534065719159}, "feature": {"sight_features": "", "sight_content": ""}}, {"title": "淘气堡儿童游乐场", "address": "东安街与富强东路交叉口西南100米", "image": "", "rank": 4, "time": null, "location": {"lat": 37.23217746821163, "lng": 115.0577117308104}, "feature": {"sight_features": "", "sight_content": ""}}, {"title": "巨鹿基督之家", "address": "河北省邢台市巨鹿县S234", "image": "", "rank": 5, "time": 2, "location": {"lat": 37.227088328938194, "lng": 115.0435873588701}, "feature": {"sight_features": "", "sight_content": ""}}, {"title": "家宝贝儿童欢乐谷", "address": "巨鹿镇富强西路老汽车站西行100米路南", "image": "", "rank": 6, "time": 2, "location": {"lat": 36.18999981382275, "lng": 117.11636201633365}, "feature": {"sight_features": "", "sight_content": ""}}, {"title": "明珠广场", "address": "新华南街95号", "image": "", "rank": 7, "time": null, "location": {"lat": 37.03819178972459, "lng": 111.92495049785065}, "feature": {"sight_features": "", "sight_content": ""}}, {"title": "水上乐园", "address": "六路口", "image": "", "rank": 8, "time": 2, "location": {"lat": 39.42255275325627, "lng": 118.92077057604848}, "feature": {"sight_features": "", "sight_content": ""}}]}