{"cityName": "莒南", "days": 2, "cityImage": "", "spots": [{"title": "天马岛旅游区", "address": "临沂市莒南县涝坡镇", "image": "", "rank": 1, "time": 3.5, "location": {"lat": 35.29596625132613, "lng": 118.9218489738471}, "feature": {"sight_features": "特色1 有四奇、四怪之说", "sight_content": "山东天马岛旅游区位于临沂市莒南县城东北16公里处，方圆46平方公里，由天湖和天马岛两部分组成。其中天湖水域辽阔，面积20平方公里，湖水清澈甘冽，碧波万顷；天马岛面积26平方公里，主峰海拔662.2米，三面被自然形成的湖泊紧紧环抱。湖光山色，山水一体，山因水而灵秀，水因山而妩媚，绘就了一幅“山疑画里看，水作琴中听”的江南诗韵美景。\n根据南宋抗金名将杨妙真历史故事，在景区山顶上演一场200人的大规模天马忠魂表演，表演分为杨妙真抗金、比武招亲、官府招安三部分。演员在场地还有威亚特技表演、陷马坑等，演出时狼烟四起，长号齐鸣、战鼓震天响，音响效果的氛围再现南宋杨妙真抗金那段经典历史片段。\n该旅游区由金顶游览区、狮子峰游览区，北岸的高档酒店区、别墅度假区，西岸的天马岛假日酒店、圣水码头，以及南岸的天湖岸上游乐园、水上乐园、生存挑战区等构成。天马岛气势宏伟，集泰山之雄伟，华山之险峻，秀丽奇雄，是历来观光游览的胜地，有四奇、四怪之说。\n四奇：芦苇长上天马石，银鱼万条游天池，金蟾绿背红肚皮，山顶黑土不见底。四怪：天马四方像天台，山顶倒比山邦矮，十万巨石天外来，陕北山丹丹遍地开。该旅游区是容自然生态人文景观、科普研讨、拓展极限、度假休闲、会议、娱乐疗养等多功能于一体的全方位旅游胜地。"}}, {"title": "八路军115师司令部与山东省政府...", "address": "临沂市莒南县大店镇庄氏庄园", "image": "", "rank": 2, "time": null, "location": {"lat": 35.343302732119334, "lng": 118.78006851690176}, "feature": {"sight_features": "", "sight_content": ""}}, {"title": "天佛旅游区", "address": "临沂市莒南县天桥路天桥路北首", "image": "", "rank": 3, "time": 1.0, "location": {"lat": 35.18168911781021, "lng": 118.85105672445471}, "feature": {"sight_features": "", "sight_content": ""}}, {"title": "马鬐山风景区", "address": "莒南天佛风景区内", "image": "", "rank": 4, "time": 2, "location": {"lat": 35.18081163178793, "lng": 118.84154077027218}, "feature": {"sight_features": "", "sight_content": ""}}, {"title": "省政府旧址", "address": "山东省,莒南县,大店镇驻地,276612", "image": "", "rank": 5, "time": 2, "location": {"lat": 35.34143507267757, "lng": 118.77724044724101}, "feature": {"sight_features": "", "sight_content": ""}}, {"title": "九亩地休闲农庄", "address": "淮海路与东环路交汇处往北500米路东", "image": "", "rank": 6, "time": 2, "location": {"lat": 21.617131004996395, "lng": 110.28820210352386}, "feature": {"sight_features": "", "sight_content": ""}}, {"title": "莒南县梦乡园家庭农场", "address": "板泉第一初级中学东邻600米(西新庄)", "image": "", "rank": 7, "time": 2, "location": {"lat": 42.10566357593496, "lng": 124.92310877612985}, "feature": {"sight_features": "", "sight_content": ""}}, {"title": "沂河水岸采摘园(蓝莓采摘基地)", "address": "汤头镇观塘温泉东行7公里", "image": "", "rank": 8, "time": 2, "location": {"lat": 44.97485663870472, "lng": 81.0940269321849}, "feature": {"sight_features": "", "sight_content": ""}}, {"title": "曲流河鱼场", "address": "十泉路与镇中路交叉口东100米", "image": "", "rank": 9, "time": 2, "location": {"lat": 35.182872262621295, "lng": 118.83752373398077}, "feature": {"sight_features": "", "sight_content": ""}}, {"title": "天湖小院", "address": "山西头村", "image": "", "rank": 10, "time": 2, "location": {"lat": 41.85869479116377, "lng": 122.18123171050858}, "feature": {"sight_features": "", "sight_content": ""}}, {"title": "白龙汪垂钓园", "address": "十泉路与西五路交汇处往西50米路南", "image": "", "rank": 11, "time": 2, "location": {"lat": 21.61293072722965, "lng": 110.28775295076902}, "feature": {"sight_features": "", "sight_content": ""}}, {"title": "115师旧址", "address": "山东省莒南县大店镇政府驻地 276612", "image": "", "rank": 12, "time": 2, "location": {"lat": 35.34520309332818, "lng": 118.7950315953747}, "feature": {"sight_features": "", "sight_content": ""}}, {"title": "龙宝宝儿童乐园", "address": "山东省临沂市莒南县隆山路北段五洲广场对面路东", "image": "", "rank": 13, "time": 2, "location": {"lat": 35.20544831399962, "lng": 118.83949481479519}, "feature": {"sight_features": "", "sight_content": ""}}, {"title": "甘露寺", "address": "山东省临沂市莒南县", "image": "", "rank": 14, "time": 2.5, "location": {"lat": 35.18081163178793, "lng": 118.84154077027218}, "feature": {"sight_features": "", "sight_content": ""}}, {"title": "气脉山", "address": "\"临沂市莒南县\"", "image": "", "rank": 15, "time": 2, "location": {"lat": 35.18081163178793, "lng": 118.84154077027218}, "feature": {"sight_features": "", "sight_content": ""}}, {"title": "南无阿弥陀佛", "address": "新建路", "image": "", "rank": 16, "time": 2, "location": {"lat": 39.164365704750224, "lng": 117.21108062489954}, "feature": {"sight_features": "", "sight_content": ""}}, {"title": "甲子山医院旧址纪念馆", "address": "山东省临沂市莒南县文疃镇甲子山医院附近", "image": "", "rank": 17, "time": 2, "location": {"lat": 35.34269718381879, "lng": 119.04765616285826}, "feature": {"sight_features": "", "sight_content": ""}}, {"title": "马髻山", "address": "山东省莒南县莒南县城北10公里处 276600", "image": "", "rank": 18, "time": 1.0, "location": {"lat": 35.18081163178793, "lng": 118.84154077027218}, "feature": {"sight_features": "", "sight_content": ""}}, {"title": "气脉山公园", "address": "山东省临沂市莒南县人民路", "image": "", "rank": 19, "time": 2, "location": {"lat": 35.186062683680454, "lng": 118.8486279947118}, "feature": {"sight_features": "", "sight_content": ""}}, {"title": "鸡龙河城市湿地公园", "address": "山东省临沂市莒南县隆山路北段", "image": "", "rank": 20, "time": 2, "location": {"lat": 35.19883847393613, "lng": 118.84075268684826}, "feature": {"sight_features": "", "sight_content": ""}}, {"title": "瑞通牡丹园", "address": "莒南县临沂宝隆混凝土公司北270米", "image": "", "rank": 21, "time": 2, "location": {"lat": 35.18081163178793, "lng": 118.84154077027218}, "feature": {"sight_features": "", "sight_content": ""}}, {"title": "莒南天佛山度假村", "address": "天佛山前", "image": "", "rank": 22, "time": 3.5, "location": {"lat": 35.2436173490721, "lng": 118.86238767258118}, "feature": {"sight_features": "", "sight_content": ""}}, {"title": "开心一乐儿童主题乐园", "address": "临沂市莒南县", "image": "", "rank": 23, "time": 2, "location": {"lat": 35.18081163178793, "lng": 118.84154077027218}, "feature": {"sight_features": "", "sight_content": ""}}, {"title": "九峰山多肉植物园", "address": "山东省临沂市莒南县大店镇大店九村", "image": "", "rank": 24, "time": 2, "location": {"lat": 35.34479216910965, "lng": 118.77873879298419}, "feature": {"sight_features": "", "sight_content": ""}}, {"title": "科迪食文化广场", "address": "山东省临沂市莒南县黄海路32", "image": "", "rank": 25, "time": 2, "location": {"lat": 35.19443663749973, "lng": 118.85376172715891}, "feature": {"sight_features": "", "sight_content": ""}}, {"title": "裕隆度假村", "address": "山东省临沂市莒南县南环路", "image": "", "rank": 26, "time": 2, "location": {"lat": 35.16647353971021, "lng": 118.83685241500199}, "feature": {"sight_features": "", "sight_content": ""}}, {"title": "临沂天湖金岛度假村", "address": "莒南山东省莒南先大店镇天湖金岛度假村", "image": "", "rank": 27, "time": 3.0, "location": {"lat": 35.35918159976814, "lng": 118.89268804024654}, "feature": {"sight_features": "", "sight_content": ""}}, {"title": "峙嵋山生态园", "address": "东环路附近", "image": "", "rank": 28, "time": 2, "location": {"lat": 38.71201808028218, "lng": 117.07603604175296}, "feature": {"sight_features": "", "sight_content": ""}}, {"title": "八路军山东军区司令部旧址", "address": "临沂市莒南县中心街128号山东省政府和八路军115师司令部旧址内", "image": "", "rank": 29, "time": 2, "location": {"lat": 35.34452087386789, "lng": 118.77759540098532}, "feature": {"sight_features": "", "sight_content": ""}}, {"title": "鲁南书画院", "address": "十泉路52号", "image": "", "rank": 30, "time": 2, "location": {"lat": 35.18251405371784, "lng": 118.8402660747535}, "feature": {"sight_features": "", "sight_content": ""}}, {"title": "龙泉梦幻水世界", "address": "岭泉镇淮海路西段(高速公路连接线与莒阿路交叉路口往西500米路南)", "image": "", "rank": 31, "time": 2, "location": {"lat": 35.20651044782263, "lng": 118.79986706973146}, "feature": {"sight_features": "", "sight_content": ""}}, {"title": "马鬐山", "address": "城北10公里", "image": "", "rank": 32, "time": 2, "location": {"lat": 36.656293630836586, "lng": 101.77240488175582}, "feature": {"sight_features": "", "sight_content": ""}}, {"title": "五洲乐园", "address": "隆山路五洲广场往西300米", "image": "", "rank": 33, "time": 2, "location": {"lat": 35.20544831399962, "lng": 118.83679989826526}, "feature": {"sight_features": "", "sight_content": ""}}, {"title": "长刚种植", "address": "相邸镇南高庄村6号", "image": "", "rank": 34, "time": 2, "location": {"lat": 35.129630120203245, "lng": 118.91165648332735}, "feature": {"sight_features": "", "sight_content": ""}}, {"title": "中国歌剧舞剧院", "address": "滨海路13号附近", "image": "", "rank": 35, "time": 2, "location": {"lat": 31.012592387438797, "lng": 121.89467711355672}, "feature": {"sight_features": "", "sight_content": ""}}, {"title": "博海蓝莓基地", "address": "砚柱村附近", "image": "", "rank": 36, "time": 2, "location": {"lat": 29.417230681450953, "lng": 87.74683778289922}, "feature": {"sight_features": "", "sight_content": ""}}, {"title": "莒南火龙果采摘园", "address": "古路沟村", "image": "", "rank": 37, "time": 3.5, "location": {"lat": 34.63938667420995, "lng": 117.61466356126623}, "feature": {"sight_features": "", "sight_content": ""}}, {"title": "莒南孙卢鸡山葡萄采摘园", "address": "涝坡镇孙卢鸡山村", "image": "", "rank": 38, "time": 3.5, "location": {"lat": 35.32197933444979, "lng": 118.94206587114603}, "feature": {"sight_features": "", "sight_content": ""}}, {"title": "莒南县乡韵葡萄基地", "address": "涝坡镇东店头村", "image": "", "rank": 39, "time": 2, "location": {"lat": 38.395661484437234, "lng": 113.65228024807858}, "feature": {"sight_features": "", "sight_content": ""}}, {"title": "厉家寨", "address": "山东省莒南县厉家寨行政村", "image": "", "rank": 40, "time": 2, "location": {"lat": 35.2611605962987, "lng": 119.10394637560614}, "feature": {"sight_features": "", "sight_content": ""}}, {"title": "栗王景区", "address": "山东省莒南县天佛景区", "image": "", "rank": 41, "time": 2, "location": {"lat": 35.18081163178793, "lng": 118.84154077027218}, "feature": {"sight_features": "", "sight_content": ""}}, {"title": "河东堐", "address": "临沂市-莒南县", "image": "", "rank": 42, "time": 2, "location": {"lat": 35.18081163178793, "lng": 118.84154077027218}, "feature": {"sight_features": "", "sight_content": ""}}, {"title": "莒南县涧丰生猪养殖场", "address": "临沂市-莒南县-陈家石门涧村东", "image": "", "rank": 43, "time": 2, "location": {"lat": 35.08074463847802, "lng": 118.93398158687847}, "feature": {"sight_features": "", "sight_content": ""}}, {"title": "砚柱河东", "address": "临沂市-莒南县", "image": "", "rank": 44, "time": 2, "location": {"lat": 35.18081163178793, "lng": 118.84154077027218}, "feature": {"sight_features": "", "sight_content": ""}}, {"title": "张家介脉头村", "address": "临沂市-莒南县", "image": "", "rank": 45, "time": 2, "location": {"lat": 35.18081163178793, "lng": 118.84154077027218}, "feature": {"sight_features": "", "sight_content": ""}}, {"title": "壮岗西村", "address": "临沂市-莒南县", "image": "", "rank": 46, "time": 2, "location": {"lat": 35.18081163178793, "lng": 118.84154077027218}, "feature": {"sight_features": "", "sight_content": ""}}, {"title": "无极鬼谷景区", "address": "临沂市临港景区开发区朱芦镇刘家彩村", "image": "", "rank": 47, "time": 2, "location": {"lat": 35.32352489962003, "lng": 119.12521700053945}, "feature": {"sight_features": "", "sight_content": "无极鬼谷景区为旅游区的鬼谷子文化生态体验区，为旅游区一期工程项目，总投资16亿元人民币，总占地面积228公顷，项目含两大板块：鬼谷生态体验版块和凤凰台度假酒店板块。\n\n\n景区以优美的自然生态环境为背景，以鬼谷子及其弟子传道修炼为文化题材，集中展示体验鬼谷子传道的人生之道修炼文化，结合游客的参与体验集中建设了120余个景点及项目区。\n\n\n市场亮点项目有：行道——八卦停车场、巨石流瀑山门、道心湖——无极水运八卦、机心湖——无极水战体验、悟道——水上森林体验、天均湖峡谷游船、剑道——玻璃滑道树梢漂流等项目，具有自己独特的项目特色和文化。\n\n\n其中巨石流瀑山门、剑道~玻璃滑道树梢漂流、悟道~水上森林、水运八卦、无极游船水战体验等项目集游客参与体验、文化感受、游乐为一体，大都为目前国内文化体验、游乐等独创项目。"}}, {"title": "卧佛寺公园", "address": "山东省,莒南县,莒南县城北,276600", "image": "", "rank": 48, "time": 2, "location": {"lat": 35.18081163178793, "lng": 118.84154077027218}, "feature": {"sight_features": "", "sight_content": ""}}]}