{"cityName": "句容", "days": 2, "cityImage": "", "spots": [{"title": "句容茅山景区", "address": "镇江市句容市茅山镇", "image": "", "rank": 1, "time": 7.5, "location": {"lat": 31.791301832385642, "lng": 119.31237457789723}, "feature": {"sight_features": "特色1 道教上清派的发源地", "sight_content": "茅山“第八洞天，第一福地”\n茅山原名为句曲山，又名地肺山，以洞天福地而闻名天下。因西汉陕西咸阳茅氏三位兄弟茅盈、茅固、茅衷在此修炼，并经常采药救人，为周边老百姓做了很多善事，所以在三人得道升仙后，百姓为纪念三人的功德便把句曲山改名为三茅山，简称茅山。茅山是道教上清派发源地，也是上清派宗坛，素有“秦汉神仙府，梁唐宰相家”的美誉。\n九霄万福宫\n九霄万福宫，因宫殿座落于茅山主峰之巅，故又称顶宫，是茅山景区最主要景点之一，主要供奉三茅真君“茅盈、茅固、茅衷”，历来是江南地区香客信徒朝山祈福的必到之所。\n万宁宫睹星门\n睹星门，亦称石碑坊。睹星门是古时道士观星望气的地方。道家在道教理论、斋醮科仪、绘画音乐、天文地理、中医文学等方面都有很深的造诣。而睹星门就是道士们夜观天象，研究天文星宿的重要场所。\n仙人洞\n仙人洞原名蓬壶洞，因有古人在洞中修道成仙，故而改名为仙人洞，仙人洞形成约有650万年的历史，是一个石灰岩溶洞，洞中常年恒温18摄氏度左右，冬暖夏凉。\n元符万宁宫\n元符万宁宫始建于南朝梁代，兴于宋朝。元佑元年，哲宗赵煦皇后孟氏误吞尖针于喉中，茅山上清派第二十五代宗师刘混康用茅山道教秘传符箓与丹药催吐，使孟氏吐出尖针。哲宗皇帝龙颜大悦，于绍圣四年建元符观，以供其修道炼法，历时九载于徽宗崇宁五年，敕赐“元符观”为“元符万宁宫”。后因宋徽宗赐给茅山的玉印就放在这里，由宫中道士为游客、香客盖印，所以又被称为“印宫”。\n崇禧万寿宫\n茅山崇禧万寿宫，原址位于大茅峰西北，丁公山南，是茅山历代宫观建筑群中最早建立的宫观，即南朝“曲林馆”，后经上清宗师陶弘景修整为 “华阳下馆”。唐贞观年间（627-649）置为“太平观”，宋祥符元年（1008）改称“崇禧观”，元延祐六年（1319）赐名“崇禧万寿宫”至今。\n喜客泉\n喜客泉位列茅山19泉之首，泉周以片石砌成，泉径约3米，深约2米，泉水冬暖夏凉，水质甘甜，遇旱不涸。因游人至泉边击掌之后，就会从泉池中冒出一串串珍珠似的气泡，以示对游客的欢迎，大有客至泉也喜之意，故得名“喜客泉”。\n苏南抗战胜利纪念碑（丰碑奇号）\n“苏南抗战胜利纪念碑”，碑名由原国防部部长张爱萍将军亲笔题写。碑前两尊骑着战马的雕塑，分别是陈毅（东南）和粟裕（西北）。\n你不知道的茅山美景\n茅山外绿荫隧道\n句容最美县道X211（X211入口处是茅山的正大门），不管是骑行还是自驾，都值得打卡一游，绿荫隧道近在茅山脚下。\n茅山腹地的早晨\n茅山落日\n茅山夜景"}}, {"title": "宝华山国家森林公园", "address": "句容市宝华镇杨柳泉路", "image": "", "rank": 2, "time": 7.5, "location": {"lat": 32.15027986862007, "lng": 119.1000168782884}, "feature": {"sight_features": "特色1 看清初汉白玉戒台、清末千人大锅。", "sight_content": "宝华山国家森林公园位于江苏句容西北，与南京接壤，在312国道南侧、沪宁高速公路以北，距镇江、句容各30公里距南京市区仅20多公里。宝华山素有“林麓之美，峰峦之秀，洞壑之深，烟霞之胜”四大奇景，1996年4月被批准为国家aaaa级旅游区。宝华山主峰海拔437.2米，仅次于南京紫金山 （448米），有秀冠东南之美誉，还有“一岭、二龙四池、七台九洞、十二泉、三十六峰”等传奇景点。宝华山隆昌寺始建于梁天监元年（502年），至今已有1500多年的历史。‍‍较‍‍兴隆时有僧人3000多，全国70%僧尼到此受戒。明代敕造的铜殿、两座无梁殿为国内仅存，大雄宝殿内供奉的是香港宝莲寺赠的“天坛大佛”高7.84米。宝华山历史文化底蕴深厚。乾隆皇帝六下江南、六上宝华,历代文人墨客登山、访寺者无数；留下许多传奇故事和墨宝。\n宝华山森林景观独特，森林覆盖率高达92%。森林公园内的自然保护区面积115公顷，内有维管束植物有124科、352属、529种，是青少年科普教育基地。宝华玉兰、南京椴为宝华山特有树种；宝华山还有刚竹、水竹、苦竹、短穗竹等野生品种，素有“竹海”之称。宝华山动物资源丰富，有獐、狐等20多种哺乳动物，画眉、八哥、白鹭等近百种鸟类，具有较高的观赏和研究价值。\n秦淮河发源于溧水东庐山与句容宝华山，自东向西，潺潺地淌过南京市区的南部，又沿着石城的西北注入长江，故而宝华山亦有“秦淮之源”之称。宝华山泉流到江宁的方山，经过通济门进入南京城。登秦淮源头有乾隆御笔“秦淮之源”四个大字。\n\n宝华山自然保护区于1984年经江苏省人民政府批准成立，占地面积115公顷。是宝华山国家森林公园的一个组成部分。为了在开发旅游的过程中有效地保护自然保护区的生物资源，景区修建了这条游步道，供游人观赏保护区内的珍贵植物。自然保护区地处北亚热带中部，气候四季分明，热量充裕，无霜期长，蕴含着丰富的自然资源。其地带性森林植被是常绿、落叶阔叶混交林，具有浓郁的森林氛围和良好的生态环境。植物资源丰富，种类繁多，已知的维管束植物共有124科352属529种，种子植物的种数为欧洲植物种子数的1/4，其中不乏珍稀宝贵的树种，如宝华玉兰、白玉兰、紫玉兰、宝华鹅耳枥、糙叶树、铜钱树、紫楠、青冈栎、银杏等。"}}, {"title": "九霄万福宫", "address": "镇江市句容市茅山镇大茅路，茅山风景区内最高峰大茅峰巅", "image": "", "rank": 3, "time": null, "location": {"lat": 31.78775839859777, "lng": 119.32189841291401}, "feature": {"sight_features": "特色1 茅山朝山敬香必到处，烧香祈福灵验。 位于茅山最高峰的顶部，可俯看山下景致。", "sight_content": "九霄万福宫简称“九霄宫”、“万福宫”、“顶宫”。是茅山道院的主体部分。该宫始建于公元60年，初为石坛、石屋，供奉三茅真君像。齐梁年间成宫观。明万历二十六年（1598）敕赐“九霄万福宫”。观内主要殿堂有灵官殿、藏经楼、太元殿、三圣殿、飞升台等。传说飞升台便是当年茅盈“升天”之处，也是昔日道士们“拜符上表”的地方。观内有一水池，曰“豢龙池”，大旱不涸，传为“神龙所都”。"}}, {"title": "隆昌寺", "address": "镇江市句容市宝华镇杨柳泉路宝华山上", "image": "", "rank": 4, "time": 2.0, "location": {"lat": 32.13931674197293, "lng": 119.08528369236497}, "feature": {"sight_features": "特色1 目前国内最大的传戒道场，清初汉白玉戒台、清末千人大锅、明代铜殿和无梁殿，不容错过！", "sight_content": "隆昌寺原名千华寺。自宝志创寺以来，已逾1500余年据《宝华山志》记载：“宝华律宗为金陵四百八十大梵刹最上者。”雍正十一年（1733）清世宗令宝华山律院住持、律师赴京放皇戒（即授御戒），宝华的名望随之日高。该院先后授戒70余期，全国僧尼均来此受戒，以为正宗。"}}, {"title": "瓦屋山", "address": "句容市竹箦镇瓦屋山线", "image": "", "rank": 5, "time": 4.0, "location": {"lat": 31.950923490521372, "lng": 119.17543320290359}, "feature": {"sight_features": "", "sight_content": ""}}, {"title": "元符万宁宫", "address": "镇江市句容市茅山镇茅山风景区内", "image": "", "rank": 6, "time": 1.5, "location": {"lat": 31.791415884861927, "lng": 119.31108005767426}, "feature": {"sight_features": "", "sight_content": ""}}, {"title": "喜客泉", "address": "镇江市句容市茅山镇大茅路茅山景区内", "image": "", "rank": 7, "time": 1.0, "location": {"lat": 31.787742745186257, "lng": 119.31374629041096}, "feature": {"sight_features": "", "sight_content": ""}}, {"title": "老子神像", "address": "镇江市句容市茅山镇大茅路，茅山景区的元符万宁宫内", "image": "", "rank": 8, "time": 0.5, "location": {"lat": 31.787742745186257, "lng": 119.31374629041096}, "feature": {"sight_features": "", "sight_content": ""}}, {"title": "仙人洞", "address": "镇江市句容市茅山镇大茅路茅山景区内", "image": "", "rank": 9, "time": 1.5, "location": {"lat": 31.787742745186257, "lng": 119.31374629041096}, "feature": {"sight_features": "", "sight_content": ""}}, {"title": "茅山新四军纪念馆", "address": "镇江市句容市茅山镇", "image": "", "rank": 10, "time": 1.0, "location": {"lat": 31.791301832385642, "lng": 119.31237457789723}, "feature": {"sight_features": "特色1 学习红色历史,缅怀革命先烈，彰显红色教育示范基地", "sight_content": "茅山新四军纪念馆位于大茅峰西麓，展出内容包括苏南人民奋起抗击日本侵略者、茅山抗日根据地的开辟、苏南新四军东进北上、苏南抗日根据地的发展与坚持、苏南人民夺取抗日斗争的最终胜利等五个部分。"}}, {"title": "千华古村", "address": "镇江市句容市宝华镇杨柳泉路宝千华古村", "image": "", "rank": 11, "time": 2, "location": {"lat": 32.15027986862007, "lng": 119.1000168782884}, "feature": {"sight_features": "", "sight_content": "市井街是古村文化演艺的灵魂所在，清朝小镇就是舞台，在场的每一位路人，游客都是参与者，由专业的导演编剧和演出团队分不同时段演出不同故事，并且让游人参与其中，令人犹如身临其境一般，全方位深入体验清朝小镇的魅力\n市井街是古村文化演艺的灵魂所在，清朝小镇就是舞台，在场的每一位路人，游客都是参与者，由专业的导演编剧和演出团队分不同时段演出不同故事，并且让游人参与其中，令人犹如身临其境一般，全方位深入体验清朝小镇的魅力\n民俗传统，亲身参与。我国在漫长的历史沉淀中，积累了及其丰富的民俗文化，而随着城市化的进程，很多的传统习俗，传统技艺只能在小城市出现，有的甚至已经失传。通过研究古代民俗，在全国范围内搜寻民间艺人，再现于宝华明清朝小镇，既让游人大饱眼福，也让传统民俗得以发展。"}}, {"title": "华阳洞", "address": "镇江市句容市茅山镇大茅路茅山风景区内", "image": "", "rank": 12, "time": null, "location": {"lat": 31.796982159720102, "lng": 119.32762366786147}, "feature": {"sight_features": "", "sight_content": ""}}, {"title": "乾元观", "address": "镇江句容市茅山风景名胜区内", "image": "", "rank": 13, "time": 2, "location": {"lat": 31.800508134041895, "lng": 119.32089832938975}, "feature": {"sight_features": "", "sight_content": ""}}, {"title": "苏南抗战胜利纪念碑", "address": "镇江市句容市大茅路", "image": "", "rank": 14, "time": 1.0, "location": {"lat": 31.796982159720102, "lng": 119.32762366786147}, "feature": {"sight_features": "", "sight_content": ""}}, {"title": "茶博园", "address": "句容市茅山镇（原春城镇）北2公里处", "image": "", "rank": 15, "time": 2, "location": {"lat": 31.791301832385642, "lng": 119.31237457789723}, "feature": {"sight_features": "", "sight_content": ""}}, {"title": "江苏农博园", "address": "句容市边城镇243省道戴村路口", "image": "", "rank": 16, "time": 2, "location": {"lat": 32.012303353808335, "lng": 119.25495848292147}, "feature": {"sight_features": "特色1 感受山野农家之乐", "sight_content": "江苏禾木农博园始建于2003年10月，位于江苏省句容市边城镇境内，目前占地面积近5000亩，总投资2亿多元人民币，目前已建成集实习实训、科研开发、生产经营、科普教育、农业生态旅游为一体的具有多个功能分区、综合性的农林科技示范园。\n\n\n无土草毯由我院首创，拥有多项国家专利，具有“质地轻、无杂草、纯度高、成活快”等优点，被誉为“瞬间草坪”；示范区占地4万㎡，坪床因势而作，高效节水灌溉覆盖率较高，一年可生产4-5季，无土草毯项目已被江苏省政府确定为宁镇丘陵地区农业优势主导产业。并获得“中国神农”农业科技进步二等奖。生态大道全长约600M，临近松涛湖，像一条绿带飘逸在园区的东南面。采用先进的混播技术营建，四季常绿，特色鲜明，生态环保。沿路两侧分布着江苏省苗木种质基因库和草坪草种质基因库，征集林木品种约860种，观赏草品种80多种。"}}, {"title": "龙山湖高尔夫度假村", "address": "镇江市句容市白兔镇龙山湖农业休闲观光园", "image": "", "rank": 17, "time": 2, "location": {"lat": 31.96193373334137, "lng": 119.29544309556032}, "feature": {"sight_features": "", "sight_content": ""}}, {"title": "柯南密室逃脱", "address": "江苏镇江句容华阳东路（五星电器对面三楼，艺庭茶楼上面）", "image": "", "rank": 18, "time": 2, "location": {"lat": 31.955185356935505, "lng": 119.1792441706059}, "feature": {"sight_features": "", "sight_content": ""}}, {"title": "崇禧万寿宫", "address": "句容市茅山风景区大茅山峰西北丁公山南", "image": "", "rank": 19, "time": 15.0, "location": {"lat": 31.787666249457867, "lng": 119.32114680877856}, "feature": {"sight_features": "", "sight_content": ""}}, {"title": "得撒石磨豆腐村", "address": "镇江市句容市茅山镇春城集镇前陵村原涧西村", "image": "", "rank": 20, "time": 2, "location": {"lat": 31.791301832385642, "lng": 119.31237457789723}, "feature": {"sight_features": "", "sight_content": ""}}, {"title": "碧桂园希乐城", "address": "镇江市句容市黄梅镇碧桂园大道2号(碧桂园·凤凰城内，近汤山)", "image": "", "rank": 21, "time": 2, "location": {"lat": 32.02051884798731, "lng": 119.1148265243836}, "feature": {"sight_features": "", "sight_content": ""}}, {"title": "辟邪石刻", "address": "镇江市句容市南朝石刻内", "image": "", "rank": 22, "time": 2, "location": {"lat": 31.950923490521372, "lng": 119.17543320290359}, "feature": {"sight_features": "", "sight_content": ""}}, {"title": "伏热花海庄园", "address": "镇江市句容市白兔镇伏热花海庄园", "image": "", "rank": 23, "time": 2, "location": {"lat": 31.994970681592665, "lng": 119.31610671210458}, "feature": {"sight_features": "特色1 花卉和亲子观光游乐。", "sight_content": "‍‍关于伏热花海庄园\nAbout Fouroux Valley\n伏热花海的名字Fouroux Valley，取自梵高的外号。梵高的油画里有丰富的色彩，有乡野的气氛。伏热花海里有四季不同的鲜花，有纯净的乡野风光。想象中的乡野、四季花海、周末时光有了寄托。\n花海美景\n以『世界花海』为目标，借鉴国外几大著名花海，打造花海纯美世界。\n花海部分:以日本北海道富良野七彩花海为原型修建的彩虹花田，以日本滨海公园为原型修建的滨湖花海，以法国阿尔勒为原型修建的泰迪熊花海，以普罗旺斯熏衣草园为原型修建的微热山丘，以维朗德里城堡爱情花园为原型修建的香草花园。\n亲子乐园  游乐项目乐趣多\n带孩子赏花的家庭，正好可以教孩子认识各种鲜花，增长见识，也可以和孩子们一起到游乐场，一起玩耍。\n▲巨型滑梯、旋转木马、蹦床、碰碰车、蘑菇屋...\n也可以来马场或者萌宠乐园，与动物亲密接触。\n\n园区配套服务\n玩倦了，走累了，就来咖啡厅或者花房坐坐吧！咖啡房让你在小憩片刻时品尝美味；玻璃花房里你可以DIY植物标本、石头彩绘、制作干花等等；花房里我们还提供主题摄影服务，帮你记录下美好的家庭欢乐时光。"}}, {"title": "芝樱小镇", "address": "镇江市句容市天王镇金山村", "image": "", "rank": 24, "time": 2, "location": {"lat": 31.724543597220396, "lng": 119.21385206141201}, "feature": {"sight_features": "", "sight_content": "芝樱小镇总占地面积1300亩，芝樱花海占地300亩，总共480万株，以芝樱为主题的公园，是一个集农业休闲观光、有机种养、农业亲子乐园和精品养心民宿为一体的田园综合体。"}}, {"title": "瓦屋山庄", "address": "镇江市句容市茅山镇白沙路内", "image": "", "rank": 25, "time": 2, "location": {"lat": 31.645977145866397, "lng": 119.27555341322984}, "feature": {"sight_features": "", "sight_content": ""}}, {"title": "岩藤农场", "address": "镇江市句容市后白镇岩藤农场（新104国道距后白镇3公里处）", "image": "", "rank": 26, "time": 2, "location": {"lat": 31.78000213998784, "lng": 119.21487920818637}, "feature": {"sight_features": "", "sight_content": ""}}, {"title": "奥酷熊猫梦幻王国", "address": "镇江市句容市碧桂园大道1号二楼", "image": "", "rank": 27, "time": 2, "location": {"lat": 32.02127902769639, "lng": 119.11337502437446}, "feature": {"sight_features": "", "sight_content": ""}}, {"title": "奥酷熊猫宝宝乐园", "address": "镇江市句容市碧桂园大道1号（一楼）", "image": "", "rank": 28, "time": 2, "location": {"lat": 32.02127902769639, "lng": 119.11337502437446}, "feature": {"sight_features": "", "sight_content": ""}}, {"title": "山乡缘家庭农场", "address": "天王镇浮山村(天王中学)", "image": "", "rank": 29, "time": 2, "location": {"lat": 31.74537321902842, "lng": 119.21111610938807}, "feature": {"sight_features": "", "sight_content": ""}}, {"title": "赤山湖原生园温泉养生度假区", "address": "248省赤山湖大桥段", "image": "", "rank": 30, "time": 2, "location": {"lat": 40.109972638361725, "lng": 122.65292459015045}, "feature": {"sight_features": "", "sight_content": ""}}, {"title": "正伊洗浴", "address": "镇江市句容市经济开发区黄梅新村碧桂园大道2号酒店三楼", "image": "", "rank": 31, "time": 2, "location": {"lat": 32.02051884798731, "lng": 119.1148265243836}, "feature": {"sight_features": "", "sight_content": ""}}, {"title": "明丰葡萄园(丁庄葡萄园)", "address": "春城镇万家村泰源田庄后身", "image": "", "rank": 32, "time": 2, "location": {"lat": 31.905419676348156, "lng": 119.26100040852731}, "feature": {"sight_features": "", "sight_content": ""}}, {"title": "王老大葡萄火龙果釆摘", "address": "后白政府向东200米(新104囯道与后茅路道囗)", "image": "", "rank": 33, "time": 2, "location": {"lat": 27.855115878009787, "lng": 120.72109614867794}, "feature": {"sight_features": "", "sight_content": ""}}, {"title": "丁庄葡萄", "address": "茅山镇丁家边村", "image": "", "rank": 34, "time": 2, "location": {"lat": 31.919618631815638, "lng": 119.25167775531762}, "feature": {"sight_features": "", "sight_content": ""}}, {"title": "瓦屋山大地农场垂钓休闲中心", "address": "瓦屋山线", "image": "", "rank": 35, "time": 2, "location": {"lat": 31.639496413334925, "lng": 119.28222526928641}, "feature": {"sight_features": "", "sight_content": ""}}, {"title": "庆丰汤山温泉", "address": "宁杭南路48号附近", "image": "", "rank": 36, "time": 2, "location": {"lat": 31.96098004139546, "lng": 119.17158289990017}, "feature": {"sight_features": "", "sight_content": ""}}, {"title": "春水韵农场", "address": "机场路三岔路口向南500米处", "image": "", "rank": 37, "time": 2, "location": {"lat": 22.6280325385315, "lng": 114.04309373260644}, "feature": {"sight_features": "", "sight_content": ""}}, {"title": "信和温泉", "address": "华阳镇宁杭南路南门菜场往东50米", "image": "", "rank": 38, "time": 2, "location": {"lat": 31.942928487205677, "lng": 119.18030790266876}, "feature": {"sight_features": "", "sight_content": ""}}, {"title": "金阳光国际健身会所水上乐园", "address": "中街苏果超市楼上", "image": "", "rank": 39, "time": 2, "location": {"lat": 32.31087633461611, "lng": 118.72847222352841}, "feature": {"sight_features": "", "sight_content": ""}}, {"title": "赵庄采摘园", "address": "054乡道南50米", "image": "", "rank": 40, "time": 2, "location": {"lat": 35.55727517043936, "lng": 112.51427719563465}, "feature": {"sight_features": "", "sight_content": ""}}, {"title": "大舞台乡村爱情二人转剧场", "address": "001乡道附近", "image": "", "rank": 41, "time": 2, "location": {"lat": 42.370177806786245, "lng": 117.99555275285643}, "feature": {"sight_features": "", "sight_content": ""}}, {"title": "句容市图书馆(下蜀镇分馆)", "address": "人民大街", "image": "", "rank": 42, "time": 7.5, "location": {"lat": 39.92619647066753, "lng": 122.57765015199226}, "feature": {"sight_features": "", "sight_content": ""}}, {"title": "鳄鱼漆", "address": "宁杭南路888号附近", "image": "", "rank": 43, "time": 2, "location": {"lat": 31.964801146587554, "lng": 119.16898181512941}, "feature": {"sight_features": "", "sight_content": ""}}, {"title": "江南土墩墓博物馆", "address": "茅山风景区", "image": "", "rank": 44, "time": 1.5, "location": {"lat": 31.787666249457867, "lng": 119.32114680877856}, "feature": {"sight_features": "", "sight_content": ""}}, {"title": "湖光山色生态餐厅", "address": "赤山湖芦亭村", "image": "", "rank": 45, "time": 2, "location": {"lat": 31.86814655102142, "lng": 119.0657216373252}, "feature": {"sight_features": "", "sight_content": ""}}, {"title": "鸿润葡萄采摘园", "address": "白兔镇行香", "image": "", "rank": 46, "time": 2, "location": {"lat": 31.979419617094248, "lng": 119.2995530633533}, "feature": {"sight_features": "", "sight_content": ""}}, {"title": "宝华镇", "address": "句容市宝华镇", "image": "", "rank": 47, "time": 2, "location": {"lat": 32.15327474897558, "lng": 119.09547866041132}, "feature": {"sight_features": "", "sight_content": ""}}, {"title": "菜根香土菜馆", "address": "文昌东路与高骊山路交口向东200米处", "image": "", "rank": 48, "time": 2, "location": {"lat": 31.965913532455914, "lng": 119.20493575669977}, "feature": {"sight_features": "", "sight_content": ""}}, {"title": "贾纪山公园", "address": "河滨南路南200米", "image": "", "rank": 49, "time": 2, "location": {"lat": 31.841148364781453, "lng": 119.69933641354848}, "feature": {"sight_features": "", "sight_content": ""}}, {"title": "游乐场", "address": "镇江市句容市华阳镇帕缇亚广场1号天一商城F4", "image": "", "rank": 50, "time": 2, "location": {"lat": 31.950383185359037, "lng": 119.1786174264448}, "feature": {"sight_features": "", "sight_content": ""}}, {"title": "淘气宝儿童乐园", "address": "万象城3楼", "image": "", "rank": 51, "time": 2, "location": {"lat": 38.04874187716205, "lng": 114.48499955650142}, "feature": {"sight_features": "", "sight_content": ""}}, {"title": "滨河公园", "address": "江苏省镇江市句容市宝华镇鲍亭仙林东路四季金辉东500米", "image": "", "rank": 52, "time": 2.0, "location": {"lat": 32.126923646539, "lng": 119.04902773793127}, "feature": {"sight_features": "", "sight_content": ""}}, {"title": "新世纪儿童乐园", "address": "天王镇天坝路(谢兵批发超市对面)", "image": "", "rank": 53, "time": 2, "location": {"lat": 31.747625003142698, "lng": 119.21602911290019}, "feature": {"sight_features": "", "sight_content": ""}}, {"title": "厚感庵", "address": "张社路与104国道交叉口东100米", "image": "", "rank": 54, "time": 2, "location": {"lat": 39.73874726467032, "lng": 116.46892125561638}, "feature": {"sight_features": "", "sight_content": ""}}, {"title": "淘气堡贝儿童亲子乐园", "address": "华阳镇帕缇亚广场1号天一商城F4", "image": "", "rank": 55, "time": 2, "location": {"lat": 31.950383185359037, "lng": 119.1786174264448}, "feature": {"sight_features": "", "sight_content": ""}}, {"title": "奇乐儿儿童主题公园", "address": "江苏省镇江市句容市帕缇亚购物广场东南", "image": "", "rank": 56, "time": 2, "location": {"lat": 31.95041277055822, "lng": 119.17920102229735}, "feature": {"sight_features": "", "sight_content": ""}}, {"title": "肖杆河健康公园", "address": "东昌中路东100米", "image": "", "rank": 57, "time": 2, "location": {"lat": 31.95687957967334, "lng": 119.19002157748727}, "feature": {"sight_features": "", "sight_content": ""}}, {"title": "句容市规划展示厅", "address": "玉清西路7", "image": "", "rank": 58, "time": 7.5, "location": {"lat": 29.36847407576234, "lng": 105.9370197147441}, "feature": {"sight_features": "", "sight_content": ""}}, {"title": "开心哈乐主题乐园", "address": "崇明西路北门町一楼(民生银行对面)", "image": "", "rank": 59, "time": 2, "location": {"lat": 37.86866501715225, "lng": 112.56216382321806}, "feature": {"sight_features": "", "sight_content": ""}}, {"title": "句容彩虹绿洲亲子乐园", "address": "江苏省镇江市句容市林前路", "image": "", "rank": 60, "time": 7.5, "location": {"lat": 31.849719988418368, "lng": 119.1853500807166}, "feature": {"sight_features": "", "sight_content": ""}}]}