{"cityName": "莒县", "days": null, "cityImage": "", "spots": [{"title": "莒县博物馆", "address": "日照市莒县振兴东路208号", "image": "", "rank": 1, "time": 1.0, "location": {"lat": 35.59527125627958, "lng": 118.86539730146347}, "feature": {"sight_features": "", "sight_content": ""}}, {"title": "沭河湿地公园", "address": "日照市莒县文心路", "image": "", "rank": 2, "time": 2, "location": {"lat": 35.59195392827301, "lng": 118.81952180744224}, "feature": {"sight_features": "", "sight_content": ""}}, {"title": "文心广场", "address": "日照市莒县城阳中路与振兴东路交界处（莒县三中南边）", "image": "", "rank": 3, "time": 1.0, "location": {"lat": 35.59543492655817, "lng": 118.8480985954273}, "feature": {"sight_features": "", "sight_content": ""}}, {"title": "浮来青旅游度假区", "address": "日照市莒县夏庄镇南3公里处", "image": "", "rank": 4, "time": 2, "location": {"lat": 35.40682136824906, "lng": 118.69277122337434}, "feature": {"sight_features": "特色1 体验绿色休闲、感悟茶语茶道", "sight_content": "浮来青旅游度假区位于莒县夏庄镇，是依托浮来青自有1200亩生态茶园，10000亩基地茶园而建，70年代南茶北引的典范，是国家级茶叶标准化示范区、国家级茶叶生态示范园、中国茶叶行业百强企业，曾被国家旅游局确定为全国农业旅游示范点，是鲁东南地区重要的农业观光旅游资源地。\n这里，景色宜人，美不胜收，可以沐浴在天然大氧吧中，纵情享受“春品茶、夏赏园、秋采果、冬滑雪”的无尽乐趣。这里，沐古风乡情，赏民俗村运，可以潜心感受底蕴丰厚的莒文化，快乐体味独具特色的茶文化、民俗文化和乡村文化。\n走进浮来青旅游度假区，体验绿色休闲、感悟茶语茶道，在林间鸟语花香、茶田清香的氛围中，真正体味休闲的意境。"}}, {"title": "蟠龙山", "address": "日照市莒县小店镇", "image": "", "rank": 5, "time": 1.0, "location": {"lat": 35.42547973950695, "lng": 118.82748431202502}, "feature": {"sight_features": "", "sight_content": ""}}, {"title": "丽正园", "address": "日照市莒县南郊206国道与335省道交汇处", "image": "", "rank": 6, "time": 2, "location": {"lat": 35.63014182950682, "lng": 118.82643127159434}, "feature": {"sight_features": "特色1 山石流水处处妙境，意趣横生", "sight_content": "丽正园始建于2012年，总投资十亿元。园林以古典红木家具展销馆、毛泽东纪念馆、文质苑、荣仕阁、百花园等主体建筑和景点组成。\n\n园内亭、榭、廊、阁、轩、楼、台、舫、厅堂等建筑物均为仿古风格，精美异常。\n\n建筑将山水地形、花草树木、庭院、廊桥及楹联匾额等精巧布设，使得山石流水处处妙境，意趣横生。"}}, {"title": "定林寺", "address": "山东省日照市莒县境内浮来山景区浮来峰下", "image": "", "rank": 7, "time": 1.0, "location": {"lat": 35.60189010591434, "lng": 118.74322388040973}, "feature": {"sight_features": "", "sight_content": ""}}, {"title": "莒县东太游乐园", "address": "山东省日照市莒县城阳街道慕家庄子沭河西路莒人广场附近", "image": "", "rank": 8, "time": 2, "location": {"lat": 35.58622484220817, "lng": 118.86474565357874}, "feature": {"sight_features": "", "sight_content": ""}}, {"title": "嗡嗡乐园", "address": "日照市莒县龙山镇旅游大道东临", "image": "", "rank": 9, "time": 1.0, "location": {"lat": 35.53540281913006, "lng": 118.9916421781564}, "feature": {"sight_features": "", "sight_content": "整个以“蜂文化为主题”，以特色生态景观为核心，把蜂产业和农业观光旅游业有机结合起来。\n嗡嗡乐园分为蜜蜂文化科普馆、蜂产品展览馆、蜂疗养生体验馆、嗡嗡乐蜂场、嗡嗡乐酒店等特色景观，将蜜源植物观光、蜜蜂养殖体验、蜜蜂文化宣传、蜜蜂特色美食有机的融合在一起。\n园内有花海、有机蜂场、蜜蜂文化科普馆、蜂疗养生中心等景点。"}}, {"title": "农家乐木柴鸡", "address": "长岭镇长岭大街291号(日东高速北1000米)", "image": "", "rank": 10, "time": 2, "location": {"lat": 35.50471401847062, "lng": 118.84735990353525}, "feature": {"sight_features": "", "sight_content": ""}}, {"title": "日照市食用菌研究中心示范基地", "address": "335省道北100米", "image": "", "rank": 11, "time": 6.5, "location": {"lat": 38.6567580819906, "lng": 115.46499190580862}, "feature": {"sight_features": "", "sight_content": ""}}, {"title": "青青岛儿童乐园", "address": "文心东路14号", "image": "", "rank": 12, "time": 2, "location": {"lat": 35.590870651584915, "lng": 118.85050611797374}, "feature": {"sight_features": "", "sight_content": ""}}, {"title": "柳青垂钓园", "address": "浮来西路北50米", "image": "", "rank": 13, "time": 2, "location": {"lat": 35.58701131956597, "lng": 118.8219065444694}, "feature": {"sight_features": "", "sight_content": ""}}, {"title": "沭河采摘园", "address": "闫庄镇蔡家当门村沭河西100米", "image": "", "rank": 14, "time": 2, "location": {"lat": 35.67082120971737, "lng": 118.86444484519905}, "feature": {"sight_features": "", "sight_content": ""}}, {"title": "横山", "address": "山东省莒县小店镇 037400", "image": "", "rank": 15, "time": 2.0, "location": {"lat": 35.42547973950695, "lng": 118.82748431202502}, "feature": {"sight_features": "", "sight_content": ""}}, {"title": "招贤影剧院", "address": "文化路与新宇路交叉口西50米", "image": "", "rank": 16, "time": 2, "location": {"lat": 35.73139161361487, "lng": 118.93894902321296}, "feature": {"sight_features": "", "sight_content": ""}}, {"title": "莒县老博物馆", "address": "山东省日照市莒县城区青年南路", "image": "", "rank": 17, "time": null, "location": {"lat": 35.5828185952042, "lng": 118.83824280059235}, "feature": {"sight_features": "", "sight_content": ""}}, {"title": "清真寺", "address": "临沂路北150米", "image": "", "rank": 18, "time": 1.0, "location": {"lat": 31.200756915940104, "lng": 121.51726372559492}, "feature": {"sight_features": "", "sight_content": ""}}, {"title": "大雄宝殿", "address": "日照市莒县浮来西路1001号浮来山风景区定林寺内", "image": "", "rank": 19, "time": 2, "location": {"lat": 35.60238828252991, "lng": 118.74626702686722}, "feature": {"sight_features": "", "sight_content": ""}}, {"title": "莒县花千谷多肉植物园", "address": "信中路与彩虹路交叉口东100米", "image": "", "rank": 20, "time": 2, "location": {"lat": 35.60876850266966, "lng": 118.8316994022237}, "feature": {"sight_features": "", "sight_content": ""}}, {"title": "梦幻岛儿童乐园", "address": "日照市莒县日照西路惠万家生活广场1层", "image": "", "rank": 21, "time": 2, "location": {"lat": 35.612773295940514, "lng": 118.83630462740369}, "feature": {"sight_features": "", "sight_content": ""}}, {"title": "儿童乐园", "address": "银杏大道南50米", "image": "", "rank": 22, "time": 2, "location": {"lat": 39.88166283477052, "lng": 116.48648863944075}, "feature": {"sight_features": "", "sight_content": ""}}, {"title": "天韵居", "address": "日照市莒县", "image": "", "rank": 23, "time": 2, "location": {"lat": 35.585872122989336, "lng": 118.84353824240415}, "feature": {"sight_features": "", "sight_content": ""}}, {"title": "财神殿", "address": "日照市莒县浮来西路1001号浮来山风景区朝阳观内", "image": "", "rank": 24, "time": 2, "location": {"lat": 35.60167756192902, "lng": 118.74598046740954}, "feature": {"sight_features": "", "sight_content": ""}}, {"title": "基督教会", "address": "城阳北路与龙泉路交叉口东100米", "image": "", "rank": 25, "time": 2, "location": {"lat": 35.59963493909316, "lng": 118.84761988033628}, "feature": {"sight_features": "", "sight_content": ""}}, {"title": "朝阳观", "address": "日照市莒县浮来西路1001号浮来山风景区内", "image": "", "rank": 26, "time": 0.75, "location": {"lat": 35.60189070628981, "lng": 118.74322414271492}, "feature": {"sight_features": "", "sight_content": ""}}, {"title": "高空滑索", "address": "沂河山庄东2.5公里雪山彩虹谷欢乐谷内", "image": "", "rank": 27, "time": 2, "location": {"lat": 35.79783212680642, "lng": 118.70397380364342}, "feature": {"sight_features": "", "sight_content": ""}}, {"title": "遨游太空", "address": "临沂市沂水县沂河山庄东2.5公里雪山彩虹谷欢乐谷内", "image": "", "rank": 28, "time": 2, "location": {"lat": 35.79783212680642, "lng": 118.70397380364342}, "feature": {"sight_features": "", "sight_content": ""}}, {"title": "喜洋洋儿童乐园", "address": "山东省日照市莒县兴安路安庄镇中心初中(莒县安庄镇政府东)", "image": "", "rank": 29, "time": 2, "location": {"lat": 35.81200592774173, "lng": 118.81793334458861}, "feature": {"sight_features": "", "sight_content": ""}}, {"title": "田甸园民俗旅游度假村", "address": "山东省日照市莒县田家甸子村", "image": "", "rank": 30, "time": 2, "location": {"lat": 35.585872122989336, "lng": 118.84353824240415}, "feature": {"sight_features": "", "sight_content": ""}}, {"title": "莒县基督教会", "address": "莒州路", "image": "", "rank": 31, "time": 1.0, "location": {"lat": 37.45872047374838, "lng": 118.70016715679061}, "feature": {"sight_features": "", "sight_content": ""}}, {"title": "基督教会", "address": "兴安路附近", "image": "", "rank": 32, "time": 2, "location": {"lat": 39.240665326062555, "lng": 117.22707186433374}, "feature": {"sight_features": "", "sight_content": ""}}, {"title": "莒州公园", "address": "日照市莒县广场东路西200米", "image": "", "rank": 33, "time": 2, "location": {"lat": 35.59388093048662, "lng": 118.8646721380524}, "feature": {"sight_features": "", "sight_content": ""}}, {"title": "六和农家乐美食苑", "address": "城阳北路239号", "image": "", "rank": 34, "time": 2, "location": {"lat": 35.60398343713645, "lng": 118.84648639125736}, "feature": {"sight_features": "", "sight_content": ""}}, {"title": "浮来山书画艺术研究交流中心", "address": "故城中路5号附近", "image": "", "rank": 35, "time": 2, "location": {"lat": 35.577561210359676, "lng": 118.84438898235467}, "feature": {"sight_features": "", "sight_content": ""}}, {"title": "莒州书画院", "address": "故城中路", "image": "", "rank": 36, "time": 2, "location": {"lat": 35.58011966605175, "lng": 118.83933120281945}, "feature": {"sight_features": "", "sight_content": ""}}, {"title": "宋式云艺术馆", "address": "城阳北路百丽橱柜旁", "image": "", "rank": 37, "time": 2, "location": {"lat": 42.38710782009182, "lng": 122.54888767617355}, "feature": {"sight_features": "", "sight_content": ""}}, {"title": "古莒书画院", "address": "故城中路", "image": "", "rank": 38, "time": 2, "location": {"lat": 35.58011966605175, "lng": 118.83933120281945}, "feature": {"sight_features": "", "sight_content": ""}}, {"title": "齐老五生态园", "address": "文心路马家庄烧烤城", "image": "", "rank": 39, "time": 2, "location": {"lat": 39.596870348712294, "lng": 116.79851379800897}, "feature": {"sight_features": "", "sight_content": ""}}, {"title": "莒县葡萄科技观光采摘园", "address": "浮来西路西首大湖村驻地", "image": "", "rank": 40, "time": 2, "location": {"lat": 35.58664440678146, "lng": 118.8219065444694}, "feature": {"sight_features": "", "sight_content": ""}}, {"title": "刘勰故里书画研究院", "address": "浮来东路16号", "image": "", "rank": 41, "time": 2, "location": {"lat": 35.583554645159545, "lng": 118.85038283811876}, "feature": {"sight_features": "", "sight_content": ""}}, {"title": "莒县示范繁殖农场", "address": "长安中路东150米", "image": "", "rank": 42, "time": 2, "location": {"lat": 28.357829819018722, "lng": 121.45877569149512}, "feature": {"sight_features": "", "sight_content": ""}}, {"title": "蓝湾海豚湾大型儿童主题乐园", "address": "银杏大道蓝湾购物中心二楼", "image": "", "rank": 43, "time": 2, "location": {"lat": 38.840742535036945, "lng": 121.40907206239702}, "feature": {"sight_features": "", "sight_content": ""}}, {"title": "大唐生态园", "address": "青岛路与日照路交汇处南20米路东", "image": "", "rank": 44, "time": 2, "location": {"lat": 21.612762713551597, "lng": 110.28820210352386}, "feature": {"sight_features": "", "sight_content": ""}}, {"title": "爱鱼人水族馆", "address": "文心东路与状元路交叉口东100米", "image": "", "rank": 45, "time": 2, "location": {"lat": 35.59110752744924, "lng": 118.8523680897026}, "feature": {"sight_features": "", "sight_content": ""}}, {"title": "现在美术馆", "address": "城阳街道莒州文街北楼", "image": "", "rank": 46, "time": 2, "location": {"lat": 35.59370112032976, "lng": 118.87116588258398}, "feature": {"sight_features": "", "sight_content": ""}}, {"title": "东方画廊", "address": "广场东路东200米", "image": "", "rank": 47, "time": 2, "location": {"lat": 37.98188574771287, "lng": 115.22810355960462}, "feature": {"sight_features": "", "sight_content": ""}}, {"title": "柳青画廊", "address": "芙蓉路与莱阳路交叉口西北150米", "image": "", "rank": 48, "time": 2, "location": {"lat": 39.754319199493544, "lng": 118.4675874287618}, "feature": {"sight_features": "", "sight_content": ""}}, {"title": "尚林盆景园", "address": "祥龙路西50米附近", "image": "", "rank": 49, "time": null, "location": {"lat": 39.94917806082078, "lng": 116.82925430752675}, "feature": {"sight_features": "", "sight_content": ""}}, {"title": "墨香缘画廊", "address": "城阳街道城北医院南50米路东", "image": "", "rank": 50, "time": 2, "location": {"lat": 31.917444315509208, "lng": 121.17251679799479}, "feature": {"sight_features": "", "sight_content": ""}}, {"title": "文心画廊", "address": "青岛路西100米", "image": "", "rank": 51, "time": 2, "location": {"lat": 37.87143606384663, "lng": 113.61097367152523}, "feature": {"sight_features": "", "sight_content": ""}}, {"title": "莒县影剧院", "address": "浮来中路", "image": "", "rank": 52, "time": 2, "location": {"lat": 35.58548943872455, "lng": 118.83869262887309}, "feature": {"sight_features": "", "sight_content": ""}}, {"title": "万有引力影视", "address": "日照市-莒县-滨河路东50米莒人美术馆附近", "image": "", "rank": 53, "time": 2, "location": {"lat": 35.58754313249279, "lng": 118.86617388208532}, "feature": {"sight_features": "", "sight_content": ""}}]}