{"cityName": "渠县", "days": 2, "cityImage": "", "spots": [{"title": "賨人谷景区", "address": "达州市渠县龙潭乡老龙村", "image": "", "rank": 1, "time": 7.5, "location": {"lat": 30.864102038676876, "lng": 107.11112578102171}, "feature": {"sight_features": "特色1 是国家4A级旅游区、省级风景名胜区", "sight_content": "景区自然景观神奇秀美，人文景观历史悠久，红色文化灿烂辉煌。拥有全国唯一的賨人穴居部落遗址和賨人文化陈列馆，展现了賨人聪明的才智，辉煌的历史；传承了宕渠儿女敢拼敢干，奋勇争先，不达目的不罢休的精神。宕渠水车和水车文化屋显现了人类的文明，生产的发展，生活的进步。景区有华蓥山脉最大最集中的溶洞群，还有神犬啸天、賨王洞、龙湫瀑布、七彩湖、老龙洞、奇石幽谷等自然景观近百处。其中老龙洞景观神奇瑰丽，引人入胜，被专家称为“地下卢浮宫”、“水上画廊”、“神州第一水洞”；賨王洞如梦如幻，好似仙境。\n七彩湖色彩斑斓、五光十色。神犬啸天浑自天成，栩栩如生；賨王谷和奇石谷涧深谷幽，遍布形态奇特的植物化石群和喀斯特地质奇观，千姿百态，有如尊尊雕塑，诡异奇巧，极具科考价值。龙湫瀑布喷薄雄壮，賨王飞瀑美仑美奂。景区内植被完好，银杏、桂花、雪松等名贵树木琳琅满目，其中的多株千年古桂，堪称“中华桂花树王”，已引起植物专家的广泛关注。景区还有惊动了当时国民党中央的龙潭起义的旧址，精致小巧的锁口峡，碧波万顷的金竹林海，神奇通灵的间歇震荡泉。\n景区旅游基础设施齐备，旅游服务功能完善，有覆盖整个景区的广播和安全监控系统，面积达10000余平方米的停车场八个，星级旅游公厕二座；有功能齐全，为游客提供周到服务的游客中心；有依山傍水，环境优美，占地60余亩，为游客提供餐饮、住宿、娱乐、土特产品经营等各种服务的宕渠新村。"}}, {"title": "大坡岭省级森林公园", "address": "达州市渠县华蓥山北端", "image": "", "rank": 2, "time": 2, "location": {"lat": 30.84229928348102, "lng": 106.97958296702429}, "feature": {"sight_features": "", "sight_content": ""}}, {"title": "万花谷", "address": "达州市渠县南大梁高速公路賨人谷出口处", "image": "", "rank": 3, "time": 2, "location": {"lat": 30.953281050255864, "lng": 106.93777102804528}, "feature": {"sight_features": "", "sight_content": ""}}, {"title": "渠县文庙", "address": "达州市渠县渠江镇和平街93号", "image": "", "rank": 4, "time": 1.0, "location": {"lat": 30.84335338287769, "lng": 106.97756001625312}, "feature": {"sight_features": "", "sight_content": ""}}, {"title": "土溪", "address": "达州市渠县土溪镇", "image": "", "rank": 5, "time": 2, "location": {"lat": 31.019861260473597, "lng": 107.08077077572032}, "feature": {"sight_features": "", "sight_content": ""}}, {"title": "小叮当儿童乐园", "address": "东门二桥头下（天然气公司旁）", "image": "", "rank": 6, "time": 2, "location": {"lat": 36.617776170471686, "lng": 109.5302407947719}, "feature": {"sight_features": "", "sight_content": ""}}, {"title": "四川省红盘花乡生态农业有限公司", "address": "合力村3组(合力村村委会)", "image": "", "rank": 7, "time": 2, "location": {"lat": 43.56015261951929, "lng": 120.97967272308078}, "feature": {"sight_features": "", "sight_content": ""}}, {"title": "仙女寨生态农庄", "address": "七里沟附近", "image": "", "rank": 8, "time": 2, "location": {"lat": 39.0302260890574, "lng": 114.28714965526865}, "feature": {"sight_features": "", "sight_content": ""}}, {"title": "渠县图书馆", "address": "渠江镇马家巷49号", "image": "", "rank": 9, "time": 1.5, "location": {"lat": 30.844016752653662, "lng": 106.97793206115806}, "feature": {"sight_features": "", "sight_content": ""}}, {"title": "渠县图书馆少年儿童阅览室", "address": "营渠路507号附近", "image": "", "rank": 10, "time": 7.5, "location": {"lat": 30.847656520612112, "lng": 106.97585690153711}, "feature": {"sight_features": "", "sight_content": ""}}, {"title": "龙嬉谷漂流", "address": "临巴镇凉桥村(临巴下高速800米)", "image": "", "rank": 11, "time": 2, "location": {"lat": 30.894824251195093, "lng": 107.09790361144069}, "feature": {"sight_features": "", "sight_content": ""}}, {"title": "燕氏节孝坊", "address": "四川省渠县保和乡庆安村 635200", "image": "", "rank": 12, "time": 2, "location": {"lat": 30.669593561399754, "lng": 106.95381362809701}, "feature": {"sight_features": "", "sight_content": ""}}, {"title": "渠县青少年艺术团", "address": "春秋路附近", "image": "", "rank": 13, "time": 7.5, "location": {"lat": 33.9708293782564, "lng": 116.79618940375613}, "feature": {"sight_features": "", "sight_content": ""}}, {"title": "花祠堂", "address": "达州市渠县", "image": "", "rank": 14, "time": 2, "location": {"lat": 30.84229928348102, "lng": 106.97958296702429}, "feature": {"sight_features": "", "sight_content": ""}}, {"title": "袁家祠堂", "address": "达州市渠县六四七乡道", "image": "", "rank": 15, "time": 2, "location": {"lat": 30.84229928348102, "lng": 106.97958296702429}, "feature": {"sight_features": "", "sight_content": ""}}, {"title": "庆旺公园", "address": "兴隆街附近", "image": "", "rank": 16, "time": 2, "location": {"lat": 40.2420239978553, "lng": 116.13532573900687}, "feature": {"sight_features": "", "sight_content": ""}}, {"title": "闫家祠堂", "address": "达州市渠县一五七县道", "image": "", "rank": 17, "time": 2, "location": {"lat": 30.845670088733723, "lng": 106.76628140164664}, "feature": {"sight_features": "", "sight_content": ""}}, {"title": "中国汉阙文化博物馆", "address": "渠县土溪镇平碾村", "image": "", "rank": 18, "time": 2, "location": {"lat": 31.049688453528645, "lng": 107.01968621933005}, "feature": {"sight_features": "", "sight_content": ""}}, {"title": "渠县汉阙公园", "address": "土溪火车站与土溪场镇之间", "image": "", "rank": 19, "time": 2, "location": {"lat": 31.020755057713046, "lng": 107.07628414303716}, "feature": {"sight_features": "", "sight_content": ""}}, {"title": "谯家祠堂", "address": "达州市渠县一八二县道", "image": "", "rank": 20, "time": 2, "location": {"lat": 31.086293302555525, "lng": 107.08004155017174}, "feature": {"sight_features": "", "sight_content": ""}}, {"title": "渠江历史博物馆", "address": "渠江镇和平街93号", "image": "", "rank": 21, "time": 2, "location": {"lat": 30.84335338287769, "lng": 106.97756001625312}, "feature": {"sight_features": "", "sight_content": ""}}, {"title": "水韵花香游乐场", "address": "渠南乡渠南社区", "image": "", "rank": 22, "time": 2, "location": {"lat": 33.52203495701807, "lng": 119.40225024988247}, "feature": {"sight_features": "", "sight_content": ""}}, {"title": "姐妹农家乐", "address": "八里香农家乐南侧", "image": "", "rank": 23, "time": 2, "location": {"lat": 33.81305266640243, "lng": 108.54604748650999}, "feature": {"sight_features": "", "sight_content": ""}}, {"title": "z异次空间真人密室", "address": "渠光路96号万博家私旁", "image": "", "rank": 24, "time": 2, "location": {"lat": 30.83540390233727, "lng": 106.97480685628884}, "feature": {"sight_features": "", "sight_content": ""}}, {"title": "达州绿茵园", "address": "四川省渠县县城东南", "image": "", "rank": 25, "time": 2, "location": {"lat": 30.84229928348102, "lng": 106.97958296702429}, "feature": {"sight_features": "", "sight_content": ""}}, {"title": "冒井沟", "address": "达州市-渠县-一八二县道", "image": "", "rank": 26, "time": 2, "location": {"lat": 31.086293302555525, "lng": 107.08004155017174}, "feature": {"sight_features": "", "sight_content": ""}}, {"title": "老鸦坪", "address": "达州市-渠县-一八二县道", "image": "", "rank": 27, "time": 2, "location": {"lat": 31.086293302555525, "lng": 107.08004155017174}, "feature": {"sight_features": "", "sight_content": ""}}, {"title": "贾氏节孝坊", "address": "四川省渠县任家乡兴武村 635200", "image": "", "rank": 28, "time": 2, "location": {"lat": 31.122218766877328, "lng": 107.11418419418135}, "feature": {"sight_features": "", "sight_content": ""}}, {"title": "赵公神道碑", "address": "四川省渠县土溪乡碑帽村 635200", "image": "", "rank": 29, "time": 2, "location": {"lat": 31.015940938951672, "lng": 107.06662395782024}, "feature": {"sight_features": "", "sight_content": ""}}]}