{"cityName": "巨野", "days": 2, "cityImage": "", "spots": [{"title": "永丰塔", "address": "菏泽市巨野县城内，南临人民路，北距文庙百余米", "image": "", "rank": 1, "time": 0.15000000000000002, "location": {"lat": 35.40177022014715, "lng": 116.11455320830933}, "feature": {"sight_features": "", "sight_content": ""}}, {"title": "金山旅游区", "address": "菏泽市巨野县城东南23公里处", "image": "", "rank": 2, "time": 1.0, "location": {"lat": 35.40206238060898, "lng": 116.10159901224499}, "feature": {"sight_features": "", "sight_content": ""}}, {"title": "苏巨温泉度假酒店温泉部", "address": "麒麟大道与昌邑路交汇处", "image": "", "rank": 3, "time": 2, "location": {"lat": 35.395981565105444, "lng": 116.06153561056826}, "feature": {"sight_features": "", "sight_content": ""}}, {"title": "水上乐园", "address": "青年路与昌邑路交叉口东南角", "image": "", "rank": 4, "time": 2, "location": {"lat": 35.38912738984453, "lng": 116.06173127318631}, "feature": {"sight_features": "", "sight_content": ""}}, {"title": "巨野县图书馆", "address": "文昌路附近", "image": "", "rank": 5, "time": 2, "location": {"lat": 32.40026860918857, "lng": 119.45024605841589}, "feature": {"sight_features": "", "sight_content": ""}}, {"title": "巨东南种兔基地", "address": "巨金线附近", "image": "", "rank": 6, "time": 2, "location": {"lat": 35.29232902536631, "lng": 116.1910765983469}, "feature": {"sight_features": "", "sight_content": ""}}, {"title": "亚华果蔬", "address": "西环路附近", "image": "", "rank": 7, "time": 2, "location": {"lat": 39.04489408100302, "lng": 117.25170447040091}, "feature": {"sight_features": "", "sight_content": ""}}, {"title": "承铭马场", "address": "凤凰街道北环路英才中学对过", "image": "", "rank": 8, "time": 2, "location": {"lat": 35.417442992647885, "lng": 116.10251486166158}, "feature": {"sight_features": "", "sight_content": ""}}, {"title": "李胡同村樱桃采摘园", "address": "李胡同村东", "image": "", "rank": 9, "time": 2, "location": {"lat": 37.67076279273829, "lng": 116.88903423775706}, "feature": {"sight_features": "", "sight_content": ""}}, {"title": "大型儿童乐园场", "address": "麟州步行街27号附近", "image": "", "rank": 10, "time": 2, "location": {"lat": 35.3980106090712, "lng": 116.10043741339003}, "feature": {"sight_features": "", "sight_content": ""}}, {"title": "陈氏祠堂", "address": "山东省菏泽市巨野县S254", "image": "", "rank": 11, "time": 1.0, "location": {"lat": 35.40206238060898, "lng": 116.10159901224499}, "feature": {"sight_features": "", "sight_content": ""}}, {"title": "巨野文庙", "address": "文庙街8号附近", "image": "", "rank": 12, "time": 1.0, "location": {"lat": 45.77944589457305, "lng": 126.67487373700847}, "feature": {"sight_features": "", "sight_content": ""}}, {"title": "洙水河公园", "address": "北园路北200米", "image": "", "rank": 13, "time": 2, "location": {"lat": 31.21214659135851, "lng": 121.52856305336744}, "feature": {"sight_features": "", "sight_content": ""}}, {"title": "瑞麟寺", "address": "菏泽市巨野县麒麟台遗址内", "image": "", "rank": 14, "time": 2, "location": {"lat": 35.40206238060898, "lng": 116.10159901224499}, "feature": {"sight_features": "", "sight_content": ""}}, {"title": "儿童乐园", "address": "山东省菏泽市巨野县人民路佳和购物广场3层", "image": "", "rank": 15, "time": 2, "location": {"lat": 35.39744905322029, "lng": 116.10011213965979}, "feature": {"sight_features": "", "sight_content": ""}}, {"title": "博耀沙场", "address": "山东省菏泽市巨野县G327(连菏线)", "image": "", "rank": 16, "time": 2, "location": {"lat": 35.40206238060898, "lng": 116.10159901224499}, "feature": {"sight_features": "", "sight_content": ""}}, {"title": "香港金邦水族馆", "address": "山东省菏泽市巨野县苏柳线", "image": "", "rank": 17, "time": 1.5, "location": {"lat": 35.40206238060898, "lng": 116.10159901224499}, "feature": {"sight_features": "", "sight_content": ""}}, {"title": "甘泉寺", "address": "菏泽市巨野县", "image": "", "rank": 18, "time": 0.75, "location": {"lat": 35.40206238060898, "lng": 116.10159901224499}, "feature": {"sight_features": "", "sight_content": ""}}, {"title": "大雄宝殿", "address": "菏泽市巨野县金山地质公园金山寺内", "image": "", "rank": 19, "time": 2, "location": {"lat": 35.40206238060898, "lng": 116.10159901224499}, "feature": {"sight_features": "", "sight_content": ""}}, {"title": "安阳宫", "address": "菏泽市巨野县金山地质公园内", "image": "", "rank": 20, "time": 2, "location": {"lat": 35.40206238060898, "lng": 116.10159901224499}, "feature": {"sight_features": "", "sight_content": ""}}, {"title": "巨野麟州民俗博物馆", "address": "327国道", "image": "", "rank": 21, "time": 0.15000000000000002, "location": {"lat": 35.501927055963634, "lng": 116.76031052743309}, "feature": {"sight_features": "", "sight_content": ""}}, {"title": "大雄宝殿", "address": "菏泽市巨野县麒麟台遗址瑞麟寺内", "image": "", "rank": 22, "time": 2, "location": {"lat": 35.40206238060898, "lng": 116.10159901224499}, "feature": {"sight_features": "", "sight_content": ""}}, {"title": "福音堂基督教会", "address": "山东省菏泽市巨野县", "image": "", "rank": 23, "time": 2, "location": {"lat": 35.40206238060898, "lng": 116.10159901224499}, "feature": {"sight_features": "", "sight_content": ""}}, {"title": "金梦缘度假村", "address": "东环路附近", "image": "", "rank": 24, "time": 2, "location": {"lat": 38.71201808028218, "lng": 117.07603604175296}, "feature": {"sight_features": "", "sight_content": ""}}, {"title": "巨野县书画院", "address": "前进路北段", "image": "", "rank": 25, "time": 0.15000000000000002, "location": {"lat": 34.566133658368955, "lng": 109.52965709471593}, "feature": {"sight_features": "", "sight_content": ""}}, {"title": "潘跃林画廊", "address": "文化街", "image": "", "rank": 26, "time": 2, "location": {"lat": 24.173503201107945, "lng": 110.81563259681678}, "feature": {"sight_features": "", "sight_content": ""}}, {"title": "中国泽野书画院", "address": "古城街", "image": "", "rank": 27, "time": 2, "location": {"lat": 38.95838763398381, "lng": 115.32304383673309}, "feature": {"sight_features": "", "sight_content": ""}}, {"title": "天源画院", "address": "古城街东段", "image": "", "rank": 28, "time": 2, "location": {"lat": 35.4026048323837, "lng": 116.11348889414451}, "feature": {"sight_features": "", "sight_content": ""}}, {"title": "巨野县博物馆办公区", "address": "文庙街8号", "image": "", "rank": 29, "time": 2, "location": {"lat": 45.77944589457305, "lng": 126.67487373700847}, "feature": {"sight_features": "", "sight_content": ""}}, {"title": "芭芭·莎时尚内衣艺术馆", "address": "麟州步行街14附近", "image": "", "rank": 30, "time": 2, "location": {"lat": 35.3980106090712, "lng": 116.10043741339003}, "feature": {"sight_features": "", "sight_content": ""}}, {"title": "麟州收藏馆", "address": "政府东300米路南", "image": "", "rank": 31, "time": 2, "location": {"lat": 39.91050690454764, "lng": 116.41645994344371}, "feature": {"sight_features": "", "sight_content": ""}}, {"title": "明泽农民资金互助专业合作社", "address": "254省道西200米", "image": "", "rank": 32, "time": 2, "location": {"lat": 42.28777717636898, "lng": 117.52323099198466}, "feature": {"sight_features": "", "sight_content": ""}}, {"title": "宏辉农民专业合作社农业农信互助...", "address": "龙固镇管庄小学附近", "image": "", "rank": 33, "time": 2, "location": {"lat": 35.29348093684414, "lng": 115.89475884880733}, "feature": {"sight_features": "", "sight_content": ""}}, {"title": "巨野县青山大蒜合作社", "address": "万昌路东段杈子冯村", "image": "", "rank": 34, "time": 2, "location": {"lat": 28.457083819845277, "lng": 121.45666199659694}, "feature": {"sight_features": "", "sight_content": ""}}, {"title": "新华·创业街", "address": "山东省巨野县人民路", "image": "", "rank": 35, "time": 2, "location": {"lat": 35.40177022014715, "lng": 116.11455320830933}, "feature": {"sight_features": "", "sight_content": ""}}, {"title": "恒卿网咖", "address": "菏泽市-巨野县-G327(连菏线)", "image": "", "rank": 36, "time": 2, "location": {"lat": 35.40206238060898, "lng": 116.10159901224499}, "feature": {"sight_features": "", "sight_content": ""}}]}