{"cityName": "开化", "days": null, "cityImage": "", "spots": [{"title": "钱江源国家森林公园", "address": "衢州市开化县205国道(山深线)", "image": "", "rank": 1, "time": 7.5, "location": {"lat": 29.063402425202792, "lng": 118.39249759235842}, "feature": {"sight_features": "", "sight_content": ""}}, {"title": "根宫佛国文化旅游区", "address": "衢州市开化县根博路1号", "image": "", "rank": 2, "time": 2.5, "location": {"lat": 29.138840551105133, "lng": 118.39939819562271}, "feature": {"sight_features": "特色1 汇聚各类植物、名贵树种160多种。 特色2 展示根艺的独特魅力，根艺美术的四库全书。 特色3 本园集各种的巨型根雕五百罗汉,根艺精品、盆景奇石、枯树名木林。", "sight_content": "开化根宫佛国文化旅游区占地360余亩，以盆景、奇石、根艺、园林古建构成恬静自如、天人合一的画卷，汇聚各类植物、名贵树种160多种 ，它是世界园林的奇迹！\n\n开化根宫佛国文化旅游区，汇聚各类植物、名贵树种，环境优雅，景色优美。主要有福门祥光、中国根雕佛国、中国根雕博物馆、中国根雕历史人物博物馆等二十多个景点。\n\n开化根宫佛国文化旅游区有佛儒道、民间神话传奇、历史风云等系列大型根艺作品2000余件，最大的有40余吨！\n此外还展示根艺文献资料、根艺大师代表作，工艺流程和醉根文化等，是一部根艺美术的四库全书，堪称世界根雕艺术之都。\n五佰罗汉更是徐谷青大师经过十余年的精心准备，是根雕艺术和佛教文化珠联璧合，是世界上最大的一套根雕五百罗汉造像之一。"}}, {"title": "古田山自然保护区", "address": "衢州市开化县苏庄镇古田山", "image": "", "rank": 3, "time": 4.0, "location": {"lat": 29.245986282791943, "lng": 118.1219477912586}, "feature": {"sight_features": "", "sight_content": ""}}, {"title": "开化县", "address": "浙江省衢州市开化县", "image": "", "rank": 4, "time": 2, "location": {"lat": 29.143187521186665, "lng": 118.42145932131277}, "feature": {"sight_features": "", "sight_content": ""}}, {"title": "台回山", "address": "衢州市开化县", "image": "", "rank": 5, "time": 2, "location": {"lat": 29.143187521186665, "lng": 118.42145932131277}, "feature": {"sight_features": "", "sight_content": ""}}, {"title": "花牵谷", "address": "衢州市开化县华埠镇华东村齐新自然村", "image": "", "rank": 6, "time": 2, "location": {"lat": 29.03944338281825, "lng": 118.3589345584309}, "feature": {"sight_features": "特色1 多彩花卉为特色，乡村文化为主线", "sight_content": "花牵谷景区位于著名乡村旅游地浙江省开化县华埠镇华东村齐新自然村，毗邻钱塘江上游，按照AAAA级国家旅游景区标准兴建。是以绿色低碳为基础，多彩花卉为特色，乡村文化为主线，是集观光游览、休闲娱乐、度假养生为一体的生态旅游度假区。\n\n景区规划总面积1200亩，目前已建成玫瑰园、梅园、竹园、樱花园、杜鹃园、宿根园、水生植物园、山体篱园8大园区，上千种名贵花木异彩纷呈，美不胜收。景区规划有卡丁车、滑草场、儿童游乐场、迷你高尔夫、悠波球、户外拓展等众多娱乐项目，与缤纷瑰丽的花卉构成欢乐的海洋。\n景区地处繁华境外，悠然静谧，山水与花海辉映，人文与体验交融，是浙江省知名的乡村文化旅游度假区。"}}, {"title": "开化国家公园", "address": "衢州市开化县", "image": "", "rank": 7, "time": 6.0, "location": {"lat": 29.143187521186665, "lng": 118.42145932131277}, "feature": {"sight_features": "", "sight_content": ""}}, {"title": "衢州彩虹桥", "address": "浙江省衢州市柯城区境内", "image": "", "rank": 8, "time": 1.0, "location": {"lat": 28.97420365112754, "lng": 118.87758391504455}, "feature": {"sight_features": "", "sight_content": ""}}, {"title": "玉屏公园", "address": "四川南充市西山坡玉屏路6号", "image": "", "rank": 9, "time": 3.0, "location": {"lat": 30.78477257203733, "lng": 106.07844558011853}, "feature": {"sight_features": "", "sight_content": ""}}, {"title": "开化县后山湾农家乐", "address": "齐溪镇里秧田村西莲线", "image": "", "rank": 10, "time": 2, "location": {"lat": 29.406949378797915, "lng": 118.23492369212458}, "feature": {"sight_features": "", "sight_content": ""}}, {"title": "大路畲族风情农家乐", "address": "大路村", "image": "", "rank": 11, "time": 2, "location": {"lat": 40.43930177378528, "lng": 115.93174666890953}, "feature": {"sight_features": "", "sight_content": ""}}, {"title": "开化奥兰多水上乐园", "address": "工业园区独山大桥下茨村", "image": "", "rank": 12, "time": 2.5, "location": {"lat": 29.08023950065478, "lng": 118.40202909710452}, "feature": {"sight_features": "", "sight_content": ""}}, {"title": "开化县家明农家乐", "address": "溪源头27号", "image": "", "rank": 13, "time": 2, "location": {"lat": 26.66039315648808, "lng": 118.1143342514198}, "feature": {"sight_features": "", "sight_content": ""}}, {"title": "清水鱼大峡谷漂流", "address": "何田乡柴家村", "image": "", "rank": 14, "time": 2, "location": {"lat": 29.32628451887342, "lng": 118.30665206476692}, "feature": {"sight_features": "", "sight_content": ""}}, {"title": "荷花广场", "address": "衢州市开化县解放街75号", "image": "", "rank": 15, "time": 1.5, "location": {"lat": 29.146549110412938, "lng": 118.42254009872232}, "feature": {"sight_features": "", "sight_content": ""}}, {"title": "衢州南华山风景区", "address": "浙江省开化县杨林镇霞光村", "image": "", "rank": 16, "time": 2.5, "location": {"lat": 29.05577810079282, "lng": 118.16416239297362}, "feature": {"sight_features": "", "sight_content": ""}}, {"title": "根宫佛塔", "address": "衢州市开化县根博路1号开化根宫佛国文化旅游区内", "image": "", "rank": 17, "time": 2, "location": {"lat": 29.141184023571412, "lng": 118.39926925105324}, "feature": {"sight_features": "", "sight_content": ""}}, {"title": "忂州市开化药王谷", "address": "浙江省衢州市开化县城底线", "image": "", "rank": 18, "time": 2, "location": {"lat": 29.141648875278715, "lng": 118.43310401970254}, "feature": {"sight_features": "", "sight_content": ""}}, {"title": "华严古刹", "address": "浙江省衢州市开化县双桥路42号", "image": "", "rank": 19, "time": 2, "location": {"lat": 29.024911460615044, "lng": 118.35839432198891}, "feature": {"sight_features": "", "sight_content": ""}}, {"title": "华埠镇橙山公园", "address": "华园路南200米", "image": "", "rank": 20, "time": 2, "location": {"lat": 31.08628294124702, "lng": 120.9032284000976}, "feature": {"sight_features": "", "sight_content": ""}}, {"title": "贝贝乐儿童乐园", "address": "浙江省衢州市开化县华阳路72号", "image": "", "rank": 21, "time": 2, "location": {"lat": 29.01729158760214, "lng": 118.36216604451884}, "feature": {"sight_features": "", "sight_content": ""}}, {"title": "开化御玺茶文化主题公园", "address": "606乡道西100米", "image": "", "rank": 22, "time": 2.5, "location": {"lat": 22.60919886263197, "lng": 114.24644262262933}, "feature": {"sight_features": "", "sight_content": ""}}, {"title": "云门寺", "address": "浙江省衢州市开化县", "image": "", "rank": 23, "time": 2.5, "location": {"lat": 29.143187521186665, "lng": 118.42145932131277}, "feature": {"sight_features": "", "sight_content": ""}}, {"title": "芦花岛水上乐园", "address": "浙江省衢州市开化县星河线", "image": "", "rank": 24, "time": 2, "location": {"lat": 29.24900064247934, "lng": 118.23455318152558}, "feature": {"sight_features": "", "sight_content": ""}}, {"title": "金溪桃韵景区", "address": "衢州市开化县", "image": "", "rank": 25, "time": 2, "location": {"lat": 29.143187521186665, "lng": 118.42145932131277}, "feature": {"sight_features": "", "sight_content": ""}}, {"title": "云顶山庄", "address": "城关镇山甸村58号", "image": "", "rank": 26, "time": 2, "location": {"lat": 29.10508738522333, "lng": 118.4055827595652}, "feature": {"sight_features": "", "sight_content": ""}}, {"title": "九龙山庄(九龙花苑西南)", "address": "205国道附近", "image": "", "rank": 27, "time": 2, "location": {"lat": 37.34066223973322, "lng": 118.07089300716441}, "feature": {"sight_features": "", "sight_content": ""}}, {"title": "古镇三江艺术馆", "address": "兴华街198号", "image": "", "rank": 28, "time": 2, "location": {"lat": 29.018470018863663, "lng": 118.36225656227353}, "feature": {"sight_features": "", "sight_content": ""}}, {"title": "开化图书馆", "address": "江滨北路6号", "image": "", "rank": 29, "time": 1.5, "location": {"lat": 29.14863564238431, "lng": 118.42473781752466}, "feature": {"sight_features": "", "sight_content": ""}}, {"title": "大唐少儿书画院", "address": "岙滩新区开元路101号", "image": "", "rank": 30, "time": 2, "location": {"lat": 29.12700467082744, "lng": 118.41383010244958}, "feature": {"sight_features": "", "sight_content": ""}}, {"title": "月泉画廊", "address": "解放街锦江花园小区旁", "image": "", "rank": 31, "time": 2, "location": {"lat": 36.63257653891843, "lng": 114.48558095150544}, "feature": {"sight_features": "", "sight_content": ""}}, {"title": "中国·根艺美术博览园", "address": "灵山路", "image": "", "rank": 32, "time": 2.5, "location": {"lat": 30.86777536447585, "lng": 121.56115845596665}, "feature": {"sight_features": "", "sight_content": ""}}, {"title": "虹光水上太极乐园", "address": "池淮镇虹光村村委会", "image": "", "rank": 33, "time": 2, "location": {"lat": 29.7940577642986, "lng": 118.39610285169098}, "feature": {"sight_features": "", "sight_content": ""}}, {"title": "奥兰多欢乐水世界", "address": "工业园区下茨村(甲壳虫动漫城旁)", "image": "", "rank": 34, "time": 2, "location": {"lat": 38.48250172547419, "lng": 106.30152148672731}, "feature": {"sight_features": "", "sight_content": ""}}, {"title": "醉根艺术博览园", "address": "城关镇芹南路88号", "image": "", "rank": 35, "time": 2, "location": {"lat": 29.138687543711768, "lng": 118.40143797794353}, "feature": {"sight_features": "", "sight_content": ""}}, {"title": "开化隐秀农庄", "address": "音坑乡下淤村188号", "image": "", "rank": 36, "time": 2.5, "location": {"lat": 29.19476217880861, "lng": 118.41369235448613}, "feature": {"sight_features": "", "sight_content": ""}}, {"title": "睦山农农业开发有限公司", "address": "池淮镇航头村吴庄", "image": "", "rank": 37, "time": 2, "location": {"lat": 29.114594684852804, "lng": 118.2870351780636}, "feature": {"sight_features": "", "sight_content": ""}}, {"title": "华埠金凤凰农庄", "address": "浙江省开化县华埠镇毛家坎村", "image": "", "rank": 38, "time": 2, "location": {"lat": 29.05663932130918, "lng": 118.38179742627987}, "feature": {"sight_features": "", "sight_content": ""}}, {"title": "芹江商业街", "address": "浙江省开化县解放街", "image": "", "rank": 39, "time": 2, "location": {"lat": 29.14416710125828, "lng": 118.42198732912186}, "feature": {"sight_features": "", "sight_content": ""}}, {"title": "云湖禅心", "address": "衢州市-开化县-根博路1号开化根宫佛国文化旅游区内", "image": "", "rank": 40, "time": 2, "location": {"lat": 29.141184023571412, "lng": 118.39926925105324}, "feature": {"sight_features": "", "sight_content": ""}}, {"title": "霞山古村落", "address": "浙江省开化县霞山村", "image": "", "rank": 41, "time": 2, "location": {"lat": 29.336147280110247, "lng": 118.41505530133425}, "feature": {"sight_features": "", "sight_content": ""}}]}