{"cityName": "开鲁", "days": 2, "cityImage": "", "spots": [{"title": "古榆园", "address": "通辽市开鲁县大榆树镇中心", "image": "", "rank": 1, "time": 2, "location": {"lat": 43.58470936354264, "lng": 121.06795623927844}, "feature": {"sight_features": "", "sight_content": ""}}, {"title": "二亮水族馆经营店", "address": "新华街", "image": "", "rank": 2, "time": 2, "location": {"lat": 39.02127929745047, "lng": 117.67844309976273}, "feature": {"sight_features": "", "sight_content": ""}}, {"title": "麦新烈士纪念馆", "address": "辽河大街与团结路交叉口", "image": "", "rank": 3, "time": 2, "location": {"lat": 43.60796911160511, "lng": 121.31265710448574}, "feature": {"sight_features": "", "sight_content": ""}}, {"title": "乡友藏书馆", "address": "建设街附近", "image": "", "rank": 4, "time": 2, "location": {"lat": 38.093296108711115, "lng": 114.62444471286672}, "feature": {"sight_features": "", "sight_content": ""}}, {"title": "香飘飘果园", "address": "303国道附近", "image": "", "rank": 5, "time": 2, "location": {"lat": 43.53481831055721, "lng": 118.65925526872917}, "feature": {"sight_features": "", "sight_content": ""}}, {"title": "清河林场", "address": "189乡道北200米", "image": "", "rank": 6, "time": 6.5, "location": {"lat": 41.20783012676974, "lng": 118.51884433602535}, "feature": {"sight_features": "", "sight_content": ""}}, {"title": "跑马场", "address": "开鲁镇宝开线中国石化加油站南100米", "image": "", "rank": 7, "time": 2, "location": {"lat": 28.94023173585514, "lng": 118.87014828101871}, "feature": {"sight_features": "", "sight_content": ""}}, {"title": "王府博物馆", "address": "内蒙古自治区通辽市开鲁县辽河大街39号", "image": "", "rank": 8, "time": 1.5, "location": {"lat": 43.60828153232971, "lng": 121.31238801617192}, "feature": {"sight_features": "", "sight_content": ""}}, {"title": "大甸子遗址旅游区", "address": "内蒙古自治区敖汉旗大甸子乡大甸子村 024322", "image": "", "rank": 9, "time": 2, "location": {"lat": 42.31074732045857, "lng": 120.61148329240059}, "feature": {"sight_features": "", "sight_content": ""}}, {"title": "麦新烈士陵园", "address": "麦新镇麦新烈士陵园", "image": "", "rank": 10, "time": null, "location": {"lat": 43.492172418941536, "lng": 120.75396527115257}, "feature": {"sight_features": "", "sight_content": ""}}, {"title": "二平水族馆", "address": "内蒙古自治区通辽市开鲁县新开大街36号", "image": "", "rank": 11, "time": 2, "location": {"lat": 43.610559739118365, "lng": 121.3108008091494}, "feature": {"sight_features": "", "sight_content": ""}}, {"title": "烈士陵园", "address": "白塔路与长青街交叉口东50米", "image": "", "rank": 12, "time": 2, "location": {"lat": 29.988241960706016, "lng": 106.27982470154902}, "feature": {"sight_features": "", "sight_content": ""}}, {"title": "娱乐宫休闲广场", "address": "内蒙古自治区通辽市开鲁县开鲁镇幸福路会展国际宾馆附近", "image": "", "rank": 13, "time": 2, "location": {"lat": 43.60910601925031, "lng": 121.30954180253647}, "feature": {"sight_features": "", "sight_content": ""}}, {"title": "八一广场", "address": "通辽市开鲁县", "image": "", "rank": 14, "time": 1.5, "location": {"lat": 43.60636943136172, "lng": 121.32538568842634}, "feature": {"sight_features": "", "sight_content": ""}}, {"title": "开鲁宾馆-洗浴休闲广场", "address": "新开大街附近", "image": "", "rank": 15, "time": null, "location": {"lat": 39.15399691552062, "lng": 117.19724900982663}, "feature": {"sight_features": "", "sight_content": ""}}, {"title": "娱乐宫休闲广场", "address": "内蒙古自治区通辽市开鲁县开鲁镇幸福路会展国际宾馆附近", "image": "", "rank": 16, "time": 2, "location": {"lat": 43.60910601925031, "lng": 121.30954180253647}, "feature": {"sight_features": "", "sight_content": ""}}, {"title": "天增寺", "address": "内蒙古自治区通辽市开鲁县大榆树镇开八线古榆园旅游区旁", "image": "", "rank": 17, "time": 2, "location": {"lat": 43.57395424643063, "lng": 121.07715161697027}, "feature": {"sight_features": "", "sight_content": ""}}, {"title": "开鲁县文化体育广场", "address": "环城北路与宝开线交汇处东侧", "image": "", "rank": 18, "time": 2, "location": {"lat": 43.61509004313707, "lng": 121.3203960199288}, "feature": {"sight_features": "", "sight_content": ""}}, {"title": "东发文化广场", "address": "111国道附近", "image": "", "rank": 19, "time": 2, "location": {"lat": 50.42539598847844, "lng": 124.1866783773556}, "feature": {"sight_features": "", "sight_content": ""}}, {"title": "道德广场", "address": "道德村附近", "image": "", "rank": 20, "time": 2, "location": {"lat": 36.189479958674035, "lng": 112.28306683284727}, "feature": {"sight_features": "", "sight_content": ""}}, {"title": "麦新文化广场", "address": "205乡道附近", "image": "", "rank": 21, "time": 2, "location": {"lat": 32.05082034758587, "lng": 119.87713116727078}, "feature": {"sight_features": "", "sight_content": ""}}, {"title": "牵手草原渡假村", "address": "内蒙古开元食品有限公司附近", "image": "", "rank": 22, "time": 2, "location": {"lat": 43.6126767952668, "lng": 121.33946085568235}, "feature": {"sight_features": "", "sight_content": ""}}, {"title": "红旗广场", "address": "196乡道附近", "image": "", "rank": 23, "time": 2, "location": {"lat": 43.4148706551475, "lng": 121.65911238369118}, "feature": {"sight_features": "", "sight_content": ""}}, {"title": "白塔公园(麦新路)", "address": "内蒙古自治区通辽市开鲁县开鲁镇曙光路白塔公园", "image": "", "rank": 24, "time": 2, "location": {"lat": 43.60228773334033, "lng": 121.32403812505964}, "feature": {"sight_features": "", "sight_content": ""}}, {"title": "世纪广场", "address": "开鲁镇胜利街2组", "image": "", "rank": 25, "time": 2.5, "location": {"lat": 39.81196788892508, "lng": 116.4029139949128}, "feature": {"sight_features": "", "sight_content": ""}}]}