{"cityName": "凯里", "days": 2, "cityImage": "", "spots": [{"title": "黔东南州民族博物馆", "address": "黔东南苗族侗族自治州凯里市广场路5号", "image": "", "rank": 1, "time": 3.0, "location": {"lat": 26.578826670826274, "lng": 107.98666670117582}, "feature": {"sight_features": "", "sight_content": ""}}, {"title": "下司古镇", "address": "黔东南苗族侗族自治州麻江县下司镇", "image": "", "rank": 2, "time": 2.5, "location": {"lat": 26.511464827018205, "lng": 107.80770582479116}, "feature": {"sight_features": "特色1 有清水江上的明珠之美称。 特色2 走进古镇，环境清幽，古风依旧、青瓦木楼沿河而建、隔江相望、清风传雨、感受古镇神韵根脉标签：阳明书院、名犬博览苑、清江皇木博物馆、华酸汤博物馆六大看点：字库塔、明心湾、芦笙广场、下司面、卵石花街、大码头。", "sight_content": "下司古镇景区位于贵州黔东南州凯里市下司镇，毗邻清水江，距贵阳129公里，距凯里高铁南站及凯里客运站6公里，下司古镇全面积134平方公里，2.5万人，其中以苗族、仫佬、畲族等为主的少数民族共2万人，占总人口的81.26%,是贵州及至川滇南下东进的交通要塞，更是黔东南州生态旅游与民族文化旅游的门户。下司在历史上上承川滇，下接湘粤，自元代中期设立翁袍蛮夷长官司始，至清代嘉庆13年（1808年）下司被正式辟为商埠，民国时期发展为闹市，顺江而过的人们行船于此，必然会休顿停歇，文化多元碰撞，商贾云集。于是，孕育出一座隐出贵州黔东南的山间小镇——下司。\n从元代、明清到现代，600百年的岁月沧桑，记录了下司风云过往，也映出了下司的灿烂未来。下司古镇是茶马古道的重要驿站，有深厚的民族文化底蕴和得天独厚的古码头为特色的水镇风光。曾被人誉为\"小上海\"、有\"清水江上的明珠\"之美称。这里山清水秀，物华天宝，人杰地灵，是中国红蒜之乡，锌硒米之乡，世界名犬下司犬之乡，中国现代民间绘画之乡,中国龙舟冠军之乡 这里有“世界一流、亚洲最好、贵州唯一”的皮划艇激流回旋训练基地。\n下司古镇景区最大的特色是多元文化的融合共生，“黔湘川水陆通衢，六百年清江风华”，基于“吃、住、行、游、购、娱、商、养、学、闲、情、奇”的全要素发展理念，下司古镇景区可概括为“一大根脉、三大标签、六大看点”，其中，“一大根脉”为心学精神文化高地的阳明书院，“三大标签”为下司犬代言的世界名犬博览苑、讲述木商文化的清江皇木博物馆、引领舌尖之旅的中华酸汤博物馆，“六大看点”为国学书香的字库塔、浪漫唯美的明心湾、斑斓风情的芦笙广场、一牵千年的下司面、历史回响的卵石花街、放排清江的大码头。\n下司古镇中多类建筑艺术共融，江南院落、微派建筑、闽南建筑、苗侗建筑等多种建筑形式集于一体，并相互借鉴吸收，构成多元化的建筑特征和文化。虽经历史沧桑，但基本保持完好，其格局、结构仍然体现当年的历史情景。\n走进古镇，环境清幽，古风依旧、青瓦木楼、沿河而建、隔江相望、清风传雨、独享古镇神韵。"}}, {"title": "岜沙苗寨", "address": "黔东南苗族侗族自治州从江县丙妹镇", "image": "", "rank": 3, "time": 3.0, "location": {"lat": 25.729594141745736, "lng": 108.90048190732936}, "feature": {"sight_features": "特色1 纯苗族村寨，至今仍保留了古老而原始的生活方式。 特色2 岜沙誉为苗族传统文化的“活化石”和“博物馆”。 特色3 受历史和自然条件等因素的影响, 岜沙村民长期与外界很少交往。", "sight_content": "‍‍【景点介绍】\n岜沙部落仅2000余人，分住在月亮山麓茫然林海中的5个寨子里。走进岜沙，随处可见茂密的森林。他们以稻作为主，狩猎为伴。这里箐黑林密，鸟道蚕丛，具有很强的隐蔽性，千百年来极少有外人进入。岜沙村不大，村寨建于山粱坳口及面向都柳江一侧的半坡上。村寨木楼古朴、简单；四周则为密林环绕，环境幽雅；村民全系苗族，衣着传统，发饰奇特。‍‍\n岜沙是一个非常和谐的社会，他们自有一套解决问题的体系，年纪较大、代表权威的长老们便是这里掌管一切的人，就如同很多原始部落的酋长一般。部落里面的大小事情都是由长老们商议，就连乡里的干部来到这里推广一些政策都是要先找到长老们征求他们的意见。由于岜沙人对树木的保护，这里的生态环境优美，而岜沙人就在这样的环境里过着与世无争的和谐日子。\n发式：岜沙男人非常重视他们的发髻，是男性装束中最重要的性别标志——剃掉男性头部四周大部分的头发，仅留下中部盘发为鬏髻，并终生保持这种发式。据说，这种装束是从蚩尤老祖时代传下来的，也是迄今为止在中国所能见到最古老的男性发式。\n配枪：岜沙汉子终身带枪，但从不乱放。以前是为了狩猎，现在主要在迎接贵宾和有重要庆典活动时，才会对天鸣枪。\n另外岜沙人对树有着特殊的感情，每个岜沙的孩子出生后，父母都会为他种植一棵树，让树随着孩子成长。如果这棵树被风刮倒或是被人砍掉，他们会认为这是不祥的预兆。人死之后，家人会用这棵生命之树为其制作棺材，埋葬的时候不是立一个墓碑，而是再种上一棵树缅怀已故的亲人。"}}, {"title": "南花苗寨", "address": "黔东南苗族侗族自治州凯里市东南面的巴拉河畔三棵树镇南花村", "image": "", "rank": 4, "time": 2.5, "location": {"lat": 26.573079425675388, "lng": 107.98746889069089}, "feature": {"sight_features": "", "sight_content": ""}}, {"title": "车江三宝侗寨", "address": "黔东南苗族侗族自治州榕江县308省道西50米", "image": "", "rank": 5, "time": 3.0, "location": {"lat": 25.953293945066694, "lng": 108.45082430479232}, "feature": {"sight_features": "", "sight_content": ""}}, {"title": "季刀苗寨", "address": "黔东南州凯里市三棵树镇", "image": "", "rank": 6, "time": 2.5, "location": {"lat": 26.55861797659987, "lng": 108.09738919907754}, "feature": {"sight_features": "", "sight_content": ""}}, {"title": "麻塘革家寨", "address": "黔东南苗族侗族自治州凯里市龙场镇麻塘寨", "image": "", "rank": 7, "time": 1.5, "location": {"lat": 26.669674798006447, "lng": 107.92690504609254}, "feature": {"sight_features": "", "sight_content": ""}}, {"title": "苹果山公园", "address": "黔东南苗族侗族自治州凯里市洗马河街道北京路46号附近", "image": "", "rank": 8, "time": 1.0, "location": {"lat": 26.589334382904024, "lng": 107.98954631919902}, "feature": {"sight_features": "", "sight_content": ""}}, {"title": "香炉山", "address": "黔东南苗族侗族自治州凯里市西15公里", "image": "", "rank": 9, "time": 4.5, "location": {"lat": 26.58970296982603, "lng": 107.9894462407788}, "feature": {"sight_features": "", "sight_content": ""}}, {"title": "凯里民族体育场", "address": "黔东南苗族侗族自治州凯里市博南新区友庄路12号", "image": "", "rank": 10, "time": 0.25, "location": {"lat": 26.574861084384082, "lng": 107.9830041047992}, "feature": {"sight_features": "", "sight_content": ""}}, {"title": "《银秀》舞台剧演出", "address": "凯里市西出口民族文化宫剧场", "image": "", "rank": 11, "time": 2, "location": {"lat": 26.573079425675388, "lng": 107.98746889069089}, "feature": {"sight_features": "", "sight_content": ""}}, {"title": "罗汉山森林公园", "address": "黔东南苗族侗族自治州凯里市华联路", "image": "", "rank": 12, "time": 1.5, "location": {"lat": 26.58196536239996, "lng": 107.99973948973268}, "feature": {"sight_features": "", "sight_content": ""}}, {"title": "石龙寨", "address": "黔东南苗族侗族自治州凯里市龙场镇石龙寨", "image": "", "rank": 13, "time": 1.0, "location": {"lat": 26.649645818886835, "lng": 107.91383254140024}, "feature": {"sight_features": "", "sight_content": ""}}, {"title": "平良古峡", "address": "黔东南苗族侗族自治州凯里市大风洞乡平良村", "image": "", "rank": 14, "time": 1.5, "location": {"lat": 26.71489392253535, "lng": 107.81701134102356}, "feature": {"sight_features": "", "sight_content": ""}}, {"title": "舟溪苗寨", "address": "黔东南苗族侗族自治州凯里市舟溪镇舟溪村", "image": "", "rank": 15, "time": 0.75, "location": {"lat": 26.493423876624853, "lng": 107.93940467261555}, "feature": {"sight_features": "", "sight_content": ""}}, {"title": "大阁公园", "address": "黔东南苗族侗族自治州凯里市老街片区北侧、环城北路南侧大阁山处", "image": "", "rank": 16, "time": 1.0, "location": {"lat": 26.598093255816664, "lng": 107.98480379790477}, "feature": {"sight_features": "", "sight_content": ""}}, {"title": "金泉公园", "address": "黔东南苗族侗族自治州凯里市市区东南面的小高山脚下", "image": "", "rank": 17, "time": 1.0, "location": {"lat": 26.548327975743792, "lng": 108.00734820656919}, "feature": {"sight_features": "", "sight_content": ""}}, {"title": "翁项苗寨", "address": "黔东南苗族侗族自治州凯里市旁海镇翁项苗寨", "image": "", "rank": 18, "time": 1.0, "location": {"lat": 26.71537548825072, "lng": 108.07197473575037}, "feature": {"sight_features": "", "sight_content": ""}}, {"title": "渔洞溶洞", "address": "黔东南苗族侗族自治州凯里市西面的渔洞乡", "image": "", "rank": 19, "time": 1.0, "location": {"lat": 26.573079425675388, "lng": 107.98746889069089}, "feature": {"sight_features": "", "sight_content": ""}}, {"title": "苗寨大峡谷漂流", "address": "黔东南苗族侗族自治州凯里市三棵树镇朗利村", "image": "", "rank": 20, "time": 2, "location": {"lat": 26.570584323885818, "lng": 108.13757768169852}, "feature": {"sight_features": "", "sight_content": "苗寨大峡谷漂流位于黔东南苗族侗族自治州凯里市三棵树镇乌利苗寨，是一处具有民族文化底蕴特色的峡谷激情漂流，融入了民族文化拦门酒、山歌对唱、苗族舞蹈等特色。漂流河段总长7.6公里，整条漂流河段140米的自然落差，形成8个激流区、6个戏水区。"}}, {"title": "舟溪芦笙堂", "address": "黔东南凯里舟溪镇", "image": "", "rank": 21, "time": 1.0, "location": {"lat": 26.473183207109226, "lng": 107.94967365833762}, "feature": {"sight_features": "", "sight_content": ""}}, {"title": "中华民俗欢乐谷", "address": "黔东南苗族侗族自治州凯里经济开发区白午生态移民广场", "image": "", "rank": 22, "time": 1.5, "location": {"lat": 26.529910235270236, "lng": 107.88630846148192}, "feature": {"sight_features": "", "sight_content": ""}}, {"title": "丰登宰荡", "address": "黔东南凯里。", "image": "", "rank": 23, "time": 3.0, "location": {"lat": 26.58970296982603, "lng": 107.9894462407788}, "feature": {"sight_features": "", "sight_content": ""}}, {"title": "凯里主题公园游乐园", "address": "黔东南凯里市三棵树镇（新凯里一中对面）", "image": "", "rank": 24, "time": 3.0, "location": {"lat": 26.55861797659987, "lng": 108.09738919907754}, "feature": {"sight_features": "", "sight_content": ""}}, {"title": "乌利生态旅游古寨", "address": "西江乌利", "image": "", "rank": 25, "time": 2, "location": {"lat": 26.559476586390172, "lng": 108.14363956046434}, "feature": {"sight_features": "", "sight_content": ""}}, {"title": "贵州省凯里市博物馆", "address": "贵州省黔东南苗族侗族自治州凯里市宁波路", "image": "", "rank": 26, "time": 2, "location": {"lat": 26.579937323807524, "lng": 107.98601798985202}, "feature": {"sight_features": "", "sight_content": ""}}, {"title": "六个鸡村", "address": "黔东南苗族侗族自治州凯里市炉山县六个鸡村", "image": "", "rank": 27, "time": 2, "location": {"lat": 26.573860401888012, "lng": 107.78675282362529}, "feature": {"sight_features": "", "sight_content": ""}}, {"title": "苗草宏仁堂", "address": "凯里老街37号", "image": "", "rank": 28, "time": 2, "location": {"lat": 26.594412173744093, "lng": 107.98519393198762}, "feature": {"sight_features": "", "sight_content": ""}}, {"title": "康福草堂", "address": "西门街54号", "image": "", "rank": 29, "time": 2, "location": {"lat": 30.83826941973062, "lng": 121.48064424129419}, "feature": {"sight_features": "", "sight_content": ""}}, {"title": "美的雨", "address": "文化南路金井小区8栋2号", "image": "", "rank": 30, "time": 2, "location": {"lat": 26.58561040329731, "lng": 107.9932990515505}, "feature": {"sight_features": "", "sight_content": ""}}, {"title": "苗妹非遗博物馆", "address": "黔东南苗族侗族自治州凯里市下司镇开元大道贵州苗妹非遗博物馆", "image": "", "rank": 31, "time": 2, "location": {"lat": 26.528352365810267, "lng": 107.88443292534046}, "feature": {"sight_features": "", "sight_content": ""}}, {"title": "盘古寨", "address": "贵州省黔东南苗族侗族自治州凯里市凯棉路风情大道", "image": "", "rank": 32, "time": 2, "location": {"lat": 26.573494388729124, "lng": 107.97661151306339}, "feature": {"sight_features": "", "sight_content": ""}}, {"title": "犇牛苗寨", "address": "凯里市三棵树镇犇牛苗寨（前往西江路途中）", "image": "", "rank": 33, "time": 2, "location": {"lat": 26.55861797659987, "lng": 108.09738919907754}, "feature": {"sight_features": "", "sight_content": ""}}, {"title": "兰韵奇石馆", "address": "迎宾大道41号附近", "image": "", "rank": 34, "time": 2, "location": {"lat": 31.82262912182185, "lng": 120.33890279255519}, "feature": {"sight_features": "", "sight_content": ""}}, {"title": "小高山", "address": "贵州省黔东南苗族侗族自治州凯里", "image": "", "rank": 35, "time": 2, "location": {"lat": 26.58970296982603, "lng": 107.9894462407788}, "feature": {"sight_features": "", "sight_content": ""}}, {"title": "苗家寨", "address": "贵州省黔东南苗族侗族自治州凯里320国道苗家寨", "image": "", "rank": 36, "time": 2, "location": {"lat": 26.775349198132247, "lng": 108.54896910264256}, "feature": {"sight_features": "", "sight_content": ""}}, {"title": "加鸠梯田", "address": "贵州省黔东南苗族侗族自治州从江县加鸠乡", "image": "", "rank": 37, "time": 2, "location": {"lat": 25.677194767802565, "lng": 108.43363341877897}, "feature": {"sight_features": "", "sight_content": ""}}, {"title": "云谷田园", "address": "黔东南苗族侗族自治州凯里市舟溪镇新光村", "image": "", "rank": 38, "time": 2, "location": {"lat": 26.5128865186627, "lng": 107.94930664753689}, "feature": {"sight_features": "", "sight_content": ""}}, {"title": "云溪汤泉", "address": "凯里市舟溪镇新光村云谷田园", "image": "", "rank": 39, "time": 2, "location": {"lat": 26.5128865186627, "lng": 107.94930664753689}, "feature": {"sight_features": "", "sight_content": ""}}, {"title": "HI JUMP蹦床主题公园", "address": "凯里市洗马河新生路16号华亿国际商贸城A2区1栋2楼", "image": "", "rank": 40, "time": 2, "location": {"lat": 26.596654159918362, "lng": 107.99276574912872}, "feature": {"sight_features": "", "sight_content": ""}}, {"title": "西江乌利大峡谷漂流", "address": "黔东南贵州省凯里市三棵树镇乌利苗寨（距西江6公里处）", "image": "", "rank": 41, "time": 2, "location": {"lat": 26.560778044905316, "lng": 108.14195400695515}, "feature": {"sight_features": "", "sight_content": ""}}, {"title": "碧游居印象农家庄", "address": "开怀街道小高山", "image": "", "rank": 42, "time": 2, "location": {"lat": 26.540993760224957, "lng": 108.04188580046623}, "feature": {"sight_features": "", "sight_content": ""}}, {"title": "啊勒山庄", "address": "开怀街道小高山", "image": "", "rank": 43, "time": 2, "location": {"lat": 26.540993760224957, "lng": 108.04188580046623}, "feature": {"sight_features": "", "sight_content": ""}}, {"title": "渔乡情农庄", "address": "滨河大道和平村", "image": "", "rank": 44, "time": 2, "location": {"lat": 39.006101527753565, "lng": 106.83031297233025}, "feature": {"sight_features": "", "sight_content": ""}}, {"title": "银·秀", "address": "西出口民族文化宫剧场", "image": "", "rank": 45, "time": 2, "location": {"lat": 39.913964601775774, "lng": 116.37539888726081}, "feature": {"sight_features": "", "sight_content": ""}}, {"title": "海之城", "address": "西门街197附近", "image": "", "rank": 46, "time": 2, "location": {"lat": 28.85165423097796, "lng": 121.119263053263}, "feature": {"sight_features": "", "sight_content": ""}}, {"title": "黔东南州图书馆", "address": "环城北路54号黔东南州文化馆", "image": "", "rank": 47, "time": 2, "location": {"lat": 26.599471012644493, "lng": 107.98870975782026}, "feature": {"sight_features": "", "sight_content": ""}}, {"title": "铜鼓苗寨", "address": "广西壮族自治区南丹县境内 547200", "image": "", "rank": 48, "time": 4.5, "location": {"lat": 24.98184977548506, "lng": 107.54748028933784}, "feature": {"sight_features": "", "sight_content": ""}}, {"title": "世纪城广场", "address": "文化北路22号", "image": "", "rank": 49, "time": 2, "location": {"lat": 32.90945845115445, "lng": 120.05077803572448}, "feature": {"sight_features": "", "sight_content": ""}}, {"title": "八郎海洋古生物化石群", "address": "市府西路与友庄路交叉口", "image": "", "rank": 50, "time": 2, "location": {"lat": 26.573809254130406, "lng": 107.9835030281708}, "feature": {"sight_features": "", "sight_content": ""}}, {"title": "湾溪街道科普活动中心", "address": "贵州省凯里市清江路", "image": "", "rank": 51, "time": 2, "location": {"lat": 26.604020847936365, "lng": 107.98595625650078}, "feature": {"sight_features": "", "sight_content": ""}}, {"title": "南秀苗寨", "address": "黔东南苗族侗族自治州凯里市八九二县道", "image": "", "rank": 52, "time": 2, "location": {"lat": 26.56055488771334, "lng": 107.68632050247261}, "feature": {"sight_features": "", "sight_content": ""}}, {"title": "阳明儿童乐园", "address": "贵州省黔东南苗族侗族自治州凯里市G320(沪瑞线)", "image": "", "rank": 53, "time": 2, "location": {"lat": 26.573079425675388, "lng": 107.98746889069089}, "feature": {"sight_features": "", "sight_content": ""}}, {"title": "白午公园", "address": "贵州省黔东南苗族侗族自治州麻江县", "image": "", "rank": 54, "time": 2, "location": {"lat": 26.496807595584382, "lng": 107.59555140190797}, "feature": {"sight_features": "", "sight_content": ""}}, {"title": "道德讲堂", "address": "黔东南苗族侗族自治州凯里市凯里苗侗风情园内", "image": "", "rank": 55, "time": 1.0, "location": {"lat": 26.56188683376258, "lng": 107.97948313437092}, "feature": {"sight_features": "", "sight_content": ""}}, {"title": "龙英苗族非遗展示馆", "address": "民族风情园b区11栋2", "image": "", "rank": 56, "time": 2, "location": {"lat": 36.673750080849956, "lng": 117.59986911270363}, "feature": {"sight_features": "", "sight_content": ""}}, {"title": "仰阿莎广场", "address": "迎宾大道与金山大道交叉处", "image": "", "rank": 57, "time": 1.0, "location": {"lat": 26.57155019558372, "lng": 107.99300277871542}, "feature": {"sight_features": "", "sight_content": ""}}, {"title": "俊吉广场", "address": "凯里市320国道", "image": "", "rank": 58, "time": 2, "location": {"lat": 26.52888232803293, "lng": 107.88486757944437}, "feature": {"sight_features": "", "sight_content": ""}}, {"title": "凯里生态移民文化广场", "address": "贵州省黔东南苗族侗族自治州凯里市G320(金源东大道)", "image": "", "rank": 59, "time": 3.0, "location": {"lat": 26.530176691469578, "lng": 107.87999840425971}, "feature": {"sight_features": "", "sight_content": ""}}, {"title": "合盛砖厂沙场", "address": "黔东南苗族侗族自治州凯里市", "image": "", "rank": 60, "time": 2, "location": {"lat": 26.58970296982603, "lng": 107.9894462407788}, "feature": {"sight_features": "", "sight_content": ""}}]}