{"cityName": "开阳", "days": 2, "cityImage": "", "spots": [{"title": "南江大峡谷", "address": "贵阳市开阳县南江乡龙广村", "image": "", "rank": 1, "time": 2.5, "location": {"lat": 26.950442363867854, "lng": 106.98336491062366}, "feature": {"sight_features": "特色1 行走于栈道欣赏喀斯特峡谷风光，体验全程8公里的激情漂流。 特色2 被誉为“喀斯特生态博物馆”。 特色3 陶渊明的第二故乡，贵州的香格里拉。 特色4 姿态万千的瀑布群落。", "sight_content": "南江大峡谷全长18.4公里，占地面积30.87平方公里，位于贵州中部，属国家AAAA级旅游风景区，距省会城市贵阳39公里，距革命圣地遵义120公里，被誉为“世界喀斯特生态博物馆”、有“中国第一个峡谷公园”、“贵州香格里拉”的称号。\n开阳南江峡谷公园，距贵阳市60余公里。以发育典型，气势宏大的喀斯特峡谷风光和类型多样，姿态万千的瀑布群落为特色，是美学价值和科学价值都很高的风景区。峡谷全长40多公里，峭峰顶立，最深处达398米，经有关专家科学考察显示：南江峡谷地层古老，河谷深切，为典型的低中山峡谷地貌景观，十分壮丽优美。峡谷内有自然景观80余处，各种姿态瀑布40多条，最高落差达150余米。\n南江大峡谷景观生态原始自然，以发育典型、气势宏大的喀斯特峡谷风光为特色，集山、水、崖、林、石、峰、溪、泉、树于一峡，纳奇、险、雄、秀、野、幽为一体，主要以徒步观光、峡谷漂流而闻名，南江风光旖旎、气候宜人、是休闲度假、纳凉避暑的理想圣地。旅游者可顺江在碧玉般的江水中进行惊险刺激的漂流，也可漫步于峭壁栈道，还可穿越典型的喀斯特原始森林。峭壁上藏酋猴，猕猴在攀援嬉戏，河中鸳鸯、野鸭畅游，鱼儿成群可见，江上鱼鹰白鹭小鸟飞翔，野趣盎然。\n南江大峡谷已具备了建立生态旅游示范区丰富的自然资源，每晚的民族歌舞让你流连忘返，别具特色的木桶植物精汽浴，天然泉水游泳池，惟妙惟肖的释迦牟尼佛，弥勒佛以及忽隐忽现众多佛像构成的万佛山，户外烧烤，跨江溜索更让您心旷神怡，开心尽兴。景区分为上下两程漂流，上半段为休闲漂流，全程水流比较平缓，而下半段则为激情漂流，下半段是经过人工加工过的，水流比较湍急、惊险，适合年轻喜欢刺激的年轻人。"}}, {"title": "紫江地缝", "address": "贵阳市开阳县龙岗镇", "image": "", "rank": 2, "time": 7.5, "location": {"lat": 26.891025375473827, "lng": 107.09198056679996}, "feature": {"sight_features": "", "sight_content": ""}}, {"title": "香火岩", "address": "贵阳市开阳县禾丰乡香火岩峡谷", "image": "", "rank": 3, "time": 1.5, "location": {"lat": 26.971097855629168, "lng": 106.9079344664674}, "feature": {"sight_features": "", "sight_content": ""}}, {"title": "猴耳天坑风景区", "address": "贵阳市开阳县城关镇石头村桃子窝", "image": "", "rank": 4, "time": 2.5, "location": {"lat": 27.09137214173838, "lng": 107.01392206789203}, "feature": {"sight_features": "特色1 “喀斯特漏斗”，也称为“石围群”。", "sight_content": "猴耳天坑旅游度假区位于开阳县中部，城关镇石头村桃子窝村民组，东与城关镇东山村相连，北与南凉村比邻，西南均在石头村内。天坑，地理地貌上命名为“喀斯特漏斗”，也称为“石围群”。关于天坑的形成，科学地讲，是在大面积的碳酸盐岩地区，由于充沛的降雨，雨水沿裂隙溶蚀岩体，形成地下水系统，地下水长时间对岩层的不断侵蚀、搬运，逐渐形成巨大的地下空洞，地壳运动时，受造山运动的影响，而地下河系统不断向下侵蚀，从而产生整个岩层垂直塌陷或不断向下进行侵蚀而形成。\n\n\n天坑有侵蚀型和塌陷型，其形成过程中侵蚀和塌陷是同时进行的，侵蚀型天坑一般呈漏斗形状，塌陷型天坑会形成柱状形，周围是悬崖绝壁。猴耳天坑属塌陷型。天坑口直径300米、坑深280米、坑底最大直径280米，属于标准天坑。度假区属亚热带常绿阔叶林带。原生植被为中亚热带常绿阔叶林,但现已保存不多。常见的多为常绿、落叶阔叶混交林。 乔木层主要有青冈、山杨、板栗、枫香、樟树等； 灌木层有杜鹃、马桑、火棘等。\n飞拉达是意大利文Via Ferrata的音译，意为岩壁探险或铁道式攀登，指的是在山体岩壁上建设，由钢扶手、脚踏、生命钢缆等构成的攀登径道，让不具备攀岩能力的人也能攀上陡峭的岩壁。\n飞拉达线路的特点：保留了野外攀岩的惊险刺激，达到锻炼体能和意志的目的，同时大大降低了对攀爬者的专业技术要求，在安全有充分保障的前提下，让普通人也驰骋悬崖，会当凌绝顶，获得极大的精神享受。"}}, {"title": "南江水上欢乐园", "address": "贵阳市开阳县南江乡毛家院村", "image": "", "rank": 5, "time": 2, "location": {"lat": 26.983655995840735, "lng": 106.9780352757127}, "feature": {"sight_features": "", "sight_content": "南江水上欢乐谷，不光拥有西南地区最大最刺激的海啸池，还配套有巨兽碗、大喇叭、360度玻璃滑道、成人泥巴浴、儿童水寨、飞人滑梯、冲天大回旋、运动式环流河、空中冲浪、空中滑索、急速漂流等共计23个纯玩式项目，让所有游客一票玩到嗨。\n南江水上乐园的海啸池，浪可高达四米；惊险刺激的彩虹滑梯，高速滑梯以及飞人滑梯；环流河和儿童水寨；现代农业集绿色餐饮一体的生态餐厅和自助烧烤；还有让你high到不想回家的夜场。"}}, {"title": "水东田园骑行基地", "address": "贵阳市开阳县南江乡苗寨村", "image": "", "rank": 6, "time": 2, "location": {"lat": 26.936261890471204, "lng": 106.97571730524332}, "feature": {"sight_features": "", "sight_content": ""}}, {"title": "南江大峡谷漂流", "address": "贵阳市开阳县南江乡龙广村", "image": "", "rank": 7, "time": 2, "location": {"lat": 26.950442363867854, "lng": 106.98336491062366}, "feature": {"sight_features": "", "sight_content": "南江峡谷漂流针对不同人群分为“休闲漂流”和“激情漂流”两种，休闲漂流全程5公里，从漂流起点出发，沿途经过水落亭台、喇叭口码头、操子塘等地到达休闲漂终点，河水相对较平缓，全程有惊无险，比较适合小孩与老人。激情漂流全程约7公里左右，沿途经过南江大佛、石上森林、发财树等地到达一八0激情漂终点，相当惊险刺激，适合热衷挑战自我突破极限的漂流一族。"}}, {"title": "青龙十里画廊", "address": "贵阳市开阳县开阳县禾丰乡至南江乡青龙河之间", "image": "", "rank": 8, "time": 5.5, "location": {"lat": 26.955892394569705, "lng": 106.9722475714664}, "feature": {"sight_features": "", "sight_content": ""}}, {"title": "水头寨", "address": "贵阳市开阳县开阳县禾丰乡马头村", "image": "", "rank": 9, "time": 2, "location": {"lat": 26.93985390868349, "lng": 106.92203775966425}, "feature": {"sight_features": "", "sight_content": ""}}, {"title": "开阳县图书馆", "address": "三号路", "image": "", "rank": 10, "time": 2, "location": {"lat": 38.96128670179506, "lng": 117.1760853146897}, "feature": {"sight_features": "", "sight_content": ""}}, {"title": "图书馆(一中分馆)", "address": "305省道", "image": "", "rank": 11, "time": 2, "location": {"lat": 38.97180225572126, "lng": 112.6319987223776}, "feature": {"sight_features": "", "sight_content": ""}}, {"title": "长官司酥李休闲观光采摘园", "address": "172县道长官司酥李休闲观光采摘园", "image": "", "rank": 12, "time": 2, "location": {"lat": 40.048799312809685, "lng": 116.16998961580559}, "feature": {"sight_features": "", "sight_content": ""}}, {"title": "贵阳开阳云山茶海度假村", "address": "贵州省贵阳市开阳县", "image": "", "rank": 13, "time": 0.75, "location": {"lat": 27.06367357395087, "lng": 106.97155955927653}, "feature": {"sight_features": "", "sight_content": ""}}, {"title": "麻子林渡假村", "address": "一二九县道鱼上小学斜对面", "image": "", "rank": 14, "time": 2, "location": {"lat": 27.03667692084948, "lng": 106.93914506823128}, "feature": {"sight_features": "", "sight_content": ""}}, {"title": "开阳快铁站前广场", "address": "贵阳市开阳县云开二级公路开阳快铁站", "image": "", "rank": 15, "time": 7.5, "location": {"lat": 27.047095945332885, "lng": 106.98095861965488}, "feature": {"sight_features": "", "sight_content": ""}}, {"title": "三只小羊游乐场", "address": "贵州省贵阳市开阳县南山社区服务中心城关镇城北路万象君汇购物中心", "image": "", "rank": 16, "time": 2, "location": {"lat": 27.066211548213005, "lng": 106.96994808003967}, "feature": {"sight_features": "", "sight_content": ""}}, {"title": "开阳县文化馆演出剧场", "address": "文星路", "image": "", "rank": 17, "time": 2, "location": {"lat": 31.839885532520825, "lng": 120.47719436115408}, "feature": {"sight_features": "", "sight_content": ""}}, {"title": "星期六儿童成长主题乐园", "address": "贵州省贵阳市开阳县云开南路20", "image": "", "rank": 18, "time": null, "location": {"lat": 27.06225500125608, "lng": 106.97756579610078}, "feature": {"sight_features": "", "sight_content": ""}}, {"title": "开阳县历史文化公园", "address": "贵州省贵阳市开阳县东大街1号", "image": "", "rank": 19, "time": 2, "location": {"lat": 27.05596627315249, "lng": 106.98993835102132}, "feature": {"sight_features": "", "sight_content": ""}}, {"title": "开阳烈士陵园", "address": "铜仁路2", "image": "", "rank": 20, "time": 3.0, "location": {"lat": 31.229045020832945, "lng": 121.45791063421073}, "feature": {"sight_features": "", "sight_content": ""}}, {"title": "田坝庄园(水上乐园)", "address": "贵州省贵阳市开阳县X137", "image": "", "rank": 21, "time": 2, "location": {"lat": 27.06367357395087, "lng": 106.97155955927653}, "feature": {"sight_features": "", "sight_content": ""}}, {"title": "张学良将军幽禁地", "address": "贵州省贵阳市开阳县双流镇刘育兖矿大道张学良将军幽禁处", "image": "", "rank": 22, "time": 2, "location": {"lat": 27.086516473884053, "lng": 106.91808944105077}, "feature": {"sight_features": "", "sight_content": ""}}, {"title": "洋水影剧院", "address": "贵阳市开阳县金中镇196", "image": "", "rank": 23, "time": null, "location": {"lat": 27.11453561660842, "lng": 106.8431944265037}, "feature": {"sight_features": "", "sight_content": ""}}, {"title": "云开广场", "address": "开州大道", "image": "", "rank": 24, "time": 2, "location": {"lat": 31.172224876914306, "lng": 108.4056640796836}, "feature": {"sight_features": "", "sight_content": ""}}, {"title": "开阳县历史文化博览公园", "address": "陵园路", "image": "", "rank": 25, "time": 2, "location": {"lat": 39.621393536285936, "lng": 118.17592745707117}, "feature": {"sight_features": "", "sight_content": ""}}, {"title": "南江水上欢乐谷温泉", "address": "贵州省开阳县南江乡毛家院村（云开二级公路旁）", "image": "", "rank": 26, "time": null, "location": {"lat": 26.923243334488262, "lng": 106.97281861170264}, "feature": {"sight_features": "", "sight_content": ""}}, {"title": "七色花美术室", "address": "城东路", "image": "", "rank": 27, "time": 2, "location": {"lat": 38.06940165046618, "lng": 112.68869434130043}, "feature": {"sight_features": "", "sight_content": ""}}, {"title": "金竹山庄", "address": "305省道", "image": "", "rank": 28, "time": 2, "location": {"lat": 38.97180225572126, "lng": 112.6319987223776}, "feature": {"sight_features": "", "sight_content": ""}}, {"title": "图书馆", "address": "中西路", "image": "", "rank": 29, "time": 1.0, "location": {"lat": 29.47997937808624, "lng": 113.27974462296854}, "feature": {"sight_features": "", "sight_content": ""}}, {"title": "七色花少儿画苑", "address": "正街12号", "image": "", "rank": 30, "time": 2, "location": {"lat": 30.660045830061375, "lng": 114.43065549569174}, "feature": {"sight_features": "", "sight_content": ""}}, {"title": "三十三中游泳池", "address": "青山路", "image": "", "rank": 31, "time": 2, "location": {"lat": 41.87034034443168, "lng": 123.39673780365717}, "feature": {"sight_features": "", "sight_content": ""}}, {"title": "清龙河漂流", "address": "高中商务大厦14楼", "image": "", "rank": 32, "time": 2, "location": {"lat": 39.6612773076521, "lng": 122.97370210998042}, "feature": {"sight_features": "", "sight_content": ""}}, {"title": "钓鱼翁(龙岗鱼具专卖店)", "address": "和平街国朝电器北侧", "image": "", "rank": 33, "time": 2, "location": {"lat": 26.883054154877215, "lng": 107.11904129714316}, "feature": {"sight_features": "", "sight_content": ""}}, {"title": "歌舞乐队(建筑村卫生室东)", "address": "永泉大街附近X149", "image": "", "rank": 34, "time": 2, "location": {"lat": 27.15066250662409, "lng": 106.92902785392}, "feature": {"sight_features": "", "sight_content": ""}}, {"title": "喜城乐队", "address": "遵义路191附近", "image": "", "rank": 35, "time": 2, "location": {"lat": 26.567518556222716, "lng": 106.71261994546542}, "feature": {"sight_features": "", "sight_content": ""}}, {"title": "心兰乐队", "address": "166县道附近", "image": "", "rank": 36, "time": 2, "location": {"lat": 46.92981101303701, "lng": 126.96610154380144}, "feature": {"sight_features": "", "sight_content": ""}}, {"title": "红日乐队", "address": "城南路附近贵阳路", "image": "", "rank": 37, "time": 2, "location": {"lat": 27.060016519344867, "lng": 106.97525420000731}, "feature": {"sight_features": "", "sight_content": ""}}, {"title": "唐青歌舞团", "address": "环城西路附近", "image": "", "rank": 38, "time": 2, "location": {"lat": 36.613902946668574, "lng": 114.48863807649496}, "feature": {"sight_features": "", "sight_content": ""}}, {"title": "贵阳石牌坊", "address": "贵州省贵阳市花溪区青岩镇", "image": "", "rank": 39, "time": 0.75, "location": {"lat": 26.33022600305812, "lng": 106.69135613867796}, "feature": {"sight_features": "", "sight_content": ""}}, {"title": "开阳县双永林场", "address": "贵阳市-开阳县-民兴路50", "image": "", "rank": 40, "time": 2, "location": {"lat": 27.06591997696091, "lng": 106.97560800032721}, "feature": {"sight_features": "", "sight_content": ""}}, {"title": "贵阳市河流界碑", "address": "贵阳市-开阳县-南江乡龙广村南江大峡谷内", "image": "", "rank": 41, "time": 0.75, "location": {"lat": 26.957276971588712, "lng": 107.00626038516604}, "feature": {"sight_features": "", "sight_content": ""}}, {"title": "楠木渡大桥", "address": "遵义市-播州区-楠木渡大桥", "image": "", "rank": 42, "time": 2, "location": {"lat": 27.357975495062345, "lng": 107.0084261871736}, "feature": {"sight_features": "", "sight_content": ""}}, {"title": "坛老徐", "address": "贵阳市-开阳县-S305(开州大道", "image": "", "rank": 43, "time": 2, "location": {"lat": 27.061316986115873, "lng": 106.98037132098725}, "feature": {"sight_features": "", "sight_content": ""}}, {"title": "倒牛坎", "address": "贵阳市-开阳县", "image": "", "rank": 44, "time": 2, "location": {"lat": 27.06367357395087, "lng": 106.97155955927653}, "feature": {"sight_features": "", "sight_content": ""}}, {"title": "马头寨古建筑群", "address": "贵州省开阳县禾丰乡", "image": "", "rank": 45, "time": 2, "location": {"lat": 26.94397411013007, "lng": 106.92718461455655}, "feature": {"sight_features": "", "sight_content": ""}}]}