{"cityName": "开远", "days": 2, "cityImage": "", "spots": [{"title": "南洞名胜风景保护区", "address": "红河市开远市植物园南侧（十八子水寨）", "image": "", "rank": 1, "time": 2.0, "location": {"lat": 23.65490824643779, "lng": 103.29117152338638}, "feature": {"sight_features": "", "sight_content": "开远南洞位于开远市以南约8公里的崇山峻岭之下，南洞是三个终年流水潺潺的泉潭，其中有一个可划船而入。洞内不仅清凉宜人，还可以欣赏到石芽、石笋、石柱等钟乳石奇观，此泉水是开远当地居民饮用及灌溉农田的主要水源洞外古木参天，山石峭立。明嘉靖三年，谪滇状元杨慎游至此，在洞侧题“南洞”二字，洞名一直沿用至今。明万历二年，云南巡抚邹应龙作《通灵洞记》，所以，又得别称“通灵洞”。"}}, {"title": "开远南桥", "address": "云南省开远市泸江之上", "image": "", "rank": 2, "time": 0.75, "location": {"lat": 23.779585593679645, "lng": 103.26418076655084}, "feature": {"sight_features": "", "sight_content": ""}}, {"title": "红河七孔桥", "address": "云南省开远市南昆河铁路线249公里处", "image": "", "rank": 3, "time": 2, "location": {"lat": 23.71990779691196, "lng": 103.27355323708609}, "feature": {"sight_features": "", "sight_content": ""}}, {"title": "西龙潭三教殿", "address": "云南省开远市城西部", "image": "", "rank": 4, "time": 2, "location": {"lat": 23.71990779691196, "lng": 103.27355323708609}, "feature": {"sight_features": "", "sight_content": ""}}, {"title": "云窝寺", "address": "红河哈尼族彝族自治州开远市中和营乡响水村", "image": "", "rank": 5, "time": 2, "location": {"lat": 23.79201162656819, "lng": 103.62339068223461}, "feature": {"sight_features": "", "sight_content": ""}}, {"title": "长虹桥", "address": "云南省开远市北乐百道办事处田房村", "image": "", "rank": 6, "time": 1.5, "location": {"lat": 23.71990779691196, "lng": 103.27355323708609}, "feature": {"sight_features": "", "sight_content": ""}}, {"title": "密室逃脱", "address": "浙商步行街2栋3层", "image": "", "rank": 7, "time": 2, "location": {"lat": 31.4707878758284, "lng": 104.75488769018823}, "feature": {"sight_features": "", "sight_content": ""}}, {"title": "图书馆", "address": "灵泉东路188号", "image": "", "rank": 8, "time": 1.0, "location": {"lat": 23.71430290191481, "lng": 103.28100327544078}, "feature": {"sight_features": "", "sight_content": ""}}, {"title": "热带植物园", "address": "白大段", "image": "", "rank": 9, "time": 2.0, "location": {"lat": 30.04125679595655, "lng": 120.26910497993862}, "feature": {"sight_features": "", "sight_content": ""}}, {"title": "开远市地灵蔬菜种植专业合作社", "address": "024乡道附近", "image": "", "rank": 10, "time": 2, "location": {"lat": 41.5613547439503, "lng": 115.83354788196739}, "feature": {"sight_features": "", "sight_content": ""}}, {"title": "灰土寨钓鱼休闲区", "address": "环城南路东100米", "image": "", "rank": 11, "time": null, "location": {"lat": 30.913075009379753, "lng": 121.48090402855276}, "feature": {"sight_features": "", "sight_content": ""}}, {"title": "浅水湾水族馆", "address": "仁丫段与羊街集镇段北行60米路西", "image": "", "rank": 12, "time": 2, "location": {"lat": 23.582649555468258, "lng": 103.37191993615996}, "feature": {"sight_features": "", "sight_content": ""}}, {"title": "开远市开心城堡儿童乐园", "address": "新景盛世F2", "image": "", "rank": 13, "time": 2, "location": {"lat": 23.722348844001313, "lng": 103.2612837312821}, "feature": {"sight_features": "", "sight_content": ""}}, {"title": "新寨清真寺", "address": "红河哈尼族彝族自治州开远市", "image": "", "rank": 14, "time": 2, "location": {"lat": 23.71990779691196, "lng": 103.27355323708609}, "feature": {"sight_features": "", "sight_content": ""}}, {"title": "启智乐园", "address": "人民中路55号华信财富中心4楼", "image": "", "rank": 15, "time": 7.5, "location": {"lat": 23.715692750645417, "lng": 103.2539765783001}, "feature": {"sight_features": "", "sight_content": ""}}, {"title": "大庄清真寺伊斯兰教经文学校", "address": "云南省红河哈尼族彝族自治州开远市XG08", "image": "", "rank": 16, "time": 2, "location": {"lat": 23.71990779691196, "lng": 103.27355323708609}, "feature": {"sight_features": "", "sight_content": ""}}, {"title": "热带植物园度假村", "address": "环城南路附近", "image": "", "rank": 17, "time": 2, "location": {"lat": 32.343803277365524, "lng": 118.8527646843988}, "feature": {"sight_features": "", "sight_content": ""}}, {"title": "九龙寺", "address": "楷乐段附近", "image": "", "rank": 18, "time": 1.0, "location": {"lat": 23.814845079656873, "lng": 103.24933626800335}, "feature": {"sight_features": "", "sight_content": ""}}, {"title": "开远观光小火车", "address": "红河哈尼族彝族自治州开远市彩云路20号（开远火车站）", "image": "", "rank": 19, "time": 0.75, "location": {"lat": 23.718739323529398, "lng": 103.25535042339067}, "feature": {"sight_features": "", "sight_content": "开远观光小火车从开远火车站出发， 车厢内均按当年车厢的原貌恢复，复古的车厢内，满满的文化底蕴。车厢内配置有WIFI，还设有电风扇，两侧窗户是打开的，方便乘客观看风景。设置7个站点，依次为：开远站，祥云路站，泸江河站，1909广场站，七孔桥站，南洞站，大塔站。"}}, {"title": "婴泳宝贝馆", "address": "哈尼族彝族自治州落云路黎明溪谷6,7号铺面", "image": "", "rank": 20, "time": 2, "location": {"lat": 23.72235624961775, "lng": 103.25815947951608}, "feature": {"sight_features": "", "sight_content": ""}}, {"title": "金贝乐园", "address": "一行路35号", "image": "", "rank": 21, "time": 2, "location": {"lat": 23.723340838071863, "lng": 103.28267172611137}, "feature": {"sight_features": "", "sight_content": ""}}, {"title": "智源庄园", "address": "昆河路西侧第二行政中心旁(第二行政中心)", "image": "", "rank": 22, "time": 2, "location": {"lat": 43.65993497603483, "lng": 122.24968749781189}, "feature": {"sight_features": "", "sight_content": ""}}, {"title": "清华科普太阳能", "address": "灵泉西路145号附近", "image": "", "rank": 23, "time": 2, "location": {"lat": 23.71328266824231, "lng": 103.25980332380216}, "feature": {"sight_features": "", "sight_content": ""}}, {"title": "马街文庙", "address": "云南省开远市小龙潭镇马街村", "image": "", "rank": 24, "time": 2, "location": {"lat": 23.822871958531127, "lng": 103.1632985263887}, "feature": {"sight_features": "", "sight_content": ""}}, {"title": "归圣寺", "address": "云南省开远市小龙潭乡西狮子山", "image": "", "rank": 25, "time": 2, "location": {"lat": 23.71990779691196, "lng": 103.27355323708609}, "feature": {"sight_features": "", "sight_content": ""}}, {"title": "青年路片区商业步行街", "address": "云南省开远市西中路", "image": "", "rank": 26, "time": 2, "location": {"lat": 23.715016589531604, "lng": 103.24872353381521}, "feature": {"sight_features": "", "sight_content": ""}}, {"title": "凤凰山水网球场", "address": "红河哈尼族彝族自治州-开远市-智源路延长线附近", "image": "", "rank": 27, "time": 2, "location": {"lat": 23.708111991039058, "lng": 103.27400014407715}, "feature": {"sight_features": "", "sight_content": ""}}, {"title": "乐度台球娱乐会所", "address": "红河哈尼族彝族自治州-开远市-迎晖路", "image": "", "rank": 28, "time": 2, "location": {"lat": 23.71990779691196, "lng": 103.27355323708609}, "feature": {"sight_features": "", "sight_content": ""}}, {"title": "羊街乡", "address": "云南省红河哈尼族彝族自治州开远市羊街乡", "image": "", "rank": 29, "time": 2, "location": {"lat": 23.58068740532536, "lng": 103.36574801317259}, "feature": {"sight_features": "", "sight_content": ""}}]}