{"cityName": "开原", "days": 2, "cityImage": "", "spots": [{"title": "象牙山旅游景区", "address": "铁岭市开原市松山镇松山乡英城子村", "image": "", "rank": 1, "time": 5.0, "location": {"lat": 42.373680498906566, "lng": 124.271231170414}, "feature": {"sight_features": "", "sight_content": ""}}, {"title": "砬子山", "address": "铁岭市开原市", "image": "", "rank": 2, "time": null, "location": {"lat": 42.552079074778554, "lng": 124.04456886374565}, "feature": {"sight_features": "", "sight_content": ""}}, {"title": "水岸花海", "address": "铁岭市开原市滨河景观大道滨水新城管委会西100米", "image": "", "rank": 3, "time": 2, "location": {"lat": 42.552079074778554, "lng": 124.04456886374565}, "feature": {"sight_features": "", "sight_content": ""}}, {"title": "金水湾漂流", "address": "开原市下肥镇金水湾漂流度假区", "image": "", "rank": 4, "time": 2, "location": {"lat": 42.30855972331446, "lng": 124.37125538781345}, "feature": {"sight_features": "", "sight_content": ""}}, {"title": "乡村爱情拍摄基地", "address": "铁岭市开原市松山镇康屯村", "image": "", "rank": 5, "time": 2, "location": {"lat": 42.3973558859217, "lng": 124.22163889332826}, "feature": {"sight_features": "", "sight_content": ""}}, {"title": "宏宇榛子合作社", "address": "李家台镇政府南800米", "image": "", "rank": 6, "time": 2, "location": {"lat": 42.369210032742465, "lng": 124.669497621264}, "feature": {"sight_features": "", "sight_content": ""}}, {"title": "80-Post真人密室逃脱", "address": "哈大路152号(102国道,汽配城道东)", "image": "", "rank": 7, "time": 2, "location": {"lat": 41.59031862561122, "lng": 123.40995383960819}, "feature": {"sight_features": "", "sight_content": ""}}, {"title": "福隆源生态园", "address": "双井子镇辽河北", "image": "", "rank": 8, "time": 2, "location": {"lat": 42.48170205570725, "lng": 123.74021439162208}, "feature": {"sight_features": "", "sight_content": ""}}, {"title": "雨田彩叶基地", "address": "辽开线", "image": "", "rank": 9, "time": 2, "location": {"lat": 42.69781292259984, "lng": 124.30051384327558}, "feature": {"sight_features": "", "sight_content": ""}}, {"title": "开原金帝豪温泉", "address": "铁岭市开原市长征街18号", "image": "", "rank": 10, "time": 5.0, "location": {"lat": 42.54279350385053, "lng": 124.0581620496718}, "feature": {"sight_features": "", "sight_content": ""}}, {"title": "新时尚音乐厅", "address": "辽宁省铁岭市开原市哈大路285号", "image": "", "rank": 11, "time": 2, "location": {"lat": 42.55274643287525, "lng": 124.06294000462846}, "feature": {"sight_features": "", "sight_content": ""}}, {"title": "关圣禅寺下院", "address": "铁岭市开原市松山镇松山堡境内象牙山风景区内", "image": "", "rank": 12, "time": 2, "location": {"lat": 42.3737438020932, "lng": 124.2049004029471}, "feature": {"sight_features": "", "sight_content": ""}}, {"title": "关圣禅寺", "address": "辽宁省铁岭市开原市彰桓线", "image": "", "rank": 13, "time": 2, "location": {"lat": 42.392499288313566, "lng": 124.22346899946577}, "feature": {"sight_features": "", "sight_content": ""}}, {"title": "嘟啦啦儿童成长中心", "address": "荧星艺术中心3层", "image": "", "rank": 14, "time": 2, "location": {"lat": 42.549126721108735, "lng": 124.0525000929238}, "feature": {"sight_features": "", "sight_content": ""}}, {"title": "鑫欣缘水族馆", "address": "辽宁省铁岭市开原市柴市路3-8号", "image": "", "rank": 15, "time": 2, "location": {"lat": 42.543416560728566, "lng": 124.0544990023446}, "feature": {"sight_features": "", "sight_content": ""}}, {"title": "滨水新城珍稀植物园", "address": "102国道", "image": "", "rank": 16, "time": 2, "location": {"lat": 39.9583743375638, "lng": 116.91102159370762}, "feature": {"sight_features": "", "sight_content": ""}}, {"title": "咸州古城", "address": "辽宁省开原市老城镇 112522", "image": "", "rank": 17, "time": 2, "location": {"lat": 42.61394847299375, "lng": 124.09601540060744}, "feature": {"sight_features": "", "sight_content": ""}}, {"title": "财神殿", "address": "铁岭市开原市松山镇松山堡境内象牙山风景区关圣禅寺下院内", "image": "", "rank": 18, "time": null, "location": {"lat": 42.3737438020932, "lng": 124.2049004029471}, "feature": {"sight_features": "", "sight_content": ""}}, {"title": "老四水族馆", "address": "辽宁省铁岭市开原市前进大街182号", "image": "", "rank": 19, "time": 2, "location": {"lat": 42.54893927587592, "lng": 124.05026609695103}, "feature": {"sight_features": "", "sight_content": ""}}, {"title": "普济禅寺", "address": "铁岭市开原市", "image": "", "rank": 20, "time": 1.5, "location": {"lat": 42.552079074778554, "lng": 124.04456886374565}, "feature": {"sight_features": "", "sight_content": ""}}, {"title": "关帝庙", "address": "东德线北50米", "image": "", "rank": 21, "time": 0.5, "location": {"lat": 42.84148711172401, "lng": 124.39320712505223}, "feature": {"sight_features": "", "sight_content": ""}}, {"title": "开原白鹭洲旅游度假区", "address": "开原市黄旗寨镇增家寨村东100米路南", "image": "", "rank": 22, "time": 5.0, "location": {"lat": 42.22468486627295, "lng": 124.37287282910452}, "feature": {"sight_features": "", "sight_content": ""}}, {"title": "开原市美弗儿童成长乐园", "address": "化工南路33号-1里仁小学南原翰林风景综合市场", "image": "", "rank": 23, "time": 5.0, "location": {"lat": 36.121154209932214, "lng": 103.60177465128658}, "feature": {"sight_features": "", "sight_content": ""}}, {"title": "儿童乐园", "address": "辽宁省铁岭市开原市光明路81号", "image": "", "rank": 24, "time": 2, "location": {"lat": 42.54659529909097, "lng": 124.05489614321057}, "feature": {"sight_features": "", "sight_content": ""}}, {"title": "歌舞世界", "address": "长征街16甲", "image": "", "rank": 25, "time": 2, "location": {"lat": 42.54233501610022, "lng": 124.05823203216255}, "feature": {"sight_features": "", "sight_content": ""}}, {"title": "辽宁大河贝墓园", "address": "辽宁省铁岭市开原市富强街56号", "image": "", "rank": 26, "time": 2, "location": {"lat": 42.54389340180566, "lng": 124.04511802036154}, "feature": {"sight_features": "", "sight_content": ""}}, {"title": "老爷庙", "address": "303省道附近", "image": "", "rank": 27, "time": 2, "location": {"lat": 38.25466494631471, "lng": 114.66726867564682}, "feature": {"sight_features": "", "sight_content": ""}}, {"title": "龙国庵", "address": "靠孟线北50米", "image": "", "rank": 28, "time": 2, "location": {"lat": 42.35685020634375, "lng": 124.14176437907726}, "feature": {"sight_features": "", "sight_content": ""}}, {"title": "普度寺", "address": "辽宁省铁岭市开原市", "image": "", "rank": 29, "time": 1.5, "location": {"lat": 42.552079074778554, "lng": 124.04456886374565}, "feature": {"sight_features": "", "sight_content": ""}}, {"title": "百丽山庄", "address": "金山线附近", "image": "", "rank": 30, "time": 2, "location": {"lat": 42.385515111429406, "lng": 124.01882277116835}, "feature": {"sight_features": "", "sight_content": ""}}, {"title": "教堂", "address": "103省道附近", "image": "", "rank": 31, "time": 2, "location": {"lat": 39.16211906866746, "lng": 117.4666343312951}, "feature": {"sight_features": "", "sight_content": ""}}, {"title": "开原市基督教会", "address": "北环路附近", "image": "", "rank": 32, "time": 1.0, "location": {"lat": 38.0818836383811, "lng": 114.69308879219136}, "feature": {"sight_features": "", "sight_content": ""}}, {"title": "天主堂", "address": "303省道南50米", "image": "", "rank": 33, "time": 0.4, "location": {"lat": 38.25431075864957, "lng": 114.66726867564682}, "feature": {"sight_features": "", "sight_content": ""}}, {"title": "开原市图书馆", "address": "迎宾路80号", "image": "", "rank": 34, "time": 1.5, "location": {"lat": 42.552079074778554, "lng": 124.04456886374565}, "feature": {"sight_features": "", "sight_content": ""}}, {"title": "郭允中个人作品展", "address": "铁东街20-23号", "image": "", "rank": 35, "time": 2, "location": {"lat": 44.422871620365754, "lng": 126.96073645348125}, "feature": {"sight_features": "", "sight_content": ""}}, {"title": "欢乐谷童趣乐园", "address": "石台路50号", "image": "", "rank": 36, "time": 2, "location": {"lat": 30.68385071245702, "lng": 117.50769407954517}, "feature": {"sight_features": "", "sight_content": ""}}, {"title": "开原书画院", "address": "新华路143号", "image": "", "rank": 37, "time": 5.0, "location": {"lat": 39.56323318981213, "lng": 118.1064952592887}, "feature": {"sight_features": "", "sight_content": ""}}, {"title": "植物园", "address": "青年路58号", "image": "", "rank": 38, "time": 1.0, "location": {"lat": 37.85467230164098, "lng": 112.57285372795633}, "feature": {"sight_features": "", "sight_content": ""}}, {"title": "American Tourister(新玛特店)", "address": "铁岭新玛特5F", "image": "", "rank": 39, "time": 2, "location": {"lat": 42.55276803845896, "lng": 124.04575169764455}, "feature": {"sight_features": "", "sight_content": ""}}, {"title": "开原大戏院-二人转表演", "address": "迎宾路55号", "image": "", "rank": 40, "time": 5.0, "location": {"lat": 42.548968791297604, "lng": 124.04318916349932}, "feature": {"sight_features": "", "sight_content": ""}}, {"title": "马赛马拉主题乐园", "address": "铁岭市开原市滨水新城珍稀植物园北停车场", "image": "", "rank": 41, "time": 2, "location": {"lat": 42.59441664782548, "lng": 124.07379837219224}, "feature": {"sight_features": "", "sight_content": ""}}, {"title": "时尚体验街", "address": "辽宁省开原市孙台路附近", "image": "", "rank": 42, "time": 2, "location": {"lat": 42.543522767352904, "lng": 124.04471668351053}, "feature": {"sight_features": "", "sight_content": ""}}, {"title": "开原北方鞋城", "address": "辽宁省开原市303省道附近", "image": "", "rank": 43, "time": 5.0, "location": {"lat": 42.331817062512826, "lng": 124.42559978818261}, "feature": {"sight_features": "", "sight_content": ""}}, {"title": "千家福商业街", "address": "辽宁省开原市102国道附近", "image": "", "rank": 44, "time": 2, "location": {"lat": 42.614392432187394, "lng": 124.03992121069813}, "feature": {"sight_features": "", "sight_content": ""}}, {"title": "开原商业步行街", "address": "辽宁省开原市303省道附近", "image": "", "rank": 45, "time": 2, "location": {"lat": 42.331817062512826, "lng": 124.42559978818261}, "feature": {"sight_features": "", "sight_content": ""}}]}