{"cityName": "喀喇沁旗", "days": null, "cityImage": "", "spots": [{"title": "喀喇沁亲王府", "address": "赤峰市喀喇沁旗王府博物馆", "image": "", "rank": 1, "time": 2.5, "location": {"lat": 41.93221433564327, "lng": 118.71047368449993}, "feature": {"sight_features": "", "sight_content": ""}}, {"title": "美林谷", "address": "赤峰市喀喇沁旗美林镇西南部", "image": "", "rank": 2, "time": 3.0, "location": {"lat": 41.660413736992226, "lng": 118.36677666224426}, "feature": {"sight_features": "", "sight_content": ""}}, {"title": "康宁寺", "address": "中国内蒙古自治区赤峰市喀喇沁旗", "image": "", "rank": 3, "time": 1.0, "location": {"lat": 41.93221433564327, "lng": 118.71047368449993}, "feature": {"sight_features": "", "sight_content": ""}}, {"title": "长盛农家", "address": "美林镇美林谷酒店旁", "image": "", "rank": 4, "time": 2, "location": {"lat": 41.660413736992226, "lng": 118.36677666224426}, "feature": {"sight_features": "", "sight_content": ""}}, {"title": "喀喇沁旗兴美种植专业合作社", "address": "美林村美林谷滑雪场西500米(美林谷滑雪场)", "image": "", "rank": 5, "time": 3.0, "location": {"lat": 41.692973620816105, "lng": 118.2911727894047}, "feature": {"sight_features": "", "sight_content": ""}}, {"title": "垂钓园", "address": "206省道东50米", "image": "", "rank": 6, "time": 2, "location": {"lat": 40.08163878542396, "lng": 117.10479938713142}, "feature": {"sight_features": "", "sight_content": ""}}, {"title": "茅荆坝国家森林公园", "address": "内蒙古自治区赤峰市喀喇沁旗承赤线", "image": "", "rank": 7, "time": 2, "location": {"lat": 41.62399740382843, "lng": 118.24776199417728}, "feature": {"sight_features": "", "sight_content": ""}}, {"title": "喀喇沁旗文物馆", "address": "内蒙古自治区喀喇沁旗锦山镇锦山街 024407", "image": "", "rank": 8, "time": 1.5, "location": {"lat": 41.942127680874165, "lng": 118.71703607574199}, "feature": {"sight_features": "", "sight_content": ""}}, {"title": "喀旗旺业甸自然风景区", "address": "内蒙古自治区喀喇沁旗西北部 025350", "image": "", "rank": 9, "time": 2, "location": {"lat": 41.93221433564327, "lng": 118.71047368449993}, "feature": {"sight_features": "", "sight_content": ""}}, {"title": "心净佛", "address": "锦山市场北门东侧", "image": "", "rank": 10, "time": 2, "location": {"lat": 45.09079648385992, "lng": 128.93928716528728}, "feature": {"sight_features": "", "sight_content": ""}}, {"title": "硕硕儿童乐园", "address": "内蒙古自治区赤峰市喀喇沁旗河滨北街95-2", "image": "", "rank": 11, "time": 2, "location": {"lat": 41.937671043033454, "lng": 118.71534519528055}, "feature": {"sight_features": "", "sight_content": ""}}, {"title": "月牙山庄", "address": "内蒙古自治区赤峰市喀喇沁旗十家满族乡赤凌一级公路月牙山溶洞", "image": "", "rank": 12, "time": 2, "location": {"lat": 42.0541119765441, "lng": 119.04292245034627}, "feature": {"sight_features": "", "sight_content": ""}}, {"title": "锦东村文化体育广场", "address": "锦山大街东50米", "image": "", "rank": 13, "time": 2, "location": {"lat": 40.118424100883175, "lng": 124.37610865221255}, "feature": {"sight_features": "", "sight_content": ""}}, {"title": "中国清代蒙古王府博物馆", "address": "内蒙古自治区赤峰市喀喇沁旗王爷府镇喀喇沁亲王府", "image": "", "rank": 14, "time": 1.5, "location": {"lat": 41.8456810555607, "lng": 118.51378992934461}, "feature": {"sight_features": "", "sight_content": ""}}, {"title": "冰瀑景区", "address": "230县道马鞍山国家森林公园附近", "image": "", "rank": 15, "time": 2.5, "location": {"lat": 31.676265597609103, "lng": 118.5135795794315}, "feature": {"sight_features": "", "sight_content": ""}}, {"title": "喀喇沁旗龙泉寺旅游区", "address": "锦山镇西北三公里", "image": "", "rank": 16, "time": 3.0, "location": {"lat": 19.966237206322617, "lng": 110.68854999009132}, "feature": {"sight_features": "", "sight_content": ""}}, {"title": "赤峰德比瑞种植基地(西北门)", "address": "206省道东50米", "image": "", "rank": 17, "time": 2, "location": {"lat": 40.08163878542396, "lng": 117.10479938713142}, "feature": {"sight_features": "", "sight_content": ""}}, {"title": "富润德斯画艺馆", "address": "临潢大街东200米", "image": "", "rank": 18, "time": 2, "location": {"lat": 42.25726915851586, "lng": 118.90454576909694}, "feature": {"sight_features": "", "sight_content": ""}}, {"title": "亚太森林组织多功能林业管理站暨...", "address": "美林镇大广高速", "image": "", "rank": 19, "time": 2, "location": {"lat": 30.253799091964453, "lng": 115.04059321677478}, "feature": {"sight_features": "", "sight_content": ""}}, {"title": "锦山龙泉寺", "address": "内蒙古自治区喀喇沁旗锦山镇西北三公里", "image": "", "rank": 20, "time": 2, "location": {"lat": 41.9569136641367, "lng": 118.75567642045695}, "feature": {"sight_features": "", "sight_content": ""}}, {"title": "锡伯河", "address": "内蒙古自治区喀喇沁旗龙山镇", "image": "", "rank": 21, "time": 2, "location": {"lat": 42.023162415633216, "lng": 118.78171550974922}, "feature": {"sight_features": "", "sight_content": ""}}, {"title": "福会寺", "address": "内蒙古自治区喀喇沁旗王爷府镇", "image": "", "rank": 22, "time": 2, "location": {"lat": 41.84833764073144, "lng": 118.52042647750311}, "feature": {"sight_features": "", "sight_content": ""}}, {"title": "灵悦寺", "address": "内蒙古自治区喀喇沁旗锦山镇", "image": "", "rank": 23, "time": 2, "location": {"lat": 41.9569136641367, "lng": 118.78262558575629}, "feature": {"sight_features": "", "sight_content": ""}}, {"title": "柴禾栏子", "address": "赤峰市-喀喇沁旗", "image": "", "rank": 24, "time": 2, "location": {"lat": 41.93221433564327, "lng": 118.71047368449993}, "feature": {"sight_features": "", "sight_content": ""}}, {"title": "潘家营子", "address": "赤峰市-喀喇沁旗", "image": "", "rank": 25, "time": 2, "location": {"lat": 41.93221433564327, "lng": 118.71047368449993}, "feature": {"sight_features": "", "sight_content": ""}}]}