{"cityName": "康定", "days": 2, "cityImage": "", "spots": [{"title": "新都桥", "address": "甘孜藏族自治州康定市", "image": "", "rank": 1, "time": null, "location": {"lat": 30.004407384261924, "lng": 101.96355522139348}, "feature": {"sight_features": "", "sight_content": ""}}, {"title": "塔公寺", "address": "甘孜藏族自治州康定县塔公乡", "image": "", "rank": 2, "time": 1.5, "location": {"lat": 30.322741186237685, "lng": 101.53106721578465}, "feature": {"sight_features": "", "sight_content": ""}}, {"title": "木格措", "address": "甘孜藏族自治州康定市雅拉乡王母村", "image": "", "rank": 3, "time": 3.5, "location": {"lat": 30.18203368375976, "lng": 101.92476160150427}, "feature": {"sight_features": "特色1 西部自然生态景观和人文风情的展现 特色2 木格措景区属青藏高原亚湿润气候区夏秋凉爽，冬春严寒 特色3 红海草原、杜鹃峡、药池沸泉、七色海、芳草坪都是亮丽风景", "sight_content": "木格措风景区又名康定情歌风景区，坐落于贡嘎山脉中段，附近有其他多个高山湖泊和温泉，原始森林、草原和雪山景观互相交融。景区面积约350平方公里，由杜鹃峡、赛马坪、七色海、药池沸泉、木格措和红海草原六个景点组成。景区以高原湖泊、原始森林、温泉、雪峰、奇山异石及长达8公里的千瀑峡，构成了秀丽多彩的景观。景点配置巧夺天工，是一处游览、娱乐、观赏、休息、疗养、健身、避暑、科考的理想胜地。\n杜鹃峡是横系康定情歌（木格措）景区的一条绚丽腰带。杜鹃峡东连七色海，西接野人海，峡谷长8公里。峡谷中，溪涧时而 奔流，时而舒缓，飞珠溅玉，溪岸两边林木葱郁，尤以原始杜鹃林引人注目。杜鹃峡将温泉、湖泊、草坪、奇峰异石和激流飞瀑 紧系在一起，峡谷内呈现出浓郁的原始自然风光。行走其间，令人心旷神怡。\n芳草坪面积约3000平方米，它像一面艳丽的地毯，铺在群山密林间。芳草如茵，野花遍地，那幽香沁人的野花会醉倒远道而来 的游客。芳草坪也是扬鞭跃马和耍坝子的天然乐园。这里山美水甜，民风淳朴。各个能歌善舞，热情奔放。"}}, {"title": "康定", "address": "四川省西部、甘孜藏族自治州东部，地跨北纬29°08′～30°46′，东经101°02′～102°30′，幅员面积1.16万平方公里", "image": "", "rank": 4, "time": 4.5, "location": {"lat": 30.004407384261924, "lng": 101.96355522139348}, "feature": {"sight_features": "", "sight_content": ""}}, {"title": "塔公草原", "address": "甘孜藏族自治州康定县境内塔公乡北侧", "image": "", "rank": 5, "time": null, "location": {"lat": 30.322741186237685, "lng": 101.53106721578465}, "feature": {"sight_features": "", "sight_content": ""}}, {"title": "折多山", "address": "甘孜藏族自治州康定县", "image": "", "rank": 6, "time": 1.0, "location": {"lat": 29.9579893491674, "lng": 101.75533059715232}, "feature": {"sight_features": "", "sight_content": ""}}, {"title": "木雅圣地景区", "address": "甘孜州康定市折多山西侧318国道贡布卡二号桥", "image": "", "rank": 7, "time": 2, "location": {"lat": 30.12109514224741, "lng": 101.80163521215195}, "feature": {"sight_features": "特色1 感受独特的藏族风俗，欣赏壮美的川西北自然风光。", "sight_content": "“木雅圣地”位于享誉世界的情歌之城——康定，在康定折多山西侧的“木雅辛康”，是甘孜州第一座以民俗风情与自然风光相结合的旅游景区，也是全国第一个以体现“藏族木雅文化”为主题的专题旅\n景区占地面积196平方公里，拥有雪山、草原、花海、河流、湖泊和木雅藏族民俗文化等众多旅游景观，核心区范围面积约100平方公里，南北纵深约31公里，东西跨度约4.5公里，景区海拔：3600米至4400米。\n在这片土地上，不仅产生过古老辉煌的木雅文化，也是藏王松赞干布的第四个王妃——木雅公主“嘉姆尊”的故乡；明、清以来康区著名的四大土司之一的“明正土司”，就是“西吴国”国王的后裔。享誉全藏的木雅前后五学者均是产生于这片土地上的高僧大德。\n景区定位于生态、文化、经济三个方面，生态以山地观光、阳光宝地、净化身体旅游为主；文化以康定市木雅文化研究探索为主；经济则以沟谷景区综合经济共同体发展为载体。 景区将致力于发展崇尚自然的旅游、民族文化的旅游、户外运动的旅游、生态绿色的旅游。"}}, {"title": "跑马山", "address": "甘孜藏族自治州康定县炉城镇东南边", "image": "", "rank": 8, "time": 2.5, "location": {"lat": 30.060303449707916, "lng": 101.96961749361913}, "feature": {"sight_features": "特色1 亘古就天设地造了这座公园。 特色2 跑马溜溜的山上，一朵溜溜的云啊。 特色3 中华西塞天外天，跑马山美景不胜收。", "sight_content": "康定的跑马山，就是大雪山的家族之一。近百年来，中外闻名，在于《康定情歌》首句：“跑马溜溜的山上，一朵溜溜的云啊！”引起的，山因歌而扬名的，世界上确也不少。跑马山是突出的一个。不过，丽日晴天，这山却常有几朵云逍遥其间，任人去自托情愫跑马山腰台地，藏名“登托”，意为垫子。北宋时在这台地山坪修建了拉姆寺（仙女寺），香火兴旺，盛时有喇嘛700余人，后焚于战火。清代，明正土司于农历五月十三日在“登托”山坪祭把山神，并举行赛马会，远近农牧民中骑术使住者，都前来参赛。赛时“登托”山坪，云集了康定城乡观众。土司头人及富室都搭设白色帐篷于林旁坪边观赏玩乐。赛时，赛者皆穿着新色，跨骑骏马。赛始，土司号令一响，赛者争先恐后向上一山坪驰去。先到顶者获首名，依次是二至五名。前五名接等级赏给不同份量的哈达、茶叶、花红，末尾者则群众戏洒粘粑面，示驱晦气。从清代至民国，赛马会年年在“登托”山坪举行。久之，康定人就叫这地方名跑马山了。\n吉祥禅院是景区最古老的寺院，禅院殊胜的历史是康定最为悠久的佛典，想听关于康定的故事可以拜访寺内的老喇嘛。香烟缭绕之中，经幡随风飘动，遥远的故事带着生动的气息悠然入心。凌云白塔是康定标志性建筑，也是康巴藏区特有的佛塔。塔高21米，常有白云缭绕其间，为跑马山添了几分神奇。传说这座佛塔始建于清代，历经多次维修加固，每十年粉刷一次，以保持其原有面貌。佛塔是藏传佛教的象征物，塔下面的“十三层”代表佛祖修炼了十三年；塔瓶上有一个梵文，分解开是十个字，由十轮金刚的心咒组成，代表着向往香巴拉极乐天堂，可以避灾避难、保佑平安。\n仙女山有很多动人的传说。有人说跑马山的仙女叫“扎西次仁玛”，是七个仙女中最小的妹妹，其他的六个仙女为姐姐，化成贡嘎山等藏区著名的六座神山。又有人说其实“跑马山”是“拉姆山”的音译，而多吉帕姆山，全称为“多吉帕姆仙山”，多吉帕姆女神，译成汉语叫“金刚亥母”。\n情歌坪是跑马山景区的核心景点，是游客的集聚地，这里可骑马、照像、穿戴民族服饰、参与弦子、锅庄互动节目。优雅动听的溜溜调、山歌联唱、情歌对唱令人陶醉。一年一度的“情歌节”、“情人节”都在这里举办活动，热闹非凡。"}}, {"title": "木雅金塔", "address": "甘孜藏族自治州康定县新都桥镇塔公乡境内", "image": "", "rank": 9, "time": 1.0, "location": {"lat": 30.322741186237685, "lng": 101.53106721578465}, "feature": {"sight_features": "", "sight_content": ""}}, {"title": "七色海", "address": "甘孜藏族自治州康定县雅拉乡康定情歌景区内", "image": "", "rank": 10, "time": 1.0, "location": {"lat": 30.08555075185063, "lng": 101.96337092593335}, "feature": {"sight_features": "", "sight_content": "七色海海拔2600米，是一个与温泉交融的高原湖泊。湖面呈月牙形，周围森林草甸环绕，湖水清澈透明，并会随阳光天气的变化而颜色变换，故名七色海。"}}, {"title": "子梅垭口", "address": "甘孜藏族自治州康定市贡嘎山乡境内", "image": "", "rank": 11, "time": 12.0, "location": {"lat": 29.519798227701365, "lng": 101.78046702196438}, "feature": {"sight_features": "", "sight_content": ""}}, {"title": "金刚寺", "address": "甘孜藏族自治州康定县", "image": "", "rank": 12, "time": 1.5, "location": {"lat": 29.9579893491674, "lng": 101.75533059715232}, "feature": {"sight_features": "", "sight_content": ""}}, {"title": "南无寺", "address": "甘孜藏族自治州康定县炉城南路", "image": "", "rank": 13, "time": 1.5, "location": {"lat": 30.04396355564031, "lng": 101.96734927669795}, "feature": {"sight_features": "", "sight_content": ""}}, {"title": "杜鹃峡", "address": "甘孜藏族自治州康定市康定情歌（木格措）景区内", "image": "", "rank": 14, "time": 1.0, "location": {"lat": 30.156131893955767, "lng": 101.85876849899383}, "feature": {"sight_features": "", "sight_content": "杜鹃峡东连七色海，西接木格措，全长8公里，是康定情歌风景区的一条绚丽的腰带。"}}, {"title": "泉华滩", "address": "甘孜藏族自治州康定市贡嘎山乡（原六巴乡）玉龙西村", "image": "", "rank": 15, "time": 2.5, "location": {"lat": 29.58735818141606, "lng": 101.68367093281994}, "feature": {"sight_features": "", "sight_content": ""}}, {"title": "药池沸泉", "address": "甘孜藏族自治州康定市康定情歌（木格措）景区内", "image": "", "rank": 16, "time": 0.75, "location": {"lat": 30.156131893955767, "lng": 101.85876849899383}, "feature": {"sight_features": "", "sight_content": ""}}, {"title": "芳草坪", "address": "甘孜藏族自治州康定市康定情歌（木格措）景区内", "image": "", "rank": 17, "time": 0.25, "location": {"lat": 30.156131893955767, "lng": 101.85876849899383}, "feature": {"sight_features": "", "sight_content": ""}}, {"title": "安觉寺", "address": "甘孜藏族自治州康定县光明路", "image": "", "rank": 18, "time": 1.5, "location": {"lat": 30.0540384738203, "lng": 101.9685379540742}, "feature": {"sight_features": "", "sight_content": ""}}, {"title": "月亮湾", "address": "甘孜藏族自治州康定市普沙绒乡境内", "image": "", "rank": 19, "time": 1.5, "location": {"lat": 29.39258259093593, "lng": 101.26663091652591}, "feature": {"sight_features": "", "sight_content": ""}}, {"title": "红海草原", "address": "甘孜藏族自治州康定县康定情歌景区内", "image": "", "rank": 20, "time": 2.0, "location": {"lat": 29.9579893491674, "lng": 101.75533059715232}, "feature": {"sight_features": "", "sight_content": "红海草原因高山湖泊—红海而得名，当地藏民将红海称之为“小海子”，以区别于被称之“大海子”的木格措。红海草原这里芳草如茵，野花遍地，让游客亲身体验那幽香沁人的格桑花就在雪山下的绝世美景。从康定到达木格措景区，可从木格措圣湖上乘坐游船，通往对岸的红海草原。"}}, {"title": "公主桥", "address": "甘孜藏族自治州康定市城南", "image": "", "rank": 21, "time": 0.15000000000000002, "location": {"lat": 30.004407384261924, "lng": 101.96355522139348}, "feature": {"sight_features": "", "sight_content": ""}}, {"title": "莲花海", "address": "甘孜藏族自治州康定县普沙绒乡苦西绒山谷中", "image": "", "rank": 22, "time": 1.0, "location": {"lat": 29.42122570285868, "lng": 101.30860830899312}, "feature": {"sight_features": "", "sight_content": ""}}, {"title": "水井子", "address": "甘孜藏族自治州康定市城镇内东大街上", "image": "", "rank": 23, "time": 0.25, "location": {"lat": 30.0557391633745, "lng": 101.97122449121032}, "feature": {"sight_features": "", "sight_content": ""}}, {"title": "野牛沟", "address": "甘孜藏族自治州康定市城北126公里的孔玉区境内", "image": "", "rank": 24, "time": 1.0, "location": {"lat": 30.546034894235458, "lng": 102.01870688580578}, "feature": {"sight_features": "", "sight_content": ""}}, {"title": "郭达山", "address": "甘孜藏族自治州康定炉城镇东北面", "image": "", "rank": 25, "time": 1.0, "location": {"lat": 30.060303449707916, "lng": 101.96961749361913}, "feature": {"sight_features": "", "sight_content": ""}}, {"title": "康定二道桥温泉", "address": "甘孜藏族自治州康定市Z002县道", "image": "", "rank": 26, "time": 1.5, "location": {"lat": 30.004407384261924, "lng": 101.96355522139348}, "feature": {"sight_features": "", "sight_content": ""}}, {"title": "雅哈垭口", "address": "甘孜藏族自治州康定市甲根坝乡及贡嘎山乡境内雅哈景区内", "image": "", "rank": 27, "time": 2.5, "location": {"lat": 29.84189669676899, "lng": 101.66858965441469}, "feature": {"sight_features": "", "sight_content": ""}}, {"title": "非物质文化遗产博物馆", "address": "甘孜藏族自治州康定县向阳街35号，跑马山景区索道下站旁", "image": "", "rank": 28, "time": 1.5, "location": {"lat": 30.05090599053909, "lng": 101.96830141855544}, "feature": {"sight_features": "", "sight_content": ""}}, {"title": "居里寺", "address": "甘孜藏族自治州康定县新都桥镇", "image": "", "rank": 29, "time": 1.5, "location": {"lat": 30.05126452805944, "lng": 101.499668518718}, "feature": {"sight_features": "", "sight_content": ""}}, {"title": "朋布西古碉", "address": "甘孜藏族自治州康定市朋布西乡境内", "image": "", "rank": 30, "time": 1.0, "location": {"lat": 29.79618000721699, "lng": 101.5612318136978}, "feature": {"sight_features": "", "sight_content": ""}}, {"title": "塔公佛学院", "address": "甘孜藏族自治州康定县塔公乡塔公村", "image": "", "rank": 31, "time": 1.5, "location": {"lat": 30.32395573623582, "lng": 101.5285323629237}, "feature": {"sight_features": "", "sight_content": ""}}, {"title": "田海子山", "address": "甘孜藏族自治州康定市的东南10公里处", "image": "", "rank": 32, "time": 0.75, "location": {"lat": 30.004407384261924, "lng": 101.96355522139348}, "feature": {"sight_features": "", "sight_content": ""}}, {"title": "贡嘎寺", "address": "甘孜藏族自治州康定县", "image": "", "rank": 33, "time": 1.5, "location": {"lat": 29.9579893491674, "lng": 101.75533059715232}, "feature": {"sight_features": "", "sight_content": ""}}, {"title": "盘盘山垭口", "address": "甘孜藏族自治州康定市境内", "image": "", "rank": 34, "time": 3.5, "location": {"lat": 30.004407384261924, "lng": 101.96355522139348}, "feature": {"sight_features": "", "sight_content": ""}}, {"title": "白海子", "address": "甘孜藏族自治州康定市老榆林乡旁", "image": "", "rank": 35, "time": 1.0, "location": {"lat": 30.004407384261924, "lng": 101.96355522139348}, "feature": {"sight_features": "", "sight_content": ""}}, {"title": "大炮南山", "address": "甘孜藏族自治州康定市境内，折多山附近。", "image": "", "rank": 36, "time": 2, "location": {"lat": 30.12109514224741, "lng": 101.80449182367367}, "feature": {"sight_features": "", "sight_content": ""}}, {"title": "扬扬拉错", "address": "甘孜藏族自治州康定市西南面，贡嘎大山系的西北角上。", "image": "", "rank": 37, "time": null, "location": {"lat": 30.004407384261924, "lng": 101.96355522139348}, "feature": {"sight_features": "", "sight_content": ""}}, {"title": "雅哈景区", "address": "甘孜州康定县甲根坝乡亚龙沟及贡嘎山乡玉龙溪村境内", "image": "", "rank": 38, "time": 1.0, "location": {"lat": 29.850045123616496, "lng": 101.56704854668665}, "feature": {"sight_features": "", "sight_content": ""}}, {"title": "鸡丑山", "address": "甘孜藏族自治州康定县", "image": "", "rank": 39, "time": 1.5, "location": {"lat": 29.9579893491674, "lng": 101.75533059715232}, "feature": {"sight_features": "", "sight_content": ""}}, {"title": "丁三哥老字号", "address": "康定县 东大街清真寺旁113号(近情歌大酒店)", "image": "", "rank": 40, "time": 2, "location": {"lat": 30.05570795935687, "lng": 101.9712105809495}, "feature": {"sight_features": "", "sight_content": ""}}, {"title": "十里长廊", "address": "四川省甘孜州康定县新都桥镇", "image": "", "rank": 41, "time": 3.5, "location": {"lat": 30.05126452805944, "lng": 101.499668518718}, "feature": {"sight_features": "", "sight_content": ""}}, {"title": "海螺沟贡嘎神汤温泉", "address": "四川贡嘎神汤国际疗养中心座落在国家级地质公园、国家 AAAA 级风景名胜区海螺沟冰川森林公园景区内", "image": "", "rank": 42, "time": 4.5, "location": {"lat": 29.295585920340546, "lng": 90.9905823724984}, "feature": {"sight_features": "", "sight_content": ""}}, {"title": "木雅演艺中心", "address": "甘孜藏族自治州康定县情歌大酒店2楼 ‎", "image": "", "rank": 43, "time": 2, "location": {"lat": 30.05570795935687, "lng": 101.9712105809495}, "feature": {"sight_features": "", "sight_content": ""}}, {"title": "村窗", "address": "康定县光明路康定宾馆楼下", "image": "", "rank": 44, "time": 2, "location": {"lat": 29.9579893491674, "lng": 101.75533059715232}, "feature": {"sight_features": "", "sight_content": ""}}, {"title": "营官藏寨", "address": "甘孜藏族自治州康定市", "image": "", "rank": 45, "time": 1.0, "location": {"lat": 30.004407384261924, "lng": 101.96355522139348}, "feature": {"sight_features": "", "sight_content": ""}}, {"title": "甘孜新都桥好摄之途度假村", "address": "甘孜州康定市新都桥镇", "image": "", "rank": 46, "time": 4.5, "location": {"lat": 30.132334237242887, "lng": 101.4651846156316}, "feature": {"sight_features": "", "sight_content": ""}}, {"title": "康定情歌广场", "address": "四川省甘孜藏族自治州康定情歌大道康定情歌广场", "image": "", "rank": 47, "time": 1.5, "location": {"lat": 30.056418743839878, "lng": 101.97051026826206}, "feature": {"sight_features": "", "sight_content": ""}}, {"title": "大草坝", "address": "四川省甘孜藏族自治州康定大草坝", "image": "", "rank": 48, "time": 2, "location": {"lat": 30.53508738835774, "lng": 101.94741160958206}, "feature": {"sight_features": "", "sight_content": ""}}, {"title": "贡噶寺", "address": "四川省康定县六巴乡子梅村", "image": "", "rank": 49, "time": 2, "location": {"lat": 29.9579893491674, "lng": 101.75533059715232}, "feature": {"sight_features": "", "sight_content": ""}}, {"title": "巴王海", "address": "甘孜藏族自治州康定与石棉县大山结合部", "image": "", "rank": 50, "time": 2, "location": {"lat": 30.004407384261924, "lng": 101.96355522139348}, "feature": {"sight_features": "", "sight_content": ""}}, {"title": "康藏木亚演绎中心", "address": "甘孜州康定县箭炉街", "image": "", "rank": 51, "time": 2, "location": {"lat": 30.059306390283485, "lng": 101.97675541213358}, "feature": {"sight_features": "", "sight_content": ""}}, {"title": "龙头沟温泉山庄", "address": "贡嘎路", "image": "", "rank": 52, "time": 2, "location": {"lat": 31.133646744314472, "lng": 121.78475257501312}, "feature": {"sight_features": "", "sight_content": ""}}, {"title": "中谷温泉", "address": "雅拉乡中谷村", "image": "", "rank": 53, "time": 2, "location": {"lat": 30.26942008806695, "lng": 101.88131039420688}, "feature": {"sight_features": "", "sight_content": ""}}, {"title": "藏文图书馆", "address": "康定县西大街42号", "image": "", "rank": 54, "time": 2, "location": {"lat": 29.9579893491674, "lng": 101.75533059715232}, "feature": {"sight_features": "", "sight_content": ""}}, {"title": "康定剧院", "address": "情歌大道康定情歌广场康定剧场", "image": "", "rank": 55, "time": 1.5, "location": {"lat": 30.056418743839878, "lng": 101.97051026826206}, "feature": {"sight_features": "", "sight_content": ""}}, {"title": "柏杨湾温泉", "address": "炉城镇白杨湾村内", "image": "", "rank": 56, "time": 2, "location": {"lat": 30.292754135937585, "lng": 106.67567569294292}, "feature": {"sight_features": "", "sight_content": ""}}, {"title": "金家河坝温泉", "address": "炉城镇老榆林村", "image": "", "rank": 57, "time": 2, "location": {"lat": 29.956456278319052, "lng": 101.97141364920525}, "feature": {"sight_features": "", "sight_content": ""}}, {"title": "荷花海国家森林公园", "address": "四川省康定县普沙绒乡 626007", "image": "", "rank": 58, "time": 2, "location": {"lat": 29.42122570285868, "lng": 101.30860830899312}, "feature": {"sight_features": "", "sight_content": ""}}, {"title": "九龙浴佛寺", "address": "四川省甘孜藏族自治州康定县跑马山", "image": "", "rank": 59, "time": 2, "location": {"lat": 30.053077936923156, "lng": 101.97552667302652}, "feature": {"sight_features": "", "sight_content": ""}}, {"title": "观德结", "address": "四川省甘孜藏族自治州康定市", "image": "", "rank": 60, "time": 2, "location": {"lat": 30.004407384261924, "lng": 101.96355522139348}, "feature": {"sight_features": "", "sight_content": ""}}]}