{"cityName": "康平", "days": 2, "cityImage": "", "spots": [{"title": "卧龙湖", "address": "沈阳市康平县", "image": "", "rank": 1, "time": 3.5, "location": {"lat": 42.7499254957194, "lng": 123.33751124938374}, "feature": {"sight_features": "", "sight_content": ""}}, {"title": "辽宁北方金沙滩国家沙漠公园", "address": "沈阳市康平县小城子镇赵家店村", "image": "", "rank": 2, "time": 1.0, "location": {"lat": 42.863634900443024, "lng": 123.19849973203728}, "feature": {"sight_features": "特色1 集观光、科研、考察、探险、摄影、沙地运动、艺术欣赏与创作、沙漠文化深度体验为一体的旅游胜地。", "sight_content": "辽宁北方金沙滩生态旅游开发沙漠公园景区位于位于内蒙古甘旗卡与辽宁康平交界处，总占地7100亩，其中沙漠占地3100亩，林地占地4000亩，2017年获得国家AAA级旅游景区授牌，是辽蒙两地联手打造的原生态景区，被誉为“北方沙湖”。这里不仅有沙漠、湖泊、清泉、果树、花草，还有数不尽的飞鸟，是一幅世外桃源的原生态画卷，沙漠与绿洲紧密相连，创造了“沙不进、绿不退、人不迁”的奇迹。这里还有契丹族的发源地，景区及周边尚有古迹。沙水相连，群鸟翱跹，既有唐代诗人王维“大漠孤烟直，长河落日圆”的粗旷豪放，又有卢汝弼“随阳沙漠雁，烟暖又思归”的美妙情趣，是难得一见的梦幻般景致。"}}, {"title": "万亩松林", "address": "沈阳市康平县海洲乡育林村", "image": "", "rank": 3, "time": 1.0, "location": {"lat": 42.94733250249656, "lng": 123.38437833973877}, "feature": {"sight_features": "", "sight_content": ""}}, {"title": "棋州城遗址", "address": "沈阳市康平县郝官屯镇小塔子村东", "image": "", "rank": 4, "time": 1.0, "location": {"lat": 42.66139461402842, "lng": 123.58233291781771}, "feature": {"sight_features": "", "sight_content": ""}}, {"title": "文庙", "address": "沈阳市康平县文化路康平一中院内", "image": "", "rank": 5, "time": 1.5, "location": {"lat": 42.75250844448351, "lng": 123.36395430935875}, "feature": {"sight_features": "", "sight_content": ""}}, {"title": "泡子沿小城子城址", "address": "沈阳市康平县东关屯街道泡子沿村", "image": "", "rank": 6, "time": 1.0, "location": {"lat": 42.69849650940628, "lng": 123.37007940547853}, "feature": {"sight_features": "", "sight_content": ""}}, {"title": "宝塔寺", "address": "沈阳市康平县郝官屯镇小塔子村", "image": "", "rank": 7, "time": 1.0, "location": {"lat": 42.66139461402842, "lng": 123.58233291781771}, "feature": {"sight_features": "", "sight_content": ""}}, {"title": "八虎山", "address": "沈阳市康平县西关屯乡", "image": "", "rank": 8, "time": 1.5, "location": {"lat": 42.7499254957194, "lng": 123.33751124938374}, "feature": {"sight_features": "", "sight_content": ""}}, {"title": "南小城子城址", "address": "沈阳市康平县二牛所口镇岔海挠村", "image": "", "rank": 9, "time": 1.0, "location": {"lat": 42.7606346398812, "lng": 123.24806065376919}, "feature": {"sight_features": "", "sight_content": ""}}, {"title": "北小城子城址", "address": "沈阳市康平县小城子镇", "image": "", "rank": 10, "time": 1.0, "location": {"lat": 42.89731736008353, "lng": 123.21725325821974}, "feature": {"sight_features": "", "sight_content": ""}}, {"title": "卧龙湖水上乐园", "address": "沈阳市康平县卧龙湖转盘西侧", "image": "", "rank": 11, "time": 2, "location": {"lat": 42.74776549369998, "lng": 123.29881955842413}, "feature": {"sight_features": "", "sight_content": "卧龙湖水上乐园坐落于沈阳市康平县卧龙湖畔，占地近三万平方米，以神奇的海洋为主题风格，以动感，奇妙，梦幻为游客元素，园区游玩区域占地面积约16000平方米，设施齐全。"}}, {"title": "城子沟遗址", "address": "沈阳市康平县张强镇盖顶窝堡村城子沟屯北", "image": "", "rank": 12, "time": 1.0, "location": {"lat": 42.67787189034861, "lng": 123.06978495895484}, "feature": {"sight_features": "", "sight_content": ""}}, {"title": "三家子城址", "address": "沈阳市康平县家屯镇李影匠窝堡村三家子西山坡上", "image": "", "rank": 13, "time": 1.0, "location": {"lat": 42.64774008020773, "lng": 123.20342669521702}, "feature": {"sight_features": "", "sight_content": ""}}, {"title": "康平县温馨草莓采摘园", "address": "田家村", "image": "", "rank": 14, "time": 2, "location": {"lat": 36.08777578722234, "lng": 120.39855422557214}, "feature": {"sight_features": "", "sight_content": ""}}, {"title": "红碧然采摘园", "address": "东关街道203国道与长深高速交口南3公里", "image": "", "rank": 15, "time": 2, "location": {"lat": 34.68721243862711, "lng": 112.50264146143171}, "feature": {"sight_features": "", "sight_content": ""}}, {"title": "南城画院", "address": "朝阳路", "image": "", "rank": 16, "time": 1.0, "location": {"lat": 38.85447906919534, "lng": 117.45512926191672}, "feature": {"sight_features": "", "sight_content": ""}}, {"title": "康平县档案馆", "address": "中心路144", "image": "", "rank": 17, "time": 2, "location": {"lat": 39.36248709957352, "lng": 114.69750028251693}, "feature": {"sight_features": "", "sight_content": ""}}, {"title": "康平县图书馆", "address": "中心街405号", "image": "", "rank": 18, "time": 2, "location": {"lat": 42.74820711790431, "lng": 123.36027550395629}, "feature": {"sight_features": "", "sight_content": ""}}, {"title": "东北韵二人转大舞台", "address": "中心街391号", "image": "", "rank": 19, "time": 2, "location": {"lat": 34.532807809810194, "lng": 108.83921488760912}, "feature": {"sight_features": "", "sight_content": ""}}, {"title": "大辽博物馆", "address": "新城区顺山三路南", "image": "", "rank": 20, "time": 2, "location": {"lat": 34.272724469532555, "lng": 108.96739103850439}, "feature": {"sight_features": "", "sight_content": ""}}, {"title": "张强烈士墓", "address": "沈阳市康平县", "image": "", "rank": 21, "time": 2, "location": {"lat": 42.7499254957194, "lng": 123.33751124938374}, "feature": {"sight_features": "", "sight_content": ""}}, {"title": "腾龙阁", "address": "辽宁省沈阳市康平县滨湖四街", "image": "", "rank": 22, "time": null, "location": {"lat": 42.741029586560835, "lng": 123.34886505309728}, "feature": {"sight_features": "", "sight_content": ""}}, {"title": "学雷锋志愿服务广场", "address": "轻工路和中心街的交叉口附近", "image": "", "rank": 23, "time": 2, "location": {"lat": 42.74262907186699, "lng": 123.36078150328058}, "feature": {"sight_features": "", "sight_content": ""}}, {"title": "董家基督教会", "address": "大东方商城对面", "image": "", "rank": 24, "time": 2, "location": {"lat": 36.56833600533008, "lng": 105.65277482425627}, "feature": {"sight_features": "", "sight_content": ""}}, {"title": "天主堂", "address": "政府路90号附近", "image": "", "rank": 25, "time": 0.4, "location": {"lat": 25.100743841072816, "lng": 116.10490287463884}, "feature": {"sight_features": "", "sight_content": ""}}, {"title": "烈士陵园", "address": "小城子镇康小线烈士陵园", "image": "", "rank": 26, "time": 2, "location": {"lat": 42.89553417277216, "lng": 123.21028122888548}, "feature": {"sight_features": "", "sight_content": ""}}, {"title": "乡约村文化广场", "address": "康辽线", "image": "", "rank": 27, "time": 2, "location": {"lat": 42.841047710439355, "lng": 123.35620552602968}, "feature": {"sight_features": "", "sight_content": ""}}, {"title": "康平影剧院", "address": "中心街391号(康乐家园对面)", "image": "", "rank": 28, "time": 2, "location": {"lat": 42.74914570380215, "lng": 123.36017693468929}, "feature": {"sight_features": "", "sight_content": ""}}, {"title": "卧龙湖自然风景区", "address": "辽宁省康平县城西", "image": "", "rank": 29, "time": 2, "location": {"lat": 42.7499254957194, "lng": 123.33751124938374}, "feature": {"sight_features": "", "sight_content": ""}}, {"title": "邢家窝堡", "address": "沈阳市-康平县", "image": "", "rank": 30, "time": 2, "location": {"lat": 42.7499254957194, "lng": 123.33751124938374}, "feature": {"sight_features": "", "sight_content": ""}}]}