{"cityName": "基隆", "days": "3", "cityImage": "", "spots": [{"title": "和平岛滨海公园", "address": "台湾基隆市中正区平一路360号", "image": "", "rank": 1, "time": 2, "location": {"lat": 25.03236463486398, "lng": 121.52372301276024}, "feature": {"sight_features": "", "sight_content": ""}}, {"title": "基隆屿", "address": "202台湾基隆中正区", "image": "", "rank": 2, "time": 1.0, "location": {"lat": 25.03236463486398, "lng": 121.52372301276024}, "feature": {"sight_features": "", "sight_content": ""}}, {"title": "八斗子渔港", "address": "基隆市中正区北宁路", "image": "", "rank": 3, "time": 1.0, "location": {"lat": 24.62102388930003, "lng": 118.53225032938248}, "feature": {"sight_features": "", "sight_content": ""}}, {"title": "奠济宫", "address": "台湾基隆市仁爱区仁三路27-2号", "image": "", "rank": 4, "time": 1.0, "location": {"lat": 25.13110802511564, "lng": 121.75468196670825}, "feature": {"sight_features": "", "sight_content": ""}}, {"title": "海洋科技博物馆", "address": "基隆市中正区北宁路367号", "image": "", "rank": 5, "time": 3.0, "location": {"lat": 24.059930529877587, "lng": 105.0602132293057}, "feature": {"sight_features": "", "sight_content": ""}}, {"title": "潮境公园", "address": "基隆市中正区长潭里", "image": "", "rank": 6, "time": 2.0, "location": {"lat": 24.62102388930003, "lng": 118.53225032938248}, "feature": {"sight_features": "", "sight_content": ""}}, {"title": "情人湖公园", "address": "基隆市安乐区基金一路208巷19号 ‎", "image": "", "rank": 7, "time": 2.0, "location": {"lat": 32.29655635533054, "lng": 119.64082708615693}, "feature": {"sight_features": "", "sight_content": ""}}, {"title": "基隆中正公园", "address": "台湾基隆市信意区寿山路17号", "image": "", "rank": 8, "time": 1.0, "location": {"lat": 24.086956718804895, "lng": 121.97387097871568}, "feature": {"sight_features": "", "sight_content": ""}}, {"title": "外木山滨海步道", "address": "台湾基隆是中山区协和街", "image": "", "rank": 9, "time": 1.0, "location": {"lat": 38.92451111549568, "lng": 121.65154739366945}, "feature": {"sight_features": "", "sight_content": ""}}, {"title": "望幽谷", "address": "基隆市中正区北宁路369巷61号", "image": "", "rank": 10, "time": 2.0, "location": {"lat": 39.85784961699547, "lng": 119.43074560737136}, "feature": {"sight_features": "", "sight_content": ""}}, {"title": "庆安宫", "address": "基隆市忠二路1号 ‎", "image": "", "rank": 11, "time": 1.5, "location": {"lat": 27.654605959614514, "lng": 106.89491783997101}, "feature": {"sight_features": "", "sight_content": ""}}, {"title": "杠子寮炮台", "address": "基隆市信义区 ‎", "image": "", "rank": 12, "time": 1.5, "location": {"lat": 24.62102388930003, "lng": 118.53225032938248}, "feature": {"sight_features": "", "sight_content": ""}}, {"title": "仙洞岩", "address": "台湾基隆市中山区仁安街", "image": "", "rank": 13, "time": 3.0, "location": {"lat": 38.92451111549568, "lng": 121.65154739366945}, "feature": {"sight_features": "", "sight_content": ""}}, {"title": "花瓶屿", "address": "基隆市北方外海约65公里处之岛屿", "image": "", "rank": 14, "time": 3.0, "location": {"lat": 24.62102388930003, "lng": 118.53225032938248}, "feature": {"sight_features": "", "sight_content": ""}}, {"title": "基隆河壶穴景观", "address": "基隆市暖暖区暖江桥附近", "image": "", "rank": 15, "time": null, "location": {"lat": 46.777069475652226, "lng": 123.69184111078864}, "feature": {"sight_features": "", "sight_content": ""}}, {"title": "暖暖运动公园", "address": "基隆市暖暖区东碇路12号", "image": "", "rank": 16, "time": 2.0, "location": {"lat": 25.086275498248284, "lng": 121.75340169181447}, "feature": {"sight_features": "", "sight_content": ""}}, {"title": "筑港殉职纪念碑", "address": "基隆市中山区", "image": "", "rank": 17, "time": 2.0, "location": {"lat": 38.92451111549568, "lng": 121.65154739366945}, "feature": {"sight_features": "", "sight_content": ""}}, {"title": "彭佳屿", "address": "位于基隆市外海北部地区", "image": "", "rank": 18, "time": 3.0, "location": {"lat": 40.040621212052564, "lng": 116.45571785343405}, "feature": {"sight_features": "", "sight_content": ""}}, {"title": "二沙湾炮台", "address": "基隆市中正区中正路", "image": "", "rank": 19, "time": 2.0, "location": {"lat": 24.62102388930003, "lng": 118.53225032938248}, "feature": {"sight_features": "", "sight_content": ""}}, {"title": "阳明海洋文化艺术馆", "address": "基隆市港西街4号", "image": "", "rank": 20, "time": 2.0, "location": {"lat": 23.137740854567678, "lng": 113.36239591630329}, "feature": {"sight_features": "", "sight_content": ""}}, {"title": "龙岗步道", "address": "基隆市中正区海洋大学后山", "image": "", "rank": 21, "time": 2, "location": {"lat": 36.07996655918659, "lng": 120.44064899334606}, "feature": {"sight_features": "", "sight_content": ""}}, {"title": "大武仑炮台", "address": "台湾基隆是安乐区基金一路208巷19号", "image": "", "rank": 22, "time": 1.0, "location": {"lat": 25.146757841093883, "lng": 121.711680311926}, "feature": {"sight_features": "", "sight_content": ""}}, {"title": "白米瓮炮台", "address": "基隆市中山区太白里光华路37巷", "image": "", "rank": 23, "time": 1.0, "location": {"lat": 38.92451111549568, "lng": 121.65154739366945}, "feature": {"sight_features": "", "sight_content": ""}}, {"title": "狮球岭隧道", "address": "基隆市安乐区崇德路一二七路旁", "image": "", "rank": 24, "time": 2.0, "location": {"lat": 24.805132856742308, "lng": 118.58190135653048}, "feature": {"sight_features": "", "sight_content": ""}}, {"title": "狮球岭炮台", "address": "200台湾基隆市仁爱区 ‎", "image": "", "rank": 25, "time": 1.5, "location": {"lat": 24.62102388930003, "lng": 118.53225032938248}, "feature": {"sight_features": "", "sight_content": ""}}, {"title": "泰安瀑布", "address": "基隆市七堵区泰安路187号", "image": "", "rank": 26, "time": 1.5, "location": {"lat": 22.899261707414325, "lng": 114.0862502650116}, "feature": {"sight_features": "", "sight_content": ""}}, {"title": "月眉山灵泉禅寺", "address": "201台湾基隆市信义区培德路221-3号", "image": "", "rank": 27, "time": 1.5, "location": {"lat": 23.03933350773072, "lng": 113.20019661584753}, "feature": {"sight_features": "", "sight_content": ""}}, {"title": "主普坛", "address": "基隆市信义区寿山路", "image": "", "rank": 28, "time": 1.5, "location": {"lat": 24.62102388930003, "lng": 118.53225032938248}, "feature": {"sight_features": "", "sight_content": ""}}, {"title": "红淡山", "address": "基隆市仁爱区南荣路刘铭传路爱九路 ‎", "image": "", "rank": 29, "time": 2.0, "location": {"lat": 24.62102388930003, "lng": 118.53225032938248}, "feature": {"sight_features": "", "sight_content": ""}}, {"title": "基隆港", "address": "台湾基隆市", "image": "", "rank": 30, "time": 1.0, "location": {"lat": 24.086956718804895, "lng": 121.97387097871568}, "feature": {"sight_features": "", "sight_content": ""}}, {"title": "基隆庙口", "address": "北部基隆奠济宫", "image": "", "rank": 31, "time": 2, "location": {"lat": 41.89837909082786, "lng": 123.42395932081426}, "feature": {"sight_features": "", "sight_content": ""}}, {"title": "碧砂渔港", "address": "基隆市碧砂港", "image": "", "rank": 32, "time": 1.0, "location": {"lat": 24.62102388930003, "lng": 118.53225032938248}, "feature": {"sight_features": "", "sight_content": ""}}, {"title": "八斗子海滨公园", "address": "基隆市中正区八斗街86巷1号", "image": "", "rank": 33, "time": 2.0, "location": {"lat": 31.725670351228057, "lng": 115.6242411261079}, "feature": {"sight_features": "", "sight_content": ""}}, {"title": "暖东峡谷", "address": "台湾基隆市暖暖区东势区221号", "image": "", "rank": 34, "time": 1.0, "location": {"lat": 24.245377622580055, "lng": 120.86194702196721}, "feature": {"sight_features": "", "sight_content": ""}}, {"title": "暖东苗圃", "address": "205台湾基隆市东碇路12号", "image": "", "rank": 35, "time": 1.5, "location": {"lat": 24.62102388930003, "lng": 118.53225032938248}, "feature": {"sight_features": "", "sight_content": ""}}, {"title": "海门天险", "address": "台湾基隆市中正区中正路", "image": "", "rank": 36, "time": 1.0, "location": {"lat": 25.03236463486398, "lng": 121.52372301276024}, "feature": {"sight_features": "", "sight_content": ""}}, {"title": "十方大觉寺", "address": "基隆市崇德路10巷67号 ‎", "image": "", "rank": 37, "time": 1.5, "location": {"lat": 39.01431167957678, "lng": 117.38142502495946}, "feature": {"sight_features": "", "sight_content": ""}}, {"title": "正滨渔港", "address": "基隆市中正路391号", "image": "", "rank": 38, "time": 1.5, "location": {"lat": 30.289479268224234, "lng": 104.12889833197538}, "feature": {"sight_features": "", "sight_content": ""}}, {"title": "友蚋溪谷", "address": "基隆市七堵区", "image": "", "rank": 39, "time": 1.5, "location": {"lat": 24.62102388930003, "lng": 118.53225032938248}, "feature": {"sight_features": "", "sight_content": ""}}, {"title": "棉花屿", "address": "基隆市北方外海约65公里处之岛屿", "image": "", "rank": 40, "time": 3.0, "location": {"lat": 24.62102388930003, "lng": 118.53225032938248}, "feature": {"sight_features": "", "sight_content": ""}}, {"title": "老大公庙", "address": "基隆市乐一路76巷37号", "image": "", "rank": 41, "time": 1.5, "location": {"lat": 30.046552982279593, "lng": 104.8495983846826}, "feature": {"sight_features": "", "sight_content": ""}}, {"title": "芳裕农场", "address": "基隆市七堵区大成街51号", "image": "", "rank": 42, "time": 2.0, "location": {"lat": 25.122397237033827, "lng": 114.31863917413722}, "feature": {"sight_features": "", "sight_content": ""}}, {"title": "叶山药园", "address": "基隆市七堵区大成街43号", "image": "", "rank": 43, "time": 1.5, "location": {"lat": 45.766140697577015, "lng": 126.67561689527552}, "feature": {"sight_features": "", "sight_content": ""}}, {"title": "基隆海洋广场(Keelung Maritime ...", "address": "基隆市仁爱区忠一路", "image": "", "rank": 44, "time": 0.25, "location": {"lat": 24.62102388930003, "lng": 118.53225032938248}, "feature": {"sight_features": "", "sight_content": ""}}, {"title": "光华塔", "address": "台湾基隆市中山区 ‎", "image": "", "rank": 45, "time": 2.0, "location": {"lat": 38.92451111549568, "lng": 121.65154739366945}, "feature": {"sight_features": "", "sight_content": ""}}, {"title": "外木山海滨", "address": "基隆市中山区安中产业道路", "image": "", "rank": 46, "time": null, "location": {"lat": 38.92451111549568, "lng": 121.65154739366945}, "feature": {"sight_features": "", "sight_content": ""}}, {"title": "玛陵坑", "address": "206台湾基隆市七堵区玛陵坑", "image": "", "rank": 47, "time": 2.0, "location": {"lat": 25.108466241590467, "lng": 121.69895244932893}, "feature": {"sight_features": "", "sight_content": ""}}, {"title": "狮球岭平安宫", "address": "基隆市狮球路48巷175之3号 ‎", "image": "", "rank": 48, "time": 1.5, "location": {"lat": 24.62102388930003, "lng": 118.53225032938248}, "feature": {"sight_features": "", "sight_content": ""}}, {"title": "海洋漫画馆", "address": "基隆市中正区祥丰街一三一号 .", "image": "", "rank": 49, "time": 2, "location": {"lat": 22.602918971812564, "lng": 113.19165130502559}, "feature": {"sight_features": "", "sight_content": ""}}, {"title": "暖暖车站", "address": "基隆市暖暖区暖暖街", "image": "", "rank": 50, "time": 0.25, "location": {"lat": 24.62102388930003, "lng": 118.53225032938248}, "feature": {"sight_features": "", "sight_content": ""}}, {"title": "碧砂渔港游艇码头", "address": "基隆市中正区碧砂渔港", "image": "", "rank": 51, "time": 2, "location": {"lat": 24.62102388930003, "lng": 118.53225032938248}, "feature": {"sight_features": "", "sight_content": ""}}, {"title": "碇内车站", "address": "基隆市暖暖区碇内街92号", "image": "", "rank": 52, "time": 2, "location": {"lat": 31.89336373309413, "lng": 117.35898737001608}, "feature": {"sight_features": "", "sight_content": ""}}, {"title": "基隆护国城隍庙", "address": "基隆市仁爱区忠一路7号", "image": "", "rank": 53, "time": 2, "location": {"lat": 24.62102388930003, "lng": 118.53225032938248}, "feature": {"sight_features": "", "sight_content": ""}}, {"title": "极乐寺", "address": "基隆市佛光山", "image": "", "rank": 54, "time": 1.5, "location": {"lat": 24.62102388930003, "lng": 118.53225032938248}, "feature": {"sight_features": "", "sight_content": ""}}, {"title": "和平岛天后宫", "address": "基隆市中正区和一路84巷16号", "image": "", "rank": 55, "time": 2, "location": {"lat": 22.722624578267293, "lng": 113.7980709444294}, "feature": {"sight_features": "", "sight_content": ""}}, {"title": "忠烈祠", "address": "信二路286巷(中正公园)", "image": "", "rank": 56, "time": 2.0, "location": {"lat": 23.139790804944088, "lng": 113.31961208803088}, "feature": {"sight_features": "", "sight_content": ""}}, {"title": "基隆市史蹟馆", "address": "基隆市 信义区寿山路6号 201", "image": "", "rank": 57, "time": 2, "location": {"lat": 24.45244756308201, "lng": 118.0887750198716}, "feature": {"sight_features": "", "sight_content": ""}}, {"title": "許梓桑古厝", "address": "爱四路2巷15号,仁爱区, 基隆市 200,Taiwan", "image": "", "rank": 58, "time": 2, "location": {"lat": 24.62102388930003, "lng": 118.53225032938248}, "feature": {"sight_features": "", "sight_content": ""}}, {"title": "觀音佛像", "address": "Xinyi District, 基隆市 201,Taiwan", "image": "", "rank": 59, "time": 2, "location": {"lat": 24.62102388930003, "lng": 118.53225032938248}, "feature": {"sight_features": "", "sight_content": ""}}, {"title": "役政公园", "address": "基隆市中正区", "image": "", "rank": 60, "time": 2, "location": {"lat": 24.62102388930003, "lng": 118.53225032938248}, "feature": {"sight_features": "", "sight_content": ""}}]}