{"cityName": "岢岚", "days": 2, "cityImage": "", "spots": [{"title": "黑茶山国有林管理局中寨林场", "address": "岚漪镇振兴路", "image": "", "rank": 1, "time": 2, "location": {"lat": 38.71172692511888, "lng": 111.57201735451099}, "feature": {"sight_features": "", "sight_content": ""}}, {"title": "温泉粮店", "address": "镇西路南50米", "image": "", "rank": 2, "time": 2, "location": {"lat": 30.93365818241829, "lng": 121.27988188178445}, "feature": {"sight_features": "", "sight_content": ""}}, {"title": "白雨庙", "address": "山西省忻州市岢岚县", "image": "", "rank": 3, "time": 2, "location": {"lat": 38.710151038936225, "lng": 111.57947778177136}, "feature": {"sight_features": "", "sight_content": ""}}, {"title": "岚漪公园", "address": "岚漪大道与漪水南街交叉口西南150米", "image": "", "rank": 4, "time": 2, "location": {"lat": 38.7033851166486, "lng": 111.57016944126335}, "feature": {"sight_features": "", "sight_content": ""}}, {"title": "北寺塔公园", "address": "山西省忻州市岢岚县民生东街", "image": "", "rank": 5, "time": 2, "location": {"lat": 38.710151038936225, "lng": 111.57947778177136}, "feature": {"sight_features": "", "sight_content": ""}}, {"title": "儿童乐园", "address": "山西省忻州市岢岚县居仁东街政法巷2", "image": "", "rank": 6, "time": 2, "location": {"lat": 38.708296236067945, "lng": 111.57975266325741}, "feature": {"sight_features": "", "sight_content": ""}}, {"title": "高庙", "address": "忻州市岢岚县", "image": "", "rank": 7, "time": 1.5, "location": {"lat": 38.710151038936225, "lng": 111.57947778177136}, "feature": {"sight_features": "", "sight_content": ""}}, {"title": "文体广场", "address": "209国道附近", "image": "", "rank": 8, "time": 2, "location": {"lat": 29.50537463467816, "lng": 109.42537798613527}, "feature": {"sight_features": "", "sight_content": ""}}, {"title": "毛主席路居馆", "address": "小东街16", "image": "", "rank": 9, "time": 2, "location": {"lat": 30.63478899396202, "lng": 103.68220946742993}, "feature": {"sight_features": "", "sight_content": ""}}]}