{"cityName": "克拉玛依", "days": "", "cityImage": "", "spots": [{"title": "乌尔禾魔鬼城", "address": "克拉玛依市乌尔禾区龙脊路200号", "image": "", "rank": 1, "time": 2.0, "location": {"lat": 46.13562805874444, "lng": 85.74884027314619}, "feature": {"sight_features": "特色1 中国最美的三大雅丹之一。 特色2 观赏戈壁上造型各异的巨型石柱群，非常壮观。 参观《卧虎藏龙》、《七剑下天山》等著名电影的取景地，寻找熟悉的场景。 特色3 魔鬼城是浓缩雅丹地貌特征的典型地质奇观。", "sight_content": "魔鬼城地处新疆旅游北线的中间点，位于中国西部名城——克拉玛依市东北100公里处，地理坐标为东经85°19′、北纬46°6′。世界魔鬼城景区总面积120平方公里，与喀纳斯湖、天池相互映衬，共同构成了新疆北线黄金旅游线路。\n山丘被风吹成了各式各样的“建筑物”，有的像杭州钱塘江畔的六和塔，有的像北京的天坛，有的像埃及的金字塔，有的像柬埔寨的吴哥窟，有的像雄鹰展翅。由于这里景致独特，许多电影都把魔鬼城当作了外景地，比如奥斯卡大奖影片《卧虎藏龙》。越来越多的游客来新疆地区旅游、探险。"}}, {"title": "黑油山", "address": "克拉玛依市克拉玛依区油泉路25号", "image": "", "rank": 2, "time": 2.5, "location": {"lat": 45.61415360708286, "lng": 84.90926507909982}, "feature": {"sight_features": "", "sight_content": ""}}, {"title": "克拉玛依油田", "address": "克拉玛依市准噶尔盆地西北边缘", "image": "", "rank": 3, "time": 3.0, "location": {"lat": 45.58567523781376, "lng": 84.89590053887504}, "feature": {"sight_features": "", "sight_content": ""}}, {"title": "九龙潭", "address": "克拉玛依市克拉玛依区，近黑油山公园", "image": "", "rank": 4, "time": 2.0, "location": {"lat": 45.624563448189505, "lng": 84.90256668853574}, "feature": {"sight_features": "", "sight_content": ""}}, {"title": "艾里克湖", "address": "新疆维吾尔自治区克拉玛依市", "image": "", "rank": 5, "time": 1.0, "location": {"lat": 45.58567523781376, "lng": 84.89590053887504}, "feature": {"sight_features": "", "sight_content": ""}}, {"title": "白杨河大峡谷", "address": "克拉玛依乌尔禾区乌尔禾街区西侧", "image": "", "rank": 6, "time": 2.5, "location": {"lat": 46.095295184689334, "lng": 85.70030482644177}, "feature": {"sight_features": "", "sight_content": ""}}, {"title": "泥火山", "address": "克拉玛依市独山子区", "image": "", "rank": 7, "time": 0.5, "location": {"lat": 44.33440739236509, "lng": 84.89361328334303}, "feature": {"sight_features": "", "sight_content": ""}}, {"title": "荒漠绿洲生态园", "address": "克拉玛依市克拉玛依区农业开发区", "image": "", "rank": 8, "time": null, "location": {"lat": 45.596624206980934, "lng": 84.866221962114}, "feature": {"sight_features": "", "sight_content": ""}}, {"title": "大油泡环境艺术", "address": "胜利路", "image": "", "rank": 9, "time": 0.25, "location": {"lat": 40.04776893701776, "lng": 117.40590902883763}, "feature": {"sight_features": "", "sight_content": ""}}, {"title": "乌尔禾胡杨林", "address": "新疆维吾尔自治区克拉玛依市乌尔禾区", "image": "", "rank": 10, "time": 2, "location": {"lat": 46.095295184689334, "lng": 85.70030482644177}, "feature": {"sight_features": "", "sight_content": ""}}, {"title": "西部戈壁公园", "address": "克拉玛依市区西南、217国道可达。", "image": "", "rank": 11, "time": 1.0, "location": {"lat": 46.09021986160262, "lng": 85.6911496903215}, "feature": {"sight_features": "", "sight_content": ""}}, {"title": "独山子大峡谷", "address": "pv:28", "image": "", "rank": 12, "time": 7.5, "location": {"lat": 44.33440739236509, "lng": 84.89361328334303}, "feature": {"sight_features": "", "sight_content": ""}}, {"title": "白沙滩景区", "address": "克拉玛依市白碱滩区", "image": "", "rank": 13, "time": 2.5, "location": {"lat": 45.69395162976408, "lng": 85.13951012368591}, "feature": {"sight_features": "", "sight_content": ""}}, {"title": "克拉玛依展览馆", "address": "准噶尔路22号", "image": "", "rank": 14, "time": 2.0, "location": {"lat": 44.44365340854208, "lng": 84.90880629250475}, "feature": {"sight_features": "", "sight_content": ""}}, {"title": "友谊馆", "address": "克拉玛依市克拉玛依区友谊路106", "image": "", "rank": 15, "time": 2, "location": {"lat": 45.606593508647954, "lng": 84.87467758018789}, "feature": {"sight_features": "", "sight_content": ""}}, {"title": "克拉玛依射击场", "address": "新疆维吾尔自治区克拉玛依市独山子区林园路 833600", "image": "", "rank": 16, "time": 2.0, "location": {"lat": 44.33440739236509, "lng": 84.89361328334303}, "feature": {"sight_features": "", "sight_content": ""}}, {"title": "克拉玛依市图书馆", "address": "大漠高尔夫西侧", "image": "", "rank": 17, "time": 2.0, "location": {"lat": 22.323803487103593, "lng": 114.19956003023161}, "feature": {"sight_features": "", "sight_content": ""}}, {"title": "克拉玛依阳光水世界", "address": "新疆维吾尔自治区克拉玛依市独山子区迎宾路西侧", "image": "", "rank": 18, "time": 2.0, "location": {"lat": 44.33440739236509, "lng": 84.89361328334303}, "feature": {"sight_features": "", "sight_content": ""}}, {"title": "图书馆", "address": "准噶尔路150号", "image": "", "rank": 19, "time": 1.0, "location": {"lat": 44.4441223273177, "lng": 84.89983514072462}, "feature": {"sight_features": "", "sight_content": ""}}, {"title": "大雅画廊", "address": "昆仑路十字路口", "image": "", "rank": 20, "time": 2, "location": {"lat": 34.268663686164025, "lng": 117.22895488605562}, "feature": {"sight_features": "", "sight_content": ""}}, {"title": "群众艺术馆", "address": "友谊路191号", "image": "", "rank": 21, "time": 1.5, "location": {"lat": 39.94234763035066, "lng": 119.58819558192064}, "feature": {"sight_features": "", "sight_content": ""}}, {"title": "风味虫草鸡农家乐", "address": "东湖公园西侧", "image": "", "rank": 22, "time": 2, "location": {"lat": 37.58553326643164, "lng": 112.68591331320432}, "feature": {"sight_features": "", "sight_content": ""}}, {"title": "酣客", "address": "东郊路东盛小区底商", "image": "", "rank": 23, "time": 2, "location": {"lat": 45.59470432461383, "lng": 84.90282444068316}, "feature": {"sight_features": "", "sight_content": ""}}, {"title": "乌伦古湖", "address": "新疆维吾尔自治区克拉玛依市福海县乌伦古湖", "image": "", "rank": 24, "time": 3.0, "location": {"lat": 47.34929766507226, "lng": 87.21931597190951}, "feature": {"sight_features": "", "sight_content": ""}}, {"title": "克拉玛依区文化艺术展厅", "address": "新疆维吾尔自治区克拉玛依市克拉玛依文化街", "image": "", "rank": 25, "time": 2, "location": {"lat": 45.61063085555226, "lng": 84.8711868229168}, "feature": {"sight_features": "", "sight_content": ""}}, {"title": "独山子区城市规划展览馆", "address": "新疆维吾尔自治区克拉玛依市大庆东路34号独山子文化中心B座", "image": "", "rank": 26, "time": 2, "location": {"lat": 44.336383763316604, "lng": 84.89764191406361}, "feature": {"sight_features": "", "sight_content": ""}}, {"title": "克拉玛依市奇石馆", "address": "新疆维吾尔自治区克拉玛依市林园路7号", "image": "", "rank": 27, "time": 2.0, "location": {"lat": 45.611350007419226, "lng": 84.87663580211826}, "feature": {"sight_features": "", "sight_content": ""}}, {"title": "独山子区科技馆", "address": "新疆维吾尔自治区克拉玛依市大庆东路34号独山子文化中心B座", "image": "", "rank": 28, "time": 2, "location": {"lat": 44.336383763316604, "lng": 84.89764191406361}, "feature": {"sight_features": "", "sight_content": ""}}, {"title": "鲨鱼公园", "address": "新疆维吾尔自治区克拉玛依市克拉玛依区南新路雅典娜花园旁", "image": "", "rank": 29, "time": 2, "location": {"lat": 45.57844476926462, "lng": 84.8846441817262}, "feature": {"sight_features": "", "sight_content": ""}}, {"title": "克拉玛依市奇乐儿儿童乐园", "address": "新疆维吾尔自治区克拉玛依市克拉玛依区迎宾大道", "image": "", "rank": 30, "time": 2.0, "location": {"lat": 45.56600805950939, "lng": 84.90889033110378}, "feature": {"sight_features": "", "sight_content": ""}}, {"title": "金果果儿童乐园", "address": "人民路31号铜锣湾商场3楼", "image": "", "rank": 31, "time": 1.5, "location": {"lat": 21.86057887783134, "lng": 111.97582551702558}, "feature": {"sight_features": "", "sight_content": ""}}, {"title": "齐国昌红色收藏馆", "address": "林园路36号附近", "image": "", "rank": 32, "time": 2, "location": {"lat": 23.713218639635077, "lng": 105.08775418953199}, "feature": {"sight_features": "", "sight_content": ""}}, {"title": "金丝玉文化促进会收藏馆", "address": "克拉玛依市克拉玛依区", "image": "", "rank": 33, "time": 2, "location": {"lat": 45.596624206980934, "lng": 84.866221962114}, "feature": {"sight_features": "", "sight_content": ""}}, {"title": "龙山动漫水乐园", "address": "新疆维吾尔自治区克拉玛依市克拉玛依区东外环路", "image": "", "rank": 34, "time": 2.5, "location": {"lat": 45.62282649078033, "lng": 84.92284466746538}, "feature": {"sight_features": "", "sight_content": ""}}, {"title": "长征影剧院", "address": "准噶尔路54", "image": "", "rank": 35, "time": 2, "location": {"lat": 44.44380573288833, "lng": 84.90240340435288}, "feature": {"sight_features": "", "sight_content": ""}}, {"title": "魔爪", "address": "幸福路44号附近", "image": "", "rank": 36, "time": 2, "location": {"lat": 39.09518799175479, "lng": 117.34390634223308}, "feature": {"sight_features": "", "sight_content": ""}}, {"title": "兴农湖度假村", "address": "兴农湖度假村", "image": "", "rank": 37, "time": null, "location": {"lat": 40.416852054373585, "lng": 116.6480403452198}, "feature": {"sight_features": "", "sight_content": ""}}, {"title": "海贼王儿童主题乐园", "address": "准噶尔路61新亚新时尚广场3楼", "image": "", "rank": 38, "time": 2, "location": {"lat": 45.606436929359674, "lng": 84.88446555071113}, "feature": {"sight_features": "", "sight_content": ""}}, {"title": "胡杨部落", "address": "克拉玛依区217国道", "image": "", "rank": 39, "time": 2, "location": {"lat": 45.59542256606749, "lng": 85.00196922318729}, "feature": {"sight_features": "", "sight_content": ""}}, {"title": "克拉玛依林海公园", "address": "蓝天大道", "image": "", "rank": 40, "time": 2.0, "location": {"lat": 32.97592399328314, "lng": 114.07179102596808}, "feature": {"sight_features": "", "sight_content": ""}}, {"title": "鲁卡奇儿童乐园", "address": "新疆维吾尔自治区克拉玛依市独山子区大庆西路48号-4", "image": "", "rank": 41, "time": 2, "location": {"lat": 44.33215921064244, "lng": 84.87780065013065}, "feature": {"sight_features": "", "sight_content": ""}}, {"title": "大自然度假村", "address": "克拉玛依克拉玛依区蓝天家园20号", "image": "", "rank": 42, "time": 2, "location": {"lat": 45.51030732418802, "lng": 84.97578280550309}, "feature": {"sight_features": "", "sight_content": ""}}, {"title": "钟楼", "address": "文化街内", "image": "", "rank": 43, "time": 1.5, "location": {"lat": 45.610890210286705, "lng": 84.87124746895906}, "feature": {"sight_features": "", "sight_content": ""}}, {"title": "赛迪士儿童欢乐广场(友谊路)", "address": "友谊路187号4楼", "image": "", "rank": 44, "time": 2, "location": {"lat": 39.9419402319404, "lng": 119.58831188733163}, "feature": {"sight_features": "", "sight_content": ""}}, {"title": "奇乐儿儿童主题乐园", "address": "新疆维吾尔自治区克拉玛依市克拉玛依区林园路16号2", "image": "", "rank": 45, "time": 2, "location": {"lat": 45.61186733423754, "lng": 84.87761321447756}, "feature": {"sight_features": "", "sight_content": ""}}, {"title": "儿童游乐场", "address": "南新路42号附近", "image": "", "rank": 46, "time": 2, "location": {"lat": 31.317840453902676, "lng": 120.61263268418196}, "feature": {"sight_features": "", "sight_content": ""}}, {"title": "多功能广场", "address": "永红路附近", "image": "", "rank": 47, "time": 2, "location": {"lat": 31.487788172513486, "lng": 121.14324355913766}, "feature": {"sight_features": "", "sight_content": ""}}, {"title": "卡其乐儿童主题乐园", "address": "B9-1-19胡须佬楼下", "image": "", "rank": 48, "time": 2, "location": {"lat": 25.860676752936413, "lng": 118.22898586485812}, "feature": {"sight_features": "", "sight_content": ""}}, {"title": "福源绿色庄园", "address": "奎屯水泥厂西侧", "image": "", "rank": 49, "time": 2, "location": {"lat": 44.40944247840536, "lng": 84.94945898056861}, "feature": {"sight_features": "", "sight_content": ""}}, {"title": "中苏石油公司独山子职工子弟学校...", "address": "喀什路3号", "image": "", "rank": 50, "time": 2, "location": {"lat": 44.3255181380926, "lng": 84.86372261665126}, "feature": {"sight_features": "", "sight_content": ""}}, {"title": "火车站广场", "address": "新疆维吾尔自治区伊犁哈萨克自治州奎屯市团结南街", "image": "", "rank": 51, "time": 2, "location": {"lat": 44.42020303963144, "lng": 84.90855504206179}, "feature": {"sight_features": "", "sight_content": ""}}, {"title": "植物园", "address": "西宁路附近", "image": "", "rank": 52, "time": 1.0, "location": {"lat": 43.81691909146598, "lng": 126.50835610655763}, "feature": {"sight_features": "", "sight_content": ""}}, {"title": "明珠影剧院", "address": "安庆路20号", "image": "", "rank": 53, "time": 2, "location": {"lat": 43.85979650262027, "lng": 125.22320210642275}, "feature": {"sight_features": "", "sight_content": ""}}, {"title": "玛依格勒度假村", "address": "201省道附近", "image": "", "rank": 54, "time": 2, "location": {"lat": 38.686331107748025, "lng": 113.87626234527481}, "feature": {"sight_features": "", "sight_content": ""}}, {"title": "绿洲度假村", "address": "蓝天家园90", "image": "", "rank": 55, "time": 2, "location": {"lat": 39.998213740288946, "lng": 119.77398826759841}, "feature": {"sight_features": "", "sight_content": ""}}, {"title": "奎铁公园", "address": "新疆维吾尔自治区伊犁哈萨克自治州奎屯市康泰小区东门对面", "image": "", "rank": 56, "time": 2, "location": {"lat": 44.43205721000423, "lng": 84.90944924168677}, "feature": {"sight_features": "", "sight_content": ""}}, {"title": "西部绿洲度假村", "address": "白云四路12号", "image": "", "rank": 57, "time": 2, "location": {"lat": 22.796589395410205, "lng": 114.47577246539991}, "feature": {"sight_features": "", "sight_content": ""}}, {"title": "独山子区影剧院", "address": "新疆维吾尔自治区克拉玛依市独山子区大庆东路34号", "image": "", "rank": 58, "time": 2, "location": {"lat": 44.33655806104271, "lng": 84.89705621887111}, "feature": {"sight_features": "", "sight_content": ""}}, {"title": "百里油田观景台", "address": "克拉玛依百里油田观景台", "image": "", "rank": 59, "time": 2, "location": {"lat": 46.127236100425236, "lng": 85.77085432763495}, "feature": {"sight_features": "", "sight_content": ""}}, {"title": "第二图书馆", "address": "跃南路", "image": "", "rank": 60, "time": 2, "location": {"lat": 23.111961188778167, "lng": 113.85550755398911}, "feature": {"sight_features": "", "sight_content": ""}}]}