{"cityName": "克山", "days": 2, "cityImage": "", "spots": [{"title": "烈士陵园", "address": "西大街人民英雄纪念碑附近", "image": "", "rank": 1, "time": 2, "location": {"lat": 39.911011015238074, "lng": 116.40404224956553}, "feature": {"sight_features": "", "sight_content": ""}}, {"title": "东北大戏院", "address": "南二道街", "image": "", "rank": 2, "time": 2, "location": {"lat": 45.78925863553482, "lng": 126.6465043183587}, "feature": {"sight_features": "", "sight_content": ""}}, {"title": "毛岸青纪念馆", "address": "西大街与春风街交汇处", "image": "", "rank": 3, "time": 2, "location": {"lat": 48.03826677384775, "lng": 125.87083983248148}, "feature": {"sight_features": "", "sight_content": ""}}, {"title": "福音堂基督教会", "address": "远东社区", "image": "", "rank": 4, "time": 2, "location": {"lat": 34.26627922852815, "lng": 108.88853481643034}, "feature": {"sight_features": "", "sight_content": ""}}, {"title": "乐民生态广场", "address": "齐齐哈尔市克山县", "image": "", "rank": 5, "time": 2, "location": {"lat": 48.04317236073717, "lng": 125.8813783269278}, "feature": {"sight_features": "", "sight_content": ""}}, {"title": "为民湖绿色生态园", "address": "花园路三段", "image": "", "rank": 6, "time": 2, "location": {"lat": 30.57965189284185, "lng": 103.89692890205502}, "feature": {"sight_features": "", "sight_content": ""}}, {"title": "克山县图书馆", "address": "政府2号院", "image": "", "rank": 7, "time": 2, "location": {"lat": 48.0362163382019, "lng": 125.86151117320108}, "feature": {"sight_features": "", "sight_content": ""}}, {"title": "通达老碳火锅(乐园分店)", "address": "农场附近", "image": "", "rank": 8, "time": null, "location": {"lat": 23.100931760317003, "lng": 113.27528273950196}, "feature": {"sight_features": "", "sight_content": ""}}, {"title": "庄河港", "address": "黑龙江省大庆市萨尔图区境内", "image": "", "rank": 9, "time": 2, "location": {"lat": 46.638936435554, "lng": 125.13351006442905}, "feature": {"sight_features": "", "sight_content": ""}}, {"title": "克山宏远步行街早晚市场", "address": "黑龙江省克山县X049近柒牌", "image": "", "rank": 10, "time": 2, "location": {"lat": 48.038412243921776, "lng": 125.88127958967767}, "feature": {"sight_features": "", "sight_content": ""}}, {"title": "人民英雄纪念碑", "address": "北京市 东城区天安门广场上", "image": "", "rank": 11, "time": 1.0, "location": {"lat": 39.910071681026174, "lng": 116.4041582414679}, "feature": {"sight_features": "", "sight_content": ""}}]}