{"cityName": "宽甸", "days": 2, "cityImage": "", "spots": [{"title": "虎山长城", "address": "丹东市宽甸满族自治县虎山镇虎山村", "image": "", "rank": 1, "time": 3.5, "location": {"lat": 40.228854627704834, "lng": 124.52690629807041}, "feature": {"sight_features": "", "sight_content": ""}}, {"title": "天桥沟森林公园", "address": "丹东市宽甸县黎明村7组", "image": "", "rank": 2, "time": 1.5, "location": {"lat": 41.06512785794113, "lng": 124.71009554526155}, "feature": {"sight_features": "特色1 世界无污染区之一，素有“天外小庐山”之美誉。 特色2 以林海、奇峰怪石景观为主，四季景色鲜明", "sight_content": "天桥沟森林公园是国家AAAA级风景旅游区，“全国十佳游客满意度风景名胜区”，系辽宁省“十佳森林公园”位于辽宁省宽甸县满族自治县境内，森林覆盖率96%。\n\n公园以林海、奇峰和怪石景观为主，以丰富的生态资源和独特的自然景观为依托，以厚重的人文景观和神秘的抗联遗址为点缀，素有“一山望三县”之美誉。\n\n天桥沟森林公园四季景色鲜明：春天百花争艳，俏满人间；盛夏青山滴翠，清爽宜人。回归于自然，畅想于林海。难以复制的原始风貌，叹为观止的自然风光，将是高品 位游客避暑度假、旅游观光的首选和必选之地！\n\n天桥沟森林公园四季景色鲜明：金秋万山红遍，层林尽染；冬日银装素裹，玉树琼枝。奇峰上，怪石似鬼斧神工、千姿百态；峭壁间，苍松如天外飞仙、婀娜多姿。享乐 于幽静，陶冶于纯真，嬉戏于童趣。不一样的理念，不一样的投入，一定会给您带来不一样的感受；一次寻常的旅游，一定会收获一次不寻常的经历。"}}, {"title": "河口景区", "address": "丹东市宽甸满族自治县长甸镇下河口村", "image": "", "rank": 3, "time": 2.5, "location": {"lat": 40.416145778753204, "lng": 124.80416054763671}, "feature": {"sight_features": "", "sight_content": ""}}, {"title": "青山沟", "address": "丹东市宽甸满族自治县青山沟镇", "image": "", "rank": 4, "time": 2.5, "location": {"lat": 41.02265292010625, "lng": 125.22937578559943}, "feature": {"sight_features": "", "sight_content": ""}}, {"title": "天华山", "address": "丹东市宽甸满族自治县灌水镇北部", "image": "", "rank": 5, "time": 3.0, "location": {"lat": 41.0755097482259, "lng": 124.5821953933444}, "feature": {"sight_features": "特色1 以峰奇、峡险、涧幽、水秀为特色", "sight_content": "天华山风景区位于辽宁省东部山区的宽甸满族自治县灌水镇北部，为长白山脉西南麓，海拔1100多米的高寒林带区，景区总面积63平方公里。“白龙涧”、“青龙涧”、“玉龙涧”、“天华峰”、“西谷顶”五大景区浑然一体，天华山的奇峰、怪石、森林、古木、洞峡、幽涧、瀑布、溪水的自然之美，相映生辉，它的奇妙、清幽、雄险和润秀，以及密集型、高品位的自然景观资源，被专家们誉为旷世佳境，万景奇山。\n天华山以峰奇、峡险、涧幽、水秀为特色。其雄奇峻拔的天华峰、神采奕奕的毛公峰、坐立云端的观音峰、栩栩如生的狮头峰、高耸九天的御玺峰、跃上云头的海豹峰等十八奇峰构成天华山的云天景观；气势雄伟，望而生畏，攀而心惊的通天峡和天门风道、龙脊险崖可谓“天下一绝”；三涧六谷清幽幻化，沁人心肺，奥妙天成，称为景观极品，实不过份；天华山之水更是清澈缠绵，瀑布、溪水从巨石上飞泄，从怪石间跳绕，为这浩瀚的天华山注入灵性和活力。\n天华山季相分明，春翡夏翠，秋金冬银。尤其霜叶红似火，胜于二月花的天华山之秋，五花七彩的山峦，如火如荼，到处是赤红的枫叶、金黄的白桦、天柏、胡柞，挂满枝头的野果子和瀑布谷壑的野菊，编织出万千幅工笔重彩画作。一夜飞雪掩天华，千树万树似梨花，冬天的天华山是白玉的世界，石如汉白，水如腊象，重叠无际群山呈现出一派金色林带银色山，千万银蛇舞翩翩的壮观景象。有人云：天华山是千首诗，有人说：天华山是万幅画，有人言：天华山是一部不解的天书。"}}, {"title": "绿江村", "address": "丹东市宽甸满族自治县", "image": "", "rank": 6, "time": 4.5, "location": {"lat": 40.737553200489806, "lng": 124.79042662867784}, "feature": {"sight_features": "", "sight_content": ""}}, {"title": "玄武湖", "address": "丹东市黄椅山国家森林公园内", "image": "", "rank": 7, "time": 1.0, "location": {"lat": 40.73998420536624, "lng": 124.76653698145391}, "feature": {"sight_features": "", "sight_content": ""}}, {"title": "浑江大转弯", "address": "丹东市宽甸满族自治县浑江村", "image": "", "rank": 8, "time": 1.0, "location": {"lat": 40.87628482125941, "lng": 125.70343084222391}, "feature": {"sight_features": "", "sight_content": ""}}, {"title": "黄椅山森林公园", "address": "丹东市宽甸满族自治县县城西郊5公里处", "image": "", "rank": 9, "time": 3.0, "location": {"lat": 40.737553200489806, "lng": 124.79042662867784}, "feature": {"sight_features": "特色1 山环水绕，美景天成，集“雄、秀、奇、美、幽”于一身，是一座天然的火山博物馆。", "sight_content": "黄椅山火山森林公园位于辽宁省东部的宽甸满族自治县城区西沿的火山口地带，占地面积20平方公里，火山锥、梨花村、玄武湖三大景区妙然天成，即有火山之奇，也有河谷之幽，还有山野之趣和人文之美。黄椅山以火山而闻名遐迩，岁月更迁，一峰突起，群山环绕，为第四纪火山喷发后的杰作。这里火山石遍地皆是，千姿百态；火山地下矿泉四季喷涌，淙淙有声；玄武湖叠连成嶂；山林野趣，农家村舍，湖光月影，碧水轻舟，让人悠闲自得。可谓宽甸山城近郊的一块乐土、一片绿洲。\n\n火山锥景区为休闲区，这里不仅有驰名的济源宝塔和古刹钟声，还有名目繁多的游乐项目，它是以城市公园为主调，是山城人消遣娱乐的好地方。沿水山锥西行一公里，便来到了银装绿裹的梨花村景区，这里的田园风光着实迷人，春园如翡，梨花似雪。果园、药园、小菜园井井有条。这里的农家小院隐蔽在银花绿树之中，每到炊烟缕缕，农家都散发着农家风味的菜香。每到金秋时节，遍地都可以闻到瓜果的飘香。农家大炕挤满了来自天南地北的游客，车笛声、招呼声、欢笑声荡漾在这个世外桃园这中。\n从梨花村顺坡而下，俯幽幽碧水，轻波泛舟，湖光山色，仰望两岸似金如翠的玄武岩，大自然的鬼斧神工，造化出如此奇境，令人望而生畏，赞叹不已。上游为河，下游为湖，这里是赏石戏水、漂流、游泳、垂钓的好地方。黄椅山为地质史上第四纪大山喷发玄武岩堆积而成，火山口，大山壁至今保存完整，是天然火山博物馆，引起众多国内外地质专家的关注。"}}, {"title": "青山湖", "address": "丹东市宽甸满族自治县青山沟镇青山沟风景区内", "image": "", "rank": 10, "time": 4.0, "location": {"lat": 41.003900859791905, "lng": 125.27140782110637}, "feature": {"sight_features": "", "sight_content": ""}}, {"title": "九水峡漂流", "address": "丹东市宽甸满族自治县虎山镇长岗子村安平河中下游", "image": "", "rank": 11, "time": 2, "location": {"lat": 40.30425912442299, "lng": 124.63741483131422}, "feature": {"sight_features": "特色1 各项基础设施齐备", "sight_content": "九水峡漂流是由丹东九水峡旅游开发有限公司于2007年开发建设的九水峡旅游区的启动项目，景区位于宽甸满族自治县虎山镇长岗子 村的安平河中游，距丹东市中心40km，距宽甸县城65公里，东临鸭绿江景观大道，西接201国道，地处丹东城区与宽甸纵深各大风景区、 森林公园、自然保护区之间，东南西北均处于“承上启下”的位置。\n景区内漂流因河道在山谷里转了九个大弯故名“九水峡” ，景区内河川艳秀、河水清澈、岸山险峭苍翠幽谧，河床多为石结构，岸滩 巨石嶙峋，是一处典型河川地貌。漂流全长10.8公里，总落差78米，最高落差达9米，最长落差数百米，大小落差三十余处。沿河分别由 三段惊险刺激的迭瀑漂段、三段水流湍急的搏击漂段、三段蜿蜒舒缓的休闲漂段和三段安谧的幽静漂段组成，漂流全程约3小时。"}}, {"title": "浑江村", "address": "辽宁省丹东市宽甸满族自治县浑江村", "image": "", "rank": 12, "time": 3.0, "location": {"lat": 40.87628482125941, "lng": 125.70343084222391}, "feature": {"sight_features": "", "sight_content": ""}}, {"title": "城顶山风景区", "address": "丹东市宽甸县牛毛坞镇小城子村5组", "image": "", "rank": 13, "time": 0.5, "location": {"lat": 41.03795551720724, "lng": 125.14870589997194}, "feature": {"sight_features": "", "sight_content": ""}}, {"title": "飞瀑涧", "address": "丹东市宽甸满族自治县青山沟镇青山沟风景区内", "image": "", "rank": 14, "time": 0.4, "location": {"lat": 41.003900859791905, "lng": 125.27140782110637}, "feature": {"sight_features": "", "sight_content": ""}}, {"title": "牛毛坞镇", "address": "宽甸满族自治县北部", "image": "", "rank": 15, "time": 2, "location": {"lat": 40.737553200489806, "lng": 124.79042662867784}, "feature": {"sight_features": "", "sight_content": ""}}, {"title": "北山公园", "address": "丹东市宽甸满族自治县中心路412号", "image": "", "rank": 16, "time": 1.0, "location": {"lat": 40.74776636679846, "lng": 124.79384679216125}, "feature": {"sight_features": "", "sight_content": ""}}, {"title": "鸿运谷漂流", "address": "丹东市凤城市，宽甸县交接处忙牛河大峡谷（漂流起点：宽甸县青椅山镇八棵树村）", "image": "", "rank": 17, "time": 2, "location": {"lat": 40.75210557120772, "lng": 124.53382113498778}, "feature": {"sight_features": "", "sight_content": ""}}, {"title": "三道河朝鲜族民俗度假村", "address": "丹东市宽甸县下露河朝鲜族乡通江村一组", "image": "", "rank": 18, "time": 5.0, "location": {"lat": 40.910498331209766, "lng": 125.56097466460278}, "feature": {"sight_features": "", "sight_content": ""}}, {"title": "白石砬子自然保护区", "address": "丹东市宽甸县大川头镇", "image": "", "rank": 19, "time": 4.5, "location": {"lat": 40.87526331217391, "lng": 124.80201703707965}, "feature": {"sight_features": "", "sight_content": ""}}, {"title": "天桥沟抗联遗址", "address": "丹东市宽甸满族自治县天桥沟森林公园内", "image": "", "rank": 20, "time": 1.0, "location": {"lat": 41.06118870328249, "lng": 124.65723884481697}, "feature": {"sight_features": "", "sight_content": ""}}, {"title": "虎山长城历史博物馆", "address": "丹东市宽甸满族自治县虎山镇虎山村虎山长城景区内", "image": "", "rank": 21, "time": 1.0, "location": {"lat": 40.228854627704834, "lng": 124.52690629807041}, "feature": {"sight_features": "", "sight_content": ""}}, {"title": "水丰湖", "address": "丹东市宽甸县长甸镇拉古哨村", "image": "", "rank": 22, "time": null, "location": {"lat": 40.46524665029967, "lng": 124.94908020864432}, "feature": {"sight_features": "", "sight_content": ""}}, {"title": "宽甸博物馆", "address": "丹东市宽甸满族自治县宽甸镇府前西街3号", "image": "", "rank": 23, "time": 1.0, "location": {"lat": 40.737618196443606, "lng": 124.7900881669244}, "feature": {"sight_features": "", "sight_content": ""}}, {"title": "虎塘沟景区", "address": "丹东市宽甸满族自治县青山沟镇青山沟风景区内", "image": "", "rank": 24, "time": 1.5, "location": {"lat": 41.003900859791905, "lng": 125.27140782110637}, "feature": {"sight_features": "", "sight_content": ""}}, {"title": "天罡山", "address": "丹东市宽甸县大川头镇", "image": "", "rank": 25, "time": 2, "location": {"lat": 40.87526331217391, "lng": 124.80201703707965}, "feature": {"sight_features": "", "sight_content": ""}}, {"title": "中华满族风情园", "address": "丹东市宽甸满族自治县青山沟镇青山沟风景区内", "image": "", "rank": 26, "time": 1.5, "location": {"lat": 41.003900859791905, "lng": 125.27140782110637}, "feature": {"sight_features": "", "sight_content": ""}}, {"title": "天逸码头", "address": "丹东市宽甸满族自治县虎山村", "image": "", "rank": 27, "time": 2, "location": {"lat": 40.237437993112664, "lng": 124.52877684143046}, "feature": {"sight_features": "", "sight_content": ""}}, {"title": "梦幻城堡", "address": "丹东市宽甸县虎山镇虎山村虎山长城广场左侧", "image": "", "rank": 28, "time": 2, "location": {"lat": 40.230338836885394, "lng": 124.52883576128886}, "feature": {"sight_features": "", "sight_content": ""}}, {"title": "毛岸英学校", "address": "丹东市宽甸满族自治县长甸河口鸭绿江畔", "image": "", "rank": 29, "time": 1.0, "location": {"lat": 40.42328266491455, "lng": 124.81798358748523}, "feature": {"sight_features": "", "sight_content": ""}}, {"title": "青山沟抗联遗址", "address": "丹东市宽甸满族自治县青山沟镇青山沟风景区飞瀑涧景区内", "image": "", "rank": 30, "time": 1.0, "location": {"lat": 41.075334182157725, "lng": 125.23345240110545}, "feature": {"sight_features": "", "sight_content": ""}}, {"title": "绿江村浪头海平农庄", "address": "镇江镇绿江村", "image": "", "rank": 31, "time": 2, "location": {"lat": 29.937627565133596, "lng": 107.77283367587148}, "feature": {"sight_features": "", "sight_content": ""}}, {"title": "朝鲜内江游船", "address": "丹东市宽甸满族自治县虎山村砬子沟天逸码头", "image": "", "rank": 32, "time": 2, "location": {"lat": 40.237437993112664, "lng": 124.52877684143046}, "feature": {"sight_features": "", "sight_content": ""}}, {"title": "凤上线", "address": "丹东市宽甸满族自治县上河口村上河口站", "image": "", "rank": 33, "time": 2, "location": {"lat": 40.44412876109111, "lng": 124.86389859347432}, "feature": {"sight_features": "", "sight_content": ""}}, {"title": "大慧私房菜农家乐", "address": "长甸镇河口村毛岸英学校向东100米", "image": "", "rank": 34, "time": 2, "location": {"lat": 40.41253023671552, "lng": 124.81806726644008}, "feature": {"sight_features": "", "sight_content": ""}}, {"title": "海平农庄", "address": "宽甸振江镇小西沟", "image": "", "rank": 35, "time": 2, "location": {"lat": 40.78536152303183, "lng": 125.30130618807297}, "feature": {"sight_features": "", "sight_content": ""}}, {"title": "水丰水库", "address": "丹东市宽甸满族自治县", "image": "", "rank": 36, "time": 1.5, "location": {"lat": 40.737553200489806, "lng": 124.79042662867784}, "feature": {"sight_features": "", "sight_content": ""}}, {"title": "庙沟景区", "address": "丹东宽甸满族自治县长甸镇拉古哨村", "image": "", "rank": 37, "time": 2, "location": {"lat": 40.46524665029967, "lng": 124.94908020864432}, "feature": {"sight_features": "", "sight_content": ""}}, {"title": "鸿运谷", "address": "辽宁省丹东市宽甸县青椅山八颗树", "image": "", "rank": 38, "time": 2, "location": {"lat": 40.721577955374514, "lng": 124.64823976394689}, "feature": {"sight_features": "", "sight_content": ""}}, {"title": "清泉寺", "address": "丹东市宽甸县黄椅山大街197号黄椅山森林公园内", "image": "", "rank": 39, "time": 1.5, "location": {"lat": 40.734888593229485, "lng": 124.77876815027768}, "feature": {"sight_features": "", "sight_content": ""}}, {"title": "济源宝塔", "address": "丹东市宽甸满族自治县黄椅山大街197号黄椅山森林公园内", "image": "", "rank": 40, "time": 0.4, "location": {"lat": 40.734888593229485, "lng": 124.77876815027768}, "feature": {"sight_features": "", "sight_content": ""}}, {"title": "绿野蓝湾温泉度假景区", "address": "丹东市宽甸县石湖沟乡杨木村九组", "image": "", "rank": 41, "time": 2, "location": {"lat": 40.7126465841914, "lng": 124.77236709470523}, "feature": {"sight_features": "", "sight_content": "绿野蓝湾温泉度假景区在宽甸满族自治县位于丹东北部，景区设计及建筑风格独特，可以提供餐饮住宿、温泉洗浴、嬉水游乐、商务会议、婚礼喜宴、特色竹筏漂流等服务，提供各种娱乐及运动场所，配套设施完善。"}}, {"title": "龙韵湾漂流", "address": "丹东市宽甸县古楼子乡", "image": "", "rank": 42, "time": 2, "location": {"lat": 40.33764150241336, "lng": 124.65365164771212}, "feature": {"sight_features": "特色1 最新开发的‌‌可控式水域漂流区！ 特色2 与虎山长城风景区、太平湾风景区、河口风景区同在一条沿江旅游线路上！ 特色3 远眺龙韵湾，犹如一条向东升腾的银龙，东西两侧被万亩桃园所拥抱！", "sight_content": "龙韵湾漂流是辽宁丹东漂流最新开发的‌‌可控式水域漂流区，距丹东市只有30公里。它的起点坐落在蒲石河丰发电站大坝下，终点至蒲石河与鸭绿江交汇处，全长11公里。沿丹东滨江大道向东而上，行至蒲石河大桥便可一览龙韵湾的无限风采。龙韵湾漂流区景色绮丽，光彩照人。与虎山长城风景区、太平湾风景区、河口风景区同在一条沿江旅游线路上，丹东漂流的开发为鸭绿江大旅游格局增添了一道极具亮丽的风景线，真可谓是龙兴之脉，世外桃园。远眺龙韵湾，犹如一条向东升腾的银龙，东西两侧被万亩桃园所拥抱，南北顺水漂下山重水复，千峰竞秀，自然景观和人文景观交相辉映，漂流渠道水面宽敞，激流之处惊而无险，平稳之处悠闲自在，犹如仙境博舟，似在画中畅游，大有“轻舟已过万重山”的畅快与欢乐。"}}, {"title": "安平河漂流", "address": "丹东市宽甸满族自治县虎山镇安平河村安平峡漂流度假", "image": "", "rank": 43, "time": 2, "location": {"lat": 40.333764317268624, "lng": 124.56941463761638}, "feature": {"sight_features": "", "sight_content": ""}}, {"title": "圣府避暑山庄", "address": "石湖沟乡双岭子村", "image": "", "rank": 44, "time": 2, "location": {"lat": 40.690500640053436, "lng": 124.72927997242766}, "feature": {"sight_features": "", "sight_content": ""}}, {"title": "清流书画院", "address": "东环路44号附近", "image": "", "rank": 45, "time": 1.0, "location": {"lat": 39.72578689352962, "lng": 117.3343453703682}, "feature": {"sight_features": "", "sight_content": ""}}, {"title": "马成美术设计工作室", "address": "新兴街", "image": "", "rank": 46, "time": 2, "location": {"lat": 37.30645980529387, "lng": 120.8404704712203}, "feature": {"sight_features": "", "sight_content": ""}}, {"title": "腾翔码头", "address": "沿江路319省道虎山长城脚下", "image": "", "rank": 47, "time": 2, "location": {"lat": 23.121864282887806, "lng": 113.28399612328477}, "feature": {"sight_features": "", "sight_content": ""}}, {"title": "洋子峡漂流", "address": "二零二省道附近", "image": "", "rank": 48, "time": 2, "location": {"lat": 29.478159211095747, "lng": 120.36210347830031}, "feature": {"sight_features": "", "sight_content": ""}}, {"title": "鸭绿江口滨海湿地", "address": "辽宁省东港市二道沟村 118313", "image": "", "rank": 49, "time": 2, "location": {"lat": 39.8677161872864, "lng": 124.15961035888098}, "feature": {"sight_features": "", "sight_content": ""}}, {"title": "九曲桥-凉亭", "address": "丹东市宽甸满族自治县下拉线附近长河岛景区九曲桥内", "image": "", "rank": 50, "time": 2, "location": {"lat": 40.430427912059244, "lng": 124.84592645833969}, "feature": {"sight_features": "", "sight_content": ""}}, {"title": "龙泉山庄-凉亭", "address": "丹东市宽甸满族自治县清源山庄附近龙泉山庄内", "image": "", "rank": 51, "time": 2, "location": {"lat": 40.46044050032863, "lng": 124.86543444347252}, "feature": {"sight_features": "", "sight_content": ""}}, {"title": "儿童乐园", "address": "丹东市宽甸满族自治县黄椅山火山森林公园火山锥景区内", "image": "", "rank": 52, "time": 2, "location": {"lat": 40.734733440066904, "lng": 124.77252798122207}, "feature": {"sight_features": "", "sight_content": ""}}, {"title": "可心水族馆", "address": "北环东路3号附近", "image": "", "rank": 53, "time": 2, "location": {"lat": 39.81504645293034, "lng": 116.51175533690977}, "feature": {"sight_features": "", "sight_content": ""}}, {"title": "民族团结进步教育基地-主题展厅", "address": "丹东市宽甸满族自治县青山沟乡青山沟国家重点风景名胜区满家寨东端中华满族风情园民族团结进步教育基地内", "image": "", "rank": 54, "time": 2, "location": {"lat": 40.996362159927756, "lng": 125.22455908672612}, "feature": {"sight_features": "", "sight_content": ""}}, {"title": "何仙姑亭", "address": "丹东市宽甸满族自治县天桥沟森林公园内", "image": "", "rank": 55, "time": 2, "location": {"lat": 41.06118870328249, "lng": 124.65723884481697}, "feature": {"sight_features": "", "sight_content": ""}}, {"title": "民俗广场", "address": "丹东市宽甸满族自治县下拉线附近长河岛景区内", "image": "", "rank": 56, "time": 2, "location": {"lat": 40.430427912059244, "lng": 124.84592645833969}, "feature": {"sight_features": "", "sight_content": ""}}, {"title": "丹东小千岛湖度假村", "address": "辽宁省丹东市宽甸满族自治县红石镇小韭菜沟村十三组", "image": "", "rank": 57, "time": 1.0, "location": {"lat": 40.63684303328159, "lng": 125.00013092964078}, "feature": {"sight_features": "", "sight_content": ""}}, {"title": "丹东神水泉度假村", "address": "辽宁省丹东市宽甸满族自治县X615", "image": "", "rank": 58, "time": 1.0, "location": {"lat": 40.737553200489806, "lng": 124.79042662867784}, "feature": {"sight_features": "", "sight_content": ""}}, {"title": "丹东青山沟信丞农家院", "address": "青山沟镇青山沟村1组", "image": "", "rank": 59, "time": 1.0, "location": {"lat": 41.00755783571945, "lng": 125.19886802254776}, "feature": {"sight_features": "", "sight_content": ""}}, {"title": "黎明山庄", "address": "丹东市宽甸满族自治县双山子镇黎明村7组", "image": "", "rank": 60, "time": null, "location": {"lat": 41.07249942683154, "lng": 124.70485837832481}, "feature": {"sight_features": "", "sight_content": ""}}]}