{"cityName": "库车", "days": 2, "cityImage": "", "spots": [{"title": "天山神秘大峡谷", "address": "阿克苏地区库车县217国道1025号北侧，库车县城以北64公里的山区", "image": "", "rank": 1, "time": 2.5, "location": {"lat": 42.24303528436853, "lng": 83.24596889492061}, "feature": {"sight_features": "特色1 奇峰异石千姿百态，数不胜数", "sight_content": "进入谷内，在红褐色的山峦中步行，仿佛进入了一个幽静清凉的世界。谷口十分开阔，但是深入谷中，峰回路转，时而宽阔，时而狭窄，有些地方仅容一人侧身通过。\n谷底比较平坦，许多时候都能够闲庭信步，两侧是高耸的石壁，脚下是细沙，不少路段还覆着一层浅浅的水，结着薄薄的一层冰。抬头仰望，在蓝天的映照下，奇峰异石千姿百态，数不胜数，神犬守谷、旋天古堡、显灵洞、玉女泉、卧驼峰等景观个个形态逼真。\n峡谷中神秘的阿艾石窟距谷口不足2公里，高悬于绝壁之上，最初仅可攀着30多米高的悬梯而上，如今旁边已经加建了石阶栈道。"}}, {"title": "库车王府", "address": "阿克苏地区库车县老城林基路街库车王府", "image": "", "rank": 2, "time": 3.5, "location": {"lat": 41.7282856662754, "lng": 82.92942573600862}, "feature": {"sight_features": "特色1 库车县旅游资源的标志性工程", "sight_content": "库车王府位于库车老城林基路街，于2006年3月26日开门迎客。游览王府，首先要知道王公们的晋封史及王府始建与衰落的过程，库车王共传袭12代，王之先祖鄂对清乾隆二十四年（1759）在平定大小和卓的叛乱中建立功勋，而被赐封贝勒。至鄂对之孙伊萨克时，于清道光八年（1828），与清军平定张格尔叛乱，擒获张格尔，因功晋封郡王。清廷按照郡王应享受的俸禄规格始建王府。民国初年，买买提敏赞助共和，晋封亲王。王府衰落于第十一代王买合甫孜，民国26年（1937）买合甫孜被盛世才逮捕，同时将王府所有财产进行查封。经年复一年的风晨雨夕，王府变为废墟。虽王府已湮没在历史的尘埃之中，但库车最后的一位王爷达吾提.买合苏提仍健在。\n重建的库车王府：\n2005年春始进行对王府的修复，重建的库车王府基本根据原貌进行恢复，建筑面积50000多平方米，融维吾尔族建筑风格、中原建筑风格、俄罗斯建筑风格为一体。踏进库车王府，就能听见近200年历史的回声，缅怀到王公家族史的风范，体验到他们维护祖国统一，加强民族团结品德气节的主流。库车博物馆已搬迁至王府内，易名龟兹博物馆。\n王府景区分三个参观游览区：\n一是以龟兹文化为主线的龟兹博物馆展区。分为龟兹春秋、龟兹佛韵、民族民俗、生产工具、民间工艺、龟兹钱币六个展馆，共展出文物1.2万余件，有九大类、358种，以早期社会民风民俗所表现的古龟兹文化的文物最具代表性。充分展示了龟兹的开放，和谐、多元、多姿文化的辉煌。\n二是以库车王为主线的王府展区，分为六部分：末代王展馆、王府历史馆、王爷官邸、王府凉亭、王府陈列馆、王爷家访区。充分展示了近250年来库车王室家族的辉煌与没落。\n三是以古城墙垣为主线的老城墙游览区。分为王府城墙，汉城墙，末代王陵，千米民族画廊。\n库车王府已成为库车县开发旅游资源的标志性工程。并于2006年8月晋升为国家aaa级旅游名胜风景区，2007年11月荣膺国家4a级旅游景区。2008年荣获自治区级文明风景旅游区光荣称号。中国历史上目前唯一健在的最后一位王爷——“库车王”达吾提·买合苏提入住府内，游客有幸在王爷家做客，一睹王爷风采。\n您想目睹中国唯一健在的王爷风采吗？您想了解灿烂的龟兹文化和佛教艺术吗？您想感受浓郁的民族风情和见证厚重的库车历史吗？请到库车王府来。"}}, {"title": "库车大寺", "address": "阿克苏地区库车县帕哈塔巴扎路", "image": "", "rank": 3, "time": 1.5, "location": {"lat": 41.72604121458722, "lng": 82.9356744972666}, "feature": {"sight_features": "", "sight_content": ""}}, {"title": "大龙池", "address": "阿克苏地区库车县大龙池旅游风景区(217国道南)", "image": "", "rank": 4, "time": 1.0, "location": {"lat": 42.45568854723199, "lng": 83.32719957075933}, "feature": {"sight_features": "", "sight_content": ""}}, {"title": "龟兹生态园", "address": "阿克苏地区库车县", "image": "", "rank": 5, "time": 2.0, "location": {"lat": 41.723447514832976, "lng": 82.96845878728406}, "feature": {"sight_features": "", "sight_content": ""}}, {"title": "苏巴什故城", "address": "库车县城北23公里处的库车河龙口两岸山梁", "image": "", "rank": 6, "time": null, "location": {"lat": 41.91051922352326, "lng": 83.07147215130188}, "feature": {"sight_features": "", "sight_content": ""}}, {"title": "龟兹古城遗址", "address": "阿克苏地区库车县城西约2公里的皮朗村，杏花园对面", "image": "", "rank": 7, "time": 0.75, "location": {"lat": 41.73041001925983, "lng": 82.95425844618576}, "feature": {"sight_features": "", "sight_content": ""}}, {"title": "克孜尔尕哈千佛洞", "address": "阿克苏地区库车县城西北13公里的山沟内", "image": "", "rank": 8, "time": 2, "location": {"lat": 41.723447514832976, "lng": 82.96845878728406}, "feature": {"sight_features": "", "sight_content": ""}}, {"title": "克孜尔尕哈烽燧", "address": "阿克苏地区库车县依西哈拉乡却勒塔格山南麓盐水沟沟口的冲击台地上，东南距库车县城10千米", "image": "", "rank": 9, "time": 0.25, "location": {"lat": 41.90826008694198, "lng": 82.93087404721285}, "feature": {"sight_features": "", "sight_content": ""}}, {"title": "盐水沟", "address": "库车县沿独库（独山子至库车）公路向北约10余公里", "image": "", "rank": 10, "time": 2, "location": {"lat": 41.723447514832976, "lng": 82.96845878728406}, "feature": {"sight_features": "", "sight_content": ""}}, {"title": "林基路烈士纪念馆", "address": "阿克苏地区库车县", "image": "", "rank": 11, "time": 1.0, "location": {"lat": 41.723447514832976, "lng": 82.96845878728406}, "feature": {"sight_features": "", "sight_content": ""}}, {"title": "龟兹文化博物馆", "address": "阿克苏地区新和县解放路", "image": "", "rank": 12, "time": 2, "location": {"lat": 41.55332732167709, "lng": 82.62240911960623}, "feature": {"sight_features": "", "sight_content": ""}}, {"title": "库木吐拉千佛洞", "address": "阿克苏地区库车县", "image": "", "rank": 13, "time": 1.0, "location": {"lat": 41.723447514832976, "lng": 82.96845878728406}, "feature": {"sight_features": "", "sight_content": ""}}, {"title": "库车大巴扎", "address": "库车县团结新桥附近", "image": "", "rank": 14, "time": 2, "location": {"lat": 41.72259460565378, "lng": 82.93823525501269}, "feature": {"sight_features": "", "sight_content": ""}}, {"title": "昭怙厘大寺", "address": "阿克苏地区库车县", "image": "", "rank": 15, "time": 1.0, "location": {"lat": 41.723447514832976, "lng": 82.96845878728406}, "feature": {"sight_features": "", "sight_content": ""}}, {"title": "默拉纳额什丁麻扎", "address": "库车新老城之间", "image": "", "rank": 16, "time": 1.0, "location": {"lat": 41.723447514832976, "lng": 82.96845878728406}, "feature": {"sight_features": "", "sight_content": ""}}, {"title": "森木塞姆千佛洞", "address": "阿克苏地区库车县", "image": "", "rank": 17, "time": 1.0, "location": {"lat": 41.723447514832976, "lng": 82.96845878728406}, "feature": {"sight_features": "", "sight_content": ""}}, {"title": "胡田阿达古城", "address": "库车东北约7公里处，位于乌恰河与伊苏巴什河之间名为明田阿达的戈壁高地上。", "image": "", "rank": 18, "time": 1.0, "location": {"lat": 41.723447514832976, "lng": 82.96845878728406}, "feature": {"sight_features": "", "sight_content": ""}}, {"title": "玛扎伯哈石窟", "address": "阿克苏库车县库车东北30公里处的沙土原上，玛扎伯哈村西南不到500米处的山坡上。", "image": "", "rank": 19, "time": 1.0, "location": {"lat": 41.723447514832976, "lng": 82.96845878728406}, "feature": {"sight_features": "", "sight_content": ""}}, {"title": "库车老城区", "address": "新疆维吾尔自治区阿克苏地区库车县", "image": "", "rank": 20, "time": 6.0, "location": {"lat": 41.723447514832976, "lng": 82.96845878728406}, "feature": {"sight_features": "", "sight_content": ""}}, {"title": "克黑墩烽火台", "address": "阿克苏地区库车县帕哈塔巴扎路西200米", "image": "", "rank": 21, "time": 2, "location": {"lat": 41.723447514832976, "lng": 82.96845878728406}, "feature": {"sight_features": "", "sight_content": ""}}, {"title": "库车县再帕尔美食旅游城", "address": "新疆维吾尔自治区阿克苏地区库车县天山西路乌兹花园九号楼二三层", "image": "", "rank": 22, "time": 2, "location": {"lat": 41.73150077541884, "lng": 82.94763755324654}, "feature": {"sight_features": "", "sight_content": ""}}, {"title": "库车回民街", "address": "库车 回民街", "image": "", "rank": 23, "time": 3.0, "location": {"lat": 41.723447514832976, "lng": 82.96845878728406}, "feature": {"sight_features": "", "sight_content": ""}}, {"title": "金泉休闲度假村", "address": "福洋路", "image": "", "rank": 24, "time": 2, "location": {"lat": 26.637940194318357, "lng": 119.55211882734766}, "feature": {"sight_features": "", "sight_content": ""}}, {"title": "巴格湾葡萄园", "address": "幸福西路巴格湾", "image": "", "rank": 25, "time": 2, "location": {"lat": 39.282468893611814, "lng": 117.32182055804948}, "feature": {"sight_features": "", "sight_content": ""}}, {"title": "清城墙遗址", "address": "天山西路附近", "image": "", "rank": 26, "time": 2, "location": {"lat": 44.20094620489336, "lng": 88.47888356231611}, "feature": {"sight_features": "", "sight_content": ""}}, {"title": "库车大峡谷国家地质公园", "address": "阿格乡217国道1025.8公里北侧", "image": "", "rank": 27, "time": 2.5, "location": {"lat": 41.93294788267385, "lng": 82.86495638682457}, "feature": {"sight_features": "", "sight_content": ""}}, {"title": "土塔", "address": "新疆维吾尔自治区库车县城西10 公里的公路旁 842000", "image": "", "rank": 28, "time": 0.25, "location": {"lat": 41.723447514832976, "lng": 82.96845878728406}, "feature": {"sight_features": "", "sight_content": ""}}, {"title": "小神童游乐园", "address": "萨克萨克街道亿家超市三楼", "image": "", "rank": 29, "time": null, "location": {"lat": 41.72744111700781, "lng": 82.95595506610076}, "feature": {"sight_features": "", "sight_content": ""}}, {"title": "库车基督教堂", "address": "新疆维吾尔自治区阿克苏地区库车县英阿瓦提路", "image": "", "rank": 30, "time": 1.0, "location": {"lat": 41.72066846208473, "lng": 83.00521762841346}, "feature": {"sight_features": "", "sight_content": ""}}, {"title": "库车饭店旅游渡假村", "address": "新疆维吾尔自治区阿克苏地区库车县乌恰镇库车站西南800米", "image": "", "rank": 31, "time": 2.5, "location": {"lat": 41.69498917316764, "lng": 83.02463068017084}, "feature": {"sight_features": "", "sight_content": ""}}, {"title": "天逸静园", "address": "217国道附近", "image": "", "rank": 32, "time": 2, "location": {"lat": 46.09021986160262, "lng": 85.6911496903215}, "feature": {"sight_features": "", "sight_content": ""}}, {"title": "库车县档案馆", "address": "阿木提鲁巴格路", "image": "", "rank": 33, "time": 2, "location": {"lat": 41.72434651502991, "lng": 82.96808257693648}, "feature": {"sight_features": "", "sight_content": ""}}, {"title": "梦归自然农家乐", "address": "福洋路", "image": "", "rank": 34, "time": 2, "location": {"lat": 26.637940194318357, "lng": 119.55211882734766}, "feature": {"sight_features": "", "sight_content": ""}}, {"title": "库车县图书馆", "address": "文化中路18号", "image": "", "rank": 35, "time": 2, "location": {"lat": 31.921749239977878, "lng": 120.28891980287771}, "feature": {"sight_features": "", "sight_content": ""}}, {"title": "东方书画苑", "address": "文化中路4-10附近", "image": "", "rank": 36, "time": 1.5, "location": {"lat": 36.861027601506436, "lng": 120.52799391682824}, "feature": {"sight_features": "", "sight_content": ""}}, {"title": "中大鳄鱼", "address": "解放路15号附近", "image": "", "rank": 37, "time": 2, "location": {"lat": 39.62303399996103, "lng": 118.21060856247128}, "feature": {"sight_features": "", "sight_content": ""}}, {"title": "好客鱼庄", "address": "乌尊镇英尼和村", "image": "", "rank": 38, "time": 2, "location": {"lat": 41.65919000835059, "lng": 83.0681989341609}, "feature": {"sight_features": "", "sight_content": ""}}, {"title": "舒心桃园", "address": "比西巴格乡依格孜库木村", "image": "", "rank": 39, "time": 2, "location": {"lat": 41.68024098056415, "lng": 82.91330080679589}, "feature": {"sight_features": "", "sight_content": ""}}, {"title": "苏巴什古城", "address": "新疆维吾尔自治区库车县城郊北山龙口", "image": "", "rank": 40, "time": 2, "location": {"lat": 41.90722667988806, "lng": 83.07033624955402}, "feature": {"sight_features": "", "sight_content": ""}}, {"title": "库车县步行街", "address": "新疆维吾尔自治区库车县团结路与民族风味美食一条街交叉口附近", "image": "", "rank": 41, "time": 2, "location": {"lat": 41.7183592437218, "lng": 82.97148716002948}, "feature": {"sight_features": "", "sight_content": ""}}, {"title": "金都地下街", "address": "新疆维吾尔自治区库车县文化中路南侧", "image": "", "rank": 42, "time": 2, "location": {"lat": 41.72170406300259, "lng": 82.97313165675538}, "feature": {"sight_features": "", "sight_content": ""}}, {"title": "团结广场", "address": "阿克苏地区库车县人民路与实验井路交叉口北100米", "image": "", "rank": 43, "time": 2, "location": {"lat": 41.72296045959377, "lng": 82.94157899183112}, "feature": {"sight_features": "", "sight_content": ""}}, {"title": "英吐尔一村", "address": "阿克苏地区-库车县-乌尊镇", "image": "", "rank": 44, "time": 2, "location": {"lat": 41.672802283076756, "lng": 83.03542398149025}, "feature": {"sight_features": "", "sight_content": ""}}, {"title": "吐格曼拜什", "address": "阿克苏地区-库车县-一八八乡道", "image": "", "rank": 45, "time": 2, "location": {"lat": 41.723447514832976, "lng": 82.96845878728406}, "feature": {"sight_features": "", "sight_content": ""}}, {"title": "霍加吐鲁斯村", "address": "阿克苏地区-库车县-一九三乡道", "image": "", "rank": 46, "time": 2, "location": {"lat": 41.723447514832976, "lng": 82.96845878728406}, "feature": {"sight_features": "", "sight_content": ""}}, {"title": "玉斯屯吐格其村", "address": "阿克苏地区-库车县-一三二乡道", "image": "", "rank": 47, "time": 2, "location": {"lat": 41.723447514832976, "lng": 82.96845878728406}, "feature": {"sight_features": "", "sight_content": ""}}, {"title": "库车小龙池", "address": "新疆维吾尔自治区阿克苏地区库车县", "image": "", "rank": 48, "time": 2.5, "location": {"lat": 41.723447514832976, "lng": 82.96845878728406}, "feature": {"sight_features": "", "sight_content": ""}}, {"title": "苏巴什昭怙厘佛寺遗址", "address": "阿克苏地区库车县(库车城东北约20公里的苏巴什北山龙口)", "image": "", "rank": 49, "time": 2, "location": {"lat": 41.723447514832976, "lng": 82.96845878728406}, "feature": {"sight_features": "", "sight_content": ""}}, {"title": "金字塔自然旅游区", "address": "新疆维吾尔自治区阿克苏地区库车县以北15公里G217线两侧", "image": "", "rank": 50, "time": 2, "location": {"lat": 41.82431907695223, "lng": 82.96845878728406}, "feature": {"sight_features": "", "sight_content": ""}}, {"title": "顷希阿尔故城", "address": "新疆维吾尔自治区库车县东南60公里处的东湖戈壁", "image": "", "rank": 51, "time": 2, "location": {"lat": 41.723447514832976, "lng": 83.50744209327084}, "feature": {"sight_features": "", "sight_content": ""}}]}