{"cityName": "库尔勒", "days": 2, "cityImage": "", "spots": [{"title": "孔雀河", "address": "巴音郭楞蒙古自治州库尔勒市", "image": "", "rank": 1, "time": 2, "location": {"lat": 41.7323732214122, "lng": 86.18149430993829}, "feature": {"sight_features": "", "sight_content": ""}}, {"title": "铁门关", "address": "巴音郭楞蒙古自治州库尔勒市北郊8公里处", "image": "", "rank": 2, "time": 3.5, "location": {"lat": 41.7323732214122, "lng": 86.18149430993829}, "feature": {"sight_features": "", "sight_content": ""}}, {"title": "库尔勒莲花湖", "address": "新疆维吾尔自治区巴音郭楞蒙古自治州库尔勒市", "image": "", "rank": 3, "time": 2, "location": {"lat": 41.7323732214122, "lng": 86.18149430993829}, "feature": {"sight_features": "", "sight_content": ""}}, {"title": "沙依东香梨园", "address": "巴音郭楞蒙古自治州市西郊孔雀河畔", "image": "", "rank": 4, "time": 2, "location": {"lat": 41.7702873304504, "lng": 86.1517138653326}, "feature": {"sight_features": "", "sight_content": ""}}, {"title": "加麦大清真寺", "address": "库尔勒市团结路", "image": "", "rank": 5, "time": 2, "location": {"lat": 41.803652513325254, "lng": 86.03266210685995}, "feature": {"sight_features": "", "sight_content": ""}}, {"title": "博格达沁故城", "address": "巴音郭楞州焉耆县四十里城子镇", "image": "", "rank": 6, "time": 5.0, "location": {"lat": 41.97308175938142, "lng": 86.48656503356362}, "feature": {"sight_features": "", "sight_content": ""}}, {"title": "巴州博物馆", "address": "新疆维吾尔自治区巴音郭楞蒙古自治州库尔勒市 ‎", "image": "", "rank": 7, "time": 2, "location": {"lat": 41.7323732214122, "lng": 86.18149430993829}, "feature": {"sight_features": "", "sight_content": ""}}, {"title": "三垅沙雅丹", "address": "新疆阿奇克谷地三垅沙以东一带", "image": "", "rank": 8, "time": 2, "location": {"lat": 43.79923810128996, "lng": 87.63347320573824}, "feature": {"sight_features": "", "sight_content": ""}}, {"title": "阿克夏多神泉", "address": "巴音郭楞自治州和静县巴音郭楞乡（二乡）向西南约30公里", "image": "", "rank": 9, "time": 2, "location": {"lat": 42.85557726535949, "lng": 83.75504284946102}, "feature": {"sight_features": "", "sight_content": ""}}, {"title": "迷途库尔勒旗舰店", "address": "库尔勒市青年路人大高层旭苑日单元三楼2号楼", "image": "", "rank": 10, "time": 2, "location": {"lat": 41.76857426232934, "lng": 86.15369367498165}, "feature": {"sight_features": "", "sight_content": ""}}, {"title": "罗布泊雅丹大峡谷", "address": "巴音郭楞蒙古自治州尉犁县", "image": "", "rank": 11, "time": 2, "location": {"lat": 41.350122782053845, "lng": 86.26603653639884}, "feature": {"sight_features": "", "sight_content": ""}}, {"title": "库尔勒清真寺", "address": "库尔勒市梨乡路", "image": "", "rank": 12, "time": 1.0, "location": {"lat": 41.803661401399886, "lng": 86.0398384841689}, "feature": {"sight_features": "", "sight_content": ""}}, {"title": "坏果果儿童乐园", "address": "朝阳路与石化大道交口汇嘉时代3楼", "image": "", "rank": 13, "time": 2, "location": {"lat": 41.75248090650809, "lng": 86.16856370939529}, "feature": {"sight_features": "", "sight_content": ""}}, {"title": "龙山公园", "address": "库尔勒市218国道", "image": "", "rank": 14, "time": 2, "location": {"lat": 41.826947392871595, "lng": 86.27694887559495}, "feature": {"sight_features": "", "sight_content": ""}}, {"title": "马兰烈士陵园", "address": "新疆维吾尔自治区巴音郭楞蒙古自治州和硕县", "image": "", "rank": 15, "time": 2, "location": {"lat": 42.28806506242823, "lng": 86.88368903725248}, "feature": {"sight_features": "", "sight_content": ""}}, {"title": "将军楼", "address": "新疆维吾尔自治区巴音郭楞蒙古自治州库尔勒市", "image": "", "rank": 16, "time": 2, "location": {"lat": 41.7323732214122, "lng": 86.18149430993829}, "feature": {"sight_features": "", "sight_content": ""}}, {"title": "乐农美田生态园", "address": "龙山公园以东2公里处", "image": "", "rank": 17, "time": 2, "location": {"lat": 39.96321740893877, "lng": 118.7591387369264}, "feature": {"sight_features": "", "sight_content": ""}}, {"title": "塔里木石油展览馆", "address": "西安石油大学塔里木油田研究生工作站附近", "image": "", "rank": 18, "time": 2, "location": {"lat": 34.219061017899364, "lng": 108.93761244620465}, "feature": {"sight_features": "", "sight_content": ""}}, {"title": "玉枝果公司果业基地", "address": "扬帆种植园附近", "image": "", "rank": 19, "time": 2, "location": {"lat": 24.233448409815395, "lng": 99.41427651623523}, "feature": {"sight_features": "", "sight_content": ""}}, {"title": "六道湾农庄", "address": "307省道附近", "image": "", "rank": 20, "time": 2, "location": {"lat": 40.264498296993764, "lng": 116.57268632168496}, "feature": {"sight_features": "", "sight_content": ""}}, {"title": "伊帕尔汗薰衣草", "address": "人民东路与广场路交叉口西北100米", "image": "", "rank": 21, "time": 2, "location": {"lat": 29.713529455737493, "lng": 107.40418568011292}, "feature": {"sight_features": "", "sight_content": ""}}, {"title": "孔雀海滩海滨浴场", "address": "博斯腾湖大湖区西南角", "image": "", "rank": 22, "time": 2, "location": {"lat": 30.576605413718905, "lng": 104.24089757908337}, "feature": {"sight_features": "", "sight_content": ""}}, {"title": "金鹏湾生态庄园", "address": "农场阿瓦提农场", "image": "", "rank": 23, "time": 2, "location": {"lat": 41.66894083588075, "lng": 86.12112742176743}, "feature": {"sight_features": "", "sight_content": ""}}, {"title": "文物陈列馆", "address": "新疆巴州库尔勒市从民广场", "image": "", "rank": 24, "time": 2, "location": {"lat": 41.7323732214122, "lng": 86.18149430993829}, "feature": {"sight_features": "", "sight_content": ""}}, {"title": "库尔勒城乡规划展示馆", "address": "新疆维吾尔自治区库尔勒市市审计局旁", "image": "", "rank": 25, "time": 2, "location": {"lat": 41.7323732214122, "lng": 86.18149430993829}, "feature": {"sight_features": "", "sight_content": ""}}, {"title": "塔里木石油物探展览", "address": "新疆维吾尔自治区库尔勒市物探文化中心附近", "image": "", "rank": 26, "time": 2, "location": {"lat": 41.7187141952372, "lng": 86.18370173008154}, "feature": {"sight_features": "", "sight_content": ""}}, {"title": "风帆广场", "address": "巴音郭勒州库尔勒市滨河路19号", "image": "", "rank": 27, "time": 2, "location": {"lat": 41.76509552891351, "lng": 86.15673931315897}, "feature": {"sight_features": "", "sight_content": ""}}, {"title": "巴音郭楞蒙古自治州科技馆", "address": "广场路", "image": "", "rank": 28, "time": 7.5, "location": {"lat": 39.36754798377137, "lng": 117.89038980393971}, "feature": {"sight_features": "", "sight_content": ""}}, {"title": "库尔勒市图书馆", "address": "朝阳路", "image": "", "rank": 29, "time": 1.5, "location": {"lat": 38.85447906919534, "lng": 117.45512926191672}, "feature": {"sight_features": "", "sight_content": ""}}, {"title": "雨水生态园", "address": "其兰巴格村", "image": "", "rank": 30, "time": 2, "location": {"lat": 41.74256554027502, "lng": 86.1412220893305}, "feature": {"sight_features": "", "sight_content": ""}}, {"title": "巴音郭楞蒙古自治州博物馆", "address": "邮政大厦对面", "image": "", "rank": 31, "time": 7.5, "location": {"lat": 39.7232222479346, "lng": 117.31517139588502}, "feature": {"sight_features": "", "sight_content": ""}}, {"title": "乐之翼儿童乐园", "address": "人民西路德丰商厦", "image": "", "rank": 32, "time": 2, "location": {"lat": 41.76607648849938, "lng": 86.14964999018783}, "feature": {"sight_features": "", "sight_content": ""}}, {"title": "桔子乐园", "address": "金三角梨园街金汇莱广场三楼(金三角)", "image": "", "rank": 33, "time": 2, "location": {"lat": 39.03236544127244, "lng": 117.60824003188654}, "feature": {"sight_features": "", "sight_content": ""}}, {"title": "东归水上乐园", "address": "龙山东归滑雪场内", "image": "", "rank": 34, "time": 2, "location": {"lat": 42.90763401213302, "lng": 125.14345242968848}, "feature": {"sight_features": "", "sight_content": ""}}, {"title": "只有可能", "address": "石化大道", "image": "", "rank": 35, "time": 2, "location": {"lat": 22.748207217680942, "lng": 114.49349550220738}, "feature": {"sight_features": "", "sight_content": ""}}, {"title": "库尔勒香梨种植基地", "address": "兴场大道附近", "image": "", "rank": 36, "time": 2, "location": {"lat": 41.66937724281569, "lng": 86.12477993224049}, "feature": {"sight_features": "", "sight_content": ""}}, {"title": "中国数字图书馆", "address": "红太阳路巴音郭楞职业技术学院网络中心附近", "image": "", "rank": 37, "time": 2, "location": {"lat": 41.72072132457753, "lng": 86.24955211484306}, "feature": {"sight_features": "", "sight_content": ""}}, {"title": "郑雪梅园子", "address": "007乡道附近", "image": "", "rank": 38, "time": 2, "location": {"lat": 42.90705169386021, "lng": 129.6381359064959}, "feature": {"sight_features": "", "sight_content": ""}}, {"title": "柔情峡谷主题茶点屋", "address": "人民东路13号附近", "image": "", "rank": 39, "time": 2, "location": {"lat": 38.06822268702592, "lng": 114.64865496083561}, "feature": {"sight_features": "", "sight_content": ""}}, {"title": "星凯城水上乐园", "address": "开发大道红星美凯龙旁", "image": "", "rank": 40, "time": 2, "location": {"lat": 41.71541268466203, "lng": 86.25435254612222}, "feature": {"sight_features": "", "sight_content": ""}}, {"title": "库尔勒金盛源果树种植农民专业合...", "address": "英下路南100米", "image": "", "rank": 41, "time": 2, "location": {"lat": 41.74753449516631, "lng": 86.11901365832784}, "feature": {"sight_features": "", "sight_content": ""}}, {"title": "moveup幻走", "address": "萨依巴格路15号汇嘉时代3层", "image": "", "rank": 42, "time": 2, "location": {"lat": 41.76812408820799, "lng": 86.15147295641349}, "feature": {"sight_features": "", "sight_content": ""}}, {"title": "福林画廊", "address": "世纪城步行街9-18号", "image": "", "rank": 43, "time": 2, "location": {"lat": 31.4707878758284, "lng": 104.75488769018823}, "feature": {"sight_features": "", "sight_content": ""}}, {"title": "艾热提药桑甚农家乐风情园", "address": "库尔勒市兰干乡结帕尔村二队", "image": "", "rank": 44, "time": 2, "location": {"lat": 41.78490993241444, "lng": 86.03044103292211}, "feature": {"sight_features": "", "sight_content": ""}}, {"title": "河畔渔村农家乐", "address": "塔什店火电厂北", "image": "", "rank": 45, "time": 2, "location": {"lat": 41.83575050833695, "lng": 86.28103778926271}, "feature": {"sight_features": "", "sight_content": ""}}, {"title": "新疆四运集团公司秦剧团", "address": "交通路金孔雀旅馆附近X223", "image": "", "rank": 46, "time": 2, "location": {"lat": 41.77793922032998, "lng": 86.15465698367495}, "feature": {"sight_features": "", "sight_content": ""}}, {"title": "昊翔仙桃园", "address": "库普路", "image": "", "rank": 47, "time": 2, "location": {"lat": 37.21553699071627, "lng": 80.25516658343813}, "feature": {"sight_features": "", "sight_content": ""}}, {"title": "建设桥", "address": "巴音郭勒自治州库尔勒市孔雀河上，近风帆广场", "image": "", "rank": 48, "time": 2, "location": {"lat": 41.50246072174425, "lng": 85.81542217510442}, "feature": {"sight_features": "", "sight_content": ""}}, {"title": "人民广场", "address": "巴音郭勒自治州库尔勒市萨依巴格路43号", "image": "", "rank": 49, "time": 1.5, "location": {"lat": 41.768540582520934, "lng": 86.15095686327935}, "feature": {"sight_features": "", "sight_content": ""}}, {"title": "博湖地区湿地", "address": "新疆维吾尔自治区库尔勒市博斯腾湖周边", "image": "", "rank": 50, "time": 2, "location": {"lat": 41.7956029668216, "lng": 86.36606599900418}, "feature": {"sight_features": "", "sight_content": ""}}, {"title": "恒友广场步行街", "address": "新疆维吾尔自治区库尔勒市恒友广场步行街", "image": "", "rank": 51, "time": 2, "location": {"lat": 41.77624020612025, "lng": 86.15829429158487}, "feature": {"sight_features": "", "sight_content": ""}}, {"title": "海力帕尔综合商业街", "address": "新疆维吾尔自治区库尔勒市小雪超市附近", "image": "", "rank": 52, "time": 2, "location": {"lat": 41.7323732214122, "lng": 86.18149430993829}, "feature": {"sight_features": "", "sight_content": ""}}, {"title": "小康城商业街", "address": "新疆维吾尔自治区库尔勒市人民东路", "image": "", "rank": 53, "time": 2, "location": {"lat": 41.77375052504312, "lng": 86.16456214399088}, "feature": {"sight_features": "", "sight_content": ""}}, {"title": "库尔勒湖滨步行街", "address": "新疆维吾尔自治区库尔勒市延安路", "image": "", "rank": 54, "time": 2, "location": {"lat": 41.740138574828016, "lng": 86.16447777657469}, "feature": {"sight_features": "", "sight_content": ""}}, {"title": "夜宴至尊娱乐会所", "address": "巴音郭楞蒙古自治州-库尔勒市-S323(天山西路", "image": "", "rank": 55, "time": 2, "location": {"lat": 41.80917621865537, "lng": 86.11559596518457}, "feature": {"sight_features": "", "sight_content": ""}}, {"title": "龙兴苑网咖", "address": "巴音郭楞蒙古自治州-库尔勒市-新华路皇府大酒店旁", "image": "", "rank": 56, "time": 2, "location": {"lat": 41.742278680253385, "lng": 86.1839368531047}, "feature": {"sight_features": "", "sight_content": ""}}, {"title": "色代买里", "address": "巴音郭楞蒙古自治州-库尔勒市-新城街道色代买里", "image": "", "rank": 57, "time": 2, "location": {"lat": 41.73658089617283, "lng": 86.17135106021473}, "feature": {"sight_features": "", "sight_content": ""}}, {"title": "色代买里", "address": "巴音郭楞蒙古自治州-库尔勒市", "image": "", "rank": 58, "time": 2, "location": {"lat": 41.7323732214122, "lng": 86.18149430993829}, "feature": {"sight_features": "", "sight_content": ""}}, {"title": "人工湖滑冰场", "address": "巴音郭楞蒙古自治州-库尔勒市-民生路海港酒店旁人工湖", "image": "", "rank": 59, "time": 2, "location": {"lat": 41.72928937180604, "lng": 86.18181711638263}, "feature": {"sight_features": "", "sight_content": ""}}, {"title": "博斯腾游泳馆", "address": "巴音郭楞蒙古自治州-库尔勒市-人民西路92号博斯腾宾馆负一层", "image": "", "rank": 60, "time": 2, "location": {"lat": 41.76537514637182, "lng": 86.14136755966716}, "feature": {"sight_features": "", "sight_content": ""}}]}