{"cityName": "奎屯", "days": 2, "cityImage": "", "spots": [{"title": "奎屯河大峡谷", "address": "伊犁哈萨克自治州奎屯市西南20公里处", "image": "", "rank": 1, "time": 2.5, "location": {"lat": 44.303176031640234, "lng": 84.90944924168677}, "feature": {"sight_features": "", "sight_content": ""}}, {"title": "恒乐园", "address": "南环路", "image": "", "rank": 2, "time": 2, "location": {"lat": 38.02445208545248, "lng": 114.78866638114692}, "feature": {"sight_features": "", "sight_content": ""}}, {"title": "西果园刘氏蟠桃园", "address": "龙泉段", "image": "", "rank": 3, "time": 2, "location": {"lat": 26.92059282253098, "lng": 100.2134211708737}, "feature": {"sight_features": "", "sight_content": ""}}, {"title": "徐韵书画艺术馆", "address": "团结北街", "image": "", "rank": 4, "time": 2, "location": {"lat": 37.688511556406056, "lng": 114.90103117379483}, "feature": {"sight_features": "", "sight_content": ""}}, {"title": "宏鑫苗木基地·果园", "address": "清泉路附近", "image": "", "rank": 5, "time": 2, "location": {"lat": 35.81027310585153, "lng": 112.92606701880149}, "feature": {"sight_features": "", "sight_content": ""}}, {"title": "锦业纺织有限责任公司工会图书馆", "address": "北京东路80号附近", "image": "", "rank": 6, "time": 2, "location": {"lat": 28.680296528889286, "lng": 115.93962774827045}, "feature": {"sight_features": "", "sight_content": ""}}, {"title": "桃园农庄", "address": "西公园西侧", "image": "", "rank": 7, "time": 2, "location": {"lat": 39.47688041141834, "lng": 75.957561004737}, "feature": {"sight_features": "", "sight_content": ""}}, {"title": "牧羊人家农家乐", "address": "北京西路奎屯市第二小学对面", "image": "", "rank": 8, "time": 2, "location": {"lat": 44.43452952072671, "lng": 84.87783101609078}, "feature": {"sight_features": "", "sight_content": ""}}, {"title": "湖畔水上乐园", "address": "中心公园公园内(大屏幕西侧湖畔咖啡厅旁)", "image": "", "rank": 9, "time": 2, "location": {"lat": 39.86645608186995, "lng": 116.17542996148259}, "feature": {"sight_features": "", "sight_content": ""}}, {"title": "奎屯市图书馆", "address": "雪莲广场北侧", "image": "", "rank": 10, "time": 1.5, "location": {"lat": 44.43282158776606, "lng": 84.89070249816005}, "feature": {"sight_features": "", "sight_content": ""}}, {"title": "奎屯市饮食休闲一条街", "address": "新疆维吾尔自治区奎屯市沙湾街附近", "image": "", "rank": 11, "time": 2.5, "location": {"lat": 44.441977961300196, "lng": 84.91670239959308}, "feature": {"sight_features": "", "sight_content": ""}}, {"title": "新疆中露联三十八度五主题商务酒...", "address": "伊犁哈萨克自治州-奎屯市-康乐园-北京东路30号新疆中露联三十八度五主题商务酒店房车露营驿站", "image": "", "rank": 12, "time": 2, "location": {"lat": 43.79923810128996, "lng": 87.63347320573824}, "feature": {"sight_features": "", "sight_content": ""}}, {"title": "奎屯碧城秀水园林绿化工程有限公...", "address": "伊犁哈萨克自治州-奎屯市-北京东路68号附近", "image": "", "rank": 13, "time": 2.5, "location": {"lat": 44.429547207433316, "lng": 84.92953499356766}, "feature": {"sight_features": "", "sight_content": ""}}, {"title": "克拉玛依湖湿地", "address": "新疆维吾尔自治区克拉玛依市独山子区准噶尔路", "image": "", "rank": 14, "time": 2.0, "location": {"lat": 44.33440739236509, "lng": 84.89361328334303}, "feature": {"sight_features": "", "sight_content": ""}}]}