{"cityName": "库伦旗", "days": 2, "cityImage": "", "spots": [{"title": "银沙湾", "address": "通辽市库伦旗库伦镇西", "image": "", "rank": 1, "time": 3.0, "location": {"lat": 42.75641547859282, "lng": 121.7856395699584}, "feature": {"sight_features": "特色1 得天独厚的沙漠秘境", "sight_content": "库伦银沙湾旅游区位于通辽市库伦镇西北28公里处，嘎海山北麓，养畜牧河流域两岸，八百里瀚海塔敏查干沙漠中段。\n\n\n项目开发地自然景观极为壮观，大自然的鬼斧神工创造了自然美学，劲风急雨画出了上帝的曲线，形成了得天独厚的沙漠秘境，被世人称之“东北第一漠”。\n\n\n这里的沙山沙峰、沙谷沙梁、丘陵沟壑连绵起伏，沙峰高达70—80米，宛如卷起的巨浪，气势蔚为壮观，富聚了开展沙漠运动，探险穿越，户外体验等沙漠文化独\n特资源。瀚海秀水—养畜牧河潺潺流水绕沙而去，流淌出了两岸绿洲和台地，形成了高低错落的地形地貌。为打造别具特色的水上娱乐游提供了理想的载体。"}}, {"title": "福缘寺", "address": "内蒙古自治区通辽市库伦旗福缘寺", "image": "", "rank": 2, "time": 2.5, "location": {"lat": 42.73652086177476, "lng": 121.78383151003473}, "feature": {"sight_features": "", "sight_content": ""}}, {"title": "象教寺", "address": "内蒙古自治区通辽市库伦旗象教寺", "image": "", "rank": 3, "time": 2.5, "location": {"lat": 42.741211100234985, "lng": 121.81740576201258}, "feature": {"sight_features": "", "sight_content": ""}}, {"title": "库伦金鑫水上乐园", "address": "内蒙古自治区通辽市库伦旗库伦镇老虎洞村五星水库", "image": "", "rank": 4, "time": 2, "location": {"lat": 42.6891610110094, "lng": 121.81391426678353}, "feature": {"sight_features": "", "sight_content": ""}}, {"title": "库伦旗宗教博物馆", "address": "兴源路南200米", "image": "", "rank": 5, "time": 2, "location": {"lat": 39.5224231154489, "lng": 117.16766179432936}, "feature": {"sight_features": "", "sight_content": ""}}, {"title": "风水山植物园", "address": "451县道附近", "image": "", "rank": 6, "time": 2, "location": {"lat": 41.82833972985756, "lng": 114.80492231707932}, "feature": {"sight_features": "", "sight_content": ""}}, {"title": "寺外桃园", "address": "新城西路", "image": "", "rank": 7, "time": 2, "location": {"lat": 36.827424331756134, "lng": 115.14978338247924}, "feature": {"sight_features": "", "sight_content": ""}}, {"title": "安代博物馆", "address": "杏坛路", "image": "", "rank": 8, "time": 2, "location": {"lat": 41.925001164084094, "lng": 123.42414519190224}, "feature": {"sight_features": "", "sight_content": ""}}, {"title": "团结亿鑫蔬菜种植园", "address": "先进苏木祥吉村", "image": "", "rank": 9, "time": 2, "location": {"lat": 42.57385880386532, "lng": 121.77151427994987}, "feature": {"sight_features": "", "sight_content": ""}}]}