{"cityName": "来安", "days": 2, "cityImage": "", "spots": [{"title": "景华生态园", "address": "滁州市来安县汊河经济开发区104国道旁", "image": "", "rank": 1, "time": 2, "location": {"lat": 32.213628639297326, "lng": 118.60514044650259}, "feature": {"sight_features": "", "sight_content": "景华生态园坐落于来安县汊河经济开发区，占地面积700亩，以农业生态度假项目为主，及餐饮、住宿、休闲娱乐一体。一年四季均有时令水果、绿色有机蔬菜供应。风景秀丽，景色怡人，是现代都市周边少有的世外桃源式园林。提供农业采摘，农业体验，垂钓，洗浴，KTV，客房，餐饮等都市休闲，又提供商务接待、商务会议、商务宴请等商务活动，又提供新鲜环保无公害的丰富农产品。\n景华生态园成立于2007年，坐落于来安县汊河经济开发区，紧临104国道，与南京高新技术开发区隔河相望，距离南京长江大桥仅23公里。占地面积700亩，以农业生态度假项目为主，及餐饮、住宿、休闲娱乐一体。一年四季均有时令水果、绿色有机蔬菜供应。风景秀丽，景色怡人，是现代都市周边少有的世外桃源式园林。景华生态园是在2003年做为招商引资项目进入到汊河经济开发区内，前期只是以苗木种植及水果培育为主，利用周边农民的抛荒地进行苗木种植开发，也就是在2007年期间，结合国家对农业项目的大力支持，以及社会发展的需要，考虑将农业环境与旅游相结合，做现代农业旅游项目，将农业生产场所、环境及活动与普通市民的休闲娱乐放松相结合。"}}, {"title": "雷官兆龙家庭农场", "address": "雷官镇", "image": "", "rank": 2, "time": 2, "location": {"lat": 32.35732979954665, "lng": 118.63715399057214}, "feature": {"sight_features": "", "sight_content": ""}}, {"title": "鑫景葡萄庄园", "address": "011县道附近", "image": "", "rank": 3, "time": 2, "location": {"lat": 39.98940127442669, "lng": 116.08268465074909}, "feature": {"sight_features": "", "sight_content": ""}}, {"title": "醉美迪斯泥家庭农场", "address": "施官镇南沛村唐郢组大黑庄", "image": "", "rank": 4, "time": 2, "location": {"lat": 32.43146195036352, "lng": 118.47831785875654}, "feature": {"sight_features": "", "sight_content": ""}}, {"title": "彭祠堂", "address": "滁州市来安县", "image": "", "rank": 5, "time": 2, "location": {"lat": 32.458449762426696, "lng": 118.44241249320064}, "feature": {"sight_features": "", "sight_content": ""}}, {"title": "黄大圩湿地公园", "address": "安徽省滁州市来安县", "image": "", "rank": 6, "time": 2, "location": {"lat": 32.458449762426696, "lng": 118.44241249320064}, "feature": {"sight_features": "", "sight_content": ""}}, {"title": "金太阳儿童乐园", "address": "建阳南路峰汇国际购物广场3楼（辣尚仙秘制焖锅旁边）", "image": "", "rank": 7, "time": 2, "location": {"lat": 32.444485231927565, "lng": 118.43992203819123}, "feature": {"sight_features": "", "sight_content": ""}}, {"title": "梦想城儿童乐园", "address": "安徽省滁州市来安县X015", "image": "", "rank": 8, "time": 2, "location": {"lat": 32.458449762426696, "lng": 118.44241249320064}, "feature": {"sight_features": "", "sight_content": ""}}, {"title": "白塔公园", "address": "安徽省滁州市来安县S312", "image": "", "rank": 9, "time": 0.5, "location": {"lat": 32.458449762426696, "lng": 118.44241249320064}, "feature": {"sight_features": "", "sight_content": ""}}, {"title": "七里公园", "address": "安徽省滁州市来安县裕安西路6号", "image": "", "rank": 10, "time": 2, "location": {"lat": 32.42286342857655, "lng": 118.42985198222095}, "feature": {"sight_features": "", "sight_content": ""}}, {"title": "法治文化公园", "address": "安徽省滁州市来安县新安镇白鹭大道家和商住楼西南300米", "image": "", "rank": 11, "time": 2, "location": {"lat": 32.456201657541165, "lng": 118.43329244201907}, "feature": {"sight_features": "", "sight_content": ""}}, {"title": "水口镇文化广场", "address": "安徽省滁州市来安县水口镇政府", "image": "", "rank": 12, "time": 2, "location": {"lat": 32.33048654472701, "lng": 118.480172331431}, "feature": {"sight_features": "", "sight_content": ""}}, {"title": "来安县图书馆", "address": "永阳东路114号", "image": "", "rank": 13, "time": 2, "location": {"lat": 32.45232816635474, "lng": 118.44450707215826}, "feature": {"sight_features": "", "sight_content": ""}}, {"title": "海蓝蓝水上乐园", "address": "南大街家宁医院北侧(原老木材厂院内)", "image": "", "rank": 14, "time": 2, "location": {"lat": 33.07096179556668, "lng": 107.02997862477845}, "feature": {"sight_features": "", "sight_content": ""}}, {"title": "开心池典婴幼儿水上乐园", "address": "新河路壹号公馆向西200米", "image": "", "rank": 15, "time": 2, "location": {"lat": 39.149946254060985, "lng": 117.41065814369588}, "feature": {"sight_features": "", "sight_content": ""}}, {"title": "皖东烈士陵园", "address": "半塔镇", "image": "", "rank": 16, "time": 2, "location": {"lat": 32.68131906709907, "lng": 118.59468922243664}, "feature": {"sight_features": "", "sight_content": ""}}, {"title": "来安剧院", "address": "建阳路", "image": "", "rank": 17, "time": 2, "location": {"lat": 42.892162130158546, "lng": 125.15080455903318}, "feature": {"sight_features": "", "sight_content": ""}}, {"title": "小飞鱼", "address": "建阳中路48号", "image": "", "rank": 18, "time": 2, "location": {"lat": 32.45644353102401, "lng": 118.44094617204891}, "feature": {"sight_features": "", "sight_content": ""}}, {"title": "林桥生态农庄", "address": "舜山镇林桥村", "image": "", "rank": 19, "time": 2, "location": {"lat": 32.54326404588934, "lng": 118.42305215535805}, "feature": {"sight_features": "", "sight_content": ""}}, {"title": "姚莹故居", "address": "安徽省桐城市寺巷内", "image": "", "rank": 20, "time": null, "location": {"lat": 31.0419690376743, "lng": 116.98046635878418}, "feature": {"sight_features": "", "sight_content": ""}}, {"title": "半塔保卫战旧址", "address": "安徽省来安县半塔镇西北", "image": "", "rank": 21, "time": 2, "location": {"lat": 32.68126125897471, "lng": 118.5947865771946}, "feature": {"sight_features": "", "sight_content": ""}}, {"title": "来安商业步行街", "address": "安徽省来安县裕安西路附近", "image": "", "rank": 22, "time": 2, "location": {"lat": 32.407897031381424, "lng": 118.41090055663972}, "feature": {"sight_features": "", "sight_content": ""}}, {"title": "大连郢", "address": "滁州市-来安县", "image": "", "rank": 23, "time": 2, "location": {"lat": 32.458449762426696, "lng": 118.44241249320064}, "feature": {"sight_features": "", "sight_content": ""}}, {"title": "池杉湖国家湿地公园", "address": "滁州市来安县", "image": "", "rank": 24, "time": 2, "location": {"lat": 32.458449762426696, "lng": 118.44241249320064}, "feature": {"sight_features": "", "sight_content": "池杉湖国家湿地公园滁州市来安县雷官镇，景区有三大特色：俯瞰千亩池杉林、水上森林、鸟类天堂。\n5万余棵池杉遍布整个池杉湖，是华东地区保存完好的池杉林。\n除了池杉林外，围绕湿地公园外围的2000亩莲藕是夏季赏荷的好去处，有覆盖整个千亩荷塘的数万籽莲，及贯穿整个园区的各色睡莲。\n池杉湖国家湿地公园还是野生鸟类的天堂，常年栖息于此和每年经此迁徙的鸟类总数过十万只，其中不乏世界濒危的珍稀物种，公园内已发现各种野生鸟类102种，可说是鸟类的天堂。"}}, {"title": "来安兴茂国际旅游度假区", "address": "安徽省滁州市来安产业新城大雅村", "image": "", "rank": 25, "time": 2, "location": {"lat": 32.24571639475067, "lng": 118.5513653499453}, "feature": {"sight_features": "", "sight_content": ""}}]}