{"cityName": "来凤", "days": 2, "cityImage": "", "spots": [{"title": "仙佛寺", "address": "恩施土家族苗族自治州宣恩县翔凤镇209国道", "image": "", "rank": 1, "time": 1.5, "location": {"lat": 29.941506574784356, "lng": 109.56553403718061}, "feature": {"sight_features": "", "sight_content": ""}}, {"title": "来凤杨梅古寨景区", "address": "恩施土家族苗族自治州来凤县248省道", "image": "", "rank": 2, "time": 3.5, "location": {"lat": 29.452168631274056, "lng": 109.3943325477207}, "feature": {"sight_features": "", "sight_content": ""}}, {"title": "来凤县卯洞景区", "address": "恩施土家族苗族自治州来凤县百福司镇段卯洞", "image": "", "rank": 3, "time": 2, "location": {"lat": 29.213580347286275, "lng": 109.19860809308412}, "feature": {"sight_features": "", "sight_content": ""}}, {"title": "来凤县档案馆", "address": "武汉大道行政服务中心旁", "image": "", "rank": 4, "time": 2, "location": {"lat": 32.34102504998637, "lng": 118.84444481232482}, "feature": {"sight_features": "", "sight_content": ""}}, {"title": "徐家寨", "address": "湖北省恩施土家族苗族自治州来凤县大河镇五道水村", "image": "", "rank": 5, "time": 2, "location": {"lat": 29.529158000203687, "lng": 109.11549852470209}, "feature": {"sight_features": "", "sight_content": ""}}, {"title": "来凤县图书馆", "address": "园林路9对面", "image": "", "rank": 6, "time": 2, "location": {"lat": 31.868705792704283, "lng": 120.55655978770643}, "feature": {"sight_features": "", "sight_content": ""}}, {"title": "来凤县关口民族风情园", "address": "湖北省恩施土家族苗族自治州来凤县翔凤镇关口民族风情园", "image": "", "rank": 7, "time": 2, "location": {"lat": 29.556723926835996, "lng": 109.46605595453016}, "feature": {"sight_features": "", "sight_content": ""}}, {"title": "俞洁林休闲山庄", "address": "庆凤山路76号附近", "image": "", "rank": 8, "time": 2, "location": {"lat": 29.5080873153274, "lng": 109.42076698395408}, "feature": {"sight_features": "", "sight_content": ""}}, {"title": "茶堰坪摆手堂", "address": "恩施土家族苗族自治州来凤县", "image": "", "rank": 9, "time": 2, "location": {"lat": 29.499443572607333, "lng": 109.413494841531}, "feature": {"sight_features": "", "sight_content": ""}}, {"title": "摆手堂", "address": "凤中路22", "image": "", "rank": 10, "time": 2, "location": {"lat": 29.513221357821493, "lng": 109.41148113881573}, "feature": {"sight_features": "", "sight_content": ""}}, {"title": "小鸡公岭摆手堂", "address": "恩施土家苗族自治州恩施市来凤县河东乡酉部的小鸡公山山岭上小鸡公岭摆手堂", "image": "", "rank": 11, "time": 2, "location": {"lat": 29.159253819070905, "lng": 109.24396665089651}, "feature": {"sight_features": "", "sight_content": ""}}, {"title": "米乐儿童游乐园", "address": "逸家星城3楼老强发车站由贝比星上三楼(肯德基)", "image": "", "rank": 12, "time": 2, "location": {"lat": 34.86329226615314, "lng": 117.56704248806274}, "feature": {"sight_features": "", "sight_content": ""}}, {"title": "小角楼新农家乐", "address": "中心路延伸段", "image": "", "rank": 13, "time": 2, "location": {"lat": 29.49988398206005, "lng": 109.41569227646879}, "feature": {"sight_features": "", "sight_content": ""}}, {"title": "来凤县南剧团", "address": "凤翔大道71-10旁", "image": "", "rank": 14, "time": 2, "location": {"lat": 29.510200381221118, "lng": 109.41557006200419}, "feature": {"sight_features": "", "sight_content": ""}}]}