{"cityName": "涞水", "days": 2, "cityImage": "", "spots": [{"title": "百里峡", "address": "保定市涞水县野三坡镇苟各庄村", "image": "", "rank": 1, "time": 4.0, "location": {"lat": 39.67292682611018, "lng": 115.39230672279135}, "feature": {"sight_features": "特色1 在俊俏岩壁和清澈溪流之间呼吸山间的清新空气。", "sight_content": "被誉为“天下第一峡”的百里峡是野三坡独具特色的景区之一。该位于河北省涞水县野三坡镇苟各庄村，百里峡总面积110平方公里，与北京市房山区接壤，距北京市中心115公里，是京西旅游景点中一颗最耀眼的明珠。百里峡是野三坡的景点，是每个到野三坡旅游的人都会去的地方，百里峡也曾经作为央视版《三国演义》、《赤壁》、《寻秦记》、《萧十一郎》等众多影视剧的外景拍摄地。\n景区全长105华里由三条峡谷组成。 最外边一条被称作 “蝎子沟”:全长25华里,在景区入口处有一“仙官引路”景点将游人引进蝎子沟，因沟中遍生蝎子草而得名。该草形如幼桑，如肌肤触动其叶，顿觉疼痛难忍，但少时即愈。蝎子沟内有“龙潭映月”、“摩耳崖”、“铁锁崖”等壮景，令人叹为观止。中间地一条峡谷为“海棠峪”：因沟内遍布海棠花而的 名，全长35华里,此处翠壁兀立，丛峦万仞，直插云天，令人望而生畏。沿沟游 揽，奇险的“老虎嘴”，狭窄的“一线天”，维妙维肖的“回首观音”，规模宏大的“下天桥”和“上天桥”等奇绝景观，使游人目不暇接。每逢仲夏时节，野生海棠花开满沟谷，清香四溢，步步是景。第三条峡谷被称作“十悬峡”，因沟内分布着数十处弧形的悬崖而得名，全长45华里。 进入峡谷，“抻牛湖”瀑布、灵芝山“水帘洞”、弧形悬崖形成的“不见天”、令人费解的“怪峰”、峭崖剔透的“雄狮出世”等景点映入游人眼帘。可谓步步有景、如入童话世界。三条峡谷全长105华里，故此得名“百里峡”。峡谷内奇岩耸立、绝壁万仞、草木横生，千奇百怪的岩溶壮景集雄、险、奇、幽为一体，构成一幅浓墨重彩的大自然“百里画廊”。\n百里峡由于峡谷幽深，日照时间短，所以在外面高达40℃气温的情况下，峡谷内依旧保持着20℃左右的气温，是典型的“天然空调”，是消夏避暑的好地方。另外，在峡谷内还生长着一种植物叫耳羽岩蕨，属蕨类，当地百姓叫它“蜈蚣草”或“羊齿兰”，它不但可以消毒杀菌，还可以释放大量负氧离子，促进血液循环、新陈代谢。进一次百里峡，您就相当于洗了一次肺。百里峡入口是汉城堡，这是一座仿汉建筑，它采用了抬梁式和穿斗式的建筑风格，是为了拍摄电视剧《三国演义》中“空城计”一出戏所建的外景，现以成为我们出入景区的显著标志。百里峡天梯共2800阶，全长1200米，相对高度270米。天梯是连接海棠峪峡谷与十悬崖峡谷之间的一条路段。台阶上记载着公元前后的历史重大事件与文献类对中国有影响的元年记录，攀登天梯挑战自身体能，欣赏俊美风光，感受中华悠悠文明历史记录。天梯两侧是原始次生林遍布黄檀与灌木类植物别看有的植物才碗口粗。。。可它已经有上百年的树龄。那生长于岩石中的生命散发着淡淡的清香，让人感受天然氧吧的舒爽。健康来源于运动天梯考验你的体能。"}}, {"title": "野三坡", "address": "保定市涞水县太行山与燕山两大山脉交汇处", "image": "", "rank": 2, "time": 6.0, "location": {"lat": 39.40033419848886, "lng": 115.7205430250843}, "feature": {"sight_features": "特色1 被称为“北方小桂林”。 特色2 京西四大高峰之一。 特色3 登顶观看高山草甸和美丽云海，每年四五月份，可以看到“冰川杜鹃”之景。", "sight_content": "野三坡主要包括6个景区：百里峡、拒马河、佛洞塔、白草畔国家森林公园、龙门峡和金华山景区。百里峡景区全长105华里，由三条幽深的峡谷：海棠峡、蝎子沟、十悬峡组成，峡谷中最窄的地方不足10米，两侧陡峭的绝壁直插云天，十分幽深、神秘。峡谷中还有各种不同的石景和溶岩景观，在北谷内分布有“一线天”、“龙潭映月”、“摩耳崖”、“铁头崖”、“老虎嘴”、“回头观音”、“上天桥”、“下天桥”等68个景点，是我国北方罕见的幽谷。\n\n\n野三坡漂来滩坐落于京西百渡休闲度假区境内，以国家5A级百里峡景区、北京房山世界地质公园野三坡为依托，集旅游住宿、餐饮美食、会议培训、休闲娱乐为一体。漂来滩分为“文化交流区、娱乐挑战区、团队拓展区、亲子戏水区”四个大区域。文化交流区：京西百度（野三坡）首届音乐节、太行崖柏展览区、土特产交易区。娱乐挑战区：过山摩托、大摆锤、华夏飞碟、高空飞椅、海盗船、碰碰车、激流勇进、滑草、超级水寨等娱乐项目。团队拓展区：真人CS、团队拓展场地、野外露营场地、BBQ音乐广场等。亲子戏水区：沙滩娱乐、竹筏、脚踏船等。"}}, {"title": "拒马河", "address": "保定市涞水县野三坡镇苟各庄村野三坡园区内", "image": "", "rank": 3, "time": 2.0, "location": {"lat": 39.6878564981493, "lng": 115.3995313053299}, "feature": {"sight_features": "", "sight_content": ""}}, {"title": "野三坡白草畔景区", "address": "保定市涞水县九龙镇北边桥村", "image": "", "rank": 4, "time": 4.0, "location": {"lat": 39.87247582592933, "lng": 115.45076404817524}, "feature": {"sight_features": "特色1 登顶观看高山草甸和美丽云海", "sight_content": "白草畔属五星级森林公园，以其原始的自然风光，茂密的森林植被，广阔的空中草原，丰富的植物种类，宜人的凉泉瀑布，秀丽的溪流潺潺，奇特的冰川杜鹃，珍稀的野生动物，罕见的古人类遗址，赢得了客人的青睐。这里海拔落差达千余米，形成了“同山同季不同景，同花同草不同开”的独特景观。白草畔景色随季节变化异彩纷呈，春来山花烂漫蝶飞舞，姹紫嫣红诱人香；夏至叶绿滴翠郁葱葱，动物时现逗人留；秋到层林尽染满眼金，硕果累累惹人醉；冬令银装素裹雪皑皑，分外妖娆招人迷。被誉为“天然植物标本库”和“野生动物王国”。园区内空气负离子含量为每立方厘米551923个，是难得的“天然氧吧”。\n\n\n白草畔森林公园集森林、山泉、瀑布风光和珍稀植物、野生动物、古人类遗址及云海日出等多种景观于一体，是回归原始、享受自然、寻奇探险、绿色旅游、体育健身、洗肺氧吧、科学考察、休闲度假、避暑观光的理想胜地。园内主要景点有：冰川杜鹃、万年泉、风动石、蚂蚁岭、背山翁、二林竞秀、香炉石、五指峰、空中花园、栎林赏秋、天然红丁香、俯瞰农庄、鸡鸣谷、动物栖息峡、暴马丁香峪、雄居高峰、云浮峦、一揽三山等等。"}}, {"title": "龙门天关", "address": "保定市涞水县野三坡景区内", "image": "", "rank": 5, "time": 2.0, "location": {"lat": 39.65736836760449, "lng": 115.50305984755771}, "feature": {"sight_features": "特色1 被誉为华北最大的历史文化长廊", "sight_content": "文化长廊——龙门天关是历史上京都通往塞外的重要关隘，是历代兵家必争之地，明清代均有重兵把守，因而留下了大量人文建筑和摩崖石刻。\n\n\n大龙门城堡、内长城、二圣祠、大龙门古村、猿人谷、上天沟、龙门峡谷，被誉为华北最大的历史文化长廊。"}}, {"title": "鱼谷洞自然风景区", "address": "保定市涞水县野三坡镇野三坡风景区中部", "image": "", "rank": 6, "time": 2.0, "location": {"lat": 39.77317922509193, "lng": 115.37926330882036}, "feature": {"sight_features": "特色1 八大怪泉之一，每年谷雨节前后从泉口向外涌鱼，泉水也十分甘甜。", "sight_content": "鱼谷洞位于野三坡中部，四面环山，拒马河支流小西河湍湍流过，风光秀丽、气候宜人、奇泉怪洞相映成趣，是寻奇探险、休闲度假的理想之地。鱼谷洞已探明的长度有3000米，目前正在开发的有1300米。进入洞中，千姿百态的钟乳石、石笋、石柱和宽敞高大的洞穴，曲折迂回的通道在灯光的照射下宛若地下龙宫。"}}, {"title": "海棠峪", "address": "保定市涞水县三坡镇苟各庄村百里峡景区内", "image": "", "rank": 7, "time": 1.5, "location": {"lat": 39.68605921273133, "lng": 115.39809151922462}, "feature": {"sight_features": "", "sight_content": ""}}, {"title": "老道洞", "address": "保定市涞水县其他112线西环路口新邢州斜对面", "image": "", "rank": 8, "time": 0.3, "location": {"lat": 39.40033419848886, "lng": 115.7205430250843}, "feature": {"sight_features": "", "sight_content": ""}}, {"title": "野三坡实弹CS基地", "address": "野三坡百里峡大道刘家河村", "image": "", "rank": 9, "time": 4.0, "location": {"lat": 39.69516669747168, "lng": 115.37627323065918}, "feature": {"sight_features": "", "sight_content": ""}}, {"title": "荣盛野三坡滑雪场", "address": "保定市涞水县计鹿村", "image": "", "rank": 10, "time": 2, "location": {"lat": 39.67280117134535, "lng": 115.3058273777528}, "feature": {"sight_features": "特色1 国内首个以童话欢乐为主题的荣盛野三坡滑雪场。 特色2 雪场内还有许多亲子互动项目。 特色3 夏季热气球带你浏览野三坡美景", "sight_content": "国内首个以童话欢乐为主题的荣盛野三坡滑雪场，总造雪面积20万平米。\n规划雪道11条，雪道总长4450米，其中高级道1条、中级道2条，初级道8条（含猫跳道、波浪道、教学道），雪场内还有许多亲子互动项目。"}}, {"title": "野三坡清泉山风景区", "address": "保定市涞水县野三坡清泉山风景区", "image": "", "rank": 11, "time": 2.0, "location": {"lat": 39.65736836760449, "lng": 115.50305984755771}, "feature": {"sight_features": "", "sight_content": ""}}, {"title": "西岗塔", "address": "保定市涞水县城西约一公里的西岗上", "image": "", "rank": 12, "time": 0.15000000000000002, "location": {"lat": 39.40033419848886, "lng": 115.7205430250843}, "feature": {"sight_features": "", "sight_content": ""}}, {"title": "涞都冰雪乐园", "address": "保定市涞水县石亭镇东水峪村", "image": "", "rank": 13, "time": 2, "location": {"lat": 39.499134195431935, "lng": 115.7287221865832}, "feature": {"sight_features": "", "sight_content": ""}}, {"title": "《印象野三坡》演出", "address": "保定市涞水县野三坡景区百里峡景区停车场对面的大舞台", "image": "", "rank": 14, "time": 2, "location": {"lat": 39.674970553706814, "lng": 115.40456019923586}, "feature": {"sight_features": "", "sight_content": ""}}, {"title": "满金峪", "address": "保定市涞水县满金峪村", "image": "", "rank": 15, "time": 2, "location": {"lat": 39.56379284215672, "lng": 115.70741091512217}, "feature": {"sight_features": "", "sight_content": ""}}, {"title": "野三坡北大河漂流", "address": "保定市涞水县北大河村西", "image": "", "rank": 16, "time": 4.0, "location": {"lat": 39.40033419848886, "lng": 115.7205430250843}, "feature": {"sight_features": "", "sight_content": ""}}, {"title": "野三坡地质博物馆", "address": "保定市涞水县三坡镇苟各庄村百里峡景区内", "image": "", "rank": 17, "time": 0.75, "location": {"lat": 39.68605921273133, "lng": 115.39809151922462}, "feature": {"sight_features": "", "sight_content": ""}}, {"title": "三皇山", "address": "保定野三坡、十渡百里画廊的入口处", "image": "", "rank": 18, "time": 2.5, "location": {"lat": 38.87998776845534, "lng": 115.47146383768579}, "feature": {"sight_features": "", "sight_content": ""}}, {"title": "野三坡鱼骨洞景区", "address": "保定市涞水县野三坡镇野三坡园区中部", "image": "", "rank": 19, "time": 4.0, "location": {"lat": 39.769918610830565, "lng": 115.42439307811571}, "feature": {"sight_features": "", "sight_content": ""}}, {"title": "艳艳农家院(野三坡百里峡风景区...", "address": "河北省保定市涞水县三坡镇野三坡百里峡景区", "image": "", "rank": 20, "time": 2, "location": {"lat": 39.66539966776672, "lng": 115.39706550970503}, "feature": {"sight_features": "", "sight_content": ""}}, {"title": "苟各庄", "address": "野三坡百里峡旅游风景区的中心地带", "image": "", "rank": 21, "time": 2.5, "location": {"lat": 39.69516669747168, "lng": 115.37627323065918}, "feature": {"sight_features": "", "sight_content": ""}}, {"title": "金线悬针", "address": "涞水县野三坡百里峡风景区", "image": "", "rank": 22, "time": 2, "location": {"lat": 39.68877135191458, "lng": 115.42304213981518}, "feature": {"sight_features": "", "sight_content": ""}}, {"title": "蝎子沟", "address": "涞水县野三坡百里峡景区内", "image": "", "rank": 23, "time": 2, "location": {"lat": 39.66539966776672, "lng": 115.39706550970503}, "feature": {"sight_features": "", "sight_content": ""}}, {"title": "金华山", "address": "保定市涞水县野三坡景区", "image": "", "rank": 24, "time": 1.0, "location": {"lat": 39.65736836760449, "lng": 115.50305984755771}, "feature": {"sight_features": "", "sight_content": ""}}, {"title": "佛洞塔", "address": "河北省保定市涞水县", "image": "", "rank": 25, "time": 2, "location": {"lat": 39.40033419848886, "lng": 115.7205430250843}, "feature": {"sight_features": "", "sight_content": ""}}, {"title": "野三坡漂来滩欢乐谷", "address": "保定市涞水县野三坡风景区刘家河村", "image": "", "rank": 26, "time": 4.0, "location": {"lat": 39.77317922509193, "lng": 115.37926330882036}, "feature": {"sight_features": "", "sight_content": ""}}, {"title": "拒马河溶洞漂流", "address": "保定市涞水县野三坡镇上庄子村", "image": "", "rank": 27, "time": 2, "location": {"lat": 39.694844426445115, "lng": 115.44861379763195}, "feature": {"sight_features": "", "sight_content": ""}}, {"title": "野三坡溶洞漂流", "address": "保定市涞水县野三坡镇都衙村境内，靠近野三坡漂流点", "image": "", "rank": 28, "time": 4.0, "location": {"lat": 39.65114113825878, "lng": 115.46750967200045}, "feature": {"sight_features": "", "sight_content": ""}}, {"title": "刘家河檀木沟水上乐园", "address": "河北省保定市涞水县野三坡檀木沟景区", "image": "", "rank": 29, "time": 2, "location": {"lat": 39.65736836760449, "lng": 115.50305984755771}, "feature": {"sight_features": "", "sight_content": ""}}, {"title": "老虎嘴", "address": "涞水县野三坡百里峡风景区", "image": "", "rank": 30, "time": 4.0, "location": {"lat": 39.68877135191458, "lng": 115.42304213981518}, "feature": {"sight_features": "", "sight_content": ""}}, {"title": "蚂蚁岭", "address": "涞水县野三坡白草畔景区内", "image": "", "rank": 31, "time": 2, "location": {"lat": 39.817961051930716, "lng": 115.5500727966767}, "feature": {"sight_features": "", "sight_content": ""}}, {"title": "庆化寺花塔", "address": "涞水县北洛平村北2.5公里的龙宫山南麓", "image": "", "rank": 32, "time": 2, "location": {"lat": 39.638811385742144, "lng": 115.59779117792624}, "feature": {"sight_features": "", "sight_content": ""}}, {"title": "失乐园薰衣草主题庄园", "address": "涞水县野三坡百里峡景区内", "image": "", "rank": 33, "time": 1.5, "location": {"lat": 39.66539966776672, "lng": 115.39706550970503}, "feature": {"sight_features": "", "sight_content": ""}}, {"title": "涞野乐园", "address": "保定市涞水县三坡镇松口村", "image": "", "rank": 34, "time": 2, "location": {"lat": 39.677372285927405, "lng": 115.46285199655834}, "feature": {"sight_features": "", "sight_content": "涞野乐园位于涞水县野三坡，景区内有高山玻璃漂流、七彩洞梦幻漂流、摇摇桥、混水拨鱼、江南竹排等水上项目，可谓是游山玩水的不二之选。"}}, {"title": "野三坡洛伽山庄休闲度假会所", "address": "涞水三坡镇都衙村南", "image": "", "rank": 35, "time": 4.0, "location": {"lat": 39.677372285927405, "lng": 115.46285199655834}, "feature": {"sight_features": "", "sight_content": ""}}, {"title": "银湖水上乐园", "address": "保定市涞水县三坡镇苟各庄村西", "image": "", "rank": 36, "time": 7.5, "location": {"lat": 39.683702886531606, "lng": 115.39634851907749}, "feature": {"sight_features": "", "sight_content": ""}}, {"title": "聚春园生态园", "address": "冲之大街", "image": "", "rank": 37, "time": 2, "location": {"lat": 39.389961134788436, "lng": 115.72185039107606}, "feature": {"sight_features": "", "sight_content": ""}}, {"title": "向阳水上乐园", "address": "天悦购物广场南行500米(东环向阳路党校路口)", "image": "", "rank": 38, "time": 2, "location": {"lat": 39.39342504044841, "lng": 115.73397138003412}, "feature": {"sight_features": "", "sight_content": ""}}, {"title": "野三坡次生森林谷", "address": "涞水县", "image": "", "rank": 39, "time": 4.0, "location": {"lat": 39.40033419848886, "lng": 115.7205430250843}, "feature": {"sight_features": "", "sight_content": ""}}, {"title": "灵芝山庄", "address": "野三坡百里峡侧门", "image": "", "rank": 40, "time": 2, "location": {"lat": 39.69516669747168, "lng": 115.37627323065918}, "feature": {"sight_features": "", "sight_content": ""}}, {"title": "一零一旅", "address": "野三坡镇百里峡景区苟各庄桥头", "image": "", "rank": 41, "time": 2, "location": {"lat": 39.6878564981493, "lng": 115.3995313053299}, "feature": {"sight_features": "", "sight_content": ""}}, {"title": "昊海绿色生态游乐园", "address": "义安镇东义和庄村", "image": "", "rank": 42, "time": 2, "location": {"lat": 39.367713930842406, "lng": 115.77962071755846}, "feature": {"sight_features": "", "sight_content": ""}}, {"title": "仙境垂钓园", "address": "涞水镇涞阳南路仙境垂钓园", "image": "", "rank": 43, "time": 2, "location": {"lat": 39.43106175332134, "lng": 115.71288166574577}, "feature": {"sight_features": "", "sight_content": ""}}, {"title": "公平农家院", "address": "河北省涞水县三坡镇 074104", "image": "", "rank": 44, "time": 2, "location": {"lat": 39.677372285927405, "lng": 115.46285199655834}, "feature": {"sight_features": "", "sight_content": ""}}, {"title": "野三坡陈强农家院", "address": "涞水松树口新村", "image": "", "rank": 45, "time": 4.0, "location": {"lat": 39.69966642097665, "lng": 115.43033006906171}, "feature": {"sight_features": "", "sight_content": ""}}, {"title": "圣迪宾馆-剧场", "address": "野三坡大街222号附近", "image": "", "rank": 46, "time": 2, "location": {"lat": 39.69602074017586, "lng": 115.4489745795824}, "feature": {"sight_features": "", "sight_content": ""}}, {"title": "河滨公园", "address": "保定市涞水县府前街11号", "image": "", "rank": 47, "time": 1.5, "location": {"lat": 39.39983464080584, "lng": 115.73210408285074}, "feature": {"sight_features": "", "sight_content": ""}}, {"title": "大护国寺", "address": "邢各庄南桥附近", "image": "", "rank": 48, "time": 2, "location": {"lat": 39.69763719920464, "lng": 115.3701790793676}, "feature": {"sight_features": "", "sight_content": ""}}, {"title": "观音阁", "address": "河北省保定市涞水县首都环线高速公路九龙镇政府南50米", "image": "", "rank": 49, "time": 1.0, "location": {"lat": 39.80758918938363, "lng": 115.42212780224678}, "feature": {"sight_features": "", "sight_content": ""}}, {"title": "佛罗伦萨商业小镇", "address": "河北省保定市涞水县保野公路", "image": "", "rank": 50, "time": 1.5, "location": {"lat": 39.45909689548092, "lng": 115.70831247788793}, "feature": {"sight_features": "", "sight_content": ""}}, {"title": "刘家河革命烈士陵园", "address": "刘家河村附近", "image": "", "rank": 51, "time": 2, "location": {"lat": 40.13767486432464, "lng": 116.64231063557533}, "feature": {"sight_features": "", "sight_content": ""}}, {"title": "灵佑观", "address": "河北省保定市涞水县", "image": "", "rank": 52, "time": 2, "location": {"lat": 39.40033419848886, "lng": 115.7205430250843}, "feature": {"sight_features": "", "sight_content": ""}}, {"title": "涞水灵泉寺", "address": "娄村满族乡西山根", "image": "", "rank": 53, "time": 2, "location": {"lat": 39.49094538085013, "lng": 115.66169278087035}, "feature": {"sight_features": "", "sight_content": ""}}, {"title": "鹏隆游乐场", "address": "冲之大街152号附近", "image": "", "rank": 54, "time": 2, "location": {"lat": 39.389372540048996, "lng": 115.73010767191701}, "feature": {"sight_features": "", "sight_content": ""}}, {"title": "凯特乐海洋主题儿童乐园", "address": "向阳路130号七彩童梦儿童商城三楼(天悦购物广场对面)", "image": "", "rank": 55, "time": 2, "location": {"lat": 39.39705475137068, "lng": 115.73660171341088}, "feature": {"sight_features": "", "sight_content": ""}}, {"title": "休闲公园", "address": "东大街213号附近", "image": "", "rank": 56, "time": 2, "location": {"lat": 22.61729942596652, "lng": 114.14733751642652}, "feature": {"sight_features": "", "sight_content": ""}}, {"title": "小普陀山的观音菩萨", "address": "保定市涞水县野三坡镇苟各庄村野三坡园区拒马河景区野三坡大峡谷内", "image": "", "rank": 57, "time": 1.5, "location": {"lat": 39.69684325697595, "lng": 115.46702961843421}, "feature": {"sight_features": "", "sight_content": ""}}, {"title": "中国·野三坡品道创意运动休闲基...", "address": "保定市涞水县野三坡镇苟各庄村野三坡园区拒马河景区中国·野三坡品道创意运动休闲基地内", "image": "", "rank": 58, "time": 2, "location": {"lat": 39.6878564981493, "lng": 115.3995313053299}, "feature": {"sight_features": "", "sight_content": ""}}, {"title": "鸿运来农家院", "address": "涞水百里峡大道苟各庄村", "image": "", "rank": 59, "time": 2, "location": {"lat": 39.69655226731933, "lng": 115.42430340207325}, "feature": {"sight_features": "", "sight_content": ""}}, {"title": "游乐场", "address": "向阳路与府前街交叉口北100米", "image": "", "rank": 60, "time": 2, "location": {"lat": 39.40080742790423, "lng": 115.7324355614766}, "feature": {"sight_features": "", "sight_content": ""}}]}