{"cityName": "莱西", "days": "", "cityImage": "", "spots": [{"title": "白鹭湖温泉", "address": "青岛市莱西市长广路1号", "image": "", "rank": 1, "time": 2, "location": {"lat": 36.86864495346789, "lng": 120.44534913887605}, "feature": {"sight_features": "特色1 理疗温泉，大小同乐", "sight_content": "白鹭湖温泉度假区是青岛宏景房地产开发公司兴建，是青岛莱西市旅游发展规划重点项目，项目总占地面积1200亩，整体项目计划投资30亿，一期温泉酒店占地200亩，投资1.5亿，已于2013年4月10日正式开业，集温泉养生、休闲度假、商务会议、保健SPA、娱乐健身于一体的国家AAAA级温泉旅游景区建造。温泉度假区位于青岛莱西市长广路1号，西临同三高速牛溪埠出口仅需5分钟车程到达白鹭湖温泉，环境优雅、景色宜人、交通便利。\n\n\n温泉度假区可同时接待1000人享用温泉；温泉区可分为室内温泉和露天温泉：种类奇特的室内温泉有中药六合汤、木桶浴、美人汤、情侣池、沐足阁等，露天温泉拥有SPA馆、五玉池、特色鱼疗池，还有四季恒温游泳池，儿童戏水区更为小朋友提供水上乐园。\n\n\n休闲娱乐有台球区、壁球馆、棋牌室、健身房，KTV包房、简餐以及按摩美容美体等各项娱乐设施，让您彻底放松，尽享欢乐。\n\n\n餐饮拥有同时容纳300人就餐的大厅和风格各异的豪华餐饮包间13个，集青岛莱西特色美味于一体，诱惑您的味蕾。\n白鹭湖温泉现目前拥有包括46套VIP温泉汤院、酒店客房共131套，尤其难能可贵的是每套VIP温泉汤院均引入的温泉水，客人在多种极富养生特色的温泉区理疗戏水外，还可以在自己的温泉汤院里独享温泉水所带来的陶陶乐趣，体验尊贵、私密、与世无争的享受。"}}, {"title": "月湖公园", "address": "青岛市莱西市文化路17号", "image": "", "rank": 2, "time": 1.5, "location": {"lat": 36.86114976699836, "lng": 120.52379339654607}, "feature": {"sight_features": "", "sight_content": ""}}, {"title": "沙岭河公园", "address": "青岛市莱西市北京路与上海路之间", "image": "", "rank": 3, "time": 1.0, "location": {"lat": 36.67587993346689, "lng": 120.53884276864174}, "feature": {"sight_features": "", "sight_content": ""}}, {"title": "莱西市博物馆", "address": "青岛市莱西市上海西路17号", "image": "", "rank": 4, "time": 1.5, "location": {"lat": 36.88228432994775, "lng": 120.50244094812928}, "feature": {"sight_features": "", "sight_content": ""}}, {"title": "胶东民俗文化博物馆", "address": "青岛市莱西市长岛路水沟头文化市场内", "image": "", "rank": 5, "time": 1.5, "location": {"lat": 36.87401009896629, "lng": 120.52506665267984}, "feature": {"sight_features": "", "sight_content": ""}}, {"title": "洙河公园", "address": "青岛市莱西市龙口中路10号", "image": "", "rank": 6, "time": 1.0, "location": {"lat": 36.85242741004257, "lng": 120.52870209687535}, "feature": {"sight_features": "", "sight_content": ""}}, {"title": "莱西革命烈士陵园", "address": "青岛市莱西市望城街道办事处芝罘路23号", "image": "", "rank": 7, "time": 0.75, "location": {"lat": 36.82001801041883, "lng": 120.52042166670138}, "feature": {"sight_features": "", "sight_content": ""}}, {"title": "崔子范美术馆", "address": "青岛市莱西市文化东路9号", "image": "", "rank": 8, "time": 1.0, "location": {"lat": 36.86259234657253, "lng": 120.53993353610724}, "feature": {"sight_features": "", "sight_content": ""}}, {"title": "王军光故居", "address": "青岛市莱西市院上镇花园头村", "image": "", "rank": 9, "time": 0.75, "location": {"lat": 36.77120295500268, "lng": 120.32037599868345}, "feature": {"sight_features": "", "sight_content": ""}}, {"title": "半亩汤汗蒸时代", "address": "青岛市莱西市团岛东路2号龙翔二苑南门对面", "image": "", "rank": 10, "time": null, "location": {"lat": 36.8797522512673, "lng": 120.54372676586894}, "feature": {"sight_features": "", "sight_content": "半亩汤汗蒸时代以韩式风格为主体，集各式养生汤池，桑拿，韩式体验区，黄土房，汗蒸房，茶艺馆，韩式料理，中医养生，棋牌娱乐，儿童游乐场等设施项目为一体的休闲会所。"}}, {"title": "东鲁农业公园", "address": "青岛市莱西市南墅镇北墅水库东麓", "image": "", "rank": 11, "time": 2, "location": {"lat": 37.066247624688266, "lng": 120.30390384151312}, "feature": {"sight_features": "特色1 供随手可摘、摘后即食的各种特色果蔬", "sight_content": "青岛东鲁生态农业有限公司坐落于莱西市南墅镇北墅村东，始建于2014年3月，占地1200亩，采取CSA社区互助农业运作模式，致力打造成全省乃至全国集旅游参观、科教培训、生产示范、农耕体验为一体的多功能休闲园区。主要建设内容包括：建设生态果园800亩、有机蔬菜种植园200亩、古法农副产品深加工、淡水鱼养殖、生态餐厅、园区葡萄长廊、小型畜禽林下养殖、有机生物肥加工等。\n东鲁以“自然农法、酵素种植”为理念生产生态健康有机果蔬，使用来自内蒙古草原的羊粪，用园区自产的环保酵素发酵堆肥，严格执行有机农业的种植标准，真正做到化学农药、化学肥料、激素、添加剂和转基因种子等零使用。我们积极探索各种种植模式、物资来预防病虫害：合理轮作倒茬休耕，与同仁堂合作共同研发运用中草药对病害的作用机理及效能，使用诱虫灯、黄板、性诱剂等物理方法驱虫，间作罗勒、除虫菊、鼠尾草等驱虫防病的植物。\n此外，东鲁以农园自产的生态农产品为主材、外购生态产品为辅，竭力打造有机生态餐饮；专设葡萄长廊和采摘区，为游客提供随手可摘、摘后即食的各种特色果蔬；利用传统手工艺加工生产健康安全的花生油、酱油、醋、面粉、豆腐等农产品。同时开设开设微地主专区，市民可租种菜地成为一个有机农夫，感受“自己动手丰衣足食”。"}}, {"title": "民间美术陈列馆", "address": "青岛市莱西市龙盛一路龙海公园内", "image": "", "rank": 12, "time": 1.0, "location": {"lat": 36.849103980568316, "lng": 120.53735479293738}, "feature": {"sight_features": "", "sight_content": ""}}, {"title": "鲜多多农场", "address": "青岛莱西市店埠镇兴店路", "image": "", "rank": 13, "time": 2, "location": {"lat": 36.70668478445165, "lng": 120.35828287066137}, "feature": {"sight_features": "", "sight_content": ""}}, {"title": "魔幻鬼城", "address": "月湖公园内(月湖公园南门)", "image": "", "rank": 14, "time": 2, "location": {"lat": 36.86475409386545, "lng": 120.53561022524715}, "feature": {"sight_features": "", "sight_content": ""}}, {"title": "九顶庄园 C9P", "address": "028县道院上镇山口山", "image": "", "rank": 15, "time": 2, "location": {"lat": 31.284814956884386, "lng": 118.49953017108598}, "feature": {"sight_features": "", "sight_content": ""}}, {"title": "梅花山生态园", "address": "梅山路", "image": "", "rank": 16, "time": 2, "location": {"lat": 38.15550114014668, "lng": 114.5619067790088}, "feature": {"sight_features": "", "sight_content": ""}}, {"title": "昌艺书画社", "address": "琴岛东路77号-51", "image": "", "rank": 17, "time": 2, "location": {"lat": 36.87783946252534, "lng": 120.54104492866723}, "feature": {"sight_features": "", "sight_content": ""}}, {"title": "赛淇.云顶之舟", "address": "烟台路粮贸凯悦大厦底商", "image": "", "rank": 18, "time": 2, "location": {"lat": 41.94286759061504, "lng": 117.76698818455878}, "feature": {"sight_features": "", "sight_content": ""}}, {"title": "莲花湾钓鱼场", "address": "山东省青岛市浮山北面 264300", "image": "", "rank": 19, "time": 2, "location": {"lat": 36.07181522395576, "lng": 120.32515487709817}, "feature": {"sight_features": "", "sight_content": ""}}, {"title": "徐家小院", "address": "沙岭村246号", "image": "", "rank": 20, "time": 2, "location": {"lat": 36.880025691453184, "lng": 120.54080315153584}, "feature": {"sight_features": "", "sight_content": ""}}, {"title": "新城啤酒广场", "address": "重庆路52号", "image": "", "rank": 21, "time": 2, "location": {"lat": 36.88897495381766, "lng": 120.5348076252062}, "feature": {"sight_features": "", "sight_content": ""}}, {"title": "蹦蹦鼠", "address": "上海路与长岛路交叉口太平洋保险西侧", "image": "", "rank": 22, "time": 2, "location": {"lat": 32.043448583504485, "lng": 118.77469552168039}, "feature": {"sight_features": "", "sight_content": ""}}, {"title": "姜山影剧院", "address": "姜山镇", "image": "", "rank": 23, "time": 2, "location": {"lat": 29.754297492731084, "lng": 121.52158900627619}, "feature": {"sight_features": "", "sight_content": ""}}, {"title": "姜山湿地", "address": "山东省青岛市莱西市姜山镇", "image": "", "rank": 24, "time": 2, "location": {"lat": 36.67871147884334, "lng": 120.57151646844754}, "feature": {"sight_features": "", "sight_content": ""}}, {"title": "沽河游乐园", "address": "山东省青岛市莱西市X022", "image": "", "rank": 25, "time": 2, "location": {"lat": 36.89395629802583, "lng": 120.52455620764162}, "feature": {"sight_features": "", "sight_content": ""}}, {"title": "祥和农家院", "address": "滨河路16-6号附近", "image": "", "rank": 26, "time": 2, "location": {"lat": 42.011888865926196, "lng": 121.6655278974908}, "feature": {"sight_features": "", "sight_content": ""}}, {"title": "红色年代农家院(重庆中路店)", "address": "重庆中路夏屯116号", "image": "", "rank": 27, "time": 2, "location": {"lat": 36.88786266881557, "lng": 120.52733403058367}, "feature": {"sight_features": "", "sight_content": ""}}, {"title": "海洋宝贝儿童主题乐园", "address": "青岛市莱西市水集街道办事处烟台路52号良茂凯悦百货3层", "image": "", "rank": 28, "time": 2, "location": {"lat": 36.86558515026125, "lng": 120.52951972556747}, "feature": {"sight_features": "", "sight_content": ""}}, {"title": "奔腾", "address": "烟台路28号莱西商厦F4", "image": "", "rank": 29, "time": 2, "location": {"lat": 36.86052516119927, "lng": 120.52981093555277}, "feature": {"sight_features": "", "sight_content": ""}}, {"title": "特来电充电站（莱西豪邦度假酒店...", "address": "山东省青岛市莱西市文化东路13号", "image": "", "rank": 30, "time": 2, "location": {"lat": 36.86242343386618, "lng": 120.53872598892545}, "feature": {"sight_features": "", "sight_content": ""}}, {"title": "阿弥陀佛", "address": "山东省青岛市莱西市蓬莱路10-12-13号", "image": "", "rank": 31, "time": 2, "location": {"lat": 36.86413549829558, "lng": 120.52791245668799}, "feature": {"sight_features": "", "sight_content": ""}}, {"title": "圣水山庄旅游观光园", "address": "泉州路和天津路交叉路口", "image": "", "rank": 32, "time": 2, "location": {"lat": 36.80571928824209, "lng": 120.00072815642213}, "feature": {"sight_features": "", "sight_content": ""}}, {"title": "莱西湖生态休闲区", "address": "崂山路西150米湖滨公园附近", "image": "", "rank": 33, "time": 2, "location": {"lat": 36.93710197843113, "lng": 120.46007008898013}, "feature": {"sight_features": "", "sight_content": ""}}, {"title": "大青山-省级森林公园", "address": "青岛市莱西市", "image": "", "rank": 34, "time": 2, "location": {"lat": 36.89395629802583, "lng": 120.52455620764162}, "feature": {"sight_features": "", "sight_content": ""}}, {"title": "姜山四村文化广场", "address": "山东省青岛市莱西市姜山三村阳安路姜山镇政府西北400米", "image": "", "rank": 35, "time": 2, "location": {"lat": 36.67738857644773, "lng": 120.5297303844977}, "feature": {"sight_features": "", "sight_content": ""}}, {"title": "琴岛路休闲文化广场", "address": "琴岛路35号附近", "image": "", "rank": 36, "time": 2, "location": {"lat": 29.25486334452551, "lng": 88.90447502716688}, "feature": {"sight_features": "", "sight_content": ""}}, {"title": "人民广场(天津路)", "address": "青岛市中路", "image": "", "rank": 37, "time": 2, "location": {"lat": 36.072227496663224, "lng": 120.38945519114627}, "feature": {"sight_features": "", "sight_content": ""}}, {"title": "渭田村史博物馆", "address": "山东省青岛市莱西市渭田村", "image": "", "rank": 38, "time": 2, "location": {"lat": 36.634973882796835, "lng": 120.44769833534403}, "feature": {"sight_features": "", "sight_content": ""}}, {"title": "青岛市嘉景生态园", "address": "山东省青岛市莱西市S602", "image": "", "rank": 39, "time": 0.75, "location": {"lat": 36.89395629802583, "lng": 120.52455620764162}, "feature": {"sight_features": "", "sight_content": ""}}, {"title": "星期六儿童乐园(烟台路店)", "address": "莱西烟台路85号莱西财政局对面大院内", "image": "", "rank": 40, "time": 2, "location": {"lat": 36.87593992923541, "lng": 120.52937899972119}, "feature": {"sight_features": "", "sight_content": ""}}, {"title": "丫丫乐儿童成长乐园", "address": "山东省青岛市莱西市河头店镇洙河桥中国邮政旁", "image": "", "rank": 41, "time": 2, "location": {"lat": 36.885690858977426, "lng": 120.30938140578401}, "feature": {"sight_features": "", "sight_content": ""}}, {"title": "多多村", "address": "青岛市莱西市烟台路28号利群集团莱西商厦F4", "image": "", "rank": 42, "time": 2, "location": {"lat": 36.861031030573486, "lng": 120.52996498326978}, "feature": {"sight_features": "", "sight_content": ""}}, {"title": "卢乡阁博物馆", "address": "南京北路309号", "image": "", "rank": 43, "time": 2, "location": {"lat": 36.88351402156577, "lng": 120.54501753053103}, "feature": {"sight_features": "", "sight_content": ""}}, {"title": "韩家屯村文化广场", "address": "204国道桃园酒店附近", "image": "", "rank": 44, "time": 2, "location": {"lat": 42.289486237294504, "lng": 118.93367680619183}, "feature": {"sight_features": "", "sight_content": ""}}, {"title": "店埠村文化广场", "address": "山东省青岛市莱西市店埠镇兴店路店埠中心小学东北500米", "image": "", "rank": 45, "time": 2, "location": {"lat": 36.69751994413285, "lng": 120.36124241002844}, "feature": {"sight_features": "", "sight_content": ""}}, {"title": "沁楠香农业生态观光园", "address": "青岛市莱西市河头店镇河头店村永昌路南", "image": "", "rank": 46, "time": 2, "location": {"lat": 37.02422609976147, "lng": 120.58442189191251}, "feature": {"sight_features": "", "sight_content": ""}}, {"title": "National Day", "address": "XiangGang Zhong Lu, Qingdao, 37 2660 China", "image": "", "rank": 47, "time": 2, "location": {"lat": 36.311435785431605, "lng": 120.40647754157705}, "feature": {"sight_features": "", "sight_content": ""}}, {"title": "Laoshan Scenic Area", "address": "Laoshan Scenic Area Dedicated Road, Laoshan District, Qingdao 266100, China", "image": "", "rank": 48, "time": 2, "location": {"lat": 36.311435785431605, "lng": 120.40647754157705}, "feature": {"sight_features": "", "sight_content": ""}}, {"title": "莱西市档案馆", "address": "烟台路82号", "image": "", "rank": 49, "time": 1.0, "location": {"lat": 36.871766671404856, "lng": 120.52935067974168}, "feature": {"sight_features": "", "sight_content": ""}}, {"title": "双龙生态园", "address": "南京北路", "image": "", "rank": 50, "time": 2, "location": {"lat": 33.992277745683495, "lng": 118.87295561977018}, "feature": {"sight_features": "", "sight_content": ""}}, {"title": "动感魔幻城", "address": "烟台路46号", "image": "", "rank": 51, "time": 2, "location": {"lat": 36.86507715044277, "lng": 120.53001897951567}, "feature": {"sight_features": "", "sight_content": ""}}, {"title": "居艺轩玉画院", "address": "青岛路57戊", "image": "", "rank": 52, "time": 2, "location": {"lat": 36.78589905288473, "lng": 119.98699213453004}, "feature": {"sight_features": "", "sight_content": ""}}, {"title": "刘洋美术社", "address": "黄海中路11号-6", "image": "", "rank": 53, "time": 2, "location": {"lat": 36.86931130192851, "lng": 120.52422015155034}, "feature": {"sight_features": "", "sight_content": ""}}, {"title": "艺海书画", "address": "文化东路77附近", "image": "", "rank": 54, "time": 2, "location": {"lat": 30.23006344991529, "lng": 120.5593867946718}, "feature": {"sight_features": "", "sight_content": ""}}, {"title": "莱西新源家庭农场(西南门)", "address": "215省道东50米", "image": "", "rank": 55, "time": 1.5, "location": {"lat": 36.52111105176839, "lng": 115.25032060418934}, "feature": {"sight_features": "", "sight_content": ""}}, {"title": "青岛金妈妈农业科技有限公司(东...", "address": "393省道北50米", "image": "", "rank": 56, "time": 0.75, "location": {"lat": 37.60155951277604, "lng": 114.6409610801427}, "feature": {"sight_features": "", "sight_content": ""}}, {"title": "山色峪樱桃园", "address": "城阳山色峪停车场南", "image": "", "rank": 57, "time": 2, "location": {"lat": 36.31288619735009, "lng": 120.40252679394416}, "feature": {"sight_features": "", "sight_content": ""}}, {"title": "欢乐谷五谷养生坊(莱西店)", "address": "上海路2号5栋1单元111", "image": "", "rank": 58, "time": 2, "location": {"lat": 38.92821663274563, "lng": 121.64919113831677}, "feature": {"sight_features": "", "sight_content": ""}}, {"title": "南澳绿亨庄园", "address": "烟台路117-23号附近", "image": "", "rank": 59, "time": 2, "location": {"lat": 36.88719966620981, "lng": 120.52809858199643}, "feature": {"sight_features": "", "sight_content": ""}}, {"title": "八得根艺", "address": "团岛东路冠西菜市场19号", "image": "", "rank": 60, "time": 2, "location": {"lat": 36.87913648237063, "lng": 120.53345423902319}, "feature": {"sight_features": "", "sight_content": ""}}]}