{"cityName": "涞源", "days": 2, "cityImage": "", "spots": [{"title": "白石山世界地质公园", "address": "保定市涞源县城南15公里处白石山景区", "image": "", "rank": 1, "time": 7.5, "location": {"lat": 39.22475042552851, "lng": 114.71019299981343}, "feature": {"sight_features": "特色1 白石山峰云组合，是涞源至美景观。 特色2 悬空玻璃栈道，惊险刺激的体验，胆大的你快来挑战自己吧。 特色3 主峰高出群山数百米，几乎在涞源的任何一个角落都能看到她。", "sight_content": "白石山景区是世界地质公园，国家AAAAA级景区，地貌景观独特，人文旅游资源丰富，拥有奇松、怪石、云海、佛光，亭台楼阁、青山绿水及珍稀动植物景观，被称为“北方第一奇山”，所谓“奇”，是指白石山的各种怪石奇景，“罔不因势象形,各具情态。”\n1.【太行之神】“太行之神”是一个形状比较特殊的山体，独立在群峰之中，显得格外的“抢眼”。相传，在白石山修道、修仙之人均在此修炼，而这里是吸取日月之精华的较佳位置。“太行之神”经历了亿万年的自然洗礼，依然伟岸的伫立在那里，守护着涞源、守护着白石山、守护着太行。\n2.【仙人晒靴】相传在燕赵时期，一位得道中人，被白石山的美景吸引，在此停留歇息，一脚跨黄山一脚踏白石山，所以一只靴子留在了黄山，另一只靴子留在了白石山，故白石山也有“北方小黄山”之称。\n3.【风云际会】什么是“风云际会”？就是云雾在白石山南麓形成后，在东南风的推动下试图越过山脊，冷、暖气流往往在晴云峰一线交锋。随着冷、暖气流强弱的变化，云雾时升时降，时进时退，聚如幔卷，散如蝶飞，奇峰忽隐忽现。“风云际会”是白石山的一\n4.【祥云门】祥云门坐落在祥云峰旁，之所以叫祥云门，是因为在夏季多雾的季节，站在祥云门的门楼上边可看见白云的变化万千，宛如九天之上万马奔腾，蔚为壮观。而且据说过此“祥云门”者，来年必定工作顺利，家庭美满，所以，来白石山一定要过一\n5．【瞰海亭】这里是观看云海的一个极佳的位置，在这里可以静看云海的千变万化。大家如果走累了，可以在这稍事休息！\n6.【飞狐峡】相传，殷汤之末，千年灵狐食万年松果得日月之精华羽化成仙，幻化为妙龄少女、老妪、老翁三种形象，常显神圣，救苦救难。因这里是相传飞狐出现较多的地方，所以取名为飞狐峡。飞狐峡以山峰怪异、谷幽奇险称绝，神幻复杂，时而陡壁挡面，山穷水尽疑无路；时而豁然开朗，柳暗花明又一\n7.【绝壁长廊】长廊始建于2011年，全长280余米，位于海拔1600余米、净高差350余米之绝壁山腰间。该工程既汲取了巴蜀古栈道营造法，又结合现代钢筋砼施工之先进工艺，科学安全、大气壮观，凝聚着开发创建者的勇气和智慧，更加体现白石山的“险”。\n8.【双雄石】站在双雄石观景台上，可见对面峰崖上有两巨石并立，高约50余米，像两位巨人，更像两位英雄，雄姿勃勃，并肩屹立在陡崖上，守卫着白石山。两巨石直上直下，之间缝隙不宽，它们巍然矗立，是涞源县代表性的地貌景观之一。这里还有一道水景观，更加衬托了白石山的“奇”。\n9.【红桦林】白石山植被茂密，森林覆盖率在80%以上，高等植物达739种，是河北省生物多样性三大分布中心区之一，保存有大面积的原始次生林，生长在海拔1600米—2000米之间的红桦林为白石山的代表性植物。红桦树枝干挺拔，树皮深红，看上去十分儒雅高贵，人们把它比做林中仙子，如果你喜欢摄影，一定不要错过这里。\n10.【悬石奇观】亿万年来，它一直悬在那里，好像稍大点的风就会把它吹下来，可这块小小的石头却经历了沧海桑田的变迁，体验了世间冷暖的变化。这个景观可与黄山的“飞来石”媲美。其原理其实就是重力垂直的作用。\n11.【海豚出水】孤立的山峰形状十分像出水的海豚，头和嘴的前半身露出水面，整个孤峰由距今10亿年前形成的古地震遗迹---巨角砾岩组成。\n12.【佛光顶】佛光顶是白石山的较高峰，海拔2096米，顶部面积约30平方米，是极目远眺，赏峰林，览云雾，观佛光的较佳位置。\n站在白石山巅，向北望去，是涞源盆地，田畴交错，绿草茵茵，涛涛不息的拒马河水像一条银龙，蜿蜒曲折地向。\n白石山最壮观的景致，即是以峰林地貌著称。其核心部位的大理岩峰林是我国惟一的大理岩峰林地貌，是我国峰林地貌的一种新的类型。景区的精华部分，由100多座高低错落、相对独立的山峰组成。主峰海拔2096米，高出周围群山数百米，几乎在涞源的任何一个角落都能看到她。白石山高大的山体，奇峰林立，巨壑纵横，断崖峭壁如刀削斧劈，棱角分明，少有曲线，堪称山岳景观中奇与险的代表。\n‍‍白石山旅游攻略\n白石山位于河北省涞源县南部，距离县城15公里左右。游客如果是自驾，从涞源白石山出口下高速后，一路沿着标有“白石山园区东门”的指示牌前进就行。如果游客是坐火车或大巴车到涞源县城，只要乘坐县城到白石山东门的8路公交小巴车就可以直接到达白石山东门。白石山分东、西两个大门，东门是主入口，门口有宽敞的停车场，所以建议游客选择东门进入景区。在景区门口有团队和散客两个售票亭，如果不是跟旅行社来的游客请到散客售票处购票。\n从景区大门到核心游览区起始点韭菜园还有13公里95个转弯的盘山公路，弯急坡陡。为了游客的安全，景区统一安排游客乘坐景区大巴，车程约25分钟。当然如果游客晕车或希望更快的到达韭菜园，那么祥云门索道就是好选择了。全长2380米，落差近1000米的祥云门索道是目前国内自主研发的拖挂式索道，主要部件瑞士进口，每个索道箱体购价高达24万元人民币，可以同时乘坐8位游客。乘坐索道上行时间只需要8分钟。景区大巴车和祥云门索道票在景区大门口的门票售票处都可以同时购买，非常方便！游客进入韭菜园核心景区起始点，可以选择两条游览路线：位于海拔1900米的双雄石游览线和海拔1600米的飞狐峡游览线。\n推荐的精品游览线路是：韭菜园——飞狐峡游览线——飞云口——白石画廊（悬空玻璃栈道）——双雄石游览线——韭菜园。从韭菜园直下1600米的飞狐峡游览线，在两个半小时的游览中将白石山的精品景点留在眼里、心里和相机里，同时感受白石山在这个海拔所看到的蓝天白云，奇峰怪石。特别不要忘记去太行之神那留影哟，这可是白石山的标志。到达飞狐峡后游客可以有两个选择到达飞云口：一个是乘坐飞云口索道上山，直线距离900米，只需5分钟；也可以步行上山，但此处游步道曲折向上足有3千米，道路台阶加起来有100层楼高，需要用时1.5——2小时，为了保留体力不影响游览后面的美景，索道是不错的选择哦。从飞云口开始就是白石山最神奇的工程“绝壁上的栈道”——白石画廊。这条栈道之所以称为“白石画廊”，不仅仅是因为在这个海拔欣赏白石山更有一种水墨画意的大气之美，更是因为在这个栈道上游客能够感受云在脚下，风在身旁如临仙境的惬意自由。\n当然，大名鼎鼎的中国最长、最宽的悬空玻璃栈道之一，也在这一段绝壁之上。勇敢的你，来挑战吧！当游客在悬空玻璃栈道上感受刺激后，可以选择在河北省双雄石餐厅享用自助餐。谈笑休憩时，观赏到山间的风云际会和瞬间的风起云涌。餐后放慢脚步，沿着恬静和彩色的万亩红桦林进入的就是海拔1900米的双雄石游览线了。在这个高度看到的白石山又是不一样的姿态，远处一览众山小的开阔视线，近处沟壑深涧大自然的鬼斧神工，怎是一个“奇”字可以形容？走出小洞天，感受完白石山的“奇秀双并融，一山兼四季”的美景，如从仙境回到人间，早已不知今夕是何年？整个精品推荐游览线需要游览4到6个小时，但是由于白石山景区的游览步道设计合理，处处美景让人流连忘返，两条游览线让美景不重复以及合理的下行设计，使游客在走完全程后依然意犹未尽。"}}, {"title": "十瀑峡", "address": "保定市涞源县距离高速路口15公里处", "image": "", "rank": 2, "time": 3.0, "location": {"lat": 39.36627169152419, "lng": 114.70047561678977}, "feature": {"sight_features": "特色1 泉水在峡谷巨石间流淌，跌岩为瀑，留涟为潭，有大小十多道瀑布，各具特色。", "sight_content": "白石山十瀑峡中溪水流淌4000米，穿行于山石之间，十瀑连叠不断，瀑上有潭，潭泄成瀑，瀑布水花飞溅。\n飞龙瀑落差48米，瀑面宽3米，如银河倒挂，声宏如雷，气势雄伟双龙瀑分两级跌下，落差60米，落差大。\n干旱时，水流细，显的非常秀气；丰水期，银帘高悬，景色诱人。连叠不断的瀑布溪水，在绿色苍郁的植被衬托下，更显出生机勃勃，使游人流连忘返。“鱼鳞坡”为花岗岩的节理，在风化时呈层形剥落，形似鱼鳞，谷中溪水漫流，晶莹诱人。"}}, {"title": "空中草原", "address": "保定市涞源县西北部", "image": "", "rank": 3, "time": 4.0, "location": {"lat": 39.36627169152419, "lng": 114.70047561678977}, "feature": {"sight_features": "", "sight_content": ""}}, {"title": "拒马源头", "address": "保定市涞源县沙河大街东侧", "image": "", "rank": 4, "time": 1.5, "location": {"lat": 39.35823585493002, "lng": 114.69969246057158}, "feature": {"sight_features": "", "sight_content": ""}}, {"title": "仙人峪景区", "address": "保定市涞源县城西15公里处", "image": "", "rank": 5, "time": 1.0, "location": {"lat": 39.36627169152419, "lng": 114.70047561678977}, "feature": {"sight_features": "特色1 沟中套洞，洞中百步一景，景景各异，细听美丽古老传说。", "sight_content": "凉城地处河北省西北部涞源县太行、燕山、恒山三山接壤、涞水、易水、拒马三源交汇之处，酷署日均21.7度的独特凉爽气候，被世人称颂为“天然大空调”。\n景区总面积480平方公里，以县城为轴心，辐射八大景。仙人峪景区位于城西15公里处，峪内分东环西环景区，沟中套洞，洞中百步一景，景景各异，逢景点均有古老美丽传说。"}}, {"title": "阁院寺", "address": "保定市涞源县阁院路1号。", "image": "", "rank": 6, "time": 1.5, "location": {"lat": 39.35989549740761, "lng": 114.69508425661054}, "feature": {"sight_features": "", "sight_content": ""}}, {"title": "乌龙沟长城", "address": "保定市涞源县乌龙沟村", "image": "", "rank": 7, "time": 1.0, "location": {"lat": 39.482303994577116, "lng": 114.96186091055601}, "feature": {"sight_features": "", "sight_content": ""}}, {"title": "兴文塔", "address": "保定市涞源县县城中心泰山宫内", "image": "", "rank": 8, "time": 1.0, "location": {"lat": 39.36627169152419, "lng": 114.70047561678977}, "feature": {"sight_features": "", "sight_content": ""}}, {"title": "泰山宫", "address": "保定市涞源县县城中心，距马河源头", "image": "", "rank": 9, "time": 0.35, "location": {"lat": 39.36627169152419, "lng": 114.70047561678977}, "feature": {"sight_features": "", "sight_content": ""}}, {"title": "白石山大剧院", "address": "河北省保定市涞源县莲花峰度假小镇（张石高速涞源南出口南行5公里）", "image": "", "rank": 10, "time": 1.2, "location": {"lat": 39.36627169152419, "lng": 114.70047561678977}, "feature": {"sight_features": "特色1 燕赵辽阔，白石巍峨，锦绣山城中的白石山大剧院如一颗璀璨的明珠熠熠生辉。 特色2 坐拥卧佛，面朝明长城，自然风光得天独厚。 特色3 充满了含蓄而别致的韵味与美感。", "sight_content": "《白石山传奇》用歌、舞、奇、幻展现一个个神话，述说着段段历史。重新见证千年的爱情。剧目分序：飞狐传、忠烈颂、红星赞、涞源情。时长70分钟、运用高科技手段和国际先进的舞台、呈现了如梦似幻、身临其境的视觉。打造出一台精彩绝伦奢华的穿越盛宴、谱写着千年历史文化传奇。剧情讲述了相传3000多年前的商周时期、纣王为九尾狐妲己在飞狐山修建飞狐城开篇，穿越了辽宋大战中的穆桂英大破天门阵并与杨忠保的爱情故事，呈现抗日战争时期小英雄王二小的英勇诱敌制胜的篇章。直至进入21世纪、通过横贯几千年历史长河中人们耳熟能详的传奇故事。\n燕赵辽阔，白石巍峨，锦绣山城中的白石山大剧院如一颗璀璨的明珠熠熠生辉。 “鼎”形的顶部和具有光感的玻璃幕墙有机结合,在灯光的烘托下,宛如一个水晶般的宫殿,“宝石之中、古国重器、四方之纲、德音秩秩、华美盛典、民众和乐”。每当夜幕降临与漫天繁星遥相呼应，使大剧院更充满了含蓄而别致的韵味与美感。美丽的白石山大剧院坐落于河北涞源莲花峰度假小镇（张石高速涞源白石山出口南行5公里），毗邻世界地质公园白石山景区，交通便利。坐拥卧佛，面朝明长城，自然风光得天独厚。周边配套5星级莲花峰温泉酒店、莲花峰度假小镇、莲花峰美食街、人造大型阶梯水系、大型音乐喷泉。"}}, {"title": "蓝鲸冰雕馆", "address": "保定市涞源县白石山温泉度假区蓝鲸馆", "image": "", "rank": 11, "time": 2, "location": {"lat": 39.24745162890687, "lng": 114.69008343565007}, "feature": {"sight_features": "", "sight_content": ""}}, {"title": "白石山俊伟农家院", "address": "河北省保定市涞源县白石山镇次儿浡207国道", "image": "", "rank": 12, "time": 2, "location": {"lat": 39.213459554111594, "lng": 114.64448171909741}, "feature": {"sight_features": "", "sight_content": ""}}, {"title": "华中.白石山温泉度假区", "address": "207国道与下银线交叉口加油站斜对面", "image": "", "rank": 13, "time": 2.5, "location": {"lat": 24.09701218694945, "lng": 108.252842276359}, "feature": {"sight_features": "", "sight_content": ""}}, {"title": "白石山玻璃栈道", "address": "保定市涞源县城南15公里", "image": "", "rank": 14, "time": 0.4, "location": {"lat": 39.36627169152419, "lng": 114.70047561678977}, "feature": {"sight_features": "", "sight_content": ""}}, {"title": "保定六郎湾农家院", "address": "河北省保定市涞源县白石山镇插箭岭村白石山西门", "image": "", "rank": 15, "time": 7.5, "location": {"lat": 39.24745162890687, "lng": 114.69008343565007}, "feature": {"sight_features": "", "sight_content": ""}}, {"title": "白石口长城", "address": "河北省保定市涞源县白石口", "image": "", "rank": 16, "time": 2, "location": {"lat": 39.25564708661087, "lng": 114.71974696489532}, "feature": {"sight_features": "", "sight_content": ""}}, {"title": "七山滑雪度假区", "address": "保定市涞源县白石山镇西龙虎村", "image": "", "rank": 17, "time": 2, "location": {"lat": 39.32456211805276, "lng": 114.70550052311758}, "feature": {"sight_features": "", "sight_content": ""}}, {"title": "白桦林温泉谷", "address": "保定市涞源县白石山镇白石山温泉度假区", "image": "", "rank": 18, "time": 2, "location": {"lat": 39.24745162890687, "lng": 114.69008343565007}, "feature": {"sight_features": "", "sight_content": ""}}, {"title": "农益农家院", "address": "白石山东门下行500米", "image": "", "rank": 19, "time": 2, "location": {"lat": 31.671893400662242, "lng": 116.78817703513279}, "feature": {"sight_features": "", "sight_content": ""}}, {"title": "玉水温泉会馆", "address": "广平大街81附近", "image": "", "rank": 20, "time": 2, "location": {"lat": 39.78111343670525, "lng": 116.36696205311452}, "feature": {"sight_features": "", "sight_content": ""}}, {"title": "白石山世界地质公园博物馆", "address": "河北省保定市涞源县下银线白石山游客服务中心二楼", "image": "", "rank": 21, "time": 2, "location": {"lat": 39.24347431836352, "lng": 114.73542446214712}, "feature": {"sight_features": "", "sight_content": ""}}, {"title": "涞源清凉山庄", "address": "保定涞源县白石山售票处东行100米路北", "image": "", "rank": 22, "time": 2, "location": {"lat": 39.24745162890687, "lng": 114.69008343565007}, "feature": {"sight_features": "", "sight_content": ""}}, {"title": "涞源七彩薰衣草植物园", "address": "河北省保定市涞源县下银线", "image": "", "rank": 23, "time": 7.5, "location": {"lat": 39.24347431836352, "lng": 114.73542446214712}, "feature": {"sight_features": "", "sight_content": ""}}, {"title": "保定时代隆福购物广场-儿童乐园", "address": "保定时代隆福购物广场4层", "image": "", "rank": 24, "time": 7.5, "location": {"lat": 39.367284604047605, "lng": 114.70670168244888}, "feature": {"sight_features": "", "sight_content": ""}}, {"title": "七彩乐园", "address": "河北省保定市涞源县涞源镇富强路冠亿·七彩城附近", "image": "", "rank": 25, "time": 2, "location": {"lat": 39.37218962388549, "lng": 114.69470722790663}, "feature": {"sight_features": "", "sight_content": ""}}, {"title": "保定涞源宏敏农家院", "address": "白石山西门(近G207国道)", "image": "", "rank": 26, "time": 7.5, "location": {"lat": 39.24745162890687, "lng": 114.69008343565007}, "feature": {"sight_features": "", "sight_content": ""}}, {"title": "国家档案馆", "address": "广昌大街67号", "image": "", "rank": 27, "time": 1.0, "location": {"lat": 39.35830587282452, "lng": 114.6964123114765}, "feature": {"sight_features": "", "sight_content": ""}}, {"title": "陶阳避暑山庄", "address": "景区路24号", "image": "", "rank": 28, "time": 2, "location": {"lat": 29.573229711425707, "lng": 103.45854831843818}, "feature": {"sight_features": "", "sight_content": ""}}, {"title": "联合关村大戏台", "address": "联大创意生活街北50米", "image": "", "rank": 29, "time": 2, "location": {"lat": 39.365584046923594, "lng": 114.71404417207714}, "feature": {"sight_features": "", "sight_content": ""}}, {"title": "木吉村舞台", "address": "腾飞街附近", "image": "", "rank": 30, "time": 2, "location": {"lat": 38.89582150977061, "lng": 115.53641997134943}, "feature": {"sight_features": "", "sight_content": ""}}, {"title": "横岭子自然保护区", "address": "河北省涞源县东北部", "image": "", "rank": 31, "time": 2, "location": {"lat": 39.36627169152419, "lng": 114.70047561678977}, "feature": {"sight_features": "", "sight_content": ""}}, {"title": "联大步行街", "address": "河北省涞源县联大步行街", "image": "", "rank": 32, "time": 2, "location": {"lat": 39.36703821070887, "lng": 114.71334863208688}, "feature": {"sight_features": "", "sight_content": ""}}, {"title": "白石山景区免费摆渡车站", "address": "保定市-涞源县-城阁院路白石山景区内", "image": "", "rank": 33, "time": 2, "location": {"lat": 39.22475042552851, "lng": 114.71019299981343}, "feature": {"sight_features": "", "sight_content": ""}}, {"title": "白石山温泉康养小镇", "address": "保定市-涞源县-G207(锡海线)", "image": "", "rank": 34, "time": 2, "location": {"lat": 39.36627169152419, "lng": 114.70047561678977}, "feature": {"sight_features": "", "sight_content": ""}}, {"title": "南塘仙谷", "address": "保定市-涞源县-走马驿镇南台村", "image": "", "rank": 35, "time": 2, "location": {"lat": 39.15382382942601, "lng": 114.54651325499313}, "feature": {"sight_features": "", "sight_content": ""}}, {"title": "天桥瀑布群", "address": "河北省保定市阜平县西部", "image": "", "rank": 36, "time": 2, "location": {"lat": 38.85535144479584, "lng": 114.20156347383934}, "feature": {"sight_features": "", "sight_content": ""}}, {"title": "神仙山", "address": "河北省保定市涞源县 ‎", "image": "", "rank": 37, "time": 2, "location": {"lat": 39.36627169152419, "lng": 114.70047561678977}, "feature": {"sight_features": "", "sight_content": ""}}]}