{"cityName": "莱阳", "days": 2, "cityImage": "", "spots": [{"title": "蚬河公园", "address": "烟台市莱阳市公园路002号", "image": "", "rank": 1, "time": 1.0, "location": {"lat": 36.98320353903519, "lng": 120.73464398893861}, "feature": {"sight_features": "", "sight_content": ""}}, {"title": "莱阳博物馆", "address": "烟台市莱阳市中心大寺街中段", "image": "", "rank": 2, "time": 2.5, "location": {"lat": 36.9831321945581, "lng": 120.7193612700093}, "feature": {"sight_features": "", "sight_content": ""}}, {"title": "大风车儿童职业体验馆", "address": "烟台莱阳市大寺街地下中防商街A区", "image": "", "rank": 3, "time": 2, "location": {"lat": 36.97973035402437, "lng": 120.71919922557667}, "feature": {"sight_features": "", "sight_content": ""}}, {"title": "梨乡风情旅游区", "address": "烟台市莱阳市照旺庄镇西陶漳村", "image": "", "rank": 4, "time": 2, "location": {"lat": 36.93407194343305, "lng": 120.76087609084769}, "feature": {"sight_features": "", "sight_content": ""}}, {"title": "莱阳濯村樱花小镇", "address": "烟台市莱阳市濯村", "image": "", "rank": 5, "time": 2, "location": {"lat": 36.777164367602495, "lng": 120.72548867567257}, "feature": {"sight_features": "", "sight_content": ""}}, {"title": "娘娘山风景区", "address": "烟台市莱阳市高格庄镇大薛村", "image": "", "rank": 6, "time": null, "location": {"lat": 36.714014560873146, "lng": 120.79116604086404}, "feature": {"sight_features": "", "sight_content": ""}}, {"title": "碧云天汤泉", "address": "烟台市莱阳市文化宫广场街10号", "image": "", "rank": 7, "time": 2, "location": {"lat": 36.9846355683041, "lng": 120.718414309578}, "feature": {"sight_features": "", "sight_content": ""}}, {"title": "莱阳白垩纪国家地质公园", "address": "烟台市莱阳市金岗口村", "image": "", "rank": 8, "time": 1.5, "location": {"lat": 36.886814821215275, "lng": 120.66863597814994}, "feature": {"sight_features": "", "sight_content": ""}}, {"title": "莱阳市艺术馆", "address": "山东省莱阳市旌旗西路11号", "image": "", "rank": 9, "time": 0.5, "location": {"lat": 36.982340227383794, "lng": 120.69487124928085}, "feature": {"sight_features": "", "sight_content": ""}}, {"title": "采摘园", "address": "马家夼村", "image": "", "rank": 10, "time": 2, "location": {"lat": 36.86280667878598, "lng": 120.69347241692375}, "feature": {"sight_features": "", "sight_content": ""}}, {"title": "照旺庄镇莱阳梨种植果园", "address": "芦儿港村芦儿港大桥东300米", "image": "", "rank": 11, "time": 2, "location": {"lat": 36.929158301050805, "lng": 120.73668503158277}, "feature": {"sight_features": "", "sight_content": ""}}, {"title": "莱阳市益丰葡萄合作社(东北门)", "address": "212省道附近", "image": "", "rank": 12, "time": 2, "location": {"lat": 40.390563512510504, "lng": 116.26044547726889}, "feature": {"sight_features": "", "sight_content": ""}}, {"title": "莱阳乐盛农业有限公司", "address": "富水北路99号", "image": "", "rank": 13, "time": 2, "location": {"lat": 26.589049520184645, "lng": 106.7207042000862}, "feature": {"sight_features": "", "sight_content": ""}}, {"title": "鑫源庄园", "address": "204国道旁佛殿头村", "image": "", "rank": 14, "time": 2, "location": {"lat": 31.674195505838682, "lng": 120.84129504740726}, "feature": {"sight_features": "", "sight_content": ""}}, {"title": "Navy Museum", "address": "8 Laiyang Lu, Qingdao, 37 2660 China", "image": "", "rank": 15, "time": 1.5, "location": {"lat": 36.311435785431605, "lng": 120.40647754157705}, "feature": {"sight_features": "", "sight_content": ""}}, {"title": "胶东精品艺术馆", "address": "鹤山路", "image": "", "rank": 16, "time": 2, "location": {"lat": 24.94069963388359, "lng": 118.66095337414568}, "feature": {"sight_features": "", "sight_content": ""}}, {"title": "书法展览馆", "address": "旌旗西路11号", "image": "", "rank": 17, "time": 2, "location": {"lat": 36.982340227383794, "lng": 120.69487124928085}, "feature": {"sight_features": "", "sight_content": ""}}, {"title": "胶东民俗艺术馆", "address": "七星街与升平街交叉口东100米", "image": "", "rank": 18, "time": 2, "location": {"lat": 36.98427097346299, "lng": 120.71546310648606}, "feature": {"sight_features": "", "sight_content": ""}}, {"title": "时代美术馆", "address": "大寺街", "image": "", "rank": 19, "time": 2.5, "location": {"lat": 37.47910783605466, "lng": 112.37879147351653}, "feature": {"sight_features": "", "sight_content": ""}}, {"title": "今日美术馆", "address": "旌旗西路11号", "image": "", "rank": 20, "time": 1.0, "location": {"lat": 36.982340227383794, "lng": 120.69487124928085}, "feature": {"sight_features": "", "sight_content": ""}}, {"title": "金山爱思诺国际冰雪嘉年华", "address": "蚬河南路金山国际俱乐部", "image": "", "rank": 21, "time": 2, "location": {"lat": 36.952572813837115, "lng": 120.72968818925371}, "feature": {"sight_features": "", "sight_content": ""}}, {"title": "百姓画廊", "address": "五龙北路大华商务楼北", "image": "", "rank": 22, "time": 2, "location": {"lat": 36.975587692228565, "lng": 120.71444161274829}, "feature": {"sight_features": "", "sight_content": ""}}, {"title": "高老庄生态休闲农场", "address": "沐浴店镇", "image": "", "rank": 23, "time": 2, "location": {"lat": 37.080356455877244, "lng": 120.83737942801132}, "feature": {"sight_features": "", "sight_content": ""}}, {"title": "中港国旅", "address": "立交桥大华写字楼三楼310室", "image": "", "rank": 24, "time": 2, "location": {"lat": 39.978616847276854, "lng": 116.32494264508813}, "feature": {"sight_features": "", "sight_content": ""}}, {"title": "蚬河水立方水上乐园", "address": "国际公馆南200米路东(金山高尔夫院内)", "image": "", "rank": 25, "time": 2, "location": {"lat": 30.747852376570318, "lng": 121.34848004512126}, "feature": {"sight_features": "", "sight_content": ""}}, {"title": "顺德盛有机农牧园", "address": "307省道附近", "image": "", "rank": 26, "time": 2.5, "location": {"lat": 40.264498296993764, "lng": 116.57268632168496}, "feature": {"sight_features": "", "sight_content": ""}}, {"title": "莱阳市高老庄家庭农场", "address": "中泊子村", "image": "", "rank": 27, "time": 2, "location": {"lat": 37.043309578754986, "lng": 120.79026379448779}, "feature": {"sight_features": "", "sight_content": ""}}, {"title": "玉芝农场", "address": "谭格庄镇", "image": "", "rank": 28, "time": 2, "location": {"lat": 37.10953647034063, "lng": 120.63564603078768}, "feature": {"sight_features": "", "sight_content": ""}}, {"title": "博雅轩艺术馆", "address": "阳光城172号楼", "image": "", "rank": 29, "time": 2, "location": {"lat": 35.11658112548293, "lng": 118.40289628085073}, "feature": {"sight_features": "", "sight_content": ""}}, {"title": "湘庆园农家乐", "address": "古柳街道莱阳市车管所东300米", "image": "", "rank": 30, "time": 2, "location": {"lat": 36.916366466929745, "lng": 120.70641182867602}, "feature": {"sight_features": "", "sight_content": ""}}, {"title": "选意达画廊", "address": "七星街241号附近", "image": "", "rank": 31, "time": 2, "location": {"lat": 26.881037836283742, "lng": 100.23526987336157}, "feature": {"sight_features": "", "sight_content": ""}}, {"title": "林宝大艺术馆", "address": "富水北路附近", "image": "", "rank": 32, "time": 2, "location": {"lat": 26.588550501598537, "lng": 106.72066443838945}, "feature": {"sight_features": "", "sight_content": ""}}, {"title": "莱阳市文化馆(北门)", "address": "旌旗西路附近", "image": "", "rank": 33, "time": 2, "location": {"lat": 36.984486542411695, "lng": 120.71524311146666}, "feature": {"sight_features": "", "sight_content": ""}}, {"title": "莱阳游乐园", "address": "蚬河南路东凤凰大桥南", "image": "", "rank": 34, "time": 4.5, "location": {"lat": 37.39158216558851, "lng": 120.19368869215397}, "feature": {"sight_features": "", "sight_content": ""}}, {"title": "烟台金山高尔夫", "address": "金口古镇金山旅游度假区内金口村北侧", "image": "", "rank": 35, "time": 1.0, "location": {"lat": 30.747852376570318, "lng": 121.34848004512126}, "feature": {"sight_features": "", "sight_content": ""}}, {"title": "莱阳剧院", "address": "五龙北路附近", "image": "", "rank": 36, "time": 2.0, "location": {"lat": 36.513256873876514, "lng": 117.88806047259976}, "feature": {"sight_features": "", "sight_content": ""}}, {"title": "农业局植保站", "address": "城厢街道", "image": "", "rank": 37, "time": 2, "location": {"lat": 31.463211285449525, "lng": 104.764005001538}, "feature": {"sight_features": "", "sight_content": ""}}, {"title": "鹤山种禽", "address": "金山大街", "image": "", "rank": 38, "time": 4.0, "location": {"lat": 39.880401460877785, "lng": 119.25628006908944}, "feature": {"sight_features": "", "sight_content": ""}}, {"title": "莱阳市京剧团", "address": "清谁北路028号旌阳路", "image": "", "rank": 39, "time": 2, "location": {"lat": 36.989670015272075, "lng": 120.71891546344234}, "feature": {"sight_features": "", "sight_content": ""}}, {"title": "七星路步行街", "address": "山东省莱阳市七星路步行街", "image": "", "rank": 40, "time": 1.5, "location": {"lat": 36.98124674367279, "lng": 120.71578012209376}, "feature": {"sight_features": "", "sight_content": ""}}, {"title": "丽都艺术会馆", "address": "山东省莱阳市旌旗西路", "image": "", "rank": 41, "time": 2, "location": {"lat": 36.984486542411695, "lng": 120.71524311146666}, "feature": {"sight_features": "", "sight_content": ""}}, {"title": "草化山庄", "address": "青岛市莱西市望城街道办事处小谭格庄村东", "image": "", "rank": 42, "time": 2, "location": {"lat": 36.816828000941484, "lng": 120.52017499200835}, "feature": {"sight_features": "", "sight_content": ""}}, {"title": "莱阳市海洋水产资源增殖站", "address": "烟台市-莱阳市-富山路与莱穴路交叉口东南100米", "image": "", "rank": 43, "time": null, "location": {"lat": 36.955421154444636, "lng": 120.6809329253947}, "feature": {"sight_features": "", "sight_content": ""}}, {"title": "大黄家村", "address": "烟台市-莱阳市-零六四县道", "image": "", "rank": 44, "time": 2, "location": {"lat": 36.9846355683041, "lng": 120.718414309578}, "feature": {"sight_features": "", "sight_content": ""}}, {"title": "山东省莱阳市国有龙门寺林场", "address": "烟台市-莱阳市-069县道西50米", "image": "", "rank": 45, "time": 2, "location": {"lat": 36.9846355683041, "lng": 120.718414309578}, "feature": {"sight_features": "", "sight_content": ""}}, {"title": "南麻姑岛村", "address": "烟台市-莱阳市", "image": "", "rank": 46, "time": 2, "location": {"lat": 36.9846355683041, "lng": 120.718414309578}, "feature": {"sight_features": "", "sight_content": ""}}]}