{"cityName": "莱州", "days": 2, "cityImage": "", "spots": [{"title": "大基山", "address": "烟台市莱州市城东八公里处", "image": "", "rank": 1, "time": 5.0, "location": {"lat": 37.18263660907421, "lng": 119.94859307736998}, "feature": {"sight_features": "", "sight_content": ""}}, {"title": "云峰山", "address": "烟台市莱州市区南7.5公里", "image": "", "rank": 2, "time": 2.0, "location": {"lat": 37.18263660907421, "lng": 119.94859307736998}, "feature": {"sight_features": "", "sight_content": ""}}, {"title": "黄金海岸旅游度假区", "address": "烟台市莱州市三山岛", "image": "", "rank": 3, "time": 2.5, "location": {"lat": 37.41739713668877, "lng": 119.96610926406842}, "feature": {"sight_features": "", "sight_content": ""}}, {"title": "中华月季园", "address": "烟台市莱州市山宋家云峰南路中华月季园", "image": "", "rank": 4, "time": 1.0, "location": {"lat": 37.14319204738232, "lng": 119.96582393259438}, "feature": {"sight_features": "", "sight_content": ""}}, {"title": "毛纪墓", "address": "烟台市莱州城西西山张村旁的山岗之上", "image": "", "rank": 5, "time": 2, "location": {"lat": 37.17959961959971, "lng": 119.916722638758}, "feature": {"sight_features": "", "sight_content": ""}}, {"title": "莱州河滨公园", "address": "烟台市莱州市南阳河西路", "image": "", "rank": 6, "time": 1.0, "location": {"lat": 37.18229862559203, "lng": 119.93500370834394}, "feature": {"sight_features": "", "sight_content": ""}}, {"title": "崮山", "address": "烟台市莱州市", "image": "", "rank": 7, "time": 2, "location": {"lat": 37.18263660907421, "lng": 119.94859307736998}, "feature": {"sight_features": "", "sight_content": ""}}, {"title": "寒同山（神仙洞）", "address": "烟台市城区莱州", "image": "", "rank": 8, "time": 1.0, "location": {"lat": 37.18263660907421, "lng": 119.94859307736998}, "feature": {"sight_features": "", "sight_content": ""}}, {"title": "桃源温泉", "address": "烟台市莱州市城港南路360号（啤酒厂南300米，大原十字路口路东）", "image": "", "rank": 9, "time": 0.7, "location": {"lat": 37.239439251318224, "lng": 119.94921940112408}, "feature": {"sight_features": "", "sight_content": ""}}, {"title": "三山岛黄金海岸高尔夫练习场", "address": "金沙滩路69号", "image": "", "rank": 10, "time": 2, "location": {"lat": 27.45201090973327, "lng": 120.66153055033668}, "feature": {"sight_features": "", "sight_content": ""}}, {"title": "帕提海岸水上嘉年华", "address": "烟台莱州市金仓街道黄金海岸大酒店周边沙滩", "image": "", "rank": 11, "time": 2, "location": {"lat": 37.387759505954314, "lng": 119.93349921729278}, "feature": {"sight_features": "", "sight_content": ""}}, {"title": "宏顺梅园", "address": "莱州市文峰路街道南房家村", "image": "", "rank": 12, "time": 2, "location": {"lat": 37.15191678984507, "lng": 119.92424781408292}, "feature": {"sight_features": "", "sight_content": ""}}, {"title": "莱州居仙岭生态采摘园", "address": "文峰路街道田家村", "image": "", "rank": 13, "time": 2, "location": {"lat": 37.15447649813575, "lng": 119.99252875071024}, "feature": {"sight_features": "", "sight_content": ""}}, {"title": "莱州市洪本农场", "address": "郭家店镇柴棚村", "image": "", "rank": 14, "time": 2, "location": {"lat": 37.13801117049681, "lng": 120.2111089182646}, "feature": {"sight_features": "", "sight_content": ""}}, {"title": "尼山书院", "address": "光州东街南100米", "image": "", "rank": 15, "time": 2, "location": {"lat": 37.194623885295336, "lng": 119.96926175047597}, "feature": {"sight_features": "", "sight_content": ""}}, {"title": "太平庄有机果蔬采摘园", "address": "206国道22号", "image": "", "rank": 16, "time": 2, "location": {"lat": 24.027693425509675, "lng": 115.9917729736661}, "feature": {"sight_features": "", "sight_content": ""}}, {"title": "渔家灯火", "address": "文化东街280号", "image": "", "rank": 17, "time": 2, "location": {"lat": 38.472314249398345, "lng": 106.29681395263448}, "feature": {"sight_features": "", "sight_content": ""}}, {"title": "千佛阁动物园", "address": "文化东路人民医院对门", "image": "", "rank": 18, "time": 2, "location": {"lat": 36.27320093037263, "lng": 111.9254288196364}, "feature": {"sight_features": "", "sight_content": ""}}, {"title": "利群哈动园", "address": "莱州老利群三楼东面", "image": "", "rank": 19, "time": 2, "location": {"lat": 37.18263660907421, "lng": 119.94859307736998}, "feature": {"sight_features": "", "sight_content": ""}}, {"title": "豪门盛宴", "address": "莱州北路（近西苑路）", "image": "", "rank": 20, "time": 2, "location": {"lat": 37.197307835885795, "lng": 119.94724344161246}, "feature": {"sight_features": "", "sight_content": ""}}, {"title": "好运书画班", "address": "莱州其他沙河镇大李家村中华武校东50米路北主校区", "image": "", "rank": 21, "time": 2, "location": {"lat": 37.111831487446075, "lng": 119.78640859890156}, "feature": {"sight_features": "", "sight_content": ""}}, {"title": "颐和生态园", "address": "颐和路2998", "image": "", "rank": 22, "time": 2, "location": {"lat": 37.15349371779882, "lng": 120.0356377485236}, "feature": {"sight_features": "", "sight_content": ""}}, {"title": "铭泽画廊", "address": "艺苑小区文化街88号", "image": "", "rank": 23, "time": 2, "location": {"lat": 35.033089224979314, "lng": 111.0231606684606}, "feature": {"sight_features": "", "sight_content": ""}}, {"title": "生态园", "address": "金仓大街正信大酒店斜对面", "image": "", "rank": 24, "time": 2, "location": {"lat": 37.363835329098414, "lng": 119.92305487514533}, "feature": {"sight_features": "", "sight_content": ""}}, {"title": "彩虹美术馆", "address": "府前西街21号附近", "image": "", "rank": 25, "time": 2, "location": {"lat": 40.13677432156195, "lng": 116.65008450408577}, "feature": {"sight_features": "", "sight_content": ""}}, {"title": "十里庄园", "address": "云峰北路与玉东街交叉口东150米", "image": "", "rank": 26, "time": 2, "location": {"lat": 37.21670663646135, "lng": 119.97103695936717}, "feature": {"sight_features": "", "sight_content": ""}}, {"title": "马岭五环漂流", "address": "马岭镇马岭桥头", "image": "", "rank": 27, "time": 2, "location": {"lat": 22.852239647763785, "lng": 109.30667815712096}, "feature": {"sight_features": "", "sight_content": ""}}, {"title": "山东齐鲁少儿艺术团", "address": "掖县东街302附近", "image": "", "rank": 28, "time": 2, "location": {"lat": 37.19975175644556, "lng": 119.95489538221771}, "feature": {"sight_features": "", "sight_content": ""}}, {"title": "大自然健康浴馆", "address": "烟台市莱州市西苑路5057号", "image": "", "rank": 29, "time": 2, "location": {"lat": 37.204526232598084, "lng": 119.9406542352642}, "feature": {"sight_features": "", "sight_content": "大自然健康会馆为您提供了洗浴，健康养生、康体娱乐、美容SPA、餐饮酒店为一体的“一站式”服务项目。\n大自然健康会馆设施齐全，功能完备，其独特的装修风格充分展现出西方的简约时尚和东方的优雅含蓄，“低调的奢华”处处折射出睿智的光芒，以其独特的视觉引领时尚生活。"}}, {"title": "莱州市规划展览厅", "address": "山东省莱州市文昌南路", "image": "", "rank": 30, "time": 2, "location": {"lat": 37.17324534990934, "lng": 119.9545829120359}, "feature": {"sight_features": "", "sight_content": ""}}, {"title": "朱由镇图书馆", "address": "218省道", "image": "", "rank": 31, "time": 2, "location": {"lat": 38.684744940323974, "lng": 111.4657298465704}, "feature": {"sight_features": "", "sight_content": ""}}, {"title": "崔辉艺术馆", "address": "城港南路", "image": "", "rank": 32, "time": 2, "location": {"lat": 37.27652367922217, "lng": 119.95244631483806}, "feature": {"sight_features": "", "sight_content": ""}}, {"title": "东莱画院", "address": "古城街", "image": "", "rank": 33, "time": 2, "location": {"lat": 38.95838763398381, "lng": 115.32304383673309}, "feature": {"sight_features": "", "sight_content": ""}}, {"title": "金天圆农家乐", "address": "306省道", "image": "", "rank": 34, "time": 2, "location": {"lat": 44.29269479672118, "lng": 120.43504383645545}, "feature": {"sight_features": "", "sight_content": ""}}, {"title": "文化馆", "address": "府西街商2号", "image": "", "rank": 35, "time": 2, "location": {"lat": 37.1512480041323, "lng": 111.77670715691376}, "feature": {"sight_features": "", "sight_content": ""}}, {"title": "大宇古玩博物馆(平里店店)", "address": "文光路792号", "image": "", "rank": 36, "time": 2, "location": {"lat": 37.19445003453333, "lng": 119.96214580271766}, "feature": {"sight_features": "", "sight_content": ""}}, {"title": "艺苑春美术馆", "address": "文昌南路", "image": "", "rank": 37, "time": 2, "location": {"lat": 27.23743518374116, "lng": 119.90952239168543}, "feature": {"sight_features": "", "sight_content": ""}}, {"title": "曲直油画艺术会馆", "address": "塔埠路", "image": "", "rank": 38, "time": 2, "location": {"lat": 37.1889472009156, "lng": 119.96481993694962}, "feature": {"sight_features": "", "sight_content": ""}}, {"title": "过西镇图书馆", "address": "218省道", "image": "", "rank": 39, "time": 2, "location": {"lat": 38.684744940323974, "lng": 111.4657298465704}, "feature": {"sight_features": "", "sight_content": ""}}, {"title": "洛克欢动水世界", "address": "城港南路与玉前街交界处", "image": "", "rank": 40, "time": 2, "location": {"lat": 37.21227335059504, "lng": 119.94817774581745}, "feature": {"sight_features": "", "sight_content": ""}}, {"title": "黄金海岸", "address": "滨海大道", "image": "", "rank": 41, "time": 4.0, "location": {"lat": 21.74878113030611, "lng": 112.23379900505765}, "feature": {"sight_features": "", "sight_content": ""}}, {"title": "电视剧", "address": "莱州北路837号", "image": "", "rank": 42, "time": 1.0, "location": {"lat": 37.18662263334121, "lng": 119.9465149354868}, "feature": {"sight_features": "", "sight_content": ""}}, {"title": "莱州正泰果树合作社", "address": "柞村镇", "image": "", "rank": 43, "time": 2, "location": {"lat": 37.07723134205728, "lng": 119.98119022537682}, "feature": {"sight_features": "", "sight_content": ""}}, {"title": "真人密室逃脱", "address": "山水国际十字路口往东三百米路南四楼东(豪情网络会所)", "image": "", "rank": 44, "time": 2, "location": {"lat": 26.528371974369946, "lng": 108.9318816275556}, "feature": {"sight_features": "", "sight_content": ""}}, {"title": "荣丰家庭农场", "address": "港路街道连格庄村", "image": "", "rank": 45, "time": 2, "location": {"lat": 29.468011229966322, "lng": 121.88382169305088}, "feature": {"sight_features": "", "sight_content": ""}}, {"title": "莱丰网树莓采摘基地", "address": "荣乌高速田家村", "image": "", "rank": 46, "time": 2, "location": {"lat": 36.08777578722234, "lng": 120.39855422557214}, "feature": {"sight_features": "", "sight_content": ""}}, {"title": "兄弟庄园", "address": "山东省烟台市莱州市柞村", "image": "", "rank": 47, "time": 2, "location": {"lat": 37.18263660907421, "lng": 119.94859307736998}, "feature": {"sight_features": "", "sight_content": ""}}, {"title": "琅琊苹果生态园", "address": "玉冰冷藏有限公司西北", "image": "", "rank": 48, "time": 2, "location": {"lat": 37.335581852659416, "lng": 120.08258432813659}, "feature": {"sight_features": "", "sight_content": ""}}, {"title": "凤凰山下绿葡萄紫葡萄", "address": "卸甲庵村", "image": "", "rank": 49, "time": 2, "location": {"lat": 37.084141514834435, "lng": 119.89918058175918}, "feature": {"sight_features": "", "sight_content": ""}}, {"title": "莱州滨海生态省级旅游度假区", "address": "金仓街道办事处驻地", "image": "", "rank": 50, "time": 2, "location": {"lat": 37.350278026824654, "lng": 119.91439722852162}, "feature": {"sight_features": "", "sight_content": ""}}, {"title": "莱州市老年艺术图", "address": "文化东街1404", "image": "", "rank": 51, "time": 2, "location": {"lat": 37.186887734420296, "lng": 119.97694619985934}, "feature": {"sight_features": "", "sight_content": ""}}, {"title": "莱州市小月季花业余艺术团", "address": "千佛阁东路187", "image": "", "rank": 52, "time": 2, "location": {"lat": 34.51530236975211, "lng": 112.93932137287233}, "feature": {"sight_features": "", "sight_content": ""}}, {"title": "黑羊山村", "address": "烟台市-莱州市", "image": "", "rank": 53, "time": 2, "location": {"lat": 37.18263660907421, "lng": 119.94859307736998}, "feature": {"sight_features": "", "sight_content": ""}}, {"title": "莱州蓝色港湾度假村", "address": "烟台市-莱州市-龙盘路", "image": "", "rank": 54, "time": 2, "location": {"lat": 37.389827239328454, "lng": 119.94255499291852}, "feature": {"sight_features": "", "sight_content": ""}}, {"title": "西杜家栏河闸", "address": "烟台市-莱州市", "image": "", "rank": 55, "time": 2, "location": {"lat": 37.18263660907421, "lng": 119.94859307736998}, "feature": {"sight_features": "", "sight_content": ""}}]}