{"cityName": "澜沧", "days": 2, "cityImage": "", "spots": [{"title": "酒井乡达保老寨", "address": "普洱市澜沧县东南部澜沧至西双版纳国道214线旁", "image": "", "rank": 1, "time": 2, "location": {"lat": 22.561831918086543, "lng": 99.93858828323933}, "feature": {"sight_features": "", "sight_content": ""}}, {"title": "翁基布朗族老寨", "address": "普洱市澜沧拉祜族自治县芒景村村委西边", "image": "", "rank": 2, "time": 2, "location": {"lat": 22.16325024572729, "lng": 100.02353011997964}, "feature": {"sight_features": "", "sight_content": ""}}, {"title": "柏联景迈山庄园", "address": "普洱市澜沧拉祜族自治县惠民乡景迈柏联内", "image": "", "rank": 3, "time": 2, "location": {"lat": 22.561831918086543, "lng": 99.93858828323933}, "feature": {"sight_features": "", "sight_content": ""}}, {"title": "帮崴古茶树", "address": "云南省澜沧拉祜族自治县富东乡帮崴村 665600", "image": "", "rank": 4, "time": 2, "location": {"lat": 23.147256183812086, "lng": 99.9974771446894}, "feature": {"sight_features": "", "sight_content": ""}}, {"title": "牡帕密帕葫芦广场", "address": "环城路新时代服饰购物广场", "image": "", "rank": 5, "time": 2, "location": {"lat": 22.553770665951838, "lng": 99.93669759987037}, "feature": {"sight_features": "", "sight_content": ""}}, {"title": "芒景布朗风情园", "address": "琴华宾馆附近", "image": "", "rank": 6, "time": 2, "location": {"lat": 41.96886135137691, "lng": 101.05801966897607}, "feature": {"sight_features": "", "sight_content": ""}}, {"title": "澜沧百草温泉", "address": "309省道大桥头岔路口直走100米", "image": "", "rank": 7, "time": 2, "location": {"lat": 40.709016096764906, "lng": 116.52743651721413}, "feature": {"sight_features": "", "sight_content": ""}}, {"title": "热水塘温泉馆", "address": "勐朗镇热水塘村(老景洪路岔热水塘200米)", "image": "", "rank": 8, "time": 2, "location": {"lat": 22.552363595339667, "lng": 99.9386146934213}, "feature": {"sight_features": "", "sight_content": ""}}, {"title": "茶庄园", "address": "惠民乡景迈柏联普洱茶庄园", "image": "", "rank": 9, "time": 2, "location": {"lat": 22.25953796699411, "lng": 100.09225306242061}, "feature": {"sight_features": "", "sight_content": ""}}, {"title": "旮旯温泉乐园", "address": "老景洪路热水塘温泉往上300米", "image": "", "rank": 10, "time": 2, "location": {"lat": 44.97485663870472, "lng": 81.03114554648644}, "feature": {"sight_features": "", "sight_content": ""}}, {"title": "民族剧院", "address": "建设路", "image": "", "rank": 11, "time": 2, "location": {"lat": 39.08959553212996, "lng": 117.0126917080218}, "feature": {"sight_features": "", "sight_content": ""}}, {"title": "澜沧县图书馆", "address": "建设路与东郎路交叉口附近", "image": "", "rank": 12, "time": 2, "location": {"lat": 22.56104191401732, "lng": 99.93478110548922}, "feature": {"sight_features": "", "sight_content": ""}}, {"title": "糯扎渡自然保护区", "address": "云南省澜沧拉祜族自治县雅口乡", "image": "", "rank": 13, "time": 2, "location": {"lat": 22.586351583888, "lng": 100.28068723694754}, "feature": {"sight_features": "", "sight_content": ""}}, {"title": "华隆步行街", "address": "云南省澜沧拉祜族自治县华龙步行街", "image": "", "rank": 14, "time": 2, "location": {"lat": 22.561831918086543, "lng": 99.93858828323933}, "feature": {"sight_features": "", "sight_content": ""}}, {"title": "卢山新寨", "address": "普洱市-澜沧拉祜族自治县-三零九省道", "image": "", "rank": 15, "time": 2, "location": {"lat": 22.561831918086543, "lng": 99.93858828323933}, "feature": {"sight_features": "", "sight_content": ""}}, {"title": "芒景村", "address": "云南省普洱市澜沧拉祜族自治县芒景村", "image": "", "rank": 16, "time": 2, "location": {"lat": 22.16325024572729, "lng": 100.02353011997964}, "feature": {"sight_features": "", "sight_content": ""}}, {"title": "普洱澜沧县景迈芒景景区", "address": "云南省普洱市澜沧拉祜族自治县惠民乡", "image": "", "rank": 17, "time": 1.0, "location": {"lat": 22.561831918086543, "lng": 99.93858828323933}, "feature": {"sight_features": "", "sight_content": ""}}]}