{"cityName": "郎溪", "days": 2, "cityImage": "", "spots": [{"title": "观天下景区", "address": "宣城市郎溪县姚村乡石佛山南大门", "image": "", "rank": 1, "time": 2, "location": {"lat": 30.906630085727237, "lng": 119.10053710677194}, "feature": {"sight_features": "", "sight_content": "寻梦天子湖， 如意石佛山。观天下景区，以宗教文化，湖光山色为特色的风景名胜AAAA级景区，地处郎溪县西南部姚村乡，该景区包括一山两湖，即石佛山、天子湖和红旗湖。“一佛撑云石抱寺，两湖襟月水环山”。\n‍‍‍‍‍‍‍‍‍‍‍‍‍\n石佛山主峰353米，山势峻峭，白云缭绕，这里怪石嶙峋，千姿百态，被誉为“皖南怪石大观园”。撑云石、金龟石、蟾鸣石、七丈石、试剑石、蟠桃石、风动石，怪石多多，不可名状。以风动石尤为神奇，此石重达三十余吨，绝在乍推即动，再推不移，堪称“天下一绝”。山峰之上坐落慧明禅寺，弥勒殿，大悲楼，大雄宝殿，地藏殿，天王殿，罗汉堂气势恢宏，素有小九华之称。\n‍‍‍‍‍‍‍\n天子湖，形若“天”字静卧在石佛山下，湖面洁美，偶有水鸟翩飞而至，宁静生动。渔舟唱晚，茶岛飘香。红旗湖，在姚村乡妙泉村和红旗村境内，修建于1959年冬，总库容3180万平方米。也是宣城和郎溪部分乡镇的饮用水水源地，山水相依，风光秀丽。"}}, {"title": "高老庄", "address": "郎梅路高老庄农家乐", "image": "", "rank": 2, "time": 2, "location": {"lat": 29.389174820720225, "lng": 120.04032257827116}, "feature": {"sight_features": "", "sight_content": ""}}, {"title": "嗨童儿童乐园", "address": "国购广场2楼北(电梯入口处)", "image": "", "rank": 3, "time": 2, "location": {"lat": 30.95101803597938, "lng": 118.76106382360041}, "feature": {"sight_features": "", "sight_content": ""}}, {"title": "东方生态农业科技(西北门)", "address": "214省道东50米", "image": "", "rank": 4, "time": 1.5, "location": {"lat": 40.25674691410845, "lng": 116.28140330413886}, "feature": {"sight_features": "", "sight_content": ""}}, {"title": "侯村祠堂", "address": "安徽省郎溪县凌笪乡候村 242127", "image": "", "rank": 5, "time": 1.0, "location": {"lat": 31.104323412598518, "lng": 119.22687826115451}, "feature": {"sight_features": "", "sight_content": ""}}, {"title": "郎溪巨大怪兽农场", "address": "宣城市郎溪县021县道", "image": "", "rank": 6, "time": 2, "location": {"lat": 31.185394606916518, "lng": 119.28823171901104}, "feature": {"sight_features": "", "sight_content": ""}}, {"title": "宣城郎溪侯村祠堂", "address": "安徽省郎溪县双堆集 242121", "image": "", "rank": 7, "time": 1.0, "location": {"lat": 31.13268187044305, "lng": 119.18646592168548}, "feature": {"sight_features": "", "sight_content": ""}}, {"title": "滨河公园", "address": "宣城市郎溪县", "image": "", "rank": 8, "time": 2.0, "location": {"lat": 31.13268187044305, "lng": 119.18646592168548}, "feature": {"sight_features": "", "sight_content": ""}}, {"title": "夏雨初烈士陵园", "address": "安徽省宣城市郎溪县毕桥镇灯塔村", "image": "", "rank": 9, "time": 2, "location": {"lat": 31.00824606808086, "lng": 119.10218582706088}, "feature": {"sight_features": "", "sight_content": ""}}, {"title": "基督教堂", "address": "桑园路", "image": "", "rank": 10, "time": 2.0, "location": {"lat": 31.219470848336137, "lng": 121.50451591342487}, "feature": {"sight_features": "", "sight_content": ""}}, {"title": "宝塔寺", "address": "010乡道附近", "image": "", "rank": 11, "time": 1.0, "location": {"lat": 37.55366481954672, "lng": 112.36885737069535}, "feature": {"sight_features": "", "sight_content": ""}}, {"title": "郎溪县伍员山水农业公园", "address": "安徽省宣城市郎溪县凌笪乡独山村", "image": "", "rank": 12, "time": 2, "location": {"lat": 31.20571384258861, "lng": 119.30884019486821}, "feature": {"sight_features": "", "sight_content": ""}}, {"title": "盛庄香樟园", "address": "214省道附近", "image": "", "rank": 13, "time": 2, "location": {"lat": 40.25674691410845, "lng": 116.28095415138388}, "feature": {"sight_features": "", "sight_content": ""}}, {"title": "典昌山庄", "address": "亭子山路与郎川大道交叉口东北200米", "image": "", "rank": 14, "time": 2, "location": {"lat": 31.144144510815323, "lng": 119.21358504099747}, "feature": {"sight_features": "", "sight_content": ""}}, {"title": "郎溪县博物馆", "address": "建平镇新胜街34号", "image": "", "rank": 15, "time": 2, "location": {"lat": 31.1311678057241, "lng": 119.18673815047538}, "feature": {"sight_features": "", "sight_content": ""}}, {"title": "伯园书画院", "address": "建平街", "image": "", "rank": 16, "time": 2, "location": {"lat": 41.291197805086775, "lng": 123.7750270673387}, "feature": {"sight_features": "", "sight_content": ""}}, {"title": "海蓝云天温泉广场", "address": "中港路163号", "image": "", "rank": 17, "time": 2, "location": {"lat": 30.746879434190035, "lng": 120.80022602684771}, "feature": {"sight_features": "", "sight_content": ""}}, {"title": "冒险乐园", "address": "国购广场一楼", "image": "", "rank": 18, "time": 3.0, "location": {"lat": 30.950172507403526, "lng": 118.76139170690816}, "feature": {"sight_features": "", "sight_content": ""}}, {"title": "金太阳儿童乐园", "address": "中港东路华润苏果购物广场3楼", "image": "", "rank": 19, "time": 2, "location": {"lat": 31.134234460075973, "lng": 119.19857115616152}, "feature": {"sight_features": "", "sight_content": ""}}, {"title": "风尚画廊", "address": "郎涛路248-250号", "image": "", "rank": 20, "time": 2, "location": {"lat": 31.1321147792646, "lng": 119.2039755014851}, "feature": {"sight_features": "", "sight_content": ""}}, {"title": "高老庄农家乐", "address": "梅渚镇钟梅新苑", "image": "", "rank": 21, "time": 2, "location": {"lat": 29.47654579331553, "lng": 120.80486752388151}, "feature": {"sight_features": "", "sight_content": ""}}, {"title": "毛家窑", "address": "宣城市-郎溪县-零二五县道", "image": "", "rank": 22, "time": 2, "location": {"lat": 31.13268187044305, "lng": 119.18646592168548}, "feature": {"sight_features": "", "sight_content": ""}}]}