{"cityName": "浪卡子", "days": 2, "cityImage": "", "spots": [{"title": "羊卓雍措", "address": "山南市浪卡子县浪卡孜乡318国道旁", "image": "", "rank": 1, "time": 1.0, "location": {"lat": 28.97399201780357, "lng": 90.4046468834624}, "feature": {"sight_features": "特色1 西藏三大圣湖之一。不同时刻阳光的照射，湖水会显现出不一样的蓝色。 特色2 与纳木错、玛旁雍错并称西藏三大圣湖。 特色3 是喜马拉雅山北麓最大的内陆湖泊。", "sight_content": "羊卓雍措，通常简称为“羊湖”，藏语意为“天鹅池”，位于西藏山南地区的浪卡子县，拉萨西南约120公里处，与玛旁雍错、纳木错并称西藏三大神湖。湖面海拔4441米，湖岸线总长250千米，总面积638平方千米，湖水均深20－40米，是喜马拉雅山北麓超大的内陆湖。羊湖岔口较多，像珊瑚枝一样，因此它在藏语中又被称为“上面的珊瑚湖”。羊卓雍措是寻找转世灵童的圣湖，大活佛可以从湖中看出显影，指示灵童所在的大方位。不同时刻阳光的照射，羊湖会显现出不同层次、极其丰富的蓝色，如梦似幻，初见羊湖，她的艳丽让人几乎不敢相信。羊卓雍措的水源来自四周念青唐古拉山脉的雪水，没有出水口，雪水的流入与自然的蒸发达到一种奇特的动态平衡，湖水随着光线变幻，演化成干变万化的蓝色。"}}, {"title": "岗巴拉山口", "address": "山南市浪卡子县与贡嘎县界山", "image": "", "rank": 2, "time": 0.3, "location": {"lat": 28.97399201780357, "lng": 90.4046468834624}, "feature": {"sight_features": "", "sight_content": ""}}, {"title": "普莫雍错", "address": "西藏自治区山南市浪卡子县", "image": "", "rank": 3, "time": 2.0, "location": {"lat": 28.97399201780357, "lng": 90.4046468834624}, "feature": {"sight_features": "", "sight_content": ""}}, {"title": "姜桑拉姆峰", "address": "日喀则地区江孜县和山南市浪卡子县交界处", "image": "", "rank": 4, "time": 1.0, "location": {"lat": 28.97399201780357, "lng": 90.4046468834624}, "feature": {"sight_features": "", "sight_content": ""}}, {"title": "桑丁寺", "address": "山南市浪卡子县羊卓雍错湖西南", "image": "", "rank": 5, "time": 1.5, "location": {"lat": 28.97399201780357, "lng": 90.4046468834624}, "feature": {"sight_features": "", "sight_content": ""}}, {"title": "扎热寺", "address": "山南市浪卡子县", "image": "", "rank": 6, "time": 2, "location": {"lat": 28.97399201780357, "lng": 90.4046468834624}, "feature": {"sight_features": "", "sight_content": ""}}, {"title": "打隆寺", "address": "山南市浪卡子县", "image": "", "rank": 7, "time": 2, "location": {"lat": 28.97399201780357, "lng": 90.4046468834624}, "feature": {"sight_features": "", "sight_content": ""}}, {"title": "纳曲林卡", "address": "西藏自治区山南市浪卡子县羊卓雍措旅游景区", "image": "", "rank": 8, "time": 2, "location": {"lat": 28.97399201780357, "lng": 90.4046468834624}, "feature": {"sight_features": "", "sight_content": ""}}, {"title": "吉雄错", "address": "西藏自治区山南市浪卡子县", "image": "", "rank": 9, "time": 2, "location": {"lat": 28.97399201780357, "lng": 90.4046468834624}, "feature": {"sight_features": "", "sight_content": ""}}, {"title": "推瓦村", "address": "山南市浪卡子县", "image": "", "rank": 10, "time": 2, "location": {"lat": 28.97399201780357, "lng": 90.4046468834624}, "feature": {"sight_features": "", "sight_content": ""}}]}