{"cityName": "朗县", "days": 2, "cityImage": "", "spots": [{"title": "列山古墓群", "address": "林芝市朗县东嘎乡列山南坡", "image": "", "rank": 1, "time": 3.0, "location": {"lat": 29.05190241908559, "lng": 93.08136823440746}, "feature": {"sight_features": "", "sight_content": ""}}, {"title": "巴尔曲德寺", "address": "林芝市朗县朗镇堆巴村", "image": "", "rank": 2, "time": 1.0, "location": {"lat": 29.076141259191385, "lng": 92.97381264969873}, "feature": {"sight_features": "", "sight_content": ""}}, {"title": "冲康", "address": "林芝市朗县冲康村", "image": "", "rank": 3, "time": 2.5, "location": {"lat": 29.05190241908559, "lng": 93.08136823440746}, "feature": {"sight_features": "", "sight_content": ""}}, {"title": "曲得寺", "address": "西藏自治区林芝朗镇堆巴村", "image": "", "rank": 4, "time": 2, "location": {"lat": 29.05056098773977, "lng": 92.99374570490754}, "feature": {"sight_features": "", "sight_content": ""}}, {"title": "嘎贡瀑布休闲山庄", "address": "306省道", "image": "", "rank": 5, "time": 2, "location": {"lat": 44.29269479672118, "lng": 120.43504383645545}, "feature": {"sight_features": "", "sight_content": ""}}, {"title": "朗县", "address": "西藏自治区朗县境内 860400", "image": "", "rank": 6, "time": 3.0, "location": {"lat": 29.05190241908559, "lng": 93.08136823440746}, "feature": {"sight_features": "", "sight_content": ""}}, {"title": "朗县烈士陵园", "address": "306省道附近", "image": "", "rank": 7, "time": 3.0, "location": {"lat": 44.29269479672118, "lng": 120.43504383645545}, "feature": {"sight_features": "", "sight_content": ""}}, {"title": "西藏朗县雅江公园", "address": "西藏自治区林芝市朗县S306", "image": "", "rank": 8, "time": 2, "location": {"lat": 29.05190241908559, "lng": 93.08136823440746}, "feature": {"sight_features": "", "sight_content": ""}}, {"title": "甘丹热登寺", "address": "西藏自治区林芝市朗县", "image": "", "rank": 9, "time": 2, "location": {"lat": 29.05190241908559, "lng": 93.08136823440746}, "feature": {"sight_features": "", "sight_content": ""}}, {"title": "子勒寺", "address": "登木乡附近", "image": "", "rank": 10, "time": 2, "location": {"lat": 28.890105190190187, "lng": 92.84228060013967}, "feature": {"sight_features": "", "sight_content": ""}}, {"title": "烈山墓地", "address": "西藏自治区朗县金东乡列村", "image": "", "rank": 11, "time": 2, "location": {"lat": 28.987430039799616, "lng": 93.34495130168631}, "feature": {"sight_features": "", "sight_content": ""}}]}