{"cityName": "兰陵", "days": 2, "cityImage": "", "spots": [{"title": "兰陵国家农业公园", "address": "临沂市兰陵县顺河路中段", "image": "", "rank": 1, "time": 4.5, "location": {"lat": 34.86361638543997, "lng": 118.0774094949949}, "feature": {"sight_features": "特色1 传统的农业和现代物联网技术有机结合", "sight_content": "﻿“赏千年情花 ，享一世情缘”，千年流传的曼陀罗，自古至今促进我国以及世界医学的发展。\n中国古代三大江湖奇药之一的“蒙汗药”、“麻醉剂”、麻醉散“，在世人眼中被称为”情花“。它是印度的吉祥圣花，见到此花会一生平安幸福、好运连连。主要景点：连年生长的天瓜、蛇瓜、台湾巨人南瓜、白茄、紫茄、另外有“一帘幽梦”置身其中，如在画中，仿佛进入绚丽多彩的新天地之中。\n独具特色的种植方式，别具一格的蔬菜艺术。华夏菜园有：叶菜园、辣椒园、蕃茄园、百瓜田园，各具特色，各具特点，优美的种植空间，特色鲜明的紫龙辣椒、五彩鲜亮的甜椒、无土栽培的蕃茄，最受万人瞩目的美国红巨人南瓜，单瓜可达300斤以上。游客在此可享受田园风光、绿色采摘。\n沂蒙山农耕博物馆位于兰陵国家农业公园的核心地带，占地1.6万平方米。博物馆由藏品为主转而向多品类收藏扩展、历史类、综合类、艺术类、自然类、农耕类、科技类、民族民俗类等多种类型博物馆竞相辉\n映。"}}, {"title": "压油沟景区", "address": "临沂市兰陵县金陵镇压油沟村101号", "image": "", "rank": 2, "time": 2, "location": {"lat": 34.93532330266309, "lng": 117.97474372849756}, "feature": {"sight_features": "特色1 体验原生态的乡村旅游。", "sight_content": "兰陵压油沟景区位于兰陵县压油沟村，是以原生态乡村旅游为主的景区，在这里，可以品尝百家特色美食，传统古朴的百工坊小镇集天然作物与手工制作于一体，让你体验传统手艺，怀念老家的声音；\n十余种不同民俗的精品民宿酒店侧卧深山，与天然山水映照出好客山里人的活化石；\n可爱滑稽的十二生肖乡村动物表演，水上项目体验，彰显别具风格的压油沟旅游文化。\n\n压油沟欢迎您的光临。\n带您体验老家风情。"}}, {"title": "新天地水上乐园", "address": "临沂市兰陵县农展中心东侧（新天地酒店）", "image": "", "rank": 3, "time": 2, "location": {"lat": 34.86361638543997, "lng": 118.0774094949949}, "feature": {"sight_features": "", "sight_content": ""}}, {"title": "宝山前野生动物园", "address": "临沂市兰陵县宝山前风景旅游区", "image": "", "rank": 4, "time": 1.0, "location": {"lat": 34.86361638543997, "lng": 118.0774094949949}, "feature": {"sight_features": "", "sight_content": "宝山野生动物园，位于中国兰陵县宝山前生态旅游风景区内，因附近区域蕴藏丰富金银矿脉资源而得名。宝山野生动物园是在野生动物展示的基础上，涵盖了科研餐饮、休闲娱乐为一体的大型综合性主题公园。\n\n\n它集放养、圈养、笼养于一体，与周边的生态环境协调发展，从而形成青山、绿水、动物、人群自然合一的高品位生态园区。\n园区内放养着142个品种、2000多头(只)野生动物，其中包括极其珍稀的白虎、黑虎等珍稀野生动物。\n\n\n猛兽区惊险刺激，有非洲狮、东北虎、花豹等，水禽湖里波光潋滟，成群的鸟禽嬉戏追逐；草食动物区里群兽徜徉，有梅花鹿、黇鹿、骆驼等。大型动物表演场里有精彩的演出，气势恢宏，场面壮观。各种珍禽异兽在相应的大自然生态环境中自由活动、生息繁衍。\n\n\n园区现有白鸽广场、小动物乐园、跑马场、鸵鸟苑、亚洲动物区、非洲动物区、灵长馆、猴山、孔雀苑、表演场、猛兽互动区、禽鸣长廊、山顶游乐场、大型山地漂流、山顶餐厅等，充分展示了放养动物栖息的自然野性及增强游客沉浸感受。\n\n\n游客可惬意地游览园区，近距离地和野生动物亲近，体验人与动物共享自然和谐相处的乐趣，让游客有返朴归真的真切感受。"}}, {"title": "荀子墓", "address": "山东省苍山县兰陵镇", "image": "", "rank": 5, "time": 2, "location": {"lat": 34.7512437449017, "lng": 117.86595538472908}, "feature": {"sight_features": "", "sight_content": ""}}, {"title": "兰陵鳄鱼乐园", "address": "临沂市兰陵县泉山路南段兰陵大酒店北侧（原银湖度假村）", "image": "", "rank": 6, "time": 2, "location": {"lat": 34.8387516737099, "lng": 118.0511033367796}, "feature": {"sight_features": "", "sight_content": ""}}, {"title": "鲁苏生态庄园垂钓园", "address": "南桥镇东户庄村", "image": "", "rank": 7, "time": 2, "location": {"lat": 34.678279825244715, "lng": 118.00922671082083}, "feature": {"sight_features": "", "sight_content": ""}}, {"title": "兰陵县周杨家庭农场", "address": "南桥镇东户庄村", "image": "", "rank": 8, "time": 2, "location": {"lat": 34.678279825244715, "lng": 118.00922671082083}, "feature": {"sight_features": "", "sight_content": ""}}, {"title": "农业展览馆", "address": "顺和路农业展览馆", "image": "", "rank": 9, "time": 2, "location": {"lat": 30.66915923903132, "lng": 104.04774482663342}, "feature": {"sight_features": "", "sight_content": ""}}, {"title": "君发农家院", "address": "中兴路佳怡特色菜馆南20米", "image": "", "rank": 10, "time": 2, "location": {"lat": 32.3896140446722, "lng": 119.41915202166295}, "feature": {"sight_features": "", "sight_content": ""}}, {"title": "实惠农家院", "address": "新华路梦幻西饼屋旁", "image": "", "rank": 11, "time": 2, "location": {"lat": 23.102393633071365, "lng": 113.31476452428016}, "feature": {"sight_features": "", "sight_content": ""}}, {"title": "兰陵农业生态园盛世马术俱乐部", "address": "惠民路南段生态园大酒店南邻", "image": "", "rank": 12, "time": 2, "location": {"lat": 36.89342954744643, "lng": 111.88503904470346}, "feature": {"sight_features": "", "sight_content": ""}}, {"title": "飞海游乐", "address": "229省道附近", "image": "", "rank": 13, "time": 2, "location": {"lat": 39.64350034548962, "lng": 117.03562195777462}, "feature": {"sight_features": "", "sight_content": ""}}, {"title": "郯国故城", "address": "山东省郯城县郯城北侧 276100", "image": "", "rank": 14, "time": 2, "location": {"lat": 34.61922593247125, "lng": 118.37358710977321}, "feature": {"sight_features": "", "sight_content": ""}}, {"title": "幸福水族馆分店", "address": "山东省临沂市兰陵县河西仲村桥大仲村镇政府北100米", "image": "", "rank": 15, "time": 2, "location": {"lat": 34.99114912461839, "lng": 118.07147144943823}, "feature": {"sight_features": "", "sight_content": ""}}, {"title": "苍山县民族乐团", "address": "苍山县会宝路", "image": "", "rank": 16, "time": 2, "location": {"lat": 34.855306180711366, "lng": 118.05399395994455}, "feature": {"sight_features": "", "sight_content": ""}}, {"title": "川越电力物资公司产品销售展示厅", "address": "山东省苍山县会宝路", "image": "", "rank": 17, "time": 2, "location": {"lat": 34.855306180711366, "lng": 118.05399395994455}, "feature": {"sight_features": "", "sight_content": ""}}, {"title": "庄坞杨氏家祠", "address": "山东省临沂市兰陵县S232", "image": "", "rank": 18, "time": 1.0, "location": {"lat": 34.86361638543997, "lng": 118.0774094949949}, "feature": {"sight_features": "", "sight_content": ""}}, {"title": "禅林寺", "address": "山东省临沂市兰陵县文化路", "image": "", "rank": 19, "time": 1.0, "location": {"lat": 34.86233948515851, "lng": 118.0591094028915}, "feature": {"sight_features": "", "sight_content": ""}}, {"title": "大仲村镇清真寺", "address": "山东省临沂市兰陵县大仲村镇希旺双语幼儿园西南150米", "image": "", "rank": 20, "time": 2, "location": {"lat": 35.00086376764144, "lng": 118.07269686750985}, "feature": {"sight_features": "", "sight_content": ""}}, {"title": "萧氏文化园", "address": "山东省临沂市兰陵县S234", "image": "", "rank": 21, "time": 2, "location": {"lat": 34.86361638543997, "lng": 118.0774094949949}, "feature": {"sight_features": "", "sight_content": ""}}, {"title": "儿童乐园", "address": "山东省临沂市兰陵县塔山路15号", "image": "", "rank": 22, "time": 2, "location": {"lat": 34.85523311669485, "lng": 118.05979803581069}, "feature": {"sight_features": "", "sight_content": ""}}, {"title": "沂蒙山农耕博物馆", "address": "锦绣路附近", "image": "", "rank": 23, "time": 2, "location": {"lat": 39.335359331607926, "lng": 117.10452216106799}, "feature": {"sight_features": "", "sight_content": ""}}, {"title": "东村公园", "address": "临沂市兰陵县", "image": "", "rank": 24, "time": 3.0, "location": {"lat": 34.86361638543997, "lng": 118.0774094949949}, "feature": {"sight_features": "", "sight_content": ""}}, {"title": "苍山县银湖度假村", "address": "中国平安保险公司救援服务中心附近", "image": "", "rank": 25, "time": 2, "location": {"lat": 23.109668685071266, "lng": 113.27714627428178}, "feature": {"sight_features": "", "sight_content": ""}}, {"title": "西疃清真寺", "address": "山东省临沂市兰陵县兰陵县中共磨山镇西疃村党支部附近", "image": "", "rank": 26, "time": 2, "location": {"lat": 34.8001209129678, "lng": 118.13132730265366}, "feature": {"sight_features": "", "sight_content": ""}}, {"title": "艾曲公园", "address": "234省道附近", "image": "", "rank": 27, "time": 2, "location": {"lat": 38.2624574136461, "lng": 114.98072501724845}, "feature": {"sight_features": "", "sight_content": ""}}, {"title": "塔山公园", "address": "文化路中段", "image": "", "rank": 28, "time": 1.0, "location": {"lat": 31.526053480531672, "lng": 106.41400563633003}, "feature": {"sight_features": "", "sight_content": ""}}, {"title": "朗公寺度假山庄", "address": "山东省临沂市兰陵县大仲村镇朗公寺武院", "image": "", "rank": 29, "time": 2, "location": {"lat": 34.99433310955221, "lng": 118.12514748715203}, "feature": {"sight_features": "", "sight_content": ""}}, {"title": "抱犊崮风景区-圆通宝殿", "address": "枣庄市山亭区驻地的东北部,离市区10公里抱犊崮国家森林公园内", "image": "", "rank": 30, "time": 2, "location": {"lat": 34.9906914916286, "lng": 117.72722082664932}, "feature": {"sight_features": "", "sight_content": ""}}, {"title": "文博画苑", "address": "抱犊崮路", "image": "", "rank": 31, "time": 2, "location": {"lat": 35.094414061761626, "lng": 117.44574726844166}, "feature": {"sight_features": "", "sight_content": ""}}, {"title": "苍山书画院", "address": "中兴路81号", "image": "", "rank": 32, "time": 2, "location": {"lat": 38.03936518398541, "lng": 114.39212776255552}, "feature": {"sight_features": "", "sight_content": ""}}, {"title": "山东省国营苍山农场", "address": "206国道山东省国营苍山农场附近", "image": "", "rank": 33, "time": 2, "location": {"lat": 34.81680142532464, "lng": 118.01168472083184}, "feature": {"sight_features": "", "sight_content": ""}}, {"title": "宏润垂钓园", "address": "229省道附近", "image": "", "rank": 34, "time": 2, "location": {"lat": 39.64350034548962, "lng": 117.03562195777462}, "feature": {"sight_features": "", "sight_content": ""}}, {"title": "兰陵县老干部艺术团", "address": "苍山县会宝路", "image": "", "rank": 35, "time": 2, "location": {"lat": 34.855306180711366, "lng": 118.05399395994455}, "feature": {"sight_features": "", "sight_content": ""}}]}