{"cityName": "兰坪", "days": 2, "cityImage": "", "spots": [{"title": "龙泉生态园(分店)", "address": "怒江路东50米", "image": "", "rank": 1, "time": 2, "location": {"lat": 31.235648407590286, "lng": 121.40621902163969}, "feature": {"sight_features": "", "sight_content": ""}}, {"title": "福贡高山湖", "address": "云南省福贡县高黎贡山和碧罗雪山上 673400", "image": "", "rank": 2, "time": 0.5, "location": {"lat": 26.908055208498066, "lng": 98.87564942449333}, "feature": {"sight_features": "", "sight_content": ""}}, {"title": "碧莲雪山七莲湖", "address": "云南省兰坪白族普米族自治县碧罗雪山上 671400", "image": "", "rank": 3, "time": 2, "location": {"lat": 26.465863965127827, "lng": 99.00920189519456}, "feature": {"sight_features": "", "sight_content": ""}}, {"title": "大羊场", "address": "怒江傈僳族自治州兰坪白族普米族自治县", "image": "", "rank": 4, "time": 2, "location": {"lat": 26.459207904687954, "lng": 99.42328466998799}, "feature": {"sight_features": "", "sight_content": ""}}, {"title": "杨玉科将军纪念馆", "address": "311省道营盘小学附近", "image": "", "rank": 5, "time": 2, "location": {"lat": 41.16734584030241, "lng": 122.97316301169134}, "feature": {"sight_features": "", "sight_content": ""}}, {"title": "金顶寺", "address": "云南省怒江傈僳族自治州兰坪白族普米族自治县", "image": "", "rank": 6, "time": 1.0, "location": {"lat": 26.459207904687954, "lng": 99.42328466998799}, "feature": {"sight_features": "", "sight_content": ""}}, {"title": "轩辕祠", "address": "怒江傈僳族自治州兰坪白族普米族自治县金顶镇金江路3-1", "image": "", "rank": 7, "time": 2, "location": {"lat": 26.451977720989017, "lng": 99.42457257059723}, "feature": {"sight_features": "", "sight_content": ""}}, {"title": "通甸武装暴动陈列馆", "address": "通甸中心学校对面", "image": "", "rank": 8, "time": 2, "location": {"lat": 26.30408453454955, "lng": 111.34294954968311}, "feature": {"sight_features": "", "sight_content": ""}}, {"title": "高坪龙泉生态园", "address": "311省道", "image": "", "rank": 9, "time": 2, "location": {"lat": 40.42605053578163, "lng": 117.19514906888342}, "feature": {"sight_features": "", "sight_content": ""}}, {"title": "兰坪白族普米族自治县文化会展中...", "address": "怒江路", "image": "", "rank": 10, "time": 2, "location": {"lat": 31.235648407590286, "lng": 121.40576986888469}, "feature": {"sight_features": "", "sight_content": ""}}, {"title": "兰坪图书馆", "address": "怒江路45号", "image": "", "rank": 11, "time": 1.5, "location": {"lat": 31.234543494154355, "lng": 121.40404894811961}, "feature": {"sight_features": "", "sight_content": ""}}, {"title": "罗古箐景区 Luoguqing Scenic Re...", "address": "云南省兰坪白族普米族自治县通甸乡德胜村", "image": "", "rank": 12, "time": 2, "location": {"lat": 26.69879705486791, "lng": 99.5326692657992}, "feature": {"sight_features": "", "sight_content": ""}}]}