{"cityName": "蓝田", "days": 2, "cityImage": "", "spots": [{"title": "白鹿原影视城", "address": "西安市蓝田县前卫镇s107（关中环线）将军岭隧道西1公里处", "image": "", "rank": 1, "time": 2.5, "location": {"lat": 34.08407029821061, "lng": 109.28930536755045}, "feature": {"sight_features": "特色1 了解古事穿越周秦汉唐。 特色2 远望关口、身在关中。", "sight_content": "白鹿原影视城是以著名作家陈忠实先生的茅盾文学奖获奖作品《白鹿原》为依托，打造的陕西首座集影视拍摄与体验、文化休闲、儿童游乐、精彩演艺于一体的大型影视城。\n通过展示关中建筑、历史、宗法文化和居住、饮食、曲艺等民俗，形成多个功能区，让游客一日走过武关萧关潼关金锁关大散五大关， 体验古原、了解古事穿越周秦汉唐。\n同时景区倾力打造了13台演艺项目，其中包括“二虎守长安”、“关中大地震”两台大型实景特效演出，四台儿童趣味演出，七台传统关中民俗演出，为游客还原关中民俗风貌，实景感受关中风土人情，同时还可以真实体验电影拍摄场景。"}}, {"title": "汤峪碧水湾温泉", "address": "西安市蓝田县汤峪镇塘子村", "image": "", "rank": 2, "time": 2, "location": {"lat": 34.02358956407775, "lng": 109.22893565214265}, "feature": {"sight_features": "特色1 素有“桃花水”、“功德水”、“神水”之称 特色2 露天泡汤温泉浴场。", "sight_content": "汤峪温泉碧水湾位于西北较大的露天泡汤温泉浴场——汤峪温泉度假区。汤峪温泉发源于汉代，历史上是皇家沐浴之地，泉水含有几十种对人体有益的矿物质，具有舒筋活络、强身健体、润肤养颜、延缓衰老的作用。汤峪温泉碧水湾背枕青山，胶林如海，椰林婆娑，环境极好；温泉热气袅袅升腾，如云似雾，有如天宫瑶池。\n\n\n碧水湾内建有天圆地方池、桑拿浴、石板浴、五福汤（即福、禄、寿、禧、财）、独立汤院、皇室御汤院。温泉旁有水上疗吧、水上烤吧、太白酒吧、唐盛剧场、民俗食府等，泡完温泉之后去小憩一下也是不错的选择。"}}, {"title": "水陆庵", "address": "西安市蓝田县普化镇杨斜村", "image": "", "rank": 3, "time": 1.5, "location": {"lat": 34.14306729521157, "lng": 109.40451314262889}, "feature": {"sight_features": "", "sight_content": ""}}, {"title": "蔡文姬纪念馆", "address": "西安市蓝田县三里镇乡蔡王庄村西北约100米处", "image": "", "rank": 4, "time": 1.0, "location": {"lat": 34.17215961725485, "lng": 109.32801425836567}, "feature": {"sight_features": "", "sight_content": ""}}, {"title": "蓝田猿人遗址纪念馆", "address": "西安市近郊蓝田县陈家窝村和公王岭", "image": "", "rank": 5, "time": 1.0, "location": {"lat": 34.18818775570522, "lng": 109.50164399523499}, "feature": {"sight_features": "", "sight_content": ""}}, {"title": "下悟真寺", "address": "西安市蓝田县普化镇水陆庵对面", "image": "", "rank": 6, "time": 0.4, "location": {"lat": 34.13803485674923, "lng": 109.42324281610514}, "feature": {"sight_features": "", "sight_content": ""}}, {"title": "竹林畔滑雪场", "address": "西安市蓝田县汤峪镇向东3公里", "image": "", "rank": 7, "time": 2, "location": {"lat": 34.02550383423548, "lng": 109.25131956416227}, "feature": {"sight_features": "", "sight_content": ""}}, {"title": "莲花山森林公园", "address": "西安市蓝田县窟窿叉南边", "image": "", "rank": 8, "time": 2.0, "location": {"lat": 34.10577592275808, "lng": 109.44232629259635}, "feature": {"sight_features": "", "sight_content": ""}}, {"title": "白鹿原影视城滑雪场", "address": "西安市蓝田县前卫镇s107（关中环线）将军岭隧道西1公里处", "image": "", "rank": 9, "time": 2, "location": {"lat": 34.08407029821061, "lng": 109.28930536755045}, "feature": {"sight_features": "", "sight_content": ""}}, {"title": "蓬莱渔村", "address": "西安市蓝田县普化镇吴家巷村", "image": "", "rank": 10, "time": 2, "location": {"lat": 34.15888228079484, "lng": 109.40374159970435}, "feature": {"sight_features": "", "sight_content": ""}}, {"title": "白鹿原《黑娃演义》演出", "address": "西安市蓝田县前卫镇s107（关中环线）将军岭隧道西1公里处白鹿原影视城北门西北偏北剧场", "image": "", "rank": 11, "time": 2, "location": {"lat": 34.08407029821061, "lng": 109.28930536755045}, "feature": {"sight_features": "特色1 大型沉浸式“拍演放”一体化的演出", "sight_content": "‍‍《白鹿原·黑娃演义》位于陕西省西安市白鹿原影视城北入口，金锁关南侧，总占地21.8亩。是由陕旅集团联合著名导演金铁木打造的大型沉浸式“拍演放”一体化的演出。演出内容取材自陈忠实先生的小说《白鹿原》，主要讲述关中汉子黑娃跌宕起伏的一生。\n‍‍\n整个剧场里满满的黑科技元素，短短一小时就可感受白鹿原上春的绚烂，夏的明媚，秋的萧瑟，冬的冷寂！全球首创2½电影空间，引爆体验感。观众可在现场观看，还可以亲身参与电影拍摄。在这里，你既是观众，又是演员。\n‍\n该剧集戏剧演出、电影拍摄和数字直播于一身，打造前所未有的沉浸式体验，是演义行业的观演形式的重大创新。不用等冗长的后期和剪辑，不用等影院拍片，不用去为了买电影票挤破头，摄影组人员利用数字技术进行实时拍摄并剪辑，影片即时制作，即时播出。\n\n\n\n黑娃演义电影梦工厂，带你看一场史诗级巨制，亲自参与到《黑娃演义》演出，感受电影梦工厂的奇幻之旅！"}}, {"title": "玉山蓝河风景区", "address": "蓝田县蓝桥镇蓝桥河村", "image": "", "rank": 12, "time": 2, "location": {"lat": 34.084659923801375, "lng": 109.4506085804661}, "feature": {"sight_features": "", "sight_content": ""}}, {"title": "王顺山", "address": "陕西省西安市蓝田县蓝桥镇", "image": "", "rank": 13, "time": 2, "location": {"lat": 34.05159019507843, "lng": 109.50860932590506}, "feature": {"sight_features": "", "sight_content": ""}}, {"title": "簸萁掌民俗村", "address": "西安市蓝田县洩湖镇簸箕掌村旅游景区", "image": "", "rank": 14, "time": 2, "location": {"lat": 34.22970440529309, "lng": 109.33095816811516}, "feature": {"sight_features": "", "sight_content": ""}}, {"title": "陕西汤峪会议中心", "address": "西安市蓝田县汤峪镇温泉大道3号", "image": "", "rank": 15, "time": 2, "location": {"lat": 34.02679927738867, "lng": 109.22863867234105}, "feature": {"sight_features": "", "sight_content": ""}}, {"title": "汪锋故居纪念馆", "address": "西安市蓝田县九间房镇街子村", "image": "", "rank": 16, "time": 0.5, "location": {"lat": 34.19946040212094, "lng": 109.52698297036534}, "feature": {"sight_features": "", "sight_content": ""}}, {"title": "白鹿原生态文化观光园", "address": "西安市蓝田县安村镇上白村1组23号", "image": "", "rank": 17, "time": 2, "location": {"lat": 34.15362834447798, "lng": 109.29064352655676}, "feature": {"sight_features": "", "sight_content": ""}}, {"title": "终南驿栈", "address": "汤峪镇汤二村二组", "image": "", "rank": 18, "time": 2, "location": {"lat": 33.948551162381634, "lng": 109.24458667273782}, "feature": {"sight_features": "", "sight_content": ""}}, {"title": "王顺山农家乐", "address": "王顺山国家森林公园", "image": "", "rank": 19, "time": 2, "location": {"lat": 34.09554231783069, "lng": 109.48839222379249}, "feature": {"sight_features": "", "sight_content": ""}}, {"title": "青坪院子", "address": "灞源镇唐家河", "image": "", "rank": 20, "time": 2, "location": {"lat": 34.1979232693172, "lng": 109.70768661699002}, "feature": {"sight_features": "", "sight_content": ""}}, {"title": "王顺山顺鑫农家乐餐馆", "address": "312中心小学东100米", "image": "", "rank": 21, "time": 2, "location": {"lat": 39.124030230896054, "lng": 117.20279892003006}, "feature": {"sight_features": "", "sight_content": ""}}, {"title": "孟村镇欢乐小鹿有机农庄", "address": "孟村镇段家村", "image": "", "rank": 22, "time": 2, "location": {"lat": 34.18734420279414, "lng": 109.240073275042}, "feature": {"sight_features": "", "sight_content": ""}}, {"title": "姜国兴传统雕塑艺术馆", "address": "元君庙村卫生室西", "image": "", "rank": 23, "time": 2, "location": {"lat": 34.191556197751666, "lng": 109.48208712790954}, "feature": {"sight_features": "", "sight_content": ""}}, {"title": "品玉阁展厅", "address": "迎宾路", "image": "", "rank": 24, "time": 2, "location": {"lat": 40.19033466276813, "lng": 117.30191343601585}, "feature": {"sight_features": "", "sight_content": ""}}, {"title": "杜中信书画工作室", "address": "107省道", "image": "", "rank": 25, "time": 2, "location": {"lat": 41.523408462260896, "lng": 123.50372337043669}, "feature": {"sight_features": "", "sight_content": ""}}, {"title": "皇室御汤院", "address": "汤峪古镇民俗村皇室御汤院(碧水湾旁)", "image": "", "rank": 26, "time": 2, "location": {"lat": 34.02328359011971, "lng": 109.22850152624221}, "feature": {"sight_features": "", "sight_content": ""}}, {"title": "终南秀垂钓园", "address": "101省道附近", "image": "", "rank": 27, "time": 2, "location": {"lat": 41.03241923348195, "lng": 111.82384508727836}, "feature": {"sight_features": "", "sight_content": ""}}, {"title": "蓝田乡下人垂钓俱乐部", "address": "蓝新路中段", "image": "", "rank": 28, "time": 2.5, "location": {"lat": 34.16770651476617, "lng": 109.32254239743645}, "feature": {"sight_features": "", "sight_content": ""}}, {"title": "蓝河山水农家乐", "address": "312国道", "image": "", "rank": 29, "time": 2, "location": {"lat": 31.33241303413939, "lng": 120.99854638594724}, "feature": {"sight_features": "", "sight_content": ""}}, {"title": "灵秀雅居-温泉山庄", "address": "陕西大兴西安蓝田汤峪温泉分公司附近", "image": "", "rank": 30, "time": 2, "location": {"lat": 34.157620654732256, "lng": 109.32938812681262}, "feature": {"sight_features": "", "sight_content": ""}}, {"title": "鄂豫陕苏维埃政府葛牌镇纪念馆(...", "address": "葛牌镇蓝葛路", "image": "", "rank": 31, "time": 1.0, "location": {"lat": 33.96462389263411, "lng": 109.47269852919405}, "feature": {"sight_features": "", "sight_content": ""}}, {"title": "一号乐园真人密室逃脱", "address": "西安市蓝田县汤峪镇", "image": "", "rank": 32, "time": 2, "location": {"lat": 34.02550383423548, "lng": 109.22437039886294}, "feature": {"sight_features": "", "sight_content": ""}}, {"title": "木屋度假村农家乐", "address": "蓝桥镇王顺山国家森林公园内", "image": "", "rank": 33, "time": 2, "location": {"lat": 34.09554231783069, "lng": 109.48839222379249}, "feature": {"sight_features": "", "sight_content": ""}}, {"title": "清风山寨风情度假村", "address": "汤峪镇汤峪湖森林公园", "image": "", "rank": 34, "time": 2, "location": {"lat": 34.01320076006456, "lng": 109.2456335984029}, "feature": {"sight_features": "", "sight_content": ""}}, {"title": "蓝田基督教会", "address": "蓝田县北街4号", "image": "", "rank": 35, "time": 2.5, "location": {"lat": 34.157620654732256, "lng": 109.32938812681262}, "feature": {"sight_features": "", "sight_content": ""}}, {"title": "苏王坡基督教堂", "address": "陕西省西安市蓝田县柳新路", "image": "", "rank": 36, "time": 2, "location": {"lat": 34.204690107347844, "lng": 109.40618187087645}, "feature": {"sight_features": "", "sight_content": ""}}, {"title": "秀水生态园", "address": "蓝关街道办新寨村环山公路魏先生大锅台南侧100米", "image": "", "rank": 37, "time": 2, "location": {"lat": 34.67317412203169, "lng": 109.2001000695266}, "feature": {"sight_features": "", "sight_content": ""}}, {"title": "观音塘", "address": "西安市蓝田县107省道", "image": "", "rank": 38, "time": 1.5, "location": {"lat": 34.08219554751315, "lng": 109.2584465152648}, "feature": {"sight_features": "", "sight_content": ""}}, {"title": "西安市蓝田玉文化博物馆", "address": "陕西省西安市蓝田县S107(关中环线)", "image": "", "rank": 39, "time": 3.0, "location": {"lat": 34.06655332081498, "lng": 108.90996481243909}, "feature": {"sight_features": "", "sight_content": ""}}, {"title": "大觉寺", "address": "陕西省西安市蓝田县Y353(侯白路)焦岱镇荣家沟村", "image": "", "rank": 40, "time": 1.0, "location": {"lat": 34.12464063150094, "lng": 109.1733543102388}, "feature": {"sight_features": "", "sight_content": ""}}, {"title": "凤凰岭公墓", "address": "西安市蓝田县", "image": "", "rank": 41, "time": 2, "location": {"lat": 34.157620654732256, "lng": 109.32938812681262}, "feature": {"sight_features": "", "sight_content": ""}}, {"title": "航天儿童游乐城", "address": "蓝金路和孝泉路的交叉口附近", "image": "", "rank": 42, "time": 2, "location": {"lat": 34.16189981641913, "lng": 109.32931483406607}, "feature": {"sight_features": "", "sight_content": ""}}, {"title": "卡乐奇儿童成长主题乐园(蓝田店)", "address": "陕西省西安市蓝田县宏辉广场3楼", "image": "", "rank": 43, "time": 2, "location": {"lat": 34.17092534073279, "lng": 109.32236122179137}, "feature": {"sight_features": "", "sight_content": ""}}, {"title": "西安蓝田莲花山避暑庄园", "address": "西安西安市蓝田县流峪郑家坪村内（流峪飞峡景区向东3公里）", "image": "", "rank": 44, "time": 3.0, "location": {"lat": 34.130412136261036, "lng": 109.58511325864526}, "feature": {"sight_features": "", "sight_content": ""}}, {"title": "三仙庙", "address": "长坪路北段西150米", "image": "", "rank": 45, "time": 2, "location": {"lat": 34.1715033633578, "lng": 109.31143621972149}, "feature": {"sight_features": "", "sight_content": ""}}, {"title": "辋河漂流", "address": "蓝关镇薛家村", "image": "", "rank": 46, "time": 2, "location": {"lat": 34.10840966203883, "lng": 109.34362384911073}, "feature": {"sight_features": "", "sight_content": ""}}, {"title": "葛牌纪念馆", "address": "葛牌镇", "image": "", "rank": 47, "time": 2, "location": {"lat": 33.94237491331952, "lng": 109.51947563269292}, "feature": {"sight_features": "", "sight_content": ""}}, {"title": "大兴垂钓烧烤园", "address": "汤峪镇塘子村汤峪湖森林公园坝下200米", "image": "", "rank": 48, "time": 3.5, "location": {"lat": 34.01320076006456, "lng": 109.2456335984029}, "feature": {"sight_features": "", "sight_content": ""}}, {"title": "海蓝蓝水上世界", "address": "西河桥头北50米(白鹿溪谷别墅区南对面)", "image": "", "rank": 49, "time": 2, "location": {"lat": 25.604017562314663, "lng": 115.79175096887798}, "feature": {"sight_features": "", "sight_content": ""}}, {"title": "小桥流水农家乐", "address": "汤峪河路", "image": "", "rank": 50, "time": 2, "location": {"lat": 33.95327106486807, "lng": 109.24601681912668}, "feature": {"sight_features": "", "sight_content": ""}}, {"title": "山水田园农家乐", "address": "唐义路南段", "image": "", "rank": 51, "time": 2, "location": {"lat": 34.02357329379312, "lng": 109.2297775108293}, "feature": {"sight_features": "", "sight_content": ""}}, {"title": "蓝田县城堡花园爱情庄园", "address": "焦岱镇关中环线下老虎沟村东220米", "image": "", "rank": 52, "time": 2, "location": {"lat": 34.06655332081498, "lng": 108.90996481243909}, "feature": {"sight_features": "", "sight_content": ""}}, {"title": "唐盛剧场", "address": "唐义路南口附近", "image": "", "rank": 53, "time": 2, "location": {"lat": 34.0251837387745, "lng": 109.2296857570062}, "feature": {"sight_features": "", "sight_content": ""}}, {"title": "蓝田县图书馆", "address": "门口青灞路", "image": "", "rank": 54, "time": 2, "location": {"lat": 34.16771309249957, "lng": 109.31272528363677}, "feature": {"sight_features": "", "sight_content": ""}}, {"title": "养生泡汤", "address": "塘子正街17号", "image": "", "rank": 55, "time": 2, "location": {"lat": 34.024438772596156, "lng": 109.22533129111439}, "feature": {"sight_features": "", "sight_content": ""}}, {"title": "西安白鹿原玫瑰谷游乐区", "address": "前卫镇鲸鱼沟大桥", "image": "", "rank": 56, "time": 3.0, "location": {"lat": 34.118931396687096, "lng": 109.26393014130126}, "feature": {"sight_features": "", "sight_content": ""}}, {"title": "辋川", "address": "陕西省蓝田县城西南的尧山", "image": "", "rank": 57, "time": 1.5, "location": {"lat": 34.157620654732256, "lng": 109.32938812681262}, "feature": {"sight_features": "", "sight_content": ""}}, {"title": "悟真寺风景旅游区 Wuzhen Temple...", "address": "陕西省蓝田县县城东南莲花山", "image": "", "rank": 58, "time": 2, "location": {"lat": 34.13055896069366, "lng": 109.41270415906561}, "feature": {"sight_features": "", "sight_content": ""}}, {"title": "冷水岔", "address": "西安市-蓝田县", "image": "", "rank": 59, "time": 2, "location": {"lat": 34.157620654732256, "lng": 109.32938812681262}, "feature": {"sight_features": "", "sight_content": ""}}, {"title": "龙风山", "address": "西安市-蓝田县", "image": "", "rank": 60, "time": 2, "location": {"lat": 34.157620654732256, "lng": 109.32938812681262}, "feature": {"sight_features": "", "sight_content": ""}}]}