{"cityName": "岚县", "days": 2, "cityImage": "", "spots": [{"title": "岚县会展中心", "address": "桥北街", "image": "", "rank": 1, "time": 2.5, "location": {"lat": 39.90237593863657, "lng": 117.75680544873858}, "feature": {"sight_features": "", "sight_content": ""}}, {"title": "非凡画室美术馆", "address": "人民路南50米", "image": "", "rank": 2, "time": 2, "location": {"lat": 31.287902178638635, "lng": 120.63329384386067}, "feature": {"sight_features": "", "sight_content": ""}}, {"title": "懿荷公园", "address": "岚河北路", "image": "", "rank": 3, "time": 2, "location": {"lat": 38.27749261743153, "lng": 111.66639725967926}, "feature": {"sight_features": "", "sight_content": ""}}, {"title": "老爷庙", "address": "山西省吕梁市岚县", "image": "", "rank": 4, "time": 2, "location": {"lat": 38.285028788850155, "lng": 111.67859223038421}, "feature": {"sight_features": "", "sight_content": ""}}, {"title": "黄龙庙", "address": "吕梁市岚县三一三省道", "image": "", "rank": 5, "time": 2, "location": {"lat": 38.41378213349126, "lng": 111.55640408610317}, "feature": {"sight_features": "", "sight_content": ""}}, {"title": "龙凤山公园", "address": "山西省吕梁市岚县g209", "image": "", "rank": 6, "time": 2, "location": {"lat": 38.285028788850155, "lng": 111.67859223038421}, "feature": {"sight_features": "", "sight_content": ""}}, {"title": "龙潭公园", "address": "吕梁市岚县", "image": "", "rank": 7, "time": 3.5, "location": {"lat": 38.285028788850155, "lng": 111.67859223038421}, "feature": {"sight_features": "", "sight_content": ""}}, {"title": "晋越轩画廊", "address": "昌盛街与民觉路交叉口西100米", "image": "", "rank": 8, "time": 2, "location": {"lat": 38.28152075811012, "lng": 111.67809465896224}, "feature": {"sight_features": "", "sight_content": ""}}]}