{"cityName": "兰西", "days": 2, "cityImage": "", "spots": [{"title": "米稻乡农业", "address": "五方天雅4栋1号(近五方天雅商务会馆)", "image": "", "rank": 1, "time": 2, "location": {"lat": 39.870436386987855, "lng": 116.54495166187819}, "feature": {"sight_features": "", "sight_content": ""}}, {"title": "延峻美术社", "address": "麻城大道", "image": "", "rank": 2, "time": 2, "location": {"lat": 46.26634807002973, "lng": 126.31274154175264}, "feature": {"sight_features": "", "sight_content": ""}}, {"title": "中国亚麻展览馆", "address": "哈黑公路", "image": "", "rank": 3, "time": 2, "location": {"lat": 46.672043544458894, "lng": 126.11746147159954}, "feature": {"sight_features": "", "sight_content": ""}}, {"title": "东北民俗文化博览馆", "address": "绥化市兰西县乔家大院西北700米", "image": "", "rank": 4, "time": null, "location": {"lat": 46.22770625453152, "lng": 126.33800356533825}, "feature": {"sight_features": "", "sight_content": ""}}, {"title": "东林寺", "address": "绥化市兰西县麻城大道", "image": "", "rank": 5, "time": 1.5, "location": {"lat": 46.26634807002973, "lng": 126.31274154175264}, "feature": {"sight_features": "", "sight_content": ""}}, {"title": "代福玉米种植专业合作社", "address": "绥肇公路附近", "image": "", "rank": 6, "time": 2, "location": {"lat": 46.30254012860179, "lng": 126.43776800895434}, "feature": {"sight_features": "", "sight_content": ""}}, {"title": "太平岛", "address": "黑龙江省嘉荫县红光乡太平村 153200", "image": "", "rank": 7, "time": 2.5, "location": {"lat": 48.88484366654803, "lng": 130.34911177159904}, "feature": {"sight_features": "", "sight_content": ""}}, {"title": "雪花啤酒广场", "address": "绥化市兰西县", "image": "", "rank": 8, "time": 2, "location": {"lat": 46.258095172244815, "lng": 126.29461952254698}, "feature": {"sight_features": "", "sight_content": ""}}, {"title": "墨缘美术社", "address": "府前路", "image": "", "rank": 9, "time": 2, "location": {"lat": 40.6095122160732, "lng": 117.1166282749851}, "feature": {"sight_features": "", "sight_content": ""}}, {"title": "锡伯部落", "address": "榆林镇林安村红卫水库东北侧", "image": "", "rank": 10, "time": 2, "location": {"lat": 46.116294723691574, "lng": 126.36680049117346}, "feature": {"sight_features": "", "sight_content": ""}}]}