{"cityName": "老河口", "days": 2, "cityImage": "", "spots": [{"title": "李宗仁纪念馆", "address": "襄阳市老河口市北京路66号", "image": "", "rank": 1, "time": 1.0, "location": {"lat": 32.39484322370232, "lng": 111.68740200235112}, "feature": {"sight_features": "", "sight_content": ""}}, {"title": "迪乐园儿童游乐园", "address": "湖北省襄阳市老河口市兴隆南路与汉和路交叉口南150米", "image": "", "rank": 2, "time": 2, "location": {"lat": 32.26553138527861, "lng": 111.72939795651894}, "feature": {"sight_features": "", "sight_content": ""}}, {"title": "杨家大院农家菜", "address": "湖北省襄阳市老河口市S302(三岔路)", "image": "", "rank": 3, "time": 2, "location": {"lat": 32.4349650882064, "lng": 111.68952419162689}, "feature": {"sight_features": "", "sight_content": ""}}, {"title": "国民政府第五战区李宗仁长官司令...", "address": "北京路66号", "image": "", "rank": 4, "time": 2, "location": {"lat": 24.509121259908124, "lng": 117.66194979399963}, "feature": {"sight_features": "", "sight_content": ""}}, {"title": "凤凰庄园", "address": "樊丹路70号", "image": "", "rank": 5, "time": 6.0, "location": {"lat": 32.507695315745444, "lng": 111.53358028285835}, "feature": {"sight_features": "", "sight_content": ""}}, {"title": "怡品芳农家乐", "address": "沿江大道135号", "image": "", "rank": 6, "time": 2, "location": {"lat": 30.689265924107175, "lng": 111.3080375702793}, "feature": {"sight_features": "", "sight_content": ""}}, {"title": "湖北魏晋风园林绿化有限公司植物...", "address": "湖北省襄阳市老河口市S302", "image": "", "rank": 7, "time": 2, "location": {"lat": 32.39245958527059, "lng": 111.6815563690755}, "feature": {"sight_features": "", "sight_content": ""}}, {"title": "贾湖祠堂", "address": "襄阳市老河口市", "image": "", "rank": 8, "time": 2, "location": {"lat": 32.39245958527059, "lng": 111.6815563690755}, "feature": {"sight_features": "", "sight_content": ""}}, {"title": "马窟云峰", "address": "湖北省襄阳市老河口市光化街道马头山", "image": "", "rank": 9, "time": 2, "location": {"lat": 32.39596824353216, "lng": 111.71175027496164}, "feature": {"sight_features": "", "sight_content": ""}}, {"title": "明星影剧院(北京路)", "address": "北京路与染织巷交叉口西南100米", "image": "", "rank": 10, "time": 2, "location": {"lat": 32.40059461655844, "lng": 111.68808668362439}, "feature": {"sight_features": "", "sight_content": ""}}, {"title": "西部矿业汉水山庄", "address": "老石路26号", "image": "", "rank": 11, "time": 2, "location": {"lat": 32.36523049935217, "lng": 111.69161830166904}, "feature": {"sight_features": "", "sight_content": ""}}, {"title": "棒棒糖儿童乐园", "address": "湖北省襄阳市老河口市G316(福兰线)", "image": "", "rank": 12, "time": 2, "location": {"lat": 32.39245958527059, "lng": 111.6815563690755}, "feature": {"sight_features": "", "sight_content": ""}}, {"title": "哆来咪儿童乐园", "address": "商业街中段茹轶商城对面二楼", "image": "", "rank": 13, "time": 2, "location": {"lat": 36.81994755452407, "lng": 118.04925139014023}, "feature": {"sight_features": "", "sight_content": ""}}, {"title": "老河口木版年画", "address": "友谊路1号逸仙斋", "image": "", "rank": 14, "time": 1.0, "location": {"lat": 39.106269107154155, "lng": 117.21031599982572}, "feature": {"sight_features": "", "sight_content": ""}}, {"title": "红金农家乐", "address": "316国道附近", "image": "", "rank": 15, "time": 2, "location": {"lat": 26.297698208697987, "lng": 118.8318521786658}, "feature": {"sight_features": "", "sight_content": ""}}, {"title": "喜迎来农家乐", "address": "汉十路92号附近", "image": "", "rank": 16, "time": 2, "location": {"lat": 32.26434095882292, "lng": 111.73163266125476}, "feature": {"sight_features": "", "sight_content": ""}}, {"title": "孟记农家乐", "address": "兴隆南路10附近", "image": "", "rank": 17, "time": 2, "location": {"lat": 27.77843427391867, "lng": 120.6545355183276}, "feature": {"sight_features": "", "sight_content": ""}}, {"title": "金鸡湖大厨房", "address": "北京路292号", "image": "", "rank": 18, "time": 2, "location": {"lat": 23.130671264737433, "lng": 113.27543304218322}, "feature": {"sight_features": "", "sight_content": ""}}, {"title": "城东水上乐园", "address": "城东大道", "image": "", "rank": 19, "time": 2, "location": {"lat": 33.00576977081386, "lng": 119.05627325817463}, "feature": {"sight_features": "", "sight_content": ""}}, {"title": "广东商业步行街", "address": "湖北省老河口市和平路", "image": "", "rank": 20, "time": 2, "location": {"lat": 32.386935430102824, "lng": 111.67663826588299}, "feature": {"sight_features": "", "sight_content": ""}}, {"title": "老河口市亚龙青少年体育俱乐部", "address": "襄阳市-老河口市-王岗小区原郑营一组", "image": "", "rank": 21, "time": 2, "location": {"lat": 32.38606175702669, "lng": 111.69571732001617}, "feature": {"sight_features": "", "sight_content": ""}}]}