{"cityName": "拉孜", "days": null, "cityImage": "", "spots": [{"title": "嘉措拉山口", "address": "日喀则市拉孜县和定日县分界处", "image": "", "rank": 1, "time": 2, "location": {"lat": 29.08750967999499, "lng": 87.64364731807402}, "feature": {"sight_features": "", "sight_content": ""}}, {"title": "平措林寺", "address": "日喀则市拉孜县平措林乡", "image": "", "rank": 2, "time": 1.0, "location": {"lat": 29.08750967999499, "lng": 87.64364731807402}, "feature": {"sight_features": "", "sight_content": ""}}, {"title": "觉囊寺", "address": "日喀则市拉孜县彭措林乡欧布琼山", "image": "", "rank": 3, "time": 1.0, "location": {"lat": 29.381403470003686, "lng": 88.01301876345615}, "feature": {"sight_features": "", "sight_content": ""}}, {"title": "吉普村", "address": "日喀则市拉孜县吉普村", "image": "", "rank": 4, "time": null, "location": {"lat": 29.029261431337023, "lng": 87.86243707101124}, "feature": {"sight_features": "", "sight_content": ""}}, {"title": "318国道5000公里纪念碑", "address": "西藏自治区日喀则市拉孜县热莎乡强公村", "image": "", "rank": 5, "time": 2, "location": {"lat": 29.144323017564215, "lng": 88.04820968336222}, "feature": {"sight_features": "", "sight_content": ""}}, {"title": "查木钦墓群", "address": "西藏自治区拉孜县曲玛乡查木钦村 858100", "image": "", "rank": 6, "time": 2, "location": {"lat": 29.278976841408895, "lng": 87.74403993933335}, "feature": {"sight_features": "", "sight_content": ""}}, {"title": "锡钦温泉度假村", "address": "西藏自治区日喀则市拉孜县锡钦乡锡金曲灿", "image": "", "rank": 7, "time": 2, "location": {"lat": 29.074011025276732, "lng": 87.75023079878054}, "feature": {"sight_features": "", "sight_content": ""}}, {"title": "拉孜尼姑寺", "address": "西藏自治区拉孜县白居寺的背后 858100", "image": "", "rank": 8, "time": 2, "location": {"lat": 29.08750967999499, "lng": 87.64364731807402}, "feature": {"sight_features": "", "sight_content": ""}}, {"title": "西藏自治区拉孜上海人民广场", "address": "318国道附近", "image": "", "rank": 9, "time": 2, "location": {"lat": 31.023348267795328, "lng": 120.88254137011852}, "feature": {"sight_features": "", "sight_content": ""}}, {"title": "温泉", "address": "城东北方15公里处,坐落在中尼公路北侧约2公里的地方", "image": "", "rank": 10, "time": 0.7, "location": {"lat": 36.605707645661155, "lng": 101.8095690383313}, "feature": {"sight_features": "", "sight_content": ""}}, {"title": "日玛波", "address": "日喀则市-拉孜县", "image": "", "rank": 11, "time": 2, "location": {"lat": 29.08750967999499, "lng": 87.64364731807402}, "feature": {"sight_features": "", "sight_content": ""}}, {"title": "玉托村", "address": "日喀则市-拉孜县", "image": "", "rank": 12, "time": 2, "location": {"lat": 29.08750967999499, "lng": 87.64364731807402}, "feature": {"sight_features": "", "sight_content": ""}}]}