{"cityName": "乐安", "days": 2, "cityImage": "", "spots": [{"title": "流坑古村", "address": "抚州市乐安县牛田镇流坑村", "image": "", "rank": 1, "time": 2.5, "location": {"lat": 27.26884200884625, "lng": 115.78194505425633}, "feature": {"sight_features": "", "sight_content": ""}}, {"title": "金竹瀑布景区", "address": "抚州市乐安县南部金竹畲族乡", "image": "", "rank": 2, "time": 2, "location": {"lat": 27.116141390449542, "lng": 115.94449257745309}, "feature": {"sight_features": "特色1 飞瀑奇观，养心洗肺 特色2 26处自然绝妙飞瀑群，总落差400多米", "sight_content": "赏心悦目：\n景区占地面积60多平方公里，现有飞瀑区、漂流区、原始森林探秘区、畲乡风情互动区、休闲养生度假区、水上游乐区六大板块，夏季凉爽宜人，为避暑养心胜地（清凉地），冬季雪景诱人，是江南赏雪佳境；\n深谷中目前发现自然绝美大小瀑布26处，总落差400多米，全国罕见，瀑布之多、总落差之大；人们赞叹道：“庐山三叠素以落差之美，黄果树瀑布以面积宽为美，而金竹瀑布两者兼而有之”。\n清爽空气：\n空气是景区最珍贵的养生资源，大气中的尘埃悬浮物相当稀少，PM2.5日均浓度15微克/立方厘米。植被覆盖率达90%，森林覆盖率达85.5%，置身养心谷中即置身“天然氧吧”有瀑布的地方负氧离子必高，负氧离子平均达8000个每立方厘米，最高可达40000个每立方厘米。神清气爽、心旷神怡、延年益寿，以自然之道，养自然之生，“长寿之乡”实至名归。\n更是您避暑、避霾、避噪，养身、养心、养老的人间仙境！\n峡谷漂流：\n上游的4A级漂流！\n湿身夏季，人生一漂；\n河道全长3.5公里，总落差160米，时长90多分钟，\n男人心跳，女人尖叫，清凉欣喜，畅爽嗨嗨！"}}, {"title": "古樟林风景区", "address": "乐安县牛田镇古樟林", "image": "", "rank": 3, "time": 2, "location": {"lat": 27.299077215799205, "lng": 115.7656912536015}, "feature": {"sight_features": "", "sight_content": ""}}, {"title": "大码头生态度假区", "address": "抚州市乐安县新陂村大马头垦殖场", "image": "", "rank": 4, "time": 2, "location": {"lat": 27.43407986449759, "lng": 115.83749627865299}, "feature": {"sight_features": "", "sight_content": ""}}, {"title": "江西省乐安县档案馆", "address": "221省道", "image": "", "rank": 5, "time": 2, "location": {"lat": 40.48669646295935, "lng": 116.04420851897628}, "feature": {"sight_features": "", "sight_content": ""}}, {"title": "乐安县博物馆", "address": "象山路95号", "image": "", "rank": 6, "time": 2, "location": {"lat": 27.429941929062, "lng": 115.84873482257944}, "feature": {"sight_features": "", "sight_content": ""}}, {"title": "林头湾杨梅基地(西南门)", "address": "乐安大道附近", "image": "", "rank": 7, "time": 2, "location": {"lat": 27.426457795144874, "lng": 115.84279594249894}, "feature": {"sight_features": "", "sight_content": ""}}, {"title": "万氏大祠", "address": "江西省抚州市乐安县S215", "image": "", "rank": 8, "time": 2, "location": {"lat": 27.43407986449759, "lng": 115.83749627865299}, "feature": {"sight_features": "", "sight_content": ""}}, {"title": "水上游乐场", "address": "江西省抚州市乐安县严江桥", "image": "", "rank": 9, "time": 2, "location": {"lat": 27.415799212997435, "lng": 115.82750303229865}, "feature": {"sight_features": "", "sight_content": ""}}, {"title": "八仙殿", "address": "抚州市乐安县大华名山内", "image": "", "rank": 10, "time": 0.25, "location": {"lat": 27.43407986449759, "lng": 115.83749627865299}, "feature": {"sight_features": "", "sight_content": ""}}, {"title": "龙泉寺", "address": "抚州市乐安县", "image": "", "rank": 11, "time": 3.0, "location": {"lat": 27.43407986449759, "lng": 115.83749627865299}, "feature": {"sight_features": "", "sight_content": ""}}, {"title": "多多岛儿童乐园", "address": "长征路时代购物广场二楼", "image": "", "rank": 12, "time": 2, "location": {"lat": 38.422738652428244, "lng": 112.74619848728398}, "feature": {"sight_features": "", "sight_content": ""}}, {"title": "长兴古寺(乐安县谷岗乡人民政府...", "address": "926县道附近", "image": "", "rank": 13, "time": 2, "location": {"lat": 41.56924582513825, "lng": 105.17106957872228}, "feature": {"sight_features": "", "sight_content": ""}}, {"title": "乐安县图书馆", "address": "土家路", "image": "", "rank": 14, "time": 2, "location": {"lat": 27.42490470427104, "lng": 115.84577407409415}, "feature": {"sight_features": "", "sight_content": ""}}, {"title": "小蓬莱极速欢乐谷(乐安旗舰店)", "address": "乐安大道九龙宏盛小区旁小蓬莱极速欢乐谷", "image": "", "rank": 15, "time": 2, "location": {"lat": 27.426090885661413, "lng": 115.82797503255581}, "feature": {"sight_features": "", "sight_content": ""}}, {"title": "老虎脑自然保护区", "address": "江西省乐安县金竹乡, 谷岗乡", "image": "", "rank": 16, "time": 2, "location": {"lat": 27.024572043162866, "lng": 115.90370610004075}, "feature": {"sight_features": "", "sight_content": ""}}, {"title": "乐安名都商业广场", "address": "江西省乐安县站前路", "image": "", "rank": 17, "time": 2.5, "location": {"lat": 27.43407986449759, "lng": 115.83749627865299}, "feature": {"sight_features": "", "sight_content": ""}}, {"title": "九瀑峡漂流", "address": "抚州市乐安县招携镇王泥汗村", "image": "", "rank": 18, "time": 2, "location": {"lat": 27.138922911130297, "lng": 115.91433639142524}, "feature": {"sight_features": "特色1 双河道漂流景区，一个有梦有戏的地方", "sight_content": "九瀑峡漂流河道全长5.1公里，冲滩滑道68座，河道两岸丛林密布，沿途经过一大二小古老拱桥，古木古藤在河道内交错纵横。漂流河道在丛林里穿越，人在画廊中与浪共舞，美仑美奂。一共有九座形态各异的瀑布分布在河道两岸，或高或低，或飞流直下或轻舞盘旋。有间歇落下的相思瀑，有慢若盘旋的漫舞瀑，有如少女弹琴的琴音瀑，有激流崩崖的九天瀑，还有四季长流、高过百丈、气势如虹的天龙瀑，坐落在漂流河道落差最大的滑道上口，仿佛在提醒着游客前面幸福的悬崖即将到来。"}}, {"title": "大华山", "address": "江西省抚州市乐安县", "image": "", "rank": 19, "time": 2, "location": {"lat": 27.43407986449759, "lng": 115.83749627865299}, "feature": {"sight_features": "", "sight_content": ""}}]}