{"cityName": "乐昌", "days": 2, "cityImage": "", "spots": [{"title": "金鸡岭", "address": "韶关市乐昌市坪石镇火车站侧（近原火车站）", "image": "", "rank": 1, "time": 2.5, "location": {"lat": 25.324344718615173, "lng": 113.05138938867594}, "feature": {"sight_features": "", "sight_content": ""}}, {"title": "古佛岩", "address": "韶关市乐昌市市南郊5公里处", "image": "", "rank": 2, "time": 2.5, "location": {"lat": 25.135591561194918, "lng": 113.35457868209694}, "feature": {"sight_features": "特色1 洞内的石笋和钟乳石，形状如仙似佛", "sight_content": "古佛洞天位于韶关乐昌，因洞内的石笋和钟乳石，形状如仙似佛，洞口又建有佛寺而得名。古佛洞天属大型石灰岩溶洞，洞内上下重叠三层，最高处达30米，总面积12000多平方米，常年气温保持在19~20摄氏度。岩洞内的景区主要分为古佛殿、观音殿、王母殿、玉皇宫、西游宫、逍遥宫和金龙殿等七个宫殿，整个游程570米。古佛洞天内石笋、石花、石柱、石幔，千姿百态，或插其中，或悬其上，色彩斑谰，景象纷呈，最妙处是钟乳石群，其状如仙人佛众，形神各异。\n进入洞口的第一景就是古佛殿，由石幔、钟乳石组成的独具一格的佛殿内，三座小石笋交错有致，恰似三尊佛像。它们相貌庄严而又安祥。离佛像10米处有一石柱如巨大的古榕，挺拔耸立，枝叶繁茂，被称为“古榕叠翠”。古榕底下是三五成群的“牧童”牵着“牛群”，踏着斜辉欢乐而归。古榕的旁边还有一个通天幽洞，大洞叠着小洞，给这美妙的景色又增添了一层神秘的色彩。\n\n\n\n高空玻璃森林滑道\n滑道集高空挑战、悠闲娱乐和代步等特色，全程约380米，仿佛悬空在树林中穿梭同时采用坚固的建筑材料。"}}, {"title": "九峰镇", "address": "韶关乐昌市九峰镇", "image": "", "rank": 3, "time": 3.0, "location": {"lat": 25.360756730844322, "lng": 113.4025762530899}, "feature": {"sight_features": "", "sight_content": ""}}, {"title": "九峰镇花海", "address": "乐昌市九峰镇", "image": "", "rank": 4, "time": 2, "location": {"lat": 25.360756730844322, "lng": 113.4025762530899}, "feature": {"sight_features": "", "sight_content": ""}}, {"title": "五山梯田", "address": "韶关市乐昌市247省道", "image": "", "rank": 5, "time": 2, "location": {"lat": 25.247139318449882, "lng": 113.48988801559534}, "feature": {"sight_features": "", "sight_content": ""}}, {"title": "五汪村", "address": "中国广东省韶关市乐昌市651乡道", "image": "", "rank": 6, "time": 2, "location": {"lat": 25.094476838818757, "lng": 113.39822213664038}, "feature": {"sight_features": "", "sight_content": ""}}, {"title": "龙山温泉", "address": "廊田镇龙山脚下(247省道)", "image": "", "rank": 7, "time": 0.7, "location": {"lat": 42.90763401213302, "lng": 125.14345242968848}, "feature": {"sight_features": "", "sight_content": ""}}, {"title": "糖果乐园", "address": "人民南路妇幼保健院旁边", "image": "", "rank": 8, "time": 2, "location": {"lat": 37.739379095319165, "lng": 112.56961757157696}, "feature": {"sight_features": "", "sight_content": ""}}, {"title": "长排寮林场", "address": "坪石镇", "image": "", "rank": 9, "time": 2, "location": {"lat": 25.324344718615173, "lng": 113.05138938867594}, "feature": {"sight_features": "", "sight_content": ""}}, {"title": "粤北梯田", "address": "广东省仁化县扶溪镇蛇离村 512331", "image": "", "rank": 10, "time": 2, "location": {"lat": 25.21618317786906, "lng": 113.91927081876192}, "feature": {"sight_features": "", "sight_content": ""}}, {"title": "韩泷祠", "address": "广东省乐昌市罗家渡河段的老泷口西岸 512200", "image": "", "rank": 11, "time": 2, "location": {"lat": 24.937992121284267, "lng": 113.59263164718037}, "feature": {"sight_features": "", "sight_content": ""}}, {"title": "新南康百货-儿童乐园", "address": "乐昌市其他人民中路新南康百货3楼", "image": "", "rank": 12, "time": 2, "location": {"lat": 25.133165743295258, "lng": 113.36104669376675}, "feature": {"sight_features": "", "sight_content": ""}}, {"title": "北乡香樟公园", "address": "广东省韶关市乐昌市S248", "image": "", "rank": 13, "time": 2, "location": {"lat": 25.135591561194918, "lng": 113.35457868209694}, "feature": {"sight_features": "", "sight_content": ""}}, {"title": "圣芭芭啦儿童游乐园", "address": "昌山北路与东川路交叉口", "image": "", "rank": 14, "time": 2, "location": {"lat": 25.138407115428947, "lng": 113.35764037496898}, "feature": {"sight_features": "", "sight_content": ""}}, {"title": "乐昌市白水寨生态园", "address": "韶关市乐昌市", "image": "", "rank": 15, "time": 3.0, "location": {"lat": 25.135591561194918, "lng": 113.35457868209694}, "feature": {"sight_features": "", "sight_content": ""}}, {"title": "龙湖度假山庄", "address": "廊田镇三龙谷", "image": "", "rank": 16, "time": 2, "location": {"lat": 25.20850126123816, "lng": 113.46803828005613}, "feature": {"sight_features": "", "sight_content": ""}}, {"title": "龙泉山庄", "address": "广东省韶关市乐昌市廊田镇龙山脚下", "image": "", "rank": 17, "time": 2, "location": {"lat": 25.159297505728613, "lng": 113.47681290851199}, "feature": {"sight_features": "", "sight_content": ""}}, {"title": "桃缘山庄", "address": "248省道附近", "image": "", "rank": 18, "time": 2, "location": {"lat": 39.84675612061214, "lng": 115.2872916250802}, "feature": {"sight_features": "", "sight_content": ""}}, {"title": "坳乐园娱乐休闲中心", "address": "324省道", "image": "", "rank": 19, "time": 2, "location": {"lat": 34.101022772229115, "lng": 117.56430801824291}, "feature": {"sight_features": "", "sight_content": ""}}, {"title": "3维时尚艺术馆", "address": "红岭路3号", "image": "", "rank": 20, "time": 2, "location": {"lat": 27.256340559278556, "lng": 111.75002780612924}, "feature": {"sight_features": "", "sight_content": ""}}, {"title": "流动图书馆(乐昌分馆)", "address": "广福路120号", "image": "", "rank": 21, "time": 2, "location": {"lat": 30.957524105269318, "lng": 121.64749309566551}, "feature": {"sight_features": "", "sight_content": ""}}, {"title": "乐琪儿童乐园", "address": "城市广场首层C3铺，金逸电影院入口旁。", "image": "", "rank": 22, "time": 2, "location": {"lat": 41.800615270263265, "lng": 123.41511259525359}, "feature": {"sight_features": "", "sight_content": ""}}, {"title": "坪石漂流", "address": "坪石镇", "image": "", "rank": 23, "time": 2, "location": {"lat": 25.324344718615173, "lng": 113.05138938867594}, "feature": {"sight_features": "", "sight_content": ""}}, {"title": "长来生态果蔬采摘园", "address": "248省道东50米", "image": "", "rank": 24, "time": 2, "location": {"lat": 39.84675612061214, "lng": 115.28774077783518}, "feature": {"sight_features": "", "sight_content": ""}}, {"title": "龙山林场", "address": "247省道东100米", "image": "", "rank": 25, "time": 6.5, "location": {"lat": 40.63142475983003, "lng": 114.43454538582124}, "feature": {"sight_features": "", "sight_content": ""}}, {"title": "宜乐生态提子庄园", "address": "坪石镇107国道(107国道湖广交界处)", "image": "", "rank": 26, "time": 2, "location": {"lat": 25.321205102785633, "lng": 113.02788221569166}, "feature": {"sight_features": "", "sight_content": ""}}, {"title": "生态提子庄园", "address": "坪石镇宜乐生态提子庄园(107国道湖广交界处)", "image": "", "rank": 27, "time": null, "location": {"lat": 25.321205102785633, "lng": 113.02788221569166}, "feature": {"sight_features": "", "sight_content": ""}}, {"title": "碧水洞 Bishui Cave", "address": "广东省韶关市武江区坪石镇", "image": "", "rank": 28, "time": 2, "location": {"lat": 24.798486030733113, "lng": 113.59455578883632}, "feature": {"sight_features": "", "sight_content": ""}}, {"title": "韶关九泷十八滩漂流", "address": "广东省乐昌市坪石镇", "image": "", "rank": 29, "time": 2.5, "location": {"lat": 25.324344718615173, "lng": 113.05138938867594}, "feature": {"sight_features": "", "sight_content": ""}}, {"title": "紫荆花苑步行街", "address": "广东省乐昌市张家巷", "image": "", "rank": 30, "time": 2, "location": {"lat": 25.131666583529935, "lng": 113.36033974619504}, "feature": {"sight_features": "", "sight_content": ""}}, {"title": "明新花苑商业街", "address": "广东省乐昌市河南大道", "image": "", "rank": 31, "time": 2, "location": {"lat": 25.135591561194918, "lng": 113.35457868209694}, "feature": {"sight_features": "", "sight_content": ""}}, {"title": "顺易华庭商业步行街", "address": "广东省乐昌市公主中路", "image": "", "rank": 32, "time": 2, "location": {"lat": 25.131872840173326, "lng": 113.35912264014472}, "feature": {"sight_features": "", "sight_content": ""}}, {"title": "岩子前", "address": "韶关市-乳源瑶族自治县", "image": "", "rank": 33, "time": 2, "location": {"lat": 24.782333322942147, "lng": 113.28243136491744}, "feature": {"sight_features": "", "sight_content": ""}}, {"title": "岩远墩", "address": "韶关市-乳源瑶族自治县", "image": "", "rank": 34, "time": 2, "location": {"lat": 24.782333322942147, "lng": 113.28243136491744}, "feature": {"sight_features": "", "sight_content": ""}}, {"title": "天子马头", "address": "韶关市-乐昌市", "image": "", "rank": 35, "time": 2, "location": {"lat": 25.135591561194918, "lng": 113.35457868209694}, "feature": {"sight_features": "", "sight_content": ""}}, {"title": "坪石镇", "address": "广东省韶关市乐昌市", "image": "", "rank": 36, "time": 2, "location": {"lat": 25.135591561194918, "lng": 113.35457868209694}, "feature": {"sight_features": "", "sight_content": ""}}, {"title": "乐昌九峰山", "address": "广东省韶关市乐昌市茶料村", "image": "", "rank": 37, "time": 4.0, "location": {"lat": 25.321964543681595, "lng": 113.39446411955763}, "feature": {"sight_features": "", "sight_content": ""}}]}