{"cityName": "乐东", "days": "3", "cityImage": "", "spots": [{"title": "尖峰岭国家森林公园", "address": "乐东黎族自治县尖峰岭", "image": "", "rank": 1, "time": 3.0, "location": {"lat": 18.720931801200035, "lng": 108.88167993194372}, "feature": {"sight_features": "", "sight_content": ""}}, {"title": "莺歌海盐场", "address": "乐东县莺歌海镇莺歌海盐场", "image": "", "rank": 2, "time": 2.5, "location": {"lat": 18.542009247096544, "lng": 108.73992198119147}, "feature": {"sight_features": "", "sight_content": ""}}, {"title": "鸣凤谷", "address": "乐东县尖峰镇尖峰岭国家森林公园内", "image": "", "rank": 3, "time": 2, "location": {"lat": 18.717217094219684, "lng": 108.91016701153794}, "feature": {"sight_features": "", "sight_content": ""}}, {"title": "龙沐湾温德姆至尊豪廷大酒店乐园", "address": "乐东黎族自治县佛罗镇龙沐湾国际旅游度假区", "image": "", "rank": 4, "time": 2, "location": {"lat": 18.631743894159182, "lng": 108.71516279849631}, "feature": {"sight_features": "", "sight_content": ""}}, {"title": "毛公山", "address": "乐东黎族自治县东部保国农场境内", "image": "", "rank": 5, "time": 3.5, "location": {"lat": 18.57527488253766, "lng": 109.29596450118856}, "feature": {"sight_features": "", "sight_content": ""}}, {"title": "儿童乐园", "address": "人民路40号", "image": "", "rank": 6, "time": 2, "location": {"lat": 39.846917306684226, "lng": 116.4702186540102}, "feature": {"sight_features": "", "sight_content": ""}}, {"title": "老区人民活动中心乐园", "address": "225国道", "image": "", "rank": 7, "time": 2, "location": {"lat": 19.4663081009107, "lng": 109.32109095968458}, "feature": {"sight_features": "", "sight_content": ""}}, {"title": "乐东黎族自治县图书馆", "address": "人民路16号附近", "image": "", "rank": 8, "time": 4.5, "location": {"lat": 40.820499413477336, "lng": 111.6825054459146}, "feature": {"sight_features": "", "sight_content": ""}}, {"title": "抱由镇农场红岭队", "address": "313省道西150米", "image": "", "rank": 9, "time": 2, "location": {"lat": 40.47363217982258, "lng": 116.99190259640116}, "feature": {"sight_features": "", "sight_content": ""}}, {"title": "十所村农场", "address": "313省道附近", "image": "", "rank": 10, "time": 2, "location": {"lat": 40.47363217982258, "lng": 116.99325005466613}, "feature": {"sight_features": "", "sight_content": ""}}, {"title": "乐东香园农庄", "address": "313省道附近", "image": "", "rank": 11, "time": 4.5, "location": {"lat": 40.47363217982258, "lng": 116.99325005466613}, "feature": {"sight_features": "", "sight_content": ""}}, {"title": "乐平农场", "address": "069乡道附近", "image": "", "rank": 12, "time": 3.5, "location": {"lat": 31.164740074258983, "lng": 118.43544855939564}, "feature": {"sight_features": "", "sight_content": ""}}, {"title": "九所中学农场", "address": "313省道附近", "image": "", "rank": 13, "time": 2, "location": {"lat": 40.47363217982258, "lng": 116.99325005466613}, "feature": {"sight_features": "", "sight_content": ""}}, {"title": "河南农大南繁基地", "address": "G98海南环线高速", "image": "", "rank": 14, "time": 2, "location": {"lat": 18.33020149570256, "lng": 109.51108441650845}, "feature": {"sight_features": "", "sight_content": ""}}, {"title": "九所镇农场", "address": "313省道附近", "image": "", "rank": 15, "time": 2, "location": {"lat": 40.47363217982258, "lng": 116.99325005466613}, "feature": {"sight_features": "", "sight_content": ""}}, {"title": "黄流镇", "address": "乐东黎族自治县黄流镇", "image": "", "rank": 16, "time": 2, "location": {"lat": 18.55361349375457, "lng": 108.81663047783367}, "feature": {"sight_features": "", "sight_content": ""}}, {"title": "三亚黎村苗寨", "address": "海南省保亭黎族苗族自治县224国道甘什岭 572000", "image": "", "rank": 17, "time": 2, "location": {"lat": 18.404086886152424, "lng": 109.66721350731308}, "feature": {"sight_features": "", "sight_content": ""}}, {"title": "尖峰岭天池", "address": "海南省乐东市尖峰镇尖峰岭国家级森林公园内", "image": "", "rank": 18, "time": 2.5, "location": {"lat": 18.720931801200035, "lng": 108.88167993194372}, "feature": {"sight_features": "", "sight_content": ""}}, {"title": "海豚乐园", "address": "龙沐湾旅游渡假区温德姆至尊豪廷大酒店主楼B1楼", "image": "", "rank": 19, "time": 2, "location": {"lat": 30.268499582295192, "lng": 120.16563953468986}, "feature": {"sight_features": "", "sight_content": ""}}, {"title": "傲景观澜九龙湾国际温泉花园", "address": "九所镇原镇政府所在地", "image": "", "rank": 20, "time": 2, "location": {"lat": 35.68323058631626, "lng": 107.20757586986487}, "feature": {"sight_features": "", "sight_content": ""}}, {"title": "大安乡农场", "address": "314省道西150米", "image": "", "rank": 21, "time": 2, "location": {"lat": 40.19306973684933, "lng": 117.32344946351547}, "feature": {"sight_features": "", "sight_content": ""}}, {"title": "金江农场副业队", "address": "063乡道西150米", "image": "", "rank": 22, "time": 2, "location": {"lat": 22.60919886263197, "lng": 114.24644262262933}, "feature": {"sight_features": "", "sight_content": ""}}, {"title": "只文村农场", "address": "313省道附近", "image": "", "rank": 23, "time": 2, "location": {"lat": 40.47363217982258, "lng": 116.99325005466613}, "feature": {"sight_features": "", "sight_content": ""}}, {"title": "尖峰村农场", "address": "782县道西100米", "image": "", "rank": 24, "time": 2, "location": {"lat": 22.526267027237505, "lng": 113.3829636090835}, "feature": {"sight_features": "", "sight_content": ""}}, {"title": "山海湾温泉家园3区", "address": "313省道", "image": "", "rank": 25, "time": 2, "location": {"lat": 40.47363217982258, "lng": 116.99325005466613}, "feature": {"sight_features": "", "sight_content": ""}}, {"title": "乐东九所山海湾温泉家园超市", "address": "山海湾温泉家园一区会所一楼", "image": "", "rank": 26, "time": 2, "location": {"lat": 18.25486292753678, "lng": 109.50784104673691}, "feature": {"sight_features": "", "sight_content": ""}}, {"title": "海南省乐东县蓓蕾艺术团", "address": "抱由镇步行街蓓蕾艺术团4楼乐祥路", "image": "", "rank": 27, "time": 2, "location": {"lat": 26.580568621934418, "lng": 106.71420697821614}, "feature": {"sight_features": "", "sight_content": ""}}, {"title": "尖峰岭国家森林公园", "address": "海南省乐东黎族自治县尖峰岭", "image": "", "rank": 28, "time": 3.0, "location": {"lat": 18.720931801200035, "lng": 108.88167993194372}, "feature": {"sight_features": "", "sight_content": ""}}, {"title": "鹦哥岭", "address": "海南省中南部琼中什运乡", "image": "", "rank": 29, "time": 2, "location": {"lat": 18.99784607078702, "lng": 109.6146959073345}, "feature": {"sight_features": "", "sight_content": ""}}, {"title": "莺歌海湾", "address": "海南省乐东黎族自治县莺歌海镇", "image": "", "rank": 30, "time": 2, "location": {"lat": 18.755871493854865, "lng": 109.18050798894576}, "feature": {"sight_features": "", "sight_content": ""}}, {"title": "龙沐湾", "address": "海南省乐东黎族自治县佛罗镇", "image": "", "rank": 31, "time": 2, "location": {"lat": 18.58642642407262, "lng": 108.74071213341271}, "feature": {"sight_features": "", "sight_content": ""}}]}