{"cityName": "类乌齐", "days": 2, "cityImage": "", "spots": [{"title": "查杰玛大殿", "address": "西藏自治区昌都地区类乌齐县查杰玛大殿", "image": "", "rank": 1, "time": 1.0, "location": {"lat": 31.440570366463334, "lng": 96.40508751540689}, "feature": {"sight_features": "", "sight_content": ""}}, {"title": "伊日温泉", "address": "西藏自治区类乌齐县伊日乡", "image": "", "rank": 2, "time": 2, "location": {"lat": 31.585524242949628, "lng": 96.57908343835176}, "feature": {"sight_features": "", "sight_content": ""}}, {"title": "长毛岭养鹿场", "address": "昌都地区类乌齐县长毛岭乡那登通", "image": "", "rank": 3, "time": 1.0, "location": {"lat": 31.440570366463334, "lng": 96.40508751540689}, "feature": {"sight_features": "", "sight_content": ""}}, {"title": "卡玛多塔林", "address": "西藏自治区类乌齐县国道317线右侧", "image": "", "rank": 4, "time": 1.0, "location": {"lat": 31.217793112280912, "lng": 96.6067171923989}, "feature": {"sight_features": "", "sight_content": ""}}, {"title": "乃旦寺", "address": "昌都地区类乌齐县加桑区雨扎乡乌入村东南约二百米高的山上", "image": "", "rank": 5, "time": 1.0, "location": {"lat": 31.440570366463334, "lng": 96.40508751540689}, "feature": {"sight_features": "", "sight_content": ""}}, {"title": "德庆颇章神山", "address": "昌都类乌齐县类乌齐镇旁", "image": "", "rank": 6, "time": 2.0, "location": {"lat": 31.374625082785077, "lng": 96.5117074241528}, "feature": {"sight_features": "", "sight_content": ""}}, {"title": "类乌齐县", "address": "西藏自治区昌都地区类乌齐县", "image": "", "rank": 7, "time": 2, "location": {"lat": 31.440570366463334, "lng": 96.40508751540689}, "feature": {"sight_features": "", "sight_content": ""}}, {"title": "类乌齐寺", "address": "西藏自治区类乌齐县类乌齐镇", "image": "", "rank": 8, "time": 2, "location": {"lat": 31.374625082785077, "lng": 96.5117074241528}, "feature": {"sight_features": "", "sight_content": ""}}, {"title": "长毛岭马鹿自然保护区", "address": "西藏自治区类乌齐县县西部", "image": "", "rank": 9, "time": 2, "location": {"lat": 31.217793112280912, "lng": 96.6067171923989}, "feature": {"sight_features": "", "sight_content": ""}}, {"title": "德青波章神山", "address": "西藏自治区类乌齐县类乌齐镇旁 855600", "image": "", "rank": 10, "time": 2, "location": {"lat": 31.374625082785077, "lng": 96.5117074241528}, "feature": {"sight_features": "", "sight_content": ""}}, {"title": "宗洛寺", "address": "317国道附近", "image": "", "rank": 11, "time": 2, "location": {"lat": 31.408980835514807, "lng": 103.11125800875102}, "feature": {"sight_features": "", "sight_content": ""}}, {"title": "玉曲河", "address": "西藏自治区类乌齐县瓦合山南麓", "image": "", "rank": 12, "time": 2, "location": {"lat": 31.217793112280912, "lng": 96.6067171923989}, "feature": {"sight_features": "", "sight_content": ""}}]}