{"cityName": "耒阳", "days": 2, "cityImage": "", "spots": [{"title": "蔡伦竹海", "address": "耒阳市黄市镇蔡伦故里风景名胜区", "image": "", "rank": 1, "time": 4.0, "location": {"lat": 26.233518673503095, "lng": 112.99108870537157}, "feature": {"sight_features": "特色1 亚洲大竹海 特色2 竹海覆盖两百多个大小山头，依山势高低起伏，郁郁葱葱", "sight_content": "蔡伦竹海旅游风景区地处衡阳耒阳市黄市镇、衡阳市区90公里、耒阳城区38公里，距京港澳高速公路公平互道口12 公里，位于耒水风光带上游，公路、水路、铁路直通景区。地处京珠速、衡昆高速、衡大高速；京广铁路、武广高铁、永耒铁路等构成三角中心地带。集观光、休闲、探险、寻宝于一体的复合型旅游风景区，为湖南省旅游重点建设项目“251”工程项目、省级风景名胜区、省级水利风景区和省级山地车训练基地。\n蔡伦竹海旅游风景区位于耒阳市耒水风光带上游，北起耒阳市黄市镇的黄泥岗，南至黄市镇的大河滩，东始大义乡，西接公平镇，涉及黄市镇、大义乡及南阳镇共计18个自然村。竹海覆盖两百多个大小山头，依山势高低起伏，郁郁葱葱，面积达16万亩，为我国的连片竹海，素有“亚洲大竹海”之称。\n其中以楠竹为主的竹类品种达20余种，是中南六省大面积竹海为主的风景名胜区。据专家监测，竹海区内每立方米含负离子15000个以上，堪称我国天然氧吧。"}}, {"title": "蔡侯祠", "address": "湖南省衡阳市耒阳市城北蔡子池畔", "image": "", "rank": 2, "time": 2, "location": {"lat": 26.428065593927606, "lng": 112.86659721058366}, "feature": {"sight_features": "", "sight_content": ""}}, {"title": "嘉年华水上乐园", "address": "衡阳市耒阳市黄市镇蔡伦竹海风景区游客中心广场正前方", "image": "", "rank": 3, "time": 2, "location": {"lat": 26.23394968771741, "lng": 112.99060172856494}, "feature": {"sight_features": "", "sight_content": ""}}, {"title": "顺湖公园", "address": "衡阳市耒阳市耒阳西站站前广场前面", "image": "", "rank": 4, "time": 0.75, "location": {"lat": 26.420546402560888, "lng": 112.79527282659006}, "feature": {"sight_features": "", "sight_content": ""}}, {"title": "南正街", "address": "衡阳市耒阳市南正街30号", "image": "", "rank": 5, "time": 2, "location": {"lat": 26.41368009109822, "lng": 112.86684747849866}, "feature": {"sight_features": "", "sight_content": ""}}, {"title": "杜甫公园", "address": "衡阳市耒阳市沿江路243号", "image": "", "rank": 6, "time": 2, "location": {"lat": 26.41144329825512, "lng": 112.86766489429212}, "feature": {"sight_features": "", "sight_content": ""}}, {"title": "蔡伦纪念园", "address": "衡阳市耒阳市人民路68号对面", "image": "", "rank": 7, "time": 2, "location": {"lat": 26.41160498246909, "lng": 112.8652179999143}, "feature": {"sight_features": "", "sight_content": ""}}, {"title": "东烨国际水疗会所", "address": "衡阳市耒阳市蔡子池街道五一东路", "image": "", "rank": 8, "time": 2, "location": {"lat": 26.415174710344928, "lng": 112.85706887236451}, "feature": {"sight_features": "", "sight_content": ""}}, {"title": "海贝贝海乐园", "address": "衡阳市耒阳市武广新城顺顺湖公园北侧金谷水郡S7栋1-3层", "image": "", "rank": 9, "time": 1.5, "location": {"lat": 26.428065593927606, "lng": 112.86659721058366}, "feature": {"sight_features": "", "sight_content": ""}}, {"title": "耒阳市图书馆", "address": "西湖北路", "image": "", "rank": 10, "time": 1.5, "location": {"lat": 32.45732304523658, "lng": 115.42040867367028}, "feature": {"sight_features": "", "sight_content": ""}}, {"title": "纸博物馆", "address": "群英路36号", "image": "", "rank": 11, "time": 1.5, "location": {"lat": 24.060750643582388, "lng": 114.21362030018237}, "feature": {"sight_features": "", "sight_content": ""}}, {"title": "石臼山", "address": "湖南省耒阳市城西 421800", "image": "", "rank": 12, "time": 2, "location": {"lat": 26.428065593927606, "lng": 112.86659721058366}, "feature": {"sight_features": "", "sight_content": ""}}, {"title": "雕龙塔", "address": "湖南省耒阳市大义乡雕龙村 421832", "image": "", "rank": 13, "time": 2, "location": {"lat": 26.289664545674448, "lng": 113.06873249255791}, "feature": {"sight_features": "", "sight_content": ""}}, {"title": "汤火泉", "address": "湖南省耒阳市枫泉乡汤泉村 421800", "image": "", "rank": 14, "time": 2, "location": {"lat": 26.468471601597052, "lng": 113.16728943926414}, "feature": {"sight_features": "", "sight_content": ""}}, {"title": "谷朗墓", "address": "湖南省耒阳市亮源乡 421800", "image": "", "rank": 15, "time": 2, "location": {"lat": 26.60155819094384, "lng": 113.08947081577476}, "feature": {"sight_features": "", "sight_content": ""}}, {"title": "五峰仙", "address": "湖南省耒阳市沙明乡沙明坳 421813", "image": "", "rank": 16, "time": 0.4, "location": {"lat": 26.56543314909368, "lng": 113.16171005565876}, "feature": {"sight_features": "", "sight_content": ""}}, {"title": "靴洲", "address": "湖南省耒阳市城东耒水之中 421800", "image": "", "rank": 17, "time": 2, "location": {"lat": 26.63467357495967, "lng": 112.88814318321648}, "feature": {"sight_features": "", "sight_content": ""}}, {"title": "鸳鸯洲", "address": "湖南省耒阳市耒水 421800", "image": "", "rank": 18, "time": 2, "location": {"lat": 26.63467357495967, "lng": 112.88814318321648}, "feature": {"sight_features": "", "sight_content": ""}}, {"title": "神农温泉", "address": "湖南省耒阳市东湖圩乡汤泉村 421800", "image": "", "rank": 19, "time": 2, "location": {"lat": 26.440902966567666, "lng": 113.16503983164066}, "feature": {"sight_features": "", "sight_content": ""}}, {"title": "耒阳温泉山庄", "address": "东湖汤泉度假村", "image": "", "rank": 20, "time": 2, "location": {"lat": 28.691259179775223, "lng": 115.9054660260597}, "feature": {"sight_features": "", "sight_content": ""}}, {"title": "鹿岐峰森林公园", "address": "衡阳市耒阳市京港澳高速附近", "image": "", "rank": 21, "time": 2, "location": {"lat": 26.428065593927606, "lng": 112.86659721058366}, "feature": {"sight_features": "", "sight_content": ""}}, {"title": "茗翠居", "address": "白云路534号(外婆家辣椒炒肉旁)", "image": "", "rank": 22, "time": 2, "location": {"lat": 25.072672563746654, "lng": 102.72885269460677}, "feature": {"sight_features": "", "sight_content": ""}}, {"title": "天一阁", "address": "白云路与金华路交叉路口天鹅会三楼", "image": "", "rank": 23, "time": 2.0, "location": {"lat": 26.430278180508378, "lng": 112.8521263226875}, "feature": {"sight_features": "", "sight_content": ""}}, {"title": "侯憩山", "address": "湖南省耒阳市耒阳市东南 421800", "image": "", "rank": 24, "time": 2, "location": {"lat": 26.428065593927606, "lng": 112.86659721058366}, "feature": {"sight_features": "", "sight_content": ""}}, {"title": "酷洛小镇儿童乐园(耒阳店)", "address": "耒阳市其他步步高百货3楼", "image": "", "rank": 25, "time": 2, "location": {"lat": 26.41538529252473, "lng": 112.8630081207503}, "feature": {"sight_features": "", "sight_content": ""}}, {"title": "阳光童年", "address": "蔡伦中路289", "image": "", "rank": 26, "time": 2, "location": {"lat": 26.41465510784697, "lng": 112.85826063182657}, "feature": {"sight_features": "", "sight_content": ""}}, {"title": "十分关爱儿童游乐园", "address": "湖南省衡阳市耒阳市城北西路", "image": "", "rank": 27, "time": 2, "location": {"lat": 26.415916313739796, "lng": 112.8391204542979}, "feature": {"sight_features": "", "sight_content": ""}}, {"title": "雷家祠堂", "address": "衡阳市耒阳市", "image": "", "rank": 28, "time": 2, "location": {"lat": 26.428065593927606, "lng": 112.86659721058366}, "feature": {"sight_features": "", "sight_content": ""}}, {"title": "狮子岭", "address": "湖南省衡阳市耒阳市", "image": "", "rank": 29, "time": 2, "location": {"lat": 26.428065593927606, "lng": 112.86659721058366}, "feature": {"sight_features": "", "sight_content": ""}}, {"title": "耒阳市泉水湾休闲度假村", "address": "衡阳市耒阳市黄市镇伍家", "image": "", "rank": 30, "time": null, "location": {"lat": 26.17299006830978, "lng": 112.8605118465186}, "feature": {"sight_features": "", "sight_content": ""}}, {"title": "三顺寺", "address": "水东江东江16组", "image": "", "rank": 31, "time": 2, "location": {"lat": 31.251777317682677, "lng": 121.40756447398846}, "feature": {"sight_features": "", "sight_content": ""}}, {"title": "马阜岭森林公园", "address": "德泰隆大道169-179号附近", "image": "", "rank": 32, "time": 2, "location": {"lat": 26.424822152843475, "lng": 112.8673189514505}, "feature": {"sight_features": "", "sight_content": ""}}, {"title": "相公庙", "address": "城北路220号", "image": "", "rank": 33, "time": 0.4, "location": {"lat": 32.199329694345295, "lng": 120.00866516978945}, "feature": {"sight_features": "", "sight_content": ""}}, {"title": "湖南耒水国家湿地公园", "address": "湖南省衡阳市耒阳市X097", "image": "", "rank": 34, "time": 2, "location": {"lat": 26.428065593927606, "lng": 112.86659721058366}, "feature": {"sight_features": "", "sight_content": ""}}, {"title": "五一影剧院", "address": "五一东路112-4", "image": "", "rank": 35, "time": 2, "location": {"lat": 26.415574223149193, "lng": 112.86180640896148}, "feature": {"sight_features": "", "sight_content": ""}}, {"title": "神农广场", "address": "衡阳市耒阳市德泰隆路229号", "image": "", "rank": 36, "time": null, "location": {"lat": 26.426466396299183, "lng": 112.86809353189123}, "feature": {"sight_features": "", "sight_content": ""}}, {"title": "五一广场", "address": "北正街17号", "image": "", "rank": 37, "time": 1.5, "location": {"lat": 37.349968973810284, "lng": 111.19583499992852}, "feature": {"sight_features": "", "sight_content": ""}}, {"title": "农耕文化博物馆", "address": "金桥路", "image": "", "rank": 38, "time": 7.5, "location": {"lat": 31.380385617098984, "lng": 120.53163162295701}, "feature": {"sight_features": "", "sight_content": ""}}, {"title": "迷城超级密室", "address": "五一东路国贸新城D栋公寓楼13楼(新步步高楼上)", "image": "", "rank": 39, "time": 2, "location": {"lat": 26.414807784991027, "lng": 112.85903333625988}, "feature": {"sight_features": "", "sight_content": ""}}, {"title": "海涛欢乐水世界", "address": "蔡伦南路尽头", "image": "", "rank": 40, "time": 2, "location": {"lat": 25.735292679193822, "lng": 112.74022303992213}, "feature": {"sight_features": "", "sight_content": ""}}, {"title": "中共党史陈列馆", "address": "群英中路", "image": "", "rank": 41, "time": 2, "location": {"lat": 24.73724412788159, "lng": 118.63657538559694}, "feature": {"sight_features": "", "sight_content": ""}}, {"title": "top147台球俱乐部", "address": "人民路1-7号", "image": "", "rank": 42, "time": 2, "location": {"lat": 40.04356028312411, "lng": 116.35633957428952}, "feature": {"sight_features": "", "sight_content": ""}}, {"title": "欢乐岛水上乐园", "address": "沿江路杜甫公园内", "image": "", "rank": 43, "time": 2, "location": {"lat": 26.409726371930052, "lng": 112.87025280466884}, "feature": {"sight_features": "", "sight_content": ""}}, {"title": "竹韵画廊", "address": "城北西路5号", "image": "", "rank": 44, "time": 2, "location": {"lat": 28.86436216069461, "lng": 120.74222698828386}, "feature": {"sight_features": "", "sight_content": ""}}, {"title": "薰衣草(时尚分店)", "address": "人民路112-114", "image": "", "rank": 45, "time": 2, "location": {"lat": 31.873231539358134, "lng": 117.29382771356117}, "feature": {"sight_features": "", "sight_content": ""}}, {"title": "宏利中药材种植产业园", "address": "哲桥镇太屋村5组", "image": "", "rank": 46, "time": 2, "location": {"lat": 29.900701308591227, "lng": 115.05080009383538}, "feature": {"sight_features": "", "sight_content": ""}}, {"title": "仙湖山庄", "address": "五里牌街道仙湖山庄", "image": "", "rank": 47, "time": 2, "location": {"lat": 28.2028988477488, "lng": 113.01964719486396}, "feature": {"sight_features": "", "sight_content": ""}}, {"title": "汤泉金龙温泉", "address": "东湖圩乡汤泉旅游度假村", "image": "", "rank": 48, "time": 2, "location": {"lat": 26.46396812679028, "lng": 113.16779922764088}, "feature": {"sight_features": "", "sight_content": ""}}, {"title": "吴九真太守谷朗碑", "address": "湖南省耒阳市蔡侯祠", "image": "", "rank": 49, "time": 2, "location": {"lat": 26.446830687196268, "lng": 112.82443039063703}, "feature": {"sight_features": "", "sight_content": ""}}, {"title": "蔡伦纪念馆", "address": "湖南省耒阳市蔡侯祠内", "image": "", "rank": 50, "time": 2, "location": {"lat": 26.446830687196268, "lng": 112.82443039063703}, "feature": {"sight_features": "", "sight_content": ""}}, {"title": "耒阳烈士陵园", "address": "湖南省耒阳市陵园路", "image": "", "rank": 51, "time": 3.0, "location": {"lat": 26.428065593927606, "lng": 112.86659721058366}, "feature": {"sight_features": "", "sight_content": ""}}, {"title": "杜甫祠", "address": "湖南省耒阳市一中校内", "image": "", "rank": 52, "time": 2, "location": {"lat": 26.428065593927606, "lng": 112.86659721058366}, "feature": {"sight_features": "", "sight_content": ""}}, {"title": "扬帆雕塑", "address": "湖南省耒阳市沿江路", "image": "", "rank": 53, "time": 2, "location": {"lat": 26.416065502316595, "lng": 112.86852891058219}, "feature": {"sight_features": "", "sight_content": ""}}, {"title": "蔡伦步行街", "address": "湖南省耒阳市蔡伦大市场步行街", "image": "", "rank": 54, "time": 2, "location": {"lat": 26.410388170702326, "lng": 112.85274415026788}, "feature": {"sight_features": "", "sight_content": ""}}, {"title": "到胡冲", "address": "衡阳市-耒阳市", "image": "", "rank": 55, "time": 2, "location": {"lat": 26.428065593927606, "lng": 112.86659721058366}, "feature": {"sight_features": "", "sight_content": ""}}, {"title": "到湖里何家", "address": "衡阳市-耒阳市", "image": "", "rank": 56, "time": 2, "location": {"lat": 26.428065593927606, "lng": 112.86659721058366}, "feature": {"sight_features": "", "sight_content": ""}}, {"title": "勾刀下", "address": "衡阳市-耒阳市", "image": "", "rank": 57, "time": 2, "location": {"lat": 26.428065593927606, "lng": 112.86659721058366}, "feature": {"sight_features": "", "sight_content": ""}}]}