{"cityName": "雷州", "days": 2, "cityImage": "", "spots": [{"title": "雷祖祠", "address": "湛江市雷州市州城西南五里的英榜山上", "image": "", "rank": 1, "time": 1.0, "location": {"lat": 20.919880592716495, "lng": 110.10258050647992}, "feature": {"sight_features": "", "sight_content": ""}}, {"title": "三元塔公园", "address": "湛江市雷州市雷城镇曲街4号（原雷城“南门头”）东侧", "image": "", "rank": 2, "time": 2.0, "location": {"lat": 20.916077009043715, "lng": 110.09931789769928}, "feature": {"sight_features": "", "sight_content": ""}}, {"title": "雷州古城", "address": "湛江市雷州市", "image": "", "rank": 3, "time": 7.5, "location": {"lat": 20.919880592716495, "lng": 110.10258050647992}, "feature": {"sight_features": "", "sight_content": ""}}, {"title": "雷州西湖公园", "address": "湛江市雷州市西湖大道37号", "image": "", "rank": 4, "time": 1.0, "location": {"lat": 20.916588979333643, "lng": 110.09880799972926}, "feature": {"sight_features": "", "sight_content": ""}}, {"title": "樟树湾大酒店温泉", "address": "湛江市雷州市雷城区文化路8号樟树湾温泉", "image": "", "rank": 5, "time": 2, "location": {"lat": 20.713947373730747, "lng": 110.18878806197151}, "feature": {"sight_features": "特色1 配备全园林式露天泳池", "sight_content": "樟树湾温泉露天温泉区含1个大人游池、1个儿童游池、50个大小不一的温泉池、2个汗蒸房、1个热石板区。\n火山温泉及泳池 Volcanic Hot Spring and Swimming Pool\n全园林式露天泳池、天然火山温泉，含有丰富的矿物质。绚丽迷人的热带植物，青麻石、鹅卵石点缀，乔木、灌木高低错落，层次分明，每位客户可充分体验东南亚风情度假生活。早年雷州农村用作洗蕃薯的石缸，由原重75吨整石的雷州火山石雕凿而成，是温泉区当之无愧的“十八金缸”。周围更可举办PARTY，是同学聚会或商业聚会的好场所。\n宝贝水上乐园 Kids’ Water Park\n\n以宝贝开心，全家开心主题打造，具有超大玩乐空间，发现轻松的水疗之旅。顶尖的配套设施，多样的特色服务，清新宜人的环境以及优质服务，深受许多家庭、小朋友的喜爱，让您和孩子们都纵享美好假期时光。特别在炎热的宁夏，让您体验从所未有的水上之乐。"}}, {"title": "湛江红树林国家级自然保护区", "address": "湛江市麻章区湖光镇", "image": "", "rank": 6, "time": 7.5, "location": {"lat": 21.104448503356814, "lng": 110.27117170877287}, "feature": {"sight_features": "", "sight_content": ""}}, {"title": "金瑶池", "address": "湛江雷州市雷城区文化路8号樟树湾大酒店内", "image": "", "rank": 7, "time": 2, "location": {"lat": 20.942521249176234, "lng": 110.0647723043917}, "feature": {"sight_features": "", "sight_content": ""}}, {"title": "邦塘村", "address": "广东省湛江市雷州市207国道附近", "image": "", "rank": 8, "time": 4.0, "location": {"lat": 20.619688695494673, "lng": 110.04031490922911}, "feature": {"sight_features": "", "sight_content": ""}}, {"title": "潮溪村", "address": "广东省湛江市雷州市龙门镇", "image": "", "rank": 9, "time": 4.0, "location": {"lat": 20.694993253822, "lng": 110.03298369064251}, "feature": {"sight_features": "", "sight_content": ""}}, {"title": "天成台度假村", "address": "雷州市乌石镇", "image": "", "rank": 10, "time": 3.0, "location": {"lat": 20.562546499702133, "lng": 109.86668044912678}, "feature": {"sight_features": "", "sight_content": ""}}, {"title": "英利镇", "address": "广东省雷州市南部 524200", "image": "", "rank": 11, "time": 2.0, "location": {"lat": 16.43306770203859, "lng": 110.10258050647992}, "feature": {"sight_features": "", "sight_content": ""}}, {"title": "鹰峰岭", "address": "湛江市雷州市英利镇东北侧", "image": "", "rank": 12, "time": 2, "location": {"lat": 20.583790537884195, "lng": 110.08372992468146}, "feature": {"sight_features": "", "sight_content": ""}}, {"title": "冰雪天地", "address": "湛江市雷州市茂德公古城", "image": "", "rank": 13, "time": 2, "location": {"lat": 20.919880592716495, "lng": 110.10258050647992}, "feature": {"sight_features": "", "sight_content": ""}}, {"title": "乌石中学农场", "address": "290省道北150米", "image": "", "rank": 14, "time": 2, "location": {"lat": 21.14564224248567, "lng": 109.83826084754755}, "feature": {"sight_features": "", "sight_content": ""}}, {"title": "房参农场", "address": "290省道东150米", "image": "", "rank": 15, "time": 2, "location": {"lat": 21.14437805806569, "lng": 109.83960830581206}, "feature": {"sight_features": "", "sight_content": ""}}, {"title": "收获农场东风队", "address": "471乡道附近", "image": "", "rank": 16, "time": 2, "location": {"lat": 34.13382358384157, "lng": 119.01320380915968}, "feature": {"sight_features": "", "sight_content": ""}}, {"title": "北和农场", "address": "527乡道附近", "image": "", "rank": 17, "time": 2, "location": {"lat": 40.921404181287535, "lng": 124.0816069880581}, "feature": {"sight_features": "", "sight_content": ""}}, {"title": "雷州市博物馆", "address": "雷州市西湖大道26号", "image": "", "rank": 18, "time": 2.5, "location": {"lat": 20.916522523611146, "lng": 110.09637351364545}, "feature": {"sight_features": "", "sight_content": ""}}, {"title": "宝成寺", "address": "湛江市雷州市", "image": "", "rank": 19, "time": 1.0, "location": {"lat": 20.919880592716495, "lng": 110.10258050647992}, "feature": {"sight_features": "", "sight_content": ""}}, {"title": "九龙山红树林国家湿地公园", "address": "宝林禅寺附近", "image": "", "rank": 20, "time": 2, "location": {"lat": 31.71822647267675, "lng": 119.92059553743877}, "feature": {"sight_features": "", "sight_content": ""}}, {"title": "新华文化广场", "address": "西湖公园斜对面", "image": "", "rank": 21, "time": 2, "location": {"lat": 38.36851836621165, "lng": 117.33290396821131}, "feature": {"sight_features": "", "sight_content": ""}}, {"title": "陈瑸纪念馆", "address": "陈瑸纪念馆附近", "image": "", "rank": 22, "time": 2, "location": {"lat": 20.90728639938711, "lng": 110.16134711393995}, "feature": {"sight_features": "", "sight_content": ""}}, {"title": "东里革命老区纪念馆", "address": "东里第二中学附近", "image": "", "rank": 23, "time": 2, "location": {"lat": 20.789656277838734, "lng": 110.35862899497425}, "feature": {"sight_features": "", "sight_content": ""}}, {"title": "沈塘影剧院", "address": "沈塘镇沈塘派出所附近", "image": "", "rank": 24, "time": 2, "location": {"lat": 20.991080931957406, "lng": 110.12690967392082}, "feature": {"sight_features": "", "sight_content": ""}}, {"title": "一华影剧厅", "address": "环城南路023", "image": "", "rank": 25, "time": 2, "location": {"lat": 38.833035658788255, "lng": 105.68259089386187}, "feature": {"sight_features": "", "sight_content": ""}}, {"title": "杨家镇府前广场", "address": "373省道雷州市杨家镇中心小学附近", "image": "", "rank": 26, "time": 2, "location": {"lat": 20.899967623517338, "lng": 109.9690066138872}, "feature": {"sight_features": "", "sight_content": ""}}, {"title": "普广寺", "address": "373省道附近", "image": "", "rank": 27, "time": 2, "location": {"lat": 21.248703819331904, "lng": 110.41433105564566}, "feature": {"sight_features": "", "sight_content": ""}}, {"title": "湛江雷州靖海宫", "address": "广东省雷州市夏岚北村 510080", "image": "", "rank": 28, "time": 1.5, "location": {"lat": 20.88283575352292, "lng": 110.17391755208968}, "feature": {"sight_features": "", "sight_content": ""}}, {"title": "朴直公祠", "address": "沈塘蕉坡村前正中", "image": "", "rank": 29, "time": 2, "location": {"lat": 21.86004227176173, "lng": 110.34777884062136}, "feature": {"sight_features": "", "sight_content": ""}}, {"title": "爱群儿童乐园", "address": "世贸广场3层", "image": "", "rank": 30, "time": 2, "location": {"lat": 39.12325715999544, "lng": 117.2078450901476}, "feature": {"sight_features": "", "sight_content": ""}}, {"title": "国母院", "address": "广东省湛江市雷州市新城大道天和花园东北100米", "image": "", "rank": 31, "time": 1.5, "location": {"lat": 20.914612924964693, "lng": 110.08808136238395}, "feature": {"sight_features": "", "sight_content": ""}}, {"title": "金樟殿", "address": "文化路8号", "image": "", "rank": 32, "time": 2, "location": {"lat": 20.942086790562996, "lng": 110.06503880109403}, "feature": {"sight_features": "", "sight_content": ""}}, {"title": "德地文化广场", "address": "207国道附近", "image": "", "rank": 33, "time": 2, "location": {"lat": 38.67484937592033, "lng": 114.04837902844483}, "feature": {"sight_features": "", "sight_content": ""}}, {"title": "天明禅寺", "address": "701县道附近", "image": "", "rank": 34, "time": 2, "location": {"lat": 43.50985865046611, "lng": 125.69140028568152}, "feature": {"sight_features": "", "sight_content": ""}}, {"title": "白水沟公园", "address": "新城街道办新村村新村幼儿园", "image": "", "rank": 35, "time": 2, "location": {"lat": 37.95740058597202, "lng": 112.5530786307818}, "feature": {"sight_features": "", "sight_content": ""}}, {"title": "不二法门", "address": "黄雷公路附近", "image": "", "rank": 36, "time": 0.15000000000000002, "location": {"lat": 20.96229961098227, "lng": 110.11958848401692}, "feature": {"sight_features": "", "sight_content": ""}}, {"title": "邬庙王", "address": "中华街18号", "image": "", "rank": 37, "time": 2, "location": {"lat": 42.28719246209558, "lng": 125.74872089078157}, "feature": {"sight_features": "", "sight_content": ""}}, {"title": "举人文化公园", "address": "广东省湛江市雷州市", "image": "", "rank": 38, "time": 2, "location": {"lat": 20.919880592716495, "lng": 110.10258050647992}, "feature": {"sight_features": "", "sight_content": ""}}, {"title": "天竺庵", "address": "关部前街附近", "image": "", "rank": 39, "time": 2, "location": {"lat": 20.905853108980676, "lng": 110.10115022444741}, "feature": {"sight_features": "", "sight_content": ""}}, {"title": "长发公祠", "address": "广东省湛江市雷州市杨家镇吴氏宗祠", "image": "", "rank": 40, "time": 2, "location": {"lat": 20.901268326882498, "lng": 109.94436141807645}, "feature": {"sight_features": "", "sight_content": ""}}, {"title": "石溪福地", "address": "石溪禅寺附近", "image": "", "rank": 41, "time": 2, "location": {"lat": 20.817955678080956, "lng": 110.2177136098748}, "feature": {"sight_features": "", "sight_content": ""}}, {"title": "慧观庵", "address": "环城南路附近", "image": "", "rank": 42, "time": 2, "location": {"lat": 32.343803277365524, "lng": 118.8527646843988}, "feature": {"sight_features": "", "sight_content": ""}}, {"title": "黄清雅纪念馆", "address": "207国道", "image": "", "rank": 43, "time": 2, "location": {"lat": 38.67484937592033, "lng": 114.04837902844483}, "feature": {"sight_features": "", "sight_content": ""}}, {"title": "圣庙帝", "address": "黄清雅纪念馆附近", "image": "", "rank": 44, "time": 2, "location": {"lat": 21.0423082697928, "lng": 110.02053143715887}, "feature": {"sight_features": "", "sight_content": ""}}, {"title": "英利博物馆", "address": "冼夫人庙附近", "image": "", "rank": 45, "time": 2, "location": {"lat": 20.010053756920886, "lng": 110.16861829697274}, "feature": {"sight_features": "", "sight_content": ""}}, {"title": "普度寺", "address": "207国道西200米", "image": "", "rank": 46, "time": 1.5, "location": {"lat": 38.67484937592033, "lng": 114.04658241742487}, "feature": {"sight_features": "", "sight_content": ""}}, {"title": "圆觉禅寺", "address": "广东省湛江市雷州市南兴镇南兴中学东北250米", "image": "", "rank": 47, "time": 1.0, "location": {"lat": 20.809887756363537, "lng": 110.09485579774108}, "feature": {"sight_features": "", "sight_content": ""}}, {"title": "洪流村天后宫", "address": "广东省湛江市雷州市Y410洪流村", "image": "", "rank": 48, "time": 2, "location": {"lat": 20.848801826378846, "lng": 110.33423163087399}, "feature": {"sight_features": "", "sight_content": ""}}, {"title": "福迁庵", "address": "290省道附近", "image": "", "rank": 49, "time": 2, "location": {"lat": 21.14437805806569, "lng": 109.83826084754755}, "feature": {"sight_features": "", "sight_content": ""}}, {"title": "帝天宫", "address": "广东省湛江市雷州市杨家镇肇揽小学西南300米", "image": "", "rank": 50, "time": 2, "location": {"lat": 20.87428065551638, "lng": 109.99531150997457}, "feature": {"sight_features": "", "sight_content": ""}}, {"title": "茂德公大观园", "address": "雷州市龙门镇足荣村532乡道附近", "image": "", "rank": 51, "time": 2, "location": {"lat": 20.630521459794927, "lng": 109.94136165977609}, "feature": {"sight_features": "特色1 以雷州文化为基础的乡村旅游园区", "sight_content": "茂德公大观园坐落于广东省雷州市龙门镇足荣村，项目占地面积118亩。以辣酱文化为基础，重现雷州半岛传统酿酒、制酱、制糖、制瓷、石雕工艺。\n大观园以雷州文化为基础，嫁接了国内“东南西北”不同地区的特色建筑，其中有东部的代表建筑徽派大宅，北部的代表建筑蒙古包，西部的代表建筑窑洞，南部单体雷派建筑“三间屋”。\n“三间屋”是以茂德公夫妇的故居为参照，放大40倍后修建而成。\n目前，大观园还拥有“乡村诗歌雕塑园”、主题餐厅“红网餐厅”、以手作为主题的酒店“天工院”、雷州小吃“食工坊”、“牵手广场”等。"}}, {"title": "国土资源档案馆", "address": "雷南大道", "image": "", "rank": 52, "time": 2, "location": {"lat": 20.90572929597953, "lng": 110.0808709380409}, "feature": {"sight_features": "", "sight_content": ""}}, {"title": "雷州市城建档案馆", "address": "雷州大道18号", "image": "", "rank": 53, "time": 7.5, "location": {"lat": 20.919020051716494, "lng": 110.10194324855134}, "feature": {"sight_features": "", "sight_content": ""}}, {"title": "雷州市书画院", "address": "西湖大道68号", "image": "", "rank": 54, "time": 7.5, "location": {"lat": 30.251724593293257, "lng": 120.18175089913008}, "feature": {"sight_features": "", "sight_content": ""}}, {"title": "贝儿乐游乐园", "address": "世贸广场二楼", "image": "", "rank": 55, "time": 2, "location": {"lat": 40.829543910209715, "lng": 114.894278654395}, "feature": {"sight_features": "", "sight_content": ""}}, {"title": "发之城", "address": "下广路中国电信斜对面", "image": "", "rank": 56, "time": 2, "location": {"lat": 20.93402921247206, "lng": 110.10556952823283}, "feature": {"sight_features": "", "sight_content": ""}}, {"title": "湛江农垦金星农场", "address": "群众大道与雷南大道交叉口西北50米", "image": "", "rank": 57, "time": 1.5, "location": {"lat": 20.908349120363948, "lng": 110.09383922941272}, "feature": {"sight_features": "", "sight_content": ""}}, {"title": "收获农场东海队", "address": "468乡道附近", "image": "", "rank": 58, "time": 2, "location": {"lat": 40.047582755199684, "lng": 116.8200528896287}, "feature": {"sight_features": "", "sight_content": ""}}, {"title": "英利镇农场红寨队", "address": "486乡道东200米", "image": "", "rank": 59, "time": 2, "location": {"lat": 35.37720857982394, "lng": 113.08436330673442}, "feature": {"sight_features": "", "sight_content": ""}}, {"title": "南兴群众剧场", "address": "南兴镇南兴", "image": "", "rank": 60, "time": 2, "location": {"lat": 31.880476602104395, "lng": 121.06017829425761}, "feature": {"sight_features": "", "sight_content": ""}}]}