{"cityName": "乐陵", "days": 2, "cityImage": "", "spots": [{"title": "乐陵万亩枣林游览区", "address": "德州市乐陵市朱集镇万亩枣林游览区", "image": "", "rank": 1, "time": 2, "location": {"lat": 37.8058069754432, "lng": 117.2731146012816}, "feature": {"sight_features": "", "sight_content": ""}}, {"title": "碧霞湖风景区", "address": "山东省德州市乐陵市东南部杨安镇", "image": "", "rank": 2, "time": 2, "location": {"lat": 37.618775346226776, "lng": 117.1428505368556}, "feature": {"sight_features": "", "sight_content": ""}}, {"title": "龙悦水上乐园", "address": "德州乐陵市云红街道办事处闫家村", "image": "", "rank": 3, "time": 2, "location": {"lat": 37.74363664471563, "lng": 117.25920386256107}, "feature": {"sight_features": "", "sight_content": ""}}, {"title": "龙悦生态观光园", "address": "乐陵市云红街道办事处闫家村", "image": "", "rank": 4, "time": 2, "location": {"lat": 37.74363664471563, "lng": 117.25920386256107}, "feature": {"sight_features": "", "sight_content": ""}}, {"title": "乐陵市图书馆", "address": "湖滨东路52号院", "image": "", "rank": 5, "time": 1.5, "location": {"lat": 31.56509882626096, "lng": 120.78878950446789}, "feature": {"sight_features": "", "sight_content": ""}}, {"title": "小央美儿童美术馆", "address": "开元中大道北50米", "image": "", "rank": 6, "time": 2, "location": {"lat": 37.74329856467451, "lng": 117.22432783295005}, "feature": {"sight_features": "", "sight_content": ""}}, {"title": "3DVR虚拟体验处", "address": "德州市乐陵市兴隆南大街甲31号滨海恒发购物中心F1", "image": "", "rank": 7, "time": 2, "location": {"lat": 37.74097187080507, "lng": 117.22634703958386}, "feature": {"sight_features": "", "sight_content": ""}}, {"title": "乐陵市体育公园", "address": "山东省德州市乐陵市阜盛西路辅路", "image": "", "rank": 8, "time": 2.5, "location": {"lat": 37.740184778165045, "lng": 117.22570969182453}, "feature": {"sight_features": "", "sight_content": ""}}, {"title": "活动广场", "address": "德州市乐陵市朱集镇千年枣林游览区冀鲁边区革命纪念园内", "image": "", "rank": 9, "time": 2, "location": {"lat": 37.764071340606556, "lng": 117.27037969847851}, "feature": {"sight_features": "", "sight_content": ""}}, {"title": "金丝小枣采摘园", "address": "S315", "image": "", "rank": 10, "time": 2, "location": {"lat": 39.786477381815, "lng": 116.30364872529633}, "feature": {"sight_features": "", "sight_content": ""}}, {"title": "沿河生态景观带", "address": "德州市乐陵市朱集镇千年枣林游览区内", "image": "", "rank": 11, "time": 2, "location": {"lat": 37.764071340606556, "lng": 117.27037969847851}, "feature": {"sight_features": "", "sight_content": ""}}, {"title": "美奇乐园", "address": "德州市乐陵市兴隆南大街甲31号滨海恒发购物中心F4", "image": "", "rank": 12, "time": 2, "location": {"lat": 37.74166849746578, "lng": 117.22683589744238}, "feature": {"sight_features": "", "sight_content": ""}}, {"title": "七彩花", "address": "德州市乐陵市五洲中大道6号银座商城F3", "image": "", "rank": 13, "time": 2, "location": {"lat": 37.72598484249697, "lng": 117.21600655502796}, "feature": {"sight_features": "", "sight_content": ""}}, {"title": "游乐设施", "address": "德州市乐陵市兴隆南大街甲31号滨海恒发购物中心F2", "image": "", "rank": 14, "time": 2, "location": {"lat": 37.741660436181235, "lng": 117.22683589744238}, "feature": {"sight_features": "", "sight_content": ""}}, {"title": "摇摇车", "address": "德州市乐陵市汇源南大街与南外环交汇处澳林新天地购物广场F1", "image": "", "rank": 15, "time": 2, "location": {"lat": 37.71908654856853, "lng": 117.1991569235942}, "feature": {"sight_features": "", "sight_content": ""}}, {"title": "儿童主题乐园", "address": "德州市乐陵市汇源南大街与南外环交汇处澳林新天地购物广场F2", "image": "", "rank": 16, "time": 2, "location": {"lat": 37.71908654856853, "lng": 117.1991569235942}, "feature": {"sight_features": "", "sight_content": ""}}, {"title": "国强源生态度假村", "address": "德州市乐陵市", "image": "", "rank": 17, "time": 2, "location": {"lat": 37.73592450080975, "lng": 117.23840643173311}, "feature": {"sight_features": "", "sight_content": ""}}, {"title": "乐之源游乐场", "address": "兴隆南大街65号", "image": "", "rank": 18, "time": 2, "location": {"lat": 37.74015062401753, "lng": 117.22517589623286}, "feature": {"sight_features": "", "sight_content": ""}}, {"title": "春霖斋书画艺术社", "address": "湖滨东路148号", "image": "", "rank": 19, "time": 2, "location": {"lat": 24.480090462475744, "lng": 118.11857201754309}, "feature": {"sight_features": "", "sight_content": ""}}, {"title": "花园镇前刘村鑫民合作社", "address": "渤海南大街338号附近", "image": "", "rank": 20, "time": 2, "location": {"lat": 37.73082390946639, "lng": 117.22938072299168}, "feature": {"sight_features": "", "sight_content": ""}}, {"title": "乐陵市影视院", "address": "湖滨东路与兴隆南大街交汇处北侧", "image": "", "rank": 21, "time": 2, "location": {"lat": 37.73674917642191, "lng": 117.23201662025072}, "feature": {"sight_features": "", "sight_content": ""}}, {"title": "老友记密室逃脱", "address": "开元中大道150号(新华书店、木堂春鱼馆、大自然洗浴)", "image": "", "rank": 22, "time": 2, "location": {"lat": 37.74179252899131, "lng": 117.2255424488979}, "feature": {"sight_features": "", "sight_content": ""}}, {"title": "胡家魔幻3d艺术馆", "address": "胡家街道孟家社区16号", "image": "", "rank": 23, "time": 2, "location": {"lat": 36.260806933784444, "lng": 120.19398337319176}, "feature": {"sight_features": "", "sight_content": ""}}, {"title": "乐陵名店街", "address": "山东省乐陵市渤海南大街", "image": "", "rank": 24, "time": 2, "location": {"lat": 37.73446027187618, "lng": 117.2312816176994}, "feature": {"sight_features": "", "sight_content": ""}}, {"title": "枣都商贸街", "address": "山东省乐陵市枣都商贸街", "image": "", "rank": 25, "time": 2, "location": {"lat": 37.7303081683633, "lng": 117.22052028958835}, "feature": {"sight_features": "", "sight_content": ""}}, {"title": "赵洪都村", "address": "德州市-乐陵市", "image": "", "rank": 26, "time": 2, "location": {"lat": 37.73592450080975, "lng": 117.23840643173311}, "feature": {"sight_features": "", "sight_content": ""}}]}