{"cityName": "乐平", "days": 2, "cityImage": "", "spots": [{"title": "洪源仙境", "address": "景德镇市乐平市东北部", "image": "", "rank": 1, "time": 3.0, "location": {"lat": 28.984363669039215, "lng": 117.15851067473356}, "feature": {"sight_features": "特色1 拥有从多自然、生态、人文景观", "sight_content": "洪岩尽胜景，洞外妙境佳，这里还有古人类居住生息遗址、南宋的洪皓学堂遗址、明代的铁井飞泉、当代中美农业考古队考古现场。还有140亩美丽如画的石林，古色古香的松漠亭，引人入胜的南星岩、仙姑岩、神宝峰、狮哮峰、松漠峰、独秀谷、珍珠岩。 位于溶洞山顶，是古生代地壳变动而形成，距今有3亿多年，山上怪石嶙峋，奇花异草点缀其间，相依丛生，风光明媚。有桃花谷、松漠亭、达开峰、藤穿石、象鼻石、强盗床、双龙戏珠、骑虎难下、八戒戏嫦娥等景观。景点的林涛如潮，林谷如云，让您犹如步入仙境般的身临其境。 奇树：古树盘踞、丹桂丛聚、翠竹摇拽，与奇石形成了紧紧搂抱的奇观。 奇藤：千年古藤，环石缠绕，藤缠树、树缠藤，可真谓树有情，木石结缘。 奇峰：青山幽谷，流水叮咚，这里有强盗峰、松漠亭、独秀谷、情人谷、幽情谷南星岩、仙姑岩、神宝峰、狮啸峰、珍珠岩等。 攀上光明顶，极目远眺，那苍苍茫茫的林海，时隐时现的群峰、风光明媚的田园风光尽收眼底。置身于此，如到了世外仙境之中，令您流连忘返。\n\n\n千亩如诗如画的石林中古树名木遍布，珍禽异兽出没，野花遍地开，小鸟林中鸣，置身其中，如至梦幻中。以奇石、奇树、奇藤、奇峰著称。 　　奇石：造型奇特，维妙维肖，有形状似白兔、鲸鱼、山羊、山猴、、野猪、蛇、大象等动物，这里石石皆景，景景不同。"}}, {"title": "乐平市博物馆", "address": "景德镇市乐平市翥山西路109号", "image": "", "rank": 2, "time": 1.0, "location": {"lat": 28.98237466906199, "lng": 117.15958752115822}, "feature": {"sight_features": "", "sight_content": ""}}, {"title": "金山水上乐园", "address": "景德镇市乐平市农科园金山工业区新虎山下", "image": "", "rank": 3, "time": 2, "location": {"lat": 29.006949485287688, "lng": 117.18580245374541}, "feature": {"sight_features": "", "sight_content": "金山水上乐园，是由乐平绿州山庄倾情打造。项目总投资1200万元，园区规划面积70余亩。配备目前国内一流的水上娱乐设施。园区内有激情冲浪、惊险刺激水滑梯、儿童趣味戏水城、游泳池、美食街、嘉年华互动摊位游戏、梦幻亲亲鱼疗、亲子互动喂鱼池、购物中心9大块。是景德镇地区游乐设施最大最先进的水上乐园，给您前所未有的玩水体验：既有随着浪花飞流直下的刺激，也有土耳其亲亲鱼亲吻您全身每一次肌肤的舒适体验，还有惊涛拍岸的夏威夷海滩风情。\n\n\n同时，金山水乐园，具备完善的服务配套设施：提供各种新式泳装、提供中式、西式餐饮、各种饮品、冷饮。金山水乐园，是您家庭聚会、公司活动、朋友相约、情侣双飞、娱乐休闲、消暑胜地。"}}, {"title": "东山寺", "address": "观音泉路193号", "image": "", "rank": 4, "time": 1.0, "location": {"lat": 28.971446485198946, "lng": 117.15272172453751}, "feature": {"sight_features": "", "sight_content": ""}}, {"title": "乐平市图书馆", "address": "翥山西路109号", "image": "", "rank": 5, "time": 1.5, "location": {"lat": 28.98237466906199, "lng": 117.15958752115822}, "feature": {"sight_features": "", "sight_content": ""}}, {"title": "新乐园游戏室", "address": "人民中路11号", "image": "", "rank": 6, "time": 2, "location": {"lat": 30.91767609369377, "lng": 121.46663345559408}, "feature": {"sight_features": "", "sight_content": ""}}, {"title": "龙凤游乐场", "address": "洎阳中路9号", "image": "", "rank": 7, "time": 2, "location": {"lat": 28.9792817717788, "lng": 117.13872792130772}, "feature": {"sight_features": "", "sight_content": ""}}, {"title": "平山草堂御窑陶瓷书画院", "address": "乐平大道7号", "image": "", "rank": 8, "time": 3.5, "location": {"lat": 23.267878004676685, "lng": 113.02565150751781}, "feature": {"sight_features": "", "sight_content": ""}}, {"title": "洪岩仙境风景区", "address": "江西省景德镇市洪岩镇", "image": "", "rank": 9, "time": 4.5, "location": {"lat": 29.074123896756205, "lng": 117.47729857261811}, "feature": {"sight_features": "", "sight_content": ""}}, {"title": "动漫水上乐园", "address": "赣东北商贸城3号", "image": "", "rank": 10, "time": 2, "location": {"lat": 28.991600434215854, "lng": 117.15816380214575}, "feature": {"sight_features": "", "sight_content": ""}}, {"title": "志成鱼场", "address": "接渡镇东津畈村(近205省道)", "image": "", "rank": 11, "time": 2, "location": {"lat": 28.924236088922598, "lng": 117.21630907593901}, "feature": {"sight_features": "", "sight_content": ""}}, {"title": "吉安防务委员会旧址", "address": "江西省井冈山市茨坪镇店上村 343600", "image": "", "rank": 12, "time": 6.0, "location": {"lat": 26.596958621043377, "lng": 114.19375633974046}, "feature": {"sight_features": "", "sight_content": ""}}, {"title": "凤凰明珠音乐厅", "address": "仿古商业街51号", "image": "", "rank": 13, "time": 6.0, "location": {"lat": 23.04544806153064, "lng": 113.1200652257726}, "feature": {"sight_features": "", "sight_content": ""}}, {"title": "乐平古戏台", "address": "江西省景德镇市乐平市", "image": "", "rank": 14, "time": null, "location": {"lat": 28.984363669039215, "lng": 117.15851067473356}, "feature": {"sight_features": "", "sight_content": ""}}, {"title": "洪浩森林公园", "address": "江西省景德镇市乐平市洪岩北路", "image": "", "rank": 15, "time": 2, "location": {"lat": 28.977395774573363, "lng": 117.16474450264853}, "feature": {"sight_features": "", "sight_content": ""}}, {"title": "象鼻山河谷漂流", "address": "东坡蔡家村北50米", "image": "", "rank": 16, "time": 2, "location": {"lat": 30.04827213443505, "lng": 103.83852480217091}, "feature": {"sight_features": "", "sight_content": ""}}, {"title": "乐平市凤凰山寺", "address": "景德镇市乐平市", "image": "", "rank": 17, "time": 2, "location": {"lat": 28.984363669039215, "lng": 117.15851067473356}, "feature": {"sight_features": "", "sight_content": ""}}, {"title": "祈福寺", "address": "江西省景德镇市乐平市X110(临港派出所西北约500米)", "image": "", "rank": 18, "time": 2, "location": {"lat": 29.03778207478466, "lng": 117.32526058608771}, "feature": {"sight_features": "", "sight_content": ""}}, {"title": "聚龙广场一区", "address": "珠海西路与迎宾西路交叉口西南150米", "image": "", "rank": 19, "time": 2, "location": {"lat": 28.9731642896833, "lng": 117.12321573203761}, "feature": {"sight_features": "", "sight_content": ""}}, {"title": "聚龙广场二区", "address": "迎宾西路96号", "image": "", "rank": 20, "time": 2, "location": {"lat": 28.97307785793586, "lng": 117.12265247472033}, "feature": {"sight_features": "", "sight_content": ""}}, {"title": "江维公园", "address": "工业9路", "image": "", "rank": 21, "time": 2, "location": {"lat": 22.507873882371364, "lng": 113.93186635377097}, "feature": {"sight_features": "", "sight_content": ""}}, {"title": "坑口村古戏台", "address": "镇桥镇镇桥中心小学附近", "image": "", "rank": 22, "time": 2, "location": {"lat": 28.897913058535558, "lng": 117.04694567855196}, "feature": {"sight_features": "", "sight_content": ""}}, {"title": "涌山休闲广场", "address": "府前路与迎宾路交叉口东150米", "image": "", "rank": 23, "time": 2, "location": {"lat": 40.957499483674596, "lng": 117.96911378017148}, "feature": {"sight_features": "", "sight_content": ""}}, {"title": "中国古戏台博物馆", "address": "大连新区东风路市政广场南1号", "image": "", "rank": 24, "time": 2, "location": {"lat": 38.9189536667856, "lng": 121.62163148459285}, "feature": {"sight_features": "", "sight_content": ""}}, {"title": "小阿福乐园", "address": "珠海中路与新平中路交叉口西", "image": "", "rank": 25, "time": 2, "location": {"lat": 28.976129590178093, "lng": 117.13188650919008}, "feature": {"sight_features": "", "sight_content": ""}}, {"title": "乐平市图书馆", "address": "东风路", "image": "", "rank": 26, "time": 1.5, "location": {"lat": 37.94152993302504, "lng": 114.47237874047624}, "feature": {"sight_features": "", "sight_content": ""}}, {"title": "三花农业", "address": "珠海东路54号", "image": "", "rank": 27, "time": 2, "location": {"lat": 28.976282990449715, "lng": 117.14116798856367}, "feature": {"sight_features": "", "sight_content": ""}}, {"title": "乐平市欧科葡萄采摘园", "address": "涌山镇车溪村", "image": "", "rank": 28, "time": 2, "location": {"lat": 29.118643312200568, "lng": 117.36290246960574}, "feature": {"sight_features": "", "sight_content": ""}}, {"title": "皇庭港湾步行街", "address": "江西省乐平市东风北路", "image": "", "rank": 29, "time": 2, "location": {"lat": 28.98279232958597, "lng": 117.15917516569196}, "feature": {"sight_features": "", "sight_content": ""}}, {"title": "梅树坞", "address": "景德镇市-乐平市", "image": "", "rank": 30, "time": 2, "location": {"lat": 28.984363669039215, "lng": 117.15851067473356}, "feature": {"sight_features": "", "sight_content": ""}}, {"title": "圆道爱玩吧网络会所", "address": "景德镇市-乐平市-大地豪城34幢(湖滨路南)", "image": "", "rank": 31, "time": null, "location": {"lat": 28.96551589775442, "lng": 117.15490164251787}, "feature": {"sight_features": "", "sight_content": ""}}]}