{"cityName": "乐亭", "days": 2, "cityImage": "", "spots": [{"title": "月坨岛", "address": "唐山市乐亭县三贝明珠码头", "image": "", "rank": 1, "time": 4.5, "location": {"lat": 39.43193132009613, "lng": 118.91938406305317}, "feature": {"sight_features": "特色1 形似一弯晓月。 特色2 天然的浴场和生态旅游度假区。 特色3 中国八美海岛之一。", "sight_content": "月岛是河北省乐亭县西南渤海湾中的沙岛，陆域面积0.43平方公里，因形似一弯晓月而得名。月岛离陆岸4.8公里，封闭性良好。岛上灌木丛生，鲜花野果散发出淡淡幽香，几近封闭的自然环境鲜有人为的干扰和破坏，生态景观保留了原始状态。几百种鸟儿成千上万在这里栖息、繁殖。海鸥在蓝天飞翔，野鸭在水面信步，白户雕振翼而飞，白鹳、黑鹳悠闲自得，真是“万顷碧波澄澈，百鸟飞翔讴歌，芳草野花接疏林，小桥曲径连木阁”，极富荷兰风情。\n\n月岛和金沙岛、菩提岛等互相呼应，形成了东起山海关、南至北戴河、黄金海岸，西至曹妃甸一条漫长的沿海旅游观光链，而月岛则是这条金色观光链上最为璀璨闪亮的明珠。月岛由月坨、腰坨、蛇坨、西坨等七个狭长列岛断续组成，四周环海，生态原始，景色以幽、野、奇、闲、异闻名。岛上灌木丛生，杂草茂盛，几近封闭的自然环境从未遭到人为的干扰与破坏，生态景观与优良的海滨风情相映成趣。岛上有北方丰富的鸟类资源，看万鸟翱翔，观千帆竞渡，坐看海天相连，蔚然壮观。月岛的自然环境别有洞天，是人们亲近自然、回归自然的选择。\n\n月岛的建筑是仿荷兰风情而设计的，一座座红顶小木屋，又叫情侣屋，悬空于海滩，与爱侣置身其中，谛听大海的潮涨潮落，别有情趣。月岛的浴场沙洁水净，特别适宜海水浴，同时还有沙滩足球和准备建设的跑马场等娱乐场所，有海鲜烧烤、烤全羊、篝火晚会及海边渔猎等体验野外生活的多种集体参与游玩项目，是避暑、度假、科考、春游、观鸟的好去处。月岛绿荫植被广覆，环境幽静，鲜花野果散发出淡淡幽香，野生禽鸟、小型兽类繁多，几近封闭的自然环境从未遭到人为的干扰与破坏，充满野趣和情致。这里别致的荷兰风情建筑引人神往，红顶木屋和绿野风车在海天之间勾勒出一幅充满异国情趣的浪漫画卷。环岛海滩沙质洁净，海水清碧，深度适宜，是天然良好浴场之所在。"}}, {"title": "菩提岛", "address": "唐山市乐亭县西南渤海湾", "image": "", "rank": 2, "time": 4.0, "location": {"lat": 39.43193132009613, "lng": 118.91938406305317}, "feature": {"sight_features": "", "sight_content": "菩提岛位于乐亭县渤海之滨，全岛面积2.1平方公里（3133亩），是华北“第一”大岛，也是距离北京最近的大型生态海岛之一。\n菩提岛几近封闭的自然环境，从未遭到人为的干扰与破坏，生态景观与海岛风情相应成趣，塑造出渤海湾品味独特的旅游胜地，菩提岛上自然景观奇美，人文景观秀丽，是省级生态旅游示范区，素有“古、幽、奇、野、闲”之称。"}}, {"title": "金沙岛", "address": "唐山市乐亭县浅水湾浴场西", "image": "", "rank": 3, "time": 7.5, "location": {"lat": 39.16197996343132, "lng": 118.96900912739171}, "feature": {"sight_features": "", "sight_content": ""}}, {"title": "李大钊纪念馆", "address": "唐山市乐亭县新城区大钊路觅园街", "image": "", "rank": 4, "time": 2.0, "location": {"lat": 39.43009603741348, "lng": 118.89792697594683}, "feature": {"sight_features": "", "sight_content": ""}}, {"title": "李大钊故居", "address": "唐山市乐亭县胡坨镇大黑坨村", "image": "", "rank": 5, "time": 1.0, "location": {"lat": 39.39275250234367, "lng": 119.0916926997378}, "feature": {"sight_features": "", "sight_content": ""}}, {"title": "浅水湾海水浴场", "address": "唐山市乐亭县打网岗岛", "image": "", "rank": 6, "time": 4.0, "location": {"lat": 39.43193132009613, "lng": 118.91938406305317}, "feature": {"sight_features": "", "sight_content": ""}}, {"title": "碧海浴场", "address": "唐山市乐亭县老米沟河口", "image": "", "rank": 7, "time": 4.0, "location": {"lat": 39.43193132009613, "lng": 118.91938406305317}, "feature": {"sight_features": "", "sight_content": ""}}, {"title": "三岛码头", "address": "唐山市乐亭县捞鱼尖北港渔码头北侧", "image": "", "rank": 8, "time": 2, "location": {"lat": 39.43193132009613, "lng": 118.91938406305317}, "feature": {"sight_features": "", "sight_content": ""}}, {"title": "古滦河生态公园", "address": "唐山市乐亭县城东北部", "image": "", "rank": 9, "time": 2, "location": {"lat": 39.43193132009613, "lng": 118.91938406305317}, "feature": {"sight_features": "", "sight_content": ""}}, {"title": "丞起颐天园九六温泉", "address": "唐山市乐亭县唐港高速公路乐亭现代农业产业示范园内", "image": "", "rank": 10, "time": 2, "location": {"lat": 39.42941679397978, "lng": 118.85695983760502}, "feature": {"sight_features": "", "sight_content": ""}}, {"title": "祥云湾海滨温泉度假村", "address": "河北省唐山市乐亭县打网岗岛", "image": "", "rank": 11, "time": 2, "location": {"lat": 39.43193132009613, "lng": 118.91938406305317}, "feature": {"sight_features": "", "sight_content": ""}}, {"title": "乐亭韩姐农家院", "address": "滨海大道碱铺村(近乐北线)", "image": "", "rank": 12, "time": 4.5, "location": {"lat": 39.14748806587617, "lng": 118.72782240639029}, "feature": {"sight_features": "", "sight_content": ""}}, {"title": "乐亭20号别墅农家院", "address": "河北省唐山市乐亭县唐山湾三岛碱铺村", "image": "", "rank": 13, "time": 4.5, "location": {"lat": 39.20447491322481, "lng": 118.89488424181158}, "feature": {"sight_features": "", "sight_content": ""}}, {"title": "祥云湾海水浴场", "address": "唐山市乐亭县打网岗岛东部", "image": "", "rank": 14, "time": 4.0, "location": {"lat": 39.43193132009613, "lng": 118.91938406305317}, "feature": {"sight_features": "", "sight_content": ""}}, {"title": "三贝明珠广场", "address": "河北省唐山市乐亭县唐山湾国际旅游岛三贝明珠旅游码头", "image": "", "rank": 15, "time": 2, "location": {"lat": 39.165214909705384, "lng": 118.88244600907622}, "feature": {"sight_features": "", "sight_content": ""}}, {"title": "乐亭5号别墅农家院", "address": "唐山市乐亭县唐山国际旅游岛碱铺村005号", "image": "", "rank": 16, "time": 4.5, "location": {"lat": 39.199522375262525, "lng": 118.89390001158297}, "feature": {"sight_features": "", "sight_content": ""}}, {"title": "教堂", "address": "唐山市乐亭县西南渤海湾中的沙岛月（坨）岛景区内", "image": "", "rank": 17, "time": 2, "location": {"lat": 39.43193132009613, "lng": 118.91938406305317}, "feature": {"sight_features": "", "sight_content": ""}}, {"title": "乐亭浅水湾海边别墅农家院", "address": "唐山乐亭唐山湾国际旅游岛碱铺村051号", "image": "", "rank": 18, "time": 4.5, "location": {"lat": 39.165214909705384, "lng": 118.88244600907622}, "feature": {"sight_features": "", "sight_content": ""}}, {"title": "唐山乐亭薇薇别墅农家院", "address": "河北省唐山市乐亭县碱铺村005号(唐山湾国际旅游岛内)", "image": "", "rank": 19, "time": 2.5, "location": {"lat": 39.199522375262525, "lng": 118.89390001158297}, "feature": {"sight_features": "", "sight_content": ""}}, {"title": "乐亭月坨岛别墅农家院", "address": "唐山乐北线马头营镇碱铺村", "image": "", "rank": 20, "time": 2, "location": {"lat": 39.31110542854762, "lng": 118.83936246295288}, "feature": {"sight_features": "", "sight_content": ""}}, {"title": "唐山乐亭小云农家院", "address": "捞渔尖村内(近乐北线)", "image": "", "rank": 21, "time": null, "location": {"lat": 28.149758362190486, "lng": 120.93382794844442}, "feature": {"sight_features": "", "sight_content": ""}}, {"title": "华溪度假村", "address": "唐山乐亭县海港开发区浅水湾浴场北3号", "image": "", "rank": 22, "time": 2, "location": {"lat": 39.16197996343132, "lng": 118.96900912739171}, "feature": {"sight_features": "", "sight_content": ""}}, {"title": "乐亭县博物馆", "address": "河北省唐山市乐亭县", "image": "", "rank": 23, "time": 2, "location": {"lat": 39.43193132009613, "lng": 118.91938406305317}, "feature": {"sight_features": "", "sight_content": ""}}, {"title": "乐亭文化中心", "address": "河北省唐山市乐亭县", "image": "", "rank": 24, "time": 1.5, "location": {"lat": 39.43193132009613, "lng": 118.91938406305317}, "feature": {"sight_features": "", "sight_content": ""}}, {"title": "恬静居农家院", "address": "庞各庄乡严坨村413号", "image": "", "rank": 25, "time": 2, "location": {"lat": 39.3875092839353, "lng": 118.80881978546095}, "feature": {"sight_features": "", "sight_content": ""}}, {"title": "3D魔幻盛典", "address": "金融大街东段新大东方购物广场4层", "image": "", "rank": 26, "time": 2, "location": {"lat": 39.629824741249344, "lng": 118.21325993094669}, "feature": {"sight_features": "", "sight_content": ""}}, {"title": "浅水湾海浪屿度假村", "address": "京唐港开发区内", "image": "", "rank": 27, "time": 2, "location": {"lat": 39.21071860715982, "lng": 119.00364134700595}, "feature": {"sight_features": "", "sight_content": ""}}, {"title": "小亮渔具", "address": "海城路夏日烟酒超市西南侧", "image": "", "rank": 28, "time": 2, "location": {"lat": 39.24551486147125, "lng": 118.99978053412751}, "feature": {"sight_features": "", "sight_content": ""}}, {"title": "月岛景区-垂钓区(坨)", "address": "河北省唐山市乐亭县西南渤海湾中的沙岛月岛景区内(坨)", "image": "", "rank": 29, "time": 2, "location": {"lat": 39.43193132009613, "lng": 118.91938406305317}, "feature": {"sight_features": "", "sight_content": ""}}, {"title": "喜气来农家乐", "address": "唐山湾国际旅游岛海湾渔村碱铺村48号", "image": "", "rank": 30, "time": 2, "location": {"lat": 39.165214909705384, "lng": 118.88244600907622}, "feature": {"sight_features": "", "sight_content": ""}}, {"title": "唐山乐亭菩提岛旅游度假村", "address": "乐北线附近", "image": "", "rank": 31, "time": 2.5, "location": {"lat": 28.149758362190486, "lng": 120.93382794844442}, "feature": {"sight_features": "", "sight_content": ""}}, {"title": "乐亭好喽再来农家院别墅", "address": "唐山乐亭县三岛开发去碱铺村027号", "image": "", "rank": 32, "time": 4.5, "location": {"lat": 39.20447507237366, "lng": 118.89488412772678}, "feature": {"sight_features": "", "sight_content": ""}}, {"title": "唐山温馨农家别墅", "address": "碱铺村乐北线与滨海大道交叉路口南行400米", "image": "", "rank": 33, "time": 2.5, "location": {"lat": 39.20114579677876, "lng": 118.89416894987977}, "feature": {"sight_features": "", "sight_content": ""}}, {"title": "妙善佛缘", "address": "唐山市乐亭县健康家园294栋1楼", "image": "", "rank": 34, "time": null, "location": {"lat": 39.44278834968835, "lng": 118.89570952047343}, "feature": {"sight_features": "", "sight_content": ""}}, {"title": "儿童乐园", "address": "西曾线附近", "image": "", "rank": 35, "time": 2, "location": {"lat": 39.324110053104135, "lng": 118.56755705883033}, "feature": {"sight_features": "", "sight_content": ""}}, {"title": "海域度假村", "address": "唐山市乐亭县", "image": "", "rank": 36, "time": 2, "location": {"lat": 39.43193132009613, "lng": 118.91938406305317}, "feature": {"sight_features": "", "sight_content": ""}}, {"title": "心悦度假村", "address": "海港开发区浅水湾浴场北14号", "image": "", "rank": 37, "time": 2, "location": {"lat": 39.16197996343132, "lng": 118.96900912739171}, "feature": {"sight_features": "", "sight_content": ""}}, {"title": "唐山湾国际旅游岛林场朋悦原生态...", "address": "唐山乐亭县湾滨海大道乐北路", "image": "", "rank": 38, "time": 2, "location": {"lat": 39.14748806587617, "lng": 118.72782240639029}, "feature": {"sight_features": "", "sight_content": ""}}, {"title": "唐山金贝壳度假村", "address": "河北省唐山市乐亭县新戴河浅水湾浴场海边30米", "image": "", "rank": 39, "time": 2, "location": {"lat": 39.16197996343132, "lng": 118.96900912739171}, "feature": {"sight_features": "", "sight_content": ""}}, {"title": "唐山乐亭浅水湾心悦度假村", "address": "唐山乐亭县海港开发区浅水湾浴场北14号", "image": "", "rank": 40, "time": 2.5, "location": {"lat": 39.16197996343132, "lng": 118.96900912739171}, "feature": {"sight_features": "", "sight_content": ""}}, {"title": "乐亭三岛月岛菩提金沙度假村", "address": "唐山乐亭县碱铺村60号", "image": "", "rank": 41, "time": 4.5, "location": {"lat": 39.20005108979819, "lng": 118.89184596866149}, "feature": {"sight_features": "", "sight_content": ""}}, {"title": "唐山北京人之家.畅夏园度假村", "address": "唐山乐亭县浅水湾浴场", "image": "", "rank": 42, "time": 2.5, "location": {"lat": 39.16197996343132, "lng": 118.96900912739171}, "feature": {"sight_features": "", "sight_content": ""}}, {"title": "乐安广场", "address": "河北省唐山市乐亭县乐安街道金融大街乐安家园(A区)南", "image": "", "rank": 43, "time": 0.75, "location": {"lat": 39.43752442345423, "lng": 118.9287400981939}, "feature": {"sight_features": "", "sight_content": ""}}, {"title": "汀流河休闲广场", "address": "河北省唐山市乐亭县学院路", "image": "", "rank": 44, "time": 2, "location": {"lat": 39.51866028735307, "lng": 118.83250422107928}, "feature": {"sight_features": "", "sight_content": ""}}, {"title": "乐亭县毛庄镇财神庙", "address": "河北省唐山市乐亭县毛庄镇海尔专卖店旁", "image": "", "rank": 45, "time": 2, "location": {"lat": 39.46308404596516, "lng": 118.97227322736057}, "feature": {"sight_features": "", "sight_content": ""}}, {"title": "越旺儿童乐园", "address": "唐山市乐亭县海港商城2层", "image": "", "rank": 46, "time": 2, "location": {"lat": 39.23847516456617, "lng": 118.99621607852494}, "feature": {"sight_features": "", "sight_content": ""}}, {"title": "家宝贝儿童游乐园", "address": "茂北街175", "image": "", "rank": 47, "time": 2, "location": {"lat": 39.4383118567212, "lng": 118.89303991370124}, "feature": {"sight_features": "", "sight_content": ""}}, {"title": "乐亭洪洲生态旅游度假村", "address": "新汽车站南1.5公里东行", "image": "", "rank": 48, "time": 4.5, "location": {"lat": 34.80217296011694, "lng": 116.08141399760524}, "feature": {"sight_features": "", "sight_content": ""}}, {"title": "赵蔡庄度假村", "address": "新汽车站南行2公里路东，赵蔡庄生态旅游度假村", "image": "", "rank": 49, "time": 2, "location": {"lat": 39.30690232738774, "lng": 115.86499398800564}, "feature": {"sight_features": "", "sight_content": ""}}, {"title": "会善牙馆", "address": "和顺路附近", "image": "", "rank": 50, "time": 2, "location": {"lat": 38.91883022197748, "lng": 115.45808313514836}, "feature": {"sight_features": "", "sight_content": ""}}, {"title": "奇美度假村", "address": "乐亭浅水湾浴场心悦宾馆东行20米", "image": "", "rank": 51, "time": 2, "location": {"lat": 39.160608911960296, "lng": 118.96570617481123}, "feature": {"sight_features": "", "sight_content": ""}}, {"title": "天顺度假村", "address": "唐山市乐亭县浅水湾浴场海天公寓西行50米北京人之家隔壁", "image": "", "rank": 52, "time": 2, "location": {"lat": 39.16183098143531, "lng": 118.96678366442299}, "feature": {"sight_features": "", "sight_content": ""}}, {"title": "唐山乐亭浅水湾富和园海边度假村", "address": "唐山乐亭县海港开发区浅水湾浴场南6", "image": "", "rank": 53, "time": 2.5, "location": {"lat": 39.16197996343132, "lng": 118.96900912739171}, "feature": {"sight_features": "", "sight_content": ""}}, {"title": "陶乐儿童乐园", "address": "大钊路58", "image": "", "rank": 54, "time": 2, "location": {"lat": 39.42724364312651, "lng": 118.89830754487275}, "feature": {"sight_features": "", "sight_content": ""}}, {"title": "海浪屿度假村", "address": "河北省唐山市乐亭县浅水湾浴场南行30米", "image": "", "rank": 55, "time": 2, "location": {"lat": 39.161770152986264, "lng": 118.96900912739171}, "feature": {"sight_features": "", "sight_content": ""}}, {"title": "水上乐园", "address": "乐亭县惠元路", "image": "", "rank": 56, "time": 2, "location": {"lat": 39.424883125010005, "lng": 118.92039935848292}, "feature": {"sight_features": "", "sight_content": ""}}, {"title": "伊澜阁度假村", "address": "唐山乐亭县海港开发区浅水湾浴场南12号", "image": "", "rank": 57, "time": 2, "location": {"lat": 39.16318762134538, "lng": 118.96946234947066}, "feature": {"sight_features": "", "sight_content": ""}}, {"title": "金海湾度假村", "address": "唐山市乐亭县打网岗岛浅水湾浴场", "image": "", "rank": 58, "time": 2, "location": {"lat": 39.16197996343132, "lng": 118.96900912739171}, "feature": {"sight_features": "", "sight_content": ""}}, {"title": "蓝海度假村", "address": "蓝海宾馆附近", "image": "", "rank": 59, "time": 2, "location": {"lat": 39.95909694625487, "lng": 116.46037715930066}, "feature": {"sight_features": "", "sight_content": ""}}, {"title": "千年红度假村", "address": "乐亭河北省唐山市乐亭县新戴河浅水湾浴场", "image": "", "rank": 60, "time": 2, "location": {"lat": 39.16197996343132, "lng": 118.96900912739171}, "feature": {"sight_features": "", "sight_content": ""}}]}