{"cityName": "乐业", "days": 2, "cityImage": "", "spots": [{"title": "大石围天坑群", "address": "百色市乐业县与河池市凤山县境内", "image": "", "rank": 1, "time": 3.0, "location": {"lat": 24.783216467052593, "lng": 106.56342972214655}, "feature": {"sight_features": "特色1 参观壮观密集的天坑群，感受大自然的神奇造化。", "sight_content": "【世界地质公园·乐业大石围天坑】\n广西乐业大石围天坑群，世界地质公园、国际岩溶与洞穴探险科考基地、国家AAAA级景区、中国国家地质公园、中国国家森林公园、中国青少年科学考察探险基地、中国兰花之乡，被誉为“世界天坑博物馆”。\n百色大石围天坑景区位于乐业县同乐镇刷把村百岩脚屯，形成于大约6500万年以前，是一块鲜为人知的秘境，集险、奇、峻、雄、秀、美于一体，是世界上罕见的旅游奇观。\n大石围天坑东西走向长600多米，南北走向宽420米，垂直深度613米，象个巨大的火山口，四周似刀削的悬崖峭壁，异常险峻。大石围天坑底部有人类未涉足过的地下原始森林，面积约9.6万平方米，是世界上最大的地下原始森林之一。地下原始森林树木粗壮、高耸，有好多酸枣树要三人合抱才行。\n天坑底部青苔遍布，灌木丛生，发现有比世界上与恐龙时代同期生长的国家一级保护植物桫椤还古老的短肠蕨类植物，稀有绿色兰花，还有我国发现的面积500多平方米的带刺方竹等。在科考中还发现许多稀有动物，象盲鱼、白色毛头鹰、透明虾、中华溪蟹、幽灵蜘蛛等，其中中华溪蟹、幽灵蜘蛛被确认为新物种。\n大石围天坑地下洞口宽约20米，高约40米，地下溶洞中，巨大的石笋、石柱、石瀑、石帘等千姿百态，晶莹剔透，犹如一片巨大的宝藏，铺满晶莹闪烁的宝石，令人惊叹。洞内有两条地下河，水流湍急，最神奇的是河水一热一冷。在乐业县“飞猫”探险队的协助下，国家及广西区科考组几次进入大石围天坑底部考察，目前考察了约6公里长度，至于地下河还有多长？地下河的源头、出口在哪里？为什么河水一热一冷？都还是个谜，尚待后人去探明。"}}, {"title": "罗妹莲花洞", "address": "百色市乐业县县城西南1公里的乐雅公路旁", "image": "", "rank": 2, "time": 1.5, "location": {"lat": 24.783216467052593, "lng": 106.56342972214655}, "feature": {"sight_features": "特色1 参观天然的钟乳石莲花盆和巨型“盆中树”，感叹大自然的鬼斧神工。", "sight_content": "罗妹莲花洞洞内分为六大景区，有59个景点，景观以复合型为主，形态各异，惟妙惟肖，栩栩如生。有高山飞瀑、石柱林、盾帐，飞禽走兽，花鸟虫鱼、渔家村寨、古树参天、天山雪景等景致，令人叹为观止。洞内莲花盆共有200多个，盆中盆有600多个，其中最大的莲花盆直径达9.4米，称为莲花盆之王，排名世界前茅。整个洞内景观奇绝，是目前世界上少有的莲花洞景，景观旅游价值极高，开发潜力极大。\n\n罗妹莲花洞的莲花盆与众不同，盆盆相叠，盆中有盆，盆中有柱，盆中长“树”，奇景不断。整个罗妹洞的大小莲花盆共计296个，若加上盆中盆的数量则达600多个，属世界上最大的莲花盆群体之一。洞中的“莲花盆之王”，形状独特，精美无比，长约9米，宽4.44米，是世界上最大的莲花盆之一。"}}, {"title": "乐业-凤山世界地质公园", "address": "百色市乐业县（部分属于河池市凤山县）", "image": "", "rank": 3, "time": 4.5, "location": {"lat": 24.783216467052593, "lng": 106.56342972214655}, "feature": {"sight_features": "", "sight_content": ""}}, {"title": "穿洞天坑", "address": "百色市乐业县刷把村竹林坝屯", "image": "", "rank": 4, "time": 2.5, "location": {"lat": 24.841766156658483, "lng": 106.49129793127948}, "feature": {"sight_features": "特色1 集溶洞、地下河、光柱、原始森林于一体！ 特色2 穿洞天坑底部西南端的厅堂式洞穴顶部有一个小天窗，如月牙镶嵌在洞顶，形成“天使之吻”的奇观！ 特色3 穿洞天坑的溶洞里有天坑珍惜植物标本！", "sight_content": "穿洞天坑地处乐业县大石围天坑群景区，距县城约18公里。约200多万年前形成于峰峦之中。穿洞天坑呈多边形，长短轴分为370米和270米，顶口面积为7.3万平方米，底部面积3万平方米。\n穿洞天坑呈多边形，由6座山峰围成，是乐业大石围天坑群中峰体多的天坑，属世界六大天坑之一。\n\n西南侧有一个直通坑底的溶洞——穿洞，天坑因此而得名，是大石围天坑群中可通过溶洞进入底部的天坑。坑底西南端的厅堂式洞穴顶部有一个小天窗，如月牙镶嵌在洞顶，形成“天使之吻”的奇特景观。\n光柱自108米高处射下，映衬洞厅的宽大与空旷，令人赞叹。该景点集溶洞、地下河、光柱、原始森林于一体，是寻幽览胜的好去处。"}}, {"title": "布柳河峡谷漂流", "address": "百色市乐业县新化镇", "image": "", "rank": 5, "time": 2, "location": {"lat": 24.679642972405198, "lng": 106.68759178135487}, "feature": {"sight_features": "", "sight_content": ""}}, {"title": "营盘山", "address": "广西壮族自治区百色市乐业县", "image": "", "rank": 6, "time": 2, "location": {"lat": 24.783216467052593, "lng": 106.56342972214655}, "feature": {"sight_features": "", "sight_content": ""}}, {"title": "乐业-凤山地质公园天坑博物馆", "address": "同乐镇刷把村北边", "image": "", "rank": 7, "time": 1.5, "location": {"lat": 24.841766156658483, "lng": 106.49129793127948}, "feature": {"sight_features": "", "sight_content": ""}}, {"title": "乐业大石围", "address": "广西壮族自治区百色市乐业县同乐镇刷把村北边", "image": "", "rank": 8, "time": 1.5, "location": {"lat": 24.841766156658483, "lng": 106.49129793127948}, "feature": {"sight_features": "", "sight_content": ""}}, {"title": "国家地质公园", "address": "广西壮族自治区百色市乐业县", "image": "", "rank": 9, "time": 3.0, "location": {"lat": 24.783216467052593, "lng": 106.56342972214655}, "feature": {"sight_features": "", "sight_content": ""}}, {"title": "布柳河仙人桥景区", "address": "广西壮族自治区乐业县新化乡磨里村", "image": "", "rank": 10, "time": 2, "location": {"lat": 24.664531443104107, "lng": 106.60646808798003}, "feature": {"sight_features": "", "sight_content": ""}}, {"title": "文件档案信息查阅服务中心", "address": "三乐街186号", "image": "", "rank": 11, "time": 2, "location": {"lat": 24.793185566627116, "lng": 106.56882937278554}, "feature": {"sight_features": "", "sight_content": ""}}, {"title": "凤山世界地质公园博物馆", "address": "凤山206省道附近", "image": "", "rank": 12, "time": 2, "location": {"lat": 24.553217796777115, "lng": 107.04841983631258}, "feature": {"sight_features": "", "sight_content": ""}}, {"title": "红七、八军会师地", "address": "广西壮族自治区乐业县三乐街 533200", "image": "", "rank": 13, "time": 2, "location": {"lat": 24.790680372029357, "lng": 106.56799212599965}, "feature": {"sight_features": "", "sight_content": ""}}, {"title": "龙云山茶博园", "address": "百色市乐业县", "image": "", "rank": 14, "time": 2, "location": {"lat": 24.783216467052593, "lng": 106.56342972214655}, "feature": {"sight_features": "", "sight_content": ""}}, {"title": "欢乐谷儿童乐园", "address": "同乐镇广场中心花园", "image": "", "rank": 15, "time": 2, "location": {"lat": 24.784489099836367, "lng": 106.56489776714606}, "feature": {"sight_features": "", "sight_content": ""}}, {"title": "龙角山", "address": "百色市乐业县永乐街257号", "image": "", "rank": 16, "time": 2, "location": {"lat": 24.789888286413397, "lng": 106.5698137099122}, "feature": {"sight_features": "", "sight_content": ""}}, {"title": "儿童欢乐大世界", "address": "三乐南路与兴乐路交叉口北200米", "image": "", "rank": 17, "time": 2, "location": {"lat": 24.78511003782819, "lng": 106.56523870822261}, "feature": {"sight_features": "", "sight_content": ""}}, {"title": "罗妹广场", "address": "广西壮族自治区百色市乐业县同乐镇凤山地质公园天坑博物馆", "image": "", "rank": 18, "time": 2, "location": {"lat": 24.776817562246183, "lng": 106.55895060738366}, "feature": {"sight_features": "", "sight_content": ""}}, {"title": "档案局(馆)", "address": "三乐街186号", "image": "", "rank": 19, "time": 2, "location": {"lat": 24.793185566627116, "lng": 106.56882937278554}, "feature": {"sight_features": "", "sight_content": ""}}, {"title": "布柳河仙人桥峡谷漂流", "address": "大石围天坑群景区内", "image": "", "rank": 20, "time": 2, "location": {"lat": 24.776489535683336, "lng": 106.55876600919466}, "feature": {"sight_features": "", "sight_content": ""}}, {"title": "百色市综合规划设计院(乐业分院)", "address": "兴乐路美华大酒店附近", "image": "", "rank": 21, "time": 1.0, "location": {"lat": 24.785925321058528, "lng": 106.56994773709424}, "feature": {"sight_features": "", "sight_content": ""}}, {"title": "百逢农家乐", "address": "206省道附近", "image": "", "rank": 22, "time": 2, "location": {"lat": 40.08163878542396, "lng": 117.10435023437643}, "feature": {"sight_features": "", "sight_content": ""}}, {"title": "时代商业广场", "address": "广西壮族自治区乐业县三乐南路", "image": "", "rank": 23, "time": 2, "location": {"lat": 24.786569710231255, "lng": 106.56667571047863}, "feature": {"sight_features": "", "sight_content": ""}}, {"title": "东兰坳", "address": "百色市-乐业县", "image": "", "rank": 24, "time": 2, "location": {"lat": 24.783216467052593, "lng": 106.56342972214655}, "feature": {"sight_features": "", "sight_content": ""}}]}