{"cityName": "乐至", "days": 2, "cityImage": "", "spots": [{"title": "陈毅故里", "address": "资阳市乐至县劳动镇正沟湾", "image": "", "rank": 1, "time": 1.5, "location": {"lat": 30.396248114108314, "lng": 104.96365814687861}, "feature": {"sight_features": "", "sight_content": ""}}, {"title": "乐至报国寺", "address": "乐至县城东北二十公里龙门乡", "image": "", "rank": 2, "time": 1.5, "location": {"lat": 30.34959641800733, "lng": 105.08590546434021}, "feature": {"sight_features": "", "sight_content": ""}}, {"title": "鳄鱼漆", "address": "058县道附近", "image": "", "rank": 3, "time": 2, "location": {"lat": 47.26894780666635, "lng": 123.08299317172614}, "feature": {"sight_features": "", "sight_content": ""}}, {"title": "乐至县童家镇志成家庭农场", "address": "童家镇新团大石沟村五组", "image": "", "rank": 4, "time": 2, "location": {"lat": 30.244928764007444, "lng": 104.92744508204146}, "feature": {"sight_features": "", "sight_content": ""}}, {"title": "路孔古镇朝阳洞", "address": "重庆地区荣昌县路孔古镇境内 642350", "image": "", "rank": 5, "time": 2, "location": {"lat": 29.471195885653362, "lng": 105.51265645524255}, "feature": {"sight_features": "", "sight_content": ""}}, {"title": "劳动镇影剧院", "address": "乐至县劳动镇卫生院附近", "image": "", "rank": 6, "time": 2, "location": {"lat": 30.382968187264783, "lng": 104.97856507586732}, "feature": {"sight_features": "", "sight_content": ""}}, {"title": "高寺观音寺", "address": "老街村", "image": "", "rank": 7, "time": 2, "location": {"lat": 35.43341203194261, "lng": 119.47352259146822}, "feature": {"sight_features": "", "sight_content": ""}}, {"title": "鲁卡奇儿童乐园", "address": "四川省资阳市乐至县帅乡大道676", "image": "", "rank": 8, "time": 2, "location": {"lat": 30.27863355379347, "lng": 105.02962416727453}, "feature": {"sight_features": "", "sight_content": ""}}, {"title": "开心玩国儿童乐园", "address": "四川省资阳市乐至县通达路", "image": "", "rank": 9, "time": 2, "location": {"lat": 30.27767405043492, "lng": 105.0297679554443}, "feature": {"sight_features": "", "sight_content": ""}}, {"title": "嘻多哆儿童乐园", "address": "文庙街126号附近", "image": "", "rank": 10, "time": 2, "location": {"lat": 29.604831211343118, "lng": 103.4941079569543}, "feature": {"sight_features": "", "sight_content": ""}}, {"title": "禅林寺", "address": "资阳市乐至县", "image": "", "rank": 11, "time": 1.0, "location": {"lat": 30.28234834600031, "lng": 105.02747697007167}, "feature": {"sight_features": "", "sight_content": ""}}, {"title": "邓家祠堂", "address": "资阳市乐至县一零六省道", "image": "", "rank": 12, "time": null, "location": {"lat": 30.28234834600031, "lng": 105.02747697007167}, "feature": {"sight_features": "", "sight_content": ""}}, {"title": "乐至花香休闲度假村", "address": "四川省资阳市乐至县孔雀乡孔雀寺村5组", "image": "", "rank": 13, "time": 2, "location": {"lat": 30.23243048429002, "lng": 105.07118575299944}, "feature": {"sight_features": "", "sight_content": ""}}, {"title": "谢无量广场", "address": "天池镇天童大道", "image": "", "rank": 14, "time": 2, "location": {"lat": 30.299853248790395, "lng": 104.99752515752044}, "feature": {"sight_features": "", "sight_content": ""}}, {"title": "寇公广场", "address": "千业路与帅乡大道交叉口西北100米", "image": "", "rank": 15, "time": 2, "location": {"lat": 30.278250661743805, "lng": 105.02291998299927}, "feature": {"sight_features": "", "sight_content": ""}}, {"title": "融尚水族馆", "address": "四川省资阳市乐至县外西街60号", "image": "", "rank": 16, "time": 2, "location": {"lat": 30.288233074490137, "lng": 105.02730054286951}, "feature": {"sight_features": "", "sight_content": ""}}, {"title": "陈毅生平事迹陈列馆", "address": "四川省资阳市乐至县劳动镇旧居村陈家湾", "image": "", "rank": 17, "time": 2, "location": {"lat": 30.39136394417237, "lng": 104.95684347731375}, "feature": {"sight_features": "", "sight_content": ""}}, {"title": "唐家祠堂", "address": "资阳市乐至县乐至--陈毅故居", "image": "", "rank": 18, "time": 2.5, "location": {"lat": 30.386069365734826, "lng": 104.96063808597442}, "feature": {"sight_features": "", "sight_content": ""}}, {"title": "时都乐园", "address": "106省道", "image": "", "rank": 19, "time": 2, "location": {"lat": 41.7055623287482, "lng": 122.68623993431082}, "feature": {"sight_features": "", "sight_content": ""}}, {"title": "图书馆(隆泰路店)", "address": "隆泰路", "image": "", "rank": 20, "time": 2, "location": {"lat": 42.538654787547856, "lng": 125.69405715807481}, "feature": {"sight_features": "", "sight_content": ""}}, {"title": "陈毅故居文物陈列馆", "address": "陈毅故居东南侧", "image": "", "rank": 21, "time": 2, "location": {"lat": 30.386069365734826, "lng": 104.96063808597442}, "feature": {"sight_features": "", "sight_content": ""}}, {"title": "陈毅生态园", "address": "319国道", "image": "", "rank": 22, "time": 2, "location": {"lat": 25.761668573925817, "lng": 116.38626783390552}, "feature": {"sight_features": "", "sight_content": ""}}, {"title": "乐至县图书馆(红星巷店)", "address": "红星巷38号", "image": "", "rank": 23, "time": 2, "location": {"lat": 36.04059971180307, "lng": 103.87007462207178}, "feature": {"sight_features": "", "sight_content": ""}}, {"title": "仙鹤观游乐场", "address": "319国道", "image": "", "rank": 24, "time": 2, "location": {"lat": 25.761668573925817, "lng": 116.38626783390552}, "feature": {"sight_features": "", "sight_content": ""}}, {"title": "鳄鱼漆", "address": "帅乡大道770附近", "image": "", "rank": 25, "time": 2, "location": {"lat": 30.279071067378347, "lng": 105.02952316210241}, "feature": {"sight_features": "", "sight_content": ""}}, {"title": "倩女幽魂", "address": "丛林春天", "image": "", "rank": 26, "time": 2, "location": {"lat": 30.290162582099903, "lng": 105.02195731210288}, "feature": {"sight_features": "", "sight_content": ""}}, {"title": "乐至游乐园", "address": "天池镇乐府江南", "image": "", "rank": 27, "time": 4.5, "location": {"lat": 30.28315471670192, "lng": 105.02547242737701}, "feature": {"sight_features": "", "sight_content": ""}}, {"title": "乐至影剧院", "address": "公园路与宏扬街交叉口东北50米", "image": "", "rank": 28, "time": 2, "location": {"lat": 30.282432131757897, "lng": 105.03532955889057}, "feature": {"sight_features": "", "sight_content": ""}}, {"title": "乐至县润和家庭农场", "address": "G319孔雀乡政府西北侧500米", "image": "", "rank": 29, "time": 2, "location": {"lat": 31.31465507469192, "lng": 106.79978412245502}, "feature": {"sight_features": "", "sight_content": ""}}, {"title": "马鞍山休闲农庄", "address": "孔雀乡马鞍山村三组", "image": "", "rank": 30, "time": 12.0, "location": {"lat": 30.2106610434497, "lng": 105.07173875615952}, "feature": {"sight_features": "", "sight_content": ""}}]}