{"cityName": "廉江", "days": 2, "cityImage": "", "spots": [{"title": "鹤地水库风景区", "address": "湛江市廉江市河唇镇", "image": "", "rank": 1, "time": null, "location": {"lat": 21.739441157278346, "lng": 110.30239514911909}, "feature": {"sight_features": "", "sight_content": ""}}, {"title": "谢鞋山", "address": "湛江市廉江市廉城镇谢鞋村", "image": "", "rank": 2, "time": 2, "location": {"lat": 21.617086814684534, "lng": 110.28387688376598}, "feature": {"sight_features": "", "sight_content": ""}}, {"title": "塘山岭生态公园", "address": "湛江市廉江市海军路塘山岭", "image": "", "rank": 3, "time": 2, "location": {"lat": 21.630251149378054, "lng": 110.29507025909481}, "feature": {"sight_features": "", "sight_content": ""}}, {"title": "谢鞋山野生荔枝林", "address": "在廉江市廉城镇东南5公里的谢旺村", "image": "", "rank": 4, "time": 2, "location": {"lat": 21.617086814684534, "lng": 110.32879215925004}, "feature": {"sight_features": "", "sight_content": ""}}, {"title": "廉江植物园", "address": "287省道附近", "image": "", "rank": 5, "time": 3.5, "location": {"lat": 21.51929731047568, "lng": 110.26663364001601}, "feature": {"sight_features": "", "sight_content": ""}}, {"title": "Future", "address": "百信广场5楼", "image": "", "rank": 6, "time": 3.0, "location": {"lat": 30.27818263090644, "lng": 109.49081070117461}, "feature": {"sight_features": "", "sight_content": ""}}, {"title": "真人游戏俱乐部", "address": "廉江大道中68号百信国际广场F5(百信国际广场F5)", "image": "", "rank": 7, "time": 2, "location": {"lat": 21.60781229789399, "lng": 110.28939869497124}, "feature": {"sight_features": "", "sight_content": ""}}, {"title": "晨光农场机务队", "address": "国防路西150米", "image": "", "rank": 8, "time": 2, "location": {"lat": 42.38960069334583, "lng": 126.80727241319168}, "feature": {"sight_features": "", "sight_content": ""}}, {"title": "示范农场", "address": "廉江中学后面", "image": "", "rank": 9, "time": 2, "location": {"lat": 21.631826486884442, "lng": 110.31046899058244}, "feature": {"sight_features": "", "sight_content": ""}}, {"title": "吉水镇文化站图书室", "address": "吉和路与679县道交叉口东50米", "image": "", "rank": 10, "time": 2, "location": {"lat": 21.770915788094896, "lng": 110.2069886694286}, "feature": {"sight_features": "", "sight_content": ""}}, {"title": "乐迪动漫水上乐园", "address": "286省道", "image": "", "rank": 11, "time": 2, "location": {"lat": 21.32993297103229, "lng": 110.534746393963}, "feature": {"sight_features": "", "sight_content": ""}}, {"title": "石岭影剧院", "address": "跃进街附近", "image": "", "rank": 12, "time": 2, "location": {"lat": 38.026155395114586, "lng": 115.09348732715233}, "feature": {"sight_features": "", "sight_content": ""}}, {"title": "福龙寺", "address": "长谷线西50米", "image": "", "rank": 13, "time": 2, "location": {"lat": 21.83272298483742, "lng": 110.03194922267858}, "feature": {"sight_features": "", "sight_content": ""}}, {"title": "谭氏宗祠", "address": "325国道附近", "image": "", "rank": 14, "time": 2, "location": {"lat": 23.010828411485836, "lng": 113.10968514930308}, "feature": {"sight_features": "", "sight_content": ""}}, {"title": "陈信材纪念馆", "address": "新民学校附近", "image": "", "rank": 15, "time": 2, "location": {"lat": 35.99107614217846, "lng": 111.3691195224819}, "feature": {"sight_features": "", "sight_content": ""}}, {"title": "绿源跑马场", "address": "合江下村垌村(合江桥)", "image": "", "rank": 16, "time": 2, "location": {"lat": 28.764030509646016, "lng": 105.72878895558138}, "feature": {"sight_features": "", "sight_content": ""}}, {"title": "老戏院", "address": "东环路与长安一路交叉口西50米", "image": "", "rank": 17, "time": 1.0, "location": {"lat": 21.4645901566673, "lng": 110.03100750026701}, "feature": {"sight_features": "", "sight_content": ""}}, {"title": "廉江宏达农家乐园", "address": "广东省廉江市深水垌村 524400", "image": "", "rank": 18, "time": 2.5, "location": {"lat": 21.605949398577025, "lng": 110.27191279195394}, "feature": {"sight_features": "", "sight_content": ""}}, {"title": "同安古堡", "address": "广东省廉江市青平镇多别村委会所属的城地村 524449", "image": "", "rank": 19, "time": 2, "location": {"lat": 21.635026496696486, "lng": 109.92391957789816}, "feature": {"sight_features": "", "sight_content": ""}}, {"title": "廉江新民塘底村", "address": "广东省廉江市新民镇塘底村 524441", "image": "", "rank": 20, "time": null, "location": {"lat": 21.585533319402717, "lng": 110.2007671590788}, "feature": {"sight_features": "", "sight_content": ""}}, {"title": "荔枝林口", "address": "广东省廉江市廉江谢鞋山 524400", "image": "", "rank": 21, "time": 2, "location": {"lat": 21.602811675124023, "lng": 110.35376728021684}, "feature": {"sight_features": "", "sight_content": ""}}, {"title": "双峰嶂", "address": "广东省廉江市塘蓬镇 524469", "image": "", "rank": 22, "time": 1.0, "location": {"lat": 21.80819058328511, "lng": 110.13383193712754}, "feature": {"sight_features": "", "sight_content": ""}}, {"title": "梦幻王国", "address": "湛江市廉江市廉江大道中68号百信国际广场F3", "image": "", "rank": 23, "time": 1.0, "location": {"lat": 21.60781229789399, "lng": 110.28939869497124}, "feature": {"sight_features": "", "sight_content": ""}}, {"title": "游乐设施店", "address": "湛江市廉江市广场路6号永福·御景城广场B1", "image": "", "rank": 24, "time": 2, "location": {"lat": 21.610295928278365, "lng": 110.28999035491215}, "feature": {"sight_features": "", "sight_content": ""}}, {"title": "永福儿童乐园", "address": "湛江市廉江市广场路6号永福·御景城广场F2", "image": "", "rank": 25, "time": 3.5, "location": {"lat": 21.610295928278365, "lng": 110.28999035491215}, "feature": {"sight_features": "", "sight_content": ""}}, {"title": "奇奇儿童乐园", "address": "广东省湛江市廉江市廉江大道南43号鑫源国际广场B1层", "image": "", "rank": 26, "time": 2, "location": {"lat": 21.59777717267632, "lng": 110.28811351892263}, "feature": {"sight_features": "", "sight_content": ""}}, {"title": "廉江市木头陂村高氏宗祠", "address": "广东省湛江市廉江市木头陂村", "image": "", "rank": 27, "time": 2.5, "location": {"lat": 21.615816495304664, "lng": 110.29244770646442}, "feature": {"sight_features": "", "sight_content": ""}}, {"title": "石岭基督教堂", "address": "广东省湛江市廉江市石岭镇创新路", "image": "", "rank": 28, "time": 2, "location": {"lat": 21.65512152214228, "lng": 110.13509386592787}, "feature": {"sight_features": "", "sight_content": ""}}, {"title": "雷府庙", "address": "长山镇徐村老村", "image": "", "rank": 29, "time": 2, "location": {"lat": 21.795308166032545, "lng": 109.98656588061718}, "feature": {"sight_features": "", "sight_content": ""}}, {"title": "九洲广场", "address": "青春东路与287省道交叉口西南100米", "image": "", "rank": 30, "time": 2, "location": {"lat": 31.909199228140412, "lng": 121.30903625505988}, "feature": {"sight_features": "", "sight_content": ""}}, {"title": "篮球公园", "address": "湛江市廉江市", "image": "", "rank": 31, "time": 2, "location": {"lat": 21.615816495304664, "lng": 110.29244770646442}, "feature": {"sight_features": "", "sight_content": ""}}, {"title": "森林动漫", "address": "湛江市廉江市廉江大道中68号百信国际广场B1", "image": "", "rank": 32, "time": 2.5, "location": {"lat": 21.60781229789399, "lng": 110.28939869497124}, "feature": {"sight_features": "", "sight_content": ""}}, {"title": "游乐设施", "address": "湛江市廉江市廉江大道中68号百信国际广场F2", "image": "", "rank": 33, "time": 2, "location": {"lat": 21.60781229789399, "lng": 110.28939869497124}, "feature": {"sight_features": "", "sight_content": ""}}, {"title": "佛香山观音寺", "address": "广东省湛江市廉江市X672(中山六路)", "image": "", "rank": 34, "time": 2, "location": {"lat": 21.637680667554342, "lng": 110.30429100313457}, "feature": {"sight_features": "", "sight_content": ""}}, {"title": "佛香山", "address": "广东省湛江市廉江市x672", "image": "", "rank": 35, "time": 2, "location": {"lat": 21.615816495304664, "lng": 110.29244770646442}, "feature": {"sight_features": "", "sight_content": ""}}, {"title": "9D虚拟现实体验馆", "address": "湛江市廉江市廉江大道中68号百信国际广场F4", "image": "", "rank": 36, "time": 2.0, "location": {"lat": 21.60781229789399, "lng": 110.28939869497124}, "feature": {"sight_features": "", "sight_content": ""}}, {"title": "菁薇祠康皇大帝庙", "address": "286省道附近", "image": "", "rank": 37, "time": 2, "location": {"lat": 21.32993297103229, "lng": 110.534746393963}, "feature": {"sight_features": "", "sight_content": ""}}, {"title": "南和", "address": "湛江市廉江市325国道附近", "image": "", "rank": 38, "time": 2, "location": {"lat": 21.628856346994308, "lng": 109.94801096387064}, "feature": {"sight_features": "", "sight_content": ""}}, {"title": "美景湖公园", "address": "廉安中路附近", "image": "", "rank": 39, "time": 2, "location": {"lat": 21.59984732720848, "lng": 110.27940305283612}, "feature": {"sight_features": "", "sight_content": ""}}, {"title": "山心村农民公园", "address": "农民公园附近", "image": "", "rank": 40, "time": 2, "location": {"lat": 35.625247784510584, "lng": 112.89986123454895}, "feature": {"sight_features": "", "sight_content": ""}}, {"title": "廉江解放战役革命烈士纪念碑", "address": "广东省湛江市廉江市西环路第四中学附近(百信国际广场西)", "image": "", "rank": 41, "time": 2.5, "location": {"lat": 21.60781229789399, "lng": 110.28939869497124}, "feature": {"sight_features": "", "sight_content": ""}}, {"title": "魔幻泡泡", "address": "广东省湛江市廉江市廉江大道南43号鑫源国际广场3层", "image": "", "rank": 42, "time": 2, "location": {"lat": 21.59777717267632, "lng": 110.28811351892263}, "feature": {"sight_features": "", "sight_content": ""}}, {"title": "营仔文化广场", "address": "广东省湛江市廉江市营仔镇东桥路", "image": "", "rank": 43, "time": 2, "location": {"lat": 21.493580448450388, "lng": 109.93915641137698}, "feature": {"sight_features": "", "sight_content": ""}}, {"title": "大厂村文化广场", "address": "广东省湛江市廉江市塘蓬镇大厂村", "image": "", "rank": 44, "time": null, "location": {"lat": 21.80819058328511, "lng": 110.13383193712754}, "feature": {"sight_features": "", "sight_content": ""}}, {"title": "鹤地水库展览馆", "address": "石埌村", "image": "", "rank": 45, "time": null, "location": {"lat": 22.69948240346709, "lng": 110.35729055929028}, "feature": {"sight_features": "", "sight_content": ""}}, {"title": "鹤地水库展览馆", "address": "石埌村", "image": "", "rank": 46, "time": 2, "location": {"lat": 22.69948240346709, "lng": 110.35729055929028}, "feature": {"sight_features": "", "sight_content": ""}}, {"title": "艺星书画馆", "address": "建设三路三巷", "image": "", "rank": 47, "time": 2, "location": {"lat": 21.620349506273364, "lng": 110.28708473274105}, "feature": {"sight_features": "", "sight_content": ""}}, {"title": "东升艺术馆", "address": "新兴路37号附近", "image": "", "rank": 48, "time": 2, "location": {"lat": 38.947078659815155, "lng": 116.91546264996244}, "feature": {"sight_features": "", "sight_content": ""}}, {"title": "十三区游乐城", "address": "创业南路22号", "image": "", "rank": 49, "time": 2, "location": {"lat": 21.862705906884216, "lng": 111.96263920331333}, "feature": {"sight_features": "", "sight_content": ""}}, {"title": "开心儿童乐园", "address": "新一中斜对面佳用超市二楼", "image": "", "rank": 50, "time": 2, "location": {"lat": 36.38201525409106, "lng": 114.4015625853776}, "feature": {"sight_features": "", "sight_content": ""}}, {"title": "阳光儿童乐园", "address": "罗州大道西罗湖新城(原永福清华园购物中心)", "image": "", "rank": 51, "time": 2, "location": {"lat": 22.55448487585574, "lng": 114.13743190157126}, "feature": {"sight_features": "", "sight_content": ""}}, {"title": "鹤地知青场", "address": "774乡道附近", "image": "", "rank": 52, "time": 2, "location": {"lat": 23.45978321563059, "lng": 113.20199601161399}, "feature": {"sight_features": "", "sight_content": ""}}, {"title": "廉江盆景园", "address": "286省道附近", "image": "", "rank": 53, "time": 1.0, "location": {"lat": 21.32993297103229, "lng": 110.534746393963}, "feature": {"sight_features": "", "sight_content": ""}}, {"title": "红湖农场新村仔", "address": "957乡道西150米", "image": "", "rank": 54, "time": 1.5, "location": {"lat": 22.60919886263197, "lng": 114.24644262262933}, "feature": {"sight_features": "", "sight_content": ""}}, {"title": "龙泉水上乐园", "address": "樟村低村岭(即雅居园正门斜上直入越180米)", "image": "", "rank": 55, "time": 2, "location": {"lat": 21.656067655192118, "lng": 110.71445896970326}, "feature": {"sight_features": "", "sight_content": ""}}, {"title": "保罗骑士", "address": "廉江大道中68号百信国际广场F1", "image": "", "rank": 56, "time": 2, "location": {"lat": 21.60781229789399, "lng": 110.28939869497124}, "feature": {"sight_features": "", "sight_content": ""}}, {"title": "橙子采摘园", "address": "石颈镇中街33号", "image": "", "rank": 57, "time": 2, "location": {"lat": 21.71032004539815, "lng": 110.02565536909117}, "feature": {"sight_features": "", "sight_content": ""}}, {"title": "廉江剧院", "address": "中山四路", "image": "", "rank": 58, "time": 2.0, "location": {"lat": 21.61801404712164, "lng": 110.29577383352932}, "feature": {"sight_features": "", "sight_content": ""}}, {"title": "鸿运农庄", "address": "951乡道附近", "image": "", "rank": 59, "time": 2, "location": {"lat": 23.250055378287843, "lng": 111.76752823474665}, "feature": {"sight_features": "", "sight_content": ""}}, {"title": "隆源农庄", "address": "676县道鸭塘林场西南700米", "image": "", "rank": 60, "time": 2, "location": {"lat": 21.636630263669215, "lng": 110.11889027156799}, "feature": {"sight_features": "", "sight_content": ""}}]}