{"cityName": "连平", "days": 2, "cityImage": "", "spots": [{"title": "九连山新河漂流", "address": "河源市连平县田源镇河头风景区", "image": "", "rank": 1, "time": 2, "location": {"lat": 24.252069193538794, "lng": 114.50858677605802}, "feature": {"sight_features": "", "sight_content": ""}}, {"title": "连平博物馆", "address": "河源市连平县元善镇教育示范幼儿园旁", "image": "", "rank": 2, "time": 2.5, "location": {"lat": 24.36920693957108, "lng": 114.49762205900686}, "feature": {"sight_features": "", "sight_content": ""}}, {"title": "白云楼", "address": "河源市大湖镇磐石村", "image": "", "rank": 3, "time": 2, "location": {"lat": 24.238931760018364, "lng": 114.82631668025566}, "feature": {"sight_features": "", "sight_content": ""}}, {"title": "好好味啤酒广场", "address": "广东省河源市连平县沿江南路68", "image": "", "rank": 4, "time": 2, "location": {"lat": 24.212491578585528, "lng": 114.73244996537825}, "feature": {"sight_features": "", "sight_content": ""}}, {"title": "叶氏罗山公祠堂", "address": "广东省河源市连平县Y155东坑村上楼队", "image": "", "rank": 5, "time": 2.5, "location": {"lat": 24.22180660563766, "lng": 114.3365112182694}, "feature": {"sight_features": "", "sight_content": ""}}, {"title": "上坣村显裔公赖氏祠堂", "address": "广东省河源市连平县S341波旺建材西对面路口进入100米处", "image": "", "rank": 6, "time": 1.5, "location": {"lat": 24.20050663318548, "lng": 114.73833781002786}, "feature": {"sight_features": "", "sight_content": ""}}, {"title": "河源市灵鹫禅寺", "address": "高莞镇徐村", "image": "", "rank": 7, "time": 3.0, "location": {"lat": 24.247881272612233, "lng": 114.7238095338842}, "feature": {"sight_features": "", "sight_content": ""}}, {"title": "牟爷祠", "address": "北园西直街与环城北路交叉口东100米", "image": "", "rank": 8, "time": 2.0, "location": {"lat": 24.378759370824394, "lng": 114.49741699382511}, "feature": {"sight_features": "", "sight_content": ""}}, {"title": "新祠堂", "address": "河源市连平县三零二乡道", "image": "", "rank": 9, "time": 1.5, "location": {"lat": 24.375808067413903, "lng": 114.49544419634952}, "feature": {"sight_features": "", "sight_content": ""}}, {"title": "宫保第遗址", "address": "广东省连平县元善镇瓦背一街", "image": "", "rank": 10, "time": 2.0, "location": {"lat": 24.35746573568816, "lng": 114.50261294111353}, "feature": {"sight_features": "", "sight_content": ""}}, {"title": "河源市白云寺", "address": "广东省河源市连平县Y341", "image": "", "rank": 11, "time": 7.5, "location": {"lat": 24.375808067413903, "lng": 114.49544419634952}, "feature": {"sight_features": "", "sight_content": ""}}, {"title": "大垇茶亭", "address": "广东省河源市连平县", "image": "", "rank": 12, "time": 7.5, "location": {"lat": 24.375808067413903, "lng": 114.49544419634952}, "feature": {"sight_features": "", "sight_content": ""}}, {"title": "忠信人民广场", "address": "北环路与栗园路交叉口东南150米", "image": "", "rank": 13, "time": 2, "location": {"lat": 24.21449411930552, "lng": 114.73131661284214}, "feature": {"sight_features": "", "sight_content": ""}}, {"title": "河源市崇兴寺", "address": "大广高速附近", "image": "", "rank": 14, "time": 3.0, "location": {"lat": 30.253799091964453, "lng": 115.04059321677478}, "feature": {"sight_features": "", "sight_content": ""}}, {"title": "儿童成长主题乐园", "address": "广东省河源市连平县栗园路", "image": "", "rank": 15, "time": 2, "location": {"lat": 24.213525807158117, "lng": 114.72935898505169}, "feature": {"sight_features": "", "sight_content": ""}}, {"title": "河源市回龙寺", "address": "东门路附近", "image": "", "rank": 16, "time": 3.0, "location": {"lat": 37.99070987718111, "lng": 114.70660897282872}, "feature": {"sight_features": "", "sight_content": ""}}, {"title": "麒麟山生态园", "address": "广东省河源市连平县Y233", "image": "", "rank": 17, "time": 2, "location": {"lat": 24.375808067413903, "lng": 114.49544419634952}, "feature": {"sight_features": "", "sight_content": ""}}, {"title": "欢乐堡儿童乐园", "address": "广东省河源市连平县南园大道东2号", "image": "", "rank": 18, "time": 2, "location": {"lat": 24.36749712029079, "lng": 114.50184363496993}, "feature": {"sight_features": "", "sight_content": ""}}, {"title": "开心儿童乐园", "address": "东园大道18号附近", "image": "", "rank": 19, "time": null, "location": {"lat": 22.544293733695334, "lng": 107.81813353570695}, "feature": {"sight_features": "", "sight_content": ""}}, {"title": "儿童游乐园", "address": "广东省河源市连平县大湖镇油村忠定北路大湖市场", "image": "", "rank": 20, "time": 2, "location": {"lat": 24.2419383882962, "lng": 114.8334801340002}, "feature": {"sight_features": "", "sight_content": ""}}, {"title": "共建广场", "address": "共建南路与164县道交叉口北200米", "image": "", "rank": 21, "time": 2, "location": {"lat": 24.20585641533067, "lng": 114.79214236829317}, "feature": {"sight_features": "", "sight_content": ""}}, {"title": "坳头文化广场", "address": "河源市连平县", "image": "", "rank": 22, "time": 2, "location": {"lat": 24.375808067413903, "lng": 114.49544419634952}, "feature": {"sight_features": "", "sight_content": ""}}, {"title": "三角文化广场", "address": "广东省河源市连平县三角镇政府东北", "image": "", "rank": 23, "time": 2, "location": {"lat": 24.21584189972758, "lng": 114.78741298831024}, "feature": {"sight_features": "", "sight_content": ""}}, {"title": "忠信镇花灯博物馆", "address": "广东省河源市连平县径口栗园路忠信人民广场忠信镇文化站", "image": "", "rank": 24, "time": 2, "location": {"lat": 24.2133597023045, "lng": 114.73112024235941}, "feature": {"sight_features": "", "sight_content": ""}}, {"title": "基督教三角福音堂", "address": "220乡道附近", "image": "", "rank": 25, "time": 2, "location": {"lat": 34.57398676576256, "lng": 117.11938445505251}, "feature": {"sight_features": "", "sight_content": ""}}, {"title": "忠信天主堂", "address": "忠信镇解放路149号", "image": "", "rank": 26, "time": 2, "location": {"lat": 24.215765742673835, "lng": 114.72079083301556}, "feature": {"sight_features": "", "sight_content": ""}}, {"title": "樱湖度假村", "address": "河源连平县105线附近", "image": "", "rank": 27, "time": null, "location": {"lat": 24.418119595682192, "lng": 114.56109658503291}, "feature": {"sight_features": "", "sight_content": ""}}, {"title": "塔岭烈士墓园", "address": "230省道附近", "image": "", "rank": 28, "time": 2, "location": {"lat": 36.0895617983312, "lng": 111.58252815779157}, "feature": {"sight_features": "", "sight_content": ""}}, {"title": "连平县图书馆", "address": "公园路4号", "image": "", "rank": 29, "time": 2, "location": {"lat": 40.584873559918414, "lng": 110.02480379159577}, "feature": {"sight_features": "", "sight_content": ""}}, {"title": "鹰嘴水蜜桃园", "address": "河源连平县上坪镇东阳村下新【105国道旁水口桥附近】", "image": "", "rank": 30, "time": 2, "location": {"lat": 24.473160748360968, "lng": 114.59310137510471}, "feature": {"sight_features": "", "sight_content": ""}}, {"title": "鹰嘴蜜桃基地", "address": "上坪镇古坑", "image": "", "rank": 31, "time": 2, "location": {"lat": 24.51962138099598, "lng": 114.6486025189692}, "feature": {"sight_features": "", "sight_content": ""}}, {"title": "畅乐园", "address": "忠信镇人民广场百信百一楼", "image": "", "rank": 32, "time": 2, "location": {"lat": 24.214191727368814, "lng": 114.73175172508186}, "feature": {"sight_features": "", "sight_content": ""}}, {"title": "新世纪管乐艺术团", "address": "忠和路", "image": "", "rank": 33, "time": 2, "location": {"lat": 24.217408668780177, "lng": 114.73691863464467}, "feature": {"sight_features": "", "sight_content": ""}}, {"title": "圆月山庄", "address": "连平大道中80号", "image": "", "rank": 34, "time": 2, "location": {"lat": 24.371940719582316, "lng": 114.50232307813516}, "feature": {"sight_features": "", "sight_content": ""}}, {"title": "黄牛石自然保护区", "address": "广东省连平县县北部", "image": "", "rank": 35, "time": 2, "location": {"lat": 24.375808067413903, "lng": 114.49544419634952}, "feature": {"sight_features": "", "sight_content": ""}}, {"title": "连平步行街", "address": "广东省连平县连平步行街", "image": "", "rank": 36, "time": 3.0, "location": {"lat": 24.374691796340443, "lng": 114.49724660413433}, "feature": {"sight_features": "", "sight_content": ""}}, {"title": "连平县城书情画意艺术馆", "address": "河源市-连平县-元善镇滨河西路东方酒店下侧", "image": "", "rank": 37, "time": 2, "location": {"lat": 24.372761951674317, "lng": 114.4960925258935}, "feature": {"sight_features": "", "sight_content": ""}}, {"title": "圣迹苍岩", "address": "河源市连平县内莞镇小洞村旅游区", "image": "", "rank": 38, "time": 2, "location": {"lat": 24.378288096780924, "lng": 114.59518074664766}, "feature": {"sight_features": "", "sight_content": ""}}]}