{"cityName": "凉城", "days": 2, "cityImage": "", "spots": [{"title": "岱海温泉城", "address": "乌兰察布市凉城县岱海镇岱海温泉城（三苏木地税所旁）", "image": "", "rank": 1, "time": 2, "location": {"lat": 40.63030574177466, "lng": 112.65690318353955}, "feature": {"sight_features": "", "sight_content": ""}}, {"title": "岱海滑雪场", "address": "乌兰察布凉城县岱海附近的三苏木乡中水塘村", "image": "", "rank": 2, "time": 2, "location": {"lat": 40.61158283368405, "lng": 112.66697267267904}, "feature": {"sight_features": "", "sight_content": ""}}, {"title": "凉城县会展中心", "address": "卓凉公路", "image": "", "rank": 3, "time": 2, "location": {"lat": 40.53234557282795, "lng": 112.52465263505455}, "feature": {"sight_features": "", "sight_content": ""}}, {"title": "景和露天温泉", "address": "岱海旅游区温泉村", "image": "", "rank": 4, "time": 2, "location": {"lat": 40.608905086963844, "lng": 112.63738006914531}, "feature": {"sight_features": "", "sight_content": ""}}, {"title": "段利明岱海野生渔业", "address": "胜利街附近", "image": "", "rank": 5, "time": 2, "location": {"lat": 39.81196788892508, "lng": 116.4029139949128}, "feature": {"sight_features": "", "sight_content": ""}}, {"title": "岱海遗址群", "address": "内蒙古自治区凉城县岱海镇 013750", "image": "", "rank": 6, "time": 2, "location": {"lat": 40.54521318375777, "lng": 112.51423549449628}, "feature": {"sight_features": "", "sight_content": ""}}, {"title": "拓跋珪公园", "address": "卓凉公路", "image": "", "rank": 7, "time": 2, "location": {"lat": 40.53234557282795, "lng": 112.52465263505455}, "feature": {"sight_features": "", "sight_content": ""}}, {"title": "拓跋珪广场", "address": "内蒙古自治区乌兰察布市凉城县", "image": "", "rank": 8, "time": 2, "location": {"lat": 40.53716312519976, "lng": 112.51060018863981}, "feature": {"sight_features": "", "sight_content": ""}}, {"title": "天主堂", "address": "宣德街与新华路交叉口北100米", "image": "", "rank": 9, "time": 0.4, "location": {"lat": 40.532171404976005, "lng": 112.50622318336448}, "feature": {"sight_features": "", "sight_content": ""}}, {"title": "凉城县爱琦儿儿童成长乐园", "address": "参合路全宝超市西侧85米", "image": "", "rank": 10, "time": 2, "location": {"lat": 40.53926065313588, "lng": 112.51151421808943}, "feature": {"sight_features": "", "sight_content": ""}}, {"title": "岱海旅游中心", "address": "一零二省道", "image": "", "rank": 11, "time": 2, "location": {"lat": 30.886651993617935, "lng": 119.64676799551157}, "feature": {"sight_features": "", "sight_content": ""}}, {"title": "多伦吐力根天堂草原漂流", "address": "中部锡林郭勒大草原南端多伦县城北约40公里", "image": "", "rank": 12, "time": 2, "location": {"lat": 42.20892086421072, "lng": 116.49250878203628}, "feature": {"sight_features": "", "sight_content": ""}}, {"title": "密室逃脱", "address": "新华路电影院巷由西向东100米(明磊律师事务所巷内)", "image": "", "rank": 13, "time": 2, "location": {"lat": 40.53389279663053, "lng": 112.50651981552184}, "feature": {"sight_features": "", "sight_content": ""}}, {"title": "有有岱海野生渔业", "address": "胜利街附近", "image": "", "rank": 14, "time": 2, "location": {"lat": 39.81196788892508, "lng": 116.4029139949128}, "feature": {"sight_features": "", "sight_content": ""}}, {"title": "缸房窑村", "address": "乌兰察布市-凉城县-永兴--双古城", "image": "", "rank": 15, "time": 2, "location": {"lat": 40.520531578336424, "lng": 112.72820650858066}, "feature": {"sight_features": "", "sight_content": ""}}, {"title": "缸房沟", "address": "乌兰察布市-凉城县", "image": "", "rank": 16, "time": 2, "location": {"lat": 40.53716312519976, "lng": 112.51060018863981}, "feature": {"sight_features": "", "sight_content": ""}}]}