{"cityName": "梁山", "days": 2, "cityImage": "", "spots": [{"title": "水泊梁山", "address": "济宁市梁山县城东南隅", "image": "", "rank": 1, "time": 4.5, "location": {"lat": 35.80806388661061, "lng": 116.10262029577927}, "feature": {"sight_features": "特色1 在《水浒传》故事的发祥地游览梁山山寨。 特色2 感受水浒文化，欣赏水浒情景剧与民间艺术表演，去古刹莲台寺礼佛祈福。", "sight_content": "水泊梁山是水浒故事的发祥地，位于山东省西南部梁山县城，隶属济宁市，因古典名著《水浒传》而出名，AAAA级旅游区，省森林公园，省地质公园。\n\n梁山历史悠久，早在远古时期，先人就在此稼穑渔猎，繁衍生息。因汉文帝次子梁孝王围猎于此而得名，北宋宣和元年（公元1119年）朝廷统治腐朽、民不聊 生，宋江广结天下英雄好汉，凭借水泊天险啸聚梁山，演绎了一幕幕感天地、泣鬼神的历史活剧。水浒故事家喻户晓，妇孺皆知，梁山由此成为中外游人向往的旅游 胜地。\n在这里您可充分体验梁山水浒文化魅力和好汉遗风；观看大型水浒场景演出；聆听具有传统水浒说唱形式的山东快书、莲花落；欣赏“威风锣鼓”“好汉迎宾”气势恢宏的表演；观赏梁山武术及民风习俗斗鸡、斗羊等精彩演出；感受大碗喝酒、大块吃肉的水浒豪情。\n梁山——这一名播中外的风景名胜区，将以世界级旅游目的地的风采，恭迎四海宾朋上梁山，做好汉！"}}, {"title": "梁山水浒酒文化体验馆", "address": "济宁市梁山县杏花村大酒店附近", "image": "", "rank": 2, "time": 4.5, "location": {"lat": 35.78129480919908, "lng": 116.09694032261596}, "feature": {"sight_features": "特色1 进山寨寻觅好汉踪迹，入酒馆体验英雄豪情", "sight_content": "水浒酒文化体验馆依照水浒原著描述进行场景复原，采用仿宋式民间建筑风格，以水浒酒楼、杏花村客栈、水浒酒文化体验馆、北宋民俗文化体验馆、历代酒器展览馆、水浒文化礼品展示馆为主要内容。\n再现了北宋时期的特色风土人情以及水浒英雄的豪迈情怀，在这里游客可以看到自原始社会到现代社会历朝历代酒器酒具数千件，亲身体验宋代的酿酒流程，品尝独具特色的水浒美酒。\n可以看到卖炊饼的武大郎、卖脆梨的小郓哥、风情万种的潘金莲、叫卖人肉包子的孙二娘、担着南北杂货的小货郎；可以看到民间艺人现场捏泥人、吹糖稀、剪纸、纺布、绣花、打锡壶、制陶等多种民俗手工艺。\n可以聆听浪子燕青与京城花魁李师师含情脉脉的琴箫合奏和快书《武松打虎》、琴书《燕青打擂》、坠子《李逵闹衙》等民间曲艺说唱。\n在这里游客可以将人民币兑换成铜钱银两到朱贵、顾大嫂的酒柜打几两酒切几斤大块牛肉，切身体验“大碗喝酒、大块吃肉”的水浒豪情，还可以有幸得到宋江哥哥、林冲、武松、李逵、鲁智深等梁山泊众首领当场敬酒、欣赏他们经典简短的水浒情景剧表演。"}}, {"title": "农家乐麻辣香兔", "address": "337省道胜大达面粉厂往东100米路北", "image": "", "rank": 3, "time": 2, "location": {"lat": 26.528371974369946, "lng": 108.9318816275556}, "feature": {"sight_features": "", "sight_content": ""}}, {"title": "马营湿地", "address": "倪楼村", "image": "", "rank": 4, "time": 2, "location": {"lat": 34.957867055005764, "lng": 117.20701933179062}, "feature": {"sight_features": "", "sight_content": ""}}, {"title": "团子映画", "address": "电视台路口南50米路东", "image": "", "rank": 5, "time": 2, "location": {"lat": 39.91371300359752, "lng": 116.47470840920332}, "feature": {"sight_features": "", "sight_content": ""}}, {"title": "郝山头精品采摘园", "address": "越山南路北50米", "image": "", "rank": 6, "time": 2, "location": {"lat": 35.797773444761894, "lng": 116.10694639228475}, "feature": {"sight_features": "", "sight_content": ""}}, {"title": "上林苑美术馆", "address": "礼仪路101号", "image": "", "rank": 7, "time": 2, "location": {"lat": 21.673069103538896, "lng": 110.94112597263793}, "feature": {"sight_features": "", "sight_content": ""}}, {"title": "打鱼人家垂钓园", "address": "220国道198号附近", "image": "", "rank": 8, "time": 2, "location": {"lat": 37.17596288433241, "lng": 117.3770162573979}, "feature": {"sight_features": "", "sight_content": ""}}, {"title": "聊城张自忠将军纪念馆", "address": "山东省临清市青年路 252600", "image": "", "rank": 9, "time": 2.5, "location": {"lat": 36.84043624689111, "lng": 115.73674094754855}, "feature": {"sight_features": "", "sight_content": ""}}, {"title": "梁山地质公园", "address": "山东省梁山县", "image": "", "rank": 10, "time": 3.0, "location": {"lat": 35.80806388661061, "lng": 116.10262029577927}, "feature": {"sight_features": "", "sight_content": ""}}, {"title": "嘟嘟乐儿童乐园", "address": "济宁市梁山县", "image": "", "rank": 11, "time": 2, "location": {"lat": 35.80806388661061, "lng": 116.10262029577927}, "feature": {"sight_features": "", "sight_content": ""}}, {"title": "天成教育博物馆", "address": "山东省济宁市梁山县S337", "image": "", "rank": 12, "time": 2, "location": {"lat": 35.80806388661061, "lng": 116.10262029577927}, "feature": {"sight_features": "", "sight_content": ""}}, {"title": "梁山抗日纪念馆", "address": "济宁市水泊街道独山村", "image": "", "rank": 13, "time": 4.5, "location": {"lat": 35.78094508936614, "lng": 116.10023509702307}, "feature": {"sight_features": "", "sight_content": ""}}, {"title": "欢乐谷儿童主题乐园", "address": "山东省济宁市梁山县水泊街道郝山头水泊南路锦绣城附近", "image": "", "rank": 14, "time": 2, "location": {"lat": 35.79009450807313, "lng": 116.1014974138918}, "feature": {"sight_features": "", "sight_content": ""}}, {"title": "梦缘度假村", "address": "337省道附近", "image": "", "rank": 15, "time": 2, "location": {"lat": 32.15389014139391, "lng": 119.04265762988193}, "feature": {"sight_features": "", "sight_content": ""}}, {"title": "三元度假村", "address": "越山南路仿宋街", "image": "", "rank": 16, "time": 2, "location": {"lat": 35.79740750892455, "lng": 116.10694639228475}, "feature": {"sight_features": "", "sight_content": ""}}, {"title": "梁山县基督教中心教堂", "address": "梁山县基督教中心教堂(西门)附近", "image": "", "rank": 17, "time": 2, "location": {"lat": 35.80631119441821, "lng": 116.1195111342834}, "feature": {"sight_features": "", "sight_content": ""}}, {"title": "梁山县水浒度假村", "address": "山东省济宁市梁山县拳铺镇实验幼儿园北200米", "image": "", "rank": 18, "time": 2, "location": {"lat": 35.66950141153523, "lng": 116.13661397288787}, "feature": {"sight_features": "", "sight_content": ""}}, {"title": "梁山寨广场", "address": "济宁市梁山县越山南路36号水泊梁山风景名胜区内", "image": "", "rank": 19, "time": 2, "location": {"lat": 35.794148231201326, "lng": 116.10934876035417}, "feature": {"sight_features": "", "sight_content": ""}}, {"title": "梁山县图书馆", "address": "人民中路41号", "image": "", "rank": 20, "time": 2, "location": {"lat": 30.918206672814417, "lng": 121.46628553648024}, "feature": {"sight_features": "", "sight_content": ""}}, {"title": "龙鲨梦幻水上乐园", "address": "新宋街南首路东", "image": "", "rank": 21, "time": 2, "location": {"lat": 35.80796538972515, "lng": 116.11001352978751}, "feature": {"sight_features": "", "sight_content": ""}}, {"title": "逸品画廊字画厅", "address": "县农行西50米路北", "image": "", "rank": 22, "time": 2, "location": {"lat": 27.126797661871485, "lng": 104.73470778420449}, "feature": {"sight_features": "", "sight_content": ""}}, {"title": "金牧小尾寒羊波尔山羊发展园", "address": "337省道附近", "image": "", "rank": 23, "time": 2, "location": {"lat": 32.15389014139391, "lng": 119.04265762988193}, "feature": {"sight_features": "", "sight_content": ""}}, {"title": "艺家画廊", "address": "水泊北路中国工商银行北100米路西", "image": "", "rank": 24, "time": 2, "location": {"lat": 39.8914215946257, "lng": 116.44438952027494}, "feature": {"sight_features": "", "sight_content": ""}}, {"title": "闻得轩画廊", "address": "水泊东路17号附近", "image": "", "rank": 25, "time": 2, "location": {"lat": 35.812885831669206, "lng": 116.1061348711718}, "feature": {"sight_features": "", "sight_content": ""}}, {"title": "机关配货", "address": "姜庄钢材市场88号附近", "image": "", "rank": 26, "time": 2, "location": {"lat": 35.74419464451214, "lng": 116.11708112804835}, "feature": {"sight_features": "", "sight_content": ""}}, {"title": "梁山县忠义钓具门市部", "address": "城关镇小二笨鸡店向北10米", "image": "", "rank": 27, "time": 2, "location": {"lat": 35.42140926600068, "lng": 116.57595723170789}, "feature": {"sight_features": "", "sight_content": ""}}, {"title": "梁山县温州步行街", "address": "山东省梁山县水泊东路", "image": "", "rank": 28, "time": 2, "location": {"lat": 35.806892522273145, "lng": 116.10089812913354}, "feature": {"sight_features": "", "sight_content": ""}}]}