{"cityName": "涟源", "days": 2, "cityImage": "", "spots": [{"title": "飞水漂流", "address": "娄底市涟源市杨市镇大坳村飞水漂流景区", "image": "", "rank": 1, "time": 2, "location": {"lat": 27.522596799124422, "lng": 111.81265490666968}, "feature": {"sight_features": "特色1 总落差达150余米，有多个8米的落差", "sight_content": "飞水漂流位于娄底市涟源杨市镇大坳村，坐落在号称“天下药山、植物王国、南国药都”的龙山国家森林公园东麓的飞水瀑布中。总落差达150余米，有多个8米的落差，漂流过程中时而惊险，时而平缓，让人高潮一波接一波，爽到极点。"}}, {"title": "涟源市第一中学", "address": "湖南省娄底市涟源市尊师路", "image": "", "rank": 2, "time": 2, "location": {"lat": 27.70096708880764, "lng": 111.67045279863952}, "feature": {"sight_features": "", "sight_content": ""}}, {"title": "孙水河谷葡萄园", "address": "杨家滩东坪村(东坪桥旁)", "image": "", "rank": 3, "time": 2, "location": {"lat": 27.57514039935807, "lng": 111.8000634266117}, "feature": {"sight_features": "", "sight_content": ""}}, {"title": "蓝精灵儿童乐园", "address": "210省道", "image": "", "rank": 4, "time": 2, "location": {"lat": 40.05575635085877, "lng": 116.1217342607595}, "feature": {"sight_features": "", "sight_content": ""}}, {"title": "作家爱心书屋中心馆", "address": "文艺北路与沿河后街交叉口南50米", "image": "", "rank": 5, "time": 2, "location": {"lat": 27.70164990379982, "lng": 111.67704251543469}, "feature": {"sight_features": "", "sight_content": ""}}, {"title": "江心岛", "address": "湖南省涟源市大江口景区 417100", "image": "", "rank": 6, "time": 2.5, "location": {"lat": 27.930390487752515, "lng": 111.71192276437516}, "feature": {"sight_features": "", "sight_content": ""}}, {"title": "尼姑出浴图", "address": "湖南省涟源市观音崖 417100", "image": "", "rank": 7, "time": 2, "location": {"lat": 27.69816753225533, "lng": 111.67056199396235}, "feature": {"sight_features": "", "sight_content": ""}}, {"title": "娄底大江口景区", "address": "湖南省涟源市湄江 417100", "image": "", "rank": 8, "time": 1.5, "location": {"lat": 27.69816753225533, "lng": 111.67056199396235}, "feature": {"sight_features": "", "sight_content": ""}}, {"title": "望海楼", "address": "湖南省涟源市塞海景区 417100", "image": "", "rank": 9, "time": 1.5, "location": {"lat": 27.69816753225533, "lng": 111.67056199396235}, "feature": {"sight_features": "", "sight_content": ""}}, {"title": "舵手峰", "address": "湖南省涟源市塞海景区 417106", "image": "", "rank": 10, "time": 2, "location": {"lat": 27.69816753225533, "lng": 111.67056199396235}, "feature": {"sight_features": "", "sight_content": ""}}, {"title": "龙泉峡", "address": "湖南省涟源市湄江风景区内 417109", "image": "", "rank": 11, "time": 1.0, "location": {"lat": 27.69816753225533, "lng": 111.67056199396235}, "feature": {"sight_features": "", "sight_content": ""}}, {"title": "雷鸣洞", "address": "湖南省涟源市仙洞乡 417111", "image": "", "rank": 12, "time": 2, "location": {"lat": 27.940331980582307, "lng": 111.90856336756374}, "feature": {"sight_features": "", "sight_content": ""}}, {"title": "开心儿童乐园", "address": "湖南省娄底市涟源市S210", "image": "", "rank": 13, "time": 2, "location": {"lat": 27.69816753225533, "lng": 111.67056199396235}, "feature": {"sight_features": "", "sight_content": ""}}, {"title": "欢乐谷儿童乐园", "address": "湖南省娄底市涟源市G207(娄涟路)", "image": "", "rank": 14, "time": 2, "location": {"lat": 27.69816753225533, "lng": 111.67056199396235}, "feature": {"sight_features": "", "sight_content": ""}}, {"title": "中山文体广场", "address": "娄底市涟源市中山后街24号", "image": "", "rank": 15, "time": 2.5, "location": {"lat": 27.693839041286232, "lng": 111.68159920426815}, "feature": {"sight_features": "", "sight_content": ""}}, {"title": "涟源市人民英雄纪念公园", "address": "湖南省娄底市涟源市S70(娄怀高速)", "image": "", "rank": 16, "time": 2, "location": {"lat": 27.69816753225533, "lng": 111.67056199396235}, "feature": {"sight_features": "", "sight_content": ""}}, {"title": "南芙生态园", "address": "涟源城区西郊的六亩塘镇新康村", "image": "", "rank": 17, "time": 2, "location": {"lat": 27.715938561214372, "lng": 111.6459798574018}, "feature": {"sight_features": "", "sight_content": ""}}, {"title": "法云寺", "address": "涟源市娄涟公路", "image": "", "rank": 18, "time": 2, "location": {"lat": 27.739997183667068, "lng": 111.93099685526046}, "feature": {"sight_features": "", "sight_content": ""}}, {"title": "卡奇乐儿童乐园", "address": "湖南省娄底市涟源市桥头河新大桥", "image": "", "rank": 19, "time": 2, "location": {"lat": 27.825829880501555, "lng": 111.86387209174498}, "feature": {"sight_features": "", "sight_content": ""}}, {"title": "家家乐儿童乐园", "address": "湖南省娄底市涟源市X028", "image": "", "rank": 20, "time": 2, "location": {"lat": 27.69816753225533, "lng": 111.67056199396235}, "feature": {"sight_features": "", "sight_content": ""}}, {"title": "湘峰度假村", "address": "湖南省娄底市涟源市G55(二广高速)", "image": "", "rank": 21, "time": 2, "location": {"lat": 27.69816753225533, "lng": 111.67056199396235}, "feature": {"sight_features": "", "sight_content": ""}}, {"title": "涟源市子洋儿童主题乐园", "address": "湖南省娄底市涟源市人民路双江街", "image": "", "rank": 22, "time": 2, "location": {"lat": 27.69626198815662, "lng": 111.6874685995192}, "feature": {"sight_features": "", "sight_content": ""}}, {"title": "罗家佃文化广场", "address": "湖南省娄底市涟源市人民中路与双拥路交叉口西北100米", "image": "", "rank": 23, "time": 2, "location": {"lat": 27.69925124150141, "lng": 111.69076340806083}, "feature": {"sight_features": "", "sight_content": ""}}, {"title": "涟源市影视娱乐中心", "address": "文艺路62号", "image": "", "rank": 24, "time": 2, "location": {"lat": 41.78421016965466, "lng": 123.45559656290907}, "feature": {"sight_features": "", "sight_content": ""}}, {"title": "涟源火车站站前广场", "address": "湖南省娄底市涟源市", "image": "", "rank": 25, "time": 2, "location": {"lat": 27.69816753225533, "lng": 111.67056199396235}, "feature": {"sight_features": "", "sight_content": ""}}, {"title": "涟源图书馆", "address": "蓝田街道办事处文艺北路8号", "image": "", "rank": 26, "time": 1.5, "location": {"lat": 27.701777740532933, "lng": 111.67667352566693}, "feature": {"sight_features": "", "sight_content": ""}}, {"title": "毛泽东故居", "address": "著名的湖南农民运动考察报告在此处写成", "image": "", "rank": 27, "time": 1.5, "location": {"lat": 26.878631953642987, "lng": 109.72474341757795}, "feature": {"sight_features": "", "sight_content": ""}}, {"title": "中国金源大马戏", "address": "三元路19附近", "image": "", "rank": 28, "time": 2, "location": {"lat": 30.17878710440642, "lng": 114.74996698272605}, "feature": {"sight_features": "", "sight_content": ""}}, {"title": "石陶药场", "address": "031县道附近", "image": "", "rank": 29, "time": 2, "location": {"lat": 32.00179835822073, "lng": 117.42212392208955}, "feature": {"sight_features": "", "sight_content": ""}}, {"title": "涟源市湘剧院", "address": "文艺路3号", "image": "", "rank": 30, "time": 2, "location": {"lat": 41.7808342538164, "lng": 123.42945452511044}, "feature": {"sight_features": "", "sight_content": ""}}, {"title": "湖南省帝富莱原生态农业专业合作...", "address": "左湾村(左湾村，礼湾村，塘湾村)", "image": "", "rank": 31, "time": 2, "location": {"lat": 27.468509538611546, "lng": 111.84425252898954}, "feature": {"sight_features": "", "sight_content": ""}}, {"title": "长沙香山寺", "address": "湖南省宁乡县香林山", "image": "", "rank": 32, "time": 4.0, "location": {"lat": 28.131212630242164, "lng": 112.36046547366017}, "feature": {"sight_features": "", "sight_content": ""}}, {"title": "娄底仙女峰", "address": "湖南省涟源市湄江镇仙峰村", "image": "", "rank": 33, "time": 2, "location": {"lat": 27.863858981138776, "lng": 111.82378436576488}, "feature": {"sight_features": "", "sight_content": ""}}, {"title": "鼓磉洞", "address": "湖南省芷江侗族自治县红旗村", "image": "", "rank": 34, "time": 2, "location": {"lat": 27.276784999715623, "lng": 109.54897956109542}, "feature": {"sight_features": "", "sight_content": ""}}, {"title": "象鼻崖", "address": "湖南省涟源市大江口景区", "image": "", "rank": 35, "time": 2, "location": {"lat": 27.930390487752515, "lng": 111.71192276437516}, "feature": {"sight_features": "", "sight_content": ""}}, {"title": "小寺晴岚", "address": "湖南省涟源市安平镇观音村", "image": "", "rank": 36, "time": 2, "location": {"lat": 27.803899268867205, "lng": 111.68317689823482}, "feature": {"sight_features": "", "sight_content": ""}}, {"title": "地下商业街", "address": "湖南省涟源市交通路", "image": "", "rank": 37, "time": 2, "location": {"lat": 27.698666756488247, "lng": 111.67971491234293}, "feature": {"sight_features": "", "sight_content": ""}}, {"title": "精服步行街", "address": "湖南省涟源市人民中路", "image": "", "rank": 38, "time": 2, "location": {"lat": 27.69913792740158, "lng": 111.68068222388523}, "feature": {"sight_features": "", "sight_content": ""}}, {"title": "瓦坵村", "address": "娄底市-涟源市", "image": "", "rank": 39, "time": 2, "location": {"lat": 27.69816753225533, "lng": 111.67056199396235}, "feature": {"sight_features": "", "sight_content": ""}}, {"title": "猫吉凼", "address": "娄底市-涟源市-二零七国道", "image": "", "rank": 40, "time": 2, "location": {"lat": 27.80141662920459, "lng": 111.79317377908143}, "feature": {"sight_features": "", "sight_content": ""}}, {"title": "千年古棕", "address": "湖南省娄底市娄星区湄江镇", "image": "", "rank": 41, "time": 2, "location": {"lat": 27.73560484210878, "lng": 112.008558425035}, "feature": {"sight_features": "", "sight_content": ""}}]}