{"cityName": "凉山", "days": "", "cityImage": "", "spots": [{"title": "邛海国家湿地公园", "address": "凉山彝族自治州西昌市海滨中路", "image": "", "rank": 1, "time": 1.5, "location": {"lat": 27.835033318356082, "lng": 102.28380067567208}, "feature": {"sight_features": "特色1 邛海山光水色秀丽，泛舟湖上或单车环湖，皆惬意悠闲。 特色2 天然淡水湖泊，属于新世早期断陷湖。", "sight_content": "邛海位于四川省凉山彝族自治州西昌市，古称邛池，属更新世早期断陷湖，至今约180万年。其形状如蜗牛，南北长11.5公里，东西宽5.5公里，周长35公里，水域面积31平方公里；湖水平均深14米，最深处34米；水面标高为1507.14—1509.28米；水位变幅小，集水面积约30平方公里。2002年5月，四川邛海－螺髻山风景名胜区经国务院批准列入第四批国家级风景名胜区名单。邛海是四川省第二大淡水湖，距市中心7公里，卧于泸山东北麓，螺髻山北侧，山光云影，一碧千顷，是四川省十大风景名胜区之一。\n“梦里水乡”由湿地一期、二期、三期组成，位于邛海西岸，观海路东侧，占地面积6580亩，以“自然、生态、和谐”为主题，是依托邛海鸟类繁多的天然优势资源而设置的一个湿地。是人们回归自然放松心情、休闲度假的理想之地，也是邛海鸟类的栖息之地，可供游人休憩游乐，看群鸟飞翔，品人间美景，尽情领略春天栖息的湿地魅力。"}}, {"title": "螺髻山", "address": "凉山彝族自治州普格县螺髻山镇", "image": "", "rank": 2, "time": 3.0, "location": {"lat": 27.590358928505964, "lng": 102.44154456315584}, "feature": {"sight_features": "特色1 保持完整的第四纪古冰川天然博物馆。 特色2 魅力的高原山峰，赏花、观景、拍照的好去处。", "sight_content": "【景区游玩须知】：入螺髻山景区（购景区门票+观光车票）--乘坐景区观光车（必须乘坐，由于中间路程比较远）--直达螺髻山索道处（乘坐索道上行观螺髻山美景）（索该道上、下站直线距离约3.5km，垂直高差约700m）；索道上站海拔大约3300m—索道上行后，步行至各观景点。\n螺髻山，一位躲在大凉山深处的姑娘。那她为什么要如此取名呢？ “螺髻山之名来源于与峨眉山的‘姊妹’关系，峨眉山似女人蚕蛾之眉，螺髻山似少女头上青螺状之发髻。”\n螺髻山景区完整保存了第四纪古冰川遗迹，以“高山湖泊，冰川刻槽，杜鹃花海，角峰刃脊，云山雾海，原始森林”六绝吸引着无数中内外游客前仆后继。景区被誉为“世界古冰川地质公园”、“动植物王国”、“生物资源基因库”和“中国彝族火把节之乡”，是理想的地质研究、科学考察和生态旅游目的地，也是体验彝族风情的好去处。\n除了极高的科学研究价值，她也是一处值得踏入的人间圣境。\n从西昌出发，沿着G248国道行驶42km，到达螺髻山镇，从镇上沿螺髻大道行驶4km便可到达景区，全程1小时45分钟。\n游玩顺序：景区售票处换票后乘坐摆渡车去往索道下站，乘坐索道（索该道上、下站直线距离约3.5km，垂直高差约700m）。索道上站海拔大约3300m。至此游客可以开始爬山，上山的路为时陡时缓的人行步道，步道连着山内已经开发的各个要景点，有杜鹃花林，古冰川湖泊，古冰川磨光面，古冰川刻蚀凹槽，还有瀑布叠水等。游客可漫步在木梯、木桥和青石板路相间的林间小道上，一边细细品味着这室外桃源般的湖光山色，一边拿着相机把眼前的这美景记录下来。沿着步道大约步行半小时，可到达黑龙潭景点，它原名“大海子”，旅游开发后，根据附近彝族同胞有关大海子中有过黑龙出没的传说，将大海子更名为黑龙潭，其出水口海拔3600米。黑龙潭景点处有餐厅，游客可在此休息吃饭。之后可延步道一直上山，浏览众多景点。游玩之后下山到索道上站，乘坐索道原路返回。\n螺髻山一年四季有不同的美，春赏花、夏避暑、秋登高、冬观雪。"}}, {"title": "泸山", "address": "凉山州西昌市海滨中路92号（近琼海公园）", "image": "", "rank": 3, "time": 2.5, "location": {"lat": 27.837237928309293, "lng": 102.28218596253538}, "feature": {"sight_features": "特色1 拔地而起的泸山，具有“半壁撑霄汉，宁城列画屏”的气势", "sight_content": "西昌市泸山索道、滑道由西昌市宏盛有限公司投资兴建。于二00一年3月双双获得国家质量技术监督总局颁发的《安全检验合格证》同时开始正式运营。\n乘上索道可以观泸山秀色，俯览邛海美景，泸山滑道为不全锈钢槽式滑道，俗称“早地雪橇”全长1180m，高差100m，最高速度40km/h是一条槽式滑道，滑道有单人车、双人车和母子车。\n泸山索道是单线循环固定抱索、单人员椅式客运观光索道，全长近600m，高差100m，最高速度1.28/s。乘上索道可以观泸山秀色，俯览邛海美景。"}}, {"title": "螺髻九十九里", "address": "凉山彝族自治州普格县乔窝镇", "image": "", "rank": 4, "time": 2, "location": {"lat": 27.38199621380657, "lng": 102.5465967186295}, "feature": {"sight_features": "特色1 全球罕见的彩虹瀑布 特色2 随后的海子，世界唯一的悬崖温泉 特色3 宁静而绚烂的湖水和高山草甸", "sight_content": "【景点介绍】\n螺髻·九十九里位于凉山州首府西昌市以南约39公里，是螺髻山的核心景区，最高峰海拔4359米，由天然温泉瀑布、螺髻山、罕见的彩虹瀑布（全年彩虹出现次数超过200次）、百瀑谷（成百上千的大小瀑布）、万亩杜鹃花海（等几大景观群组成。\n\n这里，一里一个景，九里一个奇观，共九十九景，故名螺髻九十九里。\n螺髻·九十九里天然温泉瀑布由上百个大小不一的温泉瀑布形成一个宽达200余米的温泉瀑布群，温泉水从悬崖溶洞中暴射而出，自喷口飞坠崖腔，沿仙女池、水帘洞、鸳鸯池、青龙宫沿崖壁飞泻而下形成四叠瀑布，泉水飞珠溅玉，洁白晶莹，烟雾升腾，蒸气四溢，令人惊叹，如仙山瑶池，故称“仙女池”，亦称“水帘洞”。“水帘洞”两边又各有一水池，每池可容纳二人，称为“鸳鸯池”是情侣的好去处。\n瀑布底部有几处天然洞穴，温泉水几近洞顶，人可仰头慢行通过，经历过的游客都赞不绝口。此外，该天然温泉泉水无色、无味、透明，其水温常年保持39℃，经地矿部门采样化验，该温泉属于氡温泉，其温泉水属于弱碳酸型天然矿泉水（矿化度0.192克/升，ph值为7.9），可直接饮用。\n氡温泉作用：微量元素专家、原中山医科大学微量元素矿泉分析测试室副主任冼汉隆认为，氡温泉对人体的功效很大，一能抗衰老；二可以去老人斑，老人斑是皮肤病；三能减肥，是天然的皮肤病防治所，被称之为“螺髻第五绝”。外出旅游，必不可少的也要去螺髻九十九里天然温泉去感受大自然的鬼斧神工，奇异之处。\n有趣二：螺髻·九十九里景区有高等动物近400种，其中兽类60余种、鸟类252种、爬行类19种、两栖类26种，属珍稀和国家重点保护的，如短尾猴、小熊猫、金猫、林麝、斑羚、赤鹿、穿山甲、红腹角雉、白腹锦鸡、灰头鹦鹉、圆胧齿类蟾、宝兴树娃、大凉蝾螈、东坡墨鱼等就有30余种。\n其猴子的温顺最为特色，他们没有霸道，没有无赖，没有猖狂，没有凶恶。\n看点三：螺髻·九十九里山势险峻，花木俊秀，充耳可闻的瀑布声与优美风景不停冲击您的视觉与听觉，享受的是一场大自然绚丽风景的饕餮盛宴..."}}, {"title": "西昌卫星发射中心", "address": "西昌市冕宁县泽远乡封家湾", "image": "", "rank": 5, "time": 2.0, "location": {"lat": 28.24841864221527, "lng": 102.03686689343853}, "feature": {"sight_features": "特色1 亚洲规模最大、设备最先进、具有大功能发射航天器基地能力的卫星发射基地之一。 特色2 感受火箭发射时的宏伟景象。", "sight_content": "西昌卫星发射中心始建于70年代初，于1984年11月1日正式对外开放。中心拥有测试发射、指挥控制、跟踪测量和通信、气象、技术勤务保障等系统，具备发射多种型号卫星的能力，自1984年1月2日正式启用到到发射“嫦娥一号”卫星，已经承担了52次国内外各种型号卫星的发射任务，是世界重要发射场之一。\n西昌卫星发射中心于2007年10月24日18时05分，成功发射我国第一颗绕月探测卫星“嫦娥一号”，是“嫦娥奔月的地方”。 到“嫦娥奔月的地方”来，不仅可以亲眼观看举世瞩目的“通天塔”的雄姿、参观“长征三号火箭”实体、游览科技公园、踏上“奔月楼”、登上“嫦娥一号参观平台”，还可以亲临发射现场，目睹火箭点火升空那震撼人心的实况！同时享受西昌得天独厚的青山绿水、蓝天白云以及浓厚的民族风情，奔月楼里的嫦娥号卫星模型。"}}, {"title": "大漕河温泉瀑布", "address": "西昌市普格县城西北部荞窝镇", "image": "", "rank": 6, "time": 2, "location": {"lat": 27.508314396968704, "lng": 102.51970937202933}, "feature": {"sight_features": "", "sight_content": ""}}, {"title": "马湖风景区", "address": "凉山彝族自治州雷波县黄琅镇", "image": "", "rank": 7, "time": 1.5, "location": {"lat": 28.43561335951725, "lng": 103.782995936887}, "feature": {"sight_features": "", "sight_content": ""}}, {"title": "安哈彝寨仙人洞", "address": "凉山州西昌市城南15公里的西溪", "image": "", "rank": 8, "time": 2, "location": {"lat": 27.900580896263623, "lng": 102.27148382916775}, "feature": {"sight_features": "特色1 洞中钟乳石千奇古怪，缤纷绚丽 特色2 螺髻山仙人洞彝语称“斯居色居”，是一处长达10公里，规模宏大的岩浆溶洞。", "sight_content": "螺髻山仙人洞彝语称“斯居色居”，位于西昌城南15公里的西溪附近，是一处长达10公里，规模宏大的岩浆溶洞。洞中钟乳石千奇古怪，有的如宫殿庭院 ；有的似山川河流，有的像花草树木，有的若人兽鸟禽；有的颜色鲜艳欲滴；有的碧绿透明；有的五色俱全，缤纷绚丽，宛若仙境。\n洞中有六个大厅一个连着一个直往深处而去。有暗河、深潭、竖井、落水洞、天生桥、跌水等；亦有溶沟、石芽、石笋、石柱、石幔、石蘑菇、钟乳石等千姿百态，有瓜果仙桃之景，亦有游鱼入晶洞之神韵，有蓬莱仙境之微静，亦有径流急湍之声响，可谓人间仙境巧夺天工，游人到此无不为之叫绝。洞中还有溪水从钟乳石缝中流过，人称“阴河”，清光绪二十三年春，立有石碑一座，上刻“深幽奇险”故人称“仙人洞。\n当地村民介绍，仙人洞第6厅既不是尽头也不能通行。但另有一通道绕过此处穿山而过，到达南坡，长数公里。由此说来，仙人洞的秀丽景色，形态多姿的岩溶景象并未到头，其中奥秘令人神往，有待进一步探索。"}}, {"title": "西昌古城", "address": "西昌市中心胜利大桥西北侧", "image": "", "rank": 9, "time": 1.5, "location": {"lat": 27.900580896263623, "lng": 102.27148382916775}, "feature": {"sight_features": "", "sight_content": ""}}, {"title": "凉山彝族奴隶社会博物馆", "address": "凉山彝族自治州西昌市西门坡街37号，泸山风景区中部", "image": "", "rank": 10, "time": 2.0, "location": {"lat": 27.896819262959454, "lng": 102.2690171711704}, "feature": {"sight_features": "", "sight_content": ""}}, {"title": "黄联土林", "address": "凉山彝族自治州西昌市南30公里的黄联关镇", "image": "", "rank": 11, "time": 2.5, "location": {"lat": 27.672020434641805, "lng": 102.22738720824043}, "feature": {"sight_features": "", "sight_content": ""}}, {"title": "青龙寺", "address": "凉山彝族自治州西昌市邛海东岸", "image": "", "rank": 12, "time": 1.5, "location": {"lat": 27.822515550377908, "lng": 102.32460067887047}, "feature": {"sight_features": "", "sight_content": ""}}, {"title": "礼州古镇", "address": "凉山彝族自治州西昌礼州镇", "image": "", "rank": 13, "time": 3.0, "location": {"lat": 28.07497708191882, "lng": 102.1864444202796}, "feature": {"sight_features": "", "sight_content": ""}}, {"title": "会理古城", "address": "凉山彝族自治州会理县北大街", "image": "", "rank": 14, "time": 1.5, "location": {"lat": 26.667801648422714, "lng": 102.2511598125367}, "feature": {"sight_features": "", "sight_content": ""}}, {"title": "洛洼码头", "address": "凉山彝族自治州盐源县022乡道", "image": "", "rank": 15, "time": 1.5, "location": {"lat": 27.725291115215466, "lng": 100.87741356971517}, "feature": {"sight_features": "", "sight_content": ""}}, {"title": "灵山寺", "address": "凉山彝族自治州冕宁县城以东17公里处的灵山", "image": "", "rank": 16, "time": 1.0, "location": {"lat": 28.55529444536005, "lng": 102.18357457402372}, "feature": {"sight_features": "", "sight_content": ""}}, {"title": "光福寺", "address": "凉山彝族自治州西昌市邛海泸山风景区光福寺", "image": "", "rank": 17, "time": 1.5, "location": {"lat": 27.840296357285748, "lng": 102.27662489358272}, "feature": {"sight_features": "", "sight_content": ""}}, {"title": "烟雨鹭洲湿地", "address": "凉山彝族自治州西昌市观海路烟雨鹭洲湿地", "image": "", "rank": 18, "time": 2, "location": {"lat": 27.868071497894185, "lng": 102.27547309973279}, "feature": {"sight_features": "", "sight_content": ""}}, {"title": "末代王妃府", "address": "凉山彝族自治州盐源县泸沽湖景区", "image": "", "rank": 19, "time": 1.0, "location": {"lat": 27.4281548677411, "lng": 101.5154291291499}, "feature": {"sight_features": "", "sight_content": ""}}, {"title": "达祖码头", "address": "凉山彝族自治州盐源县泸沽湖镇泸沽湖风景区内", "image": "", "rank": 20, "time": 2.0, "location": {"lat": 27.722705732671724, "lng": 100.82644864589481}, "feature": {"sight_features": "", "sight_content": ""}}, {"title": "彝海", "address": "凉山彝族自治州冕宁县城以北40公里羊坪山上", "image": "", "rank": 21, "time": 2.0, "location": {"lat": 28.55529444536005, "lng": 102.18357457402372}, "feature": {"sight_features": "", "sight_content": ""}}, {"title": "西昌大通门", "address": "凉山彝族自治州西昌市，南街与上顺城街交汇处旁", "image": "", "rank": 22, "time": 1.0, "location": {"lat": 27.897830415626395, "lng": 102.27474033216583}, "feature": {"sight_features": "", "sight_content": ""}}, {"title": "矿泉花园", "address": "凉山彝族自治州西昌市高枧乡矿泉大道", "image": "", "rank": 23, "time": 2, "location": {"lat": 27.88689427566675, "lng": 102.3147422313426}, "feature": {"sight_features": "特色1 温泉、矿泉、氡泉三泉鼎立", "sight_content": "西昌矿泉花园三泉鼎立，温泉、矿泉、氡泉，特别是氡泉的含氡量已达到国家医用标准，具有保健和医疗功能，可与北京小汤山（清朝乾隆御用泉）平山（汉武帝御用泉）临潼杨贵妃的华清池相媲美。珍贵的氡泉人称《返老还童泉》，具有调节神经功能。美容祛斑、减肥、延缓衰老、恢复青春，对疑难疾病有神奇疗效。儿童在氡泉中游泳能生长肌肉、个子长高。\n矿泉（温泉）花园空气新鲜、山清水秀、鸟语花香、林木葱绿、四时花开、环境优美。温泉设计独特，分为室外游泳池、室内温泉馆和可供一家人和亲朋好友聚会以及业务洽谈的商务池。温泉设施先进，配套齐全，池中有海浪急流、泡泡浪花、人造瀑布、水中脉动按摩、水锤、锤背等各项功能，并装有先进的净化和消毒设备，游泳池天天清洗消毒，活水24小时流淌，机器时时运作，吸去水中的赃物，同时还有机器人潜水扫描除菌，池内水质全部进行无菌化处理，水质清澈透明，超出一般的自然净化和排流，无毒安全，干净卫生。\n西昌矿泉（温泉）花园配套设施完善，住宿、餐饮、茶楼、棋牌、贵宾楼、多媒体会议室、商店等一应俱全，实属度假、旅游、住宿、休闲、淋寓游泳、会议的首选之地。"}}, {"title": "龙肘山", "address": "凉山彝族自治州会理县龙肘村", "image": "", "rank": 24, "time": 1.0, "location": {"lat": 26.661199778427346, "lng": 102.25143634510819}, "feature": {"sight_features": "", "sight_content": ""}}, {"title": "木里王国", "address": "凉山州木里县", "image": "", "rank": 25, "time": 1.0, "location": {"lat": 27.934598559239884, "lng": 101.28639697674048}, "feature": {"sight_features": "", "sight_content": ""}}, {"title": "会理白马寺", "address": "凉山彝族自治州会理县东北", "image": "", "rank": 26, "time": 3.0, "location": {"lat": 26.661199778427346, "lng": 102.25143634510819}, "feature": {"sight_features": "", "sight_content": ""}}, {"title": "《阿惹妞》彝文化实景剧演出", "address": "凉山彝族自治州西昌市火把广场•阿惹妞民俗村寨", "image": "", "rank": 27, "time": 2, "location": {"lat": 27.876758828006373, "lng": 102.27057378011013}, "feature": {"sight_features": "特色1 中国第一台实景火秀", "sight_content": "【新春，凉山不一样】  缘起阿惹妞——白天体验——春晚分会场，晚上观看——燃情《阿惹妞》。中国第一台实景火秀·彝文化风情实景——《阿惹妞》。在阿惹妞，有全实景开合舞台，多矩阵组合威压和全球最先进的声、光、电设备。在阿惹妞，有一群年轻热情的舞蹈演员，将以他们精湛的演绎征服来自远方的你。在阿惹妞，还有着彝族最厚重的历史积淀和最生动的民族传说。它集“艺术性、民族性、时代性、观赏性”于一体，它从彝族源起的脚步，到彝人世俗风情的展开，从阿惹妞情与爱的相遇相知到火把节的热烈欢腾，呈现了“火”作为一个民族情感的载体、彝族的生命图腾的象征而贯穿全剧。该剧以古老厚重的历史积淀以及民族大聚居的文化生态为背景，将大凉山秀美的自然风光，深厚的文化底蕴展现得淋漓尽致。\n彝族是一个崇尚火的民族。在彝族十月太阳历的第二个星回节，就是彝族火把节。彝族火把节是第一批国家级非物质文化遗产名录项目，被誉为“东方狂欢节”。《阿惹妞》是彝族音乐曲牌名，彝语直译为小表妹，民间有多种民歌传唱形式，抒发的是一种对生命的美好情愫。《阿惹妞》是一首情歌，一方情感，更是一种情怀。这种情怀，深沉而炽热，矜持而温暖。这种情怀，就是火的情怀。因为，火把节就是阿惹妞的节日，阿惹妞就是火的女儿。每一个人心中 都有一个属于自己的“阿惹妞”。\n一次旅游，记住的也许只是行路的山水。一次观光，收获的或许只是驻足的见闻。一次真正的旅行，是触摸一方山水的日月星辰，是感悟一方人文的生命情怀。《阿惹妞》的光亮，正在大凉山的星空下，温暖并感动着您和我…\n\n凉山是中国最大的彝族聚居区，位于四川省西南部川滇交界处，幅员面积6万余平方公里，总人口473.04万，全州辖1市17县，境内有汉、彝、藏、蒙古、纳西等10多个民族。阿惹妞就位于美丽西昌的地标性建筑之一——火把广场。"}}, {"title": "洼垮湖湾", "address": "凉山彝族自治州盐源县泸沽湖", "image": "", "rank": 28, "time": 0.4, "location": {"lat": 27.71973254967949, "lng": 100.78668120445606}, "feature": {"sight_features": "", "sight_content": ""}}, {"title": "龙泉人家水上乐园", "address": "凉山西昌市黄水乡双龙村四组", "image": "", "rank": 29, "time": null, "location": {"lat": 27.58859523943063, "lng": 102.20671549527542}, "feature": {"sight_features": "特色1 脚蹬安宁河，背靠螺髻山，品山珍野味，赏田园风光。", "sight_content": "龙泉人家水上乐园螺髻山水顺流而下，龙泉人家占地60余亩，绿树成荫，冬暖夏凉，空气清新。位于西昌南大门，地处螺髻山下，安宁河畔，这里自然条件的得天独厚，山水相依，自然生态保护完整，资源丰富。\n龙泉人家休闲山庄集特色美食、户外自制烧烤、休闲娱乐、会议、住宿，冲浪等为一体的综合性休闲度假圣地。还有30余亩的果园，免费提供四季新鲜水果供游客品尝。能容纳500人同时就餐，非常适合团体、家庭、单位等聚会及大型水上体育娱乐活动。\n龙泉人家休闲山庄有攀西地区上千万元打造的水上乐园。引进了国内先进的真空造浪技术，逼真再现真实海啸面惊险刺激，海啸高度可达3米之高。集惊险刺激的高空滑梯、多功能儿童游乐区、家庭式滑板、水中散步等时尚娱乐为一体，定能让你沐浴螺髻山圣水，是理想的旅游休闲度假胜地。"}}, {"title": "天下灵山", "address": "凉山彝族自治州西昌市冕宁县城以东20公里的深山中", "image": "", "rank": 30, "time": 2, "location": {"lat": 27.900580896263623, "lng": 102.27148382916775}, "feature": {"sight_features": "", "sight_content": ""}}, {"title": "观海湾景区", "address": "凉山彝族自治州西昌市海南乡缸窑村(邛海西岸)", "image": "", "rank": 31, "time": 1.5, "location": {"lat": 27.822515550377908, "lng": 102.32460067887047}, "feature": {"sight_features": "", "sight_content": ""}}, {"title": "黑喇嘛寺", "address": "凉山彝族自治州盐源县泸沽湖走婚桥旁边", "image": "", "rank": 32, "time": 0.5, "location": {"lat": 27.71453368639737, "lng": 100.88410962162844}, "feature": {"sight_features": "", "sight_content": ""}}, {"title": "木里大寺", "address": "凉山彝族自治州木里藏族自治县境内桃坝乡你易店村达尼牙布山麓", "image": "", "rank": 33, "time": 2.5, "location": {"lat": 28.168208882091307, "lng": 100.8596741918322}, "feature": {"sight_features": "", "sight_content": ""}}, {"title": "长海子", "address": "凉山彝族自治州木里藏族自治县 ‎", "image": "", "rank": 34, "time": 2.5, "location": {"lat": 27.934598559239884, "lng": 101.28639697674048}, "feature": {"sight_features": "", "sight_content": ""}}, {"title": "康坞大寺", "address": "凉山彝族自治州木里藏族自治县", "image": "", "rank": 35, "time": 2.5, "location": {"lat": 27.934598559239884, "lng": 101.28639697674048}, "feature": {"sight_features": "", "sight_content": ""}}, {"title": "凉山民族文化艺术中心火把广场", "address": "四川省凉山彝族自治州西昌市航天大道", "image": "", "rank": 36, "time": 2.0, "location": {"lat": 27.885114917435622, "lng": 102.25705640219044}, "feature": {"sight_features": "", "sight_content": ""}}, {"title": "摩梭博物馆", "address": "凉山州盐源县泸沽湖镇博树村原摩梭土司府遗址旁", "image": "", "rank": 37, "time": 2.5, "location": {"lat": 27.713736556962676, "lng": 100.86424120309427}, "feature": {"sight_features": "", "sight_content": ""}}, {"title": "傈僳水寨", "address": "凉山州德昌县乐跃镇沙坝傈僳水寨", "image": "", "rank": 38, "time": 2, "location": {"lat": 27.329249097964674, "lng": 102.328435479515}, "feature": {"sight_features": "特色1 游泳嬉戏，感受浪漫海滨风情。 特色2 冲浪、DJ，嗨翻傈僳水寨。", "sight_content": "四川德昌傈僳水寨位于四川德昌县沙坝村，成立于2008年12月，位于四川省德昌县乐跃镇沙坝村，紧临国道108线，北距西昌约70公里(高速公路约50公里)，南距攀枝花市109公里(全程高速路)，离德昌县城17公里(二级公路)。\n\n傈僳水寨山泉冲浪就是借由傈僳族在迁徙过程中“冲浪而行，奋勇向前”的经历而打造的。在冲浪时，体会傈僳族祖先为了生存而迁徙的艰辛，感受生命的珍贵。人造海时采用真空技术由动力机组推动造浪的大型冲浪娱乐泳池，池水最深1.8米，浪潮最高可达3米。在强劲的DJ音乐节奏鼓动下，大浪呼啸而至，让您仿若置身大海，体验大海的激情。\n在这里，您可到纯净的“海水”中游泳嬉戏，可到白色沙滩上享受午后美好的时光，可到妩媚的椰树下感受浪漫的海滨风情。阳光、沙滩、傈僳是这里的标志，开心与快乐是这里的代言词。"}}, {"title": "观鸟岛湿地公园", "address": "邛海西岸北端(邛海泸山景区)", "image": "", "rank": 39, "time": 3.0, "location": {"lat": 27.85243901743873, "lng": 102.28439991731149}, "feature": {"sight_features": "", "sight_content": ""}}, {"title": "盐源公母山", "address": "盐源县城西南5公里处", "image": "", "rank": 40, "time": 1.0, "location": {"lat": 36.59828759801125, "lng": 101.77241422413312}, "feature": {"sight_features": "", "sight_content": ""}}, {"title": "邛海宾馆温泉会所", "address": "西昌市海滨中路115号邛海宾馆内", "image": "", "rank": 41, "time": 2, "location": {"lat": 27.844095808426243, "lng": 102.27860727777473}, "feature": {"sight_features": "", "sight_content": ""}}, {"title": "西昌地震碑林博物馆", "address": "四川省西昌市泸山", "image": "", "rank": 42, "time": 1.5, "location": {"lat": 27.818928752465045, "lng": 102.26781447483877}, "feature": {"sight_features": "", "sight_content": ""}}, {"title": "凉山民族体育场", "address": "凉山彝族自治州西昌市风情园路", "image": "", "rank": 43, "time": 2.0, "location": {"lat": 27.87911936364671, "lng": 102.26170069377721}, "feature": {"sight_features": "", "sight_content": ""}}, {"title": "凯地里拉温泉", "address": "宁南县城南郊的元宝山麓凯地里拉温泉山庄", "image": "", "rank": 44, "time": 2, "location": {"lat": 40.20223513631887, "lng": 124.28192525406949}, "feature": {"sight_features": "特色1 温泉规划区面积2000亩，温泉区占地820亩。 特色2 集休闲度假、水上运动为一体的综合开发项目。 特色3 生态停车场、丝韵金街、游客中心、七彩温泉区、自驾游营地。", "sight_content": "凯地里拉温泉座落在宁南县城南郊的元宝山麓，由温泉康养度假区、娱乐区、老观音寺、下村农桑田园和南丝路集团工业园区组成，是集温泉康养、桑蚕农耕、蚕丝工业加工过程展示于一体的观光、度假型旅游景区。温泉规划区面积2000亩，温泉区占地820亩，核心区面积150亩，是集休闲度假、水上运动为一体的综合开发项目，旨在打造全国最大的温泉水上乐园及温泉自驾游营地。"}}, {"title": "冶勒自然保护区", "address": "四川省凉山彝族自治州西昌市胜利南路243附近", "image": "", "rank": 45, "time": 1.0, "location": {"lat": 27.890248643626727, "lng": 102.26164575880208}, "feature": {"sight_features": "", "sight_content": ""}}, {"title": "精华温泉水上乐园", "address": "凉山州会理县老街乡沙坝村四组沙坝车辆检测站旁", "image": "", "rank": 46, "time": 2, "location": {"lat": 26.713787208229686, "lng": 102.25720487143016}, "feature": {"sight_features": "特色1 集水上海啸冲浪池、儿童亲水池、恒温游泳池、漂流河于一体的水上娱乐休闲度假目的地。", "sight_content": "精华温泉水上乐园集水上海啸冲浪池、儿童亲水池、恒温游泳池、漂流河、SPA水疗池、温泉、生态餐厅、生态烧烤等功能于一体，是川滇结合部山水园林和水上娱乐休闲度假目的地。"}}, {"title": "彝海结盟", "address": "凉山州冕宁县城以北40公里羊坪山上", "image": "", "rank": 47, "time": 2, "location": {"lat": 28.55529444536005, "lng": 102.18357457402372}, "feature": {"sight_features": "", "sight_content": ""}}, {"title": "螺髻山温泉山庄", "address": "凉山州普格县新建北路164号", "image": "", "rank": 48, "time": 2, "location": {"lat": 27.392140667223693, "lng": 102.54448483813735}, "feature": {"sight_features": "特色1 周末休闲好去处~", "sight_content": "螺髻山温泉山庄位于西昌市普格县城北郊，山庄占地面积1000余亩，，以满足有不同需求的客户。山庄各项设施齐全，卫生舒适。螺髻山温泉山庄以“天然温泉”为特色，山庄内泉水温度42℃—44℃，属于典型的重碳酸镁钙型温泉，是不可多得的温泉沐浴疗养胜地。无论您是经商或是旅游，我们都将让您及您的宾客尽享便捷与尊贵的完美体验。\n\n山庄距离螺髻山风景区约25公里，车程约20分钟，螺髻山风景区面积为1086平方公里，因其主峰高耸入云，形似青螺，宛如玉髻而得其美名，山中叠岭层峦、茂林修竹，繁花似锦，有“西子浓妆，峨眉淡抹，螺髻天生”之美誉。"}}, {"title": "吉羊巷清真寺", "address": "距离西昌古城0.2公里", "image": "", "rank": 49, "time": 2, "location": {"lat": 27.897433811441484, "lng": 102.27824914762226}, "feature": {"sight_features": "", "sight_content": ""}}, {"title": "锦湖大酒店水汇净桑", "address": "凉山州西昌市东城街道风情园路35号", "image": "", "rank": 50, "time": 2, "location": {"lat": 27.87727267338276, "lng": 102.2605072769415}, "feature": {"sight_features": "", "sight_content": ""}}, {"title": "攀西地质博物馆", "address": "四川省西昌市三岔口路", "image": "", "rank": 51, "time": 2, "location": {"lat": 27.900580896263623, "lng": 102.27148382916775}, "feature": {"sight_features": "", "sight_content": ""}}, {"title": "西康温泉", "address": "凉山彝族自治州冕宁县城厢镇枧槽村六组", "image": "", "rank": 52, "time": 2, "location": {"lat": 28.566878681352197, "lng": 102.22241047714047}, "feature": {"sight_features": "特色1 集休闲娱乐、度假旅游、餐饮、购物、会议于一身的综合度假场所", "sight_content": "﻿冕宁县西康温泉酒店位于冕宁县城厢镇境内108国道旁，距雅西高速公路冕宁出口2公里，距冕宁县城3公里，距国家4A级旅游景区灵山景区5.8公里。\n占地面积28.6亩，总投资五千二百余万元。交通便利，环境优美，内部设施齐全，有温泉泡池、水上儿童乐园、健身休闲区、桑拿房、客房50间（含套房、标间、单间）、大小会议中心、休闲卡座、水吧、休闲娱乐室30余间、农家餐厅780平方米、烧烤场地1500平方米，土特产超市，豆花作坊。\n西昌冕宁西康温泉酒店是一家集休闲娱乐、度假旅游、餐饮、购物、会议于一身的综合度假场所，期待您的到来。\n‍"}}, {"title": "索玛焰火盆自助烧烤演艺中心", "address": "凉山彝族自治州西昌市宁远大道辅路索玛焰火盆烧烤中心", "image": "", "rank": 53, "time": 2, "location": {"lat": 27.90230465088055, "lng": 102.21735000150937}, "feature": {"sight_features": "", "sight_content": ""}}, {"title": "川兴温泉", "address": "凉山彝族自治州西昌市川兴镇环海路1号", "image": "", "rank": 54, "time": 2, "location": {"lat": 27.874681133331976, "lng": 102.32425652275852}, "feature": {"sight_features": "特色1 水温宜人的“航天温泉娱乐城”", "sight_content": "川兴温泉位于西昌市郊，水温42℃，建有“航天温泉娱乐城”，内有儿童浴池，成人浴池等。"}}, {"title": "小相岭风景区", "address": "四川省凉山彝族自治州喜德县", "image": "", "rank": 55, "time": 1.0, "location": {"lat": 28.312709832521158, "lng": 102.41956715684437}, "feature": {"sight_features": "", "sight_content": ""}}, {"title": "冶勒湖", "address": "凉山州冕宁县冶勒乡", "image": "", "rank": 56, "time": 2.0, "location": {"lat": 28.879202405282154, "lng": 102.19896650713525}, "feature": {"sight_features": "", "sight_content": ""}}, {"title": "喜德公塘子温泉", "address": "凉山彝族自治州喜德县拉克乡幸福村", "image": "", "rank": 57, "time": 2, "location": {"lat": 28.326403600163864, "lng": 102.38342667510437}, "feature": {"sight_features": "", "sight_content": ""}}, {"title": "阿惹妞民俗村寨", "address": "凉山彝族自治州西昌市民族大道与三岔口南路交叉口火把广场内", "image": "", "rank": 58, "time": 2, "location": {"lat": 27.874681042005797, "lng": 102.26841495524147}, "feature": {"sight_features": "", "sight_content": ""}}, {"title": "老海亭", "address": "凉山彝族自治州西昌市海滨北路", "image": "", "rank": 59, "time": 2, "location": {"lat": 27.865779275761874, "lng": 102.26848253745987}, "feature": {"sight_features": "", "sight_content": ""}}, {"title": "漫水湾庆林温泉度假山庄", "address": "凉山彝族自治州冕宁县京昆高漫水湾收费站出口处", "image": "", "rank": 60, "time": 2, "location": {"lat": 28.55529444536005, "lng": 102.18357457402372}, "feature": {"sight_features": "", "sight_content": ""}}]}