{"cityName": "辽源", "days": "", "cityImage": "", "spots": [{"title": "鴜鹭湖滑雪场", "address": "辽源市东辽县金州乡", "image": "", "rank": 1, "time": 2, "location": {"lat": 43.07106994421883, "lng": 125.30417932931438}, "feature": {"sight_features": "", "sight_content": ""}}, {"title": "凯旋王国水上乐园", "address": "辽源市西安区泰安大街与一环路北段交汇处", "image": "", "rank": 2, "time": 2, "location": {"lat": 42.92353487777992, "lng": 125.15308540882472}, "feature": {"sight_features": "特色1 总面积达到1.1万平方米。可持续造浪至少30分钟以上，浪潮高可达5米。 特色2 这是大的真沙海滩冲浪池，在这里享受惬意的沙滩阳光浴，让细沙在指尖缓缓流去。 特色3 游客坐在专用浮圈上休闲地沿河漂流，静静地欣赏园里的风景，或跟家人朋友畅谈。", "sight_content": "凯旋王国水上乐园是集休闲、刺激、新奇于一体的大型主题水上乐园，20.9米的高空大喇叭与太空穿梭项目惊险剌激，45°滑角的速滑落差，119m滑道，让人在分分钟体验什么叫“生死时速”。\n而开敞螺旋滑道和彩虹竞赛滑道则相对更平和一些，起滑高度在10米左右，滑行速度每秒8.6m，趣味性更强。"}}, {"title": "龙山公园", "address": "辽源市龙山区东吉大路与新兴路交叉口西北150米", "image": "", "rank": 3, "time": 2, "location": {"lat": 42.907609084824486, "lng": 125.15944805465017}, "feature": {"sight_features": "", "sight_content": ""}}, {"title": "矿工墓陈列馆", "address": "安明路(近矿务局)", "image": "", "rank": 4, "time": 2, "location": {"lat": 42.93692909674412, "lng": 125.11450932888593}, "feature": {"sight_features": "", "sight_content": ""}}, {"title": "侵华日军辽源高级战俘营旧址", "address": "辽源市西安区人民大街887号军分区（原北大营）院里", "image": "", "rank": 5, "time": 2, "location": {"lat": 42.92427450438649, "lng": 125.16073720450336}, "feature": {"sight_features": "", "sight_content": ""}}, {"title": "野骑部落农家院", "address": "开发区建新村二组", "image": "", "rank": 6, "time": 2, "location": {"lat": 31.040818701817372, "lng": 121.52097082492602}, "feature": {"sight_features": "", "sight_content": ""}}, {"title": "鴜鹭湖梯田花海", "address": "辽源市东辽县金洲乡鴜鹭湖旅游度假区内", "image": "", "rank": 7, "time": 2, "location": {"lat": 43.042551656308646, "lng": 125.30925481203899}, "feature": {"sight_features": "", "sight_content": ""}}, {"title": "辽源市博物馆", "address": "向阳街道龙山公园内魁星楼北门", "image": "", "rank": 8, "time": 1.5, "location": {"lat": 42.90264621175698, "lng": 125.16185855957092}, "feature": {"sight_features": "", "sight_content": ""}}, {"title": "辽源市烈士陵园", "address": "吉林辽源西安辽源市烈士陵园", "image": "", "rank": 9, "time": 3.0, "location": {"lat": 42.97582867656757, "lng": 125.10780829676472}, "feature": {"sight_features": "", "sight_content": ""}}, {"title": "森林公园", "address": "吉林辽源龙山区森林公园", "image": "", "rank": 10, "time": 2.5, "location": {"lat": 42.923893734725596, "lng": 125.12611184824264}, "feature": {"sight_features": "", "sight_content": ""}}, {"title": "萨哇迪咔戏水王国", "address": "辽源市东丰县三合乡沙河村9组", "image": "", "rank": 11, "time": 2, "location": {"lat": 42.578967302082894, "lng": 125.67884696923066}, "feature": {"sight_features": "", "sight_content": ""}}, {"title": "金霖森林公园滑雪场", "address": "吉林省辽源市东丰县那丹伯镇建国村", "image": "", "rank": 12, "time": 2, "location": {"lat": 43.139997656281366, "lng": 125.48439273558836}, "feature": {"sight_features": "", "sight_content": ""}}, {"title": "鸿绅温泉养生会馆", "address": "辽源市龙山区辽河大路3159号", "image": "", "rank": 13, "time": 2, "location": {"lat": 42.905466996189546, "lng": 125.18316702670575}, "feature": {"sight_features": "", "sight_content": ""}}, {"title": "弥陀寺", "address": "辽源市龙山区永寿街与龙山北路交叉口东北150米", "image": "", "rank": 14, "time": 0.4, "location": {"lat": 42.90967787364944, "lng": 125.16205110596714}, "feature": {"sight_features": "", "sight_content": ""}}, {"title": "婴幼儿游乐会馆", "address": "东艺小区对面", "image": "", "rank": 15, "time": 2, "location": {"lat": 28.017312442374546, "lng": 120.6643416826782}, "feature": {"sight_features": "", "sight_content": ""}}, {"title": "金海湾浴都", "address": "人民大街517号", "image": "", "rank": 16, "time": 2, "location": {"lat": 43.910263861371405, "lng": 125.33063917592446}, "feature": {"sight_features": "", "sight_content": ""}}, {"title": "辽源市图书馆", "address": "龙山东路", "image": "", "rank": 17, "time": 1.5, "location": {"lat": 31.7418623191757, "lng": 119.56656122410328}, "feature": {"sight_features": "", "sight_content": ""}}, {"title": "鴜鹭湖红叶岭", "address": "辽源市东辽县金洲乡（鴜鹭湖旅游度假区内)", "image": "", "rank": 18, "time": 2, "location": {"lat": 43.042551656308646, "lng": 125.30925481203899}, "feature": {"sight_features": "", "sight_content": ""}}, {"title": "鴜鹭湖关东体验馆", "address": "辽源市东辽县金洲乡（鴜鹭湖旅游度假区内)", "image": "", "rank": 19, "time": 2, "location": {"lat": 43.042551656308646, "lng": 125.30925481203899}, "feature": {"sight_features": "", "sight_content": ""}}, {"title": "辽源市公路处美化苗木基地", "address": "中安屯附近", "image": "", "rank": 20, "time": 2, "location": {"lat": 42.61614457942576, "lng": 125.64962327731226}, "feature": {"sight_features": "", "sight_content": ""}}, {"title": "仁合林场花木繁育基地", "address": "104省道附近", "image": "", "rank": 21, "time": 2, "location": {"lat": 37.84517653890577, "lng": 112.34866876283355}, "feature": {"sight_features": "", "sight_content": ""}}, {"title": "东丰县图书馆", "address": "西富胡同39", "image": "", "rank": 22, "time": 2, "location": {"lat": 42.682055745255916, "lng": 125.53449348683006}, "feature": {"sight_features": "", "sight_content": ""}}, {"title": "蓝汇蓝莓采摘园", "address": "沙河镇盈仓村", "image": "", "rank": 23, "time": 2, "location": {"lat": 43.017636735826166, "lng": 125.654105489434}, "feature": {"sight_features": "", "sight_content": ""}}, {"title": "鴜鹭湖采摘园", "address": "金州收费站下高速南行100米(德志村五组)", "image": "", "rank": 24, "time": 2, "location": {"lat": 43.0646024324378, "lng": 125.25791323319298}, "feature": {"sight_features": "", "sight_content": ""}}, {"title": "吉林寒葱顶国家森林公园", "address": "东辽县交界处", "image": "", "rank": 25, "time": 4.5, "location": {"lat": 42.931879101775785, "lng": 124.99758944369195}, "feature": {"sight_features": "", "sight_content": ""}}, {"title": "西城基督教会", "address": "东药路与盈河街交叉口北100米", "image": "", "rank": 26, "time": 2, "location": {"lat": 42.68240507332008, "lng": 125.51872602428143}, "feature": {"sight_features": "", "sight_content": ""}}, {"title": "桃沅风景区", "address": "陶然镇乾德水库", "image": "", "rank": 27, "time": 2, "location": {"lat": 42.8347450363474, "lng": 124.80083605818163}, "feature": {"sight_features": "", "sight_content": ""}}, {"title": "寒葱顶国家森林公园", "address": "吉林省东丰县境内 136323", "image": "", "rank": 28, "time": 2, "location": {"lat": 42.68331077855281, "lng": 125.5373779009073}, "feature": {"sight_features": "", "sight_content": ""}}, {"title": "车家大院", "address": "安石镇朝阳村二组", "image": "", "rank": 29, "time": 2, "location": {"lat": 43.001174416437074, "lng": 125.3313179697034}, "feature": {"sight_features": "", "sight_content": ""}}, {"title": "观音寺", "address": "吉林省辽源市东丰县政协北侧", "image": "", "rank": 30, "time": 2.0, "location": {"lat": 42.67433260565484, "lng": 125.5342149375626}, "feature": {"sight_features": "", "sight_content": ""}}, {"title": "北山公园", "address": "幸福桥北100米", "image": "", "rank": 31, "time": 1.0, "location": {"lat": 26.060626238855473, "lng": 119.3235104954777}, "feature": {"sight_features": "", "sight_content": ""}}, {"title": "儿童乐园", "address": "辽源市东丰县丰城商贸中心3楼新区", "image": "", "rank": 32, "time": 2, "location": {"lat": 42.680484279045096, "lng": 125.53710886110198}, "feature": {"sight_features": "", "sight_content": ""}}, {"title": "龙潭寺", "address": "辽源市东辽县", "image": "", "rank": 33, "time": 1.0, "location": {"lat": 42.931879101775785, "lng": 124.99758944369195}, "feature": {"sight_features": "", "sight_content": ""}}, {"title": "星期六儿童成长主题乐园(天星明...", "address": "东风路4223号天星明郡B区门企", "image": "", "rank": 34, "time": 2, "location": {"lat": 33.58063440325063, "lng": 119.06661579715524}, "feature": {"sight_features": "", "sight_content": ""}}, {"title": "海锋水族馆", "address": "吉林省辽源市东辽县东辽大街424号", "image": "", "rank": 35, "time": 2, "location": {"lat": 42.9240095595851, "lng": 125.01571985396927}, "feature": {"sight_features": "", "sight_content": ""}}, {"title": "皇家鹿苑乡村博物馆", "address": "吉林省辽源市东丰县靖西线小四平镇政府西北150米", "image": "", "rank": 36, "time": 2, "location": {"lat": 42.547364647241714, "lng": 125.14612165917235}, "feature": {"sight_features": "", "sight_content": ""}}, {"title": "鑫新湖儿童乐园", "address": "东辽大街附近", "image": "", "rank": 37, "time": 2, "location": {"lat": 42.92942924284846, "lng": 125.00435909198126}, "feature": {"sight_features": "", "sight_content": ""}}, {"title": "东丰县西街基督教会", "address": "向阳路1628号", "image": "", "rank": 38, "time": 2, "location": {"lat": 36.70813256253556, "lng": 114.17567506205535}, "feature": {"sight_features": "", "sight_content": ""}}, {"title": "小树苗儿童成长乐园", "address": "东交大街东100米", "image": "", "rank": 39, "time": 2, "location": {"lat": 42.932182069004405, "lng": 125.00606235199093}, "feature": {"sight_features": "", "sight_content": ""}}, {"title": "东辽县白泉镇基督教会", "address": "东交大街与四白公路交叉口东南100米", "image": "", "rank": 40, "time": 2, "location": {"lat": 23.494386671660774, "lng": 116.51093198121578}, "feature": {"sight_features": "", "sight_content": ""}}, {"title": "茵特拉根游乐园", "address": "友谊大路与财富大路交汇处", "image": "", "rank": 41, "time": 2, "location": {"lat": 42.90666485527601, "lng": 125.12793551442796}, "feature": {"sight_features": "", "sight_content": ""}}, {"title": "欧式豪华转马", "address": "吉林省辽源市龙山区龙山公园内", "image": "", "rank": 42, "time": 2, "location": {"lat": 42.90264621175698, "lng": 125.16185855957092}, "feature": {"sight_features": "", "sight_content": ""}}, {"title": "基督教堂(天缘公寓东)", "address": "仙城东一街附近", "image": "", "rank": 43, "time": 2, "location": {"lat": 42.945258550435284, "lng": 125.16483448582709}, "feature": {"sight_features": "", "sight_content": ""}}, {"title": "辽源市环球名胜主题乐园", "address": "泰安大路与一环路北段交叉口向南200米路西", "image": "", "rank": 44, "time": 2, "location": {"lat": 42.922929665150974, "lng": 125.15619445407611}, "feature": {"sight_features": "", "sight_content": ""}}, {"title": "辽源国家矿山湿地公园", "address": "辽源市西安区阳光新城73号楼", "image": "", "rank": 45, "time": 2, "location": {"lat": 42.92147605835235, "lng": 125.15132847685744}, "feature": {"sight_features": "", "sight_content": ""}}, {"title": "老营基督教会", "address": "后沟附近", "image": "", "rank": 46, "time": 2, "location": {"lat": 40.882542859785204, "lng": 116.71072518706251}, "feature": {"sight_features": "", "sight_content": ""}}, {"title": "万安园", "address": "辽源绕城窑地屯", "image": "", "rank": 47, "time": 2, "location": {"lat": 42.96816008267171, "lng": 125.15169935935505}, "feature": {"sight_features": "", "sight_content": ""}}, {"title": "红叶岭森林公园", "address": "X072县道窑山顶子西行150米", "image": "", "rank": 48, "time": 2, "location": {"lat": 28.24054813030942, "lng": 112.95802549581606}, "feature": {"sight_features": "", "sight_content": ""}}, {"title": "新华汇演艺广场", "address": "太安路辽源市体校附近", "image": "", "rank": 49, "time": 2, "location": {"lat": 42.92168074459317, "lng": 125.15727771080924}, "feature": {"sight_features": "", "sight_content": ""}}, {"title": "西安区艺翔曲艺社", "address": "辽源市西安区阳光新城A区6号楼门市", "image": "", "rank": 50, "time": 2, "location": {"lat": 42.92147605835235, "lng": 125.15132847685744}, "feature": {"sight_features": "", "sight_content": ""}}, {"title": "富源山庄", "address": "吉林省辽源市西安区", "image": "", "rank": 51, "time": 2, "location": {"lat": 42.933308420624584, "lng": 125.15537330312809}, "feature": {"sight_features": "", "sight_content": ""}}, {"title": "辽河掌渡假村", "address": "杨木村附近", "image": "", "rank": 52, "time": 2, "location": {"lat": 41.56506284670705, "lng": 123.7530143055117}, "feature": {"sight_features": "", "sight_content": ""}}, {"title": "龙泉湖山庄", "address": "吉林省辽源市龙山区寿山镇永治村五组", "image": "", "rank": 53, "time": 2, "location": {"lat": 42.90196489256674, "lng": 125.2673644743449}, "feature": {"sight_features": "", "sight_content": ""}}, {"title": "雅栢休闲广场", "address": "人民大街3295", "image": "", "rank": 54, "time": 2, "location": {"lat": 42.91014680579961, "lng": 125.15400320756427}, "feature": {"sight_features": "", "sight_content": ""}}, {"title": "东艺度假村", "address": "东艺度假村(东二环)", "image": "", "rank": 55, "time": 2, "location": {"lat": 42.89855119766475, "lng": 125.20175177187895}, "feature": {"sight_features": "", "sight_content": ""}}, {"title": "新力基督教会", "address": "西安西路东50米", "image": "", "rank": 56, "time": 2, "location": {"lat": 23.052271400008067, "lng": 114.03356324294559}, "feature": {"sight_features": "", "sight_content": ""}}, {"title": "辽源市西安区基督教会", "address": "仙城大街金太阳双语幼儿园附近", "image": "", "rank": 57, "time": 2, "location": {"lat": 39.70492260390691, "lng": 116.28534447224179}, "feature": {"sight_features": "", "sight_content": ""}}, {"title": "白泉站广场", "address": "东交大街与站前路交叉口东150米", "image": "", "rank": 58, "time": 2, "location": {"lat": 42.931325293955425, "lng": 125.0078437403257}, "feature": {"sight_features": "", "sight_content": ""}}, {"title": "快乐大本营", "address": "龙山公园内", "image": "", "rank": 59, "time": 2, "location": {"lat": 42.90264621175698, "lng": 125.16185855957092}, "feature": {"sight_features": "", "sight_content": ""}}, {"title": "博纳广场-儿童欢乐世界", "address": "育宁路2号(原人民影院)", "image": "", "rank": 60, "time": 2, "location": {"lat": 36.98391522780704, "lng": 115.27021453191165}, "feature": {"sight_features": "", "sight_content": ""}}]}