{"cityName": "利川", "days": 2, "cityImage": "", "spots": [{"title": "腾龙洞风景区", "address": "恩施土家族苗族自治州利川市腾龙大道1号", "image": "", "rank": 1, "time": 2.5, "location": {"lat": 30.305586031290645, "lng": 108.96600091072769}, "feature": {"sight_features": "特色1 清江跌落形成的“卧龙吞江”瀑布", "sight_content": "腾龙洞位于利川市城郊6公里处，总面积69平方公里，海拔均在1000米以上。西南起于腾龙洞洞口，与明岩峡峡谷景区相连；西北抵于黑洞洞口，与雪照河峡谷景区相通，总体是沿清江河谷延伸的狭长景区。腾龙洞主要景区有二个：一为腾龙洞旱洞景区，旱洞全长59.8公里，洞口高74米，宽64米；一为落水洞水洞景区,水洞吸尽了清江水，形成了23米高的瀑布，清江水至此变成长16.8公里的地下暗流。神奇的是，水旱两洞仅一壁之隔，集山、水、洞、林、石、峡于一体，溶雄、险、奇、幽、秀于一炉，声誉远播，遐迩闻名。\n\n腾龙洞景区由水洞、旱洞、鲤鱼洞、凉风洞、独家寨及三个龙门、化仙坑等景区组成，整个洞穴系统庞大复杂。腾龙洞，雄、险、奇、幽、绝的独特魅力，初步探明洞穴总长度52.8公里，腾龙洞中有5座山峰，10个大厅，地下瀑布10余处，真是洞中有山，山中有洞，腾龙洞内水洞旱洞相连，主洞支洞互通，且无毒气，无蛇蝎，无污染，洞内终年恒温14一18℃，空气流畅。腾龙洞中千姿百态，腾龙洞外山清水秀，腾龙洞口卧龙吞江瀑布落差20余米，吼声如雷，气势磅礴。腾龙洞就是这样以独特的自然景观和宜人的气候环境，被公认为旅游、疗养、探险、地质考察的去处。\n腾龙洞景区，斥资4000万打造激光综合秀，采用国内外先进技术，配合精心编排的歌舞，融合激光、球幕、水秀、喷泉、火焰、雾松等多种元素。在几百万年形成的自然洞穴中，运用高科技，让虚与实、情与景完美融合，讲述一个土家传说，呈现出美轮美奂的视听体验。\n夷水丽川:以土家文化为背景，国内顶级导演精心编排，100多位演员倾情演绎的大型情景歌舞，从巴蔓子的古老传说，到哭嫁、肉连响的乡土风俗，从悠悠龙船调到撒尔荷的原始歌声，从勤劳的土家人生活到原汁原味的土家山寨还原，让现场观众都走进地道的土家生活画卷。"}}, {"title": "龙船水乡", "address": "恩施市利川市凉雾乡", "image": "", "rank": 2, "time": 2.5, "location": {"lat": 30.27388005814414, "lng": 108.83666993689593}, "feature": {"sight_features": "", "sight_content": ""}}, {"title": "大水井", "address": "恩施利川市白杨坝镇水井村", "image": "", "rank": 3, "time": 1.5, "location": {"lat": 30.579788524372685, "lng": 109.0411473708931}, "feature": {"sight_features": "特色1 家族特色的宗祠", "sight_content": "大水井古建筑群景区距利川城区40公里，历经明末、清中后期、民国3个时期不断的维修和扩建，形成了由李氏庄园、李氏宗祠和高仰台李盖五住宅组成，占地总面积20000余平方米，建筑总面积12000余平方米的建筑群，不仅见证了一个家族历经300多年兴衰，也见证了土家人固有的心智所展示出的文化底蕴和家族庄园封建文化。是世界民歌《龙船调》的发源地，电视剧《大水井风云》、《血誓》的拍摄地。\n\n沿着宽敞的青石板路，拾级而上，映入眼帘的便是翘角凌空的朝门庑殿顶和高高悬挂于门楣的“青莲美荫”四个大字，攀护李白为祖先，借扬李氏身份不俗。气派宏伟，不乏文化内涵。庄园前院更是气度不凡，极尽创意，200平方米的院坝全用规格统一的平板青石铺就，前廊拱卷欧式方柱粗壮挺拔，雕凿精美，堆塑华丽。两侧吊脚雕梁画栋，可谓匠心独运，土汉结合，中西合璧。\n2016年利川大水井景区还原当年历史繁荣场景再现，来大水井深度体验李氏家族三百年兴衰与荣辱的场景还原，再现当年族长三团之首:集族权，军权，政权于一体。时还能互动体验当地民间民族艺术文化:《利川灯歌》，《种瓜调》，《妈屋要来耍》，《闺五更》……"}}, {"title": "玉龙洞", "address": "恩施市利川市团堡镇梨树村", "image": "", "rank": 4, "time": 1.0, "location": {"lat": 30.39565547765213, "lng": 109.13617720009785}, "feature": {"sight_features": "特色1 被誉为鄂西南溶洞中一颗灿烂的洞穴明珠", "sight_content": "玉龙洞地处团堡镇樱桃井村，距“318”国道线上的团堡集镇7公里。因洞内化学沉积物洁白如玉和洞中一景酷似飞龙，故名玉龙洞。该洞分上、中、下三层，洞内终年恒温14—18摄氏度，仅中层洞穴面积就有10余万平方米，中层洞有各种景观80多处。\n它们形态或灿烂如金，或粗如浮图，或细如粉丝，或金银如玉，胜似人间仙境，被中外游客誉为鄂西南溶洞中一颗灿烂的洞穴明珠。令人大饱眼福，使人心旷神怡，流连忘返。其景观小巧玲珑，景点多姿多彩，十分集中。在这座大自然塑造的地下迷宫中，景点诸如“擎天玉柱”、“洞中舞厅”，令人叫绝；“天鹅孵蛋”、“雨后春笋”，栩栩如生；“群象迎宾”、“万寿宫”，雄伟壮观；“玉龙飞腾”、“泉奏八音”，维妙维肖；“金蛋银窝”、“慈禧皇冠”、“石林大观”、“九龙杯”等等。利川市音协主席甘远成老师更为玉龙洞风景区创作了歌曲《相约玉龙洞》，由刘伯飞作词，洪凯伴奏，张恺晴演唱，尽情诉说着玉龙洞的美丽。"}}, {"title": "齐岳山", "address": "恩施土家族苗族自治州利川市", "image": "", "rank": 5, "time": 3.5, "location": {"lat": 30.297203443679802, "lng": 108.94248057755993}, "feature": {"sight_features": "", "sight_content": ""}}, {"title": "鱼木寨", "address": "恩施土家族苗族自治州利川市", "image": "", "rank": 6, "time": 7.5, "location": {"lat": 30.297203443679802, "lng": 108.94248057755993}, "feature": {"sight_features": "", "sight_content": ""}}, {"title": "朝阳洞", "address": "恩施土家族苗族自治州利川市南坪乡朝阳村", "image": "", "rank": 7, "time": 0.3, "location": {"lat": 30.39622430222604, "lng": 108.75054125619286}, "feature": {"sight_features": "", "sight_content": ""}}, {"title": "恩施佛宝山", "address": "恩施市利川市汪营镇佛宝山开发区", "image": "", "rank": 8, "time": 7.5, "location": {"lat": 30.232687391536118, "lng": 108.68245879747305}, "feature": {"sight_features": "特色1 国家级森林公园", "sight_content": "佛宝山景区由富硒饮用水质的原生态峡谷漂流，峡谷观光探险和众多绝美的瀑布群落组成，地处平均海拔1400米神秘的北纬30°线上，完美地保留着自然山水本色。\n景区集绝崖3D玻璃栈道，俄罗斯原木栈道、运动拓展、峡谷徒步、精品民宿、滑雪滑草、汽车露营于一体；融悠久灿烂的土苗文化、厚重的佛教文化于一身；壮美的佛宝山云海，众多的珍稀植被，富足的负氧离子，90%的森林覆盖构成天然的氧吧，使得景区成为最适合旅行的环境之一。"}}, {"title": "恩施兰博户外拓展", "address": "利川市滨江路传媒体育馆", "image": "", "rank": 9, "time": 7.5, "location": {"lat": 30.29951799418295, "lng": 108.94925182483304}, "feature": {"sight_features": "", "sight_content": ""}}, {"title": "福宝山水库", "address": "恩施土家族苗族自治州利川市忠路镇月泉坝", "image": "", "rank": 10, "time": 1.5, "location": {"lat": 30.217306795890593, "lng": 108.69660020667565}, "feature": {"sight_features": "", "sight_content": ""}}, {"title": "苏马荡", "address": "湖北省恩施土家族苗族自治州利川市谋道镇药材村", "image": "", "rank": 11, "time": 2, "location": {"lat": 30.461961316596152, "lng": 108.70405618462883}, "feature": {"sight_features": "", "sight_content": ""}}, {"title": "花千谷生态旅游景区", "address": "恩施土家族苗族自治州利川市笔架山村", "image": "", "rank": 12, "time": 2, "location": {"lat": 30.331023953928455, "lng": 109.03030054565683}, "feature": {"sight_features": "", "sight_content": ""}}, {"title": "北夷城", "address": "利川60公社", "image": "", "rank": 13, "time": 2, "location": {"lat": 30.297203443679802, "lng": 108.94248057755993}, "feature": {"sight_features": "", "sight_content": ""}}, {"title": "利川丽森休闲度假村", "address": "营上村十二组", "image": "", "rank": 14, "time": 2, "location": {"lat": 39.04804448157124, "lng": 116.38871526124237}, "feature": {"sight_features": "", "sight_content": ""}}, {"title": "彭家店子休闲农庄(西南门)", "address": "326省道附近", "image": "", "rank": 15, "time": 2, "location": {"lat": 37.04107050186962, "lng": 114.59294494385392}, "feature": {"sight_features": "", "sight_content": ""}}, {"title": "凉风水滨", "address": "凉雾乡013县道凉风垭水库", "image": "", "rank": 16, "time": 2, "location": {"lat": 30.21728572629828, "lng": 108.84222231654121}, "feature": {"sight_features": "", "sight_content": ""}}, {"title": "利川市如一中药材专业合作社", "address": "南环大道30号", "image": "", "rank": 17, "time": 2, "location": {"lat": 22.77280664922743, "lng": 113.90679056958706}, "feature": {"sight_features": "", "sight_content": ""}}, {"title": "云海山庄", "address": "大水井古建筑群", "image": "", "rank": 18, "time": 2, "location": {"lat": 30.55991231568709, "lng": 114.2691635901105}, "feature": {"sight_features": "", "sight_content": ""}}, {"title": "利川市打渔人家农家乐", "address": "旅游路腾龙洞景区", "image": "", "rank": 19, "time": 2, "location": {"lat": 36.61052256179262, "lng": 117.10083648183176}, "feature": {"sight_features": "", "sight_content": ""}}, {"title": "金卓钓鱼休闲农家乐", "address": "汪营镇双岭村12组下院子", "image": "", "rank": 20, "time": 2, "location": {"lat": 30.282115786064175, "lng": 108.67047715456398}, "feature": {"sight_features": "", "sight_content": ""}}, {"title": "利川市档案馆", "address": "解放西路96号", "image": "", "rank": 21, "time": 2, "location": {"lat": 32.2767442773781, "lng": 119.18287789724124}, "feature": {"sight_features": "", "sight_content": ""}}, {"title": "双桥农家乐", "address": "万福大道298附近", "image": "", "rank": 22, "time": 2, "location": {"lat": 33.84726822150245, "lng": 115.79713069427092}, "feature": {"sight_features": "", "sight_content": ""}}, {"title": "小桥人家生态农庄", "address": "汪营镇兴盛村十四组", "image": "", "rank": 23, "time": 2, "location": {"lat": 30.256581533605956, "lng": 108.75482213828711}, "feature": {"sight_features": "", "sight_content": ""}}, {"title": "文顺豪猪农家乐", "address": "杉王大道520号附近", "image": "", "rank": 24, "time": 2, "location": {"lat": 30.444477008963236, "lng": 108.6906516635208}, "feature": {"sight_features": "", "sight_content": ""}}, {"title": "甘溪山森林公园", "address": "湖北省利川市西南隅 445400", "image": "", "rank": 25, "time": 2, "location": {"lat": 30.297203443679802, "lng": 108.94248057755993}, "feature": {"sight_features": "", "sight_content": ""}}, {"title": "永顺桥", "address": "湖北省利川市毛坝乡花板村 445422", "image": "", "rank": 26, "time": 2, "location": {"lat": 30.05962337564845, "lng": 109.07739632842521}, "feature": {"sight_features": "", "sight_content": ""}}, {"title": "雪源度假村", "address": "恩施自治州利川市杉王大道2号", "image": "", "rank": 27, "time": 2, "location": {"lat": 30.442621661065758, "lng": 108.68904527408012}, "feature": {"sight_features": "", "sight_content": ""}}, {"title": "利川武陵洞寨", "address": "利川市团堡镇大瓮村", "image": "", "rank": 28, "time": 2, "location": {"lat": 30.32745452695557, "lng": 109.22077628929719}, "feature": {"sight_features": "", "sight_content": ""}}, {"title": "佛宝山大峡谷漂流景区", "address": "湖北省利川市佛宝山经济开发区", "image": "", "rank": 29, "time": 2, "location": {"lat": 30.232687391536118, "lng": 108.68245879747305}, "feature": {"sight_features": "", "sight_content": ""}}, {"title": "龙江水族馆", "address": "江源街23号", "image": "", "rank": 30, "time": 2.0, "location": {"lat": 30.299104468286803, "lng": 108.93469664366708}, "feature": {"sight_features": "", "sight_content": ""}}, {"title": "甘溪山水上乐园", "address": "湖北省恩施土家族苗族自治州利川市林家张家湾沪渝高速公路南450米", "image": "", "rank": 31, "time": 2, "location": {"lat": 30.384970320233123, "lng": 109.57437429205326}, "feature": {"sight_features": "", "sight_content": ""}}, {"title": "临江公园", "address": "体育街二巷与公园街交叉口西南150米", "image": "", "rank": 32, "time": 2.0, "location": {"lat": 30.295789179856914, "lng": 108.9487653932977}, "feature": {"sight_features": "", "sight_content": ""}}, {"title": "滨江公园", "address": "湖北省恩施土家族苗族自治州利川市六合路与滨江南路交叉口东北50米", "image": "", "rank": 33, "time": 3.5, "location": {"lat": 30.30116909768956, "lng": 108.95137371227817}, "feature": {"sight_features": "", "sight_content": ""}}, {"title": "风情草原", "address": "湖北省恩施土家族苗族自治州利川市G318(沪聂线)", "image": "", "rank": 34, "time": 2, "location": {"lat": 30.297203443679802, "lng": 108.94248057755993}, "feature": {"sight_features": "", "sight_content": ""}}, {"title": "正觉", "address": "湖北省恩施土家族苗族自治州利川市公园街88号", "image": "", "rank": 35, "time": 2, "location": {"lat": 30.295358533333633, "lng": 108.94661428307603}, "feature": {"sight_features": "", "sight_content": ""}}, {"title": "凡比世界", "address": "东城路88号", "image": "", "rank": 36, "time": 2, "location": {"lat": 39.683125412672474, "lng": 118.27834217592425}, "feature": {"sight_features": "", "sight_content": ""}}, {"title": "陈家祠堂", "address": "恩施土家族苗族自治州利川市齐尖线", "image": "", "rank": 37, "time": 1.5, "location": {"lat": 30.362297239841638, "lng": 108.7202583982985}, "feature": {"sight_features": "", "sight_content": ""}}, {"title": "大众广场", "address": "龙船大道10", "image": "", "rank": 38, "time": 1.0, "location": {"lat": 30.30370478002791, "lng": 108.94144900842755}, "feature": {"sight_features": "", "sight_content": ""}}, {"title": "栖溪谷度假村", "address": "南坪乡五谷村22组", "image": "", "rank": 39, "time": 2, "location": {"lat": 30.44550356836133, "lng": 108.83996754635523}, "feature": {"sight_features": "", "sight_content": ""}}, {"title": "财苑山庄", "address": "杉王大道附近", "image": "", "rank": 40, "time": 2, "location": {"lat": 30.44090375518255, "lng": 108.69041504356134}, "feature": {"sight_features": "", "sight_content": ""}}, {"title": "中国水杉植物园", "address": "湖北省恩施土家族苗族自治州利川市杉王大道189", "image": "", "rank": 41, "time": 2, "location": {"lat": 30.434848596082052, "lng": 108.69538667588087}, "feature": {"sight_features": "", "sight_content": ""}}, {"title": "阿富生态园", "address": "近318国道,香连药业向东200米", "image": "", "rank": 42, "time": 2, "location": {"lat": 30.30245403414991, "lng": 108.99026333317892}, "feature": {"sight_features": "", "sight_content": ""}}, {"title": "和家湾生态休闲农庄", "address": "318国道", "image": "", "rank": 43, "time": 2, "location": {"lat": 31.023348267795328, "lng": 120.88254137011852}, "feature": {"sight_features": "", "sight_content": ""}}, {"title": "钟鸣画坊", "address": "清江大道83号", "image": "", "rank": 44, "time": 2, "location": {"lat": 30.385808476491675, "lng": 111.46626182668663}, "feature": {"sight_features": "", "sight_content": ""}}, {"title": "南平水上乐园", "address": "南坪乡恩键水上乐园", "image": "", "rank": 45, "time": 6.0, "location": {"lat": 39.42255275325627, "lng": 118.92077057604848}, "feature": {"sight_features": "", "sight_content": ""}}, {"title": "珍开心儿童乐园", "address": "汪营兴盛福路佳乐美购物广场", "image": "", "rank": 46, "time": 2, "location": {"lat": 29.327184836908206, "lng": 115.76352157181245}, "feature": {"sight_features": "", "sight_content": ""}}, {"title": "田家园子农家乐", "address": "元堡乡小塘村6组", "image": "", "rank": 47, "time": 2, "location": {"lat": 30.26202631182012, "lng": 108.99992040217403}, "feature": {"sight_features": "", "sight_content": ""}}, {"title": "凉城利川避暑农家乐", "address": "汪营镇清源街希望巷11号", "image": "", "rank": 48, "time": 2, "location": {"lat": 34.79378139957621, "lng": 113.39332416969778}, "feature": {"sight_features": "", "sight_content": ""}}, {"title": "水上主题乐园", "address": "利川高速路出口国际汽车城内500米处", "image": "", "rank": 49, "time": 2, "location": {"lat": 30.297203443679802, "lng": 108.94248057755993}, "feature": {"sight_features": "", "sight_content": ""}}, {"title": "锦绣山庄农家乐", "address": "竹园大道财苑山庄旁", "image": "", "rank": 50, "time": 2, "location": {"lat": 30.42114060517194, "lng": 108.75780225963001}, "feature": {"sight_features": "", "sight_content": ""}}, {"title": "绿林山庄农家乐", "address": "竹园大道南坪民族中学附近", "image": "", "rank": 51, "time": 2, "location": {"lat": 30.41229712754263, "lng": 108.78688362671832}, "feature": {"sight_features": "", "sight_content": ""}}, {"title": "鳄鱼(清江大道)", "address": "清江大道128号", "image": "", "rank": 52, "time": 2, "location": {"lat": 30.38015171407303, "lng": 111.46674133857464}, "feature": {"sight_features": "", "sight_content": ""}}, {"title": "理智坳农庄", "address": "理智村", "image": "", "rank": 53, "time": 2, "location": {"lat": 29.994750632911018, "lng": 108.67607857499092}, "feature": {"sight_features": "", "sight_content": ""}}, {"title": "利川文化传媒广场-剧院", "address": "滨江北路", "image": "", "rank": 54, "time": 2, "location": {"lat": 29.995725011945524, "lng": 120.52920561793972}, "feature": {"sight_features": "", "sight_content": ""}}, {"title": "利川国正农粮生态农业开发有限公...", "address": "南坪乡五谷村22组", "image": "", "rank": 55, "time": 2, "location": {"lat": 30.44550356836133, "lng": 108.83996754635523}, "feature": {"sight_features": "", "sight_content": ""}}, {"title": "亲陪少儿图书馆", "address": "东城街道新世纪商都五楼", "image": "", "rank": 56, "time": 2, "location": {"lat": 31.165918593015903, "lng": 108.38602999042328}, "feature": {"sight_features": "", "sight_content": ""}}, {"title": "鹏程月季园", "address": "柏杨坝镇梅子中心卫生室北侧", "image": "", "rank": 57, "time": 2, "location": {"lat": 41.27326986501923, "lng": 125.37240975332458}, "feature": {"sight_features": "", "sight_content": ""}}, {"title": "利川广播少年艺术团", "address": "岩洞湾一巷12号", "image": "", "rank": 58, "time": 2, "location": {"lat": 30.874312943374825, "lng": 110.54353115363803}, "feature": {"sight_features": "", "sight_content": ""}}, {"title": "利川惠生园生态农场", "address": "团堡镇中垭村11组6号", "image": "", "rank": 59, "time": 2, "location": {"lat": 30.28823560594051, "lng": 109.2521614686625}, "feature": {"sight_features": "", "sight_content": ""}}, {"title": "异光年密室逃脱", "address": "西城路88号", "image": "", "rank": 60, "time": 2, "location": {"lat": 39.68402548721456, "lng": 118.27050197114514}, "feature": {"sight_features": "", "sight_content": ""}}]}