{"cityName": "黎川", "days": 2, "cityImage": "", "spots": [{"title": "黎川县华山综合垦殖场华山林场", "address": "洵口街道西100米", "image": "", "rank": 1, "time": 2, "location": {"lat": 27.38147975978027, "lng": 117.02835554875806}, "feature": {"sight_features": "", "sight_content": ""}}, {"title": "忠义庙", "address": "抚州市黎川县", "image": "", "rank": 2, "time": 2, "location": {"lat": 27.28834023483109, "lng": 116.9145070033776}, "feature": {"sight_features": "", "sight_content": ""}}, {"title": "红军故居", "address": "抚州市黎川县东华山水景区内", "image": "", "rank": 3, "time": 2, "location": {"lat": 27.484523668557127, "lng": 117.0102073304783}, "feature": {"sight_features": "", "sight_content": ""}}, {"title": "黎川县档案馆", "address": "状元路", "image": "", "rank": 4, "time": 2, "location": {"lat": 35.7762736517072, "lng": 113.29426102814486}, "feature": {"sight_features": "", "sight_content": ""}}, {"title": "江西省黎川县图书馆", "address": "日峰镇小北门路4号", "image": "", "rank": 5, "time": 2, "location": {"lat": 27.29918572576042, "lng": 116.91956266678608}, "feature": {"sight_features": "", "sight_content": ""}}, {"title": "洪门湖旅游区", "address": "连源方向至黄源再到黄虎潭有洪门湖旅游山庄路标", "image": "", "rank": 6, "time": 2, "location": {"lat": 26.37657049723172, "lng": 118.22900040123788}, "feature": {"sight_features": "", "sight_content": ""}}, {"title": "森冠农业", "address": "园区大道与国安路交叉口西南200米", "image": "", "rank": 7, "time": 2, "location": {"lat": 27.279869213089732, "lng": 116.90679901120598}, "feature": {"sight_features": "", "sight_content": ""}}, {"title": "国安风情商业街", "address": "江西省黎川县国安风情商业街", "image": "", "rank": 8, "time": 2, "location": {"lat": 27.282982625900136, "lng": 116.91478278316906}, "feature": {"sight_features": "", "sight_content": ""}}, {"title": "日峰商业步行街", "address": "江西省黎川县日峰商业步行街", "image": "", "rank": 9, "time": 2, "location": {"lat": 27.29736490040278, "lng": 116.91908945201986}, "feature": {"sight_features": "", "sight_content": ""}}, {"title": "帝王财富广场", "address": "江西省黎川县财富商业步行街附近", "image": "", "rank": 10, "time": 2, "location": {"lat": 27.298287667217103, "lng": 116.92153444737984}, "feature": {"sight_features": "", "sight_content": ""}}, {"title": "义羊隘", "address": "抚州市-黎川县", "image": "", "rank": 11, "time": 2, "location": {"lat": 27.28834023483109, "lng": 116.9145070033776}, "feature": {"sight_features": "", "sight_content": ""}}, {"title": "黎川明清老街", "address": "江西省抚州市黎川县城(磨市街口到南城门之间)", "image": "", "rank": 12, "time": 0.75, "location": {"lat": 27.28834023483109, "lng": 116.9145070033776}, "feature": {"sight_features": "", "sight_content": ""}}]}