{"cityName": "醴陵", "days": 2, "cityImage": "", "spots": [{"title": "状元洲", "address": "株洲市醴陵市城区渌水中", "image": "", "rank": 1, "time": 2.0, "location": {"lat": 27.65826977121452, "lng": 113.50971477790642}, "feature": {"sight_features": "", "sight_content": ""}}, {"title": "仙山公园", "address": "株洲市醴陵市瓷城河西", "image": "", "rank": 2, "time": 2, "location": {"lat": 27.65232514995133, "lng": 113.50348315083997}, "feature": {"sight_features": "", "sight_content": ""}}, {"title": "醴陵陶瓷博物馆", "address": "株洲市醴陵市经开区凤凰大道A区醴陵瓷谷", "image": "", "rank": 3, "time": 2.0, "location": {"lat": 27.69146512150335, "lng": 113.47992454806865}, "feature": {"sight_features": "", "sight_content": ""}}, {"title": "云岩寺", "address": "贺家桥镇寺冲村九峰山麓", "image": "", "rank": 4, "time": 1.0, "location": {"lat": 27.436797774825386, "lng": 113.34564148908962}, "feature": {"sight_features": "", "sight_content": ""}}, {"title": "三狮洞", "address": "醴陵市东郊", "image": "", "rank": 5, "time": 2, "location": {"lat": 27.65232514995133, "lng": 113.50348315083997}, "feature": {"sight_features": "", "sight_content": ""}}, {"title": "陈明仁故居", "address": "瓷城大道41号", "image": "", "rank": 6, "time": 2, "location": {"lat": 27.66535966087391, "lng": 113.50772467188027}, "feature": {"sight_features": "", "sight_content": ""}}, {"title": "渌江风光带", "address": "株洲市醴陵市左权中路", "image": "", "rank": 7, "time": 2, "location": {"lat": 27.65273001573509, "lng": 113.50316411314668}, "feature": {"sight_features": "", "sight_content": ""}}, {"title": "醴陵市博物馆", "address": "湖南省株洲市醴陵市东正街33号", "image": "", "rank": 8, "time": 2.5, "location": {"lat": 27.663545963543765, "lng": 113.5134981128317}, "feature": {"sight_features": "", "sight_content": ""}}, {"title": "乡村时光生态休闲山庄", "address": "醴陵大道珊天新村往东乡方向400米处(沿新公安局往东堡方向)", "image": "", "rank": 9, "time": 2, "location": {"lat": 31.874008906648484, "lng": 117.28868870716242}, "feature": {"sight_features": "", "sight_content": ""}}, {"title": "醴陵大剧院", "address": "左权路", "image": "", "rank": 10, "time": 2.0, "location": {"lat": 27.674523482708814, "lng": 113.50167908388487}, "feature": {"sight_features": "", "sight_content": ""}}, {"title": "红火火农场", "address": "313省道附近", "image": "", "rank": 11, "time": 2, "location": {"lat": 40.47363217982258, "lng": 116.99325005466613}, "feature": {"sight_features": "", "sight_content": ""}}, {"title": "炭窑遗址", "address": "湖南省醴陵市境内 412200", "image": "", "rank": 12, "time": 2, "location": {"lat": 27.65232514995133, "lng": 113.50348315083997}, "feature": {"sight_features": "", "sight_content": ""}}, {"title": "仙岳新山", "address": "左权路156号", "image": "", "rank": 13, "time": 2, "location": {"lat": 27.65164440622482, "lng": 113.50853442602603}, "feature": {"sight_features": "", "sight_content": ""}}, {"title": "仙园山庄", "address": "左权路59号", "image": "", "rank": 14, "time": 2, "location": {"lat": 27.651705724717836, "lng": 113.5023283350903}, "feature": {"sight_features": "", "sight_content": ""}}, {"title": "中和水上乐园", "address": "浦口镇106国道", "image": "", "rank": 15, "time": 2, "location": {"lat": 27.802269718523917, "lng": 113.6465335422375}, "feature": {"sight_features": "", "sight_content": ""}}, {"title": "李立三故居", "address": "醴陵市阳三石街道李立三路7号", "image": "", "rank": 16, "time": 1.0, "location": {"lat": 27.65997794007316, "lng": 113.53735653764313}, "feature": {"sight_features": "", "sight_content": ""}}, {"title": "湖南陶瓷陈列馆座", "address": "湖南省醴陵市境内 412200", "image": "", "rank": 17, "time": 2, "location": {"lat": 27.65232514995133, "lng": 113.50348315083997}, "feature": {"sight_features": "", "sight_content": ""}}, {"title": "新爱婴儿童乐园", "address": "宝芝林药号附近", "image": "", "rank": 18, "time": 2, "location": {"lat": 27.667759274190693, "lng": 113.51042992700744}, "feature": {"sight_features": "", "sight_content": ""}}, {"title": "天符庙", "address": "株洲市醴陵市立新街66号对面", "image": "", "rank": 19, "time": 2, "location": {"lat": 27.652542899434714, "lng": 113.51213218360928}, "feature": {"sight_features": "", "sight_content": ""}}, {"title": "长庆寺", "address": "湖南省株洲市醴陵市XB23", "image": "", "rank": 20, "time": 0.75, "location": {"lat": 27.65232514995133, "lng": 113.50348315083997}, "feature": {"sight_features": "", "sight_content": ""}}, {"title": "耿傅公祠", "address": "湖南省株洲市醴陵市Y072", "image": "", "rank": 21, "time": 2, "location": {"lat": 27.65232514995133, "lng": 113.50348315083997}, "feature": {"sight_features": "", "sight_content": ""}}, {"title": "飞神庙", "address": "湖南省株洲市醴陵市国瓷路", "image": "", "rank": 22, "time": 2, "location": {"lat": 27.689472674222262, "lng": 113.49006913105391}, "feature": {"sight_features": "", "sight_content": ""}}, {"title": "五彩亲子水上乐园", "address": "醴泉路口与国瓷路交叉路口五彩新城售楼部", "image": "", "rank": 23, "time": 2, "location": {"lat": 27.68502809183251, "lng": 113.50466911982471}, "feature": {"sight_features": "", "sight_content": ""}}, {"title": "嬉戏的公园", "address": "李畋东路东50米", "image": "", "rank": 24, "time": 2, "location": {"lat": 27.67999329532899, "lng": 113.51395161787673}, "feature": {"sight_features": "", "sight_content": ""}}, {"title": "耿飚故居", "address": "湖南省株洲市醴陵市枫林镇隆兴坳村", "image": "", "rank": 25, "time": 2, "location": {"lat": 27.807332240648353, "lng": 113.42238325537468}, "feature": {"sight_features": "", "sight_content": ""}}, {"title": "大围山植物园", "address": "湖南省株洲市醴陵市北苑路", "image": "", "rank": 26, "time": 2, "location": {"lat": 27.80150456058665, "lng": 113.67999101179306}, "feature": {"sight_features": "", "sight_content": ""}}, {"title": "八里寺", "address": "株洲市醴陵市", "image": "", "rank": 27, "time": 2, "location": {"lat": 27.65232514995133, "lng": 113.50348315083997}, "feature": {"sight_features": "", "sight_content": ""}}, {"title": "湖南省醴陵市仙岳山圣德寺（圣帝...", "address": "仙岳山路", "image": "", "rank": 28, "time": 2, "location": {"lat": 27.642194598968402, "lng": 113.50458434763208}, "feature": {"sight_features": "", "sight_content": ""}}, {"title": "启智游乐园", "address": "湖南省株洲市醴陵市解放路3号", "image": "", "rank": 29, "time": 2, "location": {"lat": 27.662805300454817, "lng": 113.50483817193857}, "feature": {"sight_features": "", "sight_content": ""}}, {"title": "乐淘淘儿童游乐园", "address": "湖南省株洲市醴陵市泉湖路79号", "image": "", "rank": 30, "time": 2, "location": {"lat": 27.658893626828835, "lng": 113.5211768049725}, "feature": {"sight_features": "", "sight_content": ""}}, {"title": "孝仙寺", "address": "106国道东150米", "image": "", "rank": 31, "time": 2, "location": {"lat": 38.19120557976281, "lng": 116.12001647604805}, "feature": {"sight_features": "", "sight_content": ""}}, {"title": "广目天山寺", "address": "106国道附近", "image": "", "rank": 32, "time": 2, "location": {"lat": 39.1725896711994, "lng": 116.39041588203045}, "feature": {"sight_features": "", "sight_content": ""}}, {"title": "程家祠堂", "address": "株洲市醴陵市B一六县道", "image": "", "rank": 33, "time": 2, "location": {"lat": 27.8685520720288, "lng": 113.43381821110592}, "feature": {"sight_features": "", "sight_content": ""}}, {"title": "大王巡山儿童主题乐园", "address": "湖南省株洲市醴陵市文化路41-43-45号", "image": "", "rank": 34, "time": 2, "location": {"lat": 27.838773686064382, "lng": 113.1961361764895}, "feature": {"sight_features": "", "sight_content": ""}}, {"title": "卡迪乐儿童生活馆", "address": "湖南省株洲市醴陵市瓷城大道26号", "image": "", "rank": 35, "time": 2, "location": {"lat": 27.664434441647042, "lng": 113.50608167918782}, "feature": {"sight_features": "", "sight_content": ""}}, {"title": "儿童天地城", "address": "B28县道南50米(大障镇幼儿园东南)", "image": "", "rank": 36, "time": 2, "location": {"lat": 30.415661267023374, "lng": 103.80952516471449}, "feature": {"sight_features": "", "sight_content": ""}}, {"title": "青云山庄", "address": "B28县道附近", "image": "", "rank": 37, "time": 2, "location": {"lat": 27.370627165916147, "lng": 113.32216763964654}, "feature": {"sight_features": "", "sight_content": ""}}, {"title": "新世纪艺术馆", "address": "湖南新世纪陶瓷有限公司旁边", "image": "", "rank": 38, "time": 2, "location": {"lat": 27.629319956499387, "lng": 113.52971648431722}, "feature": {"sight_features": "", "sight_content": ""}}, {"title": "职工档案管理中心", "address": "滨河路3号", "image": "", "rank": 39, "time": 2, "location": {"lat": 39.64030653721436, "lng": 118.22070970520203}, "feature": {"sight_features": "", "sight_content": ""}}, {"title": "毛泽东同志考察农民运动醴陵纪念...", "address": "先农坛路", "image": "", "rank": 40, "time": 2, "location": {"lat": 41.79190904541749, "lng": 123.47555241262678}, "feature": {"sight_features": "", "sight_content": ""}}, {"title": "姜村水上乐园", "address": "醴陵工业园(2路车终点站)", "image": "", "rank": 41, "time": 2.5, "location": {"lat": 27.65232514995133, "lng": 113.50348315083997}, "feature": {"sight_features": "", "sight_content": ""}}, {"title": "西山公园游乐场", "address": "左权中路，仙山公园北门内，烈士陵园内(党校对面)", "image": "", "rank": 42, "time": 2, "location": {"lat": 27.652453203904784, "lng": 113.50218834854951}, "feature": {"sight_features": "", "sight_content": ""}}, {"title": "水岸花城水上乐园", "address": "征稽所往巷子里100米处", "image": "", "rank": 43, "time": 2, "location": {"lat": 23.139634815069254, "lng": 113.33160006039661}, "feature": {"sight_features": "", "sight_content": ""}}, {"title": "朋友圈农家乐", "address": "官庄乡新桥村黄头冲组18号", "image": "", "rank": 44, "time": null, "location": {"lat": 27.891043944458506, "lng": 113.47480950576768}, "feature": {"sight_features": "", "sight_content": ""}}, {"title": "株洲市规划设计院(醴陵办事处)", "address": "左权中路59号附近", "image": "", "rank": 45, "time": 7.5, "location": {"lat": 27.654285049942278, "lng": 113.50329461930633}, "feature": {"sight_features": "", "sight_content": ""}}, {"title": "快活林休闲山庄", "address": "106国道附近", "image": "", "rank": 46, "time": 2, "location": {"lat": 39.1725896711994, "lng": 116.39041588203045}, "feature": {"sight_features": "", "sight_content": ""}}, {"title": "云天庄园", "address": "贺家桥水口山村(云岩寺)", "image": "", "rank": 47, "time": 2, "location": {"lat": 27.458175384951776, "lng": 113.34612306618183}, "feature": {"sight_features": "", "sight_content": ""}}, {"title": "五彩书吧", "address": "左权路72号规划局店", "image": "", "rank": 48, "time": 2, "location": {"lat": 27.653668491226668, "lng": 113.50338162435126}, "feature": {"sight_features": "", "sight_content": ""}}, {"title": "玉瓷艺术馆", "address": "解放路东段37号", "image": "", "rank": 49, "time": 2, "location": {"lat": 31.740488584848467, "lng": 105.96138382847856}, "feature": {"sight_features": "", "sight_content": ""}}, {"title": "九洲大剧院", "address": "励节路与瓷城大道交叉口北200米", "image": "", "rank": 50, "time": 2, "location": {"lat": 27.667189603449607, "lng": 113.50774436543198}, "feature": {"sight_features": "", "sight_content": ""}}, {"title": "醴陵革命烈士纪念馆", "address": "左权中路醴陵烈士陵园内", "image": "", "rank": 51, "time": 2, "location": {"lat": 27.661443517387806, "lng": 113.50000945014592}, "feature": {"sight_features": "", "sight_content": ""}}, {"title": "大山葡萄园", "address": "白兔潭镇老虎塘", "image": "", "rank": 52, "time": 2, "location": {"lat": 27.77982422918466, "lng": 113.69939335529321}, "feature": {"sight_features": "", "sight_content": ""}}, {"title": "醴陵市华塘葡萄园", "address": "华塘村汤家老屋组", "image": "", "rank": 53, "time": 2, "location": {"lat": 29.923439471843178, "lng": 121.63440020731848}, "feature": {"sight_features": "", "sight_content": ""}}, {"title": "阳光高尔夫俱乐部", "address": "立三路318号", "image": "", "rank": 54, "time": 2, "location": {"lat": 27.657701951508514, "lng": 113.53882774168369}, "feature": {"sight_features": "", "sight_content": ""}}, {"title": "醴陵国瓷馆", "address": "湖南省醴陵市玉瓷路", "image": "", "rank": 55, "time": 2, "location": {"lat": 27.674541364366352, "lng": 113.49219014085384}, "feature": {"sight_features": "", "sight_content": ""}}, {"title": "世纪中环商业街", "address": "湖南省醴陵市瓷城大道", "image": "", "rank": 56, "time": 2, "location": {"lat": 27.667764118271077, "lng": 113.51019371937026}, "feature": {"sight_features": "", "sight_content": ""}}, {"title": "茅田山村", "address": "株洲市-醴陵市", "image": "", "rank": 57, "time": 2, "location": {"lat": 27.65232514995133, "lng": 113.50348315083997}, "feature": {"sight_features": "", "sight_content": ""}}, {"title": "到头冲", "address": "株洲市-醴陵市", "image": "", "rank": 58, "time": null, "location": {"lat": 27.65232514995133, "lng": 113.50348315083997}, "feature": {"sight_features": "", "sight_content": ""}}, {"title": "渌江桥", "address": "湖南省株洲市醴陵市", "image": "", "rank": 59, "time": 2, "location": {"lat": 27.65232514995133, "lng": 113.50348315083997}, "feature": {"sight_features": "", "sight_content": ""}}]}