{"cityName": "临沧", "days": "", "cityImage": "", "spots": [{"title": "翁丁佤族原始群居村落", "address": "临沧市沧源县佤族自治县内", "image": "", "rank": 1, "time": 3.5, "location": {"lat": 23.152878733913262, "lng": 99.25272169608435}, "feature": {"sight_features": "特色1 被誉为“中国最后一个原始部落”", "sight_content": "翁丁佤语意为“云雾缠绕的地方”，是沧源县中西部的一个普通村庄，我们现在所在的翁丁大寨是翁丁村的中心，有97户500多人，全部为佤族群众，翁丁建寨历史近400年。为杨氏家族首先建寨，所以寨主职位在杨氏宗族中世袭继承。寨子由寨门、民居、寨桩、神林等组成。\n翁丁村民早期是从缅甸佤邦由9户人家迁到一个叫芒回的地方，后来人口不断发展，头人就安排他的兄弟带领4户人家来到了翁丁另建新寨，他的兄弟便成了翁丁大寨的头人，形成了现今杨氏、肖氏、赵氏、田氏四大姓氏以氏族为单位连片居住的生态村落。\n翁丁村属亚热带气候，山多林密，四周群山环绕，紧邻南滚河国家级自然保护区，气候宜人，水肥地美，是阿佤人民美好的家园之一。"}}, {"title": "彩壁国画长廊", "address": "临沧市沧源县佤族自治县内", "image": "", "rank": 2, "time": 2, "location": {"lat": 23.152878733913262, "lng": 99.25272169608435}, "feature": {"sight_features": "", "sight_content": ""}}, {"title": "沧源崖画谷", "address": "临沧市沧源佤族自治县", "image": "", "rank": 3, "time": 2.5, "location": {"lat": 23.152878733913262, "lng": 99.25272169608435}, "feature": {"sight_features": "", "sight_content": ""}}, {"title": "五老山森林公园", "address": "临沧市临翔区五老山瀑布段（城东15公里处）。", "image": "", "rank": 4, "time": 1.0, "location": {"lat": 23.90097203173529, "lng": 100.19128961803167}, "feature": {"sight_features": "", "sight_content": ""}}, {"title": "青龙桥", "address": "临沧地区凤庆县城东北60公里外的澜沧江上", "image": "", "rank": 5, "time": 0.25, "location": {"lat": 24.76082776358436, "lng": 99.90098981752149}, "feature": {"sight_features": "", "sight_content": ""}}, {"title": "鲁史古镇", "address": "临沧市凤庆县县城东北部", "image": "", "rank": 6, "time": 3.0, "location": {"lat": 24.586472458273995, "lng": 99.93498922221478}, "feature": {"sight_features": "", "sight_content": ""}}, {"title": "南伞跨国溶洞", "address": "南伞镇与缅甸掸邦第一特区果敢县接壤的国境线上", "image": "", "rank": 7, "time": 1.0, "location": {"lat": 23.781250092720093, "lng": 98.83229228776328}, "feature": {"sight_features": "", "sight_content": ""}}, {"title": "广允缅寺", "address": "云南省临沧市沧源佤族自治县城勐董大街北侧", "image": "", "rank": 8, "time": 1.5, "location": {"lat": 23.152878733913262, "lng": 99.25272169608435}, "feature": {"sight_features": "", "sight_content": ""}}, {"title": "孟定洞景佛寺", "address": "临沧市耿马县孟定镇的洞景寨", "image": "", "rank": 9, "time": 1.0, "location": {"lat": 23.560141928380407, "lng": 99.08912574525606}, "feature": {"sight_features": "", "sight_content": ""}}, {"title": "茶文化风情园", "address": "云南省临沧市临翔区忙畔街道茶苑路173号临沧和堂玥春", "image": "", "rank": 10, "time": 1.0, "location": {"lat": 23.916564093566212, "lng": 100.11204686284829}, "feature": {"sight_features": "", "sight_content": ""}}, {"title": "耿马土司府", "address": "临沧市耿马傣族佤族自治县耿马镇", "image": "", "rank": 11, "time": 2, "location": {"lat": 23.598419859299746, "lng": 99.44331771288816}, "feature": {"sight_features": "", "sight_content": ""}}, {"title": "沧源司岗里景区", "address": "临沧市沧源佤族自治县司岗里大道费达佛寺旁", "image": "", "rank": 12, "time": 2, "location": {"lat": 23.156389350832573, "lng": 99.26034601828418}, "feature": {"sight_features": "", "sight_content": ""}}, {"title": "景戈白塔", "address": "耿马县城京云民族中学候山顶", "image": "", "rank": 13, "time": 2, "location": {"lat": 23.535555050627835, "lng": 99.41192352712218}, "feature": {"sight_features": "", "sight_content": ""}}, {"title": "凤庆石洞寺", "address": "凤庆县城东南30公里彝族乡箐头村", "image": "", "rank": 14, "time": 1.0, "location": {"lat": 24.489593231501797, "lng": 100.04952009800277}, "feature": {"sight_features": "", "sight_content": ""}}, {"title": "石佛洞遗址", "address": "临沧市耿马县城南25公里处的小黑江畔", "image": "", "rank": 15, "time": 1.0, "location": {"lat": 24.02889563498842, "lng": 99.25944227892448}, "feature": {"sight_features": "", "sight_content": ""}}, {"title": "凤庆文庙", "address": "凤庆县城", "image": "", "rank": 16, "time": 1.0, "location": {"lat": 24.586472458273995, "lng": 99.93498922221478}, "feature": {"sight_features": "", "sight_content": ""}}, {"title": "千米国画长廊", "address": "临沧市沧源县佤族自治县沧源崖画谷风景旅游区内", "image": "", "rank": 17, "time": 2, "location": {"lat": 23.27643497623208, "lng": 99.32624663842398}, "feature": {"sight_features": "", "sight_content": ""}}, {"title": "凤庆青龙桥", "address": "临沧市凤庆县鲁史镇金马村和马街镇正义村间的澜沧江", "image": "", "rank": 18, "time": 1.0, "location": {"lat": 24.776172806912847, "lng": 100.02774346387102}, "feature": {"sight_features": "", "sight_content": ""}}, {"title": "永德大雪山", "address": "临沧地区东北部永德县境内", "image": "", "rank": 19, "time": 1.0, "location": {"lat": 24.024871282776907, "lng": 99.26507564260625}, "feature": {"sight_features": "", "sight_content": ""}}, {"title": "耿马总佛寺", "address": "临沧市耿马傣族佤族自治县甘东西路", "image": "", "rank": 20, "time": 1.5, "location": {"lat": 23.545881464891085, "lng": 99.40612068822466}, "feature": {"sight_features": "", "sight_content": ""}}, {"title": "临沧西门公园", "address": "云南省临沧市临翔区凤翔镇公园路1号", "image": "", "rank": 21, "time": 3.5, "location": {"lat": 23.887038059850838, "lng": 100.08883968024662}, "feature": {"sight_features": "", "sight_content": ""}}, {"title": "葫芦小镇", "address": "临沧市沧源佤族自治县葫芦小镇", "image": "", "rank": 22, "time": 2, "location": {"lat": 23.140922171702346, "lng": 99.23760291162746}, "feature": {"sight_features": "", "sight_content": ""}}, {"title": "忙肺村千亩古茶园", "address": "临沧市永德县037乡道", "image": "", "rank": 23, "time": 2, "location": {"lat": 24.05121406880797, "lng": 99.12037650127624}, "feature": {"sight_features": "", "sight_content": ""}}, {"title": "鑫智趣儿童乐园", "address": "永德县康德小区北区15-1-1", "image": "", "rank": 24, "time": 1.5, "location": {"lat": 24.028036807236635, "lng": 99.26695322598594}, "feature": {"sight_features": "", "sight_content": ""}}, {"title": "古墨村", "address": "临沧市凤庆县诗礼街古墨村公所", "image": "", "rank": 25, "time": 2, "location": {"lat": 24.91444182971601, "lng": 99.9123527534051}, "feature": {"sight_features": "", "sight_content": ""}}, {"title": "临沧市临翔区图书馆", "address": "绿树巷1号", "image": "", "rank": 26, "time": 3.5, "location": {"lat": 23.87835685028618, "lng": 100.09660047930763}, "feature": {"sight_features": "", "sight_content": ""}}, {"title": "玉龙湖", "address": "西河北路(近二院)", "image": "", "rank": 27, "time": 3.5, "location": {"lat": 37.5167549772722, "lng": 122.0752867686793}, "feature": {"sight_features": "", "sight_content": ""}}, {"title": "小探索家乐园", "address": "白塔路锦绣江山正大门直走30米处", "image": "", "rank": 28, "time": 2, "location": {"lat": 23.89844762264378, "lng": 100.09193600549098}, "feature": {"sight_features": "", "sight_content": ""}}, {"title": "天顺儿童乐园", "address": "百树广场天顺超市2楼", "image": "", "rank": 29, "time": 2, "location": {"lat": 23.88559334343901, "lng": 100.09048926111168}, "feature": {"sight_features": "", "sight_content": ""}}, {"title": "临沧茶文化风景园", "address": "云南省临沧市临翔区城郊 677000", "image": "", "rank": 30, "time": 2, "location": {"lat": 23.901401938645204, "lng": 100.08844253039773}, "feature": {"sight_features": "", "sight_content": ""}}, {"title": "临沧财富中心广场", "address": "凤翔镇旗山路163号", "image": "", "rank": 31, "time": 3.5, "location": {"lat": 23.895149727410438, "lng": 100.09851882329983}, "feature": {"sight_features": "", "sight_content": ""}}, {"title": "天喜温泉宾馆", "address": "凤梧路75号", "image": "", "rank": 32, "time": 2, "location": {"lat": 34.243120631119716, "lng": 108.93973050327507}, "feature": {"sight_features": "", "sight_content": ""}}, {"title": "神农祠", "address": "勐库镇神农祠茶神庙(近冰岛村)", "image": "", "rank": 33, "time": 2, "location": {"lat": 23.68173209809912, "lng": 99.8775683509676}, "feature": {"sight_features": "", "sight_content": ""}}, {"title": "双江拉祜族佤族布朗族傣族自治县...", "address": "阳光巷", "image": "", "rank": 34, "time": 2, "location": {"lat": 39.97347832087906, "lng": 116.99266683071208}, "feature": {"sight_features": "", "sight_content": ""}}, {"title": "一枝红画坊", "address": "弄翔路2-7", "image": "", "rank": 35, "time": 2, "location": {"lat": 23.485102896125294, "lng": 99.83283041895727}, "feature": {"sight_features": "", "sight_content": ""}}, {"title": "康县图书馆", "address": "公主路22号", "image": "", "rank": 36, "time": 1.5, "location": {"lat": 23.766309183564243, "lng": 98.83454573923602}, "feature": {"sight_features": "", "sight_content": ""}}, {"title": "司岗里传说展览厅", "address": "028乡道", "image": "", "rank": 37, "time": 2, "location": {"lat": 38.49443500611887, "lng": 112.88216180520445}, "feature": {"sight_features": "", "sight_content": ""}}, {"title": "凤庆会展中心", "address": "滇红南路", "image": "", "rank": 38, "time": 2.5, "location": {"lat": 24.594767352136962, "lng": 99.92795133900421}, "feature": {"sight_features": "", "sight_content": ""}}, {"title": "缘发温泉", "address": "明朗线", "image": "", "rank": 39, "time": 2, "location": {"lat": 23.913321947427, "lng": 99.21762508307543}, "feature": {"sight_features": "", "sight_content": ""}}, {"title": "小淘气游乐园", "address": "爱华镇滨河东路", "image": "", "rank": 40, "time": 2, "location": {"lat": 24.450982126878934, "lng": 100.14505652836492}, "feature": {"sight_features": "", "sight_content": ""}}, {"title": "古濮园农家乐", "address": "凤山镇董扁村看守所对面", "image": "", "rank": 41, "time": 2, "location": {"lat": 24.63977520436692, "lng": 99.91659296920751}, "feature": {"sight_features": "", "sight_content": ""}}, {"title": "云县图书馆", "address": "云兴商业街", "image": "", "rank": 42, "time": 1.5, "location": {"lat": 24.45103112157446, "lng": 100.13852811732755}, "feature": {"sight_features": "", "sight_content": ""}}, {"title": "惠民农家乐", "address": "泰兴木业对面", "image": "", "rank": 43, "time": 2, "location": {"lat": 32.17747402371212, "lng": 120.05859939046078}, "feature": {"sight_features": "", "sight_content": ""}}, {"title": "勐库农场", "address": "314省道附近", "image": "", "rank": 44, "time": 2, "location": {"lat": 40.19306973684933, "lng": 117.32479692178045}, "feature": {"sight_features": "", "sight_content": ""}}, {"title": "福荣公社胶厂一队", "address": "崇刚牛场路", "image": "", "rank": 45, "time": 2, "location": {"lat": 39.292246176020875, "lng": 117.11604172370745}, "feature": {"sight_features": "", "sight_content": ""}}, {"title": "永鑫彩钢大棚", "address": "甘东西路64号附近", "image": "", "rank": 46, "time": 2, "location": {"lat": 23.545560016711104, "lng": 99.40786763642392}, "feature": {"sight_features": "", "sight_content": ""}}, {"title": "耿马金叶烤烟综合服务专业合作社", "address": "耿马镇新城村", "image": "", "rank": 47, "time": 2, "location": {"lat": 23.568051975172896, "lng": 99.3879953938032}, "feature": {"sight_features": "", "sight_content": ""}}, {"title": "民生农家乐", "address": "团结路15号", "image": "", "rank": 48, "time": 2, "location": {"lat": 39.743780735311475, "lng": 118.71233614131377}, "feature": {"sight_features": "", "sight_content": ""}}, {"title": "勐底橄榄坡果园", "address": "313省道", "image": "", "rank": 49, "time": 2, "location": {"lat": 40.47363217982258, "lng": 116.99325005466613}, "feature": {"sight_features": "", "sight_content": ""}}, {"title": "翁丁佤族群居村落", "address": "云南省沧源佤族自治县勐角乡翁丁村 677401", "image": "", "rank": 50, "time": 2, "location": {"lat": 23.28442873532839, "lng": 99.17458520808869}, "feature": {"sight_features": "", "sight_content": ""}}, {"title": "保石洞寺", "address": "云南省凤庆县洛党乡箐头村 675900", "image": "", "rank": 51, "time": 2, "location": {"lat": 24.489593231501797, "lng": 100.04952009800277}, "feature": {"sight_features": "", "sight_content": ""}}, {"title": "石佛洞", "address": "云南省耿马傣族佤族自治县四排山乡石佛洞村 677502", "image": "", "rank": 52, "time": 1.0, "location": {"lat": 23.369303913885812, "lng": 99.43848844223085}, "feature": {"sight_features": "", "sight_content": ""}}, {"title": "洛克故居", "address": "云南省玉龙纳西族自治县东大街1号 674100", "image": "", "rank": 53, "time": 0.75, "location": {"lat": 26.876549693567064, "lng": 100.24231202352331}, "feature": {"sight_features": "", "sight_content": ""}}, {"title": "万亩古茶树群", "address": "云南省双江拉祜族佤族布朗族傣族自治县勐库镇 677304", "image": "", "rank": 54, "time": 2, "location": {"lat": 23.622138329763096, "lng": 99.89025825746198}, "feature": {"sight_features": "", "sight_content": ""}}, {"title": "大兴银河温泉渡假村", "address": "大兴村", "image": "", "rank": 55, "time": 3.5, "location": {"lat": 38.20759613041747, "lng": 115.34094264588384}, "feature": {"sight_features": "", "sight_content": ""}}, {"title": "沧源佤族自治县影剧院", "address": "云南省临沧市沧源佤族自治县", "image": "", "rank": 56, "time": 2.5, "location": {"lat": 23.152878733913262, "lng": 99.25272169608435}, "feature": {"sight_features": "", "sight_content": ""}}, {"title": "小湾基督教堂", "address": "小湾镇凤小公路", "image": "", "rank": 57, "time": 2, "location": {"lat": 24.710318038930907, "lng": 100.00791753428915}, "feature": {"sight_features": "", "sight_content": ""}}, {"title": "茶马古道古墨段", "address": "诗礼乡古墨村", "image": "", "rank": 58, "time": null, "location": {"lat": 24.91444182971601, "lng": 99.9123527534051}, "feature": {"sight_features": "", "sight_content": ""}}, {"title": "控井花千谷", "address": "勐角乡控井新寨", "image": "", "rank": 59, "time": 2, "location": {"lat": 23.218191063498594, "lng": 99.25103037904701}, "feature": {"sight_features": "", "sight_content": ""}}, {"title": "临沧市民族歌舞团", "address": "西大街122号", "image": "", "rank": 60, "time": null, "location": {"lat": 38.04289180782835, "lng": 114.5276366447863}, "feature": {"sight_features": "", "sight_content": ""}}]}