{"cityName": "灵寿", "days": null, "cityImage": "", "spots": [{"title": "灵寿水泉溪自然风景区", "address": "石家庄市灵寿县南营乡木佛塔村", "image": "", "rank": 1, "time": 7.5, "location": {"lat": 38.66221441706826, "lng": 113.94726832310735}, "feature": {"sight_features": "", "sight_content": ""}}, {"title": "五岳寨风景区", "address": "石家庄市灵寿县", "image": "", "rank": 2, "time": 7.5, "location": {"lat": 38.31462937004633, "lng": 114.38947775770787}, "feature": {"sight_features": "特色1 区内峡深谷幽、层峦叠嶂、秀峰林立 特色2 健身疗养、避暑消夏、寻奇涉幽、登山探险", "sight_content": "2000年12月被国家林业局批准为国家森林公园，2004年被国家旅游局评定为aaaa级旅游区，2006年评定为河北省地质公园，2009年被评为“河北最美30景”，先后被名为“河北省环境教育基地”、“中小学生认植基地”、“林业科普基地”。国家森林公园、aaaa级旅游区五岳寨地处太行山东麓，位于河北省灵寿县西北部深山区，距省会石家庄110公里，总面积88平方公里，三大游览区，360多个景点。\n景区山高林密、繁花似锦，森林覆盖率98%以上，现有原始次生林3.6万亩。海拔近2000米的主峰和数十座海拔1600余米的峰林形成了景区特有的地貌景观，区内峡深谷幽、层峦叠嶂、秀峰林立，拟人似兽的自然景观惟妙惟肖、栩栩如生，十数个宽不盈丈、高万仞的大峡谷溪流飞瀑、幽险无比，七女峰、通岳峡、主峰、落叶松林、燕赵第一瀑、连天飞瀑、鸳鸯石等优美的自然景点构成了一副壮美的山水画卷。\n景区年平均气温12℃，七月平均气温19℃，气候湿润凉爽、空气清新，且空气中每立方厘米含9000-10000个负氧离子，实属典型的“康乐气候”，被誉为“天然大氧吧”。区内水资源丰沛，大小瀑布数百个，泉、溪、潭、瀑到处可见，著名的燕赵第一瀑落差108米，是北方最大的山岳型瀑布。景区生物资源保存完好，植物近700种，野生动物67种，昆虫类300余种，人参、灵芝、党参等珍贵药材50余种。"}}, {"title": "秋山风景区", "address": "石家庄市灵寿县陈庄镇草坡庄", "image": "", "rank": 3, "time": 3.5, "location": {"lat": 38.5291701820221, "lng": 114.14242557513327}, "feature": {"sight_features": "", "sight_content": ""}}, {"title": "漫山花溪谷", "address": "石家庄市灵寿县漫山村", "image": "", "rank": 4, "time": 2.0, "location": {"lat": 38.690892737373936, "lng": 113.8918222830811}, "feature": {"sight_features": "特色1 细细品味这里独有的漫山、漫水、慢生活。 特色2 谷内森林、山泉、草原、花园等自然资源得天独厚。 特色3 两条连天瀑布似白练垂空，顶端亚高原草甸广阔无垠。", "sight_content": "漫山花溪谷位于石家庄西北110公里太行深山区，西北距五台山50公里，西南距西柏坡40公里，海拔800-2150米，毗邻五岳寨国家森林公园，是驼梁景区的必经之地，全长12.8公里，总面积20平方公里，与五岳寨主峰相通相连。\n\n\n谷内森林、山泉、草原、花园等自然资源得天独厚，10000亩原始次生林浓密葱郁，两条连天瀑布似白练垂空，顶端亚高原草甸广阔无垠，20万平米山地花园明媚光艳，一条清溪流贯全谷，繁花点缀溪旁，每年4-11月份，上百种花卉在这里竞相开放，姹紫嫣红、逞娇呈美，花香清新甜蜜，彩蝶翩翩起舞，让人流连忘返不思归去。“花溪谷”故此得名。这里属于“康乐气候”，夏季平均气温19.1℃，每立方厘米负氧离子含量高达15000个，PM2.5年日均值为5到20。是观光旅游、休闲度假、养生居住的绝佳选择。花溪公寓设有家庭房及标准间，有机菜园可供农耕和采摘，游客中心餐饮、休闲、商业一应俱全，WiFi覆盖，让您享受自然恩赐的同时也能享受现代文明带来的乐趣。\n\n\n三亚很远，漫山很近，带上家人来一场说走就走的旅行。漫山花溪谷欢迎你停下来，细细品味这里独有的漫山、漫水、慢生活。"}}, {"title": "讴歌骑士基地主题乐园", "address": "石家庄市灵寿县南合村", "image": "", "rank": 5, "time": 2, "location": {"lat": 38.29220268887693, "lng": 114.37333838949168}, "feature": {"sight_features": "", "sight_content": ""}}, {"title": "欢乐农家", "address": "灵寿563乡道", "image": "", "rank": 6, "time": 2, "location": {"lat": 38.31462937004633, "lng": 114.38947775770787}, "feature": {"sight_features": "", "sight_content": ""}}, {"title": "北营剧场", "address": "201省道附近北营村村委会附近", "image": "", "rank": 7, "time": 2, "location": {"lat": 40.16477242533846, "lng": 116.9569878866532}, "feature": {"sight_features": "", "sight_content": ""}}, {"title": "秋山原生态自然风景区", "address": "石家庄市灵寿县秋山原生态自然风景区", "image": "", "rank": 8, "time": 2, "location": {"lat": 38.54545498141473, "lng": 114.16442236508831}, "feature": {"sight_features": "", "sight_content": ""}}, {"title": "河北石家庄三梦山风景区", "address": "河北省灵寿县岔头镇瓦房台村", "image": "", "rank": 9, "time": 2, "location": {"lat": 38.66491908529572, "lng": 114.16626228072198}, "feature": {"sight_features": "", "sight_content": ""}}, {"title": "平山九龙潭", "address": "石家庄市平山县", "image": "", "rank": 10, "time": 1.0, "location": {"lat": 38.271951013310805, "lng": 113.98543503085234}, "feature": {"sight_features": "", "sight_content": ""}}, {"title": "燕川龙运垂钓园", "address": "燕川乡西湖社村", "image": "", "rank": 11, "time": 2, "location": {"lat": 38.47454349890249, "lng": 114.19890377088541}, "feature": {"sight_features": "", "sight_content": ""}}, {"title": "天煜农家院", "address": "河北省石家庄市灵寿县建设大街", "image": "", "rank": 12, "time": 2, "location": {"lat": 38.31534110694413, "lng": 114.40139752712999}, "feature": {"sight_features": "", "sight_content": ""}}, {"title": "西关剧场", "address": "灵寿镇西关村", "image": "", "rank": 13, "time": 7.5, "location": {"lat": 38.30929105287085, "lng": 114.3766488860418}, "feature": {"sight_features": "", "sight_content": ""}}, {"title": "讴歌骑士基地", "address": "河北省石家庄市鹿泉区", "image": "", "rank": 14, "time": null, "location": {"lat": 38.091749457589636, "lng": 114.3205975776443}, "feature": {"sight_features": "", "sight_content": ""}}, {"title": "南纪城村文化剧场", "address": "中心大街与后大街交叉口南50米", "image": "", "rank": 15, "time": 2, "location": {"lat": 39.11753828312672, "lng": 117.72698127551898}, "feature": {"sight_features": "", "sight_content": ""}}, {"title": "陈庄歼灭战陈列馆", "address": "河北省石家庄市灵寿县衡山岭水库旁", "image": "", "rank": 16, "time": 2, "location": {"lat": 38.31462937004633, "lng": 114.38947775770787}, "feature": {"sight_features": "", "sight_content": ""}}, {"title": "闽江水族馆观赏鱼水族箱饲料药水", "address": "城东街49号附近", "image": "", "rank": 17, "time": 2, "location": {"lat": 30.742657813904454, "lng": 121.34621719377891}, "feature": {"sight_features": "", "sight_content": ""}}, {"title": "雅安公园", "address": "同下村", "image": "", "rank": 18, "time": 3.0, "location": {"lat": 38.26374259119581, "lng": 114.43608355704089}, "feature": {"sight_features": "", "sight_content": ""}}, {"title": "光腚猴儿童主题乐园", "address": "河北省石家庄市灵寿县灵寿镇北环路中天商厦东", "image": "", "rank": 19, "time": 2, "location": {"lat": 38.32262971251286, "lng": 114.38135629437186}, "feature": {"sight_features": "", "sight_content": ""}}, {"title": "儿童乐园", "address": "051县道附近", "image": "", "rank": 20, "time": 2, "location": {"lat": 32.79988673812979, "lng": 115.69751460401382}, "feature": {"sight_features": "", "sight_content": ""}}, {"title": "河北鼎尖纸浆模塑蛋托设备总厂(...", "address": "G5京昆高速灵寿出口西行3公里路北", "image": "", "rank": 21, "time": 2, "location": {"lat": 38.354013751531774, "lng": 114.46348223172251}, "feature": {"sight_features": "", "sight_content": ""}}, {"title": "胡庄村文化广场", "address": "正南南大街西100米", "image": "", "rank": 22, "time": 2.0, "location": {"lat": 38.30766930402882, "lng": 114.3988378666641}, "feature": {"sight_features": "", "sight_content": ""}}, {"title": "雪浪石博物馆", "address": "石家庄市灵寿县南营乡木佛塔村水泉溪景区内", "image": "", "rank": 23, "time": 2, "location": {"lat": 38.649523983378266, "lng": 113.91424923830756}, "feature": {"sight_features": "", "sight_content": ""}}, {"title": "大西沟", "address": "河北石家庄灵寿县", "image": "", "rank": 24, "time": 2, "location": {"lat": 38.31462937004633, "lng": 114.38947775770787}, "feature": {"sight_features": "", "sight_content": ""}}, {"title": "灵寿县图书馆", "address": "北环东路4号", "image": "", "rank": 25, "time": 2, "location": {"lat": 38.32177402142696, "lng": 114.38331565140106}, "feature": {"sight_features": "", "sight_content": ""}}, {"title": "周周马术俱乐部", "address": "灵寿镇南合村沙湖假日酒店南700米路东滹沱河大桥桥下", "image": "", "rank": 26, "time": 2, "location": {"lat": 38.28196658843507, "lng": 114.35832586379195}, "feature": {"sight_features": "", "sight_content": ""}}, {"title": "灵寿欢乐谷", "address": "中天商厦5楼", "image": "", "rank": 27, "time": 4.0, "location": {"lat": 38.32262971251286, "lng": 114.38135629437186}, "feature": {"sight_features": "", "sight_content": ""}}, {"title": "聚友庄园", "address": "南广东路南侧", "image": "", "rank": 28, "time": 2, "location": {"lat": 27.150556016094612, "lng": 120.02310621990678}, "feature": {"sight_features": "", "sight_content": ""}}, {"title": "博汇轩艺术馆", "address": "城北西路与牌楼街交叉口东100米", "image": "", "rank": 29, "time": 2, "location": {"lat": 38.31107417235322, "lng": 114.37562544387939}, "feature": {"sight_features": "", "sight_content": ""}}, {"title": "忽冻钓鱼场", "address": "忽冻村东X066", "image": "", "rank": 30, "time": null, "location": {"lat": 38.27656547272118, "lng": 114.32840854527402}, "feature": {"sight_features": "", "sight_content": ""}}, {"title": "驼沟庄园", "address": "驼沟村", "image": "", "rank": 31, "time": 2, "location": {"lat": 35.735737738293295, "lng": 119.71167424088038}, "feature": {"sight_features": "", "sight_content": ""}}, {"title": "森淼渔岛", "address": "东高阳庄村西", "image": "", "rank": 32, "time": 2, "location": {"lat": 38.57219672123608, "lng": 114.20680899681395}, "feature": {"sight_features": "", "sight_content": ""}}, {"title": "马家庄葡萄寿桃采摘生态园", "address": "201省道东200米", "image": "", "rank": 33, "time": 2, "location": {"lat": 38.686331107748025, "lng": 113.87805895629477}, "feature": {"sight_features": "", "sight_content": ""}}, {"title": "灵寿安定采摘园", "address": "灵寿镇安定村附近", "image": "", "rank": 34, "time": 7.5, "location": {"lat": 38.29576878806863, "lng": 114.4094712401383}, "feature": {"sight_features": "", "sight_content": ""}}, {"title": "万通商业城", "address": "河北省灵寿县人民东路与广场街交叉口", "image": "", "rank": 35, "time": 2, "location": {"lat": 38.31490729177612, "lng": 114.38714503975616}, "feature": {"sight_features": "", "sight_content": ""}}]}