{"cityName": "灵山", "days": 2, "cityImage": "", "spots": [{"title": "大芦村民俗风情旅游区", "address": "钦州市灵山县507乡道北50米", "image": "", "rank": 1, "time": 2, "location": {"lat": 22.42241332670075, "lng": 109.29747796631128}, "feature": {"sight_features": "", "sight_content": ""}}, {"title": "灵东水上游乐避暑风景区", "address": "钦州市灵山县", "image": "", "rank": 2, "time": 2, "location": {"lat": 22.42241332670075, "lng": 109.29747796631128}, "feature": {"sight_features": "", "sight_content": ""}}, {"title": "三海岩", "address": "钦州市灵山县灵山中学校园内", "image": "", "rank": 3, "time": 2, "location": {"lat": 22.418719542631532, "lng": 109.28807091820033}, "feature": {"sight_features": "", "sight_content": ""}}, {"title": "广西烟霞山风景区", "address": "钦州市灵山县烟墩镇长麓村", "image": "", "rank": 4, "time": 2, "location": {"lat": 22.48555437963036, "lng": 109.0588987918264}, "feature": {"sight_features": "特色1 经过百千年的流水塑造形成巍峨独特的地形", "sight_content": "广西烟霞山风景区位于广西钦州市灵山县烟墩镇，其地貌是由红色砂岩构成（形成于6000万年前的河、湖中），经过百千年的流水塑造形成巍峨独特的地形，地理学称为丹霞地貌。且发育典型、类型齐全、形态丰富、具有雄、奇、秀、险、幽、奥、旷等特点，如神似老人脸庞的老子峰、阳刚奇特的擎天一柱、秀丽雄伟的花龙岭等丹霞奇观。奇山亦有妙水，如流觞曲水般的银柳瀑布，柳暗花明的洞天瀑布，潺潺如歌的梦蝶瀑布，无一不显丹霞生态景观之美。\n烟霞山风景区自然生态动植物资源非常丰富，如野猪、猪仔狸、白鹭、豹猫等多种珍稀野生动物及野生石斛、金银花、田七、灵芝草等多种名贵中草药植物；景区秉持着乡村与生态相结合的建设理念，融入本土民俗文化特色，开展跳岭头、烟墩大鼓表演等非遗文化项目展示，设有民俗博物馆、各类科普教育活动场地；配备野外烧烤、农家乐、荔枝等农作物采摘、野外露营、运动拓展、动物逗趣等野趣项目。实属亲子游玩、野外拓展采风、乡村生态游玩休闲度假的上佳选择。"}}, {"title": "罗阳峡漂流", "address": "钦州市灵山县罗阳山", "image": "", "rank": 5, "time": null, "location": {"lat": 22.495543557802424, "lng": 109.45260648221887}, "feature": {"sight_features": "", "sight_content": ""}}, {"title": "龙武农场", "address": "灵城镇西郊X312县道1号", "image": "", "rank": 6, "time": 2, "location": {"lat": 30.71626540608266, "lng": 104.02570058907966}, "feature": {"sight_features": "", "sight_content": ""}}, {"title": "旺达冰淇淋批发", "address": "六峰路245附近", "image": "", "rank": 7, "time": 2, "location": {"lat": 30.713836271715913, "lng": 117.58189227493968}, "feature": {"sight_features": "", "sight_content": ""}}, {"title": "农业局植保站", "address": "灵城镇", "image": "", "rank": 8, "time": 2, "location": {"lat": 22.43115758461308, "lng": 109.3030235269176}, "feature": {"sight_features": "", "sight_content": ""}}, {"title": "六峰山风景名胜旅游区", "address": "广西壮族自治区灵山县境内 535400", "image": "", "rank": 9, "time": 2, "location": {"lat": 22.42241332670075, "lng": 109.29747796631128}, "feature": {"sight_features": "", "sight_content": ""}}, {"title": "双鹤公园", "address": "广西壮族自治区钦州市灵山县江滨二路100号", "image": "", "rank": 10, "time": 2, "location": {"lat": 22.417481847761145, "lng": 109.30152285456366}, "feature": {"sight_features": "", "sight_content": ""}}, {"title": "风雨桥", "address": "江滨二路与环秀路交叉口东北150米", "image": "", "rank": 11, "time": 2, "location": {"lat": 22.418754693325685, "lng": 109.30184397722404}, "feature": {"sight_features": "", "sight_content": ""}}, {"title": "灵山人民英雄纪念碑", "address": "广西壮族自治区钦州市灵山县g209(六峰山附近)", "image": "", "rank": 12, "time": 1.0, "location": {"lat": 22.42508334926175, "lng": 109.29410411586784}, "feature": {"sight_features": "", "sight_content": ""}}, {"title": "公园路与江北路交叉口", "address": "广西壮族自治区钦州市灵山县", "image": "", "rank": 13, "time": 2, "location": {"lat": 22.42241332670075, "lng": 109.29747796631128}, "feature": {"sight_features": "", "sight_content": ""}}, {"title": "丁祠堂", "address": "钦州市灵山县", "image": "", "rank": 14, "time": 2, "location": {"lat": 22.42241332670075, "lng": 109.29747796631128}, "feature": {"sight_features": "", "sight_content": ""}}, {"title": "灵山县人口文化广场", "address": "广西壮族自治区钦州市灵山县沙路新光路灵山体育馆人口文化广场", "image": "", "rank": 15, "time": 2, "location": {"lat": 22.411402310374182, "lng": 109.30275922567392}, "feature": {"sight_features": "", "sight_content": ""}}, {"title": "灵山人民广场", "address": "丰江路与广场路交叉口西50米", "image": "", "rank": 16, "time": 1.5, "location": {"lat": 22.424712633034808, "lng": 109.30459434794881}, "feature": {"sight_features": "", "sight_content": ""}}, {"title": "灵山基督教会", "address": "镇北路34号附近", "image": "", "rank": 17, "time": 1.0, "location": {"lat": 31.327683941317265, "lng": 118.8709206173323}, "feature": {"sight_features": "", "sight_content": ""}}, {"title": "可丽爱水族馆", "address": "广西壮族自治区钦州市灵山县江南路402号", "image": "", "rank": 18, "time": null, "location": {"lat": 22.418510508653366, "lng": 109.29580370450232}, "feature": {"sight_features": "", "sight_content": ""}}, {"title": "东洲水上乐园", "address": "广西壮族自治区钦州市灵山县S103", "image": "", "rank": 19, "time": 2, "location": {"lat": 22.42241332670075, "lng": 109.29747796631128}, "feature": {"sight_features": "", "sight_content": ""}}, {"title": "三隆影剧院", "address": "江北路附近", "image": "", "rank": 20, "time": 2, "location": {"lat": 29.502310055851247, "lng": 120.92506189611127}, "feature": {"sight_features": "", "sight_content": ""}}, {"title": "华山农场圆岭队", "address": "049乡道附近", "image": "", "rank": 21, "time": 1.5, "location": {"lat": 32.90134978931951, "lng": 116.81200829429518}, "feature": {"sight_features": "", "sight_content": ""}}, {"title": "创发果苗", "address": "武利镇汉塘山子塘", "image": "", "rank": 22, "time": 2, "location": {"lat": 22.205428620429714, "lng": 109.1904247041622}, "feature": {"sight_features": "", "sight_content": ""}}, {"title": "水美垌山泉鱼钓场", "address": "水美垌村", "image": "", "rank": 23, "time": 2, "location": {"lat": 22.549748699381965, "lng": 109.48818417376043}, "feature": {"sight_features": "", "sight_content": ""}}, {"title": "灵东水库", "address": "广西壮族自治区灵山县城东", "image": "", "rank": 24, "time": 2, "location": {"lat": 22.42241332670075, "lng": 109.29747796631128}, "feature": {"sight_features": "", "sight_content": ""}}, {"title": "灵山苏村 Su Village of Lingsha...", "address": "广西壮族自治区灵山县石塘镇西面", "image": "", "rank": 25, "time": 2, "location": {"lat": 22.587667684850377, "lng": 109.51514891656672}, "feature": {"sight_features": "", "sight_content": ""}}, {"title": "灵山步行街", "address": "广西壮族自治区灵山县六峰路", "image": "", "rank": 26, "time": 3.0, "location": {"lat": 22.425124661090063, "lng": 109.2992926862714}, "feature": {"sight_features": "", "sight_content": ""}}, {"title": "超达娱乐", "address": "钦州市-灵山县-陆屋镇泰东宾馆附近", "image": "", "rank": 27, "time": 2, "location": {"lat": 22.290542923479297, "lng": 108.95980376461138}, "feature": {"sight_features": "", "sight_content": ""}}, {"title": "金艺棋牌娱乐室", "address": "钦州市-灵山县-燕山路68号西北70米", "image": "", "rank": 28, "time": null, "location": {"lat": 22.424681198307468, "lng": 109.3020262667679}, "feature": {"sight_features": "", "sight_content": ""}}, {"title": "沙井头文化娱乐中心", "address": "钦州市-灵山县-钟秀路", "image": "", "rank": 29, "time": 2, "location": {"lat": 22.427201089121553, "lng": 109.29848659811043}, "feature": {"sight_features": "", "sight_content": ""}}]}