{"cityName": "凌源", "days": 2, "cityImage": "", "spots": [{"title": "河坎子冰雪冰瀑大世界", "address": "朝阳市凌源市河坎子乡河坎子村", "image": "", "rank": 1, "time": 0.75, "location": {"lat": 40.6479656195646, "lng": 119.23562114169992}, "feature": {"sight_features": "", "sight_content": ""}}, {"title": "大裂山", "address": "朝阳市凌源市三十家镇裂山梁村", "image": "", "rank": 2, "time": 2, "location": {"lat": 41.02017389547423, "lng": 119.01220902923114}, "feature": {"sight_features": "", "sight_content": ""}}, {"title": "草莓采摘园", "address": "前进乡", "image": "", "rank": 3, "time": 2, "location": {"lat": 32.12807117885942, "lng": 114.10154405339131}, "feature": {"sight_features": "", "sight_content": ""}}, {"title": "地母寺", "address": "辽宁省朝阳市凌源市宋榆线", "image": "", "rank": 4, "time": 2.5, "location": {"lat": 41.24234658737379, "lng": 119.27046251558266}, "feature": {"sight_features": "", "sight_content": ""}}, {"title": "棒棒糖儿童乐园", "address": "红山路西段凌源宾馆东北侧", "image": "", "rank": 5, "time": 2, "location": {"lat": 41.25342645962232, "lng": 119.40651430042638}, "feature": {"sight_features": "", "sight_content": ""}}, {"title": "鲁卡奇益智儿童乐园", "address": "红山路东段双圆佳苑A区大门口", "image": "", "rank": 6, "time": 2, "location": {"lat": 41.26760452328187, "lng": 119.42504787021659}, "feature": {"sight_features": "", "sight_content": ""}}, {"title": "ev儿童乐园", "address": "朝阳路西段6号附近", "image": "", "rank": 7, "time": 2, "location": {"lat": 41.24822300247009, "lng": 119.41142803156596}, "feature": {"sight_features": "", "sight_content": ""}}, {"title": "儿童主题乐园", "address": "辽宁省朝阳市凌源市南大街", "image": "", "rank": 8, "time": 2, "location": {"lat": 41.243520705236406, "lng": 119.4112659350316}, "feature": {"sight_features": "", "sight_content": ""}}, {"title": "锦方生态园", "address": "凌热线附近", "image": "", "rank": 9, "time": 2, "location": {"lat": 41.33971478115993, "lng": 119.39902153776087}, "feature": {"sight_features": "", "sight_content": ""}}, {"title": "三官庙", "address": "315省道附近", "image": "", "rank": 10, "time": 2, "location": {"lat": 36.88733965403998, "lng": 115.75610288886648}, "feature": {"sight_features": "", "sight_content": ""}}, {"title": "大汤沟村文化广场", "address": "辽宁省朝阳市凌源市", "image": "", "rank": 11, "time": 2, "location": {"lat": 41.25165129714849, "lng": 119.4073580787919}, "feature": {"sight_features": "", "sight_content": ""}}, {"title": "仁爱健身乐园", "address": "北大街22之1号1-19号", "image": "", "rank": 12, "time": 2, "location": {"lat": 23.072066472347636, "lng": 113.31411451041335}, "feature": {"sight_features": "", "sight_content": ""}}, {"title": "凌源市城市建设档案馆", "address": "建设大厦", "image": "", "rank": 13, "time": 2, "location": {"lat": 39.89981907946945, "lng": 116.33289595820894}, "feature": {"sight_features": "", "sight_content": ""}}, {"title": "阳光地带室内乐园", "address": "东风街", "image": "", "rank": 14, "time": 2, "location": {"lat": 36.89821286559296, "lng": 115.53045225296516}, "feature": {"sight_features": "", "sight_content": ""}}, {"title": "凌源市博物馆", "address": "南街建设路7号", "image": "", "rank": 15, "time": 2.5, "location": {"lat": 41.24230580834946, "lng": 119.41313660864593}, "feature": {"sight_features": "", "sight_content": ""}}, {"title": "辽宁省凌源市博物馆", "address": "红山路西段161号", "image": "", "rank": 16, "time": null, "location": {"lat": 41.244107399239475, "lng": 119.39856699157961}, "feature": {"sight_features": "", "sight_content": ""}}, {"title": "龙头欢乐水世界", "address": "十五里堡村，凌源火车站西行3公里", "image": "", "rank": 17, "time": 2, "location": {"lat": 41.242015392909536, "lng": 119.36349696480896}, "feature": {"sight_features": "", "sight_content": ""}}, {"title": "开心玩国室内儿童未来主题乐园", "address": "南环路恒福家园A区6号楼8号门市(恒福家园B区东行230米)", "image": "", "rank": 18, "time": 2, "location": {"lat": 41.24006539706722, "lng": 119.39976903394522}, "feature": {"sight_features": "", "sight_content": ""}}, {"title": "开心岛儿童水上主题俱乐部(盛世...", "address": "红山路西段52-27(大刚拔面馆西行80米)", "image": "", "rank": 19, "time": null, "location": {"lat": 41.25460062614474, "lng": 119.40778777694446}, "feature": {"sight_features": "", "sight_content": ""}}, {"title": "仁大农业", "address": "南大街建设路", "image": "", "rank": 20, "time": 2, "location": {"lat": 36.87142029039183, "lng": 114.52437219807152}, "feature": {"sight_features": "", "sight_content": ""}}, {"title": "昱旸天地农业科技有限公司", "address": "东环路75-1号", "image": "", "rank": 21, "time": 2, "location": {"lat": 38.700244960568824, "lng": 116.65642344722204}, "feature": {"sight_features": "", "sight_content": ""}}, {"title": "天呈山庄", "address": "刘杖子村", "image": "", "rank": 22, "time": 2, "location": {"lat": 40.28373436066867, "lng": 119.2822070561422}, "feature": {"sight_features": "", "sight_content": ""}}, {"title": "女神宫汤泉城", "address": "朝阳市凌源市热水汤街道热水汤村", "image": "", "rank": 23, "time": 2, "location": {"lat": 41.39654373219521, "lng": 119.39637018545496}, "feature": {"sight_features": "", "sight_content": "女神宫汤泉城坐落于凌源市热水汤核心地带，背靠人工油松林，东临慈云寺，是集温泉旅游，健康疗养，休闲娱乐，商务会议，运动健身等多功能于一体的旅游度假胜地。一期由汤泉泡池、女神宫水世界、女神宫酒店、VIP别墅区等部分组成。"}}]}