{"cityName": "灵璧", "days": 2, "cityImage": "", "spots": [{"title": "奇石文化园", "address": "宿州市灵璧县凤山南路", "image": "", "rank": 1, "time": 1.5, "location": {"lat": 33.548779688684604, "lng": 117.55202365985157}, "feature": {"sight_features": "", "sight_content": ""}}, {"title": "虞姬墓", "address": "宿州市灵璧县城东", "image": "", "rank": 2, "time": 2.5, "location": {"lat": 33.547892231948374, "lng": 117.56455699798788}, "feature": {"sight_features": "", "sight_content": ""}}, {"title": "凤凰山", "address": "101指挥中心侧", "image": "", "rank": 3, "time": 5.5, "location": {"lat": 27.510463670884146, "lng": 107.63963969733982}, "feature": {"sight_features": "", "sight_content": ""}}, {"title": "宿州垓下遗址", "address": "安徽省灵璧县韦集镇垓下村 234200", "image": "", "rank": 4, "time": null, "location": {"lat": 33.39110285945534, "lng": 117.5919214032126}, "feature": {"sight_features": "", "sight_content": ""}}, {"title": "谢从皆奇石馆", "address": "迎宾大道与303省道交叉口东100米", "image": "", "rank": 5, "time": 2, "location": {"lat": 29.71143231268567, "lng": 107.3718965062795}, "feature": {"sight_features": "", "sight_content": ""}}, {"title": "虎磬阁奇石展示厅", "address": "安徽省灵璧县中国灵璧石大市场旁边", "image": "", "rank": 6, "time": 2, "location": {"lat": 33.53880711352286, "lng": 117.55268230463793}, "feature": {"sight_features": "", "sight_content": ""}}, {"title": "渔沟春天画廊", "address": "龙山路东200米", "image": "", "rank": 7, "time": 2, "location": {"lat": 30.518588728185765, "lng": 117.049325877821}, "feature": {"sight_features": "", "sight_content": ""}}, {"title": "灵南农家乐", "address": "韦集镇王巷村028乡道与x067交叉口加油站旁", "image": "", "rank": 8, "time": 2, "location": {"lat": 33.39858910629529, "lng": 117.55021043017967}, "feature": {"sight_features": "", "sight_content": ""}}, {"title": "锦绣生态园", "address": "302省道北50米", "image": "", "rank": 9, "time": 2, "location": {"lat": 40.098972055250094, "lng": 117.61062300284506}, "feature": {"sight_features": "", "sight_content": ""}}, {"title": "心情驿站", "address": "044县道西200米", "image": "", "rank": 10, "time": 2, "location": {"lat": 49.07585558465927, "lng": 123.03278049880403}, "feature": {"sight_features": "", "sight_content": ""}}, {"title": "亚龙湾水上世界", "address": "灵城罗河西路西段君临天下小区南门对面西50米路南", "image": "", "rank": 11, "time": 2, "location": {"lat": 39.6129869967351, "lng": 118.20604028639353}, "feature": {"sight_features": "", "sight_content": ""}}, {"title": "晏波农资服务专业合作社", "address": "S201中国石化西北侧", "image": "", "rank": 12, "time": 2, "location": {"lat": 39.941222085709676, "lng": 116.62417126470052}, "feature": {"sight_features": "", "sight_content": ""}}, {"title": "垓下之战遗址", "address": "安徽省宿州市灵璧县", "image": "", "rank": 13, "time": 2, "location": {"lat": 33.547892231948374, "lng": 117.56455699798788}, "feature": {"sight_features": "", "sight_content": ""}}, {"title": "嘟嘟堡儿童乐园", "address": "环城北路北150米", "image": "", "rank": 14, "time": 2, "location": {"lat": 29.27390245852069, "lng": 120.2518720606648}, "feature": {"sight_features": "", "sight_content": ""}}, {"title": "辣妈宝贝儿童乐园", "address": "安徽省宿州市灵璧县南太平街19号老县政府院内(老县委大门西侧10米二楼)", "image": "", "rank": 15, "time": 2, "location": {"lat": 33.548008674499215, "lng": 117.56308629220696}, "feature": {"sight_features": "", "sight_content": ""}}, {"title": "乐尚儿童成长乐园", "address": "隅顶口解放中路森马对面（农业银行对面）", "image": "", "rank": 16, "time": 2, "location": {"lat": 28.68030832729103, "lng": 118.25588823112642}, "feature": {"sight_features": "", "sight_content": ""}}, {"title": "水立方动漫乐园", "address": "尤集镇西外环路怡情生态园北隔壁(粮站院后)", "image": "", "rank": 17, "time": 2, "location": {"lat": 37.90414055708377, "lng": 114.50741092792387}, "feature": {"sight_features": "", "sight_content": ""}}, {"title": "灵璧石精品展示区", "address": "安徽省灵璧县汴河路", "image": "", "rank": 18, "time": 2, "location": {"lat": 33.53859918860848, "lng": 117.55888745325325}, "feature": {"sight_features": "", "sight_content": ""}}, {"title": "泗滨浮磬", "address": "凤山南路与迎宾大道交叉口东北200米", "image": "", "rank": 19, "time": 2, "location": {"lat": 26.201180692209295, "lng": 119.56873551917414}, "feature": {"sight_features": "", "sight_content": ""}}, {"title": "康乐宫藏石", "address": "汴河路南100米", "image": "", "rank": 20, "time": 2, "location": {"lat": 31.890385761557035, "lng": 117.34065031982736}, "feature": {"sight_features": "", "sight_content": ""}}, {"title": "科迪食文化广场(灵璧002店)", "address": "安徽省宿州市灵璧县灵城镇滨河社区建设南路宏泰世纪城旁", "image": "", "rank": 21, "time": 2, "location": {"lat": 33.53019182826098, "lng": 117.56524193707482}, "feature": {"sight_features": "", "sight_content": ""}}, {"title": "联家红儿童乐园", "address": "解放中路与建设中路交叉口东", "image": "", "rank": 22, "time": 2, "location": {"lat": 34.8616301494053, "lng": 117.57860285982323}, "feature": {"sight_features": "", "sight_content": ""}}, {"title": "星期六儿童成长主题乐园", "address": "建设南路226-6号", "image": "", "rank": 23, "time": 2, "location": {"lat": 24.89221398248609, "lng": 102.51141328169815}, "feature": {"sight_features": "", "sight_content": ""}}, {"title": "星期六 儿童游乐场(灵璧店)", "address": "灵双路与环城西路交叉口西南200米", "image": "", "rank": 24, "time": 2, "location": {"lat": 33.56796607625617, "lng": 117.56007687891797}, "feature": {"sight_features": "", "sight_content": ""}}, {"title": "灵璧昊祥游乐场", "address": "S303(南二环路)", "image": "", "rank": 25, "time": 2.5, "location": {"lat": 39.98934720080727, "lng": 116.70512747263305}, "feature": {"sight_features": "", "sight_content": ""}}, {"title": "钟灵文化广场", "address": "宿州市灵璧县", "image": "", "rank": 26, "time": 2, "location": {"lat": 33.547892231948374, "lng": 117.56455699798788}, "feature": {"sight_features": "", "sight_content": ""}}, {"title": "管仲模板", "address": "安徽省宿州市灵璧县S201", "image": "", "rank": 27, "time": 2, "location": {"lat": 33.547892231948374, "lng": 117.56455699798788}, "feature": {"sight_features": "", "sight_content": ""}}, {"title": "灵璧美利特度假村", "address": "灵城镇凤山南路48号", "image": "", "rank": 28, "time": 2.5, "location": {"lat": 33.54366604246216, "lng": 117.55036179465812}, "feature": {"sight_features": "", "sight_content": ""}}, {"title": "天一园石博物馆", "address": "042县道", "image": "", "rank": 29, "time": 2, "location": {"lat": 42.9269734317085, "lng": 126.82759101843705}, "feature": {"sight_features": "", "sight_content": ""}}, {"title": "儿童乐园", "address": "004乡道中国电信北150米", "image": "", "rank": 30, "time": 2, "location": {"lat": 42.09990729646014, "lng": 117.90189407292786}, "feature": {"sight_features": "", "sight_content": ""}}, {"title": "尹氏钟馗画艺术馆", "address": "钟旭路伊人坊女子美容美体旁", "image": "", "rank": 31, "time": 2, "location": {"lat": 31.009447340527686, "lng": 119.90932580793452}, "feature": {"sight_features": "", "sight_content": ""}}, {"title": "神童王国室内游乐公园", "address": "日月星城莱迪购物街主街南段12-111", "image": "", "rank": 32, "time": 2, "location": {"lat": 40.40821822037639, "lng": 115.94175767386879}, "feature": {"sight_features": "", "sight_content": ""}}, {"title": "鳄鱼漆", "address": "环城西路附近", "image": "", "rank": 33, "time": 2, "location": {"lat": 36.613902946668574, "lng": 114.48863807649496}, "feature": {"sight_features": "", "sight_content": ""}}, {"title": "水魔方水上乐园", "address": "钟灵大道与虞姬大道交叉口向西100米路南", "image": "", "rank": 34, "time": 2, "location": {"lat": 23.32128661222331, "lng": 113.24099968675924}, "feature": {"sight_features": "", "sight_content": ""}}, {"title": "快乐城堡", "address": "027乡道与057县道交叉口西南100米", "image": "", "rank": 35, "time": 2, "location": {"lat": 31.909199228140412, "lng": 121.30903625505988}, "feature": {"sight_features": "", "sight_content": ""}}, {"title": "三千茶农合作社", "address": "奇石大市场11栋2号", "image": "", "rank": 36, "time": 2, "location": {"lat": 19.23014829898856, "lng": 110.0168079060246}, "feature": {"sight_features": "", "sight_content": ""}}, {"title": "牧光画廊", "address": "罗河路灵璧县畜牧兽医水产局东20米", "image": "", "rank": 37, "time": 2, "location": {"lat": 33.54211296650593, "lng": 117.56598705005467}, "feature": {"sight_features": "", "sight_content": ""}}, {"title": "灵璧剧院", "address": "建设中路171号附近", "image": "", "rank": 38, "time": 2.0, "location": {"lat": 28.124929673369785, "lng": 120.96716622723174}, "feature": {"sight_features": "", "sight_content": ""}}, {"title": "南关剧场", "address": "灵城镇建设中路", "image": "", "rank": 39, "time": 2, "location": {"lat": 33.55149011828596, "lng": 117.56693633979216}, "feature": {"sight_features": "", "sight_content": ""}}, {"title": "钟馗酒文化博物馆", "address": "经济开发区虞姬大道", "image": "", "rank": 40, "time": 2, "location": {"lat": 26.655443026404118, "lng": 118.1922561315343}, "feature": {"sight_features": "", "sight_content": ""}}, {"title": "灵璧天工石园", "address": "安徽省灵璧县渔沟镇马集街", "image": "", "rank": 41, "time": 2.5, "location": {"lat": 33.9068645770423, "lng": 117.59338443027804}, "feature": {"sight_features": "", "sight_content": ""}}, {"title": "钟馗步行街", "address": "安徽省灵璧县建设中路附近", "image": "", "rank": 42, "time": 2, "location": {"lat": 33.55149011828596, "lng": 117.56693633979216}, "feature": {"sight_features": "", "sight_content": ""}}, {"title": "灵璧横店电影城", "address": "宿州市-灵璧县-莱迪1086三楼", "image": "", "rank": 43, "time": 2.5, "location": {"lat": 33.547892231948374, "lng": 117.56455699798788}, "feature": {"sight_features": "", "sight_content": ""}}, {"title": "磬云山", "address": "安徽省宿州市灵璧县渔沟镇", "image": "", "rank": 44, "time": 2, "location": {"lat": 33.87558339522827, "lng": 117.60187156234645}, "feature": {"sight_features": "", "sight_content": ""}}]}