{"cityName": "灵丘", "days": 2, "cityImage": "", "spots": [{"title": "灵丘古道", "address": "大同市灵丘县东南", "image": "", "rank": 1, "time": 4.0, "location": {"lat": 39.448825128052334, "lng": 114.24136819946143}, "feature": {"sight_features": "", "sight_content": ""}}, {"title": "平型关战役遗址", "address": "大同市繁峙县附近,灵丘县城西桥沟一带", "image": "", "rank": 2, "time": 1.5, "location": {"lat": 39.448825128052334, "lng": 114.24136819946143}, "feature": {"sight_features": "", "sight_content": ""}}, {"title": "赵武灵王墓", "address": "大同市灵丘县新华西街西段", "image": "", "rank": 3, "time": null, "location": {"lat": 39.44370153640049, "lng": 114.21992052659685}, "feature": {"sight_features": "", "sight_content": ""}}, {"title": "桃花山", "address": "大同市灵丘县红石塄乡沙湖门", "image": "", "rank": 4, "time": 1.0, "location": {"lat": 39.32233809468142, "lng": 114.37685524658018}, "feature": {"sight_features": "", "sight_content": ""}}, {"title": "平型关大捷纪念馆", "address": "白崖台乡平型关大捷纪念馆", "image": "", "rank": 5, "time": 1.0, "location": {"lat": 39.35047016179778, "lng": 113.97898077133944}, "feature": {"sight_features": "", "sight_content": ""}}, {"title": "盒子先生真人密室逃脱体验馆", "address": "新建路249号红三角三楼", "image": "", "rank": 6, "time": 2, "location": {"lat": 37.700217243247806, "lng": 112.74510581810571}, "feature": {"sight_features": "", "sight_content": ""}}, {"title": "飞狐倒马", "address": "山西省灵丘县灵丘县境内 034400", "image": "", "rank": 7, "time": 2, "location": {"lat": 39.448825128052334, "lng": 114.24136819946143}, "feature": {"sight_features": "", "sight_content": ""}}, {"title": "大作村基督教堂", "address": "山西省大同市灵丘县G18(荣乌高速公路)", "image": "", "rank": 8, "time": 2, "location": {"lat": 39.45255576174143, "lng": 113.92032490696326}, "feature": {"sight_features": "", "sight_content": ""}}, {"title": "奇特乐儿童乐园", "address": "大同市灵丘县", "image": "", "rank": 9, "time": 2, "location": {"lat": 39.448825128052334, "lng": 114.24136819946143}, "feature": {"sight_features": "", "sight_content": ""}}, {"title": "老爷庙", "address": "大同市灵丘县043县道", "image": "", "rank": 10, "time": 2, "location": {"lat": 39.37011971807795, "lng": 113.9839945979671}, "feature": {"sight_features": "", "sight_content": ""}}, {"title": "你型我塑", "address": "山西省大同市灵丘县新华街辅路", "image": "", "rank": 11, "time": 2, "location": {"lat": 39.463172797804155, "lng": 114.2344107334561}, "feature": {"sight_features": "", "sight_content": ""}}, {"title": "政府广场", "address": "山西省大同市灵丘县新建路", "image": "", "rank": 12, "time": 2, "location": {"lat": 39.45245370895641, "lng": 114.23938097879191}, "feature": {"sight_features": "", "sight_content": ""}}, {"title": "青龙寺", "address": "108国道附近", "image": "", "rank": 13, "time": 1.5, "location": {"lat": 36.13357010619177, "lng": 111.55186297208911}, "feature": {"sight_features": "", "sight_content": ""}}, {"title": "天涯画廊", "address": "新建路153号", "image": "", "rank": 14, "time": 2, "location": {"lat": 37.89043042857948, "lng": 112.55685213555113}, "feature": {"sight_features": "", "sight_content": ""}}, {"title": "灵丘县图书馆", "address": "青年路", "image": "", "rank": 15, "time": 2, "location": {"lat": 39.96080137464885, "lng": 116.52271891670979}, "feature": {"sight_features": "", "sight_content": ""}}, {"title": "灵丘县档案馆", "address": "新建路153号", "image": "", "rank": 16, "time": 2, "location": {"lat": 37.89043042857948, "lng": 112.55685213555113}, "feature": {"sight_features": "", "sight_content": ""}}, {"title": "人民文化馆", "address": "青年路", "image": "", "rank": 17, "time": 2, "location": {"lat": 39.96080137464885, "lng": 116.52271891670979}, "feature": {"sight_features": "", "sight_content": ""}}, {"title": "曲回寺", "address": "山西省灵丘县三楼乡曲回寺村", "image": "", "rank": 18, "time": 2, "location": {"lat": 39.448825128052334, "lng": 114.24136819946143}, "feature": {"sight_features": "", "sight_content": ""}}, {"title": "曲回寺石像冢", "address": "山西省灵丘县三楼乡曲回寺村", "image": "", "rank": 19, "time": 2, "location": {"lat": 39.448825128052334, "lng": 114.24136819946143}, "feature": {"sight_features": "", "sight_content": ""}}, {"title": "上北泉村", "address": "大同市-灵丘县", "image": "", "rank": 20, "time": 2, "location": {"lat": 39.448825128052334, "lng": 114.24136819946143}, "feature": {"sight_features": "", "sight_content": ""}}, {"title": "大同镇峪寺", "address": "大同市-灵丘县-上北泉", "image": "", "rank": 21, "time": 2.5, "location": {"lat": 39.448825128052334, "lng": 114.24136819946143}, "feature": {"sight_features": "", "sight_content": ""}}, {"title": "下北泉村", "address": "大同市-灵丘县", "image": "", "rank": 22, "time": 2, "location": {"lat": 39.448825128052334, "lng": 114.24136819946143}, "feature": {"sight_features": "", "sight_content": ""}}, {"title": "灵源寺", "address": "阳高县狮子屯乡下梁源村", "image": "", "rank": 23, "time": null, "location": {"lat": 40.28486350109629, "lng": 113.88397455319674}, "feature": {"sight_features": "", "sight_content": ""}}]}