{"cityName": "陵川", "days": 2, "cityImage": "", "spots": [{"title": "锡崖沟", "address": "晋城市陵川县锡崖沟村", "image": "", "rank": 1, "time": 3.5, "location": {"lat": 35.64958563495119, "lng": 113.60687562963616}, "feature": {"sight_features": "", "sight_content": ""}}, {"title": "凤凰欢乐谷", "address": "晋城市陵川县夺火乡凤凰村", "image": "", "rank": 2, "time": 3.5, "location": {"lat": 35.57821412194393, "lng": 113.344563359143}, "feature": {"sight_features": "特色1 景区内山幽水清、潭瀑遍布、奇峰罗列、风光旖旎、枝蔓缠绕、游鱼浅翔、犹如人间仙境、世外桃源。 特色2 包括四大景区：凤凰峡、门河地质公园、龙峡湖、摩天岭，共千余处景点。 特色3 太行山生态峡谷群之经典。", "sight_content": "凤凰欢乐谷位于围棋发源地山西省陵川县东南部的夺火乡和马圪当乡境内，地处太行山之巅人迹罕至的山坳中方圆二百余平方公里。景区内山幽水清、潭瀑遍布、奇峰罗列、风光旖旎、枝蔓缠绕、游鱼浅翔、犹如人间仙境、世外桃源、是一处以山、水、崖、洞、林为特色的避暑休闲生态度假旅游区。\n\n凤凰欢乐谷包括四大景区：凤凰峡、门河地质公园、龙峡湖、摩天岭，共千余处景点。独特的地质石变；泉、溪、潭、湖德如画变幻；千余种植物覆盖其间，国家一级保护植物红豆杉、稀有树种白皮松随处成林；珍禽异兽穿林跃涧、蜂飞蝶舞、鸟语花香；清凉圣境的独特气候……形成太行山生态峡谷群之经典。景区交通便利、设施齐备，是休闲、度假、摄影、科考、探险必选之地。\n凤凰欢乐谷的门河景区是一处自然风光美不胜收的绝妙佳境。那延伸百米的大峡谷仰视奇峰罗列，山峦重叠。幽潭飞瀑，水流潺潺。沿着峡谷漫步而上，可谓是五步一景，十步一绝。门河峡谷中林木茂密，植被覆盖率高达95%以上，形成了自然造化的天然氧吧。在经历了一段峡窄瘦长的深谷行径之后，突然豁然开朗。而这时，矗立在眼前的就是门河景区一绝——凤凰石门。其巧夺天工造型是因为地质运动造成山崖断裂，并经过亿万年的风化而天然生成。而这种自然天成的形态十分罕见，故被称为天下第一门。\n秀丽的门河景区可以说是汇九州美景，揽诸多名胜。这里收集了庐山的秀，黄山的奇，华山的险，青城山的幽，九寨沟的千湖奔流和碧潭清透。百里门河游，不但能为你带来感官上的享受，更能给你带来一种探幽寻宝的心灵刺激。\n龙峡湖位于形成于太行绝顶，隐蔽于绵亘巍峨的群山密林之中，全长二十华里，水面宽处七十余米，窄处二十余米。沿途处处青山碧影、奇峰凌列，快艇、游船一路拨云撞雾，九曲回转，漓江水的清幽、三峡山的绮丽、九寨沟的千瀑飞泻，人间天湖的神话境界，是您凤凰之旅的精华所在！\n摩天岭是一处瀑布相叠、植被茂密、以险著称的深山峡谷。它以苍龙潭为中心，包括苍龙峡谷、千年白皮松、古村落等。峡谷最宽处约十余米，窄处仅有几米，这里原始生态保存完好，植被异常茂密，红豆杉遍布谷内，白皮松随处成林，一颗树龄上千年的白皮松被当地百姓奉为千年树神。置身期间，水声彻耳、松涛鸟鸣、几缕林间透进的阳光演绎着神秘的色彩，仿佛穿行于热带雨林。\n苍龙潭瀑布，以十潭如叠，潭瀑相连而闻名。十个清澈见底碧绿清幽的水潭，潭间是光滑险峻的崖壁相连，每潭落差约十余米，瀑布层层飞泻，鳞次栉比堪称太行峡谷之绝景。摩天岭正以其独特的魅力成为中国户外运动的胜地。"}}, {"title": "红豆杉大峡谷", "address": "晋城市陵川县马圪当乡双底村", "image": "", "rank": 3, "time": 3.5, "location": {"lat": 35.61396534834836, "lng": 113.4491464779039}, "feature": {"sight_features": "", "sight_content": ""}}, {"title": "抱犊村", "address": "晋城市陵川县古郊乡抱犊村", "image": "", "rank": 4, "time": 1.0, "location": {"lat": 35.625135973585074, "lng": 113.54087126956108}, "feature": {"sight_features": "", "sight_content": ""}}, {"title": "马武寨", "address": "晋城市陵川县马武寨村，东距陵川50公里", "image": "", "rank": 5, "time": 1.0, "location": {"lat": 35.64792617628022, "lng": 113.50428916644755}, "feature": {"sight_features": "", "sight_content": ""}}, {"title": "五行山", "address": "晋城市陵川县凤凰村", "image": "", "rank": 6, "time": 2.0, "location": {"lat": 35.58051233017091, "lng": 113.33070713948216}, "feature": {"sight_features": "", "sight_content": ""}}, {"title": "王莽岭鹏翔山庄", "address": "赵马线", "image": "", "rank": 7, "time": 2, "location": {"lat": 24.741063858384425, "lng": 118.2418834685694}, "feature": {"sight_features": "", "sight_content": ""}}, {"title": "龙峡湖景区", "address": "晋城市陵川马圪当乡灵岩寺村", "image": "", "rank": 8, "time": 2, "location": {"lat": 35.549403656551604, "lng": 113.42526892995689}, "feature": {"sight_features": "", "sight_content": ""}}, {"title": "王莽岭常红农家乐", "address": "营盘村", "image": "", "rank": 9, "time": 2, "location": {"lat": 40.60752325775161, "lng": 116.27828476739147}, "feature": {"sight_features": "", "sight_content": ""}}, {"title": "王莽岭王斌农家乐", "address": "营盘村", "image": "", "rank": 10, "time": 2, "location": {"lat": 40.60752325775161, "lng": 116.27828476739147}, "feature": {"sight_features": "", "sight_content": ""}}, {"title": "南湖公园", "address": "朝阳区工农大路51号南湖公园(近建昌街)", "image": "", "rank": 11, "time": 2.5, "location": {"lat": 43.86544238734718, "lng": 125.32003432005696}, "feature": {"sight_features": "", "sight_content": ""}}, {"title": "锡崖沟益香居农家", "address": "锡崖沟停车场向东100米上坡处", "image": "", "rank": 12, "time": 2, "location": {"lat": 27.855115878009787, "lng": 120.72109614867794}, "feature": {"sight_features": "", "sight_content": ""}}, {"title": "会友山庄", "address": "马圪当乡小后湾", "image": "", "rank": 13, "time": 2, "location": {"lat": 35.59600524353158, "lng": 113.45623167217309}, "feature": {"sight_features": "", "sight_content": ""}}, {"title": "陵川县图书馆", "address": "文化街40号", "image": "", "rank": 14, "time": 2, "location": {"lat": 39.060523137097604, "lng": 115.87546524248786}, "feature": {"sight_features": "", "sight_content": ""}}, {"title": "晋城陵川仙台", "address": "山西省陵川县附城镇 048311", "image": "", "rank": 15, "time": null, "location": {"lat": 35.67492730168281, "lng": 113.16224455741475}, "feature": {"sight_features": "", "sight_content": ""}}, {"title": "晋城陵川十里卧佛", "address": "山西省陵川县马圪当乡西闸水村 048317", "image": "", "rank": 16, "time": 7.5, "location": {"lat": 35.689353394262895, "lng": 113.44289947364166}, "feature": {"sight_features": "", "sight_content": ""}}, {"title": "塔水河遗址", "address": "山西省陵川县葫芦坝 048310", "image": "", "rank": 17, "time": 2, "location": {"lat": 35.781743639537595, "lng": 113.28740655466288}, "feature": {"sight_features": "", "sight_content": ""}}, {"title": "卧龙岗公园", "address": "古陵路与崇安西街交叉口北200米", "image": "", "rank": 18, "time": 2, "location": {"lat": 35.78465584974325, "lng": 113.28407819351104}, "feature": {"sight_features": "", "sight_content": ""}}, {"title": "黑龙王庙", "address": "晋城市陵川县夺火乡凤凰村凤凰欢乐谷内", "image": "", "rank": 19, "time": 2, "location": {"lat": 35.603943683605834, "lng": 113.33698945882891}, "feature": {"sight_features": "", "sight_content": ""}}, {"title": "辉县万仙山景区(昆山第一苑客栈...", "address": "辉县万仙山景区内昆山村", "image": "", "rank": 20, "time": 2.0, "location": {"lat": 35.73825664010591, "lng": 113.63248249653739}, "feature": {"sight_features": "", "sight_content": ""}}, {"title": "郝经公园", "address": "山西省晋城市陵川县崇文镇陵沁线城南友谊小学西南100米", "image": "", "rank": 21, "time": 2, "location": {"lat": 35.77018528598947, "lng": 113.28095158459031}, "feature": {"sight_features": "", "sight_content": ""}}, {"title": "棋源广场", "address": "晋城市陵川县文庙巷118号", "image": "", "rank": 22, "time": 2, "location": {"lat": 35.77959264576249, "lng": 113.29054226970653}, "feature": {"sight_features": "", "sight_content": ""}}, {"title": "梅源广场", "address": "开云街10附近", "image": "", "rank": 23, "time": 2, "location": {"lat": 35.78048190946115, "lng": 113.29147930925181}, "feature": {"sight_features": "", "sight_content": ""}}, {"title": "希望广场", "address": "山西省晋城市陵川县崇文镇黄围街亮景苑西南450米", "image": "", "rank": 24, "time": null, "location": {"lat": 35.76941371942306, "lng": 113.28510302984363}, "feature": {"sight_features": "", "sight_content": ""}}, {"title": "崇安公园", "address": "梅园西街162号", "image": "", "rank": 25, "time": 2, "location": {"lat": 23.137182466974387, "lng": 113.38507417787851}, "feature": {"sight_features": "", "sight_content": ""}}, {"title": "棋子山省级地质公园", "address": "侯庄乡棋子山附近", "image": "", "rank": 26, "time": 2, "location": {"lat": 38.11361464202035, "lng": 112.60681098955615}, "feature": {"sight_features": "", "sight_content": ""}}, {"title": "寺润三教堂", "address": "山西省晋城市陵川县S331", "image": "", "rank": 27, "time": 2, "location": {"lat": 35.781743639537595, "lng": 113.28740655466288}, "feature": {"sight_features": "", "sight_content": ""}}, {"title": "中国围棋晋城博物馆", "address": "山西省晋城市陵川县大路沟村棋源山庄", "image": "", "rank": 28, "time": 2, "location": {"lat": 35.76154794404789, "lng": 113.44461370196159}, "feature": {"sight_features": "", "sight_content": ""}}, {"title": "万仙山昆山河畔农家乐", "address": "辉县市万仙山景区内昆山村内", "image": "", "rank": 29, "time": 4.5, "location": {"lat": 35.73825664010591, "lng": 113.63248249653739}, "feature": {"sight_features": "", "sight_content": ""}}, {"title": "培华农家乐(锡崖沟二部)", "address": "锡崖沟村", "image": "", "rank": 30, "time": 2, "location": {"lat": 35.64958563495119, "lng": 113.60687562963616}, "feature": {"sight_features": "", "sight_content": ""}}, {"title": "锡崖沟归园田居农家乐", "address": "锡崖沟村", "image": "", "rank": 31, "time": 2, "location": {"lat": 35.64958563495119, "lng": 113.60687562963616}, "feature": {"sight_features": "", "sight_content": ""}}, {"title": "新青年文化艺术馆", "address": "崇文镇梅园东街54号科飞超市一部院内二楼(银海对面)", "image": "", "rank": 32, "time": 2, "location": {"lat": 21.454768668894744, "lng": 109.14654476440518}, "feature": {"sight_features": "", "sight_content": ""}}, {"title": "峡谷口休闲山庄", "address": "761县道东100米", "image": "", "rank": 33, "time": 2, "location": {"lat": 35.64992114762939, "lng": 113.41126015735942}, "feature": {"sight_features": "", "sight_content": ""}}, {"title": "古石采摘园", "address": "761县道西100米", "image": "", "rank": 34, "time": 2, "location": {"lat": 22.526267027237505, "lng": 113.3829636090835}, "feature": {"sight_features": "", "sight_content": ""}}, {"title": "家荣农家乐", "address": "761县道北50米", "image": "", "rank": 35, "time": 2, "location": {"lat": 35.6502877676265, "lng": 113.41036185184944}, "feature": {"sight_features": "", "sight_content": ""}}, {"title": "七十二拐农家店", "address": "马圪当乡双底村013号(孤峰客栈东南200米)", "image": "", "rank": 36, "time": 2, "location": {"lat": 35.61396534834836, "lng": 113.4491464779039}, "feature": {"sight_features": "", "sight_content": ""}}, {"title": "新风客栈", "address": "双底村孤峰客栈南侧230米", "image": "", "rank": 37, "time": 2, "location": {"lat": 35.61396534834836, "lng": 113.4491464779039}, "feature": {"sight_features": "", "sight_content": ""}}, {"title": "凌峰山庄农家乐", "address": "761县道", "image": "", "rank": 38, "time": 2, "location": {"lat": 35.64992114762939, "lng": 113.41036185184944}, "feature": {"sight_features": "", "sight_content": ""}}, {"title": "晋城陵川南吉祥寺", "address": "山西省陵川县礼义镇平川村", "image": "", "rank": 39, "time": 3.0, "location": {"lat": 35.782363510433996, "lng": 113.1342173850797}, "feature": {"sight_features": "", "sight_content": ""}}, {"title": "晋城陵川龙岩寺", "address": "山西省陵川县梁泉村", "image": "", "rank": 40, "time": 3.0, "location": {"lat": 35.770522749438335, "lng": 113.20098937775545}, "feature": {"sight_features": "", "sight_content": ""}}, {"title": "晋城陵川北吉祥寺", "address": "山西省陵川县礼义镇", "image": "", "rank": 41, "time": 3.0, "location": {"lat": 35.81776431555999, "lng": 113.15016100174559}, "feature": {"sight_features": "", "sight_content": ""}}, {"title": "龟鸵峰", "address": "晋城市-陵川县-古郊乡营盘村陵川王莽岭景区极顶游览区内", "image": "", "rank": 42, "time": 2, "location": {"lat": 35.69728306074491, "lng": 113.59340848315951}, "feature": {"sight_features": "", "sight_content": ""}}, {"title": "陵川王莽岭景区-观景台", "address": "晋城市-陵川县-王莽岭景区内", "image": "", "rank": 43, "time": 3.5, "location": {"lat": 35.69741841319269, "lng": 113.59042293964455}, "feature": {"sight_features": "", "sight_content": ""}}, {"title": "西石魁", "address": "晋城市-陵川县", "image": "", "rank": 44, "time": 2, "location": {"lat": 35.781743639537595, "lng": 113.28740655466288}, "feature": {"sight_features": "", "sight_content": ""}}, {"title": "凤凰欢乐谷-亭子", "address": "晋城市-陵川县-夺火乡凤凰村凤凰欢乐谷内", "image": "", "rank": 45, "time": 6.0, "location": {"lat": 35.603943683605834, "lng": 113.33698945882891}, "feature": {"sight_features": "", "sight_content": ""}}, {"title": "武家湾清雅渡假村", "address": "晋城市-陵川县-武家湾清雅度假村(武家湾水库)", "image": "", "rank": 46, "time": 2, "location": {"lat": 35.781743639537595, "lng": 113.28740655466288}, "feature": {"sight_features": "", "sight_content": ""}}, {"title": "刀砍纹", "address": "晋城市-陵川县-古郊乡营盘村陵川王莽岭景区极顶游览区内", "image": "", "rank": 47, "time": 2, "location": {"lat": 35.69728306074491, "lng": 113.59340848315951}, "feature": {"sight_features": "", "sight_content": ""}}, {"title": "天授兵书", "address": "晋城市-陵川县-古郊乡营盘村陵川王莽岭景区极顶游览区内", "image": "", "rank": 48, "time": 2, "location": {"lat": 35.69728306074491, "lng": 113.59340848315951}, "feature": {"sight_features": "", "sight_content": ""}}, {"title": "武家湾", "address": "山西省晋城陵川县", "image": "", "rank": 49, "time": null, "location": {"lat": 35.781743639537595, "lng": 113.28740655466288}, "feature": {"sight_features": "", "sight_content": ""}}, {"title": "双底村", "address": "山西省晋城市陵川县双底村", "image": "", "rank": 50, "time": 2, "location": {"lat": 35.61396534834836, "lng": 113.4491464779039}, "feature": {"sight_features": "", "sight_content": ""}}, {"title": "崇安寺", "address": "山西省晋城市陵川县", "image": "", "rank": 51, "time": 2.0, "location": {"lat": 35.781743639537595, "lng": 113.28740655466288}, "feature": {"sight_features": "", "sight_content": ""}}]}