{"cityName": "临高", "days": "", "cityImage": "", "spots": [{"title": "临高角", "address": "临高县北端10公里处，地处海口市和洋浦经济开发区之间", "image": "", "rank": 1, "time": 4.5, "location": {"lat": 19.968802031048973, "lng": 110.27565505275807}, "feature": {"sight_features": "", "sight_content": ""}}, {"title": "碧桂园金沙滩温泉养生会馆", "address": "临高县龙波湾大道碧桂园内", "image": "", "rank": 2, "time": 2, "location": {"lat": 19.762452174357545, "lng": 109.86086152067926}, "feature": {"sight_features": "特色1 西线观海第一泉", "sight_content": "碧桂园金沙滩温泉会馆位于临高县龙波湾碧桂园内,建有40个温泉池，水温45℃，属低温温热矿水。矿化度很高，含有多种对人体有益的矿物质和微量元素。这里形态、功能各异的温泉池48个，分布在露天观海园林中，一池一景。景区内还有多种理疗、水疗项目供选择，可以让你舒服地享受一番。\n温泉单井日自喷水量3256立方米，水温45℃，氟含量高。可称为西线观海第一泉，金沙滩温泉含有多种对人体健康有益的矿物质和微量元素，不仅有益皮肤健康，还能对体内各系统的机体产生良好的影响，能良好地调整人体植物神经的紧张性，改善体质，增进健康。这里已经规划为龙波湾滨海旅游度假区，将建设成为西线观海旅游观光度假胜地。毗邻金沙滩会馆的十里原始金色海滩可免费供游人参观。\n八大特色：一、服务：五星级的服务，让您随意畅享五星级的温泉；二、特色美食：琼粤美食，东南亚美食自助大餐；三、观光：梦幻仙人掌乐园，十里原始金色海滩，观海别墅，超大露天观海台； 四、温泉：东南亚园林设计，一池一景，水温12-45度，水疗池，衡温池，高温池等，不同的池景，不同的心境，不同的温度，不同的感受；五、运动：太极晨运，瑜珈养生，海边游乐；六、阳光：感受大自然的阳光浴，体验完美旅程，多种形式休闲设施，让您自得其乐，无比逍遥； 七、芳香水疗SPA：视觉，嗅觉，味觉，听觉，触觉的感官冲击，达到身，心灵的绝对放松。东南亚风格准五星酒店，海景客房，温泉别墅，超完美产品组合；八、温泉酒店别墅区：露天园林温泉池：休闲度假别墅。最佳游览线路：可逐一穿梭于观海园林中，并且任意选择温泉泡池感受大自然的赠予。"}}, {"title": "百仞滩", "address": "临高县城东北约四公里，地处文澜江下游", "image": "", "rank": 3, "time": 2.5, "location": {"lat": 19.910593548797276, "lng": 109.69741548446426}, "feature": {"sight_features": "", "sight_content": ""}}, {"title": "高山岭", "address": "海南省临高县东英镇临高县高山岭自然保护区", "image": "", "rank": 4, "time": 2.0, "location": {"lat": 19.93337195316968, "lng": 109.65137907609393}, "feature": {"sight_features": "", "sight_content": ""}}, {"title": "文澜文化公园", "address": "海南省临高县市政大道东200米", "image": "", "rank": 5, "time": 2, "location": {"lat": 19.9380993619917, "lng": 109.71495780645743}, "feature": {"sight_features": "", "sight_content": ""}}, {"title": "茉莉轩", "address": "临城镇西北4公里处，临高师范学校内。", "image": "", "rank": 6, "time": 2.0, "location": {"lat": 19.8868953737466, "lng": 109.66112925984176}, "feature": {"sight_features": "", "sight_content": ""}}, {"title": "临高文庙", "address": "海南临高县城文澜江畔", "image": "", "rank": 7, "time": 1.0, "location": {"lat": 19.910593548797276, "lng": 109.69741548446426}, "feature": {"sight_features": "", "sight_content": ""}}, {"title": "彩桥红树林自然保护区", "address": "海南省临高县新盈镇彩桥村沿海一带", "image": "", "rank": 8, "time": 2, "location": {"lat": 19.858495777186143, "lng": 109.57956169035864}, "feature": {"sight_features": "", "sight_content": ""}}, {"title": "邻昌礁", "address": "临高县新盈港", "image": "", "rank": 9, "time": 2, "location": {"lat": 19.893214543197384, "lng": 109.5286144631568}, "feature": {"sight_features": "", "sight_content": ""}}, {"title": "居仁瀑布", "address": "海南省临高县皇桐乡居仁村", "image": "", "rank": 10, "time": null, "location": {"lat": 19.8372525951686, "lng": 109.8621975515994}, "feature": {"sight_features": "", "sight_content": ""}}, {"title": "临高县档案馆", "address": "临昌路", "image": "", "rank": 11, "time": 2, "location": {"lat": 30.99726809281161, "lng": 121.39986671351404}, "feature": {"sight_features": "", "sight_content": ""}}, {"title": "红星农场", "address": "G98海南环线高速附近", "image": "", "rank": 12, "time": 2, "location": {"lat": 18.33020149570256, "lng": 109.51108441650845}, "feature": {"sight_features": "", "sight_content": ""}}, {"title": "龙波糖厂知青农场", "address": "025乡道附近附近", "image": "", "rank": 13, "time": 2, "location": {"lat": 35.24978900115878, "lng": 110.66699072270737}, "feature": {"sight_features": "", "sight_content": ""}}, {"title": "布佛村企业场", "address": "004乡道附近", "image": "", "rank": 14, "time": 2, "location": {"lat": 42.09990729646014, "lng": 117.90189407292786}, "feature": {"sight_features": "", "sight_content": ""}}, {"title": "新兴农场", "address": "二二五国道", "image": "", "rank": 15, "time": 3.5, "location": {"lat": 19.4663081009107, "lng": 109.32109095968458}, "feature": {"sight_features": "", "sight_content": ""}}, {"title": "欧亚温泉休闲会馆", "address": "临高镇文明中路7号", "image": "", "rank": 16, "time": 2, "location": {"lat": 19.9156558041941, "lng": 109.69145185606695}, "feature": {"sight_features": "", "sight_content": ""}}, {"title": "华中希望读书社", "address": "规划大街1号附近", "image": "", "rank": 17, "time": 2, "location": {"lat": 38.45502345985581, "lng": 106.27256011708562}, "feature": {"sight_features": "", "sight_content": ""}}, {"title": "红华农场造田队", "address": "050乡道东150米", "image": "", "rank": 18, "time": 2, "location": {"lat": 35.37720857982394, "lng": 113.08436330673442}, "feature": {"sight_features": "", "sight_content": ""}}, {"title": "彩桥记忆", "address": "新盈镇红树林湿地旅游度假区", "image": "", "rank": 19, "time": 2, "location": {"lat": 19.89838560500037, "lng": 109.54051790677067}, "feature": {"sight_features": "", "sight_content": ""}}, {"title": "金波荷花基地", "address": "皇桐镇金波村", "image": "", "rank": 20, "time": 2, "location": {"lat": 19.831134823701426, "lng": 109.84173506297066}, "feature": {"sight_features": "", "sight_content": ""}}, {"title": "后水湾", "address": "海南省临高县新盈镇", "image": "", "rank": 21, "time": 2, "location": {"lat": 19.89838560500037, "lng": 109.54051790677067}, "feature": {"sight_features": "", "sight_content": ""}}, {"title": "碧桂园·金沙滩温泉酒店-篮球场", "address": "临高县-临高县-碧桂园·金沙滩温泉酒店", "image": "", "rank": 22, "time": null, "location": {"lat": 19.919474770278047, "lng": 109.69744301483321}, "feature": {"sight_features": "", "sight_content": ""}}]}