{"cityName": "凌海", "days": 2, "cityImage": "", "spots": [{"title": "九华山温泉水城", "address": "凌海市市府路（九华山）花园温泉酒店", "image": "", "rank": 1, "time": 4.5, "location": {"lat": 41.16223970793397, "lng": 121.3548157238153}, "feature": {"sight_features": "特色1 融合了温泉景观与水上体验 特色2 无尽的欢浪、无尽的挑战、无限的体验，温泉水城带您感受文化与时尚的精彩碰撞。 特色3 温泉水城以“动感、奇妙、梦幻”为核心充满魔幻和惊险的水世界。", "sight_content": "坐落于凌海九华山畔的九华山温泉水城，水城依托于花园温泉酒店，总建筑面积三万余平方米，斥资3亿，打造辽西最大的温泉水世界。无尽的欢乐、无尽的挑战、无限的体验，温泉水城带您感受文化与时尚的精彩碰撞，带您步入魔幻的殿堂，欢迎来到温泉水城水世界。\n温泉水城以“动感、奇妙、梦幻”为核心，大型造浪池、儿童戏水屋、速度直线滑梯、漩涡滑梯、浪摆滑梯、组合滑梯、火龙浴、药疗池、美容养生泡浴等，将温泉景观河水上体验有了项目巧妙融合，开创了充满魔幻和惊险的水世界。\n\n温泉水城拥有水上游乐项目、主题景观、娱乐表演、温泉养生、美食餐厅、健身会馆、影院及KTV酒吧等十余种休闲娱乐区，让您体验较炫的动感与激情。"}}, {"title": "九华山主题乐园", "address": "锦州市凌海市九华山南麓", "image": "", "rank": 2, "time": 2.5, "location": {"lat": 41.16223970793397, "lng": 121.3548157238153}, "feature": {"sight_features": "", "sight_content": ""}}, {"title": "中心公园", "address": "天津市和平区中心地带", "image": "", "rank": 3, "time": 1.0, "location": {"lat": 39.12339025327971, "lng": 117.22146699490091}, "feature": {"sight_features": "", "sight_content": ""}}, {"title": "九华山公园", "address": "锦州市凌海市外环路", "image": "", "rank": 4, "time": 1.5, "location": {"lat": 41.16648762858835, "lng": 121.36253879584407}, "feature": {"sight_features": "", "sight_content": ""}}, {"title": "辽塔", "address": "辽宁省锦州市古塔区双塔山顶端", "image": "", "rank": 5, "time": 1.5, "location": {"lat": 41.12290092589807, "lng": 121.13458496929316}, "feature": {"sight_features": "", "sight_content": ""}}, {"title": "锦州世博园海上乐园", "address": "锦州市凌海市经济开发区龙栖湾滨海大道1号锦州世博园海上乐园检票处", "image": "", "rank": 6, "time": 4.5, "location": {"lat": 40.89366430831285, "lng": 121.17316772993003}, "feature": {"sight_features": "", "sight_content": ""}}, {"title": "金宇温泉会馆", "address": "国庆路62号", "image": "", "rank": 7, "time": 2, "location": {"lat": 41.17926203743833, "lng": 121.36429121023293}, "feature": {"sight_features": "", "sight_content": ""}}, {"title": "辽宁省金城原种场第一示范场", "address": "金城原种场中心小学校附近", "image": "", "rank": 8, "time": 2, "location": {"lat": 41.21457778140627, "lng": 121.39788801596721}, "feature": {"sight_features": "", "sight_content": ""}}, {"title": "锦州凌绿莱农产品专业合作社", "address": "凌海大街42号附近", "image": "", "rank": 9, "time": 4.5, "location": {"lat": 41.17164879227908, "lng": 121.37052551874342}, "feature": {"sight_features": "", "sight_content": ""}}, {"title": "辽南垂钓园", "address": "附近欢一支", "image": "", "rank": 10, "time": 2, "location": {"lat": 41.09130127055454, "lng": 121.70966055755144}, "feature": {"sight_features": "", "sight_content": ""}}, {"title": "慈海寺", "address": "辽宁省锦州市凌海市S308(大锦线)", "image": "", "rank": 11, "time": 2, "location": {"lat": 40.982772435662824, "lng": 121.11377585330715}, "feature": {"sight_features": "", "sight_content": ""}}, {"title": "雨豆豆儿童乐园", "address": "商业路45-2号", "image": "", "rank": 12, "time": 2, "location": {"lat": 41.17049241663459, "lng": 121.36268791455872}, "feature": {"sight_features": "", "sight_content": ""}}, {"title": "三只猴儿儿童乐园", "address": "辽宁省锦州市凌海市八一街", "image": "", "rank": 13, "time": 2, "location": {"lat": 41.16648762858835, "lng": 121.36253879584407}, "feature": {"sight_features": "", "sight_content": ""}}, {"title": "佛光寺", "address": "辽宁省锦州市凌海市东山村", "image": "", "rank": 14, "time": 2.5, "location": {"lat": 41.27182331311112, "lng": 121.53054541600073}, "feature": {"sight_features": "", "sight_content": ""}}, {"title": "朝阳寺", "address": "锦州市凌海市", "image": "", "rank": 15, "time": null, "location": {"lat": 41.16648762858835, "lng": 121.36253879584407}, "feature": {"sight_features": "", "sight_content": ""}}, {"title": "儿童乐园", "address": "辽宁省锦州市凌海市大凌河街道中兴大街市府龙庭", "image": "", "rank": 16, "time": 2, "location": {"lat": 41.17936091999659, "lng": 121.36428088061787}, "feature": {"sight_features": "", "sight_content": ""}}, {"title": "演法寺", "address": "辽宁省锦州市凌海市演法寺", "image": "", "rank": 17, "time": 2, "location": {"lat": 41.16648762858835, "lng": 121.36253879584407}, "feature": {"sight_features": "", "sight_content": ""}}, {"title": "山湖海水世界", "address": "温滴楼镇温滴楼村聚缘春酒家南行200米路东", "image": "", "rank": 18, "time": 2, "location": {"lat": 41.2126538553646, "lng": 121.14752432085896}, "feature": {"sight_features": "", "sight_content": ""}}, {"title": "林丰歌厅音乐广场", "address": "凌海市健康路8号", "image": "", "rank": 19, "time": 2, "location": {"lat": 41.17769316023883, "lng": 121.37612648054728}, "feature": {"sight_features": "", "sight_content": ""}}, {"title": "盘山县欢喜岭基督教会", "address": "平安街209号附近", "image": "", "rank": 20, "time": 2, "location": {"lat": 36.589058309689726, "lng": 113.6920248519095}, "feature": {"sight_features": "", "sight_content": ""}}, {"title": "东方华地城湿地风景区", "address": "锦州市凌海市大有经济区滨海公路凌海段一号", "image": "", "rank": 21, "time": 1.5, "location": {"lat": 40.88499116617886, "lng": 121.11825537680049}, "feature": {"sight_features": "", "sight_content": ""}}, {"title": "马颂书画院", "address": "振兴路", "image": "", "rank": 22, "time": 2, "location": {"lat": 38.935292139358445, "lng": 116.91891946161574}, "feature": {"sight_features": "", "sight_content": ""}}, {"title": "凌海市图书馆", "address": "锦凌路66号", "image": "", "rank": 23, "time": 1.5, "location": {"lat": 41.18336184825231, "lng": 121.36664720777193}, "feature": {"sight_features": "", "sight_content": ""}}, {"title": "岩井寺", "address": "兴闫线与铁西路交叉口", "image": "", "rank": 24, "time": 2, "location": {"lat": 41.00878930730308, "lng": 121.43855944381313}, "feature": {"sight_features": "", "sight_content": ""}}, {"title": "萧军纪念馆", "address": "国庆路32号", "image": "", "rank": 25, "time": 2, "location": {"lat": 31.24649107547981, "lng": 121.47736056545166}, "feature": {"sight_features": "", "sight_content": ""}}, {"title": "九华山高尔夫练习场", "address": "大凌河街道大锦线九华山西100米", "image": "", "rank": 26, "time": 4.5, "location": {"lat": 41.13490337935058, "lng": 121.30171821281606}, "feature": {"sight_features": "", "sight_content": ""}}, {"title": "萧军故里", "address": "辽宁省凌海市境内", "image": "", "rank": 27, "time": 2, "location": {"lat": 41.16648762858835, "lng": 121.36253879584407}, "feature": {"sight_features": "", "sight_content": ""}}, {"title": "锦州茶山", "address": "辽宁省凌海市余积镇茶山村", "image": "", "rank": 28, "time": 7.5, "location": {"lat": 41.31251373536045, "lng": 121.17376653409484}, "feature": {"sight_features": "", "sight_content": ""}}, {"title": "凌海市大有众旺养猪场", "address": "锦州市-凌海市-西双线", "image": "", "rank": 29, "time": 2, "location": {"lat": 40.99011545537399, "lng": 121.54883280606424}, "feature": {"sight_features": "", "sight_content": ""}}, {"title": "凌海市大有农场张磊养殖场", "address": "盘锦市-兴隆台区-锦北路东150米", "image": "", "rank": 30, "time": 2, "location": {"lat": 41.15583088755934, "lng": 121.96962911034196}, "feature": {"sight_features": "", "sight_content": ""}}, {"title": "陆正庄园", "address": "锦州市凌海市翠岩镇刘家沟村", "image": "", "rank": 31, "time": 2, "location": {"lat": 41.204792360981465, "lng": 121.03442027218316}, "feature": {"sight_features": "", "sight_content": "锦州陆正庄园位于凌海市翠岩镇刘家沟村，集农业、旅游、餐饮食宿为一体，庄园内有干净舒适的套房、别具风格的大中小型餐厅，棋盘室、健身房等设施一应俱全。采摘是庄园的特色之一，在这里可以采摘到当季的水果以及蔬菜。此外，这里还有真人CS练习场、设施较齐全的休闲骑马场等。"}}, {"title": "大凌河", "address": "锦州市义县", "image": "", "rank": 32, "time": 2, "location": {"lat": 41.53893886227117, "lng": 121.24556854894828}, "feature": {"sight_features": "", "sight_content": ""}}]}