{"cityName": "临猗", "days": 2, "cityImage": "", "spots": [{"title": "欢乐海水上乐园", "address": "运城市临猗县南城剧院东路南城中心广场对面（第三中学南400米）", "image": "", "rank": 1, "time": 2, "location": {"lat": 35.1392997467329, "lng": 110.795654122596}, "feature": {"sight_features": "特色1 “全民摸鱼大赛”让你亲身体验摸鱼的乐趣。", "sight_content": "欢乐海水上乐园有无数的夏日水上游玩活动，让夏日清爽欢乐无极限。水闯关游戏是一种户外水上冲关拿奖类娱乐健康活动，通常都是采用让参赛者在限定时间内对各个关卡进行挑战、冲刺，如果在限定时间内挑战成功即可拿到一份奖品，水上闯关是以健身、休闲、娱乐为目的游戏项目主要提倡“超越自我、挑战自我、放松心情、磨练意志”。\n摸鱼大赛南城欢乐海游乐园“全民摸鱼大赛”让你亲身体验摸鱼的乐趣。还在担心今年夏天没什么可以去的吗？快来南城欢乐海游乐园！还在担心今年没有什么活动可以玩吗？快来南城欢乐海游乐园！"}}, {"title": "温泉老年公寓", "address": "双塔北路1825号(近209国道)", "image": "", "rank": 2, "time": 2, "location": {"lat": 35.166849780392575, "lng": 110.77580965557509}, "feature": {"sight_features": "", "sight_content": ""}}, {"title": "黄河魂漂流", "address": "洽川炎黄公路南段", "image": "", "rank": 3, "time": 2, "location": {"lat": 36.63505767688091, "lng": 101.76055402404427}, "feature": {"sight_features": "", "sight_content": ""}}, {"title": "山西临猗有机农业集团有限公司", "address": "东城路与南环路交叉口西150米", "image": "", "rank": 4, "time": null, "location": {"lat": 35.14603447564629, "lng": 110.78867117166337}, "feature": {"sight_features": "", "sight_content": ""}}, {"title": "临猗县图书馆", "address": "何家巷与双塔北路交叉口东南150米", "image": "", "rank": 5, "time": 2, "location": {"lat": 33.384287366628534, "lng": 119.98664476517918}, "feature": {"sight_features": "", "sight_content": ""}}, {"title": "双塔交影", "address": "山西省临猗县县城北隅 044100", "image": "", "rank": 6, "time": 2, "location": {"lat": 35.149542242621784, "lng": 110.78040700351404}, "feature": {"sight_features": "", "sight_content": ""}}, {"title": "康美乐儿童乐园", "address": "临猗县中心广场西七、八、九号", "image": "", "rank": 7, "time": 2, "location": {"lat": 35.149542242621784, "lng": 110.78040700351404}, "feature": {"sight_features": "", "sight_content": ""}}, {"title": "临猗县涑水公园", "address": "山西省运城市临猗县丰喜大道", "image": "", "rank": 8, "time": 2, "location": {"lat": 35.13827338960241, "lng": 110.78745360478192}, "feature": {"sight_features": "", "sight_content": ""}}, {"title": "东岳文化广场", "address": "065乡道附近", "image": "", "rank": 9, "time": 2, "location": {"lat": 27.795421966059003, "lng": 113.71820089478318}, "feature": {"sight_features": "", "sight_content": ""}}, {"title": "临晋文庙大成殿", "address": "临晋镇临晋派出所附近", "image": "", "rank": 10, "time": 2, "location": {"lat": 35.09141551165012, "lng": 110.59202401706773}, "feature": {"sight_features": "", "sight_content": ""}}, {"title": "北辛舞台", "address": "811县道附近王开线", "image": "", "rank": 11, "time": 2, "location": {"lat": 35.1560684646729, "lng": 110.57075345681243}, "feature": {"sight_features": "", "sight_content": ""}}, {"title": "中华民族传统文化精髓《二十四孝...", "address": "山西省临猗县温泉老年公寓东", "image": "", "rank": 12, "time": 2, "location": {"lat": 35.166849780392575, "lng": 110.77580965557509}, "feature": {"sight_features": "", "sight_content": ""}}, {"title": "快乐小孩儿童成长主题乐园", "address": "双塔南路家家利超市三楼", "image": "", "rank": 13, "time": 2, "location": {"lat": 35.14601237473506, "lng": 110.7830725454538}, "feature": {"sight_features": "", "sight_content": ""}}, {"title": "儿童乐园", "address": "运城市临猗县", "image": "", "rank": 14, "time": 2, "location": {"lat": 35.149542242621784, "lng": 110.78040700351404}, "feature": {"sight_features": "", "sight_content": ""}}, {"title": "熊出没儿童乐园", "address": "双塔南路百大五楼", "image": "", "rank": 15, "time": 2, "location": {"lat": 35.14826805878255, "lng": 110.78157068014966}, "feature": {"sight_features": "", "sight_content": ""}}, {"title": "中华民族传统文化精髓(二十四孝)...", "address": "温泉老年公寓东", "image": "", "rank": 16, "time": 2, "location": {"lat": 44.97485663870472, "lng": 81.03114554648644}, "feature": {"sight_features": "", "sight_content": ""}}, {"title": "千彩画廊", "address": "南环西路459号", "image": "", "rank": 17, "time": 2, "location": {"lat": 40.05676835951962, "lng": 113.26760968795261}, "feature": {"sight_features": "", "sight_content": ""}}, {"title": "临猗县博物馆", "address": "双塔北路269", "image": "", "rank": 18, "time": 2, "location": {"lat": 37.85558668012154, "lng": 112.59764354342938}, "feature": {"sight_features": "", "sight_content": ""}}, {"title": "临猗县水上乐园", "address": "东外环路85号", "image": "", "rank": 19, "time": 2, "location": {"lat": 31.920268228479987, "lng": 120.32243106207997}, "feature": {"sight_features": "", "sight_content": ""}}, {"title": "赵家卓舞台", "address": "073乡道附近", "image": "", "rank": 20, "time": 2, "location": {"lat": 43.72162953753833, "lng": 127.43564826898586}, "feature": {"sight_features": "", "sight_content": ""}}, {"title": "天源温泉水上乐园", "address": "南环西路32号", "image": "", "rank": 21, "time": 2, "location": {"lat": 31.28535408623311, "lng": 120.62336747814486}, "feature": {"sight_features": "", "sight_content": ""}}, {"title": "瑞祥旅行社", "address": "中心广场东侧一百米", "image": "", "rank": 22, "time": 2, "location": {"lat": 22.526267027237505, "lng": 113.3829636090835}, "feature": {"sight_features": "", "sight_content": ""}}, {"title": "艺宝画廊", "address": "桥坡北路东150米", "image": "", "rank": 23, "time": 2, "location": {"lat": 35.155573274986516, "lng": 110.7890709481577}, "feature": {"sight_features": "", "sight_content": ""}}, {"title": "鳄鱼恤", "address": "建设北路与建设南路交叉口东南150米", "image": "", "rank": 24, "time": 2, "location": {"lat": 39.384075805420224, "lng": 117.06983061645954}, "feature": {"sight_features": "", "sight_content": ""}}, {"title": "樊登书店樊登读书会", "address": "西环路131号", "image": "", "rank": 25, "time": 2, "location": {"lat": 35.1409948730609, "lng": 110.76650680371377}, "feature": {"sight_features": "", "sight_content": ""}}, {"title": "薛家庄大波冬枣采摘园", "address": "北景乡薛家庄", "image": "", "rank": 26, "time": 2, "location": {"lat": 35.23735846703587, "lng": 110.75038061813092}, "feature": {"sight_features": "", "sight_content": ""}}, {"title": "名吃一条街", "address": "山西省临猗县239省道附近", "image": "", "rank": 27, "time": 2, "location": {"lat": 35.064410445466265, "lng": 110.80091549796795}, "feature": {"sight_features": "", "sight_content": ""}}]}