{"cityName": "临江", "days": 2, "cityImage": "", "spots": [{"title": "江心岛公园", "address": "白山市临江市环岛路", "image": "", "rank": 1, "time": 2, "location": {"lat": 41.811581990058116, "lng": 126.92597926160445}, "feature": {"sight_features": "", "sight_content": ""}}, {"title": "龙头山中朝边境度假公园", "address": "白山市临江市四道沟坡口村", "image": "", "rank": 2, "time": 2, "location": {"lat": 41.817678643991684, "lng": 126.92458151350212}, "feature": {"sight_features": "", "sight_content": ""}}, {"title": "临江半岛公园", "address": "白山市临江市鸭绿江大街37号", "image": "", "rank": 3, "time": 2, "location": {"lat": 41.81856213528495, "lng": 126.93323830404067}, "feature": {"sight_features": "", "sight_content": ""}}, {"title": "临江喷泉广场", "address": "白山市临江市临江大街210号", "image": "", "rank": 4, "time": 2, "location": {"lat": 41.8165917856855, "lng": 126.92493706282296}, "feature": {"sight_features": "", "sight_content": ""}}, {"title": "北山公园", "address": "白山市临江市森工大路", "image": "", "rank": 5, "time": 1.0, "location": {"lat": 41.84254849691563, "lng": 126.95387588589466}, "feature": {"sight_features": "", "sight_content": ""}}, {"title": "溪谷", "address": "白山市临江市165县道", "image": "", "rank": 6, "time": 3.5, "location": {"lat": 41.817678643991684, "lng": 126.92458151350212}, "feature": {"sight_features": "", "sight_content": ""}}, {"title": "菩提峰景区", "address": "白山市临江市004乡道", "image": "", "rank": 7, "time": 2, "location": {"lat": 41.817678643991684, "lng": 126.92458151350212}, "feature": {"sight_features": "", "sight_content": ""}}, {"title": "金银峡景区", "address": "白山市临江市085县道", "image": "", "rank": 8, "time": 2, "location": {"lat": 41.798193757166636, "lng": 126.89430574323822}, "feature": {"sight_features": "", "sight_content": ""}}, {"title": "四保临江纪念馆", "address": "吉林省白山市临江市猫耳山脚下", "image": "", "rank": 9, "time": 2, "location": {"lat": 41.831390998350635, "lng": 126.88815605780172}, "feature": {"sight_features": "", "sight_content": ""}}, {"title": "松岭", "address": "吉林省白山市临江市松岭", "image": "", "rank": 10, "time": 3.5, "location": {"lat": 41.90457557985219, "lng": 126.73069295541572}, "feature": {"sight_features": "", "sight_content": ""}}, {"title": "老三队温泉", "address": "花山镇老三队温泉度假村", "image": "", "rank": 11, "time": 2, "location": {"lat": 41.96040450135139, "lng": 126.81743075103425}, "feature": {"sight_features": "", "sight_content": ""}}, {"title": "苇沙河风景区", "address": "苇沙河镇", "image": "", "rank": 12, "time": 2, "location": {"lat": 41.744859569180356, "lng": 126.75722787072236}, "feature": {"sight_features": "", "sight_content": ""}}, {"title": "花山林场食用菌基地", "address": "303省道附近", "image": "", "rank": 13, "time": 2, "location": {"lat": 38.25466494631471, "lng": 114.66726867564682}, "feature": {"sight_features": "", "sight_content": ""}}, {"title": "临江建国基督教堂", "address": "卧虎山大街214", "image": "", "rank": 14, "time": 2, "location": {"lat": 39.698255161369005, "lng": 113.56912411330805}, "feature": {"sight_features": "", "sight_content": ""}}, {"title": "基督教堂", "address": "兴隆街31号附近", "image": "", "rank": 15, "time": 2.0, "location": {"lat": 39.92224282532255, "lng": 116.5346172112404}, "feature": {"sight_features": "", "sight_content": ""}}, {"title": "宝贝乐儿童乐园", "address": "吉林省白山市临江市", "image": "", "rank": 16, "time": 2, "location": {"lat": 41.817678643991684, "lng": 126.92458151350212}, "feature": {"sight_features": "", "sight_content": ""}}, {"title": "中华门", "address": "森工大路附近", "image": "", "rank": 17, "time": 1.5, "location": {"lat": 41.84254849691563, "lng": 126.95387588589466}, "feature": {"sight_features": "", "sight_content": ""}}, {"title": "基督教堂", "address": "094县道附近", "image": "", "rank": 18, "time": 2.0, "location": {"lat": 28.117102345379934, "lng": 112.42432071492803}, "feature": {"sight_features": "", "sight_content": ""}}, {"title": "天主教堂", "address": "165县道东100米", "image": "", "rank": 19, "time": 1.0, "location": {"lat": 39.3117686921384, "lng": 113.61930771347032}, "feature": {"sight_features": "", "sight_content": ""}}, {"title": "宝贝家儿童游乐城", "address": "临江大街千百合商场内", "image": "", "rank": 20, "time": 2, "location": {"lat": 43.60693840333796, "lng": 121.32159929656618}, "feature": {"sight_features": "", "sight_content": ""}}, {"title": "龙润祠", "address": "白山市临江市", "image": "", "rank": 21, "time": 2, "location": {"lat": 41.817678643991684, "lng": 126.92458151350212}, "feature": {"sight_features": "", "sight_content": ""}}, {"title": "临江珍珠门风景区", "address": "303省道", "image": "", "rank": 22, "time": 2, "location": {"lat": 38.25466494631471, "lng": 114.66726867564682}, "feature": {"sight_features": "", "sight_content": ""}}, {"title": "陈云故居", "address": "世纪大街", "image": "", "rank": 23, "time": 1.5, "location": {"lat": 22.57883261850507, "lng": 113.91582778262476}, "feature": {"sight_features": "", "sight_content": ""}}, {"title": "江林书画苑", "address": "正阳路", "image": "", "rank": 24, "time": 2, "location": {"lat": 38.24731846731617, "lng": 114.65636151212775}, "feature": {"sight_features": "", "sight_content": ""}}, {"title": "大蓝天艺术乐园", "address": "国土局南楼", "image": "", "rank": 25, "time": 2, "location": {"lat": 41.81807349380927, "lng": 126.93203686353975}, "feature": {"sight_features": "", "sight_content": ""}}, {"title": "临江星宝贝儿童乐园", "address": "临江大街火车站万乐福2部内", "image": "", "rank": 26, "time": 2, "location": {"lat": 41.813129112321064, "lng": 126.91516477895976}, "feature": {"sight_features": "", "sight_content": ""}}, {"title": "满清皇帝退位地遗址", "address": "吉林省临江市栗子镇", "image": "", "rank": 27, "time": 2, "location": {"lat": 41.817678643991684, "lng": 126.92458151350212}, "feature": {"sight_features": "", "sight_content": ""}}, {"title": "临江林业局望江楼苗圃", "address": "白山市-临江市-大栗子镇", "image": "", "rank": 28, "time": 2, "location": {"lat": 41.743082273657414, "lng": 126.84150098730976}, "feature": {"sight_features": "", "sight_content": ""}}, {"title": "望江楼苗圃", "address": "白山市-临江市", "image": "", "rank": 29, "time": 2, "location": {"lat": 41.817678643991684, "lng": 126.92458151350212}, "feature": {"sight_features": "", "sight_content": ""}}, {"title": "花山国家森林公园", "address": "吉林省白山市临江市303省道花山镇", "image": "", "rank": 30, "time": null, "location": {"lat": 41.696988838649915, "lng": 127.10711099482162}, "feature": {"sight_features": "", "sight_content": ""}}]}