{"cityName": "林口", "days": 2, "cityImage": "", "spots": [{"title": "﻿莲花湖", "address": "牡丹江市林口县境内东北部", "image": "", "rank": 1, "time": 1.0, "location": {"lat": 45.28412885062018, "lng": 130.28757880086056}, "feature": {"sight_features": "", "sight_content": ""}}, {"title": "葡萄种植专业合作社", "address": "刁翎镇刁翎经营所", "image": "", "rank": 2, "time": 2, "location": {"lat": 45.79714408399847, "lng": 129.99901756277055}, "feature": {"sight_features": "", "sight_content": ""}}, {"title": "图书馆", "address": "邮电路北段", "image": "", "rank": 3, "time": 1.0, "location": {"lat": 41.901843328726436, "lng": 114.0089489573052}, "feature": {"sight_features": "", "sight_content": ""}}, {"title": "南山公园", "address": "公交地铁接驳专线8路;公交地铁接驳专线8路", "image": "", "rank": 4, "time": 2.5, "location": {"lat": 28.902622265507468, "lng": 105.45063014659402}, "feature": {"sight_features": "", "sight_content": ""}}, {"title": "响水河漂流", "address": "黑龙江省方正县林业局西南林场 150000", "image": "", "rank": 5, "time": 2, "location": {"lat": 45.846222611021666, "lng": 128.84842221190095}, "feature": {"sight_features": "", "sight_content": ""}}, {"title": "八女投江遗址陈列馆", "address": "八女投江纪念地", "image": "", "rank": 6, "time": 2, "location": {"lat": 45.83292185302479, "lng": 129.83611079636597}, "feature": {"sight_features": "", "sight_content": ""}}, {"title": "莲华寺", "address": "黑龙江省牡丹江市林口县莲花镇", "image": "", "rank": 7, "time": 2, "location": {"lat": 45.46160905966261, "lng": 129.8123514267968}, "feature": {"sight_features": "", "sight_content": ""}}, {"title": "兴林广场", "address": "牡丹江市林口县兴林广场2号楼", "image": "", "rank": 8, "time": 2, "location": {"lat": 45.36255938261814, "lng": 130.29847242511903}, "feature": {"sight_features": "", "sight_content": ""}}, {"title": "鸳鸯峰", "address": "黑龙江省林口县国有重点林区红旗林场西北沟内", "image": "", "rank": 9, "time": 2, "location": {"lat": 45.57396249961084, "lng": 129.56446214745154}, "feature": {"sight_features": "", "sight_content": ""}}, {"title": "白桦林蒙古风情园", "address": "309省道附近", "image": "", "rank": 10, "time": 2, "location": {"lat": 40.709016096764906, "lng": 116.52743651721413}, "feature": {"sight_features": "", "sight_content": ""}}, {"title": "森林氧吧", "address": "石河线北50米", "image": "", "rank": 11, "time": 2.0, "location": {"lat": 40.035460953363845, "lng": 115.71571618434179}, "feature": {"sight_features": "", "sight_content": ""}}, {"title": "月亮度假村", "address": "黑龙江省牡丹江市林口县", "image": "", "rank": 12, "time": 2, "location": {"lat": 45.28412885062018, "lng": 130.28757880086056}, "feature": {"sight_features": "", "sight_content": ""}}, {"title": "石河山庄", "address": "森林氧吧附近", "image": "", "rank": 13, "time": 2, "location": {"lat": 26.33116825217043, "lng": 117.62269872821192}, "feature": {"sight_features": "", "sight_content": ""}}, {"title": "林口滑雪场", "address": "鹤大路", "image": "", "rank": 14, "time": 2, "location": {"lat": 39.182361494540494, "lng": 121.89382359486456}, "feature": {"sight_features": "", "sight_content": ""}}, {"title": "盛鼎画廊", "address": "步行街38号", "image": "", "rank": 15, "time": 2, "location": {"lat": 31.4707878758284, "lng": 104.75488769018823}, "feature": {"sight_features": "", "sight_content": ""}}, {"title": "听南轩画廊", "address": "邮电路79号附近", "image": "", "rank": 16, "time": 2, "location": {"lat": 27.96683239164486, "lng": 120.81883918927035}, "feature": {"sight_features": "", "sight_content": ""}}, {"title": "隆艺画廊", "address": "和平路与文政大街交叉口南150米", "image": "", "rank": 17, "time": 2, "location": {"lat": 45.29305888346099, "lng": 130.27607042481952}, "feature": {"sight_features": "", "sight_content": ""}}, {"title": "林泉河情侣漂流区", "address": "三道通镇", "image": "", "rank": 18, "time": 2, "location": {"lat": 45.68973860884592, "lng": 129.7522019184081}, "feature": {"sight_features": "", "sight_content": ""}}, {"title": "回云寺", "address": "黑龙江省林口县龙爪镇高云村东南", "image": "", "rank": 19, "time": 2, "location": {"lat": 45.32554679235649, "lng": 130.1324038982008}, "feature": {"sight_features": "", "sight_content": ""}}]}