{"cityName": "临澧", "days": 2, "cityImage": "", "spots": [{"title": "临澧博物馆", "address": "常德市临澧县安福镇朝阳东街59号", "image": "", "rank": 1, "time": 2.5, "location": {"lat": 29.451242330012153, "lng": 111.6556174574184}, "feature": {"sight_features": "", "sight_content": ""}}, {"title": "林伯渠故居", "address": "湖南省常德市临澧县修梅镇", "image": "", "rank": 2, "time": 2, "location": {"lat": 29.52993615246502, "lng": 111.6382204120872}, "feature": {"sight_features": "", "sight_content": ""}}, {"title": "临澧县图书馆", "address": "朝阳中街45号", "image": "", "rank": 3, "time": 2, "location": {"lat": 35.88954014491041, "lng": 120.00729534461559}, "feature": {"sight_features": "", "sight_content": ""}}, {"title": "丁玲纪念馆", "address": "朝阳东街59", "image": "", "rank": 4, "time": 1.5, "location": {"lat": 29.451242330012153, "lng": 111.6556174574184}, "feature": {"sight_features": "", "sight_content": ""}}, {"title": "太浮山", "address": "常德市临澧县", "image": "", "rank": 5, "time": 2, "location": {"lat": 29.446543990119117, "lng": 111.65358500796546}, "feature": {"sight_features": "", "sight_content": ""}}, {"title": "张公庙大桥", "address": "湖南省澧县澧水下游 415500", "image": "", "rank": 6, "time": 2, "location": {"lat": 29.59855438650571, "lng": 111.41205239091397}, "feature": {"sight_features": "", "sight_content": ""}}, {"title": "天葬坟", "address": "湖南省临澧县官亭乡楼子村 415215", "image": "", "rank": 7, "time": 0.4, "location": {"lat": 29.733603650993953, "lng": 111.5642144235539}, "feature": {"sight_features": "", "sight_content": ""}}, {"title": "九里楚墓群", "address": "湖南省临澧县九里乡 415200", "image": "", "rank": 8, "time": 2, "location": {"lat": 29.697826718152413, "lng": 111.59974462976791}, "feature": {"sight_features": "", "sight_content": ""}}, {"title": "陈家祠堂", "address": "常德市临澧县", "image": "", "rank": 9, "time": 1.5, "location": {"lat": 29.446543990119117, "lng": 111.65358500796546}, "feature": {"sight_features": "", "sight_content": ""}}, {"title": "谭氏祖祠", "address": "湖南省常德市临澧县", "image": "", "rank": 10, "time": 2, "location": {"lat": 29.446543990119117, "lng": 111.65358500796546}, "feature": {"sight_features": "", "sight_content": ""}}, {"title": "临澧县阳光玫瑰家庭农场", "address": "湖南省常德市临澧县修梅镇七重堰社区居委会老屋组", "image": "", "rank": 11, "time": 2, "location": {"lat": 29.518908702879134, "lng": 111.64032655762585}, "feature": {"sight_features": "", "sight_content": ""}}, {"title": "杜家祠堂", "address": "常德市临澧县临岗公路", "image": "", "rank": 12, "time": 2, "location": {"lat": 29.40848740399776, "lng": 111.67597554228591}, "feature": {"sight_features": "", "sight_content": ""}}, {"title": "张家祠堂", "address": "常德市临澧县零二零县道", "image": "", "rank": 13, "time": 2, "location": {"lat": 29.446543990119117, "lng": 111.65358500796546}, "feature": {"sight_features": "", "sight_content": ""}}, {"title": "黄家祠堂", "address": "常德市临澧县二零七国道", "image": "", "rank": 14, "time": null, "location": {"lat": 29.530439562312623, "lng": 111.64242143841344}, "feature": {"sight_features": "", "sight_content": ""}}, {"title": "湖南省临澧县基督教会", "address": "临澧县畜牧水产局附近", "image": "", "rank": 15, "time": 2, "location": {"lat": 29.4463528369724, "lng": 111.66385380055182}, "feature": {"sight_features": "", "sight_content": ""}}, {"title": "老祠堂", "address": "常德市临澧县零一五县道", "image": "", "rank": 16, "time": 2, "location": {"lat": 29.446543990119117, "lng": 111.65358500796546}, "feature": {"sight_features": "", "sight_content": ""}}, {"title": "丰馈现代农业体验中心", "address": "湖南省常德市临澧县太浮镇郭家村委会北450米", "image": "", "rank": 17, "time": 2, "location": {"lat": 29.305124854430726, "lng": 111.62509467021717}, "feature": {"sight_features": "", "sight_content": ""}}, {"title": "万紫千红温泉广场", "address": "灵泉路", "image": "", "rank": 18, "time": 2, "location": {"lat": 30.52088626603104, "lng": 105.62406349076683}, "feature": {"sight_features": "", "sight_content": ""}}, {"title": "四中图书馆", "address": "迎宾南路", "image": "", "rank": 19, "time": 2, "location": {"lat": 37.76934986174907, "lng": 113.57358978672706}, "feature": {"sight_features": "", "sight_content": ""}}, {"title": "林伯渠图书馆", "address": "朝阳中街45号", "image": "", "rank": 20, "time": 2, "location": {"lat": 35.88954014491041, "lng": 120.00729534461559}, "feature": {"sight_features": "", "sight_content": ""}}, {"title": "箭牌卫浴临澧县精品展览馆", "address": "207国道附近", "image": "", "rank": 21, "time": 2, "location": {"lat": 38.67484937592033, "lng": 114.04837902844483}, "feature": {"sight_features": "", "sight_content": ""}}, {"title": "博海农家乐", "address": "107乡道与J16县道交叉口南200米", "image": "", "rank": 22, "time": 2, "location": {"lat": 39.6291248491882, "lng": 119.25342103304115}, "feature": {"sight_features": "", "sight_content": ""}}, {"title": "临澧县粮食应急供应点", "address": "文化街672号附近", "image": "", "rank": 23, "time": 2, "location": {"lat": 29.44614201998242, "lng": 111.66207299970944}, "feature": {"sight_features": "", "sight_content": ""}}, {"title": "临澧今顺农庄", "address": "修梅镇南江居委会上堰组七重堰工商所东北100米", "image": "", "rank": 24, "time": 2, "location": {"lat": 29.519928609294354, "lng": 111.64083813722378}, "feature": {"sight_features": "", "sight_content": ""}}, {"title": "跑马场", "address": "停弦渡镇207国道旁福船农庄", "image": "", "rank": 25, "time": 2, "location": {"lat": 29.494014683463757, "lng": 111.64513401922201}, "feature": {"sight_features": "", "sight_content": ""}}, {"title": "宋玉坟", "address": "湖南省澧县望城乡", "image": "", "rank": 26, "time": 2, "location": {"lat": 29.433838764891902, "lng": 111.66020262253654}, "feature": {"sight_features": "", "sight_content": ""}}, {"title": "象鼻子沟", "address": "湖南省石门县官亭乡象鼻子湾村", "image": "", "rank": 27, "time": 2, "location": {"lat": 29.71809533648824, "lng": 111.57411960542589}, "feature": {"sight_features": "", "sight_content": ""}}]}