{"cityName": "临清", "days": 2, "cityImage": "", "spots": [{"title": "鳌头矶", "address": "聊城市临清市吉士口街170号", "image": "", "rank": 1, "time": 2, "location": {"lat": 36.848962172337615, "lng": 115.71088022220512}, "feature": {"sight_features": "", "sight_content": ""}}, {"title": "张自忠纪念馆", "address": "聊城市临清市温泉路张自忠将军纪念馆(清泉花园南)", "image": "", "rank": 2, "time": 1.0, "location": {"lat": 36.83153687819437, "lng": 115.7275371698019}, "feature": {"sight_features": "", "sight_content": ""}}, {"title": "运河钞关", "address": "临清市城区内运河旁", "image": "", "rank": 3, "time": 2, "location": {"lat": 36.8442891866943, "lng": 115.71146960045022}, "feature": {"sight_features": "", "sight_content": ""}}, {"title": "桃园街清真寺", "address": "聊城市临清市桃园街152号", "image": "", "rank": 4, "time": 1.5, "location": {"lat": 36.85685608690501, "lng": 115.70746889140828}, "feature": {"sight_features": "", "sight_content": ""}}, {"title": "临清市博物馆", "address": "温泉路附近", "image": "", "rank": 5, "time": 2.5, "location": {"lat": 40.18833394336146, "lng": 116.40660396265952}, "feature": {"sight_features": "", "sight_content": ""}}, {"title": "宛园", "address": "聊城市临清市北环路与大众路交叉口", "image": "", "rank": 6, "time": 2.5, "location": {"lat": 36.8442891866943, "lng": 115.71146960045022}, "feature": {"sight_features": "", "sight_content": "宛园，位于临清市西北隅，占地110亩，建筑面积一万九千平方米，水面面积一万五千平方米，是一处由苏州园林设计院设计、承建，集园林、展览、游览休闲为一体的社会文化设施。\n\n\n宛园的设计理念为：“山水诗、山水画、山水园”。采用曲折幽深，小中见大、以少胜多、引人入胜，缩千里江山于方寸间等多种建园造林手法，创造有江南苏州园林文化神韵的山水鉴赏文化意境和诗情画意。\n\n\n宛园景观空间规划建设为入口区、山林区、中心湖区等六个区域，宛园建设崇尚自然，叠山理水、廊桥相连；湖面萦回、亭台巧布；花木掩映、曲径通幽。置身园中，远眺飞瀑、近观锦鳞；步穿柳帘、观赏奇石；步移景换、开阔视野；感悟自然，心旷神怡，形象直观、淋漓尽致地再现了古代山水诗人所欣赏的那种清远、恬静的山水景观，创造出了唐代诗人王维所描写的“人闲桂花落，夜静春山空”的空间景观和意境。遍布园内各个建筑和景点，在这里，自然奇石与名人书法艺术及园林建筑空间巧妙的交融在一起，既有质朴厚重，又有优雅远逸，漫步其间，既可亲近人文，又可赏析玩味，还能收获学养，真是欣赏园林山水、奇石、名人书法艺术的最佳之处。"}}, {"title": "名都汤泉", "address": "聊城市临清市轴承之乡潘庄大灯向东500米", "image": "", "rank": 7, "time": 2, "location": {"lat": 36.8442891866943, "lng": 115.71146960045022}, "feature": {"sight_features": "", "sight_content": "名都汤泉位于临清轴承之乡潘庄名都酒店院内，营业面积6000余平方，集男女洗浴、客房、汗蒸、餐饮、足疗、按摩、儿童乐园、健身馆、游泳馆、商务休闲为一体。"}}, {"title": "找军营水上游乐园", "address": "老赵庄镇派出所", "image": "", "rank": 8, "time": 2, "location": {"lat": 36.83860357429854, "lng": 115.88469244265235}, "feature": {"sight_features": "", "sight_content": ""}}, {"title": "九龙温泉", "address": "温泉路与新华路往西20米路西", "image": "", "rank": 9, "time": 0.7, "location": {"lat": 37.37182797711569, "lng": 120.39558891818538}, "feature": {"sight_features": "", "sight_content": ""}}, {"title": "剧院老表店", "address": "大众路附近", "image": "", "rank": 10, "time": 2, "location": {"lat": 36.429486734729494, "lng": 114.21749083836195}, "feature": {"sight_features": "", "sight_content": ""}}, {"title": "魏湾镇张官营村图书阅览室", "address": "科技路与花园路交叉口东南150米", "image": "", "rank": 11, "time": 2, "location": {"lat": 28.854987925095458, "lng": 121.15082473748265}, "feature": {"sight_features": "", "sight_content": ""}}, {"title": "季羡林资料馆", "address": "山东省临清市青年路中段 252600", "image": "", "rank": 12, "time": 2, "location": {"lat": 36.8442891866943, "lng": 115.71146960045022}, "feature": {"sight_features": "", "sight_content": ""}}, {"title": "花卉水族馆", "address": "山东省聊城市临清市S315", "image": "", "rank": 13, "time": 2, "location": {"lat": 36.8442891866943, "lng": 115.71146960045022}, "feature": {"sight_features": "", "sight_content": ""}}, {"title": "彩虹电力生态园", "address": "永青路西50米", "image": "", "rank": 14, "time": 2, "location": {"lat": 27.912133490905877, "lng": 120.81720043119006}, "feature": {"sight_features": "", "sight_content": ""}}, {"title": "什方院休闲广场", "address": "山东省聊城市临清市大唐路", "image": "", "rank": 15, "time": 2, "location": {"lat": 36.8442891866943, "lng": 115.71146960045022}, "feature": {"sight_features": "", "sight_content": ""}}, {"title": "大宁寺大雄宝殿", "address": "大寺街附近", "image": "", "rank": 16, "time": 2, "location": {"lat": 37.47910783605466, "lng": 112.37879147351653}, "feature": {"sight_features": "", "sight_content": ""}}, {"title": "临清市人口文化广场", "address": "温泉路北100米", "image": "", "rank": 17, "time": 2, "location": {"lat": 40.18902290923232, "lng": 116.40660396265952}, "feature": {"sight_features": "", "sight_content": ""}}, {"title": "临清剧院", "address": "温泉路与近永清路交叉口(近永清路)", "image": "", "rank": 18, "time": 2.0, "location": {"lat": 36.833140252327055, "lng": 115.72669424662324}, "feature": {"sight_features": "", "sight_content": ""}}, {"title": "艾寨康利来蛋糕世界", "address": "八岔路艾寨丕介小学西88米路南", "image": "", "rank": 19, "time": 2, "location": {"lat": 39.6129869967351, "lng": 118.20604028639353}, "feature": {"sight_features": "", "sight_content": ""}}, {"title": "季羡林先生资料馆", "address": "山东省临清市青年路", "image": "", "rank": 20, "time": 2, "location": {"lat": 36.84101267571703, "lng": 115.72243883598172}, "feature": {"sight_features": "", "sight_content": ""}}, {"title": "聊城季羡林先生资料馆", "address": "山东省临清市新华路 252600", "image": "", "rank": 21, "time": 2.5, "location": {"lat": 36.80723329335577, "lng": 115.70857876348856}, "feature": {"sight_features": "", "sight_content": ""}}, {"title": "张彦青艺术馆", "address": "山东省临清市青年路", "image": "", "rank": 22, "time": 2, "location": {"lat": 36.84101267571703, "lng": 115.72243883598172}, "feature": {"sight_features": "", "sight_content": ""}}, {"title": "霍氏祖茔", "address": "聊城市临清市", "image": "", "rank": 23, "time": 2, "location": {"lat": 36.8442891866943, "lng": 115.71146960045022}, "feature": {"sight_features": "", "sight_content": ""}}, {"title": "临清新华儿童乐园", "address": "山东省聊城市临清市上湾街25号", "image": "", "rank": 24, "time": 2, "location": {"lat": 36.84815017713061, "lng": 115.71547218031102}, "feature": {"sight_features": "", "sight_content": ""}}, {"title": "新世纪游乐场", "address": "山东省聊城市临清市府前街", "image": "", "rank": 25, "time": 2, "location": {"lat": 36.845020750676746, "lng": 115.87096751034181}, "feature": {"sight_features": "", "sight_content": ""}}, {"title": "县治遗址", "address": "山东省聊城市临清市考棚街70号", "image": "", "rank": 26, "time": 2, "location": {"lat": 36.84883292707929, "lng": 115.70631600018014}, "feature": {"sight_features": "", "sight_content": ""}}, {"title": "新四楼儿童乐园", "address": "新华路与红星路交叉口西100米", "image": "", "rank": 27, "time": 2, "location": {"lat": 44.893907706644484, "lng": 82.07563145799423}, "feature": {"sight_features": "", "sight_content": ""}}, {"title": "清真女寺", "address": "山东省聊城市临清市红星路黑庄民族小区附近", "image": "", "rank": 28, "time": 2, "location": {"lat": 36.85236728259507, "lng": 115.73750102001004}, "feature": {"sight_features": "", "sight_content": ""}}, {"title": "龙山公园", "address": "车营街与温泉路交汇处北侧", "image": "", "rank": 29, "time": 2, "location": {"lat": 36.8370843536546, "lng": 115.7055516634624}, "feature": {"sight_features": "", "sight_content": ""}}, {"title": "东关礼堂", "address": "林园街907号附近", "image": "", "rank": 30, "time": 2, "location": {"lat": 30.0250696109545, "lng": 106.4373855886008}, "feature": {"sight_features": "", "sight_content": ""}}, {"title": "憩园", "address": "解放路东500米", "image": "", "rank": 31, "time": 2, "location": {"lat": 32.84789063886795, "lng": 110.81966946701503}, "feature": {"sight_features": "", "sight_content": ""}}, {"title": "岱宗驻蓈", "address": "山东省聊城市临清市三和路泰山行宫碧霞元君祠", "image": "", "rank": 32, "time": 2, "location": {"lat": 36.840230957535994, "lng": 115.73621922608123}, "feature": {"sight_features": "", "sight_content": ""}}, {"title": "康乐园", "address": "山东省聊城市临清市临清市人民医院", "image": "", "rank": 33, "time": 2, "location": {"lat": 36.84209324780213, "lng": 115.7146525474993}, "feature": {"sight_features": "", "sight_content": ""}}, {"title": "海洋之星儿童动漫游乐园", "address": "八岔路与梁八路交叉口西北100米", "image": "", "rank": 34, "time": 2, "location": {"lat": 39.754319199493544, "lng": 118.4675874287618}, "feature": {"sight_features": "", "sight_content": ""}}, {"title": "黄河故道地质森林公园", "address": "山东省聊城市临清市黄河故道省级地质公园", "image": "", "rank": 35, "time": 2, "location": {"lat": 36.867267001506136, "lng": 115.77935063392215}, "feature": {"sight_features": "", "sight_content": ""}}, {"title": "山东省临清市博物馆", "address": "上湾街与大众路交叉口北100米", "image": "", "rank": 36, "time": 2, "location": {"lat": 36.84923741845442, "lng": 115.71119223964095}, "feature": {"sight_features": "", "sight_content": ""}}, {"title": "季羡林先生纪念馆", "address": "温泉路附近", "image": "", "rank": 37, "time": 2, "location": {"lat": 40.18833394336146, "lng": 116.40660396265952}, "feature": {"sight_features": "", "sight_content": ""}}, {"title": "鲁天动漫水世界", "address": "先锋路鲁天华联十字路口西50米路北(原中型厂院内)", "image": "", "rank": 38, "time": 2, "location": {"lat": 39.63066079909864, "lng": 118.20639924927531}, "feature": {"sight_features": "", "sight_content": ""}}, {"title": "星云海世界水上乐园", "address": "桑树园星云超市广场门前", "image": "", "rank": 39, "time": 2, "location": {"lat": 28.70963060437606, "lng": 104.56849566320645}, "feature": {"sight_features": "", "sight_content": ""}}, {"title": "农家生态采摘园", "address": "315省道", "image": "", "rank": 40, "time": 2, "location": {"lat": 36.88733965403998, "lng": 115.75610288886648}, "feature": {"sight_features": "", "sight_content": ""}}, {"title": "水木轩画廊", "address": "广播局东100米路南", "image": "", "rank": 41, "time": 2, "location": {"lat": 41.56801155951368, "lng": 113.58368546326878}, "feature": {"sight_features": "", "sight_content": ""}}, {"title": "鲁西画廊", "address": "曙光路与青年路交叉口北150米", "image": "", "rank": 42, "time": 2.0, "location": {"lat": 36.84156770282923, "lng": 115.72922278170152}, "feature": {"sight_features": "", "sight_content": ""}}, {"title": "文昌画廊", "address": "大众路与考棚街交叉口北50米", "image": "", "rank": 43, "time": 2.0, "location": {"lat": 36.84855440451061, "lng": 115.70895975461806}, "feature": {"sight_features": "", "sight_content": ""}}, {"title": "名人画廊", "address": "青年路", "image": "", "rank": 44, "time": 2, "location": {"lat": 39.96080137464885, "lng": 116.52271891670979}, "feature": {"sight_features": "", "sight_content": ""}}, {"title": "临清市老年体协夕阳红艺术团", "address": "龙山路与青年路交汇处南侧路东", "image": "", "rank": 45, "time": 2, "location": {"lat": 21.61293072722965, "lng": 110.28820210352386}, "feature": {"sight_features": "", "sight_content": ""}}, {"title": "临清市京剧团", "address": "新华路", "image": "", "rank": 46, "time": 2, "location": {"lat": 39.14651100379498, "lng": 117.01963610637686}, "feature": {"sight_features": "", "sight_content": ""}}, {"title": "舍利宝塔", "address": "山东省临清市运河东岸", "image": "", "rank": 47, "time": 1.0, "location": {"lat": 36.8442891866943, "lng": 115.71146960045022}, "feature": {"sight_features": "", "sight_content": ""}}, {"title": "登瀛步行商业街", "address": "山东省临清市登瀛步行商业街", "image": "", "rank": 48, "time": 2, "location": {"lat": 36.8442891866943, "lng": 115.71146960045022}, "feature": {"sight_features": "", "sight_content": ""}}, {"title": "张四道庄村", "address": "聊城市-临清市", "image": "", "rank": 49, "time": 2, "location": {"lat": 36.8442891866943, "lng": 115.71146960045022}, "feature": {"sight_features": "", "sight_content": ""}}]}