{"cityName": "临泉", "days": 2, "cityImage": "", "spots": [{"title": "刘邓大军会合纪念碑", "address": "阜阳市临泉县韦寨镇", "image": "", "rank": 1, "time": 1.0, "location": {"lat": 32.96952947776129, "lng": 115.19001955615303}, "feature": {"sight_features": "", "sight_content": ""}}, {"title": "姜尚温泉", "address": "阜阳市临泉县牛庄乡102国道路北（牛庄乡中心学校西650米路北）", "image": "", "rank": 2, "time": 2, "location": {"lat": 33.01903282859098, "lng": 115.34504417319826}, "feature": {"sight_features": "", "sight_content": "姜尚温泉的热水取自1368米深处的天然地下水，井底温度70℃，出水温度56℃，偏硅酸含量29.9mg/L(国际标准为25mg/L) ,属优质类偏硅酸型复合温泉，姜尚温泉设有符合国家标准的室内游泳馆、男女浴池、室外露天温泉、石板浴、单人温泉间、情侣温泉间、海洋沙滩、儿童水上乐园等。\n露天温泉占地20亩，奇花异草散布其间，根据地形设置香木池、梅花池、真艾（爱）池、芭蕉池等15个露天温泉池。大雪纷飞之际在露天温泉享受别具一番意想不到的情趣。朋友间围坐在池边的石桌上划拳行令，仿佛置身于瑶池仙境，不是神仙，胜似神仙。\n\n石板浴由温泉水将石板自然温热。\n海洋沙滩温度上下基本一致。三伏酷夏埋没于沙丘之中，不亚于海南著名沙滩浴。姜尚温泉以回归自然、放飞身心、返璞归真为特征，为顾客提供良好的休闲健身养生的舒适场所。"}}, {"title": "绿叶欢乐水世界", "address": "阜阳市临泉县018县道泉河二桥处（临泉化肥厂东北沙滩）", "image": "", "rank": 3, "time": 2, "location": {"lat": 32.614061739119826, "lng": 115.24447937261071}, "feature": {"sight_features": "", "sight_content": "临泉绿叶欢乐水世界是皖西北一家室内外温控的水主题科技乐园，汇聚各水上娱乐活动设施，大型水寨、造浪池、音乐喷泉、大型滑梯、舞台表演等。洒满灿烂阳光的细腻沙滩，荡漾明澈碧波的巨大泳池、复制汹涌波涛的人造海浪，以及让人眼花缭乱的水上项目，共同将酷暑赶走，开启一段难忘的趣味之旅。"}}, {"title": "长官天池水上乐园游泳馆", "address": "S237省道长官镇东南约2公里东蔡庄村附近", "image": "", "rank": 4, "time": 2, "location": {"lat": 40.06017375393749, "lng": 118.94694423599766}, "feature": {"sight_features": "", "sight_content": ""}}, {"title": "木一博览园", "address": "安徽省阜阳市临泉县", "image": "", "rank": 5, "time": 2, "location": {"lat": 33.04595952836284, "lng": 115.26761550051185}, "feature": {"sight_features": "", "sight_content": ""}}, {"title": "临泉县林泉生态园林公司", "address": "单桥镇张寨村", "image": "", "rank": 6, "time": 2, "location": {"lat": 32.98570279919977, "lng": 115.28908000313015}, "feature": {"sight_features": "", "sight_content": ""}}, {"title": "酷游水上乐园(临泉店)", "address": "光明南路政务新区(新体育场内)", "image": "", "rank": 7, "time": 2, "location": {"lat": 33.04549305867903, "lng": 115.26964844583011}, "feature": {"sight_features": "", "sight_content": ""}}, {"title": "永盛有机葡萄园", "address": "102省道附近", "image": "", "rank": 8, "time": 2, "location": {"lat": 36.224418920426714, "lng": 113.13112600949766}, "feature": {"sight_features": "", "sight_content": ""}}, {"title": "临泉县丰润家庭农场", "address": "关庙镇茶棚村民委员会大刘庄17号", "image": "", "rank": 9, "time": null, "location": {"lat": 33.06341841045608, "lng": 114.9828950538689}, "feature": {"sight_features": "", "sight_content": ""}}, {"title": "代营葡萄庄园", "address": "客运西站南1500米三合庄公交站台路西", "image": "", "rank": 10, "time": 2, "location": {"lat": 33.04964121014526, "lng": 115.24477954229518}, "feature": {"sight_features": "", "sight_content": ""}}, {"title": "谭棚镇梦工园生态休闲农庄", "address": "谭棚镇加油站东100米路南", "image": "", "rank": 11, "time": 2, "location": {"lat": 24.09701218694945, "lng": 108.25374058186868}, "feature": {"sight_features": "", "sight_content": ""}}, {"title": "临泉公墓", "address": "安徽省阜阳市临泉县S237", "image": "", "rank": 12, "time": 2.5, "location": {"lat": 33.04595952836284, "lng": 115.26761550051185}, "feature": {"sight_features": "", "sight_content": ""}}, {"title": "霞光公园", "address": "阜阳市临泉县城中北路66号", "image": "", "rank": 13, "time": 2, "location": {"lat": 33.06475370134936, "lng": 115.26506448141156}, "feature": {"sight_features": "", "sight_content": ""}}, {"title": "动漫水上乐园", "address": "安徽省阜阳市临泉县S102", "image": "", "rank": 14, "time": 2, "location": {"lat": 33.04595952836284, "lng": 115.26761550051185}, "feature": {"sight_features": "", "sight_content": ""}}, {"title": "儿童主题乐园", "address": "安徽省阜阳市临泉县人民西路", "image": "", "rank": 15, "time": 2, "location": {"lat": 33.073542066469905, "lng": 115.26688176457128}, "feature": {"sight_features": "", "sight_content": ""}}, {"title": "霞光广场", "address": "城中北路附近", "image": "", "rank": 16, "time": 2, "location": {"lat": 30.187101493061316, "lng": 120.46578447982074}, "feature": {"sight_features": "", "sight_content": ""}}, {"title": "烈士陵园", "address": "328省道附近", "image": "", "rank": 17, "time": 2, "location": {"lat": 39.81070544583611, "lng": 116.15036110142927}, "feature": {"sight_features": "", "sight_content": ""}}, {"title": "姜子牙庙", "address": "安徽省阜阳市临泉县X062", "image": "", "rank": 18, "time": 2, "location": {"lat": 33.04595952836284, "lng": 115.26761550051185}, "feature": {"sight_features": "", "sight_content": ""}}, {"title": "星期六儿童主题乐园", "address": "安徽省阜阳市临泉县人民东路", "image": "", "rank": 19, "time": 2, "location": {"lat": 33.04595952836284, "lng": 115.26761550051185}, "feature": {"sight_features": "", "sight_content": ""}}, {"title": "淘淘儿童娱乐城(好又多店)", "address": "光明路与鮦阳路交汇处好又多超市肯德基旁一楼", "image": "", "rank": 20, "time": 2, "location": {"lat": 23.145835133444294, "lng": 113.29417311623449}, "feature": {"sight_features": "", "sight_content": ""}}, {"title": "姜子牙文化广场", "address": "光明北路与前进东路交叉口姜子牙购物中心附近", "image": "", "rank": 21, "time": 2, "location": {"lat": 31.858351588322307, "lng": 106.76294680176305}, "feature": {"sight_features": "", "sight_content": ""}}, {"title": "宏联大厦儿童乐园(临泉店)", "address": "港口路与前进路交叉口(宏联大厦三楼)", "image": "", "rank": 22, "time": 2, "location": {"lat": 33.06304057541231, "lng": 115.27397450819998}, "feature": {"sight_features": "", "sight_content": ""}}, {"title": "东北情老三演艺大舞台", "address": "安徽省阜阳市临泉县光明北路", "image": "", "rank": 23, "time": 2, "location": {"lat": 33.069921084299224, "lng": 115.27070265136304}, "feature": {"sight_features": "", "sight_content": ""}}, {"title": "临泉毛笔博物馆", "address": "谭鹏镇蓝星小学附近", "image": "", "rank": 24, "time": 2, "location": {"lat": 26.575117695632834, "lng": 104.87965597534722}, "feature": {"sight_features": "", "sight_content": ""}}, {"title": "哪吒闹海水乐园", "address": "阜阳市临泉县白果树向北1.5公里", "image": "", "rank": 25, "time": 2, "location": {"lat": 33.18594093927997, "lng": 115.24820016481272}, "feature": {"sight_features": "", "sight_content": "哪吒闹海水乐园创意源自《封神演义》中哪吒闹海的神话传说：是封神文化的亲水、戏水项目体验地。\n哪吒闹海水乐园包含儿童戏水区、哪吒闹海区、水遁区及逍遥环流河区四大主题区域，有经典水上项目10多个，主题场景20多个。"}}, {"title": "临泉图书馆", "address": "临同路55号", "image": "", "rank": 26, "time": 1.5, "location": {"lat": 33.06987820120873, "lng": 115.2685930365678}, "feature": {"sight_features": "", "sight_content": ""}}, {"title": "金色年华儿童乐园(南方购物广场...", "address": "城中路87号南方购物广场三楼", "image": "", "rank": 27, "time": 2, "location": {"lat": 26.06080022811537, "lng": 119.31827084472795}, "feature": {"sight_features": "", "sight_content": ""}}, {"title": "城西水世界儿童乐园", "address": "城关镇古城社区城西闸西头向北100米路西", "image": "", "rank": 28, "time": 2, "location": {"lat": 36.63449697952408, "lng": 101.77241422413312}, "feature": {"sight_features": "", "sight_content": ""}}, {"title": "天泉水上乐园", "address": "S102与S204交叉口南100米路西临泉客运西站西门正对面", "image": "", "rank": 29, "time": 2, "location": {"lat": 33.06051581161619, "lng": 115.24598232755946}, "feature": {"sight_features": "", "sight_content": ""}}, {"title": "临泉县白庙镇景良家庭农场", "address": "白庙镇邵营行政村贺庄84号", "image": "", "rank": 30, "time": 2, "location": {"lat": 33.08675009075201, "lng": 115.18350718884992}, "feature": {"sight_features": "", "sight_content": ""}}, {"title": "永盛有机果园", "address": "牛庄乡姜尚温泉度假村对面闫庄饭店向东50米", "image": "", "rank": 31, "time": 2, "location": {"lat": 33.020325946882, "lng": 115.3382221330367}, "feature": {"sight_features": "", "sight_content": ""}}, {"title": "奥宇军乐团", "address": "光明北路", "image": "", "rank": 32, "time": 2, "location": {"lat": 31.595321492889433, "lng": 119.74334590873725}, "feature": {"sight_features": "", "sight_content": ""}}, {"title": "临泉群鑫艺校军乐团", "address": "前进路", "image": "", "rank": 33, "time": 2, "location": {"lat": 40.194442644733925, "lng": 116.22980840942719}, "feature": {"sight_features": "", "sight_content": ""}}, {"title": "临泉县姜寨镇夕阳红腰鼓队", "address": "062县道附近", "image": "", "rank": 34, "time": 2, "location": {"lat": 43.911526513351824, "lng": 124.21241257709639}, "feature": {"sight_features": "", "sight_content": ""}}, {"title": "西张寨", "address": "阜阳市-临泉县", "image": "", "rank": 35, "time": 2, "location": {"lat": 33.04595952836284, "lng": 115.26761550051185}, "feature": {"sight_features": "", "sight_content": ""}}, {"title": "杨庙水上乐园", "address": "阜阳市-临泉县-杨庙大徐营", "image": "", "rank": 36, "time": 2, "location": {"lat": 32.64580913721005, "lng": 115.26977671667049}, "feature": {"sight_features": "", "sight_content": ""}}, {"title": "临泉盛和海洋世界", "address": "阜阳市临泉县北二环泉河桥东头王顶庄后", "image": "", "rank": 37, "time": 2, "location": {"lat": 33.086648628519356, "lng": 115.25625802452538}, "feature": {"sight_features": "", "sight_content": "临泉盛和海洋世界坐落于临泉县北二环泉河桥东，是一家集游乐、观赏、科研、教育多功能为一体，以陈列展览海洋鱼类为主的蓝色海底世界。在馆内的主题科普、画廊还将带给大量的环保科普知识。"}}, {"title": "水尚汇", "address": "阜阳市临泉县光明北路169号新百购物广场三楼", "image": "", "rank": 38, "time": 2, "location": {"lat": 32.61575765535314, "lng": 115.51577742545919}, "feature": {"sight_features": "", "sight_content": "临泉水尚汇有健康洗浴、矿物质汤泉池、大型特色汗蒸、自助唱吧、自助按摩椅，水上乐园、餐厅、健身娱乐、棋牌休闲、静心茶吧、书吧、儿童乐园，网上冲浪、SPA、客房等服务项目。\n秉承“倡导绿色健康，乐享品质生活”的经营理念，以“精致不粗、高雅不俗、舒适不累”的设计理念，将汗蒸时尚元素和养生美容汤泉完美融合\n精致入微的体验感，结合不失简约内敛的设计风格将人文与自然完美融合！精心打造皖北主题汗蒸汤泉生活体的“一方净土”，都市的世外桃源！"}}]}