{"cityName": "邻水", "days": 2, "cityImage": "", "spots": [{"title": "天意谷", "address": "广安市邻水县甘垻乡苏家村二组", "image": "", "rank": 1, "time": 7.5, "location": {"lat": 30.261721786953505, "lng": 106.83056635467052}, "feature": {"sight_features": "特色1 国家级地质公园 特色2 由近千米叠瀑形成的洞中天河 特色3 天然巨佛，世界之最。", "sight_content": "华蓥山洞中天河景区位于广安市邻水县甘坝乡、华蓥山主峰高登山南麓，与华蓥山石林景区紧邻相依，广（安）渝（重庆）高速公路邻水出口后经218省道可达，距广安市区约60公里。华蓥山洞中天河景区为发源于华蓥山最高峰高登山的溪流与喀斯特地貌的断层历经千万年侵蚀而形成的地质奇观，面积15平方公里。主要景点有飞瀑迎宾、石门关、虎跳瀑布、地缝峡、天生桥、天心洞、洞中巨佛、望月瀑布、穿心洞等。\n“洞中天河”—世界罕见的洞中瀑布，堪称亚洲第一。“天然石佛”—由亿年滴水形成的天然石佛为世界之最，川东渝北避暑休闲胜地。天意谷是聚华蓥山千峰万流之水于一流，与喀斯特地貌的断裂层相遇后形成的地质景观。此洞中大瀑布全长800余米。有上、中、下共四叠，此为洞中一段，是举世罕见的洞中大瀑布。由于从洞顶轰然而下，似天河落入洞中，让人惊心动魄，若遇雨季，天河之水飞流直下，有万马奔腾之势，被誉为“亚洲第一洞中天河”。有诗曰：“盘古开出洞天境，佛祖甘为护门神。疑是龙王禁地处，轰然天开银河倾。”\n飞瀑迎宾――正对景区大门处有一天然飞瀑，高宽数十米，奔泻而下，卷起雪花万朵，数十米外烟雾弥漫，犹如仙女轻纱拂面，颇富神话色彩。仿佛巴山神女化身为瀑，迎接四海宾朋。整个峡谷蜿蜒曲折，陡峭幽深，飞瀑、溶洞、茂林、修竹和各种奇形怪异的岩石，多姿多态的山峰构成了大峡谷美不胜收的壮丽奇观，在仅数公里谷内就有无数的奇观溶洞和瀑布群。其中由千米飞瀑形成的天心洞飞瀑、由亿年滴水溶岩形成仅次于乐山人造大佛的天然大佛、数十公里长的巴人部落以及华蓥山游击队的战斗遗址，是独特的人文与自然奇观，令人心驰神往。\n其中由千米飞瀑形成的天心洞飞瀑、由亿年滴水溶岩形成仅次于乐山人造大佛的天然大佛、数十公里长的巴人部落以及华蓥山游击队的战斗遗址，是独特的人文与自然奇观，令人心驰神往。\n广安名特小吃丰富，颇具特色：岳池米粉分羊肉、牛肉、鸡肉、鳝鱼、肥肠、炖鸡、豌豆等多种，色、舌、味俱全，颇受好评。鸳鸯蒸饺、欧抄手、红鼻子抄手味道独特。岳池“味不同”凉粉令人食而不忘。烘糕、油麻元、焦饼甜而不腻，芳香扑鼻。糟蛋既有醒糟的纯味，又具鸭蛋的特点，蛋黄尤其爽口。珍珠粥、竹筒饭、桐叶粑清去五人，营养丰富，是不可不食的佳品。"}}, {"title": "清水溪漂流", "address": "四川省广安市邻水县两河镇大桥村", "image": "", "rank": 2, "time": 2, "location": {"lat": 30.266235288800807, "lng": 107.0177309765401}, "feature": {"sight_features": "", "sight_content": "﻿邻水县清水溪生态旅游区，位于邻水县梁板乡清水村至两河镇大桥村，规化面积2平方公里。距离邻水县城13公里，广安市区50公里，重庆主城90公里。\n清水溪漂流全长4.8公里，总落差200米。全程丛林覆盖，完全避开毒辣的太阳光照射，水流时而湍急，时而舒缓，时而逐浪飞行，时而跌宕起伏。让人心旷神怡，乐不思归。两岸岩绵的山川包围着水流 ，沿途风景各异 ，空气清新，在感受浪尖上凉爽刺激的同时心跳直线上升，这酸爽滋味瞬间嗨到爆，真不愧为川东第一漂的美誉。\n清水溪旅游区正在努力打造国家4A级旅游景区和省级水利风景区。配套有清水湖水库、大型水上乐园、脐橙观光采摘园、天平寨登山游步道、养生养老基地，野炊露营基地、休闲垂钓基地。修复膨古庙、困虎崖等历史遗址。\n清水溪旅游区欢迎你的到来，让你玩得开心，吃的放心，住的舒心。放下疲惫的烦恼，收获满满的笑声与欢乐。"}}, {"title": "白龙峡漂流", "address": "广安市邻水县御临镇（么滩镇）白龙峡景区", "image": "", "rank": 3, "time": 2, "location": {"lat": 30.078654049847827, "lng": 106.91278694557445}, "feature": {"sight_features": "", "sight_content": ""}}, {"title": "天意谷洞中天河", "address": "四川省广安市邻水县甘垻乡苏家村二组", "image": "", "rank": 4, "time": 2, "location": {"lat": 30.261721786953505, "lng": 106.83056635467052}, "feature": {"sight_features": "", "sight_content": ""}}, {"title": "鱼香园休闲山庄", "address": "甘坝乡", "image": "", "rank": 5, "time": 2, "location": {"lat": 30.27409103561923, "lng": 106.83307636489259}, "feature": {"sight_features": "", "sight_content": ""}}, {"title": "滴水人家农家乐", "address": "合流镇甘坝乡苏家村", "image": "", "rank": 6, "time": 2, "location": {"lat": 30.261721786953505, "lng": 106.83056635467052}, "feature": {"sight_features": "", "sight_content": ""}}, {"title": "黎家湖农庄", "address": "黎家乡乱石窖", "image": "", "rank": 7, "time": 2, "location": {"lat": 30.086941433277868, "lng": 106.99912414724064}, "feature": {"sight_features": "", "sight_content": ""}}, {"title": "邻水县优质脐橙基地柑子春和良种...", "address": "民生巷与育才巷交叉口西100米", "image": "", "rank": 8, "time": 2, "location": {"lat": 38.47281151987538, "lng": 106.2854368289099}, "feature": {"sight_features": "", "sight_content": ""}}, {"title": "邻水县扶贫开发办优质种苗基地", "address": "大风车幼儿园附近", "image": "", "rank": 9, "time": 2, "location": {"lat": 40.449733772058835, "lng": 115.9858452345013}, "feature": {"sight_features": "", "sight_content": ""}}, {"title": "白龙峡漂流景区", "address": "御临镇内口村(大湾镇与邻水县交界)", "image": "", "rank": 10, "time": 2, "location": {"lat": 30.07494901362965, "lng": 106.91328419360644}, "feature": {"sight_features": "", "sight_content": ""}}, {"title": "邻水剧场", "address": "向阳巷与红旗路交叉口西北50米", "image": "", "rank": 11, "time": 1.5, "location": {"lat": 30.344346026048843, "lng": 106.93780925723286}, "feature": {"sight_features": "", "sight_content": ""}}, {"title": "屈家祠堂", "address": "广安市邻水县二一零国道", "image": "", "rank": 12, "time": 2, "location": {"lat": 30.207159030490114, "lng": 106.8495094071461}, "feature": {"sight_features": "", "sight_content": ""}}, {"title": "大祠堂", "address": "广安市邻水县三一五乡道", "image": "", "rank": 13, "time": 2, "location": {"lat": 30.34107251833194, "lng": 106.93640258895681}, "feature": {"sight_features": "", "sight_content": ""}}, {"title": "临涯天生态园", "address": "四川省广安市邻水县S304", "image": "", "rank": 14, "time": 2, "location": {"lat": 30.34107251833194, "lng": 106.93640258895681}, "feature": {"sight_features": "", "sight_content": ""}}, {"title": "邻水县灵应寺", "address": "四川省广安市邻水县环城路东二段", "image": "", "rank": 15, "time": 2, "location": {"lat": 30.32917873593607, "lng": 106.94512145240611}, "feature": {"sight_features": "", "sight_content": ""}}, {"title": "魏家祠堂", "address": "广安市邻水县分水岭--文家坡", "image": "", "rank": 16, "time": 2, "location": {"lat": 30.454900236791794, "lng": 106.85394191602398}, "feature": {"sight_features": "", "sight_content": ""}}, {"title": "黄桷树公园", "address": "邻水县黄桷西路", "image": "", "rank": 17, "time": null, "location": {"lat": 30.352559692553505, "lng": 106.94087117288568}, "feature": {"sight_features": "", "sight_content": ""}}, {"title": "公园王府", "address": "四川省广安市邻水县达邻大道888号", "image": "", "rank": 18, "time": 2, "location": {"lat": 30.34107251833194, "lng": 106.93640258895681}, "feature": {"sight_features": "", "sight_content": ""}}, {"title": "曹家祠堂", "address": "广安市邻水县", "image": "", "rank": 19, "time": 1.5, "location": {"lat": 30.34107251833194, "lng": 106.93640258895681}, "feature": {"sight_features": "", "sight_content": ""}}, {"title": "宏帆广场", "address": "广安市邻水县万兴大道与人民路交汇处", "image": "", "rank": 20, "time": 2, "location": {"lat": 30.33260742857081, "lng": 106.93443807924722}, "feature": {"sight_features": "", "sight_content": ""}}, {"title": "尚水广场", "address": "广安市邻水县万泰翡翠城1期", "image": "", "rank": 21, "time": 2, "location": {"lat": 30.33820571032319, "lng": 106.94631583941218}, "feature": {"sight_features": "", "sight_content": ""}}, {"title": "钓鱼岛休闲会所", "address": "四川省广安市邻水县胜利街9号-12", "image": "", "rank": 22, "time": 2, "location": {"lat": 30.33906363436163, "lng": 106.93718043169791}, "feature": {"sight_features": "", "sight_content": ""}}, {"title": "邻州广场", "address": "古邻大道与灌沟路交叉口北150米", "image": "", "rank": 23, "time": 2, "location": {"lat": 30.3517080616522, "lng": 106.94481391481985}, "feature": {"sight_features": "", "sight_content": ""}}, {"title": "奥嘉广场", "address": "鼎屏镇瑞彩路10号", "image": "", "rank": 24, "time": 2, "location": {"lat": 30.053453810301175, "lng": 103.8457855361164}, "feature": {"sight_features": "", "sight_content": ""}}, {"title": "四娃子度假村", "address": "广安304省道附近", "image": "", "rank": 25, "time": 2, "location": {"lat": 30.507934413009437, "lng": 106.69199468004075}, "feature": {"sight_features": "", "sight_content": ""}}, {"title": "官井湾古城遗址", "address": "四川省广安市邻水县", "image": "", "rank": 26, "time": 2, "location": {"lat": 30.34107251833194, "lng": 106.93640258895681}, "feature": {"sight_features": "", "sight_content": ""}}, {"title": "邻水县档案馆", "address": "红旗路8号", "image": "", "rank": 27, "time": 2, "location": {"lat": 39.15961064357742, "lng": 117.15810490346642}, "feature": {"sight_features": "", "sight_content": ""}}, {"title": "邻水县图书馆", "address": "鼎屏镇北街72号", "image": "", "rank": 28, "time": 2, "location": {"lat": 30.34439178817285, "lng": 106.9394666192208}, "feature": {"sight_features": "", "sight_content": ""}}, {"title": "云顶山动物园", "address": "中马路15号", "image": "", "rank": 29, "time": 2, "location": {"lat": 45.78419994955181, "lng": 126.64406122920218}, "feature": {"sight_features": "", "sight_content": ""}}, {"title": "东梅农家乐", "address": "天意谷景区停车场外农家乐一条街", "image": "", "rank": 30, "time": 2, "location": {"lat": 29.77661632867738, "lng": 107.39937630063451}, "feature": {"sight_features": "", "sight_content": ""}}, {"title": "姐妹农家乐", "address": "天意谷景区停车场外农家乐一条街", "image": "", "rank": 31, "time": 2, "location": {"lat": 29.77661632867738, "lng": 107.39937630063451}, "feature": {"sight_features": "", "sight_content": ""}}, {"title": "贝乐星儿童乐园(丰禾总店)", "address": "金星街165号(丰禾医院后大门旁(金顺酒楼、丰禾医院、丰禾高中、幼儿园、五岳梦稀饭村)", "image": "", "rank": 32, "time": 2, "location": {"lat": 30.19747006718593, "lng": 107.07630826792993}, "feature": {"sight_features": "", "sight_content": ""}}, {"title": "妙妙屋儿童成长乐园", "address": "恒原广场天和百货2楼", "image": "", "rank": 33, "time": 2, "location": {"lat": 30.17870132487736, "lng": 121.41172966601098}, "feature": {"sight_features": "", "sight_content": ""}}, {"title": "鳄鱼漆(邻水柑子专卖店)", "address": "柑子镇老街与210国道交叉口西50米", "image": "", "rank": 34, "time": 2, "location": {"lat": 24.53237542093252, "lng": 107.76781962466912}, "feature": {"sight_features": "", "sight_content": ""}}, {"title": "正园野生部落", "address": "古邻大道31-5附近", "image": "", "rank": 35, "time": 2, "location": {"lat": 30.34433886081814, "lng": 106.94403749499469}, "feature": {"sight_features": "", "sight_content": ""}}, {"title": "向阳山庄", "address": "城南石坝13组", "image": "", "rank": 36, "time": 2, "location": {"lat": 29.93812883179869, "lng": 106.64938255772103}, "feature": {"sight_features": "", "sight_content": ""}}, {"title": "邻水观音其发葡萄园", "address": "观音桥镇(原观音收费站旁)", "image": "", "rank": 37, "time": null, "location": {"lat": 30.411725039365574, "lng": 107.00279895428525}, "feature": {"sight_features": "", "sight_content": ""}}, {"title": "梅山画廊", "address": "人民路南段与民兴巷交叉口西南100米", "image": "", "rank": 38, "time": 2, "location": {"lat": 30.33497404839901, "lng": 106.93351602792937}, "feature": {"sight_features": "", "sight_content": ""}}, {"title": "罗家洞森林公园", "address": "四川省邻水县城北镇", "image": "", "rank": 39, "time": 2, "location": {"lat": 30.393394417700097, "lng": 106.92894332679869}, "feature": {"sight_features": "", "sight_content": ""}}, {"title": "千岛洪湖", "address": "四川省邻水县黎家乡", "image": "", "rank": 40, "time": 2, "location": {"lat": 30.07943099163575, "lng": 107.04014191048779}, "feature": {"sight_features": "", "sight_content": ""}}, {"title": "小三峡", "address": "四川省邻水县御临镇", "image": "", "rank": 41, "time": 2.5, "location": {"lat": 30.07494901362965, "lng": 106.91328419360644}, "feature": {"sight_features": "", "sight_content": ""}}, {"title": "木鱼池", "address": "四川省大竹县朝阳乡", "image": "", "rank": 42, "time": 2, "location": {"lat": 30.7501681546384, "lng": 107.32946687264935}, "feature": {"sight_features": "", "sight_content": ""}}, {"title": "八佛寺大弯", "address": "广安市-邻水县-零四六县道", "image": "", "rank": 43, "time": 2, "location": {"lat": 30.34107251833194, "lng": 106.93640258895681}, "feature": {"sight_features": "", "sight_content": ""}}, {"title": "五华山旅游区", "address": "广安市邻水县丰禾镇五华山旅游区", "image": "", "rank": 44, "time": 2, "location": {"lat": 30.15005902530322, "lng": 107.1520024941343}, "feature": {"sight_features": "特色1 4A景区，感受独特山韵", "sight_content": "五华山旅游区位于四川省与重庆市交界处，景区山韵独特、气候宜人、文化厚重。\n景区内有老君爷、观音菩萨像、生肖文化广场、植物太极图、水木清华水上乐园、游泳池景观区、森林树屋、植物创意园、林下花海、丽花长廊、三山观景台、望乡坡观景台、天门石柱、鹞子岩等景点。\n\n\n配套有游客中心、餐饮接待、森林树屋、农耕文化体验区、旅游步道、旅游厕所、生态停车场等公共设施。"}}]}