{"cityName": "临沭", "days": 2, "cityImage": "", "spots": [{"title": "苍马山国际旅游度假区", "address": "山东省临沂市临沭县城北3公里", "image": "", "rank": 1, "time": 2, "location": {"lat": 34.95068442193446, "lng": 118.70088210287481}, "feature": {"sight_features": "特色1 国家AAA级景区", "sight_content": "苍马山风景名胜区位于临沭县城东北3公里处，属马陵山系。景区由苍马、马山、草山、冠山、演武山组成，总面积30平方公里。境内松青、草绿、水蓝、云翠，历史文化传说甚多，是从古至今在鲁南苏北，乃至全国具有较高知名度的道教圣地。\n\n云溪谷大门，作为景区保护、游览的隔断，约420平方米大门前广场地势平坦，是游客进入景区购票、休息的中转地带，广场及周围以绿化遮阴的高大树木和现有的林木为主。\n\n映翠湖里投放了几万条观赏锦鲤；景区的游道有天然红石铺就；在游道两侧设置多处座椅；修建了休息亭；景区绿化体现南北方的综合绿意气息。慧济寺财神即将莅临开光。鸟语林2百多种鸟类，3000多只灵鸟争鸣那真是百禽献艺所、峰鸟争鸣地。欢乐国项目占地15万平方米，现已投资1.5亿元。\n\n鸟语林主题乐园 是在景区内建造的一座大型的鸟类动物园；有珍奇异鸟两千多只近两百个品种，这些鸟即漂亮又聪明，技能非凡，绝活不少，如：背唐诗、做加减乘除算数等等。"}}, {"title": "冠山风景旅游区", "address": "临沂市临沭县冠山景区", "image": "", "rank": 2, "time": 2, "location": {"lat": 34.95446534719286, "lng": 118.73575752253639}, "feature": {"sight_features": "特色1 汇集了自然与人文之精华，环境清幽、静雅", "sight_content": "沂郡多名山，东夷有一仙山，名冠山。古有张良、徐庶来此修炼成仙，今有刘少奇曾登临仙人洞，挥笔“冠山仙境，福地洞天\n。冠山风景旅游区，位于山东省临沭县城东北6公里处，由山东盘古旅游开发有限公司于2009年投资1.5亿元人民币打造而成，占地面积5平方公里，是集道教养生﹑生态旅游﹑休闲康体﹑商务会议﹑饮食娱乐为一体的综合性旅游区。\n景区自然风光秀美、历史文化底蕴丰厚，可谓“山秀、泉清、树古、名人多，故事美”。景区内冠山和演武山两山相连，秀丽挺拔；日月两湖南北呼应、相得益彰；36泉清澈见底，流淌千年；古银杏树，见证两千年历史，树高21米，树干粗7.7米，虬枝繁茂，五人尚不得环抱，现已形成“五代同堂、怀中抱子”的奇观，独具灵性。银杏树旁矗立三清阁一座，建于公元前510年，因历史原因仅存遗址，遗址后侧新建三清殿，内供奉了太清道德天尊、玉清元始天尊、上清灵宝天尊；三清殿旁有一天然巨石，近五十米长，石上镌刻《道德经》五千言，蔚为壮观。康熙皇帝南巡时亲笔御批的《重修长春观碑记》称赞道：“沂郡多名山。\n景区常年栗树茹盖，翠竹松柏常青，名贵树种极多，树种十分丰富，有山柳、水柳、白蜡、女贞、栾树等北方树种，有板栗、核桃、山杏、毛桃、油桃、山梨、山楂、石榴等经济树种，也有乌桕树、小叶朴等南方观赏树种，负氧离子含量极高，有美誉“小江南”之称。"}}, {"title": "夹谷山景区", "address": "临沂市临沭县玉山镇", "image": "", "rank": 3, "time": 2, "location": {"lat": 34.95580566285171, "lng": 118.8012062402298}, "feature": {"sight_features": "", "sight_content": ""}}, {"title": "刘少奇在山东纪念馆", "address": "327国道苍马山国际旅游度假区旁", "image": "", "rank": 4, "time": 2, "location": {"lat": 34.96984895894746, "lng": 118.70575053695904}, "feature": {"sight_features": "", "sight_content": ""}}, {"title": "鹏兴生态园", "address": "蟠龙路12号", "image": "", "rank": 5, "time": 2, "location": {"lat": 29.848026965791295, "lng": 121.69512869784218}, "feature": {"sight_features": "", "sight_content": ""}}, {"title": "刘家采摘园", "address": "梅家埠街道小墩村", "image": "", "rank": 6, "time": 2, "location": {"lat": 34.900709329039096, "lng": 118.50740607452607}, "feature": {"sight_features": "", "sight_content": ""}}, {"title": "宝马会演绎大舞台", "address": "商业步行街F幢附近", "image": "", "rank": 7, "time": 2, "location": {"lat": 32.201383952269595, "lng": 119.44090038522918}, "feature": {"sight_features": "", "sight_content": ""}}, {"title": "临沭大自然垂钓园", "address": "郑山街道临沭大自然垂钓园", "image": "", "rank": 8, "time": 2, "location": {"lat": 34.928134079534026, "lng": 118.57313643165789}, "feature": {"sight_features": "", "sight_content": ""}}, {"title": "仓泉山庄", "address": "327国道附近", "image": "", "rank": 9, "time": 2, "location": {"lat": 35.501927055963634, "lng": 116.76031052743309}, "feature": {"sight_features": "", "sight_content": ""}}, {"title": "塔士吉DIY魔法烘焙连锁", "address": "步行街与中山路交叉口向东60米路南", "image": "", "rank": 10, "time": 2, "location": {"lat": 27.855115878009787, "lng": 120.72109614867794}, "feature": {"sight_features": "", "sight_content": ""}}, {"title": "伟业广场", "address": "常林东大街与顺河东街交叉口东50米", "image": "", "rank": 11, "time": 2, "location": {"lat": 34.91669301479945, "lng": 118.6680024054461}, "feature": {"sight_features": "", "sight_content": ""}}, {"title": "陈巡会乡村文化博物馆", "address": "山东省临沂市临沭县陈巡会中村", "image": "", "rank": 12, "time": 2, "location": {"lat": 34.78231376052423, "lng": 118.6193889831288}, "feature": {"sight_features": "", "sight_content": ""}}, {"title": "观音禅寺", "address": "山东省临沂市临沭县东盘村玉圣园内", "image": "", "rank": 13, "time": 2, "location": {"lat": 34.92976719327501, "lng": 118.7679622808151}, "feature": {"sight_features": "", "sight_content": ""}}, {"title": "北沟头遗址", "address": "327国道", "image": "", "rank": 14, "time": 2, "location": {"lat": 35.501927055963634, "lng": 116.76031052743309}, "feature": {"sight_features": "", "sight_content": ""}}, {"title": "苍山叠翠公园", "address": "滨海革命烈士陵园附近", "image": "", "rank": 15, "time": 2, "location": {"lat": 33.99564654746655, "lng": 119.82762105908833}, "feature": {"sight_features": "", "sight_content": ""}}, {"title": "儿童乐园", "address": "山东省临沂市临沭县", "image": "", "rank": 16, "time": 2, "location": {"lat": 34.92601859149122, "lng": 118.65749450009906}, "feature": {"sight_features": "", "sight_content": ""}}, {"title": "玉圣园", "address": "临沂市临沭县朱仓乡东盘村", "image": "", "rank": 17, "time": 2, "location": {"lat": 34.9279443478015, "lng": 118.75448822816567}, "feature": {"sight_features": "", "sight_content": ""}}, {"title": "红石湖公园", "address": "临沂市临沭县花园小区2期", "image": "", "rank": 18, "time": 2, "location": {"lat": 34.9078571356298, "lng": 118.65374048137286}, "feature": {"sight_features": "", "sight_content": ""}}, {"title": "云溪谷", "address": "山东省临沂市临沭县临沭街道苍马山国际旅游度假区", "image": "", "rank": 19, "time": 2, "location": {"lat": 34.96984895894746, "lng": 118.70575053695904}, "feature": {"sight_features": "", "sight_content": ""}}, {"title": "滨海革命烈士陵园", "address": "临沭街道滨海革命烈士陵园", "image": "", "rank": 20, "time": 1.0, "location": {"lat": 33.99564654746655, "lng": 119.82762105908833}, "feature": {"sight_features": "", "sight_content": ""}}, {"title": "威龙钓鱼俱乐部", "address": "苍山北路46-7号", "image": "", "rank": 21, "time": 2, "location": {"lat": 34.922220943417315, "lng": 118.65982788908498}, "feature": {"sight_features": "", "sight_content": ""}}, {"title": "临沭会展中心", "address": "沭河西大街", "image": "", "rank": 22, "time": 2.5, "location": {"lat": 34.93928443137864, "lng": 118.64192246391416}, "feature": {"sight_features": "", "sight_content": ""}}, {"title": "临沭县图书馆", "address": "中山北路18号", "image": "", "rank": 23, "time": 2, "location": {"lat": 39.172501577575545, "lng": 117.22592654367294}, "feature": {"sight_features": "", "sight_content": ""}}, {"title": "临沭县圣然家庭农场", "address": "玉山镇崖下村", "image": "", "rank": 24, "time": 2, "location": {"lat": 34.894200748537216, "lng": 118.80650627058614}, "feature": {"sight_features": "", "sight_content": ""}}, {"title": "山东省临沭县新苗艺术团", "address": "育新街", "image": "", "rank": 25, "time": 2, "location": {"lat": 39.87948223208868, "lng": 116.38020161838175}, "feature": {"sight_features": "", "sight_content": ""}}, {"title": "临沂苍山自然保护区 Linyi Cangs...", "address": "山东省临沭县境内", "image": "", "rank": 26, "time": 3.0, "location": {"lat": 34.92601859149122, "lng": 118.65749450009906}, "feature": {"sight_features": "", "sight_content": ""}}, {"title": "临沂苍山自然保护区", "address": "山东省临沭县境内", "image": "", "rank": 27, "time": 3.0, "location": {"lat": 34.92601859149122, "lng": 118.65749450009906}, "feature": {"sight_features": "", "sight_content": ""}}, {"title": "沭河古道风景区", "address": "临沂市临沭县大官庄水利枢纽西300米路南", "image": "", "rank": 28, "time": 2, "location": {"lat": 34.798570966232376, "lng": 118.56522064794468}, "feature": {"sight_features": "", "sight_content": "沭河古道位于临沭县大官庄枢纽收费站西300米路南，为国家湿地公园，国家级景区。\n\n\n古道北起大官庄水利枢纽人民胜利堰 ，南至清泉寺，全长14.5公里，水深3-5米，一河碧水与马陵山山呼水应，逶迤南下，春有清风梳柳，夏有苇浪翻波，秋有芦荡飞雪，冬有万鸟翱翔，自然风光秀丽，尽显山水之美、原始之美，有中国北方漓江和鲁东南第一水乡的美誉。"}}]}