{"cityName": "临潭", "days": 2, "cityImage": "", "spots": [{"title": "冶木峡", "address": "甘南藏族自治州临潭县冶力关镇境内", "image": "", "rank": 1, "time": 0.75, "location": {"lat": 34.956072671080676, "lng": 103.66062551712794}, "feature": {"sight_features": "", "sight_content": ""}}, {"title": "甘南冶力关如意农家乐", "address": "冶力关镇草滩新村", "image": "", "rank": 2, "time": 3.5, "location": {"lat": 34.956072671080676, "lng": 103.66062551712794}, "feature": {"sight_features": "", "sight_content": ""}}, {"title": "甘南临潭冶力关温馨农家乐", "address": "冶峡路南50米", "image": "", "rank": 3, "time": 3.5, "location": {"lat": 34.96521146353902, "lng": 103.66971428751506}, "feature": {"sight_features": "", "sight_content": ""}}, {"title": "临潭清真北庄上寺", "address": "306省道附近", "image": "", "rank": 4, "time": 2, "location": {"lat": 44.29269479672118, "lng": 120.43504383645545}, "feature": {"sight_features": "", "sight_content": ""}}, {"title": "如意农家乐", "address": "临潭县冶力关镇草滩新村", "image": "", "rank": 5, "time": 2, "location": {"lat": 34.956072671080676, "lng": 103.66062551712794}, "feature": {"sight_features": "", "sight_content": ""}}, {"title": "冶力关洪家园区东方度假村", "address": "甘南藏族自治州临潭县冶力关镇北滨河路向西500米处", "image": "", "rank": 6, "time": 2, "location": {"lat": 34.96419444395027, "lng": 103.67955176590065}, "feature": {"sight_features": "", "sight_content": ""}}, {"title": "财神殿", "address": "甘南藏族自治州临潭县冶力关镇冶力关景区内", "image": "", "rank": 7, "time": 2, "location": {"lat": 34.956072671080676, "lng": 103.66062551712794}, "feature": {"sight_features": "", "sight_content": ""}}, {"title": "大雄宝殿", "address": "甘南藏族自治州临潭县冶力关镇冶力关景区慧峰寺内", "image": "", "rank": 8, "time": 2, "location": {"lat": 34.956072671080676, "lng": 103.66062551712794}, "feature": {"sight_features": "", "sight_content": ""}}, {"title": "保和殿", "address": "甘南藏族自治州临潭县冶力关镇冶力关景区常山庙内", "image": "", "rank": 9, "time": 1.0, "location": {"lat": 34.956072671080676, "lng": 103.66062551712794}, "feature": {"sight_features": "", "sight_content": ""}}, {"title": "天外天生态艺术园", "address": "藏族自治州中兴乡甘南冶力关镇临潭三中对面", "image": "", "rank": 10, "time": 2, "location": {"lat": 34.9661703355553, "lng": 103.67374388391409}, "feature": {"sight_features": "", "sight_content": ""}}, {"title": "基督教会", "address": "西大街附近", "image": "", "rank": 11, "time": 2, "location": {"lat": 39.91357131364959, "lng": 116.6700940616933}, "feature": {"sight_features": "", "sight_content": ""}}, {"title": "甘南临潭冶力关绿色家园农家乐", "address": "冶力关镇草滩新村凉亭瀑布向里100米", "image": "", "rank": 12, "time": 3.5, "location": {"lat": 22.54424790338448, "lng": 113.93694655080124}, "feature": {"sight_features": "", "sight_content": ""}}, {"title": "刘家峡玉汇园农家乐(临夏)", "address": "永靖县枣园新村", "image": "", "rank": 13, "time": 2, "location": {"lat": 35.94345867855007, "lng": 103.35162549848327}, "feature": {"sight_features": "", "sight_content": ""}}, {"title": "西崆峒莲花山", "address": "甘肃省临潭县境内", "image": "", "rank": 14, "time": 2, "location": {"lat": 34.69863941152157, "lng": 103.36053329624235}, "feature": {"sight_features": "", "sight_content": ""}}, {"title": "黄崖山", "address": "中国甘肃省南部临潭县境内", "image": "", "rank": 15, "time": 2.0, "location": {"lat": 34.69863941152157, "lng": 103.36053329624235}, "feature": {"sight_features": "", "sight_content": ""}}]}