{"cityName": "临洮", "days": 2, "cityImage": "", "spots": [{"title": "平长水上乐园", "address": "定西市临洮县212国道附近", "image": "", "rank": 1, "time": 2, "location": {"lat": 35.229521250905236, "lng": 103.88882586835487}, "feature": {"sight_features": "特色1 超嗨水上狂欢", "sight_content": "平长水上乐园以水上文化休闲娱乐项目为特色，配有海啸池、环流河、大、小喇叭冲浪滑梯、冲天回旋滑梯、水疗池、儿童戏水小品和休闲娱乐文化中心等二十余种刺激有趣的水上项目。\n\n\n平长人家依偎在美丽的洮河边，距离兰州省城仅40分钟车程，集高科技农业产业、有机、绿色种植养殖、休闲采摘、垂钓、餐饮娱乐、水上乐园旅游观光项目等为一体的生态型现代农业示范园区。"}}, {"title": "海峰核桃园", "address": "定西市临洮县八里村孙家大庄", "image": "", "rank": 2, "time": 2, "location": {"lat": 35.444881858981454, "lng": 103.8914071492378}, "feature": {"sight_features": "", "sight_content": ""}}, {"title": "绿洲有机蔬菜种植专业合作社", "address": "洮阳镇", "image": "", "rank": 3, "time": 2, "location": {"lat": 35.37553191824799, "lng": 103.85407762180435}, "feature": {"sight_features": "", "sight_content": ""}}, {"title": "探秘博士密室逃脱俱乐部", "address": "瑞新路148号", "image": "", "rank": 4, "time": 2, "location": {"lat": 31.350316265662013, "lng": 120.71505455714012}, "feature": {"sight_features": "", "sight_content": ""}}, {"title": "塄谷粮休闲保健养生农庄", "address": "新添镇刘家沟门", "image": "", "rank": 5, "time": 2, "location": {"lat": 42.33991995352058, "lng": 120.5134616495084}, "feature": {"sight_features": "", "sight_content": ""}}, {"title": "临洮县大地花木农民专业合作社", "address": "洮阳镇公园路70号", "image": "", "rank": 6, "time": 2, "location": {"lat": 35.37127561114575, "lng": 103.87511386355891}, "feature": {"sight_features": "", "sight_content": ""}}, {"title": "春燕农家乐", "address": "文峰小学", "image": "", "rank": 7, "time": 2, "location": {"lat": 32.370219135389846, "lng": 119.44978303133229}, "feature": {"sight_features": "", "sight_content": ""}}, {"title": "雅园农家乐", "address": "212国道西50米", "image": "", "rank": 8, "time": 2, "location": {"lat": 32.4966001815921, "lng": 105.62399452605622}, "feature": {"sight_features": "", "sight_content": ""}}, {"title": "连古城自然保护区", "address": "甘肃省民勤县巴丹吉林沙漠东南部 733300", "image": "", "rank": 9, "time": 2, "location": {"lat": 38.630624826433106, "lng": 103.10040027988245}, "feature": {"sight_features": "", "sight_content": ""}}, {"title": "海洋世界儿童乐园", "address": "东大街与椒山街步行街交叉口东100米", "image": "", "rank": 10, "time": 2, "location": {"lat": 22.617509352603705, "lng": 114.14733733676542}, "feature": {"sight_features": "", "sight_content": ""}}, {"title": "临洮三馆(文化博物图书)", "address": "文峰西路南150米", "image": "", "rank": 11, "time": 2, "location": {"lat": 33.30657949634171, "lng": 120.23529513476451}, "feature": {"sight_features": "", "sight_content": ""}}, {"title": "游乐园", "address": "定西市临洮县", "image": "", "rank": 12, "time": 2, "location": {"lat": 35.400587040257776, "lng": 103.8656010776999}, "feature": {"sight_features": "", "sight_content": ""}}, {"title": "文庙", "address": "文庙巷26号附近", "image": "", "rank": 13, "time": 1.5, "location": {"lat": 37.87038102854263, "lng": 112.58705299971176}, "feature": {"sight_features": "", "sight_content": ""}}, {"title": "公园路与瑞新路交叉口", "address": "甘肃省定西市临洮县", "image": "", "rank": 14, "time": 2, "location": {"lat": 35.400587040257776, "lng": 103.8656010776999}, "feature": {"sight_features": "", "sight_content": ""}}, {"title": "白衣寺", "address": "甘肃省定西市临洮县Y171", "image": "", "rank": 15, "time": 2, "location": {"lat": 35.400587040257776, "lng": 103.8656010776999}, "feature": {"sight_features": "", "sight_content": ""}}, {"title": "建设公园", "address": "甘肃省定西市临洮县洮阳镇岳麓山公园东南350米", "image": "", "rank": 16, "time": 1.0, "location": {"lat": 35.37851581514816, "lng": 103.88215969318234}, "feature": {"sight_features": "", "sight_content": ""}}, {"title": "永靖县吧咪山道观", "address": "吧咪山", "image": "", "rank": 17, "time": 2, "location": {"lat": 26.942107590625515, "lng": 107.30743727392323}, "feature": {"sight_features": "", "sight_content": ""}}, {"title": "牡丹苑文化乐园", "address": "临洮县洮阳镇洮丰村韩家湾", "image": "", "rank": 18, "time": 2, "location": {"lat": 35.349857137066515, "lng": 103.8525647360882}, "feature": {"sight_features": "", "sight_content": ""}}, {"title": "临洮原始部落度假村(东裕生态园)", "address": "临洮县洮阳镇烧瓦窑", "image": "", "rank": 19, "time": 2, "location": {"lat": 35.36761281340318, "lng": 103.86750869502663}, "feature": {"sight_features": "", "sight_content": ""}}, {"title": "洮阳镇椒山社区-综合人口文化广...", "address": "椒山街步行街附近", "image": "", "rank": 20, "time": 2, "location": {"lat": 31.4707878758284, "lng": 104.75488769018823}, "feature": {"sight_features": "", "sight_content": ""}}, {"title": "星辰山庄", "address": "212国道", "image": "", "rank": 21, "time": 2, "location": {"lat": 32.4966001815921, "lng": 105.6244436788112}, "feature": {"sight_features": "", "sight_content": ""}}, {"title": "贝儿健儿童游乐园", "address": "紫竹院农行隔壁二楼(天和美业对面(紫竹院农行)", "image": "", "rank": 22, "time": 1.5, "location": {"lat": 39.93420701109236, "lng": 116.33062649354142}, "feature": {"sight_features": "", "sight_content": ""}}, {"title": "景秀园农家乐", "address": "西大街16号附近", "image": "", "rank": 23, "time": 2, "location": {"lat": 38.04818476626093, "lng": 114.5274941555663}, "feature": {"sight_features": "", "sight_content": ""}}, {"title": "迎宾饭庄(南大街)", "address": "南大街与212国道交叉口东100米", "image": "", "rank": 24, "time": 2, "location": {"lat": 32.4966001815921, "lng": 105.6244436788112}, "feature": {"sight_features": "", "sight_content": ""}}, {"title": "怡神轩画廊", "address": "南大街88号", "image": "", "rank": 25, "time": 2, "location": {"lat": 40.24142279463157, "lng": 116.13073725824158}, "feature": {"sight_features": "", "sight_content": ""}}, {"title": "临洮钓鱼", "address": "洮阳镇兰海高速公路洮河附近", "image": "", "rank": 26, "time": 2, "location": {"lat": 35.42054448715658, "lng": 103.8556754306285}, "feature": {"sight_features": "", "sight_content": ""}}, {"title": "友家香满园农家乐", "address": "华城大道", "image": "", "rank": 27, "time": 2, "location": {"lat": 23.12597903339062, "lng": 113.32355246742027}, "feature": {"sight_features": "", "sight_content": ""}}, {"title": "羊粪沟", "address": "定西市-临洮县", "image": "", "rank": 28, "time": 2, "location": {"lat": 35.400587040257776, "lng": 103.8656010776999}, "feature": {"sight_features": "", "sight_content": ""}}, {"title": "临洮县凤凰山森林公园", "address": "定西市-临洮县-王家大庄村", "image": "", "rank": 29, "time": 2, "location": {"lat": 35.40709945778987, "lng": 103.88619607358459}, "feature": {"sight_features": "", "sight_content": ""}}, {"title": "牟家山庄", "address": "定西市-临洮县", "image": "", "rank": 30, "time": 2, "location": {"lat": 35.400587040257776, "lng": 103.8656010776999}, "feature": {"sight_features": "", "sight_content": ""}}]}