{"cityName": "临武", "days": 2, "cityImage": "", "spots": [{"title": "欢乐谷", "address": "东云路45号", "image": "", "rank": 1, "time": 4.5, "location": {"lat": 24.892136008028604, "lng": 118.62142347522607}, "feature": {"sight_features": "", "sight_content": ""}}, {"title": "开心画廊", "address": "沙溪路", "image": "", "rank": 2, "time": 2, "location": {"lat": 29.925651564648128, "lng": 107.7831595899086}, "feature": {"sight_features": "", "sight_content": ""}}, {"title": "渡头古城遗址", "address": "湖南省临武县汾市乡渡头村 424300", "image": "", "rank": 3, "time": 2, "location": {"lat": 25.333936658689574, "lng": 112.68385227074796}, "feature": {"sight_features": "", "sight_content": ""}}, {"title": "金仙寨", "address": "湖南省临武县金江镇林森村 424300", "image": "", "rank": 4, "time": 2, "location": {"lat": 25.488311825511737, "lng": 112.75876682433817}, "feature": {"sight_features": "", "sight_content": ""}}, {"title": "秀岩崖刻", "address": "湖南省临武县强乡 424301", "image": "", "rank": 5, "time": 2, "location": {"lat": 25.282527010968707, "lng": 112.57041115183141}, "feature": {"sight_features": "", "sight_content": ""}}, {"title": "李子山游园", "address": "郴州市临武县", "image": "", "rank": 6, "time": 2, "location": {"lat": 25.282527010968707, "lng": 112.57041115183141}, "feature": {"sight_features": "", "sight_content": ""}}, {"title": "临武桐柏山", "address": "湖南省临武县临武县西南部西山林场文昌坪 424300", "image": "", "rank": 7, "time": 1.5, "location": {"lat": 25.273514905756855, "lng": 112.46659525517984}, "feature": {"sight_features": "", "sight_content": ""}}, {"title": "秀岩风月园", "address": "湖南省临武县武水镇 424300", "image": "", "rank": 8, "time": 2, "location": {"lat": 25.305338011690097, "lng": 112.62178902220306}, "feature": {"sight_features": "", "sight_content": ""}}, {"title": "临武县奇乐儿童游乐园", "address": "临武县舜峰广场大电视屏（哥友汇KTV后面）一楼", "image": "", "rank": 9, "time": 2, "location": {"lat": 25.282800689368237, "lng": 112.56850773138865}, "feature": {"sight_features": "", "sight_content": ""}}, {"title": "回峰公园", "address": "湖南省郴州市临武县汽车总站附近", "image": "", "rank": 10, "time": 2, "location": {"lat": 25.285995602090367, "lng": 112.56723025202163}, "feature": {"sight_features": "", "sight_content": ""}}, {"title": "滴水源生态旅游景区", "address": "郴州市临武县舜峰镇双溪乡", "image": "", "rank": 11, "time": 2, "location": {"lat": 25.255376349426253, "lng": 112.54815695064325}, "feature": {"sight_features": "特色1 一山一湖一泉一瀑布 特色2 整个景区的自然风光，胜似仙境，令人遐想无穷，流连忘返 特色3 属喀斯特大峡谷地貌，谷底巨石林立，数条瀑布酷似一条条白龙在飞舞", "sight_content": "滴水源景区海拔1124米，系珠江源头。位于湖南临武西瑶绿谷国家森林公园东门，距临武县城约4公里；高铁郴州站1.5小时直达景区。景区规划面积30平方公里，是郴州“一山一湖一泉一瀑布”的智慧生态旅游圈。\n滴水源属喀斯特大峡谷地貌，谷底巨石林立，数条瀑布酷似一条条白龙在飞舞（绵延2200米23级的瀑布打破世界吉尼斯记录），整个景区的自然风光，胜似仙境，令人遐想无穷，流连忘返。\n景区分为九大功能区：接待平台小镇、养生VIP度假区、生态田园体验区、入口形象区、磨坊小镇、童话小镇、山林拓展体验区、水上运动区、滴水源自然景区，总投资约109亿元。"}}, {"title": "舜峰山", "address": "湖南省临武县临武县西", "image": "", "rank": 12, "time": null, "location": {"lat": 25.282527010968707, "lng": 112.57041115183141}, "feature": {"sight_features": "", "sight_content": ""}}, {"title": "东林庵", "address": "湖南省临武县东林村", "image": "", "rank": 13, "time": 2, "location": {"lat": 25.282527010968707, "lng": 112.57041115183141}, "feature": {"sight_features": "", "sight_content": ""}}, {"title": "临武创业示范街", "address": "湖南省临武县阳光商业广场旁边", "image": "", "rank": 14, "time": 2, "location": {"lat": 25.282527010968707, "lng": 112.57041115183141}, "feature": {"sight_features": "", "sight_content": ""}}]}