{"cityName": "临县", "days": 2, "cityImage": "", "spots": [{"title": "黑龙庙", "address": "山西省吕梁地区临县碛口镇", "image": "", "rank": 1, "time": 2, "location": {"lat": 37.67660197766169, "lng": 110.83394999679199}, "feature": {"sight_features": "", "sight_content": ""}}, {"title": "西湾村", "address": "山西省吕梁市临县西湾村", "image": "", "rank": 2, "time": 2, "location": {"lat": 37.65274993459804, "lng": 110.81610768027814}, "feature": {"sight_features": "", "sight_content": ""}}, {"title": "黄河画廊（黄河百里水蚀浮雕）", "address": "晋陕黄河大峡谷碛口段(碛口古镇沿黄河上溯20公里左右)", "image": "", "rank": 3, "time": 2, "location": {"lat": 37.64781981047263, "lng": 110.79557745850887}, "feature": {"sight_features": "", "sight_content": ""}}, {"title": "招贤镇小塔子村", "address": "山西省吕梁市临县招贤镇", "image": "", "rank": 4, "time": 2, "location": {"lat": 37.68726985006152, "lng": 110.9422875466013}, "feature": {"sight_features": "", "sight_content": ""}}, {"title": "毛主席东渡黄河纪念碑", "address": "山西碛口古镇上溯五公里处", "image": "", "rank": 5, "time": 2, "location": {"lat": 37.64781981047263, "lng": 110.79557745850887}, "feature": {"sight_features": "", "sight_content": ""}}, {"title": "麒麟滩", "address": "山西碛口镇李家山村脚下", "image": "", "rank": 6, "time": 2, "location": {"lat": 37.638550777814544, "lng": 110.78374906831644}, "feature": {"sight_features": "", "sight_content": ""}}, {"title": "高原土柱林", "address": "碛口古镇北5公里", "image": "", "rank": 7, "time": 2, "location": {"lat": 37.683526108433824, "lng": 110.79557745850887}, "feature": {"sight_features": "", "sight_content": ""}}, {"title": "临县亿家富红枣专业合作社", "address": "沿黄线附近", "image": "", "rank": 8, "time": 2, "location": {"lat": 35.90645468312559, "lng": 110.57987780369093}, "feature": {"sight_features": "", "sight_content": ""}}, {"title": "临县图书馆", "address": "太和南路193附近", "image": "", "rank": 9, "time": 1.5, "location": {"lat": 23.2891118151941, "lng": 113.36626061144558}, "feature": {"sight_features": "", "sight_content": ""}}, {"title": "苏家坡剧院", "address": "山西省吕梁市临县", "image": "", "rank": 10, "time": 2, "location": {"lat": 37.95721067232133, "lng": 110.99841488128904}, "feature": {"sight_features": "", "sight_content": ""}}, {"title": "群英剧场", "address": "山西省吕梁市临县s218", "image": "", "rank": 11, "time": 2, "location": {"lat": 37.95721067232133, "lng": 110.99841488128904}, "feature": {"sight_features": "", "sight_content": ""}}, {"title": "兔坂剧场", "address": "山西省吕梁市临县s104", "image": "", "rank": 12, "time": 2, "location": {"lat": 37.95721067232133, "lng": 110.99841488128904}, "feature": {"sight_features": "", "sight_content": ""}}, {"title": "天官庙", "address": "山西省吕梁市临县林家坪镇苏家坡剧院", "image": "", "rank": 13, "time": 2, "location": {"lat": 37.640666277660124, "lng": 110.90435807235843}, "feature": {"sight_features": "", "sight_content": ""}}, {"title": "老爷庙", "address": "461县道附近", "image": "", "rank": 14, "time": 2, "location": {"lat": 43.67731477090369, "lng": 123.37130972470501}, "feature": {"sight_features": "", "sight_content": ""}}, {"title": "善庆寺", "address": "038乡道附近", "image": "", "rank": 15, "time": 2, "location": {"lat": 32.373686813320546, "lng": 119.3274975511577}, "feature": {"sight_features": "", "sight_content": ""}}, {"title": "中央公园", "address": "凤城路55号附近", "image": "", "rank": 16, "time": 2.5, "location": {"lat": 31.283765602039168, "lng": 121.53009534787243}, "feature": {"sight_features": "", "sight_content": ""}}, {"title": "东林寺", "address": "吕梁市临县东关街148号", "image": "", "rank": 17, "time": 1.5, "location": {"lat": 37.964334936539245, "lng": 111.00342104806559}, "feature": {"sight_features": "", "sight_content": ""}}, {"title": "龙天庙", "address": "104省道附近", "image": "", "rank": 18, "time": 2, "location": {"lat": 37.84517653890577, "lng": 112.34866876283355}, "feature": {"sight_features": "", "sight_content": ""}}, {"title": "临州文化广场", "address": "从龙中路与东正街交叉口北", "image": "", "rank": 19, "time": 2, "location": {"lat": 37.968153281410714, "lng": 111.00308324387179}, "feature": {"sight_features": "", "sight_content": ""}}, {"title": "海盗船", "address": "吕梁市临县", "image": "", "rank": 20, "time": 2, "location": {"lat": 37.95721067232133, "lng": 110.99841488128904}, "feature": {"sight_features": "", "sight_content": ""}}, {"title": "林州秧歌文化广场", "address": "从龙中路1132附近", "image": "", "rank": 21, "time": 4.5, "location": {"lat": 37.97443204812004, "lng": 111.00316871404783}, "feature": {"sight_features": "", "sight_content": ""}}, {"title": "碛口风景名胜区", "address": "山西省临县城南48公里", "image": "", "rank": 22, "time": 2, "location": {"lat": 37.95721067232133, "lng": 110.99841488128904}, "feature": {"sight_features": "", "sight_content": ""}}, {"title": "霍家岭村", "address": "吕梁市-临县", "image": "", "rank": 23, "time": 2, "location": {"lat": 37.95721067232133, "lng": 110.99841488128904}, "feature": {"sight_features": "", "sight_content": ""}}, {"title": "下霍家岭村", "address": "吕梁市-临县", "image": "", "rank": 24, "time": 2, "location": {"lat": 37.95721067232133, "lng": 110.99841488128904}, "feature": {"sight_features": "", "sight_content": ""}}, {"title": "冯家会村", "address": "山西省吕梁市临县冯家会村", "image": "", "rank": 25, "time": 2, "location": {"lat": 37.900907743221275, "lng": 110.89980484199968}, "feature": {"sight_features": "", "sight_content": ""}}, {"title": "乐楼", "address": "山西碛口黑龙庙", "image": "", "rank": 26, "time": 1.0, "location": {"lat": 35.36651926967544, "lng": 112.28402779336996}, "feature": {"sight_features": "", "sight_content": ""}}, {"title": "天聚隆", "address": "山西吕梁碛口古镇天聚隆旧址", "image": "", "rank": 27, "time": 2, "location": {"lat": 37.64781981047263, "lng": 110.79557745850887}, "feature": {"sight_features": "", "sight_content": ""}}, {"title": "大同碛", "address": "碛口古街西南500米的湫水河入黄河处", "image": "", "rank": 28, "time": 2, "location": {"lat": 31.909199228140412, "lng": 121.30903625505988}, "feature": {"sight_features": "", "sight_content": ""}}, {"title": "古商道", "address": "山西碛口", "image": "", "rank": 29, "time": 2, "location": {"lat": 37.87982942385603, "lng": 112.56937550968271}, "feature": {"sight_features": "", "sight_content": ""}}, {"title": "巨石滩", "address": "山西碛口古镇卧虎山上", "image": "", "rank": 30, "time": 2, "location": {"lat": 37.64781981047263, "lng": 110.79557745850887}, "feature": {"sight_features": "", "sight_content": ""}}, {"title": "魁星楼", "address": "山西省吕梁市交口县", "image": "", "rank": 31, "time": 0.75, "location": {"lat": 36.98787266655283, "lng": 111.18762820475553}, "feature": {"sight_features": "", "sight_content": ""}}, {"title": "小塔则村", "address": "山西临县招贤镇小塔则村", "image": "", "rank": 32, "time": 2, "location": {"lat": 37.664140758642056, "lng": 110.95712004648699}, "feature": {"sight_features": "", "sight_content": ""}}]}