{"cityName": "临夏", "days": "", "cityImage": "", "spots": [{"title": "黄河三峡风景名胜区", "address": "临夏回族自治州永靖县境内", "image": "", "rank": 1, "time": 4.5, "location": {"lat": 35.963330304471256, "lng": 103.29250749454934}, "feature": {"sight_features": "", "sight_content": ""}}, {"title": "松鸣岩", "address": "临夏州和政县城以南25公里处的太子山林区（松鸣镇）", "image": "", "rank": 2, "time": 3.5, "location": {"lat": 35.35526572206133, "lng": 103.46233002492154}, "feature": {"sight_features": "特色1 松鸣岩夏天的平均温度在20左右，是游客最佳选择的避暑山庄。 特色2 松鸣岩方圆数十里山峦被古松覆盖，山势峭拔，松柏参天，山风吹过，松鸣如涛。 特色3 松鸣岩丰富的植物资源使景区四季变化鲜明，景观多姿多彩，被誉为绿色植物王国。", "sight_content": "松鸣岩是河州八景之一，距临夏市50公里，海拔2730米，建于明成化年间。位于和政县南端陡石关口的松鸣岩，每逢农历4月26至28（俗称四月八），当地群众和外地游人便前来游览山水，漫唱\"花儿\"举行一年一度的松鸣岩\"花儿\"盛会。\n松鸣岩建于明成化年间。主峰建有玉皇阁。菩萨大殿、二殿、三殿和圣母宫等建筑。万丈悬崖上建有飞檐寺。\n方圆数十里山峦被百年古松覆盖，山势峭拔，松柏参天，每当风吹过，松鸣如涛，远近闻名，山中有鹿、雉、兰马鸡、四不象等珍稀动物。"}}, {"title": "甘肃莲花山国家森林公园", "address": "临夏回族自治州康乐县莲麓镇足古川村1号", "image": "", "rank": 3, "time": 3.0, "location": {"lat": 35.003897584566786, "lng": 103.75800132147711}, "feature": {"sight_features": "", "sight_content": "莲花山雄踞于临潭县境内的羊沙，八角、冶力关三乡之间，其东部与康乐县毗邻。莲花山有原始森林1.2万多公顷，自然风景区约18万亩东面洮河流过，南北有羊沙河与冶木河相夹，莲花山高耸入云，山峰裸岩似盛开的莲花，俨然佛国仙境，古有西崆峒之称。莲花山主峰海拔3578来，山峰隽秀挺拔，在早晨或傍晚的阳光照射下，山岩呈粉红色，恰似莲瓣花蕊，亭亭盛开。山腰以下则林木葱笼，飞瀑清泉点缀其间，鸟语花香，美不胜收。"}}, {"title": "古动物化石博物馆", "address": "临夏回族自治州和政县迎宾路（县城北侧）", "image": "", "rank": 4, "time": 2.5, "location": {"lat": 35.45058186980539, "lng": 103.36432566273247}, "feature": {"sight_features": "", "sight_content": ""}}, {"title": "刘家峡", "address": "临夏州永靖县刘家峡镇", "image": "", "rank": 5, "time": 5.0, "location": {"lat": 35.98070840105318, "lng": 103.34440754454108}, "feature": {"sight_features": "", "sight_content": "刘家峡位于青海与甘肃交界处，距离甘肃省会兰州市西南约80公里。刘家峡水库有一个很大的水利发电站，可供应陕、甘、青三省的用电。"}}, {"title": "炳灵寺石窟", "address": "临夏回族自治州永靖县县南35公里处", "image": "", "rank": 6, "time": 1.0, "location": {"lat": 35.963330304471256, "lng": 103.29250749454934}, "feature": {"sight_features": "", "sight_content": ""}}, {"title": "太子山", "address": "临夏回族自治州与甘南藏族自治州之间", "image": "", "rank": 7, "time": 2.5, "location": {"lat": 35.60756218350311, "lng": 103.21639056529743}, "feature": {"sight_features": "", "sight_content": ""}}, {"title": "滨河大道", "address": "临夏回族自治州临夏市滨河路", "image": "", "rank": 8, "time": 1.0, "location": {"lat": 35.60989877268906, "lng": 103.24954917760394}, "feature": {"sight_features": "", "sight_content": ""}}, {"title": "东郊公园", "address": "临夏回族自治州临夏市滨河东路", "image": "", "rank": 9, "time": 1.0, "location": {"lat": 35.61458953456574, "lng": 103.25610209801098}, "feature": {"sight_features": "", "sight_content": ""}}, {"title": "八坊十三巷", "address": "临夏州临夏市前河沿路30号对面，西南方向45米", "image": "", "rank": 10, "time": 2, "location": {"lat": 35.59478679266794, "lng": 103.21949916049776}, "feature": {"sight_features": "", "sight_content": ""}}, {"title": "刘家峡恐龙国家地质公园", "address": "永靖县内", "image": "", "rank": 11, "time": 1.0, "location": {"lat": 35.963330304471256, "lng": 103.29250749454934}, "feature": {"sight_features": "", "sight_content": ""}}, {"title": "东公馆", "address": "临夏市前河沿东路35号", "image": "", "rank": 12, "time": 1.0, "location": {"lat": 35.59794617887399, "lng": 103.22433076630186}, "feature": {"sight_features": "", "sight_content": ""}}, {"title": "红园", "address": "临夏回族自治州临夏市红园路2号", "image": "", "rank": 13, "time": 1.0, "location": {"lat": 35.60573027877638, "lng": 103.21448022879991}, "feature": {"sight_features": "", "sight_content": ""}}, {"title": "临夏州博物馆", "address": "临夏市东区市政府广场西侧", "image": "", "rank": 14, "time": 1.5, "location": {"lat": 35.60989877268906, "lng": 103.24954917760394}, "feature": {"sight_features": "", "sight_content": ""}}, {"title": "龙汇世界", "address": "临夏回族自治州永靖县刘家峡镇", "image": "", "rank": 15, "time": 1.0, "location": {"lat": 35.98070840105318, "lng": 103.34440754454108}, "feature": {"sight_features": "", "sight_content": ""}}, {"title": "蝴蝶楼", "address": "临夏回族自治州临夏市前河沿路80号", "image": "", "rank": 16, "time": 1.0, "location": {"lat": 35.593432522917645, "lng": 103.21755398262215}, "feature": {"sight_features": "", "sight_content": ""}}, {"title": "积石雄关", "address": "临夏回族自治州积石山县大河家乡", "image": "", "rank": 17, "time": 1.0, "location": {"lat": 35.369909222233304, "lng": 103.75454892319877}, "feature": {"sight_features": "", "sight_content": ""}}, {"title": "太极湖·太极岛", "address": "临夏回族自治州永靖县", "image": "", "rank": 18, "time": 1.0, "location": {"lat": 35.963330304471256, "lng": 103.29250749454934}, "feature": {"sight_features": "", "sight_content": ""}}, {"title": "西蜂窝寺", "address": "临夏康乐县境内的鸣鹿乡", "image": "", "rank": 19, "time": 1.0, "location": {"lat": 35.277901662604236, "lng": 103.55825495717711}, "feature": {"sight_features": "", "sight_content": ""}}, {"title": "清真寺拱北", "address": "临夏回族自治州临夏市内", "image": "", "rank": 20, "time": 1.0, "location": {"lat": 35.60989877268906, "lng": 103.24954917760394}, "feature": {"sight_features": "", "sight_content": ""}}, {"title": "万寿观", "address": "临夏回族自治州临夏市万寿观路", "image": "", "rank": 21, "time": 1.5, "location": {"lat": 35.608472840828775, "lng": 103.20511608555363}, "feature": {"sight_features": "", "sight_content": ""}}, {"title": "积石民俗村", "address": "甘肃省临夏回族自治州积石山麓中部的尕护林", "image": "", "rank": 22, "time": 1.0, "location": {"lat": 35.69735559016331, "lng": 102.83855038250647}, "feature": {"sight_features": "", "sight_content": ""}}, {"title": "王尚书墓", "address": "临夏回族自治州临夏市北寺新村路177号", "image": "", "rank": 23, "time": 1.0, "location": {"lat": 35.62368645723067, "lng": 103.22108570996066}, "feature": {"sight_features": "", "sight_content": ""}}, {"title": "药水峡", "address": "", "image": "", "rank": 24, "time": 1.0, "location": {"lat": 35.26039291178395, "lng": 103.4377763125358}, "feature": {"sight_features": "", "sight_content": ""}}, {"title": "河州大剧院", "address": "临夏市南滨河路", "image": "", "rank": 25, "time": 2, "location": {"lat": 35.59774775706747, "lng": 103.2432969712545}, "feature": {"sight_features": "", "sight_content": ""}}, {"title": "黄草坪", "address": "", "image": "", "rank": 26, "time": 1.0, "location": {"lat": 39.48801225736729, "lng": 113.43301052324865}, "feature": {"sight_features": "", "sight_content": ""}}, {"title": "罗家洞寺(云光寺)", "address": "甘肃省临夏回族自治州永靖县富民路 ‎", "image": "", "rank": 27, "time": 2, "location": {"lat": 35.94474397545047, "lng": 103.31471328246771}, "feature": {"sight_features": "", "sight_content": ""}}, {"title": "抱龙山凤凰岭滑雪场", "address": "临夏回族自治州永靖县抱龙山风景度假区（兰州市西固区岸门口向刘兰公路7公里处）", "image": "", "rank": 28, "time": 2, "location": {"lat": 35.963330304471256, "lng": 103.29250749454934}, "feature": {"sight_features": "", "sight_content": ""}}, {"title": "松鸣岩国际滑雪场", "address": "临夏回族自治州和政县松鸣镇", "image": "", "rank": 29, "time": 2, "location": {"lat": 35.28100116699383, "lng": 103.41483437133675}, "feature": {"sight_features": "", "sight_content": ""}}, {"title": "太极岛湿地乐园", "address": "临夏州永靖县太极镇环湖路入口向前100米", "image": "", "rank": 31, "time": 2, "location": {"lat": 35.96560843526405, "lng": 103.25633604191833}, "feature": {"sight_features": "", "sight_content": ""}}, {"title": "东乡族自治县", "address": "甘肃省临夏东乡族自治县", "image": "", "rank": 32, "time": 1.5, "location": {"lat": 35.66932972862377, "lng": 103.3956132043736}, "feature": {"sight_features": "", "sight_content": ""}}, {"title": "老华寺", "address": "甘肃省临夏市华寺街", "image": "", "rank": 33, "time": 2, "location": {"lat": 35.598407396345976, "lng": 103.21080486839908}, "feature": {"sight_features": "", "sight_content": ""}}, {"title": "城隍庙", "address": "临夏回族自治州临夏市环城北路409号", "image": "", "rank": 34, "time": 1.5, "location": {"lat": 35.62057003298123, "lng": 103.21639906955569}, "feature": {"sight_features": "", "sight_content": ""}}, {"title": "大拱北", "address": "甘肃省临夏回族自治州临夏市红园路", "image": "", "rank": 35, "time": 2, "location": {"lat": 35.60614351014468, "lng": 103.2113404821611}, "feature": {"sight_features": "", "sight_content": ""}}, {"title": "刘家峡水上公园", "address": "刘家峡水上公园", "image": "", "rank": 36, "time": 2, "location": {"lat": 35.90799024157863, "lng": 103.32279135046113}, "feature": {"sight_features": "", "sight_content": ""}}, {"title": "农家乐饭菜馆", "address": "折达公路附近", "image": "", "rank": 37, "time": 2, "location": {"lat": 35.639248021834014, "lng": 103.26722088883363}, "feature": {"sight_features": "", "sight_content": ""}}, {"title": "折桥湾周家爆炒鸡", "address": "刘临路折桥镇折桥村河滩3号", "image": "", "rank": 38, "time": 2, "location": {"lat": 35.63774997476968, "lng": 103.26417840352899}, "feature": {"sight_features": "", "sight_content": ""}}, {"title": "大墩峡玻璃天桥", "address": "积石山县大河家镇西6公里大墩峡大峡谷景区", "image": "", "rank": 39, "time": 2, "location": {"lat": 35.81604538351686, "lng": 102.73946328190654}, "feature": {"sight_features": "", "sight_content": ""}}, {"title": "大墩峡景区", "address": "临夏回族自治州积石山保安族东乡族撒拉族自治县大河家镇西6公里大墩村西面", "image": "", "rank": 40, "time": 7.5, "location": {"lat": 35.81672221975092, "lng": 102.74132260902398}, "feature": {"sight_features": "", "sight_content": ""}}, {"title": "吹麻滩清真大寺", "address": "积石山保安族东", "image": "", "rank": 41, "time": 2, "location": {"lat": 35.72349932363978, "lng": 102.88251807504834}, "feature": {"sight_features": "", "sight_content": ""}}, {"title": "七彩花海景区", "address": "临夏回族自治州临夏县310省道寺沟乡舍家清真寺西北侧", "image": "", "rank": 42, "time": 2, "location": {"lat": 35.50609017650122, "lng": 102.96940928058692}, "feature": {"sight_features": "", "sight_content": ""}}, {"title": "鲁冰花公园", "address": "临夏回族自治州和政县蒿沈路鲁冰花公园", "image": "", "rank": 43, "time": 1.0, "location": {"lat": 35.43486794770455, "lng": 103.36272263385499}, "feature": {"sight_features": "", "sight_content": ""}}, {"title": "九眼泉湖", "address": "甘肃省临夏回族自治州和政县九眼泉", "image": "", "rank": 44, "time": 2, "location": {"lat": 35.41271002017919, "lng": 103.28880850152716}, "feature": {"sight_features": "", "sight_content": ""}}, {"title": "和政古动物化石博物馆", "address": "城关镇梁家庄村", "image": "", "rank": 45, "time": 2, "location": {"lat": 38.43145544516993, "lng": 115.81260911085221}, "feature": {"sight_features": "", "sight_content": ""}}, {"title": "碧水天缘农家乐", "address": "城光镇咀头新农村海棠路1号碧水天缘农家乐", "image": "", "rank": 46, "time": 2, "location": {"lat": 31.942163523189073, "lng": 116.9456757948577}, "feature": {"sight_features": "", "sight_content": ""}}, {"title": "田园山庄民簇文化生态园", "address": "下街6号", "image": "", "rank": 47, "time": 2, "location": {"lat": 29.901914158369387, "lng": 121.80948558532751}, "feature": {"sight_features": "", "sight_content": ""}}, {"title": "榆丰生态园", "address": "州榆林乡榆林村。", "image": "", "rank": 48, "time": 2, "location": {"lat": 35.21484201528925, "lng": 114.08656321362184}, "feature": {"sight_features": "", "sight_content": ""}}, {"title": "新华寺", "address": "临夏市坝口巷与新西路交叉口西南100米", "image": "", "rank": 49, "time": 2, "location": {"lat": 35.59654448020908, "lng": 103.21288906204668}, "feature": {"sight_features": "", "sight_content": ""}}, {"title": "积石山", "address": "积石山县西北", "image": "", "rank": 50, "time": 2, "location": {"lat": 35.72349932363978, "lng": 102.88251807504834}, "feature": {"sight_features": "", "sight_content": ""}}, {"title": "国拱北", "address": "红园2-1号", "image": "", "rank": 51, "time": 2, "location": {"lat": 35.60310379499686, "lng": 103.20764887680342}, "feature": {"sight_features": "", "sight_content": ""}}, {"title": "台子拱北", "address": "红园2-2号", "image": "", "rank": 52, "time": 2, "location": {"lat": 35.60297440748412, "lng": 103.20685875781925}, "feature": {"sight_features": "", "sight_content": ""}}, {"title": "四海瓜果铺", "address": "团结路与漳河西路交叉口北50米", "image": "", "rank": 53, "time": 2, "location": {"lat": 35.48826416689405, "lng": 103.58589706097398}, "feature": {"sight_features": "", "sight_content": ""}}, {"title": "盛世旅游度假村", "address": "折达公路刘家峡水库旁", "image": "", "rank": 54, "time": 2, "location": {"lat": 35.85164750646194, "lng": 103.22924203294026}, "feature": {"sight_features": "", "sight_content": ""}}, {"title": "下滩垂钓场", "address": "环湖路太极宾馆后面", "image": "", "rank": 55, "time": 2, "location": {"lat": 29.552721263001526, "lng": 115.97719527185501}, "feature": {"sight_features": "", "sight_content": ""}}, {"title": "东乡人家农家乐", "address": "环城北路58号", "image": "", "rank": 56, "time": 2, "location": {"lat": 31.394823079042425, "lng": 120.96539658242455}, "feature": {"sight_features": "", "sight_content": ""}}, {"title": "顺来香农家乐", "address": "和政县城关镇南关村梁家庄上社9号", "image": "", "rank": 57, "time": 2, "location": {"lat": 35.428696621433545, "lng": 103.35771417550107}, "feature": {"sight_features": "", "sight_content": ""}}, {"title": "永靖县高尔夫训练中心", "address": "太极镇黄河明珠大酒店", "image": "", "rank": 58, "time": 2, "location": {"lat": 38.46220422097184, "lng": 106.30465581748219}, "feature": {"sight_features": "", "sight_content": ""}}, {"title": "刘家峡草莓采摘园", "address": "刘家峡草莓采摘园", "image": "", "rank": 59, "time": 2, "location": {"lat": 40.21238141341787, "lng": 116.43239094340872}, "feature": {"sight_features": "", "sight_content": ""}}, {"title": "大毛老字号垂钓塘", "address": "太极镇环湖路大毛老字号垂钓塘", "image": "", "rank": 60, "time": 2, "location": {"lat": 35.96560843526405, "lng": 103.25633604191833}, "feature": {"sight_features": "", "sight_content": ""}}]}