{"cityName": "临湘", "days": 2, "cityImage": "", "spots": [{"title": "6501风景区", "address": "岳阳市临湘市301省道", "image": "", "rank": 1, "time": 3.5, "location": {"lat": 29.328001705044326, "lng": 113.49295797467468}, "feature": {"sight_features": "", "sight_content": ""}}, {"title": "五尖山国家森林公园", "address": "岳阳市临湘市公园路1号", "image": "", "rank": 2, "time": 7.5, "location": {"lat": 29.48758486357119, "lng": 113.44344373071003}, "feature": {"sight_features": "特色1 省级森林公园，拥有10多处瀑布", "sight_content": "湖南岳阳五尖山森林公园位于湘北门户——临湘市城西一公里处，由轿顶山、鹰嘴山、周家山、望城山和麻姑山五个山峰组成。五尖山森林资源十分丰富，有200多公顷天然阔叶次森林，有大面积的杉木，檫树人工林和大片楠竹林；有300多公顷松林，形成了多层次的立体结构，集成了一片绿色的莽莽林海。\n五尖山森林公园前身是1958年建立的五尖山林场， 已经被批准为省级森林公园。公园属五岭山系、幕阜山脉、江汉平原过渡地带，是一座突出于丘陵的大山，座落在临湘市郊1公里处。京广铁路、京珠公路、107国道依山而过，长江水道流经她的北面，可说是沿江、沿边、沿线。整个公园有山地面积1800公顷，森林覆盖率达98%，立木蓄积总量计10万立方米。\n\n公园由轿顶山、鹰嘴山、周家山、望城山和麻姑山五个山峰组成，故名五尖山。整个山脉呈东西走向，最高海拔588.1米，最低峰海拔90米，一般山地海拔200―300米，坡度为25―35度之间。据清同治版《临湘县志》记载：“五尖山五峰高耸……登上山峰，既能俯瞰洞庭之水，又可远观湖北监利、蒲圻、洪湖山光。”整个公园分四大景区，即望城山，花岗楼，柴家冲，百步梯。"}}, {"title": "龙潭湖漂流", "address": "岳阳市临湘市忠防镇", "image": "", "rank": 3, "time": 2, "location": {"lat": 29.368166615095575, "lng": 113.54630884464065}, "feature": {"sight_features": "", "sight_content": ""}}, {"title": "今遇快乐一站", "address": "岳阳市临湘市长盛路212号", "image": "", "rank": 4, "time": 2, "location": {"lat": 29.4722310985699, "lng": 113.46905891591183}, "feature": {"sight_features": "", "sight_content": ""}}, {"title": "临湘市炎平无花果采摘园", "address": "源潭同合村", "image": "", "rank": 5, "time": 7.5, "location": {"lat": 42.741744218985644, "lng": 125.7437063580858}, "feature": {"sight_features": "", "sight_content": ""}}, {"title": "临湘市炎平无花果采摘园(临湘新...", "address": "新群村童家几(临湘服务区)", "image": "", "rank": 6, "time": 7.5, "location": {"lat": 29.48003128364579, "lng": 113.5179871628535}, "feature": {"sight_features": "", "sight_content": ""}}, {"title": "三段锦瀑布", "address": "湖南省临湘市五指山 414300", "image": "", "rank": 7, "time": 2, "location": {"lat": 29.482801373395436, "lng": 113.45656151000003}, "feature": {"sight_features": "", "sight_content": ""}}, {"title": "白鹅山", "address": "湖南省江永县城西北 425405", "image": "", "rank": 8, "time": 2, "location": {"lat": 25.27972066791849, "lng": 111.3504366323604}, "feature": {"sight_features": "", "sight_content": ""}}, {"title": "临湘古县城遗址", "address": "湖南省临湘市陆城乡 414306", "image": "", "rank": 9, "time": 7.5, "location": {"lat": 29.482801373395436, "lng": 113.45656151000003}, "feature": {"sight_features": "", "sight_content": ""}}, {"title": "大塘水上世界欢乐谷", "address": "湖南省岳阳市临湘市石咀冲", "image": "", "rank": 10, "time": 2, "location": {"lat": 29.289440658079396, "lng": 113.59812601784722}, "feature": {"sight_features": "", "sight_content": ""}}, {"title": "临湘市革命烈士纪念广场", "address": "湖南省岳阳市临湘市五尖山森林公园革命烈士纪念广场", "image": "", "rank": 11, "time": 7.5, "location": {"lat": 29.489877492603394, "lng": 113.4286847050335}, "feature": {"sight_features": "", "sight_content": ""}}, {"title": "定湖堂", "address": "学府街8号", "image": "", "rank": 12, "time": 2, "location": {"lat": 46.58874403875169, "lng": 125.15168404252373}, "feature": {"sight_features": "", "sight_content": ""}}, {"title": "临湘市城西学校科技馆", "address": "湖南省临湘市长安西路", "image": "", "rank": 13, "time": 7.5, "location": {"lat": 29.48477587690358, "lng": 113.45234854609187}, "feature": {"sight_features": "", "sight_content": ""}}, {"title": "肖家祠堂", "address": "岳阳市临湘市零一六县道", "image": "", "rank": 14, "time": 2, "location": {"lat": 29.482801373395436, "lng": 113.45656151000003}, "feature": {"sight_features": "", "sight_content": ""}}, {"title": "王家祠堂", "address": "岳阳市临湘市零一五县道", "image": "", "rank": 15, "time": 2, "location": {"lat": 29.482801373395436, "lng": 113.45656151000003}, "feature": {"sight_features": "", "sight_content": ""}}, {"title": "刘家祠堂", "address": "岳阳市临湘市岳阳县018县道附近", "image": "", "rank": 16, "time": 2, "location": {"lat": 29.555091148381962, "lng": 113.68111030944118}, "feature": {"sight_features": "", "sight_content": ""}}, {"title": "陈家祠堂", "address": "岳阳市临湘市", "image": "", "rank": 17, "time": 1.5, "location": {"lat": 29.482801373395436, "lng": 113.45656151000003}, "feature": {"sight_features": "", "sight_content": ""}}, {"title": "公园路与永昌西路交叉口", "address": "湖南省岳阳市临湘市", "image": "", "rank": 18, "time": 2, "location": {"lat": 29.482801373395436, "lng": 113.45656151000003}, "feature": {"sight_features": "", "sight_content": ""}}, {"title": "临湘砖茶博物馆", "address": "湖南省岳阳市临湘市公园路", "image": "", "rank": 19, "time": 7.5, "location": {"lat": 29.48758486357119, "lng": 113.44344373071003}, "feature": {"sight_features": "", "sight_content": ""}}, {"title": "世界碑林博物馆", "address": "107国道", "image": "", "rank": 20, "time": 2, "location": {"lat": 23.102877208493197, "lng": 113.67228113407819}, "feature": {"sight_features": "", "sight_content": ""}}, {"title": "临湘图书馆", "address": "书院巷", "image": "", "rank": 21, "time": 1.5, "location": {"lat": 31.371494548682058, "lng": 119.82803669247153}, "feature": {"sight_features": "", "sight_content": ""}}, {"title": "临湘影剧院", "address": "夏家巷城中南路路口附近", "image": "", "rank": 22, "time": 7.5, "location": {"lat": 29.478019510735656, "lng": 113.46907598910634}, "feature": {"sight_features": "", "sight_content": ""}}, {"title": "吉祥嘉年华", "address": "城中南路9号", "image": "", "rank": 23, "time": 2, "location": {"lat": 27.505708017855362, "lng": 120.41193104763352}, "feature": {"sight_features": "", "sight_content": ""}}, {"title": "绿野家园", "address": "白东路", "image": "", "rank": 24, "time": 2, "location": {"lat": 29.376970587853794, "lng": 106.94381698989892}, "feature": {"sight_features": "", "sight_content": ""}}, {"title": "大云山石庙", "address": "湖南省岳阳县大云山上", "image": "", "rank": 25, "time": 2, "location": {"lat": 29.27152350385071, "lng": 113.50753834984299}, "feature": {"sight_features": "", "sight_content": ""}}, {"title": "临湘服装步行街", "address": "湖南省临湘市服装步行街", "image": "", "rank": 26, "time": 7.5, "location": {"lat": 29.479170541329843, "lng": 113.46888554294846}, "feature": {"sight_features": "", "sight_content": ""}}, {"title": "临湘菊花博览园", "address": "岳阳市临湘市畈上村", "image": "", "rank": 27, "time": 7.5, "location": {"lat": 29.334939484440607, "lng": 113.39457927334091}, "feature": {"sight_features": "", "sight_content": ""}}]}