{"cityName": "麟游", "days": 2, "cityImage": "", "spots": [{"title": "玉女潭", "address": "陕西省宝鸡市麟游县鱼塘峡", "image": "", "rank": 1, "time": 1.5, "location": {"lat": 34.683748667164004, "lng": 107.79951410600374}, "feature": {"sight_features": "", "sight_content": ""}}, {"title": "慈善寺石窟", "address": "宝鸡市麟游县城东6公里处的漆水河西南岸", "image": "", "rank": 2, "time": 1.0, "location": {"lat": 34.66821364209222, "lng": 107.90977041751798}, "feature": {"sight_features": "", "sight_content": ""}}, {"title": "九成宫遗址", "address": "宝鸡市麟游县新城区", "image": "", "rank": 3, "time": 1.0, "location": {"lat": 34.683748667164004, "lng": 107.79951410600374}, "feature": {"sight_features": "", "sight_content": ""}}, {"title": "唐井遗址", "address": "陕西省宝鸡市麟游县东大街", "image": "", "rank": 4, "time": 2, "location": {"lat": 34.68536637153336, "lng": 107.8129382263414}, "feature": {"sight_features": "", "sight_content": ""}}, {"title": "青莲山公园", "address": "陕西省宝鸡市麟游县", "image": "", "rank": 5, "time": 1.0, "location": {"lat": 34.683748667164004, "lng": 107.79951410600374}, "feature": {"sight_features": "", "sight_content": ""}}, {"title": "碑亭景区", "address": "宝鸡市麟游县县城的西北部（九成宫宫城北郊）", "image": "", "rank": 6, "time": 2, "location": {"lat": 34.683748667164004, "lng": 107.79951410600374}, "feature": {"sight_features": "", "sight_content": "碑亭景区位于麟游县城西端，是一处大型历史文化性主题景区，景区分为碑亭和西海苑两大区域。碑亭位于隋仁寿宫，唐九成宫内皇城西北部，园内竖有国家一级文物：九成宫醴泉铭碑和万年宫铭碑两通古碑，历史底蕴和文化内涵深厚，文物级别高，开发潜力和对外影响力巨大。"}}, {"title": "凤凰山广场", "address": "凤凰路附近", "image": "", "rank": 7, "time": 2, "location": {"lat": 39.967235147563706, "lng": 116.46376010598681}, "feature": {"sight_features": "", "sight_content": ""}}, {"title": "观音寺", "address": "陕西省宝鸡市麟游县东大街15附近", "image": "", "rank": 8, "time": 2.0, "location": {"lat": 34.68460146729726, "lng": 107.80781633535753}, "feature": {"sight_features": "", "sight_content": ""}}, {"title": "麟游县图书馆", "address": "东大街8号附近", "image": "", "rank": 9, "time": 2, "location": {"lat": 22.61729942596652, "lng": 114.14733751642652}, "feature": {"sight_features": "", "sight_content": ""}}]}