{"cityName": "临颍", "days": 2, "cityImage": "", "spots": [{"title": "南街村", "address": "漯河市临颍县南街村前进路1号", "image": "", "rank": 1, "time": 3.5, "location": {"lat": 33.809117742746174, "lng": 113.95852412618127}, "feature": {"sight_features": "特色1 全国文明村、中国十大名村、第一雷锋村", "sight_content": "南街村景区位于河南省临颍县城东南隅，紧靠107国道、京广铁路、京珠高速公路，面积1.78平方公里，是一处特色人文旅游景区，现为全国农业旅游示范点，河南省红色旅游景点和河南省南部精品线路的重要景点。\n\n南街村旅游以发展模式、教育理念、发展方针、分配办法、生活方式及创建共产主义小社区伟大实践为特色。全面展示南街村独特的红色人文景观，通过近几年的不断发展、完善，南街村旅游已初具规模，并形成了独具特色的八大观光旅游景区：“工业园区、高新农业园区、村民住宅区、文化景区、文化教育游览区、广场文化展示区、热带珍奇植物游览区和革命传统教育区”。\n\n南街村现在每年接纳40多万游客。对于南街村两个文明建设取得的显著成绩，人们纷纷给予高度评价和赞扬。南街人正以豪迈的热情，与时俱进，开拓创新，在建设共产主义小社区的征程上奋进。日本《读卖新闻》5月13日至15日连载记者藤野彰写的文章：中国摸索建设和谐社会。文章如下：“东方红太阳升，中国出了个毛泽东……” 早上6点15分，南街村的广播站开始播放颂扬毛泽东的革命歌曲《东方红》，南街村新的一天便伴随这轻快旋律开始。"}}, {"title": "小商桥", "address": "漯河市临颍县商桥村", "image": "", "rank": 2, "time": 3.0, "location": {"lat": 33.72590197563446, "lng": 113.97269012020908}, "feature": {"sight_features": "", "sight_content": ""}}, {"title": "陈星聚纪念馆", "address": "050乡道", "image": "", "rank": 3, "time": 2, "location": {"lat": 29.530191510088745, "lng": 120.15491506164761}, "feature": {"sight_features": "", "sight_content": ""}}, {"title": "中原葡萄大观园", "address": "107国道", "image": "", "rank": 4, "time": 2, "location": {"lat": 23.102877208493197, "lng": 113.67228113407819}, "feature": {"sight_features": "", "sight_content": ""}}, {"title": "大浪淘沙时代温泉广场", "address": "颍青路", "image": "", "rank": 5, "time": 2, "location": {"lat": 33.815860505163656, "lng": 113.93528507402803}, "feature": {"sight_features": "", "sight_content": ""}}, {"title": "红色亿元村", "address": "迎宾路颍松路口", "image": "", "rank": 6, "time": 2, "location": {"lat": 40.19033466276813, "lng": 117.30191343601585}, "feature": {"sight_features": "", "sight_content": ""}}, {"title": "漯河胡桥园林真人cs", "address": "大郭乡第二中学西200米", "image": "", "rank": 7, "time": 2, "location": {"lat": 33.78520125944328, "lng": 113.79804165907787}, "feature": {"sight_features": "", "sight_content": ""}}, {"title": "汇源温泉", "address": "城关镇西关北大街", "image": "", "rank": 8, "time": 2, "location": {"lat": 33.82107395748483, "lng": 113.95720798374471}, "feature": {"sight_features": "", "sight_content": ""}}, {"title": "老兵农业园9527健康特训", "address": "固厢乡107国道巨陵路口亿通汽车城向北630米路东", "image": "", "rank": 9, "time": 2, "location": {"lat": 32.320577430303246, "lng": 121.21234700674756}, "feature": {"sight_features": "", "sight_content": ""}}, {"title": "王岗寺院", "address": "北村学校附近", "image": "", "rank": 10, "time": 2, "location": {"lat": 39.98351984853068, "lng": 113.35391646131625}, "feature": {"sight_features": "", "sight_content": ""}}, {"title": "哈尔滨啤酒广场", "address": "漯河市临颍县", "image": "", "rank": 11, "time": 2, "location": {"lat": 33.83269194792997, "lng": 113.93757834379157}, "feature": {"sight_features": "", "sight_content": ""}}, {"title": "百亩湖", "address": "京广路颍腾路交叉口北50米路西(百亩湖公园北隔壁)", "image": "", "rank": 12, "time": 2, "location": {"lat": 33.83290820705946, "lng": 113.92387606315276}, "feature": {"sight_features": "", "sight_content": ""}}, {"title": "基督教会", "address": "益民路南50米", "image": "", "rank": 13, "time": 2, "location": {"lat": 35.774500089138314, "lng": 115.0441231981068}, "feature": {"sight_features": "", "sight_content": ""}}, {"title": "东关水上乐园", "address": "河南省漯河市临颍县城关镇东大街东关水上乐园附近", "image": "", "rank": 14, "time": 2, "location": {"lat": 33.81743446384217, "lng": 113.97369570226138}, "feature": {"sight_features": "", "sight_content": ""}}, {"title": "娄庄村基督教会", "address": "003乡道娄庄药店附近", "image": "", "rank": 15, "time": 2, "location": {"lat": 39.57863972974355, "lng": 116.72861437176803}, "feature": {"sight_features": "", "sight_content": ""}}, {"title": "面坊基督教会", "address": "河南省漯河市临颍县Y025", "image": "", "rank": 16, "time": 2, "location": {"lat": 33.83269194792997, "lng": 113.93757834379157}, "feature": {"sight_features": "", "sight_content": ""}}, {"title": "基督教会", "address": "河南省漯河市临颍县杜曲镇中原新城西北450米", "image": "", "rank": 17, "time": 2, "location": {"lat": 33.81595850215835, "lng": 113.91201412663936}, "feature": {"sight_features": "", "sight_content": ""}}, {"title": "许昌三绝碑", "address": "河南省许昌市魏都区繁城镇汉献帝庙", "image": "", "rank": 18, "time": 1.0, "location": {"lat": 34.03086122800348, "lng": 113.82959564352309}, "feature": {"sight_features": "", "sight_content": ""}}, {"title": "杨再兴墓", "address": "河南省临颍县小商桥东", "image": "", "rank": 19, "time": 2, "location": {"lat": 33.72334930551298, "lng": 113.97477408838202}, "feature": {"sight_features": "", "sight_content": ""}}, {"title": "蓝海岸温泉", "address": "新城路与颍新路交叉口向南90米", "image": "", "rank": 20, "time": 2, "location": {"lat": 33.81168565759466, "lng": 113.94247019220893}, "feature": {"sight_features": "", "sight_content": ""}}, {"title": "金悦温泉", "address": "107国道汽车站向南200米路东", "image": "", "rank": 21, "time": 2, "location": {"lat": 22.710749316735306, "lng": 113.84083127482629}, "feature": {"sight_features": "", "sight_content": ""}}, {"title": "临颍县颖龙种植专业合作社", "address": "皇帝庙乡王老庄村107国道路东", "image": "", "rank": 22, "time": 2, "location": {"lat": 33.75717080267962, "lng": 113.97220685340406}, "feature": {"sight_features": "", "sight_content": ""}}, {"title": "天骄华城水上乐园", "address": "人民路火车站东100米路南", "image": "", "rank": 23, "time": 2, "location": {"lat": 39.763681753891625, "lng": 118.71392898699999}, "feature": {"sight_features": "", "sight_content": ""}}, {"title": "密室逃脱", "address": "金百汇四楼金诺郎隔壁", "image": "", "rank": 24, "time": null, "location": {"lat": 27.521183023241598, "lng": 120.41201840964095}, "feature": {"sight_features": "", "sight_content": ""}}, {"title": "文茂轩画廊", "address": "陵东巷与颍新路交叉口西50米", "image": "", "rank": 25, "time": 2, "location": {"lat": 33.81271471741927, "lng": 113.94824270251773}, "feature": {"sight_features": "", "sight_content": ""}}, {"title": "傻子艺术团", "address": "人民西路461号", "image": "", "rank": 26, "time": 2, "location": {"lat": 31.904513585539153, "lng": 120.24096754868697}, "feature": {"sight_features": "", "sight_content": ""}}, {"title": "月亮湾生态采摘园(临颍店)", "address": "S329中岳庙西头月亮湾种植专业合作社西200米", "image": "", "rank": 27, "time": 2, "location": {"lat": 33.812769588017936, "lng": 114.01331753557655}, "feature": {"sight_features": "", "sight_content": ""}}, {"title": "少康酒厂艺术团", "address": "001县道附近颍青路", "image": "", "rank": 28, "time": 2, "location": {"lat": 38.094880367227645, "lng": 115.43311409749823}, "feature": {"sight_features": "", "sight_content": ""}}, {"title": "临颍盛世广场", "address": "河南省临颍县新城路附近", "image": "", "rank": 29, "time": 3.5, "location": {"lat": 33.82929140113471, "lng": 113.94259477011536}, "feature": {"sight_features": "", "sight_content": ""}}, {"title": "南街村观光园", "address": "河南省漯河市临颍县001县道南街村", "image": "", "rank": 30, "time": 2, "location": {"lat": 33.81529063957508, "lng": 113.90264764420552}, "feature": {"sight_features": "", "sight_content": ""}}]}