{"cityName": "临漳", "days": 2, "cityImage": "", "spots": [{"title": "维也纳水上乐园", "address": "邯郸市临漳县齐桓公大道与玄武路交叉口（北环玄武湖对面）", "image": "", "rank": 1, "time": 2.5, "location": {"lat": 36.33376723393143, "lng": 114.63685317396086}, "feature": {"sight_features": "", "sight_content": ""}}, {"title": "临漳县烈士陵园", "address": "河北省邯郸市临漳县古城大道385号", "image": "", "rank": 2, "time": 2, "location": {"lat": 36.35123214822669, "lng": 114.60792167297738}, "feature": {"sight_features": "", "sight_content": ""}}, {"title": "邺城遗址", "address": "邯郸市临漳县东南40公里处的临漳县境内", "image": "", "rank": 3, "time": 2, "location": {"lat": 36.3407659805952, "lng": 114.9857491501352}, "feature": {"sight_features": "", "sight_content": ""}}, {"title": "鬼谷子文化产业园", "address": "河北省邯郸市临漳县香菜营乡盐食村", "image": "", "rank": 4, "time": 0.4, "location": {"lat": 36.34417440366185, "lng": 114.47042953609592}, "feature": {"sight_features": "", "sight_content": ""}}, {"title": "临漳县规划展馆", "address": "邺令南大街与人民东路交汇处", "image": "", "rank": 5, "time": null, "location": {"lat": 36.333813721923995, "lng": 114.6278235920255}, "feature": {"sight_features": "", "sight_content": ""}}, {"title": "周恩来纪念馆", "address": "邯郸市临漳县古城大道14号", "image": "", "rank": 6, "time": 2.0, "location": {"lat": 36.3491219505003, "lng": 114.63256003718286}, "feature": {"sight_features": "", "sight_content": ""}}, {"title": "临漳县鸿信种植专业合作社", "address": "邺令南大街33号附近", "image": "", "rank": 7, "time": 2, "location": {"lat": 36.337260809920856, "lng": 114.63008234916661}, "feature": {"sight_features": "", "sight_content": ""}}, {"title": "休闲垂钓园", "address": "212省道附近", "image": "", "rank": 8, "time": 2, "location": {"lat": 40.390563512510504, "lng": 116.26044547726889}, "feature": {"sight_features": "", "sight_content": ""}}, {"title": "中华成语文化博览园", "address": "河北省邯郸市临漳县北堤路", "image": "", "rank": 9, "time": 2, "location": {"lat": 36.3407659805952, "lng": 114.62642694614402}, "feature": {"sight_features": "", "sight_content": ""}}, {"title": "永生堂", "address": "古城大道715号附近", "image": "", "rank": 10, "time": 2, "location": {"lat": 36.35142192820923, "lng": 114.60427800546866}, "feature": {"sight_features": "", "sight_content": ""}}, {"title": "六朝园", "address": "凤阳路与厚载大街交叉口西南100米", "image": "", "rank": 11, "time": 2, "location": {"lat": 36.33235481048153, "lng": 114.59564914077808}, "feature": {"sight_features": "", "sight_content": ""}}, {"title": "童话水上乐园", "address": "邺令北大街8附近", "image": "", "rank": 12, "time": 2, "location": {"lat": 36.34061522690946, "lng": 114.63064887738834}, "feature": {"sight_features": "", "sight_content": ""}}, {"title": "北朝王禅老祖庙遗址", "address": "临成路与北门路交叉口东北150米", "image": "", "rank": 13, "time": null, "location": {"lat": 36.35403890505569, "lng": 114.62357233245375}, "feature": {"sight_features": "", "sight_content": ""}}, {"title": "儿童乐园", "address": "河北省邯郸市临漳县建安西路", "image": "", "rank": 14, "time": 2, "location": {"lat": 36.34340431222878, "lng": 114.60355440174055}, "feature": {"sight_features": "", "sight_content": ""}}, {"title": "三台园", "address": "凤阳路与永阳路交叉口西100米", "image": "", "rank": 15, "time": 2, "location": {"lat": 36.330364926779524, "lng": 114.60294553565572}, "feature": {"sight_features": "", "sight_content": ""}}, {"title": "欢乐谷", "address": "河北省邯郸市临漳县建安西路天奕商厦负一楼", "image": "", "rank": 16, "time": 4.5, "location": {"lat": 36.342993256105906, "lng": 114.61153235268657}, "feature": {"sight_features": "", "sight_content": ""}}, {"title": "儿童乐园", "address": "邯郸市临漳县金世纪广场5楼", "image": "", "rank": 17, "time": 2, "location": {"lat": 36.343077785201025, "lng": 114.61971858205322}, "feature": {"sight_features": "", "sight_content": ""}}, {"title": "古观音寺", "address": "河北省邯郸市临漳县柏鹤乡有阁刘村古观音寺", "image": "", "rank": 18, "time": 1.5, "location": {"lat": 36.29448083576987, "lng": 114.71433327463772}, "feature": {"sight_features": "", "sight_content": ""}}, {"title": "日光寺", "address": "庆祝胡同附近", "image": "", "rank": 19, "time": 2, "location": {"lat": 36.35213760142483, "lng": 114.62301500215602}, "feature": {"sight_features": "", "sight_content": ""}}, {"title": "基督教会", "address": "临漳县中心部", "image": "", "rank": 20, "time": null, "location": {"lat": 36.3407659805952, "lng": 114.62642694614402}, "feature": {"sight_features": "", "sight_content": ""}}, {"title": "佳贝爱儿童主题乐园", "address": "河北省邯郸市临漳县丛峰线", "image": "", "rank": 21, "time": 2, "location": {"lat": 36.187432134306114, "lng": 114.82224632209356}, "feature": {"sight_features": "", "sight_content": ""}}, {"title": "邺城珍宝馆", "address": "河北省邯郸市临漳县香菜营乡马义线邺城博物馆", "image": "", "rank": 22, "time": 2, "location": {"lat": 36.2943178184511, "lng": 114.4268474384993}, "feature": {"sight_features": "", "sight_content": ""}}, {"title": "铜雀园", "address": "316省道附近", "image": "", "rank": 23, "time": 2, "location": {"lat": 39.27101965917406, "lng": 117.82159346542433}, "feature": {"sight_features": "", "sight_content": ""}}, {"title": "平汉战役胜利纪念馆", "address": "316省道", "image": "", "rank": 24, "time": 2, "location": {"lat": 39.27101965917406, "lng": 117.82159346542433}, "feature": {"sight_features": "", "sight_content": ""}}, {"title": "临漳植物园", "address": "人民东路", "image": "", "rank": 25, "time": 3.5, "location": {"lat": 38.067918425672914, "lng": 114.65286299664115}, "feature": {"sight_features": "", "sight_content": ""}}, {"title": "神原温泉", "address": "南门路与西门北大街交叉口东", "image": "", "rank": 26, "time": 2, "location": {"lat": 36.34762363562803, "lng": 114.61627946252693}, "feature": {"sight_features": "", "sight_content": ""}}, {"title": "动漫水上乐园", "address": "玄武路与东门大街交叉口", "image": "", "rank": 27, "time": 2, "location": {"lat": 40.38362227258698, "lng": 116.86203751885894}, "feature": {"sight_features": "", "sight_content": ""}}, {"title": "绿帅庄园采摘", "address": "香菜营乡显王村北绿帅庄园采摘", "image": "", "rank": 28, "time": 2, "location": {"lat": 36.28691044586218, "lng": 114.43296874466812}, "feature": {"sight_features": "", "sight_content": ""}}, {"title": "临漳县乐农种植专业合作社", "address": "丛峰线东50米", "image": "", "rank": 29, "time": 2, "location": {"lat": 36.23769310256398, "lng": 115.01285147382907}, "feature": {"sight_features": "", "sight_content": ""}}, {"title": "临漳佛造像博物馆", "address": "金凤大街", "image": "", "rank": 30, "time": 2, "location": {"lat": 38.47869523872185, "lng": 106.24956089094421}, "feature": {"sight_features": "", "sight_content": ""}}, {"title": "镇宝画廊", "address": "孙陶集镇", "image": "", "rank": 31, "time": 2, "location": {"lat": 36.20718016347639, "lng": 114.52011216115663}, "feature": {"sight_features": "", "sight_content": ""}}, {"title": "曹操拴马树", "address": "河北省邯郸市邯山区境内", "image": "", "rank": 32, "time": 2, "location": {"lat": 36.58669219197865, "lng": 114.49638868967236}, "feature": {"sight_features": "", "sight_content": ""}}]}