{"cityName": "林芝", "days": "3", "cityImage": "", "spots": [{"title": "南迦巴瓦峰", "address": "林芝市米林县", "image": "", "rank": 1, "time": 1.0, "location": {"lat": 29.220916541197315, "lng": 94.21993857808282}, "feature": {"sight_features": "", "sight_content": ""}}, {"title": "雅鲁藏布大峡谷", "address": "林芝地区米林县派镇", "image": "", "rank": 2, "time": 1.0, "location": {"lat": 29.510417453303127, "lng": 94.8582966155948}, "feature": {"sight_features": "特色1 到世界最大峡谷，观中国最美山峰！ 特色2 高峰和峡谷几千米的强烈地形反差。 特色3 观南迦巴瓦峰（若有佛缘，可有幸一睹圣山真容）。 特色4 大峡谷之山，从遍布热带季风雨的低山到高入云天的雪山。", "sight_content": "【2018.11.1-2019.3.15日期间雅鲁藏布大峡谷景区免门票，敬请须知】\n吞白古如日追\n这座红白相间的建筑是公元8世纪时印度高僧莲花生大师的修行洞，藏语称“厅姆·古茹查布”， 属于藏传佛教宁玛派。吞白村的命名是“厅姆”的变音，意为隐没。现全村有62户、224人。\n据该修行洞志记载，莲花生大师在降伏魔王亚夏那布时，化身为一只小鸟，隐没在片石山的树林中。此后，他在洞里念修上、中、下三种不同等级的金刚橛。待修成后把金刚橛抛向天空，摧毁了魔王殿，罗刹魂湖也干涸了。魔王惊恐万状，逃往嘎朗方向。大师便以金刚橛截住魔王，用火堆将其烧死。\n\n\n公尊德姆庄园-南峰照水观景台\n公尊德姆庄园座落在雅鲁藏布江边，天气晴朗时，可以欣赏到南迦巴瓦峰倒影，也是从此处开始，已算是进入雅鲁藏布大峡谷。据巴擦·巴桑旺堆编著的《吐蕃碑文与摩崖石刻考证》记载：公工尊德姆不仅是工布地区的护法神，也是吐蕃赞普的生神，被称为藏区十二尊地祇之一。当地人把公尊德姆尊称为“阿妈·公尊德姆”，南迦巴瓦峰主峰—通珠·南迦巴瓦峰右边的山称为公尊德姆的道场，并在每逢黄道吉日时烧香朝拜，以求世间万物生灵平安、吉祥！\n\n\n南迦巴瓦峰醉美观景台\n南迦巴瓦峰：地跨热带和寒带，位于雅鲁藏布大峡谷内米林县、林芝县、墨脱县三县相交的部位，其海拔7782米，高度排在世界第28位，中国第12位，也是东喜马拉雅山脉的最高峰，有“羞女峰（因为其巨大的三角形峰体终年积雪，云雾缭绕，从不轻易露出真面目）”和“云中的天堂”的美誉。南迦巴瓦在在世界最长史诗《格萨尔王传》中，誉为“长矛直刺苍穹”，也被称为“直刺蓝天的战矛”。2005年被《国家地理》评选为“中国最美山峰”。"}}, {"title": "巴松措", "address": "林芝市工布江达县", "image": "", "rank": 3, "time": 2.0, "location": {"lat": 29.891367616240817, "lng": 93.25241979667781}, "feature": {"sight_features": "特色1 藏传佛教红教神湖，湖水碧绿，周围青山悠悠，风光优美 特色2 巴松措湖水清澈见底，四周环绕的雪山倒映其中。淳朴古老的人文原生态也是巴松措引人入胜的地方 特色3 湖水碧绿柔美，周围青山依依", "sight_content": "藏东南最大的冰川偃塞湖和红教神湖，以湖心岛和千年古寺、湖周6000米以上数座未登雪峰、中国十大最美古村落错高村以及结巴村等湖滨村落，良好而丰富的生态资源、巴河野鱼和松茸等美食等闻名。目前，巴松措是除纳木措和羊湖以外最具盛名的湖泊旅游目的地。\n湖心岛：在巴松措神话传说中，湖心岛下是巴松措龙女的宫殿，湖心岛上的措宗寺是藏东南宁玛派千年古寺。围绕这座千年古寺，您除了可以体验到生殖崇拜、古天葬台、措宗寺壁画等宗教文化，还可以近距离的感受湖心岛独特而多样化的生态资源，包括桃抱松共生树以及报春百合等数十种原生态植物资源\n结巴村：相传该村‍‍为工布王的夏宫所在地，所以村名意为大王。该村紧临巴松措，村落布局和建筑以及民俗古朴有致，是最佳观山观湖旅馆的集中地。\n巴松错三塔：巴松措东南方向有阿玛觉姆达增、杰钦那拉嘎布（燃烧的火焰峰）和林布岗增嘎布三座雪峰。船行巴松措时看此三峰宛若雪塔耸天，故称巴松措三塔。\n‍‍错高村：错高意为湖头，是巴松措东面四沟的中心。该村因村落传统布局与自然高度合一、建筑式样保持藏东南最古朴风格，以及村落内多手工艺传承和宗教设施等，而被评为中国十大最美村落。\n\n\n环湖游艇\n湖心岛生态小世界朝圣，宁玛派圣地古寺祈福\n乘豪华游艇，畅游神湖之上，观雪山古村美景\n针对户外爱好者散客，船游还可与巴松措徒步（景区入口经湖西北角布热村至求子洞段9公里湖岸生态徒步道）以及营地入住等灵活结合，详情可现场咨询。"}}, {"title": "鲁朗林海", "address": "林芝市巴宜区鲁朗镇318国道鲁朗景区", "image": "", "rank": 4, "time": 6.0, "location": {"lat": 29.899925442098414, "lng": 94.83078917498942}, "feature": {"sight_features": "", "sight_content": ""}}, {"title": "尼洋河", "address": "林芝市境内（主要位于工布江达县、巴宜区）", "image": "", "rank": 5, "time": 3.0, "location": {"lat": 29.891367616240817, "lng": 93.25241979667781}, "feature": {"sight_features": "", "sight_content": ""}}, {"title": "南伊沟", "address": "林芝地区米林县南伊沟风景区", "image": "", "rank": 6, "time": 2.5, "location": {"lat": 29.191044584508273, "lng": 94.20258556139954}, "feature": {"sight_features": "", "sight_content": ""}}, {"title": "米堆冰川", "address": "林芝市波密县玉普乡米堆村", "image": "", "rank": 7, "time": 3.0, "location": {"lat": 29.644923506206123, "lng": 96.34960513711285}, "feature": {"sight_features": "", "sight_content": ""}}, {"title": "八一镇", "address": "林芝市巴宜区八一镇", "image": "", "rank": 8, "time": 2.0, "location": {"lat": 29.708169190423067, "lng": 94.34883562359879}, "feature": {"sight_features": "", "sight_content": ""}}, {"title": "色季拉山", "address": "林芝市巴宜区境内（林芝镇东侧）", "image": "", "rank": 9, "time": 1.0, "location": {"lat": 29.602568342851153, "lng": 94.55685853193438}, "feature": {"sight_features": "", "sight_content": ""}}, {"title": "中流砥柱", "address": "林芝市工布江达县尼洋河中流", "image": "", "rank": 10, "time": 0.75, "location": {"lat": 29.891367616240817, "lng": 93.25241979667781}, "feature": {"sight_features": "", "sight_content": ""}}, {"title": "通麦天险", "address": "林芝市波密县易贡乡通麦", "image": "", "rank": 11, "time": 2.5, "location": {"lat": 30.348155630217857, "lng": 94.90054104499804}, "feature": {"sight_features": "", "sight_content": ""}}, {"title": "米拉山口", "address": "林芝市工布江达县与拉萨墨竹工卡县交界处", "image": "", "rank": 12, "time": null, "location": {"lat": 29.891367616240817, "lng": 93.25241979667781}, "feature": {"sight_features": "", "sight_content": ""}}, {"title": "鲁朗镇", "address": "林芝市巴宜区鲁朗镇", "image": "", "rank": 13, "time": 2.0, "location": {"lat": 29.899925442098414, "lng": 94.83078917498942}, "feature": {"sight_features": "", "sight_content": ""}}, {"title": "卡定沟景区", "address": "林芝市巴宜区八一镇卡定沟（拉萨至林芝段距八一镇24公里处）", "image": "", "rank": 14, "time": 3.0, "location": {"lat": 29.708169190423067, "lng": 94.34883562359879}, "feature": {"sight_features": "", "sight_content": ""}}, {"title": "扎西岗村", "address": "林芝市巴宜区东久乡扎西岗村", "image": "", "rank": 15, "time": 3.5, "location": {"lat": 29.64164454637214, "lng": 94.36754427671993}, "feature": {"sight_features": "", "sight_content": ""}}, {"title": "鲁朗花海牧场", "address": "林芝市巴宜区318国道东100米", "image": "", "rank": 16, "time": 6.0, "location": {"lat": 29.64164454637214, "lng": 94.36754427671993}, "feature": {"sight_features": "", "sight_content": ""}}, {"title": "嘎拉桃花村", "address": "林芝市巴宜区（八一镇东南方向约5公里处，近嘎拉村）", "image": "", "rank": 17, "time": 7.5, "location": {"lat": 29.708169190423067, "lng": 94.34883562359879}, "feature": {"sight_features": "", "sight_content": ""}}, {"title": "秀巴千年古堡群", "address": "林芝市工布江达县巴河镇秀巴村", "image": "", "rank": 18, "time": 2.0, "location": {"lat": 30.01225304752462, "lng": 93.75235362451278}, "feature": {"sight_features": "", "sight_content": ""}}, {"title": "世界柏树王园林", "address": "林芝市巴宜区八一镇东南方向", "image": "", "rank": 19, "time": 1.5, "location": {"lat": 29.708169190423067, "lng": 94.34883562359879}, "feature": {"sight_features": "", "sight_content": ""}}, {"title": "墨脱", "address": "林芝市墨脱县", "image": "", "rank": 20, "time": 1.0, "location": {"lat": 29.33093770187824, "lng": 95.3394952975097}, "feature": {"sight_features": "", "sight_content": ""}}, {"title": "直白村", "address": "林芝市米林县派镇", "image": "", "rank": 21, "time": 1.0, "location": {"lat": 29.631560914530127, "lng": 94.92978794607414}, "feature": {"sight_features": "", "sight_content": ""}}, {"title": "岗乡自然保护区", "address": "林芝市波密县帕隆藏布河畔南恻", "image": "", "rank": 22, "time": 2.5, "location": {"lat": 29.865060090548965, "lng": 95.77390012164511}, "feature": {"sight_features": "", "sight_content": ""}}, {"title": "古乡湖", "address": "林芝市波密县古乡", "image": "", "rank": 23, "time": 2.0, "location": {"lat": 29.9626232046007, "lng": 95.38664902006958}, "feature": {"sight_features": "", "sight_content": ""}}, {"title": "比日神山生态景区", "address": "林芝市巴宜区八一镇泉州路", "image": "", "rank": 24, "time": 4.0, "location": {"lat": 29.708169190423067, "lng": 94.34883562359879}, "feature": {"sight_features": "", "sight_content": ""}}, {"title": "米堆村", "address": "林芝市波密县米堆村", "image": "", "rank": 25, "time": 1.5, "location": {"lat": 29.865060090548965, "lng": 95.77390012164511}, "feature": {"sight_features": "", "sight_content": ""}}, {"title": "佛掌沙丘", "address": "林芝市米林县丹娘乡雅鲁藏布江畔", "image": "", "rank": 26, "time": 1.0, "location": {"lat": 29.427026484337055, "lng": 94.75491639172559}, "feature": {"sight_features": "", "sight_content": ""}}, {"title": "多雄拉山", "address": "林芝市境内，墨脱县与米林县交界处", "image": "", "rank": 27, "time": null, "location": {"lat": 29.33093770187824, "lng": 95.3394952975097}, "feature": {"sight_features": "", "sight_content": ""}}, {"title": "尼洋阁藏东南文化博览园", "address": "林芝市巴宜区八一镇娘乳岗", "image": "", "rank": 28, "time": 1.5, "location": {"lat": 29.708169190423067, "lng": 94.34883562359879}, "feature": {"sight_features": "", "sight_content": ""}}, {"title": "太昭古城", "address": "林芝市工布江达县太昭村", "image": "", "rank": 29, "time": 3.5, "location": {"lat": 29.891367616240817, "lng": 93.25241979667781}, "feature": {"sight_features": "", "sight_content": ""}}, {"title": "布久喇嘛岭寺", "address": "林芝市巴宜区布久乡", "image": "", "rank": 30, "time": 1.5, "location": {"lat": 29.481838912212233, "lng": 94.29521622496341}, "feature": {"sight_features": "", "sight_content": ""}}, {"title": "卡定沟天佛瀑布", "address": "林芝市巴宜区八一镇尼洋河畔卡定沟景区内（距离八一镇约24公里）", "image": "", "rank": 31, "time": 1.5, "location": {"lat": 29.708169190423067, "lng": 94.34883562359879}, "feature": {"sight_features": "", "sight_content": ""}}, {"title": "苯日神山", "address": "林芝市巴宜区八一镇附近", "image": "", "rank": 32, "time": 3.0, "location": {"lat": 29.708169190423067, "lng": 94.34883562359879}, "feature": {"sight_features": "特色1 藏东南文化之轴心", "sight_content": "苯日神山——天然灵气道场，千年工布文明（特别适合人群：人文与宗教历史爱好者、美食体验者、自驾或单车旅行者）\n苯日神山旅游区地处林芝市半小时旅游圈内，交通便捷易达，景区内游览公路即林芝市仅有的米朗旅游公路，该游览路线无高海拔山口和危险路段，海拔均在2900余米左右，沿线江河汇流之独有风光大气开阔，灵性飞扬，村落和宗教文化资源丰富，堪称藏东南人文之轴，是西藏原生宗教“苯教”的千年道场。旅游区内现集“尼洋河河口观光、藏东南文化古村落走廊、江河汇流船游、尼洋河美食体验、尼洋河休闲观光漂流，以及连通雅鲁藏布大峡谷的水陆联运观光体验”于一体。\n公路游含：苯日神山门票\n\n线路行程：千年古桑王—止贡赞普墓—苯日神泉—江河汇流观景台—第穆摩崖石刻—曲觉沃寺\n\n\n行程亮点：\n苯日神山朝圣，感受信仰之力   漫步史诗之路，追寻历史遗迹\n产品信息：\n游线总长40公里   用时约2小时\n服务项目：\n导游随车讲解、餐饮、尼洋河休闲观光漂流。\n\n\n两江汇流船游套餐\n含：苯日神山门票+特色餐+短程游艇\n线路行程：\n陆路游览：千年古桑王—止贡赞普墓—苯日神泉   —江河汇流观景台—娘欧码头\n水路游览：由苯日神山娘欧码头出发，沿尼洋河与雅鲁藏布江汇流处乘风破浪。\n\n\n行程亮点：\n西藏高原上和天河雅鲁藏布江上的特色水上游览项目。同时体验藏族母亲河和工布母亲河江河汇流水天一色的雄阔气势。\n在林芝市自然和人文景观最为密集的区域，来一次豪迈灵性的水上飞扬。以雅鲁藏布江野生鱼为主题的风味餐将在许久之后成为味道的回忆。\n产品信息;陆路行程40公里，船游里程15KM。\n需要约3小时：陆路游览约2小时，水路游览约40分钟。  全封闭豪华游艇，专业船员协作和全套水上安全保障。\n运营时间：旅游旺季每天8:00—19:00"}}, {"title": "排龙天险", "address": "林芝市巴宜区排龙门村", "image": "", "rank": 33, "time": 2.0, "location": {"lat": 29.64164454637214, "lng": 94.36754427671993}, "feature": {"sight_features": "", "sight_content": ""}}, {"title": "帕隆藏布江", "address": "林芝市巴宜区", "image": "", "rank": 34, "time": 2, "location": {"lat": 29.64164454637214, "lng": 94.36754427671993}, "feature": {"sight_features": "", "sight_content": ""}}, {"title": "通麦大桥", "address": "林芝市波密县", "image": "", "rank": 35, "time": 0.25, "location": {"lat": 29.865060090548965, "lng": 95.77390012164511}, "feature": {"sight_features": "", "sight_content": ""}}, {"title": "措木及日湖", "address": "林芝市巴宜区八一镇西北方向大约24公里", "image": "", "rank": 36, "time": 3.5, "location": {"lat": 29.708169190423067, "lng": 94.34883562359879}, "feature": {"sight_features": "", "sight_content": ""}}, {"title": "大渡卡遗址", "address": "林芝市米林县派镇，雅鲁藏布大峡谷景区内的直白村附近", "image": "", "rank": 37, "time": 0.4, "location": {"lat": 29.631560914530127, "lng": 94.92978794607414}, "feature": {"sight_features": "", "sight_content": ""}}, {"title": "加拉白垒峰", "address": "林芝市境内，雅鲁藏布江大拐弯外侧的南迦巴瓦峰地区", "image": "", "rank": 38, "time": 2, "location": {"lat": 29.654042176951524, "lng": 94.36805828713257}, "feature": {"sight_features": "", "sight_content": ""}}, {"title": "林芝自然博物馆", "address": "林芝市巴宜区", "image": "", "rank": 39, "time": 2.0, "location": {"lat": 29.64164454637214, "lng": 94.36754427671993}, "feature": {"sight_features": "", "sight_content": ""}}, {"title": "藏布巴东瀑布群", "address": "林芝市境内，雅鲁藏布大峡谷西兴拉山下、距迫隆藏布汇入口约20公里处", "image": "", "rank": 40, "time": 2.0, "location": {"lat": 29.654042176951524, "lng": 94.36805828713257}, "feature": {"sight_features": "", "sight_content": ""}}, {"title": "西藏民俗第一村", "address": "林芝市巴宜区（原林芝县）八一镇公众村（近318国道、尼洋河）", "image": "", "rank": 41, "time": 2.0, "location": {"lat": 29.708169190423067, "lng": 94.34883562359879}, "feature": {"sight_features": "", "sight_content": ""}}, {"title": "喜马拉雅山脉", "address": "贯穿于整个西藏的南部", "image": "", "rank": 42, "time": 2, "location": {"lat": 31.353705301525753, "lng": 106.04357826970909}, "feature": {"sight_features": "", "sight_content": ""}}, {"title": "嘎隆拉雪山", "address": "林芝市墨脱县境内", "image": "", "rank": 43, "time": 3.5, "location": {"lat": 29.33093770187824, "lng": 95.3394952975097}, "feature": {"sight_features": "", "sight_content": ""}}, {"title": "福建园", "address": "林芝市巴宜区八一镇内东南部，广州大道、广福大道附近。", "image": "", "rank": 44, "time": 1.0, "location": {"lat": 29.708169190423067, "lng": 94.34883562359879}, "feature": {"sight_features": "", "sight_content": ""}}, {"title": "仁钦崩寺", "address": "林芝市墨脱县，墨脱村南侧玛拉山上", "image": "", "rank": 45, "time": 1.0, "location": {"lat": 29.33093770187824, "lng": 95.3394952975097}, "feature": {"sight_features": "", "sight_content": ""}}, {"title": "果果塘大拐弯", "address": "林芝市墨脱县境内", "image": "", "rank": 46, "time": 0.5, "location": {"lat": 29.33093770187824, "lng": 95.3394952975097}, "feature": {"sight_features": "", "sight_content": ""}}, {"title": "扎西岛", "address": "林芝市工布江达县错高乡境的巴松措景区内", "image": "", "rank": 47, "time": 0.75, "location": {"lat": 30.111651240207124, "lng": 94.12588019814316}, "feature": {"sight_features": "", "sight_content": ""}}, {"title": "嘎朗湖景区", "address": "林芝市波密县，县城西北方约17公里", "image": "", "rank": 48, "time": 2, "location": {"lat": 29.865060090548965, "lng": 95.77390012164511}, "feature": {"sight_features": "", "sight_content": ""}}, {"title": "纳麦村", "address": "林芝市巴宜区鲁朗镇纳麦村", "image": "", "rank": 49, "time": 0.75, "location": {"lat": 29.899925442098414, "lng": 94.83078917498942}, "feature": {"sight_features": "", "sight_content": ""}}, {"title": "鲁朗五寨", "address": "林芝市巴宜区鲁朗镇鲁朗林海景区内，318国道旁", "image": "", "rank": 50, "time": 2.0, "location": {"lat": 29.619510398666588, "lng": 94.70454979776453}, "feature": {"sight_features": "", "sight_content": ""}}, {"title": "易贡国家地质公园", "address": "林芝市波密县与林芝县交界处", "image": "", "rank": 51, "time": 2, "location": {"lat": 29.865060090548965, "lng": 95.77390012164511}, "feature": {"sight_features": "", "sight_content": ""}}, {"title": "色季拉国家森林公园", "address": "林芝市巴宜区林芝镇东南方向", "image": "", "rank": 52, "time": 4.0, "location": {"lat": 29.602568342851153, "lng": 94.55685853193438}, "feature": {"sight_features": "", "sight_content": ""}}, {"title": "汉妃梳妆台", "address": "林芝市巴宜区广久乡达域龙增村", "image": "", "rank": 53, "time": 1.0, "location": {"lat": 29.64164454637214, "lng": 94.36754427671993}, "feature": {"sight_features": "", "sight_content": ""}}, {"title": "第穆摩崖造像及雕刻", "address": "林芝市巴宜区广久乡", "image": "", "rank": 54, "time": 3.0, "location": {"lat": 29.64164454637214, "lng": 94.36754427671993}, "feature": {"sight_features": "", "sight_content": ""}}, {"title": "仰桑河", "address": "林芝市墨脱县南部", "image": "", "rank": 55, "time": 2, "location": {"lat": 29.33093770187824, "lng": 95.3394952975097}, "feature": {"sight_features": "", "sight_content": ""}}, {"title": "德木冷泉河", "address": "林芝市林芝县鲁朗景区内", "image": "", "rank": 56, "time": 1.0, "location": {"lat": 29.654042176951524, "lng": 94.36805828713257}, "feature": {"sight_features": "", "sight_content": ""}}, {"title": "德木寺遗址", "address": "林芝市巴宜区鲁朗镇，鲁朗林海景区鲁朗五寨内", "image": "", "rank": 57, "time": 0.75, "location": {"lat": 29.619510398666588, "lng": 94.70454979776453}, "feature": {"sight_features": "", "sight_content": ""}}, {"title": "江河汇流", "address": "林芝市米林县境内羌纳村附近", "image": "", "rank": 58, "time": null, "location": {"lat": 29.220916541197315, "lng": 94.21993857808282}, "feature": {"sight_features": "", "sight_content": ""}}, {"title": "琼果林景区", "address": "林芝市巴宜区布久乡", "image": "", "rank": 59, "time": 2, "location": {"lat": 29.481838912212233, "lng": 94.29521622496341}, "feature": {"sight_features": "", "sight_content": ""}}, {"title": "帕隆藏布大峡谷", "address": "林芝市巴宜区境内", "image": "", "rank": 60, "time": 2, "location": {"lat": 29.64164454637214, "lng": 94.36754427671993}, "feature": {"sight_features": "", "sight_content": ""}}]}