{"cityName": "黎平", "days": 2, "cityImage": "", "spots": [{"title": "肇兴侗寨", "address": "黔东南苗族侗族自治州黎平县肇兴镇", "image": "", "rank": 1, "time": 4.5, "location": {"lat": 25.942669988056736, "lng": 109.17597487344547}, "feature": {"sight_features": "特色1 世界上最大的民族博物馆之一。 特色2 联合国世界文化基金会确定为全球\"返扑归真，回归自然\"十大旅游首选地之一。 特色3 世界乡土文化保护基金会授予的全球18个生态文化保护圈之一。", "sight_content": "肇兴侗寨，位于贵州省黔东南苗族侗族自治州黎平县，是黔东南侗族地区较大的侗族村寨之一。占地18万平方米，居民800余户，4000多人。\n肇兴侗寨四面环山，寨子建于山中盆地，一条小河穿寨而过。寨中房屋为干栏式吊脚楼，鳞次栉比，错落有致，全部用杉木建造，硬山顶覆小青瓦，古朴实用。肇兴侗寨全为陆姓侗族，分为五大房族，分居五个自然片区，当地称之为\"团\"。分为仁团、义团、礼团、智团、信团五团。肇兴不仅是鼓楼之乡，而且是歌舞之乡，寨上有侗歌队、侗戏班。\n黎平到肇兴只有40公里，肇兴是一个镇级单位，肇兴有5个自然村（寨）分别称为“仁、义、礼、智、信”。共建有鼓楼五座，花桥五座、戏台五座。其中以智寨鼓楼最为美观。如果你想尽可能地捕捉到信息量更丰富的画面，一支广角镜头是少不了的。拍摄时一方面要采取低角度拍摄，同时也要注意因此而来的眩光问题。\n\n\n近年来随着当地旅游业的发展，这座西南腹地的古老村寨开始频繁的出现在旅游媒体和互联网上。走进肇兴侗寨，看着老街上兀自奔跑的小孩，缓慢前行的老人，以及凝聚了百年风尘的鼓楼群，你先不用急着举起相机，在这里，可以被放慢的不仅是快门，还有你的生活节奏。\n虽然肇兴是一个出名的旅游景点，但由于贵州自身地势的特殊性而相对封闭，跟中国很多的旅游城市比起来，肇兴的商业味道并不浓。居民有着自己的日常生活，丝毫不理会身边的背包客们好奇的目光和咔嚓咔嚓的快门声。他们，有他们自己的生活，并没有因为外人的到来而改变多少。"}}, {"title": "堂安侗寨", "address": "黔东南苗族侗族自治州黎平县肇兴乡", "image": "", "rank": 2, "time": 3.0, "location": {"lat": 25.913294182728833, "lng": 109.18805345070152}, "feature": {"sight_features": "", "sight_content": ""}}, {"title": "肇兴鼓楼群", "address": "黔东南苗族侗族自治州黎平县肇兴乡", "image": "", "rank": 3, "time": 2.5, "location": {"lat": 25.913294182728833, "lng": 109.18805345070152}, "feature": {"sight_features": "", "sight_content": ""}}, {"title": "地扪侗寨", "address": "黔东南苗族侗族自治州黎平县茅贡乡地扪村", "image": "", "rank": 4, "time": 1.0, "location": {"lat": 26.18010678519404, "lng": 108.86777843679147}, "feature": {"sight_features": "", "sight_content": ""}}, {"title": "翘街", "address": "黔东南苗族侗族自治州黎平县德凤镇", "image": "", "rank": 5, "time": 1.5, "location": {"lat": 26.235652974770467, "lng": 109.14409832636657}, "feature": {"sight_features": "", "sight_content": ""}}, {"title": "地坪风雨桥", "address": "黔东南苗族侗族自治州黎平县地坪乡", "image": "", "rank": 6, "time": 0.5, "location": {"lat": 25.76931919510371, "lng": 109.24808562509921}, "feature": {"sight_features": "", "sight_content": ""}}, {"title": "黎平会议会址", "address": "黔东南苗族侗族自治州黎平县城德凤镇二郎坡52号", "image": "", "rank": 7, "time": 0.75, "location": {"lat": 26.23809973440152, "lng": 109.14653691501164}, "feature": {"sight_features": "", "sight_content": ""}}, {"title": "黄岗侗寨", "address": "黔东南苗族侗族自治州黎平县双江乡", "image": "", "rank": 8, "time": 3.0, "location": {"lat": 25.967637514286643, "lng": 108.91144115639489}, "feature": {"sight_features": "", "sight_content": ""}}, {"title": "黎平天生桥", "address": "黔东南黎平县高屯镇境内", "image": "", "rank": 9, "time": 1.0, "location": {"lat": 26.33890352484669, "lng": 109.17428622796872}, "feature": {"sight_features": "", "sight_content": ""}}, {"title": "堂安生态博物馆", "address": "黔东南黎平县肇兴乡堂安村", "image": "", "rank": 10, "time": 1.0, "location": {"lat": 25.904115742427756, "lng": 109.2215676428602}, "feature": {"sight_features": "", "sight_content": ""}}, {"title": "黎平国家森林公园", "address": "黔东南州黎平县", "image": "", "rank": 11, "time": 3.0, "location": {"lat": 26.236874050191798, "lng": 109.14356697147115}, "feature": {"sight_features": "", "sight_content": ""}}, {"title": "太平山", "address": "黔东南黎平县德顺乡境内", "image": "", "rank": 12, "time": 4.0, "location": {"lat": 26.19549122504536, "lng": 109.34618869665853}, "feature": {"sight_features": "", "sight_content": ""}}, {"title": "四寨村", "address": "黔东南苗族侗族自治州黎平县双江镇四寨村", "image": "", "rank": 13, "time": 1.5, "location": {"lat": 25.96665605048804, "lng": 108.93313026682424}, "feature": {"sight_features": "", "sight_content": ""}}, {"title": "红军桥", "address": "黔东南苗族侗族自治州黎平县高屯镇少寨村", "image": "", "rank": 14, "time": 0.25, "location": {"lat": 26.33890352484669, "lng": 109.17428622796872}, "feature": {"sight_features": "", "sight_content": ""}}, {"title": "纪堂鼓楼", "address": "黔东南苗族侗族自治州黎平县肇兴乡纪堂寨", "image": "", "rank": 15, "time": 1.0, "location": {"lat": 25.913294182728833, "lng": 109.18805345070152}, "feature": {"sight_features": "", "sight_content": ""}}, {"title": "登岑侗寨", "address": "黔东南苗族侗族自治州黎平县茅贡乡登岑侗族村寨", "image": "", "rank": 16, "time": 1.0, "location": {"lat": 26.147422649114713, "lng": 108.87374273173148}, "feature": {"sight_features": "", "sight_content": ""}}, {"title": "德凤镇", "address": "黔东南苗族侗族自治州黎平县德凤镇", "image": "", "rank": 17, "time": 1.5, "location": {"lat": 26.235652974770467, "lng": 109.14409832636657}, "feature": {"sight_features": "", "sight_content": ""}}, {"title": "述洞侗寨", "address": "黔东南苗族侗族自治州黎平县岩洞镇述洞村", "image": "", "rank": 18, "time": 1.5, "location": {"lat": 26.109384994049826, "lng": 108.93332949481677}, "feature": {"sight_features": "", "sight_content": ""}}, {"title": "厦格上寨", "address": "黔东南苗族侗族自治州黎平县厦格上寨村", "image": "", "rank": 19, "time": 1.5, "location": {"lat": 25.90652435904284, "lng": 109.21586488867102}, "feature": {"sight_features": "", "sight_content": ""}}, {"title": "鸬鹚架", "address": "黔东南苗族侗族自治州黎平县高屯镇下乌鸦寨", "image": "", "rank": 20, "time": 0.4, "location": {"lat": 26.356298309663497, "lng": 109.18429858307786}, "feature": {"sight_features": "", "sight_content": ""}}, {"title": "黎平两湖会馆", "address": "黔东南黎平县德凤镇二郎坡", "image": "", "rank": 21, "time": 1.0, "location": {"lat": 26.23809973440152, "lng": 109.14653691501164}, "feature": {"sight_features": "", "sight_content": ""}}, {"title": "新洞村", "address": "", "image": "", "rank": 22, "time": 2, "location": {"lat": 28.56917016313019, "lng": 112.19736667463722}, "feature": {"sight_features": "", "sight_content": ""}}, {"title": "南泉山", "address": "黔东南黎平县城南1.5公里", "image": "", "rank": 23, "time": null, "location": {"lat": 26.236874050191798, "lng": 109.14356697147115}, "feature": {"sight_features": "", "sight_content": ""}}, {"title": "石龙山景区", "address": "黔东南黎平县城西北部，距德凤古城5公里", "image": "", "rank": 24, "time": 1.0, "location": {"lat": 26.236874050191798, "lng": 109.14356697147115}, "feature": {"sight_features": "", "sight_content": ""}}, {"title": "何腾蛟墓", "address": "黔东南苗族侗族自治州黎平县城德凤镇西面的西佛崖", "image": "", "rank": 25, "time": 0.25, "location": {"lat": 26.235652974770467, "lng": 109.14409832636657}, "feature": {"sight_features": "", "sight_content": ""}}, {"title": "秦溪白塔景区", "address": "黔东南黎平县秦溪村", "image": "", "rank": 26, "time": 1.0, "location": {"lat": 26.39176858425369, "lng": 109.05007309110908}, "feature": {"sight_features": "", "sight_content": ""}}, {"title": "飞龙洞", "address": "黎平县城北部，黎锦公路右侧", "image": "", "rank": 27, "time": 1.0, "location": {"lat": 26.236874050191798, "lng": 109.14356697147115}, "feature": {"sight_features": "", "sight_content": ""}}, {"title": "八舟河景区", "address": "黔东南州黎平县境内", "image": "", "rank": 28, "time": 1.0, "location": {"lat": 26.236874050191798, "lng": 109.14356697147115}, "feature": {"sight_features": "", "sight_content": ""}}, {"title": "仙人岩", "address": "黔东南黎平县八舟村唐家湾", "image": "", "rank": 29, "time": 1.0, "location": {"lat": 26.32953092909595, "lng": 109.14330235222732}, "feature": {"sight_features": "", "sight_content": ""}}, {"title": "羊角岩战斗遗址", "address": "黎平县岩洞镇新洞村", "image": "", "rank": 30, "time": 1.0, "location": {"lat": 26.117300898244867, "lng": 109.02168467420563}, "feature": {"sight_features": "", "sight_content": ""}}, {"title": "东风林场", "address": "黎平县城东北11.5公里，锦榕公路由东北向西南穿境而过", "image": "", "rank": 31, "time": 1.0, "location": {"lat": 37.43409090422253, "lng": 101.8095690383313}, "feature": {"sight_features": "", "sight_content": ""}}, {"title": "黎平会议陈云同志住址", "address": "二郎坡52号", "image": "", "rank": 32, "time": 4.5, "location": {"lat": 32.98200496747488, "lng": 113.30769798526826}, "feature": {"sight_features": "", "sight_content": ""}}, {"title": "梁山坡", "address": "贵州黔东南黎平县永从乡九龙村", "image": "", "rank": 33, "time": 2, "location": {"lat": 26.06286860687986, "lng": 109.0886371660803}, "feature": {"sight_features": "", "sight_content": ""}}, {"title": "夜郎潭风景区", "address": "黎平县", "image": "", "rank": 34, "time": 2, "location": {"lat": 26.236874050191798, "lng": 109.14356697147115}, "feature": {"sight_features": "", "sight_content": ""}}, {"title": "《侗族大歌》表演", "address": "黔东南州黎平县大坡侗族大歌实景演出景区", "image": "", "rank": 35, "time": 2, "location": {"lat": 26.448061142241215, "lng": 108.83477089971993}, "feature": {"sight_features": "", "sight_content": ""}}, {"title": "上地坪萨岁山", "address": "贵州省黔东南苗族侗族自治州黎平县", "image": "", "rank": 36, "time": 2, "location": {"lat": 26.236874050191798, "lng": 109.14356697147115}, "feature": {"sight_features": "", "sight_content": ""}}, {"title": "竹坪村", "address": "黔东南苗族侗族自治州黎平县岩洞镇东南面12公里处竹坪村", "image": "", "rank": 37, "time": 1.0, "location": {"lat": 26.08799043377625, "lng": 109.03534572621024}, "feature": {"sight_features": "", "sight_content": ""}}, {"title": "古邦侗寨", "address": "黔东南苗族侗族自治州镇黎平县龙额镇古邦（帮）村", "image": "", "rank": 38, "time": 1.0, "location": {"lat": 25.837079572562576, "lng": 109.26189160522323}, "feature": {"sight_features": "", "sight_content": ""}}, {"title": "独柱鼓楼", "address": "黔东南苗族侗族自治州黎平县岩洞镇述洞村内", "image": "", "rank": 39, "time": 0.25, "location": {"lat": 26.09737420826226, "lng": 108.98688236135287}, "feature": {"sight_features": "", "sight_content": ""}}, {"title": "弄相山森林公园", "address": "黔东南苗族侗族自治州黎平县地坪乡境内", "image": "", "rank": 40, "time": 1.5, "location": {"lat": 25.76931919510371, "lng": 109.24808562509921}, "feature": {"sight_features": "", "sight_content": ""}}, {"title": "贵州肇兴山水云天度假村", "address": "贵州省黔东南苗族侗族自治州黎平县肇兴侗寨景区内,近肇兴博物馆旁", "image": "", "rank": 41, "time": 2, "location": {"lat": 25.91322374688852, "lng": 109.188023495806}, "feature": {"sight_features": "", "sight_content": ""}}, {"title": "侗寨表演", "address": "肇兴侗寨表演场", "image": "", "rank": 42, "time": 2, "location": {"lat": 25.911923447969144, "lng": 109.17176311865653}, "feature": {"sight_features": "", "sight_content": ""}}, {"title": "高近村", "address": "贵州省黎平县茅贡乡高近村 557303", "image": "", "rank": 43, "time": 2, "location": {"lat": 26.17029910571983, "lng": 108.90334202493655}, "feature": {"sight_features": "", "sight_content": ""}}, {"title": "邓蒙苗寨", "address": "贵州省黎平县大稼乡 557316", "image": "", "rank": 44, "time": 2, "location": {"lat": 26.38671858973123, "lng": 108.89089354433605}, "feature": {"sight_features": "", "sight_content": ""}}, {"title": "世界花卉园", "address": "府坝路与贡援坡交汇处南侧10米", "image": "", "rank": 45, "time": 2, "location": {"lat": 21.61284672041531, "lng": 110.28820210352386}, "feature": {"sight_features": "", "sight_content": ""}}, {"title": "信仰与图腾厅", "address": "贵州省黔东南苗族侗族自治州黎平县肇兴镇肇兴景区肇兴·侗族文化展示中心内", "image": "", "rank": 46, "time": 2, "location": {"lat": 25.914561628095388, "lng": 109.170234129018}, "feature": {"sight_features": "", "sight_content": ""}}, {"title": "星期六儿童乐园", "address": "贵州省黔东南苗族侗族自治州黎平县平街", "image": "", "rank": 47, "time": 2, "location": {"lat": 26.2343309435679, "lng": 109.14560006500915}, "feature": {"sight_features": "", "sight_content": ""}}, {"title": "儿童成长主题乐园", "address": "黔东南苗族侗族自治州黎平县", "image": "", "rank": 48, "time": 2, "location": {"lat": 26.236874050191798, "lng": 109.14356697147115}, "feature": {"sight_features": "", "sight_content": ""}}, {"title": "黎平·黔湘桂原住民靛染文化博物...", "address": "黔东南苗族侗族自治州黎平县肇兴镇肇兴景区内", "image": "", "rank": 49, "time": 2, "location": {"lat": 25.912584098077982, "lng": 109.19027574265105}, "feature": {"sight_features": "", "sight_content": ""}}, {"title": "出生与丧葬厅", "address": "黔东南苗族侗族自治州黎平县肇兴镇肇兴景区肇兴·侗族文化展示中心内", "image": "", "rank": 50, "time": 2, "location": {"lat": 25.914561628095388, "lng": 109.170234129018}, "feature": {"sight_features": "", "sight_content": ""}}, {"title": "黎平.黔湘桂原住民靛染文化博物...", "address": "贵州省黔东南苗族侗族自治州黎平县东门街", "image": "", "rank": 51, "time": 4.5, "location": {"lat": 26.238158412845486, "lng": 109.14637776941093}, "feature": {"sight_features": "", "sight_content": ""}}, {"title": "南泉山广场", "address": "贵州省黔东南苗族侗族自治州黎平县S202(黎阳中路)", "image": "", "rank": 52, "time": 2, "location": {"lat": 26.2304332127496, "lng": 109.14457344643877}, "feature": {"sight_features": "", "sight_content": ""}}, {"title": "贝贝佳儿童成长主题乐园", "address": "黎平县平街聚富广场二楼203号", "image": "", "rank": 53, "time": 2, "location": {"lat": 26.23584775456206, "lng": 109.14028460985065}, "feature": {"sight_features": "", "sight_content": ""}}, {"title": "福音堂", "address": "开泰路12号", "image": "", "rank": 54, "time": 1.0, "location": {"lat": 26.242316107390707, "lng": 109.14287437792318}, "feature": {"sight_features": "", "sight_content": ""}}, {"title": "仁团鼓楼", "address": "肇兴镇肇兴景区内", "image": "", "rank": 55, "time": 2, "location": {"lat": 25.912584098077982, "lng": 109.19027574265105}, "feature": {"sight_features": "", "sight_content": ""}}, {"title": "Tang'an Dong Village", "address": "South of Liping County, Liping county 557300, China", "image": "", "rank": 56, "time": 2, "location": {"lat": 24.516346556966813, "lng": 117.67839946208608}, "feature": {"sight_features": "", "sight_content": ""}}, {"title": "黎平县图书馆", "address": "福寿街", "image": "", "rank": 57, "time": 2, "location": {"lat": 39.41064429630744, "lng": 121.96401254497135}, "feature": {"sight_features": "", "sight_content": ""}}, {"title": "黎平城市规划展览厅", "address": "黎阳中路", "image": "", "rank": 58, "time": 4.5, "location": {"lat": 26.2304332127496, "lng": 109.14457344643877}, "feature": {"sight_features": "", "sight_content": ""}}, {"title": "黎平会议会址纪念馆", "address": "翘街内", "image": "", "rank": 59, "time": 4.5, "location": {"lat": 26.236705650331533, "lng": 109.1455839673744}, "feature": {"sight_features": "", "sight_content": ""}}]}