{"cityName": "理塘", "days": 2, "cityImage": "", "spots": [{"title": "长青春科尔寺", "address": "甘孜藏族自治州理塘县长青路", "image": "", "rank": 1, "time": 1.5, "location": {"lat": 30.00382950382151, "lng": 100.27663628097284}, "feature": {"sight_features": "", "sight_content": ""}}, {"title": "格聂神山", "address": "甘孜州康南理塘县热柯乡", "image": "", "rank": 2, "time": 1.0, "location": {"lat": 30.000030621750792, "lng": 100.27557457997872}, "feature": {"sight_features": "", "sight_content": ""}}, {"title": "理塘县", "address": "四川省甘孜藏族自治州西南部", "image": "", "rank": 3, "time": 2, "location": {"lat": 30.05527884351838, "lng": 101.96854674579022}, "feature": {"sight_features": "", "sight_content": ""}}, {"title": "白塔公园", "address": "甘孜藏族自治州理塘县白塔街", "image": "", "rank": 4, "time": 0.5, "location": {"lat": 29.9961685218257, "lng": 100.2707441564644}, "feature": {"sight_features": "", "sight_content": ""}}, {"title": "理塘草原", "address": "在甘孜州理塘县县城以西", "image": "", "rank": 5, "time": 10.5, "location": {"lat": 30.000030621750792, "lng": 100.27557457997872}, "feature": {"sight_features": "", "sight_content": ""}}, {"title": "扎嘎神山", "address": "甘孜藏族自治州理塘县扎嘎神山风景区", "image": "", "rank": 6, "time": 0.5, "location": {"lat": 29.87434685803924, "lng": 100.3451900128668}, "feature": {"sight_features": "", "sight_content": ""}}, {"title": "冷谷寺", "address": "格聂圣山与肖扎神山峡谷之中", "image": "", "rank": 7, "time": 2, "location": {"lat": 30.101147802460627, "lng": 96.28163558275183}, "feature": {"sight_features": "", "sight_content": ""}}, {"title": "肖扎湖", "address": "理塘县肖扎圣山东面半山腰", "image": "", "rank": 8, "time": 2, "location": {"lat": 29.850115978867464, "lng": 99.65041113642816}, "feature": {"sight_features": "", "sight_content": ""}}, {"title": "虎皮坝", "address": "四川省理塘县虎皮坝", "image": "", "rank": 9, "time": 2, "location": {"lat": 30.000030621750792, "lng": 100.27557457997872}, "feature": {"sight_features": "", "sight_content": ""}}, {"title": "铁匠山垭口", "address": "四川省理塘县铁匠山", "image": "", "rank": 10, "time": 2, "location": {"lat": 30.000030621750792, "lng": 100.27557457997872}, "feature": {"sight_features": "", "sight_content": ""}}, {"title": "拥军温泉", "address": "幸福西路485号", "image": "", "rank": 11, "time": 2, "location": {"lat": 29.99440106602806, "lng": 100.22687573298401}, "feature": {"sight_features": "", "sight_content": ""}}, {"title": "圣泉山庄", "address": "幸福西路485号", "image": "", "rank": 12, "time": 2, "location": {"lat": 29.99440106602806, "lng": 100.22687573298401}, "feature": {"sight_features": "", "sight_content": ""}}, {"title": "乃干多", "address": "四川省甘孜藏族自治州理塘县乃干多村", "image": "", "rank": 13, "time": 2, "location": {"lat": 29.797009278397972, "lng": 99.7588600114069}, "feature": {"sight_features": "", "sight_content": ""}}, {"title": "理塘格萨尔王度假村", "address": "泸定理塘县国税局前行200米", "image": "", "rank": 14, "time": 1.5, "location": {"lat": 29.92040166495139, "lng": 102.24143209630797}, "feature": {"sight_features": "", "sight_content": ""}}, {"title": "藏族自治州五世嘉木样故居", "address": "城西河路", "image": "", "rank": 16, "time": 2, "location": {"lat": 30.016908825156833, "lng": 122.10182823892124}, "feature": {"sight_features": "", "sight_content": ""}}, {"title": "波日桥 Bori Bridge", "address": "四川省新龙县乐安乡", "image": "", "rank": 17, "time": 2, "location": {"lat": 31.238572760830007, "lng": 100.39814201849019}, "feature": {"sight_features": "", "sight_content": ""}}, {"title": "尼伊公村", "address": "甘孜藏族自治州-理塘县", "image": "", "rank": 18, "time": 2, "location": {"lat": 30.000030621750792, "lng": 100.27557457997872}, "feature": {"sight_features": "", "sight_content": ""}}, {"title": "埃地村", "address": "甘孜藏族自治州-理塘县", "image": "", "rank": 19, "time": 2, "location": {"lat": 30.000030621750792, "lng": 100.27557457997872}, "feature": {"sight_features": "", "sight_content": ""}}, {"title": "下则通", "address": "四川省甘孜藏族自治州理塘县下则通村", "image": "", "rank": 20, "time": 2, "location": {"lat": 29.82895019677534, "lng": 99.77947011498682}, "feature": {"sight_features": "", "sight_content": ""}}, {"title": "肖扎峰", "address": "四川省甘孜藏族自治州理塘县肖扎", "image": "", "rank": 21, "time": 2, "location": {"lat": 29.850115978867464, "lng": 99.65041113642816}, "feature": {"sight_features": "", "sight_content": ""}}, {"title": "肖扎沟", "address": "四川省甘孜藏族自治州理塘县肖扎", "image": "", "rank": 22, "time": 2, "location": {"lat": 29.850115978867464, "lng": 99.65041113642816}, "feature": {"sight_features": "", "sight_content": ""}}, {"title": "禾尼乡", "address": "甘孜藏族自治州理塘县禾尼乡", "image": "", "rank": 23, "time": 2, "location": {"lat": 30.225007831886096, "lng": 99.83064142558041}, "feature": {"sight_features": "", "sight_content": ""}}, {"title": "熊宗卡", "address": "甘孜藏族自治州雅江县G318(沪聂线)", "image": "", "rank": 24, "time": 2, "location": {"lat": 30.037568967863947, "lng": 101.02050035294431}, "feature": {"sight_features": "", "sight_content": ""}}, {"title": "肖扎瀑布", "address": "四川省甘孜藏族自治州理塘县肖扎", "image": "", "rank": 25, "time": 2, "location": {"lat": 29.850115978867464, "lng": 99.65041113642816}, "feature": {"sight_features": "", "sight_content": ""}}, {"title": "二郎寺", "address": "甘孜藏族自治州理塘县奔戈乡", "image": "", "rank": 26, "time": 2, "location": {"lat": 29.902795123469165, "lng": 100.32584491927508}, "feature": {"sight_features": "", "sight_content": ""}}]}