{"cityName": "柳林", "days": 2, "cityImage": "", "spots": [{"title": "昌盛生态园", "address": "吕梁市柳林县陈家湾乡龙门塔村", "image": "", "rank": 1, "time": 2, "location": {"lat": 37.417566519355105, "lng": 110.96221770478144}, "feature": {"sight_features": "", "sight_content": ""}}, {"title": "黄河三峡母亲峰", "address": "吕梁市柳林县021乡道西50米", "image": "", "rank": 2, "time": null, "location": {"lat": 37.43549296493386, "lng": 110.89538983929958}, "feature": {"sight_features": "", "sight_content": ""}}, {"title": "闯王寨", "address": "山西省柳林县黄河三峡母亲峰景区内", "image": "", "rank": 3, "time": 2, "location": {"lat": 37.49234430751412, "lng": 110.76418096947717}, "feature": {"sight_features": "", "sight_content": ""}}, {"title": "柳林县桃花村农家乐", "address": "薛苇公路高家沟村西3KM处", "image": "", "rank": 4, "time": 2, "location": {"lat": 37.34753841614815, "lng": 110.7166441672119}, "feature": {"sight_features": "", "sight_content": ""}}, {"title": "柳林水上乐园", "address": "清河西路县委清河对岸", "image": "", "rank": 5, "time": 2.5, "location": {"lat": 42.552494793453334, "lng": 124.16556298034286}, "feature": {"sight_features": "", "sight_content": ""}}, {"title": "闯王寨-游客休息区", "address": "榆林市清涧县黄河三峡母亲峰景区闯王寨内", "image": "", "rank": 6, "time": 2, "location": {"lat": 37.236893885013835, "lng": 110.63658487780565}, "feature": {"sight_features": "", "sight_content": ""}}, {"title": "金家庄广宁寺", "address": "248省道附近", "image": "", "rank": 7, "time": 2, "location": {"lat": 39.84675612061214, "lng": 115.2872916250802}, "feature": {"sight_features": "", "sight_content": ""}}, {"title": "三教寺", "address": "薛苇公路西50米", "image": "", "rank": 8, "time": 7.5, "location": {"lat": 37.34753841614815, "lng": 110.7161950144569}, "feature": {"sight_features": "", "sight_content": ""}}, {"title": "清河文化雕塑园", "address": "南门路与清河东路交叉口西北200米", "image": "", "rank": 9, "time": null, "location": {"lat": 37.44905901470093, "lng": 110.91424369722445}, "feature": {"sight_features": "", "sight_content": ""}}, {"title": "老爷庙", "address": "307国道附近", "image": "", "rank": 10, "time": 2, "location": {"lat": 38.073000928506836, "lng": 114.40128804973918}, "feature": {"sight_features": "", "sight_content": ""}}, {"title": "双塔寺", "address": "双塔北路与双塔南路交叉口西北150米", "image": "", "rank": 11, "time": 1.5, "location": {"lat": 35.149587570893736, "lng": 110.78028426803223}, "feature": {"sight_features": "", "sight_content": ""}}, {"title": "晋华照相馆旧址", "address": "明清中街52号附近", "image": "", "rank": 12, "time": 2, "location": {"lat": 37.441390972009366, "lng": 110.90300881748246}, "feature": {"sight_features": "", "sight_content": ""}}, {"title": "双泉沟文昌庙", "address": "南门路与清河东路交叉口北200米", "image": "", "rank": 13, "time": 2, "location": {"lat": 37.4504914463218, "lng": 110.9160403082444}, "feature": {"sight_features": "", "sight_content": ""}}, {"title": "老爷庙", "address": "吕梁市柳林县", "image": "", "rank": 14, "time": 2, "location": {"lat": 37.43549296493386, "lng": 110.89538983929958}, "feature": {"sight_features": "", "sight_content": ""}}, {"title": "华佗庙", "address": "山西省吕梁市柳林县", "image": "", "rank": 15, "time": 2, "location": {"lat": 37.43549296493386, "lng": 110.89538983929958}, "feature": {"sight_features": "", "sight_content": ""}}, {"title": "华严寺", "address": "307国道西100米", "image": "", "rank": 16, "time": 0.75, "location": {"lat": 38.073000928506836, "lng": 114.4003897442292}, "feature": {"sight_features": "", "sight_content": ""}}, {"title": "离石县抗日民主政府旧址", "address": "470县道附近", "image": "", "rank": 17, "time": 2, "location": {"lat": 37.61641018755169, "lng": 110.83680909123014}, "feature": {"sight_features": "", "sight_content": ""}}, {"title": "汇丰广场", "address": "体育路附近", "image": "", "rank": 18, "time": 2, "location": {"lat": 37.077619308586534, "lng": 115.15794488598672}, "feature": {"sight_features": "", "sight_content": ""}}, {"title": "文化广场", "address": "石家沟北路与贺昌大街交叉口东150米", "image": "", "rank": 19, "time": 1.5, "location": {"lat": 37.44160400108307, "lng": 110.90850048694645}, "feature": {"sight_features": "", "sight_content": ""}}, {"title": "喜洋洋乐园", "address": "加油站附近", "image": "", "rank": 20, "time": 2, "location": {"lat": 24.09701218694945, "lng": 108.252842276359}, "feature": {"sight_features": "", "sight_content": ""}}, {"title": "龙泉红枣专业合作社", "address": "高家沟乡阴塔村往北30米门牌号127", "image": "", "rank": 21, "time": 2, "location": {"lat": 37.363972760373294, "lng": 110.74065321989913}, "feature": {"sight_features": "", "sight_content": ""}}, {"title": "工艺画廊", "address": "柳林镇十八米街特步三楼", "image": "", "rank": 22, "time": 2, "location": {"lat": 37.44031580277631, "lng": 110.90392958063019}, "feature": {"sight_features": "", "sight_content": ""}}, {"title": "庄上镇图书阅览室", "address": "248省道东50米", "image": "", "rank": 23, "time": 2, "location": {"lat": 39.84675612061214, "lng": 115.28774077783518}, "feature": {"sight_features": "", "sight_content": ""}}, {"title": "香严寺", "address": "山西省柳林县仓房镇", "image": "", "rank": 24, "time": 1.0, "location": {"lat": 37.43549296493386, "lng": 110.89538983929958}, "feature": {"sight_features": "", "sight_content": ""}}]}