{"cityName": "柳州", "days": "3", "cityImage": "", "spots": [{"title": "龙潭公园", "address": "柳州市鱼峰区大龙潭风景区", "image": "", "rank": 1, "time": 3.5, "location": {"lat": 24.284035947068674, "lng": 109.42131967091044}, "feature": {"sight_features": "", "sight_content": ""}}, {"title": "程阳八寨", "address": "柳州市三江侗族自治县古宜镇北20公里处平岩村", "image": "", "rank": 2, "time": 9.0, "location": {"lat": 25.902901863687934, "lng": 109.6527668943267}, "feature": {"sight_features": "特色1 漫步风光优美的侗寨，参观历史悠久的程阳风雨桥，感受侗族风情。 特色2 别具一格的建筑技艺和雄伟风姿而闻名于世 特色3 侗寨风雨桥是中国木建筑中的艺术珍品。", "sight_content": "广西三江县的侗族程阳八寨被誉为中国最美的小镇之一，广三江县的侗族村寨多位于山坡下的河溪边。村寨内的吊脚木楼、鼓楼、风雨桥与周边大山、小河、田野构成了别致而独特的美景，金秋时节吸引国内外游客纷至沓来。 三江侗寨中的风雨桥，要数程阳风雨桥著名。\n三江侗族自治县，拥有中国最完好、数量最多、分布最集中的侗族建筑群之一。据说很久很久以前，程阳本是荒芜之地，直至两位叫“程”和“阳”的男子一个自北，一个从南携家眷至此，架屋定居，开荒种田，生息繁衍；再后来，杨、吴、陈、李、石等姓氏人家又先后迁至此处，与程、阳两姓共同建设这片古老的家园。大伙儿都公认程、阳二氏是这块土地的祖先，于是称之为“程阳”。\n\n位于广西柳州市三江侗族自治县的程阳八寨，距三江县城19公里。 自清朝以来，逐渐形成马安、岩寨、平寨、大寨、董寨、吉昌、平坦、平甫八个自然村落，所以俗称“程阳八寨”。这里居住着近万侗族人民，这里节日盛多，有\"百节之乡\"的美誉，尤其春节到来时，村村沸腾、寨寨欢歌、处处一片喜气洋洋。\n尤其是坐落在三江林溪河上的程阳风雨桥，是侗族风雨桥的代表。它是规模最大、造型最美、最有特色的桥之一。程阳桥建于1912年，是一座四孔五墩伸臂木梁桥，分成桥墩、桥身两部分。墩底是菱形墩座；桥身为四柱抬楼式建筑，数个高出桥身的瓦顶飞檐翅起、美丽壮观。长廊和楼亭的瓦檐头均有雕刻绘画，人物、山水、花、兽类色泽鲜艳，栩栩如生，是中国木建筑中的艺术珍品。"}}, {"title": "柳侯公园", "address": "广西壮族自治区柳州市城中区文惠路60号(博物馆对面)", "image": "", "rank": 3, "time": 1.5, "location": {"lat": 24.32172295923577, "lng": 109.42153656228422}, "feature": {"sight_features": "", "sight_content": ""}}, {"title": "百里柳江旅游景区", "address": "柳州市鱼峰区，流经城中区、柳南区等地", "image": "", "rank": 4, "time": 1.5, "location": {"lat": 24.318521699514562, "lng": 109.44941628225213}, "feature": {"sight_features": "特色1 览遍柳州城区繁华景致，乘船夜游也是非常不错的体验。", "sight_content": "每当花灯初上，百里柳江两岸霓虹闪烁，，繁华街区人头攒动浮雕，市区沿江山体、瀑布、音乐喷泉在色彩景观灯的照耀下，犹如一串晶莹剔透的彩色夜明珠，倒映在恍若银河的九曲柳江，汇成龙城夜色中魅力的人间美景。\n东台山（灯台山）位于水南路中段北侧。东南——西北走向，长约300米，海拔195.2米。《马平县志》载：“其一崖面江，相传有龙须带浮于水面，又名龙须崖。”至今仍见崖壁内陷处，藤蔓攀延，根须浮水面。因其形如台，故东台山，时至黄昏，夕阳晖洒在东台绝壁上，辉煌得不可端视。烛照河面，渔歌唱晚浆摇波涌，光艳盈江。\n【瑞通一号豪华游轮】\n“瑞通1号”豪华游轮总造价2000万元，是广西目前内河最大最豪华的游轮，也是广西第一艘国宾级接待船。\n\n“瑞通1号”豪华游轮船身总长41.5米、宽13米、高9米，船体为两层半结构，一层为豪华大厅，二层为6个尊贵包间，\n最上层为露天观景平台，能够同时接待200名游客，是一艘集餐饮、会议、接待、娱乐、观光为一体的大型豪华游轮 。\n【水之星豪华游船】\n柳州“水之星”豪华游船是目前全国一艘三位一体的游船，它是由一大二小的瘦长的船体共享一个主甲板及 三层龟背结构的军舰新船型。\n设计新颖、装饰豪华、设施齐全，长40米，宽15米，高20米，可容纳100人。其优点：阻力非常小，稳定性佳， 适航性更强。如果您接待外来的亲朋好友，要选水之星哦，他能减轻乘坐人员晕船等不适症状，还能让乘坐人员体会乘坐军舰 一样的感觉！\n【步步高豪华游轮】\n“步步高”游轮温婉大气、舒雅的装修、宽敞、通透、灵活的布局，闹中有静的功能区分，风格各异的包间，全景观光的露天大平台，最适宜游江观景、单位团体包船，生日PARTY、商务谈判、朋友相聚（约会）、婚庆婚纱摄影等。乘坐“步步高”游船，开启人生旅途新高峰。"}}, {"title": "三江侗乡", "address": "广西壮族自治区柳州市三江侗族自治县", "image": "", "rank": 5, "time": 3.0, "location": {"lat": 25.78883038778805, "lng": 109.6145474722304}, "feature": {"sight_features": "特色1 风雨桥、鼓楼、民族演出，这里有原生态的侗族风情。", "sight_content": "日前，三江县城大侗寨的三江风雨桥、多耶广场、侗乡大道、侗乡鸟巢、月亮街、县城出入口“凉亭”等一批具有 浓郁“侗味”的建筑旁，出现了各种各样新颖的标识牌，景区标识系统在这座宛如一个“侗族都市”的大侗寨景区里亮点纷呈引人入胜。\n\n\n从柳州乘车往北行驶200公里，进入位于湖南、贵州、广西三省毗邻地带的三江侗乡，临河沿溪一带，会有许多富民族特色的民舍木楼，这就是保留完整的侗乡民居，它们带有浓郁的传统民间文化和神秘色彩，令人向往。\n以低山和丘陵地貌为主的三江县，属云贵高原的雪峰山、越城岭和苗岭山脉的延伸地带，县境内山岭叠翠，蜿蜒起 伏；在这里生活的主体民族是侗族，占全县人口的53.6%。由于侗族同胞的衣、吃、住、行都具有十分突出鲜明的民族特色，再加上侗乡神奇秀丽的\n自然风光以及丰富多彩的传统节日，使三江 成为桂中地区民族风情与风光旅游的一个热点。游客到三江旅游，可以欣赏到建筑艺术独特、举世闻名的国宝——程阳风雨桥以及马胖鼓楼和侗乡民舍，可以领略到侗家纯朴的古风民俗，还 可以参加规模盛大的民族传统\n节日活动。"}}, {"title": "马鞍山", "address": "柳州市鱼峰区屏山大道178号马鞍山公园内", "image": "", "rank": 6, "time": 2.0, "location": {"lat": 24.30675302438064, "lng": 109.42047253288258}, "feature": {"sight_features": "", "sight_content": ""}}, {"title": "程阳风雨桥", "address": "柳州市三江侗族自治县林溪乡程阳八寨", "image": "", "rank": 7, "time": 0.75, "location": {"lat": 25.978854756078302, "lng": 109.67622035582792}, "feature": {"sight_features": "特色1 赏古朴典雅的风雨桥，领略榫卯结构中蕴含的古人智慧。", "sight_content": "程阳桥又叫永济桥、盘龙桥，位于柳州三江县城古宜镇的北面20公里处。是广西壮族地区众多风雨桥中最出名的一个柳州又名龙城，位于广西中部，距桂林一百多公里，这是一座有着2100年历史的文化名城。到广西不能不看民族风情，看民族风情不能不到柳州，苗族的节日、壮族的对歌、瑶族的舞蹈和侗族的建筑被誉为柳州民族风情“四绝”。\n程阳风雨桥就是典型的侗族建筑，这座横跨林溪河的木石结构大桥，建于1916年，河中有五个石砌大墩，桥面架杉木，铺木板。"}}, {"title": "丹洲景区", "address": "柳州市三江县丹洲镇丹洲村", "image": "", "rank": 8, "time": 4.5, "location": {"lat": 25.37771471356751, "lng": 109.4523459808075}, "feature": {"sight_features": "特色1 漫步江心小岛上的古城，探访历史遗迹，柚子也是这里的特色之一。", "sight_content": "丹洲是座文化古城。位于三江、融安、融水三县交合处，地处融江江心洲上，全村有220户1037人，居住着苗、瑶、侗、壮、汉等5个民族，民风淳朴当地政府十分重视文物保护和项目建设。\n近年投入不少资金对丹洲明代北门楼、明代书院、闽粤会馆、古县衙礼堂等古城文物进行保护修善。增设了游客参与的乒乓球、羽毛球等体育竟技项目。"}}, {"title": "三江鼓楼", "address": "柳州三江侗族自治县侗乡大道19号", "image": "", "rank": 9, "time": 0.25, "location": {"lat": 25.786638072525086, "lng": 109.62165846178908}, "feature": {"sight_features": "特色1 访“世界第一鼓楼”，感受桐乡人民高超的建筑技艺。", "sight_content": "三江鼓楼是三江县标志性建筑，被誉为“世界第一鼓楼。”它位于三江县城浔江河边。是以国家级非物质文化遗产——侗族木构建筑技艺传承人杨似玉为首的多个民间楼桥师傅携手建造而成。鼓楼是侗族村寨的标志和灵魂，它属木质结构，整座建筑不用一枚铁钉，形似宝塔，巍峨壮观，结构严谨，做工精巧，装饰细致，色彩朴质。为侗族村民议事、典礼、迎宾和歌舞娱乐的公共场所。鼓楼内设长形皮鼓,遇事则鸣鼓聚众,故称鼓楼。\n建成余2002年，鼓楼共有60根柱头着地，占地面积600平方米，总高为42.6米，共有27层瓦檐。每层檐角轻盈起翘，精巧的雕饰以及鲜艳的檐板彩绘，与庞大、粗犷的楼身形成鲜明对比，既悦目又赏心。全楼共设有4层观礼台,最高一层观礼台设于25层楼上,在此可将三江县城一览眼下。支撑鼓楼的4根杉木主柱直径均在70厘米以上。这在鼓楼建筑史上是绝无仅有。\n三江鼓楼在设计上取众鼓楼之长，独具特色，为增强旅游观赏功能，在鼓楼的基座石上，雕刻有反映侗族日常生活场景的浮雕，画面栩栩如生，乡土气息浓郁，处处展现出侗民族悠久的历史文化和侗族工匠高超的建筑技艺，令人叹为观止。"}}, {"title": "融水田头苗寨", "address": "柳州市融水苗族自治县四荣乡东田村", "image": "", "rank": 10, "time": 3.0, "location": {"lat": 25.279179281195706, "lng": 109.12481940914513}, "feature": {"sight_features": "", "sight_content": ""}}, {"title": "马鹿山奇石博览园", "address": "柳州市城中区东环路272号", "image": "", "rank": 11, "time": 2.5, "location": {"lat": 24.343301154185994, "lng": 109.45076589644988}, "feature": {"sight_features": "", "sight_content": ""}}, {"title": "东门城楼", "address": "柳州市城中区曙光东路的文惠大桥北端", "image": "", "rank": 12, "time": 1.0, "location": {"lat": 24.316393246774794, "lng": 109.42147108838884}, "feature": {"sight_features": "", "sight_content": ""}}, {"title": "柳州工业博物馆", "address": "广西壮族自治区柳州市鱼峰区文昌大桥东", "image": "", "rank": 13, "time": 2.5, "location": {"lat": 24.32804702127927, "lng": 109.43126100688428}, "feature": {"sight_features": "", "sight_content": ""}}, {"title": "柳州动物园", "address": "柳州市柳南区航银路89号", "image": "", "rank": 14, "time": 4.0, "location": {"lat": 24.269908085081358, "lng": 109.4060383749021}, "feature": {"sight_features": "", "sight_content": ""}}, {"title": "石门仙湖景区", "address": "柳州市融安县大良镇石门村仙湖景区", "image": "", "rank": 15, "time": 7.5, "location": {"lat": 24.88064793225955, "lng": 109.43332134153688}, "feature": {"sight_features": "特色1 望石门、行栈道、访溶洞、探暗河，感受大自然的鬼斧神工。 特色2 卧龙锁仙湖、石门聚万仙 特色3 仙湖湖水清澈明亮，符合直钦标准", "sight_content": "广西融安石门仙湖景区地处209国道边，距柳州市70公里，距融安县城50公里，距大良镇5公里；距桂林市170公里，距三江县110公里，和邻县柳城县及融水县的距离均不超过30公里；景区的区位优势非常明显，处在柳州、柳城、融水、三江等桂北旅游圈的中心位置，更是各精品旅游线路的必游景点之一。柳州市至景区仅需1小时的车程，交通十分便利。\n石门仙湖景区景区占地8000亩，其中陆地面积2900亩，石门水库水域面积4000余亩。景区陆地植被保护完好，高达96%的植被覆盖率使得景区内天然滋生了种类繁多的动植物：石斛、灵芝、红运 当头原株等，更有世界最神秘鸟类之称的海南虎斑鸠在此繁衍 生息；对水质要求极度苛刻的四大名鱼之一：银鱼更是石门水库的特产，也是游客到石门仙湖景区旅游就餐的必点菜品。\n景区内山体雄奇秀美，地下河千万年的冲刷，形成了该地 奇特的地貌：一山穿三洞的上中下天桥（翼王石达开屯兵遗址），连接上天坑的地下暗河，有溶洞阁楼之称的里 岩（古溶洞居民遗址—清流团寨），定时喷涌的狗仔泷（泉），门扇门洞浑然天成的天门洞。古人遗留下大量的摩崖石刻（融安县摩崖石刻重点保护单位），南峰书院遗址，太平天国翼王石达开屯兵遗址等等人文景观更是为景区沉淀了丰厚的文化底蕴。\n望石门、行栈道、访溶洞、探暗河，走玻璃桥，感受大自然的鬼斧神工。石门仙湖景区现拥有曾是广西最长的3D玻璃栈道，栈道建在距离谷底达88米的悬崖壁上，依山势而造，下方就是山石峻峭的中天坑，栈道全长366米，1.6米宽，中间还设计了一个6米长、3米宽的全透明玻璃观景台。玻璃栈道升级了广西首家3D玻璃破裂效果，人一踩上，即会有玻璃破碎的显示及破碎音效，无比惊险与刺激。玻璃栈道下方的天坑的峡谷底部有地下溶洞与暗河相连，地下暗河的汩汩清流从溶洞中流出。站在玻璃栈道上观看，景色无比壮美、险奇。\n同时，景区内另建有3D玻璃悬索吊桥一座，于2018年4月18日正式对外开放。该玻璃桥全长218米，高108米，宽2米，为近几年广西游客的热门首选玻璃桥游览目的地。桥面玻璃清澈透明，3D效果如梦如幻，从石门仙湖镇谷关悬空而过，桥下为石门仙湖知名景点中天坑，一年四季常有雾气弥绕，从桥面经过宛如漫游仙境般。该桥利用全透明玻璃和特色景观3D画面，浓缩微缩知名景观，可使游客在游览的过程中感受到或奔腾怒吼，或气壮山河，或宁静怡然等风光，既能领略到惊险无比的悬崖峭壁，又能将景区的绝美景色尽收眼底，令游客有惊险刺激的全新感受。\n观美景、拍美照，留下人生珍贵记忆。2019年石门仙湖景区又推出了广西首家网红拍照地：天空之镜，项目组合的中心由方型高空镜面拼接而成，仿佛拥有将时间凝固的魔法，只感觉到蓝天白云悠悠，如梦似幻，在这里拍照，每一张相片都是绝美大片，带您称霸朋友圈。\n至此，石门仙湖景区已建成由3D玻璃悬索桥和3D悬崖玻璃栈道、网红拍照地构成的悬空环形游览线路，与景区内的中天坑、地下暗河、溶洞、清流团寨等景点遥相呼应，相辅相成，为游客带来前所未有的观光体验与打造了绝佳的拍照胜地。游客从进园伊始，即可时刻感受悬空绝美风光及惊险刺激。"}}, {"title": "三江风雨桥", "address": "柳州市三江侗族自治县福桥东路与月亮街交汇处", "image": "", "rank": 16, "time": 0.5, "location": {"lat": 25.784499140296443, "lng": 109.6040823423986}, "feature": {"sight_features": "", "sight_content": ""}}, {"title": "柳江夜游（柳航游船码头出发）", "address": "柳州市鱼峰区柳航游船码头（海员码头）", "image": "", "rank": 17, "time": 1.0, "location": {"lat": 24.318521699514562, "lng": 109.44941628225213}, "feature": {"sight_features": "", "sight_content": ""}}, {"title": "立鱼峰风景区", "address": "柳州市城中区鱼峰路", "image": "", "rank": 18, "time": 1.5, "location": {"lat": 24.307103446438205, "lng": 109.41555248036876}, "feature": {"sight_features": "", "sight_content": ""}}, {"title": "城市规划展览馆", "address": "柳州市城中区文昌路66号", "image": "", "rank": 19, "time": 1.5, "location": {"lat": 24.332517957084676, "lng": 109.4350903422381}, "feature": {"sight_features": "", "sight_content": ""}}, {"title": "柳侯祠", "address": "柳州市城中区文慧路60号", "image": "", "rank": 20, "time": 1.0, "location": {"lat": 24.321836150634667, "lng": 109.42083920771707}, "feature": {"sight_features": "", "sight_content": ""}}, {"title": "柳州文庙", "address": "柳州市鱼峰区夫子路文庙景区", "image": "", "rank": 21, "time": 1.0, "location": {"lat": 24.3135830243134, "lng": 109.4278117598628}, "feature": {"sight_features": "", "sight_content": ""}}, {"title": "雀山公园", "address": "柳州市柳北工业区", "image": "", "rank": 22, "time": 2, "location": {"lat": 24.367867017647864, "lng": 109.40853179342056}, "feature": {"sight_features": "", "sight_content": ""}}, {"title": "《坐妹》实景演出", "address": "广西省三江县古宜镇侗乡鸟巢", "image": "", "rank": 23, "time": 2, "location": {"lat": 25.785667132925393, "lng": 109.62184813405678}, "feature": {"sight_features": "特色1 中国侗族大型实景风情演出 特色2 “侗乡鸟巢”以它独特的风格向世人诠释着侗族建筑文化的精髓所在", "sight_content": "侗乡鸟巢《坐妹》侗族风情实景演出是一部侗族风情演艺，讲述侗族青年男女从相知相爱到结婚生子的过程。侗族青年男女在相知的过程中，有一种“约会”方式，侗话意译为“坐妹”，深受各地游客的喜欢；再配合顶级灯光音响效果，您可以在演出过程中感受到侗族人民的温柔细腻又热情奔放的感情，体会侗族文化所独有的风俗特色。可谓是“不到长城非好汉，不看坐妹真遗憾”！\n该演出将侗族地区丰富多彩的传统文化元素如婚恋文化、服饰文化、耶歌文化等与国内顶级舞美及现代声光科技如全国最大最复杂的LED梯式视频和1000盏高科电脑灯相结合，演出效果如梦幻世界般，再加上那动人心弦的“天籁之音”，让您耳目大醉、心旷神怡、流连忘返，凡观赏过此演出的人，无不赞声不绝、叹为观止。\n一更：走姑娘\n走姑娘在侗族地区源远流长，它是缔结婚姻的开端，因此古老的侗族小伙子们在交通不便等情况下依然划着竹排或提着油灯到别村或同村不同家族的姑娘家寻情求爱。\n二更：闹姑娘\n闹姑娘既是一种娱乐又是一种求爱方式，即小伙子们到与三五成群绣花织布等候他们到来的某一姑娘家行歌、聊天或玩土游戏如图中用竹竿旋姑娘等，场面甚是热闹。\n三更：坐妹\n坐妹是在闹姑娘基础上的进一步升华。他们通过行歌、聊天或玩土游戏等培养感情，当某一男女有互爱之情时，便悄悄离群到村边或野外互诉爱意。"}}, {"title": "柳州柳航游船", "address": "柳州市柳北区海员码头（柳航游船码头），柳州南车度码头地址：柳州市鱼峰区飞鹅2路江滨公园旁", "image": "", "rank": 24, "time": 3.5, "location": {"lat": 24.331961386852413, "lng": 109.43442194634564}, "feature": {"sight_features": "特色1 赏柳江两岸美丽夜景", "sight_content": "每当花灯初上，百里柳江两岸霓虹闪烁，，繁华街区人头攒动浮雕，市区沿江山体、瀑布、音乐喷泉在色彩景观灯的照耀下，犹如一串晶莹剔透的彩色夜明珠，倒映在恍若银河的九曲柳江，汇成龙城夜色中魅力的人间美景。\n东台山（灯台山）位于水南路中段北侧。东南——西北走向，长约300米，海拔195.2米。《马平县志》载：“其一崖面江，相传有龙须带浮于水面，又名龙须崖。”至今仍见崖壁内陷处，藤蔓攀延，根须浮水面。因其形如台，故东台山，时至黄昏，夕阳晖洒在东台绝壁上，辉煌得不可端视。烛照河面，渔歌唱晚浆摇波涌，光艳盈江。\n柳江喷泉总厂328米，宽40米，主喷泉喷高100米，共配置7类14种水型和5种功能系统。喷泉的水型种类有恒动和谐、天塔玄揽、金阳飞旋、飞龙旋云、一往无前、欢乐摇摆、青山耸秀。整个功能系统采用艺术灯光、亮绿激光、广场音响、升降平台控制、光纤远程控制。其科技含量及艺术效果超过美国拉斯维加斯喷泉，目前是亚洲最大的江面升降浮式音乐喷泉之一。"}}, {"title": "鱼峰公园", "address": "柳州市鱼峰区鱼峰路59号", "image": "", "rank": 25, "time": 1.0, "location": {"lat": 24.3058635666202, "lng": 109.41567799341118}, "feature": {"sight_features": "", "sight_content": "鱼峰公园位于柳州市中心，面积3.37公顷。其山似立鱼又名“立鱼峰”，山上绿树成荫，山脚一泓碧水称小龙潭于潭畔俯览仰观，潭峰相映，如巨鲤跃立潭面，称为“南潭鱼跃”，为柳州古八景之一。山腰七洞贯通，人称“灵通七窍”。相传壮族歌仙刘三姐曾在此传唱山歌，并于小龙潭骑鱼升天成仙。"}}, {"title": "卡乐星球", "address": "广西壮族自治区柳州市翠岭路9号", "image": "", "rank": 26, "time": 1.5, "location": {"lat": 24.38959564155385, "lng": 109.55365798918986}, "feature": {"sight_features": "特色1 光速之旅—过山车、太空梭—冲上云霄、大摆锤—海神之锤。 特色2 360全景天地剧场《神话》、平立式飞行影院-《太阳神鸟》、奇幻博物馆《小镇历险记》。 特色3 旋转木马、飓风飞椅、海马精灵、摩天轮—龙城之眼、环境4D《快乐珊瑚岛》、影视飞板《疯狂巴士》、Game Ride《汽车学校》、精灵花园内系列项目。", "sight_content": "柳州卡乐星球由广西柳州东城集团与深圳华侨城文化旅游科技股份有限公司共同建设运营，位于柳州市柳东新区翠岭路9号，占地面积约749亩，总投资30亿元，是广西首个高科技主题乐园，也是柳州大的文化产业项目。\n园区包括人鱼王国、太阳部落、卡乐小镇、卡西诺大街、云部落五大主题区域，共34项室内外高科技体验项目。乐园项目结合时下最火热的VR、AR等高科技手段，在打破常规的机械式游乐体验同时加入科技互动体验，致力于给游客带来科技娱乐新体验。\n\n\n柳州卡乐星球是华侨城文旅科技“卡乐星球”公园品牌的首发之作，力求将文化、艺术与拥有自主知识产权和多项专利的现代科技产品紧密结合，卡乐星球还将配套特色酒店、人气餐厅等多种娱乐形式，吃喝玩乐应有尽有，为游客打造一站式游乐体验。"}}, {"title": "柳州博物馆", "address": "柳州市柳北区解放北路37号", "image": "", "rank": 27, "time": 2.5, "location": {"lat": 24.324993029920307, "lng": 109.4192439698438}, "feature": {"sight_features": "", "sight_content": ""}}, {"title": "江滨公园", "address": "柳州市鱼峰区驾鹤路82号", "image": "", "rank": 28, "time": 1.0, "location": {"lat": 24.311793412052378, "lng": 109.42328852751976}, "feature": {"sight_features": "", "sight_content": ""}}, {"title": "瑞通一号豪华游轮", "address": "柳州市城中区东堤旅游码头", "image": "", "rank": 29, "time": 2, "location": {"lat": 24.349122952685416, "lng": 109.42941887782644}, "feature": {"sight_features": "特色1 广西国宾级接待船", "sight_content": "“瑞通1号”豪华游轮总造价2000万元，是广西目前内河最大最豪华的游轮，也是广西第一艘国宾级接待船。\n\n“瑞通1号”豪华游轮船身总长41.5米、宽13米、高9米，船体为两层半结构，一层为豪华大厅，二层为6个尊贵包间，\n最上层为露天观景平台，能够同时接待200名游客，是一艘集餐饮、会议、接待、娱乐、观光为一体的大型豪华游轮 。"}}, {"title": "鹅山公园", "address": "柳州市柳南区鹅山路7区18号", "image": "", "rank": 30, "time": 1.0, "location": {"lat": 24.318705167483916, "lng": 109.39421485532603}, "feature": {"sight_features": "", "sight_content": ""}}, {"title": "蟠龙山", "address": "柳州市鱼峰区柳东路3号", "image": "", "rank": 31, "time": 1.0, "location": {"lat": 24.31849602259007, "lng": 109.43693423466965}, "feature": {"sight_features": "", "sight_content": ""}}, {"title": "鹿寨香桥岩溶国家地质公园", "address": "柳州市鹿寨县中渡镇大兆村", "image": "", "rank": 32, "time": 2, "location": {"lat": 24.70075705521165, "lng": 109.69431318189505}, "feature": {"sight_features": "特色1 以喀斯特地质地貌为主体的大型国家地质公园", "sight_content": "鹿寨香桥岩溶国家地质公园——鹿寨香桥岩溶国家地质公园地处桂中喀斯特盆地东北边缘地带，是一个以喀斯特地质地貌为主体的大型国家地质公园，2005年9月被国土资源部评为“鹿寨香桥岩溶国家地质公园”，2009年12月获“国家AAAA级风景区”，2010年被评为柳州市“十大重点旅游项目”。公园主要地质地貌类型为岩溶峰丛、峰林、峡谷、溶洞、天生桥和石林，以香桥岩溶峡谷、天生桥、九龙洞、响水石林、响水瀑布及中渡至芝山一带岩溶峰林非常具观赏价值，集中体现为桥奇、洞幽、峡秀、水魅、林美，被地质学家美誉为中国名符其实的“中国热带岩溶地貌的缩影”、“天然的喀斯特地貌地质博物馆”，是旅游观光和科普活动的重要场所，具有重要的科学价值、观赏价值和开发价值。\n（1）怪石嶙峋的探奇之旅——（月亮山，天槽，天坑，天窗）\n广西山多，有的气势恢宏博大，有的陡峭险秀，有的峰峦叠嶂，山高谷深，神秘莫测，香桥的山则多了些逶迤灵秀，少了些奇峻雄伟。\n月亮山高，260米，因为山顶有一个贯穿山体的大洞，就像一轮皓月，高悬而明亮，所以人们称之为“明月峰”。从山下登山道月洞约需25分钟，游人可沿着一条600百多级的登山道直达。月洞两壁平整似墙，洞的顶部却挂满了钟乳石，形状各异，其中两块很像月宫里的吴刚和玉兔。登上“月宫”鸟敢山前山后，群山玉立，清流蜿蜒，绿野平芜，宛若人间仙境一般。\n香桥岩溶国家地质公园有着丰富的岩溶洞穴资源，这里洞穴密布地下河发育完整，有着丰富的天窗，天坑，天槽群落、喀斯特地貌给香桥创造了独特的岩溶洞穴资源，为游客提供了千奇百怪的景观。\n（2）轻柔曼妙的潺潺流水——响水瀑布，（香潭，香泉）\n位于洛江峡谷尾段的响水瀑布，是中国罕见的大型低水头面状瀑布，长1000米，宽80-100米，总落差约12米，自上而下由四个长滩组成（第四长滩还有千层滩至美称），层层叠叠，丰水季节水声响如雷鸣，故而得名。丰水时节，整个山谷响如雷鸣，时高时低，忽远忽近，满谷氤氲升腾，白雾缭绕。平日里水流清冽如蓝，静悄悄的流淌着，芦苇在扭动着，柔软的腰鼓，小鱼在唼喋的觅食，历历可见，润泽的岩石经河水常年侵蚀冲刷，布满了水槽和石窝。\n走进香桥峡谷，幽深山谷里的凉风迎面吹来，谷底一泓墨绿的潭水映入眼帘，清幽静穆，绿得醉人，有人说像九寨沟，有人说像滇池，这就是香潭。香潭与地下河相通，逆水而上为洛江的源头，而这山谷间的水就是香泉。\n香桥的水，在明净秀美中承载着当地人的善良淳朴，处处透着返朴归真的独特“水魅”若能在此安顿一宿，不失为一件至真至美的幸事。\n（3）大自然鬼斧神工的杰作——天生桥\n天生桥是一座巨大的天然石桥，横卧在香桥峡谷之上，桥洞高35米，宽40米，桥身厚达10米，气势磅礴，雄奇壮观。桥拱两壁留有古河道痕迹，如波痕、涡穴等，洞壁和洞顶均有钟乳石发育，河底有坠落的钟乳石堆积，激流湍急时，浪花飞溅，涛声震谷，非常雄伟。人行其间，只见远处青山环绕，清幽险峻，近处满目青翠，芳草依依，天生桥无需精雕细刻已使人心驰神往，让人感叹大自然的神奇造化。\n穿过天生桥的是一条地下潜流河，河谷时隐时现，河水时而奔流于幽深峡谷之间，时而隐藏在群山峻岭之内，洛江的源头就在这峡谷之中。\n进入香桥必须通过“月亮门”，穿过“仙人洞”，沿着曲径才能到达峡谷之中。整个景点天然独特、鬼斧神工，为世间罕见，自古就被誉为“天然氧吧”、“桃源真境”。\n（4）神秘诱惑的迷幻境地——九龙洞\n相传古时有六条黄龙邀请锦江中的三条青龙来洞中相聚，九条龙见这蓬莱仙境般的洞府，顿时私欲大发，都想把洞府据为己有，相争不休。待到鸡鸣天亮时，谁也无法返回原来的居所了，只得盘踞在洞内深处，再也不能脱身，“九龙洞”由此得名。\n九龙洞是一个大型天然喀斯特溶洞，由三个支洞组成，分水洞和旱洞两层，主洞走向南北，已开发洞长660米，高5—14米，宽10—30米，洞内钟乳石林立，五光十色，千姿百态，妙趣横生。9座边石坝蜿蜒如九条巨龙，“九龙戏珠”、“擎天一柱”、“蟠桃献寿”、“莲花路”、“醒狮怒吼”等诸景惟妙惟肖，各种石花、石幔、石鸟、石兽随处可见，栩栩如生，让人浮想联翩。\n九龙洞主要景点有“古榕迎宾”、“九龙戏水”、“雷峰塔”和“水上长城”等，非常具有特色的是“石游龙”、“藤穿石”、“大沙漠”、“脑状纹”四绝奇观，其中尤以“古藤穿石”为珍奇，世间罕有。"}}, {"title": "柳州奇石馆", "address": "柳州市柳城县马鹿山奇石博览园", "image": "", "rank": 33, "time": 3.5, "location": {"lat": 24.65637039148558, "lng": 109.25156152933667}, "feature": {"sight_features": "", "sight_content": ""}}, {"title": "西来寺", "address": "柳州市城中区滨江西路29号", "image": "", "rank": 34, "time": 1.0, "location": {"lat": 24.32081837707364, "lng": 109.41007037875855}, "feature": {"sight_features": "", "sight_content": ""}}, {"title": "凤凰河温泉", "address": "柳州市柳江区洛满镇露新路66号", "image": "", "rank": 35, "time": 2, "location": {"lat": 24.413576940512623, "lng": 109.30517972603927}, "feature": {"sight_features": "特色1 柳州市内的少有的园林式温泉，环境清幽，温泉池种类多样。 特色2 园林式温泉，环境清幽，温泉池种类多样 特色3 深度1500米的地热水", "sight_content": "凤凰河温泉生态旅游项目占地7300亩，深度1500米的地热水，根据化验以及权威部门的报告，凤凰河温泉为偏硅酸氡温泉，含丰富的氡、锂、锶等微量元素，泡氡泉有调整神经功能，对人体内分泌腺功能也有良好影响。\n\n\n凤凰河温泉度假村有50多个泡池，拥有水疗区，儿童戏水区，以及干蒸房、石板浴、韩式汗蒸房三大温泉功能房，另外设计有4套独立汤屋，提供泡温泉、麻将娱乐、品茗、烧烤服务；还有高享受型的温泉合院竹苑区，由服务中心和三套四合院组成，每个合院类似一个传统建筑，有客厅、餐厅，正房主卧室都是1房1厅带独立泡池，两侧是特色厢房，后院泡池也带干蒸房。居于此，可泡汤、餐饮、休闲一整天。\n\n\n凤凰河温泉是由台湾著名建筑规划师徐光教授进行主创规划设计，主调是中式仿古建筑风格，主材以俄罗斯樟子松与青砖为主，原料采用大量的天然桐油，加以苏州园林风格，具高端中式休闲特色，无论建筑园林美感还是温泉水疗，都会给客户带来全新的享受。\n\n\nQQ农场,QQ牧场变成现实\n不用再线上偷菜！\n来凤凰河牧场\n感受蓝天白云晴空万里~\n还有与小动物的亲密接触\n给心灵做SPA~"}}, {"title": "柳州云顶观光", "address": "柳州市柳北区广场路6-2号", "image": "", "rank": 36, "time": 3.5, "location": {"lat": 24.3261222015128, "lng": 109.41874732367666}, "feature": {"sight_features": "特色1 空中玻璃栈道，360度无障碍俯视柳州全貌", "sight_content": "作为柳州的城市会客厅——云顶观光位于柳州地王第76层，高303米，是目前西南地区最高的建筑观光平台，集旅游、观光、游乐为一体的城市高空景观旅游和城市会客厅。设有空中玻璃栈道、3D影像、空中邮局、空中餐厅、空中酒吧等服务设施。\n空中玻璃栈道：爱刺激的朋友最关心的当然是空中玻璃栈道！观光层外围惊险刺激的空中玻璃栈道，高303米，宽1.5米，行走一圈208米。行走一圈大概是半个小时，这是全国第四家，广西首家户外玻璃观光栈道。从76层上到77层——303观景台。\n空中邮局：位于303米高的空中邮局，是目前广西首家、西南最高的空中邮局，在柳州的巅峰将祝福寄给自己最心爱的人。 柳州地王303观景台，立于城市之巅，360度无障碍俯视柳州全貌，欣赏柳州山水和城市奇观，瞬间深深爱上大美龙城。快和心爱的人一起在303观景台邂逅最美的自己吧！\n网络票取票处"}}, {"title": "都乐风景区", "address": "柳州市柳江区南柳石路西七巷289号", "image": "", "rank": 37, "time": 1.0, "location": {"lat": 24.260814965350463, "lng": 109.33244423878395}, "feature": {"sight_features": "", "sight_content": ""}}, {"title": "融水贝江风景区", "address": "柳州市融水苗族自治县名族长赖村", "image": "", "rank": 38, "time": 1.0, "location": {"lat": 25.07207650410932, "lng": 109.26256083114997}, "feature": {"sight_features": "", "sight_content": ""}}, {"title": "水之星豪华游轮", "address": "柳州市东堤旅游码头", "image": "", "rank": 39, "time": 2, "location": {"lat": 24.349122952685416, "lng": 109.42941887782644}, "feature": {"sight_features": "特色1 一艘三位一体的游船", "sight_content": "柳州“水之星”豪华游船是目前全国一艘三位一体的游船，它是由一大二小的瘦长的船体共享一个主甲板及 三层龟背结构的军舰新船型。\n设计新颖、装饰豪华、设施齐全，长40米，宽15米，高20米，可容纳100人。其优点：阻力非常小，稳定性佳， 适航性更强。\n如果您接待外来的亲朋好友，要选水之星哦，他能减轻乘坐人员晕船等不适症状，还能让乘坐人员体会乘坐军舰 一样的感觉！"}}, {"title": "箭盘山奇石园", "address": "", "image": "", "rank": 40, "time": 1.0, "location": {"lat": 24.30995066306139, "lng": 109.43941906987898}, "feature": {"sight_features": "", "sight_content": ""}}, {"title": "八桂奇石馆", "address": "柳州市鱼峰区屏山大道343号", "image": "", "rank": 41, "time": 1.0, "location": {"lat": 24.310075997869017, "lng": 109.43800023764848}, "feature": {"sight_features": "", "sight_content": ""}}, {"title": "广西科技大学", "address": "广西壮族自治区柳州市城中区东环大道268号", "image": "", "rank": 42, "time": 2, "location": {"lat": 24.340134085215652, "lng": 109.44638786171787}, "feature": {"sight_features": "", "sight_content": ""}}, {"title": "3D魔幻体验馆（柳州）", "address": "柳州市鱼峰区谷埠商城HAPPY站负一层（华润万家旁）", "image": "", "rank": 43, "time": 2, "location": {"lat": 24.311180817993954, "lng": 109.41544875662478}, "feature": {"sight_features": "", "sight_content": ""}}, {"title": "中渡古镇", "address": "柳州市鹿寨县603县道东150米", "image": "", "rank": 44, "time": 2, "location": {"lat": 24.583075825919, "lng": 109.71905696404055}, "feature": {"sight_features": "", "sight_content": ""}}, {"title": "白莲洞", "address": "柳州市鱼峰区南郊12公里的白面山南麓", "image": "", "rank": 45, "time": 1.0, "location": {"lat": 24.250746538513162, "lng": 109.77156356426818}, "feature": {"sight_features": "", "sight_content": ""}}, {"title": "步步高豪华游轮", "address": "柳州市城中区东堤旅游码头", "image": "", "rank": 46, "time": 2, "location": {"lat": 24.349122952685416, "lng": 109.42941887782644}, "feature": {"sight_features": "特色1 全景观光的露天大平台", "sight_content": "“步步高”豪华游轮于2011年11月开始建造，2012年10月投入使用，她是一艘豪华标准的全景观光三层游轮。她的名字源于一个中华民族传统的“鲤鱼跳龙门，步步高升”美丽传说，寄托着游轮主人对游客的美好祝愿。\n“步步高”游轮温婉大气、舒雅的装修、宽敞、通透、灵活的布局，闹中有静的功能区分，风格各异的包间，全景观光的露天大平台，最适宜游江观景、单位团体包船，生日PARTY、商务谈判、朋友相聚（约会）、婚庆婚纱摄影等。乘坐“步步高”游船，开启人生旅途新高峰。"}}, {"title": "克里湾水乐园", "address": "柳州市柳东新区九子岭大道36号", "image": "", "rank": 47, "time": 2, "location": {"lat": 24.388933396853613, "lng": 109.57443822105368}, "feature": {"sight_features": "特色1 富有地中海特色浪漫大型主题体验室外水乐园。 特色2 让游客在柳州，也能感受到媲美地中海的碧海蓝天。 特色3 极具动感的冲浪池和沙滩，充满刺激的滑道探险。", "sight_content": "柳州克里湾水乐园是以水娱乐为核心，营造的蓝色浪漫大型主题体验型室外水乐园。位于柳州市柳东新区九子岭大道以东，毗邻柳州园博园景区，园区分为中心广场、海地之城、海地幻境、海地沙滩、海地探险等片区。每个区域都将设置不同的“故事线”，让游客身在柳州，也能感受到媲美地中海的碧海蓝天。\n园区包含极具动感的冲浪池和沙滩，充满刺激的滑道探险，趣味十足的儿童戏水，可以水上漫步的漂流河，以及高品质泳池和SPA池等12处游乐设施，更有丰富多彩的主题活动。\n柳州克里湾水乐园将立足柳州及周边市场，结合本地其它主题旅游产品，成为可辐射全广西的大型主题体验型室外水乐园。建成后将成为柳州最大的水上乐园，是广西首家地中海主题水乐园，同时也是广西首屈一指的水上娱乐目的地。"}}, {"title": "柳州水上公交", "address": "柳州市柳南区南车渡码头", "image": "", "rank": 48, "time": null, "location": {"lat": 24.311738183492835, "lng": 109.41472097734831}, "feature": {"sight_features": "", "sight_content": ""}}, {"title": "柳州园博园", "address": "柳州市鱼峰区博园大道35号", "image": "", "rank": 49, "time": 2.5, "location": {"lat": 24.389376539241777, "lng": 109.55747300285894}, "feature": {"sight_features": "", "sight_content": ""}}, {"title": "君武森林公园", "address": "柳州市柳北区沙塘镇", "image": "", "rank": 50, "time": 2, "location": {"lat": 24.470900297805755, "lng": 109.39539622498657}, "feature": {"sight_features": "", "sight_content": ""}}, {"title": "龙女沟景区", "address": "柳州市融水县四荣乡荣塘村3号月亮湾度假山庄", "image": "", "rank": 51, "time": 3.0, "location": {"lat": 25.336846675173213, "lng": 109.11145758001089}, "feature": {"sight_features": "特色1 欣赏壮美的峡谷、梯田风光，领略苗家特色民俗文化。", "sight_content": "龙女沟旅游村是个古老的新苗寨。龙女沟苗家先祖于400年前从湖南迁落居如今风景秀丽的荣地村。在民主革命时期（一九三零年间）曾两次迎送邓小平率领的中国工农红军第七军为开辟革命根据地和北上与中央红军会师，至今在龙女沟景区里还保留着当年红军行军路过的红军桥。\n元宝山国家森林公园龙女沟归秀龙女沟旅游村位于元宝山国家森林公园南麓十公里，距县城五十公里，是元宝山景区的重要组成部分，属融水一级人文景观，是秀丽贝江的流源之一，景区面积十平方公里，居住着苗族、侗族等少数民族，有古老独特的木楼建筑、奇异的民族习俗和浓郁的民族风情。\n龙女沟山峡风光、十里长塘风光、太阳山观日出、重走红军路（1930年邓小平率领红七军二次经过）、苗家侗寨人文景观等。这里民族风情浓郁，苗、侗少数民族热情好客。您来到这里做客，他们都能以热烈奔放的情感表演民族风情歌舞，并为客人精心制作民族风味餐宴、打油茶、吃糯米饭、尝山珍海味、钦糯米甜酒，与客人共舞，一醉方休。真可谓：人生难得几回醉，作客苗家和侗寨；怡情山水哪里去，元宝之旅最风光。\n龙女沟旅游村位于融水苗族自治县西北的四荣乡境内，坐落在海拔2086米的元宝山西南面，638县道贯穿其间，从融水县城行车47公里即达。"}}, {"title": "知青城", "address": "广西柳州市柳城县大埔镇洛崖社区知青城景区", "image": "", "rank": 52, "time": 2.0, "location": {"lat": 24.67276997541672, "lng": 109.1972103036602}, "feature": {"sight_features": "特色1 以知青文化为主题，融山水、古镇风光于一体的知青文化创意园。", "sight_content": "知青城景区位于崖山风景区旁边，距离柳城县大约18公里。在上山下乡运动里，曾有400多名知青相继来到洛崖插队落户，让这个名不见经传的小村庄热闹了一阵。\n如今，这里打造成了一处知青文化为主题的景区，有经历过那个时代的人来此寻找记忆，也有一些文艺青年穿着海魂衫，戴着红领巾来这儿拍小清新的照片。从知青码头沿着石砖路走到知青广场，沿路的房屋都刷着毛主席标语、革命图画，随处可见当年知青在此插队的黑白照片。漫步其中，仿佛置身于那个特殊的时代。"}}, {"title": "雀儿山公园水上世界", "address": "柳州市柳北区北雀路5号雀儿山公园内", "image": "", "rank": 53, "time": 2.5, "location": {"lat": 24.378066262154938, "lng": 109.41084306881898}, "feature": {"sight_features": "", "sight_content": ""}}, {"title": "大桥、洛维观光农业旅游区", "address": "柳州市鱼峰区", "image": "", "rank": 54, "time": 2, "location": {"lat": 24.318521699514562, "lng": 109.44941628225213}, "feature": {"sight_features": "", "sight_content": ""}}, {"title": "崖山景区", "address": "柳州市柳城县中寨村(洛崖知青城对岸)", "image": "", "rank": 55, "time": 2, "location": {"lat": 24.678828566471324, "lng": 109.18764704201774}, "feature": {"sight_features": "特色1 山浮水绕、风景如画", "sight_content": "柳城崖山休闲景区位于距县城5公里的洛崖码头对面的中寨村。以绝壁、怪石、洞景、古榕四大绝妙景观叫响的崖山，悬崖脚下就是水面宽阔、碧波绿浪的融江。山清水秀、风景如画。自古以来就是人们向往的观光休闲，烧香拜佛的旅游圣地。\n“谁说柳州没有好风景?只是我们没有发现而已。”一位到崖山景区游玩的游客说“其实,我游过桂林,到过三峡,也没有见过这样美的风景!”\n坐船游江让您尽饱眼福，远山近水、群峰峻岭、如画风光尽收眼底。对歌、搞笑，一路欢声笑语，让你意犹未尽、留连忘返。"}}, {"title": "奇奇可可儿童乐园", "address": "柳州市鱼峰区谷埠街G区百和商场二楼", "image": "", "rank": 56, "time": 2, "location": {"lat": 24.310478055529757, "lng": 109.41528009707042}, "feature": {"sight_features": "", "sight_content": ""}}, {"title": "柳钢宾馆恒温游泳馆", "address": "柳州市柳北区北雀路17号", "image": "", "rank": 57, "time": 2, "location": {"lat": 24.357113826931243, "lng": 109.40662396427402}, "feature": {"sight_features": "", "sight_content": ""}}, {"title": "雨卜民族风情旅游度假村", "address": "柳州市融水县雨卜村", "image": "", "rank": 58, "time": 2, "location": {"lat": 25.317735620853433, "lng": 109.20619560002926}, "feature": {"sight_features": "特色1 融水苗山旖旎如画的风光，有巍巍的元宝山、莽莽的林海、飞瀑、深潭和幽洞。 特色2 雨卜旅游村于2006年被评为“全国农业旅游示范点”，2007年被评为柳州市十大美丽乡村。 特色3 这里吹笙踩堂、拉鼓、踩脚求爱、斗马、打同年等渊源流长的民俗是苗族传承千年的文化奇观。", "sight_content": "融水苗山旖旎如画的风光，有巍巍的元宝山、莽莽的林海、飞瀑、深潭和幽洞。清清的贝江水，伴有“贝江飞虹”--铁索桥，还有寿星岩寺庙等景观。这里是天然的动植物园，第四纪冰川的孑遗植物“广西冷杉”200余株，是新发现的稀有珍贵树。这里吹笙踩堂、拉鼓、踩脚求爱、斗马、打同年等渊源流长的民俗是苗族传承千年的文化奇观，苗锦、蜡染、银饰等手工艺品是苗族文化皇冠上的明珠。\n来到广西枊州雨卜民族风情旅游度假村您可以观赏到原生态的苗族风情歌舞表演，芦笙踩堂，跳竹竿，踩脚求爱，苗族婚俗，芒篙，拉鼓等游客参与 的节目，还有篝火烧烤，打油茶，坐妹，对歌宾主联欢等活动，让您度过一个难忘的良宵。您还可以看到芦笙斗马之乡精彩激烈的斗马活动，到大自然的怀抱中，体验刺激的溜索，溪降，漂流，到清澈的天然游泳池中观鱼戏水。\n广西枊州雨卜民族风情旅游度假村位于广西北部，交通十分方便，枝柳铁路穿县而过，公路由县城至柳州118公里，至桂林168公里，水运可直达柳州、广州。境内居住着苗、瑶、侗、壮、汉等民族。包含着苗族历史、文化和习俗积淀的民族坡会，已成为苗山各民族人民的精神坐标和文化盛会。"}}, {"title": "老君洞", "address": "柳州市融水苗族自治县融水镇204省道旁老君洞景区", "image": "", "rank": 59, "time": 1.0, "location": {"lat": 25.050041864869534, "lng": 109.24861583285849}, "feature": {"sight_features": "特色1 老君洞是融州古八景之首，堪称“水月洞天”。 特色2 宋代名诗人范成大在《佳诲岩洞记》中赞曰：“融州有灵岩真仙洞，世传不下桂林”。", "sight_content": "老君洞的园林宗教设施始建于唐，兴盛于宋，唐宋以来，很多文人墨客在洞内留下了大量的诗文、游记、碑刻、摩岩刻一百多处，是珍贵的历史文化遗产，宋太宗亲颁“御书碑” 120 轴藏于洞内，并敕封老君洞为“真仙岩”。明朝旅行家徐霞客曾在此洞住了13天，这是他30年旅行活动中在一个洞内住得最久的一次，并写下了 5000 字游记，生动描述了老君洞山光水色及传奇神话。宋代名诗人范成大在《佳诲岩洞记》中赞曰：“融州有灵岩真仙洞，世传不下桂林”。\n老君洞景区原建有规模完整的三清殿、御书阁、紫薇阁、报恩寺、岁寒轩、鸿音楼、麓石塔、清风亭、望远亭堤五百罗汉丰都山等亭台楼阁以及老君天然钟乳石像等。由于历史的原因，不少景点设施已遭毁坏，目前有关部门已经着手进行修复，开发了隐仙洞、水月洞、羊角洞，并新建了盆景园、桃花园、荷花池、徐霞客雕像等供浏览观光。\n整个景区，有溶洞 2 个，其中的老君洞是融州古八景之首，堪称“水月洞天”。清澈婉蜒的灵寿溪自洞背穿山而过．流经洞中的部分长约300米。乘小舟自后洞顺流而下，可一览全洞风光，观赏洞中石壁上的摩崖石刻及千姿百态的钟乳石。洞口古木参天，浓荫蔽日，两座宋代建造的古石桥在洞口跨溪而卧，其桥造型美观，结构精巧，目前仍可通行汽车。相传太上老君南游融岭至此洞，竟流连忘返，对人说：“此洞乃天之绝胜也，山石磺石元，溪流清邃，不复西度流沙。我当隐焉”，于是化身为石，永留洞中。此洞因此得名，并成为全国道教圣地“三十六洞天”之一。\n网络秋千\n玻璃栈道观景台\n丛林穿越"}}, {"title": "老子山", "address": "柳州市融水苗族自治县融水镇老子山风景区南500米", "image": "", "rank": 60, "time": 1.0, "location": {"lat": 25.061938945859232, "lng": 109.25565656459582}, "feature": {"sight_features": "", "sight_content": ""}}]}