{"cityName": "蠡县", "days": 2, "cityImage": "", "spots": [{"title": "蠡县自在时光国际生活体验馆", "address": "永盛北大街655号", "image": "", "rank": 1, "time": 2, "location": {"lat": 38.514386668008314, "lng": 115.60545085968506}, "feature": {"sight_features": "", "sight_content": ""}}, {"title": "冀中三五烈士纪念馆", "address": "小陈乡张村营村", "image": "", "rank": 2, "time": 2, "location": {"lat": 38.5356753548001, "lng": 115.53608181232494}, "feature": {"sight_features": "", "sight_content": ""}}, {"title": "109温泉", "address": "大百尺镇", "image": "", "rank": 3, "time": 2, "location": {"lat": 38.592109142977954, "lng": 115.7001974464194}, "feature": {"sight_features": "", "sight_content": ""}}, {"title": "东北街军乐会馆", "address": "保定市蠡县", "image": "", "rank": 4, "time": 0.5, "location": {"lat": 38.494200963237745, "lng": 115.59044548044898}, "feature": {"sight_features": "", "sight_content": ""}}, {"title": "慈云禅林", "address": "万安镇", "image": "", "rank": 5, "time": 2, "location": {"lat": 38.629750392423645, "lng": 115.6613095152313}, "feature": {"sight_features": "", "sight_content": ""}}, {"title": "湿地公园", "address": "蠡吾镇", "image": "", "rank": 6, "time": 2, "location": {"lat": 38.48343155720705, "lng": 115.60236655780396}, "feature": {"sight_features": "", "sight_content": ""}}, {"title": "影三郎古墓", "address": "河北省保定市蠡县郑村北", "image": "", "rank": 7, "time": 2, "location": {"lat": 38.494200963237745, "lng": 115.59044548044898}, "feature": {"sight_features": "", "sight_content": ""}}, {"title": "梁斌黄胄纪念馆", "address": "河北省保定市蠡县青少年活动中心斜对面", "image": "", "rank": 8, "time": 2, "location": {"lat": 38.51569924997887, "lng": 115.59913615686798}, "feature": {"sight_features": "", "sight_content": ""}}, {"title": "嘟嘟乐儿童乐园", "address": "河北省保定市蠡县蠡吾镇公园东路安监局(金都丽景东100米)", "image": "", "rank": 9, "time": 2, "location": {"lat": 38.48343155720705, "lng": 115.60236655780396}, "feature": {"sight_features": "", "sight_content": ""}}, {"title": "童梦王国儿童主题乐园", "address": "范蠡西路316号", "image": "", "rank": 10, "time": 2, "location": {"lat": 33.024872865348755, "lng": 112.5532005308395}, "feature": {"sight_features": "", "sight_content": ""}}, {"title": "畅园", "address": "工业北大街与温留路交叉口西50米", "image": "", "rank": 11, "time": 1.0, "location": {"lat": 38.51395884633226, "lng": 115.61023480588447}, "feature": {"sight_features": "", "sight_content": ""}}, {"title": "观音堂", "address": "辛兴镇梁庄万佛寺附近", "image": "", "rank": 12, "time": 2.0, "location": {"lat": 38.557185021498746, "lng": 115.62896733687057}, "feature": {"sight_features": "", "sight_content": ""}}, {"title": "枫叶时尚广场", "address": "河北省保定市蠡县蠡吾南大街137号", "image": "", "rank": 13, "time": 2, "location": {"lat": 38.50154492773236, "lng": 115.58863017164899}, "feature": {"sight_features": "", "sight_content": ""}}, {"title": "烈士陵园(张村)", "address": "河北省保定市蠡县小陈乡张村营", "image": "", "rank": 14, "time": 2, "location": {"lat": 38.534350017295345, "lng": 115.53882686957354}, "feature": {"sight_features": "", "sight_content": ""}}, {"title": "x-空间真人密室逃脱", "address": "中国河北省保定市蠡县公安局东行500米路北", "image": "", "rank": 15, "time": 2, "location": {"lat": 38.48858740383493, "lng": 115.59688963132999}, "feature": {"sight_features": "", "sight_content": ""}}, {"title": "百尺影剧院", "address": "商贸大街", "image": "", "rank": 16, "time": 2, "location": {"lat": 30.667724059729743, "lng": 114.31078749128864}, "feature": {"sight_features": "", "sight_content": ""}}]}