{"cityName": "礼县", "days": 2, "cityImage": "", "spots": [{"title": "甘肃秦文化博物馆", "address": "陇南市礼县东新南路", "image": "", "rank": 1, "time": 2.5, "location": {"lat": 34.19182737767173, "lng": 105.19713462275564}, "feature": {"sight_features": "", "sight_content": ""}}, {"title": "武侯祠", "address": "陇南市礼县祁山乡", "image": "", "rank": 2, "time": 1.5, "location": {"lat": 34.235699103149926, "lng": 105.40526231670108}, "feature": {"sight_features": "", "sight_content": ""}}, {"title": "大堡子山秦公墓地", "address": "陇南市礼县永坪乡赵坪村", "image": "", "rank": 3, "time": 1.5, "location": {"lat": 34.296280526359276, "lng": 105.27668206307214}, "feature": {"sight_features": "", "sight_content": ""}}, {"title": "云梦山庄", "address": "306省道", "image": "", "rank": 4, "time": 1.5, "location": {"lat": 44.29269479672118, "lng": 120.43504383645545}, "feature": {"sight_features": "", "sight_content": ""}}, {"title": "礼县正泰果业农民专业合作社", "address": "306省道附近", "image": "", "rank": 5, "time": 2.5, "location": {"lat": 44.29269479672118, "lng": 120.43504383645545}, "feature": {"sight_features": "", "sight_content": ""}}, {"title": "嘉诚书画廊", "address": "739乡道附近", "image": "", "rank": 6, "time": 2, "location": {"lat": 38.20475905330658, "lng": 115.54959737297708}, "feature": {"sight_features": "", "sight_content": ""}}, {"title": "大堡子山遗址及墓群", "address": "甘肃省礼县永兴乡,永坪乡境内 742213", "image": "", "rank": 7, "time": 2, "location": {"lat": 34.21589920244709, "lng": 105.33990114606605}, "feature": {"sight_features": "", "sight_content": ""}}, {"title": "天水石门山", "address": "甘肃省天水市麦积区南山村 741028", "image": "", "rank": 8, "time": 2.0, "location": {"lat": 34.23223448254649, "lng": 105.71180465141964}, "feature": {"sight_features": "", "sight_content": ""}}, {"title": "陇南香山自然保护区", "address": "甘肃省礼县雷坝乡 746511", "image": "", "rank": 9, "time": 2, "location": {"lat": 33.792627980215144, "lng": 105.05218726878577}, "feature": {"sight_features": "", "sight_content": ""}}, {"title": "香山观", "address": "陇南市礼县香山风景区内", "image": "", "rank": 10, "time": 2, "location": {"lat": 34.194685061207444, "lng": 105.18359096939531}, "feature": {"sight_features": "", "sight_content": ""}}, {"title": "鲁卡奇儿童乐园", "address": "陇南市礼县", "image": "", "rank": 11, "time": 2, "location": {"lat": 34.194685061207444, "lng": 105.18359096939531}, "feature": {"sight_features": "", "sight_content": ""}}, {"title": "爱西尔儿童乐园", "address": "甘肃省陇南市礼县城关镇西大街春天大厦西", "image": "", "rank": 12, "time": 2, "location": {"lat": 34.194187867149004, "lng": 105.18726228382813}, "feature": {"sight_features": "", "sight_content": ""}}, {"title": "礼县基督教堂", "address": "城关镇河畔金城后门", "image": "", "rank": 13, "time": 1.0, "location": {"lat": 34.19079696175046, "lng": 105.19711392938991}, "feature": {"sight_features": "", "sight_content": ""}}, {"title": "赤土山庄", "address": "306省道", "image": "", "rank": 14, "time": 2, "location": {"lat": 44.29269479672118, "lng": 120.43504383645545}, "feature": {"sight_features": "", "sight_content": ""}}, {"title": "好菜香农家乐", "address": "东新北路新农村8排13号", "image": "", "rank": 15, "time": 2, "location": {"lat": 40.43413539434948, "lng": 116.6416511347038}, "feature": {"sight_features": "", "sight_content": ""}}]}