{"cityName": "理县", "days": null, "cityImage": "", "spots": [{"title": "毕棚沟", "address": "阿坝藏族羌族自治州理县朴头乡庄房村88号", "image": "", "rank": 1, "time": 2, "location": {"lat": 31.442508871069432, "lng": 103.16959015256717}, "feature": {"sight_features": "特色1 集滑雪冒险、观览度假于一体的原生态旅游风景区 特色2 以优美的自然风光、完美的自然生态景观及生态环境著称 特色3 景区红叶、杜鹃花种类繁多，森林原始、瀑布飞挂、冰川奇特", "sight_content": "毕棚沟位于四川阿坝州理县境内，四姑娘山的北麓，传说是四姑娘山的背影，以优美的自然风光、完美的自然生态、优良的生态环境而著称。\n春季是个观花的好地方。毕棚沟之春蓝天、白云、山峰、雪峰、风化岩石、高山草甸、高山灌丛以及混交林等多层次的形成了一种奇丽的自然景观，在这里野花、野草以及中药材，稀有珍稀动物和各种鸟类随处可见，每到春季，满山遍野的野花、野草争奇斗艳，竞相开放，特别是五月初到六月的羊角花盛开的时季，各种各样的羊角花遍及整个沟内，散发出淡淡的清香。\n夏季是个避暑的好地方。这里大面积的原始森林调节了气候，净化了空气，美化了环境，满山翠绿，万木争荣，风冰气爽，夏季清凉。在风和日丽的日子里，人们漫步在林中、溪边，或乘坐电瓶车观赏美景，亲近自然，放松身心，把自己置身于高度的优美清凉的环境之中，给人宁静、舒适，真正感受大自然赋予的乐趣。\n秋色是醉人的，每年的9月至11月为红叶彩林的最佳观赏期，数十里彩林带从谷底到山巅绵延不断。有的灿如黄金，有的苍翠欲滴，丹枫如火，层林尽染；山间溪水潺潺，雪峰晶莹剔透，五彩油画倒影水中，构织出一幅幅迷人的金秋画卷。\n神奇的冬景则以它幽、险、雄、奇使人留恋，令人忘情。毕棚沟冬季积雪期为11月底到次年的3月底，积雪厚度60厘米以上，雪质优良，是中国南方低纬度最佳冰雪娱乐之地。冰雪娱乐场可同时容纳上千人进行冰雪娱乐，场内配备拖牵索道，提供滑雪板、雪爬犁、雪上飞碟、雪地摩托、沙滩摩托等多种娱乐设施。这里，你可以跋涉、滑雪、滑冰、攀登雪峰、打雪仗、堆雪人。"}}, {"title": "桃坪羌寨", "address": "阿坝藏族羌族自治州理县东部边缘桃坪乡", "image": "", "rank": 2, "time": 2.5, "location": {"lat": 31.563940381307802, "lng": 103.45731801287104}, "feature": {"sight_features": "特色1 精湛的建筑艺术，成为研究羌文化的一本教科书 特色2 东方神秘古堡、功能齐全的居民建筑。 特色3 隐秘独特的地下水网、攻防皆备的迷宫巷道、千年不倒的神奇碉楼", "sight_content": "桃坪羌寨位于理县东部边缘, 全寨核心区共有98户人家,498人。距成都130公里，县城37公里，是理县“一廊四情”旅游产业布局的“羌情理县”展示核心区。她是世界上保存完整的古羌寨之一，以其户户相连的房屋布局、迷宫式的寨内巷道、四通八达的地下水网和精湛的碉楼石砌技艺闻名于世，被中外学者誉为“神秘的东方古堡”。\n释比祭坛是羌族释比文化的展示地。羌族有语言没文字，释比担负着羌族文化传承的重任，口耳相传的特殊传承方式，使释比文化更显神秘和珍贵，一位释比就是一本羌族文化词典。千百年来他们在岷江的高山峡谷中，通过猴头帽、神杖、响盘、经文、咒语、羊皮鼓舞等表现形式，彰显着羌族释比文化的独特魅力。由于特殊的地质风貌，桃坪羌寨的外围环境给人荒芜贫瘠的影响，其实这里是众多果木、蔬菜最完美的生长基地！一千四百米的海拔、充足的日照、丰富的水资源、纯净的空气，把这里的每一类水果都孕育的生态而美味。从每年的4月到11月，你都可以品赏到水果，主要有桃子、苹果、梨子、核桃、桃李、鸡血李、樱桃、葡萄、柿子、草莓、无花果、罗汉果等等,在山泉水的浇灌美美的生长着。\n桃坪羌寨就像是一座巨大的防御城堡，处处都掩藏着战争的阴影。在远古时期，桃坪羌寨的确是一座城堡，所以，她有东方古堡的称谓。但是这并不能说明桃坪人是好战的，他们是为了防卫敌人的入侵才建造这座功能完备的防卫城堡的。如今战争的硝烟已散尽，宏伟的建筑，也失去了抵御外敌的意义，但它那精湛的建筑艺术和它所包含的民族内涵，使它成为羌族光辉历史的见证，成为研究羌文化的一本教科书，在世界民族文化史上放射出灿烂的光华。"}}, {"title": "米亚罗风景区", "address": "阿坝藏族羌族自治州理县亚罗镇317国道米亚罗风景区", "image": "", "rank": 3, "time": 2.5, "location": {"lat": 31.67890574900116, "lng": 102.79268475726957}, "feature": {"sight_features": "", "sight_content": ""}}, {"title": "古尔沟温泉", "address": "阿坝藏族羌族自治州理县古尔沟镇沟口温泉路", "image": "", "rank": 4, "time": 2, "location": {"lat": 31.50182018173724, "lng": 102.98755179014117}, "feature": {"sight_features": "特色1 休闲养生的好去处，放松身心，洗去疲惫。", "sight_content": "古尔沟温泉地处米亚罗风景区腹地，位于理县古尔沟神峰山下，故称古尔沟温泉。古尔沟温泉除了标准游泳池外，还有许多大小浴室，游客可根据自身需要自行选择。在一个寒冷的日子里，来这里泡温泉，洗去一身的疲惫，既放松又养生，一边泡温泉的同时一边与家人、朋友聊天，增进感情，享受慢节奏的悠闲时光。"}}, {"title": "甘堡藏寨", "address": "阿坝藏族羌族自治州理县东部边缘", "image": "", "rank": 5, "time": null, "location": {"lat": 31.905511577266523, "lng": 102.23141546175019}, "feature": {"sight_features": "", "sight_content": ""}}, {"title": "孟屯河谷", "address": "阿坝藏族羌族自治州理县上孟乡、下孟县境内", "image": "", "rank": 6, "time": 2.5, "location": {"lat": 31.679623115687654, "lng": 103.14335769133592}, "feature": {"sight_features": "", "sight_content": ""}}, {"title": "月亮湾", "address": "阿坝藏族羌族自治州理县朴头乡毕棚沟内", "image": "", "rank": 7, "time": 1.5, "location": {"lat": 31.41955983264236, "lng": 102.99426031502867}, "feature": {"sight_features": "", "sight_content": ""}}, {"title": "磐羊湖", "address": "阿坝藏族羌族自治州理县朴头乡毕棚沟内", "image": "", "rank": 8, "time": 0.4, "location": {"lat": 31.41955983264236, "lng": 102.99426031502867}, "feature": {"sight_features": "", "sight_content": ""}}, {"title": "龙王海", "address": "阿坝藏族羌族自治州理县朴头乡毕棚沟内", "image": "", "rank": 9, "time": 0.4, "location": {"lat": 31.41955983264236, "lng": 102.99426031502867}, "feature": {"sight_features": "", "sight_content": "毕棚沟龙王海是一个翡翠般的高原湖泊，面积约2万平方米，龙王海四季变幻万千，春季静若处子，夏季英姿勃勃，秋季天高云淡水碧，冬季银装素裹。传此湖底居龙王，故名为“龙王海”。"}}, {"title": "卓玛湖", "address": "阿坝藏族羌族自治州理县朴头乡毕棚沟内", "image": "", "rank": 10, "time": 0.4, "location": {"lat": 31.41955983264236, "lng": 102.99426031502867}, "feature": {"sight_features": "", "sight_content": ""}}, {"title": "危关石碉", "address": "阿坝藏族羌族自治州理县米亚罗镇", "image": "", "rank": 11, "time": 1.0, "location": {"lat": 31.66554379685823, "lng": 102.81079129238304}, "feature": {"sight_features": "", "sight_content": ""}}, {"title": "白龙瀑布", "address": "阿坝藏族羌族自治州理县朴头乡毕棚沟内", "image": "", "rank": 12, "time": 0.25, "location": {"lat": 31.41955983264236, "lng": 102.99426031502867}, "feature": {"sight_features": "", "sight_content": ""}}, {"title": "半脊峰", "address": "阿坝藏族羌族自治州理县朴头乡毕棚沟内", "image": "", "rank": 13, "time": 0.4, "location": {"lat": 31.41955983264236, "lng": 102.99426031502867}, "feature": {"sight_features": "", "sight_content": ""}}, {"title": "女皇峰红叶温泉", "address": "阿坝理县毕棚沟游客中心上行凉台沟（梭罗沟）方向上行300米毕棚沟世纪酒店", "image": "", "rank": 14, "time": 2, "location": {"lat": 31.419666109826117, "lng": 102.99361421238383}, "feature": {"sight_features": "特色1 天然的养生疗养胜地", "sight_content": "国家AAAA级景区毕棚沟红叶观赏圣地；深红的叶与女皇峰雪山的洁白相互辉映，纯洁的圣水伴随着蒸汽，形成了天然的养生疗养胜地—女皇峰红叶温泉。\n女皇峰红叶温泉位于理县毕棚沟世纪酒店，酒店VIP专用恒温通道与温泉相连接。温泉乃纯天然高温泉眼，其中含有30多种对人体有益的矿物质微量元素（如铁、溴、氟等），对沐浴者起到舒筋活络、强身健体、润肤养颜、安神清脑、抵抗衰劳等保健作用。同时女皇峰红叶温泉风格独特（疗养、观红叶、看瀑布、品生态美食、玩雪）是大自然给予我们的馈赠，与温泉遥相呼应的毕棚沟世纪酒店含有独立观景客房64间，均配有地暖、无线网络、高级床上用品等；酒店同时拥有自助烧烤区、KTV娱乐区、棋牌娱乐区、中西式餐饮区、VIP休息区、商务会议区等，，并为来宾提供了近100个停车位，是您休闲度假、商务旅行、美食体验、养乐安逸的绝佳目的地。"}}, {"title": "古尔沟", "address": "四川省阿坝藏族羌族自治州理县古尔沟镇", "image": "", "rank": 15, "time": 2, "location": {"lat": 31.50311101873228, "lng": 102.98604404991897}, "feature": {"sight_features": "", "sight_content": ""}}, {"title": "八角碉藏寨", "address": "于四川省阿坝藏族羌族自治州理县米亚罗镇", "image": "", "rank": 16, "time": 1.5, "location": {"lat": 31.66554379685823, "lng": 102.81079129238304}, "feature": {"sight_features": "", "sight_content": ""}}, {"title": "5·12特大地震羌寨抗震救灾·恢...", "address": "317国道", "image": "", "rank": 17, "time": 2, "location": {"lat": 31.408980835514807, "lng": 103.11125800875102}, "feature": {"sight_features": "", "sight_content": ""}}, {"title": "古尔沟神峰温泉宾馆", "address": "古尔沟镇温泉路", "image": "", "rank": 18, "time": 2, "location": {"lat": 31.50182018173724, "lng": 102.98755179014117}, "feature": {"sight_features": "", "sight_content": ""}}, {"title": "燕子岩窝景区", "address": "阿坝藏族羌族自治州理县", "image": "", "rank": 19, "time": 2, "location": {"lat": 31.905511577266523, "lng": 102.23141546175019}, "feature": {"sight_features": "", "sight_content": ""}}, {"title": "桑登寺", "address": "四川省阿坝藏族羌族自治州理县孟屯河谷上孟乡日波村", "image": "", "rank": 20, "time": 1.5, "location": {"lat": 31.69290369048867, "lng": 103.13546639902414}, "feature": {"sight_features": "", "sight_content": ""}}, {"title": "叉子沟垭口", "address": "四川省理县毕棚沟景区", "image": "", "rank": 21, "time": 2, "location": {"lat": 31.38036158939768, "lng": 102.9994412031252}, "feature": {"sight_features": "", "sight_content": ""}}, {"title": "宝殿寺（喇嘛寺）", "address": "四川省理县县城旁边官田村东侧", "image": "", "rank": 22, "time": 2, "location": {"lat": 31.456383638182345, "lng": 103.17470884738005}, "feature": {"sight_features": "", "sight_content": ""}}, {"title": "筹边楼", "address": "阿坝藏族羌族自治州理县薛城镇", "image": "", "rank": 23, "time": 1.5, "location": {"lat": 31.631915980121928, "lng": 103.28908827608333}, "feature": {"sight_features": "", "sight_content": ""}}, {"title": "俄尼庄园", "address": "米亚罗猛古村下猛古10号", "image": "", "rank": 24, "time": 2, "location": {"lat": 31.618769007598196, "lng": 102.82524511607254}, "feature": {"sight_features": "", "sight_content": ""}}, {"title": "凌云山庄", "address": "阿坝州理县朴头乡毕棚沟内", "image": "", "rank": 25, "time": 2, "location": {"lat": 31.41955983264236, "lng": 102.99426031502867}, "feature": {"sight_features": "", "sight_content": ""}}, {"title": "5·12特大地震甘堡藏寨抗震救灾...", "address": "甘堡藏寨景区游客接待中心", "image": "", "rank": 26, "time": 2, "location": {"lat": 31.48938406732553, "lng": 103.20589422473553}, "feature": {"sight_features": "", "sight_content": ""}}, {"title": "杂谷脑河", "address": "阿坝路", "image": "", "rank": 27, "time": 2, "location": {"lat": 31.905511577266523, "lng": 102.23141546175019}, "feature": {"sight_features": "", "sight_content": ""}}, {"title": "白塔温泉", "address": "古尔沟镇木村沟白塔温泉", "image": "", "rank": 28, "time": 2, "location": {"lat": 41.2758453617919, "lng": 123.18060844799179}, "feature": {"sight_features": "", "sight_content": ""}}, {"title": "孟屯河谷泽尔欢藏家乐", "address": "下孟乡距离乡政府1公里临近弥勒寺", "image": "", "rank": 29, "time": 2, "location": {"lat": 28.655483453912247, "lng": 121.26847605622132}, "feature": {"sight_features": "", "sight_content": ""}}, {"title": "理县诗曼温泉", "address": "古尔沟镇317国道东50米(成那线)", "image": "", "rank": 30, "time": null, "location": {"lat": 31.565946365518503, "lng": 102.85980001853154}, "feature": {"sight_features": "", "sight_content": ""}}, {"title": "阿坝桃坪羌寨樱桃园", "address": "317国道", "image": "", "rank": 31, "time": 4.5, "location": {"lat": 31.408980835514807, "lng": 103.11125800875102}, "feature": {"sight_features": "", "sight_content": ""}}, {"title": "米亚罗岷江大峡谷", "address": "四川省理县境内 623100", "image": "", "rank": 32, "time": 2, "location": {"lat": 31.442550437563135, "lng": 103.17351138906746}, "feature": {"sight_features": "", "sight_content": ""}}, {"title": "岷江柏林", "address": "阿坝藏族羌族自治州理县境内", "image": "", "rank": 33, "time": 2, "location": {"lat": 31.905511577266523, "lng": 102.23141546175019}, "feature": {"sight_features": "", "sight_content": ""}}, {"title": "神鹿峰", "address": "阿坝藏族羌族自治州理县境内", "image": "", "rank": 34, "time": 2, "location": {"lat": 31.905511577266523, "lng": 102.23141546175019}, "feature": {"sight_features": "", "sight_content": ""}}, {"title": "倒沟万年冰川", "address": "位于阿坝藏族羌族自治州理县境内", "image": "", "rank": 35, "time": 2, "location": {"lat": 31.905511577266523, "lng": 102.23141546175019}, "feature": {"sight_features": "", "sight_content": ""}}, {"title": "毕棚沟滑雪场", "address": "Z033县道毕棚沟滑雪场", "image": "", "rank": 36, "time": 2, "location": {"lat": 31.32466387001691, "lng": 102.96055878663464}, "feature": {"sight_features": "", "sight_content": ""}}, {"title": "韩家大院", "address": "上孟乡塔斯村164号(什古客栈斜对面)", "image": "", "rank": 37, "time": 2, "location": {"lat": 31.673629593256347, "lng": 103.15340066429337}, "feature": {"sight_features": "", "sight_content": ""}}, {"title": "滑雪场", "address": "藏族羌族自治州理县毕棚沟景区", "image": "", "rank": 38, "time": 2, "location": {"lat": 31.38036158939768, "lng": 102.9994412031252}, "feature": {"sight_features": "", "sight_content": ""}}, {"title": "毕棚沟土司休闲山庄", "address": "毕棚沟景区塔子沟新村", "image": "", "rank": 39, "time": 2, "location": {"lat": 31.38036158939768, "lng": 102.9994412031252}, "feature": {"sight_features": "", "sight_content": ""}}, {"title": "嗦朗驴友部落户外露营基地", "address": "上孟乡高桥沟", "image": "", "rank": 40, "time": 2, "location": {"lat": 31.752477233746284, "lng": 103.09852714850426}, "feature": {"sight_features": "", "sight_content": ""}}, {"title": "理县一枝花山庄", "address": "桃坪镇羌桃坪村桃坪羌寨老寨区川主庙后", "image": "", "rank": 41, "time": 2.5, "location": {"lat": 31.56152774862707, "lng": 103.46552258204296}, "feature": {"sight_features": "", "sight_content": ""}}, {"title": "神峰温泉风景区", "address": "四川省理县古尔沟神峰山下杂谷脑", "image": "", "rank": 42, "time": 2, "location": {"lat": 31.442550437563135, "lng": 103.17351138906746}, "feature": {"sight_features": "", "sight_content": ""}}, {"title": "阿朗吉风情藏家乐", "address": "阿坝藏族羌族自治州-理县", "image": "", "rank": 43, "time": 2, "location": {"lat": 31.442550437563135, "lng": 103.17351138906746}, "feature": {"sight_features": "", "sight_content": ""}}, {"title": "阿呢太神泉庄园", "address": "阿坝藏族羌族自治州-理县-神泉广场(317国道南)", "image": "", "rank": 44, "time": 2, "location": {"lat": 31.408980835514807, "lng": 103.11125800875102}, "feature": {"sight_features": "", "sight_content": ""}}, {"title": "休溪坪", "address": "阿坝藏族羌族自治州-理县", "image": "", "rank": 45, "time": 2, "location": {"lat": 31.442550437563135, "lng": 103.17351138906746}, "feature": {"sight_features": "", "sight_content": ""}}, {"title": "二古溪", "address": "阿坝藏族羌族自治州理县三一七国道", "image": "", "rank": 46, "time": 2, "location": {"lat": 31.408980835514807, "lng": 103.11125800875102}, "feature": {"sight_features": "", "sight_content": ""}}, {"title": "浮云牧场", "address": "阿坝藏族羌族自治州理县通化乡西山村娃崩寨", "image": "", "rank": 47, "time": 7.5, "location": {"lat": 31.59021017662224, "lng": 103.4348303986667}, "feature": {"sight_features": "", "sight_content": ""}}, {"title": "上孟乡", "address": "四川省阿坝藏族羌族自治州理县上孟乡", "image": "", "rank": 48, "time": 2, "location": {"lat": 31.679623115687654, "lng": 103.14335769133592}, "feature": {"sight_features": "", "sight_content": ""}}, {"title": "毕棚沟游客服务中心", "address": "四川省理县毕棚沟沟口", "image": "", "rank": 49, "time": 2, "location": {"lat": 31.372991395717825, "lng": 102.98318195603872}, "feature": {"sight_features": "", "sight_content": ""}}, {"title": "理县烈士陵园", "address": "四川省阿坝藏族羌族自治州理县西街(近致和时代广场)", "image": "", "rank": 50, "time": 3.0, "location": {"lat": 31.440580716516703, "lng": 103.16561587831299}, "feature": {"sight_features": "", "sight_content": ""}}, {"title": "凉台沟", "address": "四川阿坝藏族羌族自治州理县梭罗沟", "image": "", "rank": 51, "time": 2, "location": {"lat": 31.417836841714696, "lng": 103.03378857006224}, "feature": {"sight_features": "", "sight_content": ""}}, {"title": "老君沟", "address": "四川省阿坝藏族羌族自治州理县孟屯河谷景区内", "image": "", "rank": 52, "time": 2, "location": {"lat": 31.905511577266523, "lng": 102.23141546175019}, "feature": {"sight_features": "", "sight_content": ""}}]}