{"cityName": "利辛", "days": "", "cityImage": "", "spots": [{"title": "白鹭洲水利风景区", "address": "亳州市利辛县001乡道与034县道交叉口北200米", "image": "", "rank": 1, "time": 2.0, "location": {"lat": 33.00019765805505, "lng": 116.41852829277875}, "feature": {"sight_features": "", "sight_content": ""}}, {"title": "七彩水汇", "address": "亳州市利辛县长春路与建设北路交汇处", "image": "", "rank": 2, "time": 2, "location": {"lat": 33.15931528993989, "lng": 116.21755738984824}, "feature": {"sight_features": "", "sight_content": ""}}, {"title": "利辛县烈士陵园", "address": "亳州市利辛县复兴路与047县道交叉口东北150米", "image": "", "rank": 3, "time": 1.0, "location": {"lat": 33.2847676194586, "lng": 116.09221073152966}, "feature": {"sight_features": "", "sight_content": ""}}, {"title": "胡芬家庭农场", "address": "阚疃镇前张湾", "image": "", "rank": 4, "time": 2, "location": {"lat": 33.01290511280105, "lng": 116.28295907046855}, "feature": {"sight_features": "", "sight_content": ""}}, {"title": "淝河农庄", "address": "202省道", "image": "", "rank": 5, "time": 2, "location": {"lat": 37.77792504283699, "lng": 114.12616671611477}, "feature": {"sight_features": "", "sight_content": ""}}, {"title": "小宋台垂钓中心", "address": "阚疃镇宋台村", "image": "", "rank": 6, "time": 2, "location": {"lat": 32.99135157009041, "lng": 116.41350423804457}, "feature": {"sight_features": "", "sight_content": ""}}, {"title": "梁城", "address": "安徽省淮南市潘集区李圩乡 232082", "image": "", "rank": 7, "time": 2, "location": {"lat": 32.75084186992381, "lng": 116.68346127797011}, "feature": {"sight_features": "", "sight_content": ""}}, {"title": "西淝河湿地公园", "address": "安徽省亳州市利辛县S305", "image": "", "rank": 8, "time": 2, "location": {"lat": 33.15559584152897, "lng": 116.1914935225951}, "feature": {"sight_features": "", "sight_content": ""}}, {"title": "青松儿童游乐园", "address": "安徽省亳州市利辛县G36(宁洛高速)", "image": "", "rank": 9, "time": 2, "location": {"lat": 33.15559584152897, "lng": 116.1914935225951}, "feature": {"sight_features": "", "sight_content": ""}}, {"title": "龙庭公园", "address": "和平路与滨河中路交叉口西50米", "image": "", "rank": 10, "time": 2, "location": {"lat": 33.145083907928175, "lng": 116.22212440560335}, "feature": {"sight_features": "", "sight_content": ""}}, {"title": "旧城镇越王公园", "address": "安徽省亳州市利辛县X049", "image": "", "rank": 11, "time": 2, "location": {"lat": 33.15559584152897, "lng": 116.1914935225951}, "feature": {"sight_features": "", "sight_content": ""}}, {"title": "路集桥头广场", "address": "安徽省亳州市利辛县049县道", "image": "", "rank": 12, "time": 2, "location": {"lat": 33.28753891838152, "lng": 116.2948603698311}, "feature": {"sight_features": "", "sight_content": ""}}, {"title": "毫州刘廷墓", "address": "安徽省利辛县张村镇 236700", "image": "", "rank": 13, "time": 2, "location": {"lat": 33.320806618560134, "lng": 116.01798801419135}, "feature": {"sight_features": "", "sight_content": ""}}, {"title": "五一广场", "address": "安徽省亳州市利辛县浩翔路", "image": "", "rank": 14, "time": 1.5, "location": {"lat": 33.14814853507863, "lng": 116.20546236551263}, "feature": {"sight_features": "", "sight_content": ""}}, {"title": "明真小车", "address": "亳州市利辛县", "image": "", "rank": 15, "time": 2, "location": {"lat": 33.15559584152897, "lng": 116.1914935225951}, "feature": {"sight_features": "", "sight_content": ""}}, {"title": "科迪食文化广场(利辛总店)", "address": "向阳中路168号", "image": "", "rank": 16, "time": 2, "location": {"lat": 33.14660813602339, "lng": 116.20250099899216}, "feature": {"sight_features": "", "sight_content": ""}}, {"title": "开心贝拉儿童成长主题乐园", "address": "马店镇马店派出所附近(马店孜镇街道管理委员会南)", "image": "", "rank": 17, "time": 2, "location": {"lat": 33.09550765606186, "lng": 116.13804677017629}, "feature": {"sight_features": "", "sight_content": ""}}, {"title": "六一广场", "address": "建设北路与长春路交叉口东150米", "image": "", "rank": 18, "time": 2, "location": {"lat": 33.159400880340094, "lng": 116.218253237059}, "feature": {"sight_features": "", "sight_content": ""}}, {"title": "冰河嘉年华水上乐园", "address": "利辛县其他淝河大道与文州路交叉口新移动公司大楼北10米", "image": "", "rank": 19, "time": 2, "location": {"lat": 33.16298039164759, "lng": 116.19568364798536}, "feature": {"sight_features": "", "sight_content": ""}}, {"title": "港口公园", "address": "滨河路", "image": "", "rank": 20, "time": 2, "location": {"lat": 39.008473205380874, "lng": 117.67714324450333}, "feature": {"sight_features": "", "sight_content": ""}}, {"title": "大白鲨儿童游乐园", "address": "文州大道七彩世界国际购物广场负一楼", "image": "", "rank": 21, "time": 2, "location": {"lat": 33.15539068419713, "lng": 116.21475006565493}, "feature": {"sight_features": "", "sight_content": ""}}, {"title": "路集文化广场", "address": "复兴路与向阳街交叉口", "image": "", "rank": 22, "time": 2, "location": {"lat": 38.0685769127503, "lng": 114.62582726972457}, "feature": {"sight_features": "", "sight_content": ""}}, {"title": "大桥基督教会", "address": "046县道附近", "image": "", "rank": 23, "time": 2, "location": {"lat": 31.13979744346422, "lng": 118.35186886728903}, "feature": {"sight_features": "", "sight_content": ""}}, {"title": "利辛县基督教会", "address": "阜蚌路585号附近", "image": "", "rank": 24, "time": 2, "location": {"lat": 32.946211211763234, "lng": 115.88391730453661}, "feature": {"sight_features": "", "sight_content": ""}}, {"title": "淝河之韵", "address": "新建路与泰鑫路交叉口东150米", "image": "", "rank": 25, "time": 2, "location": {"lat": 33.143448181449976, "lng": 116.19852429033004}, "feature": {"sight_features": "", "sight_content": ""}}, {"title": "利辛圣三一堂", "address": "和平路与长春路交叉口西100米", "image": "", "rank": 26, "time": 2, "location": {"lat": 33.159445898285256, "lng": 116.22135743235893}, "feature": {"sight_features": "", "sight_content": ""}}, {"title": "祥隆生态农庄", "address": "202省道", "image": "", "rank": 27, "time": 2, "location": {"lat": 37.77792504283699, "lng": 114.12616671611477}, "feature": {"sight_features": "", "sight_content": ""}}, {"title": "爱儿乐婴幼儿水育乐园", "address": "人民北路七彩世界负一楼(苏宁电器斜对面)", "image": "", "rank": 28, "time": 2, "location": {"lat": 22.63935838181424, "lng": 114.04323971803143}, "feature": {"sight_features": "", "sight_content": ""}}, {"title": "莱弗水上乐园(利辛店)", "address": "和平路莱弗广场展厅北侧", "image": "", "rank": 29, "time": 2, "location": {"lat": 39.14914859962243, "lng": 117.01253630655839}, "feature": {"sight_features": "", "sight_content": ""}}, {"title": "印象江南生态乐园", "address": "王人镇曹店村", "image": "", "rank": 30, "time": 2, "location": {"lat": 33.10785696630131, "lng": 115.89436543501094}, "feature": {"sight_features": "", "sight_content": ""}}, {"title": "琴约画廊", "address": "城关镇皖北商城东泰鑫路步行街7栋", "image": "", "rank": 31, "time": 2, "location": {"lat": 33.14896782747003, "lng": 116.19582434598416}, "feature": {"sight_features": "", "sight_content": ""}}, {"title": "竹园农家乐", "address": "向阳中路与科技路交叉口东南100米", "image": "", "rank": 32, "time": 2, "location": {"lat": 33.14834536160326, "lng": 116.18124167204725}, "feature": {"sight_features": "", "sight_content": ""}}, {"title": "利辛剧院", "address": "人民中路767", "image": "", "rank": 33, "time": 2.0, "location": {"lat": 33.152728675531904, "lng": 116.21324511467134}, "feature": {"sight_features": "", "sight_content": ""}}, {"title": "新张集商业街", "address": "安徽省利辛县224省道附近", "image": "", "rank": 34, "time": 2, "location": {"lat": 32.91504657633223, "lng": 116.33383766624794}, "feature": {"sight_features": "", "sight_content": ""}}, {"title": "未病旅游度假村", "address": "亳州市-利辛县-东城桥过桥向北3公里处", "image": "", "rank": 35, "time": 2, "location": {"lat": 33.15559584152897, "lng": 116.1914935225951}, "feature": {"sight_features": "", "sight_content": ""}}, {"title": "西张寨", "address": "亳州市-利辛县", "image": "", "rank": 36, "time": 2, "location": {"lat": 33.15559584152897, "lng": 116.1914935225951}, "feature": {"sight_features": "", "sight_content": ""}}, {"title": "神话娱乐会所(前进路)", "address": "亳州市-利辛县-城关镇-前进路", "image": "", "rank": 37, "time": 2, "location": {"lat": 33.15144146061035, "lng": 116.19116127172595}, "feature": {"sight_features": "", "sight_content": ""}}]}