{"cityName": "陇县", "days": 2, "cityImage": "", "spots": [{"title": "关山草原", "address": "宝鸡市陇县关山店子村", "image": "", "rank": 1, "time": 4.5, "location": {"lat": 34.81599318359737, "lng": 106.84196886989866}, "feature": {"sight_features": "特色1 享有“小天山”之美誉", "sight_content": "关山草原位于宝鸡市陇县西南部,距宝鸡市区134公里、西安市300公里,是中国西北内陆地区唯一的以高山草甸为主体的具有欧式风情的省级风景名胜区,国家AAAA级旅游景区。景区内荟萃了森林、草原、河流、山峦、峡谷等自然景观，纯朴自然又不失壮观,享有“小天山”之美誉。\n这里，地貌与中欧阿尔卑斯山相似，幽涧水泽兼具，草原森林相间，地势广阔，水肥草美，牧马成群，景色秀丽。\n这里,地貌与中欧阿尔卑斯山相似.气候受垂直地带性地理条件的影响,冬春无界,夏秋相连,有“关山六月寒凝霜” 的写照.\n关山景区自然旅游资源景观，由山势浑圆的峰丘、梁脊、宽谷、缓坡构建出景区的景观骨架；由连片的林木和草甸草地构成景区的景观主色调；由潺潺溪流和清澈潭池构成景区的景观脉搏；由蓝天白云以及各种天象构成景区的景观衬托；由清新的空气和凉爽宜人的气候构成景区的景观氛围。"}}, {"title": "龙门洞", "address": "宝鸡市陇县新集川乡", "image": "", "rank": 2, "time": 1.5, "location": {"lat": 35.07657470136781, "lng": 106.67233032327456}, "feature": {"sight_features": "", "sight_content": ""}}, {"title": "秋菊山庄风景区", "address": "宝鸡市陇县关山乡", "image": "", "rank": 3, "time": 2, "location": {"lat": 34.73660491271963, "lng": 106.57443410000108}, "feature": {"sight_features": "", "sight_content": ""}}, {"title": "关山大唐私家牧场", "address": "宝鸡市陇县关山森林公园内6公里处", "image": "", "rank": 4, "time": 2, "location": {"lat": 34.72143266415099, "lng": 106.68366527335208}, "feature": {"sight_features": "", "sight_content": ""}}, {"title": "关山李涛农家乐", "address": "店子街", "image": "", "rank": 5, "time": 2, "location": {"lat": 31.286510382277342, "lng": 108.60741955635838}, "feature": {"sight_features": "", "sight_content": ""}}, {"title": "喜娟农家", "address": "高楼村民居园(高楼村中国电信信号塔)", "image": "", "rank": 6, "time": 2, "location": {"lat": 35.92136694635931, "lng": 107.87162139291695}, "feature": {"sight_features": "", "sight_content": ""}}, {"title": "陇县图书馆", "address": "东大街9号", "image": "", "rank": 7, "time": 2, "location": {"lat": 22.61729942596652, "lng": 114.14733751642652}, "feature": {"sight_features": "", "sight_content": ""}}, {"title": "陇县关山草原生态家园农家乐", "address": "宝鸡陇县关山草原蒙古部落杜家沟（ 关山草原景区蒙古部落内）", "image": "", "rank": 8, "time": 2, "location": {"lat": 34.72793811140943, "lng": 106.5702127495113}, "feature": {"sight_features": "", "sight_content": ""}}, {"title": "关山大酒店草原旅游度假村", "address": "宝鸡市陇县关山店子街1号", "image": "", "rank": 9, "time": 2, "location": {"lat": 34.76265496752743, "lng": 106.56633137621634}, "feature": {"sight_features": "", "sight_content": ""}}, {"title": "宝鸡鑫洁阁渡假村", "address": "陕西省宝鸡市陇县天成镇关山草原景区关山牧场", "image": "", "rank": 10, "time": 3.0, "location": {"lat": 34.7334978197528, "lng": 106.57879767560905}, "feature": {"sight_features": "", "sight_content": ""}}, {"title": "关山大酒店客房部", "address": "西大街8号关山牧场内", "image": "", "rank": 11, "time": 2, "location": {"lat": 34.729689202154624, "lng": 106.56986206810801}, "feature": {"sight_features": "", "sight_content": ""}}, {"title": "普照寺", "address": "陕西省宝鸡市陇县东南镇马家河村", "image": "", "rank": 12, "time": 0.75, "location": {"lat": 34.853801161195804, "lng": 106.91326087988355}, "feature": {"sight_features": "", "sight_content": ""}}, {"title": "古砬塔县遗址", "address": "宝鸡市陇县南沟村北800米关山草原风景区内", "image": "", "rank": 13, "time": 2, "location": {"lat": 35.02583211420266, "lng": 106.97304124669034}, "feature": {"sight_features": "", "sight_content": ""}}, {"title": "关山CS野战", "address": "宝鸡市陇县关山店子街", "image": "", "rank": 14, "time": 2, "location": {"lat": 34.76265496752743, "lng": 106.56633137621634}, "feature": {"sight_features": "", "sight_content": ""}}, {"title": "关山森林公园", "address": "干柴湾村东800米附近", "image": "", "rank": 15, "time": 2.0, "location": {"lat": 30.69188965191846, "lng": 110.48948005900093}, "feature": {"sight_features": "", "sight_content": ""}}, {"title": "白马寺", "address": "南街与学道南巷交叉口西南100米", "image": "", "rank": 16, "time": 1.5, "location": {"lat": 31.909199228140412, "lng": 121.30903625505988}, "feature": {"sight_features": "", "sight_content": ""}}, {"title": "烈士陵园", "address": "陕西省宝鸡市陇县", "image": "", "rank": 17, "time": 2, "location": {"lat": 34.8987802531072, "lng": 106.87058365441018}, "feature": {"sight_features": "", "sight_content": ""}}, {"title": "青龙湖激情大冲关", "address": "青龙湖", "image": "", "rank": 18, "time": 2, "location": {"lat": 33.98796013247017, "lng": 113.20437812120703}, "feature": {"sight_features": "", "sight_content": ""}}, {"title": "清远飞霞碧溪漂流游乐有限公司有...", "address": "飞来峡风景区", "image": "", "rank": 19, "time": 5.0, "location": {"lat": 23.720900829674882, "lng": 113.1997372224099}, "feature": {"sight_features": "", "sight_content": ""}}, {"title": "金沙湾温泉", "address": "洪家车站附近", "image": "", "rank": 20, "time": 2, "location": {"lat": 28.619425794248045, "lng": 121.42175229311712}, "feature": {"sight_features": "", "sight_content": ""}}, {"title": "牡丹艺术展", "address": "老城凤鸣书院及文庙", "image": "", "rank": 21, "time": 2, "location": {"lat": 34.68960106349699, "lng": 112.4765035657198}, "feature": {"sight_features": "", "sight_content": ""}}, {"title": "李刚农家乐", "address": "陇三路南50米", "image": "", "rank": 22, "time": 2, "location": {"lat": 23.626973100665843, "lng": 106.32417306361238}, "feature": {"sight_features": "", "sight_content": ""}}, {"title": "原森家乐", "address": "关山银科里2组22号", "image": "", "rank": 23, "time": 2, "location": {"lat": 34.73960466090182, "lng": 106.57632895240654}, "feature": {"sight_features": "", "sight_content": ""}}, {"title": "农友农业科技有限公司", "address": "城关镇城关镇滨市场", "image": "", "rank": 24, "time": 2, "location": {"lat": 33.8523792245012, "lng": 113.47977737169182}, "feature": {"sight_features": "", "sight_content": ""}}, {"title": "关山牧场农家乐", "address": "关山牧场蒙古部落(哈日查盖)", "image": "", "rank": 25, "time": 2, "location": {"lat": 34.89925564302983, "lng": 106.78325470729149}, "feature": {"sight_features": "", "sight_content": ""}}, {"title": "贝贝水上乐园", "address": "环城东路65号", "image": "", "rank": 26, "time": 2, "location": {"lat": 31.646817973136912, "lng": 120.7558147654179}, "feature": {"sight_features": "", "sight_content": ""}}, {"title": "龙门洞森林公园", "address": "陕西省陇县西北", "image": "", "rank": 27, "time": 2, "location": {"lat": 34.8987802531072, "lng": 106.87058365441018}, "feature": {"sight_features": "", "sight_content": ""}}, {"title": "陇县西武当畜禽养殖专业合作社", "address": "宝鸡市-陇县-东县路附近", "image": "", "rank": 28, "time": 4.5, "location": {"lat": 34.720013021000916, "lng": 106.9234857498254}, "feature": {"sight_features": "", "sight_content": ""}}, {"title": "关山瞭望塔", "address": "宝鸡市-陇县-南沟村北800米关山草原风景区内", "image": "", "rank": 29, "time": 2, "location": {"lat": 35.02583211420266, "lng": 106.97304124669034}, "feature": {"sight_features": "", "sight_content": ""}}, {"title": "关山牧场蒙古部落蒙古包", "address": "宝鸡市-陇县-陇三路关山牧场", "image": "", "rank": 30, "time": 2, "location": {"lat": 34.89925564302983, "lng": 106.78325470729149}, "feature": {"sight_features": "", "sight_content": ""}}, {"title": "二郎山隧道", "address": "雅安市天全县两路乡雅康高速", "image": "", "rank": 31, "time": 2, "location": {"lat": 29.92322475030524, "lng": 102.3935780223301}, "feature": {"sight_features": "", "sight_content": ""}}]}