{"cityName": "龙陵", "days": 2, "cityImage": "", "spots": [{"title": "松山战役旧址", "address": "保山市龙陵县腊勐乡", "image": "", "rank": 1, "time": 1.5, "location": {"lat": 24.73326790458151, "lng": 98.93499841599156}, "feature": {"sight_features": "", "sight_content": ""}}, {"title": "惠通桥", "address": "保山市龙陵县红松段北50米", "image": "", "rank": 2, "time": 0.3, "location": {"lat": 24.592546947017, "lng": 98.6957499122748}, "feature": {"sight_features": "", "sight_content": ""}}, {"title": "龙陵抗日纪念馆", "address": "兴农路52号", "image": "", "rank": 3, "time": 0.3, "location": {"lat": 24.59627220781199, "lng": 98.69922015628926}, "feature": {"sight_features": "", "sight_content": ""}}, {"title": "龙陵县路山桥甘蔗种植专业合作社", "address": "191县道附近", "image": "", "rank": 4, "time": 2, "location": {"lat": 44.41390695689537, "lng": 87.53859902862413}, "feature": {"sight_features": "", "sight_content": ""}}, {"title": "范大叔生态农场", "address": "兴农路尊美珠宝旁", "image": "", "rank": 5, "time": 2, "location": {"lat": 24.600519902468093, "lng": 98.69561675824572}, "feature": {"sight_features": "", "sight_content": ""}}, {"title": "儿童主题乐园", "address": "云南省保山市龙陵县镇安镇鼎旺灯饰(镇安客运站东100米)", "image": "", "rank": 6, "time": 2, "location": {"lat": 24.705229352724235, "lng": 98.82709535323711}, "feature": {"sight_features": "", "sight_content": ""}}, {"title": "灵山寺", "address": "保山市龙陵县", "image": "", "rank": 7, "time": 1.0, "location": {"lat": 24.592546947017, "lng": 98.6957499122748}, "feature": {"sight_features": "", "sight_content": ""}}, {"title": "二关避暑山庄", "address": "界牌老寨附近", "image": "", "rank": 8, "time": 2, "location": {"lat": 24.581984780451872, "lng": 98.67326922850492}, "feature": {"sight_features": "", "sight_content": ""}}, {"title": "西山坡公园", "address": "龙陵县建设局附近", "image": "", "rank": 9, "time": 2, "location": {"lat": 24.59287904782424, "lng": 98.69119667113789}, "feature": {"sight_features": "", "sight_content": ""}}, {"title": "龙陵县图书馆", "address": "龙山路宣传文化中心院内", "image": "", "rank": 10, "time": 2, "location": {"lat": 29.169221613216756, "lng": 107.10868052346243}, "feature": {"sight_features": "", "sight_content": ""}}, {"title": "灵石美玉艺术馆", "address": "兴农路龙陵县质监局附近", "image": "", "rank": 11, "time": 2.5, "location": {"lat": 24.60077472762599, "lng": 98.69625831905768}, "feature": {"sight_features": "", "sight_content": ""}}, {"title": "神汤苑温泉", "address": "邦腊掌温泉养生度假区内", "image": "", "rank": 12, "time": 2, "location": {"lat": 24.659972884506658, "lng": 98.67316324282767}, "feature": {"sight_features": "", "sight_content": ""}}, {"title": "开心农家乐", "address": "195县道东50米", "image": "", "rank": 13, "time": null, "location": {"lat": 23.04000039128716, "lng": 113.96570175931889}, "feature": {"sight_features": "", "sight_content": ""}}, {"title": "小黑山保护区", "address": "云南省龙陵县境内", "image": "", "rank": 14, "time": 2, "location": {"lat": 24.592546947017, "lng": 98.6957499122748}, "feature": {"sight_features": "", "sight_content": ""}}, {"title": "龙陵县抗战纪念广场", "address": "云南省保山市龙陵县 龙山路", "image": "", "rank": 15, "time": 2, "location": {"lat": 24.587116205716345, "lng": 98.69251866513612}, "feature": {"sight_features": "", "sight_content": ""}}]}