{"cityName": "龙里", "days": 2, "cityImage": "", "spots": [{"title": "龙里大草原", "address": "黔南布依族苗族自治州龙里县草原乡", "image": "", "rank": 1, "time": 2.5, "location": {"lat": 26.337710233242174, "lng": 106.90368915906934}, "feature": {"sight_features": "特色1 绿波千倾，策马奔腾 特色2 身处贵州，却能体验到异样的蒙古风情", "sight_content": "贵州龙里大草原景区， 总面积9万余亩，由五里坪、亮山坪、谷鸟坪、王寨坪等组成，其中千亩以上草坪9个，最大的草坪是亮山坪，面积有1.2万亩；最长的草坪是五里坪，有4.5 公里长，草原地势平坦，天际线分明，海拔高度在1500——1700米之间，年均气温13℃，气候爽爽宜人，喀斯特台地草原的独特性和唯一性，使她成为龙 里自然景观中一道亮丽的风景线。在龙里大草原，既有贵州高原的山峦叠峰，更有内蒙古草原的悠远宽广。\n\n龙里大草原除万亩草场均为原始草植被外，还生长着数百亩成片的白杜鹃（木盖莲）、大白杜鹃、红花木莲等珍贵品种。在龙里大草原的马郎坪上，可早观云海、看日出，还可看到不多见的佛光。天气晴朗的晚上，可在百泉山顶遥看贵阳灯火。\n\n龙里大草原周边居住着万余苗族同胞，有浓郁的民族风情。炸哨的哨口、古营盘下的古战场记载着一件件辛酸的往事，也记载了苗族先民们抵御外敌、不屈不挠的斗 争精神。在龙里大草原上的岳家寨，还居住着民族英雄岳飞的后裔，其服饰、习俗还保留有部分宋代遗风，至今还保存有两座武略将军墓。\n\n龙里大草原景区接待中心就坐落于草原的顶部，放眼望去，视野开阔、无遮无拦：一片片宽广的草坪，草坪与草坪之间形成下切的深沟，共同组合成了奇特的高山草 原景象。接待中心设施齐全，设备先进。住宿形式多样：有大、中、小蒙古包，高、中、低档客房，高档别墅等，可容纳400人同时入住；有大、小餐厅3个，可 同时容纳五百人就餐；有会议室两个，全新的桌椅和音响设备，可提供250人的会议接待任务；同时拥有大、小卡拉OK厅，可供上百人娱乐尽兴。\n\n龙里大草原原滋原味的贵州名菜和农家饭色香味美，富有草原特色的烤全羊、烤全鸡、烤香猪更是令人垂涎三尺。同时，龙里大草原内还设有草原骑马、风筝远放、 排球、足球、垂钓、射箭、棋类、麻将，以及有趣的草原越野车、儿童乐园等丰富多彩的娱乐项目。特别是富有民族风情的篝火晚会、苗家情歌对唱等优秀传统节 目，让人流连忘返、意犹未尽。\n贵州龙里大草原，贵州高原上的一颗璀璨明珠！"}}, {"title": "龙架山森林公园", "address": "黔南布依族苗族自治州龙里县城郊", "image": "", "rank": 2, "time": 2, "location": {"lat": 26.459080630641683, "lng": 106.98658596468972}, "feature": {"sight_features": "", "sight_content": ""}}, {"title": "榕御温泉", "address": "龙里县水桥村榕御温泉（龙架山公园旁）", "image": "", "rank": 3, "time": 2, "location": {"lat": 26.472612599597895, "lng": 106.98065874730965}, "feature": {"sight_features": "", "sight_content": ""}}, {"title": "猴子沟", "address": "贵州省黔南布依族苗族自治州龙里县", "image": "", "rank": 4, "time": 1.0, "location": {"lat": 26.459080630641683, "lng": 106.98658596468972}, "feature": {"sight_features": "", "sight_content": ""}}, {"title": "龙里油画大草原", "address": "黔南州龙里县004乡道东50米", "image": "", "rank": 5, "time": 2.0, "location": {"lat": 26.41962310923128, "lng": 106.92029676723052}, "feature": {"sight_features": "特色1 贵阳近郊徒步旅行、健身康体、科考教学、探险寻秘的好地方。", "sight_content": "龙里油画大草原独特的高原台地草场，是波状起伏的开阔草场，地势平坦，天际线分明，为云贵高原第二平台，海拔在1500-1700米之间。景区冬无严寒，夏无酷暑，具有得天独厚的气候条件。\n山顶独特的高原台地草场，是波状起伏的开阔草场，地势平坦，天际线分明，为云贵高原第二平台，海拔在1500-1700米之间。草原总面积9万余亩，由10多个大小草坪组成，其中千亩以上草坪9个，最大的亮山坪面积1.2万亩。除万亩草场外，草原均为原始草植被，还有数百亩白杜鹃等珍贵品种。\n在马郎坪上，可观云海，看日出；在百泉山顶，可遥看贵阳灯火。驰骋草原，尽可饱览高原草场风光。包括亮山坪、王寨坪、马郎坪、谷朗坪、五里坪等高山平台，嫩绿的草地无边无际，成群的牛羊散布在草原上，在高山草场上可开展骑马、野营、烧烤等老少皆宜的旅游活动，这里的苗族风情，更充满了独特、古朴、浓郁的情调，富有吸引力。\n龙里油画大草原具有一种发人幽思的魅力。成为贵阳近郊徒步旅行、健身康体、科考教学、探险寻秘的好地方。"}}, {"title": "双龙小镇", "address": "黔南布依族苗族自治州龙里县谷脚镇中铁国际旅游度假区", "image": "", "rank": 6, "time": 2, "location": {"lat": 26.543416829234857, "lng": 106.94615614959866}, "feature": {"sight_features": "", "sight_content": ""}}, {"title": "飞龙洞石林", "address": "龙里县", "image": "", "rank": 7, "time": 2, "location": {"lat": 26.459080630641683, "lng": 106.98658596468972}, "feature": {"sight_features": "", "sight_content": ""}}, {"title": "龙里草原景区", "address": "龙里县", "image": "", "rank": 8, "time": 2.5, "location": {"lat": 26.459080630641683, "lng": 106.98658596468972}, "feature": {"sight_features": "", "sight_content": ""}}, {"title": "省中亚热带高原珍稀植物园", "address": "黔南布依族苗族自治州龙里县", "image": "", "rank": 9, "time": 2, "location": {"lat": 26.459080630641683, "lng": 106.98658596468972}, "feature": {"sight_features": "", "sight_content": ""}}, {"title": "龙里水保生态园", "address": "黔南布依族苗族自治州龙里县", "image": "", "rank": 10, "time": 2.5, "location": {"lat": 26.459080630641683, "lng": 106.98658596468972}, "feature": {"sight_features": "", "sight_content": ""}}, {"title": "龙归园", "address": "黔南布依族苗族自治州龙里县210国道 ‎", "image": "", "rank": 11, "time": 2, "location": {"lat": 26.49536842685694, "lng": 106.91789918982518}, "feature": {"sight_features": "", "sight_content": ""}}, {"title": "龙里县洗马镇大马店烤烟育苗工场", "address": "924县道附近", "image": "", "rank": 12, "time": 2, "location": {"lat": 36.80336465714718, "lng": 111.77713104482629}, "feature": {"sight_features": "", "sight_content": ""}}, {"title": "水木居生态农庄", "address": "210国道北50米", "image": "", "rank": 13, "time": 2, "location": {"lat": 30.755072813946907, "lng": 107.2576735785458}, "feature": {"sight_features": "", "sight_content": ""}}, {"title": "翠湖山庄", "address": "X101金龙山庄西北200米", "image": "", "rank": 14, "time": 2, "location": {"lat": 42.31967685469135, "lng": 126.42578743214995}, "feature": {"sight_features": "", "sight_content": ""}}, {"title": "太平寺", "address": "贵州省黔南布依族苗族自治州龙里县", "image": "", "rank": 15, "time": 1.0, "location": {"lat": 26.459080630641683, "lng": 106.98658596468972}, "feature": {"sight_features": "", "sight_content": ""}}, {"title": "青云湖森林公园", "address": "黔南布依族苗族自治州都匀市环城东路附近", "image": "", "rank": 16, "time": 2, "location": {"lat": 26.273655196174705, "lng": 107.52804976150234}, "feature": {"sight_features": "", "sight_content": ""}}, {"title": "巫山岩画群", "address": "贵州省龙里县谷脚镇 551206", "image": "", "rank": 17, "time": 2, "location": {"lat": 26.543416829234857, "lng": 106.94615614959866}, "feature": {"sight_features": "", "sight_content": ""}}, {"title": "茶香自行车主题公园", "address": "贵州省黔南布依族苗族自治州龙里县X924", "image": "", "rank": 18, "time": 2, "location": {"lat": 26.459080630641683, "lng": 106.98658596468972}, "feature": {"sight_features": "", "sight_content": ""}}, {"title": "白晶谷湿地公园", "address": "白晶环线东段", "image": "", "rank": 19, "time": 2, "location": {"lat": 40.678565619259686, "lng": 122.18073330276417}, "feature": {"sight_features": "", "sight_content": ""}}, {"title": "龙凤园", "address": "龙山镇播箕桥小学南450米", "image": "", "rank": 20, "time": 2, "location": {"lat": 26.477058373775826, "lng": 106.9949980738724}, "feature": {"sight_features": "", "sight_content": ""}}, {"title": "兴龙广场", "address": "贵州省黔南布依族苗族自治州龙里县兴龙路", "image": "", "rank": 21, "time": 2, "location": {"lat": 26.457311001203923, "lng": 106.98681728823983}, "feature": {"sight_features": "", "sight_content": ""}}, {"title": "火车站广场", "address": "兴龙路与环城路交叉口西南150米", "image": "", "rank": 22, "time": 2, "location": {"lat": 26.452728529233696, "lng": 106.98188815924713}, "feature": {"sight_features": "", "sight_content": ""}}, {"title": "龙架山森林公园-水上乐园", "address": "龙里林场哨上分场", "image": "", "rank": 23, "time": 2, "location": {"lat": 26.433481300717403, "lng": 106.84677969674206}, "feature": {"sight_features": "", "sight_content": ""}}, {"title": "鹿园度假村", "address": "龙里大草原风景区", "image": "", "rank": 24, "time": 2, "location": {"lat": 26.37206596325107, "lng": 106.91676183803293}, "feature": {"sight_features": "", "sight_content": ""}}, {"title": "龙里县档案馆", "address": "兴龙路88号", "image": "", "rank": 25, "time": 2, "location": {"lat": 31.840531846125113, "lng": 121.67467992834854}, "feature": {"sight_features": "", "sight_content": ""}}, {"title": "珍稀植物园", "address": "210国道", "image": "", "rank": 26, "time": 2, "location": {"lat": 30.75468488618663, "lng": 107.2576735785458}, "feature": {"sight_features": "", "sight_content": ""}}, {"title": "成晨游乐园", "address": "龙城国际B座一层北京华联楼上", "image": "", "rank": 27, "time": 2, "location": {"lat": 39.89953571018789, "lng": 116.27142869941719}, "feature": {"sight_features": "", "sight_content": ""}}, {"title": "维微儿童乐园", "address": "贵龙大道附近", "image": "", "rank": 28, "time": 2, "location": {"lat": 26.48399598919044, "lng": 106.87731129182883}, "feature": {"sight_features": "", "sight_content": ""}}, {"title": "乡村苗家农家乐", "address": "历家庄湿地公园对面", "image": "", "rank": 29, "time": 2, "location": {"lat": 40.678565619259686, "lng": 122.18073330276417}, "feature": {"sight_features": "", "sight_content": ""}}, {"title": "龙里县图书馆", "address": "和平巷与解放街交叉口西北50米", "image": "", "rank": 31, "time": 2, "location": {"lat": 31.3635136830019, "lng": 107.72843747913775}, "feature": {"sight_features": "", "sight_content": ""}}, {"title": "大土林场", "address": "S85都织高速附近", "image": "", "rank": 32, "time": 2, "location": {"lat": 26.284181183042005, "lng": 107.41915007100525}, "feature": {"sight_features": "", "sight_content": ""}}, {"title": "松林苑农家乐", "address": "龙架山森林公园", "image": "", "rank": 33, "time": 2, "location": {"lat": 26.46738035698658, "lng": 106.95405856562496}, "feature": {"sight_features": "", "sight_content": ""}}, {"title": "聚丰生态草莓采摘园", "address": "偏坡乡山坡大寨", "image": "", "rank": 34, "time": 2, "location": {"lat": 26.644725584521968, "lng": 106.9061596824753}, "feature": {"sight_features": "", "sight_content": ""}}, {"title": "龙里水乡飞越丛林", "address": "黔东南苗族侗族自治州龙里县夏蓉高速贵龙收费站左1000米", "image": "", "rank": 35, "time": 2, "location": {"lat": 26.443826247985783, "lng": 106.93096083130897}, "feature": {"sight_features": "", "sight_content": "龙里水乡飞越丛林位于龙里县，是西南地区场地大、设施全的森林探险公园，占地面积83681平方米，“绿、蓝、橙、红、黑”五条树上线路囊括穿梭林间无限乐趣，适宜亲子、家庭、情侣、朋友全年龄人群畅玩体验，别具一格的“儿童蛛网”同孩子一起分享安全的树上快乐时光。"}}, {"title": "九龙商业广场步行街", "address": "贵州省龙里县人民路", "image": "", "rank": 36, "time": 2, "location": {"lat": 26.455676697384924, "lng": 106.98319751857838}, "feature": {"sight_features": "", "sight_content": ""}}, {"title": "云栖花谷", "address": "黔南布依族苗族自治州-龙里县", "image": "", "rank": 37, "time": 2, "location": {"lat": 26.459080630641683, "lng": 106.98658596468972}, "feature": {"sight_features": "", "sight_content": ""}}, {"title": "毛基堡", "address": "黔南布依族苗族自治州-龙里县", "image": "", "rank": 38, "time": 2, "location": {"lat": 26.459080630641683, "lng": 106.98658596468972}, "feature": {"sight_features": "", "sight_content": ""}}, {"title": "毛竹槽", "address": "黔南布依族苗族自治州-龙里县", "image": "", "rank": 39, "time": 2, "location": {"lat": 26.459080630641683, "lng": 106.98658596468972}, "feature": {"sight_features": "", "sight_content": ""}}, {"title": "毛栗坡", "address": "黔南布依族苗族自治州-龙里县", "image": "", "rank": 40, "time": null, "location": {"lat": 26.459080630641683, "lng": 106.98658596468972}, "feature": {"sight_features": "", "sight_content": ""}}, {"title": "毛堡村", "address": "黔南布依族苗族自治州-龙里县", "image": "", "rank": 41, "time": 2, "location": {"lat": 26.459080630641683, "lng": 106.98658596468972}, "feature": {"sight_features": "", "sight_content": ""}}]}