{"cityName": "龙井", "days": 2, "cityImage": "", "spots": [{"title": "龙井", "address": "延边朝鲜族自治州长白山东麓", "image": "", "rank": 1, "time": 3.5, "location": {"lat": 42.430750191580955, "lng": 128.12237740931806}, "feature": {"sight_features": "", "sight_content": ""}}, {"title": "龙山朝鲜族民俗村", "address": "北临延吉市距10公里，西临龙井市距9公里，背靠帽儿山", "image": "", "rank": 2, "time": 2, "location": {"lat": 42.858063029154195, "lng": 129.48589326436075}, "feature": {"sight_features": "", "sight_content": ""}}, {"title": "一松亭", "address": "龙井市西部约3公里的琵岩山上", "image": "", "rank": 3, "time": 2, "location": {"lat": 42.7715348683491, "lng": 129.43263477701413}, "feature": {"sight_features": "", "sight_content": ""}}, {"title": "裕龙湾旅游风景区", "address": "延边自治州龙井市老头沟镇宝兴村302国道旁裕泷水韵水上乐园", "image": "", "rank": 4, "time": 2.0, "location": {"lat": 42.98029526896019, "lng": 129.14223245819002}, "feature": {"sight_features": "", "sight_content": "裕龙湾旅游风景区位于延吉市和龙井市西侧，是集山水自然景观、玻璃吊桥、旱滑道等游乐项目于一身的深林旅游风景区。从景区大门出发，自山脚到山顶设有全长2.8公里的精致木栈道，从远观好像一条扶摇直上的长龙依山盘卧，让你的旅程更加舒适与安全。通过木栈道可以看到景区几大特色景点区域，登至峰顶可以看到288米长的玻璃吊桥驾于山峰之间，登上玻璃吊桥可以360度俯视大自然的鬼斧神工，伴随着惊险与刺激给你一生难忘的回忆，下山是可以体验388长的极限旱滑，让你感受到什么是真正的速度与激情。"}}, {"title": "海兰江滑雪场", "address": "延边龙井市马蹄山龙井梨园高尔夫球场内（延边大学农学院西北）", "image": "", "rank": 5, "time": 2, "location": {"lat": 42.792234016170624, "lng": 129.4095443018973}, "feature": {"sight_features": "", "sight_content": ""}}, {"title": "大成中学旧址", "address": "龙井市民声街789号龙井中学院内", "image": "", "rank": 6, "time": 2, "location": {"lat": 42.78065163710289, "lng": 129.42911148715987}, "feature": {"sight_features": "", "sight_content": ""}}, {"title": "井泉", "address": "延边朝鲜族自治州龙井市龙井街与六道沟交叉路口处", "image": "", "rank": 7, "time": 0.4, "location": {"lat": 42.77660444687129, "lng": 129.43432668244213}, "feature": {"sight_features": "", "sight_content": ""}}, {"title": "巨龙友好公园", "address": "延边朝鲜族自治州龙井市龙井街66号", "image": "", "rank": 8, "time": 1.0, "location": {"lat": 42.77229201635237, "lng": 129.43008841596128}, "feature": {"sight_features": "", "sight_content": ""}}, {"title": "琵岩山", "address": "延边朝鲜族自治州龙井市西南部", "image": "", "rank": 9, "time": 1.5, "location": {"lat": 42.7715348683491, "lng": 129.43263477701413}, "feature": {"sight_features": "", "sight_content": ""}}, {"title": "裕泷水韵水上乐园", "address": "延边朝鲜族自治州龙井市老头沟镇宝兴村", "image": "", "rank": 10, "time": 2, "location": {"lat": 42.96260649748904, "lng": 129.14677402584834}, "feature": {"sight_features": "", "sight_content": ""}}, {"title": "汉王山", "address": "延边朝鲜族自治州龙井市", "image": "", "rank": 11, "time": 2, "location": {"lat": 42.7715348683491, "lng": 129.43263477701413}, "feature": {"sight_features": "", "sight_content": ""}}, {"title": "天佛指山保护区", "address": "延边朝鲜族自治州龙井市境内", "image": "", "rank": 12, "time": 1.5, "location": {"lat": 42.7715348683491, "lng": 129.43263477701413}, "feature": {"sight_features": "", "sight_content": ""}}, {"title": "龙井朝鲜族民俗博物馆", "address": "延边朝鲜族自治州龙井市民声街432号", "image": "", "rank": 13, "time": 1.0, "location": {"lat": 42.7768877344935, "lng": 129.42912560582755}, "feature": {"sight_features": "", "sight_content": ""}}, {"title": "龙腾广场", "address": "建设街与光华西路交汇处", "image": "", "rank": 14, "time": 2, "location": {"lat": 42.77820148182807, "lng": 129.43253932666386}, "feature": {"sight_features": "", "sight_content": ""}}, {"title": "龙丰游园", "address": "延边朝鲜族自治州龙井市海兰路（万事达·帝景园对面）", "image": "", "rank": 15, "time": 1.0, "location": {"lat": 42.786066746447446, "lng": 129.42355573797062}, "feature": {"sight_features": "", "sight_content": ""}}, {"title": "尹东柱故居", "address": "延边朝鲜族自治州龙井市智新镇明东村", "image": "", "rank": 16, "time": 1.0, "location": {"lat": 42.67952171121807, "lng": 129.5534372922325}, "feature": {"sight_features": "", "sight_content": ""}}, {"title": "龙井市烈士陵园", "address": "延边朝鲜族自治州龙井市琵岩山与和龙市交界", "image": "", "rank": 17, "time": 1.0, "location": {"lat": 42.752113983899825, "lng": 129.3936394534023}, "feature": {"sight_features": "", "sight_content": ""}}, {"title": "泰安五峰山", "address": "山东省泰安市泰山区长清县五峰山乡 271000", "image": "", "rank": 18, "time": 1.5, "location": {"lat": 36.199444601195346, "lng": 117.14141108581828}, "feature": {"sight_features": "", "sight_content": ""}}, {"title": "龙井市德新乡基督教会", "address": "延边朝鲜族自治州龙井市", "image": "", "rank": 19, "time": 0.4, "location": {"lat": 42.7715348683491, "lng": 129.43263477701413}, "feature": {"sight_features": "", "sight_content": ""}}, {"title": "爱乐宝开心乐园(龙井店)", "address": "吉林省延边朝鲜族自治州龙井市光华西路113号", "image": "", "rank": 20, "time": 2, "location": {"lat": 42.77823382850119, "lng": 129.43402894716561}, "feature": {"sight_features": "", "sight_content": ""}}, {"title": "龙井梨花民俗文化广场", "address": "延龙公路梨花民俗山庄", "image": "", "rank": 21, "time": 0.4, "location": {"lat": 42.84264702660881, "lng": 129.47464073111888}, "feature": {"sight_features": "", "sight_content": ""}}, {"title": "安民游园", "address": "龙井市文化馆对面", "image": "", "rank": 22, "time": 2, "location": {"lat": 42.7715348683491, "lng": 129.43263477701413}, "feature": {"sight_features": "", "sight_content": ""}}, {"title": "海兰江畔温泉国际旅游度假村", "address": "延边朝鲜族自治州龙井市东盛涌镇东明村", "image": "", "rank": 23, "time": null, "location": {"lat": 42.80645758598077, "lng": 129.58208601292955}, "feature": {"sight_features": "", "sight_content": ""}}, {"title": "海兰江乐园", "address": "202省道", "image": "", "rank": 24, "time": 2, "location": {"lat": 37.77792504283699, "lng": 114.12616671611477}, "feature": {"sight_features": "", "sight_content": ""}}, {"title": "蒙悦阁儿童乐园", "address": "龙门街新光胡同延百超市二楼", "image": "", "rank": 25, "time": 2, "location": {"lat": 36.37853959272399, "lng": 111.71490152530082}, "feature": {"sight_features": "", "sight_content": ""}}, {"title": "悠悠儿童乐园", "address": "中心小学西50米(农业银行对面(派乐汉堡)", "image": "", "rank": 26, "time": 2, "location": {"lat": 31.77640352960053, "lng": 116.50865375837377}, "feature": {"sight_features": "", "sight_content": ""}}, {"title": "文化馆", "address": "东山街626、636号", "image": "", "rank": 27, "time": 2, "location": {"lat": 42.77302661277708, "lng": 129.43653308426624}, "feature": {"sight_features": "", "sight_content": ""}}]}