{"cityName": "龙海", "days": 2, "cityImage": "", "spots": [{"title": "龙佳生态温泉山庄", "address": "漳州市龙海市台商投资区角美镇龙佳山庄", "image": "", "rank": 1, "time": 2, "location": {"lat": 24.52535574314822, "lng": 117.90310944987468}, "feature": {"sight_features": "特色1 含多种对人体有益的微量元素 特色2 \"以生态农业、温泉养生为主题的旅游度假山庄 \"", "sight_content": "龙佳生态温泉山庄位于闽南金三角--漳（州）、厦（门）、泉（州）中心的龙海市角美区，距漳州市区25公里、厦门市区25公里、泉州市区90公里，建于一九九八年，占地1600亩，山庄规划为景观游览区、民俗文化区、素质拓展区、温泉别墅区、休闲度假区、野生动物区、立体农业区及龙佳生态科技研究开发中心和龙佳培训与管理中心。\n龙佳生态温泉山庄是一个以生态农业、温泉养生为主题，融知识性、趣味性、娱乐性等为一体的旅游度假山庄。龙佳温泉系漳州市以生态温泉为主题的特色景点，现已建成：室内温泉、露天温泉以及温泉泳池等等，内设小食坊、休闲健身区以及理疗保健区等等，是休闲、交友、健身、疗养商洽的好去处。\n龙泉阁是龙佳生态温泉山庄特色产品温泉的经营场所，主题建筑采用唐宫园林式风格，占地100多亩，由室内温泉、露天温泉以及温泉別墅区三个部分组成，配套有休息厅，贵宾房、小食坊、温泉客房、度假别墅、商场、会议室、大堂吧等。露天温泉共有50多个功能不同的特色泡池，分为花瓣区、酒泉区、中药区、养生区、水疗区 、石板理疗区、鱼疗区、水果区等。龙佳温泉属偏硅酸钠盐泉，水储量丰富，日出水量2000多立方，泉源出水温度75度，水质富含偏硅酸、钾、镁、铁、钠、铜、锂、氡等多种对人体有益的矿物质和微量元素，具有较高的医疗保健价值，对神经痛、风湿、关节炎、心脑血管等多种疾病具有特殊疗效，能起到舒经活血、强身健体、润肤养颜、安神定惊、抵抗衰老等保健作用。\n龙佳生态园占地1000亩，园内环境优美，空气清新，主要景点有云梯、石文化广场、龙腾汇（龙佳书画院）、度假木屋区、滑草场、大佛宫、龙宫、生日园、茗香小筑、妈祖庙、名人长廊等，生态色彩浓厚，是游客休闲品茗、商务会务、生态住宿、观光度假的理想场所。"}}, {"title": "百花村", "address": "漳州市龙海县九湖乡百花村", "image": "", "rank": 2, "time": 1.5, "location": {"lat": 24.4803946214543, "lng": 117.66465768026362}, "feature": {"sight_features": "", "sight_content": ""}}, {"title": "埭美村", "address": "漳州市龙海市东园镇埭尾村埭美自然村", "image": "", "rank": 3, "time": 2, "location": {"lat": 24.367398707330622, "lng": 117.86508021432594}, "feature": {"sight_features": "", "sight_content": ""}}, {"title": "厦门湾·白塘湾火山公园", "address": "漳州市龙海市隆教乡白塘村东南部", "image": "", "rank": 4, "time": 3.5, "location": {"lat": 24.26282343608584, "lng": 118.07223144831701}, "feature": {"sight_features": "特色1 被誉为“ 海底兵马俑”、", "sight_content": "白塘湾火山公园属于漳州滨海火山国家地质公园的一部分，位于龙海市隆教畲族乡，东与厦门经济特区隔海相望，南临台湾海峡，北连招商局中银开发区，西衔漳浦县。\n在这里您可以看到大自然的鬼斧神工“海上兵马俑”，聆听2460万年前的历史。\n白塘湾古火山口形状似一个朝天的喇叭口，开口顶端直径约50米，底部深3米，涨潮时海水淹没底部，只有退潮时才可以看到完整的火山口。\n火山曾历经15次喷发，如今可见的喷发物距今约2460万年。它的喷发机理完整，层次清晰，整个火山口保存完好，因而被地质学家誉为“中外罕见的古火山博物馆”和“兵马俑”。\n还有火山地质科普馆，真人CS与战地摩托车，射箭、滑沙、手工DIY等游玩项目，让您玩上3个小时不重样。\n增加的网红拍照打卡点，让您美翻朋友圈。"}}, {"title": "海门岛", "address": "漳州市龙海市浮宫镇海山村", "image": "", "rank": 5, "time": 2.0, "location": {"lat": 24.412411494620237, "lng": 117.9736850234632}, "feature": {"sight_features": "", "sight_content": ""}}, {"title": "角美多棱温泉", "address": "漳州市龙海市台商投资区角美镇区324国道旁", "image": "", "rank": 6, "time": 2, "location": {"lat": 24.52535574314822, "lng": 117.90310944987468}, "feature": {"sight_features": "特色1 富含氯、钠、钙等多种对人体有益的微量元素", "sight_content": "漳州角美多棱温泉花园占地约20000平方米，温泉属于海水温泉，表层温度65℃，PH值6.9，水质中性温和。富含氯、钠、钙、铁等多种对人体有益的微量元素。\n花园拥有600平方米的游泳池；具备17种功能、共57组喷头组成的大型SPA功能池；各式干湿蒸房；拥有用数十吨花岗岩石头凿空，全国少有的各式温泉大泡池。还有针对不同的人群推出特色温泉功效池，包括水疗池、搏击池、鱼疗池等，更有休闲水吧提供各色闽南美食，应有尽有。"}}, {"title": "南炮台", "address": "漳州市龙海市开发区招商大道南炮台", "image": "", "rank": 7, "time": 2, "location": {"lat": 24.40813660348547, "lng": 118.07719002017109}, "feature": {"sight_features": "", "sight_content": ""}}, {"title": "龙泉谷温泉", "address": "漳州市龙海市台商投资区龙泉谷SPA温泉（龙佳山庄对面）", "image": "", "rank": 8, "time": 2, "location": {"lat": 24.533427938133165, "lng": 117.87838914584196}, "feature": {"sight_features": "", "sight_content": ""}}, {"title": "镇海角小李饭店住宿", "address": "福建省漳州市龙海市201省道(镇海小学南350米)", "image": "", "rank": 9, "time": 2, "location": {"lat": 24.2621688246604, "lng": 118.10251979484802}, "feature": {"sight_features": "", "sight_content": ""}}, {"title": "鹭凯生态农庄", "address": "福建省漳州市龙海市双第华侨农场洲仔村", "image": "", "rank": 10, "time": 2, "location": {"lat": 24.40576557769306, "lng": 117.72383371651055}, "feature": {"sight_features": "", "sight_content": ""}}, {"title": "灵应宫", "address": "洪岱路与324国道交叉口北100米", "image": "", "rank": 11, "time": 0.5, "location": {"lat": 24.526701770118134, "lng": 117.90167724367176}, "feature": {"sight_features": "", "sight_content": ""}}, {"title": "龙江风格纪念馆", "address": "公园路6号", "image": "", "rank": 12, "time": 2, "location": {"lat": 38.03402680309724, "lng": 114.81983879056408}, "feature": {"sight_features": "", "sight_content": ""}}, {"title": "新周边(码二小学店)", "address": "石码镇新田厝华人商城2幢15号", "image": "", "rank": 13, "time": 2, "location": {"lat": 24.450300980837316, "lng": 117.82759091967672}, "feature": {"sight_features": "", "sight_content": ""}}, {"title": "浮宫银福杨梅自摘园", "address": "浮宫镇港前村133号", "image": "", "rank": 14, "time": 2, "location": {"lat": 24.36860179925076, "lng": 117.92165432213868}, "feature": {"sight_features": "", "sight_content": ""}}, {"title": "龙海市浮宫无公害杨梅采摘园(龙...", "address": "伍凤山杨梅科普基地", "image": "", "rank": 15, "time": 2.0, "location": {"lat": 39.96336270644844, "lng": 116.39144168673637}, "feature": {"sight_features": "", "sight_content": ""}}, {"title": "杨梅采摘游承接旅游团采摘合作", "address": "东园镇凤山村凤山小学", "image": "", "rank": 16, "time": 2, "location": {"lat": 24.357626325460068, "lng": 117.8957734451163}, "feature": {"sight_features": "", "sight_content": ""}}, {"title": "健将温泉", "address": "角美镇", "image": "", "rank": 17, "time": null, "location": {"lat": 24.533910365819775, "lng": 117.86327906327054}, "feature": {"sight_features": "", "sight_content": ""}}, {"title": "大桶温泉", "address": "港尾镇汤头村", "image": "", "rank": 18, "time": 2, "location": {"lat": 24.316947081602407, "lng": 117.99761363198581}, "feature": {"sight_features": "", "sight_content": ""}}, {"title": "鑫辉温泉", "address": "龙海港尾真汤头村", "image": "", "rank": 19, "time": 2, "location": {"lat": 29.560501190935486, "lng": 113.35550793423143}, "feature": {"sight_features": "", "sight_content": ""}}, {"title": "上渓村菜市戏台", "address": "上渓村", "image": "", "rank": 20, "time": 2, "location": {"lat": 46.8180783367473, "lng": 130.36006918093858}, "feature": {"sight_features": "", "sight_content": ""}}, {"title": "火山岛地学博物馆", "address": "火山岛旅游休闲度假区内", "image": "", "rank": 21, "time": 2.5, "location": {"lat": 24.213247429137652, "lng": 118.02991206375582}, "feature": {"sight_features": "", "sight_content": ""}}, {"title": "漳州台商区广电中心", "address": "侨兴路与北门南路交叉口北50米", "image": "", "rank": 22, "time": 4.0, "location": {"lat": 24.532531070069858, "lng": 117.9081560709399}, "feature": {"sight_features": "", "sight_content": ""}}, {"title": "苍坂农场", "address": "角美镇台商投资区", "image": "", "rank": 23, "time": 2, "location": {"lat": 24.52535574314822, "lng": 117.90310944987468}, "feature": {"sight_features": "", "sight_content": ""}}, {"title": "琵琶岩骑士休闲山庄", "address": "九湖镇圆山拜亭", "image": "", "rank": 24, "time": 2, "location": {"lat": 24.494842758230313, "lng": 117.61139742686593}, "feature": {"sight_features": "", "sight_content": ""}}, {"title": "厦大漳州校区图书馆", "address": "南滨大道300号", "image": "", "rank": 25, "time": 2, "location": {"lat": 30.811215893200536, "lng": 108.40649978972066}, "feature": {"sight_features": "", "sight_content": ""}}, {"title": "永泽堂林氏义庄", "address": "福建省龙海市角美镇杨厝村 363107", "image": "", "rank": 26, "time": 2, "location": {"lat": 24.49596235576565, "lng": 117.8547828942515}, "feature": {"sight_features": "", "sight_content": ""}}, {"title": "浯屿岛", "address": "福建省龙海市港尾镇", "image": "", "rank": 27, "time": 2, "location": {"lat": 24.34606588118033, "lng": 118.09108336948897}, "feature": {"sight_features": "", "sight_content": ""}}, {"title": "奥蓝途双鱼岛房车度假营地", "address": "龙海市招商局开发区双鱼岛海梦湾", "image": "", "rank": 28, "time": 2, "location": {"lat": 24.452939738546615, "lng": 117.82445086941169}, "feature": {"sight_features": "", "sight_content": ""}}, {"title": "海澄天后宫", "address": "福建省漳州市龙海市Y117(民政路)", "image": "", "rank": 29, "time": 2, "location": {"lat": 24.417901385728563, "lng": 117.86401051931146}, "feature": {"sight_features": "", "sight_content": ""}}, {"title": "瑞成休闲农庄", "address": "港尾镇卓岐村", "image": "", "rank": 30, "time": 2, "location": {"lat": 24.35194261377265, "lng": 118.06961021350078}, "feature": {"sight_features": "", "sight_content": ""}}, {"title": "镇海角", "address": "漳州市龙海市隆教畲族乡镇海村", "image": "", "rank": 31, "time": 2.0, "location": {"lat": 24.26256846274656, "lng": 118.1032984927757}, "feature": {"sight_features": "", "sight_content": ""}}, {"title": "红树林湿地保护区", "address": "漳州市龙海市功德路红树林自然保护区", "image": "", "rank": 32, "time": 2.0, "location": {"lat": 24.389664260073523, "lng": 117.94981937447885}, "feature": {"sight_features": "", "sight_content": ""}}, {"title": "天一总局旧址", "address": "福建省龙海市角美镇流传村 363107", "image": "", "rank": 33, "time": 2, "location": {"lat": 24.490239297089555, "lng": 117.84967156285059}, "feature": {"sight_features": "", "sight_content": ""}}, {"title": "清河休闲美食广场", "address": "南山小学附近", "image": "", "rank": 34, "time": null, "location": {"lat": 39.1002699740041, "lng": 121.71828241748025}, "feature": {"sight_features": "", "sight_content": ""}}, {"title": "龙海市到浮宫", "address": "福建省漳州市龙海市S208(紫葳路)", "image": "", "rank": 35, "time": 2.0, "location": {"lat": 24.44711490914369, "lng": 117.8115014325742}, "feature": {"sight_features": "", "sight_content": ""}}, {"title": "龙海市紫泥镇安山菩提寺", "address": "福建省漳州市龙海市紫泥镇安山村", "image": "", "rank": 36, "time": 2.0, "location": {"lat": 24.47355526683195, "lng": 117.8355560535971}, "feature": {"sight_features": "", "sight_content": ""}}, {"title": "龙海紫葳绿地", "address": "石码镇紫葳路", "image": "", "rank": 37, "time": 2.0, "location": {"lat": 24.44711490914369, "lng": 117.8115014325742}, "feature": {"sight_features": "", "sight_content": ""}}, {"title": "清宝殿", "address": "头社角村附近", "image": "", "rank": 38, "time": 2, "location": {"lat": 24.490226402938355, "lng": 117.8540863328881}, "feature": {"sight_features": "", "sight_content": ""}}, {"title": "宛南亭", "address": "漳州市龙海市打石街24号", "image": "", "rank": 39, "time": 2, "location": {"lat": 24.452945019821403, "lng": 117.82657400011094}, "feature": {"sight_features": "", "sight_content": ""}}, {"title": "平宁首兴宫", "address": "福建省漳州市龙海市平宁路榜山镇政府东北100米", "image": "", "rank": 40, "time": 2, "location": {"lat": 24.455166569827316, "lng": 117.81579483884245}, "feature": {"sight_features": "", "sight_content": ""}}, {"title": "小马哥哈米儿童畅想小镇", "address": "江洋新苑3幢后港路5号15", "image": "", "rank": 41, "time": 2, "location": {"lat": 24.45368050212908, "lng": 117.8216309608574}, "feature": {"sight_features": "", "sight_content": ""}}, {"title": "岱仙岩", "address": "福建省漳州市龙海市田中央村", "image": "", "rank": 42, "time": 2, "location": {"lat": 24.511085960290785, "lng": 117.62416470710878}, "feature": {"sight_features": "", "sight_content": ""}}, {"title": "欢乐豆游乐园", "address": "漳州龙海市紫葳路与平宁路交汇处建发美一城1层", "image": "", "rank": 43, "time": 2, "location": {"lat": 24.44705677817953, "lng": 117.81380379318874}, "feature": {"sight_features": "", "sight_content": ""}}, {"title": "奇乐儿儿童主题公园(角美店)", "address": "角嵩路万众百货二楼（多美味旁）", "image": "", "rank": 44, "time": 2, "location": {"lat": 25.804697082520285, "lng": 113.03989139255894}, "feature": {"sight_features": "", "sight_content": ""}}, {"title": "圆通寺", "address": "福建省漳州市龙海市颜厝镇西坑村境内", "image": "", "rank": 45, "time": 2.0, "location": {"lat": 24.50522971916284, "lng": 117.74318933554791}, "feature": {"sight_features": "", "sight_content": ""}}, {"title": "圣王庙", "address": "福建省漳州市龙海市南环城路", "image": "", "rank": 46, "time": 2, "location": {"lat": 24.465224738438778, "lng": 117.72077200118088}, "feature": {"sight_features": "", "sight_content": ""}}, {"title": "南安堂", "address": "福建省漳州市龙海市龙江南路", "image": "", "rank": 47, "time": 2, "location": {"lat": 24.47691766133896, "lng": 117.7092049595058}, "feature": {"sight_features": "", "sight_content": ""}}, {"title": "童话儿童主题乐园", "address": "石码派出所往石码下车站方向30米", "image": "", "rank": 48, "time": 2, "location": {"lat": 24.444078237850224, "lng": 117.8286903701629}, "feature": {"sight_features": "", "sight_content": ""}}, {"title": "子妮游乐园", "address": "紫泥镇南书村67号", "image": "", "rank": 49, "time": 2, "location": {"lat": 24.456792784372343, "lng": 117.84050098378371}, "feature": {"sight_features": "", "sight_content": ""}}, {"title": "侍者公庙", "address": "三平风景区附近", "image": "", "rank": 50, "time": 2, "location": {"lat": 24.355431136491976, "lng": 117.49687672887939}, "feature": {"sight_features": "", "sight_content": ""}}, {"title": "祖师公庙", "address": "程溪镇粗坑村", "image": "", "rank": 51, "time": 2, "location": {"lat": 24.354056458247214, "lng": 117.5589170239219}, "feature": {"sight_features": "", "sight_content": ""}}, {"title": "漳州蓝氏家庙种玉堂", "address": "福建省漳州市龙海市隆教乡红星村境内", "image": "", "rank": 52, "time": 4.0, "location": {"lat": 24.26282343608584, "lng": 118.07223144831701}, "feature": {"sight_features": "", "sight_content": ""}}, {"title": "福兴寺", "address": "漳州市龙海市", "image": "", "rank": 53, "time": 2, "location": {"lat": 24.452939738546615, "lng": 117.82445086941169}, "feature": {"sight_features": "", "sight_content": ""}}, {"title": "闻溪公园", "address": "紫泥镇", "image": "", "rank": 54, "time": 2, "location": {"lat": 24.460930475201515, "lng": 117.90494047318148}, "feature": {"sight_features": "", "sight_content": ""}}, {"title": "土地公庙", "address": "石码镇九龙新城严溪头", "image": "", "rank": 55, "time": 2, "location": {"lat": 24.458602667991574, "lng": 117.81944577790848}, "feature": {"sight_features": "", "sight_content": ""}}, {"title": "月老园", "address": "福建省漳州市龙海市紫葳路15号", "image": "", "rank": 56, "time": 2, "location": {"lat": 24.440671142117218, "lng": 117.82566251735773}, "feature": {"sight_features": "", "sight_content": ""}}, {"title": "九湖公园", "address": "西环城路北100米", "image": "", "rank": 57, "time": 2, "location": {"lat": 38.9294653395349, "lng": 115.93437230003379}, "feature": {"sight_features": "", "sight_content": ""}}, {"title": "流渡公园", "address": "福建省漳州市龙海市镇前路", "image": "", "rank": 58, "time": 2, "location": {"lat": 24.372966840316792, "lng": 117.92733134346821}, "feature": {"sight_features": "", "sight_content": ""}}, {"title": "小精灵游乐园", "address": "浮宫镇华兴路（二十四米街）结尾", "image": "", "rank": 59, "time": 2, "location": {"lat": 24.370806251140213, "lng": 117.91774609310349}, "feature": {"sight_features": "", "sight_content": ""}}, {"title": "礼拜堂", "address": "九二一南路184", "image": "", "rank": 60, "time": 2, "location": {"lat": 24.41485460103807, "lng": 117.86204081649836}, "feature": {"sight_features": "", "sight_content": ""}}]}