{"cityName": "龙口", "days": 2, "cityImage": "", "spots": [{"title": "南山东海高尔夫球场", "address": "山东省龙口市南山东海开发区", "image": "", "rank": 1, "time": 2, "location": {"lat": 37.65255512549617, "lng": 120.48536852807433}, "feature": {"sight_features": "", "sight_content": ""}}, {"title": "龙口南山旅游景区", "address": "烟台市龙口市南山旅游景区", "image": "", "rank": 2, "time": 1.5, "location": {"lat": 37.56799456088838, "lng": 120.4867848684058}, "feature": {"sight_features": "特色1 集度假、娱乐、宗教文化于一体的大型旅游文化景观。 特色2 巨大的锡青铜坐佛“南山大佛”和巨大的室内玉佛“南山药师玉佛是景区的两大特色。", "sight_content": "南山旅游风景区是国家首批授予的187处AAAA级景区之一，并于2011年被国家旅游局升为AAAAA级旅游景区。它位于山东省烟台市龙口市境内景色秀丽的卢山之中，景区内的南山禅寺、香水庵、灵源观、文峰塔、南山古文化苑等景点均系晋、唐、宋、元、明、清代遗迹，千年古刹，可谓圣地重光，更添新颜。古建筑群中的亭榭廊塔，山林水系，依山构造，古朴典雅，迤逦壮观，气势宏伟。\n\n宗教历史文化园内的南山禅寺、香水庵、南山民俗文化园、灵源观等均为晋、唐遗迹，锡青铜坐佛（高38.66米，重380吨）――南山大佛和室内玉佛（高13.66米，重660吨）――南山药师玉佛成为景区两大亮点，2009年9月落成的南山华严世界，包括五方五佛殿、药师颂动感音乐喷泉和转经回廊等，为南山旅游景区再添宗教文化胜景；园区内建有以历史文化为经、吉祥文化为纬，按朝代顺序建设的历史文化园，宛如一部鲜活的中国通史，全面展现了中华文明的博大精深和民族文化的多姿多彩。\n旅游风景区内还建有景色怡人，极具挑战的绿草如茵的225道南山国际高尔夫俱乐部球场，与整个风景区配套建设的南山康乐宫、南山宾馆、南山文化会议中心，南山庄园葡萄酒堡等，形成了功能齐全的度假休闲、旅游观光、餐馆娱乐，会议接待服务体系。“结卢在人境，而无车马喧，采菊东篱下，悠然见南山”。南山旅游风景正以她优雅的自然景观和底蕴丰厚的人文景观，构画出一幅“寿比南山”的人间美景。"}}, {"title": "丁氏故宅", "address": "烟台市龙口市东莱街137号", "image": "", "rank": 3, "time": 1.5, "location": {"lat": 37.65737657582937, "lng": 120.53544984627293}, "feature": {"sight_features": "", "sight_content": ""}}, {"title": "南山国际高尔夫俱乐部", "address": "山东省龙口市南山旅游景区", "image": "", "rank": 4, "time": 2, "location": {"lat": 37.56799456088838, "lng": 120.4867848684058}, "feature": {"sight_features": "", "sight_content": ""}}, {"title": "龙口动植物园", "address": "烟台市龙口市徐福大街南50米府北江南小区对面", "image": "", "rank": 5, "time": 2, "location": {"lat": 37.68369348667654, "lng": 120.49282102868688}, "feature": {"sight_features": "", "sight_content": "龙口动植物园位于龙口市徐福大街东北侧，是胶东半岛集动植物观赏、休闲游乐、青少年科普体验为一体的现代化大型动植物游乐园区。"}}, {"title": "龙口徐福故里", "address": "烟台市龙口徐福镇", "image": "", "rank": 6, "time": 2, "location": {"lat": 37.687683144301225, "lng": 120.49906130913237}, "feature": {"sight_features": "", "sight_content": ""}}, {"title": "道恩湖公园", "address": "烟台市龙口市道恩湖公园(新港路北160米)", "image": "", "rank": 7, "time": 1.0, "location": {"lat": 37.675570758008114, "lng": 120.34102710362858}, "feature": {"sight_features": "", "sight_content": ""}}, {"title": "下丁家小庙", "address": "烟台市龙口市下丁家镇内", "image": "", "rank": 8, "time": 2.5, "location": {"lat": 37.53139087636808, "lng": 120.52159109608547}, "feature": {"sight_features": "", "sight_content": ""}}, {"title": "悦乐汤温泉", "address": "烟台龙口市龙泉路与南山路交叉口", "image": "", "rank": 9, "time": 2, "location": {"lat": 37.63671498691169, "lng": 120.51120927959475}, "feature": {"sight_features": "特色1 悦乐汤温泉是以日式温泉文化主题的家庭健康乐园。", "sight_content": "悦乐汤温泉是以日式温泉文化主题的家庭健康乐园，集天然沐浴，天然温泉汤浴，岩盘浴，汗蒸，休闲棋牌茶艺，足浴休闲，动感影院，儿童乐园，自助餐，商务洽谈，朋友休闲聚会为一体的休闲健康体验馆。\n整体日式装修让您有身在异域的感受。"}}, {"title": "月海湾水上乐园", "address": "烟台市龙口市东海旅游渡假区观音殿往东50米", "image": "", "rank": 10, "time": 2, "location": {"lat": 37.65255512549617, "lng": 120.48536852807433}, "feature": {"sight_features": "", "sight_content": ""}}, {"title": "东海月亮老人水上娱乐", "address": "月亮老人东200米", "image": "", "rank": 11, "time": 2, "location": {"lat": 49.07585558465927, "lng": 123.03278049880403}, "feature": {"sight_features": "", "sight_content": ""}}, {"title": "烟台桑岛", "address": "烟台市龙口市", "image": "", "rank": 12, "time": 5.0, "location": {"lat": 37.65255512549617, "lng": 120.48536852807433}, "feature": {"sight_features": "", "sight_content": ""}}, {"title": "龙口博物馆", "address": "山东省龙口市黄城西大街21号", "image": "", "rank": 13, "time": 2.5, "location": {"lat": 37.65255512549617, "lng": 120.48536852807433}, "feature": {"sight_features": "", "sight_content": ""}}, {"title": "王屋水库", "address": "王屋村", "image": "", "rank": 14, "time": 2, "location": {"lat": 38.17744674323758, "lng": 114.30078016758536}, "feature": {"sight_features": "", "sight_content": ""}}, {"title": "清水断崖", "address": "和平至崇德之间清水山东侧(近清水山)", "image": "", "rank": 15, "time": 0.75, "location": {"lat": 39.12339025327971, "lng": 117.22146699490091}, "feature": {"sight_features": "", "sight_content": ""}}, {"title": "南山月亮湾", "address": "威海市荣成市", "image": "", "rank": 16, "time": 2, "location": {"lat": 37.171317939253235, "lng": 122.49250463073764}, "feature": {"sight_features": "", "sight_content": ""}}, {"title": "王屋山", "address": "七甲镇王屋山度假村", "image": "", "rank": 17, "time": 2.5, "location": {"lat": 37.55997249979527, "lng": 120.64387644420916}, "feature": {"sight_features": "", "sight_content": ""}}, {"title": "烟台仙人望海楼", "address": "山东省龙口市海滨花园", "image": "", "rank": 18, "time": 1.0, "location": {"lat": 37.65255512549617, "lng": 120.48536852807433}, "feature": {"sight_features": "", "sight_content": ""}}, {"title": "黄县民俗博物馆", "address": "黄河水湿地公园(高速客运站)", "image": "", "rank": 19, "time": 2, "location": {"lat": 36.73683640670193, "lng": 117.05742726043562}, "feature": {"sight_features": "", "sight_content": ""}}, {"title": "樱桃采摘", "address": "七家镇店埠曲家村9号", "image": "", "rank": 20, "time": 2, "location": {"lat": 37.525423529187705, "lng": 120.65444421173706}, "feature": {"sight_features": "", "sight_content": ""}}, {"title": "万晓春有机圆", "address": "新嘉街道新嘉村", "image": "", "rank": 21, "time": 2, "location": {"lat": 30.780263626211624, "lng": 120.7511597148245}, "feature": {"sight_features": "", "sight_content": ""}}, {"title": "士兵突击真人CS", "address": "芦头镇政府西300米", "image": "", "rank": 22, "time": 2, "location": {"lat": 37.613011091025335, "lng": 120.46886697385618}, "feature": {"sight_features": "", "sight_content": ""}}, {"title": "渔乐圈垂钓俱乐部", "address": "诸由观镇羊岚大街", "image": "", "rank": 23, "time": 2, "location": {"lat": 37.700904522732806, "lng": 120.55821677420268}, "feature": {"sight_features": "", "sight_content": ""}}, {"title": "乐善轩", "address": "云龙街9号附近", "image": "", "rank": 24, "time": 2, "location": {"lat": 30.332987872530623, "lng": 105.87967721924166}, "feature": {"sight_features": "", "sight_content": ""}}, {"title": "艺飞儿童美术馆", "address": "北大街565号龙口大酒店2层龙口当代美术馆附近", "image": "", "rank": 25, "time": 2, "location": {"lat": 37.65928363647754, "lng": 120.52296532654955}, "feature": {"sight_features": "", "sight_content": ""}}, {"title": "王屋山生态农业度假区", "address": "东莱街道北大街566号", "image": "", "rank": 26, "time": 2, "location": {"lat": 37.658098943499894, "lng": 120.52203826089035}, "feature": {"sight_features": "", "sight_content": ""}}, {"title": "辛家垂钓园", "address": "试北路", "image": "", "rank": 27, "time": 2, "location": {"lat": 37.69566414141398, "lng": 120.59521480803852}, "feature": {"sight_features": "", "sight_content": ""}}, {"title": "东海高尔夫练习场", "address": "逸墅1号附近", "image": "", "rank": 28, "time": 2, "location": {"lat": 31.044967725295006, "lng": 121.19006309769053}, "feature": {"sight_features": "", "sight_content": ""}}, {"title": "南山区域艺术团", "address": "G18世纪路(荣乌高速公路)", "image": "", "rank": 29, "time": 2, "location": {"lat": 37.47593118417306, "lng": 118.54001846857402}, "feature": {"sight_features": "", "sight_content": ""}}, {"title": "龙口市屺母岛", "address": "山东省龙口市西北部 265700", "image": "", "rank": 30, "time": 1.5, "location": {"lat": 37.65255512549617, "lng": 120.48536852807433}, "feature": {"sight_features": "", "sight_content": ""}}, {"title": "龙怡居室文化展示厅", "address": "山东省龙口市龙怡装饰旁", "image": "", "rank": 31, "time": 2, "location": {"lat": 37.63632817393736, "lng": 120.51322110395387}, "feature": {"sight_features": "", "sight_content": ""}}, {"title": "东海观音殿", "address": "烟台市龙口市月海路", "image": "", "rank": 32, "time": 2, "location": {"lat": 37.73515012868079, "lng": 120.43910062366396}, "feature": {"sight_features": "", "sight_content": ""}}, {"title": "徐镜心故居", "address": "黄山馆镇后徐村", "image": "", "rank": 33, "time": 2, "location": {"lat": 37.54006380381867, "lng": 120.30558386415584}, "feature": {"sight_features": "", "sight_content": ""}}, {"title": "教育展览中心", "address": "海洋石油船舶中心老年活动中心旁", "image": "", "rank": 34, "time": 2, "location": {"lat": 37.683785079476955, "lng": 120.26431162173738}, "feature": {"sight_features": "", "sight_content": ""}}, {"title": "文华画廊", "address": "振兴中路826号", "image": "", "rank": 35, "time": 2, "location": {"lat": 37.648725976266554, "lng": 120.33973306040585}, "feature": {"sight_features": "", "sight_content": ""}}, {"title": "山之南纪念馆", "address": "东莱街137号", "image": "", "rank": 36, "time": 2, "location": {"lat": 45.78440801196259, "lng": 126.65443662819841}, "feature": {"sight_features": "", "sight_content": ""}}, {"title": "龙口市艺术展览馆", "address": "东莱文化街21", "image": "", "rank": 37, "time": 2, "location": {"lat": 37.6572663320491, "lng": 120.52064489562062}, "feature": {"sight_features": "", "sight_content": ""}}, {"title": "南山国际高尔夫练习场", "address": "南山大道南山国际高尔夫", "image": "", "rank": 38, "time": 2, "location": {"lat": 22.542954789168867, "lng": 113.9307475708519}, "feature": {"sight_features": "", "sight_content": ""}}, {"title": "龙口美术馆", "address": "206国道", "image": "", "rank": 39, "time": 3.0, "location": {"lat": 24.027693425509675, "lng": 115.9917729736661}, "feature": {"sight_features": "", "sight_content": ""}}, {"title": "春晖画廊", "address": "实验路24号", "image": "", "rank": 40, "time": 2, "location": {"lat": 43.17707446365513, "lng": 124.3584946768746}, "feature": {"sight_features": "", "sight_content": ""}}, {"title": "雪峰画苑", "address": "东莱街165号", "image": "", "rank": 41, "time": 2, "location": {"lat": 37.656428180938526, "lng": 120.53549999417802}, "feature": {"sight_features": "", "sight_content": ""}}, {"title": "青少年科技馆", "address": "港城大道572号", "image": "", "rank": 42, "time": 2, "location": {"lat": 37.6453997459458, "lng": 120.51825324703086}, "feature": {"sight_features": "", "sight_content": ""}}, {"title": "高尔夫滨海华庭", "address": "徐福街道东海旅游度假区或", "image": "", "rank": 43, "time": 2, "location": {"lat": 34.54791862736427, "lng": 118.75956509248417}, "feature": {"sight_features": "", "sight_content": ""}}, {"title": "丹岭高尔夫俱乐部", "address": "南山工业园", "image": "", "rank": 44, "time": 2, "location": {"lat": 29.692048462926387, "lng": 106.57485428178812}, "feature": {"sight_features": "", "sight_content": ""}}, {"title": "雨普馆", "address": "南山旅游景区", "image": "", "rank": 45, "time": 2, "location": {"lat": 37.56799456088838, "lng": 120.4867848684058}, "feature": {"sight_features": "", "sight_content": ""}}, {"title": "真妮牛奶采摘园", "address": "兰高镇辇王村王家河桥", "image": "", "rank": 46, "time": 2, "location": {"lat": 37.60787868331658, "lng": 120.63784430025201}, "feature": {"sight_features": "", "sight_content": ""}}, {"title": "赵记采摘园", "address": "北马镇柳行姜家村北", "image": "", "rank": 47, "time": 2, "location": {"lat": 37.583182253463846, "lng": 120.45796632215375}, "feature": {"sight_features": "", "sight_content": ""}}, {"title": "丛林高尔夫", "address": "滨海旅游度假区", "image": "", "rank": 48, "time": 2, "location": {"lat": 33.99564654746655, "lng": 119.82762105908833}, "feature": {"sight_features": "", "sight_content": ""}}, {"title": "丰然水上乐园", "address": "南山康乐宫西188米渔人堂西侧", "image": "", "rank": 49, "time": 2, "location": {"lat": 47.321245938809454, "lng": 130.293540315547}, "feature": {"sight_features": "", "sight_content": ""}}, {"title": "丹岭高尔夫球场", "address": "南山旅游区", "image": "", "rank": 50, "time": 2, "location": {"lat": 47.321245938809454, "lng": 130.293540315547}, "feature": {"sight_features": "", "sight_content": ""}}, {"title": "松涛高尔夫俱乐部", "address": "东海旅游度假区东海西区高尔夫会所", "image": "", "rank": 51, "time": 2, "location": {"lat": 34.54791862736427, "lng": 118.75956509248417}, "feature": {"sight_features": "", "sight_content": ""}}, {"title": "龙口当代美术馆", "address": "东城区北大街时代广场斜对面", "image": "", "rank": 52, "time": 2, "location": {"lat": 39.93482727239599, "lng": 116.4224009776628}, "feature": {"sight_features": "", "sight_content": ""}}, {"title": "聚鑫画廊", "address": "东莱街187号附近", "image": "", "rank": 53, "time": 2, "location": {"lat": 37.656030742624324, "lng": 120.53498185155986}, "feature": {"sight_features": "", "sight_content": ""}}, {"title": "世纪风美术馆", "address": "绛水河东路230附近", "image": "", "rank": 54, "time": 2, "location": {"lat": 37.65061288716128, "lng": 120.545874419411}, "feature": {"sight_features": "", "sight_content": ""}}, {"title": "海景高尔夫俱乐部", "address": "东海旅游度假区", "image": "", "rank": 55, "time": 2, "location": {"lat": 34.54791862736427, "lng": 118.75956509248417}, "feature": {"sight_features": "", "sight_content": ""}}, {"title": "牛奶火龙果采摘园", "address": "中国山东省烟台市龙口市石良镇", "image": "", "rank": 56, "time": 2, "location": {"lat": 37.58201557721913, "lng": 120.67177308377055}, "feature": {"sight_features": "", "sight_content": ""}}, {"title": "唐家埠草莓采摘园", "address": "兰高镇唐家埠村", "image": "", "rank": 57, "time": 2, "location": {"lat": 37.63020247151261, "lng": 120.62501248933033}, "feature": {"sight_features": "", "sight_content": ""}}, {"title": "月华奔腾涂料店", "address": "和平路附近", "image": "", "rank": 58, "time": 2, "location": {"lat": 39.14914859962243, "lng": 117.01253630655839}, "feature": {"sight_features": "", "sight_content": ""}}, {"title": "德峰果蔬专业合作社", "address": "213省道东50米", "image": "", "rank": 59, "time": 2, "location": {"lat": 39.999164912284996, "lng": 116.42377269017653}, "feature": {"sight_features": "", "sight_content": ""}}, {"title": "V380", "address": "兰高镇慕家村", "image": "", "rank": 60, "time": 2, "location": {"lat": 37.61546955967747, "lng": 120.63350246094247}, "feature": {"sight_features": "", "sight_content": ""}}]}