{"cityName": "龙州", "days": null, "cityImage": "", "spots": [{"title": "小连城", "address": "崇左市龙州县小连城景区", "image": "", "rank": 1, "time": 2.5, "location": {"lat": 22.35469036227523, "lng": 106.82753499238429}, "feature": {"sight_features": "特色1 精湛的建筑、彩绘、题刻工艺", "sight_content": "小连城，为清代边防督办苏元春所建。苏元春是广西永安(今蒙山县)人。据说他曾参加过张高友的农民军，后投入湘军席宝田部。因镇压贵州苗民起义有功，被提拔为总兵。中法战争期间，署理广西提督，1885年随冯子材在镇南关(今友谊关)大败法军。1885一1903年间任广西提督，并督办边防，守御南疆。他“取连城险塞，屯兵积粮”，“建行台其上”，“筑炮台百三十所”，屹然成为边防要塞。因工程浩大，资费不足，他带头捐饱，“三易寒暑”才建就这边防连城。\n\n来到将山东麓，当年的营盘已荡然无存，但刻着“小垒城”的石条拱门尚在。竖于其旁的《将山镇龙炮台记》碑，字迹劲挺，依稀可辨。朝山望去，千级石阶，高处接云端。悬崖削壁，怪石峥嵘。古藤缠绕，老树伸枝。拾级而上，见道旁石壁刻诗云，“寻山幸有今生福，拾级真同蜀道难。”过了惜字塔，折右拐弯，一座朱色牌坊蓦然显现，门额镌字，“龙元洞”。才入洞口，一道五彩门楼横在面前，竖题门额曰：“保元宫”。额下有对子，联右，“江城如画，俯视交州，岩岫有灵严锁钥”，联左，“楼阁环方，上通帝阙，神仙应喜此蓬莱”。"}}, {"title": "发现弄岗国家级自然保护区", "address": "崇左市龙州县独山路2号", "image": "", "rank": 2, "time": 2, "location": {"lat": 22.350391424326624, "lng": 106.89458555676298}, "feature": {"sight_features": "特色1 植被为世界上罕见保存完好的岩溶地区热带季雨林。 特色2 珍稀动物白头叶猴、黑叶猴和珍稀植物蚬木、金丝李、金花茶等保护对象。", "sight_content": "弄岗国家级自然保护区景区位于广西龙州县，是我国具有国际意义的陆地生物多样性14个关键地区之一，也是林业部与世界自然基金会共同选定的40个A级保护区之一，区内群峰嵯峨、山弄密集、溪流时隐时现、喀斯特地貌典型，植被为世界上罕见保存最完好的岩溶地区热带季雨林，被称为“中国喀斯特地貌的生物基因库”、“广西生态的醉后一片净土”。\n保护内植物种类丰富，现拥有蕨类植物和种子植物172科710属1497种，其中石山苏铁、蚬木、望天村等国家Ⅰ级、Ⅱ级保护植物13种，全年气候怡人，空气湿润，负离子量大于2000个立方，为名副其实的“天然氧吧”，是远离繁忙生活后的放松身心度假佳地，避暑休闲圣地。\n根据综考报告，保护区有野生动物22目57科139种，其中属国家一级保护的动物有白头叶猴、黑叶猴、熊猴、云豹、蟒蛇、林麝等六种；属国家二级保护的动物有猕猴、黑熊、穿山甲、大灵猫等21种，是全家出游，品味大自然动物世界奥妙的佳地。"}}, {"title": "龙州起义纪念馆", "address": "崇左市龙州县独山大道", "image": "", "rank": 3, "time": 2, "location": {"lat": 22.348298905766136, "lng": 106.86058190847446}, "feature": {"sight_features": "", "sight_content": ""}}, {"title": "龙州珍稀植物园", "address": "崇左市龙州县彬桥乡（原橡胶所）", "image": "", "rank": 4, "time": null, "location": {"lat": 22.28219187318304, "lng": 106.75283189182632}, "feature": {"sight_features": "", "sight_content": ""}}, {"title": "左江花山游船", "address": "崇左市龙州县上金乡紫霞洞码头", "image": "", "rank": 5, "time": 2, "location": {"lat": 22.30724543478497, "lng": 107.01222859402314}, "feature": {"sight_features": "", "sight_content": ""}}, {"title": "金龙水库", "address": "广西壮族自治区龙州县金龙镇 532413", "image": "", "rank": 6, "time": 2, "location": {"lat": 22.6559418189749, "lng": 106.81219158304147}, "feature": {"sight_features": "", "sight_content": ""}}, {"title": "美女村", "address": "广西壮族自治区龙州县金龙镇 532413", "image": "", "rank": 7, "time": 2, "location": {"lat": 22.6559418189749, "lng": 106.81219158304147}, "feature": {"sight_features": "", "sight_content": ""}}, {"title": "龙州铁桥狙击战遗址", "address": "白沙街与龙江街交叉口东南50米", "image": "", "rank": 8, "time": 2.5, "location": {"lat": 22.346993204795094, "lng": 106.86754373754735}, "feature": {"sight_features": "", "sight_content": ""}}, {"title": "龙州县水口311旅游度假山庄", "address": "沿边公路附近", "image": "", "rank": 9, "time": 2, "location": {"lat": 21.55760447700426, "lng": 107.96431721492563}, "feature": {"sight_features": "", "sight_content": ""}}, {"title": "龙州县残疾人辅助器具展示中心", "address": "广西壮族自治区龙州县人民政府残疾人工作委员会", "image": "", "rank": 10, "time": 2, "location": {"lat": 22.35024526661463, "lng": 106.89027360048595}, "feature": {"sight_features": "", "sight_content": ""}}, {"title": "贝瓦儿童游乐园", "address": "崇左市龙州县", "image": "", "rank": 11, "time": 2, "location": {"lat": 22.348298905766136, "lng": 106.86058190847446}, "feature": {"sight_features": "", "sight_content": ""}}, {"title": "龙州宣传文化中心广场", "address": "广西壮族自治区崇左市龙州县独山路240号", "image": "", "rank": 12, "time": 2.5, "location": {"lat": 22.355664025842074, "lng": 106.86550651899046}, "feature": {"sight_features": "", "sight_content": ""}}, {"title": "烈士陵园", "address": "广西壮族自治区崇左市龙州县上龙乡533县弄平村附近", "image": "", "rank": 13, "time": 2, "location": {"lat": 22.42828240102638, "lng": 106.87472433904577}, "feature": {"sight_features": "", "sight_content": ""}}, {"title": "丽江度假村", "address": "利民街82号附近", "image": "", "rank": 14, "time": 1.5, "location": {"lat": 38.87304323740909, "lng": 116.46216483128248}, "feature": {"sight_features": "", "sight_content": ""}}, {"title": "法国领事馆旧址", "address": "广西壮族自治区崇左市龙州县", "image": "", "rank": 15, "time": 0.25, "location": {"lat": 22.348298905766136, "lng": 106.86058190847446}, "feature": {"sight_features": "", "sight_content": ""}}, {"title": "农垦国有北耀农场更宜分场科技阅...", "address": "319省道", "image": "", "rank": 16, "time": 2, "location": {"lat": 37.11504268647356, "lng": 113.10986967570672}, "feature": {"sight_features": "", "sight_content": ""}}, {"title": "中国红军第八军军部旧址", "address": "新街19号", "image": "", "rank": 17, "time": 2, "location": {"lat": 33.62597896905664, "lng": 119.03157472277118}, "feature": {"sight_features": "", "sight_content": ""}}, {"title": "龙州县图书馆", "address": "兴龙路", "image": "", "rank": 18, "time": 2, "location": {"lat": 35.66712977164303, "lng": 110.64235229472222}, "feature": {"sight_features": "", "sight_content": ""}}, {"title": "宣扬艺术馆", "address": "南友路支线附近", "image": "", "rank": 19, "time": 2, "location": {"lat": 22.17802241080076, "lng": 106.8818169667907}, "feature": {"sight_features": "", "sight_content": ""}}, {"title": "龙夏托儿乐园", "address": "龙夏路23号附近", "image": "", "rank": 20, "time": 2, "location": {"lat": 32.360639041739596, "lng": 120.41706164838386}, "feature": {"sight_features": "", "sight_content": ""}}, {"title": "崇左红八军纪念馆", "address": "城新街19号", "image": "", "rank": 21, "time": 4.0, "location": {"lat": 29.867279254047457, "lng": 121.59594433144932}, "feature": {"sight_features": "", "sight_content": ""}}, {"title": "龙州县十八里铺农家乐饮食店", "address": "八角乡菊埂村下育屯", "image": "", "rank": 22, "time": 2, "location": {"lat": 22.220152517927378, "lng": 106.86742003548883}, "feature": {"sight_features": "", "sight_content": ""}}, {"title": "龙州县文化馆", "address": "独山路240号附近", "image": "", "rank": 23, "time": 2, "location": {"lat": 22.355664025842074, "lng": 106.86550651899046}, "feature": {"sight_features": "", "sight_content": ""}}, {"title": "小连城名胜风景区", "address": "广西壮族自治区崇左市龙州县562县道小连城名胜风景区", "image": "", "rank": 24, "time": 2, "location": {"lat": 22.34462446989522, "lng": 106.81256137050454}, "feature": {"sight_features": "", "sight_content": ""}}]}