{"cityName": "隆回", "days": 2, "cityImage": "", "spots": [{"title": "ibook阅读吧", "address": "沿江北路一桥路口水木年华隔壁(牙博士楼上)", "image": "", "rank": 1, "time": 0.75, "location": {"lat": 27.241720075153538, "lng": 112.87252746423638}, "feature": {"sight_features": "", "sight_content": ""}}, {"title": "虎形山", "address": "隆回县虎形山瑶族乡地处雪峰山脉东麓，距县城110公里", "image": "", "rank": 2, "time": 1.0, "location": {"lat": 27.563512538532407, "lng": 110.71020399743625}, "feature": {"sight_features": "", "sight_content": ""}}, {"title": "魏源图书馆", "address": "桃洪镇府后街61号", "image": "", "rank": 3, "time": 2, "location": {"lat": 28.17208076836589, "lng": 104.51817142075694}, "feature": {"sight_features": "", "sight_content": ""}}, {"title": "魏源温泉度假村", "address": "魏源温泉度假村", "image": "", "rank": 4, "time": 2, "location": {"lat": 27.4922033970456, "lng": 110.89704774092272}, "feature": {"sight_features": "", "sight_content": ""}}, {"title": "老庵堂", "address": "邵阳市隆回县大众街45号", "image": "", "rank": 5, "time": 2, "location": {"lat": 27.124294316849372, "lng": 111.04583649444152}, "feature": {"sight_features": "", "sight_content": ""}}, {"title": "观音岩寺", "address": "邵阳市隆回县", "image": "", "rank": 6, "time": 2, "location": {"lat": 27.119946440018886, "lng": 111.03950668527776}, "feature": {"sight_features": "", "sight_content": ""}}, {"title": "彭家祠堂", "address": "羊古坳乡花塘村一组", "image": "", "rank": 7, "time": 2, "location": {"lat": 27.542415970246996, "lng": 110.94239392727164}, "feature": {"sight_features": "", "sight_content": ""}}, {"title": "乐翻天主题公园", "address": "近橙水路", "image": "", "rank": 8, "time": 2, "location": {"lat": 27.12491355761795, "lng": 111.00782924042862}, "feature": {"sight_features": "", "sight_content": ""}}, {"title": "小丸子儿童乐园", "address": "邵阳市隆回县方大广场b座", "image": "", "rank": 9, "time": 2, "location": {"lat": 27.126427104430746, "lng": 111.01162517588526}, "feature": {"sight_features": "", "sight_content": ""}}, {"title": "咕嘟岛儿童乐园", "address": "湖南省邵阳市隆回县横江路与澄水路交叉口", "image": "", "rank": 10, "time": 2, "location": {"lat": 27.124995605678254, "lng": 111.01256146983664}, "feature": {"sight_features": "", "sight_content": ""}}, {"title": "儿童乐园", "address": "湖南省邵阳市隆回县G320(澄水路)", "image": "", "rank": 11, "time": 2, "location": {"lat": 27.129126020144493, "lng": 111.01258547435647}, "feature": {"sight_features": "", "sight_content": ""}}, {"title": "奥兰多水上乐园", "address": "湖南省邵阳市隆回县二桥路", "image": "", "rank": 12, "time": 2, "location": {"lat": 27.117037926946818, "lng": 111.00877000434822}, "feature": {"sight_features": "", "sight_content": ""}}, {"title": "花瑶印象概念山庄", "address": "城西猫头岩", "image": "", "rank": 13, "time": 2, "location": {"lat": 36.63449697952408, "lng": 101.77241422413312}, "feature": {"sight_features": "", "sight_content": ""}}, {"title": "儿童乐园", "address": "湖南省邵阳市隆回县新民街", "image": "", "rank": 14, "time": 2, "location": {"lat": 27.363851081969703, "lng": 110.94358952339651}, "feature": {"sight_features": "", "sight_content": ""}}, {"title": "虎形山-花瑶风景名胜区", "address": "湖南省邵阳市隆回县虎形山瑶族乡虎形山花瑶风景名胜区", "image": "", "rank": 15, "time": 2, "location": {"lat": 27.563512538532407, "lng": 110.71020399743625}, "feature": {"sight_features": "", "sight_content": ""}}, {"title": "喜洋洋儿童游乐园", "address": "湖南省邵阳市隆回县金南路6号附近", "image": "", "rank": 16, "time": 2, "location": {"lat": 27.119946440018886, "lng": 111.03950668527776}, "feature": {"sight_features": "", "sight_content": ""}}, {"title": "童心童趣儿童乐园", "address": "九龙广场地下超市12-17号门面", "image": "", "rank": 17, "time": 2, "location": {"lat": 39.86596156372316, "lng": 116.28886760758752}, "feature": {"sight_features": "", "sight_content": ""}}, {"title": "禾尔嘉画廊", "address": "桃洪镇文体路", "image": "", "rank": 18, "time": 2, "location": {"lat": 27.117052238629157, "lng": 111.04393211371014}, "feature": {"sight_features": "", "sight_content": ""}}, {"title": "隆回县当农民生态农业有限公司", "address": "岩口镇小桥村村委会东北方向200米", "image": "", "rank": 19, "time": 2, "location": {"lat": 29.548372161500417, "lng": 113.3748007518323}, "feature": {"sight_features": "", "sight_content": ""}}, {"title": "邵阳李氏宗祠", "address": "湖南省隆回县滩头镇砖屋村", "image": "", "rank": 20, "time": 2, "location": {"lat": 27.28351787504766, "lng": 111.13808092167014}, "feature": {"sight_features": "", "sight_content": ""}}, {"title": "罗洪瀑布", "address": "湖南省隆回县县城北部罗洪乡", "image": "", "rank": 21, "time": 2, "location": {"lat": 27.564159319768212, "lng": 111.08375536327699}, "feature": {"sight_features": "", "sight_content": ""}}, {"title": "谭人凤故宅", "address": "湖南省隆回县鸭田镇南湾村", "image": "", "rank": 22, "time": 2, "location": {"lat": 27.62732244678428, "lng": 111.0232023504465}, "feature": {"sight_features": "", "sight_content": ""}}, {"title": "岩口溶洞", "address": "湖南省隆回县岩口乡九龙山", "image": "", "rank": 23, "time": 2, "location": {"lat": 27.378959026822464, "lng": 111.09047789005025}, "feature": {"sight_features": "", "sight_content": ""}}, {"title": "紫阳渡", "address": "湖南省隆回县紫河村", "image": "", "rank": 24, "time": 2, "location": {"lat": 27.110749556404528, "lng": 110.9882488105561}, "feature": {"sight_features": "", "sight_content": ""}}, {"title": "罗洪贞节碑坊", "address": "湖南省隆回县罗洪乡牛牯亭", "image": "", "rank": 25, "time": 2, "location": {"lat": 27.58274247801242, "lng": 111.09802507116275}, "feature": {"sight_features": "", "sight_content": ""}}, {"title": "魏源湖", "address": "湖南省隆回县六都寨镇", "image": "", "rank": 26, "time": 2, "location": {"lat": 27.36620738418103, "lng": 110.94614260826526}, "feature": {"sight_features": "", "sight_content": ""}}, {"title": "高毛塘", "address": "邵阳市-隆回县", "image": "", "rank": 27, "time": 2, "location": {"lat": 27.119946440018886, "lng": 111.03950668527776}, "feature": {"sight_features": "", "sight_content": ""}}, {"title": "高东界", "address": "邵阳市-隆回县", "image": "", "rank": 28, "time": 2, "location": {"lat": 27.119946440018886, "lng": 111.03950668527776}, "feature": {"sight_features": "", "sight_content": ""}}, {"title": "高土寨", "address": "邵阳市-隆回县", "image": "", "rank": 29, "time": 2, "location": {"lat": 27.119946440018886, "lng": 111.03950668527776}, "feature": {"sight_features": "", "sight_content": ""}}, {"title": "高塘坳", "address": "邵阳市-隆回县", "image": "", "rank": 30, "time": 2, "location": {"lat": 27.119946440018886, "lng": 111.03950668527776}, "feature": {"sight_features": "", "sight_content": ""}}, {"title": "毛鸡凼", "address": "邵阳市-隆回县", "image": "", "rank": 31, "time": 2, "location": {"lat": 27.119946440018886, "lng": 111.03950668527776}, "feature": {"sight_features": "", "sight_content": ""}}, {"title": "小列冲", "address": "邵阳市-隆回县", "image": "", "rank": 32, "time": 2, "location": {"lat": 27.119946440018886, "lng": 111.03950668527776}, "feature": {"sight_features": "", "sight_content": ""}}, {"title": "文清青蛙养殖专业合作社", "address": "邵阳市-隆回县-鸭田镇南湾村1组20号", "image": "", "rank": 33, "time": 2, "location": {"lat": 27.62732244678428, "lng": 111.0232023504465}, "feature": {"sight_features": "", "sight_content": ""}}, {"title": "羊牯垴", "address": "邵阳市-隆回县", "image": "", "rank": 34, "time": 2, "location": {"lat": 27.119946440018886, "lng": 111.03950668527776}, "feature": {"sight_features": "", "sight_content": ""}}, {"title": "马脑丘", "address": "邵阳市-隆回县", "image": "", "rank": 35, "time": 2, "location": {"lat": 27.119946440018886, "lng": 111.03950668527776}, "feature": {"sight_features": "", "sight_content": ""}}, {"title": "垉谷冲", "address": "邵阳市-隆回县", "image": "", "rank": 36, "time": 2, "location": {"lat": 27.119946440018886, "lng": 111.03950668527776}, "feature": {"sight_features": "", "sight_content": ""}}, {"title": "长冲罗家", "address": "邵阳市-隆回县-三一七省道", "image": "", "rank": 37, "time": 2, "location": {"lat": 27.11550761347162, "lng": 111.04779049936583}, "feature": {"sight_features": "", "sight_content": ""}}, {"title": "望云山", "address": "湖南省隆回县隆回县北部", "image": "", "rank": 38, "time": 2, "location": {"lat": 27.119946440018886, "lng": 111.03950668527776}, "feature": {"sight_features": "", "sight_content": ""}}, {"title": "邵阳古城址", "address": "湖南省隆回县高坪镇小坳村", "image": "", "rank": 39, "time": 2, "location": {"lat": 27.479713590514447, "lng": 111.1684620793298}, "feature": {"sight_features": "", "sight_content": ""}}, {"title": "荷香桥古镇", "address": "邵阳市隆回县中部", "image": "", "rank": 40, "time": 2, "location": {"lat": 27.119946440018886, "lng": 111.03950668527776}, "feature": {"sight_features": "", "sight_content": ""}}]}