{"cityName": "龙山", "days": null, "cityImage": "", "spots": [{"title": "乌龙山大峡谷", "address": "湘西土家族苗族自治州龙山县", "image": "", "rank": 1, "time": 2.0, "location": {"lat": 29.464121765857005, "lng": 109.4504157369622}, "feature": {"sight_features": "", "sight_content": ""}}, {"title": "洛塔地质公园", "address": "湘西土家族苗族自治州龙山县011县道西", "image": "", "rank": 2, "time": 1.5, "location": {"lat": 29.464121765857005, "lng": 109.4504157369622}, "feature": {"sight_features": "", "sight_content": ""}}, {"title": "杯子岩", "address": "湖南省湘西土家族苗族自治州龙山县里耶镇天堂村", "image": "", "rank": 3, "time": 0.5, "location": {"lat": 28.959650475076053, "lng": 109.28370314391385}, "feature": {"sight_features": "", "sight_content": ""}}, {"title": "洗车河", "address": "湘西土家族苗族自治州龙山县", "image": "", "rank": 4, "time": 2.5, "location": {"lat": 29.464121765857005, "lng": 109.4504157369622}, "feature": {"sight_features": "", "sight_content": ""}}, {"title": "里耶古城（秦简）博物馆", "address": "湖南省湘西土家族苗族自治州龙山县里耶镇", "image": "", "rank": 5, "time": null, "location": {"lat": 28.895573800531817, "lng": 109.2676718553304}, "feature": {"sight_features": "", "sight_content": ""}}, {"title": "捞车河", "address": "湘西土家族苗族自治州龙山县", "image": "", "rank": 6, "time": 2, "location": {"lat": 29.464121765857005, "lng": 109.4504157369622}, "feature": {"sight_features": "", "sight_content": ""}}, {"title": "八面山", "address": "龙山县里耶镇北侧八面山", "image": "", "rank": 7, "time": 2.5, "location": {"lat": 28.895637046617374, "lng": 109.2676718553304}, "feature": {"sight_features": "", "sight_content": ""}}, {"title": "里耶古城遗址", "address": "湖南省湘西土家族苗族自治州龙山县里耶镇酉水河西岸", "image": "", "rank": 8, "time": 2, "location": {"lat": 28.895573800531817, "lng": 109.2676718553304}, "feature": {"sight_features": "", "sight_content": ""}}, {"title": "乌龙山溶洞群", "address": "湘西土家族苗族自治州龙山县乌龙山风景区(260省道北)", "image": "", "rank": 9, "time": 2, "location": {"lat": 29.211209739456645, "lng": 109.31554995887701}, "feature": {"sight_features": "", "sight_content": ""}}, {"title": "麟丰益宝山庄", "address": "城东路", "image": "", "rank": 10, "time": null, "location": {"lat": 38.06940165046618, "lng": 112.68869434130043}, "feature": {"sight_features": "", "sight_content": ""}}, {"title": "龙山县图书馆", "address": "新建路58-3", "image": "", "rank": 11, "time": 2, "location": {"lat": 31.747981550441814, "lng": 121.2226331734642}, "feature": {"sight_features": "", "sight_content": ""}}, {"title": "方献宇烈士塔", "address": "湖南省龙山县茨岩塘乡 416808", "image": "", "rank": 12, "time": 2.5, "location": {"lat": 29.464121765857005, "lng": 109.4504157369622}, "feature": {"sight_features": "", "sight_content": ""}}, {"title": "“建始人”遗址", "address": "湖北省建始县高坪镇麻扎坪村 445304", "image": "", "rank": 13, "time": 2, "location": {"lat": 30.64352181605501, "lng": 110.08576031789151}, "feature": {"sight_features": "", "sight_content": ""}}, {"title": "火岩乡溶洞群", "address": "湖南省龙山县火岩乡 416816", "image": "", "rank": 14, "time": 2, "location": {"lat": 29.234852420151256, "lng": 109.32913486242188}, "feature": {"sight_features": "", "sight_content": ""}}, {"title": "飞虎洞", "address": "湖南省龙山县乌龙山大峡谷中部 416800", "image": "", "rank": 15, "time": 2, "location": {"lat": 29.211460875947655, "lng": 109.31658636179101}, "feature": {"sight_features": "", "sight_content": ""}}, {"title": "土家族博物馆", "address": "龙山县苗儿滩镇捞车村", "image": "", "rank": 16, "time": 2, "location": {"lat": 29.00085067781923, "lng": 109.51517451647713}, "feature": {"sight_features": "", "sight_content": ""}}, {"title": "观音寺", "address": "湖南省湘西土家族苗族自治州龙山县长沙街", "image": "", "rank": 17, "time": 2.0, "location": {"lat": 28.793920003246978, "lng": 109.30528298356269}, "feature": {"sight_features": "", "sight_content": ""}}, {"title": "龙凤广场", "address": "湘鄂路", "image": "", "rank": 18, "time": 2, "location": {"lat": 29.464622382496373, "lng": 109.43871042540817}, "feature": {"sight_features": "", "sight_content": ""}}, {"title": "龙山县里耶基督教教会", "address": "长沙街基督教福音堂附近", "image": "", "rank": 19, "time": 2, "location": {"lat": 28.78785272610728, "lng": 109.29987662168323}, "feature": {"sight_features": "", "sight_content": ""}}, {"title": "烈士陵园", "address": "城北路附近", "image": "", "rank": 20, "time": 2, "location": {"lat": 40.616045229438626, "lng": 118.4978678136211}, "feature": {"sight_features": "", "sight_content": ""}}, {"title": "龙山县教育发展(民安联合学区)", "address": "团结路", "image": "", "rank": 21, "time": 2, "location": {"lat": 39.09559418426625, "lng": 117.10726754529976}, "feature": {"sight_features": "", "sight_content": ""}}, {"title": "里耶土家族博物馆", "address": "万寿街", "image": "", "rank": 22, "time": 2, "location": {"lat": 39.04352107099948, "lng": 122.73109088754198}, "feature": {"sight_features": "", "sight_content": ""}}, {"title": "湘西越野 自由飞行", "address": "里耶镇八面山(裏耶、鳳凰、張傢界)", "image": "", "rank": 23, "time": 6.0, "location": {"lat": 28.895573800531817, "lng": 109.2676718553304}, "feature": {"sight_features": "", "sight_content": ""}}, {"title": "龙山奥升水上乐园", "address": "湖南湘西龙山县新城街道供销花苑内", "image": "", "rank": 24, "time": 2.5, "location": {"lat": 29.466196907382766, "lng": 109.4601836029557}, "feature": {"sight_features": "", "sight_content": ""}}, {"title": "满天星休闲山庄", "address": "004乡道附近", "image": "", "rank": 25, "time": 2, "location": {"lat": 42.09990729646014, "lng": 117.90189407292786}, "feature": {"sight_features": "", "sight_content": ""}}, {"title": "薰衣草", "address": "民族路143-4", "image": "", "rank": 26, "time": 2, "location": {"lat": 29.46139890170058, "lng": 109.44511676930304}, "feature": {"sight_features": "", "sight_content": ""}}, {"title": "花芊谷", "address": "S305茨岩村", "image": "", "rank": 27, "time": 2, "location": {"lat": 27.852778156030837, "lng": 109.42799909429041}, "feature": {"sight_features": "", "sight_content": ""}}, {"title": "龙山香提葡萄园", "address": "华塘街道官渡村", "image": "", "rank": 28, "time": 2.5, "location": {"lat": 29.49869610736166, "lng": 109.42183627383277}, "feature": {"sight_features": "", "sight_content": ""}}, {"title": "龙山县爱琴湾休闲度假山庄", "address": "茅坪乡干坝村", "image": "", "rank": 29, "time": 2, "location": {"lat": 29.373509495186973, "lng": 109.54450477616511}, "feature": {"sight_features": "", "sight_content": ""}}, {"title": "乌龙洞", "address": "湖南省龙山县桂塘镇乌龙村", "image": "", "rank": 30, "time": 2, "location": {"lat": 29.170317220654958, "lng": 109.31927221890898}, "feature": {"sight_features": "", "sight_content": ""}}, {"title": "湘西龙骨洞", "address": "湖南省龙山县洗洛乡大井村", "image": "", "rank": 31, "time": 6.0, "location": {"lat": 29.384931003040254, "lng": 109.48936770833724}, "feature": {"sight_features": "", "sight_content": ""}}, {"title": "洛塔水杉保护点", "address": "湖南省龙山县洛塔乡", "image": "", "rank": 32, "time": 2, "location": {"lat": 29.206738907402656, "lng": 109.53562046999637}, "feature": {"sight_features": "", "sight_content": ""}}, {"title": "龙山风雨桥", "address": "湖南省龙山县苗儿滩镇", "image": "", "rank": 33, "time": 1.5, "location": {"lat": 28.962418181211813, "lng": 109.50861467193337}, "feature": {"sight_features": "", "sight_content": ""}}, {"title": "皮渡河", "address": "湖南省龙山县火岩乡", "image": "", "rank": 34, "time": 2, "location": {"lat": 29.234852420151256, "lng": 109.32913486242188}, "feature": {"sight_features": "", "sight_content": ""}}, {"title": "秦简展馆", "address": "湖南省龙山县里耶镇", "image": "", "rank": 35, "time": 2, "location": {"lat": 28.895573800531817, "lng": 109.2676718553304}, "feature": {"sight_features": "", "sight_content": ""}}, {"title": "椿木湾", "address": "湘西土家族苗族自治州-龙山县-零零一县道", "image": "", "rank": 36, "time": 2, "location": {"lat": 29.464121765857005, "lng": 109.4504157369622}, "feature": {"sight_features": "", "sight_content": ""}}]}