{"cityName": "陇南", "days": "", "cityImage": "", "spots": [{"title": "官鹅沟", "address": "陇南市宕昌县城郊", "image": "", "rank": 1, "time": 3.0, "location": {"lat": 34.05348629135883, "lng": 104.39938579986988}, "feature": {"sight_features": "", "sight_content": ""}}, {"title": "西狭颂景区", "address": "陇南市成县县城西侧约13公里处", "image": "", "rank": 2, "time": 3.0, "location": {"lat": 33.75663518735122, "lng": 105.74847790289836}, "feature": {"sight_features": "", "sight_content": ""}}, {"title": "万象洞风景名胜区", "address": "陇南市武都区汉王镇杨庞村", "image": "", "rank": 3, "time": 2.0, "location": {"lat": 33.33476618814639, "lng": 105.01371828572819}, "feature": {"sight_features": "特色1 被称为“华夏第一洞”的天然溶洞", "sight_content": "万象洞景区，位于甘肃省陇南市武都区汉王镇白龙江南岸的景山山腰，距城区约15公里。据地质专家考证，该洞已有2.5亿至3亿年的历史，是我国西北地区发现的一处规模最大、景致最佳、艺术价值最高的天然溶洞，可与举世闻名的桂林芦笛岩，肇庆七星岩相媲美，既具北国之雄奇又有南国之灵秀，属中国四大名洞之一。\n洞内石笋林立，形态万千，景点星罗棋布，有步移景变之说，享有“华夏北方第一洞”盛誉。现存南北朝至今石碑10通，石刻10处，墨笔题记970多条，因而又有“地下文化长廊”、“地下艺术宫殿”的美誉。现为国家级AAAA级景区、省级重点文物保护单位、省级爱国主义教育基地、省级地质公园、省级风景名胜区、甘肃十大景区之一。\n万象新洞，发现于2007年6月9日下午，距今约5000万年，洞内景观细若银丝，白玉凝脂、状如琼山，鹅管、石花密布，这些发育初期的溶洞景观，在全国870多处溶洞中十分罕见，不仅有很高的美学价值，而且填补了我国溶洞发育雏形到成形演变过程中的空白，具有极高的科研价值。"}}, {"title": "金徽酒文化生态旅游景区", "address": "陇南市徽县伏家镇", "image": "", "rank": 4, "time": 2.0, "location": {"lat": 33.83977336121125, "lng": 105.94805531928786}, "feature": {"sight_features": "", "sight_content": ""}}, {"title": "阳坝自然风景区", "address": "陇南市康县阳坝镇阳坝自然风景区", "image": "", "rank": 5, "time": 5.0, "location": {"lat": 33.009740505551406, "lng": 105.77213597414826}, "feature": {"sight_features": "", "sight_content": ""}}, {"title": "晚霞湖", "address": "陇南市西和县姜席镇（县城西侧约5公里）", "image": "", "rank": 6, "time": null, "location": {"lat": 33.99695465613518, "lng": 105.22000768009157}, "feature": {"sight_features": "", "sight_content": ""}}, {"title": "甘肃秦文化博物馆", "address": "陇南市礼县东新南路", "image": "", "rank": 7, "time": 2.5, "location": {"lat": 34.19182737767173, "lng": 105.19713462275564}, "feature": {"sight_features": "", "sight_content": ""}}, {"title": "武侯祠", "address": "陇南市礼县祁山乡", "image": "", "rank": 8, "time": 1.5, "location": {"lat": 34.235699103149926, "lng": 105.40526231670108}, "feature": {"sight_features": "", "sight_content": ""}}, {"title": "杜公祠", "address": "陇南市成县县城东南3公里处的飞龙峡峡口", "image": "", "rank": 9, "time": 1.0, "location": {"lat": 33.7219520478439, "lng": 105.77045674381098}, "feature": {"sight_features": "", "sight_content": ""}}, {"title": "鸡峰山国家森林公园", "address": "陇南成县西南5公里处", "image": "", "rank": 10, "time": 2, "location": {"lat": 33.40662022995126, "lng": 104.92857497071192}, "feature": {"sight_features": "", "sight_content": ""}}, {"title": "大堡子山秦公墓地", "address": "陇南市礼县永坪乡赵坪村", "image": "", "rank": 11, "time": 1.5, "location": {"lat": 34.296280526359276, "lng": 105.27668206307214}, "feature": {"sight_features": "", "sight_content": ""}}, {"title": "八峰崖", "address": "陇南市西和县石峡镇境内", "image": "", "rank": 12, "time": 1.5, "location": {"lat": 33.78633067679128, "lng": 105.4051188339552}, "feature": {"sight_features": "", "sight_content": ""}}, {"title": "嘉陵江漂流", "address": "陇南市徽县嘉陵镇", "image": "", "rank": 13, "time": 2, "location": {"lat": 33.70382192101488, "lng": 106.20803167565835}, "feature": {"sight_features": "", "sight_content": ""}}, {"title": "朝阳洞风景区", "address": "陇南武都区达角弓乡陈家坝境内", "image": "", "rank": 14, "time": 2, "location": {"lat": 32.99766373370442, "lng": 105.44751708975413}, "feature": {"sight_features": "特色1 朝阳洞位于陇南武都区达角弓乡陈家坝境内，其所在之地仙人崖，是一座林木荫翳，奇石遍布，云雾绕绕，宛若仙境的山峰。朝阳洞坐西向东，每当朝阳初升，有阳光射入洞内，故名，又因传说明代，有一老禅“卧化”于洞中，成仙而去，称为“朝阳仙洞”。 特色2 明成化十六年所刻的“明故大禅知端竹大士省告脱化碑记”记载：“盖大士乃陕西西安府咸阳县白良村人氏，苏敬次男。天顺七年正月内，本县石佛寺出家，受礼大恩师喇嘛金敦领占为师。成化元年四月内削发为僧。 特色3 洞窟始凿于唐代。有大小洞窟26窟，塑像百余尊。窟壁有大量壁画和游人题留，洞前有楼阁，凉亭等建筑。近年来“睡仙”和百余尊塑像及崖前建筑大部分修复，面貌焕然一新。现为县级文物保护单位。", "sight_content": "朝阳洞位于陇南武都区达角弓乡陈家坝境内，其所在之地仙人崖，是一座林木荫翳，奇石遍布，云雾绕绕，宛若仙境的山峰。朝阳洞坐西向东，每当朝阳初升，有阳光射入洞内，故名，又因传说明代，有一老禅“卧化”于洞中，成仙而去，称为“朝阳仙洞”。\n明成化十六年所刻的“明故大禅知端竹大士省告脱化碑记”记载：“盖大士乃陕西西安府咸阳县白良村人氏，苏敬次男。天顺七年正月内，本县石佛寺出家，受礼大恩师喇嘛金敦领占为师。\n窟壁有大量壁画和游人题留，洞前有楼阁，凉亭等建筑。近年来“睡仙”和百余尊塑像及崖前建筑大部分修复，面貌焕然一新。现为县级文物保护单位。"}}, {"title": "鸡峰山", "address": "陇南市成县鸡峰镇鸡峰山庄", "image": "", "rank": 15, "time": 2, "location": {"lat": 33.68837110931877, "lng": 105.7011180605304}, "feature": {"sight_features": "", "sight_content": ""}}, {"title": "五凤山", "address": "陇南市武都区205省道", "image": "", "rank": 16, "time": 3.5, "location": {"lat": 33.40353373172702, "lng": 104.93133249913589}, "feature": {"sight_features": "", "sight_content": ""}}, {"title": "瑶寨沟生态园", "address": "姚武公路兴隆寺", "image": "", "rank": 17, "time": 2, "location": {"lat": 33.36939128844879, "lng": 104.95423583835057}, "feature": {"sight_features": "", "sight_content": ""}}, {"title": "月亮峡", "address": "甘肃陇南徽县嘉陵镇", "image": "", "rank": 18, "time": 2, "location": {"lat": 33.70382192101488, "lng": 106.20803167565835}, "feature": {"sight_features": "", "sight_content": ""}}, {"title": "立界村官鹅沟旅游服务农民专业合...", "address": "官鹅村宕昌县祥云养生山庄东南侧300米", "image": "", "rank": 19, "time": 2, "location": {"lat": 34.01653970704834, "lng": 104.40518433588592}, "feature": {"sight_features": "", "sight_content": ""}}, {"title": "文县天池国家森林公园", "address": "陇南市文县天池镇498县道附近", "image": "", "rank": 20, "time": 1.0, "location": {"lat": 33.22270369642868, "lng": 104.71812652693909}, "feature": {"sight_features": "", "sight_content": ""}}, {"title": "花桥村", "address": "康县花桥村", "image": "", "rank": 21, "time": 2, "location": {"lat": 33.44153038137907, "lng": 105.42507592692773}, "feature": {"sight_features": "", "sight_content": ""}}, {"title": "杜少陵祠", "address": "甘肃省成县县城东南3.5公里处 742508", "image": "", "rank": 22, "time": 7.5, "location": {"lat": 33.75663518735122, "lng": 105.74847790289836}, "feature": {"sight_features": "", "sight_content": ""}}, {"title": "哈达铺会议旧址", "address": "陇南市宕昌县哈达铺镇", "image": "", "rank": 23, "time": 2, "location": {"lat": 34.23402471665284, "lng": 104.24215527147533}, "feature": {"sight_features": "", "sight_content": ""}}, {"title": "成县金莲洞风景区", "address": "甘肃省成县店村镇乡新村 742500", "image": "", "rank": 24, "time": 2.0, "location": {"lat": 33.766700036584794, "lng": 105.85237510611422}, "feature": {"sight_features": "", "sight_content": ""}}, {"title": "陇南西狭颂摩崖", "address": "甘肃省成县西部 742500", "image": "", "rank": 25, "time": 2, "location": {"lat": 33.75663518735122, "lng": 99.07855949131206}, "feature": {"sight_features": "", "sight_content": ""}}, {"title": "成县文化遗产博物馆", "address": "甘肃省陇南市成县城关镇陇南北路文化遗产博物馆", "image": "", "rank": 26, "time": 2, "location": {"lat": 33.763713649692136, "lng": 105.74358440249718}, "feature": {"sight_features": "", "sight_content": ""}}, {"title": "龙神沟", "address": "甘肃省康县距县城70千米 746511", "image": "", "rank": 27, "time": 3.0, "location": {"lat": 33.33537640199648, "lng": 105.61539187549245}, "feature": {"sight_features": "", "sight_content": ""}}, {"title": "云梦山庄", "address": "306省道", "image": "", "rank": 28, "time": 1.5, "location": {"lat": 44.29269479672118, "lng": 120.43504383645545}, "feature": {"sight_features": "", "sight_content": ""}}, {"title": "泓茂艺术馆", "address": "中山南路", "image": "", "rank": 29, "time": 2, "location": {"lat": 31.386588477121354, "lng": 120.9591392557337}, "feature": {"sight_features": "", "sight_content": ""}}, {"title": "三滩漂流", "address": "陇南市徽县嘉陵镇严坪村三滩景区内", "image": "", "rank": 30, "time": 2, "location": {"lat": 33.66637381614202, "lng": 106.22613788738184}, "feature": {"sight_features": "", "sight_content": ""}}, {"title": "陇南市博物馆", "address": "东江新区广场西口(近长江大道)", "image": "", "rank": 31, "time": 2.5, "location": {"lat": 33.378839419668346, "lng": 104.95344608587503}, "feature": {"sight_features": "", "sight_content": ""}}, {"title": "碧海蓝天水上乐园", "address": "姚武公路和姚寨西路交界处陇南国际大酒店对面", "image": "", "rank": 32, "time": 2, "location": {"lat": 33.36939128844879, "lng": 104.95423583835057}, "feature": {"sight_features": "", "sight_content": ""}}, {"title": "袁家坝农家乐", "address": "205省道", "image": "", "rank": 33, "time": 2, "location": {"lat": 40.38230240600069, "lng": 116.84666042934258}, "feature": {"sight_features": "", "sight_content": ""}}, {"title": "城北度假村", "address": "205省道", "image": "", "rank": 34, "time": null, "location": {"lat": 40.38230240600069, "lng": 116.84666042934258}, "feature": {"sight_features": "", "sight_content": ""}}, {"title": "明月山庄", "address": "205省道(柴家沟)", "image": "", "rank": 35, "time": 2, "location": {"lat": 40.38230240600069, "lng": 116.84666042934258}, "feature": {"sight_features": "", "sight_content": ""}}, {"title": "阶州植物园", "address": "北山西路与南桥路交口阶州植物园", "image": "", "rank": 36, "time": 2, "location": {"lat": 33.39688920811318, "lng": 104.93714715704093}, "feature": {"sight_features": "", "sight_content": ""}}, {"title": "团民农家乐", "address": "姚武公路西100米", "image": "", "rank": 37, "time": 2, "location": {"lat": 33.36939128844879, "lng": 104.95333753284059}, "feature": {"sight_features": "", "sight_content": ""}}, {"title": "丰源山庄", "address": "尚德镇丰元山沟口", "image": "", "rank": 38, "time": 2, "location": {"lat": 32.907444382271386, "lng": 104.76996004662814}, "feature": {"sight_features": "", "sight_content": ""}}, {"title": "山水居", "address": "云屏乡棉老村(长寿村)", "image": "", "rank": 39, "time": 2, "location": {"lat": 33.693378276014094, "lng": 106.4296665167265}, "feature": {"sight_features": "", "sight_content": ""}}, {"title": "农味庄园农家乐", "address": "212国道附近", "image": "", "rank": 40, "time": 2, "location": {"lat": 32.4966001815921, "lng": 105.6244436788112}, "feature": {"sight_features": "", "sight_content": ""}}, {"title": "金橘苑休闲山庄", "address": "212国道附近", "image": "", "rank": 41, "time": 2, "location": {"lat": 32.4966001815921, "lng": 105.6244436788112}, "feature": {"sight_features": "", "sight_content": ""}}, {"title": "铭景绿化有限公司花卉苗木培育基...", "address": "212国道南100米", "image": "", "rank": 42, "time": 2, "location": {"lat": 32.495838853567655, "lng": 105.6244436788112}, "feature": {"sight_features": "", "sight_content": ""}}, {"title": "菜根香农家乐", "address": "212国道附近", "image": "", "rank": 43, "time": 2, "location": {"lat": 32.4966001815921, "lng": 105.6244436788112}, "feature": {"sight_features": "", "sight_content": ""}}, {"title": "礼县正泰果业农民专业合作社", "address": "306省道附近", "image": "", "rank": 44, "time": 2.5, "location": {"lat": 44.29269479672118, "lng": 120.43504383645545}, "feature": {"sight_features": "", "sight_content": ""}}, {"title": "博士牛农家乐", "address": "城关镇旧城坝东苑宾馆附近", "image": "", "rank": 45, "time": 2, "location": {"lat": 34.04019060528042, "lng": 104.3925907888228}, "feature": {"sight_features": "", "sight_content": ""}}, {"title": "吊角楼农家乐", "address": "碧口镇磨河坝村", "image": "", "rank": 46, "time": 2, "location": {"lat": 32.7181524210743, "lng": 105.28558331398067}, "feature": {"sight_features": "", "sight_content": ""}}, {"title": "嘉诚书画廊", "address": "739乡道附近", "image": "", "rank": 47, "time": 2, "location": {"lat": 38.20475905330658, "lng": 115.54959737297708}, "feature": {"sight_features": "", "sight_content": ""}}, {"title": "丽景农家乐", "address": "城关镇城关镇第四小学对面", "image": "", "rank": 48, "time": null, "location": {"lat": 31.47580472119266, "lng": 116.96360861205845}, "feature": {"sight_features": "", "sight_content": ""}}, {"title": "西峡颂摩崖石刻", "address": "甘肃省成县县城西13公里处的天井山麓 742508", "image": "", "rank": 49, "time": 3.5, "location": {"lat": 33.75663518735122, "lng": 105.74847790289836}, "feature": {"sight_features": "", "sight_content": ""}}, {"title": "岳麓山森林公园", "address": "甘肃省临洮县县城东 730500", "image": "", "rank": 50, "time": 2, "location": {"lat": 35.400587040257776, "lng": 103.8656010776999}, "feature": {"sight_features": "", "sight_content": ""}}, {"title": "大堡子山遗址及墓群", "address": "甘肃省礼县永兴乡,永坪乡境内 742213", "image": "", "rank": 51, "time": 2, "location": {"lat": 34.21589920244709, "lng": 105.33990114606605}, "feature": {"sight_features": "", "sight_content": ""}}, {"title": "灵宫峡自然保护区", "address": "甘肃省两当县境内 742400", "image": "", "rank": 52, "time": 2, "location": {"lat": 33.91512283517304, "lng": 106.31141946598899}, "feature": {"sight_features": "", "sight_content": ""}}, {"title": "固原挂马林海", "address": "宁夏回族自治区彭阳县城西部30公里 756300", "image": "", "rank": 53, "time": 1.0, "location": {"lat": 35.85540546348971, "lng": 106.64454429656213}, "feature": {"sight_features": "", "sight_content": ""}}, {"title": "桥头农家乐", "address": "212国道西50米", "image": "", "rank": 54, "time": 2, "location": {"lat": 32.4966001815921, "lng": 105.62399452605622}, "feature": {"sight_features": "", "sight_content": ""}}, {"title": "陇南市图书馆", "address": "滨河路附近", "image": "", "rank": 55, "time": 1.5, "location": {"lat": 39.008473205380874, "lng": 117.67714324450333}, "feature": {"sight_features": "", "sight_content": ""}}, {"title": "临洮岳麓山公园", "address": "甘肃省临洮县县城东 730517", "image": "", "rank": 56, "time": 2, "location": {"lat": 35.400587040257776, "lng": 103.8656010776999}, "feature": {"sight_features": "", "sight_content": ""}}, {"title": "尖山自然保护区", "address": "甘肃省文县境内 746401", "image": "", "rank": 57, "time": 2, "location": {"lat": 32.94960128076792, "lng": 104.68955842197508}, "feature": {"sight_features": "", "sight_content": ""}}, {"title": "新修白水路记摩崖石刻", "address": "甘肃省徽县大河店乡瓦泉村 742313", "image": "", "rank": 58, "time": 2, "location": {"lat": 33.629793540367956, "lng": 106.06502435616615}, "feature": {"sight_features": "", "sight_content": ""}}, {"title": "黄沙河大桥", "address": "甘肃省徽县境内 742308", "image": "", "rank": 59, "time": 2, "location": {"lat": 33.77519418708969, "lng": 106.0944178700463}, "feature": {"sight_features": "", "sight_content": ""}}, {"title": "天水石门山", "address": "甘肃省天水市麦积区南山村 741028", "image": "", "rank": 60, "time": null, "location": {"lat": 34.23223448254649, "lng": 105.71180465141964}, "feature": {"sight_features": "", "sight_content": ""}}]}