{"cityName": "隆德", "days": "1", "cityImage": "", "spots": [{"title": "六盘山长征景区", "address": "固原市隆德县六盘山红军长征纪念馆", "image": "", "rank": 1, "time": 2, "location": {"lat": 35.67448957458631, "lng": 106.21315854505134}, "feature": {"sight_features": "", "sight_content": ""}}, {"title": "六盘山珍稀植物园", "address": "西桥巷95号", "image": "", "rank": 2, "time": 2, "location": {"lat": 38.47958790683332, "lng": 106.26499249413044}, "feature": {"sight_features": "", "sight_content": ""}}, {"title": "隆德盘龙山庄", "address": "温堡乡新庄村", "image": "", "rank": 3, "time": 4.0, "location": {"lat": 35.492105189327496, "lng": 106.09261064375012}, "feature": {"sight_features": "", "sight_content": ""}}, {"title": "红军小道", "address": "固原市隆德县", "image": "", "rank": 4, "time": 2, "location": {"lat": 35.63176231509369, "lng": 106.11849829669953}, "feature": {"sight_features": "", "sight_content": ""}}, {"title": "毛李家清真大寺", "address": "好兴公路东50米", "image": "", "rank": 5, "time": 2, "location": {"lat": 35.69068928885704, "lng": 105.97558728364274}, "feature": {"sight_features": "", "sight_content": ""}}, {"title": "联财村文化广场", "address": "312国道附近", "image": "", "rank": 6, "time": 2, "location": {"lat": 31.33241303413939, "lng": 120.99854638594724}, "feature": {"sight_features": "", "sight_content": ""}}, {"title": "周家嘴头新石器遗址", "address": "宁夏回族自治区固原市隆德县", "image": "", "rank": 7, "time": 2, "location": {"lat": 35.63176231509369, "lng": 106.11849829669953}, "feature": {"sight_features": "", "sight_content": ""}}, {"title": "六盘山隆德博物馆", "address": "人民街附近", "image": "", "rank": 8, "time": 2, "location": {"lat": 41.668567687358234, "lng": 115.69629869270942}, "feature": {"sight_features": "", "sight_content": ""}}, {"title": "三山公园", "address": "312国道南50米", "image": "", "rank": 9, "time": 3.0, "location": {"lat": 31.332027475333412, "lng": 120.99854638594724}, "feature": {"sight_features": "", "sight_content": ""}}, {"title": "六盘山红军长征纪念馆", "address": "宁夏回族自治区固原市原州区", "image": "", "rank": 10, "time": null, "location": {"lat": 36.009367675762505, "lng": 106.29451461391893}, "feature": {"sight_features": "", "sight_content": ""}}, {"title": "刘万璋书画收藏馆", "address": "人民街163号附近", "image": "", "rank": 11, "time": 2, "location": {"lat": 31.296227742656853, "lng": 121.31244185970588}, "feature": {"sight_features": "", "sight_content": ""}}, {"title": "隆德美术馆", "address": "商业步行街", "image": "", "rank": 12, "time": 3.0, "location": {"lat": 32.201383952269595, "lng": 119.44090038522918}, "feature": {"sight_features": "", "sight_content": ""}}, {"title": "隆德县图书馆", "address": "人民路14号", "image": "", "rank": 13, "time": 2, "location": {"lat": 35.63176231509369, "lng": 106.11849829669953}, "feature": {"sight_features": "", "sight_content": ""}}, {"title": "民间文化博物馆", "address": "人民街169号附近", "image": "", "rank": 14, "time": null, "location": {"lat": 32.06700177060982, "lng": 121.55369174056771}, "feature": {"sight_features": "", "sight_content": ""}}, {"title": "青凉寺山", "address": "西环路6号", "image": "", "rank": 15, "time": 2, "location": {"lat": 40.23382240044776, "lng": 116.23348459986231}, "feature": {"sight_features": "", "sight_content": ""}}, {"title": "象山园", "address": "三一二国道", "image": "", "rank": 16, "time": 2, "location": {"lat": 31.33241303413939, "lng": 120.99854638594724}, "feature": {"sight_features": "", "sight_content": ""}}, {"title": "伍华堂画廊", "address": "人民路与隆德县商业步行街交叉口北100米", "image": "", "rank": 17, "time": 2, "location": {"lat": 35.62482177980704, "lng": 106.14059480934583}, "feature": {"sight_features": "", "sight_content": ""}}, {"title": "范家峡生态园", "address": "泾隆公路范家峡生态园", "image": "", "rank": 18, "time": 2, "location": {"lat": 35.46494176765025, "lng": 106.15141376645026}, "feature": {"sight_features": "", "sight_content": ""}}, {"title": "石窑寺石窟", "address": "宁夏回族自治区隆德县县城西南2.5公里龙凤山南麓", "image": "", "rank": 19, "time": 2, "location": {"lat": 35.63176231509369, "lng": 106.11849829669953}, "feature": {"sight_features": "", "sight_content": ""}}, {"title": "隆德县商业步行街", "address": "宁夏回族自治区隆德县文苑街", "image": "", "rank": 20, "time": 2, "location": {"lat": 35.62582372524057, "lng": 106.13489111642551}, "feature": {"sight_features": "", "sight_content": ""}}, {"title": "野鸡岘", "address": "固原市-隆德县-大庄--杨家店", "image": "", "rank": 21, "time": 2, "location": {"lat": 35.75792871065635, "lng": 106.11560404617691}, "feature": {"sight_features": "", "sight_content": ""}}]}