{"cityName": "陇川", "days": 2, "cityImage": "", "spots": [{"title": "户撒阿昌农家乐", "address": "州陇川县章凤镇法院斜对面", "image": "", "rank": 1, "time": 2, "location": {"lat": 24.21700759018418, "lng": 97.78863136978059}, "feature": {"sight_features": "", "sight_content": ""}}, {"title": "贺卯温泉", "address": "248乡道", "image": "", "rank": 2, "time": 2, "location": {"lat": 22.65740937362634, "lng": 113.17175401764725}, "feature": {"sight_features": "", "sight_content": ""}}, {"title": "陇川县图书馆", "address": "天成商贸城旁", "image": "", "rank": 3, "time": 2, "location": {"lat": 24.191579427073076, "lng": 97.80089948321103}, "feature": {"sight_features": "", "sight_content": ""}}, {"title": "陇川林场西南桦秃杉采种繁育基地", "address": "国有陇川林场附近", "image": "", "rank": 4, "time": 2, "location": {"lat": 24.366730722237847, "lng": 97.9726655567855}, "feature": {"sight_features": "", "sight_content": ""}}, {"title": "广山景颇生态园", "address": "云南省陇川县章凤口岸东北方 678700", "image": "", "rank": 5, "time": 2, "location": {"lat": 24.19979420188904, "lng": 97.73404456977235}, "feature": {"sight_features": "", "sight_content": ""}}, {"title": "京誉温泉度假村", "address": "云南省德宏傣族景颇族自治州陇川县S233(腾陇公路)", "image": "", "rank": 6, "time": 2, "location": {"lat": 24.189467890548563, "lng": 97.79853036412425}, "feature": {"sight_features": "", "sight_content": ""}}, {"title": "云南景颇园民族文化展示区", "address": "利民路与新城路交叉口西北100米", "image": "", "rank": 7, "time": 2, "location": {"lat": 24.18590561041374, "lng": 97.80109149331882}, "feature": {"sight_features": "", "sight_content": ""}}, {"title": "景罕佛塔", "address": "德宏傣族景颇族自治州陇川县景罕镇景罕佛塔", "image": "", "rank": 8, "time": 2, "location": {"lat": 24.251179696871606, "lng": 97.89114549868077}, "feature": {"sight_features": "", "sight_content": ""}}, {"title": "报恩寺", "address": "德宏傣族景颇族自治州陇川县泰安小区2号", "image": "", "rank": 9, "time": 2, "location": {"lat": 24.18429805723338, "lng": 97.78729292601187}, "feature": {"sight_features": "", "sight_content": ""}}, {"title": "观音寺(观音寺路)", "address": "老街子67", "image": "", "rank": 10, "time": 2, "location": {"lat": 26.007479653868952, "lng": 115.9464635387922}, "feature": {"sight_features": "", "sight_content": ""}}, {"title": "晃相佛寺", "address": "三象北路23号附近", "image": "", "rank": 11, "time": 2, "location": {"lat": 24.195335098839696, "lng": 97.79620563929574}, "feature": {"sight_features": "", "sight_content": ""}}, {"title": "营盘建芬农家乐", "address": "N44县道北100米", "image": "", "rank": 12, "time": 2, "location": {"lat": 36.06577617639282, "lng": 113.80945833160084}, "feature": {"sight_features": "", "sight_content": ""}}, {"title": "童爱岛亲子儿童乐园", "address": "龙凤路1栋附近", "image": "", "rank": 13, "time": 2, "location": {"lat": 23.34980724882776, "lng": 112.70053789135282}, "feature": {"sight_features": "", "sight_content": ""}}, {"title": "户撒皇阁寺", "address": "云南省陇川县户撒乡金凤山", "image": "", "rank": 14, "time": 2, "location": {"lat": 24.47120970851844, "lng": 97.90243323022372}, "feature": {"sight_features": "", "sight_content": ""}}, {"title": "章凤森林公园", "address": "云南省陇川县章风镇", "image": "", "rank": 15, "time": 2, "location": {"lat": 24.189467890548563, "lng": 97.79853036412425}, "feature": {"sight_features": "", "sight_content": ""}}, {"title": "景颇园景区", "address": "280乡道", "image": "", "rank": 16, "time": 2, "location": {"lat": 31.563073674455644, "lng": 121.66795350652038}, "feature": {"sight_features": "", "sight_content": ""}}]}