{"cityName": "隆化", "days": 2, "cityImage": "", "spots": [{"title": "天域温泉庄园", "address": "承德市隆化县七家镇天域温泉", "image": "", "rank": 1, "time": 2, "location": {"lat": 41.49493632409962, "lng": 118.1243862019781}, "feature": {"sight_features": "特色1 综合性四季旅游度假胜地", "sight_content": "﻿承德天域温泉庄园、占地20亩，建筑面积1万余平方米，按国家AAAA级旅游景区标准建设，突出上善若水的温泉文化，建筑再现康乾盛世之景象。温泉城宛若一柄如意镶嵌在碧水青山中，打造大型国际温泉莊园，按四星级标准建设温泉莊园，新派中式风格的温泉住宅，独具特色山体休闲，是集温泉养生、生态旅游、会议住宿、餐饮娱乐、休闲度假于一体的综合性四季旅游度假胜地。\n天域温泉庄园集特色温泉、餐饮养生、休闲娱乐、中医理疗、商务会议于一体，充分挖掘“浴佛泉”温泉文化和展示汉蒙满回民俗风情，内部设有各种特色温泉泡池浴、儿童戏水乐园、标准泳池，垂钓园生态采摘园及农业观光园等。"}}, {"title": "枫水湾动感水世界", "address": "承德市隆化县茅荆坝乡小庙村", "image": "", "rank": 2, "time": 0.4, "location": {"lat": 41.57472071770043, "lng": 118.18276527866395}, "feature": {"sight_features": "", "sight_content": "枫水湾动感水世界内有商业街、综合接待中心、男女更衣淋浴、餐饮、儿童戏水小品、儿童水寨、大型水寨、山坡滑梯、潮汐漂流、海啸池、大喇叭、冲天回旋、巨兽碗滑梯、螺旋滑梯、眼镜蛇滑梯、彩虹滑梯、大型激流勇进、夜场表演舞台等。"}}, {"title": "茅荆坝原始森林谷", "address": "承德市隆化县茅荆坝景区", "image": "", "rank": 3, "time": 2, "location": {"lat": 41.31989880502099, "lng": 117.74545102429592}, "feature": {"sight_features": "特色1 山高、水清、峰险、石奇", "sight_content": "茅荆坝原始森林谷是国家AAAA级旅游养生度假区，位于河北省承德市东北部的隆化县境内，与内蒙古自治区赤峰市接壤，地处京北黄金旅游线上，总面积3745公顷。主峰敖包山海拔1852.9米，是喀喇沁亲王祭祀神灵的地方，山顶的千亩大草甸景色壮观，承德市的母亲河——武烈河就发源于此。这里山高、水清、峰险、石奇、景观独特，春夏秋冬，姿彩万千，各有不同。特别是金秋时节，漫山遍野的绿色变化成五彩缤纷，枫叶似火，桦叶似金，苍松滴翠，层林尽染的茅荆坝仿佛成了一幅绚丽无比的天然画卷，专家称这里是京畿绿色之肺、塞外绿洲氧吧。\n茅荆坝原始森林谷主要由敖包山、茅荆坝梁、默沁梁、平顶山石海、连银寨民俗文化村、温泉度假村等景区组成，其中主峰敖包山海拔1852米。茅荆坝原始森林谷属大陆性季风型燕北山地气候，冬季寒冷，夏季凉爽。谷内资源丰富，既有乔灌木百余种，又有藤本、菊科、禾本等草本植物数百种。既有狼、豹、野猪、狍子等走兽，又有鹰、山鸡等多种飞禽。春季万木吐翠、百花争妍、姹紫嫣红；盛夏林海翻波、凉风习习；深秋霜叶满坡、层林尽染、万紫千红；隆冬白雪皑皑，松翠挺拔，园内奇石异景，令人遐想，有孔雀开屏、仙人渡、金马洞等十几个景点，又有山泉叮咚、溪水潺潺、绿草野花相互映衬，自然景观美不胜收。"}}, {"title": "热河温泉", "address": "承德市隆化县七家镇温泉村", "image": "", "rank": 4, "time": 2, "location": {"lat": 41.49787517313043, "lng": 118.12660381645158}, "feature": {"sight_features": "", "sight_content": ""}}, {"title": "七家温泉", "address": "承德市隆化县七家镇温泉村", "image": "", "rank": 5, "time": 2, "location": {"lat": 41.49787517313043, "lng": 118.12660381645158}, "feature": {"sight_features": "", "sight_content": ""}}, {"title": "野杏花温泉庄园", "address": "承德市隆化县七家镇温泉村", "image": "", "rank": 6, "time": 2, "location": {"lat": 41.49787517313043, "lng": 118.12660381645158}, "feature": {"sight_features": "", "sight_content": ""}}, {"title": "百富源温泉草莓采摘庄园", "address": "承德市隆化县七家镇草莓合作社", "image": "", "rank": 7, "time": 2, "location": {"lat": 41.45845692667123, "lng": 118.10661620444765}, "feature": {"sight_features": "", "sight_content": ""}}, {"title": "温泉小镇农家院", "address": "七家镇温泉村", "image": "", "rank": 8, "time": 2, "location": {"lat": 41.49787517313043, "lng": 118.12660381645158}, "feature": {"sight_features": "", "sight_content": ""}}, {"title": "新农家温泉宾馆", "address": "七家镇温泉村", "image": "", "rank": 9, "time": 2, "location": {"lat": 41.49787517313043, "lng": 118.12660381645158}, "feature": {"sight_features": "", "sight_content": ""}}, {"title": "山水涧温泉", "address": "温泉村", "image": "", "rank": 10, "time": 2, "location": {"lat": 40.06028797782102, "lng": 116.16340277358587}, "feature": {"sight_features": "", "sight_content": ""}}, {"title": "溢鑫源温泉农家小院", "address": "七家镇温泉村(七家温泉斜对面)", "image": "", "rank": 11, "time": 2, "location": {"lat": 41.48945661078336, "lng": 118.1212527668338}, "feature": {"sight_features": "", "sight_content": ""}}, {"title": "七家温泉别墅", "address": "253省道", "image": "", "rank": 12, "time": 2, "location": {"lat": 34.536208551793756, "lng": 117.01533238037351}, "feature": {"sight_features": "", "sight_content": ""}}, {"title": "鑫地温泉养生会馆", "address": "253省道附近", "image": "", "rank": 13, "time": 2, "location": {"lat": 34.536208551793756, "lng": 117.01533238037351}, "feature": {"sight_features": "", "sight_content": ""}}, {"title": "土城子城址", "address": "河北省隆化县隆化镇下洼子村 068150", "image": "", "rank": 14, "time": 2, "location": {"lat": 41.33232421954834, "lng": 117.74141486397853}, "feature": {"sight_features": "", "sight_content": ""}}, {"title": "董存瑞烈士牺牲地址", "address": "苔山路隆化县民政局向东50米对面路口进入50米", "image": "", "rank": 15, "time": 2, "location": {"lat": 41.32696372063659, "lng": 117.73407999018438}, "feature": {"sight_features": "", "sight_content": ""}}, {"title": "儿童主题乐园", "address": "河北省承德市隆化县隆化镇兴洲路龙骧东区(龙骧小区东)", "image": "", "rank": 16, "time": 2, "location": {"lat": 41.31860605917282, "lng": 117.74339394689844}, "feature": {"sight_features": "", "sight_content": ""}}, {"title": "隆化县万寿寺", "address": "河北省承德市隆化县S254(承围线)", "image": "", "rank": 17, "time": 2, "location": {"lat": 41.464215616599425, "lng": 117.75402592979572}, "feature": {"sight_features": "", "sight_content": ""}}, {"title": "南天门山国家森林公园", "address": "河北省承德市隆化县旧屯满族乡南天门山", "image": "", "rank": 18, "time": 2, "location": {"lat": 41.396011187546335, "lng": 117.35703890044965}, "feature": {"sight_features": "", "sight_content": ""}}, {"title": "东沟村沟里度假村", "address": "河北省承德市隆化县冰冷沟", "image": "", "rank": 19, "time": 2, "location": {"lat": 41.60105251680738, "lng": 117.66569102423473}, "feature": {"sight_features": "", "sight_content": ""}}, {"title": "韩麻营镇文体活动中心广场", "address": "河北省承德市隆化县s256", "image": "", "rank": 20, "time": 2, "location": {"lat": 41.31989880502099, "lng": 117.74545102429592}, "feature": {"sight_features": "", "sight_content": ""}}, {"title": "五一广场", "address": "承德市隆化县", "image": "", "rank": 21, "time": 1.5, "location": {"lat": 41.31989880502099, "lng": 117.74545102429592}, "feature": {"sight_features": "", "sight_content": ""}}, {"title": "金水湾温泉度假村", "address": "承德市隆化县七家镇温泉村", "image": "", "rank": 22, "time": 2, "location": {"lat": 41.49787517313043, "lng": 118.12660381645158}, "feature": {"sight_features": "", "sight_content": "金水湾温泉度假村处在承德市东北部的隆化县境内，度假村内设有温泉游泳馆、户外温泉、汗蒸、住宿、餐饮等特色服务项目。游泳馆宽敞明亮，水质清澈，环境干净卫生，泳池边设计有高、底温泉池，可享受泡不同水温所带来的乐趣。温泉大厅设有养生浴设备，可以体验花瓣、牛奶、中药等多种特色泡浴，更有桑拿、维其浴、水床等温泉项目等你体验享用。"}}, {"title": "宏武山庄", "address": "257省道", "image": "", "rank": 23, "time": 2, "location": {"lat": 36.6264103778827, "lng": 116.0949919752191}, "feature": {"sight_features": "", "sight_content": ""}}, {"title": "热河温泉休闲城", "address": "七家镇温泉村热河温泉", "image": "", "rank": 24, "time": 2, "location": {"lat": 44.97485663870472, "lng": 81.03114554648644}, "feature": {"sight_features": "", "sight_content": ""}}, {"title": "隆化民族博物馆", "address": "通站街与357省道交叉口西北150米", "image": "", "rank": 25, "time": 3.5, "location": {"lat": 39.754319199493544, "lng": 118.4675874287618}, "feature": {"sight_features": "", "sight_content": ""}}, {"title": "长军温泉山庄", "address": "茅荆坝乡茅荆坝村鸿兆超市", "image": "", "rank": 26, "time": 2, "location": {"lat": 41.532249656454596, "lng": 118.13066715410388}, "feature": {"sight_features": "", "sight_content": ""}}, {"title": "董存瑞纪念馆", "address": "伊逊河东岸西北苔山", "image": "", "rank": 27, "time": 1.0, "location": {"lat": 39.94242327797079, "lng": 116.40182559627894}, "feature": {"sight_features": "", "sight_content": ""}}, {"title": "东升温泉农家院", "address": "七家镇温泉村", "image": "", "rank": 28, "time": 2, "location": {"lat": 41.49787517313043, "lng": 118.12660381645158}, "feature": {"sight_features": "", "sight_content": ""}}, {"title": "聚鑫温泉农庄", "address": "七家镇温泉村", "image": "", "rank": 29, "time": 2, "location": {"lat": 41.49787517313043, "lng": 118.12660381645158}, "feature": {"sight_features": "", "sight_content": ""}}, {"title": "海峰游乐园", "address": "奥体中心游泳馆后", "image": "", "rank": 30, "time": 2, "location": {"lat": 36.66572457450205, "lng": 117.12923482412218}, "feature": {"sight_features": "", "sight_content": ""}}, {"title": "宝发农业观光园", "address": "七家镇汤头沟门", "image": "", "rank": 31, "time": 2, "location": {"lat": 41.04089279683602, "lng": 117.03843746732774}, "feature": {"sight_features": "", "sight_content": ""}}]}