{"cityName": "龙川", "days": "", "cityImage": "", "spots": [{"title": "河源龙川霍山", "address": "河源市龙川县田心镇东江村", "image": "", "rank": 1, "time": 4.5, "location": {"lat": 24.251104928164406, "lng": 115.50730819305366}, "feature": {"sight_features": "", "sight_content": ""}}, {"title": "河源佗城", "address": "河源市龙川县佗城镇学宫旁", "image": "", "rank": 2, "time": 2.0, "location": {"lat": 24.065022537405184, "lng": 115.19810487449963}, "feature": {"sight_features": "特色1 赵佗兴王之地，科举文化之窗", "sight_content": "佗城，原称龙川城，是在公元前214年，秦始皇平定南越后，设县治所所在地。为纪念首任县令后为“南越王”的赵佗，故称为佗城。佗城是“世界客家古邑、岭南文化名城”，是秦朝岭南四大古邑中一个保存完整的古城，属“岭南古镇”，至今已有2225年历史，素有“秦朝古镇，汉唐名城”的美称，是广东省历史文化名城。\n\n佗城虽经历千年沧桑，但至今仍保存有秦朝时期的越王井、赵佗故居；唐代的正相塔；宋代的越王庙、古城墙、循州治所；明代的城隍庙；清代的学宫、考棚等100多处文物古迹。仅有四万人口的佗城镇，就有179个姓，其中二千多人的佗城村就有140个姓。佗城又是全国学宫与考棚共存的四个地方（广东龙川、河北定州、安徽绩溪、云南建水）之一。佗城有历史记载的姓氏古祠堂89间，现仍存48间，誉为“中华姓氏古祠堂博物馆”。佗城景区是“岭南客家之源，中华姓氏之最，赵佗兴王之地，科举文化之窗”。"}}, {"title": "水坑", "address": "河源市龙川县水坑", "image": "", "rank": 3, "time": 1.0, "location": {"lat": 24.445988403126293, "lng": 115.26040244693506}, "feature": {"sight_features": "", "sight_content": ""}}, {"title": "知青部落龙飞度假村", "address": "河源市龙川县通衢镇旺茂村", "image": "", "rank": 4, "time": 2, "location": {"lat": 24.047546078602476, "lng": 115.41109632138895}, "feature": {"sight_features": "", "sight_content": ""}}, {"title": "枫树坝水库", "address": "河源市龙川县", "image": "", "rank": 5, "time": 1.0, "location": {"lat": 24.105850721954667, "lng": 115.2665554848457}, "feature": {"sight_features": "", "sight_content": ""}}, {"title": "温泉", "address": "建设大道东20号", "image": "", "rank": 6, "time": 0.7, "location": {"lat": 23.764691669380145, "lng": 114.71811372180002}, "feature": {"sight_features": "", "sight_content": ""}}, {"title": "霍山迎客山庄", "address": "霍山风景区(霍山景区西门口左侧)", "image": "", "rank": 7, "time": 2, "location": {"lat": 31.398570812489456, "lng": 116.33957586218457}, "feature": {"sight_features": "", "sight_content": ""}}, {"title": "龙川温泉度假村", "address": "佗城镇塔西村", "image": "", "rank": 8, "time": 2, "location": {"lat": 24.070397204180214, "lng": 115.16249374712869}, "feature": {"sight_features": "", "sight_content": ""}}, {"title": "越王井", "address": "光孝寺", "image": "", "rank": 9, "time": 7.5, "location": {"lat": 23.134985865665904, "lng": 113.26321029048611}, "feature": {"sight_features": "", "sight_content": ""}}, {"title": "欢乐堡益智乐园", "address": "老隆镇东风路和大福百货二楼", "image": "", "rank": 10, "time": 2, "location": {"lat": 24.109480327399982, "lng": 115.26441715841045}, "feature": {"sight_features": "", "sight_content": ""}}, {"title": "基督教传真堂", "address": "广东省河源市龙川县鹤市镇谷行街1-2号基督教传真堂", "image": "", "rank": 11, "time": 2, "location": {"lat": 24.00117656083224, "lng": 115.39586455525149}, "feature": {"sight_features": "", "sight_content": ""}}, {"title": "高明寺(千年古刹)", "address": "广东省河源市龙川县G25(长深高速公路)", "image": "", "rank": 12, "time": 2.5, "location": {"lat": 23.88811186396695, "lng": 114.9470140820115}, "feature": {"sight_features": "", "sight_content": ""}}, {"title": "龙川惠隆体育公园", "address": "沿江路东50米", "image": "", "rank": 13, "time": 2.0, "location": {"lat": 23.121864282887806, "lng": 113.2844452760396}, "feature": {"sight_features": "", "sight_content": ""}}, {"title": "萧殷公园", "address": "老隆镇龙川县政府西北", "image": "", "rank": 14, "time": 2, "location": {"lat": 24.106131115899792, "lng": 115.26637099086011}, "feature": {"sight_features": "", "sight_content": ""}}, {"title": "礼教堂", "address": "河源市龙川县四二一乡道", "image": "", "rank": 15, "time": 2, "location": {"lat": 24.105850721954667, "lng": 115.2665554848457}, "feature": {"sight_features": "", "sight_content": ""}}, {"title": "基督教龙母福音堂", "address": "广东省河源市龙川县龙母镇藕塘福彩路教育幼儿园南100米", "image": "", "rank": 16, "time": 2.0, "location": {"lat": 24.26339613861428, "lng": 115.44186507002857}, "feature": {"sight_features": "", "sight_content": ""}}, {"title": "龙川县通风寺", "address": "158县道", "image": "", "rank": 17, "time": 2, "location": {"lat": 24.73751460687144, "lng": 115.23744068463253}, "feature": {"sight_features": "", "sight_content": ""}}, {"title": "七峰山风景旅游度假村", "address": "广东省河源市龙川县紫市镇670乡道西(七峰山西南400米)", "image": "", "rank": 18, "time": 2, "location": {"lat": 23.86092034130265, "lng": 115.37085522231935}, "feature": {"sight_features": "", "sight_content": ""}}, {"title": "九龙湾漂流", "address": "广东省龙川县黎咀镇 517335", "image": "", "rank": 19, "time": 2, "location": {"lat": 24.356922020573847, "lng": 115.34429267694063}, "feature": {"sight_features": "", "sight_content": ""}}, {"title": "乐翻天儿童乐园", "address": "河源市龙川县长堤路42号", "image": "", "rank": 20, "time": 2, "location": {"lat": 24.10390426854205, "lng": 115.25803748251124}, "feature": {"sight_features": "", "sight_content": ""}}, {"title": "福建会馆", "address": "老隆镇华新路44号", "image": "", "rank": 21, "time": 1.0, "location": {"lat": 24.105448965337782, "lng": 115.25958050188522}, "feature": {"sight_features": "", "sight_content": ""}}, {"title": "四都基督教会", "address": "广东省河源市龙川县四都镇新龙人民路四都振环中学附近", "image": "", "rank": 22, "time": 0.4, "location": {"lat": 24.105913725885635, "lng": 115.26412509683162}, "feature": {"sight_features": "", "sight_content": ""}}, {"title": "鹿湖禅寺", "address": "174县道西200米", "image": "", "rank": 23, "time": 2, "location": {"lat": 49.07585558465927, "lng": 123.03278049880403}, "feature": {"sight_features": "", "sight_content": ""}}, {"title": "霍山灵山寺", "address": "广东省河源市龙川县霍山风景区内", "image": "", "rank": 24, "time": 1.0, "location": {"lat": 24.23768732563696, "lng": 115.53394803043507}, "feature": {"sight_features": "", "sight_content": ""}}, {"title": "崇福寺", "address": "227省道", "image": "", "rank": 25, "time": 1.5, "location": {"lat": 31.228081134040913, "lng": 120.66770235845375}, "feature": {"sight_features": "", "sight_content": ""}}, {"title": "枫深文化广场", "address": "河源市龙川县", "image": "", "rank": 26, "time": 2, "location": {"lat": 24.105850721954667, "lng": 115.2665554848457}, "feature": {"sight_features": "", "sight_content": ""}}, {"title": "叶塘村文化广场", "address": "广东省河源市龙川县营光街车田镇叶塘村村民委员会", "image": "", "rank": 27, "time": 2, "location": {"lat": 24.442460590198774, "lng": 115.29942380432597}, "feature": {"sight_features": "", "sight_content": ""}}, {"title": "海天财富广场", "address": "广东省河源市龙川县G205(山深线)", "image": "", "rank": 28, "time": 2, "location": {"lat": 24.105850721954667, "lng": 115.2665554848457}, "feature": {"sight_features": "", "sight_content": ""}}, {"title": "新大购物广场儿童乐园", "address": "龙川大道新大购物广场一楼", "image": "", "rank": 29, "time": 2, "location": {"lat": 24.108696650495624, "lng": 115.24571819620914}, "feature": {"sight_features": "", "sight_content": ""}}, {"title": "龙母庙", "address": "151县道附近", "image": "", "rank": 30, "time": 1.5, "location": {"lat": 36.678165536866835, "lng": 114.78534114340337}, "feature": {"sight_features": "", "sight_content": ""}}, {"title": "正相寺", "address": "正相塔附近", "image": "", "rank": 31, "time": 2, "location": {"lat": 24.058557808153164, "lng": 115.18059052214683}, "feature": {"sight_features": "", "sight_content": ""}}, {"title": "福音堂(941乡道)", "address": "941乡道附近", "image": "", "rank": 32, "time": 2, "location": {"lat": 31.634142028169578, "lng": 120.64065132530959}, "feature": {"sight_features": "", "sight_content": ""}}, {"title": "金龙寺", "address": "205国道附近", "image": "", "rank": 33, "time": 2, "location": {"lat": 37.34066223973322, "lng": 118.07089300716441}, "feature": {"sight_features": "", "sight_content": ""}}, {"title": "天主堂(466乡道)", "address": "228省道附近", "image": "", "rank": 34, "time": 2, "location": {"lat": 39.03858546081583, "lng": 117.03749267899916}, "feature": {"sight_features": "", "sight_content": ""}}, {"title": "城隍庙", "address": "广东省河源市龙川县", "image": "", "rank": 35, "time": null, "location": {"lat": 24.105850721954667, "lng": 115.2665554848457}, "feature": {"sight_features": "", "sight_content": ""}}, {"title": "燕子岩庙遗址", "address": "石灰坑附近", "image": "", "rank": 36, "time": 2, "location": {"lat": 29.713335441790555, "lng": 118.10168077570538}, "feature": {"sight_features": "", "sight_content": ""}}, {"title": "龙川县图书馆", "address": "文明一路4号", "image": "", "rank": 37, "time": 2, "location": {"lat": 24.107957376970617, "lng": 115.26287531312177}, "feature": {"sight_features": "", "sight_content": ""}}, {"title": "雅韵画廊", "address": "老隆街东风西路基督教旁", "image": "", "rank": 38, "time": 2, "location": {"lat": 24.142331758393627, "lng": 115.74317645937481}, "feature": {"sight_features": "", "sight_content": ""}}, {"title": "成塘农家乐", "address": "227省道丰稔第三中学对面西30米", "image": "", "rank": 39, "time": 2, "location": {"lat": 24.166738848512672, "lng": 115.32528440120315}, "feature": {"sight_features": "", "sight_content": ""}}, {"title": "龙川县杂技团", "address": "中山路东路附近中山东路", "image": "", "rank": 40, "time": 2, "location": {"lat": 32.2104787173484, "lng": 119.4560855293157}, "feature": {"sight_features": "", "sight_content": ""}}, {"title": "龙川县山歌剧团", "address": "丰稔港巷", "image": "", "rank": 41, "time": 2, "location": {"lat": 24.108887457476104, "lng": 115.26297617845762}, "feature": {"sight_features": "", "sight_content": ""}}, {"title": "霍山景区 Mt. Huo Scenic Area", "address": "广东省龙川县县中部", "image": "", "rank": 42, "time": 2, "location": {"lat": 24.105850721954667, "lng": 115.2665554848457}, "feature": {"sight_features": "", "sight_content": ""}}, {"title": "河源青龙湖", "address": "广东省龙川县东江", "image": "", "rank": 43, "time": 3.0, "location": {"lat": 24.07114457927798, "lng": 115.20665294132289}, "feature": {"sight_features": "", "sight_content": ""}}, {"title": "龙川碧桂园游泳池", "address": "河源市-龙川县-老隆镇下泡水湖箕坑新龙花园二期旁", "image": "", "rank": 44, "time": 4.5, "location": {"lat": 24.096935404614793, "lng": 115.25662774472573}, "feature": {"sight_features": "", "sight_content": ""}}, {"title": "龙川县博物馆", "address": "河源市-龙川县-老隆镇先烈路29号", "image": "", "rank": 45, "time": 2, "location": {"lat": 24.103452441909614, "lng": 115.26452391842706}, "feature": {"sight_features": "", "sight_content": ""}}, {"title": "好声音KTⅤ", "address": "河源市-龙川县-G205(山深线)", "image": "", "rank": 46, "time": 2, "location": {"lat": 24.105850721954667, "lng": 115.2665554848457}, "feature": {"sight_features": "", "sight_content": ""}}, {"title": "章明塘", "address": "河源市-龙川县-三五二乡道", "image": "", "rank": 47, "time": 2, "location": {"lat": 24.105850721954667, "lng": 115.2665554848457}, "feature": {"sight_features": "", "sight_content": ""}}, {"title": "车田坝", "address": "河源市-龙川县-四零八乡道", "image": "", "rank": 48, "time": 2, "location": {"lat": 24.105850721954667, "lng": 115.2665554848457}, "feature": {"sight_features": "", "sight_content": ""}}]}