{"cityName": "隆昌", "days": null, "cityImage": "", "spots": [{"title": "隆昌石牌坊群", "address": "内江市隆昌县金鹅镇南北二关（成渝古驿道古关隘）", "image": "", "rank": 1, "time": 1.5, "location": {"lat": 29.3373602307964, "lng": 105.30092229358962}, "feature": {"sight_features": "", "sight_content": ""}}, {"title": "古宇湖", "address": "内江市东隆昌县境内", "image": "", "rank": 2, "time": 2.5, "location": {"lat": 29.36786874915794, "lng": 105.25295771713975}, "feature": {"sight_features": "", "sight_content": ""}}, {"title": "隆昌县万花谷园艺有限公司", "address": "响石镇鹰嘴村万花谷", "image": "", "rank": 3, "time": null, "location": {"lat": 29.289841042123836, "lng": 105.16601579351907}, "feature": {"sight_features": "", "sight_content": ""}}, {"title": "万花谷佳兴游乐园", "address": "响石镇万花谷", "image": "", "rank": 4, "time": 2, "location": {"lat": 29.305341390185898, "lng": 105.15527866216877}, "feature": {"sight_features": "", "sight_content": ""}}, {"title": "云顶寨景区", "address": "内江市隆昌县云顶镇云顶寨", "image": "", "rank": 5, "time": 2, "location": {"lat": 29.233573281787606, "lng": 105.30145682399501}, "feature": {"sight_features": "", "sight_content": ""}}, {"title": "鑫龙农场", "address": "通龙路附近", "image": "", "rank": 6, "time": 2, "location": {"lat": 29.379303458304552, "lng": 105.21266290860201}, "feature": {"sight_features": "", "sight_content": ""}}, {"title": "云君农场", "address": "金鹅街道光照村11社", "image": "", "rank": 7, "time": 2, "location": {"lat": 29.365767873852807, "lng": 105.31936230485488}, "feature": {"sight_features": "", "sight_content": ""}}, {"title": "情趣园渡假村", "address": "内江古宇湖", "image": "", "rank": 8, "time": 2, "location": {"lat": 29.335596309791413, "lng": 105.24412290422966}, "feature": {"sight_features": "", "sight_content": ""}}, {"title": "白庙子水库生态湿地公园", "address": "四川省内江市隆昌市恒隆路东侧", "image": "", "rank": 9, "time": 2, "location": {"lat": 29.346062823455814, "lng": 105.28186414033703}, "feature": {"sight_features": "", "sight_content": ""}}, {"title": "欢乐岛儿童乐园", "address": "百庆名都附近", "image": "", "rank": 10, "time": 2, "location": {"lat": 29.347998073859717, "lng": 105.29560460434533}, "feature": {"sight_features": "", "sight_content": ""}}, {"title": "冷家寺", "address": "金汤路东150米", "image": "", "rank": 11, "time": 2, "location": {"lat": 31.257237627885875, "lng": 121.38833913978604}, "feature": {"sight_features": "", "sight_content": ""}}, {"title": "玩具乐园", "address": "金华路138号附近", "image": "", "rank": 12, "time": 2, "location": {"lat": 29.348251514851476, "lng": 105.2869752992633}, "feature": {"sight_features": "", "sight_content": ""}}, {"title": "复生公园", "address": "滨河路西50米", "image": "", "rank": 13, "time": 2, "location": {"lat": 40.601378873691075, "lng": 115.06779399744747}, "feature": {"sight_features": "", "sight_content": ""}}, {"title": "七彩桥儿童乐园", "address": "四川省内江市隆昌市龙市镇东岳村公园路龙景花园附近", "image": "", "rank": 14, "time": 2, "location": {"lat": 29.363158251045814, "lng": 105.19305777712458}, "feature": {"sight_features": "", "sight_content": ""}}, {"title": "柏林寺", "address": "内江市隆昌市", "image": "", "rank": 15, "time": 1.0, "location": {"lat": 29.345244662082525, "lng": 105.29457175243301}, "feature": {"sight_features": "", "sight_content": ""}}, {"title": "高家祠堂", "address": "内江市东兴区零九一乡道", "image": "", "rank": 16, "time": 2, "location": {"lat": 29.59848572858322, "lng": 105.08254748773004}, "feature": {"sight_features": "", "sight_content": ""}}, {"title": "北湖公园", "address": "四川省内江市隆昌市市内隆路", "image": "", "rank": 17, "time": 1.5, "location": {"lat": 29.345244662082525, "lng": 105.29457175243301}, "feature": {"sight_features": "", "sight_content": ""}}, {"title": "弥陀寺", "address": "自贡市富顺县", "image": "", "rank": 18, "time": 0.4, "location": {"lat": 29.186886257830583, "lng": 104.98149440602947}, "feature": {"sight_features": "", "sight_content": ""}}, {"title": "泡菜哥山庄", "address": "隆昌市胡家镇胡家村2组", "image": "", "rank": 19, "time": 2, "location": {"lat": 29.252496304675013, "lng": 105.21899734493743}, "feature": {"sight_features": "", "sight_content": ""}}, {"title": "东门广场", "address": "隆桥路168号", "image": "", "rank": 20, "time": 2, "location": {"lat": 29.344790589330184, "lng": 105.29734887469586}, "feature": {"sight_features": "", "sight_content": ""}}, {"title": "古宇湖北入口湿地公园", "address": "四川省内江市隆昌市龙华西路与环城西路交界处古宇湖北岸", "image": "", "rank": 21, "time": 2, "location": {"lat": 29.335596309791413, "lng": 105.24412290422966}, "feature": {"sight_features": "", "sight_content": ""}}, {"title": "观音寺玉蟾分庙", "address": "321国道附近", "image": "", "rank": 22, "time": 2, "location": {"lat": 23.231187385915014, "lng": 112.93308957690171}, "feature": {"sight_features": "", "sight_content": ""}}, {"title": "毛泽东主席视察气矿纪念馆", "address": "S305", "image": "", "rank": 23, "time": 2, "location": {"lat": 40.12303546421286, "lng": 116.54742686006684}, "feature": {"sight_features": "", "sight_content": ""}}, {"title": "图书馆", "address": "兴和巷", "image": "", "rank": 24, "time": 1.0, "location": {"lat": 27.842107536952312, "lng": 112.92605194072516}, "feature": {"sight_features": "", "sight_content": ""}}, {"title": "清泉水上乐园", "address": "青年路洞坎风景区鹅洞飞雪旁", "image": "", "rank": 25, "time": 2, "location": {"lat": 30.628416052845846, "lng": 104.10977345091125}, "feature": {"sight_features": "", "sight_content": ""}}, {"title": "嘉年华", "address": "金鹅镇南关石牌坊古镇3号楼2楼", "image": "", "rank": 26, "time": null, "location": {"lat": 43.869873025193, "lng": 125.35660981703178}, "feature": {"sight_features": "", "sight_content": ""}}, {"title": "隆昌县图书馆", "address": "康复西路与中山路交叉口东北侧", "image": "", "rank": 27, "time": 2, "location": {"lat": 26.20341091690107, "lng": 119.54959638547646}, "feature": {"sight_features": "", "sight_content": ""}}, {"title": "白银谷餐饮服务有限公司", "address": "石燕桥镇桐梓园村内", "image": "", "rank": 28, "time": 2, "location": {"lat": 29.30899860815495, "lng": 105.35949994068908}, "feature": {"sight_features": "", "sight_content": ""}}]}