{"cityName": "龙游", "days": 2, "cityImage": "", "spots": [{"title": "龙游石窟", "address": "衢州市龙游县小南海镇石岩背村", "image": "", "rank": 1, "time": 2.5, "location": {"lat": 29.064437960461547, "lng": 119.19576254440359}, "feature": {"sight_features": "特色1 深入规模宏大的地下石窟，揣摩它的身世之谜。 特色2 龙游石窟是我国古代地下人工建筑群之一。", "sight_content": "龙游石窟被称为“世界第九大奇迹”，规模宏大、气势磅礴、瑰丽壮观、巧夺天工。走进石窟，宛如时光倒流到远古。它的开采年代、开采人、用途等等，都是千古不解之谜。\n\n1992年，在四位农民的水泵声中出现一个世界奇观----龙游石窟。这是一个谜团百结的地下建筑群，在方圆0.38平方公里的土丘分布了大小24个洞窟，每个洞窟从矩形洞口开始垂直向下延伸，高度约30米。顶部呈漏斗型，洞窟内科学地分布着3-4根巨大的“鱼尾形”石柱，与洞顶浑然一体。更让人叹为观止的是洞壁、洞顶和石柱上的凿痕。\n\n竹林禅寺迄今有1300多年历史，寺院门对着衢江、灵山江，犹如双龙衬托起一颗灿烂明珠，主殿“圆通宝殿”黄琉璃顶，飞檐翘角，造型精美，带有浓厚的古刹神韵。在竹林禅寺旁边你可以看见很有特色的马鸟鱼广场。\n两江风情龙之游是以龙游石窟为依托，并以石窟文化、龙文化、商帮文化等七大文化为背景，通过素有玉带之称的衢江和灵山江，把龙游石窟、龙游民居苑、龙洲公园接轨连通，汇聚成一条靓丽的旅游风景线。在整条游线当中，您不仅可以品乾隆下江南之古邑遗风，听龙游商帮之传奇，欣赏二龙戏珠之地势。"}}, {"title": "龙游民居苑", "address": "衢州市龙游县文化路62号", "image": "", "rank": 2, "time": 2.5, "location": {"lat": 29.0370603263344, "lng": 119.17902216219657}, "feature": {"sight_features": "特色1 重要的古文化遗址", "sight_content": "灵山江从南而至，绕廓北去，江中流水清清，江上三桥并列。有一山突兀临江，与县城隔水相对，江岸危岩壁立，涛穴幽邃，山上古增高耸，林木之中还隐隐约约地露出砖墙和翘檐瓦角。鸡鸣山旧时“鸡鸣秋晓”列为“龙邱十二景”之一，吸引人们登临流连，文人墨客多有题咏。遗址内采集到石器、印纹陶片、纹饰和鼎器若干，上限新石器时代，下限商周时期。山上古塔高耸，有观象台和鸡鸣书院遗址等等。\n\n龙游民居苑坐落在风光炫丽的鸡鸣山，依山傍水，是极有代表性的民居古建筑之一，是我国屈指可数的古建筑集萃之地。这里是重要的古文化遗址，从新石器时代到商周时期的文物出土甚多。历史悠久，文物精湛，其中明清传统民居，堪称建筑艺术的杰作，在江南古代传统建筑中占有重要地位。明代建筑“翊秀亭”清代建筑“灵山花厅”，各有特色，奇妙无穷。\n龙游民居苑在城郊的一处风水宝地，历史积淀非常丰厚，建筑非常有特色，门楼飞檐翘角，气势刚健，如大鹏展翅，傲视蓝天。龙游民居苑，俨然是一处历史的庄园是，一座民俗民风的大观园。走进龙游民居苑，就仿佛走进长长的历史隧道——白墙黛瓦和错落有致的林间书院，与散布其间的街巷、池塘、戏台，形成了明清时期传统自然村落中富有特色的生活场景。"}}, {"title": "衢州小南海", "address": "衢州市龙游县城北3公里衢江之阳凤凰山", "image": "", "rank": 3, "time": 2.5, "location": {"lat": 28.62438892818376, "lng": 118.79640764384823}, "feature": {"sight_features": "", "sight_content": ""}}, {"title": "龙游大峡谷漂流", "address": "衢州市龙游市罗家乡荷村", "image": "", "rank": 4, "time": 2.0, "location": {"lat": 28.9390727914778, "lng": 119.26024529799133}, "feature": {"sight_features": "特色1 龙游峡谷漂流全长4.5公里，上下落差159米。<br>时而游龙逐浪，时而平缓惬意，时而万马奔腾，时而跌宕起伏。<br>沿途欣赏着飞鸟穿梭、游鱼戏水、四季常绿、山峦叠嶂的奇景。", "sight_content": "龙游峡谷漂流位于衢州市龙游县罗家乡桃园溪，顺山势而成，隐于崇山峻岭深处。漂流全长4.5公 里，上下落差159米，两岸山高林密，在峡谷中穿行，时而游龙逐浪，时而平缓惬意，时而万马奔腾 ，时而跌宕起伏。\n沿途欣赏着飞鸟穿梭、游鱼戏水、四季常绿、山峦叠嶂的奇景，感受从高山玉带奔腾而下的刺激 ，穿越龙潭峡、游龙峡、将军峡、惊涛峡、飞瀑峡、太阳谷、月亮谷、情人谷等幻境景点，尽情感受 旋转、飞跃、驰聘、尖叫、血脉喷张的激情旅程，让身心得到最好的放松与享受。\n龙游峡谷漂流景区距龙游县城13公里，距龙游石窟18公里，距民居宛10公里，距衢州38公里，距 省道（S50）4公里，路面平坦宽畅，交通便捷，是情侣约会、朋友小聚，家人共享、野外拓展的最佳 去处。"}}, {"title": "姑蔑城生态园", "address": "衢州市龙游县詹家镇浦山村", "image": "", "rank": 5, "time": 2, "location": {"lat": 29.011646761098174, "lng": 119.14250398880333}, "feature": {"sight_features": "特色1 自在而不出世", "sight_content": "姑蔑城生态园位于浙江省衢州市龙游县城西詹家镇，距离龙游3公里，距离衢州也仅26公里，紧邻320国道，交通便利。姑蔑城生态园是衢州市农业龙头企业，主要以生态旅游、休闲娱乐、观光度假、花果种植、商务会议为经营模式，致力于打造独具特色的乡村旅游综合体。\n融入原有生态自然，营造人文氛围，依托便捷的交通，与现代都市生活达到无缝融合，营造现代“慢生活”的休闲养生生活方式，做到从容不迫，张弛有度，悠闲而不封闭，自在而不出世。\n园区总占地面积为2000余亩，有休闲餐饮、特色水产、农场养殖、果园茶园，还有休闲吧、芳草地大草坪、森林公园、亚马逊树上冒险乐园、碰碰船、水上自行车、山地越野摩托车、真人CS、森林自助烧烤场、水潭垂钓，还有建设中的跑马场、白鹭园、爱情海、浪漫坡、迷你动物园，青苹果乐园、花果山等，可以承办各种户外大型活动、户外婚礼、主题Party、生日聚会的私人定制，以及团体商务会议、户外露营、青少年夏令营等等。"}}, {"title": "梦溪漂流", "address": "衢州市龙游县沐尘乡马戍口", "image": "", "rank": 6, "time": 2, "location": {"lat": 28.82799061403413, "lng": 119.1823062117331}, "feature": {"sight_features": "", "sight_content": ""}}, {"title": "竹林禅寺", "address": "衢州市龙游县小南海镇石岩倍村龙游石窟景区内", "image": "", "rank": 7, "time": 2, "location": {"lat": 29.066713656001255, "lng": 119.19654731397821}, "feature": {"sight_features": "", "sight_content": ""}}, {"title": "衢州大竹海森林公园", "address": "衢州市龙游县715乡道", "image": "", "rank": 8, "time": 2.5, "location": {"lat": 28.78448683085865, "lng": 119.13418757880153}, "feature": {"sight_features": "", "sight_content": ""}}, {"title": "石窟草莓园", "address": "龙游石窟风景区", "image": "", "rank": 9, "time": 2, "location": {"lat": 29.070060409604974, "lng": 119.19472940503351}, "feature": {"sight_features": "", "sight_content": ""}}, {"title": "浙江马格朗农业基地", "address": "315省道", "image": "", "rank": 10, "time": 2, "location": {"lat": 36.88733965403998, "lng": 115.75610288886648}, "feature": {"sight_features": "", "sight_content": ""}}, {"title": "老长子农家乐", "address": "石佛乡姚村", "image": "", "rank": 11, "time": 2, "location": {"lat": 29.15229973806466, "lng": 119.10694493081294}, "feature": {"sight_features": "", "sight_content": ""}}, {"title": "龙游蓝莓庄园", "address": "洪呈村168号", "image": "", "rank": 12, "time": 2.0, "location": {"lat": 28.96224058212333, "lng": 119.16814200084642}, "feature": {"sight_features": "", "sight_content": ""}}, {"title": "华飞庄园", "address": "龙游城北金星大道西侧(管委会大楼正对面)", "image": "", "rank": 13, "time": 2, "location": {"lat": 29.092876700993227, "lng": 119.2217665386876}, "feature": {"sight_features": "", "sight_content": ""}}, {"title": "龙游俊越家庭农场", "address": "湖镇镇上下范村下范路5路50号", "image": "", "rank": 14, "time": 2.0, "location": {"lat": 29.317985377000223, "lng": 119.26083951450971}, "feature": {"sight_features": "", "sight_content": ""}}, {"title": "龙游创乐游乐场", "address": "龙游石窟渡口东南侧400米", "image": "", "rank": 15, "time": 2.0, "location": {"lat": 23.494386671660774, "lng": 116.51093198121578}, "feature": {"sight_features": "", "sight_content": ""}}, {"title": "龙游花海", "address": "龙灵路", "image": "", "rank": 16, "time": 1.0, "location": {"lat": 30.698298654287402, "lng": 108.88955893681342}, "feature": {"sight_features": "", "sight_content": ""}}, {"title": "浮杯塔", "address": "衢州市龙游县", "image": "", "rank": 17, "time": 2, "location": {"lat": 29.034486553294915, "lng": 119.17841825565665}, "feature": {"sight_features": "", "sight_content": ""}}, {"title": "睿兔儿水上乐园", "address": "广场东路", "image": "", "rank": 18, "time": 2, "location": {"lat": 37.98188574771287, "lng": 115.22630694858466}, "feature": {"sight_features": "", "sight_content": ""}}, {"title": "睿兔儿童游乐园", "address": "荣昌广场龙游国际影城1楼", "image": "", "rank": 19, "time": 2, "location": {"lat": 29.04423813362142, "lng": 119.1817474657061}, "feature": {"sight_features": "", "sight_content": ""}}, {"title": "龙游县刘伯温故居", "address": "马戍口村", "image": "", "rank": 20, "time": 2, "location": {"lat": 28.774705717783807, "lng": 119.23062494581019}, "feature": {"sight_features": "", "sight_content": ""}}, {"title": "龙游童话街儿童游乐园", "address": "浙江省衢州市龙游县塔石镇泽随村泽真路11号第1至8间", "image": "", "rank": 21, "time": 2.0, "location": {"lat": 29.134779563108026, "lng": 119.10836759162152}, "feature": {"sight_features": "", "sight_content": ""}}, {"title": "701生态农场", "address": "浙江省衢州市龙游县王梅线（710县道）", "image": "", "rank": 22, "time": 2, "location": {"lat": 29.163465431551618, "lng": 119.18242029653284}, "feature": {"sight_features": "", "sight_content": ""}}, {"title": "龙游宝贝儿童游乐园", "address": "荣昌广场世纪联华超市2楼", "image": "", "rank": 23, "time": 2, "location": {"lat": 40.017555561868825, "lng": 116.50962183078119}, "feature": {"sight_features": "", "sight_content": ""}}, {"title": "嘟嘟城儿童乐园", "address": "衢州市龙游县龙州街道龙州路202-216号东方商厦龙洲店3层", "image": "", "rank": 24, "time": 2, "location": {"lat": 29.03850549174116, "lng": 119.18834654913282}, "feature": {"sight_features": "", "sight_content": ""}}, {"title": "飞龙殿", "address": "浙江省衢州市龙游县沐尘畲族乡仁峰", "image": "", "rank": 25, "time": 2, "location": {"lat": 28.830722468931697, "lng": 119.18414962446954}, "feature": {"sight_features": "", "sight_content": ""}}, {"title": "水龙吟山庄", "address": "晓溪村", "image": "", "rank": 26, "time": 2, "location": {"lat": 28.852281063152063, "lng": 119.14581226923268}, "feature": {"sight_features": "", "sight_content": ""}}, {"title": "进口广场", "address": "衢州市龙游县小南海镇石岩倍村龙游石窟内", "image": "", "rank": 27, "time": 2, "location": {"lat": 29.070060409604974, "lng": 119.19472940503351}, "feature": {"sight_features": "", "sight_content": ""}}, {"title": "兜率寺碑", "address": "塔游线", "image": "", "rank": 28, "time": 2, "location": {"lat": 29.105113096442988, "lng": 119.2746500876698}, "feature": {"sight_features": "", "sight_content": ""}}, {"title": "现代画廊(龙游店)", "address": "文化东路386号", "image": "", "rank": 29, "time": 2, "location": {"lat": 29.039028350762745, "lng": 119.18237435359585}, "feature": {"sight_features": "", "sight_content": ""}}, {"title": "龙游县博物馆", "address": "东华街道宝塔路46号", "image": "", "rank": 30, "time": 2, "location": {"lat": 29.028619622575373, "lng": 119.19085943033845}, "feature": {"sight_features": "", "sight_content": ""}}, {"title": "龙游县图书馆", "address": "龙洲街道文化东路60号", "image": "", "rank": 31, "time": 2, "location": {"lat": 29.037590129608475, "lng": 119.17950978668146}, "feature": {"sight_features": "", "sight_content": ""}}, {"title": "星光纹身美甲艺术馆", "address": "荣昌大道310号(近龙游人民医院)", "image": "", "rank": 32, "time": 2, "location": {"lat": 29.043459367946813, "lng": 119.18378359372011}, "feature": {"sight_features": "", "sight_content": ""}}, {"title": "小南海风景区", "address": "小南海镇石岩背村", "image": "", "rank": 33, "time": 2.5, "location": {"lat": 29.064437960461547, "lng": 119.19576254440359}, "feature": {"sight_features": "", "sight_content": ""}}, {"title": "下杨紫灵阁农家乐", "address": "龙游下杨村录山大桥桥头(下杨村小龙幼儿园北450米)", "image": "", "rank": 34, "time": 2, "location": {"lat": 29.014773946928663, "lng": 119.19160816528586}, "feature": {"sight_features": "", "sight_content": ""}}, {"title": "龙游文化剧场", "address": "文化东路546号附近", "image": "", "rank": 35, "time": 2.0, "location": {"lat": 37.1867473865342, "lng": 119.95948997235878}, "feature": {"sight_features": "", "sight_content": ""}}, {"title": "一龙垂钓俱乐部", "address": "龙洲路257号", "image": "", "rank": 36, "time": 2, "location": {"lat": 29.041489144464023, "lng": 119.19037281554895}, "feature": {"sight_features": "", "sight_content": ""}}, {"title": "龙游海平家庭农场", "address": "横山镇河宗村山门寺水库西北", "image": "", "rank": 37, "time": 2.0, "location": {"lat": 29.210168311220652, "lng": 119.22886107712837}, "feature": {"sight_features": "", "sight_content": ""}}, {"title": "龙游初见玫瑰园", "address": "虎游线万和酒家西北侧", "image": "", "rank": 38, "time": 2.0, "location": {"lat": 29.064438292429983, "lng": 119.19194535414029}, "feature": {"sight_features": "", "sight_content": ""}}, {"title": "深谷幽兰农家乐", "address": "庙下乡晓溪村龙王殿路69号", "image": "", "rank": 39, "time": 2, "location": {"lat": 28.852281063152063, "lng": 119.14581226923268}, "feature": {"sight_features": "", "sight_content": ""}}, {"title": "梅树坞", "address": "衢州市-龙游县", "image": "", "rank": 40, "time": 2, "location": {"lat": 29.034486553294915, "lng": 119.17841825565665}, "feature": {"sight_features": "", "sight_content": ""}}, {"title": "吗坑垄", "address": "衢州市-龙游县", "image": "", "rank": 41, "time": 2, "location": {"lat": 29.034486553294915, "lng": 119.17841825565665}, "feature": {"sight_features": "", "sight_content": ""}}, {"title": "绿葱湖", "address": "浙江省丽水市遂昌北界", "image": "", "rank": 42, "time": 2, "location": {"lat": 28.598454676709746, "lng": 119.28243538621696}, "feature": {"sight_features": "", "sight_content": ""}}, {"title": "三门源风景区", "address": "浙江省龙游县石佛乡三门源村", "image": "", "rank": 43, "time": 2, "location": {"lat": 29.213904743355897, "lng": 119.11562922566674}, "feature": {"sight_features": "", "sight_content": ""}}, {"title": "天池荷花", "address": "浙江龙游横山天池村", "image": "", "rank": 44, "time": 2, "location": {"lat": 29.034486553294915, "lng": 119.17841825565665}, "feature": {"sight_features": "", "sight_content": ""}}]}