{"cityName": "隆尧", "days": 2, "cityImage": "", "spots": [{"title": "唐陵", "address": "河北省隆尧县隆尧县境内 055350", "image": "", "rank": 1, "time": 2, "location": {"lat": 37.355908006295365, "lng": 114.77661608164605}, "feature": {"sight_features": "", "sight_content": ""}}, {"title": "邢台地震资料陈列馆", "address": "河北省隆尧县隆尧县境内 055350", "image": "", "rank": 2, "time": 2.0, "location": {"lat": 37.355908006295365, "lng": 114.77661608164605}, "feature": {"sight_features": "", "sight_content": ""}}, {"title": "昭庆中街", "address": "河北省邢台市隆尧县", "image": "", "rank": 3, "time": 2, "location": {"lat": 37.355908006295365, "lng": 114.77661608164605}, "feature": {"sight_features": "", "sight_content": ""}}, {"title": "任敖公园", "address": "河北省邢台市隆尧县S327(太行路)", "image": "", "rank": 4, "time": 2, "location": {"lat": 37.36561569149662, "lng": 114.79850754258511}, "feature": {"sight_features": "", "sight_content": ""}}, {"title": "普陀寺", "address": "河北省邢台市隆尧县西毛尔寨村", "image": "", "rank": 5, "time": 1.0, "location": {"lat": 37.38868222200715, "lng": 114.99520984864752}, "feature": {"sight_features": "", "sight_content": ""}}, {"title": "天主教堂", "address": "义丰村丰中路3号附近", "image": "", "rank": 6, "time": 1.0, "location": {"lat": 37.35292616264084, "lng": 114.8010901224178}, "feature": {"sight_features": "", "sight_content": ""}}, {"title": "报恩寺", "address": "邢台市隆尧县", "image": "", "rank": 7, "time": 2, "location": {"lat": 37.355908006295365, "lng": 114.77661608164605}, "feature": {"sight_features": "", "sight_content": ""}}, {"title": "愉景生态园", "address": "327省道", "image": "", "rank": 8, "time": 2, "location": {"lat": 37.483115265356545, "lng": 114.27992652618842}, "feature": {"sight_features": "", "sight_content": ""}}, {"title": "隆尧县图书馆", "address": "昭庆北街1号", "image": "", "rank": 9, "time": 2, "location": {"lat": 37.36087276286847, "lng": 114.7850600016262}, "feature": {"sight_features": "", "sight_content": ""}}, {"title": "零度冰雪乐园", "address": "隆尧酒厂向西1000米路南(体育文化内)", "image": "", "rank": 10, "time": 2, "location": {"lat": 37.355908006295365, "lng": 114.77661608164605}, "feature": {"sight_features": "", "sight_content": ""}}, {"title": "沈剑画室(隆尧教学区)", "address": "1,隆尧文化馆三楼。2,唐尧商城南口牌坊东侧三楼", "image": "", "rank": 11, "time": 2, "location": {"lat": 37.35868271188856, "lng": 114.78520954164615}, "feature": {"sight_features": "", "sight_content": ""}}, {"title": "长灿伟业矿产资源经营有限公司", "address": "西环国土资源局北侧", "image": "", "rank": 12, "time": 2, "location": {"lat": 36.369392803820816, "lng": 114.93159135836285}, "feature": {"sight_features": "", "sight_content": ""}}, {"title": "森都商业步行街", "address": "河北省隆尧县204县道", "image": "", "rank": 13, "time": 2, "location": {"lat": 37.35652293524193, "lng": 114.76428791648821}, "feature": {"sight_features": "", "sight_content": ""}}]}