{"cityName": "隆安", "days": 2, "cityImage": "", "spots": [{"title": "龙虎山风景区", "address": "南宁市西北面83公里处隆安县境内", "image": "", "rank": 1, "time": 2.0, "location": {"lat": 23.1715852498276, "lng": 107.70257390338148}, "feature": {"sight_features": "特色1 中国著名的“猴山”，在这里游人可随时与猴群近距离接触。", "sight_content": "【龙虎山自然保护区】\n\n龙虎山风景区，隶属隆安县，距南宁市83公里，国家AAAA级景区。南宁至大新、靖西、凭祥、云南的公路贯通景区，交通便利。 景区总面积为271公顷，森林覆盖率达98.7%，其中栖息着珍贵濒危的国家一、二级保护动植物，据不完全统计，现有野生猕猴3000多只，集散在路边、桥头及沿江，活泼可爱，能与游客嬉戏玩耍，好不热闹。??\n\n游龙虎山最大的亮点就是观猴，龙虎山现有8大猴群，每个群都有自己的猴王。这里的猴子喜与人亲近，刚到大门便有迎宾部队的猴群前来迎客，往深入走还会见到我们海陆空三军猴群，它们或伸手讨吃的，或嬉戏玩耍，更甚有调皮者会跳到游客的肩膀上。在这里游客随时可以与猴子们零距离接触，合影留念，尽情享受人与自然和谐的乐趣。\n离开喧嚣的都市，走进金龙寨，这里依山傍水，空气中每立方厘米达2-5万个负氧离子，是天然的氧吧。水边有神奇的六合神树，更是风水宝地，游客们可以在这边点上一炷香系上红绸带，许上一个美好的心愿。还可以参与玩板鞋竞走、推磨等活动，参观农家洞房，在竹阁楼里小憩，品各种农家特色小吃，感受纯朴的乡村气息，尽享浓郁的乡土风情。\n这里一年四季绿水常清，乘坐竹排游绿水江，欣赏两岸如画山景，与绿水江相互辉映，形成了奇妙的美景，感受宛如“船在画中走，人在画中游”的无穷意境。沿江而下，可以在竹排上对山歌体验壮族的特色风情，还可以看到猴子潜水、跳水等精彩镜头。\n游玩龙山来到我们的虎山，虎山海拔397米，登上虎山，还可一览众山小，包括一览对面龙山的全貌，那又是另外一个“神龙见首不见尾”的景致。在虎山脚下，古木幽深，藤缠蔓绕，植物繁多，有植物皇后毛瓣金花茶、金丝李、蚬木等，均是国家重点保护植物；另外还有各式各样中草药如蜘蛛抱蛋、黄精、青天葵等，仿佛一个若大的植物园。\n仙佛园坐落于虎山脚下，是众生虔心礼佛的庙堂。内有千年石龟。游人到此只要上一柱香，便可以请观音菩萨和各位神佛，为亲人为自己祈福，无论求子、求财、求平安、求姻缘，只要心诚必能一一显灵。往虎山深处走，内有大大小小千姿百态的石头和千百年的古榕和其他老树蔸，还有那只有鬼斧神工才能劈开的一线天，构成了无数个栩栩如生，造型可爱的天然盆景。\n目前龙虎山已建成较为完善的吃、住、玩一条龙服务。不仅在酒楼能够品尝到原生态的壮乡土鸡、土鸭、野生青竹鱼等特色风味，还可以夜宿龙虎山体验山夜的奥妙，享受大自然的赐予的舒适和祥和。这里远离了城市中的喧嚣烦躁和污染的空气，可以清晰的看到夜空中闪烁眨眼的群星，温柔如少女般的月亮，而进入耳际的是风过林间的低语呢喃，山间不知名的鸟啼虫鸣，远处绿水江日夜奔流的哗哗浪声，这一切组成了一曲美妙协和的催眠曲，让您很快进入美梦中\n这里青山滴翠，绿水清绝，更有行走的小精灵相伴。"}}, {"title": "雁江古镇", "address": "南宁市隆安县雁江镇", "image": "", "rank": 2, "time": 4.5, "location": {"lat": 23.278432945272726, "lng": 107.68085090707172}, "feature": {"sight_features": "", "sight_content": ""}}, {"title": "布泉河", "address": "南宁市隆安县", "image": "", "rank": 3, "time": 1.5, "location": {"lat": 23.1715852498276, "lng": 107.70257390338148}, "feature": {"sight_features": "", "sight_content": ""}}, {"title": "绿水江漂流", "address": "南宁市隆安县屏山乡渌水江河段", "image": "", "rank": 4, "time": 2, "location": {"lat": 22.945464526772696, "lng": 107.57173736327007}, "feature": {"sight_features": "", "sight_content": ""}}, {"title": "更望湖", "address": "南宁市隆安县南圩镇", "image": "", "rank": 5, "time": 2.0, "location": {"lat": 23.131757098291367, "lng": 107.67641067186959}, "feature": {"sight_features": "", "sight_content": ""}}, {"title": "那乐谷亲子主题乐园", "address": "南宁市近郊那桐镇定江村定典屯金穗生态园内", "image": "", "rank": 6, "time": 2, "location": {"lat": 23.015072315356367, "lng": 107.87208003432757}, "feature": {"sight_features": "", "sight_content": ""}}, {"title": "自给农场", "address": "510县道附近", "image": "", "rank": 7, "time": 2, "location": {"lat": 27.599495029091223, "lng": 108.19474210738372}, "feature": {"sight_features": "", "sight_content": ""}}, {"title": "凌云云台山", "address": "广西壮族自治区凌云县县城南 533100", "image": "", "rank": 8, "time": 2, "location": {"lat": 24.354015240603566, "lng": 106.56841567704747}, "feature": {"sight_features": "", "sight_content": ""}}, {"title": "龙虎山景区", "address": "屏山乡龙虎山风景区", "image": "", "rank": 9, "time": 2.5, "location": {"lat": 22.972871647087494, "lng": 107.67155407565697}, "feature": {"sight_features": "", "sight_content": ""}}, {"title": "地藏王庙", "address": "南宁市隆安县广西南宁市隆安县龙虎山自然保护区龙虎山风景区内", "image": "", "rank": 10, "time": 1.5, "location": {"lat": 22.972871647087494, "lng": 107.67155407565697}, "feature": {"sight_features": "", "sight_content": ""}}, {"title": "九龙岛葡萄园", "address": "隆安县那桐镇金穗农业现代园区内", "image": "", "rank": 11, "time": 2, "location": {"lat": 23.035262029640144, "lng": 107.87059560603214}, "feature": {"sight_features": "", "sight_content": ""}}, {"title": "拱搁楼", "address": "国泰码头附近", "image": "", "rank": 12, "time": null, "location": {"lat": 39.540790513577896, "lng": 116.72559840084884}, "feature": {"sight_features": "", "sight_content": ""}}, {"title": "蝶城广场", "address": "南宁市隆安县金蝶街15号", "image": "", "rank": 13, "time": 2, "location": {"lat": 23.170140419711302, "lng": 107.70394332521572}, "feature": {"sight_features": "", "sight_content": ""}}, {"title": "隆安东站-站前广场", "address": "广西壮族自治区南宁市隆安县", "image": "", "rank": 14, "time": 3.5, "location": {"lat": 23.1715852498276, "lng": 107.70257390338148}, "feature": {"sight_features": "", "sight_content": ""}}, {"title": "隆安图书馆金牌教育活动中心", "address": "榕华街", "image": "", "rank": 15, "time": 3.5, "location": {"lat": 29.48303974245018, "lng": 106.48428970472702}, "feature": {"sight_features": "", "sight_content": ""}}, {"title": "隆安图书馆", "address": "文化街10号", "image": "", "rank": 16, "time": 1.5, "location": {"lat": 39.90411656818675, "lng": 116.54778852684821}, "feature": {"sight_features": "", "sight_content": ""}}, {"title": "绿江源漂流终点", "address": "316省道", "image": "", "rank": 17, "time": 2, "location": {"lat": 39.27101965917406, "lng": 117.82159346542433}, "feature": {"sight_features": "", "sight_content": ""}}, {"title": "荷花池", "address": "仙缘谷景区内", "image": "", "rank": 18, "time": 2, "location": {"lat": 22.947009456650708, "lng": 107.56889895860535}, "feature": {"sight_features": "", "sight_content": ""}}, {"title": "那桐村剧场", "address": "百润购物广场附近", "image": "", "rank": 19, "time": 2, "location": {"lat": 32.123492495804456, "lng": 119.70999927479936}, "feature": {"sight_features": "", "sight_content": ""}}, {"title": "灵水", "address": "广西壮族自治区武鸣县城南", "image": "", "rank": 20, "time": 1.0, "location": {"lat": 23.258065715881997, "lng": 108.2601392976101}, "feature": {"sight_features": "", "sight_content": ""}}]}