{"cityName": "龙胜", "days": 2, "cityImage": "", "spots": [{"title": "龙脊梯田", "address": "桂林市龙胜各族自治县和平乡平安村", "image": "", "rank": 1, "time": 4.5, "location": {"lat": 25.737954050517427, "lng": 110.0798814230813}, "feature": {"sight_features": "特色1 欣赏梯田层层叠叠的壮美，去古寨里体验少数民族风情。 特色2 梯田既有大刀阔斧的砍削，又有丝丝入扣的精雕细啄 特色3 蜿蜒如春螺、披岚似云塔，显示了动人心魄的曲线美", "sight_content": "龙脊梯田风景名胜区位于广西壮族自治区桂林市龙胜各族自治县和平乡，占地面积70.1平方公里，距桂林市75公里，321国道可通达景区大门口，交通十分便利，国家AAAA级景区、全国农业旅游示范点。夜幕低垂，热情奔放的原生态歌舞晚会上演了，热情好客的村民身着节日盛装，与远方的客人跳起“大团圆舞”舞，人们沉浸在歌舞的海洋中，尽情欢歌狂舞。\n\n龙脊梯田风景名胜区位于广西壮族自治区桂林市龙胜各族自治县和平乡，占地面积70.1平方公里，距桂林市75公里，321国道可通达景区大门口，交通十分便利，国家AAAA级景区、全国农业旅游示范点。景区处于亚热带季风气候区，年平均气温为17℃，气侯宜人，年平均降雨量1650毫米。龙脊梯田历史悠久、民族文化灿烂，梯田始建于元朝，成形于明朝，完工于清初，距今已有近700年的历史。\n\n梯田的规模磅礴壮观、气势雄浑，集成世界梯田造型之精华，线条如行云流水、潇洒流畅，为天下梯田景观之冠，堪称“天下一绝”。\n龙脊梯田风景名胜区是一个以梯田稻作农耕文化为主体，集自然景观与少数民族人文景观相结合的风景名胜区。目前已开发形成：平安壮族梯田观景区；金坑红瑶梯田观景区；龙脊古壮寨梯田文化观景区。"}}, {"title": "金坑梯田", "address": "桂林市龙胜各族自治县龙脊梯田景区内", "image": "", "rank": 2, "time": 4.5, "location": {"lat": 25.809084980159742, "lng": 110.16311965037167}, "feature": {"sight_features": "", "sight_content": ""}}, {"title": "七星伴月", "address": "桂林市龙胜各族县和平乡平安村龙脊梯田平安壮族梯田观景区内", "image": "", "rank": 3, "time": 1.0, "location": {"lat": 25.76106100591025, "lng": 110.13092366854842}, "feature": {"sight_features": "", "sight_content": ""}}, {"title": "龙胜温泉", "address": "桂林市龙胜各族自治县龙胜温泉度假中心", "image": "", "rank": 4, "time": 0.7, "location": {"lat": 25.89698923672626, "lng": 110.2191625056958}, "feature": {"sight_features": "特色1 在群山环绕之中享受温泉的舒适，还可欣赏周边的原始森林等景观。 特色2 环境温暖如春，凉爽宜人 特色3 可漫步森林，欣赏翡翠溪。", "sight_content": "龙胜温泉是人类童年时代留下的一片净土，可谓天下一座绝版的温泉。它坐落在龙胜县城东北方向28公里的龙胜温泉国家森林公园内，像一朵美丽奇葩的花蕊一样，它是温泉国家森林公园的核心和灵魂。龙胜温泉由地下1200米深处岩层涌出，水温在45℃—58℃之间，水中含有锂、锶、铁、锌、铜等十几种于人体有益的微量元素，水质经国家地矿部、轻工部、卫生部有关专家鉴定为：超低钠矿化度的偏硅酸重碳酸钙镁型天然饮用矿泉水。\n龙胜温泉之所以无以伦比，在于它十分优美的环境和十分优良的水质。这是一条林荫蔽日、万木合围的山冲，密密的杜鹃树和繁茂的阔叶林如同睫毛护佑眼睛一样，忠实地护佑着这一潭潭从容吐纳轻轻流淌的圣水。飘飘渺渺的雾气，把这里狭长的绿色空间幻化成云蒸霞蔚的仙山圣境。这些鲜活闪亮的热泉来自地下1200米深处的岩层，从古藤埀挂、老树蟠曲的山腰上喷涌而出，仿佛从一座偌大的蒸馏塔蒸馏出的水一样纯净，一尘不染，胜似琼浆玉液。\n龙胜温泉共有16股热泉，组成上下两个泉群，总流量6.12立方米/秒，恒温60.C。有意思的是，这里的热泉有冷泉自然调节温度，根本不用人工勾兑。龙胜温泉里除了有与森林融为一体的浪漫的游泳浴池，也有温馨的室内浴池。仰泳在水气蒸腾的露天浴池中飘飘欲仙，看袅袅升腾的热雾。\n龙胜温泉景区荣获三A标准，这里一方面是没留下任何人工痕迹的原始森林，一方面是一应俱全的现代旅游基础设施。龙胜温泉还是一台功率巨大的“空调机”，寒风瑟瑟，冷雨潇潇时节，这里温暖如春；外面熏风灼人，燠热难当，这幽谷里又是出奇地凉爽宜人，晚上入睡还需盖上小被子，并且绝无蚊蚋的侵扰，那份安谥，宁静，那份诗意和魅力，会让你去了还想再来。"}}, {"title": "黄洛瑶寨", "address": "桂林市龙胜各族自治县和平乡平安村龙脊梯田景区内", "image": "", "rank": 5, "time": 2.5, "location": {"lat": 25.731502615606676, "lng": 110.11606105297541}, "feature": {"sight_features": "", "sight_content": ""}}, {"title": "平安壮寨", "address": "桂林市龙胜各族县和平乡平安村龙脊梯田景区内（近平安壮族梯田）", "image": "", "rank": 6, "time": 3.0, "location": {"lat": 25.731502615606676, "lng": 110.11606105297541}, "feature": {"sight_features": "", "sight_content": ""}}, {"title": "龙脊大寨", "address": "桂林市龙胜各族自治县龙脊景区金坑梯田", "image": "", "rank": 7, "time": 2, "location": {"lat": 25.731706531044317, "lng": 110.11538171931508}, "feature": {"sight_features": "", "sight_content": ""}}, {"title": "龙脊峡漂流", "address": "桂林市龙胜各族自治县和大线龙脊梯田风景名胜区东南500米", "image": "", "rank": 8, "time": null, "location": {"lat": 25.776509863745257, "lng": 110.15090097787986}, "feature": {"sight_features": "特色1 在高耸入云的山崖和叠障的梯田中漂流", "sight_content": "龙脊峡漂流位于龙脊梯田景区内, 距桂林市区77公里，漂流河段为4公里，落差达300米，漂程为1.5小时左右。河谷两岸是高耸入云的山崖和叠障的梯田,从山脚到山顶分布着苍翠茂密的原始森林。两岸植被保护良好,流量、流速相对稳定。\n\n除具有原始古朴、幽野的特色外,更富一种灵动、秀丽之美。船行其间忽左忽右,或前或后,穿峡谷、渡险滩、越激流、转旋涡、冲浪尖，游客可切身感受澎湃激昂的心灵震撼；抑或在群山怀抱的湖上亲水乐园中畅快戏水玩耍。\n\n峡谷漂流是桂林旅游近年来的新兴旅游项目，利用喀斯特地貌下特有的多变地形和桂林丰富的水资源，让游客们在青山绿水间感受到一份湿身刺激的别样乐趣。龙脊峡漂流落差大，流程远，是新近开发的峡谷漂流生态旅游项目。群山环绕的水上乐园，惊险刺激、趣味无穷。"}}, {"title": "平安壮族梯田", "address": "桂林市龙胜各族自治县和平乡平安村龙脊梯田平安壮族梯田观景区", "image": "", "rank": 9, "time": 1.5, "location": {"lat": 25.76106100591025, "lng": 110.13092366854842}, "feature": {"sight_features": "", "sight_content": ""}}, {"title": "银水侗寨", "address": "桂林市龙胜县勒黄小三峡", "image": "", "rank": 10, "time": 1.5, "location": {"lat": 25.804116784253843, "lng": 110.01749399673898}, "feature": {"sight_features": "", "sight_content": ""}}, {"title": "九龙五虎观景点", "address": "桂林市龙胜各族自治县和平乡平安村龙脊梯田内平安壮族梯田观景区", "image": "", "rank": 11, "time": 1.0, "location": {"lat": 25.76118008449376, "lng": 110.1308690452853}, "feature": {"sight_features": "", "sight_content": ""}}, {"title": "龙胜森林公园", "address": "龙胜各族自治县", "image": "", "rank": 12, "time": 2.0, "location": {"lat": 25.804116784253843, "lng": 110.01749399673898}, "feature": {"sight_features": "", "sight_content": ""}}, {"title": "岩门峡漂流", "address": "桂林市龙胜各族自治县龙胜温泉景区内", "image": "", "rank": 13, "time": 2.5, "location": {"lat": 25.897066263731837, "lng": 110.21815086097996}, "feature": {"sight_features": "", "sight_content": ""}}, {"title": "大唐湾健康养生景区", "address": "桂林市龙胜县龙胜矮岭温泉", "image": "", "rank": 14, "time": 2, "location": {"lat": 25.896395188875893, "lng": 110.21700872391426}, "feature": {"sight_features": "", "sight_content": ""}}, {"title": "龙胜南山牧场", "address": "桂林市龙胜县境内（近湖南省城步县）", "image": "", "rank": 15, "time": 2.0, "location": {"lat": 25.804116784253843, "lng": 110.01749399673898}, "feature": {"sight_features": "", "sight_content": ""}}, {"title": "龙脊古壮寨", "address": "桂林市龙胜各族自治县和平乡龙脊梯田景区内的龙脊村", "image": "", "rank": 16, "time": 1.5, "location": {"lat": 25.731502615606676, "lng": 110.11606105297541}, "feature": {"sight_features": "", "sight_content": ""}}, {"title": "红军岩", "address": "桂林市龙胜县城东部", "image": "", "rank": 17, "time": 2, "location": {"lat": 25.804116784253843, "lng": 110.01749399673898}, "feature": {"sight_features": "", "sight_content": ""}}, {"title": "白面瑶寨", "address": "桂林市龙胜各族自治县泗水乡白面瑶寨", "image": "", "rank": 18, "time": 1.5, "location": {"lat": 25.909223601787833, "lng": 110.19602440153018}, "feature": {"sight_features": "", "sight_content": ""}}, {"title": "金竹壮寨", "address": "桂林市龙胜各族自治县和平乡龙脊梯田山麓金竹寨", "image": "", "rank": 19, "time": 1.0, "location": {"lat": 25.76118008449376, "lng": 110.1308690452853}, "feature": {"sight_features": "", "sight_content": ""}}, {"title": "龙胜温泉大唐湾民俗度假村", "address": "广西壮族自治区桂林市龙胜县道144江底乡龙胜温泉景区旁大唐湾少数民族民俗文化发展中心", "image": "", "rank": 20, "time": 2, "location": {"lat": 25.897066263731837, "lng": 110.21815086097996}, "feature": {"sight_features": "", "sight_content": ""}}, {"title": "田头寨", "address": "龙胜大寨村右边山坡上", "image": "", "rank": 21, "time": 2, "location": {"lat": 25.812386098886808, "lng": 110.16285001319326}, "feature": {"sight_features": "", "sight_content": ""}}, {"title": "中禄寨", "address": "桂林市龙胜各族自治县和平乡龙脊梯田景区内", "image": "", "rank": 22, "time": 0.4, "location": {"lat": 25.731502615606676, "lng": 110.11606105297541}, "feature": {"sight_features": "", "sight_content": ""}}, {"title": "龙脊大瑶寨梯田观景区-凉亭", "address": "桂林市龙胜各族自治县552乡道321国道路口附近龙脊梯田风景名胜区龙脊大瑶寨梯田观景区内", "image": "", "rank": 23, "time": 2, "location": {"lat": 25.81168712007952, "lng": 110.16962906134918}, "feature": {"sight_features": "", "sight_content": ""}}, {"title": "龙胜龙脊山", "address": "广西壮族自治区龙胜各族自治县和平乡平安村", "image": "", "rank": 24, "time": 2, "location": {"lat": 25.737954050517427, "lng": 110.0798814230813}, "feature": {"sight_features": "", "sight_content": ""}}, {"title": "西山韶乐观景点", "address": "广西省桂林市龙胜县和平乡大寨村田头寨金坑梯田西山韶乐观景点（龙脊B区1号观景点）", "image": "", "rank": 25, "time": 2, "location": {"lat": 25.72715753566786, "lng": 110.08341334385374}, "feature": {"sight_features": "", "sight_content": ""}}, {"title": "金佛顶观景点", "address": "广西龙胜各族自治县龙脊景区（金坑红瑶梯田观景区内）", "image": "", "rank": 26, "time": 2, "location": {"lat": 25.731706531044317, "lng": 110.11538171931508}, "feature": {"sight_features": "", "sight_content": ""}}, {"title": "大界千层天梯观景点", "address": "广西桂林市龙胜县和平乡龙脊梯田景区金坑大寨观景区田头寨（金坑红瑶观景区内）", "image": "", "rank": 27, "time": 2, "location": {"lat": 25.731502615606676, "lng": 110.11606105297541}, "feature": {"sight_features": "", "sight_content": ""}}, {"title": "天下第一长发村", "address": "广西龙胜黄洛红瑶古寨", "image": "", "rank": 28, "time": 2, "location": {"lat": 25.804116784253843, "lng": 110.01749399673898}, "feature": {"sight_features": "", "sight_content": ""}}, {"title": "螃蟹沟", "address": "广西壮族自治区桂林龙胜各族自治县龙胜森林公园螃蟹沟", "image": "", "rank": 29, "time": 2, "location": {"lat": 25.897807457093066, "lng": 110.21944300518442}, "feature": {"sight_features": "", "sight_content": ""}}, {"title": "鼓楼", "address": "龙胜各族自治县平等乡广南村", "image": "", "rank": 30, "time": 1.0, "location": {"lat": 26.025243638885446, "lng": 109.92430503630082}, "feature": {"sight_features": "", "sight_content": ""}}, {"title": "归仁洞", "address": "桂林市龙胜各族自治县独境村堂帽山", "image": "", "rank": 31, "time": 0.4, "location": {"lat": 25.96014019266303, "lng": 109.8955808238148}, "feature": {"sight_features": "", "sight_content": ""}}, {"title": "泉水庄农家乐", "address": "025村道附近(小寨村)", "image": "", "rank": 32, "time": 2, "location": {"lat": 33.23842858092524, "lng": 119.3083762200723}, "feature": {"sight_features": "", "sight_content": ""}}, {"title": "Visit Our China", "address": "广西壮族自治区龙胜各族自治县兴龙南路69号 541700", "image": "", "rank": 33, "time": 2, "location": {"lat": 25.794476061447813, "lng": 110.0160809397146}, "feature": {"sight_features": "", "sight_content": ""}}, {"title": "开心哈乐 儿童亲子乐园", "address": "广西壮族自治区桂林市龙胜各族自治县日新路龙脊小镇附近(龙脊国际大酒店北)", "image": "", "rank": 34, "time": 2, "location": {"lat": 25.808189198105232, "lng": 110.0208538237351}, "feature": {"sight_features": "", "sight_content": ""}}, {"title": "康熙兵营旧址", "address": "桂林市龙胜各族自治县和平乡平安村1号平安壮族梯田观景区内", "image": "", "rank": 35, "time": 2, "location": {"lat": 25.76106100591025, "lng": 110.13092366854842}, "feature": {"sight_features": "", "sight_content": ""}}, {"title": "楚南馆", "address": "古龙街10", "image": "", "rank": 36, "time": 2, "location": {"lat": 25.80348297426045, "lng": 110.01747345518689}, "feature": {"sight_features": "", "sight_content": ""}}, {"title": "龙胜革命烈士碑园", "address": "兴龙北路附近", "image": "", "rank": 37, "time": 2.0, "location": {"lat": 33.23148777696445, "lng": 119.79095844354686}, "feature": {"sight_features": "", "sight_content": ""}}, {"title": "广西花坪国家级自然保护区", "address": "桂林市龙胜各族自治县", "image": "", "rank": 38, "time": null, "location": {"lat": 25.804116784253843, "lng": 110.01749399673898}, "feature": {"sight_features": "", "sight_content": ""}}, {"title": "三门镇影剧院", "address": "三门镇派出所附近", "image": "", "rank": 39, "time": 2, "location": {"lat": 27.607023814245494, "lng": 113.11504614495769}, "feature": {"sight_features": "", "sight_content": ""}}, {"title": "Longji Mountain", "address": "Ping'an Village, Heping Country, Longsheng County 541701, China", "image": "", "rank": 40, "time": 2, "location": {"lat": 31.217634607636835, "lng": 121.39536000460103}, "feature": {"sight_features": "", "sight_content": ""}}, {"title": "平安村", "address": "桂林市龙胜各族自治县", "image": "", "rank": 46, "time": 2, "location": {"lat": 25.804116784253843, "lng": 110.01749399673898}, "feature": {"sight_features": "", "sight_content": ""}}, {"title": "龙胜各族自治县图书馆", "address": "东园路2号", "image": "", "rank": 47, "time": 2.0, "location": {"lat": 31.637136744168235, "lng": 120.35836301927557}, "feature": {"sight_features": "", "sight_content": ""}}, {"title": "三门红瑶寨生态博物馆", "address": "144县道与兴龙北路交叉口", "image": "", "rank": 48, "time": 2, "location": {"lat": 33.23148777696445, "lng": 119.79095844354686}, "feature": {"sight_features": "", "sight_content": ""}}, {"title": "龙脊茶树种植园", "address": "广西壮族自治区龙胜各族自治县和平乡", "image": "", "rank": 49, "time": 2, "location": {"lat": 25.7350916452713, "lng": 110.07649739753137}, "feature": {"sight_features": "", "sight_content": ""}}, {"title": "七星追月观景点", "address": "桂林市龙胜各族自治县龙脊梯田金坑大寨景区内", "image": "", "rank": 50, "time": 2, "location": {"lat": 25.808845178544196, "lng": 110.16281653244862}, "feature": {"sight_features": "", "sight_content": ""}}]}