{"cityName": "龙泉", "days": 2, "cityImage": "", "spots": [{"title": "宋城龙泉山旅游区", "address": "丽水市龙泉市凤阳山百山祖国家级自然保护区内", "image": "", "rank": 1, "time": 2.0, "location": {"lat": 27.741833992157588, "lng": 119.19159819409471}, "feature": {"sight_features": "特色1 浙江省首批生态环境示范基地。 特色2 龙泉山素有“清凉世界”和“天然氧吧”之称。 特色3 是一个以山岳风光、森林生态、休闲度假为主题的国家4A级景区。", "sight_content": "宋城龙泉山旅游区\n宋城龙泉山旅游区位于浙江丽水，夏季平均气温20摄氏度，是长三角拥有高原气候的避暑胜地。旅游区拥有海拔1929米的长三角第一高峰黄茅尖，已开放绝壁奇松、大峡谷、瓯江源等景区，猎户山庄主题酒店为游客提供个性化居住体验。登长三角第一高峰、坐高空缆车、住猎户山庄，提前预约即可免费享受“透明星空屋”赏月赏星空、“悬崖餐厅”看日出品云海盛宴，感受一次穿越PM2.5之旅。\n景点介绍\n黄茅尖景区\n长三角第一高峰\n龙泉山山地基本上处于海拔1000米以上，其中海拔1500米以上的山地面积在85% 以上，矗立在景区核心地段的武夷山系洞宫山脉主峰——黄茅尖，海拔1929米，为长三角第一高峰。\n黄茅尖是登高揽胜，观云海日出的好场所，黄茅尖景区同时也是欣赏天然森林植被垂直分布带的好地带。\n龙泉大峡谷景区\n华东古老植物摇篮\n\n\n龙泉大峡谷景区以瀑布和珍稀植物为特色。其主要景点龙泉瀑水源出自龙泉湖，分上、下两级，高约60余米，非常壮观。龙泉大峡谷景区还分布着众多的珍稀植物物种。\n由于特殊的地理、气候环境，这里保存着较大面积呈自然原生态的野生植物物种，区内现知有种子植物1448种、蕨类植物160种、真菌242种。\n绝壁奇松景区\n绝壁千仞，奇松独秀\n绝壁奇松景区的特点可用三个字来概括，那就是惊、险、奇。这里绝壁千仞，耸立苍穹；苍松万棵，缘壁而生。\n凤阳山是森林生态系统类型自然保护区，其天然植被群落丰富，而分布广泛的群落为黄山松。凤阳山的黄山松精华部分当属绝壁奇松。这里的松树，无论是从数量、树龄，还是在姿态、生长环境上来说，都不逊色于黄山。\n瓯江源景区\n一方仙境\n瓯江源景区有浙江省海拔1540米的的高山湖泊——龙泉湖，还有大面积高山草甸和高山湿地，以及上千棵宝塔型柳杉组成的“塔衫林”，高山湿地、高原湖泊、高山草甸以及宝塔形的柳杉林组成了一幅优美的画卷。\n景区交通\n龙泉山索道\n龙泉山索道全长达1929米，上下垂直落差800米，乘坐安全舒适，是一条低碳环保的生态之道。\n原先1.5小时的盘山公路缩短至7分钟即可到达，既解决了山高路险的交通瓶颈，又为游客带来宛如漂浮在仙境中的视觉感受与多维度旅游体验。\n景区交通车\n缆车上站（缆车服务中心）—猎户山庄。\n猎户山庄—瓯江源/大峡谷/黄茅尖，可往返至任意景区"}}, {"title": "中国青瓷小镇·披云青瓷文化园", "address": "丽水市龙泉市上垟镇青瓷文化园（中国青瓷小镇）", "image": "", "rank": 2, "time": 3.0, "location": {"lat": 27.93650327178601, "lng": 118.85107420440269}, "feature": {"sight_features": "特色1 品尝龙泉特色小吃，欣赏千奇百态的龙泉青瓷", "sight_content": "“中国青瓷小镇”为龙泉上垟镇别称，其核心区域为披云龙泉青瓷文化园。上垟位于浙、闽、赣结合部，为三省交通要塞。自古商贸繁荣，民间制瓷盛行，无论男女老少，人人动手，户户设窑，为龙泉青瓷生产、贸易聚集之地，数百年不衰。镇上保留有大量古窑址，其中曾芹记龙窑，建于光绪年，历百年未停止，是目前龙泉还在使用，连续烧制时间最长的龙窑。\n游览区以国营龙泉瓷厂旧址为中心，包括国营龙泉瓷厂厂訨室，国营瓷厂陈列馆，近现代龙泉青瓷发展史，工艺美术大师作品展等。核心内容为“青瓷寻踪”历史舞台剧，舞台以国营龙泉瓷厂遗址为背景，演绎龙泉青瓷1600年历史，让游客充分感受千年龙泉青瓷的魅力。\n体验区包括青瓷手工作坊，创意基地，青瓷传统技艺传承中心，青瓷会所，青瓷研究所广场等，是青瓷研发、制作中心，为游客提供青瓷制作体验场所。\n中国青瓷小镇上垟是现代龙泉青瓷发祥地。披云青瓷文化园依托国营龙泉瓷厂文化沉淀，全面展示近、现代龙泉青瓷发展轨迹，结和青瓷研发、生产、文化交流，是龙泉青瓷文化的一个缩影。\n世界青瓷在中国，中国青瓷在龙泉，上垟作为现代龙泉青瓷发祥地，已经成为中国青瓷文化的象征，是名副其实的中国青瓷小镇。"}}, {"title": "白云岩", "address": "丽水市龙泉市西街街道", "image": "", "rank": 3, "time": 2.0, "location": {"lat": 28.08507531368353, "lng": 119.09524062446278}, "feature": {"sight_features": "特色1 领略山水中的文化艺术", "sight_content": "白云岩景区位于浙江省龙泉市西北郊下樟村，景区以森林、飞瀑、峡谷、绝壁、田园风光、千年古民居等景观为特色。“龙泉论剑白云岩、桃花飞瀑古樟村”，落差高达百余米的白云瀑，一泻千里、千姿百妍，叹为观止。景区通过龙泉璀璨的宝剑文化与森林瀑布景观相结合，充分体现了山水中的文化艺术。\n白云岩虽然没有龙泉山体量那么大，可是森林、瀑布、峡谷却也十分秀丽，且胜在阶梯比较平缓，非常适合想找个清净山林休闲散步的人。景区还将宝剑文化融入其中，有些与宝剑典故相关的小景点，不过觉得在这里说到底自然景观才是真正的主角。\n从景区上空俯瞰，白云岩景区如同一个口袋，周围高山，中为谷地，岩樟溪和白水沟在这里汇合，从袋口涌向市区的龙泉大溪。来白云岩的前一天龙泉刚刚下过一场大雨，因此走在青翠的山林中，空气格外沁凉新鲜，野花野蘑菇到处都是，点缀在满目绿色中，十分养眼。一侧的溪流也因为刚下过雨的关系略显湍急。水量增大最明显的是瀑布，走一段就会听见哗哗的水声，大大小小的瀑布充分展露风姿。\n白云岩景区有生态环境好，植被覆盖率高，峡谷瀑布、云坞古村等，特色鲜明。在论证会上，浙江绿客水务旅游投资有限公司下属一个设计院负责人介绍说，60多年前，著名的武侠小说家金庸先生就曾到过龙泉与龙泉结下了不解之缘，在2004年的10月份，金庸先生及夫人再次来到龙泉旧地重游，并欣然题词：“凝翡翠兮聚碧玉，得古铜兮铸长剑。\n中华古文化，龙泉得其二。瓷剑兼文武，龙泉皆有之。”可见金庸先生对龙泉的感情之深，所以把金庸先生与龙泉的这段渊源在展现龙泉市历史文化的最佳载体之一的风景区中体现出来，也是恰如其分的。同时，我们将根据景观的不同特征和文化布局要求，将白云岩景区的观光游乐区规划为龙泉问剑、剑川侠缘、七星濯井、桃花探源等八大子分区。在各分区逐次介绍章生一、章生二兄弟等16位龙泉名人的主要事迹。景区文化主线设计通过龙泉宝剑、历史名人等文化遗存与峡谷瀑布景观相结合。"}}, {"title": "龙泉青瓷博物馆", "address": "丽水市龙泉市剑川大道258号", "image": "", "rank": 4, "time": 1.0, "location": {"lat": 28.06923398908567, "lng": 119.1422034806163}, "feature": {"sight_features": "", "sight_content": ""}}, {"title": "黄茅尖", "address": "丽水市龙泉市麻连岱", "image": "", "rank": 5, "time": 2.5, "location": {"lat": 27.85977585751135, "lng": 119.19257577147239}, "feature": {"sight_features": "", "sight_content": ""}}, {"title": "安仁永和桥", "address": "丽水市龙泉市安仁镇项边村", "image": "", "rank": 6, "time": 0.75, "location": {"lat": 28.064119311210575, "lng": 119.35141388938901}, "feature": {"sight_features": "", "sight_content": ""}}, {"title": "龙泉宝剑博物馆", "address": "丽水市龙泉市公园路1号", "image": "", "rank": 7, "time": 1.0, "location": {"lat": 28.07900190311998, "lng": 119.13401402078722}, "feature": {"sight_features": "", "sight_content": ""}}, {"title": "凤阳山自然保护区", "address": "丽水市龙泉市东南50公里处", "image": "", "rank": 8, "time": 4.0, "location": {"lat": 28.080508725251303, "lng": 119.59759752004739}, "feature": {"sight_features": "", "sight_content": ""}}, {"title": "龙泉宝剑厂", "address": "丽水市龙泉市大沙工业区金龙加油站旁", "image": "", "rank": 9, "time": 2, "location": {"lat": 28.062511565054706, "lng": 119.1676817980355}, "feature": {"sight_features": "", "sight_content": ""}}, {"title": "车盘坑村", "address": "丽水市龙泉市屏南镇车盘坑村", "image": "", "rank": 10, "time": 2, "location": {"lat": 27.849813892908415, "lng": 119.05483797682523}, "feature": {"sight_features": "", "sight_content": ""}}, {"title": "李山头田园", "address": "丽水市龙泉市龙泉山景区内", "image": "", "rank": 11, "time": 2, "location": {"lat": 27.878487697371007, "lng": 119.17320339724066}, "feature": {"sight_features": "", "sight_content": ""}}, {"title": "华严塔", "address": "丽水市龙泉市区东部棋盘山", "image": "", "rank": 12, "time": 2, "location": {"lat": 28.066373950076827, "lng": 119.1463913439134}, "feature": {"sight_features": "", "sight_content": ""}}, {"title": "留槎洲", "address": "丽水龙泉市公园路106号", "image": "", "rank": 13, "time": 2, "location": {"lat": 28.076956914359503, "lng": 119.13406990077976}, "feature": {"sight_features": "", "sight_content": ""}}, {"title": "曾芹记古窑坊", "address": "丽水市龙泉市上垟镇木岱口村", "image": "", "rank": 14, "time": 2, "location": {"lat": 27.971708178198906, "lng": 118.87990027575047}, "feature": {"sight_features": "", "sight_content": ""}}, {"title": "瓯江壹号码头", "address": "丽水龙泉市龙泉溪北岸，圣塔桥东", "image": "", "rank": 15, "time": 2, "location": {"lat": 28.080508725251303, "lng": 119.14844476520678}, "feature": {"sight_features": "", "sight_content": ""}}, {"title": "浙大龙泉分校旧址", "address": "丽水市龙泉市剑池街道芳野村", "image": "", "rank": 16, "time": 2, "location": {"lat": 28.053763279114687, "lng": 119.16004118776016}, "feature": {"sight_features": "", "sight_content": ""}}, {"title": "披云山风景区", "address": "丽水市龙泉市宝溪乡", "image": "", "rank": 17, "time": 2, "location": {"lat": 28.031080463558354, "lng": 118.78481118805755}, "feature": {"sight_features": "", "sight_content": ""}}, {"title": "天平山风景区", "address": "丽水市龙泉市安仁镇天平管理区，距安仁镇10公里", "image": "", "rank": 18, "time": 4.5, "location": {"lat": 28.03019528449548, "lng": 119.30302463832942}, "feature": {"sight_features": "", "sight_content": ""}}, {"title": "仙宫湖风景区", "address": "丽水市龙泉市安仁镇、道太乡", "image": "", "rank": 19, "time": 2, "location": {"lat": 28.18694910009458, "lng": 119.29860361788216}, "feature": {"sight_features": "", "sight_content": ""}}, {"title": "炉岙村", "address": "丽水市龙泉市兰巨乡炉岙村", "image": "", "rank": 20, "time": 2, "location": {"lat": 27.923947958901838, "lng": 119.20528126356736}, "feature": {"sight_features": "", "sight_content": ""}}, {"title": "沈广隆剑铺", "address": "丽水龙泉市广通路88号", "image": "", "rank": 21, "time": 2, "location": {"lat": 28.05762149872111, "lng": 119.12473237432883}, "feature": {"sight_features": "", "sight_content": ""}}, {"title": "宝溪竹建筑双年展", "address": "丽水市龙泉市宝溪乡", "image": "", "rank": 22, "time": 2, "location": {"lat": 28.031080463558354, "lng": 118.78481118805755}, "feature": {"sight_features": "", "sight_content": ""}}, {"title": "龙泉青瓷宝剑苑", "address": "丽水市龙泉市剑池街道南秦村", "image": "", "rank": 23, "time": 2, "location": {"lat": 28.080508725251303, "lng": 119.14844476520678}, "feature": {"sight_features": "", "sight_content": ""}}, {"title": "凤羽休闲山庄", "address": "丽水市龙泉市龙南乡安和村西岙", "image": "", "rank": 24, "time": 2, "location": {"lat": 27.922662251442354, "lng": 119.2318254538696}, "feature": {"sight_features": "", "sight_content": ""}}, {"title": "官浦垟村", "address": "丽水市龙泉市兰巨乡官浦垟村", "image": "", "rank": 25, "time": 2, "location": {"lat": 27.944562731533058, "lng": 119.18111212206657}, "feature": {"sight_features": "", "sight_content": ""}}, {"title": "溪头村", "address": "丽水市龙泉市宝溪乡溪头村", "image": "", "rank": 26, "time": 2.0, "location": {"lat": 28.00927631444967, "lng": 118.77076290349689}, "feature": {"sight_features": "", "sight_content": ""}}, {"title": "金村村", "address": "丽水市龙泉市小梅镇", "image": "", "rank": 27, "time": 2, "location": {"lat": 27.84939734096435, "lng": 118.97583196592672}, "feature": {"sight_features": "", "sight_content": ""}}, {"title": "清修寺", "address": "丽水市龙泉市(西北863 米)", "image": "", "rank": 28, "time": 2, "location": {"lat": 28.080508725251303, "lng": 119.14844476520678}, "feature": {"sight_features": "", "sight_content": ""}}, {"title": "瓯江壹号码头“丰荷号”画舫游船", "address": "丽水市龙泉市瓯江壹号码头", "image": "", "rank": 29, "time": 2, "location": {"lat": 28.004322646841626, "lng": 119.01568221765888}, "feature": {"sight_features": "", "sight_content": ""}}, {"title": "瓯江壹号码头瓯江摇橹船", "address": "丽水市龙泉市瓯江壹号码头", "image": "", "rank": 30, "time": 2, "location": {"lat": 28.004322646841626, "lng": 119.01568221765888}, "feature": {"sight_features": "", "sight_content": ""}}, {"title": "麻连岱", "address": "浙江省丽水市龙泉市", "image": "", "rank": 31, "time": 2, "location": {"lat": 28.080508725251303, "lng": 119.14844476520678}, "feature": {"sight_features": "", "sight_content": ""}}, {"title": "瓯江壹号码头摩托艇", "address": "丽水市龙泉市瓯江壹号码头", "image": "", "rank": 32, "time": 2, "location": {"lat": 28.004322646841626, "lng": 119.01568221765888}, "feature": {"sight_features": "", "sight_content": ""}}, {"title": "安仁廊桥", "address": "丽水龙泉安仁镇", "image": "", "rank": 33, "time": 2, "location": {"lat": 28.06222368366956, "lng": 119.335234761278}, "feature": {"sight_features": "", "sight_content": ""}}, {"title": "龙泉剑池遗址", "address": "浙江省龙泉市剑池西路183秦溪山边", "image": "", "rank": 34, "time": 2, "location": {"lat": 28.070901200626242, "lng": 119.12547238493312}, "feature": {"sight_features": "", "sight_content": ""}}, {"title": "龙渊森林公园", "address": "浙江省龙泉市境内", "image": "", "rank": 35, "time": 2, "location": {"lat": 28.080508725251303, "lng": 119.14844476520678}, "feature": {"sight_features": "", "sight_content": ""}}, {"title": "龙泉山漂流", "address": "丽水市龙泉市兰巨乡大巨村", "image": "", "rank": 36, "time": 2, "location": {"lat": 27.985282664300833, "lng": 119.11234682721572}, "feature": {"sight_features": "", "sight_content": ""}}, {"title": "昴山风景区", "address": "丽水市龙泉市锦溪镇", "image": "", "rank": 37, "time": 2, "location": {"lat": 28.089068479835163, "lng": 119.02289520486751}, "feature": {"sight_features": "", "sight_content": ""}}, {"title": "“不灭窑火”宝溪龙窑", "address": "丽水市龙泉市宝溪乡地溪头村", "image": "", "rank": 38, "time": 2, "location": {"lat": 28.031080463558354, "lng": 118.78481118805755}, "feature": {"sight_features": "", "sight_content": ""}}, {"title": "柳山头村", "address": "丽水市龙泉市岩樟乡柳山头村", "image": "", "rank": 39, "time": 2, "location": {"lat": 28.188044633631566, "lng": 119.01687453856186}, "feature": {"sight_features": "", "sight_content": ""}}, {"title": "均益田园", "address": "丽水市龙泉市屏南镇均益村", "image": "", "rank": 40, "time": 2, "location": {"lat": 27.89299326566332, "lng": 119.13440149858069}, "feature": {"sight_features": "", "sight_content": ""}}, {"title": "大窑村", "address": "丽水市龙泉市小梅镇大窑村", "image": "", "rank": 41, "time": 2, "location": {"lat": 27.840058963077503, "lng": 119.03204288792357}, "feature": {"sight_features": "", "sight_content": ""}}, {"title": "署网畲族村", "address": "丽水市龙泉市八都镇署网畲族村", "image": "", "rank": 42, "time": 2, "location": {"lat": 27.985488227882442, "lng": 118.94923766095668}, "feature": {"sight_features": "", "sight_content": ""}}, {"title": "桐山水果采摘园", "address": "丽水市龙泉市兰巨乡桐山村", "image": "", "rank": 43, "time": 2, "location": {"lat": 27.97751468483826, "lng": 119.09879834277282}, "feature": {"sight_features": "", "sight_content": ""}}, {"title": "西街古街", "address": "丽水市龙泉市区新华街", "image": "", "rank": 44, "time": 2, "location": {"lat": 28.075134630105595, "lng": 119.13793310494619}, "feature": {"sight_features": "", "sight_content": ""}}, {"title": "源底村", "address": "丽水市龙泉市上垟镇源底村", "image": "", "rank": 45, "time": 2, "location": {"lat": 27.993332434916546, "lng": 118.88373159815606}, "feature": {"sight_features": "", "sight_content": ""}}, {"title": "周岱村", "address": "丽水市龙泉市屏南镇镇政府驻地8公里", "image": "", "rank": 46, "time": 2, "location": {"lat": 27.842896323618806, "lng": 119.09317093844982}, "feature": {"sight_features": "", "sight_content": ""}}, {"title": "住龙红色景区", "address": "丽水市龙泉市住龙镇住溪村", "image": "", "rank": 47, "time": 2, "location": {"lat": 28.180816798064324, "lng": 118.90540289967866}, "feature": {"sight_features": "", "sight_content": ""}}, {"title": "龙泉市档案馆", "address": "贤良路333号", "image": "", "rank": 48, "time": 1.0, "location": {"lat": 28.080640553977073, "lng": 119.14805508027669}, "feature": {"sight_features": "", "sight_content": ""}}, {"title": "瓯江壹号码头瓯江竹筏", "address": "丽水市龙泉市瓯江壹号码头", "image": "", "rank": 49, "time": null, "location": {"lat": 28.004322646841626, "lng": 119.01568221765888}, "feature": {"sight_features": "", "sight_content": ""}}, {"title": "顶峰生态园", "address": "104县道", "image": "", "rank": 50, "time": 2, "location": {"lat": 44.16361455996482, "lng": 125.8153590799533}, "feature": {"sight_features": "", "sight_content": ""}}, {"title": "凤阳湖深水温泉", "address": "剑池东路29号", "image": "", "rank": 51, "time": 2, "location": {"lat": 28.07139514418903, "lng": 119.14348593913223}, "feature": {"sight_features": "", "sight_content": ""}}, {"title": "乐宇农家乐餐馆", "address": "中山东路83号1幢", "image": "", "rank": 52, "time": 2, "location": {"lat": 38.05038512673709, "lng": 114.49094308531491}, "feature": {"sight_features": "", "sight_content": ""}}, {"title": "戏院煎饺店", "address": "中山东路与凤起路交叉口西南50米", "image": "", "rank": 53, "time": 2, "location": {"lat": 28.07931075406461, "lng": 119.14027698973291}, "feature": {"sight_features": "", "sight_content": ""}}, {"title": "丽水石门洞摩崖碑刻", "address": "浙江省龙泉市岭上村 323708", "image": "", "rank": 54, "time": 1.5, "location": {"lat": 28.06468603963591, "lng": 118.990375180891}, "feature": {"sight_features": "", "sight_content": ""}}, {"title": "世纪广场", "address": "剑川大道176", "image": "", "rank": 55, "time": 2.5, "location": {"lat": 28.076429013834073, "lng": 119.14307197480082}, "feature": {"sight_features": "", "sight_content": ""}}, {"title": "九姑山公园", "address": "浙江省丽水市龙泉市中山西路154号附近", "image": "", "rank": 56, "time": 2, "location": {"lat": 28.07856878884708, "lng": 119.12997988719997}, "feature": {"sight_features": "", "sight_content": ""}}, {"title": "天师堂", "address": "丽水市龙泉市西独线", "image": "", "rank": 57, "time": 2, "location": {"lat": 28.100646789939795, "lng": 119.10528785089348}, "feature": {"sight_features": "", "sight_content": ""}}, {"title": "斐济公园", "address": "浙江省丽水市龙泉市s054", "image": "", "rank": 58, "time": 2, "location": {"lat": 28.080508725251303, "lng": 119.14844476520678}, "feature": {"sight_features": "", "sight_content": ""}}, {"title": "白鹤仙庙", "address": "丽水市龙泉市", "image": "", "rank": 59, "time": 2, "location": {"lat": 28.080508725251303, "lng": 119.14844476520678}, "feature": {"sight_features": "", "sight_content": ""}}, {"title": "中镇五显庙", "address": "浙江省丽水市龙泉市剑池街道广源街第三中学南150米", "image": "", "rank": 60, "time": 2, "location": {"lat": 28.065037796078446, "lng": 119.13801256366175}, "feature": {"sight_features": "", "sight_content": ""}}]}