{"cityName": "娄烦", "days": 2, "cityImage": "", "spots": [{"title": "东山生态庄园", "address": "太原市娄烦县杜交曲镇下石家庄村", "image": "", "rank": 1, "time": 3.0, "location": {"lat": 38.052727976886665, "lng": 111.94696662757755}, "feature": {"sight_features": "", "sight_content": ""}}, {"title": "汾河水库", "address": "太原市娄烦县杜交曲镇下石家庄村", "image": "", "rank": 2, "time": 0.4, "location": {"lat": 38.052727976886665, "lng": 111.94696662757755}, "feature": {"sight_features": "", "sight_content": ""}}, {"title": "峰岭底村高君宇纪念馆", "address": "太原市娄烦县静游镇峰岭底村", "image": "", "rank": 3, "time": 1.0, "location": {"lat": 38.17221387806151, "lng": 111.87640544751488}, "feature": {"sight_features": "", "sight_content": ""}}, {"title": "三教寺", "address": "太原市娄烦县县城外环路南山脚下", "image": "", "rank": 4, "time": 7.5, "location": {"lat": 38.073195368895746, "lng": 111.80359063362269}, "feature": {"sight_features": "", "sight_content": ""}}, {"title": "云顶山", "address": "太原市娄烦县米峪镇乡独石河村", "image": "", "rank": 5, "time": 1.0, "location": {"lat": 37.8879890826735, "lng": 111.6373478093857}, "feature": {"sight_features": "", "sight_content": ""}}, {"title": "一库渔村大酒店垂钓园", "address": "252省道东50米", "image": "", "rank": 6, "time": 2, "location": {"lat": 40.357909355104375, "lng": 118.90918039042643}, "feature": {"sight_features": "", "sight_content": ""}}, {"title": "娄烦县北山城郊植物园", "address": "山西省太原市娄烦县娄烦镇北山城郊植物园", "image": "", "rank": 7, "time": 2, "location": {"lat": 38.10025868445712, "lng": 111.80325197244542}, "feature": {"sight_features": "", "sight_content": ""}}, {"title": "泓佛寺", "address": "太原市娄烦县", "image": "", "rank": 8, "time": 2, "location": {"lat": 38.073195368895746, "lng": 111.80359063362269}, "feature": {"sight_features": "", "sight_content": ""}}, {"title": "高君宇故居纪念馆", "address": "215省道", "image": "", "rank": 9, "time": 2, "location": {"lat": 36.52111105176839, "lng": 115.24987145143434}, "feature": {"sight_features": "", "sight_content": ""}}]}