{"cityName": "滦县", "days": 2, "cityImage": "", "spots": [{"title": "滦州古城", "address": "唐山市滦县滦州镇", "image": "", "rank": 1, "time": 4.0, "location": {"lat": 39.746697045158854, "lng": 118.69608234604343}, "feature": {"sight_features": "特色1 漫步古色古香的古城街道，拍摄美丽照片 特色2 逛小店、尝美食、观看众多表演，感受华北古镇的热闹风情 特色3 将26个民族独特风情织入古老的明清建筑", "sight_content": "‍‍‍‍﻿滦州古城，位于河北省唐山市滦县滦州镇。三千年大河之畔的盛世古城，采撷群山壮丽构筑其骨，掬一捧滦河俊秀勾画其容。将26个民族独特风情织入古老的明清建筑，将千年北方文化融汇进这座梦想乐园。2000亩盛世古城倾情酿筑细腻的北方古街博览区、丰盛的传统民俗旅游区、原生的滦河文化风景区、地道的北方美食朵颐区、悠久的北方文化传承区，本土的宗教文化朝圣区，风情的北方婚庆体验区，正宗的中国古代养生区，缔造最美北方古城之一。\n\n\n滦州古城复原千载历史古迹：古城门、杨三姐告状的老县衙、钟鼓楼、接官亭、古戏台、风雨桥、滦州阁、和园、文姬楼等盛世建筑，展现遥不可及、难以清晰领会的历史印象， 取其神韵，结合现实。融汇南方水文化，修建滨水而居、临水起舞的环城“青龙河”。以契丹文化为主导，复原上河图不夜盛景，全面打造小吃烧烤街、韩国风情街、婚俗文化街、庙会文化街、民俗文化街、韩国女人街、缅甸玉石街、养生文化街及游客接待中心、五星级酒店等，无限风华，气势如虹。一座集文化、旅游、商业、会务、居住、休闲为一体的北方人文古城，国家级5A景区，耀世而出。古城内景点颇多，比如东城门迎宾广场、关帝庙、文庙，滦州衙门、接官亭等明清风格中式古典建筑群，“青龙河”、“九龙溪”，北方风格水街古镇，小吃一条街、古玩一条街、四合院客栈一条街等。一座三千年的古城光耀古今，滦县即将成为环渤海旅游圈最耀眼的一颗明星。"}}, {"title": "青龙山", "address": "唐山滦县新城西北约25公里", "image": "", "rank": 2, "time": 3.0, "location": {"lat": 39.63658372414733, "lng": 118.18645947203979}, "feature": {"sight_features": "特色1 青龙山是与碣石山、盘山齐名的三大名山之一，古称清凉山，又名截龙岭。 特色2 青龙山景区古代建筑遗址非常丰富。 特色3 青龙山每一处遗址和景观都有一个美丽的神话传说和历史典故，蕴藏了大量的民间传说和宗教文化。", "sight_content": "青龙山是与碣石山、盘山齐名的三大名山之一，古称清凉山，又名截龙岭，位于唐山滦县新城西北约25公里，距唐山40公里，与唐山古冶区、丰润区毗邻。景区交通便捷，四通八达，南距205国道15公里，北靠102国道，距京沈高速公路榛子镇出口仅两公里。京山铁路、京秦铁路和正在修建的津秦客运专线穿境而过。青龙山主峰娘娘顶海拔439米，属燕山余脉，其山南北走向，山中套山，山外叠山，群峰布列，山势环绕，南北长15公里，东西宽20公里，总面积300平方公里。景区内的1700余亩、30余种植物药材是这里的一大特色。\n青龙山景区古代建筑遗址非常丰富，除三霄宫和延古寺外，历朝历代先后建有望海楼、罗汉洞、龙兴寺、云居寺、兴隆寺戏楼、碑林、山神庙、土地庙、财神庙、黄山士院、望海红崖寺等，同时还有卧佛、象山、阴阳二井等自然天成景观，每一处遗址和景观都有一个美丽的神话传说和历史典故，蕴藏了大量的民间传说和宗教文化。\n青龙山庙会活动，时间：5月29日——6月3日，本届庙会历时6天，将会有精彩的评剧表演和民俗演出，欢迎大家来逛庙会！农历四月十八，是三霄娘娘生日，也是青龙山的盛大庙会的日子。庙会期间人们到娘娘顶三宵宫烧香祭祀，以祈求福禄双全，多子多孙。庙会期间景区还有各种民俗表演活动，热闹非凡。\n\n\n农历四月十八庙会看点：\n1.滦州评剧：滦县是我国第二大剧种——评剧艺术的发源地，本次庙会期间，青龙山景区将邀请来自京津冀的众多著名评剧表演艺术家如艾丽珍、郑桂芳、李忆霞、庚琪等以及众多中青年演员加盟此次“逛青龙山庙会，看大滦州评剧”活动。\n2.民俗表演：本次庙会还邀请到了滦州本土艺术团——老铁民间艺术团前来助兴演出。老铁艺术团的表演喜闻乐见，曾经在2011年的唐山春晚、2012年的央视春晚、河北电视台公共频道、河北广播电视台以及河北省自行车邀请赛中进行过表演。\n赏评戏看表演之余，众多虔诚信士还会在庙会期间前来青龙山祈祷祈福，在三霄宫、财神庙、玉佛殿、延古寺前，表达祈福安康的美好期待。还可以品尝特色小吃，住精品民宿，实乃一大乐事~"}}, {"title": "滦州古城名人蜡像馆", "address": "唐山市滦县滦县其他滦州古城清风湾16号", "image": "", "rank": 3, "time": 2, "location": {"lat": 39.747866299952435, "lng": 118.75782866793338}, "feature": {"sight_features": "", "sight_content": ""}}, {"title": "滦州古城景区地方戏剧场", "address": "唐山市滦县滦州古城西广场皮影博物馆院内", "image": "", "rank": 4, "time": 2, "location": {"lat": 39.74828562973926, "lng": 118.76471121346256}, "feature": {"sight_features": "", "sight_content": ""}}, {"title": "滦河大铁桥", "address": "唐山市滦县何茨线", "image": "", "rank": 5, "time": 2, "location": {"lat": 39.63113444769036, "lng": 118.61173264352145}, "feature": {"sight_features": "", "sight_content": ""}}, {"title": "滦县古城无白丁非遗文化中心", "address": "唐山市滦县滦州古镇东城门内", "image": "", "rank": 6, "time": 4.0, "location": {"lat": 39.785508848228524, "lng": 118.58377725189884}, "feature": {"sight_features": "", "sight_content": ""}}, {"title": "滦州研山滑雪场", "address": "唐山市滦县研山文峰塔景区南门（滦州古城南行两公里）", "image": "", "rank": 7, "time": 2, "location": {"lat": 39.74828562973926, "lng": 118.76471121346256}, "feature": {"sight_features": "", "sight_content": ""}}, {"title": "滦河母亲广场", "address": "唐山市滦县滦河东道东口", "image": "", "rank": 8, "time": 2.0, "location": {"lat": 39.74664809021159, "lng": 118.71638996950392}, "feature": {"sight_features": "", "sight_content": ""}}, {"title": "滦州皮影艺术坊", "address": "滦县丽景胡同11-6", "image": "", "rank": 9, "time": 2, "location": {"lat": 39.74841704262677, "lng": 118.7696059921525}, "feature": {"sight_features": "", "sight_content": ""}}, {"title": "古城游乐园", "address": "天佑堤路9号", "image": "", "rank": 10, "time": 2, "location": {"lat": 39.74833036093377, "lng": 118.76279737537018}, "feature": {"sight_features": "", "sight_content": ""}}, {"title": "华澳爱心图书馆", "address": "榛子镇大岗上小学", "image": "", "rank": 11, "time": 2, "location": {"lat": 39.81933599072301, "lng": 118.33986723618406}, "feature": {"sight_features": "", "sight_content": ""}}, {"title": "岩山影剧院", "address": "第六中学附近", "image": "", "rank": 12, "time": 2, "location": {"lat": 40.22208256217355, "lng": 116.23277174682994}, "feature": {"sight_features": "", "sight_content": ""}}, {"title": "朝阳草莓采摘园", "address": "滦河路附近", "image": "", "rank": 13, "time": 4.5, "location": {"lat": 40.15125788136363, "lng": 118.31557351676886}, "feature": {"sight_features": "", "sight_content": ""}}, {"title": "滦县郎红棚菜专业合作社", "address": "杨柏线附近", "image": "", "rank": 14, "time": 4.0, "location": {"lat": 39.873902709183504, "lng": 118.592916546767}, "feature": {"sight_features": "", "sight_content": ""}}, {"title": "滦县图书馆", "address": "工农路北", "image": "", "rank": 15, "time": 1.5, "location": {"lat": 40.73059067136262, "lng": 122.28788222370575}, "feature": {"sight_features": "", "sight_content": ""}}, {"title": "福林泉垂钓园", "address": "热庄子村", "image": "", "rank": 16, "time": 2, "location": {"lat": 39.7788328881738, "lng": 118.76021694608087}, "feature": {"sight_features": "", "sight_content": ""}}, {"title": "滦州古城大唐农家院老兵驿站", "address": "河北省唐山市滦县滦河路滦州古城教场民俗旅游村", "image": "", "rank": 17, "time": 2, "location": {"lat": 39.74828562973926, "lng": 118.76471121346256}, "feature": {"sight_features": "", "sight_content": ""}}, {"title": "唐山市滦县雷庄基督教会", "address": "会来网吧附近", "image": "", "rank": 18, "time": 2.5, "location": {"lat": 39.761971596899684, "lng": 118.58994920202336}, "feature": {"sight_features": "", "sight_content": ""}}, {"title": "站前临时休息", "address": "燕山大街西150米", "image": "", "rank": 19, "time": 2, "location": {"lat": 39.95981225600156, "lng": 119.60294902193839}, "feature": {"sight_features": "", "sight_content": ""}}, {"title": "观音阁", "address": "河北省唐山市滦县177乡道与205国道交叉口西150米", "image": "", "rank": 20, "time": 1.0, "location": {"lat": 39.76319667450501, "lng": 118.63227017120944}, "feature": {"sight_features": "", "sight_content": ""}}, {"title": "小脚丫水上乐园", "address": "河北省唐山市滦县和平路3号", "image": "", "rank": 21, "time": 2, "location": {"lat": 39.74797069043973, "lng": 118.71020882271354}, "feature": {"sight_features": "", "sight_content": ""}}, {"title": "盛世儿童乐园", "address": "河北省唐山市滦县东安现代城4楼", "image": "", "rank": 22, "time": 2, "location": {"lat": 39.74610143547469, "lng": 118.71174769730641}, "feature": {"sight_features": "", "sight_content": ""}}, {"title": "恒山阁休闲度假村", "address": "滦县205国道", "image": "", "rank": 23, "time": 2, "location": {"lat": 39.76319667450501, "lng": 118.63227017120944}, "feature": {"sight_features": "", "sight_content": ""}}, {"title": "蓓蕾儿童乐园", "address": "滦河路人民广场(北门)附近", "image": "", "rank": 24, "time": 2, "location": {"lat": 39.74496510338893, "lng": 118.71005904464263}, "feature": {"sight_features": "", "sight_content": ""}}, {"title": "冀东伦派秧歌博物馆", "address": "河北省唐山市滦县滦州镇通衢东道汽车客运站西50米", "image": "", "rank": 25, "time": 2, "location": {"lat": 39.76255624737076, "lng": 118.71024002355882}, "feature": {"sight_features": "", "sight_content": ""}}, {"title": "儿童乐园", "address": "102国道北50米", "image": "", "rank": 26, "time": 2, "location": {"lat": 39.95871999579458, "lng": 116.91102159370762}, "feature": {"sight_features": "", "sight_content": ""}}, {"title": "滦县光明影剧院", "address": "滦县新城燕山北大街", "image": "", "rank": 27, "time": 4.0, "location": {"lat": 39.7618806788342, "lng": 118.7130164819748}, "feature": {"sight_features": "", "sight_content": ""}}, {"title": "天主堂(靳各庄)", "address": "205国道", "image": "", "rank": 28, "time": 2, "location": {"lat": 37.34066223973322, "lng": 118.07089300716441}, "feature": {"sight_features": "", "sight_content": ""}}, {"title": "仙露乐园", "address": "何茨线附近", "image": "", "rank": 29, "time": 2, "location": {"lat": 39.63113444769036, "lng": 118.61173264352145}, "feature": {"sight_features": "", "sight_content": ""}}, {"title": "横山大觉寺", "address": "唐山市滦县何茨线", "image": "", "rank": 30, "time": 1.5, "location": {"lat": 39.63113444769036, "lng": 118.61173264352145}, "feature": {"sight_features": "", "sight_content": ""}}, {"title": "名人蜡像馆", "address": "滦州古城清风湾16号", "image": "", "rank": 31, "time": 1.5, "location": {"lat": 39.74692963887885, "lng": 118.75852979538392}, "feature": {"sight_features": "", "sight_content": ""}}, {"title": "阳光乐园(顺达超市店)", "address": "新城华岩步行街49号顺达超市2楼", "image": "", "rank": 32, "time": 2, "location": {"lat": 34.272724469532555, "lng": 108.96739103850439}, "feature": {"sight_features": "", "sight_content": ""}}, {"title": "扬轩温泉休闲度假中心", "address": "滦州古城别花苑34号", "image": "", "rank": 33, "time": 2, "location": {"lat": 39.74828562973926, "lng": 118.76471121346256}, "feature": {"sight_features": "", "sight_content": ""}}, {"title": "语鑫采摘园", "address": "滦河路教场村", "image": "", "rank": 34, "time": 2, "location": {"lat": 39.74276896548578, "lng": 118.74610397902731}, "feature": {"sight_features": "", "sight_content": ""}}, {"title": "一汽奔腾(滦县直营店)", "address": "205国道附近", "image": "", "rank": 35, "time": 2, "location": {"lat": 37.34066223973322, "lng": 118.07089300716441}, "feature": {"sight_features": "", "sight_content": ""}}, {"title": "滦州民兵战地演出队", "address": "体育大街附近", "image": "", "rank": 36, "time": 2, "location": {"lat": 37.96584579049818, "lng": 114.93324621587504}, "feature": {"sight_features": "", "sight_content": ""}}, {"title": "古筝艺术中心", "address": "建华大街", "image": "", "rank": 37, "time": 2, "location": {"lat": 38.86926987521462, "lng": 115.49016166892665}, "feature": {"sight_features": "", "sight_content": ""}}, {"title": "魔兽迷宫(滦河古城)", "address": "滦州古城醉花城38_2", "image": "", "rank": 38, "time": 2, "location": {"lat": 39.747971705592356, "lng": 118.76479942886026}, "feature": {"sight_features": "", "sight_content": ""}}, {"title": "滦县文化博物馆", "address": "体育大街与工农路交叉口西北100米滦县文化公园地下一层", "image": "", "rank": 39, "time": 1.5, "location": {"lat": 39.74024427259443, "lng": 118.70618248177368}, "feature": {"sight_features": "", "sight_content": ""}}, {"title": "滦县滦州商贸城步行街", "address": "河北省滦县滦州商贸城步行街", "image": "", "rank": 40, "time": 4.0, "location": {"lat": 39.785508848228524, "lng": 118.58377725189884}, "feature": {"sight_features": "", "sight_content": ""}}]}