{"cityName": "栾川", "days": 2, "cityImage": "", "spots": [{"title": "鸡冠洞", "address": "洛阳市栾川县城西3公里处", "image": "", "rank": 1, "time": 2.5, "location": {"lat": 33.791822464323104, "lng": 111.62242666650891}, "feature": {"sight_features": "特色1 北方地区少有的喀斯特溶洞旅游景点。 特色2 洞中藏有数十米高的巨大厅堂。 特色3 洞中的石塔、石柱和石花等，在灯光的承托下，千姿百态，美轮美奂！", "sight_content": "栾川鸡冠洞风景区位于河南洛阳栾川县城西3公里的小双堂沟内，属伏牛山系，海拔1021米，山势雄伟，孤峰卓立，植被覆盖密集，四季景致不同：春季嫩芽吐蕊，夏季绿树成荫，金秋红叶似火，严冬银装素裹，再加上丛林中亭台小庙错落纵横。栾川鸡冠洞形成于约6亿年前的早中更新纪，发现于唐贞观年间，山青、水秀、石奇、洞幽，四季成游。春天，春花烂漫、十里飘香；盛夏，浓荫蔽日、飞瀑流泉；金秋，红叶满山、层林尽染；隆冬，冰挂银条、松柏凝翠。栾川鸡冠洞景区内一山，山中一洞，山以形名，洞以山名，故曰“鸡冠洞”。\n栾川鸡冠洞属天然石灰岩溶洞，地质学上称其为“喀斯特岩溶地貌”。据专家考证，它形成于早、中更新纪，诸多景观在八亿年前就已定形。早在清乾隆年间，就有人冒险探幽，终因洞内深幽奇险，惧而返。\n\n栾川鸡冠洞洞深5600米，上下分五层，落差138米。目前已开发洞长1800米，观赏面积23000平方米，共分八大景区，依次命名为玉柱潭、溢彩殿、叠帏宫、洞天河、聚仙宫、瑶池宫、藏秀阁、石林坊。洞内峰回路转，曲径通幽，景观布局疏密有致，钟乳石、石笋、石柱、石幔、石瀑、石花、石盾、石珠、石琴、莲花池、透明石等景观，形态各异，姿态万千，如弥佛行吟，神态庄严；似百兽觅食，气势狰狞；这边老翁含笑，那厢童子拍手；有桥似层层彩虹横跨，有塔如朵朵灵芝压叠；石林耸秀，石花吐芳；石帷垂挂，看临风欲动；石瀑飞溅，听似轰然有声；天狗寻月、鲤鱼戏水、鳄鱼拜寿、八仙过海、白虎拉玉峰、金龟渡仙翁……天然成趣，目不暇接。更有庞大的石琴，以石击之，可奏出美妙乐曲，袅袅的琴音与洞中地下河的潺潺水声融在一起，给栾川鸡冠洞增添了无穷的魅力！\n\n栾川鸡冠洞以“奇、丽、幽、深、险、峻、秀”七绝著称于世。栾川鸡冠洞景区是中国长江以北罕见的洞穴旅游景区。洞中一年四季恒温18℃，严冬季节，洞内热浪扑面，暖意融融；盛夏酷暑，洞中寒气侵袭，清神爽心，爽凉宜人。被誉为“自然大空调”。"}}, {"title": "重渡沟风景区", "address": "洛阳市栾川县潭头镇重渡村", "image": "", "rank": 2, "time": 4.5, "location": {"lat": 33.94259310640614, "lng": 111.70853161218379}, "feature": {"sight_features": "特色1 欣赏数千米长的竹林长廊景观 特色2 汉光武帝二渡伊水至此，摆脱王莽成就帝业 特色3 夏日清凉避暑的好去处", "sight_content": "重渡沟风景区位于栾川县潭头镇西南10公里的熊耳山，是国家aaaa级旅游景区，区内竹茂林密，野生动植物繁多，800亩竹林密密层层，可与蜀南竹海相比美。重渡沟风景区被业界权威人士魏小安先生称为“中国农家宾馆第一村”。到了重渡沟风景区会看到杏花园、竹竿院、环翠居、故人庄等清雅质朴的名字点缀于窗含翠岭、竹环水绕的农家门楣上，这些富有山情风味，充满田园气息的318家农家宾馆星散于十里兰溪之旁，万亩竹海之中，床位已达1万余张。河南省省长李成玉称赞重渡沟风景区是“生态旅游开发的典范；是家庭宾馆的楷模；是旅游带动脱贫的榜样。”国家旅游局局长邵琪伟对重渡沟风景区亦给予了充分肯定。\n重渡沟风景区凭借“水清、竹多、落差大”这些自然优势和“茶文化、竹文化、水文化、农耕文化”的有机融合，让游客享受不尽乡村漂流的浪漫和情趣，领略到重渡沟风景区生态旅游和乡村旅游的别样风光。重渡沟风景区内林茂草丰，雉飞鹿鸣，四季泉水喷涌，常年飞瀑成群，翠竹碧水交织，肥鸭壮鹅嬉戏，水乡特色浓郁，堪称“北国一绝”。被作家张一弓赞为“高峡飞瀑藏幽径，绿水秀竹怀古情；竖看山水横看竹，上听鸟语下听泉。”"}}, {"title": "龙峪湾", "address": "栾川县庙子镇附近", "image": "", "rank": 3, "time": 7.5, "location": {"lat": 33.77322474247513, "lng": 111.74880238050105}, "feature": {"sight_features": "特色1 国家级森林公园、国家AAAA级生态旅游区 特色2 被誉为自然大空调，中原理想的避暑处。 特色3 品原始生态，吸万亩氧吧。", "sight_content": "龙峪湾，古为蛟龙淋浴之地，位于河南省洛阳市西南165公里处伏牛山腹地的栾川县境内，方圆百里，山势雄伟、峰峦叠嶂、林海茫茫、古木参天。这里“龙”文化荟萃，自然景观万千，四季景色秀丽，奇峰异石林谷幽深。溪水、清潭、瀑布纵横其间。洛阳龙峪湾是原始的、纯天然的、无污染的生态旅游区。是“国家级森林公园”“国家aaaa级生态旅游区”、和国家级自然保护区。洛阳龙峪湾观赏面积300余平方公里，目前已开发12个景区218景点，是河南省首家“全国文明森林公园”。 洛阳龙峪湾地处亚热带与温暖带的过度地带，境内山巍、水澈、峰奇、石怪、洞幽、瀑壮泉清，森林茂密、植被原始、奇峰林立、古木参天，有黑龙潭、白马潭、仙人瀑布、彩虹瀑布、青龙瀑布；仙人洞、藏兵洞、贞女洞、帽盔洞等。\n洛阳龙峪湾内中原第一峰——鸡角尖，海拔2219米，壁削刀仞，云雾缭绕，旁有百亩千年太白杜鹃园，每年5月竞相绽放，花冠如拳，壮似钟铃，七色花朵飘逸着醉人花香。原始森林古木盘根，遮天蔽日；万亩落叶松林里旱莲遍布，厚厚松针犹如地毯，松林内每立方厘米空气中负离子含量高达6万个因此被誉为“天然大氧吧”。园内有植物1900多种，中草药800多种，珍禽异兽200多种。\n这里气候凉爽，最高温度不超过21℃，被誉为“自然大空调”是理想的避暑度假胜地。公园内旅游设施完善，境内道路全程硬化，供电供水设施样样具全，有专职导游服务，集餐饮、住宿、娱乐、购物为一体，日可接待游客3000人。别有风味的野味餐饮将使您大饱口福，丰富您的假日生活，是避暑、度假、聚会、疗养的最佳场所。\n游国家森林公园——洛阳龙峪湾，品原始生态，吸万亩氧吧，休闲健身，心旷神怡，飘然如仙境；登中原雄奇首峰鸡角尖，观云海日出，赏千年杜鹃，饱揽风光，回归自然，神秘与奇观。"}}, {"title": "养子沟", "address": "洛阳市栾川县城东5公里处养子沟景区", "image": "", "rank": 4, "time": 4.0, "location": {"lat": 33.954321535839384, "lng": 111.73996935859095}, "feature": {"sight_features": "特色1 世界地质公园、国家AAAA级景区 特色2 梦中桃花源，人间养子沟", "sight_content": "世界地质公园、中国农家宾馆示范村、中国最佳休闲度假胜地养子沟景区位于河南省栾川县城东5公里处,因唐朝巾帼英雄樊梨花在此安营扎寨、养子、教子而得名。景区内十里峡谷林茂竹繁、雉飞蝶舞、晶莹十八潭、银雨飞彩虹，天赐一幅伴山伴水伴佛行、读花读石读古藤的自然与人文相结合的优美画卷。田园风光，淳朴自然，游客住农院，吃农家饭，回味无穷的山果野菜、地道的土鸡等美味，令游客大饱口福。晚上古朴传统的篝火晚会，激情洋溢，载歌载舞，忘却旅途劳累，尽洒人生之得意。最新奉献给游客参与性的竞技、水上娱乐、拓展训练等体验式休闲旅游项目，可使游客在旅途中增添新的乐趣。\n\n\n\n山水景观秀幽峻奇，千姿万象。景区内群峰峥嵘，峻峭险奇，姿态万千：有的如大佛端坐，有的似禽似兽，有的如龙腾虎踞，有的如仙人朝拜，又犹如从天而降，无不巧夺天功，栩栩如生。明镜崖，突兀而立，与云齐天，崖顶二块圆形巨石闪闪发亮，如明镜悬挂； “三清殿”30米高巨石中空为窟奉儒、释、道始祖，神秘肃穆；风动石如天外飞来，悬于山崖绝顶之上，时有风吹石动之险；牛心峰峭壁直立，孤然向天，其险秀中原少见，游者称奇。景区内溪涧密布，深潭飞瀑，星罗棋布：流泉、石潭、绿涧、飞瀑目不暇接，孱孱溪流，清澈见底，一泻三跌，飞珠溅玉，大山因水而生动，奇石因水而灵秀。\n动植物种质资源丰富，季相变化多端。景区常年雨量充沛，气候宜人，形成了“天然植物园”。植物类型多样，珍稀树种随处可见，古木遍布，参天茂密，植物景观绚丽多彩：春天，山花烂漫，桃花似火，梨花如雪，杜鹃仿霞，争芳斗艳，宛若彩云，花香醉人；盛夏，林木葱郁，枝繁叶茂，绿草如茵；金秋，红叶似火，层林尽染，野果溢香；隆冬，银装素裹，分外妖娆。景区内山峦叠嶂，林茂草丰，是珍禽异兽栖息繁衍的王国，有的水中游弋，有的空中翱翔，有的林中漫步，壮观如雄鹰展翅高飞，悦耳如画眉轻啼清脆凄婉，人与自然和谐相处的优美景观使游人留连忘返。"}}, {"title": "抱犊寨", "address": "洛阳市栾川县三川镇西7公里处", "image": "", "rank": 5, "time": 4.5, "location": {"lat": 33.94640168345654, "lng": 111.30286005262502}, "feature": {"sight_features": "特色1 展现白色土匪文化 特色2 集白色文化、红色文化、绿色文化于一身 特色3 抱犊寨匪窟村落分景区主要展现的是土匪山寨文化及豫西民俗文化", "sight_content": "抱犊寨风景区位于栾川县三川镇境内，距洛阳市186公里，抱犊寨景区观赏面积约21平方公里。抱犊寨是一处人文景观与自然景观完美结合的综合性风景区，主要有：望牛岭自然风光、抱犊寨匪窟村落、火神庙支前三大分景区构成。抱犊寨三大分景区风格各异，景色荟萃，各具特色。\n其中抱犊寨匪窟村落分景区主要展现的是白色土匪文化，以旅游观光集影视拍摄为主题。抱犊寨上明碉暗堡星罗棋布、商户店铺林林总总、刑场牢房血雨腥风、绣楼宅院古朴典雅、寨门城墙坚固陡峭、村姑寨丁川流不息、赌场酒馆人声鼎沸...所有的一切充分的展现了当年匪众花天酒地、舍命保寨的防御场景，置身于此仿佛让我们回到了解放战争时期那个战火纷飞、匪患猖盛的年代。\n抱犊寨火神庙支前分景区位于景区东门处，以红色教育为主。主要有解放抱犊寨纪念碑、陈列馆、支前指挥部、战地医院、弹药库等部分组成。抱犊寨指挥部里当年解放军用过的枪械保存完好、作战文稿依稀可辨，生动的展示了当年解放军支援前线、紧张备战的情形。\n抱犊寨望牛岭为原始生态林区，位于景区北门处，森林覆盖率达99%以上，珍禽奇兽常有出没。抱犊寨望牛岭主要有欲仙观、饷银房、眺犊亭、窈窕峪等30余个景点组成。与之相配套的拓展基地、星级宾馆、多功能会议室一应俱全。终年云雾缭绕、如幻如梦，可谓休闲度假、商旅接待、拓展培训最佳去处。\n抱犊寨以它独有的匪窟村落白色文化、奇丽的望牛岭绿色文化、鲜艳的火神庙支前红色文化，欢迎您到此旅游观光、休闲度假！"}}, {"title": "蝴蝶谷", "address": "洛阳市栾川县城南三公里处", "image": "", "rank": 6, "time": 1.5, "location": {"lat": 33.791822464323104, "lng": 111.62242666650891}, "feature": {"sight_features": "特色1 休闲避暑、寻幽、探险、昆虫科普的绝佳去处 特色2 斑斓的蝴蝶在谷间翩翩起舞，令人心旷神怡。 特色3 成千上万只蝴蝶起舞，感受大自然的无穷魅力", "sight_content": "【景点介绍】\n茫茫大千世界里，我们常常能看到一类美丽的昆虫 ---- 蝴蝶。它们挥动着两对色彩艳丽的翅膀，飞越八百里伏牛，翱翔于美丽的栾川上空，栖息于一条神奇的峡谷之中 ---- 蝴蝶谷。\n蝴蝶谷位于栾川县城 1.5 公里的鼎室山脚下，西临鸡冠洞、东临老君山。两侧环山，中间谷底贯穿一条溪流，谷内小桥流水、景色怡人、自然生长着成千上万只蝴蝶，随处可见色彩斑斓的蝴蝶在谷间翩翩起舞，在这里你可以感受到大自然的无穷魅力。\n\n蝴蝶谷内景点密布，潭溪相连、 茂林秀竹、步移景换，主要景点有：快活林、蝴蝶泉、玉女池、彩虹瀑、三叠岩、蝶仙泉、天池、南天柱、原始森林氧吧区\n这里不但是蝴蝶栖息地，也是游人避暑渡假的天堂， 100 多个美妙绝伦的美景，把这条神秘的峡谷装扮的格外雄奇秀幽"}}, {"title": "伏牛山滑雪度假乐园", "address": "洛阳市栾川县石庙镇杨树坪村", "image": "", "rank": 7, "time": 2, "location": {"lat": 33.76461873209114, "lng": 111.48793641601455}, "feature": {"sight_features": "", "sight_content": ""}}, {"title": "天河大峡谷（倒回沟）景区", "address": "洛阳市栾川县叫河镇境内", "image": "", "rank": 8, "time": 2.5, "location": {"lat": 33.85533071566986, "lng": 111.2958021928942}, "feature": {"sight_features": "特色1 奇花异草随处可见，万株古柳沿溪而生", "sight_content": "【天河大峡谷】\n天河大峡谷旅游度假区，是伏牛山世界地质公园的核心景区之一。由河南天河置业集团投资5亿元，按国家AAAAA级景区标准打造的集旅游观光、避暑度假、休闲养生、祈福问道、探秘游乐、旅游地产等于一体的综合型旅游度假区。\n景区内有三大游览区：“天河谷、五圣峰、大鹏山”；四大特色景观：“擎天一柱、大鹏展翅、仙女玉臀、河源盆景”；五大文化典故：“公明降生、刘秀逃难、三霄神话、王母仙宫、伊尹养生”；六大象形奇石：“神牛听涛、宦官乌纱、刘秀倒靴、娘娘问天、天庙奇观、一柱神香”；七大趣味妙景：“一线天、情侣石、试剑石、百花谷、通天洞、云霄凌索、悬空栈道”；八大潭瀑幽境：“神牛潭、碧玉潭、如意湖、神剑潭、听涛潭、饮马湖、九曲连潭、飞龙潭瀑”。奇山、秀水、怪石、幽林构成了一幅绝美的山水画卷。\n2015年倒回沟景区正式更名为“天河大峡谷旅游度假区”。天河大峡谷平均海拔超过1500米，最高峰大鹏山2116米，山环水抱、群峰叠翠、环境秀美、气候醉人，年平均温度仅有10.2度，谷内遍布1400余种中草药，素有“中原小西藏”、“百草养生谷”、“避暑最佳地”等称号。景区目前打造了六个特色园区，分别为伊尹避暑养生苑、光武驿苑、问天苑、泰园、王母花苑、五圣峰，体现了中医养生文化、光武汉文化、封神文化、财运文化等中华传统核心文化特色。\n“一山揽千姿，一谷蕴百媚”、“财神降生地，伊尹养生谷”。奇景妙境天河大峡谷旅游度假区正以其无法阻挡的诱惑力和难以替代的魅力，张开热情的双臂，笑迎八方来客。\n特色景点：\n大鹏展翅\n大鹏山即大鹏展翅，海拔2116米，此山极似一只展翅欲飞的鲲鹏。大鹏的头部昂然雄起，远望苍天，两翼侧岭环悬外凸，山上林木葱郁挺拔，如大鹏丰满的羽毛，景观气势雄伟，巍然壮观，“鲲鹏展翅九万里”，给人以壮志凌云的感觉。此山为天河大峡谷标志性景观。\n擎天柱\n擎天柱，以其高、险、峻成为景区标志性景观。该峰海拔1850米，擎天柱从群山中突兀而出，像一根四方形的柱子直冲云霄，四壁悬绝，可谓顶天立地、气贯长虹。峰顶平坦，方圆数亩，生着众多青松，苍翠挺拔。在该峰的上部正中，隐约可以看见一尊佛像浮现于绝壁之上，正合掌坐禅，俯视苍生。\n一路上山，欣赏着上千年盘龙虬枝的古藤，开满松花的松树，识别着上百种的药材，放眼望去，密林空幽、谷阔山高、危石林立、青山滴翠。群山拔地而起欲比天齐，山间雾纱轻绕，白云重锁，山上原始森林内万木竞生，树藤缠绕，百花争艳。茫茫林海中，麋鹿、青羊、野猪、红腹锦鸡等珍禽野兽出没其间，攀雄山以观晚景，憩林间而闻泉声，物我两忘，悠然似神仙。\"\n\n五圣峰\n\"五圣峰”又名“五指峰”，此峰犹如五指直刺苍穹，雨后的五指峰烟云缥缈，仿佛进入世外桃源、人间仙境。此峰为天河大峡谷标志性景观，其主要有形态各异、挺拔峻峭的五座山峰构成，宛如一只巨型手掌或五个巨人巍峨耸立，故名。\n又相传古代广成子、伊尹、鬼谷子、墨子、张仲景，五位圣人都曾到访或在此隐居，圣人们在此或著书、或修道、或采药、或追寻先贤足迹。又因此地原有“五圣庙”供奉“玉仙”、“水仙”、“送子天仙”、“瘟神”、“苗神”五位神仙。“五位神仙”正与文献记载或出生、或隐居、或采药修道于伏牛山周边的五位历史人物吻合，当为广成子、伊尹、鬼谷子、墨子、张仲景五位圣人之神化。“五圣峰”亦因此得名。\"\n碧玉潭\n\"碧玉潭是问天苑下、一处被溪水长期冲蚀凹陷的扇形石潭。潭水清幽，水色碧绿如玉。潭水深7米，面积150平方米。在潭的左侧石壁上，留有几处人工开凿洞穴，是古代“娘娘庙”竖立房柱基础的真实印迹。后来，暴风吹毁“娘娘庙”，庙的构筑材料，被洪水冲运到娘娘庙村——今黎明村委会门前。向善的人们以为，碧霄娘娘想在此落脚，便在那里又重新修了庙宇，焚香、祭祀。\n世传，此碧玉潭，是碧霄娘娘的宝贝——混元金斗化成，本为云霄、碧霄、琼霄“三霄姊妹”洗浴用具。商周大战中，赵公明被姜子牙谋害，“三霄娘娘”誓为亡兄赵公明报仇，与姜子牙决一死战，元始天尊不允，云霄娘娘质问元始天公，天公答复不能令“三霄”满意，她们又无法可使，又气又急，只好借碧玉潭洗浴消气。不想，越洗越气，越气越洗，私下牢骚，“天公不公，男子大汉不讲理！”一下子，便把所有仇恨都迁怒在男人身上，所以男人不能在碧玉潭洗浴，恐有生命之忧。\n天河谷水\n天河水贯穿于天河谷境内，流入老冠河。她是那么的温柔、娴静，像婀娜的少女披一身金色的衣裳缓步走来，我们都禁不住把手伸向河中，最后得出结论：这里的水“软”（碱度低、负离子含量高）口感好、甘甜清爽。河流大都是自西向东流，而这里的水却是由东向西流。"}}, {"title": "蟠桃山", "address": "洛阳市栾川县石庙镇杨树平村", "image": "", "rank": 9, "time": 2.5, "location": {"lat": 33.81369724975332, "lng": 111.53480476759053}, "feature": {"sight_features": "特色1 中国第一大天然桃石", "sight_content": "景区集栾川风光之大成，瀑、潭、溪、涧、峰、崖、谷兼而有之；高、险、峻、奇、秀、美、幽无所不精。景区分六大区域，百余景点星罗棋布，妙趣横生。满山遍野香气袭人，夏天，这里是飞瀑流泉，壮观无比，林荫覆盖、气候清凉（平均气温26℃），秋天，这里是野果满山，柿子、核桃、板栗、酸枣等之，结出累累硕果，到深秋，满山红叶，层林尽染，加上青松翠柏的衬托，成了一幅美丽的自然图画，那真是人在画中行，画在人中现出靓丽的风景，冬季，这里是北凌、玉柱、雪树银花，让人陶醉，留恋忘返。四季风景怡人，是您休闲度假、游览观光、消夏避暑，寻幽探路的良好去处，更是摄影、绘画、书法、和生态旅游的代表性景点。当地百姓每年都在3月3日膜拜蟠桃石，据说非常灵验，还能长寿。\n景区在海拔800—1300米之间，地势西南高，北东低，境内地质构造多以断裂为主，岩石以花岗岩居多，山体属燕山晚期形成的浸入岩，受一亿多年来地质构造和其它自然动力作用，形成了沟谷纵横，怪石嶙峋，沟深谷狭，山幽林密，溪流清纯。由于山大沟深，沟壑纵横，落差悬殊，地理走向忽高忽低，水流趋势时急时缓，在花岗岩的山体中，形成飞泉吊瀑，碧渊深潭的奇特景观。山无水不奇，景无水不秀，这里抬头能见青山，俯首能赏秀水，侧耳可听溪语，伸手便捧清泉。十分壮观。 　　景区内还有上百亩的大竹林，数百米的林荫道穿园而过，让游人从中领略竹子高风亮节，丹青之气，效仿竹子虚心守节，君子之德。\n蟠桃山景区树茂林密，森林覆盖率高达97%以上，景区的植物种类丰富，以华北植物区系成份为主，兼有华中、华东、西南区系成份，据不完全统计，有维管束植物近2000多种，其中蕨类约150种，裸子植物约16种，被子植物约1850多种，并有国家级保护植物多种，有银杏、连香树、杜仲、胡桃、香果树、山白树、华榛、青檀、天麻、水曲柳、银鹊树、领椿木、黄绿材等等。空气中负离子含量高，极利于人体健康，是个不折不扣的高山森林氧吧，是人们休闲渡假，消夏避暑的理想场所。 　　由于空气温润，气候适宜，水清林密，草木旺盛是各种野生动物的生存之地。这里有锦鸡、画眉、杜鹃、百灵、山雕、苍鹰、獐子、野鹿、野猪、野羊、果子狸、娃娃鱼、猫头鹰等多类动物。景区有众多的动物在此繁衍生息，有陆栖脊椎动物140种，其中兽类约80余种，鸟类约37种，大多都属国家级保护类动物。总的来说蟠桃山景区的生物种类繁多，地理特征奇特。"}}, {"title": "重渡沟竹筏漂流", "address": "洛阳市栾川县洛栾高速重渡沟站下站口", "image": "", "rank": 10, "time": 2, "location": {"lat": 33.91035714820888, "lng": 111.7638091741133}, "feature": {"sight_features": "", "sight_content": ""}}, {"title": "栾川大峡谷漂流", "address": "洛阳市栾川县陶湾镇南沟", "image": "", "rank": 11, "time": 2.5, "location": {"lat": 33.8061283366177, "lng": 111.45208657921376}, "feature": {"sight_features": "特色1 地处河南旅游资源最丰富的栾川县，周边4A级和5A级景区众多，漂流后可顺路游玩其他景区，且吃住条件好。 特色2 河水清澈，漂的非常清爽；河道累计落差河南省内最大，漂起来非常刺激；漂流长度9.8公里，漂的非常过瘾。 特色3 服务品质一流，拥有丰富的漂流运营管理经验及大批量的优秀员工。", "sight_content": "栾川旅游资源在河南省内是最丰富的，栾川县是河南省唯一的、全国17个“中国旅游强县”之一。截止到2013年，拥有老君山、鸡冠洞两个5A级旅游景区，重渡沟、龙峪湾、伏牛山滑雪度假乐园、养子沟、抱犊寨5个国家4A级旅游景区，是目前全国拥有国家4A级以上景区最多的县。\n栾川是河南空气质量最好的地区，夏天来栾川旅游，虽然在蓝天白云下游览山水景区也很惬意，但必竟夏天天气炎热，如果能到清澈的河水中戏戏水，打打水仗，再好好体验体验从高处顺流而下的刺激，那此次的栾川旅游就别提有多么完美了。\n栾川大峡谷漂流下码头距离5A级景区鸡冠洞不到15公里（笔者亲自数次开车量出来的数据），距离另外一个5A级景区老君山25公里，距离栾川最著名的重渡沟景区约65公里（从重渡沟景区门口开始计算），距离龙峪湾景区约42公里，距离养子沟、寨沟、抱犊寨等栾川其他著名旅游景区均不到30公里。如果您晚上住在栾川县城，那到栾川大峡谷漂流下码头基本在20公里左右。"}}, {"title": "追梦谷", "address": "洛阳市栾川县七里坪村21组老君山内", "image": "", "rank": 12, "time": 1.0, "location": {"lat": 33.7512262841056, "lng": 111.66448126565363}, "feature": {"sight_features": "", "sight_content": ""}}, {"title": "鸡角尖", "address": "洛阳市栾川县庙子镇", "image": "", "rank": 13, "time": 3.5, "location": {"lat": 33.77322474247513, "lng": 111.74880238050105}, "feature": {"sight_features": "", "sight_content": ""}}, {"title": "鸭石红豆杉景区", "address": "洛阳市栾川县秋扒乡鸭石村向西100米红豆杉景区", "image": "", "rank": 14, "time": 3.5, "location": {"lat": 33.973629939209935, "lng": 111.65033007300572}, "feature": {"sight_features": "", "sight_content": ""}}, {"title": "水帘仙宫景区", "address": "洛阳市栾川县重渡沟风景区滴翠河景区内", "image": "", "rank": 15, "time": 2.5, "location": {"lat": 33.94387879536072, "lng": 111.68495555712525}, "feature": {"sight_features": "", "sight_content": ""}}, {"title": "农耕村景区", "address": "洛阳市栾川县潭头镇重渡村重渡沟风景区内", "image": "", "rank": 16, "time": 1.5, "location": {"lat": 33.937382823120366, "lng": 111.7214814505681}, "feature": {"sight_features": "", "sight_content": ""}}, {"title": "白马潭景区", "address": "洛阳市栾川县庙子镇庄子村", "image": "", "rank": 17, "time": 2.5, "location": {"lat": 33.736062865963945, "lng": 111.74887029958406}, "feature": {"sight_features": "", "sight_content": ""}}, {"title": "九龙山温泉", "address": "洛阳市栾川县潭头镇汤营村九龙山麓（近重度沟景区）", "image": "", "rank": 18, "time": 2, "location": {"lat": 33.99332684928461, "lng": 111.81023209102081}, "feature": {"sight_features": "", "sight_content": ""}}, {"title": "金鸡河景区", "address": "洛阳市栾川县潭头镇重渡沟风景区内", "image": "", "rank": 19, "time": 1.5, "location": {"lat": 33.937382823120366, "lng": 111.7214814505681}, "feature": {"sight_features": "", "sight_content": ""}}, {"title": "白石崖", "address": "洛阳市栾川县狮子庙乡", "image": "", "rank": 20, "time": 0.75, "location": {"lat": 34.01957791417537, "lng": 111.54779784052073}, "feature": {"sight_features": "", "sight_content": ""}}, {"title": "通天峡", "address": "洛阳市栾川县庙子乡卡房村", "image": "", "rank": 21, "time": 2.5, "location": {"lat": 33.74723509771062, "lng": 111.73389344379952}, "feature": {"sight_features": "", "sight_content": ""}}, {"title": "雷公寨", "address": "洛阳市栾川县庙子镇", "image": "", "rank": 22, "time": 1.5, "location": {"lat": 33.77322474247513, "lng": 111.74880238050105}, "feature": {"sight_features": "", "sight_content": ""}}, {"title": "飞虹瀑布", "address": "洛阳市栾川县潭头镇重渡沟风景区内", "image": "", "rank": 23, "time": 0.35, "location": {"lat": 33.937382823120366, "lng": 111.7214814505681}, "feature": {"sight_features": "", "sight_content": ""}}, {"title": "马尔代夫港湾", "address": "洛阳市栾川县潭头镇古城村", "image": "", "rank": 24, "time": 4.5, "location": {"lat": 34.00032380623949, "lng": 111.75777531259605}, "feature": {"sight_features": "", "sight_content": ""}}, {"title": "王府竹海度假旅游区", "address": "洛阳市栾川县狮子庙镇王府沟村", "image": "", "rank": 25, "time": 2.5, "location": {"lat": 33.991989532049764, "lng": 111.55700597954063}, "feature": {"sight_features": "", "sight_content": ""}}, {"title": "伊河源风景区", "address": "洛阳市栾川县陶湾镇红庙村", "image": "", "rank": 26, "time": 1.5, "location": {"lat": 33.795238276224175, "lng": 111.44896011671682}, "feature": {"sight_features": "", "sight_content": ""}}, {"title": "伏牛山东北虎园", "address": "洛阳市栾川县仓房村", "image": "", "rank": 27, "time": 2, "location": {"lat": 33.934965134644344, "lng": 111.73370650911781}, "feature": {"sight_features": "", "sight_content": ""}}, {"title": "寨沟风景区", "address": "洛阳市栾川县庙子镇庙子大道西段", "image": "", "rank": 28, "time": 3.5, "location": {"lat": 33.780325972868226, "lng": 111.7246853128644}, "feature": {"sight_features": "", "sight_content": ""}}, {"title": "颐和伏牛山居温泉", "address": "洛阳市栾川县庙子镇卡房村", "image": "", "rank": 29, "time": 2, "location": {"lat": 33.74723509771062, "lng": 111.73389344379952}, "feature": {"sight_features": "特色1 富含对人体有益的微量元素", "sight_content": "【颐和·伏牛山居温泉】\n颐和·伏牛山居温泉位于中原最佳旅游度假目的地——河南省栾川县。温泉坐落于栾川县庙子镇卡房村311国道旁，地处伏牛山世界地质公园（栾川园区）核心区域，周围群山叠伏，林木葱茏，溪水清澈，森林覆盖率达95%以上，是一个风光秀丽的天然氧吧！\n‍‍颐和·伏牛山居温泉内含形态各异的室内、外温泉汤池的隐于坡谷森林之间，林荫浓密，曲径相连，能让您在鸟语虫鸣、山风轻拂、林涛阵阵中品茗泡汤，放松身心，回归自然。温泉水中碳酸盐含量较高，钠、钙、镁含量丰富,水质清澈、柔滑，对调节人体心血管系统、神经系统和滋养肌肤大有益处。\n此外设有水上景观餐厅、温泉餐厅、精致包房，可供200余名客人就餐。餐厅主打野生菌类、山野菜、高山冷水鱼、山水豆腐等当地家常特色，食材多选野生伏牛山珍，是不可多得的健康养生膳食。"}}, {"title": "竹林庄园", "address": "洛阳市栾川县洛阳栾川县重渡沟中心区87号演绎广场西200米", "image": "", "rank": 30, "time": 2, "location": {"lat": 33.94325526255868, "lng": 111.70683145222644}, "feature": {"sight_features": "", "sight_content": ""}}, {"title": "天河大峡谷 天然居农家乐", "address": "洛阳市栾川县叫河镇黎明村叫倒路水蒿坪16号", "image": "", "rank": 31, "time": 2, "location": {"lat": 33.83226411749567, "lng": 111.32752392780868}, "feature": {"sight_features": "", "sight_content": ""}}, {"title": "逍遥谷", "address": "洛阳市栾川县境内", "image": "", "rank": 32, "time": 1.5, "location": {"lat": 33.791822464323104, "lng": 111.62242666650891}, "feature": {"sight_features": "", "sight_content": ""}}, {"title": "鼎室山风景区", "address": "河南省栾川县境内", "image": "", "rank": 33, "time": 2, "location": {"lat": 33.791822464323104, "lng": 111.62242666650891}, "feature": {"sight_features": "", "sight_content": ""}}, {"title": "西鼎风景区", "address": "河南省洛阳市栾川县西鼎风景区", "image": "", "rank": 34, "time": 2, "location": {"lat": 33.74167869474896, "lng": 111.48635256865464}, "feature": {"sight_features": "", "sight_content": ""}}, {"title": "白马潭漂流", "address": "洛阳栾川县庙子镇庄子村", "image": "", "rank": 35, "time": 2.5, "location": {"lat": 33.736062865963945, "lng": 111.74887029958406}, "feature": {"sight_features": "", "sight_content": ""}}, {"title": "黑龙潭景区", "address": "龙峪湾国家森林公园", "image": "", "rank": 36, "time": 2, "location": {"lat": 33.70263592472056, "lng": 111.73631524940356}, "feature": {"sight_features": "", "sight_content": ""}}, {"title": "十八庄园", "address": "庄子村龙峪湾景区", "image": "", "rank": 37, "time": 2, "location": {"lat": 33.736062865963945, "lng": 111.74887029958406}, "feature": {"sight_features": "", "sight_content": ""}}, {"title": "九号街区密室逃脱", "address": "南大街35号", "image": "", "rank": 38, "time": 2, "location": {"lat": 40.24117895384848, "lng": 116.1332140661937}, "feature": {"sight_features": "", "sight_content": ""}}, {"title": "亚飞避暑旅游联盟", "address": "十字街13号(金源量贩对面)", "image": "", "rank": 39, "time": 2, "location": {"lat": 33.79138487640804, "lng": 111.62402295540014}, "feature": {"sight_features": "", "sight_content": ""}}, {"title": "震天雷瀑布景区", "address": "潭头村", "image": "", "rank": 40, "time": 1.5, "location": {"lat": 29.78570598054066, "lng": 119.21122878265197}, "feature": {"sight_features": "", "sight_content": ""}}, {"title": "黑龙潭", "address": "庙子乡龙峪湾", "image": "", "rank": 41, "time": 2.5, "location": {"lat": 33.70034224709291, "lng": 111.78918157159846}, "feature": {"sight_features": "", "sight_content": ""}}, {"title": "九曲碧水景区", "address": "庙子乡龙峪湾", "image": "", "rank": 42, "time": 2, "location": {"lat": 33.70034224709291, "lng": 111.78918157159846}, "feature": {"sight_features": "", "sight_content": ""}}, {"title": "重渡沟南区舒服家农家乐", "address": "重渡沟南区菩提树东50米舒服家农家乐", "image": "", "rank": 43, "time": 2, "location": {"lat": 39.913163814736464, "lng": 116.48302211351167}, "feature": {"sight_features": "", "sight_content": ""}}, {"title": "龙王幢影剧院", "address": "龙王童村道附近", "image": "", "rank": 44, "time": 2, "location": {"lat": 39.890472030910416, "lng": 115.55158858930949}, "feature": {"sight_features": "", "sight_content": ""}}, {"title": "悦读书社", "address": "伊水路与君山东路交叉口东南150米丽水嘉园附近(伊水路)", "image": "", "rank": 45, "time": 2, "location": {"lat": 33.78575178360269, "lng": 111.64238133764978}, "feature": {"sight_features": "", "sight_content": ""}}, {"title": "老子文化苑", "address": "洛阳市栾川县七里坪村21组老君山内", "image": "", "rank": 46, "time": 1.0, "location": {"lat": 33.7512262841056, "lng": 111.66448126565363}, "feature": {"sight_features": "", "sight_content": ""}}, {"title": "崇玄馆", "address": "洛阳市栾川县七里坪村21组老君山老子文化苑内", "image": "", "rank": 47, "time": 2, "location": {"lat": 33.76006245180047, "lng": 111.65472595976458}, "feature": {"sight_features": "", "sight_content": ""}}, {"title": "观音庙", "address": "洛阳市栾川县城西三公里处鸡冠洞鸡冠山内", "image": "", "rank": 48, "time": 0.5, "location": {"lat": 33.79037660847843, "lng": 111.57807724982024}, "feature": {"sight_features": "", "sight_content": ""}}, {"title": "出口广场", "address": "洛阳市栾川县城西三公里处鸡冠洞风景名胜区内", "image": "", "rank": 49, "time": 2, "location": {"lat": 33.790429648799794, "lng": 111.57592684027688}, "feature": {"sight_features": "", "sight_content": ""}}, {"title": "君山福地", "address": "河南省洛阳市栾川县老君山风景区", "image": "", "rank": 50, "time": 2, "location": {"lat": 33.761105723407404, "lng": 111.6549895226012}, "feature": {"sight_features": "", "sight_content": ""}}, {"title": "合峪剧院", "address": "311国道附近", "image": "", "rank": 51, "time": 2, "location": {"lat": 34.27017932961585, "lng": 117.14276864732531}, "feature": {"sight_features": "", "sight_content": ""}}, {"title": "白土剧场", "address": "福民路", "image": "", "rank": 52, "time": 2, "location": {"lat": 38.933634873410824, "lng": 115.93021725257537}, "feature": {"sight_features": "", "sight_content": ""}}, {"title": "栾川县烈士事迹瞻仰厅", "address": "河南栾川县幸福路与八一路交汇处", "image": "", "rank": 53, "time": 2, "location": {"lat": 33.79311837556633, "lng": 111.61940446584099}, "feature": {"sight_features": "", "sight_content": ""}}, {"title": "水上乐园美食广场", "address": "重渡大道北50米", "image": "", "rank": 54, "time": 2, "location": {"lat": 33.99488137751384, "lng": 111.77177444907029}, "feature": {"sight_features": "", "sight_content": ""}}, {"title": "伏牛山庄", "address": "河南省洛阳市栾川县重渡沟西区109号", "image": "", "rank": 55, "time": 2, "location": {"lat": 33.944594339990964, "lng": 111.67605541562405}, "feature": {"sight_features": "", "sight_content": ""}}, {"title": "栾川县奇石博物馆", "address": "地矿局1楼西大厅", "image": "", "rank": 56, "time": 2, "location": {"lat": 40.8177959351172, "lng": 111.68597870194856}, "feature": {"sight_features": "", "sight_content": ""}}, {"title": "当当响儿童游乐园", "address": "伊滨东路与长春路交叉口西150米", "image": "", "rank": 57, "time": 2, "location": {"lat": 33.78814172312016, "lng": 111.62197637919407}, "feature": {"sight_features": "", "sight_content": ""}}, {"title": "基督教栾川教堂", "address": "君山东路南100米", "image": "", "rank": 58, "time": 2, "location": {"lat": 34.86902672672758, "lng": 117.58588668920339}, "feature": {"sight_features": "", "sight_content": ""}}, {"title": "栾川县伊尹公园", "address": "伊尹路与君山西路交叉口南200米", "image": "", "rank": 59, "time": 2, "location": {"lat": 33.786068729234366, "lng": 111.60988910094686}, "feature": {"sight_features": "", "sight_content": ""}}, {"title": "儿童乐园", "address": "兴华中路与文化路交叉口西南50米", "image": "", "rank": 60, "time": 2, "location": {"lat": 33.7911571400326, "lng": 111.62465609010663}, "feature": {"sight_features": "", "sight_content": ""}}]}