{"cityName": "滦平", "days": 2, "cityImage": "", "spots": [{"title": "碧霞山", "address": "承德市滦平县城南9公里（长山峪镇西营村）", "image": "", "rank": 1, "time": null, "location": {"lat": 40.838799390700956, "lng": 117.45161593337227}, "feature": {"sight_features": "", "sight_content": ""}}, {"title": "承德大清皇庄", "address": "兴洲村承德大清皇庄(承德兴春和农业集团有限公司)", "image": "", "rank": 2, "time": 4.5, "location": {"lat": 41.01750968484054, "lng": 117.38000810791584}, "feature": {"sight_features": "特色1 主营洗浴，汗蒸，各种室内水上乐园项目。 特色2 适合各年龄层人群的休闲玩水区域，带给你家庭式的欢乐体验！", "sight_content": ""}}, {"title": "滦平博物馆", "address": "文卫路3", "image": "", "rank": 3, "time": 2.5, "location": {"lat": 40.614101976427605, "lng": 118.49823103896253}, "feature": {"sight_features": "", "sight_content": ""}}, {"title": "崔家民俗农家院", "address": "河北省承德市滦平县巴克什营镇知名农家院南50米", "image": "", "rank": 4, "time": 2, "location": {"lat": 40.70841649924757, "lng": 117.25357423043853}, "feature": {"sight_features": "", "sight_content": ""}}, {"title": "承德京缘农业开发公司", "address": "巴克什营镇偏桥村", "image": "", "rank": 5, "time": 4.5, "location": {"lat": 40.71926255914942, "lng": 117.31072790971379}, "feature": {"sight_features": "", "sight_content": ""}}, {"title": "兴春和生态农业园区", "address": "兴洲村", "image": "", "rank": 6, "time": 2, "location": {"lat": 41.01750968484054, "lng": 117.38000810791584}, "feature": {"sight_features": "", "sight_content": ""}}, {"title": "异度xroom超级密室", "address": "中兴路南侧东段11", "image": "", "rank": 7, "time": 2, "location": {"lat": 38.70935513883943, "lng": 117.51340835180949}, "feature": {"sight_features": "", "sight_content": ""}}, {"title": "卧龙湾垂钓园", "address": "长山峪镇马家", "image": "", "rank": 8, "time": 2, "location": {"lat": 40.76335472317515, "lng": 117.42876637570848}, "feature": {"sight_features": "", "sight_content": ""}}, {"title": "承德乌兰布统草原度假村", "address": "承德市木兰围场坝上草原元宝山宇航旅游有限公司", "image": "", "rank": 9, "time": 4.5, "location": {"lat": 40.42091289837003, "lng": 117.50176166995728}, "feature": {"sight_features": "", "sight_content": ""}}, {"title": "百草山庄", "address": "101国道", "image": "", "rank": 10, "time": 2, "location": {"lat": 42.37729533175982, "lng": 122.53808546078889}, "feature": {"sight_features": "", "sight_content": ""}}, {"title": "海洋之星儿童乐园", "address": "新建路明华商城2楼", "image": "", "rank": 11, "time": 2, "location": {"lat": 39.164365704750224, "lng": 117.21108062489954}, "feature": {"sight_features": "", "sight_content": ""}}, {"title": "司马台长城", "address": "中国北京市密云区古北口镇 101508", "image": "", "rank": 12, "time": 3.0, "location": {"lat": 40.38217565813752, "lng": 116.84954704426833}, "feature": {"sight_features": "", "sight_content": ""}}, {"title": "奇乐儿童乐园（滦平店）", "address": "北大街05鑫港永信金店旁3楼（宽广超市对面）", "image": "", "rank": 13, "time": 2, "location": {"lat": 40.93906614437559, "lng": 117.33647730086894}, "feature": {"sight_features": "", "sight_content": ""}}, {"title": "航海航天科普博物馆", "address": "滦赤线西50米", "image": "", "rank": 14, "time": 2, "location": {"lat": 40.840760846403924, "lng": 116.81905272795186}, "feature": {"sight_features": "", "sight_content": ""}}, {"title": "儿童乐园", "address": "承德市滦平县05鑫港a18s9", "image": "", "rank": 15, "time": 2, "location": {"lat": 40.938220330824144, "lng": 117.33523951492705}, "feature": {"sight_features": "", "sight_content": ""}}, {"title": "金山岭长城索道-下站", "address": "承德市滦平县巴克什营镇金山岭长城金山岭长城索道内", "image": "", "rank": 16, "time": 2, "location": {"lat": 40.68627843388385, "lng": 117.25982687875428}, "feature": {"sight_features": "", "sight_content": ""}}, {"title": "东烽燧", "address": "承德市滦平县巴克什营镇金山岭长城内", "image": "", "rank": 17, "time": 2, "location": {"lat": 40.68627843388385, "lng": 117.25982687875428}, "feature": {"sight_features": "", "sight_content": ""}}, {"title": "滦平县知鱼斋水族馆", "address": "河北省承德市滦平县中兴路", "image": "", "rank": 18, "time": 2, "location": {"lat": 40.943138280945156, "lng": 117.34686057261457}, "feature": {"sight_features": "", "sight_content": ""}}, {"title": "清静寺", "address": "112国道北150米", "image": "", "rank": 19, "time": 2, "location": {"lat": 39.26936653820596, "lng": 117.3328898504419}, "feature": {"sight_features": "", "sight_content": ""}}, {"title": "观音寺", "address": "滦平县112国道附近", "image": "", "rank": 20, "time": 2.0, "location": {"lat": 40.95336739616056, "lng": 117.72010470551803}, "feature": {"sight_features": "", "sight_content": ""}}, {"title": "金山岭龍腾农家院", "address": "承德滦平县巴克什营金山岭长城景区（巴克什营镇花楼沟村内）", "image": "", "rank": 21, "time": 2, "location": {"lat": 40.68627843388385, "lng": 117.25982687875428}, "feature": {"sight_features": "", "sight_content": ""}}, {"title": "滦平县龙沙谷游乐场", "address": "河北省承德市滦平县X554", "image": "", "rank": 22, "time": 2, "location": {"lat": 40.947560962909996, "lng": 117.33949787111233}, "feature": {"sight_features": "", "sight_content": ""}}, {"title": "瓦房休闲广场", "address": "514县道附近", "image": "", "rank": 23, "time": 2, "location": {"lat": 40.98323068836903, "lng": 117.75896639001574}, "feature": {"sight_features": "", "sight_content": ""}}, {"title": "Great Wall at Jinshanling", "address": "China, Hebei Sheng, Chengde Shi, Luanping Xian, 金山岭长城风景区", "image": "", "rank": 24, "time": 2, "location": {"lat": 40.68627843388385, "lng": 117.25982687875428}, "feature": {"sight_features": "", "sight_content": ""}}, {"title": "春秋书画行", "address": "河滨路南侧东段20号", "image": "", "rank": 25, "time": 2, "location": {"lat": 38.99720400410777, "lng": 117.71439608000217}, "feature": {"sight_features": "", "sight_content": ""}}, {"title": "周广山农家院", "address": "金山岭长城景区内仙隐寺西北侧", "image": "", "rank": 26, "time": 2, "location": {"lat": 40.68627843388385, "lng": 117.25982687875428}, "feature": {"sight_features": "", "sight_content": ""}}, {"title": "河北省承德市滦平县经贸城步行街...", "address": "河北省滦平县经贸城步行街", "image": "", "rank": 27, "time": 2, "location": {"lat": 40.94175488375033, "lng": 117.33814331443723}, "feature": {"sight_features": "", "sight_content": ""}}, {"title": "黄木局子村", "address": "承德市-滦平县-五五四县道", "image": "", "rank": 28, "time": 2, "location": {"lat": 40.71044680975582, "lng": 117.50093747465188}, "feature": {"sight_features": "", "sight_content": ""}}, {"title": "东道沟", "address": "承德市-滦平县-三五三省道", "image": "", "rank": 29, "time": 2, "location": {"lat": 40.902604151422295, "lng": 117.07617685832808}, "feature": {"sight_features": "", "sight_content": ""}}, {"title": "石辟缝", "address": "承德市-滦平县", "image": "", "rank": 30, "time": 2, "location": {"lat": 40.947560962909996, "lng": 117.33949787111233}, "feature": {"sight_features": "", "sight_content": ""}}, {"title": "老米沟村", "address": "承德市-滦平县", "image": "", "rank": 31, "time": 2, "location": {"lat": 40.947560962909996, "lng": 117.33949787111233}, "feature": {"sight_features": "", "sight_content": ""}}, {"title": "西老米沟", "address": "承德市-滦平县", "image": "", "rank": 32, "time": 2, "location": {"lat": 40.947560962909996, "lng": 117.33949787111233}, "feature": {"sight_features": "", "sight_content": ""}}]}