{"cityName": "滦南", "days": 2, "cityImage": "", "spots": [{"title": "北河公园", "address": "唐山市滦南县兆才大街与建设路交口西200米(近环岛)", "image": "", "rank": 1, "time": 2, "location": {"lat": 39.520369067416105, "lng": 118.6898378202061}, "feature": {"sight_features": "", "sight_content": ""}}, {"title": "潘家戴庄惨案纪念馆", "address": "河北省唐山市滦南县潘家戴庄村", "image": "", "rank": 2, "time": 2, "location": {"lat": 39.56668930781202, "lng": 118.64609489538078}, "feature": {"sight_features": "", "sight_content": ""}}, {"title": "北河大桥", "address": "唐山市滦南县兆才大街", "image": "", "rank": 3, "time": 2, "location": {"lat": 39.5212971362142, "lng": 118.69711831058467}, "feature": {"sight_features": "", "sight_content": ""}}, {"title": "北河水城景区", "address": "河北省唐山市滦南县兆才大街", "image": "", "rank": 4, "time": 2, "location": {"lat": 39.5212971362142, "lng": 118.69711831058467}, "feature": {"sight_features": "", "sight_content": ""}}, {"title": "丽水健身娱乐中心", "address": "唐山市滦南县南环路与富民路交口西北侧", "image": "", "rank": 5, "time": 1.5, "location": {"lat": 39.49772859444185, "lng": 118.69300920875817}, "feature": {"sight_features": "", "sight_content": ""}}, {"title": "童雅轩主题公园", "address": "倴城镇建设路绿景中心城10-06门市", "image": "", "rank": 6, "time": 2, "location": {"lat": 22.69059146974694, "lng": 114.34005297369055}, "feature": {"sight_features": "", "sight_content": ""}}, {"title": "鲨鱼大滑梯", "address": "南大街与和平路交叉口金辉广场东南角", "image": "", "rank": 7, "time": 2, "location": {"lat": 39.51138221877294, "lng": 118.68662982750106}, "feature": {"sight_features": "", "sight_content": ""}}, {"title": "南购儿童游乐园", "address": "中大街南购地下商城16号", "image": "", "rank": 8, "time": 2, "location": {"lat": 33.46503030457138, "lng": 118.2261391238908}, "feature": {"sight_features": "", "sight_content": ""}}, {"title": "罗城公园", "address": "南环路与建设路交叉口北150米", "image": "", "rank": 9, "time": 3.0, "location": {"lat": 39.49895331141527, "lng": 118.69559580042328}, "feature": {"sight_features": "", "sight_content": ""}}, {"title": "基督教会", "address": "文明街南50米", "image": "", "rank": 10, "time": 2, "location": {"lat": 39.17948232880175, "lng": 117.12431981828708}, "feature": {"sight_features": "", "sight_content": ""}}, {"title": "儿童乐园", "address": "唐山市滦南县", "image": "", "rank": 11, "time": 2, "location": {"lat": 39.51004470246892, "lng": 118.68040524314775}, "feature": {"sight_features": "", "sight_content": ""}}, {"title": "怡康园", "address": "兆才大街南100米", "image": "", "rank": 12, "time": 2, "location": {"lat": 39.520601380598166, "lng": 118.69711831058467}, "feature": {"sight_features": "", "sight_content": ""}}, {"title": "大隆商行服饰广场", "address": "便民胡同与步行街交叉口西南50米", "image": "", "rank": 13, "time": 2, "location": {"lat": 39.513006382524054, "lng": 118.68855529954814}, "feature": {"sight_features": "", "sight_content": ""}}, {"title": "古城广场", "address": "河北省唐山市滦南县金辉商业街97-7号", "image": "", "rank": 14, "time": 2, "location": {"lat": 39.51042158231415, "lng": 118.68942602707895}, "feature": {"sight_features": "", "sight_content": ""}}, {"title": "柏各庄影剧院", "address": "河北省唐山市滦南县杨柏线柏各庄医院西南150米", "image": "", "rank": 15, "time": 2, "location": {"lat": 39.31016219195155, "lng": 118.5403375853183}, "feature": {"sight_features": "", "sight_content": ""}}, {"title": "成兆才纪念馆", "address": "南大街28号", "image": "", "rank": 16, "time": 2, "location": {"lat": 40.2410795447603, "lng": 116.1334645137699}, "feature": {"sight_features": "", "sight_content": ""}}, {"title": "北河水上乐园", "address": "北河附近", "image": "", "rank": 17, "time": 2, "location": {"lat": 40.54790855566142, "lng": 117.38324719726269}, "feature": {"sight_features": "", "sight_content": ""}}, {"title": "杰地丰华精品农庄", "address": "滦海公路", "image": "", "rank": 18, "time": 2, "location": {"lat": 39.4886809492256, "lng": 118.64451278354711}, "feature": {"sight_features": "", "sight_content": ""}}, {"title": "成兆才大戏院", "address": "和平路38号", "image": "", "rank": 19, "time": 2, "location": {"lat": 40.29275004125115, "lng": 116.6881810002721}, "feature": {"sight_features": "", "sight_content": ""}}, {"title": "森杰生态农业园", "address": "便民路11-4号", "image": "", "rank": 20, "time": 2, "location": {"lat": 30.88247319743203, "lng": 120.43718602560509}, "feature": {"sight_features": "", "sight_content": ""}}, {"title": "弘亚农业生态草莓西红柿采摘", "address": "滦海公路", "image": "", "rank": 21, "time": 2, "location": {"lat": 39.4886809492256, "lng": 118.64451278354711}, "feature": {"sight_features": "", "sight_content": ""}}, {"title": "滦南县越秀采摘园", "address": "王土村东北侧", "image": "", "rank": 22, "time": 2, "location": {"lat": 39.52275408220759, "lng": 118.74120147580831}, "feature": {"sight_features": "", "sight_content": ""}}, {"title": "倴城镇千亩草莓园", "address": "099乡道", "image": "", "rank": 23, "time": 2, "location": {"lat": 39.90832795910106, "lng": 119.41495747391467}, "feature": {"sight_features": "", "sight_content": ""}}, {"title": "河北南堡沼泽湿地", "address": "河北省唐山市路南区区内", "image": "", "rank": 24, "time": 2, "location": {"lat": 39.63658372414733, "lng": 118.18645947203979}, "feature": {"sight_features": "", "sight_content": ""}}, {"title": "滦南县科技中心", "address": "河北省滦南县和平路", "image": "", "rank": 25, "time": 2, "location": {"lat": 39.509001763668564, "lng": 118.68708915356596}, "feature": {"sight_features": "", "sight_content": ""}}, {"title": "华录国际影城滦南店", "address": "唐山市-滦南县-南大街与友谊路交叉口中红一品商品楼16号3层华录电影乐园", "image": "", "rank": 26, "time": 2, "location": {"lat": 39.505569414312106, "lng": 118.67642019461726}, "feature": {"sight_features": "", "sight_content": ""}}]}