{"cityName": "略阳", "days": 2, "cityImage": "", "spots": [{"title": "五龙洞国家森林公园", "address": "汉中市略阳县五龙洞镇", "image": "", "rank": 1, "time": 1.5, "location": {"lat": 33.51954425618149, "lng": 106.2352140159155}, "feature": {"sight_features": "", "sight_content": ""}}, {"title": "灵崖寺", "address": "汉中市略阳县灵岩路附近", "image": "", "rank": 2, "time": 1.0, "location": {"lat": 33.32917277540458, "lng": 106.16168316629454}, "feature": {"sight_features": "", "sight_content": ""}}, {"title": "江神庙", "address": "汉中市略阳县嘉陵南路", "image": "", "rank": 3, "time": 1.0, "location": {"lat": 33.33214436569813, "lng": 106.15937964327192}, "feature": {"sight_features": "", "sight_content": ""}}, {"title": "略阳五龙洞国家森林公园", "address": "汉中市略阳县五龙洞镇", "image": "", "rank": 4, "time": 1.5, "location": {"lat": 33.51954425618149, "lng": 106.2352140159155}, "feature": {"sight_features": "", "sight_content": ""}}, {"title": "怡休园", "address": "陕西省汉中市略阳县白石沟乡胡永坪", "image": "", "rank": 5, "time": 2, "location": {"lat": 33.37827999298302, "lng": 106.20415176660137}, "feature": {"sight_features": "", "sight_content": ""}}, {"title": "兴秀田园", "address": "陕西省汉中市略阳县白石沟桥头", "image": "", "rank": 6, "time": 2, "location": {"lat": 33.36732510828757, "lng": 106.24917290111647}, "feature": {"sight_features": "", "sight_content": ""}}, {"title": "响水沟·山水涧生态农业园", "address": "接官亭镇观音堂村", "image": "", "rank": 7, "time": 2, "location": {"lat": 33.26638018214957, "lng": 106.31687801942037}, "feature": {"sight_features": "", "sight_content": ""}}, {"title": "张岩沟", "address": "陕西省略阳县横现河镇张岩沟村 724300", "image": "", "rank": 8, "time": 2, "location": {"lat": 33.33950972874232, "lng": 106.08888204257833}, "feature": {"sight_features": "", "sight_content": ""}}, {"title": "汉中五龙洞", "address": "陕西省略阳县九中金乡 724300", "image": "", "rank": 9, "time": 2.5, "location": {"lat": 33.51047104540414, "lng": 106.22229033618764}, "feature": {"sight_features": "", "sight_content": ""}}, {"title": "南山", "address": "陕西省汉中市略阳县城关镇狮凤东路南山公园", "image": "", "rank": 10, "time": 2.5, "location": {"lat": 33.32634890272475, "lng": 106.16311784283809}, "feature": {"sight_features": "", "sight_content": ""}}, {"title": "嘟嘟小镇儿童主题乐园", "address": "东盛市场三楼(隆兴万佳超市旁)", "image": "", "rank": 11, "time": 2, "location": {"lat": 29.998091488852968, "lng": 120.62005291689728}, "feature": {"sight_features": "", "sight_content": ""}}, {"title": "小海豚儿童主题乐园", "address": "陕西省汉中市略阳县北大街", "image": "", "rank": 12, "time": 2, "location": {"lat": 33.336748789297594, "lng": 106.15980802271199}, "feature": {"sight_features": "", "sight_content": ""}}, {"title": "灵岩寺博物馆", "address": "略阳城南", "image": "", "rank": 13, "time": 2.5, "location": {"lat": 33.30650611181117, "lng": 106.1541613578187}, "feature": {"sight_features": "", "sight_content": ""}}, {"title": "牌坊坝生态观光园", "address": "徽略路附近", "image": "", "rank": 14, "time": 2, "location": {"lat": 33.442430099310414, "lng": 106.19140450239767}, "feature": {"sight_features": "", "sight_content": ""}}, {"title": "蒲公英悦读馆", "address": "城关镇东关幼儿园院内", "image": "", "rank": 15, "time": 2, "location": {"lat": 34.52542604280611, "lng": 110.89144398024528}, "feature": {"sight_features": "", "sight_content": ""}}, {"title": "王富沟溶洞群", "address": "陕西省略阳县史家院乡", "image": "", "rank": 16, "time": 2, "location": {"lat": 33.292928084163904, "lng": 106.01663843870232}, "feature": {"sight_features": "", "sight_content": ""}}, {"title": "阴面子", "address": "汉中市-略阳县-嘉陵江2号特大桥西南", "image": "", "rank": 17, "time": 2, "location": {"lat": 33.50292048366093, "lng": 106.0352421742376}, "feature": {"sight_features": "", "sight_content": ""}}, {"title": "黄柏子沟", "address": "汉中市-略阳县", "image": "", "rank": 18, "time": 2, "location": {"lat": 33.333193777733165, "lng": 106.16354400615846}, "feature": {"sight_features": "", "sight_content": ""}}]}