{"cityName": "禄丰", "days": 2, "cityImage": "", "spots": [{"title": "禄丰世界恐龙谷", "address": "禄丰县川街世界恐龙谷风景区", "image": "", "rank": 1, "time": 3.5, "location": {"lat": 24.978267136189128, "lng": 102.0777644256661}, "feature": {"sight_features": "特色1 走进失落的恐龙王国，穿越侏罗纪世界。了解恐龙三个年代三叠纪、侏罗纪、白垩纪的景观、动植物等。 特色2 穿越亿万年的时光，感受与恐龙同行的中华大地，在刺激、奇幻侏罗纪世界中穿梭，恐龙谷与你同在！恐龙时空乐园给你不一样的视觉盛宴！恐龙危机、飞越侏罗纪、神萧传奇、4D欢乐影院、摩托过山车......40多项引入世界一流科技，融入恐龙文化的高精尖游乐项目。时空密码、机械山谷、围捕猎龙岛、智龙国度、多多乐园五大园区精心为旅客朋友打造出一个神奇的恐龙乐园国度。走遍四海，让你我欢聚恐龙谷！", "sight_content": "恐龙时空乐园十大必玩项目介绍\n一、五大王牌项目\n1、恐龙危机\n基础信息：引进国际一流沉浸体验的高科技恐龙主题特种影视项目\n推荐理由：沉浸、极速、俯冲、追捕与逃生\n推荐指数：★★★★★\n刺激指数：★★★★★\n产品介绍：游客乘坐时空穿梭设备，重返恐龙世界，穿梭在龙爪利齿间， 身临其境感受恐龙危机，在机器人的帮助下成功解除危机，重返现实！\n温馨提示：身高1.4m以上的游客方可乘坐\n2、飞越侏罗纪\n基础信息：重返侏罗纪主题飞行影院\n推荐理由：爬升、俯冲、急转、鸟瞰、翱翔侏罗纪世界\n推荐指数：★★★★★\n刺激指数：★★★★★\n产品介绍：游客乘坐特殊飞行器翱翔彩云之南，在电闪雷鸣间穿越回到侏罗纪世界，体验飞行中爬升、俯冲、急转的刺激，翱翔恐龙世界，亲眼目睹恐龙灭绝，最终安全返回时空乐园。\n温馨提示：身高1.4m以上的游客（有恐高症不建议乘坐）方可乘坐\n3、4D欢乐影院\n基础信息：恐龙主题环境4D影院\n推荐理由：环境4D影院，近距离与恐龙明星互动\n推荐指数：★★★★★\n刺激指数：★★★\n欢乐指数：★★★★★\n产品介绍：恐龙快乐家族五只小恐龙欢聚一堂，一场狂欢party邀你嗨翻侏罗纪，萌翻你对“可爱”的定义。适合人群：老少皆宜\n4、神萧传奇\n基础信息：一部讲述韩湘子与龙女凄美爱情故事的魔幻剧场\n推荐理由：魔幻、奇幻、爱情、魔法刷新你的视觉新感受！\n推荐指数：★★★★★\n刺激指数：★★★★\n唯美指数：★★★★★\n产品介绍：古老而美丽的韩湘子与龙王之女的爱情故事通过高科技手段完美呈现，人物的突然出现与凭空消失、神族间的魔法之战，颠覆你对魔幻的概念，萌发你对美好爱情的向往！\n适合人群：老少皆宜\n\n\n5、多多脱口秀\n基础信息：恐龙主题脱口秀剧场\n推荐理由：搞怪、趣味、互动、整蛊、脱口秀\n推荐指数：★★★★★\n刺激指数：★★★\n童趣指数：★★★★★\n产品介绍：恐龙快乐家族主要成员乐多多的精彩脱口秀，强大气场让现场每位游客笑声不断，逢年过节还有特殊的节目祝福，一不小心你就会被恶搞哟！\n适合人群：老少皆宜！\n二、五大经典游乐项目\n1、翼龙飞翔\n基础信息：奇妙刺激的翼龙来回盘转、滑行，感受风的呼啸，放飞畅快心情。\n推荐理由：旋转、眩晕\n推荐指数：★★★★★\n刺激指数：★★★★\n尖叫指数：★★★★\n产品介绍：集娱乐性、趣味性、惊险刺激性为一体，乘坐旋转座椅的不断攀升，在极速飞旋中缓慢下降，使乘客座椅在离心力的作用下绕立柱飞旋，给乘客带来无穷乐趣。\n温馨提示：身高1.4m—1.9m的游客方可乘坐\n2、暴龙啸天\n基础信息：一座48米的\"惊险之塔\"\n推荐理由：极速、失重\n推荐指数：★★★★★\n刺激指数：★★★★\n尖叫指数：★★★★★\n产品介绍： 1.8秒弹射到48米高空，让你感受一次惊心动魄的历程，释放所有压力，体验前所未有的激情和欢乐。\n温馨提示：身高1.4m—1.9m的游客方可乘坐\n3、猎龙峡谷\n基础信息：侏罗纪时代的恐龙主题水道峡谷漂流项目\n推荐理由：峡谷、漂流、刺激、湿身\n推荐指数：★★★★★\n刺激指数：★★★\n欢乐指数：★★★★\n产品介绍：在整个漂流过程中，乘客不仅能经历惊涛骇浪，急流旋转等瞬息万变的惊险场面，亦能欣赏到恐龙世界中群山重叠的盛景，在人造烟雾缭绕，银河飞瀑化作烟雨清风，涓涓流水等大自然的无限风光，感受到回归大自然的无穷乐趣。\n温馨提示：身高1.4m—1.9m的游客方可乘坐\n\n\n4、围捕猎龙岛\n基础信息：恐龙主题的两级提升飞舟冲浪项目\n推荐理由：极速、失重、刺激、湿身\n推荐指数：★★★★★、\n刺激指数：★★★★\n欢乐指数：★★★★\n产品介绍：让游客体验滔天巨浪，惊心动魄，乘坐漂流船经历种种险情，从26米高空冲下，逃离恐龙口，以高达 80 km/h 速度冲入冲浪池，体验高空滑坠的尖叫和畅快。\n温馨提示：身高1.4m—1.9m的游客方可乘坐\n5、过山龙\n基础信息：西南首个摩托过山车项目\n推荐理由：极速、失重、刺激、眩晕\n推荐指数：★★★★★\n刺激指数：★★★★★\n欢乐指数：★★★★\n产品介绍：英勇的骑士驾驭摩托车像赛车手一样极速的飞驰于轨道之上。3秒提速狂飙，135公里/小时高空疾驰，全程疯狂心跳，让你感受不一样的过山车，给你带来不一样的心跳体验！\n温馨提示：身高1.4m—1.9m的游客方可乘坐"}}, {"title": "禄丰恐龙博物馆", "address": "楚雄州禄丰县金山镇金山南路95号", "image": "", "rank": 2, "time": 2.5, "location": {"lat": 25.147627659816667, "lng": 102.08280751279744}, "feature": {"sight_features": "", "sight_content": ""}}, {"title": "黒井古镇", "address": "楚雄彝族自治州禄丰县", "image": "", "rank": 3, "time": 3.0, "location": {"lat": 25.155830804806403, "lng": 102.0855313547639}, "feature": {"sight_features": "", "sight_content": ""}}, {"title": "禄丰恐龙化石遗址", "address": "禄丰县城4.5公里处", "image": "", "rank": 4, "time": 2.0, "location": {"lat": 25.155830804806403, "lng": 102.0855313547639}, "feature": {"sight_features": "", "sight_content": ""}}, {"title": "禄丰长龙温泉水乐园", "address": "楚雄市禄丰县侏罗纪大街恐龙环岛", "image": "", "rank": 5, "time": 2, "location": {"lat": 25.12533139455311, "lng": 102.07225907051945}, "feature": {"sight_features": "", "sight_content": ""}}, {"title": "广通温泉", "address": "楚雄市禄丰县广通镇平地村委会龙川江河畔广通温泉度假村", "image": "", "rank": 6, "time": 2, "location": {"lat": 25.217047287151953, "lng": 101.65139726194299}, "feature": {"sight_features": "", "sight_content": ""}}, {"title": "禄丰五台山", "address": "云南省楚雄彝族自治州禄丰县和平镇五台山", "image": "", "rank": 7, "time": 2.0, "location": {"lat": 25.32543044232414, "lng": 102.0971567862971}, "feature": {"sight_features": "", "sight_content": ""}}, {"title": "大龙祠", "address": "楚雄州禄丰县黑井古镇内", "image": "", "rank": 8, "time": 2, "location": {"lat": 25.37519754777876, "lng": 101.75227451830615}, "feature": {"sight_features": "", "sight_content": ""}}, {"title": "古盐坊", "address": "楚雄彝族自治州禄丰县001乡道与002乡道交叉口东北100米", "image": "", "rank": 9, "time": 2, "location": {"lat": 25.406290677576315, "lng": 101.77899609789571}, "feature": {"sight_features": "", "sight_content": ""}}, {"title": "武家大院", "address": "楚雄州禄丰县黑井古镇内", "image": "", "rank": 10, "time": 2, "location": {"lat": 25.37519754777876, "lng": 101.75227451830615}, "feature": {"sight_features": "", "sight_content": ""}}, {"title": "飞来寺", "address": "楚雄州禄丰县黑井古镇内", "image": "", "rank": 11, "time": null, "location": {"lat": 25.37519754777876, "lng": 101.75227451830615}, "feature": {"sight_features": "", "sight_content": ""}}, {"title": "凤凰温泉", "address": "大猪街附近", "image": "", "rank": 12, "time": 6.0, "location": {"lat": 25.388969286003253, "lng": 102.30435929556664}, "feature": {"sight_features": "", "sight_content": ""}}, {"title": "炼象关", "address": "云南省禄丰县金山镇腰站村委会境内", "image": "", "rank": 13, "time": 2, "location": {"lat": 25.143000277545593, "lng": 102.07273426874426}, "feature": {"sight_features": "", "sight_content": ""}}, {"title": "云南禄丰恐龙国家地质公园", "address": "云南省楚雄彝族自治州禄丰县 Z182县道", "image": "", "rank": 14, "time": 2, "location": {"lat": 25.155830804806403, "lng": 102.0855313547639}, "feature": {"sight_features": "", "sight_content": ""}}, {"title": "黑井文庙", "address": "云南省楚雄州禄丰县黑井镇", "image": "", "rank": 15, "time": 2, "location": {"lat": 25.377161771865804, "lng": 101.75240288975671}, "feature": {"sight_features": "", "sight_content": ""}}, {"title": "贞孝总坊", "address": "黑井古镇一街街尾靠五马桥头处", "image": "", "rank": 16, "time": 2, "location": {"lat": 25.382142616366764, "lng": 101.75388388383016}, "feature": {"sight_features": "", "sight_content": ""}}, {"title": "龙柱擎天", "address": "楚雄市禄丰县世界恐龙谷景区", "image": "", "rank": 17, "time": 0.75, "location": {"lat": 24.975650008682727, "lng": 102.07807136048925}, "feature": {"sight_features": "", "sight_content": ""}}, {"title": "侏罗纪城堡", "address": "楚雄市禄丰县世界恐龙谷景区内", "image": "", "rank": 18, "time": 0.75, "location": {"lat": 24.975650008682727, "lng": 102.07807136048925}, "feature": {"sight_features": "", "sight_content": ""}}, {"title": "一代霸主", "address": "楚雄市禄丰县世界恐龙谷景区内", "image": "", "rank": 19, "time": 0.75, "location": {"lat": 24.975650008682727, "lng": 102.07807136048925}, "feature": {"sight_features": "", "sight_content": ""}}, {"title": "广场恐龙雕塑", "address": "楚雄市禄丰县世界恐龙谷景区内", "image": "", "rank": 20, "time": 0.75, "location": {"lat": 24.975650008682727, "lng": 102.07807136048925}, "feature": {"sight_features": "", "sight_content": ""}}, {"title": "侏罗纪栈道", "address": "楚雄市禄丰县恐龙谷景区", "image": "", "rank": 21, "time": 0.75, "location": {"lat": 24.978267136189128, "lng": 102.0777644256661}, "feature": {"sight_features": "", "sight_content": ""}}, {"title": "恐龙大遗址", "address": "楚雄市禄丰县世界恐龙谷景区内", "image": "", "rank": 22, "time": 0.75, "location": {"lat": 24.975650008682727, "lng": 102.07807136048925}, "feature": {"sight_features": "", "sight_content": ""}}, {"title": "节孝总坊", "address": "楚雄州禄丰县黑井古镇内", "image": "", "rank": 23, "time": 2, "location": {"lat": 25.37519754777876, "lng": 101.75227451830615}, "feature": {"sight_features": "", "sight_content": ""}}, {"title": "恐龙大本营", "address": "楚雄市禄丰县世界恐龙谷景区内", "image": "", "rank": 24, "time": 0.75, "location": {"lat": 24.975650008682727, "lng": 102.07807136048925}, "feature": {"sight_features": "", "sight_content": ""}}, {"title": "黑牛盐井", "address": "楚雄州禄丰县黑井古镇内", "image": "", "rank": 25, "time": 2, "location": {"lat": 25.37519754777876, "lng": 101.75227451830615}, "feature": {"sight_features": "", "sight_content": ""}}, {"title": "甜梦天然温泉", "address": "大猪街", "image": "", "rank": 26, "time": 2, "location": {"lat": 25.388969286003253, "lng": 102.30435929556664}, "feature": {"sight_features": "", "sight_content": ""}}, {"title": "罗次温泉", "address": "禄屏线罗茨温泉村", "image": "", "rank": 27, "time": 2, "location": {"lat": 25.317125050448826, "lng": 102.30085433473917}, "feature": {"sight_features": "", "sight_content": ""}}, {"title": "鑫如意温泉", "address": "禄屏线温泉东村", "image": "", "rank": 28, "time": 2, "location": {"lat": 44.97485663870472, "lng": 81.03114554648644}, "feature": {"sight_features": "", "sight_content": ""}}, {"title": "华心森林温泉", "address": "大猪街334县", "image": "", "rank": 29, "time": 2, "location": {"lat": 25.388969286003253, "lng": 102.30435929556664}, "feature": {"sight_features": "", "sight_content": ""}}, {"title": "腊玛古猿化石产地", "address": "云南省开远市金山镇石灰坝村 651200", "image": "", "rank": 30, "time": 2.0, "location": {"lat": 23.71990779691196, "lng": 103.27355323708609}, "feature": {"sight_features": "", "sight_content": ""}}, {"title": "世界恐龙谷景区公园", "address": "恐龙山镇阿纳村内", "image": "", "rank": 31, "time": 2, "location": {"lat": 24.97248311865573, "lng": 102.08047258321835}, "feature": {"sight_features": "", "sight_content": ""}}, {"title": "董井公园", "address": "云南省楚雄彝族自治州禄丰县s320", "image": "", "rank": 32, "time": 2, "location": {"lat": 25.155830804806403, "lng": 102.0855313547639}, "feature": {"sight_features": "", "sight_content": ""}}, {"title": "鄂嘉梯田", "address": "云南省楚雄彝族自治州禄丰县五马桥", "image": "", "rank": 33, "time": 2, "location": {"lat": 25.378649997528058, "lng": 101.75347838063834}, "feature": {"sight_features": "", "sight_content": ""}}, {"title": "大雄宝殿", "address": "楚雄彝族自治州禄丰县龙川江畔黑井古镇香山寺内", "image": "", "rank": 34, "time": 2, "location": {"lat": 25.382142616366764, "lng": 101.75388388383016}, "feature": {"sight_features": "", "sight_content": ""}}, {"title": "黑井地下党小组活动遗址", "address": "楚雄彝族自治州禄丰县龙川江畔黑井古镇黑井文庙内", "image": "", "rank": 35, "time": 2, "location": {"lat": 25.382142616366764, "lng": 101.75388388383016}, "feature": {"sight_features": "", "sight_content": ""}}, {"title": "大西山基督教堂", "address": "云南省楚雄彝族自治州禄丰县", "image": "", "rank": 36, "time": 2, "location": {"lat": 25.155830804806403, "lng": 102.0855313547639}, "feature": {"sight_features": "", "sight_content": ""}}, {"title": "贝贝家儿童乐园", "address": "楚雄彝族自治州禄丰县", "image": "", "rank": 37, "time": 2, "location": {"lat": 25.155830804806403, "lng": 102.0855313547639}, "feature": {"sight_features": "", "sight_content": ""}}, {"title": "世纪广场", "address": "禄丰县其他世纪大街", "image": "", "rank": 38, "time": 2.5, "location": {"lat": 25.14888637047798, "lng": 102.07692131384353}, "feature": {"sight_features": "", "sight_content": ""}}, {"title": "水上人间", "address": "五台山必经之路", "image": "", "rank": 39, "time": 2, "location": {"lat": 25.25369487336792, "lng": 102.09483133204454}, "feature": {"sight_features": "", "sight_content": ""}}, {"title": "温泉度假村", "address": "石灰坝附近", "image": "", "rank": 40, "time": 2, "location": {"lat": 40.85616370298783, "lng": 110.34159729235337}, "feature": {"sight_features": "", "sight_content": ""}}, {"title": "恐龙生态山庄", "address": "057乡道附近", "image": "", "rank": 41, "time": 2, "location": {"lat": 31.41217211623208, "lng": 118.53052108236636}, "feature": {"sight_features": "", "sight_content": ""}}, {"title": "禄丰县科技馆", "address": "金山镇金源街恐龙文化艺术中心3楼", "image": "", "rank": 42, "time": 2, "location": {"lat": 25.148799933299152, "lng": 102.07727077804275}, "feature": {"sight_features": "", "sight_content": ""}}, {"title": "天然农家温泉", "address": "罗茨温泉村往仁兴方向", "image": "", "rank": 43, "time": 2, "location": {"lat": 40.06028797782102, "lng": 116.16340277358587}, "feature": {"sight_features": "", "sight_content": ""}}, {"title": "禄丰县图书馆", "address": "世纪大街与金源街交叉口东南150米", "image": "", "rank": 44, "time": 2, "location": {"lat": 25.14906709236214, "lng": 102.07828864981238}, "feature": {"sight_features": "", "sight_content": ""}}, {"title": "云河温泉", "address": "大猪街附近", "image": "", "rank": 45, "time": 2, "location": {"lat": 25.388969286003253, "lng": 102.30435929556664}, "feature": {"sight_features": "", "sight_content": ""}}, {"title": "汇源农家乐", "address": "世界恐龙谷附近", "image": "", "rank": 46, "time": null, "location": {"lat": 24.976358162932584, "lng": 102.08214079404138}, "feature": {"sight_features": "", "sight_content": ""}}, {"title": "温泉村农家乐", "address": "大猪街西200米", "image": "", "rank": 47, "time": 1.0, "location": {"lat": 25.388969286003253, "lng": 102.30256268454728}, "feature": {"sight_features": "", "sight_content": ""}}, {"title": "随缘天然温泉", "address": "334县道附近", "image": "", "rank": 48, "time": 2, "location": {"lat": 28.75482406244582, "lng": 107.5340260982277}, "feature": {"sight_features": "", "sight_content": ""}}, {"title": "小天鹅自然温泉", "address": "大猪街与334县道交叉口东北50米", "image": "", "rank": 49, "time": null, "location": {"lat": 39.96032749082214, "lng": 116.42441470912452}, "feature": {"sight_features": "", "sight_content": ""}}, {"title": "兰氏灵龙", "address": "楚雄彝族自治州-禄丰县-世界恐龙谷风景旅游区世界恐龙谷内", "image": "", "rank": 50, "time": 2, "location": {"lat": 24.976358162932584, "lng": 102.08214079404138}, "feature": {"sight_features": "", "sight_content": ""}}, {"title": "肿头龙", "address": "楚雄彝族自治州-禄丰县-世界恐龙谷风景旅游区世界恐龙谷内", "image": "", "rank": 51, "time": 2, "location": {"lat": 24.976358162932584, "lng": 102.08214079404138}, "feature": {"sight_features": "", "sight_content": ""}}, {"title": "米他么", "address": "楚雄彝族自治州-禄丰县", "image": "", "rank": 52, "time": 2, "location": {"lat": 25.155830804806403, "lng": 102.0855313547639}, "feature": {"sight_features": "", "sight_content": ""}}, {"title": "满天星星空主题KTV", "address": "楚雄彝族自治州-禄丰县-侏罗纪大街", "image": "", "rank": 53, "time": 2, "location": {"lat": 25.12533139455311, "lng": 102.07225907051945}, "feature": {"sight_features": "", "sight_content": ""}}, {"title": "老长箐", "address": "楚雄彝族自治州-禄丰县-恐龙山镇老长箐", "image": "", "rank": 54, "time": 2, "location": {"lat": 24.976142117033383, "lng": 102.08674674145747}, "feature": {"sight_features": "", "sight_content": ""}}, {"title": "恐龙遗址科考观光区", "address": "云南省禄丰县川街世界恐龙谷风景区", "image": "", "rank": 55, "time": 2, "location": {"lat": 24.978267136189128, "lng": 102.0777644256661}, "feature": {"sight_features": "", "sight_content": ""}}, {"title": "五马桥", "address": "黑井镇德政坊北端", "image": "", "rank": 56, "time": 2, "location": {"lat": 25.375452461756563, "lng": 101.75532179517135}, "feature": {"sight_features": "", "sight_content": ""}}]}