{"cityName": "陆丰", "days": 2, "cityImage": "", "spots": [{"title": "玄武山（元山寺）", "address": "汕尾市陆丰市碣石镇玄武山", "image": "", "rank": 1, "time": 1.5, "location": {"lat": 22.82345492674826, "lng": 115.84020166223783}, "feature": {"sight_features": "", "sight_content": ""}}, {"title": "清云山定光寺", "address": "汕尾市陆丰市河西镇清云山", "image": "", "rank": 2, "time": 1.0, "location": {"lat": 23.00949349560557, "lng": 115.56892690793066}, "feature": {"sight_features": "", "sight_content": ""}}, {"title": "张威纪念亭", "address": "汕尾市陆丰市龙山中学内", "image": "", "rank": 3, "time": 1.0, "location": {"lat": 22.950417558688642, "lng": 115.65618001198463}, "feature": {"sight_features": "", "sight_content": ""}}, {"title": "待渡山（甲秀楼）", "address": "汕尾市陆丰市甲子镇东隅嬴江岸边 ‎", "image": "", "rank": 4, "time": 1.0, "location": {"lat": 22.876286182256507, "lng": 116.08998744858323}, "feature": {"sight_features": "", "sight_content": ""}}, {"title": "福山妈祖", "address": "陆丰市城东镇霞湖附近", "image": "", "rank": 5, "time": 2, "location": {"lat": 22.95248898175495, "lng": 115.66723251684003}, "feature": {"sight_features": "", "sight_content": ""}}, {"title": "华山寺", "address": "陆丰市南塘镇", "image": "", "rank": 6, "time": 2, "location": {"lat": 22.915632655620698, "lng": 115.91943540615932}, "feature": {"sight_features": "", "sight_content": ""}}, {"title": "新光农场", "address": "深埔路", "image": "", "rank": 7, "time": 2, "location": {"lat": 22.913647479295637, "lng": 115.6376561376119}, "feature": {"sight_features": "", "sight_content": ""}}, {"title": "砂埔农场", "address": "338省道附近", "image": "", "rank": 8, "time": 2, "location": {"lat": 32.00468464714224, "lng": 119.86284990627314}, "feature": {"sight_features": "", "sight_content": ""}}, {"title": "桂林石", "address": "广东省陆丰市碣石湾 516500", "image": "", "rank": 9, "time": 2, "location": {"lat": 22.86713310713036, "lng": 115.67468313999161}, "feature": {"sight_features": "", "sight_content": ""}}, {"title": "博美天后宫", "address": "广东省陆丰市博美镇 516521", "image": "", "rank": 10, "time": 2, "location": {"lat": 22.95237051027648, "lng": 115.79038392755335}, "feature": {"sight_features": "", "sight_content": ""}}, {"title": "周恩来居址", "address": "广东省汕尾市城区金厢镇黄厝寮村 516551", "image": "", "rank": 11, "time": 2, "location": {"lat": 22.93930182679982, "lng": 115.34187479962738}, "feature": {"sight_features": "", "sight_content": ""}}, {"title": "湖东狮球王度假区", "address": "广东省陆丰市湖东镇 516700", "image": "", "rank": 12, "time": 2, "location": {"lat": 22.83951325308602, "lng": 115.96988803892381}, "feature": {"sight_features": "", "sight_content": ""}}, {"title": "擎天石", "address": "广东省陆丰市甲子镇北门内 516700", "image": "", "rank": 13, "time": 2, "location": {"lat": 22.876286182256507, "lng": 116.08998744858323}, "feature": {"sight_features": "", "sight_content": ""}}, {"title": "金厢滩滨海", "address": "广东省陆丰市金厢镇 516551", "image": "", "rank": 14, "time": 2, "location": {"lat": 22.87583824539219, "lng": 115.74511710200468}, "feature": {"sight_features": "", "sight_content": ""}}, {"title": "陆丰沙溪温泉景区", "address": "广东省陆丰市南塘镇 516534", "image": "", "rank": 15, "time": 2, "location": {"lat": 22.915632655620698, "lng": 115.91943540615932}, "feature": {"sight_features": "", "sight_content": ""}}, {"title": "潭涌七乡点农会", "address": "广东省陆丰市潭西镇潭东村 516500", "image": "", "rank": 16, "time": 2, "location": {"lat": 22.942602022973755, "lng": 115.5754334335509}, "feature": {"sight_features": "", "sight_content": ""}}, {"title": "南塘影剧院", "address": "广东省汕尾市陆丰市338省道南龙大酒店附近", "image": "", "rank": 17, "time": 2, "location": {"lat": 22.91444753352249, "lng": 115.91871537476787}, "feature": {"sight_features": "", "sight_content": ""}}, {"title": "北城影剧院", "address": "玄武路145号", "image": "", "rank": 18, "time": 2, "location": {"lat": 22.818954101708613, "lng": 115.83728418872215}, "feature": {"sight_features": "", "sight_content": ""}}, {"title": "东海影剧院", "address": "马街", "image": "", "rank": 19, "time": 2, "location": {"lat": 25.039802978014333, "lng": 102.64631258274835}, "feature": {"sight_features": "", "sight_content": ""}}, {"title": "飞霞风景名胜区", "address": "广东省清远市飞霞山 511510", "image": "", "rank": 20, "time": 4.0, "location": {"lat": 23.688230292088083, "lng": 113.06246832527266}, "feature": {"sight_features": "", "sight_content": ""}}, {"title": "福星塔", "address": "汕尾市陆丰市碣石镇北郊玄武山内", "image": "", "rank": 21, "time": 2, "location": {"lat": 22.82345492674826, "lng": 115.84020166223783}, "feature": {"sight_features": "", "sight_content": ""}}, {"title": "温氏家祠", "address": "广东省汕尾市陆丰市清平大街", "image": "", "rank": 22, "time": 2, "location": {"lat": 22.81581082034713, "lng": 115.84278173669558}, "feature": {"sight_features": "", "sight_content": ""}}, {"title": "瑛玲记念堂", "address": "龙峰一路与龙峰大道交叉口南100米", "image": "", "rank": 23, "time": 2, "location": {"lat": 22.926225107081613, "lng": 115.79319794322346}, "feature": {"sight_features": "", "sight_content": ""}}, {"title": "睿荣金峰度假山庄", "address": "谭西镇谭西路段324国道法留学校旁", "image": "", "rank": 24, "time": 2, "location": {"lat": 22.95558348246667, "lng": 115.57056560492617}, "feature": {"sight_features": "", "sight_content": ""}}, {"title": "慈云庵", "address": "马街137号附近", "image": "", "rank": 25, "time": 0.75, "location": {"lat": 22.94983819003929, "lng": 115.65473368711402}, "feature": {"sight_features": "", "sight_content": ""}}, {"title": "观音阁", "address": "汕尾市陆丰市", "image": "", "rank": 26, "time": 1.0, "location": {"lat": 22.967876723872532, "lng": 115.78802975191435}, "feature": {"sight_features": "", "sight_content": ""}}, {"title": "古园寺", "address": "广东省汕尾市陆丰市X139", "image": "", "rank": 27, "time": 2, "location": {"lat": 22.967876723872532, "lng": 115.78802975191435}, "feature": {"sight_features": "", "sight_content": ""}}, {"title": "翰田中山公园", "address": "广东省汕尾市陆丰市大安镇翰田村民委员会附近", "image": "", "rank": 28, "time": 2, "location": {"lat": 23.09427943681418, "lng": 115.57289621724898}, "feature": {"sight_features": "", "sight_content": ""}}, {"title": "三都古庙", "address": "马街145号附近", "image": "", "rank": 29, "time": 2, "location": {"lat": 22.949784446258985, "lng": 115.65455370801192}, "feature": {"sight_features": "", "sight_content": ""}}, {"title": "玉照公园-阿生票点", "address": "广东省汕尾市陆丰市城东大道133号附近", "image": "", "rank": 30, "time": 2, "location": {"lat": 22.952414521266377, "lng": 115.66910567696341}, "feature": {"sight_features": "", "sight_content": ""}}, {"title": "妈祖庙", "address": "广东省汕尾市陆丰市g324", "image": "", "rank": 31, "time": 1.0, "location": {"lat": 22.967876723872532, "lng": 115.78802975191435}, "feature": {"sight_features": "", "sight_content": ""}}, {"title": "开山大帝殿", "address": "广东省汕尾市陆丰市X133", "image": "", "rank": 32, "time": 2, "location": {"lat": 22.967876723872532, "lng": 115.78802975191435}, "feature": {"sight_features": "", "sight_content": ""}}, {"title": "麒麟山度假村", "address": "甲东镇甲东镇新乡村麒麟山水库东面", "image": "", "rank": 33, "time": 2, "location": {"lat": 22.826786980768375, "lng": 116.10854564810776}, "feature": {"sight_features": "", "sight_content": ""}}, {"title": "青塘文化广场永兴园", "address": "广东省汕尾市陆丰市西南镇", "image": "", "rank": 34, "time": 2, "location": {"lat": 23.069771408643714, "lng": 115.5901203567357}, "feature": {"sight_features": "", "sight_content": ""}}, {"title": "峰山禅寺", "address": "广东省汕尾市陆丰市", "image": "", "rank": 35, "time": 2, "location": {"lat": 22.967876723872532, "lng": 115.78802975191435}, "feature": {"sight_features": "", "sight_content": ""}}, {"title": "金峰山庄", "address": "潭西镇潭西路口斜对面灯光古峙旁或者", "image": "", "rank": 36, "time": 2, "location": {"lat": 22.943599458732677, "lng": 115.56722665095687}, "feature": {"sight_features": "", "sight_content": ""}}, {"title": "上英文化广场", "address": "英海路与538乡道交叉口东南150米", "image": "", "rank": 37, "time": 2, "location": {"lat": 23.494386671660774, "lng": 116.51093198121578}, "feature": {"sight_features": "", "sight_content": ""}}, {"title": "李氏祖祠", "address": "油槎街", "image": "", "rank": 38, "time": 1.0, "location": {"lat": 26.86167190166394, "lng": 115.02165941074554}, "feature": {"sight_features": "", "sight_content": ""}}, {"title": "智慧树乐园", "address": "东海镇南堤路32号女人世界商城里", "image": "", "rank": 39, "time": 2, "location": {"lat": 22.950127267082724, "lng": 115.65172587550475}, "feature": {"sight_features": "", "sight_content": ""}}, {"title": "方圆美术培训基地", "address": "广汕公路19附近", "image": "", "rank": 40, "time": 2, "location": {"lat": 23.250980772335307, "lng": 116.43610500080258}, "feature": {"sight_features": "", "sight_content": ""}}, {"title": "宋窑遗址博物馆", "address": "西南35公里处", "image": "", "rank": 41, "time": 2, "location": {"lat": 31.909199228140412, "lng": 121.30903625505988}, "feature": {"sight_features": "", "sight_content": ""}}, {"title": "两东农场", "address": "569乡道附近", "image": "", "rank": 42, "time": 2, "location": {"lat": 32.09329471967522, "lng": 119.03514941276843}, "feature": {"sight_features": "", "sight_content": ""}}, {"title": "咖啡水族馆", "address": "东海镇桥西路老乌坎路口(距离金福酒楼南边200米)", "image": "", "rank": 43, "time": 2, "location": {"lat": 37.8105503042743, "lng": 114.72563219098632}, "feature": {"sight_features": "", "sight_content": ""}}, {"title": "河图游泳池", "address": "东海镇河图新村河图岭路利民中学旁", "image": "", "rank": 44, "time": 2, "location": {"lat": 22.969398629687543, "lng": 115.64569936931498}, "feature": {"sight_features": "", "sight_content": ""}}, {"title": "天石画廊", "address": "北堤路与龙潭路交叉口东北100米", "image": "", "rank": 45, "time": 2, "location": {"lat": 22.95014278017851, "lng": 115.64978279487373}, "feature": {"sight_features": "", "sight_content": ""}}, {"title": "陂洋镇陂沟戏台", "address": "137县道南50米", "image": "", "rank": 46, "time": 2, "location": {"lat": 23.090035455627262, "lng": 115.86464030257797}, "feature": {"sight_features": "", "sight_content": ""}}, {"title": "大安农场", "address": "二四零省道", "image": "", "rank": 47, "time": 3.5, "location": {"lat": 39.44051349146481, "lng": 113.89354610260898}, "feature": {"sight_features": "", "sight_content": ""}}, {"title": "元山寺", "address": "广东省陆丰市碣石镇", "image": "", "rank": 48, "time": 1.5, "location": {"lat": 22.82706424186192, "lng": 115.87271487166876}, "feature": {"sight_features": "", "sight_content": ""}}, {"title": "甲秀书院", "address": "广东省陆丰市甲子镇北门内", "image": "", "rank": 49, "time": null, "location": {"lat": 22.876286182256507, "lng": 116.08998744858323}, "feature": {"sight_features": "", "sight_content": ""}}, {"title": "汕尾清修寺", "address": "广东省陆丰市城东镇大屯管区", "image": "", "rank": 50, "time": 4.5, "location": {"lat": 23.00589988373511, "lng": 115.67792094925204}, "feature": {"sight_features": "", "sight_content": ""}}, {"title": "莲峰古寺", "address": "广东省陆丰市仙公埔", "image": "", "rank": 51, "time": 2, "location": {"lat": 22.967876723872532, "lng": 115.78802975191435}, "feature": {"sight_features": "", "sight_content": ""}}, {"title": "海马洲", "address": "广东省陆丰市乌坎港虎头山", "image": "", "rank": 52, "time": 2, "location": {"lat": 22.927196574421927, "lng": 115.71504598550862}, "feature": {"sight_features": "", "sight_content": ""}}, {"title": "汕尾海马洲", "address": "广东省陆丰市东海经济开发试验区", "image": "", "rank": 53, "time": 2, "location": {"lat": 22.967876723872532, "lng": 115.78802975191435}, "feature": {"sight_features": "", "sight_content": ""}}, {"title": "丰田生态园", "address": "广东省陆丰市东海大道", "image": "", "rank": 54, "time": 2, "location": {"lat": 22.936242410831298, "lng": 115.65042195182015}, "feature": {"sight_features": "", "sight_content": ""}}, {"title": "田心洋", "address": "揭阳市-惠来县", "image": "", "rank": 55, "time": 2, "location": {"lat": 23.039645374524625, "lng": 116.30144448456024}, "feature": {"sight_features": "", "sight_content": ""}}, {"title": "八万角", "address": "汕尾市-陆丰市", "image": "", "rank": 56, "time": 2, "location": {"lat": 22.967876723872532, "lng": 115.78802975191435}, "feature": {"sight_features": "", "sight_content": ""}}, {"title": "碣石滴水农场", "address": "汕尾市-陆丰市-碣石镇", "image": "", "rank": 57, "time": 2, "location": {"lat": 22.82706424186192, "lng": 115.87271487166876}, "feature": {"sight_features": "", "sight_content": ""}}]}