{"cityName": "庐江", "days": 2, "cityImage": "", "spots": [{"title": "金孔雀温泉旅游度假村", "address": "合肥市庐江县汤池镇外经大道", "image": "", "rank": 1, "time": 1.5, "location": {"lat": 31.316253626940565, "lng": 117.1054249401394}, "feature": {"sight_features": "特色1 被誉为“人间瑶池”", "sight_content": "金孔雀温泉旅游度假村坐落于温泉汩汩的庐江古镇汤池，被誉为“人间瑶池”。它是由安徽省外经建设（集团）有限公司投资10亿元人民币而兴建的，占地5400多亩，风格清雅，设施齐全，建设标准为五星级。\n它以园林式露天温泉为主要特色，旅游度假村依托当地的天然温泉资源建设，泉水清澈，常年温馨。\n旅游度假村设有40多个露天泡池，有异国情调的木屋，空气清新，亲近自然，特别是激流冲击，浮流漂浴，浅滩嬉水等多种项目，具有休闲娱乐和保健祛病的双重功能。"}}, {"title": "冶父山国家森林公园", "address": "合肥市庐江县中部", "image": "", "rank": 2, "time": null, "location": {"lat": 31.261327637478026, "lng": 117.29357730191721}, "feature": {"sight_features": "", "sight_content": "冶父山，距庐江县城东约9公里，峰峦叠翠，庙宇辉煌，古迹遗存，佳传甚多，有“江北小九华”之称。据传春秋时，铸剑之父欧冶子曾在此山铸剑，山上存有铸剑池古迹，因此得名冶父山。"}}, {"title": "国轩.温泉宫", "address": "合肥市庐江县汤池镇和平路", "image": "", "rank": 3, "time": 2, "location": {"lat": 31.316253626940565, "lng": 117.1054249401394}, "feature": {"sight_features": "特色1 集影视拍摄、温泉养生、室内水上世界于一体 特色2 项目规划设计采用了中国古典哲学《易经》“天圆地方”的理念。 特色3 温泉宫壳体高度55米，直径138米，是亚洲目前较大的温泉洗浴中心。", "sight_content": "国轩.温泉宫，由安徽汤池影视文化产业有限公司开发，位于中国美丽村镇---庐江汤池，总占地面积84535平方米，总建筑面积35743平方米；整个项目由国际著名设计师“刘继东”亲 笔设计，项目规划设计采用了中国古典哲学《易经》“天圆地方”的理念，巨大的蒙娜丽宫（天体浴场）半球为“天”，方形雅典娜大酒店“地”。\n国轩.温泉宫壳体高度55米，直径138米。国轩.温泉宫为集体影视拍摄、温泉养生、室内水上世界于一体的综合文化休闲项目。\n整体项目即体现了地中海式风格，更有星球天体梦幻之魅；即有西方各类养生温泉池，也有大型室内温 泉冲浪池；即有高端商务类客房80间，也有水上儿童乐园，以及大型假山.木制演出舞台等，年接待游客可达50万人次。"}}, {"title": "庐江奇石馆", "address": "合肥市庐江县城长江东路东侧", "image": "", "rank": 4, "time": 1.0, "location": {"lat": 31.261327637478026, "lng": 117.29357730191721}, "feature": {"sight_features": "", "sight_content": ""}}, {"title": "金刚寺", "address": "合肥市庐江县城四牌楼西侧", "image": "", "rank": 5, "time": 1.5, "location": {"lat": 31.261327637478026, "lng": 117.29357730191721}, "feature": {"sight_features": "", "sight_content": ""}}, {"title": "十八罗汉景点", "address": "合肥市庐江县", "image": "", "rank": 6, "time": 2, "location": {"lat": 31.261327637478026, "lng": 117.29357730191721}, "feature": {"sight_features": "", "sight_content": ""}}, {"title": "汤池温泉", "address": "合肥市庐江县西部的汤池镇", "image": "", "rank": 7, "time": 2, "location": {"lat": 31.316253626940565, "lng": 117.1054249401394}, "feature": {"sight_features": "", "sight_content": ""}}, {"title": "金孔雀温泉养生中心", "address": "合肥市庐江县汤池镇迎宾路", "image": "", "rank": 8, "time": 2, "location": {"lat": 31.316253626940565, "lng": 117.1054249401394}, "feature": {"sight_features": "", "sight_content": ""}}, {"title": "天鸣花海", "address": "合肥市庐江县汤池镇新军二路与汤青路交叉口", "image": "", "rank": 9, "time": 2, "location": {"lat": 31.316253626940565, "lng": 117.1054249401394}, "feature": {"sight_features": "", "sight_content": ""}}, {"title": "白石山", "address": "合肥市庐江县白山镇境内", "image": "", "rank": 10, "time": 7.5, "location": {"lat": 31.472987995538503, "lng": 117.41610889893713}, "feature": {"sight_features": "", "sight_content": ""}}, {"title": "何瑊墓", "address": "合肥市庐江县白湖镇陶冲村何坟冈何氏太始祖陵园内", "image": "", "rank": 11, "time": 0.75, "location": {"lat": 31.251561311806068, "lng": 117.37355622082781}, "feature": {"sight_features": "", "sight_content": ""}}, {"title": "绣溪公园", "address": "合肥市庐江县越城中路", "image": "", "rank": 12, "time": 2, "location": {"lat": 31.25066823068418, "lng": 117.29056642079703}, "feature": {"sight_features": "", "sight_content": ""}}, {"title": "金孔雀相思林风景区", "address": "合肥市庐江县", "image": "", "rank": 13, "time": 2, "location": {"lat": 31.261327637478026, "lng": 117.29357730191721}, "feature": {"sight_features": "", "sight_content": ""}}, {"title": "岱鳌山", "address": "合肥市庐江县乐桥镇斗门路", "image": "", "rank": 14, "time": 12.0, "location": {"lat": 31.10130469611596, "lng": 117.19718340118541}, "feature": {"sight_features": "", "sight_content": ""}}, {"title": "新四军江北指挥部纪念馆", "address": "合肥市庐江县汤池镇东侧马槽河畔", "image": "", "rank": 15, "time": 1.5, "location": {"lat": 31.316253626940565, "lng": 117.1054249401394}, "feature": {"sight_features": "", "sight_content": ""}}, {"title": "周瑜墓", "address": "安徽省合肥庐江县城军二东路横街朝墓巷", "image": "", "rank": 16, "time": 2, "location": {"lat": 31.261327637478026, "lng": 117.29357730191721}, "feature": {"sight_features": "", "sight_content": ""}}, {"title": "龙天寺", "address": "合肥市庐江县乐桥镇斗门路岱鳌山龙王顶上", "image": "", "rank": 17, "time": 1.0, "location": {"lat": 31.10130469611596, "lng": 117.19718340118541}, "feature": {"sight_features": "", "sight_content": ""}}, {"title": "南溪漂流", "address": "新杭镇砖桥社区至千口村，离太极洞15公里", "image": "", "rank": 18, "time": 2, "location": {"lat": 31.12645040409878, "lng": 119.61510622967631}, "feature": {"sight_features": "", "sight_content": ""}}, {"title": "吴武壮公祠", "address": "安徽省合肥庐江县", "image": "", "rank": 19, "time": 2, "location": {"lat": 31.261327637478026, "lng": 117.29357730191721}, "feature": {"sight_features": "", "sight_content": ""}}, {"title": "肖家庄葡萄采摘园", "address": "施婆村河古镇旁台创园对面", "image": "", "rank": 20, "time": 2, "location": {"lat": 31.48871521576851, "lng": 117.28549770770275}, "feature": {"sight_features": "", "sight_content": ""}}, {"title": "周瑜史料陈列馆", "address": "军二中路", "image": "", "rank": 21, "time": 2, "location": {"lat": 31.254694841096082, "lng": 117.30023808725669}, "feature": {"sight_features": "", "sight_content": ""}}, {"title": "袁家山有机葡萄采摘园", "address": "环巢湖大道白石天河大桥南端路西", "image": "", "rank": 22, "time": 2, "location": {"lat": 31.53532741210512, "lng": 117.40855636751452}, "feature": {"sight_features": "", "sight_content": ""}}, {"title": "孔雀东南飞纪念馆", "address": "安徽省庐江县相思林景区内", "image": "", "rank": 23, "time": 2, "location": {"lat": 31.261327637478026, "lng": 117.29357730191721}, "feature": {"sight_features": "", "sight_content": ""}}, {"title": "安徽汤池影视文化产业有限公司", "address": "迎宾西路与x088东300米", "image": "", "rank": 24, "time": 2, "location": {"lat": 39.95715257348666, "lng": 119.5982505885787}, "feature": {"sight_features": "", "sight_content": ""}}, {"title": "安徽万梓生态农业有限公司", "address": "万山镇长岗村1#和2#房屋", "image": "", "rank": 25, "time": 2, "location": {"lat": 31.322368852811646, "lng": 117.20563733547539}, "feature": {"sight_features": "", "sight_content": ""}}, {"title": "冶父山", "address": "安徽省庐江县庐江县城东北2公里处 231511", "image": "", "rank": 26, "time": 3.0, "location": {"lat": 31.261327637478026, "lng": 117.29357730191721}, "feature": {"sight_features": "", "sight_content": ""}}, {"title": "黄陂湖湿地", "address": "安徽省庐江县城东南面 231501", "image": "", "rank": 27, "time": 2, "location": {"lat": 31.261327637478026, "lng": 117.29357730191721}, "feature": {"sight_features": "", "sight_content": ""}}, {"title": "白湖影剧院", "address": "好再来酒楼附近", "image": "", "rank": 28, "time": 2, "location": {"lat": 39.842731888330256, "lng": 109.85567757016335}, "feature": {"sight_features": "", "sight_content": ""}}, {"title": "黄山万安古镇", "address": "安徽省休宁县县城东 245400", "image": "", "rank": 29, "time": 2, "location": {"lat": 29.795459004962712, "lng": 118.20543014115599}, "feature": {"sight_features": "", "sight_content": ""}}, {"title": "庐江县实际禅寺", "address": "合肥市庐江县冶父山镇冶父山上", "image": "", "rank": 30, "time": 2, "location": {"lat": 31.34380162161985, "lng": 117.40953362240086}, "feature": {"sight_features": "", "sight_content": ""}}, {"title": "妞妞儿童乐园", "address": "安徽省合肥市庐江县X071", "image": "", "rank": 31, "time": 2, "location": {"lat": 31.261327637478026, "lng": 117.29357730191721}, "feature": {"sight_features": "", "sight_content": ""}}, {"title": "宝杰山庄", "address": "盛桥工业园集中区", "image": "", "rank": 32, "time": 2, "location": {"lat": 31.43271005176951, "lng": 117.47520886309981}, "feature": {"sight_features": "", "sight_content": ""}}, {"title": "庐江丁氏祠堂", "address": "安徽省合肥市庐江县G3(京台高速)", "image": "", "rank": 33, "time": 2, "location": {"lat": 31.261327637478026, "lng": 117.29357730191721}, "feature": {"sight_features": "", "sight_content": ""}}, {"title": "庐江丁氏祠堂", "address": "安徽省合肥市庐江县", "image": "", "rank": 34, "time": 2, "location": {"lat": 31.261327637478026, "lng": 117.29357730191721}, "feature": {"sight_features": "", "sight_content": ""}}, {"title": "四海休闲山庄", "address": "316省道(了得油厂西南)", "image": "", "rank": 35, "time": 2, "location": {"lat": 39.27101965917406, "lng": 117.82159346542433}, "feature": {"sight_features": "", "sight_content": ""}}, {"title": "陈家祠堂", "address": "合肥市庐江县", "image": "", "rank": 36, "time": 1.5, "location": {"lat": 31.261327637478026, "lng": 117.29357730191721}, "feature": {"sight_features": "", "sight_content": ""}}, {"title": "奥乐奥儿童乐园", "address": "安徽省合肥市庐江县街市路", "image": "", "rank": 37, "time": 2, "location": {"lat": 31.261327637478026, "lng": 117.29357730191721}, "feature": {"sight_features": "", "sight_content": ""}}, {"title": "莲花泊廉政文化主题公园", "address": "合肥市庐江县移湖路", "image": "", "rank": 38, "time": 2, "location": {"lat": 31.260312462191678, "lng": 117.28429255001362}, "feature": {"sight_features": "", "sight_content": ""}}, {"title": "九福民俗欢乐园", "address": "汤池镇汤果路2公里处", "image": "", "rank": 39, "time": 2, "location": {"lat": 30.911792259996297, "lng": 113.36041151018743}, "feature": {"sight_features": "", "sight_content": ""}}, {"title": "中锦生态山庄", "address": "合肥市庐江县万山镇", "image": "", "rank": 40, "time": 2, "location": {"lat": 31.299990129021552, "lng": 117.17984009787389}, "feature": {"sight_features": "", "sight_content": ""}}, {"title": "庐江鲁氏宗祠", "address": "合肥市庐江县G3京台高速附近", "image": "", "rank": 41, "time": 2, "location": {"lat": 31.261327637478026, "lng": 117.29357730191721}, "feature": {"sight_features": "", "sight_content": ""}}, {"title": "庐江县城镇建设档案馆", "address": "越城北路70号", "image": "", "rank": 42, "time": 2, "location": {"lat": 31.259383667850418, "lng": 117.29488299885735}, "feature": {"sight_features": "", "sight_content": ""}}, {"title": "虫虫少儿书画", "address": "文昌路", "image": "", "rank": 43, "time": 2, "location": {"lat": 32.40026860918857, "lng": 119.45024605841589}, "feature": {"sight_features": "", "sight_content": ""}}, {"title": "富华山庄", "address": "庐城镇文明南路", "image": "", "rank": 44, "time": 2, "location": {"lat": 31.245325996722155, "lng": 117.29757413262277}, "feature": {"sight_features": "", "sight_content": ""}}, {"title": "庐江水上乐园", "address": "庐江大剧院对面广电中心隔壁", "image": "", "rank": 45, "time": 2.5, "location": {"lat": 31.255338693508822, "lng": 117.32425139701374}, "feature": {"sight_features": "", "sight_content": ""}}, {"title": "根据地密室逃脱", "address": "塔山东路小刀电动车旁", "image": "", "rank": 46, "time": 2, "location": {"lat": 31.259163723783292, "lng": 117.29488320816252}, "feature": {"sight_features": "", "sight_content": ""}}, {"title": "欢乐谷", "address": "069县道与319省道交叉口东北100米", "image": "", "rank": 47, "time": 4.5, "location": {"lat": 42.85646580255288, "lng": 124.414086267546}, "feature": {"sight_features": "", "sight_content": ""}}, {"title": "集雅轩画廊", "address": "牌楼中路(林业局对面)", "image": "", "rank": 48, "time": 2, "location": {"lat": 28.44961465987375, "lng": 117.97200958667065}, "feature": {"sight_features": "", "sight_content": ""}}, {"title": "清水河鲜提子观光园", "address": "广巢路农友种苗西北400米", "image": "", "rank": 49, "time": null, "location": {"lat": 30.41320077516068, "lng": 114.88636745563312}, "feature": {"sight_features": "", "sight_content": ""}}, {"title": "庐江县图书馆", "address": "城关镇文吕路", "image": "", "rank": 50, "time": 2, "location": {"lat": 33.8523792245012, "lng": 113.47977737169182}, "feature": {"sight_features": "", "sight_content": ""}}, {"title": "中国稻米博物馆", "address": "台创园施湾村广巢路口", "image": "", "rank": 51, "time": 2, "location": {"lat": 22.754921222240327, "lng": 113.8557119750858}, "feature": {"sight_features": "", "sight_content": ""}}, {"title": "生态蓝莓釆摘园", "address": "环巢湖大道", "image": "", "rank": 52, "time": 2, "location": {"lat": 31.49255051094517, "lng": 117.45032264472617}, "feature": {"sight_features": "", "sight_content": ""}}, {"title": "庐江县郭河镇河广家庭农场", "address": "广寒村袁郢村民组", "image": "", "rank": 53, "time": null, "location": {"lat": 31.491367979747743, "lng": 117.21783683992825}, "feature": {"sight_features": "", "sight_content": ""}}, {"title": "庐江县三冲村叶文广茶叶种植家庭...", "address": "合肥市-庐江县-三冲村", "image": "", "rank": 54, "time": 2, "location": {"lat": 31.261327637478026, "lng": 117.29357730191721}, "feature": {"sight_features": "", "sight_content": ""}}, {"title": "胡碾", "address": "合肥市-庐江县", "image": "", "rank": 55, "time": 2, "location": {"lat": 31.261327637478026, "lng": 117.29357730191721}, "feature": {"sight_features": "", "sight_content": ""}}, {"title": "胡李凹", "address": "合肥市-庐江县", "image": "", "rank": 56, "time": 2, "location": {"lat": 31.261327637478026, "lng": 117.29357730191721}, "feature": {"sight_features": "", "sight_content": ""}}, {"title": "金孔雀温泉旅游度假村-相思林公...", "address": "滨河西路附近", "image": "", "rank": 57, "time": 2, "location": {"lat": 31.78845753730818, "lng": 119.70188674421337}, "feature": {"sight_features": "", "sight_content": ""}}]}