{"cityName": "陆良", "days": 2, "cityImage": "", "spots": [{"title": "陆良彩色沙林", "address": "曲靖市陆良县城东南面18公里处", "image": "", "rank": 1, "time": 2.5, "location": {"lat": 25.03563947043886, "lng": 103.67343249743186}, "feature": {"sight_features": "", "sight_content": ""}}, {"title": "爨龙颜碑", "address": "曲靖市陆良县东南约10公里处的马街镇薛官堡村", "image": "", "rank": 2, "time": 2.0, "location": {"lat": 24.92886945989595, "lng": 103.69447379124968}, "feature": {"sight_features": "", "sight_content": ""}}, {"title": "爨龙园温泉", "address": "曲靖市陆良县马街镇薛官堡新坝旁", "image": "", "rank": 3, "time": 2, "location": {"lat": 25.034888519973773, "lng": 103.7022406412966}, "feature": {"sight_features": "特色1 富含多种天然矿物质", "sight_content": "爨龙园温泉位于曲靖市陆良县薛官堡，建设投资规模近千万元，经营面积近2万多平方米，内设男女宾桑拿洗浴、露天温泉、大型室内游泳馆、园林餐厅、垂钓娱乐、足浴保健、按摩推拿、松骨理疗、餐饮美食、咖啡名茶、客房、棋牌、网吧、书吧、健身等应有尽有。\n各项休闲功能配置和服务设施较完善，并为宾客提供舒适、愉快、安全、周到的服务。是一家集洗浴、足道、保健、饮食、养生、休闲、度假等各项功能较完善的度假村。温泉基于“以人为本”的温泉文化理念，遵崇现代目标管理制度，推崇“人性化与制度化相结合”的管理方式，遵循：“服务以人为本，把服务做到极致，做到每一个细节”的宗旨，全方位细致入微的管理，缔造出优质、完善的星级服务。\n公司重视对人才的培育，将温泉视为“一个学习型的组织”，致力于创造一种严谨、和谐的组织气氛，使经营管理者与员工建立良好的人际关系，从而使员工都能够满意自己在公司的收获，因为只有员工满意了才能有良好的服务心态和状态服务好每一位光临爨龙园温泉的顾客，从而达到使顾客乘兴而来、满意而归的良好氛围。"}}, {"title": "终南山湖", "address": "云南省陆良县东南部", "image": "", "rank": 4, "time": 2, "location": {"lat": 25.03563947043886, "lng": 103.67343249743186}, "feature": {"sight_features": "", "sight_content": ""}}, {"title": "三岔河十里荷花", "address": "云南省陆良县三岔河镇", "image": "", "rank": 5, "time": 2, "location": {"lat": 25.043661615444414, "lng": 103.77514781534401}, "feature": {"sight_features": "", "sight_content": ""}}, {"title": "绿化枫叶林木种植基地", "address": "324国道附近", "image": "", "rank": 6, "time": 2, "location": {"lat": 23.154734358898722, "lng": 114.20469410313481}, "feature": {"sight_features": "", "sight_content": ""}}, {"title": "陆良县图书馆", "address": "春光东路161号", "image": "", "rank": 7, "time": 2, "location": {"lat": 25.07121221995249, "lng": 102.6967781600952}, "feature": {"sight_features": "", "sight_content": ""}}, {"title": "惊魂峡", "address": "云南省宜良县九乡彝族回族自治乡 652114", "image": "", "rank": 8, "time": 1.0, "location": {"lat": 24.925286989651802, "lng": 103.14755798426482}, "feature": {"sight_features": "", "sight_content": ""}}, {"title": "三脚洞景区", "address": "云南省宜良县九乡彝族回族自治乡 652114", "image": "", "rank": 9, "time": 2, "location": {"lat": 24.925286989651802, "lng": 103.14755798426482}, "feature": {"sight_features": "", "sight_content": ""}}, {"title": "雄师厅", "address": "云南省宜良县九乡彝族回族自治乡 652114", "image": "", "rank": 10, "time": 2, "location": {"lat": 24.925286989651802, "lng": 103.14755798426482}, "feature": {"sight_features": "", "sight_content": ""}}, {"title": "荫翠峡", "address": "云南省宜良县九乡彝族回族自治乡 652114", "image": "", "rank": 11, "time": 1.0, "location": {"lat": 24.925286989651802, "lng": 103.14755798426482}, "feature": {"sight_features": "", "sight_content": ""}}, {"title": "地下倒石林", "address": "云南省宜良县九乡九乡风景区 652100", "image": "", "rank": 12, "time": 2.0, "location": {"lat": 25.086136689023498, "lng": 103.3969926930543}, "feature": {"sight_features": "", "sight_content": ""}}, {"title": "陆良县滨江公园", "address": "云南省曲靖市陆良县春光路", "image": "", "rank": 13, "time": 2, "location": {"lat": 25.040215168375585, "lng": 103.6688016867159}, "feature": {"sight_features": "", "sight_content": ""}}, {"title": "同乐园艺公园", "address": "曲靖市陆良县", "image": "", "rank": 14, "time": 1.0, "location": {"lat": 25.03563947043886, "lng": 103.67343249743186}, "feature": {"sight_features": "", "sight_content": ""}}, {"title": "石佛寺", "address": "曲靖市陆良县古桥街18号", "image": "", "rank": 15, "time": 1.5, "location": {"lat": 25.027318138244272, "lng": 103.67041874263337}, "feature": {"sight_features": "", "sight_content": ""}}, {"title": "乖比兔儿童乐园", "address": "中枢镇中枢大厦2楼", "image": "", "rank": 16, "time": 2, "location": {"lat": 25.034126753547454, "lng": 103.66800175464256}, "feature": {"sight_features": "", "sight_content": ""}}, {"title": "陆良县革命烈士纪念碑", "address": "云南省曲靖市陆良县三岔河镇太平闫三线革命烈士纪念碑", "image": "", "rank": 17, "time": 2, "location": {"lat": 25.057430027991845, "lng": 103.78021497167319}, "feature": {"sight_features": "", "sight_content": ""}}, {"title": "无极雕塑", "address": "G324西朝冲东侧三百米", "image": "", "rank": 18, "time": 0.4, "location": {"lat": 24.990859783712907, "lng": 103.66137515072826}, "feature": {"sight_features": "", "sight_content": ""}}, {"title": "绿源康杏李生态园", "address": "小百户镇", "image": "", "rank": 19, "time": 2, "location": {"lat": 25.04752140841664, "lng": 103.57901316746256}, "feature": {"sight_features": "", "sight_content": ""}}, {"title": "金晖温泉spa客房", "address": "同乐大道", "image": "", "rank": 20, "time": 2, "location": {"lat": 22.592028204026533, "lng": 113.93078596083618}, "feature": {"sight_features": "", "sight_content": ""}}, {"title": "山野渔村农庄", "address": "板桥镇龙潭村机三厂旁", "image": "", "rank": 21, "time": 2, "location": {"lat": 24.72767134796829, "lng": 103.23955350451129}, "feature": {"sight_features": "", "sight_content": ""}}, {"title": "桃源垂钓园", "address": "华侨农场12队(马房寺庙附近)", "image": "", "rank": 22, "time": 3.5, "location": {"lat": 24.599652007597733, "lng": 109.57395522194383}, "feature": {"sight_features": "", "sight_content": ""}}, {"title": "旺水聚", "address": "三岔河白水塘旅游区", "image": "", "rank": 23, "time": 2, "location": {"lat": 23.247977518728398, "lng": 108.85397793363614}, "feature": {"sight_features": "", "sight_content": ""}}, {"title": "宝林根艺", "address": "中枢镇北门东小街79号", "image": "", "rank": 24, "time": null, "location": {"lat": 25.03830868751479, "lng": 103.6754156712344}, "feature": {"sight_features": "", "sight_content": ""}}, {"title": "欢乐谷", "address": "春光路南100米", "image": "", "rank": 25, "time": 4.5, "location": {"lat": 41.20331208665674, "lng": 123.21104245566957}, "feature": {"sight_features": "", "sight_content": ""}}, {"title": "寥廓山森林公园", "address": "云南省陆良县马街镇", "image": "", "rank": 26, "time": 2, "location": {"lat": 24.98844904620759, "lng": 103.6926015285335}, "feature": {"sight_features": "", "sight_content": ""}}]}