{"cityName": "轮台", "days": 2, "cityImage": "", "spots": [{"title": "塔里木胡杨林公园", "address": "巴音郭楞蒙古自治州轮台县轮南镇人民政府北侧", "image": "", "rank": 1, "time": 3.5, "location": {"lat": 41.25295935199719, "lng": 84.21564118444428}, "feature": {"sight_features": "", "sight_content": ""}}, {"title": "塔里木沙漠公路", "address": "沙漠公路北起314国道轮台县东，经轮南油田、塔里木河、肖塘和塔克拉玛干大沙漠，南至民丰县恰汗和315国道相", "image": "", "rank": 2, "time": 2, "location": {"lat": 41.65867779296685, "lng": 84.3265542269948}, "feature": {"sight_features": "", "sight_content": ""}}, {"title": "草湖水乡", "address": "地处天山南麓，塔里木盆地北缘，距轮台县城90公里", "image": "", "rank": 3, "time": 2, "location": {"lat": 43.80027135831345, "lng": 87.63840777756565}, "feature": {"sight_features": "", "sight_content": ""}}, {"title": "轮台博物馆", "address": "文化路", "image": "", "rank": 4, "time": 2.5, "location": {"lat": 39.74005789896059, "lng": 116.15120920962735}, "feature": {"sight_features": "", "sight_content": ""}}, {"title": "策大雅乡阿孜干农场", "address": "076乡道东50米", "image": "", "rank": 5, "time": 2, "location": {"lat": 35.37720857982394, "lng": 113.08436330673442}, "feature": {"sight_features": "", "sight_content": ""}}, {"title": "麦合奶提奶油馕", "address": "博斯坦路与青年西路交叉口东50米", "image": "", "rank": 6, "time": 2, "location": {"lat": 41.78190702851242, "lng": 84.25589636985586}, "feature": {"sight_features": "", "sight_content": ""}}, {"title": "亚西达西湖", "address": "新疆维吾尔自治区轮台县轮南镇东南62公里处", "image": "", "rank": 7, "time": 2, "location": {"lat": 41.25274258125554, "lng": 84.77353106658258}, "feature": {"sight_features": "", "sight_content": ""}}, {"title": "新新路步行街", "address": "新疆维吾尔自治区轮台县新新路步行街", "image": "", "rank": 8, "time": 2, "location": {"lat": 41.78715240642794, "lng": 84.25538438979316}, "feature": {"sight_features": "", "sight_content": ""}}, {"title": "欧吐拉艾来", "address": "巴音郭楞蒙古自治州-轮台县", "image": "", "rank": 9, "time": 2, "location": {"lat": 41.7838130005149, "lng": 84.25821215205379}, "feature": {"sight_features": "", "sight_content": ""}}, {"title": "赛代买里", "address": "巴音郭楞蒙古自治州-轮台县", "image": "", "rank": 10, "time": 2, "location": {"lat": 41.7838130005149, "lng": 84.25821215205379}, "feature": {"sight_features": "", "sight_content": ""}}, {"title": "轮台县沙漠公园", "address": "新疆维吾尔自治区巴音郭楞蒙古自治州轮台县", "image": "", "rank": 11, "time": 2, "location": {"lat": 41.7838130005149, "lng": 84.25821215205379}, "feature": {"sight_features": "", "sight_content": ""}}]}