{"cityName": "萝北", "days": 2, "cityImage": "", "spots": [{"title": "黄金古镇度假村", "address": "鹤岗市萝北县太平沟乡太平沟村", "image": "", "rank": 1, "time": 2, "location": {"lat": 48.1389679930699, "lng": 130.67325999960292}, "feature": {"sight_features": "", "sight_content": ""}}, {"title": "兴龙峡谷", "address": "鹤岗市萝北县太平沟乡太平沟村", "image": "", "rank": 2, "time": 2, "location": {"lat": 48.1389679930699, "lng": 130.67325999960292}, "feature": {"sight_features": "", "sight_content": ""}}, {"title": "凤凰山滑雪场", "address": "团结路1号", "image": "", "rank": 3, "time": 2, "location": {"lat": 37.98545200612485, "lng": 114.47886903731127}, "feature": {"sight_features": "", "sight_content": ""}}, {"title": "黑龙江三峡国家森林公园", "address": "黑龙江省萝北县太平沟乡兴东村 154232", "image": "", "rank": 4, "time": 2, "location": {"lat": 47.90246349535209, "lng": 130.90381021653687}, "feature": {"sight_features": "", "sight_content": ""}}, {"title": "太平沟乡", "address": "黑龙江省鹤岗市萝北县太平沟乡", "image": "", "rank": 5, "time": 2, "location": {"lat": 47.901314660172304, "lng": 130.90494158741143}, "feature": {"sight_features": "", "sight_content": ""}}, {"title": "繁荣大剧院", "address": "太平路附近", "image": "", "rank": 6, "time": 2, "location": {"lat": 39.62890289140698, "lng": 116.65892343684614}, "feature": {"sight_features": "", "sight_content": ""}}, {"title": "宝泉岭农场老年活动中心", "address": "宝泉大街33号附近", "image": "", "rank": 7, "time": 2, "location": {"lat": 47.4396971911423, "lng": 130.55189030104574}, "feature": {"sight_features": "", "sight_content": ""}}, {"title": "名山岛金沙滩浴场", "address": "名山岛内", "image": "", "rank": 8, "time": 2, "location": {"lat": 30.075913663381538, "lng": 103.11548579380317}, "feature": {"sight_features": "", "sight_content": ""}}, {"title": "望云峰滑雪狩猎场", "address": "黑龙江省萝北县太平沟乡石虎沟村 154232", "image": "", "rank": 9, "time": 2, "location": {"lat": 47.90593924025988, "lng": 130.80026963521797}, "feature": {"sight_features": "", "sight_content": ""}}, {"title": "兴安大峡谷地质公园", "address": "名山风景区附近", "image": "", "rank": 10, "time": 4.5, "location": {"lat": 47.68535346478529, "lng": 131.09986868188895}, "feature": {"sight_features": "", "sight_content": ""}}, {"title": "鹤岗小兴安岭林区", "address": "黑龙江省萝北县境内 154100", "image": "", "rank": 11, "time": 2.5, "location": {"lat": 47.58342219702872, "lng": 130.83549503650306}, "feature": {"sight_features": "", "sight_content": ""}}, {"title": "宝泉岭体育展览中心", "address": "黑龙江省萝北县宝泉大街", "image": "", "rank": 12, "time": 2, "location": {"lat": 47.439601958674466, "lng": 130.55407446125093}, "feature": {"sight_features": "", "sight_content": ""}}, {"title": "慈禧太后胭脂沟", "address": "黑龙江省萝北县太平沟乡 154232", "image": "", "rank": 13, "time": 2, "location": {"lat": 47.901314660172304, "lng": 130.90494158741143}, "feature": {"sight_features": "", "sight_content": ""}}, {"title": "白鹭园山庄", "address": "734村道附近", "image": "", "rank": 14, "time": 2, "location": {"lat": 47.48546666206121, "lng": 130.70139545098942}, "feature": {"sight_features": "", "sight_content": ""}}, {"title": "方舟基督教会", "address": "云杉街与尚志路交叉口北50米", "image": "", "rank": 15, "time": 2, "location": {"lat": 47.43073754359043, "lng": 130.55514961257344}, "feature": {"sight_features": "", "sight_content": ""}}, {"title": "鹤北公园", "address": "黑龙江省鹤岗市萝北县鹤北林业局西侧", "image": "", "rank": 16, "time": 2, "location": {"lat": 47.56152474539401, "lng": 130.46398152419619}, "feature": {"sight_features": "", "sight_content": ""}}, {"title": "烈士陵园", "address": "101省道附近", "image": "", "rank": 17, "time": 2, "location": {"lat": 41.03241923348195, "lng": 111.82384508727836}, "feature": {"sight_features": "", "sight_content": ""}}, {"title": "萝北县基督教恩惠教会", "address": "萝北县朝鲜族学校附近", "image": "", "rank": 18, "time": 2, "location": {"lat": 47.574375858095046, "lng": 130.83250129235708}, "feature": {"sight_features": "", "sight_content": ""}}, {"title": "梧桐河漂流", "address": "黑龙江省鹤岗市萝北县鹤北林业局C872南300米", "image": "", "rank": 19, "time": 2, "location": {"lat": 47.56152474539401, "lng": 130.46398152419619}, "feature": {"sight_features": "", "sight_content": ""}}, {"title": "承贤广场", "address": "军川大街与风华路交叉口西100米", "image": "", "rank": 20, "time": 2, "location": {"lat": 47.54100833252603, "lng": 131.26702412703358}, "feature": {"sight_features": "", "sight_content": ""}}, {"title": "凤翔广场", "address": "鹤岗市萝北县", "image": "", "rank": 21, "time": 0.75, "location": {"lat": 47.58342219702872, "lng": 130.83549503650306}, "feature": {"sight_features": "", "sight_content": ""}}, {"title": "萝北县档案馆", "address": "迎宾街4号", "image": "", "rank": 22, "time": 2, "location": {"lat": 40.08139311741428, "lng": 113.32442886610342}, "feature": {"sight_features": "", "sight_content": ""}}, {"title": "宝泉岭垦区工会图书馆", "address": "宝泉大街", "image": "", "rank": 23, "time": 2, "location": {"lat": 41.52270250576879, "lng": 127.47221926365346}, "feature": {"sight_features": "", "sight_content": ""}}, {"title": "大荒情纪念馆", "address": "哈萝公路", "image": "", "rank": 24, "time": null, "location": {"lat": 46.075427990665915, "lng": 126.78992353158914}, "feature": {"sight_features": "", "sight_content": ""}}, {"title": "大荒情展馆", "address": "共青路", "image": "", "rank": 25, "time": 2, "location": {"lat": 46.540713830133214, "lng": 124.88142193085886}, "feature": {"sight_features": "", "sight_content": ""}}, {"title": "鹤北天池山庄梧桐河龙溪湾漂流", "address": "鹤北西干线3公里处", "image": "", "rank": 26, "time": 2, "location": {"lat": 38.520150723983825, "lng": 108.47776009915079}, "feature": {"sight_features": "", "sight_content": ""}}, {"title": "欢乐qq农场", "address": "鹤嘉东线东50米", "image": "", "rank": 27, "time": 2, "location": {"lat": 47.7349129628212, "lng": 130.52177340102813}, "feature": {"sight_features": "", "sight_content": ""}}, {"title": "冰雪大世界", "address": "名山镇名山岛", "image": "", "rank": 28, "time": 2, "location": {"lat": 47.68881090838191, "lng": 131.12519028918072}, "feature": {"sight_features": "", "sight_content": ""}}, {"title": "宝泉之珠葡萄庄园", "address": "依兰路西50米", "image": "", "rank": 29, "time": 2, "location": {"lat": 46.331260289051535, "lng": 129.57451969721257}, "feature": {"sight_features": "", "sight_content": ""}}, {"title": "太平沟原始森林旅游区", "address": "黑龙江省萝北县太平沟乡", "image": "", "rank": 30, "time": 2, "location": {"lat": 47.901314660172304, "lng": 130.90494158741143}, "feature": {"sight_features": "", "sight_content": ""}}, {"title": "都鲁河下游湿地", "address": "黑龙江省萝北县共青农场", "image": "", "rank": 31, "time": 2, "location": {"lat": 47.59023497643687, "lng": 130.71817829969675}, "feature": {"sight_features": "", "sight_content": ""}}, {"title": "中俄黑龙江三峡", "address": "黑龙江省萝北县太平沟乡金满屯村 154232", "image": "", "rank": 32, "time": 2, "location": {"lat": 48.02068771455719, "lng": 130.7425863518442}, "feature": {"sight_features": "", "sight_content": ""}}, {"title": "红松母树林", "address": "黑龙江省鹤岗市萝北县", "image": "", "rank": 33, "time": null, "location": {"lat": 47.58342219702872, "lng": 130.83549503650306}, "feature": {"sight_features": "", "sight_content": ""}}]}