{"cityName": "洛川", "days": 2, "cityImage": "", "spots": [{"title": "洛川民俗博物馆", "address": "延安市洛川县县城内", "image": "", "rank": 1, "time": 2.0, "location": {"lat": 35.768300429420684, "lng": 109.43840396824812}, "feature": {"sight_features": "", "sight_content": ""}}, {"title": "洛川会议旧址", "address": "延安市洛川县", "image": "", "rank": 2, "time": 2.0, "location": {"lat": 35.768300429420684, "lng": 109.43840396824812}, "feature": {"sight_features": "", "sight_content": ""}}, {"title": "洛川黄土国家地质公园", "address": "延安市洛川县304国道谷咀村旁", "image": "", "rank": 3, "time": 2.0, "location": {"lat": 35.71994163918541, "lng": 109.44875124399367}, "feature": {"sight_features": "", "sight_content": "陕西洛川黄土国家地质公园位于陕西省延安市南部洛川县境内，总面积5.9平方公里，洛川县黑木沟黄土地质遗迹是地质历史时期内力和外力地质作用的综合产物，是240万年以来地球地壳结构、构造运动和地貌形态 演变的真实写照。各时期黄土地层出露齐全，层位稳定，真实记录了第四纪以来古气候、古环境、古地理、古植被以及重要地质事件等多方面信息，可作为一条标准黄土地层剖面与黄土高原上的黄土地层进行对比。"}}, {"title": "新安广场", "address": "中心大街与府前街交叉口东北100米", "image": "", "rank": 4, "time": 0.75, "location": {"lat": 35.767628426831266, "lng": 109.44661238216763}, "feature": {"sight_features": "", "sight_content": ""}}, {"title": "延安洛川谷咀村", "address": "陕西省洛川县凤栖镇谷咀村 727400", "image": "", "rank": 5, "time": 2.5, "location": {"lat": 35.71994186050165, "lng": 109.44874597992339}, "feature": {"sight_features": "", "sight_content": ""}}, {"title": "洛川展览中心", "address": "陕西省洛川县府前街", "image": "", "rank": 6, "time": 2.5, "location": {"lat": 35.76807949351736, "lng": 109.44179706129499}, "feature": {"sight_features": "", "sight_content": ""}}, {"title": "洛川苹果博览馆", "address": "陕西省洛川县近迎宾大道", "image": "", "rank": 7, "time": 2.0, "location": {"lat": 35.774636380193805, "lng": 109.43241837897403}, "feature": {"sight_features": "", "sight_content": ""}}, {"title": "基督教堂", "address": "老西街附近", "image": "", "rank": 8, "time": 2.0, "location": {"lat": 36.339064827178554, "lng": 113.23148688934464}, "feature": {"sight_features": "", "sight_content": ""}}, {"title": "基督教教堂", "address": "陕西省延安市洛川县朝阳路", "image": "", "rank": 9, "time": 2, "location": {"lat": 35.76565316289451, "lng": 109.44950327302763}, "feature": {"sight_features": "", "sight_content": ""}}, {"title": "陕西洛川黄土国家旅游度假村", "address": "陕西省延安市洛川县城东南5公里210国道和304国道交汇处", "image": "", "rank": 10, "time": 2, "location": {"lat": 35.790885732683286, "lng": 109.46275738994582}, "feature": {"sight_features": "", "sight_content": ""}}, {"title": "民俗广场", "address": "凤北巷与解放路交叉口西北50米", "image": "", "rank": 11, "time": 2, "location": {"lat": 35.77217494960091, "lng": 109.43843751097586}, "feature": {"sight_features": "", "sight_content": ""}}, {"title": "洛川南街休闲广场", "address": "曙光路与步行街交叉口东北100米", "image": "", "rank": 12, "time": 2.0, "location": {"lat": 35.769850941577864, "lng": 109.44296725423875}, "feature": {"sight_features": "", "sight_content": ""}}, {"title": "小玩子儿童主题乐园", "address": "派出所对面三楼", "image": "", "rank": 13, "time": 2, "location": {"lat": 30.881485535368633, "lng": 120.96093281251493}, "feature": {"sight_features": "", "sight_content": ""}}, {"title": "洛川县图书馆", "address": "老北街", "image": "", "rank": 14, "time": 2, "location": {"lat": 32.02878161091105, "lng": 120.8815399094919}, "feature": {"sight_features": "", "sight_content": ""}}, {"title": "新希望教育培训中心", "address": "解放路111附近", "image": "", "rank": 15, "time": 2, "location": {"lat": 32.03638944259558, "lng": 118.81700073458782}, "feature": {"sight_features": "", "sight_content": ""}}, {"title": "洛果园果业苹果休闲观光园", "address": "谷咀村", "image": "", "rank": 16, "time": 2, "location": {"lat": 35.71994163918541, "lng": 109.44875124399367}, "feature": {"sight_features": "", "sight_content": ""}}]}