{"cityName": "罗城", "days": 2, "cityImage": "", "spots": [{"title": "水上相思林", "address": "河池市罗城仫佬族自治县罗东村坝头屯", "image": "", "rank": 1, "time": 2, "location": {"lat": 24.907757545104054, "lng": 109.06477685931883}, "feature": {"sight_features": "特色1 尽情感受原始丛林的神秘", "sight_content": "水上相思林位于广西罗城仫佬族自治县小长安镇罗东村，景区内有几百亩的亚热带原始水源森林，林中一股股清沏 的泉水漫过森林，并在林中形成了大大小小几十个碧绿的清潭犹如一颗颗散落林中的珍珠。在这里，你可以尽情感受原始丛林的神秘，也可以在林中水潭或者 水中享受清凉和戏水的乐趣。\n因为林中还生长着上百颗红豆树，因而就叫做——水上相思林。这里是适合你心灵散步的地方，也 是你和朋友、家人一起休闲、度假、自驾、旅行的好地方。水上相思林就如上天遗落在仫佬山乡的一颗绿宝石！为了你，这森林已等了千年！\n景区除了有你没感受过的良好生态环境，还可以为你提供原生态的农家土生土养的农家美食，这里拥有同时接待几百人的 设施和能力。"}}, {"title": "罗城仫佬族自治县", "address": "中国广西壮族自治区河池罗城仫佬族自治县", "image": "", "rank": 2, "time": 2, "location": {"lat": 24.783084996429107, "lng": 108.91157445325456}, "feature": {"sight_features": "", "sight_content": ""}}, {"title": "天门山", "address": "广西壮族自治区河池市罗城仫佬族自治县怀群镇", "image": "", "rank": 3, "time": 3.0, "location": {"lat": 24.82231915503139, "lng": 108.60176478297302}, "feature": {"sight_features": "", "sight_content": ""}}, {"title": "罗城剑江风景区", "address": "广西壮族自治区河池市罗城县怀群镇栋见屯", "image": "", "rank": 4, "time": 2, "location": {"lat": 24.825828077091163, "lng": 108.58645460284933}, "feature": {"sight_features": "", "sight_content": ""}}, {"title": "天门山风景区", "address": "河池市罗城仫佬族自治县么佬族自治县怀群镇向西3.6公里", "image": "", "rank": 5, "time": 2, "location": {"lat": 24.82231915503139, "lng": 108.27837479948779}, "feature": {"sight_features": "", "sight_content": ""}}, {"title": "于成龙公园", "address": "广西壮族自治区河池市罗城仫佬族自治县东门镇204省道", "image": "", "rank": 6, "time": 2, "location": {"lat": 24.867283429741562, "lng": 109.02309791448432}, "feature": {"sight_features": "", "sight_content": ""}}, {"title": "罗城仫佬族博物馆", "address": "河池市罗城仫佬族自治县于成龙湖公园北侧", "image": "", "rank": 7, "time": 2, "location": {"lat": 24.778076820147298, "lng": 108.88486565116257}, "feature": {"sight_features": "", "sight_content": ""}}, {"title": "棉花天坑旅游度假区", "address": "罗城四把镇棉花村", "image": "", "rank": 8, "time": 2, "location": {"lat": 24.78643123550324, "lng": 108.79908820345072}, "feature": {"sight_features": "", "sight_content": ""}}, {"title": "罗城仫佬族自治县民族戏院", "address": "解放路41号附近", "image": "", "rank": 9, "time": 2, "location": {"lat": 39.62389516513562, "lng": 118.21109154810668}, "feature": {"sight_features": "", "sight_content": ""}}, {"title": "兼爱高山草甸", "address": "河池市罗城仫佬族自治县866县道北100米", "image": "", "rank": 10, "time": 2, "location": {"lat": 24.801292787495765, "lng": 108.6486434848096}, "feature": {"sight_features": "", "sight_content": ""}}, {"title": "生辉名牌烧卤(罗城分店)", "address": "天宝路15号", "image": "", "rank": 11, "time": 2, "location": {"lat": 22.646098425514023, "lng": 113.93552465894219}, "feature": {"sight_features": "", "sight_content": ""}}, {"title": "明代城墙", "address": "广西壮族自治区河池市罗城仫佬族自治县公园路2号", "image": "", "rank": 12, "time": 2, "location": {"lat": 24.786173739718404, "lng": 108.9037660224422}, "feature": {"sight_features": "", "sight_content": ""}}, {"title": "米椎林渡假村", "address": "河池市罗城仫佬族自治县", "image": "", "rank": 13, "time": 2, "location": {"lat": 24.783084996429107, "lng": 108.91157445325456}, "feature": {"sight_features": "", "sight_content": ""}}, {"title": "罗城图书馆", "address": "白马路2巷1号", "image": "", "rank": 14, "time": 1.5, "location": {"lat": 24.78831312106842, "lng": 108.91473990220958}, "feature": {"sight_features": "", "sight_content": ""}}, {"title": "鸟语花香", "address": "204省道", "image": "", "rank": 15, "time": 2, "location": {"lat": 38.05803661623474, "lng": 114.77437992974008}, "feature": {"sight_features": "", "sight_content": ""}}]}