{"cityName": "罗定", "days": 2, "cityImage": "", "spots": [{"title": "广东鹰飞跳伞基地", "address": "云浮市罗定市罗定机场", "image": "", "rank": 1, "time": 2, "location": {"lat": 22.713587325946957, "lng": 111.61333220756829}, "feature": {"sight_features": "特色1 体验30秒自由落体的惊险刺激", "sight_content": "【鹰飞介绍】\n重庆鹰飞航空体育俱乐部有限公司成立于2015年，是通过重庆市体育局批准成立的一家从事高空跳伞体验及培训于一体的体育俱乐部有限公司。\n我们的跳伞基地位于广东省云浮市罗定市罗定机场内。\n我们不是国内第一家从事跳伞相关活动的俱乐部，但是！\n我们是全部聘请外籍教练进行跳伞的公司。所有教练通过全球最严格跳伞协会APF（澳大利亚跳伞协会）认证。所有双人伞教练双人跳伞次数累计超过4000次。所有教练跳伞次数累计超过15000次。\n我们使用全球多功能机之王皮拉图斯PC-6飞机进行跳伞的公司。为了给客户更好的跳伞体验，我们对飞机进行了特殊改装，对飞行员进行了特别培训。飞机研发制造企业瑞士皮拉图斯集团是我们的合作伙伴，给予我们有关飞行最全面的保障。\n我们全部使用国际一线装备。所有装备已在美国和澳洲经过了USPA（美国跳伞协会）和APF（澳大利亚跳伞协会）严格的测试。\n为了拍出更好的视频，我们的空中摄像师拥有APF的Skydiving Videographer（跳伞摄像师）资格，摄像设备达到4K高清。\n我们提供的双人跳伞不仅仅是一次简短的体验。我们将带客户全方位了解跳伞。了解才知安全，安全才能放心感受飞翔。如果客户愿意，我们将培训客户简单的自由落体、自主开伞和驾伞，并为客户将来的跳伞提供超前的资讯。\n【双人跳伞】\n完成跳伞简单&安全的方式是双人跳伞\n技术的进步让跳伞变得越来越安全，安全到伤亡率比高尔夫球还要低。正因如此越来越多的人选择参与到跳伞运动中来。据全世界最大跳伞协会USPA（美国跳伞协会）统计，其本土注册会员就有3万4千名之多，跳伞基地也是数不胜数。2014年美国本土约有35万人完成了超过300万次的跳伞。\n接着您会穿上安全的跳伞装备登上全球多功能机之王皮拉图斯PC-6固定翼飞机起飞，和拥有丰富经验（注意！鹰飞的教练双人跳伞次数可都超过了1000次）双人伞教练一起从3000米的高空一跃而下，以接近200公里的时速自由落体30秒，在1500米高度开伞后操纵降落伞缓缓回到地球表面。当然！我们有能力满足您激烈驾驶的欲望！如果你愿意，我们会培训你简单的自由落体动作、自主开伞和驾伞技巧，满足你的控制欲！！！\n【跳伞流程】\n1、预约（请至少提前三天预约报名）\n我们的基地每天开放，当由于天气和空域管制等不确定因素，客户需要与我们确认跳伞日期。\n2、提供身份信息\n客户和陪同人员需要提供姓名、性别、身份证号码，以便我方提前办理进出基地所需手续。\n3、保险\n虽然双人跳伞是一项很安全的运动，但按照惯例我们会免费赠送客户保额为100万元意外保险和医疗保险。\n4、签署跳伞协议、观看告知视频\n客户在跳伞之前，须签署通用的“免责协议”并观看告知视频。\n5、培训\n在鹰飞，首先你将参加我们的地面学校培训，旨在让你了解跳伞运动并有一个更轻松快乐的跳伞体验。别担心无聊，时间会过的飞快，尤其是在你对跳伞心生恐惧一无所知的时候。\n6、跳伞\n穿上装备，登机起飞！\n当飞机到达3000米高度后，跳伞教练会让飞行员配合选择最佳的出舱位置带你一跃而出。\n出舱后你有30秒左右的时间感受速度200km每小时的自由落体"}}, {"title": "罗定龙湾生态旅游区", "address": "云浮市罗定市", "image": "", "rank": 2, "time": 1.0, "location": {"lat": 22.774296060762723, "lng": 111.57648048166133}, "feature": {"sight_features": "", "sight_content": ""}}, {"title": "八排山", "address": "云浮市罗定市船步镇八排山", "image": "", "rank": 3, "time": 2, "location": {"lat": 22.559939627053048, "lng": 111.66853009606899}, "feature": {"sight_features": "", "sight_content": ""}}, {"title": "花仙谷", "address": "云浮市罗定市罗平镇黄牛木花仙谷", "image": "", "rank": 4, "time": 2, "location": {"lat": 22.60242891652278, "lng": 111.55528152265029}, "feature": {"sight_features": "", "sight_content": ""}}, {"title": "罗定市博物馆", "address": "罗城街道文博街(市政广场东侧)", "image": "", "rank": 5, "time": 2.5, "location": {"lat": 28.7565848820396, "lng": 104.65025560840769}, "feature": {"sight_features": "", "sight_content": ""}}, {"title": "梁家庄园", "address": "黎少镇潭濮村", "image": "", "rank": 6, "time": 2, "location": {"lat": 22.745521732227402, "lng": 111.44018501173034}, "feature": {"sight_features": "", "sight_content": ""}}, {"title": "宝贝乐园", "address": "872乡道与369省道交叉口旁", "image": "", "rank": 7, "time": 2, "location": {"lat": 22.983169626885903, "lng": 113.33021232480795}, "feature": {"sight_features": "", "sight_content": ""}}, {"title": "三良车生态农庄", "address": "039乡道附近", "image": "", "rank": 8, "time": 2, "location": {"lat": 44.571176791533944, "lng": 127.23392927519276}, "feature": {"sight_features": "", "sight_content": ""}}, {"title": "中共罗定市罗平农场委员会", "address": "S369附近", "image": "", "rank": 9, "time": 2, "location": {"lat": 23.100931760317003, "lng": 113.27528273950196}, "feature": {"sight_features": "", "sight_content": ""}}, {"title": "烛光基金图书室", "address": "西门岗路北50米", "image": "", "rank": 10, "time": 2, "location": {"lat": 24.373102637114922, "lng": 114.49183619718518}, "feature": {"sight_features": "", "sight_content": ""}}, {"title": "罗平水上乐园", "address": "广东省云浮市罗定市S280", "image": "", "rank": 11, "time": 2.5, "location": {"lat": 22.774296060762723, "lng": 111.57648048166133}, "feature": {"sight_features": "", "sight_content": ""}}, {"title": "罗镜影剧院", "address": "广祥酒店附近", "image": "", "rank": 12, "time": 2, "location": {"lat": 22.5518016165258, "lng": 111.44976023251404}, "feature": {"sight_features": "", "sight_content": ""}}, {"title": "公园路购物店", "address": "江边路和花园路的交叉口附近", "image": "", "rank": 13, "time": 2, "location": {"lat": 40.451164766685075, "lng": 116.10819629996116}, "feature": {"sight_features": "", "sight_content": ""}}, {"title": "罗定市海惠生态农业观光示范园", "address": "324国道南50米", "image": "", "rank": 14, "time": 2, "location": {"lat": 23.15431900724867, "lng": 114.20469410313481}, "feature": {"sight_features": "", "sight_content": ""}}, {"title": "罗定开元寺", "address": "太平镇", "image": "", "rank": 15, "time": 1.5, "location": {"lat": 45.64015256119406, "lng": 126.2051753893417}, "feature": {"sight_features": "", "sight_content": ""}}, {"title": "黎氏宗祠", "address": "广东省云浮市罗定市围底镇渡头村委会东南450米", "image": "", "rank": 16, "time": 1.0, "location": {"lat": 22.749587456964264, "lng": 111.52975314430314}, "feature": {"sight_features": "", "sight_content": ""}}, {"title": "罗定孔庙", "address": "北角路9号附近", "image": "", "rank": 17, "time": 2.0, "location": {"lat": 32.14844754903971, "lng": 119.71459329900794}, "feature": {"sight_features": "", "sight_content": ""}}, {"title": "附城公园", "address": "广东省云浮市罗定市光明路", "image": "", "rank": 18, "time": 2, "location": {"lat": 22.780700113331534, "lng": 111.57784609288359}, "feature": {"sight_features": "", "sight_content": ""}}, {"title": "何明寰博物馆", "address": "广东省云浮市罗定市人民中路137号", "image": "", "rank": 19, "time": 2, "location": {"lat": 22.77173144258116, "lng": 111.57849368851195}, "feature": {"sight_features": "", "sight_content": ""}}, {"title": "竹园度假村", "address": "沿江二路41号", "image": "", "rank": 20, "time": 2, "location": {"lat": 23.528804641991957, "lng": 114.71000689276175}, "feature": {"sight_features": "", "sight_content": ""}}, {"title": "罗定市全民健身广场", "address": "龙华西路107号附近", "image": "", "rank": 21, "time": 2, "location": {"lat": 22.758952579384168, "lng": 111.58196839261326}, "feature": {"sight_features": "", "sight_content": ""}}, {"title": "罗城镇中心小学分教区", "address": "广东省云浮市罗定市其他农校路33号", "image": "", "rank": 22, "time": 2, "location": {"lat": 22.765687491533303, "lng": 111.58783888110212}, "feature": {"sight_features": "", "sight_content": ""}}, {"title": "欢乐岛亲子儿童乐园", "address": "同富商业中心三楼", "image": "", "rank": 23, "time": 2, "location": {"lat": 22.764496826463613, "lng": 111.58679377809926}, "feature": {"sight_features": "", "sight_content": ""}}, {"title": "二桥庄园", "address": "泷洲北路附近", "image": "", "rank": 24, "time": 2, "location": {"lat": 22.992581368809216, "lng": 113.21814546330418}, "feature": {"sight_features": "", "sight_content": ""}}, {"title": "张瑞公书院", "address": "罗镜镇元安村", "image": "", "rank": 25, "time": 2, "location": {"lat": 22.52802992644087, "lng": 111.42799594469322}, "feature": {"sight_features": "", "sight_content": ""}}, {"title": "塔脚村流动图书室", "address": "迎宾路9号", "image": "", "rank": 26, "time": null, "location": {"lat": 22.78866366183304, "lng": 111.58140912467076}, "feature": {"sight_features": "", "sight_content": ""}}, {"title": "唯美画廊", "address": "人民北路185号", "image": "", "rank": 27, "time": 2, "location": {"lat": 31.01863414165756, "lng": 121.23397856454666}, "feature": {"sight_features": "", "sight_content": ""}}, {"title": "城乡建设档案馆", "address": "龙华中路", "image": "", "rank": 28, "time": 2, "location": {"lat": 23.61106550972257, "lng": 113.08659659117785}, "feature": {"sight_features": "", "sight_content": ""}}, {"title": "罗定市三罗民众抗战展示馆", "address": "北角路与人民北路交叉口旁", "image": "", "rank": 29, "time": 2, "location": {"lat": 22.77853014447133, "lng": 111.5709501644012}, "feature": {"sight_features": "", "sight_content": ""}}, {"title": "龙湾自然生态村", "address": "龙湾镇南充村", "image": "", "rank": 30, "time": 2, "location": {"lat": 22.655762114098543, "lng": 111.16377564823158}, "feature": {"sight_features": "", "sight_content": ""}}, {"title": "伟民龟业", "address": "红岗横路与红岗西路交叉口东50米", "image": "", "rank": 31, "time": 2, "location": {"lat": 22.781241766148877, "lng": 111.58881030868028}, "feature": {"sight_features": "", "sight_content": ""}}, {"title": "顺昌画廊", "address": "罗城镇园前路91号", "image": "", "rank": 32, "time": 2.0, "location": {"lat": 22.775412535893658, "lng": 111.57875052214195}, "feature": {"sight_features": "", "sight_content": ""}}, {"title": "云浮市粤剧团", "address": "兴华路G324", "image": "", "rank": 33, "time": 1.5, "location": {"lat": 39.96943190081741, "lng": 116.4197261831763}, "feature": {"sight_features": "", "sight_content": ""}}, {"title": "天河城步行街", "address": "广东省罗定市人民南路", "image": "", "rank": 34, "time": 2, "location": {"lat": 22.760580096631088, "lng": 111.58954336999317}, "feature": {"sight_features": "", "sight_content": ""}}, {"title": "德保商业街", "address": "广东省罗定市祥发路附近", "image": "", "rank": 35, "time": 1.5, "location": {"lat": 22.779416223291005, "lng": 111.58724387856641}, "feature": {"sight_features": "", "sight_content": ""}}, {"title": "同富商业中心步行街", "address": "广东省罗定市同富商业中心步行街", "image": "", "rank": 36, "time": 2, "location": {"lat": 22.764496826463613, "lng": 111.58679377809926}, "feature": {"sight_features": "", "sight_content": ""}}, {"title": "船步镇南桥", "address": "云浮市-罗定市-船步镇沿江路11号", "image": "", "rank": 37, "time": 2, "location": {"lat": 22.726169185111242, "lng": 111.4726140994192}, "feature": {"sight_features": "", "sight_content": ""}}, {"title": "蔡廷锴将军故居", "address": "罗镜镇龙岩双轮角村", "image": "", "rank": 38, "time": 2, "location": {"lat": 25.081219844871676, "lng": 117.02344756677536}, "feature": {"sight_features": "", "sight_content": ""}}, {"title": "罗定风车山", "address": "云浮市罗定市", "image": "", "rank": 39, "time": 2, "location": {"lat": 22.774296060762723, "lng": 111.57648048166133}, "feature": {"sight_features": "", "sight_content": ""}}]}