{"cityName": "罗甸", "days": 2, "cityImage": "", "spots": [{"title": "大小井省级风景名胜区", "address": "黔南布依族苗族自治州罗甸县", "image": "", "rank": 1, "time": 2, "location": {"lat": 25.4308376829725, "lng": 106.75854805681841}, "feature": {"sight_features": "", "sight_content": ""}}, {"title": "红水河", "address": "黔南州罗甸县红水河镇", "image": "", "rank": 2, "time": 2, "location": {"lat": 25.166330918287564, "lng": 106.63239480553257}, "feature": {"sight_features": "", "sight_content": "红水河景区的四大核心景点:全球最长的漂浮栈道、全国最大的漂浮泳池和漂浮水上乐园、贵州唯一的热带植物园、夜光花海和水上灯光秀表演。"}}, {"title": "大浪河桥", "address": "贵州省大方县县城东南 551600", "image": "", "rank": 3, "time": 2, "location": {"lat": 27.147060750626153, "lng": 105.61845131242103}, "feature": {"sight_features": "", "sight_content": ""}}, {"title": "罗甸奇石馆", "address": "河滨南路41号附近", "image": "", "rank": 4, "time": 1.0, "location": {"lat": 25.063624239978214, "lng": 118.18581752679366}, "feature": {"sight_features": "", "sight_content": ""}}, {"title": "罗甸县革命历史纪念馆", "address": "贵州省黔南布依族苗族自治州罗甸县龙坪镇望月巷行政学院革命老区纪念馆", "image": "", "rank": 5, "time": 2, "location": {"lat": 25.428591895621167, "lng": 106.75900538864494}, "feature": {"sight_features": "", "sight_content": ""}}, {"title": "明珠中心广场", "address": "东环路与河滨北路交汇处北100米", "image": "", "rank": 6, "time": 2, "location": {"lat": 29.15692761449534, "lng": 107.10823888772809}, "feature": {"sight_features": "", "sight_content": ""}}, {"title": "罗甸·人民广场", "address": "人民街与和平路交叉口东50米", "image": "", "rank": 7, "time": 1.5, "location": {"lat": 41.128185462689274, "lng": 121.13640640229099}, "feature": {"sight_features": "", "sight_content": ""}}, {"title": "双拥广场", "address": "望月巷", "image": "", "rank": 8, "time": 2, "location": {"lat": 29.269167760430182, "lng": 103.64491574321346}, "feature": {"sight_features": "", "sight_content": ""}}, {"title": "寿乡广场", "address": "贵州省黔南布依族苗族自治州罗甸县河滨南路", "image": "", "rank": 9, "time": 2, "location": {"lat": 25.43662421170666, "lng": 106.75813415896161}, "feature": {"sight_features": "", "sight_content": ""}}, {"title": "罗甸县档案馆", "address": "文化路", "image": "", "rank": 10, "time": 2, "location": {"lat": 39.74005789896059, "lng": 116.15120920962735}, "feature": {"sight_features": "", "sight_content": ""}}, {"title": "鳄鱼漆(罗甸专卖店)", "address": "斛滨巷与罗斛东路交叉口东南50米", "image": "", "rank": 11, "time": 2, "location": {"lat": 25.438074007040097, "lng": 106.75615928280708}, "feature": {"sight_features": "", "sight_content": ""}}, {"title": "亿果科技种植园", "address": "下坝村边阳四小北120米路东", "image": "", "rank": 12, "time": 2, "location": {"lat": 25.63425723559026, "lng": 106.65421192449705}, "feature": {"sight_features": "", "sight_content": ""}}, {"title": "罗甸县利丰农资专业合作社", "address": "商业街与河滨北路交叉口东北50米", "image": "", "rank": 13, "time": null, "location": {"lat": 25.43591503216045, "lng": 106.75336173217863}, "feature": {"sight_features": "", "sight_content": ""}}, {"title": "博雅书吧", "address": "人民街与兴华路交叉口东100米", "image": "", "rank": 14, "time": 2, "location": {"lat": 25.4341295052137, "lng": 106.75853100518323}, "feature": {"sight_features": "", "sight_content": ""}}, {"title": "罗甸淘果汇葡萄庄园", "address": "S101边阳三小西北侧(边阳收费站出站往左一公里处)", "image": "", "rank": 15, "time": 2, "location": {"lat": 40.4680415103551, "lng": 115.99626363448392}, "feature": {"sight_features": "", "sight_content": ""}}, {"title": "罗甸玉都北殿现代高效农业休闲示...", "address": "101省道", "image": "", "rank": 16, "time": 2, "location": {"lat": 41.03241923348195, "lng": 111.82384508727836}, "feature": {"sight_features": "", "sight_content": ""}}]}