{"cityName": "漯河", "days": "", "cityImage": "", "spots": [{"title": "沙澧河风景区", "address": "漯河市嵩山路沙河桥游船码头", "image": "", "rank": 1, "time": 2.5, "location": {"lat": 33.58509308220206, "lng": 114.02171273865228}, "feature": {"sight_features": "", "sight_content": ""}}, {"title": "南街村", "address": "漯河市临颍县南街村前进路1号", "image": "", "rank": 2, "time": 3.5, "location": {"lat": 33.809117742746174, "lng": 113.95852412618127}, "feature": {"sight_features": "特色1 全国文明村、中国十大名村、第一雷锋村", "sight_content": "南街村景区位于河南省临颍县城东南隅，紧靠107国道、京广铁路、京珠高速公路，面积1.78平方公里，是一处特色人文旅游景区，现为全国农业旅游示范点，河南省红色旅游景点和河南省南部精品线路的重要景点。\n\n南街村旅游以发展模式、教育理念、发展方针、分配办法、生活方式及创建共产主义小社区伟大实践为特色。全面展示南街村独特的红色人文景观，通过近几年的不断发展、完善，南街村旅游已初具规模，并形成了独具特色的八大观光旅游景区：“工业园区、高新农业园区、村民住宅区、文化景区、文化教育游览区、广场文化展示区、热带珍奇植物游览区和革命传统教育区”。\n\n南街村现在每年接纳40多万游客。对于南街村两个文明建设取得的显著成绩，人们纷纷给予高度评价和赞扬。南街人正以豪迈的热情，与时俱进，开拓创新，在建设共产主义小社区的征程上奋进。日本《读卖新闻》5月13日至15日连载记者藤野彰写的文章：中国摸索建设和谐社会。文章如下：“东方红太阳升，中国出了个毛泽东……” 早上6点15分，南街村的广播站开始播放颂扬毛泽东的革命歌曲《东方红》，南街村新的一天便伴随这轻快旋律开始。"}}, {"title": "许慎文化园", "address": "漯河市龙江路与中山路交叉口向东800米路北", "image": "", "rank": 3, "time": 1.5, "location": {"lat": 33.611737173631376, "lng": 114.1045475666097}, "feature": {"sight_features": "", "sight_content": ""}}, {"title": "神州鸟园", "address": "漯河市源汇区金江路144附近", "image": "", "rank": 4, "time": 1.5, "location": {"lat": 33.55690617070923, "lng": 114.02667586641411}, "feature": {"sight_features": "特色1 全国最大鸟文化主题公园之一！ 特色2 中原儿童乐园之一，是全家亲子游玩的童话世界！", "sight_content": "【景点介绍】\n神州鸟园属于漯河市开源旅游景区内，是景区内的大型鸟文化主体公园，拥有以老漯河历史文化为背景的全国旅游特色产品博物馆小镇——河上街古镇等等。\n特色景点有：鸟王国、天鹅湖、仙鹤园、小浣熊、虎园、猴山、羊驼等\n景区内有可爱的各类动物表演如《孔雀东南飞》《鸟艺表演》《猕猴表演》《小狗表演》《仙鹤表演》，表演的惟妙惟肖，吸引游人。\n\n\n\n有各类游乐项目如海盗船、大摆锤、超级秋千、勇敢者转盘等，是全家欢乐的明智之选。\n\n\n景区还有可供游客学习鸟类知识的三大科普教育场馆—鸟蛋馆、鸟标本馆（2016年5月建成）、昆虫馆，馆藏上千件珍稀实物标本。"}}, {"title": "小商桥", "address": "漯河市临颍县商桥村", "image": "", "rank": 5, "time": 3.0, "location": {"lat": 33.72590197563446, "lng": 113.97269012020908}, "feature": {"sight_features": "", "sight_content": ""}}, {"title": "银沙滩游乐场", "address": "漯河市老大桥与铁路桥区间南岸", "image": "", "rank": 6, "time": 2, "location": {"lat": 33.5877107071022, "lng": 114.02342077764726}, "feature": {"sight_features": "", "sight_content": ""}}, {"title": "彼岸寺碑", "address": "漯河市郾城区107国道海河路496号河南省漯河市郾城实验中学内", "image": "", "rank": 7, "time": 0.35, "location": {"lat": 33.59218759024592, "lng": 113.99477170481443}, "feature": {"sight_features": "", "sight_content": ""}}, {"title": "金沙滩游乐场", "address": "漯河市郾城区黄河路黄河桥下", "image": "", "rank": 8, "time": 2, "location": {"lat": 33.58959107424545, "lng": 114.0518579878205}, "feature": {"sight_features": "", "sight_content": ""}}, {"title": "北舞渡镇", "address": "漯河市舞阳县北舞渡镇", "image": "", "rank": 9, "time": 7.5, "location": {"lat": 33.61737210494458, "lng": 113.69480194183424}, "feature": {"sight_features": "", "sight_content": ""}}, {"title": "漯河人民公园", "address": "漯河市源汇区交通路502号", "image": "", "rank": 10, "time": 2.5, "location": {"lat": 33.570162296704815, "lng": 114.04478490809942}, "feature": {"sight_features": "", "sight_content": ""}}, {"title": "漯河大学", "address": "中国河南省漯河市源汇区大学路123号", "image": "", "rank": 11, "time": 1.0, "location": {"lat": 33.57427942984179, "lng": 114.01653407925171}, "feature": {"sight_features": "", "sight_content": ""}}, {"title": "漯河职业技术学院", "address": "中国河南省漯河市源汇区大学路123号", "image": "", "rank": 12, "time": 2, "location": {"lat": 33.57427942984179, "lng": 114.01653407925171}, "feature": {"sight_features": "", "sight_content": ""}}, {"title": "许慎墓", "address": "河南省漯河市召陵区姬石乡许庄村东土岗", "image": "", "rank": 13, "time": 2, "location": {"lat": 33.62505942582296, "lng": 114.12025030085648}, "feature": {"sight_features": "", "sight_content": ""}}, {"title": "佳乐度假村", "address": "238省道附近", "image": "", "rank": 14, "time": 2, "location": {"lat": 32.02406130021086, "lng": 119.88529029655679}, "feature": {"sight_features": "", "sight_content": ""}}, {"title": "蛋蛋户外烧烤俱乐部", "address": "大学路丁湾农贸市场南口", "image": "", "rank": 15, "time": 2, "location": {"lat": 33.57179468577058, "lng": 114.0251703174585}, "feature": {"sight_features": "", "sight_content": ""}}, {"title": "杨再兴纪念园", "address": "河南省漯河市郾城区商桥镇商桥村", "image": "", "rank": 16, "time": 2, "location": {"lat": 33.72590197563446, "lng": 113.97269012020908}, "feature": {"sight_features": "", "sight_content": ""}}, {"title": "陈星聚纪念馆", "address": "050乡道", "image": "", "rank": 17, "time": 2, "location": {"lat": 29.530191510088745, "lng": 120.15491506164761}, "feature": {"sight_features": "", "sight_content": ""}}, {"title": "舞阳县博物馆", "address": "西大街", "image": "", "rank": 18, "time": 2, "location": {"lat": 39.91357131364959, "lng": 116.6700940616933}, "feature": {"sight_features": "", "sight_content": ""}}, {"title": "中原葡萄大观园", "address": "107国道", "image": "", "rank": 19, "time": 2, "location": {"lat": 23.102877208493197, "lng": 113.67228113407819}, "feature": {"sight_features": "", "sight_content": ""}}, {"title": "大浪淘沙时代温泉广场", "address": "颍青路", "image": "", "rank": 20, "time": 2, "location": {"lat": 33.815860505163656, "lng": 113.93528507402803}, "feature": {"sight_features": "", "sight_content": ""}}, {"title": "蓝精灵水上世界", "address": "马店村白马路桑葚园对面", "image": "", "rank": 21, "time": 2, "location": {"lat": 32.49953919046688, "lng": 119.50352770228196}, "feature": {"sight_features": "", "sight_content": ""}}, {"title": "澧水湾农庄垂钓园", "address": "大刘镇马皇线闫魏村东北角", "image": "", "rank": 22, "time": 2, "location": {"lat": 33.51780988513957, "lng": 113.78273315159397}, "feature": {"sight_features": "", "sight_content": ""}}, {"title": "天佑草莓园", "address": "汾河路001乡", "image": "", "rank": 23, "time": 2, "location": {"lat": 36.02153691502618, "lng": 120.17511319934391}, "feature": {"sight_features": "", "sight_content": ""}}, {"title": "迷城密室逃脱", "address": "交通路冠军台球三楼(钟楼广场美食街东头，沿美食街向西走，第一个叉口向南拐20米)", "image": "", "rank": 24, "time": 2, "location": {"lat": 45.61097240181576, "lng": 84.87186278173338}, "feature": {"sight_features": "", "sight_content": ""}}, {"title": "蓝海水上乐园", "address": "高铁西站向西2公里路南", "image": "", "rank": 25, "time": 2, "location": {"lat": 30.829516919391796, "lng": 103.86852994981517}, "feature": {"sight_features": "", "sight_content": ""}}, {"title": "白云水上乐园", "address": "长江路103号", "image": "", "rank": 26, "time": 2, "location": {"lat": 38.811803710545746, "lng": 121.27979242672515}, "feature": {"sight_features": "", "sight_content": ""}}, {"title": "双红温泉广场", "address": "238省道", "image": "", "rank": 27, "time": 2, "location": {"lat": 32.02406130021086, "lng": 119.88529029655679}, "feature": {"sight_features": "", "sight_content": ""}}, {"title": "卓雅少儿美术馆", "address": "辽河路", "image": "", "rank": 28, "time": 2, "location": {"lat": 34.203766824091176, "lng": 117.20132199887331}, "feature": {"sight_features": "", "sight_content": ""}}, {"title": "龙清温泉", "address": "解放路南段老年公寓斜对面卢庄新村向西500米", "image": "", "rank": 29, "time": 2, "location": {"lat": 33.645381465342055, "lng": 119.0074830861635}, "feature": {"sight_features": "", "sight_content": ""}}, {"title": "爱上温泉", "address": "嵩山路与长江路交叉口向南100米路东(双龙支行隔壁)", "image": "", "rank": 30, "time": 2, "location": {"lat": 42.239000590988816, "lng": 123.73097046141575}, "feature": {"sight_features": "", "sight_content": ""}}, {"title": "碧水温泉", "address": "辽河路中段艾美酒店向东100米平步青云隔壁(艾美酒店向东100米平步青云隔壁)", "image": "", "rank": 31, "time": 2, "location": {"lat": 33.59663034210404, "lng": 114.03610249968433}, "feature": {"sight_features": "", "sight_content": ""}}, {"title": "新京涛阁温泉", "address": "嫩江路与黄山路北段交叉口(会展中心漯河高中西邻)", "image": "", "rank": 32, "time": 2, "location": {"lat": 33.61196410364445, "lng": 114.0283310952259}, "feature": {"sight_features": "", "sight_content": ""}}, {"title": "利洋温泉池", "address": "241省道附近", "image": "", "rank": 33, "time": 2, "location": {"lat": 38.605845198015224, "lng": 114.37948707331753}, "feature": {"sight_features": "", "sight_content": ""}}, {"title": "好多收种植专业合作社", "address": "241省道附近", "image": "", "rank": 34, "time": 2, "location": {"lat": 38.605845198015224, "lng": 114.37948707331753}, "feature": {"sight_features": "", "sight_content": ""}}, {"title": "刘老根大舞台", "address": "泰山路南段611号", "image": "", "rank": 35, "time": 2, "location": {"lat": 33.56240160909132, "lng": 114.02925854535985}, "feature": {"sight_features": "", "sight_content": ""}}, {"title": "萨伦", "address": "海河路387号", "image": "", "rank": 36, "time": 2, "location": {"lat": 34.81020394408384, "lng": 117.27860139976325}, "feature": {"sight_features": "", "sight_content": ""}}, {"title": "烟雨温泉", "address": "220省道附近", "image": "", "rank": 37, "time": 2, "location": {"lat": 40.38775563397051, "lng": 115.90384459998963}, "feature": {"sight_features": "", "sight_content": ""}}, {"title": "富榕温泉(人民路店)", "address": "人民路与银鸽大道交叉口东200米路北", "image": "", "rank": 38, "time": 2, "location": {"lat": 33.57469249562, "lng": 114.05236500851814}, "feature": {"sight_features": "", "sight_content": ""}}, {"title": "韵豪温泉", "address": "南环路附近", "image": "", "rank": 39, "time": 2, "location": {"lat": 38.02445208545248, "lng": 114.78866638114692}, "feature": {"sight_features": "", "sight_content": ""}}, {"title": "桑葚采摘园", "address": "107国道", "image": "", "rank": 40, "time": 2, "location": {"lat": 23.102877208493197, "lng": 113.67228113407819}, "feature": {"sight_features": "", "sight_content": ""}}, {"title": "大王温泉池", "address": "大王村大王温泉池", "image": "", "rank": 41, "time": 2, "location": {"lat": 32.31831933701063, "lng": 118.40598503697387}, "feature": {"sight_features": "", "sight_content": ""}}, {"title": "鑫源温泉度假村", "address": "九龙山路与南堤二路交叉口西50米", "image": "", "rank": 42, "time": 2, "location": {"lat": 33.5803316128308, "lng": 113.97966449771394}, "feature": {"sight_features": "", "sight_content": ""}}, {"title": "香陈湾游乐园", "address": "郾襄路89号", "image": "", "rank": 43, "time": null, "location": {"lat": 33.59710163786328, "lng": 113.96349524287345}, "feature": {"sight_features": "", "sight_content": ""}}, {"title": "黄河广场", "address": "祁山路与黄河西路交叉口西北150米", "image": "", "rank": 44, "time": 2, "location": {"lat": 33.59012647293702, "lng": 114.01329666704125}, "feature": {"sight_features": "", "sight_content": ""}}, {"title": "红色亿元村", "address": "迎宾路颍松路口", "image": "", "rank": 45, "time": 2, "location": {"lat": 40.19033466276813, "lng": 117.30191343601585}, "feature": {"sight_features": "", "sight_content": ""}}, {"title": "漯河胡桥园林真人cs", "address": "大郭乡第二中学西200米", "image": "", "rank": 46, "time": 2, "location": {"lat": 33.78520125944328, "lng": 113.79804165907787}, "feature": {"sight_features": "", "sight_content": ""}}, {"title": "玄境真人密室逃脱俱乐部", "address": "东大街35号", "image": "", "rank": 47, "time": 2, "location": {"lat": 22.61729942596652, "lng": 114.14733751642652}, "feature": {"sight_features": "", "sight_content": ""}}, {"title": "盐都生态园", "address": "盐都路", "image": "", "rank": 48, "time": 2, "location": {"lat": 33.378513903177506, "lng": 119.02784534007361}, "feature": {"sight_features": "", "sight_content": ""}}, {"title": "富康农家院", "address": "330省道沟李村卫生所旁", "image": "", "rank": 49, "time": 2, "location": {"lat": 33.44808689527277, "lng": 113.70401172026169}, "feature": {"sight_features": "", "sight_content": ""}}, {"title": "花园温泉", "address": "人民路中段花园茶艺KTV后院", "image": "", "rank": 50, "time": 2, "location": {"lat": 33.443154693022315, "lng": 113.62326004930735}, "feature": {"sight_features": "", "sight_content": ""}}, {"title": "中农普源益生种植农民专业合作社", "address": "220省道附近", "image": "", "rank": 51, "time": 2, "location": {"lat": 40.38775563397051, "lng": 115.90384459998963}, "feature": {"sight_features": "", "sight_content": ""}}, {"title": "汇源温泉", "address": "城关镇西关北大街", "image": "", "rank": 52, "time": 2, "location": {"lat": 33.82107395748483, "lng": 113.95720798374471}, "feature": {"sight_features": "", "sight_content": ""}}, {"title": "春满园草莓采摘园", "address": "青岛路北段庙后村北500米", "image": "", "rank": 53, "time": 2, "location": {"lat": 41.12468174995691, "lng": 118.70988497998397}, "feature": {"sight_features": "", "sight_content": ""}}, {"title": "舞阳县天岚家庭农场", "address": "220省道魏集村西北侧430米", "image": "", "rank": 54, "time": 2, "location": {"lat": 33.64934155510127, "lng": 113.74754639451383}, "feature": {"sight_features": "", "sight_content": ""}}, {"title": "老兵农业园9527健康特训", "address": "固厢乡107国道巨陵路口亿通汽车城向北630米路东", "image": "", "rank": 55, "time": 2, "location": {"lat": 32.320577430303246, "lng": 121.21234700674756}, "feature": {"sight_features": "", "sight_content": ""}}, {"title": "贾湖遗址", "address": "河南舞阳县北舞渡镇贾湖村 462412", "image": "", "rank": 56, "time": 2, "location": {"lat": 33.61766073400851, "lng": 113.67269100689299}, "feature": {"sight_features": "", "sight_content": ""}}, {"title": "山陕会馆彩牌楼", "address": "河南舞阳县北舞渡镇 462412", "image": "", "rank": 57, "time": 2, "location": {"lat": 33.61737210494458, "lng": 113.69480194183424}, "feature": {"sight_features": "", "sight_content": ""}}, {"title": "大岗遗址", "address": "河南舞阳县侯集乡大岗村 462405", "image": "", "rank": 58, "time": 2, "location": {"lat": 33.660367662132956, "lng": 113.7105141091872}, "feature": {"sight_features": "", "sight_content": ""}}, {"title": "舞阳县万达农业生态园", "address": "河南省漯河市舞阳县X009(马皇线)", "image": "", "rank": 59, "time": 2, "location": {"lat": 33.51780988513957, "lng": 113.78273315159397}, "feature": {"sight_features": "", "sight_content": ""}}, {"title": "王岗寺院", "address": "北村学校附近", "image": "", "rank": 60, "time": 2, "location": {"lat": 39.98351984853068, "lng": 113.35391646131625}, "feature": {"sight_features": "", "sight_content": ""}}]}