{"cityName": "罗山", "days": 2, "cityImage": "", "spots": [{"title": "灵山", "address": "信阳市罗山县灵山镇", "image": "", "rank": 1, "time": 3.0, "location": {"lat": 31.953487511034243, "lng": 114.30881414943926}, "feature": {"sight_features": "", "sight_content": "位于罗山县境内，是我国著名的佛教胜地。山上共有七寺三庵，包括灵山寺、金顶寺、中佛寺、白佛寺、白云寺、龙牙寺、险石寺、圆通庵、福全庵、延寿庵。灵山寺是一座颇为奇特的寺院，院内既有僧又有尼，唐代的建宁公主就曾在灵山寺出家为尼，这一制度也是我国佛教界的一大奇观。到了宋、明两代，皇帝曾多次亲临灵山，足见灵山佛教文化的源远流长。"}}, {"title": "皇城大观园", "address": "信阳市罗山县岳山村", "image": "", "rank": 2, "time": 2, "location": {"lat": 32.03878486841744, "lng": 114.29243411260067}, "feature": {"sight_features": "", "sight_content": ""}}, {"title": "天丰草莓园", "address": "312国道与西环路口交界处(大别山车辆展厅西20米,八里棚刘台小学对面)", "image": "", "rank": 3, "time": 2, "location": {"lat": 32.19315160474766, "lng": 114.49650133718332}, "feature": {"sight_features": "", "sight_content": ""}}, {"title": "福临垂钓农家饭", "address": "江准中路江淮北路", "image": "", "rank": 4, "time": 2, "location": {"lat": 32.220188003006555, "lng": 114.54691206940225}, "feature": {"sight_features": "", "sight_content": ""}}, {"title": "灵山金鼎道观", "address": "信阳市罗山县金鼎风景区附近", "image": "", "rank": 5, "time": 0.4, "location": {"lat": 31.903750981025823, "lng": 114.20948095894317}, "feature": {"sight_features": "", "sight_content": ""}}, {"title": "益浓香庄园", "address": "灵山镇董桥村长栅(近董寨白云国家鸟类自然保护区)", "image": "", "rank": 6, "time": 2, "location": {"lat": 26.754429741950304, "lng": 106.57044023219161}, "feature": {"sight_features": "", "sight_content": ""}}, {"title": "罗山县农业科技观光园", "address": "219省道附近", "image": "", "rank": 7, "time": 2, "location": {"lat": 40.151047949015684, "lng": 115.89871895858025}, "feature": {"sight_features": "", "sight_content": ""}}, {"title": "鲁山忘忧谷景区", "address": "河南鲁山县团城乡", "image": "", "rank": 8, "time": 2, "location": {"lat": 33.64538184244743, "lng": 112.69190215344605}, "feature": {"sight_features": "", "sight_content": ""}}, {"title": "万祠堂", "address": "信阳市罗山县三三九省道", "image": "", "rank": 9, "time": 2, "location": {"lat": 31.983675123027417, "lng": 114.26367402357968}, "feature": {"sight_features": "", "sight_content": ""}}, {"title": "儿童乐园", "address": "河南省信阳市罗山县G312(龙山大道)", "image": "", "rank": 10, "time": 2, "location": {"lat": 32.19809260347657, "lng": 114.52863612734417}, "feature": {"sight_features": "", "sight_content": ""}}, {"title": "马祠堂", "address": "信阳市罗山县", "image": "", "rank": 11, "time": 2, "location": {"lat": 32.20915045183822, "lng": 114.51952993791492}, "feature": {"sight_features": "", "sight_content": ""}}, {"title": "世序广场", "address": "世序西路与天湖大道交叉口东100米", "image": "", "rank": 12, "time": 2, "location": {"lat": 32.20457882941391, "lng": 114.5199985901876}, "feature": {"sight_features": "", "sight_content": ""}}, {"title": "白鹭广场", "address": "001乡道附近", "image": "", "rank": 13, "time": 2, "location": {"lat": 42.370177806786245, "lng": 117.99555275285643}, "feature": {"sight_features": "", "sight_content": ""}}, {"title": "平安广场", "address": "宝城西路与龙山大道交叉口北100米", "image": "", "rank": 14, "time": 2, "location": {"lat": 32.20024317717485, "lng": 114.51629782391035}, "feature": {"sight_features": "", "sight_content": ""}}, {"title": "曾店基督教堂", "address": "030县道附近", "image": "", "rank": 15, "time": 2, "location": {"lat": 43.49713899926016, "lng": 126.75477976363129}, "feature": {"sight_features": "", "sight_content": ""}}, {"title": "九里村文化广场", "address": "036乡道九里村文化广场附近", "image": "", "rank": 16, "time": 2, "location": {"lat": 31.453913474862603, "lng": 121.11294946074646}, "feature": {"sight_features": "", "sight_content": ""}}, {"title": "砚兴斋画廊", "address": "行政东路297号附近", "image": "", "rank": 17, "time": 2, "location": {"lat": 32.21003674933874, "lng": 114.54051188922853}, "feature": {"sight_features": "", "sight_content": ""}}, {"title": "八里庙生态葡萄园", "address": "朱堂乡八里庙东侧", "image": "", "rank": 18, "time": 2, "location": {"lat": 31.980654457078284, "lng": 114.23303978719696}, "feature": {"sight_features": "", "sight_content": ""}}, {"title": "草莓园", "address": "河南信阳朱堂乡朱堂村", "image": "", "rank": 19, "time": 2, "location": {"lat": 31.991891237633848, "lng": 114.2397013037571}, "feature": {"sight_features": "", "sight_content": ""}}, {"title": "董寨鸟类保护区", "address": "河南省罗山县涩港镇", "image": "", "rank": 20, "time": 2, "location": {"lat": 31.974271063501654, "lng": 114.32161857461915}, "feature": {"sight_features": "", "sight_content": ""}}, {"title": "王府大街", "address": "河南省罗山县灵山大道", "image": "", "rank": 21, "time": 2, "location": {"lat": 32.20614463038883, "lng": 114.52457591399845}, "feature": {"sight_features": "", "sight_content": ""}}, {"title": "颐园商贸美食城", "address": "河南省罗山县宝城西路", "image": "", "rank": 22, "time": 2, "location": {"lat": 32.202963618176156, "lng": 114.52654613513448}, "feature": {"sight_features": "", "sight_content": ""}}]}