{"cityName": "罗田", "days": 2, "cityImage": "", "spots": [{"title": "薄刀峰", "address": "黄冈市罗田县大别山国家森林公园薄刀峰景区", "image": "", "rank": 1, "time": null, "location": {"lat": 31.16829699197385, "lng": 115.70090449100832}, "feature": {"sight_features": "特色1 大别山国家地质公园核心景区 特色2 天成薄刀峰，刀峰卧龙岗! 特色3 景内山峰奇秀、植被蓊郁、气候宜人。", "sight_content": "薄刀峰旅游度假区位于罗田县境内大别山主峰西侧，鄂、皖交界处，到武汉、合肥、郑州等大城市都在2—3小时之内，交通优势十分明显。\n\n薄刀峰是大别山森林公园、大别山地质公园的核心景区。海拔1404.2米，景区面积30平方公里，森林覆盖率高达98%，全年平均气温为16.4摄氏度，堪称人间天然“氧吧”。\n景内山峰奇秀、植被蓊郁、气候宜人，是游客感受原生风情，体验大自然古朴气息，享受神秘野趣的天赐胜地。主要由卧龙岗、圆梦谷、锡锅顶三大主题游览区组成，形成了红色旅游、民俗文化、生态观光、休闲度假等多个的主题功能区。\n全新开园的薄刀峰景区，大别山旅游开发的出色之作。建成有酒店、度假山庄、购物古街、许愿古塔、梦幻激光秀、观光缆车等完善旅游配套设施，是游客感受大别山文化，享受特色餐饮美食，养生养心的独尊之地。更有常年不断的精彩、刺激的互动体验活动，让您乐不思归！\n薄刀峰是您山水观光、猎奇探险、科研考察、度假休闲、酒店会议的好去处，更是武汉城市圈人群夏季避暑的第一选择！观大别奇松，叹天成薄刀，闯独尊三关，寻圆梦仙谷，醉氧森净土，享云端休闲，踏上“峰之旅”，体验天下无双薄刀峰！"}}, {"title": "天堂寨风景区", "address": "黄冈市罗田县天堂寨景区", "image": "", "rank": 2, "time": 2.5, "location": {"lat": 30.7889104956853, "lng": 115.40554716749966}, "feature": {"sight_features": "特色1 看优美的名诗佳联、神秘的遗址遗迹", "sight_content": "天堂寨海拔1729米，位于大别山湖北省罗田境内，与湖北英山县和安徽省金寨县接壤，北纬31度，东经115度。天堂寨古称“云山”、“多云山”，元朝后改名为“天堂寨”，旧时山顶筑有古寨。\n天堂寨山石泉水云松瀑雾巧夺天工，四季景象无穷变幻，宛若“天堂”，天堂寨是大别山脉皇冠上最璀璨的一颗明珠，“叠岗复涧，奇花异木，杂植其间”，如古人所云，“萧萧异人境，登视动神魄”。天堂寨常年降雨量1350mm,平均气温16.4℃。现有野生植物1487种，动物634种。\n景区内有野猪、穿山甲、金钱豹、不衰猫、原麝、大小鲵、豺狼、野猪、水獭、长尾雉、珍珠黄羊等珍稀动植物资源，是大别山脉最精华的景区。天堂寨属北亚热温暖湿润季节气候，具有典型的山地气候特征，气候温和，雨量充沛，温光同季，雨热同季。天堂寨空气清新，气候宜人；天堂寨素有“华山险,黄山秀”，山岳风光独特，尤其是罗田地区。游客可“一脚踏两省，两眼望(长)江淮(河)”。 天堂寨风景区为国家4a级风景区，国家地质公园；是纳凉避暑，观光旅游，会务活动的理想胜地。巍峨雄伟的老君峰，山峰下是茂密的丛林和潺潺流水的溪涧及清澈见底的水潭，“猴谷”果然名不虚传，有近30只猴子活动在这山谷之间。调皮可爱的猴子并不怕人，看见游客吃东西，它会上前乞讨。有三只淘气的小猴子，据说最小的才一个多月，还在吃妈妈奶哩。"}}, {"title": "罗田三里畈温泉", "address": "黄冈市罗田县三里畈镇桥头湾村", "image": "", "rank": 3, "time": 7.5, "location": {"lat": 30.80669111074682, "lng": 115.25977939919228}, "feature": {"sight_features": "特色1 极为罕见的硫酸钠型高温医疗用热矿泉水", "sight_content": "﻿‍‍罗田三里畈温泉，水质为极为罕见的硫酸钠型高温用热矿泉水，在历史上已颇负盛名。三里畈温泉度假村专为女性量身打造了美颜养生区，由4大美人汤——“沉鱼”、“落雁”、“闭月”、“羞花”，及“大乔”、“小乔”等各式养颜泡池组成。漫步林荫小道，在春花秋月中缓缓步入温泉中沐浴，不仅可使皮肤变得白皙柔滑、细腻弹润，还能由内而外改善体质，对美容养颜大有益处，是钟爱美丽的现代都市女士们不容错过的选择。‍‍\n大别山三里畈温泉，水质为极为罕见的硫酸钠型高温热矿泉水，在历史上已颇负盛名。独特的乡村“迪斯尼”项目；十里金沙滩游乐场；具有大别山特色的演艺广场；高端生态酒店形成完善的度假休闲业态集群。\n\n\n罗田三里畈温泉景区已致力把传统的单体旅游项目向集群方向发展，现成为一张罗田全新旅游名片，省内率先引领一种养生、低碳、乐活的新兴绿色生活方式！\n\n乡村“迪斯尼”项目；十里金沙滩游乐场；具有罗田特色的演艺广场；高端生态酒店形成度假休闲业态集群。泡温泉的目的便是想远离城市的喧嚣、人群的浮躁，温泉之水，触之温柔，体贴身心。在三里畈温泉度假村，除了露天池，还建有天寿阁、天阳阁、天荣阁、天昌阁、天显阁、天庆阁六大特色汤屋，旅客可根据自己的度假需求选择。汤屋格调典雅，干净卫生，且私密性佳，适合商务休闲之旅，与志同道合的朋友在此畅聊。\n‍\n‍‍\n‍‍‍‍"}}, {"title": "天堂湖景区", "address": "黄冈市罗田县", "image": "", "rank": 4, "time": 1.0, "location": {"lat": 30.7889104956853, "lng": 115.40554716749966}, "feature": {"sight_features": "", "sight_content": ""}}, {"title": "大别山峡谷漂流", "address": "黄冈市罗田县九资河镇圣仁堂村", "image": "", "rank": 5, "time": 2, "location": {"lat": 31.112172825484485, "lng": 115.72584253891496}, "feature": {"sight_features": "特色1 全程即可感受澎湃刺激而安全的漂流，又能在自然生态的环境中享受一流水质的无穷魅力！ 特色2 飘过一山又一山，赏尽一景又一景！ 特色3 人在水中漂，如在画中游。与浪共舞，一漂难忘！", "sight_content": "罗田雨润大别山天堂峡谷漂流全程3.8公里，全程即可感受澎湃刺激而安全的漂流，又能在自然生态的环境中享受一流水质的无穷魅力；飘过一山又一山，赏尽一景又一景；人在水中漂，如在画中游。与浪共舞，一漂难忘！\n悠久的历史，给天堂寨留下了许多人文魂宝。丰富的历史资源，优美的名诗佳联，众多的古今英才，传奇的风云故事，神秘的遗址遗迹……这一切，无疑使这片古老而青春的土地更增光彩，更显风流，构成了天堂寨神奇多姿的人文景观。"}}, {"title": "红花尖滑雪度假村", "address": "黄冈市罗田县九资河镇马岔河村", "image": "", "rank": 6, "time": 2, "location": {"lat": 31.052620921043964, "lng": 115.70358301705592}, "feature": {"sight_features": "", "sight_content": ""}}, {"title": "黄石河漂流", "address": "黄冈市罗田县九资河镇黄石河村", "image": "", "rank": 7, "time": 2, "location": {"lat": 31.06211884295154, "lng": 115.6838392231335}, "feature": {"sight_features": "", "sight_content": "黄石河漂流乐园位于大别山罗田天堂寨风景区脚下，漂流河道全长约6800米，由森林河道、游乐水面、玻璃隧道及高空滑槽等组成。黄石河漂流河道峡幽谷深，蜿蜒曲折，漂流时而浪击轻舟、时而穿越湖底，同时还可以欣赏山花烂漫的丛林风光，享受负氧离子高的“森林氧吧”，是乐而忘返的好地方。"}}, {"title": "老塔山", "address": "黄冈市罗田县城东南2.5公里处", "image": "", "rank": 8, "time": 1.0, "location": {"lat": 30.7889104956853, "lng": 115.40554716749966}, "feature": {"sight_features": "", "sight_content": ""}}, {"title": "青苔关风景区", "address": "黄冈市罗田县北部", "image": "", "rank": 9, "time": 1.0, "location": {"lat": 30.7889104956853, "lng": 115.40554716749966}, "feature": {"sight_features": "", "sight_content": ""}}, {"title": "薄刀峰山水间农家乐", "address": "薄刀峰风景区西门售票处", "image": "", "rank": 10, "time": 2, "location": {"lat": 31.11116411171099, "lng": 115.5717708766937}, "feature": {"sight_features": "", "sight_content": ""}}, {"title": "天堂飞漂", "address": "黄冈市罗田县天堂寨风景区内", "image": "", "rank": 11, "time": 2, "location": {"lat": 31.108320666163984, "lng": 115.76409197071608}, "feature": {"sight_features": "", "sight_content": ""}}, {"title": "罗田县薄刀峰风景区东篱下农家乐", "address": "307县道罗田竹林居西北方150米", "image": "", "rank": 12, "time": 2, "location": {"lat": 31.11432716480246, "lng": 115.5621911670742}, "feature": {"sight_features": "", "sight_content": ""}}, {"title": "大别山薄刀峰风景区", "address": "黄冈市罗田县薄刀峰林场", "image": "", "rank": 13, "time": 1.0, "location": {"lat": 31.12441981913462, "lng": 115.55308614993363}, "feature": {"sight_features": "", "sight_content": ""}}, {"title": "大别山薄刀峰景区", "address": "湖北省罗田县大别山 438600", "image": "", "rank": 14, "time": 1.5, "location": {"lat": 31.10830332702623, "lng": 115.78256851786912}, "feature": {"sight_features": "", "sight_content": ""}}, {"title": "燕儿谷谷金农家乐民宿", "address": "骆驼坳镇罗田县张老三农家乐西南50米", "image": "", "rank": 15, "time": 2, "location": {"lat": 30.71280526393914, "lng": 115.39234934289627}, "feature": {"sight_features": "", "sight_content": ""}}, {"title": "天堂人间度假村", "address": "湖北省黄冈市罗田县大别山国家森林公园天堂寨旅游风景区内", "image": "", "rank": 16, "time": 2, "location": {"lat": 31.16829699197385, "lng": 115.70090449100832}, "feature": {"sight_features": "", "sight_content": ""}}, {"title": "罗田县博物馆", "address": "凤山镇胜利街51号", "image": "", "rank": 17, "time": 2, "location": {"lat": 30.78891623496544, "lng": 115.4060391694275}, "feature": {"sight_features": "", "sight_content": ""}}, {"title": "桃源农家乐", "address": "白莲河尤家咀村(近318国道)", "image": "", "rank": 18, "time": 2, "location": {"lat": 34.88449305696197, "lng": 108.87984146485752}, "feature": {"sight_features": "", "sight_content": ""}}, {"title": "燕儿谷景区", "address": "骆驼坳镇燕塆村(318国道)", "image": "", "rank": 19, "time": 1.0, "location": {"lat": 30.730800714048975, "lng": 115.38945195818576}, "feature": {"sight_features": "", "sight_content": "燕儿谷的园区规划面积1.2万亩，涉及罗田2个乡镇的5个村。目前是中国最大的茶梅基地，及茶梅、梅花、玉兰、桃花、樱花、海棠、石榴、油茶等多个特色种植观光园。"}}, {"title": "九资河", "address": "黄冈市罗田县九资河", "image": "", "rank": 20, "time": 2, "location": {"lat": 30.7889104956853, "lng": 115.40554716749966}, "feature": {"sight_features": "", "sight_content": ""}}, {"title": "薄刀峰云梦农家乐", "address": "薄刀峰景区内(大别山度假酒店往独尊山方向1公里左右)", "image": "", "rank": 21, "time": 2, "location": {"lat": 31.11816946137802, "lng": 115.57596726596829}, "feature": {"sight_features": "", "sight_content": ""}}, {"title": "古宅惊魂", "address": "千金街内", "image": "", "rank": 22, "time": 2, "location": {"lat": 41.86471010636363, "lng": 123.90121646198841}, "feature": {"sight_features": "", "sight_content": ""}}, {"title": "十里荷塘", "address": "白莲河乡十里荷塘(G318国道张八塘小学)", "image": "", "rank": 23, "time": 2, "location": {"lat": 27.862155809140553, "lng": 113.18045222006695}, "feature": {"sight_features": "", "sight_content": ""}}, {"title": "三里畈镇温泉山庄", "address": "三里畈镇熊家墩", "image": "", "rank": 24, "time": 2, "location": {"lat": 30.828540907789908, "lng": 115.26793714868106}, "feature": {"sight_features": "", "sight_content": ""}}, {"title": "胜利烈士陵园", "address": "湖北省罗田县胜利镇滕家堡 438627", "image": "", "rank": 25, "time": 2.0, "location": {"lat": 31.179075823180103, "lng": 115.4914301014593}, "feature": {"sight_features": "", "sight_content": ""}}, {"title": "段家祠堂", "address": "黄冈市罗田县", "image": "", "rank": 26, "time": 2, "location": {"lat": 30.7889104956853, "lng": 115.40554716749966}, "feature": {"sight_features": "", "sight_content": ""}}, {"title": "云架山慈云寺", "address": "湖北省英山县大河岸云架山村", "image": "", "rank": 27, "time": 2, "location": {"lat": 30.953302125272693, "lng": 115.9839403138877}, "feature": {"sight_features": "", "sight_content": ""}}, {"title": "白云山庄公园", "address": "湖北黄冈市罗田县天堂寨白云山庄国家森林公园老寺庙", "image": "", "rank": 28, "time": 2, "location": {"lat": 31.081551843183934, "lng": 115.76758780386243}, "feature": {"sight_features": "", "sight_content": ""}}, {"title": "罗田县胜利烈士陵园", "address": "湖北省黄冈市罗田县胜利镇胜利革命烈士陵园", "image": "", "rank": 29, "time": null, "location": {"lat": 30.742812108699283, "lng": 115.68214477460259}, "feature": {"sight_features": "", "sight_content": ""}}, {"title": "罗田县天堂寨白云度假村", "address": "207县道黄冈藏龙大别山度假酒店向东北方向80米", "image": "", "rank": 30, "time": 2, "location": {"lat": 31.111946824260265, "lng": 115.57578350230504}, "feature": {"sight_features": "", "sight_content": ""}}, {"title": "大坝小卖部", "address": "白莲河水库管理处大坝", "image": "", "rank": 31, "time": 2, "location": {"lat": 39.298191477801495, "lng": 115.25132951715847}, "feature": {"sight_features": "", "sight_content": ""}}, {"title": "大别山天然奇石馆", "address": "湖北省罗田县圣人堂村", "image": "", "rank": 32, "time": 2, "location": {"lat": 31.11269029088903, "lng": 115.72538063112006}, "feature": {"sight_features": "", "sight_content": ""}}, {"title": "笔架山生态游居园", "address": "湖北省黄冈市罗田县", "image": "", "rank": 33, "time": 2, "location": {"lat": 30.7889104956853, "lng": 115.40554716749966}, "feature": {"sight_features": "", "sight_content": ""}}, {"title": "罗田县中台禅寺", "address": "湖北省黄冈市罗田县011乡道", "image": "", "rank": 34, "time": 2, "location": {"lat": 30.88972131656587, "lng": 115.4426900342346}, "feature": {"sight_features": "", "sight_content": ""}}, {"title": "拔云尖公园", "address": "湖北省黄冈市罗田县义水南路", "image": "", "rank": 35, "time": 2, "location": {"lat": 30.78335032765758, "lng": 115.39548474982116}, "feature": {"sight_features": "", "sight_content": ""}}, {"title": "祖庭公园", "address": "湖北省黄冈市罗田县三里畈镇黄泥坳村雷家湾", "image": "", "rank": 36, "time": 2, "location": {"lat": 30.948422865545314, "lng": 115.30735428601797}, "feature": {"sight_features": "", "sight_content": ""}}, {"title": "上祠堂", "address": "黄冈市罗田县一零六县道", "image": "", "rank": 37, "time": 2, "location": {"lat": 30.999591782027867, "lng": 115.61066143812033}, "feature": {"sight_features": "", "sight_content": ""}}, {"title": "嘻唻乐儿童游乐园", "address": "凤山镇商贸广场名豪3层", "image": "", "rank": 38, "time": 2, "location": {"lat": 30.77567878672457, "lng": 115.38890128612846}, "feature": {"sight_features": "", "sight_content": ""}}, {"title": "余天锡纪念馆", "address": "湖北省黄冈市罗田县X309附近", "image": "", "rank": 39, "time": 2, "location": {"lat": 30.7889104956853, "lng": 115.40554716749966}, "feature": {"sight_features": "", "sight_content": ""}}, {"title": "观景步道", "address": "黄冈市罗田县薄刀峰风景区内", "image": "", "rank": 40, "time": 2, "location": {"lat": 31.11116411171099, "lng": 115.5717708766937}, "feature": {"sight_features": "", "sight_content": ""}}, {"title": "罗田县凤山镇阳光城儿童欢乐谷", "address": "义水南路阳光城3栋1层43号", "image": "", "rank": 41, "time": 2, "location": {"lat": 30.784365187407957, "lng": 115.4035942064057}, "feature": {"sight_features": "", "sight_content": ""}}, {"title": "人民会场", "address": "凤山广场旁", "image": "", "rank": 42, "time": 2, "location": {"lat": 24.547828585688645, "lng": 107.05519144290565}, "feature": {"sight_features": "", "sight_content": ""}}, {"title": "塔山森林公园", "address": "湖北省黄冈市武穴市", "image": "", "rank": 43, "time": 2, "location": {"lat": 29.850441430483002, "lng": 115.56739216105213}, "feature": {"sight_features": "", "sight_content": ""}}, {"title": "塔山河公园", "address": "湖北省黄冈市罗田县凤城大道", "image": "", "rank": 44, "time": null, "location": {"lat": 30.776520481566603, "lng": 115.41025891554364}, "feature": {"sight_features": "", "sight_content": ""}}, {"title": "龙凤谷漂流", "address": "黄冈市罗田县白庙河镇白庙河村五组", "image": "", "rank": 45, "time": 2, "location": {"lat": 31.0037560974956, "lng": 115.61535497930822}, "feature": {"sight_features": "", "sight_content": "龙凤谷漂流因其峡谷上游巨大的凤翔崖和峡谷下游龙儿河而得名。这条峡谷蕴藏着许多令人陶醉的传说，河道之中有鸳鸯滩、二龙戏水、金龟下水、通官 峡、晒龙石、官船石、接龙桥等景点12处。"}}, {"title": "罗田宝利来天然温泉", "address": "三里畈镇", "image": "", "rank": 46, "time": 2, "location": {"lat": 30.879670996930656, "lng": 115.31296499533492}, "feature": {"sight_features": "", "sight_content": ""}}, {"title": "温泉驿站", "address": "罗田三里畈史家坳", "image": "", "rank": 47, "time": 2, "location": {"lat": 30.816318310906187, "lng": 115.25863526698967}, "feature": {"sight_features": "", "sight_content": ""}}, {"title": "仙人河漂流", "address": "三里畈镇七道河錾子石村(武汉黄州黄石薄刀锋麻城龟山)", "image": "", "rank": 48, "time": 2, "location": {"lat": 30.5609584876577, "lng": 114.28105252789092}, "feature": {"sight_features": "", "sight_content": ""}}, {"title": "王家小苑农家乐", "address": "东门大桥与环城南路交叉口东100米", "image": "", "rank": 49, "time": 2, "location": {"lat": 29.255972081155907, "lng": 117.87205485503202}, "feature": {"sight_features": "", "sight_content": ""}}, {"title": "天堂峡谷漂流", "address": "圣仁堂村", "image": "", "rank": 50, "time": 2, "location": {"lat": 31.112172825484485, "lng": 115.72584253891496}, "feature": {"sight_features": "", "sight_content": ""}}, {"title": "薄刀峰美奇农家乐(原薄刀锋美奇...", "address": "薄刀峰风景区内", "image": "", "rank": 51, "time": 2, "location": {"lat": 31.11116411171099, "lng": 115.5717708766937}, "feature": {"sight_features": "", "sight_content": ""}}, {"title": "嘻哈儿童乐园", "address": "凤山镇在别山商贸广场3楼", "image": "", "rank": 52, "time": 2, "location": {"lat": 30.77567878672457, "lng": 115.38890128612846}, "feature": {"sight_features": "", "sight_content": ""}}, {"title": "罗田县三胜京剧社", "address": "段家桥街26义水北路", "image": "", "rank": 53, "time": 2, "location": {"lat": 30.787005385188483, "lng": 115.40893463176423}, "feature": {"sight_features": "", "sight_content": ""}}, {"title": "甫薇山庄", "address": "武英高速公路", "image": "", "rank": 54, "time": 2, "location": {"lat": 30.790644999366855, "lng": 114.64938221460362}, "feature": {"sight_features": "", "sight_content": ""}}, {"title": "许家冲", "address": "黄冈市-罗田县", "image": "", "rank": 55, "time": 2, "location": {"lat": 30.7889104956853, "lng": 115.40554716749966}, "feature": {"sight_features": "", "sight_content": ""}}, {"title": "罗田花半湾水上乐园", "address": "黄冈市-罗田县-005乡道附近", "image": "", "rank": 56, "time": 7.5, "location": {"lat": 30.857916901579888, "lng": 115.5117068465662}, "feature": {"sight_features": "", "sight_content": ""}}, {"title": "罗田晓琪家庭农场", "address": "黄冈市-罗田县-胜利镇板桥村花屋湾", "image": "", "rank": 57, "time": 7.5, "location": {"lat": 31.10668115739398, "lng": 115.54132367021307}, "feature": {"sight_features": "", "sight_content": ""}}, {"title": "古门冲", "address": "黄冈市-罗田县-二零三省道", "image": "", "rank": 58, "time": 2, "location": {"lat": 31.192991349372406, "lng": 115.3732397688334}, "feature": {"sight_features": "", "sight_content": ""}}, {"title": "食为天游泳馆", "address": "黄冈市-罗田县-经济开发区建设大道162号", "image": "", "rank": 59, "time": 2, "location": {"lat": 30.763378753290066, "lng": 115.38003464243972}, "feature": {"sight_features": "", "sight_content": ""}}]}