{"cityName": "罗源", "days": 2, "cityImage": "", "spots": [{"title": "罗源湾海洋世界", "address": "福州市罗源县罗源湾开发区江滨南路1号", "image": "", "rank": 1, "time": 4.5, "location": {"lat": 26.479009949026082, "lng": 119.58482651004007}, "feature": {"sight_features": "特色1 福建省大型海洋馆 特色2 300多种海洋生物，是孩子们亲近海洋、拓宽视野的天堂。 特色3 设有70多个海洋生物展示设施，展示海洋动物300多种。", "sight_content": "福州罗源湾海洋世界是世纪金源集团斥巨资打造的大规模，海洋物种展示丰富、展示功能设施齐全的综合性场馆。海洋世界位于罗源湾滨海新城东南面，占地172亩，建筑面积20470平方米，配备大型停车场，车位多达4500个，汇聚了八大主题区域，设有70余个海洋生物展示设施，展示的海洋物种达300余种。\n园区内有海水鱼类及生物品种248种，计7562尾（个），淡水鱼类品种54种，计5525尾（个），哺乳类动物40余种近100只，水陆两栖爬行类动物40余种。海洋世界分为浅海珊瑚礁区、儿童互动区、海洋科普区、梦幻水母宫区、大洋区、热带雨林区、两栖动物区、海洋表演剧场等八大主题区域。\n海洋世界是集科普、体验互动、观赏及水生哺乳动物表演于一体的多功能大型生态馆。\n海上搏斗是大型水上高空竞技表演场，引进好莱坞前沿设计理念，营造特色的“大海啸”景观。1500多吨的海水瞬间从20几米的高空奔腾而下，气势恢宏，场面极为壮观，以此背景下配以大型的歌舞、杂技、魔术等表演，给人无与伦比的震撼与视觉冲击。在这里您可以欣赏到热情狂野的祭祀舞蹈、真刀实枪的近身肉搏、高空钢丝打斗、自由花式降落、生死转轮、扣人心弦的殊死搏斗气势恢宏的大海啸。"}}, {"title": "陈太尉宫", "address": "福州市罗源县中房镇乾溪村", "image": "", "rank": 2, "time": 1.5, "location": {"lat": 26.59981460894221, "lng": 119.43876650413412}, "feature": {"sight_features": "", "sight_content": ""}}, {"title": "畲山水景区", "address": "福州市罗源县近郊霍口畲族乡冈尾村", "image": "", "rank": 3, "time": 2.0, "location": {"lat": 26.4552762282651, "lng": 119.24792487263784}, "feature": {"sight_features": "", "sight_content": "中国畲山水景区位于福州罗源县霍口乡，景区面积约为13000亩，其起点距罗源县城区约38公里，距福州市国家森林公园约59公里，距离福州著名景区皇帝洞·闽王古道大峡谷景区约15公里，素有“畲山、畲水、畲寨、纯净世界”之美称。\n畲山水满山覆盖的天然次生林，成片的百年红枫林，深邃幽静的峡谷溪潭，千姿百态的飞瀑流泉，栩栩如生的象形山石，构成了畲山水独具特色的自然景观；景区内溪水清沏见底、水质甘甜纯净，是难得一见的无污染纯净世界。\n景区内有畲风表演广场、畲乡对歌台等展现畲族传统风俗；偶尔可听到深奥的畲族话、看到艳丽的凤凰装，还有畲族源远流长的民族传说、热情奔放的民族舞蹈、古色古香的山歌、世代相传的纺织工艺、古朴有趣的婚嫁习俗、香甜可口的“三月三”乌米饭等，都充份展示了畲家完整的文化生活篇章，将带你走入畲族的奇妙世界。"}}, {"title": "罗源湾游艇俱乐部", "address": "福州市罗源县罗源湾滨海新城", "image": "", "rank": 4, "time": 2, "location": {"lat": 26.47505459501395, "lng": 119.59731796737277}, "feature": {"sight_features": "", "sight_content": ""}}, {"title": "吗家湾度假村", "address": "福州市罗源县霍口乡畲家湾度假村", "image": "", "rank": 5, "time": 2, "location": {"lat": 26.44668153247858, "lng": 119.2863974228539}, "feature": {"sight_features": "", "sight_content": ""}}, {"title": "禾山", "address": "福州市罗源县白塔乡七步自然村", "image": "", "rank": 6, "time": 3.5, "location": {"lat": 26.437872181868673, "lng": 119.46301730340237}, "feature": {"sight_features": "", "sight_content": ""}}, {"title": "岱江漂流", "address": "福州市罗源县霍口乡畲族山庄", "image": "", "rank": 7, "time": 2, "location": {"lat": 26.450749687568212, "lng": 119.28481519244441}, "feature": {"sight_features": "", "sight_content": ""}}, {"title": "启蒙星亲子游乐园(罗源店)", "address": "滨海新城购物中心B区三楼", "image": "", "rank": 8, "time": 2, "location": {"lat": 24.575481903527127, "lng": 118.60152330518534}, "feature": {"sight_features": "", "sight_content": ""}}, {"title": "罗源湾浮潜馆", "address": "罗源湾滨海新城海洋世界内", "image": "", "rank": 9, "time": 1.0, "location": {"lat": 26.47505459501395, "lng": 119.59731796737277}, "feature": {"sight_features": "", "sight_content": ""}}, {"title": "罗源湾梦幻魔都", "address": "罗源湾滨海新城海洋世界内", "image": "", "rank": 10, "time": 2, "location": {"lat": 26.47505459501395, "lng": 119.59731796737277}, "feature": {"sight_features": "", "sight_content": ""}}, {"title": "罗源湾深海奇幻世界", "address": "罗源湾滨海新城海洋世界内", "image": "", "rank": 11, "time": 2, "location": {"lat": 26.47505459501395, "lng": 119.59731796737277}, "feature": {"sight_features": "", "sight_content": ""}}, {"title": "罗源湾白鲸馆", "address": "罗源湾滨海新城海洋世界内", "image": "", "rank": 12, "time": 2, "location": {"lat": 26.47505459501395, "lng": 119.59731796737277}, "feature": {"sight_features": "", "sight_content": ""}}, {"title": "罗源县工艺美术珍品馆", "address": "九大中心2号楼1层", "image": "", "rank": 13, "time": 2, "location": {"lat": 26.49279300981089, "lng": 119.56989808999526}, "feature": {"sight_features": "", "sight_content": ""}}, {"title": "aaa真人密室逃脱", "address": "近郊凤蝶广场对面", "image": "", "rank": 14, "time": 2, "location": {"lat": 26.492109617228223, "lng": 119.55353473649201}, "feature": {"sight_features": "", "sight_content": ""}}, {"title": "风度丽人", "address": "凤山镇东外路16号东方星城B5号01店", "image": "", "rank": 15, "time": 2, "location": {"lat": 26.493260125355636, "lng": 119.57847121684732}, "feature": {"sight_features": "", "sight_content": ""}}, {"title": "海上高尔夫", "address": "滨海路东100米", "image": "", "rank": 16, "time": 2, "location": {"lat": 39.11012042376985, "lng": 117.36331884826987}, "feature": {"sight_features": "", "sight_content": ""}}, {"title": "栖云洞造像", "address": "福建省罗源县起步镇 350604", "image": "", "rank": 17, "time": 2, "location": {"lat": 26.538716977867235, "lng": 119.55881567965113}, "feature": {"sight_features": "", "sight_content": ""}}, {"title": "福建省罗源县图书馆", "address": "九大中心2号楼", "image": "", "rank": 18, "time": 2, "location": {"lat": 26.49279300981089, "lng": 119.56989808999526}, "feature": {"sight_features": "", "sight_content": ""}}, {"title": "溪坂农家乐农业观光有限公司", "address": "松山镇上杭村1号", "image": "", "rank": 19, "time": 2, "location": {"lat": 26.420037013908022, "lng": 119.58991098929269}, "feature": {"sight_features": "", "sight_content": ""}}, {"title": "樟洋生态园", "address": "凤山镇妈祖新村妈祖街11-005", "image": "", "rank": 20, "time": 2, "location": {"lat": 26.491953033010837, "lng": 119.56011548909652}, "feature": {"sight_features": "", "sight_content": ""}}, {"title": "罗源县北居闽剧团", "address": "北大路6-007号", "image": "", "rank": 21, "time": 2, "location": {"lat": 26.494775706177197, "lng": 119.55581441129921}, "feature": {"sight_features": "", "sight_content": ""}}, {"title": "罗源科技馆", "address": "福建省罗源县三中路", "image": "", "rank": 22, "time": 2.5, "location": {"lat": 26.493387129667518, "lng": 119.56775460638809}, "feature": {"sight_features": "", "sight_content": ""}}, {"title": "罗源县商业街", "address": "福建省罗源县东大路", "image": "", "rank": 23, "time": 2, "location": {"lat": 26.492028516508967, "lng": 119.5552358432628}, "feature": {"sight_features": "", "sight_content": ""}}, {"title": "东元亭村", "address": "福州市-罗源县", "image": "", "rank": 24, "time": 2, "location": {"lat": 26.495495660323886, "lng": 119.55648045991936}, "feature": {"sight_features": "", "sight_content": ""}}, {"title": "溪上坂", "address": "福州市-罗源县", "image": "", "rank": 25, "time": 2, "location": {"lat": 26.495495660323886, "lng": 119.55648045991936}, "feature": {"sight_features": "", "sight_content": ""}}, {"title": "老蛇山", "address": "福州市-罗源县", "image": "", "rank": 26, "time": 2, "location": {"lat": 26.495495660323886, "lng": 119.55648045991936}, "feature": {"sight_features": "", "sight_content": ""}}, {"title": "开门丫", "address": "福州市-罗源县", "image": "", "rank": 27, "time": 2, "location": {"lat": 26.495495660323886, "lng": 119.55648045991936}, "feature": {"sight_features": "", "sight_content": ""}}, {"title": "先峰宫", "address": "福州市-罗源县-西外路", "image": "", "rank": 28, "time": 2, "location": {"lat": 26.491997368674237, "lng": 119.54294971162045}, "feature": {"sight_features": "", "sight_content": ""}}]}