{"cityName": "洛扎", "days": 2, "cityImage": "", "spots": [{"title": "赛卡古托寺", "address": "山南市洛扎县色乡乡政府以南约600米处", "image": "", "rank": 1, "time": 1.0, "location": {"lat": 28.391634617397948, "lng": 90.86645200191522}, "feature": {"sight_features": "", "sight_content": ""}}, {"title": "吉堆吐蕃墓群", "address": "山南市洛扎县吉堆乡政府所在地南侧土坡上", "image": "", "rank": 2, "time": 1.0, "location": {"lat": 28.391634617397948, "lng": 90.86645200191522}, "feature": {"sight_features": "", "sight_content": ""}}, {"title": "拉隆寺", "address": "山南市洛扎县扎日乡洛扎努曲河北岸", "image": "", "rank": 3, "time": 2, "location": {"lat": 28.246462775619317, "lng": 90.48070632383147}, "feature": {"sight_features": "", "sight_content": ""}}, {"title": "40号冰川", "address": "山南市洛扎县与不丹边境40号界碑位置附近", "image": "", "rank": 4, "time": 2, "location": {"lat": 28.391634617397948, "lng": 90.86645200191522}, "feature": {"sight_features": "", "sight_content": ""}}, {"title": "桑噶方托寺", "address": "山南市洛扎县色乡", "image": "", "rank": 5, "time": 1.0, "location": {"lat": 28.16752796302118, "lng": 90.71148713301724}, "feature": {"sight_features": "", "sight_content": ""}}, {"title": "洛卓沃龙寺", "address": "山南市洛扎县色乡赛卡古托寺之上", "image": "", "rank": 6, "time": 1.5, "location": {"lat": 28.16752796302118, "lng": 90.71148713301724}, "feature": {"sight_features": "", "sight_content": ""}}, {"title": "卡久寺", "address": "山南市洛扎县拉康镇卡久山", "image": "", "rank": 7, "time": 2, "location": {"lat": 28.094843630714795, "lng": 91.17419544735493}, "feature": {"sight_features": "", "sight_content": ""}}, {"title": "班嘎寺", "address": "西藏自治区山南市洛扎县", "image": "", "rank": 8, "time": 2, "location": {"lat": 28.391634617397948, "lng": 90.86645200191522}, "feature": {"sight_features": "", "sight_content": ""}}, {"title": "库拉日峰", "address": "西藏自治区山南地区", "image": "", "rank": 9, "time": 2, "location": {"lat": 29.229026931718007, "lng": 91.75064387441162}, "feature": {"sight_features": "", "sight_content": ""}}]}