{"cityName": "碌曲", "days": 2, "cityImage": "", "spots": [{"title": "郎木寺", "address": "甘南藏族自治州碌曲县郎木寺镇郎木寺院内", "image": "", "rank": 1, "time": null, "location": {"lat": 34.095643381184544, "lng": 102.64528241698503}, "feature": {"sight_features": "", "sight_content": ""}}, {"title": "尕海", "address": "甘南藏族自治州碌曲县尕海乡", "image": "", "rank": 2, "time": 1.5, "location": {"lat": 34.2641742715361, "lng": 102.37393720219896}, "feature": {"sight_features": "", "sight_content": ""}}, {"title": "则岔石林", "address": "甘南藏族自治州碌曲县拉仁关乡则岔村", "image": "", "rank": 3, "time": 2.5, "location": {"lat": 34.35628315787432, "lng": 102.69508672740844}, "feature": {"sight_features": "", "sight_content": ""}}, {"title": "红石崖", "address": "甘南州碌曲县郎木寺镇境内，郎木寺东侧", "image": "", "rank": 4, "time": null, "location": {"lat": 34.095643381184544, "lng": 102.64528241698503}, "feature": {"sight_features": "", "sight_content": ""}}, {"title": "西仓寺", "address": "甘南州碌曲县县城东十公里处", "image": "", "rank": 5, "time": 1.0, "location": {"lat": 34.59708727156553, "lng": 102.49442413370862}, "feature": {"sight_features": "", "sight_content": ""}}, {"title": "甘丹赛赤寺", "address": "甘南藏族自治州碌曲县郎木寺镇内", "image": "", "rank": 6, "time": 1.5, "location": {"lat": 34.09586330084268, "lng": 102.64351596477596}, "feature": {"sight_features": "", "sight_content": ""}}, {"title": "郎木寺格桑马队", "address": "郎木寺镇三岔路口附近", "image": "", "rank": 7, "time": 2, "location": {"lat": 34.09586330084268, "lng": 102.64351596477596}, "feature": {"sight_features": "", "sight_content": ""}}, {"title": "郎木寺镇天葬台", "address": "碌曲县郎木寺（甘肃寺院）东北部的山上", "image": "", "rank": 8, "time": 0.5, "location": {"lat": 34.095643381184544, "lng": 102.64528241698503}, "feature": {"sight_features": "", "sight_content": ""}}, {"title": "老成都川菜馆——暑期大学生勤工...", "address": "中心小学向下500米处对面(中心小学向下800米处对面)", "image": "", "rank": 9, "time": 2, "location": {"lat": 39.124030230896054, "lng": 117.20190061452008}, "feature": {"sight_features": "", "sight_content": ""}}, {"title": "大经堂", "address": "甘肃省甘南州碌曲县郎木寺镇郎木寺院内", "image": "", "rank": 10, "time": 0.75, "location": {"lat": 34.095643381184544, "lng": 102.64528241698503}, "feature": {"sight_features": "", "sight_content": ""}}, {"title": "碌曲县革命烈士陵园", "address": "勒尔多东路6号", "image": "", "rank": 11, "time": 2, "location": {"lat": 34.59540387094966, "lng": 102.49623819071988}, "feature": {"sight_features": "", "sight_content": ""}}, {"title": "玛曲县鲑鳟鱻旅游开发有限公司", "address": "313省道大水虹鳟鱼场", "image": "", "rank": 12, "time": 2, "location": {"lat": 41.221675822906185, "lng": 123.9080229228375}, "feature": {"sight_features": "", "sight_content": ""}}, {"title": "碌曲县文化图书楼", "address": "勒多东路", "image": "", "rank": 13, "time": null, "location": {"lat": 25.036850732038488, "lng": 102.43975717683576}, "feature": {"sight_features": "", "sight_content": ""}}, {"title": "纳摩峡谷", "address": "朗木寺镇", "image": "", "rank": 14, "time": 2, "location": {"lat": 26.832186123991242, "lng": 109.72918307966114}, "feature": {"sight_features": "", "sight_content": ""}}, {"title": "甘南尕海侯鸟自然保护区", "address": "甘肃省碌曲县尕海乡", "image": "", "rank": 16, "time": 3.5, "location": {"lat": 34.2641742715361, "lng": 102.37393720219896}, "feature": {"sight_features": "", "sight_content": ""}}, {"title": "尕海湖", "address": "甘肃省碌曲县境内", "image": "", "rank": 17, "time": 1.5, "location": {"lat": 34.59708727156553, "lng": 102.49442413370862}, "feature": {"sight_features": "", "sight_content": ""}}, {"title": "扎西则杰", "address": "甘南藏族自治州-碌曲县", "image": "", "rank": 18, "time": 2, "location": {"lat": 34.59708727156553, "lng": 102.49442413370862}, "feature": {"sight_features": "", "sight_content": ""}}]}