{"cityName": "泸水", "days": 2, "cityImage": "", "spots": [{"title": "驼峰航线纪念馆", "address": "怒江傈僳族自治州泸水县片马镇", "image": "", "rank": 1, "time": 1.0, "location": {"lat": 26.039537578555827, "lng": 98.65061317483853}, "feature": {"sight_features": "", "sight_content": ""}}, {"title": "怒江大桥", "address": "云南省怒江傈僳族自治州泸水县六库镇", "image": "", "rank": 2, "time": 1.5, "location": {"lat": 25.874423096951652, "lng": 98.88746995361035}, "feature": {"sight_features": "", "sight_content": ""}}, {"title": "怒江民族演艺厅", "address": "新闻路1", "image": "", "rank": 3, "time": null, "location": {"lat": 39.948870120323555, "lng": 119.59871125581371}, "feature": {"sight_features": "", "sight_content": ""}}, {"title": "青山公园", "address": "穿城路382", "image": "", "rank": 4, "time": 1.5, "location": {"lat": 25.862723576990724, "lng": 98.85925217612657}, "feature": {"sight_features": "", "sight_content": ""}}, {"title": "怒江州公路规划勘察设计院", "address": "雅兰苑小区附近", "image": "", "rank": 5, "time": 2, "location": {"lat": 30.365273013181692, "lng": 120.08997389346511}, "feature": {"sight_features": "", "sight_content": ""}}, {"title": "片马抗英胜利纪念馆", "address": "片马镇", "image": "", "rank": 6, "time": 2, "location": {"lat": 26.039537578555827, "lng": 98.65061317483853}, "feature": {"sight_features": "", "sight_content": ""}}, {"title": "草塘小院", "address": "赖茂村", "image": "", "rank": 7, "time": 2, "location": {"lat": 25.8287942937551, "lng": 98.85585070907686}, "feature": {"sight_features": "", "sight_content": ""}}, {"title": "片马口岸", "address": "县城进出口口岸", "image": "", "rank": 8, "time": 2, "location": {"lat": 34.27425436103569, "lng": 117.19430618343358}, "feature": {"sight_features": "", "sight_content": ""}}, {"title": "风雪丫口", "address": "片马镇", "image": "", "rank": 9, "time": 2, "location": {"lat": 26.039537578555827, "lng": 98.65061317483853}, "feature": {"sight_features": "", "sight_content": ""}}, {"title": "怒江民族文化生态园", "address": "怒江大道", "image": "", "rank": 10, "time": 3.0, "location": {"lat": 25.83112829471458, "lng": 98.86261429559836}, "feature": {"sight_features": "", "sight_content": ""}}, {"title": "登埂澡塘会", "address": "怒江州泸水县跃进桥旁", "image": "", "rank": 11, "time": 2, "location": {"lat": 25.944810060881352, "lng": 98.84299727684412}, "feature": {"sight_features": "", "sight_content": ""}}, {"title": "怒江茶马古道景区", "address": "云南省泸水县境内 673200", "image": "", "rank": 12, "time": 3.0, "location": {"lat": 26.0702282029572, "lng": 98.85930047595942}, "feature": {"sight_features": "", "sight_content": ""}}, {"title": "三江并流展览馆", "address": "云南省泸水县三江国家公园内 673200", "image": "", "rank": 13, "time": 9.0, "location": {"lat": 26.0702282029572, "lng": 98.85930047595942}, "feature": {"sight_features": "", "sight_content": ""}}, {"title": "美客来农家乐", "address": "云南省怒江傈僳族自治州泸水市上江镇上江乡大练地村民委员会", "image": "", "rank": 14, "time": 2, "location": {"lat": 25.752123520234694, "lng": 98.87102069515119}, "feature": {"sight_features": "", "sight_content": ""}}, {"title": "青山公园路", "address": "云南省怒江傈僳族自治州泸水市", "image": "", "rank": 15, "time": 2, "location": {"lat": 25.829026769971726, "lng": 98.86458616332774}, "feature": {"sight_features": "", "sight_content": ""}}, {"title": "极乐山庄", "address": "泸水市其他穿城路511", "image": "", "rank": 16, "time": 2, "location": {"lat": 25.829026769971726, "lng": 98.86458616332774}, "feature": {"sight_features": "", "sight_content": ""}}, {"title": "同心广场", "address": "怒江大道怒江傈僳族自治州政府附近", "image": "", "rank": 17, "time": 2, "location": {"lat": 25.8237359444215, "lng": 98.86318881407352}, "feature": {"sight_features": "", "sight_content": ""}}, {"title": "江东社区老年人协会小沙坝活动点", "address": "穿城路546", "image": "", "rank": 18, "time": 2, "location": {"lat": 25.882088022928375, "lng": 98.85122440785453}, "feature": {"sight_features": "", "sight_content": ""}}, {"title": "世纪广场", "address": "怒江傈僳族自治州泸水市振兴路7号", "image": "", "rank": 19, "time": 2.5, "location": {"lat": 25.856531180249085, "lng": 98.86127285328584}, "feature": {"sight_features": "", "sight_content": ""}}, {"title": "玛布温泉旅游度假村", "address": "怒江心理专科医院旁", "image": "", "rank": 20, "time": 2, "location": {"lat": 25.88459350493254, "lng": 98.84546639530025}, "feature": {"sight_features": "", "sight_content": ""}}, {"title": "快乐宝贝室内儿童亲子游乐园", "address": "玫瑰园小区附近", "image": "", "rank": 21, "time": 2, "location": {"lat": 39.56399890735586, "lng": 118.11832397107452}, "feature": {"sight_features": "", "sight_content": ""}}, {"title": "三江并流世界自然遗产怒江博物馆", "address": "气象路10", "image": "", "rank": 22, "time": 9.0, "location": {"lat": 24.352289509878855, "lng": 102.5470304573601}, "feature": {"sight_features": "", "sight_content": ""}}, {"title": "主恩堂", "address": "怒江傈僳族自治州泸水市庄房路44号", "image": "", "rank": 23, "time": 2, "location": {"lat": 25.865004930879508, "lng": 98.85423021175097}, "feature": {"sight_features": "", "sight_content": ""}}, {"title": "泸水县基督教禧恩堂", "address": "228省道附近", "image": "", "rank": 24, "time": 2, "location": {"lat": 39.03858546081583, "lng": 117.03749267899916}, "feature": {"sight_features": "", "sight_content": ""}}, {"title": "片马人民抗英胜利纪念碑", "address": "316省道姐妹旅社附近", "image": "", "rank": 25, "time": 2, "location": {"lat": 27.70960775462786, "lng": 106.95155416532164}, "feature": {"sight_features": "", "sight_content": ""}}, {"title": "中国碧玺博物馆兰若私博馆", "address": "泸水市六库镇雪山路89号", "image": "", "rank": 26, "time": 2, "location": {"lat": 25.82962300206664, "lng": 98.86723333491894}, "feature": {"sight_features": "", "sight_content": ""}}, {"title": "怒江傈僳族自治州档案馆", "address": "文兴巷5号", "image": "", "rank": 27, "time": 2, "location": {"lat": 25.852270730890687, "lng": 98.86287735718042}, "feature": {"sight_features": "", "sight_content": ""}}, {"title": "怒江傈僳族自治州图书馆", "address": "渡口路14", "image": "", "rank": 28, "time": 2, "location": {"lat": 25.856484037686563, "lng": 114.96651508460916}, "feature": {"sight_features": "", "sight_content": ""}}, {"title": "沙木河山", "address": "怒江傈僳族自治州-泸水市", "image": "", "rank": 29, "time": 2, "location": {"lat": 25.829026769971726, "lng": 98.86458616332774}, "feature": {"sight_features": "", "sight_content": ""}}, {"title": "可巴哈谷独", "address": "怒江傈僳族自治州-泸水市", "image": "", "rank": 30, "time": 2, "location": {"lat": 25.829026769971726, "lng": 98.86458616332774}, "feature": {"sight_features": "", "sight_content": ""}}]}