{"cityName": "泸西", "days": 2, "cityImage": "", "spots": [{"title": "阿庐古洞国家地质公园", "address": "红河哈尼族彝族自治州泸西县阿庐山麓", "image": "", "rank": 1, "time": 7.5, "location": {"lat": 24.53803716745029, "lng": 103.772523140916}, "feature": {"sight_features": "特色1 八百多米的玉笋河", "sight_content": "泸西县位于红河州东北部，地处乌蒙山脉南端和袁牢山脉北端之间，最高海拔2459米，最低海拔799米，交通便利，气候良好，是旅游休闲度假的好地方。阿庐古洞位于距昆明160多公里的泸西县境内 ，是一组典型的岩溶地貌地下溶洞群，是一个有着九峰十八洞的古老神奇的地下洞府。明代著名旅行家徐霞客就曾神迷于此，两次入洞考察，留下了“泸源之水涌于下穴，泸源之洞群于悬岩”的名句。泸西山川秀丽，是一个以喀斯特地下岩溶和江、湖、瀑泉、自然景观为主体，古老的民族文化，独特的 民族风情为辅的溶洞群。她有瑰丽多姿的溶洞群，险要秀丽的南盘江，如诗如画的湖光山色，潇 洒多变的瀑布群，幽静多情的泉水，中心景区誉为“云南第一洞”。奇特的景观，典雅的环境、富丽的设施，优质的服务，已具规模的旅游城市，深深吸引了海内外游客。\n阿庐古洞又叫泸源洞，是一个规模宏大的溶洞群，它是宋、元时云南三十七蛮部之一“阿庐部”的穴居点，其名亦是由此化来。它的主洞体由泸源洞、玉柱洞、碧玉洞、玉笋河组成，三洞一河全长 三千余米，洞景具有古、奇、绝的特点，洞外有泉，洞中有洞，洞中有天，洞下有河，还有各种石笋、钟乳、石柱、石漫、石镰、石瀑、石花……等，千姿百态，应有尽有；以及各种天造的“雄狮怒吼 ”、“古莲倒悬”、“飞龙戏瀑”、“三象驰原”、“古龟望月”、“鳄鱼凌空”、“犀牛出海”、“天然壁画”、“魏王点兵”、“擎天玉柱”、“九龙出海”、“阿细跳月”等形象栩栩如生，展现 了大自然生机盎然的无穷乐趣。\n游玩景点玉柱洞+碧玉洞\n出泸源洞5米，即入玉柱洞。可沿洞外石阶上攀观览青峰耸立。洞口石钟乳垂挂如帘，开状别致。全长800余米，为宫殿式溶洞，由10余个规模不同，形态各异的厅堂组成，最大奇堂长70余米，宽30余 米，规模宏大。出玉柱洞，沿林荫小道西行350米，或乘旅游索道，便到碧玉洞入口。洞口位于祭龙山腰，洞穴为峡谷式深洞，洞穴延伸严直，少有大厅，全长720米。洞内钟乳石色如碧玉，故名碧玉洞 。洞中玲珑剔透的卷曲石、阿庐玉、石盾（20余平方米）、石编钟为阿庐古洞珍品。\n游玩景点玉笋河+透明鱼\n玉笋河为地下暗河，位于泸源洞，玉柱洞垂深15米之下，洞口位于玉柱洞中，全长沙余米。河水由北向南流动，流速缓慢，0.02米/秒，流量12各/秒，常年不涸。河道宽8米-12米，中心顶高5米，最 高处10处。游览只能乘人力之舟，每舟乘6人，无陆路通行。在玉柱洞垂深十五米处，有一条可供广大游客一饱眼福、长达八百多米的玉笋河，水流缓漫，清澈见底，常年不枯。被称称洞中一绝的“水中 石笋”和珍稀鱼类透明鱼，从外表可清晰的看到里面的骨骼及五脏六腑，实属举世罕见的珍稀鱼种，观者无不称奇，这更为玉笋河增添了神秘色彩。\n游玩景点玉柱洞+碧玉洞\n石花千姿百态，几乎具备了地质岩溶学所定义的所有景观，且各具形象，诸如彩霞迎宾、古莲倒悬、幽谷神钟、古龟望月、魏王点兵、天造神物等等，维妙维肖，非造化之功不可为。"}}, {"title": "城子古村", "address": "红河哈尼族彝族自治州泸西县永宁乡城子村", "image": "", "rank": 2, "time": 1.5, "location": {"lat": 24.364137845438922, "lng": 103.68894535414297}, "feature": {"sight_features": "", "sight_content": ""}}, {"title": "城子民俗村", "address": "泸西县城南25公里处宜良县泸西古洞", "image": "", "rank": 3, "time": null, "location": {"lat": 24.53803716745029, "lng": 103.772523140916}, "feature": {"sight_features": "", "sight_content": ""}}, {"title": "云鹏图书馆", "address": "云南省泸西县环城西路6号", "image": "", "rank": 4, "time": 2, "location": {"lat": 24.5372884376637, "lng": 103.76953510729913}, "feature": {"sight_features": "", "sight_content": ""}}, {"title": "黑舍村", "address": "红河州泸西县旧城镇黑舍村", "image": "", "rank": 5, "time": 3.5, "location": {"lat": 24.69557227598675, "lng": 103.73898553352589}, "feature": {"sight_features": "", "sight_content": ""}}, {"title": "吾者半山温泉", "address": "红河哈尼族彝族自治州泸西县白水镇吾者公路五者温泉风景区", "image": "", "rank": 6, "time": 2, "location": {"lat": 24.610096452571618, "lng": 103.889341391786}, "feature": {"sight_features": "", "sight_content": "吾者温泉风景区是历史上古“阿庐”部落及先民繁衍生息的聚居之地。蕴涵丰富的文化遗产、独特的人文景观、优美的生态环境。使人们在惊喜之余能体味一种温馨、一份陶醉、一缕神秘和万般的浪漫。"}}, {"title": "海贝儿儿童游乐场", "address": "泸发大街", "image": "", "rank": 7, "time": 0.5, "location": {"lat": 24.555004254113857, "lng": 103.75836093864041}, "feature": {"sight_features": "", "sight_content": ""}}, {"title": "阿庐书画院少儿艺委会", "address": "泸发大街", "image": "", "rank": 8, "time": 2, "location": {"lat": 24.555004254113857, "lng": 103.75836093864041}, "feature": {"sight_features": "", "sight_content": ""}}, {"title": "泸西县图书馆", "address": "阿庐大街118号", "image": "", "rank": 9, "time": 2, "location": {"lat": 24.553686977221158, "lng": 103.76052689964806}, "feature": {"sight_features": "", "sight_content": ""}}, {"title": "泸西县农经站", "address": "中枢镇九华路", "image": "", "rank": 10, "time": null, "location": {"lat": 24.535397689782066, "lng": 103.77499608974681}, "feature": {"sight_features": "", "sight_content": ""}}, {"title": "云鹏钓场", "address": "官寨乡云鹏钓场", "image": "", "rank": 11, "time": 2, "location": {"lat": 24.303167924856563, "lng": 104.05237378346635}, "feature": {"sight_features": "", "sight_content": ""}}, {"title": "五者温泉", "address": "云南省泸西县白水镇五者村 652404", "image": "", "rank": 12, "time": 2, "location": {"lat": 24.622977726600666, "lng": 103.89440184046794}, "feature": {"sight_features": "", "sight_content": ""}}, {"title": "龙树坝", "address": "云南省元阳县新街镇龙树坝村 675602", "image": "", "rank": 13, "time": 2.5, "location": {"lat": 23.147929251779683, "lng": 102.73246803113054}, "feature": {"sight_features": "", "sight_content": ""}}, {"title": "白石头清真寺", "address": "红河哈尼族彝族自治州泸西县", "image": "", "rank": 14, "time": 2, "location": {"lat": 24.53803716745029, "lng": 103.772523140916}, "feature": {"sight_features": "", "sight_content": ""}}, {"title": "时光机儿童乐园", "address": "中枢镇帝景湾小区5栋", "image": "", "rank": 15, "time": 2, "location": {"lat": 40.00414582668762, "lng": 119.74786917521742}, "feature": {"sight_features": "", "sight_content": ""}}, {"title": "云南千牧农业发展有限公司桃花岛", "address": "云南省红河哈尼族彝族自治州泸西县S203", "image": "", "rank": 16, "time": 2, "location": {"lat": 24.53803716745029, "lng": 103.772523140916}, "feature": {"sight_features": "", "sight_content": ""}}, {"title": "开心游乐厅", "address": "九华路", "image": "", "rank": 17, "time": 2, "location": {"lat": 30.932829117730677, "lng": 121.47086433261381}, "feature": {"sight_features": "", "sight_content": ""}}, {"title": "阿庐古洞", "address": "云南省泸西县阿庐大道", "image": "", "rank": 18, "time": 7.5, "location": {"lat": 24.53803716745029, "lng": 103.772523140916}, "feature": {"sight_features": "", "sight_content": ""}}, {"title": "泸西文庙", "address": "云南省泸西县钟秀山南麓", "image": "", "rank": 19, "time": 1.0, "location": {"lat": 24.53803716745029, "lng": 103.772523140916}, "feature": {"sight_features": "", "sight_content": ""}}]}