{"cityName": "泸县", "days": 2, "cityImage": "", "spots": [{"title": "玉蟾山", "address": "泸州市区以北35公里， 泸县福集镇", "image": "", "rank": 1, "time": 2.5, "location": {"lat": 29.1735921433758, "lng": 105.35329341048197}, "feature": {"sight_features": "", "sight_content": ""}}, {"title": "龙脑桥", "address": "泸州市泸县福集镇321国道", "image": "", "rank": 2, "time": 1.0, "location": {"lat": 29.230266995152753, "lng": 105.36632525247707}, "feature": {"sight_features": "", "sight_content": ""}}, {"title": "玉龙湖风景区", "address": "泸州市泸县", "image": "", "rank": 3, "time": 2, "location": {"lat": 29.1576262957084, "lng": 105.38845608667467}, "feature": {"sight_features": "", "sight_content": ""}}, {"title": "天展温泉度假酒店温泉", "address": "泸州市泸县玉蟾温泉国际度假区东北", "image": "", "rank": 4, "time": 2, "location": {"lat": 29.15115799528796, "lng": 105.3902635671907}, "feature": {"sight_features": "特色1 温泉泡池，水质清晰、生态养生", "sight_content": "泸州天展名人温泉度假酒店由神州天立集团投资有限公司投资兴建，占地面积73亩，总投资2.3亿元，按照国家五星级旅游饭店标准打造，是一家集商务（政务）住宿、会议接待、温泉理疗、休闲度假、养生膳食、康体娱乐为一体的多功能的原生态温泉度假酒店。\n\n\n酒店最具特色的玉蟾温泉，取于1980米地下深处，出水温度40℃，出水量常年稳定在1000立方米/日以上。经四川省地质勘察院鉴定，该温泉水富含硫化氢、偏硼酸、偏硅酸、碘等多种对人体有益的微量元素，水质清澈，无色无味，是保健、美容的最佳温泉水。"}}, {"title": "龙桥百花洲", "address": "泸州市泸县福集镇小马滩村龙桥文化生态园内", "image": "", "rank": 5, "time": 2, "location": {"lat": 29.19140083324297, "lng": 105.38683261326264}, "feature": {"sight_features": "", "sight_content": ""}}, {"title": "泸县宋代石刻博物馆", "address": "泸州市泸县玉蟾街道文博路", "image": "", "rank": 6, "time": 1.0, "location": {"lat": 29.15115799528796, "lng": 105.3902635671907}, "feature": {"sight_features": "", "sight_content": ""}}, {"title": "天源山庄", "address": "石桥镇西侧", "image": "", "rank": 7, "time": 2, "location": {"lat": 32.14972310040308, "lng": 119.74627783059972}, "feature": {"sight_features": "", "sight_content": ""}}, {"title": "高洞瀑布风景区", "address": "四川省泸县百和镇 646102", "image": "", "rank": 8, "time": 1.5, "location": {"lat": 29.066461218737818, "lng": 105.728472234618}, "feature": {"sight_features": "", "sight_content": ""}}, {"title": "嘉明草莓园", "address": "嘉明镇往泸县2公里(321国道旁)", "image": "", "rank": 9, "time": 2, "location": {"lat": 29.230266995152753, "lng": 105.36632525247707}, "feature": {"sight_features": "", "sight_content": ""}}, {"title": "张家大院", "address": "福集镇赵岩方金石", "image": "", "rank": 10, "time": 2, "location": {"lat": 29.1735921433758, "lng": 105.35329341048197}, "feature": {"sight_features": "", "sight_content": ""}}, {"title": "泸县永青家庭农场", "address": "永青农场", "image": "", "rank": 11, "time": 2.5, "location": {"lat": 22.792810051698805, "lng": 113.15010250669334}, "feature": {"sight_features": "", "sight_content": ""}}, {"title": "泸县档案馆", "address": "民本街", "image": "", "rank": 12, "time": 1.0, "location": {"lat": 37.40891199400411, "lng": 117.05878511029871}, "feature": {"sight_features": "", "sight_content": ""}}, {"title": "泸县龙桥文化生态园", "address": "小马滩村", "image": "", "rank": 13, "time": 2.5, "location": {"lat": 29.182619418468672, "lng": 105.39862435977282}, "feature": {"sight_features": "", "sight_content": ""}}, {"title": "泸县人民法院百姓法律书屋", "address": "玉蟾大道408号附近", "image": "", "rank": 14, "time": 2.5, "location": {"lat": 29.160089869805834, "lng": 105.38864402853648}, "feature": {"sight_features": "", "sight_content": ""}}, {"title": "泸县宋墓", "address": "四川省泸县境内 646100", "image": "", "rank": 15, "time": 2.5, "location": {"lat": 29.1576262957084, "lng": 105.38845608667467}, "feature": {"sight_features": "", "sight_content": ""}}, {"title": "生命广场", "address": "四川省泸州市泸县绿园路160号", "image": "", "rank": 16, "time": 2, "location": {"lat": 29.156917227621523, "lng": 105.38306463666667}, "feature": {"sight_features": "", "sight_content": ""}}, {"title": "十二生肖度假村", "address": "四川省泸州市泸县立石镇玄参路泸州玉龙湖风景名胜区东南", "image": "", "rank": 17, "time": 2, "location": {"lat": 29.165748780459094, "lng": 105.6743304156338}, "feature": {"sight_features": "", "sight_content": ""}}, {"title": "泸县九曲河公园", "address": "四川省泸州市泸县玉蟾街道办事处G321(龙脑大道)", "image": "", "rank": 18, "time": 2.5, "location": {"lat": 29.15115799528796, "lng": 105.3902635671907}, "feature": {"sight_features": "", "sight_content": ""}}, {"title": "龙城健康公园", "address": "四川省泸州市泸县玉蟾街道景苑街( 泸县政府东南面150左右)", "image": "", "rank": 19, "time": 2, "location": {"lat": 28.91898945211803, "lng": 105.44433501022635}, "feature": {"sight_features": "", "sight_content": ""}}, {"title": "万福儿童城", "address": "四川省泸州市泸县花园路8号", "image": "", "rank": 20, "time": 2, "location": {"lat": 29.156273841123557, "lng": 105.38028498118229}, "feature": {"sight_features": "", "sight_content": ""}}, {"title": "高孔山寺庙", "address": "四川省泸州市泸县217乡道附近", "image": "", "rank": 21, "time": 2, "location": {"lat": 29.208820436294243, "lng": 105.39186048489526}, "feature": {"sight_features": "", "sight_content": ""}}, {"title": "童家祠堂", "address": "泸州市泸县顺河--云龙", "image": "", "rank": 22, "time": 2, "location": {"lat": 29.1576262957084, "lng": 105.38845608667467}, "feature": {"sight_features": "", "sight_content": ""}}, {"title": "张家祠堂", "address": "泸州市泸县二二五乡道", "image": "", "rank": 23, "time": 2, "location": {"lat": 29.107725629526847, "lng": 105.45410407366107}, "feature": {"sight_features": "", "sight_content": ""}}, {"title": "黄家祠堂", "address": "泸州市泸县三零七省道", "image": "", "rank": 24, "time": 2, "location": {"lat": 29.1576262957084, "lng": 105.38845608667467}, "feature": {"sight_features": "", "sight_content": ""}}, {"title": "聂祠堂", "address": "泸州市泸县零零七县道", "image": "", "rank": 25, "time": 2, "location": {"lat": 29.1576262957084, "lng": 105.38845608667467}, "feature": {"sight_features": "", "sight_content": ""}}, {"title": "龙玉度假村", "address": "四川省泸州市泸县", "image": "", "rank": 26, "time": 2, "location": {"lat": 29.1576262957084, "lng": 105.38845608667467}, "feature": {"sight_features": "", "sight_content": ""}}, {"title": "蓝波湾音乐广场", "address": "四川省泸州市泸县玉蟾大道西段3", "image": "", "rank": 27, "time": 2, "location": {"lat": 29.15675454815802, "lng": 105.37115319543885}, "feature": {"sight_features": "", "sight_content": ""}}, {"title": "沈氏山庄", "address": "G76厦蓉高速附近", "image": "", "rank": 28, "time": 2, "location": {"lat": 25.77151341245045, "lng": 114.51698439467451}, "feature": {"sight_features": "", "sight_content": ""}}, {"title": "梦幻儿童游乐城", "address": "泸州市泸县富丽花园后门", "image": "", "rank": 29, "time": 2, "location": {"lat": 29.156665267696795, "lng": 105.39218617004933}, "feature": {"sight_features": "", "sight_content": ""}}, {"title": "龙眼山庄", "address": "石踏边附近", "image": "", "rank": 30, "time": 2, "location": {"lat": 29.025075530988737, "lng": 105.28736973802616}, "feature": {"sight_features": "", "sight_content": ""}}, {"title": "大岩寺古寨度假村", "address": "234乡道附近", "image": "", "rank": 31, "time": 2, "location": {"lat": 22.788337799364324, "lng": 114.29368289243355}, "feature": {"sight_features": "", "sight_content": ""}}, {"title": "梵音寺", "address": "泸州市泸县", "image": "", "rank": 32, "time": 1.0, "location": {"lat": 29.1576262957084, "lng": 105.38845608667467}, "feature": {"sight_features": "", "sight_content": ""}}, {"title": "朱祠堂", "address": "泸州市泸县二零七乡道", "image": "", "rank": 33, "time": 2, "location": {"lat": 29.1576262957084, "lng": 105.38845608667467}, "feature": {"sight_features": "", "sight_content": ""}}, {"title": "陈祠堂", "address": "泸州市泸县二三七乡道", "image": "", "rank": 34, "time": 2, "location": {"lat": 29.249843439929535, "lng": 105.41050930727624}, "feature": {"sight_features": "", "sight_content": ""}}, {"title": "圆通禅寺", "address": "四川省泸州市泸县Y217", "image": "", "rank": 35, "time": 2, "location": {"lat": 29.1576262957084, "lng": 105.38845608667467}, "feature": {"sight_features": "", "sight_content": ""}}, {"title": "下许祠堂", "address": "泸州市泸县二二二乡道", "image": "", "rank": 36, "time": 2, "location": {"lat": 29.1576262957084, "lng": 105.38845608667467}, "feature": {"sight_features": "", "sight_content": ""}}, {"title": "嘉贝乐水上乐园", "address": "泸县玉蟾街道代桥村五组（建材市场斜对面100米）", "image": "", "rank": 37, "time": 2, "location": {"lat": 29.154146868541623, "lng": 105.33467713820112}, "feature": {"sight_features": "", "sight_content": ""}}, {"title": "原野山庄", "address": "285乡道附近", "image": "", "rank": 38, "time": 2, "location": {"lat": 32.59484319338122, "lng": 120.42943993719256}, "feature": {"sight_features": "", "sight_content": ""}}, {"title": "白鹤山庄", "address": "244乡道附近", "image": "", "rank": 39, "time": 2, "location": {"lat": 32.55646011092758, "lng": 120.42977231023126}, "feature": {"sight_features": "", "sight_content": ""}}, {"title": "泸县科技馆", "address": "玉龙路210", "image": "", "rank": 40, "time": 2.5, "location": {"lat": 33.99664912956498, "lng": 119.84350471745466}, "feature": {"sight_features": "", "sight_content": ""}}, {"title": "滨江乐园", "address": "民本街", "image": "", "rank": 41, "time": 2, "location": {"lat": 37.40891199400411, "lng": 117.05878511029871}, "feature": {"sight_features": "", "sight_content": ""}}, {"title": "泸县图书馆", "address": "福集镇玉龙路55号", "image": "", "rank": 42, "time": 1.5, "location": {"lat": 29.1619759322095, "lng": 105.39006567048692}, "feature": {"sight_features": "", "sight_content": ""}}, {"title": "川南古玩展览馆", "address": "龙脑大道574", "image": "", "rank": 43, "time": 2, "location": {"lat": 29.161671051317484, "lng": 105.37911447293368}, "feature": {"sight_features": "", "sight_content": ""}}, {"title": "廖刚农家乐玄景山庄", "address": "004县道北50米", "image": "", "rank": 44, "time": 2, "location": {"lat": 40.574666084131145, "lng": 116.56266536439895}, "feature": {"sight_features": "", "sight_content": ""}}, {"title": "动漫水世界", "address": "明星路8号", "image": "", "rank": 45, "time": 2, "location": {"lat": 31.381055151755643, "lng": 120.93870711724814}, "feature": {"sight_features": "", "sight_content": ""}}, {"title": "海潮湖", "address": "四川省泸县海潮乡", "image": "", "rank": 46, "time": 2, "location": {"lat": 28.97704576766556, "lng": 105.2916943002244}, "feature": {"sight_features": "", "sight_content": ""}}, {"title": "玉龙寺", "address": "四川省泸县胡市乡玉龙村", "image": "", "rank": 47, "time": 2, "location": {"lat": 29.189097632781785, "lng": 105.32660169865228}, "feature": {"sight_features": "", "sight_content": ""}}, {"title": "云顶寨", "address": "四川省隆昌县云顶镇", "image": "", "rank": 48, "time": 2, "location": {"lat": 29.245424842193316, "lng": 105.28095891607833}, "feature": {"sight_features": "", "sight_content": ""}}, {"title": "滨河商业步行街", "address": "四川省泸县清溪街", "image": "", "rank": 49, "time": 2, "location": {"lat": 29.157717865198528, "lng": 105.39466355381445}, "feature": {"sight_features": "", "sight_content": ""}}, {"title": "转金龙", "address": "泸州市-泸县-二零五乡道", "image": "", "rank": 50, "time": 2, "location": {"lat": 29.1576262957084, "lng": 105.38845608667467}, "feature": {"sight_features": "", "sight_content": ""}}, {"title": "关斗山村", "address": "泸州市-泸县", "image": "", "rank": 51, "time": 2, "location": {"lat": 29.1576262957084, "lng": 105.38845608667467}, "feature": {"sight_features": "", "sight_content": ""}}, {"title": "牛滩观斗山桃花源", "address": "泸州市-泸县-牛滩镇新林村八社", "image": "", "rank": 52, "time": null, "location": {"lat": 29.078898013542037, "lng": 105.33909727291913}, "feature": {"sight_features": "", "sight_content": ""}}]}