{"cityName": "泸州", "days": 2, "cityImage": "", "spots": [{"title": "太平古镇", "address": "泸州市古蔺县太平镇", "image": "", "rank": 1, "time": 2.5, "location": {"lat": 28.116106903402187, "lng": 106.08397323010662}, "feature": {"sight_features": "", "sight_content": ""}}, {"title": "泸州老窖旅游区", "address": "泸州市江阳区一环路与三星街交叉口东南角", "image": "", "rank": 2, "time": 1.5, "location": {"lat": 28.89085508259183, "lng": 105.4607322109829}, "feature": {"sight_features": "特色1 纯手工酿制生产现场的参观长廊 特色2 国家4A级旅游景区 特色3 探索中国浩瀚酒史文化的旅游胜地", "sight_content": "泸州老窖大曲池于2003年被省委省政府正式命名为四川省第三批爱国主义教育基地。基地秉承弘扬先进文化、传播中国传统文化的宗旨，坚持培养爱国主义情操的理念，充分利用基地优势和资源，以1573国宝窖池群和泸州老窖酒传统酿酒技艺“双国宝”为基地灵魂，精心设计了从“酿制过程”到“承载历史”再到“厚重品味”的参观路线，让广大市民、未成年人乃至全国宾客，在可观、可感、可品味的参观中，领略中国浩瀚酒文化的神奇、体会中国传统文化的魅力，激发爱国情怀、增强文化自信，切实以中国白酒为语言，讲述精彩的中国故事，充分发挥爱教基地的作用。"}}, {"title": "尧坝古镇", "address": "泸州市合江县尧坝镇兴尧路尧坝古镇", "image": "", "rank": 3, "time": 4.5, "location": {"lat": 28.74802683117343, "lng": 105.65454726156368}, "feature": {"sight_features": "", "sight_content": ""}}, {"title": "黄荆原始森林", "address": "古蔺县黄荆乡", "image": "", "rank": 4, "time": 3.0, "location": {"lat": 28.230218825299428, "lng": 105.77957754831833}, "feature": {"sight_features": "特色1 被誉为北纬28°线上最后的处女地 特色2 一个令人神往的人间仙境。 特色3 整个生态旅游区森林覆盖率达94％。 特色4 景区内分布着四峰、七岭、三十八溪和大小几十个瀑布。", "sight_content": "黄荆老林景区位于四川省古蔺县西北部，地理坐标为东经105°39′-105°52′北纬28°05′-28°20’，属云贵高原向四川盆地过渡带的赤水河流域，面积433平方公里，森林覆盖率高达96%以上，平均海拔1300多米，是典型的白垩系红色砂岩中山峡谷丹霞地貌区，也是地球同纬度（北纬28°C）唯一保存完好的亚热带原始常绿阔叶林区。\n红龙湖是一个人文景观，一个巨大的高山人工湖，为省级森林公园，海拔1580米，比白水洞景区高出300米左右。周围全县1600-1800米的高山，山顶是古老的原始森林，山下是常垠的人工林海，水库蓄水量800多万立方米，水深25米，明静如镜，青山倒映，微波荡漾，小船、游艇来往于十里湖面，消失在烟雨之中，远远望去，仿佛一条巨大的青龙蜷卧于崇山峻岭之中，让人心旷神怡。\n笋子山，是黄荆老林的主山脉，因其山势尖削盛产竹笋而得名，笋子山脉东西向横亘黄荆老林中部，主峰笋子山海拔1732m.山势陡峭，横亘天际，沟壑交错，道路崎岖，远望似一条蜿蜒与天际的绿带，缭绕于群峦和白云之间，原始林广布，古木参天，藤萝缠绕，多珍稀动植物。"}}, {"title": "清溪谷旅游区•花田酒地景区", "address": "泸州市纳溪区大渡口镇", "image": "", "rank": 5, "time": 2.0, "location": {"lat": 28.74870133410532, "lng": 105.23625326287986}, "feature": {"sight_features": "特色1 来一场“花文化”与“酒文化”体验 特色2 花与酒结合的创新体验", "sight_content": "﻿中国泸州•清溪谷旅游区，位于天府之南酒城泸州清溪河畔，规划建设99个中式白酒庄园、5个主题酒镇、3个配套集镇、1个山地运动公园、1个有机生态循环农场组成，涵盖“酒庄酿造体验、创意服务、休闲体育、旅游集镇、循环经济”等业态。总规划面积67平方公里，总投资170亿元，是中国迄今为止最宏大的酒文化旅游综合体开发项目，由泸州老窖文旅投资集团作为运作主体进行开发建设。\n中国泸州•清溪谷旅游区依托泸州老窖强大的品牌资源，雄厚的资本支撑，独特的资源禀赋，以酒文化旅游为核心，将最终打造成为世界蒸馏酒文化旅游目的地、新型中式庄园酒标准发源地、循环经济示范区及新型城镇化示范区。，吸引世界各地酒文化朝圣者为其驻足，引领全新的白酒体验消费模式。\n“花田酒地”景区位于泸州市纳溪区大渡口镇境内，清溪河与长江交汇处作为中国泸州•清溪谷旅游区启动项目总占地2500亩。\n作为清溪谷旅游区的门户景区，“花田酒地”景区是“花文化”与“酒文化”体验的完美结合的生态旅游景区，由四季花田、清溪河谷、动物造型花卉、温室花卉、半坡玫瑰谷等花田景观。\n3个中式白酒庄园、酒文化长廊、酒艺广场、荷田酒岛等酒文化景观；以及热气球、游船、漂流、旋转木马等娱乐项目体验区，生态餐厅、主题酒店、创意集市等创意老厂房度假项目体验区组成。"}}, {"title": "酒城乐园", "address": "泸州市江阳区春景路", "image": "", "rank": 6, "time": 7.5, "location": {"lat": 28.886073013205113, "lng": 105.41990800833238}, "feature": {"sight_features": "特色1 兼具趣味性、冒险性、刺激性和参与性 特色2 生态山谷和临江观景为主题的高科技乐园", "sight_content": "泸州酒城乐园位于泸州市江阳区城西公园东部山谷区，北与城北组团隔江相望，南与城西新城紧密相连，西至沱江三桥，东临百子图广场，区位条件优越，植被面积大。\n酒城乐园内设置有趣味性、冒险性、刺激性和参与性的各种游乐设备，是一个集现代游乐、寓教于乐、素质拓展、文化体验、设备互动、演绎参与为一体的游乐园。\n陆地乐园引进刺激类的箱体式四环过山车、88米摩天轮、极速风车、双层转马、高空摇摆伞、超级大摆锤、激流勇进、跳跃云霄、自旋滑车、海盗船、飓风飞椅、碰碰车、疯狂迪斯科等共30余个国内经典游乐设备。\n其中还有儿童欢乐世界、电玩等家庭亲子类项目；还包括无动力类的冰雪世界、古堡惊魂、海洋馆、嘉年华等多彩丰富的观光游乐项目，以及各种演艺类项目。"}}, {"title": "方山", "address": "泸州市江阳区方山镇", "image": "", "rank": 7, "time": 3.5, "location": {"lat": 28.804930643528984, "lng": 105.33423003088792}, "feature": {"sight_features": "", "sight_content": ""}}, {"title": "张坝桂圆林", "address": "泸州市江阳区茜草镇境内", "image": "", "rank": 8, "time": 1.0, "location": {"lat": 28.899526970810356, "lng": 105.47743369476473}, "feature": {"sight_features": "", "sight_content": ""}}, {"title": "欢乐派海滩公园", "address": "泸州市纳溪区蓝安路", "image": "", "rank": 9, "time": 2, "location": {"lat": 28.85756528078809, "lng": 105.44147659311147}, "feature": {"sight_features": "特色1 “美式乡村”风格，全景仿真的海滩度假营地。 特色2 世界最高水滑道--55m飓风滑道。 特色3 西南地区设备齐全的真沙大型水上乐园", "sight_content": "泸州欢乐派海滩公园位于美丽的中国酒城四川泸州纳溪区，毗邻长江湿地公园，总占地100余亩。主题围绕“美式乡村”风格，在一座远离海岸线的内陆城市呈现一个全景仿真的海滩度假营地：阳光、海浪、沙滩、棕榈树的浪漫；海啸、热浪、潮汐的奔放；各种游乐设备的尖叫体验；瀑布、山崖、林间栈道的漫步休闲；孩子们乐而忘返的欢乐天地和为小亲亲们准备的亲子水滩，演绎城市海滨度假浪漫情怀。\n项目共组合19组大型水上游乐设备，包括：20000㎡真空模拟海啸冲浪，10000㎡柔软细密的真沙海滩；水滑道--55m飓风滑道；奥林匹亚赛道、星际迷航；国内领先产品水上过山车、特洛伊木马、时空隧道；以及滑板冲浪、热浪谷漂流、超级互动水寨、亲子水滩等数十项高科技行业领先游乐项目。公园配套服务设施有年轻人青睐的文化长廊、西班牙风情商铺、特色美食街，山顶咖啡、鲨鱼吧，DIY工坊，休闲会所，海岸舞台。公园采用国内先进的水循环处理系统，保证池水4小时循环一次，用水达到饮用水标准，确保每一位游客的健康与安全。\n\n1、大喇叭滑道   欢乐指数：★★★★★\n欢乐派耀眼的明星，强劲的视觉冲击，坐在四叶皮筏内，从20米的平台起滑，在空中蜿蜒摆渡，瞬时穿越45°的急速坡道中，冲入巨大喇叭体内，如同被龙卷风吸进去一般，让你感受不一样的速度与激情，忘掉自我，放声尖叫。当然，你也可以驻足观景平台，为你的朋友和家人记录下精彩一刻。\n2、流星球滑道   欢乐指数：★★★★★★\n托起你在整个星际中穿梭游荡，时不时让你体验从管状星系超速滑向流星球星系的跌宕起伏，从流星球星系牵引到地球引力的自由落体，最终回到地球的快感；滑行过程中强大引力让你体验刺激心跳。\n游蛇滑道：蜿蜒缠绵的游蛇滑道，以沉静柔软为主，吞吐抑扬，让你在不同的大小滑道内穿梭游荡，突然经过一个个的连续急转和反转，节节通灵，每一个不经意的转弯都让你兴奋不已，挑战人体弯道极限。\n3、时空隧道   刺激指数：★★★★★\n人体发射装置和360°透明滑管及漩涡缸的完美结合，当你进入人体发射装置，随着3.2.1发射的倒计时，瞬时急速下降，尽享风驰电掣般的滑行体验，急速俯冲、上跃滑行，一不小心就迷失了方向。\n4、奥林匹亚赛道   欢乐指数：★★★★★\n奥林匹亚的精神是什么？更高、更快、更强！国内第一台双人盘旋竞赛滑道。更高，从近20米的高处，6条齐头并进；更快，在整个滑行过程中穿越各种蜿蜒的赛道，达到近10m/s的速度；更强，两两搭档配对，通过默契的配合滑行，团结的力量，不断努力向终点一步步迈进，取得最终胜利的人，可以骄傲的自称：“奥林匹亚人”。\n5、螺旋4组合  欢乐指数：★★★★\n组合型滑道，让你在这里可以一次性体验到封闭、开敞、流光、时空穿梭流光四种滑行体验；封闭滑道，感受黎明前冲刺的感觉，希望就在前方；开敞滑道，像是在热带森林中穿梭，冲出亚马逊森林；流光滑道，在半透明的流光滑道中穿梭滑行，时而急促，时而缓慢，犹如在光影中穿梭的使者；时空穿梭滑道，人在五彩斑斓的光带中在高速穿梭，强烈的视觉冲击和感官体验。\n6、热浪谷漂流河   欢乐指数：★★★★\n长达600米的热浪谷漂流河在公园内蜿蜒流淌，是名副其实的“水上阳光慢摇吧”。漂流过程中，将带领你展开神秘的探险之旅，激烈暗流冲击的热浪谷，享受头顶云卷云舒，身体一抹清凉，带给你别致的漂流体验。\n7、大黄蜂+台风眼组合   欢乐指数：★★★★★\n大黄蜂滑道：西部第一台大黄蜂滑道，全长近百米的蜿蜒滑道，震撼的外形和色彩的冲击，由三个的“小喇叭”错落串联而成，在急速下滑的过程中结合了翻滚、旋转、跌宕起伏的刺激体验。\n台风眼滑道：顺着蜿蜒曲折的封闭滑道，从陡坡中漂流而下滑入来自星星的五彩台风眼中，旋转数圈徘徊后滑入水池，离心力滑行轨道的独特设计，造就了它不一般的魅力，让你感受在海底漩涡中激流勇进、行云流水的刺激感受。\n8、滑板冲浪   欢乐指数：★★★★★\n想体验一下在大海上乘风破浪的感觉吗，想感受在滑板上尽情与浪花绽放精彩的感觉吗，想秀一秀你在水中前滚翻冲浪绝技吗，滑板冲浪就是你施展个人魅力的舞台，不需要标准的冲浪姿势，在这你可以任意展示你的个人魅力，与“浪”共舞。\n9、水上过山车   欢乐指数：★★★★\n创新“水悬浮”技术，颠覆传统，推动游客由下向上冲坡登高。越坡、俯冲带给游客犹如过山车般酣畅淋漓的经历，封闭与开敞顺畅连接，带给你变幻的视觉体验。\n10、亲子水滩    欢乐指数：★★★★★\n专为幼儿量身打造的趣味滑道和十余种戏水小品，造型可爱的卡通滑道，种类多样的互动设施，迸溅的水花中洋溢着稚嫩的欢笑，编织出五彩绚烂的童梦世界。\n11、超级互动水寨    欢乐指数：★★★★★\n超级互动水寨被誉为水上乐园的“缩小版”，是综合性家庭水上嬉水项目。由众多盘旋而上的阶梯、滑道、水枪水炮、爬网等构建的开心屋，恣意尽兴的平台。\n你可以选择从各式各样的滑道直入水中，或是直接站在水里，等待翻斗桶从天而降的巨大水花浇个透心凉。感受欢乐的风情，尽情畅玩！\n12、海啸冲浪   欢乐指数：★★★★★\n这里是西南地区优质的城市海滩，有超百米热带风景海岸线，逾10000㎡的真沙海滩，当3m多高的海啸浪墙席卷而来，一起举起双臂跟着动感的音乐尽情享受浪花冲击的无限快感。你可以悠闲地坐在沙滩椅上，偷得浮生半日闲；也可以与伴侣牵手漫步、与朋友沙滩排球，让家里的小宝贝在你身上堆出最棒的沙雕作品，与浪花共舞，与海风共歌。\n13、飓风塔滑道   刺激指数：★★★★★★★\n55M，全球最高的水滑道，城市新地标，打破设计的束缚，挑战人体的极限，让你体验全球前所未有的超凡刺激，如它的名字一样，每一刻都让在飓风中冲刺，这是专为勇敢者设计的专属挑战——“在高处放下自己，在低处找回全新的自我”。\n\n精彩演艺：沙滩狂欢节、海啸冲浪秀、沙滩DJ派对、异域风情秀、桑巴狂欢巡游、俄罗斯美女巡游、原始部落表演等。"}}, {"title": "佛宝森林公园", "address": "泸州市合江县城东南部", "image": "", "rank": 10, "time": 4.5, "location": {"lat": 28.81779304283959, "lng": 105.8384319588538}, "feature": {"sight_features": "", "sight_content": ""}}, {"title": "报恩塔", "address": "泸州市江阳区白塔广场北", "image": "", "rank": 11, "time": 1.0, "location": {"lat": 28.89734381402283, "lng": 105.45864321140148}, "feature": {"sight_features": "", "sight_content": ""}}, {"title": "笔架山风景名胜区", "address": "泸州市合江县境内", "image": "", "rank": 12, "time": 1.0, "location": {"lat": 28.81779304283959, "lng": 105.8384319588538}, "feature": {"sight_features": "", "sight_content": ""}}, {"title": "天仙硐", "address": "泸州市纳溪区天仙硐", "image": "", "rank": 13, "time": 2, "location": {"lat": 28.614188884327664, "lng": 105.39060526374216}, "feature": {"sight_features": "", "sight_content": ""}}, {"title": "玉蟾山", "address": "泸州市区以北35公里， 泸县福集镇", "image": "", "rank": 14, "time": 2.5, "location": {"lat": 29.1735921433758, "lng": 105.35329341048197}, "feature": {"sight_features": "", "sight_content": ""}}, {"title": "凤凰湖风景区", "address": "泸州市纳溪区大渡口镇", "image": "", "rank": 15, "time": 2, "location": {"lat": 28.74870133410532, "lng": 105.23625326287986}, "feature": {"sight_features": "", "sight_content": ""}}, {"title": "国窖广场", "address": "泸州市江阳区", "image": "", "rank": 16, "time": 2, "location": {"lat": 28.884671972905426, "lng": 105.44154513382188}, "feature": {"sight_features": "", "sight_content": ""}}, {"title": "汉代画像石棺博物馆", "address": "泸州市合江县合江镇学坎上巷224号", "image": "", "rank": 17, "time": 2.0, "location": {"lat": 28.807886350778244, "lng": 105.84448561992082}, "feature": {"sight_features": "", "sight_content": ""}}, {"title": "龙透关", "address": "泸州市区江阳西路", "image": "", "rank": 18, "time": 1.0, "location": {"lat": 28.879413467771705, "lng": 105.44687934649771}, "feature": {"sight_features": "", "sight_content": ""}}, {"title": "春秋祠", "address": "泸州市叙永县西外街", "image": "", "rank": 19, "time": 1.0, "location": {"lat": 28.176914046866987, "lng": 105.44092238083236}, "feature": {"sight_features": "", "sight_content": ""}}, {"title": "泸州老窖国宝窖池", "address": "泸州市江阳区营沟头，泸州老窖股份有限公司一车间内", "image": "", "rank": 20, "time": 1.0, "location": {"lat": 28.894813033560897, "lng": 105.43739478270605}, "feature": {"sight_features": "", "sight_content": ""}}, {"title": "云溪温泉", "address": "泸州市纳溪区白节镇映月路2号", "image": "", "rank": 21, "time": 2, "location": {"lat": 28.67870017295218, "lng": 105.4815029531473}, "feature": {"sight_features": "", "sight_content": ""}}, {"title": "丹山风景区", "address": "泸州市叙永县城，东16公里处", "image": "", "rank": 22, "time": 2, "location": {"lat": 28.161714341910837, "lng": 105.45150761141588}, "feature": {"sight_features": "", "sight_content": ""}}, {"title": "佛宝古镇", "address": "泸州市合江县城东南42公里的大漕河畔", "image": "", "rank": 23, "time": 3.0, "location": {"lat": 28.81779304283959, "lng": 105.8384319588538}, "feature": {"sight_features": "", "sight_content": "佛宝古镇位于川南边陲，大漕河畔。早在唐宋时期即为川盐入黔的盐道必经之地，元末明初形成商贸集镇，始称新场，清康熙时始称佛宝，是大漕河流域政治、经济、文化中心，兴镇至今已600多年历史古镇依山而建，随水而走，三水相汇，五桥相通，高低起伏，曲折多姿，同山水结合，与自然统一，青石街道弯延逶迤，老房古阁栉比鳞次，更有青山环抱，绿荫掩映，专家称之为“山地建筑的精华”，“一首空间交响乐”。古镇因地处川南黔北接壤部位，处于夜郎文化与中原文化交汇之处，从而形成独特的历史文化。座座明清建筑、宫庙坛祠，处处吊脚木楼、雕刻绘画，以及幽婉的唢呐古乐、古朴的民俗演唱，无不凝聚着历史文化的灿烂光辉。"}}, {"title": "百子图文化广场", "address": "泸州市区，沱江之滨", "image": "", "rank": 24, "time": 1.0, "location": {"lat": 28.963034362958634, "lng": 105.26774970186372}, "feature": {"sight_features": "", "sight_content": ""}}, {"title": "龙脑桥", "address": "泸州市泸县福集镇321国道", "image": "", "rank": 25, "time": 1.0, "location": {"lat": 29.230266995152753, "lng": 105.36632525247707}, "feature": {"sight_features": "", "sight_content": ""}}, {"title": "九狮山", "address": "泸州市龙马潭区091乡道安宁乡", "image": "", "rank": 26, "time": 1.0, "location": {"lat": 28.966049961737184, "lng": 105.43538248853382}, "feature": {"sight_features": "", "sight_content": ""}}, {"title": "玉龙湖风景区", "address": "泸州市泸县", "image": "", "rank": 27, "time": 2, "location": {"lat": 29.1576262957084, "lng": 105.38845608667467}, "feature": {"sight_features": "", "sight_content": ""}}, {"title": "二郎美酒河（赤水河）", "address": "赤水河南岸蜈蚣悬岩上", "image": "", "rank": 28, "time": 1.0, "location": {"lat": 29.50268309883491, "lng": 106.66842977859555}, "feature": {"sight_features": "", "sight_content": ""}}, {"title": "天展温泉度假酒店温泉", "address": "泸州市泸县玉蟾温泉国际度假区东北", "image": "", "rank": 29, "time": 2, "location": {"lat": 29.15115799528796, "lng": 105.3902635671907}, "feature": {"sight_features": "特色1 温泉泡池，水质清晰、生态养生", "sight_content": "泸州天展名人温泉度假酒店由神州天立集团投资有限公司投资兴建，占地面积73亩，总投资2.3亿元，按照国家五星级旅游饭店标准打造，是一家集商务（政务）住宿、会议接待、温泉理疗、休闲度假、养生膳食、康体娱乐为一体的多功能的原生态温泉度假酒店。\n\n\n酒店最具特色的玉蟾温泉，取于1980米地下深处，出水温度40℃，出水量常年稳定在1000立方米/日以上。经四川省地质勘察院鉴定，该温泉水富含硫化氢、偏硼酸、偏硅酸、碘等多种对人体有益的微量元素，水质清澈，无色无味，是保健、美容的最佳温泉水。"}}, {"title": "花田酒地漂流", "address": "泸州市纳溪区大渡口镇花田酒地景区内", "image": "", "rank": 30, "time": 2, "location": {"lat": 28.74870133410532, "lng": 105.23625326287986}, "feature": {"sight_features": "特色1 距离泸州主城区最近的漂流。 特色2 时而湍急如梭、时而舒缓、时而逐浪飞行、时而跌宕起伏。", "sight_content": "花田酒地漂流位于泸州花田酒地景区内，距离泸州主城区30公里，交通便利，是距离泸州主城区最近的漂流。\n\n花田酒地漂流全长约3公里，全程总落差高达80米，最长连续落差200余米，大小落差连接不断，全程漂流用时1小时左右，令人目不暇接。\n在峡谷中蜿蜒穿行，时而湍急如梭、时而舒缓、时而逐浪飞行、时而跌宕起伏，让人心旷神怡，乐不思归。"}}, {"title": "朱德旧居", "address": "泸州江阳区18公里的况场街", "image": "", "rank": 31, "time": 1.0, "location": {"lat": 28.86614869423887, "lng": 105.31371410386102}, "feature": {"sight_features": "", "sight_content": ""}}, {"title": "欢乐海底世界", "address": "泸州市佳乐世纪城欢乐汇负一层", "image": "", "rank": 32, "time": 1.5, "location": {"lat": 28.89987461933974, "lng": 105.41454981898418}, "feature": {"sight_features": "特色1 都市型娱乐休闲景区", "sight_content": "欢乐海底世界是集海洋动物展示、情景表演、科普教育、休闲旅游为一体的都市型娱乐休闲景区，整个海洋馆由17主题场馆组成，三台主力剧目海底美人鱼、海豚湾之恋、欢乐海洋动物秀轮番上演。"}}, {"title": "红军四渡赤水太平渡陈列馆", "address": "泸州市古蔺县太平镇", "image": "", "rank": 33, "time": 1.0, "location": {"lat": 28.116106903402187, "lng": 106.08397323010662}, "feature": {"sight_features": "", "sight_content": ""}}, {"title": "画稿溪国家级自然保护区", "address": "泸州市叙永县水尾镇", "image": "", "rank": 34, "time": 3.5, "location": {"lat": 28.317291492267042, "lng": 105.54573663626128}, "feature": {"sight_features": "", "sight_content": ""}}, {"title": "古郎洞风景区", "address": "泸州市古蔺县东新镇李家寨", "image": "", "rank": 35, "time": 2.5, "location": {"lat": 28.035744098440567, "lng": 106.11645811865975}, "feature": {"sight_features": "特色1 洞穴景观品类中最丰富的喀斯特洞穴", "sight_content": "古郎洞原名青龙洞，形成与白垩纪年代，至今已有几亿年成长历史。古郎洞已探明洞长6.6公里，目前开发洞长2.5公里。洞内景观丰富，形态各异的钟乳石栩栩如生，石瀑、石灵芝、石珊瑚、石柱、石花等奇观随处可见；钙化池面积庞大，晶莹如玉，碧水从天而降，形成了仙境瑶池景观，被誉为“洞中黄龙”；洞中视野开阔，四个高约百米的洞厅首尾相连，穹顶各具特色，有的像挂满繁星的浩瀚夜空，有的如国画大师笔下的泼墨山水，夺人眼目、幻如仙境。洞内的汹涌暗河、地下峡谷等奇特景观为古郎洞最奇美的景观，国内罕见。古郎洞是目前川渝地区地质遗迹形态最完整，洞穴景观品类最丰富的喀斯特洞穴。古郎洞位于四川古蔺县境内，紧邻历史文化名镇太平镇和二郎镇。距古叙高速公路太平出口18公里。\n\n\n古蔺地处四川盆地南缘与云贵高原北麓，赤水河及其大小支流穿插迂回，地貌呈现出地势高峻，河谷深切的特点；石灰岩发育出众多溶洞，古郎洞是赤水河流域景观最丰富、发育最完整的代表性浴洞。\n古郎洞具有“洞幽、石奇、景绚、峡秀”的特点。\n\n洞幽\n古郎洞主洞长5000米，目前已开发2800米，最宽处120米，最高处80米，洞内面积近60万平方米，容积超过200万立方米，其地下阴河更是长达数十公里。亘古以来，鲜有人迹，洞穴深处还生息着多种神奇生物。\n石奇\n古郎洞所在地区地层古老，构造复杂，岩溶物有着多层次、多阶段和多类型的特点。洞内，石笋、石柱、石林、石幔、石盾、石旗、石花、石瀑布、石花、石芽和鹅管等多种堆积物应有尽有，相当于一个还在不断生长发育的大型天然地质博物馆。\n景绚\n国内领先团队设计打造的古郎洞灯光迷离，色彩斑斓，更能展示出洞穴的幽、绚、险、奇。尤其是洞内大面积的边石坝及水潭，在灯光的映衬下，足已与黄龙钙华景观相比，被人称为洞中黄龙。\n峡秀\n古郎洞位于半山之间，其下是数里长的盐井峡谷，两岸峻岭高耸，绝壁如削；谷底溪流淙淙，怪石嶙峋。更有举目可及的田园风光，营造出一幅秀丽的天然图画。人行谷中，俗事消弭，实乃避世静修之世外秘境。"}}, {"title": "金夫人四季花海", "address": "州市龙马潭区魏园村", "image": "", "rank": 36, "time": 2, "location": {"lat": 28.933985563856197, "lng": 105.53977942805345}, "feature": {"sight_features": "", "sight_content": ""}}, {"title": "黄龙湖漂流", "address": "泸州市纳溪区黄龙湖至上马镇仙人岩脚下", "image": "", "rank": 37, "time": 2, "location": {"lat": 28.529334401696715, "lng": 105.33094638738548}, "feature": {"sight_features": "特色1 冒险与趣味并存的森林漂流体验", "sight_content": "世界上有三个黄龙湖：一个在书里，一个在梦里，一个在“中国·麒麟水镇”。\n泸州市纳溪区上马镇，距离泸州主城区40余公里，纳溪城区25公里，距离纳黔高速护国站出口8公里，交通十分便利，黄龙湖的天然漂流河道长约5公里，共有10处激流点、耗时约2个半小时，急缓搭配，双重漂流体验，穿涧过滩，逐流戏水，冒险与趣味并存，在林海花潮中顺流而下，在山、水、林间体验自然情趣，感受森林漂流带来的快感，惊险刺激的漂流结束，还可以在景区内驻足参观。"}}, {"title": "龙桥百花洲", "address": "泸州市泸县福集镇小马滩村龙桥文化生态园内", "image": "", "rank": 38, "time": 2, "location": {"lat": 29.19140083324297, "lng": 105.38683261326264}, "feature": {"sight_features": "", "sight_content": ""}}, {"title": "忠山公园", "address": "四川省泸州市江阳区境内", "image": "", "rank": 39, "time": 2.5, "location": {"lat": 28.884671972905426, "lng": 105.44154513382188}, "feature": {"sight_features": "", "sight_content": ""}}, {"title": "泸州博物馆", "address": "泸州市江阳区江阳西路37号", "image": "", "rank": 40, "time": 2.5, "location": {"lat": 28.879380949649626, "lng": 105.43875580538376}, "feature": {"sight_features": "", "sight_content": ""}}, {"title": "乐道古镇", "address": "四川省泸州市纳溪区", "image": "", "rank": 41, "time": 2, "location": {"lat": 28.779359901657617, "lng": 105.3774085458555}, "feature": {"sight_features": "", "sight_content": ""}}, {"title": "鼓楼山", "address": "四川省泸州市纳溪区龙车乡", "image": "", "rank": 42, "time": 2, "location": {"lat": 28.789966069174824, "lng": 105.54263594435385}, "feature": {"sight_features": "", "sight_content": ""}}, {"title": "泸县宋代石刻博物馆", "address": "泸州市泸县玉蟾街道文博路", "image": "", "rank": 43, "time": 1.0, "location": {"lat": 29.15115799528796, "lng": 105.3902635671907}, "feature": {"sight_features": "", "sight_content": ""}}, {"title": "十二湾枇杷山庄", "address": "321国道西50米", "image": "", "rank": 44, "time": 2, "location": {"lat": 23.231187385915014, "lng": 112.93264042414685}, "feature": {"sight_features": "", "sight_content": ""}}, {"title": "水洞坪景区", "address": "泸州市古蔺县鱼化乡鱼丰村", "image": "", "rank": 45, "time": 2, "location": {"lat": 27.980373760276862, "lng": 106.00524020077792}, "feature": {"sight_features": "", "sight_content": ""}}, {"title": "犀牛峡", "address": "四川省泸州市龙马潭区特兴镇", "image": "", "rank": 46, "time": 2, "location": {"lat": 28.938933317337046, "lng": 105.5295154836219}, "feature": {"sight_features": "", "sight_content": ""}}, {"title": "泸州市规划展览馆", "address": "泸州市江阳区钓鱼台路百子图广场西侧", "image": "", "rank": 47, "time": null, "location": {"lat": 28.886393667846338, "lng": 105.43902324261195}, "feature": {"sight_features": "", "sight_content": ""}}, {"title": "奇峰镇", "address": "四川省泸州市泸县奇峰镇位于泸县中部", "image": "", "rank": 48, "time": 2, "location": {"lat": 29.11875098919631, "lng": 105.55614025013178}, "feature": {"sight_features": "", "sight_content": ""}}, {"title": "泸州法王寺", "address": "泸州市合江县二里乡凤凰山风景区", "image": "", "rank": 49, "time": 2.5, "location": {"lat": 28.67391714341869, "lng": 105.70520043654169}, "feature": {"sight_features": "", "sight_content": ""}}, {"title": "夫妻树", "address": "四川省泸州市叙永县合乐苗族乡", "image": "", "rank": 50, "time": 0.35, "location": {"lat": 28.166111538103408, "lng": 105.59485469156394}, "feature": {"sight_features": "", "sight_content": ""}}, {"title": "方山云峰寺", "address": "四川省泸州市江阳区方山镇", "image": "", "rank": 51, "time": 4.0, "location": {"lat": 28.804930643528984, "lng": 105.33423003088792}, "feature": {"sight_features": "", "sight_content": ""}}, {"title": "倒流河旅游区", "address": "四川省泸州市纳溪区棉花坡乡", "image": "", "rank": 52, "time": 2, "location": {"lat": 28.791314347407894, "lng": 105.40064133142185}, "feature": {"sight_features": "", "sight_content": ""}}, {"title": "二郎古镇", "address": "泸州市古蔺县二郎镇郎酒街", "image": "", "rank": 53, "time": 2, "location": {"lat": 28.09998640251691, "lng": 106.19427204041808}, "feature": {"sight_features": "", "sight_content": ""}}, {"title": "佛宝自怀景区", "address": "泸州市合江县445乡道西50米", "image": "", "rank": 54, "time": 2, "location": {"lat": 28.81779304283959, "lng": 105.8384319588538}, "feature": {"sight_features": "", "sight_content": ""}}, {"title": "杨桥湖旅游度假风景区", "address": "四川省泸州市江阳区蓝田镇杨桥村", "image": "", "rank": 55, "time": 2, "location": {"lat": 28.84650549032912, "lng": 105.46463070597959}, "feature": {"sight_features": "", "sight_content": ""}}, {"title": "天源山庄", "address": "石桥镇西侧", "image": "", "rank": 56, "time": 2, "location": {"lat": 32.14972310040308, "lng": 119.74627783059972}, "feature": {"sight_features": "", "sight_content": ""}}, {"title": "红龙湖", "address": "四川泸州古蔺县城北部", "image": "", "rank": 57, "time": 2, "location": {"lat": 28.044745368759, "lng": 105.81947079564709}, "feature": {"sight_features": "", "sight_content": ""}}, {"title": "高洞瀑布风景区", "address": "四川省泸县百和镇 646102", "image": "", "rank": 58, "time": 1.5, "location": {"lat": 29.066461218737818, "lng": 105.728472234618}, "feature": {"sight_features": "", "sight_content": ""}}, {"title": "meland儿童成长乐园", "address": "酒城大道四段", "image": "", "rank": 59, "time": 2, "location": {"lat": 28.902042021617305, "lng": 105.42110493844096}, "feature": {"sight_features": "", "sight_content": ""}}, {"title": "海豚号潜水俱乐部", "address": "酒城大道四段1号", "image": "", "rank": 60, "time": 2, "location": {"lat": 28.902042021617305, "lng": 105.42110493844096}, "feature": {"sight_features": "", "sight_content": ""}}]}