{"cityName": "马边", "days": 2, "cityImage": "", "spots": [{"title": "马边大风顶自然保护区", "address": "乐山市马边彝族自治县", "image": "", "rank": 1, "time": 1.0, "location": {"lat": 28.841736014812202, "lng": 103.55245419105162}, "feature": {"sight_features": "", "sight_content": ""}}, {"title": "杨家村娱乐园", "address": "103省道", "image": "", "rank": 2, "time": 2, "location": {"lat": 39.16211906866746, "lng": 117.4666343312951}, "feature": {"sight_features": "", "sight_content": ""}}, {"title": "荞坝古镇", "address": "四川省马边彝族自治县荞坝乡 614608", "image": "", "rank": 3, "time": 7.5, "location": {"lat": 28.80963065134112, "lng": 103.73926041501187}, "feature": {"sight_features": "", "sight_content": ""}}, {"title": "杨老五休闲农庄", "address": "滨河西路67号附近", "image": "", "rank": 4, "time": 2, "location": {"lat": 28.845804392690347, "lng": 103.55108607176037}, "feature": {"sight_features": "", "sight_content": ""}}, {"title": "三国古战场遗迹", "address": "四川省马边彝族自治县马边县境内 614600", "image": "", "rank": 5, "time": 2, "location": {"lat": 28.841736014812202, "lng": 103.55245419105162}, "feature": {"sight_features": "", "sight_content": ""}}, {"title": "马边彝族自治县马儿山森林公园", "address": "四川省乐山市马边彝族自治县", "image": "", "rank": 6, "time": 2, "location": {"lat": 28.841736014812202, "lng": 103.55245419105162}, "feature": {"sight_features": "", "sight_content": ""}}, {"title": "青岛啤酒广场", "address": "乐山市马边彝族自治县滨河东路10号", "image": "", "rank": 7, "time": 2, "location": {"lat": 28.840846400294023, "lng": 103.55412511819435}, "feature": {"sight_features": "", "sight_content": ""}}, {"title": "三九广场", "address": "乐山市马边彝族自治县新建街226号", "image": "", "rank": 8, "time": 2, "location": {"lat": 28.842220121448047, "lng": 103.55192566941177}, "feature": {"sight_features": "", "sight_content": ""}}, {"title": "158啤酒广场", "address": "民建镇鄢家坝路新城滨河帝景I期东", "image": "", "rank": 9, "time": 2, "location": {"lat": 34.272724469532555, "lng": 108.96739103850439}, "feature": {"sight_features": "", "sight_content": ""}}, {"title": "聚美画廊", "address": "时代东光一期滨河东路62号", "image": "", "rank": 10, "time": 2, "location": {"lat": 28.840943835048247, "lng": 103.55498202275587}, "feature": {"sight_features": "", "sight_content": ""}}]}