{"cityName": "麻城", "days": 2, "cityImage": "", "spots": [{"title": "五脑山森林公园", "address": "黄冈麻城市五脑山森林公园", "image": "", "rank": 1, "time": 7.5, "location": {"lat": 31.23232398344126, "lng": 115.0014136219571}, "feature": {"sight_features": "特色1 风景优美，动植物和名胜古迹繁多", "sight_content": "五脑山国家森林公园位于麻城市西北，是以森林观光、科普、涵养为主导，以休闲、度假、朝圣、寻根为辅的城市森林公园。\n总面积24平方公里，森林覆盖率95%。景区自然风景优美。山势连绵起伏、云山雾海、松涛阵阵，山中白鸟鸣唱、山花烂漫、清爽宜人，山脚竹林如海、水波涟涟、青山绿水，令人流连忘返；人文景观多姿多彩，洞、寺、馆、亭、独具特色，麻姑仙洞、凤岭朝云、白云台为麻城“三台八景”中的三景，帝主庙、法华寺分别是麻城道教、佛教活动中心，以“佛道同山、佛道合一”而闻名；公园文化自成体系，麻姑文化、佛道共荣文化、红色文化、寻根文化、生态文化在此汇集和融合，形成五脑山独特的文化体系。"}}, {"title": "龟峰山", "address": "黄冈市麻城市龟峰镇龟峰山风景区", "image": "", "rank": 2, "time": 3.0, "location": {"lat": 31.101368924174686, "lng": 115.23633746923115}, "feature": {"sight_features": "特色1 山势险峻，终日白云环绕，如入仙境 特色2 阳春时节，山势巍峨，杜鹃漫野，烟霞灿烂", "sight_content": "麻城市龟峰山风景区位于麻东的龟山乡境内，距市区30公里，由龟头、龟腰、龟尾等9座山峰组成，方圆100多公里，最高海拔1320米。因其地形山势酷似一只昂首吞日的神龟而得名“龟山”，是大别山中的名山。\n龟山风景区内山势险峻，尤其是神似龟头的龟峰在连绵起伏的群山中拔地而起，垂直高度达300余米，终日白云环绕，登临其顶，如入仙境。龟头至龟尾延绵25公里，其间是50多平方公里的大片原始森林，需穿越数道峡谷，沿途苍松古树、千年绿藤遮天蔽日，野猕猴桃、山楂、毛栗、野葡萄密布；清澈见底的山涧、溪流纵横交错，娃娃鱼成群游戈其中，是一条极佳的野营爬山线路。\n龟山风景区拥有丰富的人文资源，古有唐太宗李世民登临龟尾御笔题写的“能仁寺”，一代文豪曹操亲临龟头题写的对联(现存化主庙门楹)，今有1958年董必武视察龟山的题诗：“昔日游击地，今为产茶区。龟峰名久著，牯岭德不孤。烂漫红花胜 ，蒙茸绿草铺。此山藏宝物，前进莫踌躇。”"}}, {"title": "桐枧冲瀑布群风景区", "address": "黄冈市麻城市黄土岗镇桐枧冲瀑布风景区", "image": "", "rank": 3, "time": 2, "location": {"lat": 31.379423412702426, "lng": 115.08366369345126}, "feature": {"sight_features": "", "sight_content": ""}}, {"title": "天景山大峡谷漂流", "address": "黄冈市麻城市木子店镇", "image": "", "rank": 4, "time": 2.5, "location": {"lat": 31.24202307475535, "lng": 115.40459433664185}, "feature": {"sight_features": "特色1 天景山漂流河道自上而下途经三峡、六瀑、九潭、十八湾，漂流河道设计流畅、绝美！ 特色2 有野花遍布浪漫绚丽的“花中漂”，有奇趣逍遥瓜果飘香的“瓜下漂”，以及刺激销魂飞瀑成群、落差达186米的“飞瀑漂”，三段漂流河道集合国内最完整漂流河道体验，全国独一无二！ 特色3 在这里漂流您不仅能领略原始的搏浪闯滩，惊而无险的野趣体验，观赏沿途悬崖峭壁、瀑布成群的奇特自然景观，还能在大别山民俗文化展示区体验独特的地域文化，留下难以忘怀的记忆！", "sight_content": "麻城天景山飞瀑漂流位于中国漂流谷--红色旅游及避暑胜地--麻城木子店镇，与5A级风景区龟峰山距离12公里，4A级风景区薄刀峰距离21公里，2009年正式对外营业，以嗨和趣著称，是武汉周边游客首推的峡谷飞瀑漂流景区；景区位于湖北、安徽两个省会城市中间，武汉、鄂东高速1.5小时直达，合肥2小时直达景区；景区风景秀丽、气候宜人，森林覆盖率达80%，林木繁茂，瀑布飞群，是休闲避暑、猎奇探险、科研考察，寻求品味大自然原始、古朴、神秘的首选之地。\n\n\n2016年国家体育总局正式授牌黄冈市为“中国漂流谷”称号，天景山飞瀑漂流作为华东窗口重点推荐。漂流河道全长5.8公里，漂流时长约1.5-2.5小时；河道沿途林木繁茂，瀑布飞群，自然风光秀丽多姿。景区按照4A级风景区标准规划建设，起点服务区总面积达6500平方米，设有停车场、更衣室、售票点、游客服务平台、星级环保卫生间、游客服务中心等配套设施，终点服务区面积约6100平方米，设有游客接待中心、停车场、更衣室等配套设施，景区水源充足，水质清澈，大水库为国家水利风景区，小水库为调节坝，自开漂数十年来，从未缺水。\n天景山大峡谷漂流景区内峡谷幽深、滩多浪急、古木参天、怪石林立、峭岩飞瀑、风光迷人。天景山漂流以其安全的水源保障、茂密的原始丛林风光、罕见的青石板漂流河床而彰显出与众不同的特点。登上橡皮艇，奔流而下，一路搏激浪、闯险滩、滑奇石，既有乘过山车的动感刺激，又有乘滑翔机的畅快淋漓；尽情体验“艇在丛林漂，人在画中游”之趣。天景山飞瀑漂流的河道设计宽度为３米，急滩处采用目前国内先进的漏水和双向S滑道，确保安全、刺激，同时保持原生态，景区内自上而下途经三峡、六瀑、九潭、十八湾，其中，漂流河道上段长3公里，为浪漫激情漂流河道；中段长1公里，为逍遥体验漂流河道；最后一段长1.8公里，为自然山体高空滑道，飞瀑滑翔漂流由北京和广东等知名专家设计、施工，有惊无险、有趣无险、一流设施，安全无忧，被誉为“华中落差第一漂”。\n\n\n天景山飞瀑漂流景区内峡谷幽深、滩多浪急、古木参天、怪石林立、峭岩飞瀑、风光迷人，以其安全的水源保障、茂密的原始丛林风光、罕见的青石板漂流河床而彰显出与众不同的特点，登上橡皮艇，奔流而下，一路搏激浪、闯险滩、滑奇石，既有乘过山车的动感刺激，又有乘滑翔机的畅快淋漓，尽情体验“艇在丛林漂，人在画中游”之趣。天景山飞瀑漂流景区作为武汉周边游最适合的漂流线路之一，景区附近还有龟峰山、桐枧冲瀑布群、古孝感乡都、薄刀峰、五脑山国家森林公园等避暑胜地，炎炎夏日，来一场夏日漂流，留的一份清闲，还你一次洗礼！"}}, {"title": "古孝感乡都生态旅游度假村", "address": "黄冈市麻城市003乡道沈家庄", "image": "", "rank": 5, "time": 2, "location": {"lat": 31.164286770102176, "lng": 115.08500454288259}, "feature": {"sight_features": "特色1 沈家庄独特的地形地貌和自然山水为依托", "sight_content": "麻城市古孝感乡都生态旅游度假村，位于麻城市鼓楼沈家庄。是由麻城市花之都国际大酒店投资打造及配套完善管理的。她是六十余万四川人心中的故乡圣地，是麻城湖广文化的发源地，每年寻根问祖的四川、重庆人络绎不绝。\n整个度假村是按照国际五星级休闲度假酒店标准设计、建设打造的仿古建筑群。度假村规划面积一百余亩，主要经营项目有：餐饮、住宿、别墅、会议、休闲、水上娱乐游船、空中滑索、彩虹吊桥、户外烧烤、篝火广场、生态种植采摘、生态养殖、阿瓦山寨、滑草、蒙古风情草原牧场、豪华转马、魅力乡都美食长廊等。\n度假村酒店两侧是东西走向的公寓楼，自西向东长100余米，两楼之间是按照明清古典风格设计的魅力乡都美食长廊，经营具有麻城特色的吊锅、古朴孝感乡风味的土炉菜及湘西特色的土灶台等美食。\n左边角是高五层的酒店式高级公寓楼，占地一万平方米，建筑面积6000平方米，有各式房间120间，右边顺东西方向排列着15幢别墅，别墅区设计风格各异，里面设计精美，装修豪华，配置高档，有多功能房间，麻将房，小厨房，专用车库等超豪华配置。"}}, {"title": "御龙湾水世界", "address": "黄冈市麻城市台湾街延伸线金达路", "image": "", "rank": 6, "time": 2, "location": {"lat": 31.183886033626656, "lng": 115.02304450243383}, "feature": {"sight_features": "", "sight_content": ""}}, {"title": "麻城欢乐水世界", "address": "黄冈市麻城市金达路台湾街延伸线与西环路交汇处", "image": "", "rank": 7, "time": 3.0, "location": {"lat": 31.183886033626656, "lng": 115.02304450243383}, "feature": {"sight_features": "", "sight_content": ""}}, {"title": "狮子峰", "address": "黄冈市麻城市三河口镇境内狮子峰林场", "image": "", "rank": 8, "time": 0.5, "location": {"lat": 31.379230980601978, "lng": 115.32685170078986}, "feature": {"sight_features": "", "sight_content": ""}}, {"title": "黄土岗菊花园", "address": "黄冈市麻城市黄土岗镇张家墩村", "image": "", "rank": 9, "time": 2, "location": {"lat": 31.294054294233977, "lng": 115.07352751411071}, "feature": {"sight_features": "", "sight_content": ""}}, {"title": "麻城3D奇幻艺术馆", "address": "黄冈市麻城市湖广大道闽达公园壹号营销中心左侧路口内进20米", "image": "", "rank": 10, "time": 3.0, "location": {"lat": 31.167229203508956, "lng": 115.02287756223616}, "feature": {"sight_features": "", "sight_content": ""}}, {"title": "孝感乡移民文化园", "address": "黄冈市麻城市南环路仿古街9号", "image": "", "rank": 11, "time": 2, "location": {"lat": 31.17472194394882, "lng": 115.03096517831885}, "feature": {"sight_features": "", "sight_content": ""}}, {"title": "纯阳大峡谷", "address": "黄冈市麻城市福田河镇三节街村纯阳山谷地", "image": "", "rank": 12, "time": 2, "location": {"lat": 31.553870408770308, "lng": 115.16361802753664}, "feature": {"sight_features": "", "sight_content": ""}}, {"title": "麻城烈士陵园", "address": "湖北省麻城市杜皮乡", "image": "", "rank": 13, "time": 3.0, "location": {"lat": 30.809148560638747, "lng": 115.01463963808233}, "feature": {"sight_features": "", "sight_content": ""}}, {"title": "麻城博物馆", "address": "湖北省黄冈市麻城市陵园路陵园路48号", "image": "", "rank": 14, "time": null, "location": {"lat": 31.185974393228044, "lng": 115.0278040026021}, "feature": {"sight_features": "", "sight_content": ""}}, {"title": "田园农家乐", "address": "河正街22号附近", "image": "", "rank": 15, "time": 2, "location": {"lat": 30.96728218270581, "lng": 115.184552973667}, "feature": {"sight_features": "", "sight_content": ""}}, {"title": "大别山德牧繁殖基地", "address": "003乡道附近", "image": "", "rank": 16, "time": 2, "location": {"lat": 40.96482298415481, "lng": 116.62729781702801}, "feature": {"sight_features": "", "sight_content": ""}}, {"title": "王家祠堂", "address": "黄冈市麻城市二零六省道", "image": "", "rank": 17, "time": 2, "location": {"lat": 31.176995837411464, "lng": 115.01656174777186}, "feature": {"sight_features": "", "sight_content": ""}}, {"title": "奥普乐水上乐园", "address": "孝感乡路与金龙大道交叉口东150米", "image": "", "rank": 18, "time": 2, "location": {"lat": 31.175868485402397, "lng": 115.00549301861699}, "feature": {"sight_features": "", "sight_content": ""}}, {"title": "闽达公园壹号", "address": "湖北省黄冈市麻城市南湖办事处金龙大道闽达·公园1号", "image": "", "rank": 19, "time": 2, "location": {"lat": 31.165893750416597, "lng": 115.00280351078453}, "feature": {"sight_features": "", "sight_content": ""}}, {"title": "江家祠堂", "address": "黄冈市麻城市三零九省道", "image": "", "rank": 20, "time": 2, "location": {"lat": 31.176995837411464, "lng": 115.01656174777186}, "feature": {"sight_features": "", "sight_content": ""}}, {"title": "快乐小孩儿童乐园", "address": "黄土岗商贸东街医院旁", "image": "", "rank": 21, "time": 2, "location": {"lat": 24.215339718503245, "lng": 114.72725790236288}, "feature": {"sight_features": "", "sight_content": ""}}, {"title": "观音寺河", "address": "湖北省黄冈市麻城市", "image": "", "rank": 22, "time": 2, "location": {"lat": 31.176995837411464, "lng": 115.01656174777186}, "feature": {"sight_features": "", "sight_content": ""}}, {"title": "张家祠堂", "address": "黄冈市麻城市一零四县道", "image": "", "rank": 23, "time": 2, "location": {"lat": 31.176995837411464, "lng": 115.01656174777186}, "feature": {"sight_features": "", "sight_content": ""}}, {"title": "福白菊博物馆", "address": "湖北省黄冈市麻城市G106(菊乡大道)", "image": "", "rank": 24, "time": null, "location": {"lat": 31.486713849300948, "lng": 115.10971372051141}, "feature": {"sight_features": "", "sight_content": ""}}, {"title": "古孝感乡都", "address": "办事处花之都国际大酒店", "image": "", "rank": 25, "time": 2, "location": {"lat": 31.17577687400815, "lng": 115.03417077614137}, "feature": {"sight_features": "", "sight_content": ""}}, {"title": "凌碧寺", "address": "龙池办事处宋家河社区", "image": "", "rank": 26, "time": 2, "location": {"lat": 34.90552957658945, "lng": 111.49692392491305}, "feature": {"sight_features": "", "sight_content": ""}}, {"title": "化主殿", "address": "黄冈市麻城市龟山镇龟峰山风景区内", "image": "", "rank": 27, "time": 2, "location": {"lat": 31.078078387904092, "lng": 115.22010167151169}, "feature": {"sight_features": "", "sight_content": ""}}, {"title": "大别茶访麻城店", "address": "麻城市文化小镇主轴C1-6", "image": "", "rank": 28, "time": 2, "location": {"lat": 31.175713568796095, "lng": 115.02668816612473}, "feature": {"sight_features": "", "sight_content": ""}}, {"title": "麻城站广场", "address": "宏桥街7附近", "image": "", "rank": 29, "time": 2, "location": {"lat": 31.151739445485656, "lng": 114.97183491880284}, "feature": {"sight_features": "", "sight_content": ""}}, {"title": "孩皮吧探险乐园", "address": "黄冈市麻城市将军路76号附近麻城广场F3", "image": "", "rank": 30, "time": 2, "location": {"lat": 31.188377376564564, "lng": 115.03216439605262}, "feature": {"sight_features": "", "sight_content": ""}}, {"title": "麻城北站广场", "address": "湖北省黄冈市麻城市麻城北站", "image": "", "rank": 31, "time": 3.0, "location": {"lat": 31.192413229013905, "lng": 114.99175257885841}, "feature": {"sight_features": "", "sight_content": ""}}, {"title": "詹府度假村", "address": "S203中国农业银行东侧250米", "image": "", "rank": 32, "time": 2, "location": {"lat": 39.91360739438743, "lng": 116.43276691211211}, "feature": {"sight_features": "", "sight_content": ""}}, {"title": "麻城灯会", "address": "黄冈市麻城市古楼街沈家庄", "image": "", "rank": 33, "time": 3.0, "location": {"lat": 31.146583441665722, "lng": 115.08457676440891}, "feature": {"sight_features": "", "sight_content": ""}}, {"title": "花朝河湾", "address": "武汉市新洲区潘塘街罗扬村", "image": "", "rank": 34, "time": 2, "location": {"lat": 31.001108296653054, "lng": 114.90068303190122}, "feature": {"sight_features": "", "sight_content": "花朝河湾旅游区位于新洲区潘塘街罗杨村，在空间布局上，景区呈“一心一带，四园区”，通过大小交通环线将景区各个主要景点串联在一起，让游客移步换景、赏心悦目。“一心一带”指整个园区以花朝文化演绎为主题核心，随河湾水系带而动。“四区”为：游乐观赏区、种植采摘区、红叶露营区、生态保育区。\n景区占地面积约3500亩，毗邻大广高速及S205省道，距高速公路出入口仅1公里；离新洲、麻城半小时车程，距武汉、黄冈、黄石、鄂州一小时车程。在空间布局上，景区呈“一心一带四园区”，通过大小交通环线将景区各个主要景点串联在一起，让游客移步换景、赏心悦目。\n\n\n主题景观有：景区接待中心、迎宾廊、花神庙、花神岛、天香居酒店、花朝民俗村、花神童年嬉戏场、古枫香树、枫香桥、花朝农耕习俗展示互动区、桂花琴园、荷花雅园、玫瑰囍园、紫薇静园、桃花媒园、栀子馨园、河湾水上游乐带及花朝文化演艺广场。\n景区经过三年的精心打造，现已形成“赏花亲水”、“游船篝火”、“实景演艺”、“酒店民居”、“垂钓采摘”、“亲子乐活”、“生态科普”、“房车露营”等八大旅游产品板块。她的诞生将是鄂东北地域唯一一座以花神文化和情缘文化相结合的高品质的休闲度假旅游综合体。\n“节日在花朝、休闲在河湾”——花朝河湾欢迎您！"}}, {"title": "麻城市图书馆", "address": "陵园路37号", "image": "", "rank": 35, "time": 1.5, "location": {"lat": 31.84401924947022, "lng": 118.93779869719386}, "feature": {"sight_features": "", "sight_content": ""}}, {"title": "阳光健身中心", "address": "步行街(近步行街口)", "image": "", "rank": 36, "time": 2, "location": {"lat": 31.4707878758284, "lng": 104.75488769018823}, "feature": {"sight_features": "", "sight_content": ""}}, {"title": "杜鹃花溪漂流", "address": "张家畈镇", "image": "", "rank": 37, "time": 2, "location": {"lat": 31.05198472135564, "lng": 115.31996006530721}, "feature": {"sight_features": "", "sight_content": ""}}, {"title": "三宝园农家乐", "address": "212县道西50米", "image": "", "rank": 38, "time": 2, "location": {"lat": 40.43413539434948, "lng": 116.6416511347038}, "feature": {"sight_features": "", "sight_content": ""}}, {"title": "太平山庄农家乐", "address": "夫子河镇戴家岗", "image": "", "rank": 39, "time": 2, "location": {"lat": 30.948246374981135, "lng": 115.02079333535124}, "feature": {"sight_features": "", "sight_content": ""}}, {"title": "美家画廊", "address": "宋埠镇沙桥路5号", "image": "", "rank": 40, "time": 2, "location": {"lat": 22.77197243012849, "lng": 113.26075552964694}, "feature": {"sight_features": "", "sight_content": ""}}, {"title": "民俗大舞台", "address": "211县道西50米", "image": "", "rank": 41, "time": 2, "location": {"lat": 39.90547323256027, "lng": 116.54869936910987}, "feature": {"sight_features": "", "sight_content": ""}}, {"title": "天景农家乐", "address": "309省道南50米", "image": "", "rank": 42, "time": 2, "location": {"lat": 40.70867429061526, "lng": 116.52743651721413}, "feature": {"sight_features": "", "sight_content": ""}}, {"title": "湖北麻城东路花鼓戏剧院", "address": "建设路", "image": "", "rank": 43, "time": 2, "location": {"lat": 39.08959553212996, "lng": 117.0126917080218}, "feature": {"sight_features": "", "sight_content": ""}}, {"title": "三宝钓鱼台", "address": "中馆驿镇212县道三宝钓鱼台", "image": "", "rank": 44, "time": 2, "location": {"lat": 31.162584156192928, "lng": 114.91686151413593}, "feature": {"sight_features": "", "sight_content": ""}}, {"title": "麻城市东路花鼓剧团", "address": "建设路附近", "image": "", "rank": 45, "time": 3.0, "location": {"lat": 39.08959553212996, "lng": 117.0126917080218}, "feature": {"sight_features": "", "sight_content": ""}}, {"title": "藏龙阁密室", "address": "美吉乐儿童乐园内", "image": "", "rank": 46, "time": 2, "location": {"lat": 30.51330546325677, "lng": 117.05167421461059}, "feature": {"sight_features": "", "sight_content": ""}}, {"title": "柏子塔", "address": "湖北省麻城市阎家河镇柏子塔村九龙山", "image": "", "rank": 47, "time": 2, "location": {"lat": 31.255344502185224, "lng": 115.12756111784121}, "feature": {"sight_features": "", "sight_content": ""}}, {"title": "麻城市商贸步行街", "address": "湖北省麻城市商贸步行街", "image": "", "rank": 48, "time": 3.0, "location": {"lat": 31.18366256350274, "lng": 115.04391991965464}, "feature": {"sight_features": "", "sight_content": ""}}, {"title": "麻城市烈士纪念园", "address": "湖北省麻城市陵园路75号", "image": "", "rank": 49, "time": 3.0, "location": {"lat": 31.185162363262975, "lng": 115.03042561778173}, "feature": {"sight_features": "", "sight_content": ""}}, {"title": "飞龙在天", "address": "黄冈市-麻城市-黄土岗镇桐枧冲瀑布群景区大别山瀑布群内", "image": "", "rank": 50, "time": 1.0, "location": {"lat": 31.379423412702426, "lng": 115.08366369345126}, "feature": {"sight_features": "", "sight_content": ""}}, {"title": "孔庙", "address": "湖北麻城陵园路48号", "image": "", "rank": 51, "time": 2.5, "location": {"lat": 31.185974393228044, "lng": 115.0278040026021}, "feature": {"sight_features": "", "sight_content": ""}}]}