{"cityName": "玛多", "days": 2, "cityImage": "", "spots": [{"title": "黄河源旅游区", "address": "果洛藏族自治州玛多县黄河源", "image": "", "rank": 1, "time": 7.5, "location": {"lat": 34.92074864618621, "lng": 98.21588383209857}, "feature": {"sight_features": "", "sight_content": ""}}, {"title": "巴颜喀拉山", "address": "位于青海省果洛藏族自治州久治县索呼日麻乡境内", "image": "", "rank": 2, "time": 2, "location": {"lat": 33.53215809316549, "lng": 100.94181579705324}, "feature": {"sight_features": "", "sight_content": ""}}, {"title": "鄂陵湖", "address": "果洛藏族自治州玛多县", "image": "", "rank": 3, "time": 2, "location": {"lat": 34.92074864618621, "lng": 98.21588383209857}, "feature": {"sight_features": "", "sight_content": ""}}, {"title": "牛头碑", "address": "青海省果洛藏族自治州玛多县", "image": "", "rank": 4, "time": 2, "location": {"lat": 34.92074864618621, "lng": 98.21588383209857}, "feature": {"sight_features": "", "sight_content": ""}}, {"title": "扎陵湖", "address": "果洛藏族自治州玛多县", "image": "", "rank": 5, "time": 2, "location": {"lat": 34.92074864618621, "lng": 98.21588383209857}, "feature": {"sight_features": "", "sight_content": ""}}, {"title": "星宿海", "address": "果洛藏族自治州玛多县", "image": "", "rank": 6, "time": 2, "location": {"lat": 34.92074864618621, "lng": 98.21588383209857}, "feature": {"sight_features": "", "sight_content": ""}}, {"title": "黄河源头第一桥", "address": "青海省玛多县扎陵湖乡", "image": "", "rank": 7, "time": 2, "location": {"lat": 35.09115511236725, "lng": 97.9172300866905}, "feature": {"sight_features": "", "sight_content": ""}}, {"title": "小野马岭", "address": "青海省果洛藏族自治州玛多县境内", "image": "", "rank": 8, "time": 2, "location": {"lat": 34.92074864618621, "lng": 98.21588383209857}, "feature": {"sight_features": "", "sight_content": ""}}, {"title": "措哇尕什则多卡寺", "address": "青海省果洛藏族自治州玛多县", "image": "", "rank": 9, "time": 2, "location": {"lat": 34.92074864618621, "lng": 98.21588383209857}, "feature": {"sight_features": "", "sight_content": ""}}, {"title": "大野马岭", "address": "青海省果洛藏族自治州玛多县境内", "image": "", "rank": 10, "time": null, "location": {"lat": 34.92074864618621, "lng": 98.21588383209857}, "feature": {"sight_features": "", "sight_content": ""}}, {"title": "青海省三江源玛多国家公园", "address": "青海省果洛藏族自治州玛多县G214", "image": "", "rank": 11, "time": 2, "location": {"lat": 34.92074864618621, "lng": 98.21588383209857}, "feature": {"sight_features": "", "sight_content": ""}}, {"title": "岭.格萨尔王文化博览园", "address": "果洛藏族自治州玛多县气象路", "image": "", "rank": 12, "time": 2.5, "location": {"lat": 34.92074864618621, "lng": 98.21588383209857}, "feature": {"sight_features": "", "sight_content": ""}}, {"title": "冬给措纳湖", "address": "青海省果洛藏族自治州玛多县", "image": "", "rank": 13, "time": 2, "location": {"lat": 34.92074864618621, "lng": 98.21588383209857}, "feature": {"sight_features": "", "sight_content": ""}}, {"title": "玛多县文化馆", "address": "西大街26号", "image": "", "rank": 14, "time": 2, "location": {"lat": 38.04800126941241, "lng": 114.52751165186272}, "feature": {"sight_features": "", "sight_content": ""}}, {"title": "和科寺", "address": "青海省果洛藏族自治州玛多县", "image": "", "rank": 15, "time": 2, "location": {"lat": 34.92074864618621, "lng": 98.21588383209857}, "feature": {"sight_features": "", "sight_content": ""}}, {"title": "措哇尕什则山", "address": "青海省果洛藏族自治州玛多县", "image": "", "rank": 16, "time": 2, "location": {"lat": 34.92074864618621, "lng": 98.21588383209857}, "feature": {"sight_features": "", "sight_content": ""}}, {"title": "玛多古城", "address": "青海省玛多县境内 810008", "image": "", "rank": 17, "time": null, "location": {"lat": 34.92074864618621, "lng": 98.21588383209857}, "feature": {"sight_features": "", "sight_content": ""}}, {"title": "革命公墓", "address": "南大街95号", "image": "", "rank": 18, "time": 2, "location": {"lat": 40.24157734599649, "lng": 116.13099561090627}, "feature": {"sight_features": "", "sight_content": ""}}, {"title": "斑玛龙", "address": "果洛藏族自治州-玛多县", "image": "", "rank": 19, "time": 2, "location": {"lat": 34.92074864618621, "lng": 98.21588383209857}, "feature": {"sight_features": "", "sight_content": ""}}, {"title": "花石峡", "address": "青海省果洛藏族自治州玛多县花石峡镇", "image": "", "rank": 20, "time": 2.0, "location": {"lat": 35.10746562977196, "lng": 98.86703326418157}, "feature": {"sight_features": "", "sight_content": ""}}, {"title": "狮龙宫殿", "address": "青海省果洛藏族自治州达日县吉迈镇境内，距达日县城约18公里", "image": "", "rank": 21, "time": 2.0, "location": {"lat": 33.760070325907904, "lng": 99.65755856273266}, "feature": {"sight_features": "", "sight_content": ""}}, {"title": "玛多", "address": "青海省果洛藏族自治州玛多县", "image": "", "rank": 22, "time": 1.0, "location": {"lat": 34.92074864618621, "lng": 98.21588383209857}, "feature": {"sight_features": "", "sight_content": ""}}, {"title": "星星海", "address": "青海省果洛藏族自治州玛多县", "image": "", "rank": 23, "time": 2, "location": {"lat": 34.92074864618621, "lng": 98.21588383209857}, "feature": {"sight_features": "", "sight_content": ""}}]}