{"cityName": "马尔康", "days": 2, "cityImage": "", "spots": [{"title": "卓克基土司官寨文化旅游景区", "address": "阿坝藏族羌族自治州马尔康县东7公里的卓克基镇西索村", "image": "", "rank": 1, "time": 2.0, "location": {"lat": 31.870005441883073, "lng": 102.29305845245565}, "feature": {"sight_features": "特色1 全国重点文物保护单位，红色经典旅游景区 特色2 阿坝藏羌文化走廊上的重要节点 特色3 东方建筑史上的一颗明珠", "sight_content": "卓克基土司官寨文化旅游景区位于四川省阿坝州马尔康县境内，国道317与省道210的交汇处，距马尔康县城8公里，国家4A级旅游景区。旅游区位优越，交通便捷，是阿坝藏羌文化走廊上的重要节点。空间布局为：红色文化感悟区、土司文化鉴赏区、民俗文化。\n官寨融藏、汉民族精湛的建筑艺术为一体，整体建筑以片石砌成，极为坚固，回廊边柱及每层楼板、梁、枋未用一钉一铆互相衔接，被美国著名作家索尔兹伯里赞誉为“东方建筑史上的一颗明珠”。1935年 红军长征途中毛主席、 朱德、周恩来等曾在此居住一周。官寨规模宏大，由东、西、南、北四栋楼形成四合院式建筑，共五层，69间房，集中展示了土司文化、红色文化、嘉绒藏族服饰文化、民俗文化、宗教文化、农耕文化等。\n现在房屋里面的基本陈设是：一楼是生产工具和放牧打猎的器械还有四季丰登的五谷杂粮；二楼为红军纪念馆，当年红军在这一带进行革命活动的基本情况，还有红军“攻打”土司官寨，毛泽东在此住了一周的事略；三楼主要是介绍土司家庭的衣食住行的；四楼是他们进行宗教活动及协政议事的所在地；五楼如今是民风民俗展览馆，展出了富有藏族文化风格的各种展品。\n卓克基土司官寨规模庞大，构造精细，几乎囊括了嘉绒藏族建筑艺术之精华，是藏汉民族建筑艺术高度融合的典范，也是土司制度兴衰和艰苦卓绝红军长征精神的历史见证。2005年，被列入全国100个红色经典旅游景区之一。\n体验区、游憩休闲区和串联几大区域的文化体验环线构成。景区内有国家级文物保护单位——卓克基土司官寨，省级文物保护单位——西索民居和红军长征纪念馆、嘉绒崇康街等著名景点，蕴藏着土司文化、红色文化、佛教文化、建筑文化、民俗文化，具有鲜明的地域特色。"}}, {"title": "西索村", "address": "阿坝藏族羌族自治州马尔康县卓克基乡", "image": "", "rank": 2, "time": 3.0, "location": {"lat": 31.872830476922076, "lng": 102.30465916082845}, "feature": {"sight_features": "", "sight_content": ""}}, {"title": "昌列寺", "address": "阿坝藏族羌族自治州马尔康县昌列山上", "image": "", "rank": 3, "time": 2.0, "location": {"lat": 32.019303733958125, "lng": 102.02330487573674}, "feature": {"sight_features": "", "sight_content": ""}}, {"title": "梭磨河峡谷", "address": "阿坝藏族羌族自治州马尔康县", "image": "", "rank": 4, "time": 3.0, "location": {"lat": 32.019303733958125, "lng": 102.02330487573674}, "feature": {"sight_features": "", "sight_content": ""}}, {"title": "直波碉群", "address": "阿坝藏族羌族自治州马尔康松岗镇直波村", "image": "", "rank": 5, "time": 1.0, "location": {"lat": 31.919061822986055, "lng": 102.11034926511888}, "feature": {"sight_features": "", "sight_content": ""}}, {"title": "毗卢圣窟", "address": "阿坝藏族羌族自治州马尔康县卓克基镇查米村", "image": "", "rank": 6, "time": 1.0, "location": {"lat": 31.88173505215893, "lng": 102.2909914514772}, "feature": {"sight_features": "", "sight_content": ""}}, {"title": "察柯寺", "address": "阿坝藏族羌族自治州马尔康县卓克基乡纳足沟", "image": "", "rank": 7, "time": 1.5, "location": {"lat": 31.872830476922076, "lng": 102.30465916082845}, "feature": {"sight_features": "", "sight_content": ""}}, {"title": "梦笔山", "address": "阿坝藏族羌族自治州马尔康县，卓克基乡南与小金县交界处", "image": "", "rank": 8, "time": null, "location": {"lat": 31.872830476922076, "lng": 102.30465916082845}, "feature": {"sight_features": "", "sight_content": ""}}, {"title": "蒲尔玛", "address": "阿坝藏族羌族自治州马尔康县松岗镇蒲尔玛村", "image": "", "rank": 9, "time": 3.0, "location": {"lat": 31.88820272270408, "lng": 102.0951292730667}, "feature": {"sight_features": "", "sight_content": ""}}, {"title": "飞水岩", "address": "阿坝藏族羌族自治州马尔康县飞水岩", "image": "", "rank": 10, "time": 12.0, "location": {"lat": 31.79556336530633, "lng": 101.94889501380969}, "feature": {"sight_features": "", "sight_content": ""}}, {"title": "雅克夏雪山", "address": "阿坝藏族羌族自治州黑水县", "image": "", "rank": 11, "time": null, "location": {"lat": 32.067805449367526, "lng": 102.99651735613097}, "feature": {"sight_features": "", "sight_content": ""}}, {"title": "马尔康红军长征纪念馆", "address": "阿坝藏族羌族自治州马尔康市卓克基镇", "image": "", "rank": 12, "time": null, "location": {"lat": 31.80114772530264, "lng": 102.3150321784167}, "feature": {"sight_features": "", "sight_content": ""}}, {"title": "卓克基会议旧址", "address": "阿坝藏族羌族自治州马尔康县s210", "image": "", "rank": 13, "time": 2, "location": {"lat": 32.019303733958125, "lng": 102.02330487573674}, "feature": {"sight_features": "", "sight_content": ""}}, {"title": "马尔康县", "address": "四川省阿坝藏族羌族自治州马尔康县", "image": "", "rank": 14, "time": 2, "location": {"lat": 32.019303733958125, "lng": 102.02330487573674}, "feature": {"sight_features": "", "sight_content": ""}}, {"title": "婆陵甲萨遗址公园", "address": "四川省阿坝藏族羌族自治州马尔康县", "image": "", "rank": 15, "time": 2, "location": {"lat": 32.019303733958125, "lng": 102.02330487573674}, "feature": {"sight_features": "", "sight_content": ""}}, {"title": "雪马山", "address": "马尔康县南部卓克基镇境内", "image": "", "rank": 16, "time": 2, "location": {"lat": 31.878813868207036, "lng": 102.2920372425824}, "feature": {"sight_features": "", "sight_content": ""}}, {"title": "马尔康县图书馆", "address": "崇列街16号", "image": "", "rank": 17, "time": 2, "location": {"lat": 31.90439418034239, "lng": 102.22915347996756}, "feature": {"sight_features": "", "sight_content": ""}}, {"title": "马尔康多肉植物园", "address": "马江街一段马尔康多肉植物园", "image": "", "rank": 18, "time": 2, "location": {"lat": 31.907395318419738, "lng": 102.22482347852804}, "feature": {"sight_features": "", "sight_content": ""}}, {"title": "马尔康龙盛农家乐", "address": "马尔康市阿坝马尔康市卓克基镇西索民居11号", "image": "", "rank": 19, "time": 2.0, "location": {"lat": 31.871532979938554, "lng": 102.29911697515408}, "feature": {"sight_features": "", "sight_content": ""}}, {"title": "阿坝文化体育广场", "address": "团结街85", "image": "", "rank": 20, "time": 4.5, "location": {"lat": 31.905634605225156, "lng": 102.22917395145183}, "feature": {"sight_features": "", "sight_content": ""}}, {"title": "嘉绒巴仓寺院", "address": "四川省阿坝藏族羌族自治州马尔康市", "image": "", "rank": 21, "time": 2, "location": {"lat": 31.911747955647705, "lng": 102.21350208208408}, "feature": {"sight_features": "", "sight_content": ""}}, {"title": "嘉鑫广场", "address": "达萨街193号附近", "image": "", "rank": 22, "time": 2, "location": {"lat": 31.91161140937899, "lng": 102.21963114107861}, "feature": {"sight_features": "", "sight_content": ""}}, {"title": "卓克基嘉绒藏族文化旅游区", "address": "阿坝马尔康县卓克基镇", "image": "", "rank": 23, "time": 2, "location": {"lat": 31.878813868207036, "lng": 102.2920372425824}, "feature": {"sight_features": "", "sight_content": ""}}, {"title": "藏族羌族自治州藏文图书馆", "address": "崇烈街59号", "image": "", "rank": 24, "time": 2, "location": {"lat": 31.906983389391918, "lng": 102.22930318617404}, "feature": {"sight_features": "", "sight_content": ""}}, {"title": "尼玛休闲山庄", "address": "达萨街", "image": "", "rank": 25, "time": 1.0, "location": {"lat": 31.91067875129439, "lng": 102.22230705440464}, "feature": {"sight_features": "", "sight_content": ""}}, {"title": "一个农庄", "address": "中西路28号", "image": "", "rank": 26, "time": null, "location": {"lat": 27.06290365481938, "lng": 106.96874188840128}, "feature": {"sight_features": "", "sight_content": ""}}, {"title": "卡迪雅乐园", "address": "享乐街道28号(元泉旁)", "image": "", "rank": 27, "time": 2, "location": {"lat": 26.62217542746081, "lng": 106.74584149933312}, "feature": {"sight_features": "", "sight_content": ""}}, {"title": "时尚代码", "address": "崇列街68", "image": "", "rank": 28, "time": 2, "location": {"lat": 31.904899992029172, "lng": 102.22801800024362}, "feature": {"sight_features": "", "sight_content": ""}}]}