{"cityName": "麻江", "days": 2, "cityImage": "", "spots": [{"title": "清水江游览区", "address": "贵州省黔东南苗族侗族自治州麻江县", "image": "", "rank": 1, "time": 2, "location": {"lat": 26.496807595584382, "lng": 107.59555140190797}, "feature": {"sight_features": "", "sight_content": ""}}, {"title": "荣兴草莓育苗基地", "address": "下司镇花桥村", "image": "", "rank": 2, "time": 2, "location": {"lat": 26.52771413014077, "lng": 107.77106419457681}, "feature": {"sight_features": "", "sight_content": ""}}, {"title": "麻长蓝梦谷景区", "address": "乌羊麻", "image": "", "rank": 3, "time": 2, "location": {"lat": 26.39430549902117, "lng": 107.75703870541675}, "feature": {"sight_features": "", "sight_content": ""}}, {"title": "马鞍山体育运动公园", "address": "贵州省黔东南苗族侗族自治州麻江县杏山镇解放路马鞍山体育休闲公园", "image": "", "rank": 4, "time": 12.0, "location": {"lat": 26.497638167909766, "lng": 107.59793643268026}, "feature": {"sight_features": "", "sight_content": ""}}, {"title": "怡情园", "address": "210国道", "image": "", "rank": 5, "time": 2, "location": {"lat": 30.75468488618663, "lng": 107.2576735785458}, "feature": {"sight_features": "", "sight_content": ""}}, {"title": "麻江县图书馆", "address": "五星路", "image": "", "rank": 6, "time": null, "location": {"lat": 43.19798065588702, "lng": 126.02227490407084}, "feature": {"sight_features": "", "sight_content": ""}}, {"title": "维纳斯精致婚纱艺术馆", "address": "迎宾南路46", "image": "", "rank": 7, "time": 2, "location": {"lat": 26.496712666704155, "lng": 107.59938278360173}, "feature": {"sight_features": "", "sight_content": ""}}, {"title": "乐道农庄", "address": "龙山镇共和村", "image": "", "rank": 8, "time": 2, "location": {"lat": 27.864912749495037, "lng": 105.87660656538654}, "feature": {"sight_features": "", "sight_content": ""}}, {"title": "山王庙蓝莓采摘体验庄园(分园)", "address": "宣威镇平定村蒲席塘小学背后", "image": "", "rank": 9, "time": 2, "location": {"lat": 26.39056740245695, "lng": 107.6991694728219}, "feature": {"sight_features": "", "sight_content": ""}}, {"title": "山王庙蓝莓采摘体验庄园", "address": "宣威镇翁保村乌羊麻寨门口左面(停车场旁)", "image": "", "rank": 10, "time": 2, "location": {"lat": 26.39430549902117, "lng": 107.75703870541675}, "feature": {"sight_features": "", "sight_content": ""}}, {"title": "花青果园蓝莓基地", "address": "杏山镇兴坪村下寨组", "image": "", "rank": 11, "time": 2, "location": {"lat": 26.541221279774554, "lng": 107.63888022404835}, "feature": {"sight_features": "", "sight_content": ""}}, {"title": "黔农好客农家乐", "address": "宣威镇蓝莓产业园区内", "image": "", "rank": 12, "time": null, "location": {"lat": 40.916324641606316, "lng": 115.83214326092961}, "feature": {"sight_features": "", "sight_content": ""}}, {"title": "拓雅农庄", "address": "黔东南苗族侗族自治州-麻江县-贤昌乡", "image": "", "rank": 13, "time": 2, "location": {"lat": 26.42367303359832, "lng": 107.54144026275186}, "feature": {"sight_features": "", "sight_content": ""}}]}