{"cityName": "马龙", "days": 2, "cityImage": "", "spots": [{"title": "马龙盛水湾温泉", "address": "曲靖市马龙县通泉镇迎宾大道高速公路入口处（龙泉新区安厦盛水湾）", "image": "", "rank": 1, "time": 2, "location": {"lat": 25.524764808585815, "lng": 103.75758781380011}, "feature": {"sight_features": "特色1 富含对人体有益的矿物质及微量元素 特色2 综合性温泉养生，休闲度假基地", "sight_content": "盛水湾温泉度假区位于千年氧吧、风景秀丽的马龙龙泉新区高速公路入口处，总占地面积100余亩，是集温泉酒店、休闲度假、高端温泉康体、娱乐健身、商务会议等为一体的综合性温泉养生、休闲度假基地。\n原生态温泉源自地下1900米天然温泉，内设室内外泡池、游泳馆，配备独立净化系统，水体富含对人体有益的矿物质及微量元素，对排热解毒、调整人体内分泌、美容活肤具有明显功效。"}}, {"title": "香炉山", "address": "曲靖市马龙县", "image": "", "rank": 2, "time": 4.5, "location": {"lat": 25.368839999918116, "lng": 103.51309543423898}, "feature": {"sight_features": "", "sight_content": ""}}, {"title": "马龙后洞", "address": "云南省马龙县月望乡猫猫洞村 655105", "image": "", "rank": 3, "time": 2, "location": {"lat": 25.268295415953975, "lng": 103.69685315461251}, "feature": {"sight_features": "", "sight_content": ""}}, {"title": "九洲生态园", "address": "101省道", "image": "", "rank": 4, "time": 2, "location": {"lat": 41.03241923348195, "lng": 111.82384508727836}, "feature": {"sight_features": "", "sight_content": ""}}, {"title": "盛世庄园", "address": "龙泉东路团结水库旁", "image": "", "rank": 5, "time": 2, "location": {"lat": 46.82542549467987, "lng": 133.96491554929085}, "feature": {"sight_features": "", "sight_content": ""}}, {"title": "曲靖烈士陵园", "address": "云南省沾益县大坡山 655500", "image": "", "rank": 6, "time": 1.5, "location": {"lat": 25.786710595914137, "lng": 103.84623836170617}, "feature": {"sight_features": "", "sight_content": ""}}, {"title": "沈家山森林公园", "address": "云南省曲靖市马龙县环城西路", "image": "", "rank": 7, "time": 1.5, "location": {"lat": 25.430868133233403, "lng": 103.58036916591756}, "feature": {"sight_features": "", "sight_content": ""}}, {"title": "水景公园", "address": "龙泉东路西150米", "image": "", "rank": 8, "time": 0.4, "location": {"lat": 38.87209069347455, "lng": 115.46834644807453}, "feature": {"sight_features": "", "sight_content": ""}}, {"title": "文河广场", "address": "曲靖市马龙县天欣商城6幢5号", "image": "", "rank": 9, "time": 2.0, "location": {"lat": 25.43485009142949, "lng": 103.58366181044121}, "feature": {"sight_features": "", "sight_content": ""}}, {"title": "北海渔场休闲山庄", "address": "进小线附近", "image": "", "rank": 10, "time": 3.0, "location": {"lat": 25.449366192054914, "lng": 103.59649721188578}, "feature": {"sight_features": "", "sight_content": ""}}, {"title": "马过河光华休闲山庄", "address": "320国道附近", "image": "", "rank": 11, "time": 2, "location": {"lat": 27.256565251327487, "lng": 111.28158164529765}, "feature": {"sight_features": "", "sight_content": ""}}, {"title": "和睦休闲山庄", "address": "马团线", "image": "", "rank": 12, "time": 2, "location": {"lat": 25.457950554628525, "lng": 103.397997745106}, "feature": {"sight_features": "", "sight_content": ""}}, {"title": "金华图书馆", "address": "龙泉路中段", "image": "", "rank": 13, "time": 1.5, "location": {"lat": 25.196889911939838, "lng": 101.28442565697745}, "feature": {"sight_features": "", "sight_content": ""}}, {"title": "马龙县档案馆", "address": "文化路", "image": "", "rank": 14, "time": 2, "location": {"lat": 39.74005789896059, "lng": 116.15120920962735}, "feature": {"sight_features": "", "sight_content": ""}}, {"title": "马龙农场", "address": "进小线附近", "image": "", "rank": 15, "time": 3.5, "location": {"lat": 25.449366192054914, "lng": 103.59649721188578}, "feature": {"sight_features": "", "sight_content": ""}}, {"title": "耕耘农机合作社", "address": "通泉镇财政小区正对面", "image": "", "rank": 16, "time": 2, "location": {"lat": 37.616781606045215, "lng": 114.61825274508814}, "feature": {"sight_features": "", "sight_content": ""}}, {"title": "诸葛山", "address": "云南省马龙县旧县镇袜度村", "image": "", "rank": 17, "time": 2, "location": {"lat": 25.33076697665404, "lng": 103.47113370768538}, "feature": {"sight_features": "", "sight_content": ""}}, {"title": "马过河", "address": "云南省马龙县马过河镇", "image": "", "rank": 18, "time": 2, "location": {"lat": 25.49080367935333, "lng": 103.4307454518004}, "feature": {"sight_features": "", "sight_content": ""}}, {"title": "马龙野沟花", "address": "云南省马龙县马鸣乡", "image": "", "rank": 19, "time": 2, "location": {"lat": 25.276377587397672, "lng": 103.38581543781785}, "feature": {"sight_features": "", "sight_content": ""}}, {"title": "万亩草山", "address": "云南省马龙县马鸣乡", "image": "", "rank": 20, "time": 2, "location": {"lat": 25.276377587397672, "lng": 103.38581543781785}, "feature": {"sight_features": "", "sight_content": ""}}, {"title": "南海子生态园", "address": "曲靖市-马龙区-320国道附近", "image": "", "rank": 21, "time": 2, "location": {"lat": 25.472065339769543, "lng": 103.37247556057534}, "feature": {"sight_features": "", "sight_content": ""}}, {"title": "金水潭生态农庄", "address": "曲靖市-马龙区-G320(南小线)距南海子收费站3公里", "image": "", "rank": 22, "time": 2, "location": {"lat": 25.4708309938574, "lng": 103.69067412423195}, "feature": {"sight_features": "", "sight_content": ""}}, {"title": "明月缘KTV", "address": "曲靖市-马龙区-盛昌路与T30县道交叉口西南150米", "image": "", "rank": 23, "time": 2, "location": {"lat": 25.42739439613739, "lng": 103.58617488208763}, "feature": {"sight_features": "", "sight_content": ""}}]}