{"cityName": "芒市", "days": 2, "cityImage": "", "spots": [{"title": "勐巴娜西珍奇园", "address": "德宏傣族景颇族自治州芒市仙池路9号", "image": "", "rank": 1, "time": 3.0, "location": {"lat": 24.429283802242722, "lng": 98.58758954787321}, "feature": {"sight_features": "特色1 古生物知识科普教育的课堂", "sight_content": "占地376亩、投资5800多万元的勐巴娜西珍奇园，是集古朴、神奇、自然、典雅、绚丽于一体的大型生态园林景区，含有丰富的文化、科研内涵，又是祖国大西南的植物基因宝库，堪称中国园林奇葩、华夏景观一绝。\n迈入珍奇园，跳进眼帘的是两座醒目的标志，一个是白龙亭，为傣族泼水节的标志；一个是景颇族目脑纵歌节的标志。抬头仰望，观赏到珍奇园大门雄伟壮观的东南亚傣族建筑风格。\n园林中还点缀着鸟巢蕨、鹿角蕨、莲台蕨、王冠蕨、石斛兰、一叶兰、万代兰、地乌龟、沙漠玫瑰等珍稀植物和奇花异草，还有千余盆人参榕、罗汉松、紫薇、三角梅、巴西铁、黄杨、铁树、榆树等桩景，品种繁多，琳琅满目。"}}, {"title": "勐焕大金塔", "address": "德宏傣族景颇族自治州潞西市城东南雷牙让山山顶", "image": "", "rank": 2, "time": 1.0, "location": {"lat": 24.329496898350868, "lng": 98.42693868798435}, "feature": {"sight_features": "特色1 传说释迦牟尼生前转世为金鸡阿峦时曾生活于此 特色2 高耸挺拔，雄伟壮观，气势恢宏", "sight_content": "勐焕大金塔是中国第一金佛塔，亚洲第一空心佛塔。勐焕大金塔座落在芒市东南部海拔一千零七十九点六米的雷牙让山顶。传说“释加牟尼”生前转世为金鸡[阿鸾]时曾生活于此地，佛涅槃后数百年，佛教弟子“召罕大”[阿罗汉]为传播佛祖教义亲临此山修炼，为“召罕大”有个修练的好环境，野草和荆棘全部让开，故称为雷牙让山，意为野草让开的地方，尔后在此山建一佛塔，自古以来是人们公认的佛教圣地之一。\n勐焕大金塔属南亚傣王宫的建筑风格，有着深厚的民族文化内涵。在傣族村寨，佛塔奘寺比较普遍，它作为傣族信仰佛教的一种文化象征，与傣族村落和亚热带的大自然景色构成和谐统一的优美风光，传奇而迷离。勐焕大金塔便是这其中的典范。"}}, {"title": "树包塔", "address": "德宏傣族景颇族自治州芒市胞波路", "image": "", "rank": 3, "time": 2.0, "location": {"lat": 24.441742488917498, "lng": 98.58451823594578}, "feature": {"sight_features": "", "sight_content": ""}}, {"title": "三仙洞", "address": "德宏傣族景颇族自治州芒市西南约40公里的勐戛镇三角岩村", "image": "", "rank": 4, "time": 2.0, "location": {"lat": 24.229179367754874, "lng": 98.42678972475744}, "feature": {"sight_features": "", "sight_content": ""}}, {"title": "菩提寺", "address": "德宏傣族景颇族自治州芒市菩提街5号", "image": "", "rank": 5, "time": 2.0, "location": {"lat": 24.44287506496793, "lng": 98.59439203820973}, "feature": {"sight_features": "", "sight_content": ""}}, {"title": "孔雀谷", "address": "德宏州芒市南天门放马桥", "image": "", "rank": 6, "time": 2, "location": {"lat": 24.546756566066414, "lng": 98.65016890257752}, "feature": {"sight_features": "", "sight_content": "在祖国的西南边陲，镶嵌着一颗璀璨的绿色明珠，她就是被誉为“美丽德宏，孔雀之乡 ”的芒市孔雀谷景区。是昆明钻石人间（集团）旗下，德宏钻石人间旅游投资开发有限公司按国家AAAAA级景区标准投资打造的一个高端、生态旅游景区，位于芒市南天门放马桥，占地面积15003亩，总投资6亿，分五期建设。\n一期核心景观由两大主题和五个版块构成：第一个主题是孔雀，万只孔雀游走于孔雀园，人与孔雀亲密互动，完美呈现人与动物和谐相处的画卷；第二个主题是原始森林生态观光游，景区森林覆盖率高达98％，有一位作家到德宏之后，深有感触地说：只要把一双筷子插在德宏的土地上，就能长出一片茂密的绿色森林。\n景区负氧离子含量丰富，均值达35000—40000个/cm³，被誉为天然大氧吧；五个观赏版块分别是：孔雀园、孔雀谷花海、许愿树、千亩生态茶园、民族歌舞演绎。体验项目：骑马、冰雪王国、龙形滑道、天下玻璃第一塔等。还为游客提供品种丰富的特色小吃。景区融合传统与现代的乐游模式，建成集生态、养生、休闲、娱乐、体验、民族风情为一体的高端、精品旅游景区。\n这里是孔雀的天堂，孔雀的圣地，云南德宏芒市孔雀谷景区欢迎您。"}}, {"title": "五云寺", "address": "德宏傣族景颇族自治州芒市红旗路西段南侧", "image": "", "rank": 7, "time": 1.5, "location": {"lat": 24.446762124257557, "lng": 98.5939905145113}, "feature": {"sight_features": "", "sight_content": ""}}, {"title": "德宏仙佛洞旅游景区", "address": "德宏州芒市勐戛镇风吹坡", "image": "", "rank": 8, "time": 1.5, "location": {"lat": 24.3278200144385, "lng": 98.51913472447433}, "feature": {"sight_features": "", "sight_content": "仙佛洞景区位于芒市西部的勐戛镇“风吹坡”片区，距芒市区城区约13km，芒市机场12km，交通便利，地理位置优越。\n景区内有1.4亿多年历史形成的溶洞景观，有百年历史的德昂族寨子，惊险刺激的7D玻璃桥游玩项目，美不胜收的600余亩紫荆花。洞内游览线长2．8公里，垂直高差200多米，共有4个组团，26个景点，5大奇观。洞外极目远眺群山环抱、绿树叠嶂、丛林密布、茶香氤氲，令人心旷神怡。\n仙佛洞从地层形成的年代看，是属于中生代侏罗系中统勐戛组石灰岩，已有1.4亿多年的历史。溶洞长2.8公里，垂直高差200多米。它的奇特之处在于它几乎囊括了喀斯特地貌所有的地质景观，这些溶洞造型大的宏伟壮观，小的精巧玲珑，或佛或仙，或如笋如林，其景观栩栩如生，惟妙惟肖。洞内灯光采用的声、光、电技术，使溶洞显得更加绚丽多彩，仙雾缭绕，若隐若现。"}}, {"title": "中缅友谊长青树", "address": "云南省芒市", "image": "", "rank": 9, "time": null, "location": {"lat": 24.43942669860196, "lng": 98.5945541796593}, "feature": {"sight_features": "", "sight_content": ""}}, {"title": "勐巴娜西大花园", "address": "云南省芒市芒市镇仙池路13号", "image": "", "rank": 10, "time": 2, "location": {"lat": 24.429274284898597, "lng": 98.58805443894059}, "feature": {"sight_features": "", "sight_content": ""}}, {"title": "黑河老坡", "address": "德宏傣族景颇族自治州芒市110乡道南50米", "image": "", "rank": 11, "time": 4.5, "location": {"lat": 24.438010702758117, "lng": 98.59135935611411}, "feature": {"sight_features": "特色1 芒市第二高山，“芒市的呼伦贝尔草原”", "sight_content": "黑河老坡位于德宏州府芒市东南部中山乡赛岗村，海拔2836米，是芒市第二高山，被誉为“芒市的呼伦贝尔草原”。\n‍\n景区内多姿多彩，一步一景，景景相连，保留着原汁原味的原始森林和高山草甸景观，原始森林茂密苍劲，高山草甸一望无际，可听山风呼啸而过，可观云海浩瀚翻腾，是休闲娱乐、登山观景的好去处。"}}, {"title": "风平佛塔", "address": "云南省芒市芒市镇西", "image": "", "rank": 12, "time": 2, "location": {"lat": 24.47341994388906, "lng": 98.63053763310468}, "feature": {"sight_features": "", "sight_content": ""}}, {"title": "德宏州民族风情游览区", "address": "云南省芒市芒市镇青年路南段东侧", "image": "", "rank": 13, "time": 2, "location": {"lat": 24.47341994388906, "lng": 98.63053763310468}, "feature": {"sight_features": "", "sight_content": ""}}, {"title": "芒市民族文化宫", "address": "云南省芒市青年路南段", "image": "", "rank": 14, "time": 2, "location": {"lat": 24.43942669860196, "lng": 98.5945541796593}, "feature": {"sight_features": "", "sight_content": ""}}, {"title": "观音寺", "address": "云南省德宏傣族景颇族自治州芒市 罕相路176号", "image": "", "rank": 15, "time": 2.0, "location": {"lat": 24.442206422819094, "lng": 98.59459216001625}, "feature": {"sight_features": "", "sight_content": ""}}, {"title": "天天傣家乐", "address": "斑色路104号", "image": "", "rank": 16, "time": 2, "location": {"lat": 24.43742565927602, "lng": 98.60886896820857}, "feature": {"sight_features": "", "sight_content": ""}}, {"title": "水乐园康体中心", "address": "大街38号", "image": "", "rank": 17, "time": 2, "location": {"lat": 28.907210748367884, "lng": 118.52085646663679}, "feature": {"sight_features": "", "sight_content": ""}}, {"title": "德宏傣族景颇族自治州图书馆", "address": "勇罕街25号", "image": "", "rank": 18, "time": 4.0, "location": {"lat": 24.43190110123506, "lng": 98.59120538654976}, "feature": {"sight_features": "", "sight_content": ""}}, {"title": "法帕温泉", "address": "117乡道法帕温泉", "image": "", "rank": 19, "time": 2, "location": {"lat": 44.97485663870472, "lng": 81.03114554648644}, "feature": {"sight_features": "", "sight_content": ""}}, {"title": "景迈山", "address": "云南省澜沧拉祜族自治县惠民乡", "image": "", "rank": 20, "time": 2, "location": {"lat": 22.561831918086543, "lng": 99.93858828323933}, "feature": {"sight_features": "", "sight_content": ""}}, {"title": "中国德昂族博物馆", "address": "国道320三台信用社旁", "image": "", "rank": 21, "time": 2, "location": {"lat": 26.013941720740227, "lng": 101.08526197142585}, "feature": {"sight_features": "", "sight_content": ""}}, {"title": "法帕芒蚌温泉渡假村", "address": "云南省德宏傣族景颇族自治州芒市风平镇芒西线傣景乡温泉宾馆南150米", "image": "", "rank": 22, "time": 2, "location": {"lat": 24.376998245481772, "lng": 98.56455147182272}, "feature": {"sight_features": "", "sight_content": ""}}, {"title": "供销社温泉渡假村", "address": "风平镇腊掌村", "image": "", "rank": 23, "time": 2, "location": {"lat": 24.376785464180745, "lng": 98.56503193860932}, "feature": {"sight_features": "", "sight_content": ""}}, {"title": "傣家杉木园", "address": "目瑙纵歌路为民小区对面", "image": "", "rank": 24, "time": 2, "location": {"lat": 24.43425654664833, "lng": 98.57875887323833}, "feature": {"sight_features": "", "sight_content": ""}}, {"title": "孔雀湖高尔夫俱乐部", "address": "团结大街高尔夫练习场附近", "image": "", "rank": 25, "time": 2, "location": {"lat": 32.083203560854756, "lng": 118.75565806538046}, "feature": {"sight_features": "", "sight_content": ""}}, {"title": "勐焕银塔", "address": "德宏傣族景颇族自治州芒市仙池路西200米", "image": "", "rank": 26, "time": 2, "location": {"lat": 24.431365945217333, "lng": 98.59751520033117}, "feature": {"sight_features": "", "sight_content": "勐焕银塔占地面积约120亩，由吉缘林、银轮广场、瞭望台、人行栈道、景观雕塑等各类主体建筑构成，配有相应的灯光布景区、花卉观赏区，花卉观赏区种有地涌金莲、三角梅、文殊兰、贝页粽等花草植物。整体建筑以纯白为基调，与勐焕大金塔在色彩上形成鲜明对比，两塔屹立在雷崖让山之巅、孔雀湖之畔，一个雍容华丽，一个典雅素静。"}}, {"title": "酷火动漫游乐园", "address": "云南省德宏傣族景颇族自治州芒市华丰商城1栋", "image": "", "rank": 27, "time": 2, "location": {"lat": 24.427816080722526, "lng": 98.57622068766477}, "feature": {"sight_features": "", "sight_content": ""}}, {"title": "丙门村佛堂", "address": "云南省德宏傣族景颇族自治州芒市勐焕街道人保路丙门村", "image": "", "rank": 28, "time": 2, "location": {"lat": 24.4355251675264, "lng": 98.5789380025434}, "feature": {"sight_features": "", "sight_content": ""}}, {"title": "乖乖狗儿童乐园", "address": "勐焕路11号瑞秀百货3层", "image": "", "rank": 29, "time": 2, "location": {"lat": 24.437824177066307, "lng": 98.58917110365526}, "feature": {"sight_features": "", "sight_content": ""}}, {"title": "儿童梦想屋", "address": "阔时路28新天地B3-6", "image": "", "rank": 30, "time": 2, "location": {"lat": 24.44477429356669, "lng": 98.59431103890022}, "feature": {"sight_features": "", "sight_content": ""}}, {"title": "德宏州民族影剧院", "address": "服务路3", "image": "", "rank": 31, "time": 2, "location": {"lat": 24.43864405558117, "lng": 98.58919043518983}, "feature": {"sight_features": "", "sight_content": ""}}, {"title": "坝竹河度假村", "address": "轩龙段附近", "image": "", "rank": 32, "time": 2, "location": {"lat": 24.46955208973681, "lng": 98.34074164095146}, "feature": {"sight_features": "", "sight_content": ""}}, {"title": "芒市体育公园", "address": "阔时路西段", "image": "", "rank": 33, "time": 2, "location": {"lat": 24.450672096921316, "lng": 98.57921390630104}, "feature": {"sight_features": "", "sight_content": ""}}, {"title": "中缅友谊馆", "address": "德宏傣族景颇族自治州芒市德宏州政务服务中心a1区", "image": "", "rank": 34, "time": 2, "location": {"lat": 24.4468564809287, "lng": 98.58254434792731}, "feature": {"sight_features": "", "sight_content": ""}}, {"title": "伟华游乐园", "address": "德宏傣族景颇族自治州芒市阿露窝罗路41号", "image": "", "rank": 35, "time": 2, "location": {"lat": 24.44752475030685, "lng": 98.57794771593935}, "feature": {"sight_features": "", "sight_content": ""}}, {"title": "芒市景颇味文蚌村", "address": "仙池路滇西抗日战争纪念碑东侧", "image": "", "rank": 36, "time": 2, "location": {"lat": 24.43129702267505, "lng": 98.60027501404346}, "feature": {"sight_features": "", "sight_content": ""}}, {"title": "聂三厂鹅肠火锅吧", "address": "胞波路165号", "image": "", "rank": 37, "time": 2, "location": {"lat": 24.44347953334868, "lng": 98.57965301959348}, "feature": {"sight_features": "", "sight_content": ""}}, {"title": "芒市图书馆(珠宝分馆)", "address": "珠宝小镇内", "image": "", "rank": 38, "time": 2, "location": {"lat": 24.444112635763837, "lng": 98.57015207520085}, "feature": {"sight_features": "", "sight_content": ""}}, {"title": "芒市图书馆", "address": "斑色路1号", "image": "", "rank": 39, "time": 2, "location": {"lat": 24.439201019944363, "lng": 98.59042200036563}, "feature": {"sight_features": "", "sight_content": ""}}, {"title": "再鑫五金机电日杂遮相农场综合门...", "address": "芒那公路东50米", "image": "", "rank": 40, "time": 2, "location": {"lat": 24.443296939394152, "lng": 98.39921054996559}, "feature": {"sight_features": "", "sight_content": ""}}, {"title": "华丰孔雀湖高尔夫练习场", "address": "孔雀湖畔", "image": "", "rank": 41, "time": 2, "location": {"lat": 31.229978600802653, "lng": 121.45550500349569}, "feature": {"sight_features": "", "sight_content": ""}}, {"title": "瑞丽江漂流", "address": "戛莫段瑞丽江漂流", "image": "", "rank": 42, "time": 2, "location": {"lat": 24.142792283819453, "lng": 98.07982072091497}, "feature": {"sight_features": "", "sight_content": ""}}, {"title": "吉品根雕艺术馆", "address": "芒市镇团结大街1号(盛世佳园)", "image": "", "rank": 43, "time": 2, "location": {"lat": 24.45305437362214, "lng": 98.59433440921636}, "feature": {"sight_features": "", "sight_content": ""}}, {"title": "赛卡游骑俱乐部", "address": "芒岗村", "image": "", "rank": 44, "time": null, "location": {"lat": 23.479306303557856, "lng": 98.96635314458636}, "feature": {"sight_features": "", "sight_content": ""}}, {"title": "三棵树民族风情街", "address": "云南省芒市三棵树民族风情街", "image": "", "rank": 45, "time": 2, "location": {"lat": 24.292977232436716, "lng": 98.404819872297}, "feature": {"sight_features": "", "sight_content": ""}}, {"title": "雷震山", "address": "德宏傣族景颇族自治州-芒市-雷震山", "image": "", "rank": 46, "time": 2, "location": {"lat": 24.53957841772913, "lng": 98.6597802325478}, "feature": {"sight_features": "", "sight_content": ""}}, {"title": "温簸", "address": "德宏傣族景颇族自治州-芒市-江东乡温簸", "image": "", "rank": 47, "time": 2, "location": {"lat": 24.598169089675952, "lng": 98.47052473370015}, "feature": {"sight_features": "", "sight_content": ""}}, {"title": "勐巴拉娜西珍奇园", "address": "西双版纳德宏傣族景颇族自治州芒市仙池路", "image": "", "rank": 48, "time": 2, "location": {"lat": 24.431365945217333, "lng": 98.59931181135053}, "feature": {"sight_features": "", "sight_content": ""}}, {"title": "回贤古镇", "address": "德宏州芒市回贤村民小组", "image": "", "rank": 49, "time": 2, "location": {"lat": 24.438010702758117, "lng": 98.59135935611411}, "feature": {"sight_features": "", "sight_content": "回贤古镇位于芒市回贤五加峰乡村，距芒市城区11公里，四周环山，地处山谷平地，传统民居民宿依山势地形而建，呈复合式聚落。回贤古镇由好望角观景台、回贤古寨寨门九龙天杯、樱花大道、回贤村寨群、茶马古道、象泉、小街井特产街、文化活动中心、农家乐、芒市画家村、乾坤花海、美食街、太极湖、观音寺网红七彩滑道、高空溜索、太极湖观光等构成，是一个集度假、养生、休闲、体验为依托的乡村旅游景区。"}}, {"title": "周恩来总理纪念亭", "address": "云南省芒市芒市仙池路9号", "image": "", "rank": 50, "time": 2, "location": {"lat": 24.429283802242722, "lng": 98.58758954787321}, "feature": {"sight_features": "", "sight_content": ""}}, {"title": "芒市广场", "address": "德宏傣族景颇族自治州芒市芒市大街", "image": "", "rank": 51, "time": 2, "location": {"lat": 24.443393319595835, "lng": 98.58393690561995}, "feature": {"sight_features": "", "sight_content": ""}}]}