{"cityName": "芒康", "days": 2, "cityImage": "", "spots": [{"title": "芒康县", "address": "西藏自治区昌都地区芒康县", "image": "", "rank": 1, "time": 2, "location": {"lat": 29.620318554387282, "lng": 98.62076028532407}, "feature": {"sight_features": "", "sight_content": ""}}, {"title": "红拉山滇金丝猴自然保护区", "address": "昌都地区芒康县", "image": "", "rank": 2, "time": 1.0, "location": {"lat": 29.620318554387282, "lng": 98.62076028532407}, "feature": {"sight_features": "", "sight_content": ""}}, {"title": "盐井天主教堂", "address": "昌都地区芒康县纳西乡上盐井村", "image": "", "rank": 3, "time": null, "location": {"lat": 29.02932787575109, "lng": 98.616280686547}, "feature": {"sight_features": "", "sight_content": ""}}, {"title": "莽错", "address": "昌都地区芒康县中部莽岭乡", "image": "", "rank": 4, "time": 1.0, "location": {"lat": 29.620318554387282, "lng": 98.62076028532407}, "feature": {"sight_features": "", "sight_content": ""}}, {"title": "曲孜卡温泉", "address": "昌都地区芒康县滇藏公路旁的曲孜卡乡", "image": "", "rank": 5, "time": 2, "location": {"lat": 29.620318554387282, "lng": 98.62076028532407}, "feature": {"sight_features": "", "sight_content": ""}}, {"title": "维色寺", "address": "西藏自治区昌都地区芒康县", "image": "", "rank": 6, "time": 2, "location": {"lat": 29.620318554387282, "lng": 98.62076028532407}, "feature": {"sight_features": "", "sight_content": ""}}, {"title": "昌都盐井盐田", "address": "西藏自治区芒康县纳西乡", "image": "", "rank": 7, "time": 1.5, "location": {"lat": 29.02932787575109, "lng": 98.616280686547}, "feature": {"sight_features": "", "sight_content": ""}}, {"title": "荣许", "address": "西藏自治区昌都芒康县荣许", "image": "", "rank": 8, "time": 2, "location": {"lat": 29.61263820189159, "lng": 98.16516256501397}, "feature": {"sight_features": "", "sight_content": ""}}, {"title": "雪域圣泉度假村", "address": "昌都市芒康县如美镇如美村", "image": "", "rank": 9, "time": 2, "location": {"lat": 29.62105785955867, "lng": 98.35878282523146}, "feature": {"sight_features": "", "sight_content": ""}}, {"title": "桑田会所", "address": "昌都市芒康县曲孜卡乡曲孜卡村", "image": "", "rank": 10, "time": 2, "location": {"lat": 29.09089499226798, "lng": 98.60933572765158}, "feature": {"sight_features": "", "sight_content": ""}}, {"title": "纪日寺", "address": "西藏自治区昌都市芒康县", "image": "", "rank": 11, "time": 2, "location": {"lat": 29.685776117713207, "lng": 98.59968548039171}, "feature": {"sight_features": "", "sight_content": ""}}, {"title": "盐井", "address": "西藏自治区阿里地区噶尔县陕西西路", "image": "", "rank": 12, "time": 3.0, "location": {"lat": 32.51242325516087, "lng": 80.11468429401579}, "feature": {"sight_features": "", "sight_content": ""}}, {"title": "芒康吉斯寺", "address": "西藏自治区芒康县宗西乡", "image": "", "rank": 13, "time": 2, "location": {"lat": 29.968599006169185, "lng": 98.71788671750915}, "feature": {"sight_features": "", "sight_content": ""}}, {"title": "泽我", "address": "昌都市-芒康县-G318(沪聂线)", "image": "", "rank": 14, "time": 2, "location": {"lat": 29.685776117713207, "lng": 98.59968548039171}, "feature": {"sight_features": "", "sight_content": ""}}, {"title": "亚咔雪", "address": "昌都市-芒康县", "image": "", "rank": 15, "time": 2, "location": {"lat": 29.685776117713207, "lng": 98.59968548039171}, "feature": {"sight_features": "", "sight_content": ""}}, {"title": "达美拥雪山", "address": "西藏自治区芒康县境内", "image": "", "rank": 16, "time": 2, "location": {"lat": 29.685776117713207, "lng": 98.59968548039171}, "feature": {"sight_features": "", "sight_content": ""}}, {"title": "莽措湖自然风景区", "address": "西藏自治区芒康县莽岭乡", "image": "", "rank": 17, "time": 2, "location": {"lat": 29.503852690215318, "lng": 98.93112419500636}, "feature": {"sight_features": "", "sight_content": ""}}, {"title": "澜沧江大桥", "address": "西藏自治区芒康县如美镇", "image": "", "rank": 18, "time": 0.75, "location": {"lat": 29.622525394383604, "lng": 98.35734708689127}, "feature": {"sight_features": "", "sight_content": ""}}, {"title": "竹卡大桥", "address": "西藏自治区昌都地区芒康县", "image": "", "rank": 19, "time": 0.75, "location": {"lat": 29.620318554387282, "lng": 98.62076028532407}, "feature": {"sight_features": "", "sight_content": ""}}, {"title": "如美村", "address": "西藏自治区昌都地区芒康县如美镇", "image": "", "rank": 20, "time": 2, "location": {"lat": 29.620318554387282, "lng": 98.62076028532407}, "feature": {"sight_features": "", "sight_content": ""}}, {"title": "拉乌山", "address": "西藏自治区昌都地区芒康县", "image": "", "rank": 21, "time": 2, "location": {"lat": 29.620318554387282, "lng": 98.62076028532407}, "feature": {"sight_features": "", "sight_content": ""}}]}