{"cityName": "茂名", "days": "", "cityImage": "", "spots": [{"title": "茂名森林公园", "address": "茂名市茂南区公馆镇125乡道附近", "image": "", "rank": 1, "time": 4.0, "location": {"lat": 21.646095610159872, "lng": 110.8404894352022}, "feature": {"sight_features": "", "sight_content": ""}}, {"title": "中国第一滩旅游度假区", "address": "茂名市电白区海滨二路", "image": "", "rank": 2, "time": 3.0, "location": {"lat": 21.46866740691863, "lng": 111.07947486026909}, "feature": {"sight_features": "", "sight_content": ""}}, {"title": "浪漫海岸国际旅游度假区", "address": "茂名市博贺镇尖岗管理区", "image": "", "rank": 3, "time": 7.5, "location": {"lat": 21.491429633559186, "lng": 111.19521674171469}, "feature": {"sight_features": "特色1 粤西的“小马尔代夫” 特色2 浪漫海滨，海天一色", "sight_content": "浪漫海岸旅游度假区依山傍海，风景优美。拥有峻山、奇石、椰林、银滩、海湾、礁岛、渔港得天独厚的自然及人文资源，是南中国最大的生态海岸，也是全国唯一以“爱”与“浪漫”为主题的海滩。\n\n浪漫海岸是集旅游观光、休闲度假、海上娱乐、会议婚庆、拓展训练、美食购物为一体，以东南亚异域建筑风格和“爱”与“浪漫”主题文化为特色，开发出粤西乃至广东最具特色滨海旅游度假项目：浪漫海岸度假酒店、浪漫海岸海鲜城、爱海银滩、特产购物街、海上游船基地、婚纱摄影基地、椰林露营基地、龙头山湿地花海、野战拓展俱乐部、松林烧烤场等，建成既适、夏、秋、冬四季性，又适合不同年龄和阶层综合性的旅游度假区。\n在浪漫海岸度假区沙滩客服中心前面，远眺碧海连天、一望无际大海，穿上泳装，享受阳光，拥抱海水，漫步 5.3公里私家银滩。阳光的照射下，洁白，细腻的沙滩泛出银光。 太阳出来了，灿烂的阳光照耀在洁白而广阔的沙滩上，海水时涨时退，椰树迎风摇拽，空气自然清新，让人流连忘返。\n浪漫海岸度假区海鲜城是最具\"鲜\"味的地方，在此享受美食倘若于东南亚建筑的巴厘岛、马尔代夫风情的氛围中，全开放式餐厅、180度无敌海景的视觉享受，零距离接触海港，海鲜城过百种新鲜海产等你选择，即点即煮，鲜味无穷… 置身于浪漫海鲜城，近观浪漫海景美景，远眺碧海连天的落日晚霞，\"山情海韵，无限风光尽收眼底，雀鸣涛语，万般柔情涌其中\"，与爱人相约浪漫，品尝海鲜，闲看浪花朵朵，尽享浪漫烛光晚餐......"}}, {"title": "茂名御水古温泉", "address": "茂名市电白县麻岗镇热水村", "image": "", "rank": 4, "time": 5.0, "location": {"lat": 21.593274939990504, "lng": 111.18523274521219}, "feature": {"sight_features": "特色1 广东省十五大优质温泉", "sight_content": "茂名御水古温泉御水古温泉度假村位于美丽的海滨城市茂名市电白县麻岗镇热水村。在这里自然山水与人文古迹相辉映，毗邻南海，坐拥青山绿水蓝天白云。度假村东、西、北三面为碧绿的小山丘连绵环绕，山野烂漫，南面远眺南海，享受着迎面吹来的海风，度假村坐落其中彷如隔世。\n御水古温泉度假区经过投资者三年的精心打造建设而成，御水古温泉整体占地面积500多亩，是按国家aaaa级景区、4星级酒店标准建造与管理，集齐了集温泉旅游、餐饮住宿、会务培训、休闲娱乐等住、餐、娱、购于一体的旅游、度假、休闲景区，是茂名地区目前规模最大、档次最高、功能最齐全、管理最规范、服务最周到的温泉古文化主题酒店。\n\n御水古温泉属于100％纯天然温泉，出口水温80℃-82℃，温泉日出水量达8000方，可谓源源不绝，属粤西地区内发现产量最多的温泉资源。御水古温泉度假区地处华南地质断裂带上，形成了百分百的天然涌泉，经过权威机构检验验证，属于沉积岩的中性温泉，水质中含有氡、氟、镭、偏硅酸等多种有益人体健康的微量矿物质元素，具有相当高的医疗价值。丰富的矿物质含量，温和的水质和充沛储量，使御水古温泉成为广东省内十五大优质保健型温泉之一。"}}, {"title": "潜梦岛海洋王国（原放鸡岛）", "address": "茂名市电白县博贺镇翠湖路", "image": "", "rank": 5, "time": 7.5, "location": {"lat": 21.492105498731128, "lng": 111.23991513570631}, "feature": {"sight_features": "特色1 自然条件最好的潜水基地之一 特色2 广东沿海理想的潜水区和全国很大的垂钓区。 特色3 美丽而神秘的潜水旅游圣地,近距离观赏珊瑚、热带鱼,岩石耸立，千姿百态，气势雄奇,岛周围鱼类丰富多样，是天然矶钓之一。", "sight_content": "放鸡岛位于广东省茂名市电白县博贺镇，北纬21.23度，东经111.00度，横卧在电白县南海洋面电白港区域内，属地博贺港湾口西南部，距博贺上岛码头8海里，是广东东部通向湛江、北部湾必经之岛，岛的顶端建有照距15海里的太阳能灯塔，指引船舶安全航行。放鸡岛原名汾州山，又名湾舟，坐落于电白县东南面8海里，属于电白县博贺镇，海拔122米，面积1.9平方公里。\n放鸡岛呈橄榄形，东北、西南走向长2公里，最宽为0.91公里，最窄为0.10公里，岸线长5.96公里，顶端海拔135米（东北部），面积1.9平方公里，是电白县23个岛屿中较大的海岛。海岛地段可分为四个类型：侵蚀剥蚀低丘陵、海积阶地、沙滩、岩滩。由于长期受海蚀作用，基岩裸露，海蚀崖、海蚀糟沟，海蚀洞穴随处可见。山坡怪石兀立，植被茂盛，景色秀丽。西北部海岸，沙质洁白松散，北部沿岸海域水深1.3米至2.0米，东南部沿岸海域水深2.6米至10米，海水清澈见底，透明度可达8米。\n放鸡岛景区计划投资10亿元人民币，按国家5A级旅游景区标准建设，把放鸡岛建成生态岛、科普岛、度假休闲岛。岛上旅游服务配套设施齐全，分布合理，别具一格。放鸡岛自然风光秀丽，天然景物奇异多姿，山清水秀，林密石奇，有山的雄伟，又有海的壮观，它是集：奇、壮、古、秀、阔、幽、乐为一体的旅游景区。 度假区规划面积3.6平方公里，其中核心区面积1.2平方公里。是全省首批省级旅游度假区，国家AAAA级旅游区，有“东方夏威夷”之称。\n度假区内有12公里长，沙质洁白细软、宽阔平缓的沙滩，沿沙滩外侧是连续不断宽达800—1000米的沿海防护林带。这条防护林带，于上世纪六十年代营造，是我国第一条人工营造成功的沿海防护林带，具有极高的声誉。我国画家关山月的名作《绿色长城》就取材于此。蓝天白云下，绿树与银滩共伴，为国内少见。度假区曾举办过多届世界和全国女子沙滩排球赛，在国内外享有较高的声誉，社会形象良好。\n度假区形成了海滨浴场区、海上运动区、海滨度假区和中心广场区四个功能区，开发了海水浴、日光浴、海上运动、沙滩排球、度假疗养等旅游项目。2011年，更是利用第一滩附近国内海岸动力气流山坡——晏镜岭及有天然海滨机场美称的第一滩海滩，开发出了高空运动项目——动力三角翼飞机及山坡滑翔伞。在沙滩与防护林带之间更有一条长达10公里的观海长廊。2011年后旅游区的接待设施日臻完善，年接待游客超80万人次，曾先后被评为“卫生优良景区”、“为广东旅游争光先进单位”、“广东休闲好去处”等。\n茂名放鸡岛上有一个8万平方米海域的潜水池，里面放养了5万条各种海生鱼类。配备了300位教练可供300名游客同时潜水，这个海上观光潜水池是潜水基地。只要穿上潜水服，经过教练短暂的潜水培训后，背上氧气瓶、戴上潜水镜，便可以出师了，入海打开海底世界。当然身边会有教练贴身陪伴，游客自可以放心大胆地往下潜，在4——10米深的范围内游客基本都能达到。最受发烧友喜欢的自然是放鸡岛的探险潜。这可是其他国家难以实现的“寻宝探险”之旅。放鸡岛海底深处有一岩洞，据说那曾是某位声名显赫的海盗用来存放财宝的地方，当地曾有渔民潜到洞口，但都不敢深入其中，那自然是寻不到宝贝了，也正是因此给后人留下更大的想象空间。"}}, {"title": "高州仙人洞风景区", "address": "茂名市高州市深镇镇仙人洞村", "image": "", "rank": 6, "time": 4.5, "location": {"lat": 22.226231754087802, "lng": 111.16351919997467}, "feature": {"sight_features": "特色1 南亚热带湿润性季风气候 特色2 山上还有珍稀的禾雀花", "sight_content": "仙人洞景区位于广东茂名高州市的东北部，座落在“粤西第一峰”之称的大田顶南麓，是国家AAA级旅游景区、广东省重点旅游扶贫企业、广东省休闲农业和乡村旅游示范点，也是南国避暑圣地和原生态旅游目的地，“绿野、净土、仙人家”是其真实的写照。根据季节和生态变化，景区每年全力打造三次主题活动：3-5月：野生禾雀花杜鹃花观赏节；6-9月：观瀑避暑节；10-11月：丰收节，推介景区的美景和仙人洞的特色。\n仙人洞景区共分为三大板块：1、雀花广场区：百瀑梯、飞来瀑、茶田花事、雀花舞台、牛马神石、雀花长廊、帐蓬露营、自助烧烤等；2、天河谷景区：溯溪探险，神龟探水、一线天瀑布、阴元潭、仙女瀑、彩虹瀑、腾龙瀑、飞天瀑、天河大瀑布、玻璃观瀑台、5D 玻璃吊桥、3D炫彩石壁画、竹海大观、天门滑道、禾雀花观赏区等；3、仙人洞山庄：农家美食，避暑山庄等，是一个集观赏性、参与性、休闲性于一体的综合性旅游区。\n景区内常年溪水潺潺，飞瀑流泉，连环叠瀑，响彻山谷。溪边长满了野生禾雀花藤，曼长百米，径大160㎝,据专家证实属千年古藤。花似禾花雀，串串吊挂在藤曼上，活灵活现，一藤成景，人称 “天然翡翠鸟”。仙乳峰的野生杜鹃，素有“花中西施”之美誉，花开时节，万亩绽放，红的、紫的、黄的、粉的……，漫山遍野，十分娇艳；故又有“杜鹃花王国”之称。\n仙人洞还是有名的长寿村和“空调村”，由于地广人稀，自然生态保存良好，森林密布，空气清新，冷暖气流交汇，夏季气温20℃—25℃之间，负离子含量高，是一个天然的大氧吧、理想的养生之地和南国少有的避暑圣地。"}}, {"title": "天马山生态旅游区", "address": "茂名市信宜市北界镇旺将村的西南边", "image": "", "rank": 7, "time": 5.0, "location": {"lat": 22.4618957292521, "lng": 110.70985109991338}, "feature": {"sight_features": "特色1 每立方厘米拥有十万个负氧离子 特色2 夏无酷暑、冬无严寒，四季如春，世外桃源 特色3 给人以“返朴归真，回归自然”的感受", "sight_content": "天马山位于中国南玉之都、中国长寿之乡的广东省信宜市北界镇旺将村，系国家AAA旅游景区、广东省森林生态旅游示范基地、广东最美乡村旅游示范区、海外华人最爱的自然风光景区、广东省休闲农业与乡村旅游示范点。\n规划总面积20平方公里，已开发4平方公里，天马山是一个把充满野趣的自然山水风光与少数民族风情相结合开发的景区，这里有海拔1080米的高山万亩大草原，有最高落差40多米的爆布和观瀑玻璃桥，有每立方厘米10万多个负氧离子，这里森林原始、民风淳朴……，这里被誉为广东人的“香格里拉”。"}}, {"title": "石根山", "address": "茂名市信宜市朱砂镇207国道与209县道交叉口石根山风景旅游区", "image": "", "rank": 8, "time": 5.0, "location": {"lat": 22.53750536282486, "lng": 110.95349267509806}, "feature": {"sight_features": "特色1 体验原生态文明，寻找登山健体之乐", "sight_content": "广东省茂名信宜市石根山风景旅游区，占地面积5000亩，位于茂名信宜市北部的朱砂镇，地处两广交界，北与广西岑溪水汶镇毗陵，距信宜前去32公里，洛湛铁路信宜站仅33公里往在建的包茂高速公路水汶出口只有五分钟车程。与风景区擦边而过的207国道，与广东信宜市区和广西岑溪市区相连，交通十分便利。\n石根山风景旅游区是由信宜市石根山风景旅游区开发有限公司投巨资开发，以4a级旅游景区为标准，倾力打造的一家观光旅游、户外运动、康体娱乐、养生祈福、休闲度假、会议培训等功能为一体的综合生态度假旅游区。旅游区综合工程分三期进行，第一期工程项目于2009年2月18日动工，其中的公路工程、路灯工程、栈道工程、安全保障工程等全部完工，接待中心、原生态餐厅、两广风情演艺厅等已全部投入试运营，热情周到地迎接八方游客。试业后，第二、第三期工程将继续分期进行，计划将其打造成为以“原生态”为主题的粤西旅游第一品牌。\n旅游区内的石根山属云开山脉粤西最高的石质山体，海拔988米，以石的奇、特、秀、清闻名于世，是一座一脚踏两省的省界大山。石根山在山脚仰望山体，尤如一根顶天石柱，直耸云天，故名石根山；山间风光引人入胜，不仅有种类丰富的林木花卉，云雾缭绕的高山平湖，还有形状奇特，惟妙惟肖的奇石遍布山中，如：金扁担、金牛押、石炮、石人、石龙、石柱、石室、石台、石鼓、石龟、石洞等，极具观赏价值，且有种种传说；顺着栈道登上海拔650米处，有一个云雾缭绕的高山平瑚，雅号仙人湖，面积800平方米，水深约2米，清澈见底，湖光山色，如诗如画，美不胜收。\n穿越旅游区核心景区，倘徉山间，寻幽探胜，这里森林生态原始，树种繁多：既有漫山枫树、也有无花果、八角树等食用和药用的树种。\n旅游区内山体险峻，山间风光无限，自古以来是两广闻名，令人流连忘返的人间仙境，一年四季各具特色：春，绿意盎然，山花怒放，漫步山野，可以欣赏野花争艳，感受鸟唱虫鸣；夏，云雾缠绕群山，飘渺神秘，站在山腰，可以观看茫茫云海，体验人间仙境；秋，日出日落，红叶醉人，远看枫叶成林，层林尽染，近看，色彩斑斓，赏心悦目；冬，寒风萧瑟，放眼两广林海，郁郁葱葱，韵味十足。在政坛、商场、学海苦战疲惫的人们驻足期间，品偿日月轮回，体验沧海变幻，笑傲人间沧桑，别有一番滋味上心头。\n户外运动归来，会到两广风情演艺厅，观看原汁原味两广风情表演，欣赏韵味十足的两广文化，大饱眼福；进入原生态农家餐厅，品尝绿色无味精美食，体会山区饮食文化，大饱口福。"}}, {"title": "广垦（茂名）国家热带农业公园", "address": "茂名市化州市石湾街道国家热带农业公园", "image": "", "rank": 9, "time": 4.0, "location": {"lat": 21.68557226007986, "lng": 110.5478106144819}, "feature": {"sight_features": "特色1 农业生态观光旅游。 特色2 一年四季不同水果采摘活动。 特色3 热带农业展示馆、农业嘉年华。", "sight_content": "广垦热带农业公园是集农业生态观光旅游、商务会议接待、酒店旅业、科普教育、有机水果生产示范于一体的综合型景区，分为中心观光区、科普体验区、主题农业园区、主题酒店区等四大板块。\n其中番石榴园、杨桃园、青枣园、菠萝蜜园、龙眼园、荔枝园、火龙果园已具规模，建成的景点有热带农业展示馆、农业嘉年华（含蔬之物语、瓜样年华和灵草秘境）、花海、花山、水果大观园、缅茄广场等。\n休闲项目包括单人、双人、家庭单车骑行、一年四季不同水果采摘活动、钓鱼、儿童乐园。"}}, {"title": "西江温泉度假村", "address": "茂名市信宜市北界镇西江村东兴街66号", "image": "", "rank": 10, "time": 2, "location": {"lat": 22.35877379845407, "lng": 110.94901821535434}, "feature": {"sight_features": "", "sight_content": ""}}, {"title": "乐天温泉度假村", "address": "茂名市高州市乐天大道1号", "image": "", "rank": 11, "time": 2, "location": {"lat": 21.892842735815208, "lng": 110.83636944860922}, "feature": {"sight_features": "特色1 巴厘岛风情与自然巧妙结合，浪漫幽静", "sight_content": "酒店建地面积46389平方米，规划总建筑面积71190平方米，布局严格遵循“回归自然、融入现代”的建筑理念，是现代都市人追求品味生活的“世外桃源”，独具匠心地打造出集休闲、度假、商务与一体的奢华优雅，气度超凡的现代花园式酒店。\n酒店主体建筑拥有308间豪华客房，是集“自然与智能”于一体的时尚创意空间，拥有国际一流设计风格的商务套房、豪华套房，独具匠心的室内装修，舒适惬意，配备免费枕头备选单、高速上网，酒店设有涵盖个性化服务及贴身管家服务的行政会所，带给您意想不到的私人空间\n乐天温泉由巴厘岛风情与自然巧妙结合、人泉合一，泉区布局幽闲浪漫，清静宜人的优美环境独具一格，打造引领新时代健康养生的风向标。露天浴池57个包括：桑拿浴、蒸气浴、冰蒸浴、花果植物养身区、药浴养生区、无边际游泳区、空中温泉区、SPA理疗服务区等项目，使温泉医疗保健作用达到了效果。\n景区内有大型户外温泉、百余款自助美食大餐、户外游泳池、儿童乐园、亲子戏水池、健身房、多功能休息大厅等十几项目。"}}, {"title": "玉湖风景区", "address": "茂名市高州市长坡镇玉湖风景区", "image": "", "rank": 12, "time": 2.5, "location": {"lat": 22.053761778812145, "lng": 111.02520455485124}, "feature": {"sight_features": "特色1 青山绿水、风光秀丽、空气清新", "sight_content": "茂名市玉湖风景区位于“三个代表”重要思想发源地，全国水果第一县（市）——高州市东北部。玉湖风景区距广州、深圳、香港等大城市450公里范围内，距茂名市区58公里，高州城区25公里，是高州红色之旅的必经地，为高州三大自然生态风景旅游区的中心点，玉湖风景区所依托的高州水库是是一宗以灌溉、防洪、供水为主，结合发电等综合利用的大型水利枢纽工程。\n玉湖国家水利风景区位于历史文化名城高州市境内，景区主要依托石骨库区和良德库区，总库容为12.8亿立方米、水面40多平方公里的高州水库，因水色碧绿如玉，被人们称为玉湖。景区内宽阔的水面具有调节气温的作用，在小范围内形成了冬暖夏凉的小气候，全年平均气温23摄氏度，气候十分宜人，是天然的“超级氧吧”。\n景区四面群山环抱、青山绵绵、绿水柔柔、形态各异、景致万千，可谓一库一特色，一岛一风景，登高远眺，百岛浮洋、美景天成。景区内以亭台、花草点缀，用神话、人物雕像造景和名人书法、碑刻怡情，既有天然之美，又有人工之巧，自然与文明结合，青山与绿水一色，仿如一幅岭南山水画卷。景区内有大坝雄姿、日月同辉、龟蛇锁坝、七星伴月、千岛迷宫、小鸟天堂、龙子与仙女等工程景观、自然景观和人文景观相结合，是现代人养生、休闲、度假、会议的好去处，是茂名市的“后花园”。\n玉湖风景区以青山绿水、风光秀丽、空气清新而闻名于南粤大地。长1公里、高50米的主坝拔地而起，巍然屹立在长坡圩旁，气势磅礴，雄伟壮观。云开山脉如一条巨大的青色蛟龙盘踞在库区周围，库岸群山环绕，峰峦叠嶂，亚热带灌木四季绿色葱翠，春夏之交山花烂漫，花香醉人，百鸟齐鸣。40多平方公里的库区水面，形似山羊，色似碧玉，湖中百岛浮立，千姿百态，似飞禽、走兽，像星座、月亮；水道九曲十八湾，犹如水上迷宫。景区基础设施齐全，景点组合紧凑，形成保护与开发相结合、人与自然和谐发展的良好局面，是理想的旅游、会议、休闲度假胜地。"}}, {"title": "浮山岭风景区", "address": "茂名市电白区霞洞镇浮山岭", "image": "", "rank": 13, "time": 2, "location": {"lat": 21.786886197231023, "lng": 111.09572174307318}, "feature": {"sight_features": "", "sight_content": ""}}, {"title": "甲门峡漂流", "address": "茂名市信宜市地洞镇安匣村", "image": "", "rank": 14, "time": 2, "location": {"lat": 22.36009314172976, "lng": 110.95358169717407}, "feature": {"sight_features": "特色1 被誉为“粤西第一漂”。 特色2 形成落差大，河流水流量大，时而奔腾直下，激流澎湃；时而回旋幽谷、心旷神怡。 特色3 山间高含量的负离子幽谷空气清新，清澈的溪水散发着自然灵气，让人置身于仙境一般，将让您领略“激情穿越、仙境畅游”的独特神韵。", "sight_content": "甲门峡位于信宜市池洞镇东安闸村，距市区10多公里。由专业的公司设计、施工，河道是一段天然峡谷，全程落差90多米，有大小落差10多处，最大落差达8米多。形成落差大，河流水流量大，时而奔腾直下，激流澎湃；时而回旋幽谷、心旷神怡。\n\n景区美丽奇妙的石头河道，九曲十八弯。水清见底，鱼虾戏游。清潭、急滩、溪涧、瀑布、叠恋层出。怪石嶙峋，宏伟俊秀，天生丽质，难得一见。两岸百年野芋，真花稀草，争芳斗艳。天鹤展翅，蝴蝶裙舞。原始森林，犹如一幅幅清幽的长廊画卷，给人“山穷水尽疑无路，柳暗花明又一景”的奇妙感觉。山间高含量的负离子幽谷空气清新，清澈的溪水散发着自然灵气，让人置身于仙境一般，将让您领略“激情穿越、仙境畅游”的独特神韵。"}}, {"title": "滨海CS野战拓展基地", "address": "茂名市黄埔区长洲岛金洲北海洋路", "image": "", "rank": 15, "time": 2, "location": {"lat": 23.08408007055048, "lng": 113.44308087008076}, "feature": {"sight_features": "", "sight_content": ""}}, {"title": "天空之城实景真人密室逃脱", "address": "茂名市迎宾一路党校西侧宾南路6号", "image": "", "rank": 16, "time": 2, "location": {"lat": 21.664364488351833, "lng": 110.92543401267261}, "feature": {"sight_features": "", "sight_content": ""}}, {"title": "茂名市博物馆", "address": "广东省茂名市茂南区人民北路20号", "image": "", "rank": 17, "time": 2.5, "location": {"lat": 21.672208630888697, "lng": 110.92482096048431}, "feature": {"sight_features": "", "sight_content": ""}}, {"title": "茂名森林公园水上乐园", "address": "茂名市茂南区茂名森林公园（水上乐园入口在森林公园正门往北方向30米左右）", "image": "", "rank": 18, "time": 5.0, "location": {"lat": 21.647524226721604, "lng": 110.83634645019156}, "feature": {"sight_features": "特色1 欢乐畅游天然氧吧 特色2 夏天去哪？森林公园水上乐园给您一个清凉、刺激的夏天 特色3 游玩设施多样冲浪池、大滑坡、八爪章鱼、儿童水寨等，刺激、有趣", "sight_content": "茂名森林公园水上乐园是2013年从台湾引进，占地面积超过30000平方米，设备从国外引进，而且老少皆宜，不管是大人还是小孩都可以在这个地方享受水的冲击，感受水的滋润。\n水上乐园设有成人池、3米冲浪池、大滑坡、八爪章鱼、水母世界、儿童水寨、水浮萍、野战区、水迪吧、戏水池、SPA区、大型碰碰车场、震撼真实5D影院、清风树荫休闲区等多个区域，这里的水上乐园让你感受不一样的精彩。"}}, {"title": "OG真人密室逃脱", "address": "茂名市新福一路43号二楼", "image": "", "rank": 19, "time": 2, "location": {"lat": 21.65517734847505, "lng": 110.92994224780522}, "feature": {"sight_features": "", "sight_content": ""}}, {"title": "烈士公园", "address": "茂名市茂南区高山路108号", "image": "", "rank": 20, "time": 2.0, "location": {"lat": 21.647423442953357, "lng": 110.91389177500929}, "feature": {"sight_features": "", "sight_content": ""}}, {"title": "露天矿生态公园", "address": "广东省茂名市茂南区采矿路", "image": "", "rank": 21, "time": 2, "location": {"lat": 21.709708572955403, "lng": 110.88783986421107}, "feature": {"sight_features": "", "sight_content": ""}}, {"title": "古郡水城", "address": "茂名市高州市南塘镇南塘村委会平乐塘村", "image": "", "rank": 22, "time": 1.5, "location": {"lat": 22.065022443640363, "lng": 110.79485731192143}, "feature": {"sight_features": "特色1 刺激大脑神经的水上设备，趣味不停的超梦幻水城，与“水”共舞。", "sight_content": "古郡水城水上乐园，位于高州市南塘镇平乐塘村委会，占地面积：220亩。\n由高州市明丰旅游开发有限公司投资0.8亿元打造的生态休闲文化旅游主题乐园。"}}, {"title": "冰雪游乐园", "address": "茂名市水东湾中国第一滩景区内", "image": "", "rank": 23, "time": 2, "location": {"lat": 21.669064031332095, "lng": 110.931542579969}, "feature": {"sight_features": "", "sight_content": ""}}, {"title": "冼太庙", "address": "茂名市高州市光明路18号", "image": "", "rank": 24, "time": 2, "location": {"lat": 21.92170159005854, "lng": 110.86463656103157}, "feature": {"sight_features": "", "sight_content": ""}}, {"title": "新湖公园", "address": "新湖路45号(茂名开放大学)", "image": "", "rank": 25, "time": 2, "location": {"lat": 21.67172286769268, "lng": 110.92199538901211}, "feature": {"sight_features": "", "sight_content": ""}}, {"title": "鳄人谷生态旅游区", "address": "茂名市高州市分界镇良种繁育场内", "image": "", "rank": 26, "time": 1.0, "location": {"lat": 21.802258681725345, "lng": 110.96834225895304}, "feature": {"sight_features": "特色1 亲子互动、集体旅游的特色基地！", "sight_content": "广东鳄人谷生态旅游区位于广东省茂名市高州分界镇宏益鳄鱼世界产业园内，距离茂名城区25公里，临近汕湛高速、包茂高速交通便捷区位优越。景区规划用地2200亩，计划总投资12亿元，分三期建设，规划建成集鳄鱼驯养繁育科普、鳄鱼产业链的展示、鳄鱼主题观光游乐于一体，融合一二三产业的综合性生态旅游区。\n项目一期建设计划2018年完成，规划内容包括综合服务区、繁育养殖区、人鳄互动体验区、湿地生态区、加工产业区等五个功能区，集科普教育、游乐、餐饮、购物于一体，是休闲娱乐、旅游度假、商务会议的最佳场所，更是亲子互动、团体旅游的首选基地。"}}, {"title": "冼太夫人故里文化旅游区", "address": "茂名市电白区电城镇北5公里的山兜村", "image": "", "rank": 27, "time": 2, "location": {"lat": 21.56939248187336, "lng": 111.30656610415022}, "feature": {"sight_features": "特色1 竭力打造历史文化名人名胜景区", "sight_content": "冼太夫人故里文化旅游景区拥有冼太夫人文化核心的冼墓（隋谯国夫人墓，茂名地区唯一的全国重点文物保护单位）、冼庙（娘娘庙，是与冼太夫人墓城同期的隋代古庙，是历史上最早的冼太夫人庙）、冼府（山兜丁村）。\n在对全国重点文物保护单位娘娘庙的两次修葺及核心景区的设施建设中，景区遵循尊重历史、精益求精的原则，尽心竭力打造历史文化名人名胜景区，得到了时任中共广东省委常委、宣传部长慎海雄同志的高度评价，称赞为“规划有国际视野”。\n广东省文物局局长龙家有给予了充分的肯定，称之为：“民营企业文物保护的范例”。"}}, {"title": "高州市博物馆", "address": "广东茂名高州市高州市博物馆", "image": "", "rank": 28, "time": 2.5, "location": {"lat": 21.926454556248068, "lng": 110.85361394729199}, "feature": {"sight_features": "", "sight_content": ""}}, {"title": "茂名珍稀植物园", "address": "广东省茂名市茂港区小良镇", "image": "", "rank": 29, "time": 5.0, "location": {"lat": 21.49021611932844, "lng": 110.91549633639542}, "feature": {"sight_features": "", "sight_content": ""}}, {"title": "白石中学", "address": "广东省茂名市信宜市629县道", "image": "", "rank": 30, "time": 1.5, "location": {"lat": 22.418198458830847, "lng": 111.08461276085207}, "feature": {"sight_features": "", "sight_content": ""}}, {"title": "鸡头观光区", "address": "广东省茂名市电白区博贺镇", "image": "", "rank": 31, "time": 2, "location": {"lat": 21.491429633559186, "lng": 111.19521674171469}, "feature": {"sight_features": "", "sight_content": ""}}, {"title": "新城公园", "address": "新疆乌鲁木齐新市区北京北路19号", "image": "", "rank": 32, "time": 1.0, "location": {"lat": 43.89410840743634, "lng": 87.55568210450737}, "feature": {"sight_features": "", "sight_content": ""}}, {"title": "水东湾", "address": "广东茂名市茂港区境内", "image": "", "rank": 33, "time": 2, "location": {"lat": 21.579411293813205, "lng": 110.98628651186716}, "feature": {"sight_features": "", "sight_content": ""}}, {"title": "冼夫人纪念馆", "address": "茂名市高州市518乡道南塘镇大石垌村委会安涌村", "image": "", "rank": 34, "time": 2, "location": {"lat": 22.033099860639055, "lng": 110.80474031193548}, "feature": {"sight_features": "", "sight_content": ""}}, {"title": "林洲顶森林公园", "address": "广东省信宜市思贺镇大坪村", "image": "", "rank": 35, "time": 2, "location": {"lat": 22.41691515525012, "lng": 111.58220050577391}, "feature": {"sight_features": "", "sight_content": ""}}, {"title": "华兴顺花木场", "address": "桔城西路(新路口往化州方向500米处)", "image": "", "rank": 36, "time": 2, "location": {"lat": 21.674976753039417, "lng": 110.64987888740845}, "feature": {"sight_features": "", "sight_content": ""}}, {"title": "丁颖荔枝森林公园", "address": "广东省茂名市高州市", "image": "", "rank": 37, "time": 2, "location": {"lat": 21.924048896771122, "lng": 110.85947386452162}, "feature": {"sight_features": "", "sight_content": ""}}, {"title": "瀛州公园", "address": "上海市近郊崇明城桥镇鳌山路1号(崇明东门路崇明南门路)", "image": "", "rank": 38, "time": 2, "location": {"lat": 31.62154443842042, "lng": 121.41263621616893}, "feature": {"sight_features": "", "sight_content": ""}}, {"title": "康乐水上乐园", "address": "茂名市信宜市", "image": "", "rank": 39, "time": 2.5, "location": {"lat": 22.36009314172976, "lng": 110.95358169717407}, "feature": {"sight_features": "", "sight_content": ""}}, {"title": "鹿湖顶自然保护区", "address": "广东省茂名信宜市280省道附近", "image": "", "rank": 40, "time": 2, "location": {"lat": 22.45448319205089, "lng": 111.50489379695043}, "feature": {"sight_features": "", "sight_content": ""}}, {"title": "茂名第一滩游乐场", "address": "茂名市电白区海滨二路中国第一滩旅游度假区内", "image": "", "rank": 41, "time": 5.0, "location": {"lat": 21.462832208575648, "lng": 111.06058770486013}, "feature": {"sight_features": "", "sight_content": ""}}, {"title": "麻岗温泉", "address": "电白区厂前路南32号之1", "image": "", "rank": 42, "time": 2, "location": {"lat": 21.524770780073894, "lng": 111.01658202748429}, "feature": {"sight_features": "", "sight_content": ""}}, {"title": "翠华山庄", "address": "马踏镇上村", "image": "", "rank": 43, "time": 2, "location": {"lat": 21.68596591137594, "lng": 111.27247956202588}, "feature": {"sight_features": "", "sight_content": ""}}, {"title": "茂林温泉", "address": "612县道", "image": "", "rank": 44, "time": 2, "location": {"lat": 25.287489694560985, "lng": 117.37624340145892}, "feature": {"sight_features": "", "sight_content": ""}}, {"title": "人造油厂农场", "address": "采矿路", "image": "", "rank": 45, "time": 2, "location": {"lat": 21.709708572955403, "lng": 110.88783986421107}, "feature": {"sight_features": "", "sight_content": ""}}, {"title": "茂名市图书馆公馆图书流动站", "address": "打铁街21号附近", "image": "", "rank": 46, "time": 5.0, "location": {"lat": 23.255802803398502, "lng": 116.60754298528964}, "feature": {"sight_features": "", "sight_content": ""}}, {"title": "高山镇农场", "address": "站南路66号附近", "image": "", "rank": 47, "time": 2, "location": {"lat": 37.69978767434422, "lng": 112.74099399261692}, "feature": {"sight_features": "", "sight_content": ""}}, {"title": "木梨架农场", "address": "634县道南150米", "image": "", "rank": 48, "time": 2, "location": {"lat": 21.743300621198856, "lng": 111.09752198594171}, "feature": {"sight_features": "", "sight_content": ""}}, {"title": "白沙锡福剧场", "address": "626县道白沙村附近", "image": "", "rank": 49, "time": 1.5, "location": {"lat": 21.62613043648198, "lng": 110.89455395230237}, "feature": {"sight_features": "", "sight_content": ""}}, {"title": "华金画廊", "address": "幸福路与广隆路交叉口西北50米", "image": "", "rank": 50, "time": 2, "location": {"lat": 21.52383140333518, "lng": 111.01486122985673}, "feature": {"sight_features": "", "sight_content": ""}}, {"title": "青福影剧院", "address": "920乡道附近", "image": "", "rank": 51, "time": 2, "location": {"lat": 22.86452009232023, "lng": 113.3762134719921}, "feature": {"sight_features": "", "sight_content": ""}}, {"title": "吉林白山黑水间森林公园", "address": "广东省茂名市电白区X657", "image": "", "rank": 52, "time": 4.5, "location": {"lat": 21.52035118819837, "lng": 111.02047123220541}, "feature": {"sight_features": "", "sight_content": ""}}, {"title": "食为天农业科普园", "address": "茂名市茂南区陂垌村", "image": "", "rank": 53, "time": 2, "location": {"lat": 21.729490481575965, "lng": 110.89735846030698}, "feature": {"sight_features": "", "sight_content": ""}}, {"title": "逸和生态旅游度假区", "address": "袂花镇石浪石九岭村委会四组", "image": "", "rank": 54, "time": 2, "location": {"lat": 22.20819585198098, "lng": 110.90903185237134}, "feature": {"sight_features": "", "sight_content": ""}}, {"title": "三官山", "address": "广东省高州市新垌镇 525245", "image": "", "rank": 55, "time": 2.5, "location": {"lat": 21.929720480655, "lng": 111.09859395816068}, "feature": {"sight_features": "", "sight_content": ""}}, {"title": "三官山飘流", "address": "新洞镇(近钢铁村)", "image": "", "rank": 56, "time": 2, "location": {"lat": 30.099232967640337, "lng": 117.13987209085248}, "feature": {"sight_features": "", "sight_content": ""}}, {"title": "名园农业有限公司", "address": "679乡道南冲林场西南300米路西", "image": "", "rank": 57, "time": 2, "location": {"lat": 31.909199228140412, "lng": 121.30903625505988}, "feature": {"sight_features": "", "sight_content": ""}}, {"title": "宏益鳄鱼主题公园", "address": "良种繁育场内(储良候车亭)", "image": "", "rank": 58, "time": 2, "location": {"lat": 36.098098640497476, "lng": 120.37827389263303}, "feature": {"sight_features": "", "sight_content": ""}}, {"title": "大仁山风景区", "address": "广东省茂名信宜市大仁山风景区", "image": "", "rank": 59, "time": 2, "location": {"lat": 22.415872763241854, "lng": 110.92639528939853}, "feature": {"sight_features": "", "sight_content": ""}}, {"title": "坑垌林场", "address": "东方大道与280省道交叉口东200米", "image": "", "rank": 60, "time": 2, "location": {"lat": 31.627570891307233, "lng": 120.38091029623695}, "feature": {"sight_features": "", "sight_content": ""}}]}