{"cityName": "玛沁", "days": 2, "cityImage": "", "spots": [{"title": "阿尼玛卿雪山", "address": "果洛藏族自治州玛沁县西北部", "image": "", "rank": 1, "time": 2, "location": {"lat": 34.48356948600165, "lng": 100.24556434882359}, "feature": {"sight_features": "", "sight_content": ""}}, {"title": "拉加寺", "address": "青海省果洛藏族自治州玛沁县101省道", "image": "", "rank": 2, "time": 1.0, "location": {"lat": 34.501667129197905, "lng": 100.41768480487677}, "feature": {"sight_features": "", "sight_content": ""}}, {"title": "高山草甸", "address": "青海省果洛藏族自治州玛沁县", "image": "", "rank": 3, "time": 1.5, "location": {"lat": 34.48356948600165, "lng": 100.24556434882359}, "feature": {"sight_features": "", "sight_content": ""}}, {"title": "州格萨尔博物馆", "address": "101省道", "image": "", "rank": 4, "time": 2, "location": {"lat": 41.03241923348195, "lng": 111.82384508727836}, "feature": {"sight_features": "", "sight_content": ""}}, {"title": "高山牧场", "address": "青海省果洛藏族自治州玛沁县", "image": "", "rank": 5, "time": 2.0, "location": {"lat": 34.48356948600165, "lng": 100.24556434882359}, "feature": {"sight_features": "", "sight_content": ""}}, {"title": "果洛神女峰", "address": "青海省甘德县东部 814000", "image": "", "rank": 6, "time": 2, "location": {"lat": 33.975003677602174, "lng": 107.21971754679885}, "feature": {"sight_features": "", "sight_content": ""}}, {"title": "当前垭豁", "address": "果洛藏族自治州-玛沁县", "image": "", "rank": 7, "time": 2, "location": {"lat": 34.48356948600165, "lng": 100.24556434882359}, "feature": {"sight_features": "", "sight_content": ""}}, {"title": "当前村", "address": "果洛藏族自治州-玛沁县-七零二乡道", "image": "", "rank": 8, "time": 2, "location": {"lat": 34.48356948600165, "lng": 100.24556434882359}, "feature": {"sight_features": "", "sight_content": ""}}, {"title": "哪儿杂玛", "address": "果洛藏族自治州-玛沁县", "image": "", "rank": 9, "time": 2, "location": {"lat": 34.48356948600165, "lng": 100.24556434882359}, "feature": {"sight_features": "", "sight_content": ""}}, {"title": "阿尼玛青山", "address": "青海省果洛藏族自治州玛沁雪山乡", "image": "", "rank": 10, "time": null, "location": {"lat": 34.79987028379209, "lng": 99.7345287241173}, "feature": {"sight_features": "", "sight_content": ""}}]}