{"cityName": "玛曲", "days": 2, "cityImage": "", "spots": [{"title": "阿万仓", "address": "甘南州玛曲县境内黄河的臂弯里，草原距离玛曲县城50公里", "image": "", "rank": 1, "time": 0.4, "location": {"lat": 33.96850615067505, "lng": 102.12486062527627}, "feature": {"sight_features": "", "sight_content": ""}}, {"title": "察干尼玛外香寺", "address": "甘南藏族自治州玛曲县城正北方3千米处", "image": "", "rank": 2, "time": 1.0, "location": {"lat": 34.003358168342224, "lng": 102.07860004025919}, "feature": {"sight_features": "", "sight_content": ""}}, {"title": "尼玛寺", "address": "甘肃省玛曲县格萨尔广场东侧", "image": "", "rank": 3, "time": 2, "location": {"lat": 34.00386347698736, "lng": 102.08107135956463}, "feature": {"sight_features": "", "sight_content": ""}}, {"title": "西梅朵合塘", "address": "甘南州玛曲县城以西120公里处的欧拉秀玛乡境内", "image": "", "rank": 4, "time": 0.75, "location": {"lat": 34.247856498494144, "lng": 101.12887554714435}, "feature": {"sight_features": "", "sight_content": ""}}, {"title": "金曲旅游度假村", "address": "欧拉路附近", "image": "", "rank": 5, "time": 2, "location": {"lat": 33.970970102785714, "lng": 102.08874546496004}, "feature": {"sight_features": "", "sight_content": ""}}, {"title": "玛尼吉祥休闲度假村", "address": "甘肃省甘南藏族自治州玛曲县尼玛镇玛麦路(格萨尔赛马场东)", "image": "", "rank": 6, "time": 2, "location": {"lat": 34.002944270091774, "lng": 102.0951493430084}, "feature": {"sight_features": "", "sight_content": ""}}, {"title": "黄河第一湾", "address": "甘南藏族自治州玛曲县境内", "image": "", "rank": 7, "time": 1.0, "location": {"lat": 34.003358168342224, "lng": 102.07860004025919}, "feature": {"sight_features": "", "sight_content": ""}}, {"title": "萨尔玛寺", "address": "甘南藏族自治州玛曲县西仓乡", "image": "", "rank": 8, "time": 2, "location": {"lat": 34.003358168342224, "lng": 102.07860004025919}, "feature": {"sight_features": "", "sight_content": ""}}, {"title": "玛曲县宣侠父烈士纪念馆", "address": "甘肃省甘南藏族自治州玛曲县姜艾路", "image": "", "rank": 9, "time": 2, "location": {"lat": 34.00410492743881, "lng": 102.08028409359875}, "feature": {"sight_features": "", "sight_content": ""}}, {"title": "玛曲县桑凯彤哇尔民族旅游文化娱...", "address": "甘肃省甘南藏族自治州玛曲县黄河大桥南三公里", "image": "", "rank": 10, "time": 2, "location": {"lat": 33.941164282636485, "lng": 102.08975456926824}, "feature": {"sight_features": "", "sight_content": ""}}, {"title": "阿旺苍", "address": "甘肃省甘南藏族自治州玛曲县", "image": "", "rank": 11, "time": 2, "location": {"lat": 34.003358168342224, "lng": 102.07860004025919}, "feature": {"sight_features": "", "sight_content": ""}}]}