{"cityName": "马山", "days": 2, "cityImage": "", "spots": [{"title": "水锦顺庄旅游景区", "address": "古零镇乐平村水锦屯", "image": "", "rank": 1, "time": 2, "location": {"lat": 23.602859462400783, "lng": 108.31702512166929}, "feature": {"sight_features": "", "sight_content": "水锦顺庄旅游区，坐落在马山县古零镇乐平村，是一处没有受到污染的天然“水吧”，山水相依，气候宜人。\n这里没有过多地受到商业的侵蚀，人少、幽静，耳边尽是潺潺水声和虫鸣鸟叫，既可漫游林间也可下水嬉戏，是避暑、养生的好地方。\n\n进入水锦顺庄，放慢脚步，调整心态，细细品位和观察，以获取新知。享受清凉时刻，享受人景合一的最高境界。\n\n水锦顺庄是美的，美在清、高、旷、远、静、净、深、厚、大。清澈见底的天然泉水流经谷底，清凉一触即发。\n在这个氧离子充足的避暑胜地里，用太极之道修正自己，这样才能让生命在无为的精神世界中得到无限的升华。\n回忆是一帧照片，一帧充满情调的老照片。畅游在凉爽的溪水间，忘我在水锦中。\n7D全透明动感玻璃桥坐落于广西南宁市马山县水锦顺庄旅游景区大峡谷上，全长268米、垂直悬空108米。该玻璃桥的刺激性不仅是因垂直悬空高度高，还有全息7D音画同步的特效亮点，相比起传统的玻璃吊桥，这座7D动态玻璃桥最大的特点就是科技感十足，每一步都挑战你的视听感官，人在桥上走，会有水流、玻璃裂开的声音，甚至还会出现玻璃碎裂的花纹。不一样的身高，不一样的体重，便会产生不一样的玻璃碎裂花纹。\n当下网红全国的泡泡屋酒店，就是在水锦顺庄景区内。它将向你呈现美丽星空，零距离亲近大自然。心宿泡泡屋不是传统的钢筋水泥客房。这个生态友好型酒店由气压控制的泡泡组成，内有全尺寸的床和配套齐全的的浴室，心宿泡泡屋坐落在溪流边，你可以在早晨边欣赏荷花边吃早餐、观看风车，下午戏水游泳，在夜晚看令人难忘的星空，或者调控灯光进入睡眠模式的颜色。"}}, {"title": "小都白村", "address": "南宁市马山县古零镇乔老村", "image": "", "rank": 2, "time": 2, "location": {"lat": 23.677647013089764, "lng": 108.25846203520382}, "feature": {"sight_features": "", "sight_content": ""}}, {"title": "普陀寺", "address": "广西壮族自治区南宁市马山县古零镇弄拉景区", "image": "", "rank": 3, "time": 1.0, "location": {"lat": 23.660984016947772, "lng": 108.3312333082039}, "feature": {"sight_features": "", "sight_content": ""}}, {"title": "三潮水乐园", "address": "南宁市近郊马山县白山镇上龙村", "image": "", "rank": 4, "time": 1.0, "location": {"lat": 23.65509334557557, "lng": 108.19989353554936}, "feature": {"sight_features": "", "sight_content": ""}}, {"title": "小都百", "address": ")古零镇乔老村小都百屯", "image": "", "rank": 5, "time": 2, "location": {"lat": 23.675269297087237, "lng": 108.25823156684056}, "feature": {"sight_features": "", "sight_content": ""}}, {"title": "巴苏山庄", "address": "马山县银峰大道", "image": "", "rank": 6, "time": 2, "location": {"lat": 23.712175160294848, "lng": 108.15251931581739}, "feature": {"sight_features": "", "sight_content": ""}}, {"title": "勉圩村科普活动室", "address": "广西壮族自治区马山县G210国道", "image": "", "rank": 7, "time": 2, "location": {"lat": 23.713877725360007, "lng": 108.18356215633243}, "feature": {"sight_features": "", "sight_content": ""}}, {"title": "恩村洞", "address": "广西壮族自治区南丹县小场镇 547201", "image": "", "rank": 8, "time": 2, "location": {"lat": 24.98184977548506, "lng": 107.54748028933784}, "feature": {"sight_features": "", "sight_content": ""}}, {"title": "水力方游乐园", "address": "五象新区龙岗大道西侧", "image": "", "rank": 9, "time": 2, "location": {"lat": 28.631891309508948, "lng": 115.80956973271377}, "feature": {"sight_features": "", "sight_content": ""}}, {"title": "神明宝殿", "address": "210国道西50米", "image": "", "rank": 10, "time": 2, "location": {"lat": 30.75468488618663, "lng": 107.25722442579081}, "feature": {"sight_features": "", "sight_content": ""}}, {"title": "柒柒农庄", "address": "广西壮族自治区南宁市马山县X488", "image": "", "rank": 11, "time": 2, "location": {"lat": 23.713877725360007, "lng": 108.18356215633243}, "feature": {"sight_features": "", "sight_content": ""}}, {"title": "蝴蝶泉边", "address": "南宁市马山县", "image": "", "rank": 12, "time": 2, "location": {"lat": 23.713877725360007, "lng": 108.18356215633243}, "feature": {"sight_features": "", "sight_content": ""}}, {"title": "朵朵开儿童乐园", "address": "广西壮族自治区南宁市马山县西华路马山县图书馆(马山县文化体育局西北)附近", "image": "", "rank": 13, "time": 2, "location": {"lat": 23.717992428009325, "lng": 108.18332419520291}, "feature": {"sight_features": "", "sight_content": ""}}, {"title": "会鼓广场", "address": "广西壮族自治区南宁市马山县江滨东路与西华路交叉口西100米", "image": "", "rank": 14, "time": 2, "location": {"lat": 23.723903637211652, "lng": 108.18052436108186}, "feature": {"sight_features": "", "sight_content": ""}}, {"title": "浩森中央公园", "address": "马山县白山镇西华路434号", "image": "", "rank": 15, "time": null, "location": {"lat": 23.72154941924586, "lng": 108.18195708461134}, "feature": {"sight_features": "", "sight_content": ""}}, {"title": "民俗文化展示馆", "address": "江滨西路", "image": "", "rank": 16, "time": 2, "location": {"lat": 27.50659646515697, "lng": 120.40069494530144}, "feature": {"sight_features": "", "sight_content": ""}}, {"title": "马山县图书馆", "address": "西华路(马山县文化体育局西北)", "image": "", "rank": 17, "time": 2, "location": {"lat": 23.717992428009325, "lng": 108.18332419520291}, "feature": {"sight_features": "", "sight_content": ""}}, {"title": "慧泓童屋", "address": "西华路与西华路东七巷交叉口东50米", "image": "", "rank": 18, "time": 2, "location": {"lat": 39.57778818826832, "lng": 116.01064718014014}, "feature": {"sight_features": "", "sight_content": ""}}, {"title": "金钗石林农家乐", "address": "金钗镇龙塘村天付屯10号", "image": "", "rank": 19, "time": 2, "location": {"lat": 23.987223891805208, "lng": 108.43860197170557}, "feature": {"sight_features": "", "sight_content": ""}}, {"title": "马山县科技信息中心", "address": "广西壮族自治区马山县金伦大道", "image": "", "rank": 20, "time": 2, "location": {"lat": 23.71216661434087, "lng": 108.17097204888526}, "feature": {"sight_features": "", "sight_content": ""}}, {"title": "马山县步行街", "address": "广西壮族自治区马山县西华街附近", "image": "", "rank": 21, "time": 2, "location": {"lat": 23.71624808340499, "lng": 108.1826183067334}, "feature": {"sight_features": "", "sight_content": ""}}, {"title": "他卜", "address": "南宁市-马山县", "image": "", "rank": 22, "time": 2, "location": {"lat": 23.713877725360007, "lng": 108.18356215633243}, "feature": {"sight_features": "", "sight_content": ""}}]}