{"cityName": "马祖", "days": "", "cityImage": "", "spots": [{"title": "北海坑道", "address": "马祖列岛南竿乡仁爱村", "image": "", "rank": 1, "time": 3.0, "location": {"lat": 26.14556220565696, "lng": 119.93650195832922}, "feature": {"sight_features": "", "sight_content": ""}}, {"title": "马祖故事馆", "address": "台湾马祖南竿乡仁爱村19号", "image": "", "rank": 2, "time": 1.5, "location": {"lat": 24.086956718804895, "lng": 121.97387097871568}, "feature": {"sight_features": "", "sight_content": ""}}, {"title": "战争和平纪念公园", "address": "北竿乡后沃村后方大沃山", "image": "", "rank": 3, "time": null, "location": {"lat": 26.22763217561994, "lng": 120.01832472383137}, "feature": {"sight_features": "", "sight_content": ""}}, {"title": "芹壁聚落", "address": "北竿乡芹壁村（北竿的北方）", "image": "", "rank": 4, "time": 2, "location": {"lat": 26.237943718768502, "lng": 120.0089574841291}, "feature": {"sight_features": "", "sight_content": ""}}, {"title": "东引岛灯塔", "address": "东引乡乐华村160-1号", "image": "", "rank": 5, "time": 2, "location": {"lat": 28.682533106801902, "lng": 116.94346172554894}, "feature": {"sight_features": "", "sight_content": ""}}, {"title": "妈祖巨石像", "address": "南竿乡马祖村", "image": "", "rank": 6, "time": 2, "location": {"lat": 26.16163066726136, "lng": 119.92836241210601}, "feature": {"sight_features": "", "sight_content": ""}}, {"title": "北竿机场", "address": "连江县北竿乡", "image": "", "rank": 7, "time": 2, "location": {"lat": 26.226839061471168, "lng": 120.00771102594625}, "feature": {"sight_features": "", "sight_content": ""}}, {"title": "台湾最北端", "address": "东引乡西引北端罗汉坪", "image": "", "rank": 8, "time": 2, "location": {"lat": 37.644604068145966, "lng": 120.52360503864898}, "feature": {"sight_features": "", "sight_content": ""}}, {"title": "马祖传统建筑", "address": "北竿乡芹壁聚落", "image": "", "rank": 9, "time": 2, "location": {"lat": 26.226839061471168, "lng": 120.00771102594625}, "feature": {"sight_features": "", "sight_content": ""}}, {"title": "铁堡", "address": "南竿乡仁爱村", "image": "", "rank": 10, "time": 2, "location": {"lat": 26.14556220565696, "lng": 119.93650195832922}, "feature": {"sight_features": "", "sight_content": ""}}, {"title": "津沙聚落", "address": "南竿乡津沙村", "image": "", "rank": 11, "time": 2, "location": {"lat": 26.14790382110416, "lng": 119.92380171503336}, "feature": {"sight_features": "", "sight_content": ""}}, {"title": "“枕戈待旦”纪念公园", "address": "连江县南竿乡，位于福澳港正对面的福山山头", "image": "", "rank": 12, "time": 2, "location": {"lat": 26.150204513455577, "lng": 119.9504526797251}, "feature": {"sight_features": "", "sight_content": ""}}, {"title": "福正聚落", "address": "莒光乡东莒岛福正村", "image": "", "rank": 13, "time": 2, "location": {"lat": 32.775121284319766, "lng": 116.56571435433378}, "feature": {"sight_features": "", "sight_content": ""}}, {"title": "大埔石刻", "address": "莒光乡东莒岛西南边的山崖旁", "image": "", "rank": 14, "time": 4.0, "location": {"lat": 31.909199228140412, "lng": 121.30903625505988}, "feature": {"sight_features": "", "sight_content": ""}}, {"title": "Wushakeng Trail", "address": "马祖列岛Beigan Township", "image": "", "rank": 15, "time": 2, "location": {"lat": 24.788409573598283, "lng": 105.20265676707209}, "feature": {"sight_features": "", "sight_content": ""}}, {"title": "壁山观景台", "address": "壁山路 210", "image": "", "rank": 16, "time": 2, "location": {"lat": 31.16553744547835, "lng": 104.39653619513112}, "feature": {"sight_features": "", "sight_content": ""}}, {"title": "龟岛", "address": "马祖列岛连江县北竿乡芹壁村", "image": "", "rank": 17, "time": 7.5, "location": {"lat": 26.227373700027087, "lng": 119.99295900525608}, "feature": {"sight_features": "", "sight_content": ""}}, {"title": "戦争和平记念公园", "address": "马祖列岛连江县北竿乡后澳村", "image": "", "rank": 18, "time": 2, "location": {"lat": 26.226839061471168, "lng": 120.00771102594625}, "feature": {"sight_features": "", "sight_content": ""}}, {"title": "Cingfan Village", "address": "马祖列岛Qingfan Vil., Qingfan Vil., Juguang Township", "image": "", "rank": 19, "time": 2, "location": {"lat": 24.788409573598283, "lng": 105.20265676707209}, "feature": {"sight_features": "", "sight_content": ""}}, {"title": "Tanghou Trail", "address": "马祖列岛Houao Vil., Beigan Township", "image": "", "rank": 20, "time": 2, "location": {"lat": 24.788409573598283, "lng": 105.20265676707209}, "feature": {"sight_features": "", "sight_content": ""}}, {"title": "一线天", "address": "马祖列岛连江县东引乡东引岛", "image": "", "rank": 21, "time": 2.5, "location": {"lat": 26.37242797456888, "lng": 120.50037730981121}, "feature": {"sight_features": "", "sight_content": ""}}, {"title": "神祕小海湾", "address": "马祖列岛连江县莒光乡东莒岛 211", "image": "", "rank": 22, "time": 2, "location": {"lat": 26.203583291029112, "lng": 119.54647881620511}, "feature": {"sight_features": "", "sight_content": ""}}, {"title": "马祖历史文物馆", "address": "南竿乡清水村", "image": "", "rank": 23, "time": 1.5, "location": {"lat": 26.150204513455577, "lng": 119.9504526797251}, "feature": {"sight_features": "", "sight_content": ""}}, {"title": "赵元帅府", "address": "芹壁村92号 21042", "image": "", "rank": 24, "time": 2, "location": {"lat": 26.227373700027087, "lng": 119.99295900525608}, "feature": {"sight_features": "", "sight_content": ""}}, {"title": "桥仔境白马大王庙", "address": "环岛东路桥仔村", "image": "", "rank": 25, "time": 2, "location": {"lat": 28.588541580327032, "lng": 121.3919984787881}, "feature": {"sight_features": "", "sight_content": ""}}, {"title": "五福天仙府", "address": "塘岐村23号 210", "image": "", "rank": 26, "time": 2, "location": {"lat": 26.230292003228502, "lng": 120.00946897928631}, "feature": {"sight_features": "", "sight_content": ""}}, {"title": "坂里古厝（坂里大宅）", "address": "北竿大道坂里村48号", "image": "", "rank": 27, "time": 2, "location": {"lat": 30.825808281879233, "lng": 117.94265360118835}, "feature": {"sight_features": "", "sight_content": ""}}, {"title": "莒光堡", "address": "环岛东路连江县", "image": "", "rank": 28, "time": 2, "location": {"lat": 26.203583291029112, "lng": 119.54647881620511}, "feature": {"sight_features": "", "sight_content": ""}}, {"title": "开心农场", "address": "桥仔村79号 210", "image": "", "rank": 29, "time": 2, "location": {"lat": 21.5959204377709, "lng": 109.95751359168781}, "feature": {"sight_features": "", "sight_content": ""}}]}