{"cityName": "麻阳", "days": 2, "cityImage": "", "spots": [{"title": "滕代远纪念馆", "address": "怀化市麻阳苗族自治县高村镇友谊路59号", "image": "", "rank": 1, "time": 1.0, "location": {"lat": 27.872395745809175, "lng": 109.81134033820287}, "feature": {"sight_features": "", "sight_content": ""}}, {"title": "马江口张海农家乐", "address": "尧市镇马江口村(近蒲罗平和尧市中间)", "image": "", "rank": 2, "time": 2, "location": {"lat": 24.368365040125912, "lng": 117.32255159131472}, "feature": {"sight_features": "", "sight_content": ""}}, {"title": "春秋画廊", "address": "五一东路20号", "image": "", "rank": 3, "time": 2, "location": {"lat": 26.414788507280754, "lng": 112.86619674598745}, "feature": {"sight_features": "", "sight_content": ""}}, {"title": "麻阳苗族自治县图书馆", "address": "兴隆街", "image": "", "rank": 4, "time": 2, "location": {"lat": 40.2420239978553, "lng": 116.13532573900687}, "feature": {"sight_features": "", "sight_content": ""}}, {"title": "麻阳苗族自治县博物馆", "address": "高村镇友谊东路59号", "image": "", "rank": 5, "time": 2, "location": {"lat": 27.87245242671191, "lng": 109.81157838916293}, "feature": {"sight_features": "", "sight_content": ""}}, {"title": "水上乐园", "address": "友谊路49号", "image": "", "rank": 6, "time": 2, "location": {"lat": 40.22432253661413, "lng": 116.66442065155006}, "feature": {"sight_features": "", "sight_content": ""}}, {"title": "满氏宗祠", "address": "湖南省怀化市麻阳苗族自治县S308", "image": "", "rank": 7, "time": 2, "location": {"lat": 27.871930162950118, "lng": 109.80943628984454}, "feature": {"sight_features": "", "sight_content": ""}}, {"title": "鹅公园", "address": "怀化市麻阳苗族自治县", "image": "", "rank": 8, "time": 2, "location": {"lat": 27.871930162950118, "lng": 109.80943628984454}, "feature": {"sight_features": "", "sight_content": ""}}, {"title": "长寿山庄", "address": "209国道", "image": "", "rank": 9, "time": 2, "location": {"lat": 29.50537463467816, "lng": 109.42537798613527}, "feature": {"sight_features": "", "sight_content": ""}}, {"title": "麻阳图书馆", "address": "大桥路北9号", "image": "", "rank": 10, "time": 1.5, "location": {"lat": 27.873719197152354, "lng": 109.80619457475176}, "feature": {"sight_features": "", "sight_content": ""}}, {"title": "湘川粤农家乐", "address": "209国道附近", "image": "", "rank": 11, "time": 2, "location": {"lat": 29.50537463467816, "lng": 109.42537798613527}, "feature": {"sight_features": "", "sight_content": ""}}, {"title": "悠贝亲子图书馆", "address": "高村镇工农北路木材公司家属区A栋第17号门面", "image": "", "rank": 12, "time": 2, "location": {"lat": 38.46598758770986, "lng": 105.99665091563062}, "feature": {"sight_features": "", "sight_content": ""}}, {"title": "泰丰农业", "address": "金环水果市场东方自动门厂旁", "image": "", "rank": 13, "time": 2, "location": {"lat": 27.865072879992013, "lng": 109.80362640913012}, "feature": {"sight_features": "", "sight_content": ""}}, {"title": "岩龙盘洞", "address": "湖南省麻阳苗族自治县锦和镇岩口山村", "image": "", "rank": 14, "time": 2, "location": {"lat": 27.80309752911068, "lng": 109.58985669280487}, "feature": {"sight_features": "", "sight_content": ""}}, {"title": "美女庵", "address": "湖南省麻阳苗族自治县高村乡高龙村", "image": "", "rank": 15, "time": 2, "location": {"lat": 27.86735595085113, "lng": 109.81435077915235}, "feature": {"sight_features": "", "sight_content": ""}}, {"title": "麻阳锦和黄土田黑木耳种植专业合...", "address": "怀化市-麻阳苗族自治县-锦和镇黄土田村", "image": "", "rank": 16, "time": 2, "location": {"lat": 27.76605295502036, "lng": 109.56636365106458}, "feature": {"sight_features": "", "sight_content": ""}}, {"title": "古重阳木", "address": "湖南省麻阳苗族自治县舒家村乡狮子湾村 419400", "image": "", "rank": 17, "time": 2, "location": {"lat": 27.74213467000943, "lng": 109.67600322460657}, "feature": {"sight_features": "", "sight_content": ""}}]}