{"cityName": "梅河口", "days": 2, "cityImage": "", "spots": [{"title": "五奎山风景区", "address": "通化市梅河口市区东北9公里处", "image": "", "rank": 1, "time": 2, "location": {"lat": 42.54488389028409, "lng": 125.71760780995182}, "feature": {"sight_features": "", "sight_content": ""}}, {"title": "四季生态园", "address": "通化市梅河口市海龙镇", "image": "", "rank": 2, "time": 2, "location": {"lat": 42.62303578673816, "lng": 125.88482631254897}, "feature": {"sight_features": "", "sight_content": ""}}, {"title": "女真摩崖石刻", "address": "通化市梅河口市", "image": "", "rank": 3, "time": null, "location": {"lat": 42.54488389028409, "lng": 125.71760780995182}, "feature": {"sight_features": "", "sight_content": ""}}, {"title": "鸡冠山国家森林公园", "address": "通化市梅河口市", "image": "", "rank": 4, "time": 2, "location": {"lat": 42.54488389028409, "lng": 125.71760780995182}, "feature": {"sight_features": "特色1 观峰、峦、岭、谷、洞、石", "sight_content": "鸡冠山森林公园内山峦叠嶂、绵亘曲折，峻秀多姿的山峦构成了森林公园风景的骨架，因状如鸡冠头上的鸡冠而得名，状如鸡冠的十二峰，差错相连，最高峰969.1米，即鸡冠砬子，是梅河口市最高峰。\n\n\n鸡冠山森林公园地文景观色彩纷繁、水文景观美不胜收、生物景观丰富多彩、人文景观悠久奇特、天象景观丰富绚丽，符合一级森林公园风景资源标准。与通化市的龙湾群、白鸡腰、三仙夹、五女峰等国家森林公园相比较，鸡冠山森林公园地文景观独特新奇、人文景观历史悠久、地理位置更加优越、区位优势更加明显，外部交通更加便捷，且系梅河口市唯一的森林公园，是通化市乃至吉林省最具特色的森林公园之一。"}}, {"title": "彭达大戏院", "address": "梅河东大街261号", "image": "", "rank": 5, "time": 2, "location": {"lat": 42.54862908584858, "lng": 125.69805208796589}, "feature": {"sight_features": "", "sight_content": ""}}, {"title": "家会烧烤垂钓园", "address": "李炉乡079县道家会烧烤垂钓园", "image": "", "rank": 6, "time": 2, "location": {"lat": 42.55429854488047, "lng": 125.7804404347289}, "feature": {"sight_features": "", "sight_content": ""}}, {"title": "儿童乐园美食广场", "address": "吉林省通化市梅河口市泰昌街835", "image": "", "rank": 7, "time": 2, "location": {"lat": 42.537872240892966, "lng": 125.69419914514202}, "feature": {"sight_features": "", "sight_content": ""}}, {"title": "梅河息园公墓", "address": "通化市梅河口市", "image": "", "rank": 8, "time": 2, "location": {"lat": 42.54488389028409, "lng": 125.71760780995182}, "feature": {"sight_features": "", "sight_content": ""}}, {"title": "基督教会", "address": "黑大公路附近", "image": "", "rank": 9, "time": 2, "location": {"lat": 50.201663693168705, "lng": 127.51855054999645}, "feature": {"sight_features": "", "sight_content": ""}}, {"title": "普照", "address": "吉林省通化市梅河口市泰源街997号", "image": "", "rank": 10, "time": 0.75, "location": {"lat": 42.532773712187556, "lng": 125.6921077812198}, "feature": {"sight_features": "", "sight_content": ""}}, {"title": "鲁卡奇儿童乐园", "address": "吉林省通化市梅河口市站前路796号", "image": "", "rank": 11, "time": 2, "location": {"lat": 42.53760781609269, "lng": 125.70235817561444}, "feature": {"sight_features": "", "sight_content": ""}}, {"title": "曙光基督教堂", "address": "003乡道北50米", "image": "", "rank": 12, "time": 2, "location": {"lat": 41.20783012676974, "lng": 118.51884433602535}, "feature": {"sight_features": "", "sight_content": ""}}, {"title": "莲花湖", "address": "人民大街与松江路交叉口东北150米", "image": "", "rank": 13, "time": 1.5, "location": {"lat": 43.90948894455593, "lng": 125.33224302675147}, "feature": {"sight_features": "", "sight_content": ""}}, {"title": "吉林磨盘湖国家湿地公园", "address": "吉林省通化市梅河口市", "image": "", "rank": 14, "time": 4.5, "location": {"lat": 42.54488389028409, "lng": 125.71760780995182}, "feature": {"sight_features": "", "sight_content": ""}}, {"title": "宝贝游乐场", "address": "人民大街附近", "image": "", "rank": 15, "time": 2, "location": {"lat": 39.92619647066753, "lng": 122.57765015199226}, "feature": {"sight_features": "", "sight_content": ""}}, {"title": "梅河口市长白山植物园", "address": "吉林省通化市梅河口市梅河北街", "image": "", "rank": 16, "time": 2, "location": {"lat": 42.52647003774728, "lng": 125.69196361306683}, "feature": {"sight_features": "", "sight_content": ""}}, {"title": "儿童乐园", "address": "人民大街1888欧亚购物中心3层", "image": "", "rank": 17, "time": 2, "location": {"lat": 42.54124882374036, "lng": 125.71854847865134}, "feature": {"sight_features": "", "sight_content": ""}}, {"title": "梅河口市新光教会", "address": "福民街道办事处(经济贸易开发区)福民街和盛三组", "image": "", "rank": 18, "time": 2, "location": {"lat": 42.519931705603, "lng": 125.68439601795912}, "feature": {"sight_features": "", "sight_content": ""}}, {"title": "站前广场", "address": "站前路附近", "image": "", "rank": 19, "time": null, "location": {"lat": 40.131500583359475, "lng": 116.27284120218751}, "feature": {"sight_features": "", "sight_content": ""}}, {"title": "科学技术馆", "address": "梅河大街2114号", "image": "", "rank": 20, "time": 2, "location": {"lat": 42.53264714887931, "lng": 125.68956214779445}, "feature": {"sight_features": "", "sight_content": ""}}, {"title": "梅河口市图书馆", "address": "通化市梅河口市202国道", "image": "", "rank": 21, "time": 1.5, "location": {"lat": 42.415691215369, "lng": 125.52308065007162}, "feature": {"sight_features": "", "sight_content": ""}}, {"title": "恒峰娱乐园", "address": "103省道", "image": "", "rank": 22, "time": 2, "location": {"lat": 39.16211906866746, "lng": 117.4666343312951}, "feature": {"sight_features": "", "sight_content": ""}}, {"title": "公园古堡惊魂—鬼城", "address": "滨河北街1号", "image": "", "rank": 23, "time": 2, "location": {"lat": 30.565553899510565, "lng": 104.28346299965635}, "feature": {"sight_features": "", "sight_content": ""}}, {"title": "列宁格勒美术馆", "address": "俄罗斯圣彼得堡宫殿广场滨河街34号", "image": "", "rank": 24, "time": 2, "location": {"lat": 38.91093067832929, "lng": 121.59282405936302}, "feature": {"sight_features": "", "sight_content": ""}}, {"title": "梦想二人转剧场", "address": "梅河大街1976附近", "image": "", "rank": 25, "time": 2, "location": {"lat": 42.53393770250948, "lng": 125.69016420472353}, "feature": {"sight_features": "", "sight_content": ""}}, {"title": "古楼商业街", "address": "吉林省梅河口市梅河大街", "image": "", "rank": 26, "time": 2, "location": {"lat": 42.53735292961733, "lng": 125.69190901944776}, "feature": {"sight_features": "", "sight_content": ""}}]}