{"cityName": "湄潭", "days": 2, "cityImage": "", "spots": [{"title": "天下第一壶中国茶文化博览园", "address": "遵义市湄潭县塔坪街火焰山", "image": "", "rank": 1, "time": 2, "location": {"lat": 27.76629173948508, "lng": 107.49345790276608}, "feature": {"sight_features": "特色1 由天壶茶廊、水上乐园、茶文化广场及茶文化古道等五部分组成。 特色2 通过文化公园可以对中国茶文化有更深入的了解！", "sight_content": "‍‍‍‍素有“小江南”盛名的湄潭，百里湄江，碧波蜿蜒；万顷茶海，绿浪浩瀚；红、文、茶三军汇聚，积淀了深厚的文化遗产。‍‍‍‍\n‍‍‍‍‍‍‍‍‍‍获得“大世界基尼斯之最”和“中国十大外形奇特建筑”称号的“天下第一壶”，耸立在湄江河畔风景秀丽、绿树丛荫的火焰山上，是世界最大的茶壶实物造型，是湄潭的标志性旅游、建筑、商业与城市名片。‍‍‍‍‍‍‍‍‍‍\n‍‍天下第一壶中华茶文化博览园于‍‍‍‍2013年7月评为“国家AAAA级旅游景区”，2014年11月被授予“中华茶文化研究基地”。正在以“一园”（天下第一壶中华茶文化博览园）、一馆（中华茶道馆）、两街（舌尖上的湄潭·天壶茶文化美食街、天壶风情街）为核心，以茶海及湄潭当地人文景观为背景，创建国家5A级旅游景区。‍‍‍‍‍‍\n‍\n‍‍其中，中华茶道馆共有十层，里面对茶的起源、中国各民族各朝代茶文化、世界茶文化、贵州茶文化、湄潭茶文化、海峡茶文化、茶文化与宗教等都作了重要的展示与介绍。十层各有特色，依次为茶之源、禅茶一味、中华民俗、大唐遗风、两宋雅趣、明清茶道、湄江茶韵、海峡茶道、茶和天下、贵州茶香。‍\n‍\n通过环境、文化展陈、服饰、现场表演等高度还原，足不出户品鉴世界各地风格迥异、多姿多彩的茶文化（产品）艺术，演绎中国是茶的故乡及中华民族茶文化的发展与传承这一主题。\n‍‍“秀甲天下茶品质，海纳天下茶文化，诚聚天下爱茶人”。博览园以茶为媒，景为依，情为缘，着力打造中华茶文化生态旅游精品线路，热忱欢迎世界各地游客、爱茶人光临品鉴‍"}}, {"title": "中国茶海景区", "address": "遵义市湄潭县永兴镇", "image": "", "rank": 2, "time": 12.0, "location": {"lat": 27.881223023009504, "lng": 107.58911937366197}, "feature": {"sight_features": "", "sight_content": ""}}, {"title": "海世界温泉水上乐园", "address": "遵义市湄潭县湄江镇国际温泉城近326国道（杭瑞高速湄潭站下道1公里）", "image": "", "rank": 3, "time": 2.5, "location": {"lat": 27.843343239933656, "lng": 107.57247016048112}, "feature": {"sight_features": "", "sight_content": "湄潭海世界温泉水上乐园位于贵州省遵义市湄潭县国际温泉城，是以戏水为主题，集休闲、娱乐、体育、美食为一体的大型综合性游乐场所。水上乐园拥有海浪池、大喇叭、冲天回旋、互动水寨、章鱼滑梯、三彩竞速滑梯、高速滑梯，螺旋双人滑梯等惊险刺激的游玩项目。"}}, {"title": "贵州茶文化生态博物馆", "address": "遵义市湄潭县天文大道中国茶城内", "image": "", "rank": 4, "time": 2, "location": {"lat": 27.750955978736894, "lng": 107.46943109777331}, "feature": {"sight_features": "", "sight_content": ""}}, {"title": "田家沟万花源", "address": "遵义市湄潭县兴隆镇田家沟", "image": "", "rank": 5, "time": 2, "location": {"lat": 27.755486398305965, "lng": 107.5624747959224}, "feature": {"sight_features": "", "sight_content": "田家沟万花源景区建设有以牡丹、玫瑰、海棠、樱花、碧桃等为主题的鲜花区全景玻璃四季恒温微景观生态餐厅、万花源天赐钠泉温泉里设有22个温泉泡池，以及超大型水上乐园 （海浪池、暴风谷、六道极速竞赛滑道、巨兽碗、漂流河、大型水寨）等项目。"}}, {"title": "梭米河漂流", "address": "遵义市湄潭县黄家坝镇梭米孔村", "image": "", "rank": 6, "time": 2, "location": {"lat": 27.70301679888012, "lng": 107.3606135609083}, "feature": {"sight_features": "", "sight_content": ""}}, {"title": "七彩部落", "address": "遵义市湄潭县湄江镇金花村大青沟", "image": "", "rank": 7, "time": 2, "location": {"lat": 27.781135811340466, "lng": 107.54533414764467}, "feature": {"sight_features": "", "sight_content": ""}}, {"title": "浙大广场", "address": "贵州省遵义市湄潭县皂角南巷", "image": "", "rank": 8, "time": 2, "location": {"lat": 27.77237120851494, "lng": 107.49491136108075}, "feature": {"sight_features": "", "sight_content": ""}}, {"title": "浙大西迁陈列馆", "address": "贵州省遵义市湄潭县", "image": "", "rank": 9, "time": 2, "location": {"lat": 27.754498364959613, "lng": 107.47259853018687}, "feature": {"sight_features": "", "sight_content": ""}}, {"title": "湄谭县复兴镇光顺种殖场", "address": "湄谭县复兴镇复兴村舒家寨组", "image": "", "rank": 10, "time": 2, "location": {"lat": 27.9932274270363, "lng": 107.6221654992433}, "feature": {"sight_features": "", "sight_content": ""}}, {"title": "红阳猕猴桃生态种植基地", "address": "360县道附近", "image": "", "rank": 11, "time": 2, "location": {"lat": 27.832690040982197, "lng": 107.47073131235446}, "feature": {"sight_features": "", "sight_content": ""}}, {"title": "贵州茶工业博物馆", "address": "浙大南路44号", "image": "", "rank": 12, "time": null, "location": {"lat": 27.770409361645964, "lng": 107.49415707403796}, "feature": {"sight_features": "", "sight_content": ""}}, {"title": "偏岩塘度假村", "address": "鱼泉镇乌鸦坝", "image": "", "rank": 13, "time": 2, "location": {"lat": 27.87527301914224, "lng": 107.4922380137653}, "feature": {"sight_features": "", "sight_content": ""}}, {"title": "天宇植物花园", "address": "贵州省遵义市湄潭县G326", "image": "", "rank": 14, "time": 2, "location": {"lat": 27.754498364959613, "lng": 107.47259853018687}, "feature": {"sight_features": "", "sight_content": ""}}, {"title": "禹王山公园", "address": "贵州省遵义市湄潭县西大街", "image": "", "rank": 15, "time": 2, "location": {"lat": 27.87905454252601, "lng": 107.59770911018289}, "feature": {"sight_features": "", "sight_content": ""}}, {"title": "贵州湄潭象山茶博公园", "address": "贵州省遵义市湄潭县塔坪路", "image": "", "rank": 16, "time": 2, "location": {"lat": 27.766562401742526, "lng": 107.49026331817018}, "feature": {"sight_features": "", "sight_content": ""}}, {"title": "李氏民宅", "address": "贵州省湄潭县永兴古镇步行街上段", "image": "", "rank": 17, "time": 1.5, "location": {"lat": 27.754498364959613, "lng": 107.47259853018687}, "feature": {"sight_features": "", "sight_content": ""}}, {"title": "付家祠堂", "address": "遵义市湄潭县", "image": "", "rank": 18, "time": 2, "location": {"lat": 27.754498364959613, "lng": 107.47259853018687}, "feature": {"sight_features": "", "sight_content": ""}}, {"title": "琴洲港乡村旅游度假村", "address": "贵州省遵义市湄潭县", "image": "", "rank": 19, "time": 2, "location": {"lat": 27.754498364959613, "lng": 107.47259853018687}, "feature": {"sight_features": "", "sight_content": ""}}, {"title": "湄潭县茶乡游乐场", "address": "贵州省遵义市湄潭县茶城大道", "image": "", "rank": 20, "time": 2, "location": {"lat": 27.754437762238076, "lng": 107.46318123779992}, "feature": {"sight_features": "", "sight_content": ""}}, {"title": "湄窖文化广场", "address": "贵州省遵义市湄潭县桃花江街道协育路贵州湄窖文化园附近", "image": "", "rank": 21, "time": 2, "location": {"lat": 27.74603787151039, "lng": 107.45023341791234}, "feature": {"sight_features": "", "sight_content": ""}}, {"title": "贵州湄窖文化园", "address": "协育工业园区", "image": "", "rank": 22, "time": 2, "location": {"lat": 27.748570144763736, "lng": 107.45396372227016}, "feature": {"sight_features": "", "sight_content": ""}}, {"title": "浙江大学西迁历史陈列馆", "address": "湄江镇浙大东路浙大西迁文化广场东面", "image": "", "rank": 23, "time": 2, "location": {"lat": 27.77156326941718, "lng": 107.49449805071575}, "feature": {"sight_features": "", "sight_content": ""}}, {"title": "贵州省湄潭县档案馆", "address": "可桢路", "image": "", "rank": 24, "time": 2, "location": {"lat": 27.773624792211344, "lng": 107.49248922490109}, "feature": {"sight_features": "", "sight_content": ""}}, {"title": "万嘉水族", "address": "麒龙新城二号路中段", "image": "", "rank": 25, "time": 2, "location": {"lat": 27.760484348420796, "lng": 107.47522125259704}, "feature": {"sight_features": "", "sight_content": ""}}, {"title": "诚信自选", "address": "环西路与七星路交叉口南", "image": "", "rank": 26, "time": 2, "location": {"lat": 27.77871573587778, "lng": 107.4937790784265}, "feature": {"sight_features": "", "sight_content": ""}}, {"title": "芸香农庄", "address": "核桃坝村芸香宾馆", "image": "", "rank": 27, "time": 2, "location": {"lat": 27.804032040224246, "lng": 107.56277109929985}, "feature": {"sight_features": "", "sight_content": ""}}, {"title": "鱼泉乐队", "address": "326国道一家康大药房附近", "image": "", "rank": 28, "time": 2, "location": {"lat": 27.87937445641664, "lng": 107.6004721398289}, "feature": {"sight_features": "", "sight_content": ""}}, {"title": "大溪沟村", "address": "遵义市-湄潭县", "image": "", "rank": 29, "time": 2, "location": {"lat": 27.754498364959613, "lng": 107.47259853018687}, "feature": {"sight_features": "", "sight_content": ""}}, {"title": "幼子坪", "address": "遵义市-湄潭县", "image": "", "rank": 30, "time": 2, "location": {"lat": 27.754498364959613, "lng": 107.47259853018687}, "feature": {"sight_features": "", "sight_content": ""}}, {"title": "木江元", "address": "遵义市-湄潭县", "image": "", "rank": 31, "time": 2, "location": {"lat": 27.754498364959613, "lng": 107.47259853018687}, "feature": null}, {"title": "天下第一壶茶文化公园-湄潭亭", "address": "遵义市-湄潭县-塔坪路218附近", "image": "", "rank": 32, "time": 2, "location": {"lat": 27.764873695513362, "lng": 107.4965699241081}, "feature": {"sight_features": "", "sight_content": ""}}, {"title": "水湄花谷", "address": "遵义市湄潭县洗马镇县道360旁", "image": "", "rank": 33, "time": 2, "location": {"lat": 27.948547038203596, "lng": 107.47560505542265}, "feature": {"sight_features": "", "sight_content": "水湄花谷园区位于湄潭县洗马镇辖区内，比邻洗马镇政府所在地，占地面积近5000亩，含春、夏、秋、冬四园，四季赏花。园区地势平坦，土地肥沃，日照时间长，为项目的花卉种植与生长，以及旅游观光提供优越的条件。"}}]}