{"cityName": "勐海", "days": 2, "cityImage": "", "spots": [{"title": "大益庄园", "address": "西双版纳勐海县勐泐大道46号", "image": "", "rank": 1, "time": 2.0, "location": {"lat": 21.96343359668147, "lng": 100.45944593979591}, "feature": {"sight_features": "特色1 展示茶文化、茶科技、茶产品", "sight_content": "特色景点：\n茶马古道是云南省集中展示茶文化、茶科技、茶产品的重要窗口。是集观光旅游、民族茶文化展示、茶交易、科研培训、良种繁育为一体的综合性生态旅游园区。是按旅游景区规范标准建设的高起点、高档次、大规模的生态旅游景区。\n景区充分利用云南省农业科学院茶叶研究所的优质茶地和科技优势：深度挖掘茶文化内涵，将古老的茶马古道和现代的有机茶园，各少数民族的制茶工艺和饮茶习俗集中展现；将传统的茶事活动同现代先进的茶叶科技、茶文化融为一体，集中展示茶的发展历史和科技成果；是集中展现、传承、发展普洱茶文化的旅游景区。区内地势起伏、地貌优美、山水乡间、风光秀丽是您选择体验生活、休闲度假的好地方。"}}, {"title": "南糯山", "address": "西双版纳傣族自治州勐海县", "image": "", "rank": 2, "time": 2.0, "location": {"lat": 21.96343359668147, "lng": 100.45944593979591}, "feature": {"sight_features": "", "sight_content": ""}}, {"title": "哈尼文化园", "address": "西双版纳傣族自治州勐海县", "image": "", "rank": 3, "time": 1.0, "location": {"lat": 21.96343359668147, "lng": 100.45944593979591}, "feature": {"sight_features": "", "sight_content": ""}}, {"title": "章朗村布朗族山寨", "address": "西双版纳傣族自治州勐海县西定乡章朗村", "image": "", "rank": 4, "time": 2.0, "location": {"lat": 21.919670625076545, "lng": 100.1241225946318}, "feature": {"sight_features": "", "sight_content": ""}}, {"title": "打洛森林公园", "address": "西双版纳傣族自治州勐海县", "image": "", "rank": 5, "time": 1.0, "location": {"lat": 21.96343359668147, "lng": 100.45944593979591}, "feature": {"sight_features": "", "sight_content": ""}}, {"title": "曼磊佛塔", "address": "西双版纳傣族自治州勐海县", "image": "", "rank": 6, "time": 0.3, "location": {"lat": 21.96343359668147, "lng": 100.45944593979591}, "feature": {"sight_features": "", "sight_content": ""}}, {"title": "勐海打洛玉恩农家乐", "address": "320省道勐景来91号", "image": "", "rank": 7, "time": 2.0, "location": {"lat": 21.706703034754593, "lng": 100.08936896005632}, "feature": {"sight_features": "", "sight_content": ""}}, {"title": "南糯佐折茶屋农家乐(住宿 餐饮 ...", "address": "西双版纳南糯山半坡老寨不到一公里处", "image": "", "rank": 8, "time": 2, "location": {"lat": 21.941691622120107, "lng": 100.6116081143681}, "feature": {"sight_features": "", "sight_content": ""}}, {"title": "雨林古茶坊庄园", "address": "勐宋乡曼迈雨林庄园旁", "image": "", "rank": 9, "time": 2, "location": {"lat": 22.073118113524234, "lng": 100.42574674431242}, "feature": {"sight_features": "", "sight_content": ""}}, {"title": "布朗山", "address": "云南省西双版纳傣族自治州勐海县", "image": "", "rank": 10, "time": 2, "location": {"lat": 21.96343359668147, "lng": 100.45944593979591}, "feature": {"sight_features": "", "sight_content": ""}}, {"title": "光芒山", "address": "西双版纳州景洪市勐海县城东部", "image": "", "rank": 11, "time": 2, "location": {"lat": 22.01700442311881, "lng": 100.80644312258391}, "feature": {"sight_features": "", "sight_content": "光芒山地处横断山系纵谷区南段，怒江山脉向南延伸的余脉部为，山峰、丘陵、平坝相互交错，过境内河流属澜沧江水系。光芒山茶树面积为12000多亩，为云南大叶种乔木古树矮化茶种，有“世界最大的万亩矮化古茶园”之称。这是一个充满绿色的“生态家园”，群山绿茵覆盖，山间泉水奔流，蜿蜒起伏之间，茶树错落有致。清纯的水，给予茶圣洁的“营养液”。无污染，形成了天然的“净化池”。生长在此处的茶树，也汲天地灵气、日月精华，在毫无雕琢中，尽显茶的本真。"}}, {"title": "塔冈南", "address": "西双版纳州景洪市勐海县勐海镇境内", "image": "", "rank": 12, "time": 2, "location": {"lat": 22.014228465761295, "lng": 100.42784566657649}, "feature": {"sight_features": "", "sight_content": ""}}, {"title": "桃花源生态农庄", "address": "214国道八公里处上行侧", "image": "", "rank": 13, "time": 2, "location": {"lat": 28.319159428535947, "lng": 99.13023574560108}, "feature": {"sight_features": "", "sight_content": ""}}, {"title": "月光寨户外营地", "address": "南糯山村委会大巴拉寨(勐海边检站)", "image": "", "rank": 14, "time": 2, "location": {"lat": 21.941691622120107, "lng": 100.6116081143681}, "feature": {"sight_features": "特色1 游览营地茶园、森林徒步及观景台摄影", "sight_content": "尽情感受户外营地的魅力"}}, {"title": "金链温泉度假村", "address": "傣族自治州勐海县象山社区曼兴湖水库旁,近曼兴村", "image": "", "rank": 15, "time": 2, "location": {"lat": 21.979857032017083, "lng": 100.45974516536117}, "feature": {"sight_features": "", "sight_content": ""}}, {"title": "葫芦信花卉园", "address": "傣族自治州勐海县214国道", "image": "", "rank": 16, "time": 2, "location": {"lat": 21.956380709546174, "lng": 100.4423161520318}, "feature": {"sight_features": "", "sight_content": ""}}, {"title": "曼宰竜壁画", "address": "云南省勐海县勐遮乡曼宰村 666100", "image": "", "rank": 17, "time": 2, "location": {"lat": 21.95119700259345, "lng": 100.32494047474556}, "feature": {"sight_features": "", "sight_content": ""}}, {"title": "孟连民族历史博物馆", "address": "云南省孟连傣族拉祜族佤族自治县孟连傣族拉祜族佤族自治县城西 665800", "image": "", "rank": 18, "time": 2, "location": {"lat": 22.33530761555575, "lng": 99.59096282557785}, "feature": {"sight_features": "", "sight_content": ""}}, {"title": "孟连宣抚司署", "address": "云南省孟连傣族拉祜族佤族自治县娜允镇 665800", "image": "", "rank": 19, "time": 1.5, "location": {"lat": 22.331234698810647, "lng": 99.5832419651798}, "feature": {"sight_features": "", "sight_content": ""}}, {"title": "西双版纳国家级自然保护区", "address": "曼打贺", "image": "", "rank": 20, "time": 2.5, "location": {"lat": 22.037676836478866, "lng": 100.39987920892348}, "feature": {"sight_features": "", "sight_content": ""}}, {"title": "中缅界河漂流", "address": "打洛镇医院附近中缅界河漂流", "image": "", "rank": 21, "time": 2, "location": {"lat": 21.70247520342396, "lng": 100.0597354710554}, "feature": {"sight_features": "", "sight_content": ""}}, {"title": "景龙总佛寺", "address": "景竜路南150米", "image": "", "rank": 22, "time": 2, "location": {"lat": 21.9656832224716, "lng": 100.45884823875045}, "feature": {"sight_features": "", "sight_content": ""}}, {"title": "曼智大佛庙", "address": "佛双路7号附近", "image": "", "rank": 23, "time": 2, "location": {"lat": 21.959217426979503, "lng": 100.45200572441198}, "feature": {"sight_features": "", "sight_content": ""}}, {"title": "沙河温泉山庄", "address": "214国道", "image": "", "rank": 24, "time": 2.0, "location": {"lat": 28.319159428535947, "lng": 99.13023574560108}, "feature": {"sight_features": "", "sight_content": ""}}, {"title": "布朗族生态博物馆", "address": "035乡道", "image": "", "rank": 25, "time": 2, "location": {"lat": 31.512281132721064, "lng": 118.42566700052805}, "feature": {"sight_features": "", "sight_content": ""}}, {"title": "古道缘休闲山庄", "address": "曼兴路81号", "image": "", "rank": 26, "time": 2, "location": {"lat": 21.97004232350201, "lng": 100.45558257182083}, "feature": {"sight_features": "", "sight_content": ""}}, {"title": "流沙河", "address": "云南省勐海县勐遮、勐混和勐海3个平坝中间穿流", "image": "", "rank": 27, "time": 2, "location": {"lat": 21.96343359668147, "lng": 100.45944593979591}, "feature": {"sight_features": "", "sight_content": ""}}, {"title": "景恩佛塔", "address": "云南省勐海县勐混乡城子村", "image": "", "rank": 28, "time": 2, "location": {"lat": 21.847845443066728, "lng": 100.39215746728772}, "feature": {"sight_features": "", "sight_content": ""}}, {"title": "曼垒母子塔", "address": "云南省勐海县曼垒村", "image": "", "rank": 29, "time": 2, "location": {"lat": 21.95212917029925, "lng": 100.389302414327}, "feature": {"sight_features": "", "sight_content": ""}}, {"title": "佛海商业街", "address": "云南省勐海县象山路", "image": "", "rank": 31, "time": 2, "location": {"lat": 21.964252336987954, "lng": 100.45481830279329}, "feature": {"sight_features": "", "sight_content": ""}}, {"title": "219界碑公园", "address": "西双版纳傣族自治州勐海县八角亭附近", "image": "", "rank": 32, "time": 0.5, "location": {"lat": 21.6821921361553, "lng": 100.04421005693158}, "feature": {"sight_features": "", "sight_content": ""}}, {"title": "拉祜族寨", "address": "西双版纳傣族自治州勐海县", "image": "", "rank": 33, "time": 2, "location": {"lat": 21.96343359668147, "lng": 100.45944593979591}, "feature": {"sight_features": "", "sight_content": ""}}, {"title": "中缅边境公园", "address": "西双版纳傣族自治州勐海县320省道西150米", "image": "", "rank": 34, "time": 2, "location": {"lat": 21.72109205764906, "lng": 100.09519006240315}, "feature": {"sight_features": "", "sight_content": ""}}]}