{"cityName": "蒙城", "days": 2, "cityImage": "", "spots": [{"title": "万佛塔", "address": "亳州市蒙城县城关镇宝塔中路", "image": "", "rank": 1, "time": null, "location": {"lat": 33.26780971251256, "lng": 116.56421630143821}, "feature": {"sight_features": "", "sight_content": ""}}, {"title": "庄子祠", "address": "毫州市蒙城县县城北漆园办事处", "image": "", "rank": 2, "time": 1.0, "location": {"lat": 33.27165823967443, "lng": 116.57158940082672}, "feature": {"sight_features": "", "sight_content": ""}}, {"title": "蒙城博物馆", "address": "亳州市蒙城县庄周街道庄子大道与仁和路交汇处", "image": "", "rank": 3, "time": 1.5, "location": {"lat": 33.248676940913434, "lng": 116.57725233582943}, "feature": {"sight_features": "", "sight_content": ""}}, {"title": "蒙城城隍庙", "address": "亳州市蒙城县新城路中段路北，文庙东侧约50米处。", "image": "", "rank": 4, "time": 1.0, "location": {"lat": 33.272658318082215, "lng": 116.56671954472485}, "feature": {"sight_features": "", "sight_content": ""}}, {"title": "文庙", "address": "亳州市蒙城县城关镇周元西路219号", "image": "", "rank": 5, "time": 1.5, "location": {"lat": 33.272658318082215, "lng": 116.56671954472485}, "feature": {"sight_features": "", "sight_content": ""}}, {"title": "梦蝶湖公园", "address": "亳州市蒙城县庄周街道永兴路与逍遥路交叉口", "image": "", "rank": 6, "time": 2, "location": {"lat": 33.23879918567279, "lng": 116.56810983509484}, "feature": {"sight_features": "", "sight_content": ""}}, {"title": "蒙城水立方", "address": "毫州市蒙城县兆鑫集团东侧100米路南", "image": "", "rank": 7, "time": 2.0, "location": {"lat": 33.27165823967443, "lng": 116.57158940082672}, "feature": {"sight_features": "", "sight_content": ""}}, {"title": "蒙城3D魔幻艺术展", "address": "亳州市蒙城县玖隆国际步行街西门二楼", "image": "", "rank": 8, "time": 1.0, "location": {"lat": 33.24613928525715, "lng": 116.5672079327696}, "feature": {"sight_features": "", "sight_content": ""}}, {"title": "双锁山烈士陵园", "address": "小涧镇双锁山", "image": "", "rank": 9, "time": 2, "location": {"lat": 33.39344198150057, "lng": 116.48076494934149}, "feature": {"sight_features": "", "sight_content": ""}}, {"title": "好望角休闲山庄", "address": "逍遥中路26号", "image": "", "rank": 10, "time": 2, "location": {"lat": 33.26416134140875, "lng": 116.57270875955997}, "feature": {"sight_features": "", "sight_content": ""}}, {"title": "水上乐园", "address": "法院东50米加油站对面院内", "image": "", "rank": 11, "time": 2, "location": {"lat": 22.82550561205128, "lng": 108.31181574920504}, "feature": {"sight_features": "", "sight_content": ""}}, {"title": "可爱可亲母婴生活馆", "address": "南华路玖隆国际步行街D-108-110", "image": "", "rank": 12, "time": 2, "location": {"lat": 33.24613928525715, "lng": 116.5672079327696}, "feature": {"sight_features": "", "sight_content": ""}}, {"title": "星海湾水上乐园", "address": "南二环路西部美食城", "image": "", "rank": 13, "time": 2, "location": {"lat": 40.67563783811105, "lng": 122.22835421247603}, "feature": {"sight_features": "", "sight_content": ""}}, {"title": "润果生态园(东北门)", "address": "307省道南50米", "image": "", "rank": 14, "time": 2, "location": {"lat": 40.26415420160033, "lng": 116.57268632168496}, "feature": {"sight_features": "", "sight_content": ""}}, {"title": "张祠堂", "address": "安徽省亳州市蒙城县S305", "image": "", "rank": 15, "time": 2, "location": {"lat": 33.27165823967443, "lng": 116.57158940082672}, "feature": {"sight_features": "", "sight_content": ""}}, {"title": "革命烈士纪念馆", "address": "宝塔中路27", "image": "", "rank": 16, "time": 2, "location": {"lat": 27.83971230140697, "lng": 112.9365804199598}, "feature": {"sight_features": "", "sight_content": ""}}, {"title": "邓祠堂", "address": "亳州市蒙城县", "image": "", "rank": 17, "time": 2, "location": {"lat": 33.27165823967443, "lng": 116.57158940082672}, "feature": {"sight_features": "", "sight_content": ""}}, {"title": "张祠堂", "address": "亳州市蒙城县三零五省道", "image": "", "rank": 18, "time": 2, "location": {"lat": 33.27165823967443, "lng": 116.57158940082672}, "feature": {"sight_features": "", "sight_content": ""}}, {"title": "普法广场", "address": "周元西路与嵇康北路交叉口南200米", "image": "", "rank": 19, "time": 2, "location": {"lat": 33.27197151162003, "lng": 116.56995284539101}, "feature": {"sight_features": "", "sight_content": ""}}, {"title": "亳州楚王高遵甫墓", "address": "安徽省蒙城县双锁山 233500", "image": "", "rank": 20, "time": 1.5, "location": {"lat": 33.27165823967443, "lng": 116.57158940082672}, "feature": {"sight_features": "", "sight_content": ""}}, {"title": "亳州陆将军府", "address": "安徽省蒙城县立仓镇陆瓦房村 233500", "image": "", "rank": 21, "time": null, "location": {"lat": 33.0738317503195, "lng": 116.66620639307334}, "feature": {"sight_features": "", "sight_content": ""}}, {"title": "道光二十五(许疃专营店)", "address": "振兴大道附近", "image": "", "rank": 22, "time": 2, "location": {"lat": 30.113793371689596, "lng": 113.11660724011644}, "feature": {"sight_features": "", "sight_content": ""}}, {"title": "三义刘毛动保", "address": "安徽省亳州市蒙城县X034", "image": "", "rank": 23, "time": 2, "location": {"lat": 33.27165823967443, "lng": 116.57158940082672}, "feature": {"sight_features": "", "sight_content": ""}}, {"title": "140乡道", "address": "安徽省亳州市蒙城县", "image": "", "rank": 24, "time": 2, "location": {"lat": 33.27165823967443, "lng": 116.57158940082672}, "feature": {"sight_features": "", "sight_content": ""}}, {"title": "蒙城县图书馆", "address": "嵇康北路", "image": "", "rank": 25, "time": 2, "location": {"lat": 33.27048323866339, "lng": 116.56843625416461}, "feature": {"sight_features": "", "sight_content": ""}}, {"title": "凯尊大剧院", "address": "政通路(近蒙城印象)", "image": "", "rank": 26, "time": 2, "location": {"lat": 24.473157217941978, "lng": 109.74732232656379}, "feature": {"sight_features": "", "sight_content": ""}}, {"title": "图书馆电子文献阅览室", "address": "嵇康中路46号", "image": "", "rank": 27, "time": 2, "location": {"lat": 33.257722285524935, "lng": 116.56569714459683}, "feature": {"sight_features": "", "sight_content": ""}}, {"title": "蒙城城市规划展示馆", "address": "庄子大道(近蒙城博物馆，逍遥公园)", "image": "", "rank": 28, "time": 1.5, "location": {"lat": 33.23895541759484, "lng": 116.57531720789645}, "feature": {"sight_features": "", "sight_content": ""}}, {"title": "梦幻迪士尼儿童乐园", "address": "庄子小区北门西侧，国春堂大药房二楼", "image": "", "rank": 29, "time": 2, "location": {"lat": 33.26066053186899, "lng": 116.57464442108643}, "feature": {"sight_features": "", "sight_content": ""}}, {"title": "草莓采摘园", "address": "庄子祠西侧10米路北", "image": "", "rank": 30, "time": 2, "location": {"lat": 33.29217952325098, "lng": 116.584038903703}, "feature": {"sight_features": "", "sight_content": ""}}, {"title": "鸿业儿童水上乐园", "address": "鸿业国际会展中心", "image": "", "rank": 31, "time": 2, "location": {"lat": 33.26351999352374, "lng": 116.57796519425162}, "feature": {"sight_features": "", "sight_content": ""}}, {"title": "冲关大乐园(蒙城店)", "address": "望月路与永兴路交叉口东北角处(鲲鹏湖)", "image": "", "rank": 32, "time": 2, "location": {"lat": 33.24150517157811, "lng": 116.54998221854765}, "feature": {"sight_features": "", "sight_content": ""}}, {"title": "气味博物馆", "address": "宝塔路万尚城一楼1009室", "image": "", "rank": 33, "time": 2, "location": {"lat": 31.94876293999435, "lng": 118.82853106072392}, "feature": {"sight_features": "", "sight_content": ""}}, {"title": "联通水魔方", "address": "城南文体公园南门对面", "image": "", "rank": 34, "time": 2, "location": {"lat": 33.9125566710238, "lng": 118.1978456488873}, "feature": {"sight_features": "", "sight_content": ""}}, {"title": "米罗画廊", "address": "北蒙大道365附近", "image": "", "rank": 35, "time": 2, "location": {"lat": 33.27232997327201, "lng": 116.56110088498492}, "feature": {"sight_features": "", "sight_content": ""}}, {"title": "安徽云峰农业科技示范园(东北门)", "address": "307省道西50米", "image": "", "rank": 36, "time": 2, "location": {"lat": 40.264498296993764, "lng": 116.57223716892996}, "feature": {"sight_features": "", "sight_content": ""}}, {"title": "太阳岛休闲山庄", "address": "068乡道附近", "image": "", "rank": 37, "time": 7.5, "location": {"lat": 37.12126641260988, "lng": 114.56024859956285}, "feature": {"sight_features": "", "sight_content": ""}}, {"title": "迷宫", "address": "嵇康北路与茨淮路交叉口东200米", "image": "", "rank": 38, "time": 2, "location": {"lat": 33.27048323866339, "lng": 116.56843625416461}, "feature": {"sight_features": "", "sight_content": ""}}, {"title": "欢乐谷", "address": "南华路与新民街交叉口北150米", "image": "", "rank": 39, "time": 4.5, "location": {"lat": 33.24457398950855, "lng": 116.56015752178807}, "feature": {"sight_features": "", "sight_content": ""}}, {"title": "乔磊垂钓休闲乐园", "address": "057乡道附近", "image": "", "rank": 40, "time": 2, "location": {"lat": 31.41217211623208, "lng": 118.53052108236636}, "feature": {"sight_features": "", "sight_content": ""}}, {"title": "蒙城县潘家湖家庭农场", "address": "漆园办事处黄寨村", "image": "", "rank": 41, "time": 2, "location": {"lat": 38.07254320759529, "lng": 112.67689827842838}, "feature": {"sight_features": "", "sight_content": ""}}, {"title": "渔具", "address": "055县道开心果购物中心东北侧X055", "image": "", "rank": 42, "time": 2, "location": {"lat": 33.44625858179755, "lng": 116.56602096217382}, "feature": {"sight_features": "", "sight_content": ""}}, {"title": "蒙城县小涧镇文化站", "address": "小涧司法所附近", "image": "", "rank": 43, "time": 2, "location": {"lat": 33.36528992134317, "lng": 116.48788735950966}, "feature": {"sight_features": "", "sight_content": ""}}, {"title": "沃优蓝莓猕猴桃鲜果采摘园区", "address": "楚村镇新塘村", "image": "", "rank": 44, "time": 2, "location": {"lat": 33.04042295605059, "lng": 116.5505182778692}, "feature": {"sight_features": "", "sight_content": ""}}, {"title": "漆园旧址", "address": "安徽省蒙城县涡河北岸", "image": "", "rank": 45, "time": 2, "location": {"lat": 33.461509466613784, "lng": 116.3330579720992}, "feature": {"sight_features": "", "sight_content": ""}}, {"title": "红城旧址", "address": "安徽省蒙城县红城村", "image": "", "rank": 46, "time": 2, "location": {"lat": 33.38383756444613, "lng": 116.50829715623887}, "feature": {"sight_features": "", "sight_content": ""}}, {"title": "尉迟寺遗址", "address": "安徽省蒙城县许曈镇毕集村", "image": "", "rank": 47, "time": 2, "location": {"lat": 33.364587197454235, "lng": 116.75949465402994}, "feature": {"sight_features": "", "sight_content": ""}}, {"title": "亳州尉迟寺新石器时代遗址", "address": "安徽省蒙城县许町镇毕集村", "image": "", "rank": 48, "time": 1.5, "location": {"lat": 33.423427209753726, "lng": 116.7077152940784}, "feature": {"sight_features": "", "sight_content": ""}}, {"title": "曹刘村", "address": "亳州市-蒙城县-三零七省道", "image": "", "rank": 49, "time": 2, "location": {"lat": 33.27165823967443, "lng": 116.57158940082672}, "feature": {"sight_features": "", "sight_content": ""}}, {"title": "篱笆镇", "address": "中国安徽省亳州市蒙城县篱笆镇", "image": "", "rank": 50, "time": 2, "location": {"lat": 33.03622122090888, "lng": 116.46484643941629}, "feature": {"sight_features": "", "sight_content": ""}}, {"title": "雪枫公园", "address": "蒙宿北路219", "image": "", "rank": 51, "time": 2.0, "location": {"lat": 33.34453802245341, "lng": 116.7090519960332}, "feature": {"sight_features": "", "sight_content": ""}}]}