{"cityName": "蒙山", "days": 2, "cityImage": "", "spots": [{"title": "梁羽生公园", "address": "广西梧州市蒙山县", "image": "", "rank": 1, "time": 1.0, "location": {"lat": 24.20001744593537, "lng": 110.53141700425248}, "feature": {"sight_features": "", "sight_content": ""}}, {"title": "太平天国永安活动旧址", "address": "民主街32", "image": "", "rank": 2, "time": 1.0, "location": {"lat": 25.97028939867271, "lng": 119.52426718212183}, "feature": {"sight_features": "", "sight_content": ""}}, {"title": "龙潭瀑布", "address": "广西梧州市蒙山县石龙冲", "image": "", "rank": 3, "time": 1.0, "location": {"lat": 24.20001744593537, "lng": 110.53141700425248}, "feature": {"sight_features": "", "sight_content": ""}}, {"title": "西炮台公园", "address": "广西梧州市蒙山县湄江大街150米", "image": "", "rank": 4, "time": 1.0, "location": {"lat": 24.20001744593537, "lng": 110.53141700425248}, "feature": {"sight_features": "", "sight_content": ""}}, {"title": "天书峡谷", "address": "广西梧州市蒙山县", "image": "", "rank": 5, "time": 1.0, "location": {"lat": 24.20001744593537, "lng": 110.53141700425248}, "feature": {"sight_features": "", "sight_content": ""}}, {"title": "茶山湖", "address": "广西梧州蒙山县茶山水库", "image": "", "rank": 6, "time": 1.0, "location": {"lat": 24.253789292911897, "lng": 110.53717119002529}, "feature": {"sight_features": "", "sight_content": ""}}, {"title": "州头古榕", "address": "广西梧州市蒙山县", "image": "", "rank": 7, "time": 1.0, "location": {"lat": 24.20001744593537, "lng": 110.53141700425248}, "feature": {"sight_features": "", "sight_content": ""}}, {"title": "玉梦胜景", "address": "广西梧州市蒙山县", "image": "", "rank": 8, "time": 1.0, "location": {"lat": 24.20001744593537, "lng": 110.53141700425248}, "feature": {"sight_features": "", "sight_content": ""}}, {"title": "山湖秀色", "address": "广西梧州市苍梧县县城北4公里处", "image": "", "rank": 9, "time": 1.0, "location": {"lat": 23.845998205466344, "lng": 111.55554663955536}, "feature": {"sight_features": "", "sight_content": ""}}, {"title": "长坪水韵瑶寨", "address": "梧州市蒙山县长坪瑶族乡长坪村", "image": "", "rank": 10, "time": 2, "location": {"lat": 24.34487759226926, "lng": 110.52591940058409}, "feature": {"sight_features": "", "sight_content": ""}}, {"title": "蒙山县乐酷精品生活馆", "address": "蒙山镇胜利街240号", "image": "", "rank": 11, "time": 2, "location": {"lat": 24.20336072734061, "lng": 110.53265603344876}, "feature": {"sight_features": "", "sight_content": ""}}, {"title": "黄村起义纪念碑", "address": "广西壮族自治区梧州市蒙山县S207", "image": "", "rank": 12, "time": 2, "location": {"lat": 24.20001744593537, "lng": 110.53141700425248}, "feature": {"sight_features": "", "sight_content": ""}}, {"title": "水上乐园", "address": "广西壮族自治区梧州市蒙山县东江路南22号", "image": "", "rank": 13, "time": 2, "location": {"lat": 24.203077938964025, "lng": 110.53262513533244}, "feature": {"sight_features": "", "sight_content": ""}}, {"title": "蒙山县基督教礼拜堂", "address": "梧州市蒙山县", "image": "", "rank": 14, "time": 2, "location": {"lat": 24.20001744593537, "lng": 110.53141700425248}, "feature": {"sight_features": "", "sight_content": ""}}, {"title": "滨江公园", "address": "广西壮族自治区梧州市蒙山县西河路", "image": "", "rank": 15, "time": 3.5, "location": {"lat": 24.20001744593537, "lng": 110.53141700425248}, "feature": {"sight_features": "", "sight_content": ""}}, {"title": "蒙山县图书馆", "address": "永安街42号", "image": "", "rank": 16, "time": 2, "location": {"lat": 30.541435907543253, "lng": 119.9680379996594}, "feature": {"sight_features": "", "sight_content": ""}}, {"title": "玉龙生态园", "address": "新圩镇新圩村木茅塘组", "image": "", "rank": 17, "time": 7.5, "location": {"lat": 24.27044457650232, "lng": 110.44057401626306}, "feature": {"sight_features": "", "sight_content": ""}}, {"title": "玉梦冲峡谷", "address": "梧州市蒙山县", "image": "", "rank": 18, "time": 2, "location": {"lat": 24.20001744593537, "lng": 110.53141700425248}, "feature": {"sight_features": "", "sight_content": ""}}]}