{"cityName": "蒙自", "days": 2, "cityImage": "", "spots": [{"title": "南湖公园", "address": "红河哈尼族彝族自治州蒙自市南湖南路7号", "image": "", "rank": 1, "time": 2.5, "location": {"lat": 23.363341303384917, "lng": 103.40352859595961}, "feature": {"sight_features": "", "sight_content": ""}}, {"title": "碧色寨火车站", "address": "红河哈尼族彝族自治州蒙自市开蒙线东50米", "image": "", "rank": 2, "time": 1.0, "location": {"lat": 23.469711918838758, "lng": 103.41957572885566}, "feature": {"sight_features": "", "sight_content": ""}}, {"title": "蒙自海关旧址", "address": "红河哈尼族彝族自治州蒙自市南湖南路1号", "image": "", "rank": 3, "time": 1.5, "location": {"lat": 23.3703564321153, "lng": 103.41474072251765}, "feature": {"sight_features": "", "sight_content": ""}}, {"title": "碧色寨", "address": "红河哈尼族彝族自治州蒙自市草坝镇碧色寨村", "image": "", "rank": 4, "time": 2.5, "location": {"lat": 23.46958887696168, "lng": 103.4183196507191}, "feature": {"sight_features": "", "sight_content": ""}}, {"title": "蒙自南山水世界", "address": "红河哈尼族彝族自治州蒙自市北京路南延南部半山开发区", "image": "", "rank": 5, "time": 1.0, "location": {"lat": 23.38497242517046, "lng": 103.37719463519748}, "feature": {"sight_features": "", "sight_content": ""}}, {"title": "君悦天下御澜泉温泉", "address": "蒙自市文澜镇锦华路36号", "image": "", "rank": 6, "time": 2, "location": {"lat": 23.364122288965063, "lng": 103.40271221411582}, "feature": {"sight_features": "", "sight_content": ""}}, {"title": "长桥海国家湿地公园", "address": "红河哈尼族彝族自治州蒙自市文澜镇", "image": "", "rank": 7, "time": 2.0, "location": {"lat": 23.366811305152712, "lng": 103.41213913813445}, "feature": {"sight_features": "", "sight_content": ""}}, {"title": "西南联合大学蒙自分校纪念馆", "address": "云南省红河州蒙自市南湖北路哥胪士洋行", "image": "", "rank": 8, "time": 1.5, "location": {"lat": 23.370912370526703, "lng": 103.41066225560532}, "feature": {"sight_features": "", "sight_content": ""}}, {"title": "红河州博物馆", "address": "蒙自天马路65号红河州行政中心红河广场西侧", "image": "", "rank": 9, "time": 1.5, "location": {"lat": 23.368527633332526, "lng": 103.38444851327294}, "feature": {"sight_features": "", "sight_content": ""}}, {"title": "他撒梯田", "address": "红河哈尼族彝族自治州红河县甲寅--天生桥", "image": "", "rank": 10, "time": 2, "location": {"lat": 23.37448873836479, "lng": 102.42755057757}, "feature": {"sight_features": "", "sight_content": ""}}, {"title": "袁嘉谷故居", "address": "云南省红河哈尼族彝族自治州石屏县", "image": "", "rank": 11, "time": 2, "location": {"lat": 23.712004452448983, "lng": 102.50244661977858}, "feature": {"sight_features": "", "sight_content": ""}}, {"title": "玉皇阁", "address": "云南省红河哈尼族彝族自治州蒙自市 人民东路", "image": "", "rank": 12, "time": 1.0, "location": {"lat": 23.373757700851723, "lng": 103.41164822854631}, "feature": {"sight_features": "", "sight_content": ""}}, {"title": "Z.R侦人密室逃脱体验馆", "address": "天马路中央大街苏宁电器楼上3-8号商铺", "image": "", "rank": 13, "time": 2, "location": {"lat": 23.372066776689294, "lng": 103.39418623482844}, "feature": {"sight_features": "", "sight_content": ""}}, {"title": "南湖瀛州亭", "address": "云南省红河哈尼族彝族自治州蒙自市南湖北路 ‎", "image": "", "rank": 14, "time": 2, "location": {"lat": 23.370912370526703, "lng": 103.41066225560532}, "feature": {"sight_features": "", "sight_content": ""}}, {"title": "蒙自老街", "address": "云南省红河哈尼族彝族自治州蒙自市", "image": "", "rank": 15, "time": null, "location": {"lat": 23.402079885197992, "lng": 103.37154588174573}, "feature": {"sight_features": "", "sight_content": ""}}, {"title": "蒙自老树甜石榴", "address": "红寨观光路蒙自第四小学旁(蒙自第四小学旁)", "image": "", "rank": 16, "time": 1.0, "location": {"lat": 23.343066772009514, "lng": 103.39374965835073}, "feature": {"sight_features": "", "sight_content": ""}}, {"title": "工艺画廊", "address": "启文路", "image": "", "rank": 17, "time": 2, "location": {"lat": 30.182147247009752, "lng": 120.46295676499066}, "feature": {"sight_features": "", "sight_content": ""}}, {"title": "迎春画坊", "address": "锦华路124号", "image": "", "rank": 18, "time": 2, "location": {"lat": 45.516429365517176, "lng": 124.29626651216441}, "feature": {"sight_features": "", "sight_content": ""}}, {"title": "丹青美术中心", "address": "凤麟街51", "image": "", "rank": 19, "time": 2, "location": {"lat": 23.37971568460711, "lng": 103.38709101906532}, "feature": {"sight_features": "", "sight_content": ""}}, {"title": "亚娟农家乐", "address": "长桥海旁，水闸对面小路十里铺寨内", "image": "", "rank": 20, "time": 2, "location": {"lat": 36.297500832691675, "lng": 103.42965881521863}, "feature": {"sight_features": "", "sight_content": ""}}, {"title": "小猫钓鱼", "address": "学海路与富春路交叉口西南50米", "image": "", "rank": 21, "time": 2, "location": {"lat": 23.359852549974438, "lng": 103.40395945562106}, "feature": {"sight_features": "", "sight_content": ""}}, {"title": "捷泽办公用店", "address": "护国路与明珠路交汇处州住建局一楼", "image": "", "rank": 22, "time": null, "location": {"lat": 23.371267025976696, "lng": 103.37940627144708}, "feature": {"sight_features": "", "sight_content": ""}}, {"title": "蒙自海关", "address": "云南省蒙自市南湖南路1号 661100", "image": "", "rank": 23, "time": 1.5, "location": {"lat": 23.3703564321153, "lng": 103.41474072251765}, "feature": {"sight_features": "", "sight_content": ""}}, {"title": "草坝农场", "address": "开蒙线附近", "image": "", "rank": 24, "time": 2, "location": {"lat": 23.469711918838758, "lng": 103.41912657610081}, "feature": {"sight_features": "", "sight_content": ""}}, {"title": "二龙山寺", "address": "云南省红河哈尼族彝族自治州蒙自市Y065(余家寨公路)", "image": "", "rank": 25, "time": 2, "location": {"lat": 23.386268334567635, "lng": 103.44911357437064}, "feature": {"sight_features": "", "sight_content": ""}}, {"title": "星期六儿童乐园", "address": "学海路金岸品城2-305号", "image": "", "rank": 26, "time": 2, "location": {"lat": 23.358962697090536, "lng": 103.40777137372933}, "feature": {"sight_features": "", "sight_content": ""}}, {"title": "波波湾游乐场", "address": "凤麟街20附3附近", "image": "", "rank": 27, "time": 2, "location": {"lat": 23.378155717873828, "lng": 103.38584072332134}, "feature": {"sight_features": "", "sight_content": ""}}, {"title": "蒙自市城区基督教堂", "address": "阁学街27", "image": "", "rank": 28, "time": 1.0, "location": {"lat": 23.372856986471376, "lng": 103.40800950117371}, "feature": {"sight_features": "", "sight_content": ""}}, {"title": "俏东东儿童乐园", "address": "天马路红河体育场内", "image": "", "rank": 29, "time": 2, "location": {"lat": 23.37634508803433, "lng": 103.38405799381701}, "feature": {"sight_features": "", "sight_content": ""}}, {"title": "云南省第一次代表大会会址", "address": "芷村镇查尼皮村", "image": "", "rank": 30, "time": 2, "location": {"lat": 23.39250557643537, "lng": 103.52678170473799}, "feature": {"sight_features": "", "sight_content": ""}}, {"title": "休闲广场", "address": "南湖北路3号附近", "image": "", "rank": 31, "time": 2, "location": {"lat": 22.784379545964992, "lng": 114.4576340386502}, "feature": {"sight_features": "", "sight_content": ""}}, {"title": "蒙自县城建档案室", "address": "银河路37号", "image": "", "rank": 32, "time": 2, "location": {"lat": 32.07907073570693, "lng": 121.08331921282203}, "feature": {"sight_features": "", "sight_content": ""}}, {"title": "奥普乐欢乐水世界", "address": "公安局路口向西500米", "image": "", "rank": 33, "time": 2.5, "location": {"lat": 30.064400686806085, "lng": 112.23650157583852}, "feature": {"sight_features": "", "sight_content": ""}}, {"title": "望云博物馆", "address": "武庙街旁", "image": "", "rank": 34, "time": 2, "location": {"lat": 37.133282451875054, "lng": 114.68869361958538}, "feature": {"sight_features": "", "sight_content": ""}}, {"title": "卡奇乐儿童乐园", "address": "天马路大尔多超市一楼", "image": "", "rank": 35, "time": 2, "location": {"lat": 23.372342940716457, "lng": 103.39567530197351}, "feature": {"sight_features": "", "sight_content": ""}}, {"title": "晶质玉液批发部红河州总代理(红...", "address": "惠民路红运富康园对面", "image": "", "rank": 36, "time": 2, "location": {"lat": 23.380762729253302, "lng": 103.37491489391569}, "feature": {"sight_features": "", "sight_content": ""}}, {"title": "尹壮图故居", "address": "城阁学街12~15号", "image": "", "rank": 37, "time": 2, "location": {"lat": 31.09148173820495, "lng": 105.0970770521709}, "feature": {"sight_features": "", "sight_content": ""}}, {"title": "贝贝乐园", "address": "富康凤凰院", "image": "", "rank": 38, "time": 2, "location": {"lat": 23.373755287772646, "lng": 103.37307785196194}, "feature": {"sight_features": "", "sight_content": ""}}, {"title": "幸福乐园", "address": "凤凰路南段西侧凤凰雅苑商铺12-3铺面", "image": "", "rank": 39, "time": 2, "location": {"lat": 37.440028752734385, "lng": 116.28758001958818}, "feature": {"sight_features": "", "sight_content": ""}}, {"title": "红河风采美术馆", "address": "天马路63号红河哈尼族彝族自治州图书馆附近", "image": "", "rank": 40, "time": 4.5, "location": {"lat": 23.37125728871835, "lng": 103.38455072696536}, "feature": {"sight_features": "", "sight_content": ""}}, {"title": "汇香坊香薰图书馆", "address": "天马路40号附近", "image": "", "rank": 41, "time": 2, "location": {"lat": 28.13772709381538, "lng": 113.639086209579}, "feature": {"sight_features": "", "sight_content": ""}}, {"title": "东方红农场", "address": "032乡道附近", "image": "", "rank": 42, "time": 2, "location": {"lat": 31.71938258658872, "lng": 118.55763481723513}, "feature": {"sight_features": "", "sight_content": ""}}, {"title": "知新图书馆", "address": "东村南路138", "image": "", "rank": 43, "time": 2, "location": {"lat": 30.17684279086817, "lng": 114.95769808287358}, "feature": {"sight_features": "", "sight_content": ""}}, {"title": "尹氏枇杷园", "address": "响水河村王家寨24号", "image": "", "rank": 44, "time": 2, "location": {"lat": 23.303640791401243, "lng": 103.45884971670505}, "feature": {"sight_features": "", "sight_content": ""}}, {"title": "红鹏农家乐", "address": "园区九号路东50米", "image": "", "rank": 45, "time": 2, "location": {"lat": 22.7086214871415, "lng": 114.11500192355417}, "feature": {"sight_features": "", "sight_content": ""}}, {"title": "红河大剧院", "address": "红河大道附近", "image": "", "rank": 46, "time": 2.0, "location": {"lat": 23.383715535529912, "lng": 103.33948770537751}, "feature": {"sight_features": "", "sight_content": ""}}, {"title": "蒙自青年艺术团", "address": "兴盛路72附近", "image": "", "rank": 47, "time": 1.0, "location": {"lat": 37.54246994698266, "lng": 111.14344922536787}, "feature": {"sight_features": "", "sight_content": ""}}, {"title": "诸天寺", "address": "云南省蒙自市新安所镇南屯街", "image": "", "rank": 48, "time": null, "location": {"lat": 23.306173902412315, "lng": 103.46348083284492}, "feature": {"sight_features": "", "sight_content": ""}}, {"title": "长桥海大屯海湿地", "address": "云南省蒙自市文澜镇", "image": "", "rank": 49, "time": 2, "location": {"lat": 23.366811305152712, "lng": 103.41213913813445}, "feature": {"sight_features": "", "sight_content": ""}}, {"title": "建阳会馆", "address": "云南省蒙自市人民西路", "image": "", "rank": 50, "time": 1.5, "location": {"lat": 23.379719320439467, "lng": 103.3990366435127}, "feature": {"sight_features": "", "sight_content": ""}}, {"title": "缘狮洞", "address": "云南省蒙自市鸣鹫镇", "image": "", "rank": 51, "time": 2, "location": {"lat": 23.468843810110982, "lng": 103.63771971062299}, "feature": {"sight_features": "", "sight_content": ""}}, {"title": "中共云南一大会址", "address": "云南省蒙自市芷村镇查尼皮村", "image": "", "rank": 52, "time": 2, "location": {"lat": 23.39250557643537, "lng": 103.52678170473799}, "feature": {"sight_features": "", "sight_content": ""}}, {"title": "蒙自新天地", "address": "云南省蒙自市淡水路", "image": "", "rank": 53, "time": 2, "location": {"lat": 23.35959290566078, "lng": 103.39685465403986}, "feature": {"sight_features": "", "sight_content": ""}}, {"title": "新世纪步行街", "address": "云南省蒙自市新世纪步行街", "image": "", "rank": 54, "time": 1.0, "location": {"lat": 23.364330602665852, "lng": 103.40271029623355}, "feature": {"sight_features": "", "sight_content": ""}}, {"title": "蒙自新天地滇南一条街", "address": "云南省蒙自市新天地步行街", "image": "", "rank": 55, "time": 1.0, "location": {"lat": 23.364321482864856, "lng": 103.39699371532598}, "feature": {"sight_features": "", "sight_content": ""}}, {"title": "鸣鹫村", "address": "红河哈尼族彝族自治州-蒙自市-鸣鹫镇政府(325省道北)", "image": "", "rank": 56, "time": 2, "location": {"lat": 23.454233523683456, "lng": 103.65626614863352}, "feature": {"sight_features": "", "sight_content": ""}}, {"title": "弥勒大佛", "address": "云南弥勒县弥勒大佛", "image": "", "rank": 57, "time": 7.5, "location": {"lat": 24.482060040077325, "lng": 103.44076618899825}, "feature": {"sight_features": "", "sight_content": ""}}]}