{"cityName": "勐腊", "days": 2, "cityImage": "", "spots": [{"title": "南腊河野趣漂流度假区", "address": "西双版纳傣族自治州勐腊县曼龙代村委会曼龙勒村", "image": "", "rank": 1, "time": 2, "location": {"lat": 21.465280880861858, "lng": 101.57152830822949}, "feature": {"sight_features": "特色1 皮划艇漂流、轮胎漂流、水上跳床", "sight_content": "南腊河野趣漂流度假区，位于勐腊县城东郊7公里的曼龙勒傣族特色村寨边。是西双版纳勐腊县河马旅游开发有限公司投资7500万元倾力打造的以趣味性、体验性、刺激性为主的水上运动和户外运动项目。\n\n\n包括皮划艇漂流、轮胎漂流、自由跳水、水上跳床、水中攀岩、河里射鱼、水上步行球、篮球、气排球、乒乓球、羽毛球、台球、大型秋千等；沿河岸边有茂密的大竹林，风景迷人的河边餐厅、河边酒吧、河边茶坊、大型游泳池，还有特色的傣味烧烤，傣味餐馆。\n\n\n南腊河属于澜沧江水系，发源于中老边界的象滚塘，由12条支流汇集而成，傣意为茶水之河，据民间传说，是释迦牟尼来此传经时，见坝子干旱，泼碗中茶水而成河，故名。南腊河虽然传为茶汁之河，但河水清澈，鱼类众多，有气泡鱼、大头鱼等，是州内野生鱼非常多的河流，在南腊河漂流，沿河的原始风光，河中野生鱼儿随处可见，您会有融入大自然后的特别感受。"}}, {"title": "磨憨", "address": "西双版纳傣族自治州勐腊县磨憨镇", "image": "", "rank": 2, "time": 1.5, "location": {"lat": 21.243945722097354, "lng": 101.7241864750024}, "feature": {"sight_features": "", "sight_content": ""}}, {"title": "曼旦", "address": "西双版纳傣族自治州勐腊县曼旦村", "image": "", "rank": 3, "time": 2.5, "location": {"lat": 21.484990646086768, "lng": 101.67003754503179}, "feature": {"sight_features": "", "sight_content": ""}}, {"title": "西双版纳热带雨林自然保护区", "address": "云南省景洪市景洪勐腊县勐海县内", "image": "", "rank": 4, "time": 2.0, "location": {"lat": 22.01700442311881, "lng": 100.80644312258391}, "feature": {"sight_features": "", "sight_content": ""}}, {"title": "纳掌迈山庄", "address": "勐仑镇曼峨村", "image": "", "rank": 5, "time": 2, "location": {"lat": 21.933498744503414, "lng": 101.2360184308246}, "feature": {"sight_features": "", "sight_content": ""}}, {"title": "阳光娱乐城", "address": "勐捧镇县道旁", "image": "", "rank": 6, "time": 2, "location": {"lat": 24.066032977841378, "lng": 98.9805647276141}, "feature": {"sight_features": "", "sight_content": ""}}, {"title": "南腊河", "address": "西双版纳傣族自治州勐腊县南腊河", "image": "", "rank": 7, "time": 2, "location": {"lat": 21.575427192174402, "lng": 101.30447339885067}, "feature": {"sight_features": "", "sight_content": ""}}, {"title": "石灰山季雨林", "address": "云南省勐腊县勐仑镇", "image": "", "rank": 8, "time": 2, "location": {"lat": 21.908533832820822, "lng": 101.28935206590107}, "feature": {"sight_features": "", "sight_content": ""}}, {"title": "绿石林森林公园", "address": "云南省西双版纳傣族自治州勐腊县", "image": "", "rank": 9, "time": 2, "location": {"lat": 21.465280880861858, "lng": 101.57152830822949}, "feature": {"sight_features": "", "sight_content": ""}}, {"title": "易武古茶山", "address": "云南省勐腊县勐腊县西北", "image": "", "rank": 10, "time": null, "location": {"lat": 21.465280880861858, "lng": 101.57152830822949}, "feature": {"sight_features": "", "sight_content": ""}}, {"title": "水乐欢水上乐园", "address": "小磨高速么粉村人行高架桥旁", "image": "", "rank": 11, "time": 2, "location": {"lat": 41.98441760505437, "lng": 117.77662225783116}, "feature": {"sight_features": "", "sight_content": ""}}, {"title": "勐腊海蓝蓝水上乐园", "address": "勐腊镇曼乍停车场五分场平交旁", "image": "", "rank": 12, "time": 2, "location": {"lat": 21.49036586932614, "lng": 101.58175714688171}, "feature": {"sight_features": "", "sight_content": ""}}, {"title": "国营勐捧农场基建队", "address": "勐捧农场中心小学校附近", "image": "", "rank": 13, "time": 2, "location": {"lat": 21.420115965272874, "lng": 101.34357034954854}, "feature": {"sight_features": "", "sight_content": ""}}, {"title": "峨山农家乐", "address": "213国道北50米", "image": "", "rank": 14, "time": 2, "location": {"lat": 24.056277313464452, "lng": 102.20969505158318}, "feature": {"sight_features": "", "sight_content": ""}}, {"title": "勐腊农场(二分场)", "address": "213国道附近", "image": "", "rank": 15, "time": 1.5, "location": {"lat": 24.055864840380938, "lng": 102.20969505158318}, "feature": {"sight_features": "", "sight_content": ""}}, {"title": "勐满农场七分场", "address": "171县道附近", "image": "", "rank": 16, "time": 2, "location": {"lat": 23.712569902996233, "lng": 115.19710479097571}, "feature": {"sight_features": "", "sight_content": ""}}, {"title": "中国科学院西双版纳植物园", "address": "云南省勐腊县勐仑镇 666303", "image": "", "rank": 17, "time": 2, "location": {"lat": 21.908533832820822, "lng": 101.28935206590107}, "feature": {"sight_features": "", "sight_content": ""}}, {"title": "罗梭江漂流", "address": "云南省勐海县勐仑镇罗梭江 666303", "image": "", "rank": 18, "time": 2, "location": {"lat": 21.96343359668147, "lng": 100.45944593979591}, "feature": {"sight_features": "", "sight_content": ""}}, {"title": "罗梭江竹排漂流景区", "address": "036乡道", "image": "", "rank": 19, "time": 2, "location": {"lat": 48.39353581856098, "lng": 129.90220447944986}, "feature": {"sight_features": "", "sight_content": ""}}, {"title": "西双贩仙热带雨淋植物园", "address": "云南省西双版纳傣族自治州勐腊县S403(小磨公路)", "image": "", "rank": 20, "time": 2, "location": {"lat": 21.64996691583891, "lng": 101.39784630171484}, "feature": {"sight_features": "", "sight_content": ""}}, {"title": "大板根", "address": "西双版纳傣族自治州勐腊县勐仑镇中国科学院西双版纳热带植物园热带雨林内", "image": "", "rank": 21, "time": 2, "location": {"lat": 21.923765612801496, "lng": 101.28035145432136}, "feature": {"sight_features": "", "sight_content": ""}}, {"title": "凹唇姜", "address": "西双版纳傣族自治州勐腊县勐仑镇中国科学院西双版纳热带植物园绿石林景区内", "image": "", "rank": 22, "time": 2, "location": {"lat": 21.924374669890167, "lng": 101.27581824719393}, "feature": {"sight_features": "", "sight_content": ""}}, {"title": "民族森林文化厅", "address": "西双版纳傣族自治州勐腊县勐仑镇中国科学院西双版纳热带植物园热带雨林民族文化博物馆内", "image": "", "rank": 23, "time": 2, "location": {"lat": 21.923765612801496, "lng": 101.28035145432136}, "feature": {"sight_features": "", "sight_content": ""}}, {"title": "百香园", "address": "西双版纳傣族自治州勐腊县勐仑镇中国科学院西双版纳热带植物园内", "image": "", "rank": 24, "time": 2, "location": {"lat": 21.923765612801496, "lng": 101.28035145432136}, "feature": {"sight_features": "", "sight_content": ""}}, {"title": "芭蕉花", "address": "西双版纳傣族自治州勐腊县勐仑镇中国科学院西双版纳热带植物园野生食用植物园内", "image": "", "rank": 25, "time": 2, "location": {"lat": 21.924871005808424, "lng": 101.27986032464837}, "feature": {"sight_features": "", "sight_content": ""}}, {"title": "扶桑植物展区", "address": "西双版纳傣族自治州勐腊县勐仑镇中国科学院西双版纳热带植物园百花园内", "image": "", "rank": 26, "time": 2, "location": {"lat": 21.923765612801496, "lng": 101.28035145432136}, "feature": {"sight_features": "", "sight_content": ""}}, {"title": "国营勐捧农场三分场一队", "address": "171县道东50米", "image": "", "rank": 27, "time": 2, "location": {"lat": 23.712569902996233, "lng": 115.19755394373055}, "feature": {"sight_features": "", "sight_content": ""}}, {"title": "鳄鱼漆", "address": "勐腊新城和曼崩塔路的交叉口附近", "image": "", "rank": 28, "time": 2, "location": {"lat": 21.46633397717865, "lng": 101.57372789910049}, "feature": {"sight_features": "", "sight_content": ""}}, {"title": "青青蔬果种植场(青青蔬果种植场...", "address": "勐仑镇城子村(安娜塔拉五星级酒店正门口，城子村路边)", "image": "", "rank": 29, "time": 2, "location": {"lat": 21.926399541320716, "lng": 101.25031376467162}, "feature": {"sight_features": "", "sight_content": ""}}, {"title": "望天树果源山庄", "address": "售票点回勐腊方向700米种植厂5号", "image": "", "rank": 31, "time": 2, "location": {"lat": 31.874008906648484, "lng": 117.28868870716242}, "feature": {"sight_features": "", "sight_content": ""}}, {"title": "翠屏峰热带雨林", "address": "云南省勐腊县勐仑石灰山", "image": "", "rank": 32, "time": 2, "location": {"lat": 21.465280880861858, "lng": 101.57152830822949}, "feature": {"sight_features": "", "sight_content": ""}}, {"title": "曼崩铜塔", "address": "云南省勐腊县曼崩村", "image": "", "rank": 33, "time": 2, "location": {"lat": 21.460833095812813, "lng": 101.56655339529988}, "feature": {"sight_features": "", "sight_content": ""}}, {"title": "易武茶文化博物馆", "address": "西双版纳傣族自治州-勐腊县-易武乡", "image": "", "rank": 34, "time": 2, "location": {"lat": 21.984238522071045, "lng": 101.47761132597238}, "feature": {"sight_features": "", "sight_content": ""}}, {"title": "泰国鱼网 傣族撒网", "address": "西双版纳傣族自治州-勐腊县-勐腊南路15号附近", "image": "", "rank": 35, "time": 2, "location": {"lat": 21.48159136268917, "lng": 101.57409595199175}, "feature": {"sight_features": "", "sight_content": ""}}, {"title": "澜沧江", "address": "西双版纳傣族自治州勐腊县勐腊北路", "image": "", "rank": 36, "time": 1.5, "location": {"lat": 21.503268623339828, "lng": 101.55550936505864}, "feature": {"sight_features": "", "sight_content": ""}}, {"title": "勐巴拉王国园林", "address": "西双版纳景洪市嘎兰中路6号", "image": "", "rank": 37, "time": 2.0, "location": {"lat": 22.025569535924316, "lng": 100.80081751756684}, "feature": {"sight_features": "", "sight_content": ""}}]}