{"cityName": "门源", "days": 2, "cityImage": "", "spots": [{"title": "门源百里油菜花海", "address": "海北藏族自治州门源回族自治县", "image": "", "rank": 1, "time": 3.0, "location": {"lat": 37.382180626313485, "lng": 101.62843803902976}, "feature": {"sight_features": "", "sight_content": ""}}, {"title": "达坂山", "address": "海北藏族自治州门源回族自治县", "image": "", "rank": 2, "time": 1.5, "location": {"lat": 37.382180626313485, "lng": 101.62843803902976}, "feature": {"sight_features": "", "sight_content": ""}}, {"title": "岗卡什雪峰", "address": "门源回族自治县", "image": "", "rank": 3, "time": 2, "location": {"lat": 37.382180626313485, "lng": 101.62843803902976}, "feature": {"sight_features": "", "sight_content": ""}}, {"title": "仙米国家森林公园", "address": "海北藏族自治州门源县仙米林场", "image": "", "rank": 4, "time": 4.0, "location": {"lat": 37.28758055565135, "lng": 102.01049931988666}, "feature": {"sight_features": "", "sight_content": ""}}, {"title": "花海鸳鸯", "address": "海北州门源县浩门镇北36公里处227国道盘坡旁", "image": "", "rank": 5, "time": 1.5, "location": {"lat": 37.59619161877368, "lng": 101.58869814860785}, "feature": {"sight_features": "", "sight_content": "花海鸳鸯，也称乱海子、眼睛湖。位于有黄金草原之称的皇城大草原内，是中国最美丽的六大春夏季节，时有近百只藏鸳鸯，双双对对，随波上下嬉戏，被称为“爱情鸟的乐园”。《西宁府新志》中，以“花海鸳鸯”为名，记载于史册，列为门源古八景之一。"}}, {"title": "达坂山观景台", "address": "227国道旁(近达坂山隧道)", "image": "", "rank": 6, "time": 2, "location": {"lat": 37.96006729119905, "lng": 100.95816145394333}, "feature": {"sight_features": "", "sight_content": ""}}, {"title": "门源仙米林场", "address": "青海省门源县城东40公里处", "image": "", "rank": 7, "time": 2.5, "location": {"lat": 36.605707645661155, "lng": 101.8095690383313}, "feature": {"sight_features": "", "sight_content": ""}}, {"title": "岗什卡雪峰景区", "address": "北部(祁连山脉东段的最高峰)", "image": "", "rank": 8, "time": 2, "location": {"lat": 37.56356183495306, "lng": 101.77884777141587}, "feature": {"sight_features": "", "sight_content": ""}}, {"title": "门源芬芳浴热气球观光", "address": "皇城牧场段西50米", "image": "", "rank": 9, "time": 2, "location": {"lat": 31.19047691079789, "lng": 112.60135275502321}, "feature": {"sight_features": "", "sight_content": ""}}, {"title": "油菜花农家乐", "address": "青石嘴镇下铁迈西村48号", "image": "", "rank": 10, "time": 2, "location": {"lat": 37.45569525211792, "lng": 101.42572917634435}, "feature": {"sight_features": "", "sight_content": ""}}, {"title": "儿童公园", "address": "青海省海北藏族自治州门源回族自治县浩门镇影院路县公园(影豪小区东北150米)", "image": "", "rank": 11, "time": 1.0, "location": {"lat": 37.383086655099504, "lng": 101.63107857483902}, "feature": {"sight_features": "", "sight_content": ""}}, {"title": "高空滑索", "address": "海北藏族自治州门源回族自治县百里油菜花景区内", "image": "", "rank": 12, "time": 2, "location": {"lat": 37.382180626313485, "lng": 101.62843803902976}, "feature": {"sight_features": "", "sight_content": ""}}, {"title": "西雅度假村", "address": "青海省海北藏族自治州门源回族自治县G227(西张线)", "image": "", "rank": 13, "time": 2, "location": {"lat": 37.382180626313485, "lng": 101.62843803902976}, "feature": {"sight_features": "", "sight_content": ""}}, {"title": "花海芬芳浴", "address": "青海省海北藏族自治州门源县苏吉湾乡苏吉湾村", "image": "", "rank": 14, "time": 2, "location": {"lat": 37.512502957040276, "lng": 101.53719490261751}, "feature": {"sight_features": "", "sight_content": ""}}, {"title": "民俗商业街", "address": "青海省门源回族自治县顺风路", "image": "", "rank": 15, "time": 2, "location": {"lat": 37.382180626313485, "lng": 101.62843803902976}, "feature": {"sight_features": "", "sight_content": ""}}, {"title": "照壁山观景台", "address": "青海省海北藏族自治州门源县浩门河南岸", "image": "", "rank": 16, "time": 2, "location": {"lat": 37.435234145889766, "lng": 101.46888128383911}, "feature": {"sight_features": "", "sight_content": ""}}, {"title": "青石嘴镇", "address": "青海省海北藏族自治州门源县青石嘴镇", "image": "", "rank": 17, "time": 2, "location": {"lat": 37.47275018677696, "lng": 101.42487440721091}, "feature": {"sight_features": "", "sight_content": ""}}, {"title": "岗什卡七彩冰瀑布", "address": "海北藏族自治州门源回族自治县岗什卡山脚下", "image": "", "rank": 18, "time": 2, "location": {"lat": 37.67693612187764, "lng": 101.45216094372078}, "feature": {"sight_features": "", "sight_content": ""}}, {"title": "油菜花观花台", "address": "浩门镇浩门农场", "image": "", "rank": 19, "time": 2, "location": {"lat": 37.48204268589218, "lng": 101.44743832079034}, "feature": {"sight_features": "", "sight_content": ""}}, {"title": "岗什卡雪山", "address": "海北藏族自治州门源回族自治县北部(祁连山脉东段的最高峰)", "image": "", "rank": 20, "time": 2, "location": {"lat": 37.56356183495306, "lng": 101.77884777141587}, "feature": {"sight_features": "", "sight_content": ""}}]}