{"cityName": "渑池", "days": 2, "cityImage": "", "spots": [{"title": "仰韶大峡谷", "address": "三门峡市渑池县段村乡247省道", "image": "", "rank": 1, "time": 3.5, "location": {"lat": 34.91805553262699, "lng": 111.84917873994856}, "feature": {"sight_features": "", "sight_content": ""}}, {"title": "黄河丹峡旅游风景区", "address": "三门峡市渑池县坡头乡", "image": "", "rank": 2, "time": 2.5, "location": {"lat": 34.91667559163129, "lng": 111.71377216932552}, "feature": {"sight_features": "特色1 栩栩如生的天然壁画", "sight_content": "‍‍黄河丹峡，位于‍‍三门峡市渑池北21公里黄河岸边，地处豫晋两省五县交界处。省级地质公园，整条峡谷由红色石英砂岩构成，从谷底到崖壁全成红褐色。12亿年前这里曾是一片汪洋大海，丹峡正是沧海桑田的有力见证，峡谷还能看到当年海洋波浪冲刷留下的石印。\n它成 “v”字隐形峡谷，宽2—30米，海拨落差200—600米。现已保护性了开发了天然壁画、双龙戏珠、七星石、神猴望月、守谷雄狮、石人山、神女池、一线天、千层崖、钟乳石、擎天柱、骆驼峰、情人谷、仙女洞、水帘洞、官印台、地质天书、天坑地缝以及由龙凤潭、龙瀑组成的八潭八瀑等50多处自然景点；波纹石、树模石等罕见化石；石茶等珍贵中药材；野桑葚、五味子、山葡萄、八月炸等珍奇野果；国家一级保护树种红豆杉；滑索、高空飞车、黄河垂钓、纤夫绝唱、小浪底观光旅游休闲娱乐等项目。\n整个谷内怪石林立、峭壁千仞，古树参天、飞瀑湍急，汇集了奇山、怪石、险谷、清溪、深潭、密林等多种奇特的自然景观，堪称世界峡谷奇观、中国最美的峡谷之一。‍‍‍‍"}}, {"title": "仰韶文化遗址", "address": "三门峡市渑池县仰韶镇马韶线仰韶文化遗址", "image": "", "rank": 3, "time": 2.5, "location": {"lat": 34.81535176931356, "lng": 111.78966236896166}, "feature": {"sight_features": "", "sight_content": ""}}, {"title": "玫瑰谷漂流", "address": "三门峡市渑池县段村乡石门沟", "image": "", "rank": 4, "time": 2, "location": {"lat": 34.963514390505885, "lng": 111.86095131841967}, "feature": {"sight_features": "", "sight_content": ""}}, {"title": "仰韶文化博物馆", "address": "仰韶镇仰韶村", "image": "", "rank": 5, "time": 2, "location": {"lat": 34.82347018164724, "lng": 111.79147641339664}, "feature": {"sight_features": "", "sight_content": ""}}, {"title": "渑池生态园", "address": "310国道", "image": "", "rank": 6, "time": 7.5, "location": {"lat": 34.341272660809565, "lng": 117.25163434058804}, "feature": {"sight_features": "", "sight_content": ""}}, {"title": "山水人家生态庄园", "address": "刘郭村刘郭水库", "image": "", "rank": 7, "time": 2, "location": {"lat": 36.81954802481141, "lng": 116.22896092195822}, "feature": {"sight_features": "", "sight_content": ""}}, {"title": "渑池八路军兵站", "address": "河南渑池县城关镇东关小寨村 472401", "image": "", "rank": 8, "time": 3.5, "location": {"lat": 34.7563434889576, "lng": 111.77156227020713}, "feature": {"sight_features": "", "sight_content": ""}}, {"title": "古秦赵会盟台", "address": "渑池县仰韶大街", "image": "", "rank": 9, "time": 2, "location": {"lat": 34.76546506745479, "lng": 111.7777068101497}, "feature": {"sight_features": "", "sight_content": ""}}, {"title": "八路军渑池兵站纪念馆", "address": "海露大街刘少奇旧居附近", "image": "", "rank": 10, "time": 2, "location": {"lat": 34.76195988477261, "lng": 111.78000376296582}, "feature": {"sight_features": "", "sight_content": ""}}, {"title": "澧泉啤酒广场", "address": "三门峡市渑池县", "image": "", "rank": 11, "time": 2, "location": {"lat": 34.77319704298588, "lng": 111.76854234584539}, "feature": {"sight_features": "", "sight_content": ""}}, {"title": "丛林部落真人cs俱乐部", "address": "礼庄寨村内（幸福农场院内）", "image": "", "rank": 12, "time": 2, "location": {"lat": 34.81997656014958, "lng": 111.75521569075727}, "feature": {"sight_features": "", "sight_content": ""}}, {"title": "歌舞娱乐", "address": "河南省三门峡市渑池县仰韶大街辅路", "image": "", "rank": 13, "time": 2, "location": {"lat": 34.76546506745479, "lng": 111.7777068101497}, "feature": {"sight_features": "", "sight_content": ""}}, {"title": "利津广场", "address": "利津路与岱嵋街交叉口东100米", "image": "", "rank": 14, "time": 0.75, "location": {"lat": 35.05908280596875, "lng": 111.83513404231716}, "feature": {"sight_features": "", "sight_content": ""}}, {"title": "中央公园", "address": "仰韶镇北环二路(中央广播电视大学对面)", "image": "", "rank": 15, "time": 2.5, "location": {"lat": 39.912273625295214, "lng": 116.36462376836357}, "feature": {"sight_features": "", "sight_content": ""}}, {"title": "一里河教会", "address": "河南省三门峡市渑池县城关镇仰韶大街福音堂西门", "image": "", "rank": 16, "time": 2, "location": {"lat": 34.76322779858233, "lng": 111.77079561316626}, "feature": {"sight_features": "", "sight_content": ""}}, {"title": "洪山寺", "address": "河南省三门峡市渑池县", "image": "", "rank": 17, "time": 1.0, "location": {"lat": 34.77319704298588, "lng": 111.76854234584539}, "feature": {"sight_features": "", "sight_content": ""}}, {"title": "韶山地质博物馆", "address": "246省道", "image": "", "rank": 18, "time": 1.5, "location": {"lat": 41.45829374987228, "lng": 114.52682579560586}, "feature": {"sight_features": "", "sight_content": ""}}, {"title": "卡卡兔儿童乐园", "address": "仰韶大街顺和广场三楼", "image": "", "rank": 19, "time": 2, "location": {"lat": 34.76808338689522, "lng": 111.7530942353971}, "feature": {"sight_features": "", "sight_content": ""}}, {"title": "白浪黄河铁索桥", "address": "白浪乡", "image": "", "rank": 20, "time": 2, "location": {"lat": 27.339468869543886, "lng": 120.18933202928419}, "feature": {"sight_features": "", "sight_content": ""}}, {"title": "莓香草莓采摘园", "address": "仰韶镇010乡道仰韶乡礼庄寨村村委", "image": "", "rank": 21, "time": 2, "location": {"lat": 34.79084246094317, "lng": 111.81000237903072}, "feature": {"sight_features": "", "sight_content": ""}}, {"title": "韶山", "address": "河南省渑池县西阳乡后涧村", "image": "", "rank": 22, "time": 7.5, "location": {"lat": 34.79191767055243, "lng": 111.80714654723816}, "feature": {"sight_features": "", "sight_content": ""}}, {"title": "雪白西沟", "address": "三门峡市-渑池县", "image": "", "rank": 23, "time": null, "location": {"lat": 34.77319704298588, "lng": 111.76854234584539}, "feature": {"sight_features": "", "sight_content": ""}}, {"title": "碧波水世界", "address": "三门峡市渑池县G30（连霍高速）", "image": "", "rank": 24, "time": 2, "location": {"lat": 34.77319704298588, "lng": 111.76854234584539}, "feature": {"sight_features": "", "sight_content": ""}}]}