{"cityName": "冕宁", "days": 2, "cityImage": "", "spots": [{"title": "灵山寺", "address": "凉山彝族自治州冕宁县城以东17公里处的灵山", "image": "", "rank": 1, "time": 1.0, "location": {"lat": 28.55529444536005, "lng": 102.18357457402372}, "feature": {"sight_features": "", "sight_content": ""}}, {"title": "彝海", "address": "凉山彝族自治州冕宁县城以北40公里羊坪山上", "image": "", "rank": 2, "time": 2.0, "location": {"lat": 28.55529444536005, "lng": 102.18357457402372}, "feature": {"sight_features": "", "sight_content": ""}}, {"title": "冶勒自然保护区", "address": "四川省凉山彝族自治州西昌市胜利南路243附近", "image": "", "rank": 3, "time": 1.0, "location": {"lat": 27.890248643626727, "lng": 102.26164575880208}, "feature": {"sight_features": "", "sight_content": ""}}, {"title": "彝海结盟", "address": "凉山州冕宁县城以北40公里羊坪山上", "image": "", "rank": 4, "time": 2, "location": {"lat": 28.55529444536005, "lng": 102.18357457402372}, "feature": {"sight_features": "", "sight_content": ""}}, {"title": "西康温泉", "address": "凉山彝族自治州冕宁县城厢镇枧槽村六组", "image": "", "rank": 5, "time": 2, "location": {"lat": 28.566878681352197, "lng": 102.22241047714047}, "feature": {"sight_features": "特色1 集休闲娱乐、度假旅游、餐饮、购物、会议于一身的综合度假场所", "sight_content": "﻿冕宁县西康温泉酒店位于冕宁县城厢镇境内108国道旁，距雅西高速公路冕宁出口2公里，距冕宁县城3公里，距国家4A级旅游景区灵山景区5.8公里。\n占地面积28.6亩，总投资五千二百余万元。交通便利，环境优美，内部设施齐全，有温泉泡池、水上儿童乐园、健身休闲区、桑拿房、客房50间（含套房、标间、单间）、大小会议中心、休闲卡座、水吧、休闲娱乐室30余间、农家餐厅780平方米、烧烤场地1500平方米，土特产超市，豆花作坊。\n西昌冕宁西康温泉酒店是一家集休闲娱乐、度假旅游、餐饮、购物、会议于一身的综合度假场所，期待您的到来。\n‍"}}, {"title": "冶勒湖", "address": "凉山州冕宁县冶勒乡", "image": "", "rank": 6, "time": 2.0, "location": {"lat": 28.879202405282154, "lng": 102.19896650713525}, "feature": {"sight_features": "", "sight_content": ""}}, {"title": "漫水湾庆林温泉度假山庄", "address": "凉山彝族自治州冕宁县京昆高漫水湾收费站出口处", "image": "", "rank": 7, "time": 2, "location": {"lat": 28.55529444536005, "lng": 102.18357457402372}, "feature": {"sight_features": "", "sight_content": ""}}, {"title": "冕宁县灵山景区", "address": "凉山州冕宁县城以东17公里", "image": "", "rank": 8, "time": 2, "location": {"lat": 28.55529444536005, "lng": 102.18357457402372}, "feature": {"sight_features": "", "sight_content": ""}}, {"title": "雷波马湖", "address": "四川省凉山彝族自治州雷波县马湖乡", "image": "", "rank": 9, "time": 2, "location": {"lat": 28.366618668177356, "lng": 103.76022452731858}, "feature": {"sight_features": "", "sight_content": ""}}, {"title": "苗圃山庄", "address": "河东村八组", "image": "", "rank": 10, "time": 2, "location": {"lat": 40.70032477553268, "lng": 117.1741902421994}, "feature": {"sight_features": "", "sight_content": ""}}, {"title": "长征纪念馆", "address": "215省道", "image": "", "rank": 11, "time": 2.0, "location": {"lat": 36.52111105176839, "lng": 115.24987145143434}, "feature": {"sight_features": "", "sight_content": ""}}, {"title": "卡奇乐儿童启智乐园", "address": "友谊路与长征东路交叉口东50米", "image": "", "rank": 12, "time": 2, "location": {"lat": 28.555520859656387, "lng": 102.1865049912235}, "feature": {"sight_features": "", "sight_content": ""}}, {"title": "快乐岛儿童乐园", "address": "凉山彝族自治州冕宁县", "image": "", "rank": 13, "time": 2, "location": {"lat": 28.55529444536005, "lng": 102.18357457402372}, "feature": {"sight_features": "", "sight_content": ""}}, {"title": "南街妇代会图书室", "address": "交南路105", "image": "", "rank": 14, "time": 2, "location": {"lat": 28.295041132598833, "lng": 102.20000538757584}, "feature": {"sight_features": "", "sight_content": ""}}, {"title": "花果山农家乐", "address": "复兴镇花果村四组", "image": "", "rank": 15, "time": 2, "location": {"lat": 28.423792075515713, "lng": 102.15918430024884}, "feature": {"sight_features": "", "sight_content": ""}}, {"title": "红色冕宁纪念馆", "address": "滨河大道与红星路交叉口东南50米", "image": "", "rank": 16, "time": 2, "location": {"lat": 28.554720678275043, "lng": 102.18757429817}, "feature": {"sight_features": "", "sight_content": ""}}, {"title": "泸沽商业街", "address": "四川省冕宁县中心商业街", "image": "", "rank": 17, "time": 2, "location": {"lat": 28.294918796619868, "lng": 102.19831433014878}, "feature": {"sight_features": "", "sight_content": ""}}, {"title": "冕宁县商业步行街", "address": "四川省冕宁县友谊路与交通东路交叉口", "image": "", "rank": 18, "time": 2, "location": {"lat": 28.553790345051087, "lng": 102.18643440147825}, "feature": {"sight_features": "", "sight_content": ""}}]}