{"cityName": "绵竹", "days": 2, "cityImage": "", "spots": [{"title": "绵竹麓棠温泉", "address": "德阳市绵竹市土门镇麓棠村一组", "image": "", "rank": 1, "time": 2, "location": {"lat": 31.318652353626362, "lng": 104.08375763940967}, "feature": {"sight_features": "特色1 酒画之乡，山水绵竹，不亚苏杭，人间天堂 特色2 漫山梅林，瑞雪迎春，腊梅飘香，游人如织 特色3 沱江上游之源，一片圣洁之地", "sight_content": "绵竹麓棠温泉绵竹水好，在沱江上游之源，一片圣洁之地，九顶山之水经千万年之沉淀在平坝区域形成了“纵横交错”的地下阴河，露头的泉堰众多，据《绵竹县志》记载，“沿山及平坝区地下阴河众多，泉堰密布”。“惟西南一线泉脉可酿此酒”。（即酿造绵竹大曲，剑南春）”。\n绵竹麓棠温泉位于绵竹城西商贸旅游大镇土门镇圣灯山下梅子沟脚下。据记载，北宋祥符年间，三溪寺的开山祖师玉川祖师曾在圣灯山上点燃圣灯，祈求上天保佑一方平安，修建庙宇顺利；另一方面夜幕降临，圣灯明亮，驱散妖魔鬼怪，给人们带来光明、希望。《绵竹县志》记载，“圣灯山在麓棠之上，考圣灯山有二，一在城西四十里，高于山溪过半”。麓棠温泉现在的位置恰好在圣灯山下的梅子沟。“梅子沟”这个小地方，在历史上是漫山梅林，瑞雪迎春，腊梅飘香，游人如织，因而人们将它取名“梅子沟”。"}}, {"title": "四川绵竹九龙滑草场", "address": "德阳市绵竹市九龙镇九龙山乡村旅游景区内", "image": "", "rank": 2, "time": 2, "location": {"lat": 31.413444668557958, "lng": 104.14174621011405}, "feature": {"sight_features": "特色1 户外拓展训练基地和滑翔伞运动基地 特色2 环境优美、空气清新 特色3 滑草及户外休闲运动中心", "sight_content": "九龙滑草场位于国家AAAA级九龙山旅游风景区，是德阳地区的滑草及户外休闲运动中心。滑草场占地160余亩，总投资1300余万元，由江苏扬州援建。\n现开展有四轮滑草车、履带滑草、草地悠玻球等草地运动项目，还开展有真人CS、水上步行球、热气球、射箭、骑马、户外自助烧烤、露营、攀岩、弹跳飞人、西部狂牛、风筝、羽毛球、高尔夫球练习、品茗棋牌等户外休闲运动项目。滑草场还是户外拓展训练基地和中国九龙滑翔伞运动基地，开展有企业拓展培训和滑翔伞教学飞行训练认证、双人伞带飞和动力伞商业飞行表演等空中项目。\n草场紧临绵竹沿山旅游公路，距汉旺地震遗址、剑南春麓堂温泉渡假中心、土门玫瑰谷和中国绵竹年画村都在15公里以内。滑草场背靠九龙山跑马岭，前览成都平原美景，空气清新，视野开阔，风景秀丽。"}}, {"title": "森海水上乐园", "address": "德阳市绵竹市新市镇剑南春森林公园", "image": "", "rank": 3, "time": 2, "location": {"lat": 31.230647299773853, "lng": 104.14884898961189}, "feature": {"sight_features": "", "sight_content": "森海水上乐园位于绵竹市新市镇剑南春森林公园，与剑南春森林酒店毗邻，注册资金2000万，规划总面积约220亩，开发建设项目有儿童戏水小品、雪橇滑梯、海浪池、水寨、漂流河、冲天回旋滑梯等，是目前德阳地区规模最大的水上乐园。\n园区设施和环境都由专业设计团队为森海量身打造，具有高度安全性、娱乐性和观赏性，除齐备时下最受追捧的各大水上游乐项目外，还拥有目前川内最大面积的主题乐园墙体彩绘，极具特色，为游客呈现一场独特的视觉盛宴。\n本乐园由绵竹市森海旅游开发有限责任公司开发建设，是一家集绿色生态回归、游园嬉水、文化旅游、休闲度假等于一体的大型水上乐园，让游客在体验刺激快乐的同时，舒缓工作、生活带来的压力，使其达到身心放松，留下美好回忆的目的。"}}, {"title": "剑南老街", "address": "四川省德阳市绵竹市", "image": "", "rank": 4, "time": 2, "location": {"lat": 31.343592258210748, "lng": 104.22760930499648}, "feature": {"sight_features": "", "sight_content": ""}}, {"title": "绵竹广场", "address": "四川省德阳绵竹市步行街绵竹广场", "image": "", "rank": 5, "time": 0.75, "location": {"lat": 31.348173567189207, "lng": 104.20451261270722}, "feature": {"sight_features": "", "sight_content": ""}}, {"title": "颐心谷", "address": "德阳市绵竹市遵道镇梨花广场", "image": "", "rank": 6, "time": 2, "location": {"lat": 31.383318323697992, "lng": 104.12064312724308}, "feature": {"sight_features": "", "sight_content": ""}}, {"title": "绵竹市人民公园", "address": "瑞祥横街30", "image": "", "rank": 7, "time": 2.5, "location": {"lat": 31.3539617633115, "lng": 104.20367330790313}, "feature": {"sight_features": "", "sight_content": ""}}, {"title": "诸葛双忠祠", "address": "德阳市绵竹市职中巷16号", "image": "", "rank": 8, "time": 2, "location": {"lat": 31.34919110839786, "lng": 104.19864248533524}, "feature": {"sight_features": "", "sight_content": ""}}, {"title": "德阳奎星阁", "address": "四川省绵竹市罗江镇南街", "image": "", "rank": 9, "time": 2, "location": {"lat": 31.343592258210748, "lng": 104.22760930499648}, "feature": {"sight_features": "", "sight_content": ""}}, {"title": "剑南春森林公园", "address": "四川省绵竹市新市镇", "image": "", "rank": 10, "time": 2, "location": {"lat": 31.2114833815838, "lng": 104.21835321712337}, "feature": {"sight_features": "", "sight_content": ""}}, {"title": "白云山植物园", "address": "四川省绵竹市武都镇白云山", "image": "", "rank": 11, "time": 2, "location": {"lat": 31.409879179178002, "lng": 104.18926727137188}, "feature": {"sight_features": "", "sight_content": ""}}, {"title": "九龙山滑翔伞", "address": "德阳市绵竹市九龙山乡村旅游景区九龙滑草场", "image": "", "rank": 12, "time": 2, "location": {"lat": 31.413444668557958, "lng": 104.14174621011405}, "feature": {"sight_features": "特色1 滑翔伞体验飞行之旅就是你梦开始的地方", "sight_content": "九龙山滑翔运动基地位于九龙山乡村旅游景区，起飞场位于九龙山跑马岭，降落场位于九龙滑草场与四季花田内空旷草坪，距离成都82公里，山体基本呈南北（偏东北——西南）走向，南北延绵80余公里，主流风向为东、东北风；已修建有上山森林防火通道，降落场到起飞场15分钟，还有一条为游人和登山爱好者修建的登山道。"}}, {"title": "年画展示馆", "address": "年画湖旁边", "image": "", "rank": 13, "time": 2, "location": {"lat": 31.287888134772764, "lng": 104.21067704113375}, "feature": {"sight_features": "", "sight_content": ""}}, {"title": "绵竹图书馆", "address": "月波路130号", "image": "", "rank": 14, "time": 1.5, "location": {"lat": 30.473985406278842, "lng": 120.18241833114092}, "feature": {"sight_features": "", "sight_content": ""}}, {"title": "年画博物馆(回澜大道中段店)", "address": "回澜大道中段252号", "image": "", "rank": 15, "time": 2, "location": {"lat": 31.34274181540708, "lng": 104.22626148740929}, "feature": {"sight_features": "", "sight_content": ""}}, {"title": "剑南春酒史博物馆", "address": "春溢街西南涌泉村卫生站斜对面", "image": "", "rank": 16, "time": 2, "location": {"lat": 31.071127993695654, "lng": 104.65958744677073}, "feature": {"sight_features": "", "sight_content": ""}}, {"title": "福康生态园", "address": "安顺路", "image": "", "rank": 17, "time": 2, "location": {"lat": 39.94002872347365, "lng": 116.66437123845886}, "feature": {"sight_features": "", "sight_content": ""}}, {"title": "绵竹市铭爱玫瑰种植专业合作社", "address": "F16县道附近", "image": "", "rank": 18, "time": 2, "location": {"lat": 31.361400427343955, "lng": 104.1631698982215}, "feature": {"sight_features": "", "sight_content": ""}}, {"title": "青城水立方水上乐园", "address": "成都市青城山水立方水上乐园", "image": "", "rank": 19, "time": 2, "location": {"lat": 30.91009696027086, "lng": 103.56970173640926}, "feature": {"sight_features": "", "sight_content": ""}}, {"title": "枇杷园", "address": "遵道镇棚花村四组沿山公路", "image": "", "rank": 20, "time": 2, "location": {"lat": 31.388130515017785, "lng": 104.1303875178219}, "feature": {"sight_features": "", "sight_content": ""}}, {"title": "古龙天香农家乐", "address": "遵文路66号(龙蟒河桥头，靠近梨花广场颐心谷)", "image": "", "rank": 21, "time": 2, "location": {"lat": 31.374237288062886, "lng": 104.13099272959992}, "feature": {"sight_features": "", "sight_content": ""}}, {"title": "黄许小憩驿站健康园", "address": "黄许镇广平村四组", "image": "", "rank": 22, "time": 2, "location": {"lat": 45.61050311037118, "lng": 127.47232482372439}, "feature": {"sight_features": "", "sight_content": ""}}, {"title": "张家祠堂", "address": "德阳市绵竹市一零一县道", "image": "", "rank": 23, "time": 2, "location": {"lat": 31.343592258210748, "lng": 104.22760930499648}, "feature": {"sight_features": "", "sight_content": ""}}, {"title": "蜀中福地", "address": "遵道镇马跪村沿山路旁边", "image": "", "rank": 24, "time": 2, "location": {"lat": 31.31548847253181, "lng": 104.10367329175241}, "feature": {"sight_features": "", "sight_content": ""}}, {"title": "佳贝爱儿童乐园", "address": "大南路20", "image": "", "rank": 25, "time": 2, "location": {"lat": 22.938776037261793, "lng": 113.37219705822777}, "feature": {"sight_features": "", "sight_content": ""}}, {"title": "千秋怙物馆", "address": "四川省德阳市绵竹市明阳街89号", "image": "", "rank": 26, "time": 2, "location": {"lat": 31.3474278412779, "lng": 104.2025106490477}, "feature": {"sight_features": "", "sight_content": ""}}, {"title": "皮家祠堂", "address": "德阳市绵竹市绵齐孝路", "image": "", "rank": 27, "time": 2, "location": {"lat": 31.328778562626994, "lng": 104.27041275407197}, "feature": {"sight_features": "", "sight_content": ""}}, {"title": "九龙寺", "address": "清泉路与灵官路交叉口西100米", "image": "", "rank": 28, "time": 1.0, "location": {"lat": 31.401765576340942, "lng": 104.15043148412371}, "feature": {"sight_features": "", "sight_content": ""}}, {"title": "廖家祠堂", "address": "德阳市绵竹市吉枫路", "image": "", "rank": 29, "time": 0.5, "location": {"lat": 31.42974213858306, "lng": 104.26934605400768}, "feature": {"sight_features": "", "sight_content": ""}}, {"title": "张家祠堂", "address": "德阳市绵竹市德阳--阿坝茂县", "image": "", "rank": 30, "time": 2, "location": {"lat": 31.343592258210748, "lng": 104.22760930499648}, "feature": {"sight_features": "", "sight_content": ""}}, {"title": "绵竹清泉生态公园", "address": "沿山公路北50米", "image": "", "rank": 31, "time": 2, "location": {"lat": 31.203638566192577, "lng": 104.46268940622583}, "feature": {"sight_features": "", "sight_content": ""}}, {"title": "月亮泉公园", "address": "四川省德阳市绵竹市玉妃路一段", "image": "", "rank": 32, "time": 2, "location": {"lat": 31.326918997079247, "lng": 104.22151208239835}, "feature": {"sight_features": "", "sight_content": ""}}, {"title": "绵竹剧场", "address": "小北横街41春晞路", "image": "", "rank": 33, "time": 1.5, "location": {"lat": 31.35038394404709, "lng": 104.20484791332356}, "feature": {"sight_features": "", "sight_content": ""}}, {"title": "绵竹年画村", "address": "德阳市绵竹市孝德镇年画村12组", "image": "", "rank": 34, "time": 3.0, "location": {"lat": 31.283980010345346, "lng": 104.23833093429212}, "feature": {"sight_features": "", "sight_content": ""}}, {"title": "苏州援建展示厅", "address": "四川省绵竹市孝德大道", "image": "", "rank": 35, "time": 2.5, "location": {"lat": 31.27119726637389, "lng": 104.27033265486456}, "feature": {"sight_features": "", "sight_content": ""}}, {"title": "太阳啤酒广场", "address": "孝德大道苏州公园内", "image": "", "rank": 36, "time": 2, "location": {"lat": 31.258622236970243, "lng": 104.28032869944386}, "feature": {"sight_features": "", "sight_content": ""}}, {"title": "大风车夜啤酒广场", "address": "滨河东路一段517号", "image": "", "rank": 37, "time": 2, "location": {"lat": 31.35369483671145, "lng": 104.20989943464701}, "feature": {"sight_features": "", "sight_content": ""}}, {"title": "汉旺综合市场-义务消防队", "address": "四川省德阳市绵竹市汉旺镇群力村德阿公路群力新苑附近", "image": "", "rank": 38, "time": 2, "location": {"lat": 31.439015291234977, "lng": 104.18676658735761}, "feature": {"sight_features": "", "sight_content": ""}}, {"title": "蔡家祠堂", "address": "德阳市绵竹市东吴路", "image": "", "rank": 39, "time": 2, "location": {"lat": 31.343592258210748, "lng": 104.22760930499648}, "feature": {"sight_features": "", "sight_content": ""}}, {"title": "陈家祠堂", "address": "四川省德阳市绵竹市", "image": "", "rank": 40, "time": 1.5, "location": {"lat": 31.343592258210748, "lng": 104.22760930499648}, "feature": {"sight_features": "", "sight_content": ""}}, {"title": "广济寺", "address": "乌云巷附近", "image": "", "rank": 41, "time": 2.5, "location": {"lat": 31.28995415192182, "lng": 104.06234880927535}, "feature": {"sight_features": "", "sight_content": ""}}, {"title": "王家祠堂", "address": "德阳市绵竹市合绵路", "image": "", "rank": 42, "time": 2, "location": {"lat": 31.358091994502143, "lng": 104.31860915871728}, "feature": {"sight_features": "", "sight_content": ""}}, {"title": "殷家祠堂", "address": "德阳市绵竹市年画路", "image": "", "rank": 43, "time": 2, "location": {"lat": 31.343592258210748, "lng": 104.22760930499648}, "feature": {"sight_features": "", "sight_content": ""}}, {"title": "苏绵公园", "address": "德阳市绵竹市", "image": "", "rank": 44, "time": 2, "location": {"lat": 31.343592258210748, "lng": 104.22760930499648}, "feature": {"sight_features": "", "sight_content": ""}}, {"title": "林家祠堂", "address": "德阳市绵竹市南京大道一段", "image": "", "rank": 45, "time": 2, "location": {"lat": 31.337418789469798, "lng": 104.20308232618271}, "feature": {"sight_features": "", "sight_content": ""}}, {"title": "罗江白马寺", "address": "四川省德阳市绵竹市紫岩路197号", "image": "", "rank": 46, "time": 2.5, "location": {"lat": 31.344255747291818, "lng": 104.21341553895553}, "feature": {"sight_features": "", "sight_content": ""}}, {"title": "春晖园", "address": "剑南老街28", "image": "", "rank": 47, "time": 2, "location": {"lat": 31.346907594559244, "lng": 104.20132034304353}, "feature": {"sight_features": "", "sight_content": ""}}, {"title": "弘扬广场", "address": "绵竹广场东40", "image": "", "rank": 48, "time": 2, "location": {"lat": 31.347955378014756, "lng": 104.20539924024555}, "feature": {"sight_features": "", "sight_content": ""}}, {"title": "梨园会馆", "address": "绵竹市城西综合市场", "image": "", "rank": 49, "time": 2, "location": {"lat": 31.350101543932013, "lng": 104.20037777352957}, "feature": {"sight_features": "", "sight_content": ""}}, {"title": "孝德泰国度假村", "address": "孝安街与孝德大道交叉口南150米", "image": "", "rank": 50, "time": 2, "location": {"lat": 31.255270825905804, "lng": 104.2800808335977}, "feature": {"sight_features": "", "sight_content": ""}}, {"title": "天香广场", "address": "春溢路附近", "image": "", "rank": 51, "time": 2, "location": {"lat": 30.27241049369709, "lng": 120.49769498645169}, "feature": {"sight_features": "", "sight_content": ""}}, {"title": "南轩祠", "address": "四川省绵竹市南轩中学内", "image": "", "rank": 52, "time": 2, "location": {"lat": 31.328842746096313, "lng": 104.20833901689141}, "feature": {"sight_features": "", "sight_content": ""}}, {"title": "九龙山田野灯会", "address": "德阳绵竹市九龙镇清泉村", "image": "", "rank": 53, "time": 2, "location": {"lat": 31.41378974781373, "lng": 104.14175517610134}, "feature": {"sight_features": "", "sight_content": ""}}, {"title": "欢乐谷", "address": "三棵树街4号", "image": "", "rank": 54, "time": 4.5, "location": {"lat": 26.568810042589433, "lng": 108.07342965560811}, "feature": {"sight_features": "", "sight_content": ""}}, {"title": "绵竹市科技·城市规划展览馆", "address": "回澜大道中段", "image": "", "rank": 55, "time": 2, "location": {"lat": 31.343269971757362, "lng": 104.22231698838954}, "feature": {"sight_features": "", "sight_content": ""}}, {"title": "绵竹市博物馆", "address": "职中巷16号", "image": "", "rank": 56, "time": 2.5, "location": {"lat": 31.34919110839786, "lng": 104.19864248533524}, "feature": {"sight_features": "", "sight_content": ""}}, {"title": "农耕文化展示馆", "address": "九龙跑马岭旅游投资有限公司旁边", "image": "", "rank": 57, "time": 1.0, "location": {"lat": 31.413013988938776, "lng": 104.14187376949646}, "feature": {"sight_features": "", "sight_content": ""}}, {"title": "回澜樱花广场", "address": "安顺路1号", "image": "", "rank": 58, "time": 2, "location": {"lat": 43.86228664932698, "lng": 125.22522449485466}, "feature": {"sight_features": "", "sight_content": ""}}, {"title": "绵竹市档案馆", "address": "苏绵大道", "image": "", "rank": 59, "time": 1.0, "location": {"lat": 31.348862054766528, "lng": 104.21228924350709}, "feature": {"sight_features": "", "sight_content": ""}}, {"title": "楠木沟村农家乐种养业协会", "address": "德茂路", "image": "", "rank": 60, "time": 2, "location": {"lat": 31.24846780411433, "lng": 104.28165468551221}, "feature": {"sight_features": "", "sight_content": ""}}]}