{"cityName": "苗栗", "days": "1", "cityImage": "", "spots": [{"title": "胜兴火车站", "address": "苗栗县三义乡胜兴村14邻82号", "image": "", "rank": 1, "time": 1.5, "location": {"lat": 46.64281541621011, "lng": 126.83153598925364}, "feature": {"sight_features": "", "sight_content": ""}}, {"title": "龙腾断桥", "address": "367台湾苗栗县三义乡", "image": "", "rank": 2, "time": null, "location": {"lat": 24.38213738459467, "lng": 120.78563277095219}, "feature": {"sight_features": "", "sight_content": ""}}, {"title": "雪霸国家公园", "address": "苗栗县大湖乡", "image": "", "rank": 3, "time": 3.0, "location": {"lat": 24.40131965597503, "lng": 120.88629636175664}, "feature": {"sight_features": "", "sight_content": ""}}, {"title": "南庄", "address": "苗栗县南庄乡中正路", "image": "", "rank": 4, "time": 1.5, "location": {"lat": 24.572349230396185, "lng": 121.03144615421508}, "feature": {"sight_features": "", "sight_content": ""}}, {"title": "飞牛牧场", "address": "通霄镇南和里166号", "image": "", "rank": 5, "time": 2, "location": {"lat": 23.11445340143513, "lng": 113.10345971156157}, "feature": {"sight_features": "", "sight_content": ""}}, {"title": "泰安温泉", "address": "台湾苗栗县泰安乡虎山村汶水溪畔", "image": "", "rank": 6, "time": 1.5, "location": {"lat": 24.407828714726577, "lng": 121.08956548584351}, "feature": {"sight_features": "", "sight_content": ""}}, {"title": "双峰山", "address": "366台湾苗栗铜锣乡", "image": "", "rank": 7, "time": 2.0, "location": {"lat": 24.464129621976635, "lng": 120.80049105489601}, "feature": {"sight_features": "", "sight_content": ""}}, {"title": "客家大院", "address": "366台湾苗栗县铜锣乡龙泉15号", "image": "", "rank": 8, "time": 1.5, "location": {"lat": 24.464129621976635, "lng": 120.80049105489601}, "feature": {"sight_features": "", "sight_content": ""}}, {"title": "三义木雕博物馆", "address": "三义乡广盛村广声新城88号", "image": "", "rank": 9, "time": 2, "location": {"lat": 41.71534243057431, "lng": 122.31619920736445}, "feature": {"sight_features": "", "sight_content": ""}}, {"title": "西湖度假村", "address": "台湾苗栗县西湖", "image": "", "rank": 10, "time": 2, "location": {"lat": 24.086956718804895, "lng": 121.97387097871568}, "feature": {"sight_features": "特色1 欧式风格，宫廷花园，重现欧洲浪漫氛围", "sight_content": "景点介绍：\n位于苗栗县三义乡西湖村(中山高三义交流道旁)，由中部建筑业先进陈英声先生创办，在园区旁有一座天然湖泊「德兴池」，德兴池原名「拐子湖」，此处青蛙聚集栖息，夏日蛙鸣不绝于耳，因青蛙的客语发音为「拐子」而得名，民国四十八年改名德兴池，由于「德兴池」位在三义乡西湖村，面积大约10公顷，四周群山环绕，风景十分秀丽，景观媲美大陆杭州西湖，故当地居民人又称之为「西湖」，园区因此取名西湖渡假村。注：原艾丽斯游乐园因改建室内剧场停止营业开放，其他区域照常营业。"}}, {"title": "向天湖", "address": "353台湾苗栗县南庄乡", "image": "", "rank": 11, "time": 1.5, "location": {"lat": 24.572349230396185, "lng": 121.03144615421508}, "feature": {"sight_features": "", "sight_content": ""}}, {"title": "四月雪小径", "address": "367台湾苗栗县三义乡广盛村（木雕博物馆旁）", "image": "", "rank": 12, "time": 1.5, "location": {"lat": 24.38213738459467, "lng": 120.78563277095219}, "feature": {"sight_features": "", "sight_content": ""}}, {"title": "福田瓦舍", "address": "367台湾苗栗县三义乡龙腾村1邻龙腾26号", "image": "", "rank": 13, "time": 1.5, "location": {"lat": 24.38213738459467, "lng": 120.78563277095219}, "feature": {"sight_features": "", "sight_content": ""}}, {"title": "金良兴观光砖厂", "address": "台湾苗栗县苑里镇山脚里锦山71之17号", "image": "", "rank": 14, "time": 1.5, "location": {"lat": 24.41133513835126, "lng": 120.70392209690984}, "feature": {"sight_features": "", "sight_content": ""}}, {"title": "大安溪峡谷", "address": "423台湾苗栗县卓兰镇", "image": "", "rank": 15, "time": 2.0, "location": {"lat": 24.32982324393519, "lng": 120.84798687734654}, "feature": {"sight_features": "", "sight_content": ""}}, {"title": "蓬莱溪", "address": "苗栗县南庄乡蓬莱溪自然生态园区", "image": "", "rank": 16, "time": 1.5, "location": {"lat": 37.81643872596949, "lng": 120.76556151494698}, "feature": {"sight_features": "", "sight_content": ""}}, {"title": "蔺草文化馆", "address": "358台湾苗栗县苑里镇弯丽路99号", "image": "", "rank": 17, "time": 1.5, "location": {"lat": 24.41133513835126, "lng": 120.70392209690984}, "feature": {"sight_features": "", "sight_content": ""}}, {"title": "香格里拉乐园", "address": "造桥乡丰湖村1邻乳姑山15-3号", "image": "", "rank": 18, "time": 5.5, "location": {"lat": 23.960292932727484, "lng": 116.84180657524153}, "feature": {"sight_features": "", "sight_content": ""}}, {"title": "明德水库", "address": "明德村的明德水库", "image": "", "rank": 19, "time": 2, "location": {"lat": 31.21339099682913, "lng": 121.47288561253673}, "feature": {"sight_features": "", "sight_content": ""}}, {"title": "观雾国家森林游乐区", "address": "台湾苗栗县泰安乡观雾国家森林游乐区", "image": "", "rank": 20, "time": 2, "location": {"lat": 24.407828714726577, "lng": 121.08956548584351}, "feature": {"sight_features": "", "sight_content": ""}}, {"title": "后龙客家土楼", "address": "苗栗县后龙镇校椅里7邻新港三路295号", "image": "", "rank": 21, "time": 1.0, "location": {"lat": 30.44739905620817, "lng": 114.92754389376893}, "feature": {"sight_features": "", "sight_content": ""}}, {"title": "华陶窑", "address": "358台湾苗栗县苑里镇", "image": "", "rank": 22, "time": 1.5, "location": {"lat": 24.41133513835126, "lng": 120.70392209690984}, "feature": {"sight_features": "", "sight_content": ""}}, {"title": "通宵海水浴场", "address": "通霄镇火车站后方", "image": "", "rank": 23, "time": 2, "location": {"lat": 24.492513913981192, "lng": 120.72444285592208}, "feature": {"sight_features": "", "sight_content": ""}}, {"title": "火炎山", "address": "三义乡及苑里镇境内", "image": "", "rank": 24, "time": 2, "location": {"lat": 24.38213738459467, "lng": 120.78563277095219}, "feature": {"sight_features": "", "sight_content": ""}}, {"title": "竹美山阁温泉会馆", "address": "苗栗县泰安乡锦水村横龙山35之1号", "image": "", "rank": 25, "time": 2, "location": {"lat": 31.341272998050755, "lng": 117.56752677893607}, "feature": {"sight_features": "", "sight_content": ""}}, {"title": "马那邦山", "address": "大湖乡、卓兰镇和泰安乡交界", "image": "", "rank": 26, "time": 5.0, "location": {"lat": 24.40131965597503, "lng": 120.88629636175664}, "feature": {"sight_features": "", "sight_content": ""}}, {"title": "尚顺育乐世界", "address": "苗栗县头份市中央路105号", "image": "", "rank": 27, "time": 2, "location": {"lat": 50.59431779463141, "lng": 123.73490514302166}, "feature": {"sight_features": "特色1 5D奇境体感乐园", "sight_content": "特色景点：\n【尚顺育乐天地Shang Shun Theme Park】\n亚洲首创5D奇境体感乐园\n楼高6-18米，打造近万坪宽阔室内体感乐园，媲美环球影城、迪斯尼，带给您前所未有的震撼新体验。斥资45亿打造亚洲首创全台唯一全室内万坪5D奇境体感乐园-尚顺育乐天地，总共规划1楼至6楼，每楼层挑高6-10米。尚顺育乐天地率先改变大众娱乐模式，利用五感效果(视觉、听觉、嗅觉、触觉、位移)结合高科技新媒体游乐设备，以最先进的拟真技术，营造丰富活泼的感官刺激，在现实与虚拟世界中，带给您前所未有的震撼新体验！\n1F旋转木马 缓缓走入这梦幻般的场景，如同王子骑着白马，搭配美妙音乐环绕四周；这全世界最梦幻马车，让你不禁大喊这真的是太梦幻了。\n2F玩具幻想曲 小男孩乔依无意间在一个神秘的玩具店看到一个宝物，于是开心的买回家，原来那是一个具有魔法的石头，它可以使玩具在夜晚赋予生命活过来，于是乔依和玩具们在夜晚展开一系列的玩具幻想曲。\n3F魔法学校 跨越魔法封印之门，神秘的校长向你亲切问候，学习咒语与魔法进行巫师的考验，走过最深层的禁锢之地，原来每个人体内都有着不同属性的魔法，需透过特殊训练才会被激发，这奇幻、精彩且超乎想象的魔法学校，欢迎你来入学。\n4F勇闯侏罗纪 穿越时空隧道回到侏罗纪，震耳的吶喊、剧烈的摇晃，近在咫尺的巨型猛兽之间，彷佛将成为双方交战的受害者，随时都有令人胆战心惊的猛烈攻击，探险者能否顺利闪躲、逃脱困境、返回现实？！4F还有飙风碰碰车，银河历险以及奇幻欢乐区。\n5F钢铁机甲战队，略刺激的惊吓高楼（自由落体），360°翱翔热气球（搭乘热气球遨翔全世界，世界著名景点就在你脚边，途中连绵不绝的山河、海洋、草原等景色，伴随迎面而来的风、水雾与阵阵花香，让你沉浸在这段美好的热气球之旅。），夯鱼咖啡杯以及飙风竞速区。6F有攀岩走避动能特区，抢救亚宝大作战以及进击的巨人（飞行剧院）。"}}, {"title": "雪见游憩区", "address": "苗栗县泰安乡", "image": "", "rank": 28, "time": 2, "location": {"lat": 24.407828714726577, "lng": 121.08956548584351}, "feature": {"sight_features": "", "sight_content": ""}}, {"title": "雪霸国家森林游乐区", "address": "大湖乡富兴村水尾坪一百号", "image": "", "rank": 29, "time": 2, "location": {"lat": 24.40131965597503, "lng": 120.88629636175664}, "feature": {"sight_features": "", "sight_content": ""}}, {"title": "火炎山温泉游乐区", "address": "苑里镇火炎山温泉一号", "image": "", "rank": 30, "time": 2, "location": {"lat": 44.97485663870472, "lng": 81.03114554648644}, "feature": {"sight_features": "", "sight_content": ""}}, {"title": "塭子头红树林生态保护区", "address": "港乾里塭仔头中港溪出海口处", "image": "", "rank": 31, "time": 2, "location": {"lat": 38.85897055453716, "lng": 117.4081055951147}, "feature": {"sight_features": "", "sight_content": ""}}, {"title": "清海宫", "address": "後龍鎮南港里14鄰114-1號", "image": "", "rank": 32, "time": 2, "location": {"lat": 27.86387114886538, "lng": 114.66494911009164}, "feature": {"sight_features": "", "sight_content": ""}}, {"title": "吴浊流艺文馆", "address": "中国,苗栗县,西湖乡五湖村14邻194之4号,368", "image": "", "rank": 33, "time": 2, "location": {"lat": 32.48619710022784, "lng": 119.37335901185025}, "feature": {"sight_features": "", "sight_content": ""}}, {"title": "圳头窑艺术空间", "address": "苗栗县No. 25-25, Zuntou, Tongxiao Township 357", "image": "", "rank": 34, "time": 2, "location": {"lat": 39.86728660445166, "lng": 116.39426070596912}, "feature": {"sight_features": "", "sight_content": ""}}, {"title": "明德薰衣草森林", "address": "台湾苗栗县头屋乡明德村仁隆66-2号", "image": "", "rank": 35, "time": 2, "location": {"lat": 24.574099050714697, "lng": 120.89506015305481}, "feature": {"sight_features": "", "sight_content": ""}}, {"title": "大湖", "address": "苗栗县大湖乡", "image": "", "rank": 36, "time": 1.5, "location": {"lat": 24.40131965597503, "lng": 120.88629636175664}, "feature": {"sight_features": "", "sight_content": ""}}, {"title": "泰安汤悦温泉会馆", "address": "苗栗县泰安乡锦水村横龙山45号", "image": "", "rank": 37, "time": 1.5, "location": {"lat": 31.341272998050755, "lng": 117.56752677893607}, "feature": {"sight_features": "特色1 淙淙溪水，泉雾与山岚缭绕，坐拥绝佳美景 特色2 著名偶像剧拜犬女王拍摄场景 特色3 48度美肌之泉，得天独厚，素有美人汤之称", "sight_content": "汤悦与泰安的相遇\n在朴实的原乡部落里，细细体会人情与美味。\n温泉烘暖了每一颗来自凡间俗尘的心窝，\n在汶水溪畔，幸福有了更深一层的体会与诠释。\n隐身在苗栗泰安的温泉乡中，一年365天、一天24小时，\n绽放不同的意境……「山、风、雨、岚、露、霜」气氛变化万千坐拥绝佳美景，\n远看山起云涌、淙淙溪水，近观袅袅泉雾与山岚缭绕。\n\n\n一番汤\n大地的恩赐，48度美肌之泉\n得天独厚，全馆源泉提供\n\n\n\n\n\n\n▼日式和服体验，泡汤之余享受浓浓日式风情\n\n\n▼可不限时间免费使用日式陶缸\n\n\n\n\n▼现场提供多种spa池"}}, {"title": "苗栗铁道博物馆", "address": "铁路一村1号", "image": "", "rank": 38, "time": 2.0, "location": {"lat": 29.508266510366617, "lng": 106.53676824548371}, "feature": {"sight_features": "", "sight_content": ""}}, {"title": "石壁温泉山庄", "address": "苗栗县大湖乡法云寺5-3号", "image": "", "rank": 39, "time": 2, "location": {"lat": 39.8946289288598, "lng": 119.50621431397745}, "feature": {"sight_features": "", "sight_content": ""}}, {"title": "抗日战争胜利暨台湾光复纪念碑", "address": "中山堂前", "image": "", "rank": 40, "time": 2, "location": {"lat": 34.26933726186867, "lng": 117.19789166028337}, "feature": {"sight_features": "", "sight_content": ""}}, {"title": "胜兴车站", "address": "苗栗县三义乡胜兴村14邻胜兴89号", "image": "", "rank": 41, "time": 2, "location": {"lat": 26.780146538900357, "lng": 99.41512940341835}, "feature": {"sight_features": "", "sight_content": ""}}, {"title": "石汤温泉", "address": "苗栗县大湖乡大寮村竹高屋2-3号", "image": "", "rank": 42, "time": 2, "location": {"lat": 24.40131965597503, "lng": 120.88629636175664}, "feature": {"sight_features": "", "sight_content": ""}}, {"title": "汤神温泉会馆", "address": "苗栗县大湖乡大寮村大窝1-10号", "image": "", "rank": 43, "time": 2, "location": {"lat": 24.91640508970692, "lng": 115.88178182760187}, "feature": {"sight_features": "", "sight_content": ""}}, {"title": "友泰民宿温泉馆", "address": "苗栗县泰安乡锦水村6邻圆墩46-2号", "image": "", "rank": 44, "time": 2, "location": {"lat": 25.512572703935017, "lng": 113.41232083141135}, "feature": {"sight_features": "", "sight_content": ""}}, {"title": "Dapunei Marble Soda Museum", "address": "中国,苗栗县,No. 11, Minsheng Rd., Tongluo Township,", "image": "", "rank": 45, "time": 2, "location": {"lat": 39.910924547299565, "lng": 116.4133836971231}, "feature": {"sight_features": "", "sight_content": ""}}, {"title": "Taiwan Art Museum", "address": "中国,苗栗县,No. 88, Guangsheng Xincheng, Guangsheng Vil., Sanyi Township,", "image": "", "rank": 46, "time": 1.5, "location": {"lat": 39.910924547299565, "lng": 116.4133836971231}, "feature": {"sight_features": "", "sight_content": ""}}, {"title": "苗栗大湖山顶果园农场", "address": "苗栗县大湖乡武荣村5邻31号 364", "image": "", "rank": 47, "time": 1.5, "location": {"lat": 24.40131965597503, "lng": 120.88629636175664}, "feature": {"sight_features": "", "sight_content": ""}}, {"title": "台湾水牛城", "address": "苗栗县后龙镇龙坑里17邻十班坑181-11号 356", "image": "", "rank": 48, "time": 2, "location": {"lat": 28.46105548747647, "lng": 118.70359036090794}, "feature": {"sight_features": "", "sight_content": ""}}]}