{"cityName": "弥勒", "days": 2, "cityImage": "", "spots": [{"title": "云南红酒庄", "address": "红河哈尼族彝族自治州弥勒市新哨镇里阿路东风农场", "image": "", "rank": 1, "time": 1.5, "location": {"lat": 24.31098701087295, "lng": 103.40510684507908}, "feature": {"sight_features": "特色1 品味田园风光，邂逅红色浪", "sight_content": ""}}, {"title": "可邑小镇", "address": "红河哈尼族彝族自治州弥勒县城22公里（西三镇可邑村）", "image": "", "rank": 2, "time": 2.0, "location": {"lat": 24.51957602089785, "lng": 103.37333564049067}, "feature": {"sight_features": "特色1 感受原汁原味的彝族生态文化 特色2 观可邑古村以及“美丽家园”的新村。 特色3 品尝“彝家八大碗”。", "sight_content": "﻿阿细人为何聚居弥勒西山上？阿细人能歌善舞的天性与民族习俗有何关系？“阿细跳月”和“阿细的先基”是什么？阿细跳月从何而来，为何能在全世界知名？阿细人神秘的祭祀活动又有哪些?弥勒可邑小镇景区等你来。\n密枝山景区：原始森林，天然氧吧。这里是阿细人崇敬的树林，这里会每年举行祭祀活动，同时，这也是阿细青年对歌跳舞的首选佳地，还能遇到阿细老人为您讲述阿细人的远古故事和民俗风情。 呼啸山林：巨大威猛石虎、傲视远方、守卫山寨，宽大的基座四周雕刻着虎的图腾传说。千百年来，阿细人一直忠实的崇虎畏虎敬虎奉虎。\n古村景区：可邑古村已有360年的历史，彝族传统民居、民族文化和古朴的民风民俗，在陈列室观看反映阿细民族 故事的微电影；在阿细跳月广场体验观看节奏明快、热情奔放的《阿细跳月》大型歌舞表演；在非遗传承四合院领略浓缩着阿细文化精华的《阿细的先基》演出，感受古朴的阿细民族文化。您能在博物馆中参观丰富多彩的阿细先民生产生活器具和民俗娱乐用品，感悟古老纯朴的民族风情。"}}, {"title": "锦屏山风景区", "address": "红河州弥勒市西三镇锦屏山风景区", "image": "", "rank": 3, "time": 2.0, "location": {"lat": 24.476702458939997, "lng": 103.43593804571435}, "feature": {"sight_features": "特色1 拥有大佛、大运、大雄、大智四院 特色2 花木似锦，山峰连列如屏，世称锦屏。 特色3 因山头平而方，俗名平顶山。 特色4 古木苍郁，远观宛然横铺“一”字。", "sight_content": "锦屏山风景区坐落在弥勒城北10公里处风景如画的锦屏山上。弥勒市与笑佛弥勒同名，世人都称赞弥勒是块吉祥的福地，素有滇南福地之称。山中绿荫环抱，幽静宜人，山腰红墙黄瓦处便是弥勒寺。弥勒寺初建于宋朝，明代重建，清朝乾隆年间重修，1999年扩建。数百年来香火不断，是滇东南的佛教胜地。\n市名弥勒、寺名弥勒、佛名弥勒、山似弥勒。弥勒寺拥有宏阔的三大院：大雄院、大智院、大运院；并于各个院中供奉着绝致的五大弥勒佛相：弥勒强巴相、弥勒思维相、弥勒仙光相、弥勒布袋相、弥勒天冠相，是闻名遐迩的“弥勒道场”之一。经过中国宗教领袖、中国佛教协会会长赵朴初先生亲笔题词“弥勒寺”大门，途中有赵朴初先生题词的“弥勒大佛”四字坐于山腰，延1999级台阶绵长而上山顶，是国学大师南怀瑾先生亲笔题词的“弥勒大佛”于1999年12月落成，高度为19.99米，是世界最大的弥勒笑佛。弥勒大佛19.99米高（由中国国学家、佛学家南怀瑾居士题字\n锦屏山呈大丛林之恢弘，显百年古树、潺潺清泉之灵秀，更有佛教文化、儒家文化、民族文化的和谐共处和同放光彩，遂成“旅游胜地”之大观。登临仙山佛境，既心智顿开、思接地广，又烦恼顿消、心旷神怡。"}}, {"title": "天池都温泉度假村", "address": "弥勒市温泉路温泉小区西侧（艺丰西秀园小区斜对面）", "image": "", "rank": 4, "time": 2, "location": {"lat": 24.411969550819137, "lng": 103.43220986764568}, "feature": {"sight_features": "特色1 属“重碳酸钙”型天然温泉水", "sight_content": "弥勒市甲玉泉天池都温泉度假村前身是弥勒县甲玉泉温泉度假村，甲玉泉温泉旅游度假村建成于2003年，位于红河州弥勒县城郊西部的温泉村内，是弥勒第一家集旅游、娱乐、餐饮、住宿、KTV、棋牌室、会议为一体的一条龙服务休闲娱乐场所。甲玉泉于2013年10月重新投资改造，项目总投资1300万元，占地16亩，于2014年1月1日起试营业，改造后更名为“天池都温泉度假村”。天池都温泉度假村，是集酒店住宿、温泉沐浴、休闲养生、生态旅游、商务洽谈、会议接待于一体的温泉旅游度假景区。\n天池都度假村中小桥流水，酒店门口露天温泉是最大的特色，在享受了药物泡浴后，你可以到度假村的游泳池和大泡池尽情的畅游，此时让肌肤得到充分的缓解。园中的温泉水质经云南省地质矿产局检测，天池都温泉度假村温泉水属“重碳酸钙”型天然温泉水。水质清澈透明、软滑柔顺，含有硫、钴、硼、锰、碘、锂、锶、铁、锌、铜等多种对人体有益的矿物质微量元素，各项指标均符合国家标准。"}}, {"title": "湖泉温泉水世界", "address": "红河哈尼族彝族自治州弥勒市弥阳镇熙和小镇A区对面（弥勒国际温泉度假区）", "image": "", "rank": 5, "time": 2, "location": {"lat": 24.403967678228465, "lng": 103.4018188753373}, "feature": {"sight_features": "", "sight_content": "湖泉温泉水世界拥有儿童游乐区梦幻儿童岛、超级大喇叭、大水环、霹雳旋风球、大型亲子互动水寨巨型水寨等众多亲水游乐项目。更有星光熠熠夏浪音乐节、异域风情歌舞、互动主题游戏等精彩呈现，带来前所未有的超凡感官体验。"}}, {"title": "鑫甲玉泉温泉度假村", "address": "红河州弥勒县梅花温泉(温泉小学旁)鑫甲玉泉温泉度假村", "image": "", "rank": 6, "time": 2, "location": {"lat": 24.40777208364281, "lng": 103.406083940965}, "feature": {"sight_features": "特色1 属低化碳酸泉", "sight_content": "鑫甲玉泉温泉旅游度假村位于弥勒梅花寨梅花温泉小学旁，属大型温泉度假村，占地面积30余亩。\n温泉平均自然出水量26升/秒，水温58-42℃，属低化碳酸泉，水温适中。\n泡池分为小泡池、大泡池、室内和露天泡池、木桶浴等。"}}, {"title": "湖泉半山温泉", "address": "红河哈尼族彝族自治州弥勒市温泉路湖泉生态园内", "image": "", "rank": 7, "time": 2, "location": {"lat": 24.4134581249317, "lng": 103.42085505064726}, "feature": {"sight_features": "特色1 “山中有景，景中有池”", "sight_content": "“山中有景，景中有池”是湖泉半山温泉的一大特色，12个风格迥异的温泉特色泡池错落有致地镶嵌在湖泉温泉诗情画意的半山园林里：小溪潺潺，蜿蜒曲折；玫瑰、茉莉、玉兰、腊梅四季芬芳；湖景茶吧、写意餐厅、贴心理疗……露天园林温泉美轮美奂，是一个让人洗却尘嚣、涤荡身心的世外桃源。湖泉温泉除了四个大泡池区外，还有牛奶、红酒、茉莉、苹果、人参等多种功效的特色小泡池，以及大型温泉游泳池。\n地热资源丰富，出水口水温50℃左右；经云南省地质矿产局检测，湖泉半山温泉是“重碳酸钙”型的天然温泉，纯正、未加稀释的天然温泉水，决不循环使用，水质清澈透明、轻滑柔顺，含有硫、钴、硼、锰、碘、锂、铁、锌、铜等多种对人体有益的矿物质微量元素，各项指标均符合国家标准；\n温泉水对人体皮肤有消炎、脱敏的作用，能扩展毛细血管，促进血液循环、调节人体机能、增强新陈代谢和抗病能力，具有较强的润肤保健功效。\n湖泉温泉拥有配套设施，注重细节体现品牌附加值，还设有干/湿蒸气浴、足疗按摩、保健推拿、身体护理等服务。温泉环境优美、处处鸟语花香，设施典雅，设有干、湿蒸气浴、保健推拿、足疗按摩、修脚、采耳、美容美体等理疗服务；同时建有舒适优雅的影视休息区。"}}, {"title": "太平湖森林公园", "address": "红河州弥勒市弥勒太平水库旁", "image": "", "rank": 8, "time": 1.5, "location": {"lat": 24.43773196236563, "lng": 103.54047359377414}, "feature": {"sight_features": "", "sight_content": ""}}, {"title": "弥勒湖泉湾1号水疗", "address": "红河弥勒县生态园东岸湖泉湾1号独立商业体2-3F", "image": "", "rank": 9, "time": 2, "location": {"lat": 24.405522656575915, "lng": 103.4231343391831}, "feature": {"sight_features": "", "sight_content": ""}}, {"title": "弥勒寺", "address": "红河哈尼族彝族自治州弥勒市弥勒寺", "image": "", "rank": 10, "time": 1.0, "location": {"lat": 24.479226651928364, "lng": 103.43767713014716}, "feature": {"sight_features": "", "sight_content": ""}}, {"title": "鼎星温泉", "address": "红河州弥勒市环湖路火龙宫旁鼎星温泉检票处", "image": "", "rank": 11, "time": 2, "location": {"lat": 24.40798827814143, "lng": 103.40722999284613}, "feature": {"sight_features": "", "sight_content": ""}}, {"title": "锦屏后海", "address": "红河哈尼族彝族自治州弥勒市锦屏山风景区北部后山低谷", "image": "", "rank": 12, "time": 1.5, "location": {"lat": 24.476702458939997, "lng": 103.43593804571435}, "feature": {"sight_features": "", "sight_content": ""}}, {"title": "湖泉公园", "address": "红河哈尼族彝族自治州弥勒市 008乡道", "image": "", "rank": 13, "time": 2, "location": {"lat": 24.41798222535674, "lng": 103.42148906299802}, "feature": {"sight_features": "", "sight_content": ""}}, {"title": "碧苑温泉会所", "address": "红河哈尼族彝族自治州弥勒县弥勒梅花温泉", "image": "", "rank": 14, "time": 2, "location": {"lat": 24.411824537775157, "lng": 103.41100399797035}, "feature": {"sight_features": "", "sight_content": ""}}, {"title": "弥勒县茂升水疗会所", "address": "红河州弥勒县大梅花村湖泉生态园旁", "image": "", "rank": 15, "time": 2, "location": {"lat": 24.4134581249317, "lng": 103.42085505064726}, "feature": {"sight_features": "", "sight_content": ""}}, {"title": "晨丰农庄", "address": "丫普龙村", "image": "", "rank": 16, "time": 2, "location": {"lat": 24.427197887078627, "lng": 103.47162041679697}, "feature": {"sight_features": "", "sight_content": ""}}, {"title": "热浪温泉", "address": "梅花温泉生态园西门入口旁", "image": "", "rank": 17, "time": 2, "location": {"lat": 29.831361157892797, "lng": 106.44278612439919}, "feature": {"sight_features": "", "sight_content": ""}}, {"title": "庆来公园", "address": "云南省红河哈尼族彝族自治州弥勒市 西山路", "image": "", "rank": 18, "time": 2, "location": {"lat": 24.416889176463144, "lng": 103.4375138173072}, "feature": {"sight_features": "", "sight_content": ""}}, {"title": "烂泥菁天主教堂", "address": "云南省弥勒县油乍乡烂泥菁村", "image": "", "rank": 19, "time": 2, "location": {"lat": 24.226171661176153, "lng": 103.38976556170111}, "feature": {"sight_features": "", "sight_content": ""}}, {"title": "玉皇阁", "address": "弥勒县城西", "image": "", "rank": 20, "time": 1.0, "location": {"lat": 24.226171661176153, "lng": 103.38976556170111}, "feature": {"sight_features": "", "sight_content": ""}}, {"title": "庆来学校", "address": "云南省红河哈尼族彝族自治州弥勒市玉大段 ‎", "image": "", "rank": 21, "time": 2, "location": {"lat": 24.429265829898437, "lng": 103.41351327786923}, "feature": {"sight_features": "", "sight_content": ""}}, {"title": "弥阳文昌宫", "address": "云南省弥勒县弥阳镇", "image": "", "rank": 22, "time": 2, "location": {"lat": 24.408171054992895, "lng": 103.51125074447594}, "feature": {"sight_features": "", "sight_content": ""}}, {"title": "虹溪石牌坊", "address": "云南省弥勒县虹溪镇东门街", "image": "", "rank": 23, "time": 2, "location": {"lat": 24.147740283554292, "lng": 103.3401954829835}, "feature": {"sight_features": "", "sight_content": ""}}, {"title": "金子洞坡崖画", "address": "云南省弥勒县卫泸乡小安村", "image": "", "rank": 24, "time": 2, "location": {"lat": 24.386498901117083, "lng": 103.55192404617371}, "feature": {"sight_features": "", "sight_content": ""}}, {"title": "红河谷温泉", "address": "红河哈尼族彝族自治州弥勒市瓦草村雨补水库", "image": "", "rank": 25, "time": 2, "location": {"lat": 24.488935515412546, "lng": 103.510085498501}, "feature": {"sight_features": "", "sight_content": "‍含硒温泉，全国稀有，弥勒红河谷温泉是其中一家，弥勒红河谷温泉水资源丰富，常年水温68度左右，经国家权威部门鉴定，属国内罕见的优质碳酸泉，水质透明、无色无味，可浴可饮，有很强的医疗保健价值‍\n红河谷温泉山庄是在一片密林中，环境优美，空气清新。泡在温泉中，可以看着绽放在了绿叶从中的蓝色小花，闻着山野干净的微微泛甜的空气。"}}, {"title": "徐李坡山庄", "address": "009乡道", "image": "", "rank": 26, "time": 2, "location": {"lat": 42.90771946413277, "lng": 128.411195027392}, "feature": {"sight_features": "", "sight_content": ""}}, {"title": "清逸温泉", "address": "湖泉片区温泉小学前30米", "image": "", "rank": 27, "time": 2, "location": {"lat": 40.62208776641399, "lng": 120.75294695561969}, "feature": {"sight_features": "", "sight_content": ""}}, {"title": "梨花温泉", "address": "红河弥勒市上清路", "image": "", "rank": 28, "time": 2, "location": {"lat": 24.420998322553814, "lng": 103.42882106311043}, "feature": {"sight_features": "", "sight_content": ""}}, {"title": "湖泉高尔夫球会", "address": "弥阳镇湖泉高尔夫球会", "image": "", "rank": 29, "time": 2, "location": {"lat": 30.089017898955042, "lng": 119.98682127682206}, "feature": {"sight_features": "", "sight_content": ""}}, {"title": "弥勒东勇室外温泉", "address": "008乡道温泉花园旁", "image": "", "rank": 30, "time": 2, "location": {"lat": 38.10137659028028, "lng": 115.2680182000923}, "feature": {"sight_features": "", "sight_content": ""}}, {"title": "孙髯翁墓", "address": "云南省弥勒市西大街 652300", "image": "", "rank": 31, "time": 2, "location": {"lat": 24.41798222535674, "lng": 103.42148906299802}, "feature": {"sight_features": "", "sight_content": ""}}, {"title": "绿崖庙", "address": "云南省弥勒县弥东乡弥寺哨村", "image": "", "rank": 32, "time": 2, "location": {"lat": 24.41258875949553, "lng": 103.4590047938801}, "feature": {"sight_features": "", "sight_content": ""}}, {"title": "渡口审结碑", "address": "云南省弥勒县江边乡江边村", "image": "", "rank": 33, "time": 2, "location": {"lat": 24.02447478955888, "lng": 103.61538622588886}, "feature": {"sight_features": "", "sight_content": ""}}, {"title": "竹元魁星阁", "address": "云南省弥勒县竹元镇西隅", "image": "", "rank": 34, "time": 2, "location": {"lat": 24.226171661176153, "lng": 103.38976556170111}, "feature": {"sight_features": "", "sight_content": ""}}, {"title": "竹元文昌宫", "address": "云南省弥勒县竹元镇北文笔山", "image": "", "rank": 35, "time": 2, "location": {"lat": 24.522963454260932, "lng": 103.76472085181841}, "feature": {"sight_features": "", "sight_content": ""}}, {"title": "湖泉高尔夫练习场", "address": "印云湖东路网球场旁", "image": "", "rank": 36, "time": 2, "location": {"lat": 31.22931857729048, "lng": 119.58428127225415}, "feature": {"sight_features": "", "sight_content": ""}}, {"title": "第一佛手", "address": "红河哈尼族彝族自治州弥勒县", "image": "", "rank": 37, "time": 2, "location": {"lat": 24.226171661176153, "lng": 103.38976556170111}, "feature": {"sight_features": "", "sight_content": ""}}, {"title": "小火车头游乐场", "address": "冉翁路小火车头", "image": "", "rank": 38, "time": 2, "location": {"lat": 36.543664251154034, "lng": 110.13820304951304}, "feature": {"sight_features": "", "sight_content": ""}}, {"title": "青岛扎啤文化广场", "address": "福地半岛12-12", "image": "", "rank": 39, "time": null, "location": {"lat": 24.407714895109173, "lng": 103.43075623775466}, "feature": {"sight_features": "", "sight_content": ""}}, {"title": "小凹革村关帝庙寺", "address": "弥舞段附近", "image": "", "rank": 40, "time": 2, "location": {"lat": 24.450470618153368, "lng": 103.47969593629499}, "feature": {"sight_features": "", "sight_content": ""}}, {"title": "甘思咪哚度假村", "address": "小龙潭附近", "image": "", "rank": 41, "time": 2, "location": {"lat": 40.67513630014989, "lng": 116.5403889049895}, "feature": {"sight_features": "", "sight_content": ""}}, {"title": "彝乐山庄", "address": "石新汽专西50米", "image": "", "rank": 42, "time": 2, "location": {"lat": 24.49921161122637, "lng": 103.42488030643273}, "feature": {"sight_features": "", "sight_content": ""}}, {"title": "中小学校舍安全工程档案室", "address": "莲花路", "image": "", "rank": 43, "time": 2, "location": {"lat": 39.03798524732176, "lng": 111.1085791182851}, "feature": {"sight_features": "", "sight_content": ""}}, {"title": "玫瑰温泉", "address": "鱼度孔村(湖泉生态园旁)", "image": "", "rank": 44, "time": 2, "location": {"lat": 24.411675020724783, "lng": 103.40908106004379}, "feature": {"sight_features": "", "sight_content": ""}}, {"title": "腊玛古猿化石产地", "address": "北小龙潭煤矿", "image": "", "rank": 45, "time": 2.0, "location": {"lat": 43.91634255363016, "lng": 126.56854459242203}, "feature": {"sight_features": "", "sight_content": ""}}, {"title": "鸿福来温泉", "address": "翁庆路附近", "image": "", "rank": 46, "time": 2, "location": {"lat": 23.100931760317003, "lng": 113.27528273950196}, "feature": {"sight_features": "", "sight_content": ""}}, {"title": "润禾农业种子", "address": "竹园镇竹园镇莲花市场后大门", "image": "", "rank": 47, "time": 2, "location": {"lat": 43.879589641266186, "lng": 126.57006130402135}, "feature": {"sight_features": "", "sight_content": ""}}, {"title": "佰草庄园", "address": "弥阳镇冉翁路94号金方购物广场", "image": "", "rank": 48, "time": 2, "location": {"lat": 24.413818187587733, "lng": 103.44338651742423}, "feature": {"sight_features": "", "sight_content": ""}}, {"title": "胡胡寺", "address": "红河哈尼族彝族自治州-弥勒市-虹溪镇胡胡寺", "image": "", "rank": 49, "time": 2, "location": {"lat": 24.142461807543334, "lng": 103.34695003255156}, "feature": {"sight_features": "", "sight_content": ""}}, {"title": "旧寨子后山", "address": "红河哈尼族彝族自治州-弥勒市", "image": "", "rank": 50, "time": 2, "location": {"lat": 24.41798222535674, "lng": 103.42148906299802}, "feature": {"sight_features": "", "sight_content": ""}}, {"title": "九龙温泉", "address": "红河哈尼彝族自治州弥勒市温泉路温泉小学旁", "image": "", "rank": 51, "time": 0.7, "location": {"lat": 24.411049743633445, "lng": 103.40872278885736}, "feature": {"sight_features": "", "sight_content": "九龙温泉位于弥勒梅花寨梅花温泉小学旁。温泉池边绿树巧石相映，泉水清澈透明。景区分室内室外两个温泉区域，室内有大型游泳池、红酒养生温泉池、绿茶养生温泉池、小型儿童乐园、私人房间包池，汗蒸和湿蒸。室外有特色露天温泉泡池4个、鱼疗池1个、露天包池5个。为保证水质，温泉水每日一换。"}}, {"title": "超级大喇叭", "address": "云南省红河哈尼族彝族自治州弥勒市弥阳镇熙和小镇A区对面", "image": "", "rank": 52, "time": 0.1, "location": {"lat": 24.403967678228465, "lng": 103.4018188753373}, "feature": {"sight_features": "", "sight_content": ""}}]}