{"cityName": "米林", "days": null, "cityImage": "", "spots": [{"title": "南伊沟", "address": "林芝地区米林县南伊沟风景区", "image": "", "rank": 1, "time": 2.5, "location": {"lat": 29.191044584508273, "lng": 94.20258556139954}, "feature": {"sight_features": "", "sight_content": ""}}, {"title": "佛掌沙丘", "address": "林芝市米林县丹娘乡雅鲁藏布江畔", "image": "", "rank": 2, "time": 1.0, "location": {"lat": 29.427026484337055, "lng": 94.75491639172559}, "feature": {"sight_features": "", "sight_content": ""}}, {"title": "直白村", "address": "林芝市米林县派镇", "image": "", "rank": 3, "time": 1.0, "location": {"lat": 29.631560914530127, "lng": 94.92978794607414}, "feature": {"sight_features": "", "sight_content": ""}}, {"title": "大渡卡遗址", "address": "林芝市米林县派镇，雅鲁藏布大峡谷景区内的直白村附近", "image": "", "rank": 4, "time": 0.4, "location": {"lat": 29.631560914530127, "lng": 94.92978794607414}, "feature": {"sight_features": "", "sight_content": ""}}, {"title": "江河汇流", "address": "林芝市米林县境内羌纳村附近", "image": "", "rank": 5, "time": 0.25, "location": {"lat": 29.220916541197315, "lng": 94.21993857808282}, "feature": {"sight_features": "", "sight_content": ""}}, {"title": "索松村", "address": "林芝市米林县境内", "image": "", "rank": 6, "time": 2.0, "location": {"lat": 29.220916541197315, "lng": 94.21993857808282}, "feature": {"sight_features": "", "sight_content": ""}}, {"title": "南伊珞巴民族乡", "address": "林芝市米林县南伊珞巴民族乡", "image": "", "rank": 7, "time": 1.5, "location": {"lat": 29.028731619531428, "lng": 94.24544865704843}, "feature": {"sight_features": "", "sight_content": ""}}, {"title": "格嘎温泉", "address": "林芝市米林县格嘎村", "image": "", "rank": 8, "time": 2, "location": {"lat": 29.220916541197315, "lng": 94.21993857808282}, "feature": {"sight_features": "", "sight_content": ""}}, {"title": "羌纳寺", "address": "林芝市米林县", "image": "", "rank": 9, "time": 0.5, "location": {"lat": 29.220916541197315, "lng": 94.21993857808282}, "feature": {"sight_features": "", "sight_content": ""}}, {"title": "格嘎大桥", "address": "林芝市米林县派镇雅鲁藏布大峡谷内", "image": "", "rank": 10, "time": 0.25, "location": {"lat": 29.631560914530127, "lng": 94.92978794607414}, "feature": {"sight_features": "", "sight_content": ""}}, {"title": "玉松村", "address": "林芝市米林县玉松村", "image": "", "rank": 11, "time": 0.75, "location": {"lat": 29.220916541197315, "lng": 94.21993857808282}, "feature": {"sight_features": "", "sight_content": ""}}, {"title": "工尊德姆庙", "address": "林芝市米林县玉松村", "image": "", "rank": 12, "time": 0.25, "location": {"lat": 29.220916541197315, "lng": 94.21993857808282}, "feature": {"sight_features": "", "sight_content": ""}}, {"title": "加拉村", "address": "林芝市米林县派镇加拉村", "image": "", "rank": 13, "time": 4.5, "location": {"lat": 29.631560914530127, "lng": 94.92978794607414}, "feature": {"sight_features": "", "sight_content": ""}}, {"title": "格嘎村", "address": "林芝市米林县派镇格嘎村", "image": "", "rank": 14, "time": 1.5, "location": {"lat": 29.631560914530127, "lng": 94.92978794607414}, "feature": {"sight_features": "", "sight_content": ""}}, {"title": "夏拉村", "address": "林芝市米林县夏拉村", "image": "", "rank": 15, "time": 0.75, "location": {"lat": 29.220916541197315, "lng": 94.21993857808282}, "feature": {"sight_features": "", "sight_content": ""}}, {"title": "扎贡沟风景区", "address": "林芝市米林县南部的南伊珞巴民族乡扎贡沟内，距离县城7公里", "image": "", "rank": 16, "time": 2.5, "location": {"lat": 29.028731619531428, "lng": 94.24544865704843}, "feature": {"sight_features": "", "sight_content": ""}}, {"title": "魔鬼头", "address": "林芝市米林县派镇索松村与达林村之间", "image": "", "rank": 17, "time": 1.0, "location": {"lat": 29.631560914530127, "lng": 94.92978794607414}, "feature": {"sight_features": "", "sight_content": ""}}, {"title": "派镇", "address": "林芝市米林县派镇", "image": "", "rank": 18, "time": 7.5, "location": {"lat": 29.631560914530127, "lng": 94.92978794607414}, "feature": {"sight_features": "", "sight_content": ""}}, {"title": "丹娘佛掌沙", "address": "林芝市米林县丹娘乡", "image": "", "rank": 19, "time": 1.0, "location": {"lat": 29.427026484337055, "lng": 94.75491639172559}, "feature": {"sight_features": "", "sight_content": ""}}, {"title": "厦门社区文化广场", "address": "西藏自治区林芝市米林县福州东路9-7号附近", "image": "", "rank": 20, "time": 7.5, "location": {"lat": 29.220916541197315, "lng": 94.21993857808282}, "feature": {"sight_features": "", "sight_content": ""}}, {"title": "琼林村", "address": "西藏自治区林芝地区米林县", "image": "", "rank": 21, "time": 2, "location": {"lat": 29.24840996283631, "lng": 94.01821349174475}, "feature": {"sight_features": "", "sight_content": ""}}, {"title": "那木拉错", "address": "林芝市米林县", "image": "", "rank": 22, "time": 0.75, "location": {"lat": 29.220916541197315, "lng": 94.21993857808282}, "feature": {"sight_features": "", "sight_content": ""}}, {"title": "玉松寺", "address": "林芝市米林县派镇玉松村", "image": "", "rank": 23, "time": 1.0, "location": {"lat": 29.631560914530127, "lng": 94.92978794607414}, "feature": {"sight_features": "", "sight_content": ""}}, {"title": "松林口", "address": "林芝市米林县派镇东南方向", "image": "", "rank": 24, "time": 2, "location": {"lat": 29.631560914530127, "lng": 94.92978794607414}, "feature": {"sight_features": "", "sight_content": ""}}, {"title": "古茹寺", "address": "林芝市米林县派镇吞百村", "image": "", "rank": 25, "time": 1.0, "location": {"lat": 29.631560914530127, "lng": 94.92978794607414}, "feature": {"sight_features": "", "sight_content": ""}}, {"title": "娜拉措", "address": "林芝市米林县（南迦巴瓦峰西南侧）", "image": "", "rank": 26, "time": 3.0, "location": {"lat": 29.220916541197315, "lng": 94.21993857808282}, "feature": {"sight_features": "", "sight_content": ""}}, {"title": "洞不弄", "address": "林芝市米林县派镇达林村北侧", "image": "", "rank": 27, "time": null, "location": {"lat": 29.631560914530127, "lng": 94.92978794607414}, "feature": {"sight_features": "", "sight_content": ""}}, {"title": "米林丹娘石碑", "address": "西藏自治区米林县丹娘乡 860500", "image": "", "rank": 28, "time": 2.0, "location": {"lat": 29.444317031032966, "lng": 94.71843612412994}, "feature": {"sight_features": "", "sight_content": ""}}, {"title": "豫林鲁朗石锅王", "address": "林邛路与福州南路交叉口西50米", "image": "", "rank": 29, "time": 2, "location": {"lat": 29.220046016597557, "lng": 94.22098301005144}, "feature": {"sight_features": "", "sight_content": ""}}, {"title": "米林县厦门文化广场", "address": "福州东路9-7号附近", "image": "", "rank": 30, "time": 2, "location": {"lat": 28.68961248499552, "lng": 115.93000877372029}, "feature": {"sight_features": "", "sight_content": ""}}, {"title": "机场农家乐", "address": "306省道北50米(米林县多卡完全小学东350米)", "image": "", "rank": 31, "time": 2, "location": {"lat": 29.323080710656654, "lng": 94.34853371838817}, "feature": {"sight_features": "", "sight_content": ""}}, {"title": "雅尼国家湿地公园", "address": "林芝市米林县", "image": "", "rank": 32, "time": 2, "location": {"lat": 29.220916541197315, "lng": 94.21993857808282}, "feature": {"sight_features": "", "sight_content": ""}}, {"title": "南伊珞巴民俗村", "address": "西藏自治区林芝地区米林县", "image": "", "rank": 33, "time": 2, "location": {"lat": 29.24840996283631, "lng": 94.01821349174475}, "feature": {"sight_features": "", "sight_content": ""}}, {"title": "卧龙奇石", "address": "林芝市米林县306省道西50米", "image": "", "rank": 34, "time": 2, "location": {"lat": 29.220916541197315, "lng": 94.21993857808282}, "feature": {"sight_features": "", "sight_content": ""}}]}