{"cityName": "汨罗", "days": 2, "cityImage": "", "spots": [{"title": "屈子祠", "address": "汨罗城西北玉笥山顶", "image": "", "rank": 1, "time": 2.5, "location": {"lat": 28.81245469481151, "lng": 113.07349286947077}, "feature": {"sight_features": "", "sight_content": ""}}, {"title": "垂钓人", "address": "车站路23号门店", "image": "", "rank": 2, "time": 2, "location": {"lat": 39.62140328758951, "lng": 118.20290657726605}, "feature": {"sight_features": "", "sight_content": ""}}, {"title": "丹桂山庄", "address": "三江镇一举庵", "image": "", "rank": 3, "time": null, "location": {"lat": 28.94445418398227, "lng": 113.35126037388318}, "feature": {"sight_features": "", "sight_content": ""}}, {"title": "轩雅阁休闲农庄", "address": "友谊河南路", "image": "", "rank": 4, "time": 2, "location": {"lat": 28.794846807435004, "lng": 113.08809942485485}, "feature": {"sight_features": "", "sight_content": ""}}, {"title": "汨罗市图书馆", "address": "人民路17号", "image": "", "rank": 5, "time": 1.5, "location": {"lat": 28.81245469481151, "lng": 113.07349286947077}, "feature": {"sight_features": "", "sight_content": ""}}, {"title": "华韵画廊", "address": "荣家路248号", "image": "", "rank": 6, "time": 2, "location": {"lat": 28.803066215861474, "lng": 113.09002796102136}, "feature": {"sight_features": "", "sight_content": ""}}, {"title": "任弼时纪念馆-任弼时同志故居", "address": "037县道附近", "image": "", "rank": 7, "time": 7.5, "location": {"lat": 30.4472599655496, "lng": 118.06864912983106}, "feature": {"sight_features": "", "sight_content": ""}}, {"title": "西长四季花海", "address": "岳阳汨罗市白水镇西长村", "image": "", "rank": 8, "time": 2.0, "location": {"lat": 28.662499116280742, "lng": 113.05961126459913}, "feature": {"sight_features": "", "sight_content": ""}}, {"title": "滨江水上乐园", "address": "沿江大道1号", "image": "", "rank": 9, "time": 1.5, "location": {"lat": 26.244642309161836, "lng": 119.40845983396731}, "feature": {"sight_features": "", "sight_content": ""}}, {"title": "长沙县咏柳花卉苗木专业合作社", "address": "群合村村委会附近", "image": "", "rank": 10, "time": 4.5, "location": {"lat": 30.91157543822387, "lng": 114.50757196445774}, "feature": {"sight_features": "", "sight_content": ""}}, {"title": "密岩钓场", "address": "白水镇密岩钓场", "image": "", "rank": 11, "time": 2, "location": {"lat": 28.662499116280742, "lng": 113.05961126459913}, "feature": {"sight_features": "", "sight_content": ""}}, {"title": "紫云观", "address": "归义3队", "image": "", "rank": 12, "time": 1.0, "location": {"lat": 28.813584612165464, "lng": 113.10152119522085}, "feature": {"sight_features": "", "sight_content": ""}}, {"title": "屈原影剧院", "address": "步神路附近", "image": "", "rank": 13, "time": 2, "location": {"lat": 28.859059903405107, "lng": 112.91689128793416}, "feature": {"sight_features": "", "sight_content": ""}}, {"title": "石泉山庄", "address": "湖南省岳阳市汨罗市屈原北路与新月街交叉口北150米", "image": "", "rank": 14, "time": 2, "location": {"lat": 28.81468959780608, "lng": 113.08044509655608}, "feature": {"sight_features": "", "sight_content": ""}}, {"title": "西湖公园", "address": "建设西路附近", "image": "", "rank": 15, "time": 1.5, "location": {"lat": 40.81103539442299, "lng": 114.88582245368022}, "feature": {"sight_features": "", "sight_content": ""}}, {"title": "总统非标门", "address": "屈原南路256号", "image": "", "rank": 16, "time": 2, "location": {"lat": 30.351786667946772, "lng": 112.20997694972318}, "feature": {"sight_features": "", "sight_content": ""}}, {"title": "九牛龙公园", "address": "湖南省岳阳市汨罗市白水镇第四中学西北350米", "image": "", "rank": 17, "time": 2, "location": {"lat": 28.662583343584224, "lng": 113.05776171463947}, "feature": {"sight_features": "", "sight_content": ""}}, {"title": "南岳行宫", "address": "湖南省岳阳市汨罗市", "image": "", "rank": 18, "time": 2, "location": {"lat": 28.81245469481151, "lng": 113.07349286947077}, "feature": {"sight_features": "", "sight_content": ""}}, {"title": "慈云寺", "address": "归义街与归义路交叉口东北100米", "image": "", "rank": 19, "time": 1.5, "location": {"lat": 28.81020904377057, "lng": 113.0985069948628}, "feature": {"sight_features": "", "sight_content": ""}}, {"title": "汨罗市国家湿地公园", "address": "湖南省岳阳市汨罗市沿江大道", "image": "", "rank": 20, "time": 4.5, "location": {"lat": 28.79890524016914, "lng": 113.12429484156999}, "feature": {"sight_features": "", "sight_content": ""}}, {"title": "迪乐尼儿童乐园", "address": "湖南省岳阳市汨罗市建设中路79号", "image": "", "rank": 21, "time": 2, "location": {"lat": 28.809652054292524, "lng": 113.08830049257709}, "feature": {"sight_features": "", "sight_content": ""}}, {"title": "青佛寺", "address": "湖南省岳阳市汨罗市X050", "image": "", "rank": 22, "time": 2, "location": {"lat": 28.81245469481151, "lng": 113.07349286947077}, "feature": {"sight_features": "", "sight_content": ""}}, {"title": "奇幻森林儿童游乐园", "address": "湖南省岳阳市汨罗市屈原北路16号", "image": "", "rank": 23, "time": 2, "location": {"lat": 28.81257104292046, "lng": 113.08028998794033}, "feature": {"sight_features": "", "sight_content": ""}}, {"title": "陈家桥祠堂", "address": "岳阳市汨罗市", "image": "", "rank": 24, "time": 2, "location": {"lat": 28.81245469481151, "lng": 113.07349286947077}, "feature": {"sight_features": "", "sight_content": ""}}, {"title": "迪士尼儿童乐园", "address": "107国道附近", "image": "", "rank": 25, "time": 2, "location": {"lat": 23.102877208493197, "lng": 113.67228113407819}, "feature": {"sight_features": "", "sight_content": ""}}, {"title": "肯麦鸡儿童乐园", "address": "汨新大道与308省道交叉口北50米", "image": "", "rank": 26, "time": null, "location": {"lat": 28.793584929374322, "lng": 113.11563572262642}, "feature": {"sight_features": "", "sight_content": ""}}, {"title": "小天才儿童乐园", "address": "建设西路8号(罗湖宫大酒店旁)", "image": "", "rank": 27, "time": 2, "location": {"lat": 28.81265052035293, "lng": 113.07216598240242}, "feature": {"sight_features": "", "sight_content": ""}}, {"title": "乐儿乐儿童乐园(乐儿乐儿童乐园...", "address": "建设路新佳一购物中心1楼", "image": "", "rank": 28, "time": 2, "location": {"lat": 39.08959553212996, "lng": 117.0126917080218}, "feature": {"sight_features": "", "sight_content": ""}}, {"title": "崇善安养院", "address": "047县道附近", "image": "", "rank": 29, "time": 2, "location": {"lat": 31.834613784013, "lng": 117.09118071627795}, "feature": {"sight_features": "", "sight_content": ""}}, {"title": "汨罗书画院", "address": "高泉北路15号", "image": "", "rank": 30, "time": 2, "location": {"lat": 28.811763961750025, "lng": 113.08891902083577}, "feature": {"sight_features": "", "sight_content": ""}}, {"title": "任弼时纪念馆", "address": "弼时镇唐家桥村", "image": "", "rank": 31, "time": 1.0, "location": {"lat": 28.516999547259072, "lng": 113.13885884062887}, "feature": {"sight_features": "", "sight_content": ""}}, {"title": "永辉水上乐园", "address": "楚塘村7组201线旁7路车终点站", "image": "", "rank": 32, "time": 2, "location": {"lat": 37.450771645978016, "lng": 121.31112922066079}, "feature": {"sight_features": "", "sight_content": ""}}, {"title": "鳄鱼漆(长乐总经销)", "address": "041县道南150米", "image": "", "rank": 33, "time": 2, "location": {"lat": 25.96925744807659, "lng": 119.52943832000868}, "feature": {"sight_features": "", "sight_content": ""}}, {"title": "真人密室逃脱", "address": "屈原桥财富广场一楼0102号", "image": "", "rank": 34, "time": 2, "location": {"lat": 28.80998159920756, "lng": 113.08169739462303}, "feature": {"sight_features": "", "sight_content": ""}}, {"title": "雪域庄园", "address": "汨罗镇大众南路归义派出所对面", "image": "", "rank": 35, "time": 2, "location": {"lat": 28.807460739705338, "lng": 113.09612556360071}, "feature": {"sight_features": "", "sight_content": ""}}, {"title": "九龙村葡萄园", "address": "汨罗镇九龙村6组", "image": "", "rank": 36, "time": 2, "location": {"lat": 36.52233191388653, "lng": 112.90257368600246}, "feature": {"sight_features": "", "sight_content": ""}}, {"title": "燕窝屋钓场", "address": "白水镇密岩钓场西", "image": "", "rank": 37, "time": 2, "location": {"lat": 28.662499116280742, "lng": 113.05961126459913}, "feature": {"sight_features": "", "sight_content": ""}}, {"title": "岳阳市屈原花鼓戏剧团", "address": "307省道附近屈汨路", "image": "", "rank": 38, "time": 2.5, "location": {"lat": 40.264498296993764, "lng": 116.57268632168496}, "feature": {"sight_features": "", "sight_content": ""}}, {"title": "汨罗小春城", "address": "107国道附近", "image": "", "rank": 39, "time": 2.5, "location": {"lat": 23.102877208493197, "lng": 113.67228113407819}, "feature": {"sight_features": "", "sight_content": ""}}, {"title": "屈子文化园", "address": "岳阳市汨罗市屈子祠镇新义村", "image": "", "rank": 40, "time": 2, "location": {"lat": 28.87867541866995, "lng": 113.13055695173563}, "feature": {"sight_features": "特色1 巍巍书院青瓦飞檐、古木溢香。 特色2 苍翠古樟堪比擎天巨伞，粼粼湖水轻吻绿岛，清幽溪涧步道花草掩映。 特色3 背倚玉笥青山，襟带绵绵汨水，胸配茵茵草地，怀揣清澈湖泊，其生态可谓洞天福地。", "sight_content": "屈子文化园景区背倚玉笥青山，襟带绵绵汨水，胸配茵茵草地，怀揣清澈湖泊，其生态可谓洞天福地。登高远眺，全境色彩润目，层次分明，形态舒展，恍如山水画卷。漫目徐行，苍翠古樟堪比擎天巨伞，粼粼湖水轻吻绿岛，清幽溪涧步道花草掩映，巍巍书院青瓦飞檐、古木溢香，可在玉笥山头揽盛景，或踏濯缨桥上赏飞舟，一张一弛之间，颦笑由景不由心。\n屈子文化园按照高起点规划、高标准建设、高效益经营的思路，总规划面积4.46平方公里，现已启动了1.6平方公里的屈子文化园文化核心景区建设和路网、环境整治等项目。截至目前，屈子书院、饮马塘、橘颂广场、香草湖、美人桥、游客服务中心、濯缨桥、生态停车坪、南阳里民俗街等已完工；楚堤、生态度假酒店、田园综合体、诗歌国际交流中心等项目在建。目前，屈子文化园正委托中国旅游集团——中旅风景进行产业策划和运营管理；依托中国美术学院优化整体规划方案；与中南大学、湖南理工等高校建立校地合作，研究端午、屈原文旅项目，建立楚辞研究中心等；启动“三年之约”系列文旅活动；启动屈子祠、屈原碑林、玉笥八景等文物修缮工作；保护性开发中汨罗江国家湿地公园；启动地方特色剧和大型情景剧创作等。一期拟于今年国庆期间正式对外开放运营。"}}, {"title": "夕揽洲田园综合体", "address": "湖南省岳阳市汨罗市罗江镇汨东村", "image": "", "rank": 41, "time": 2, "location": {"lat": 28.857949119528932, "lng": 113.20459434862276}, "feature": {"sight_features": "", "sight_content": ""}}, {"title": "神鼎山庄", "address": "湖南省汨罗", "image": "", "rank": 42, "time": 2, "location": {"lat": 28.81245469481151, "lng": 113.07349286947077}, "feature": {"sight_features": "", "sight_content": ""}}, {"title": "保缘寺", "address": "湖南省岳阳市汨罗市", "image": "", "rank": 43, "time": 2, "location": {"lat": 28.81245469481151, "lng": 113.07349286947077}, "feature": {"sight_features": "", "sight_content": ""}}]}