{"cityName": "民乐", "days": 2, "cityImage": "", "spots": [{"title": "扁都口生态休闲旅游区", "address": "张掖市民乐县227国道附近", "image": "", "rank": 1, "time": 2.5, "location": {"lat": 38.175446332853255, "lng": 100.94490668665196}, "feature": {"sight_features": "", "sight_content": ""}}, {"title": "方舟温泉水世界", "address": "张掖市民乐县张掖机场向南5公里（民乐生态工业园区）", "image": "", "rank": 2, "time": 2, "location": {"lat": 38.436842233981295, "lng": 100.8194290374239}, "feature": {"sight_features": "特色1 *1、设施齐备，场地宽阔，乐园室内面积约2万平米，室外占地约3万平米 特色2 2、集水上娱乐、水上通关、高尔夫练习场、健身、餐饮、休闲于一体 特色3 3、主题游乐以其独有的文化主题、科技含量以及强大的娱乐功能", "sight_content": "方舟温泉水世界集水上娱乐、水上通关、高尔夫练习场、健身、餐饮、休闲于一体的航母级游乐综合体，水上乐园有真空造浪、环流河、激情水寨、大喇叭滑梯、超级巨兽碗、冲天回旋滑梯、彩虹竞赛滑梯、螺旋组合滑梯等诸多水上游乐设施，有还有小猫、小兔、鲸鱼、花怪等卡通喷水造形，更加青蛙滑梯、大象滑梯、鳄鱼滑梯、彩虹门等，更是10岁以下儿童的最爱。"}}, {"title": "八硅墓营", "address": "张掖市民乐县", "image": "", "rank": 3, "time": 1.0, "location": {"lat": 38.436842233981295, "lng": 100.8194290374239}, "feature": {"sight_features": "", "sight_content": ""}}, {"title": "公园", "address": "213县道民乐公园", "image": "", "rank": 4, "time": 2, "location": {"lat": 21.45467769911398, "lng": 110.99058156803247}, "feature": {"sight_features": "", "sight_content": ""}}, {"title": "民乐县绿波苗木培育专业合作社", "address": "227国道洪水敬老院附近", "image": "", "rank": 5, "time": 2, "location": {"lat": 38.47901265965688, "lng": 100.81691270402936}, "feature": {"sight_features": "", "sight_content": ""}}, {"title": "八卦营古城", "address": "甘肃省民乐县八卦营村 734508", "image": "", "rank": 6, "time": 2, "location": {"lat": 38.34750461185654, "lng": 100.97996639279059}, "feature": {"sight_features": "", "sight_content": ""}}, {"title": "民乐生态公园", "address": "洪水镇北区", "image": "", "rank": 7, "time": 1.5, "location": {"lat": 36.43785238282294, "lng": 102.56434410150165}, "feature": {"sight_features": "", "sight_content": ""}}, {"title": "儿童水上主题乐园", "address": "洪水镇惠泽园西门", "image": "", "rank": 8, "time": 2, "location": {"lat": 38.4529607731866, "lng": 100.8190965296394}, "feature": {"sight_features": "", "sight_content": ""}}, {"title": "国营民乐县农场", "address": "352乡道附近", "image": "", "rank": 9, "time": 2, "location": {"lat": 40.431271939719494, "lng": 116.33683369478481}, "feature": {"sight_features": "", "sight_content": ""}}, {"title": "民乐县水库农场", "address": "351乡道附近", "image": "", "rank": 10, "time": 2, "location": {"lat": 27.629191558808806, "lng": 111.26908581591202}, "feature": {"sight_features": "", "sight_content": ""}}, {"title": "甘肃银河集团有机食品试验基地", "address": "227国道附近", "image": "", "rank": 11, "time": 2, "location": {"lat": 37.96006729119905, "lng": 100.95816145394333}, "feature": {"sight_features": "", "sight_content": ""}}, {"title": "民乐童子寺", "address": "童子寺石窟位于民乐县城10公里", "image": "", "rank": 12, "time": 0.25, "location": {"lat": 38.4415094884715, "lng": 100.92711277533053}, "feature": {"sight_features": "", "sight_content": ""}}]}