{"cityName": "民权", "days": 2, "cityImage": "", "spots": [{"title": "民权白云禅寺", "address": "商丘市民权县城西南20公里处的白云寺村", "image": "", "rank": 1, "time": 2, "location": {"lat": 34.652478726537026, "lng": 115.15457605886661}, "feature": {"sight_features": "", "sight_content": ""}}, {"title": "民权郑庄寨", "address": "中国河南省民权县野岗乡郑庄寨", "image": "", "rank": 2, "time": 2, "location": {"lat": 34.693069027390784, "lng": 115.08199827366289}, "feature": {"sight_features": "", "sight_content": ""}}, {"title": "李馆地道旧址", "address": "河南民权县北关镇李馆村 476812", "image": "", "rank": 3, "time": 2.0, "location": {"lat": 34.810070559451425, "lng": 115.30816383355372}, "feature": {"sight_features": "", "sight_content": ""}}, {"title": "民权县图书馆", "address": "人民路", "image": "", "rank": 4, "time": 2, "location": {"lat": 23.37490057686854, "lng": 103.40661159663834}, "feature": {"sight_features": "", "sight_content": ""}}, {"title": "苏尧甬优葡萄采摘园", "address": "x044县道与旺业路交叉口西500米(河南美力达新能源汽车厂对面)", "image": "", "rank": 5, "time": 2, "location": {"lat": 36.06504680178999, "lng": 113.80945833160084}, "feature": {"sight_features": "", "sight_content": ""}}, {"title": "金源泉温泉", "address": "周庄大道与消防北路交叉口旁", "image": "", "rank": 6, "time": 2, "location": {"lat": 31.122582538733514, "lng": 120.85392998389673}, "feature": {"sight_features": "", "sight_content": ""}}, {"title": "商丘市民权农场前园队", "address": "005乡道附近", "image": "", "rank": 7, "time": 1.0, "location": {"lat": 42.08321631584341, "lng": 117.86149951990792}, "feature": {"sight_features": "", "sight_content": ""}}, {"title": "天河温泉宾馆", "address": "001县道与211省道交叉口南", "image": "", "rank": 8, "time": 2, "location": {"lat": 38.094880367227645, "lng": 115.43311409749823}, "feature": {"sight_features": "", "sight_content": ""}}, {"title": "吴堂垂钓园", "address": "X005吴堂村", "image": "", "rank": 9, "time": 2, "location": {"lat": 34.11934780187765, "lng": 117.98050312624085}, "feature": {"sight_features": "", "sight_content": ""}}, {"title": "张记农家乐", "address": "211省道西100米", "image": "", "rank": 10, "time": 2, "location": {"lat": 36.51043423729015, "lng": 114.22075559139891}, "feature": {"sight_features": "", "sight_content": ""}}, {"title": "鑫源绿色采摘园", "address": "005县道附近", "image": "", "rank": 11, "time": 2, "location": {"lat": 40.14566755657564, "lng": 116.77615988580014}, "feature": {"sight_features": "", "sight_content": ""}}, {"title": "东风机车俱乐部", "address": "城关镇义乌商贸城洛阳街27号", "image": "", "rank": 12, "time": 2, "location": {"lat": 37.72095784689378, "lng": 117.19827103176806}, "feature": {"sight_features": "", "sight_content": ""}}, {"title": "李想大虾啤酒广场", "address": "科研路中段", "image": "", "rank": 13, "time": 2, "location": {"lat": 47.21776376022348, "lng": 123.60535670379801}, "feature": {"sight_features": "", "sight_content": ""}}, {"title": "老颜集清真寺", "address": "河南省商丘市民权县老颜集乡政府西400米", "image": "", "rank": 14, "time": 2, "location": {"lat": 34.676634883041785, "lng": 115.41331546561764}, "feature": {"sight_features": "", "sight_content": ""}}, {"title": "豫东牡丹园", "address": "河南省商丘市民权县城西15公里310国道460桩处路北", "image": "", "rank": 15, "time": 2, "location": {"lat": 34.70077976298891, "lng": 115.03670175730556}, "feature": {"sight_features": "", "sight_content": ""}}, {"title": "民权站广场", "address": "车站南路附近", "image": "", "rank": 16, "time": 2, "location": {"lat": 31.052181901760108, "lng": 121.77141952668468}, "feature": {"sight_features": "", "sight_content": ""}}, {"title": "米琪儿童乐园", "address": "河南省商丘市民权县消防北路", "image": "", "rank": 17, "time": 2, "location": {"lat": 34.663370500713405, "lng": 115.16076885398454}, "feature": {"sight_features": "", "sight_content": ""}}, {"title": "儿童乐园", "address": "商丘市民权县", "image": "", "rank": 18, "time": 2, "location": {"lat": 34.652478726537026, "lng": 115.15457605886661}, "feature": {"sight_features": "", "sight_content": ""}}, {"title": "万嘉儿童乐园", "address": "河南省商丘市民权县禇庙乡万嘉购物广场东50米", "image": "", "rank": 19, "time": 2, "location": {"lat": 34.79910710805079, "lng": 115.2979965854188}, "feature": {"sight_features": "", "sight_content": ""}}, {"title": "儿童主题乐园", "address": "河南省商丘市民权县秋水路", "image": "", "rank": 20, "time": 2, "location": {"lat": 34.65101817845488, "lng": 115.16278163054749}, "feature": {"sight_features": "", "sight_content": ""}}, {"title": "考拉大冒险儿童主题亲子乐园", "address": "波尔多风情街6号楼3楼", "image": "", "rank": 21, "time": 2, "location": {"lat": 31.711627289340257, "lng": 119.86340010851663}, "feature": {"sight_features": "", "sight_content": ""}}, {"title": "民权公墓(百荷塘入口)", "address": "河南省商丘市民权县S210", "image": "", "rank": 22, "time": 2, "location": {"lat": 34.652478726537026, "lng": 115.15457605886661}, "feature": {"sight_features": "", "sight_content": ""}}, {"title": "河南省佛协神奇药王阁", "address": "冰熊大道与车站南路交叉口西150米", "image": "", "rank": 23, "time": 2, "location": {"lat": 34.642020212759995, "lng": 115.14516197073229}, "feature": {"sight_features": "", "sight_content": ""}}, {"title": "王生态园", "address": "211省道", "image": "", "rank": 24, "time": 2, "location": {"lat": 36.51043423729015, "lng": 114.22165389690889}, "feature": {"sight_features": "", "sight_content": ""}}, {"title": "和平温泉", "address": "绿洲路", "image": "", "rank": 25, "time": 0.7, "location": {"lat": 31.90646624585895, "lng": 118.64457005681152}, "feature": {"sight_features": "", "sight_content": ""}}, {"title": "人民文化馆", "address": "绿洲路", "image": "", "rank": 26, "time": 2, "location": {"lat": 31.90646624585895, "lng": 118.64457005681152}, "feature": {"sight_features": "", "sight_content": ""}}, {"title": "威尼斯水上乐园", "address": "东高架桥体育馆红绿灯东300米路南(全顺驾校内)", "image": "", "rank": 27, "time": 2, "location": {"lat": 38.06722379432544, "lng": 114.51858429170456}, "feature": {"sight_features": "", "sight_content": ""}}, {"title": "高科兴农薯业种植合作社", "address": "冰熊大道与西迎宾路交叉口北50米路西明港超市对面", "image": "", "rank": 28, "time": 2, "location": {"lat": 34.646736753642045, "lng": 115.13876363612722}, "feature": {"sight_features": "", "sight_content": ""}}, {"title": "凤凰温泉", "address": "商城路附近", "image": "", "rank": 29, "time": 6.0, "location": {"lat": 39.72108604195742, "lng": 118.45629138788917}, "feature": {"sight_features": "", "sight_content": ""}}, {"title": "365休闲农庄", "address": "白云寺镇工业区商丘市纵横智慧农业科技公司院内", "image": "", "rank": 30, "time": 2, "location": {"lat": 34.62799767021635, "lng": 114.95884248366956}, "feature": {"sight_features": "", "sight_content": ""}}, {"title": "庄周文化农业生态园", "address": "庄周大道与东环路交叉口东北300米", "image": "", "rank": 31, "time": 2, "location": {"lat": 42.85646580255288, "lng": 124.414086267546}, "feature": {"sight_features": "", "sight_content": ""}}, {"title": "无公害大棚葡萄采摘园", "address": "城关镇211省道爱鑫公寓西250米", "image": "", "rank": 32, "time": 2, "location": {"lat": 34.661858160973, "lng": 115.22215306712683}, "feature": {"sight_features": "", "sight_content": ""}}, {"title": "庄子故里", "address": "河南省民权县顺和乡青莲寺村", "image": "", "rank": 33, "time": 2, "location": {"lat": 34.652478726537026, "lng": 115.15457605886661}, "feature": {"sight_features": "", "sight_content": ""}}, {"title": "民权旭光冬枣采摘园", "address": "商丘市-民权县-009乡道吴老家村", "image": "", "rank": 34, "time": 2, "location": {"lat": 34.652478726537026, "lng": 115.15457605886661}, "feature": {"sight_features": "", "sight_content": ""}}]}