{"cityName": "密山", "days": 2, "cityImage": "", "spots": [{"title": "兴凯湖", "address": "鸡西市密山市境内", "image": "", "rank": 1, "time": 3.0, "location": {"lat": 45.53564080974782, "lng": 131.85353110655427}, "feature": {"sight_features": "", "sight_content": ""}}, {"title": "兴凯湖新开流景区", "address": "鸡西市密山市兴凯湖国家级自然保护区内", "image": "", "rank": 2, "time": 2, "location": {"lat": 45.35452108702261, "lng": 132.326726559368}, "feature": {"sight_features": "", "sight_content": ""}}, {"title": "开心农场水上乐园", "address": "密山市铁西新公安局路口西侧1500处", "image": "", "rank": 3, "time": 2, "location": {"lat": 45.53564080974782, "lng": 131.85353110655427}, "feature": {"sight_features": "", "sight_content": ""}}, {"title": "铁西森林公园", "address": "黑龙江省鸡西市密山市", "image": "", "rank": 4, "time": 2, "location": {"lat": 45.53564080974782, "lng": 131.85353110655427}, "feature": {"sight_features": "", "sight_content": ""}}, {"title": "兴凯湖博物馆", "address": "Z452县道", "image": "", "rank": 5, "time": null, "location": {"lat": 36.06504680178999, "lng": 113.80945833160084}, "feature": {"sight_features": "", "sight_content": ""}}, {"title": "当壁镇兴凯湖旅游度假区", "address": "黑龙江省鸡西市密山市", "image": "", "rank": 6, "time": 2, "location": {"lat": 45.53564080974782, "lng": 131.85353110655427}, "feature": {"sight_features": "", "sight_content": ""}}, {"title": "新开流遗址", "address": "黑龙江省鸡西市密山市 ‎", "image": "", "rank": 7, "time": 2, "location": {"lat": 45.53564080974782, "lng": 131.85353110655427}, "feature": {"sight_features": "", "sight_content": ""}}, {"title": "密山铁西森林水上乐园", "address": "铁西森林公园内", "image": "", "rank": 8, "time": 3.0, "location": {"lat": 41.81060193765239, "lng": 123.33096969882953}, "feature": {"sight_features": "", "sight_content": ""}}, {"title": "俄罗斯艺术中俄贸易史展览馆", "address": "密山口岸附近", "image": "", "rank": 9, "time": 2, "location": {"lat": 45.277257432498914, "lng": 132.00104835987716}, "feature": {"sight_features": "", "sight_content": ""}}, {"title": "多多魚婴童水世界", "address": "穆棱街245号(人民医院住院部28号门市)", "image": "", "rank": 10, "time": 2, "location": {"lat": 35.637870474118735, "lng": 111.22685651018948}, "feature": {"sight_features": "", "sight_content": ""}}, {"title": "翠园", "address": "东环路与兴凯路交叉口东南200米", "image": "", "rank": 11, "time": 2, "location": {"lat": 45.62360560270273, "lng": 132.47619080634138}, "feature": {"sight_features": "", "sight_content": ""}}, {"title": "开心大戏院", "address": "中心街道密山火车站", "image": "", "rank": 12, "time": 2.0, "location": {"lat": 45.55781052132079, "lng": 131.88015982471902}, "feature": {"sight_features": "", "sight_content": ""}}, {"title": "杨老师美术书法学校", "address": "光复路108附近", "image": "", "rank": 13, "time": 2, "location": {"lat": 30.25407205477851, "lng": 120.17780957472199}, "feature": {"sight_features": "", "sight_content": ""}}, {"title": "兴凯湖龙王庙", "address": "黑龙江省鸡西市密山市", "image": "", "rank": 14, "time": 2, "location": {"lat": 45.53564080974782, "lng": 131.85353110655427}, "feature": {"sight_features": "", "sight_content": ""}}, {"title": "八五七农场老干部活动中心", "address": "朝阳大街与青山路交叉口西北100米", "image": "", "rank": 15, "time": 2, "location": {"lat": 45.62904343177374, "lng": 132.4749527275519}, "feature": {"sight_features": "", "sight_content": ""}}, {"title": "神奇世界儿童图书借阅馆", "address": "延寿路183", "image": "", "rank": 16, "time": 2, "location": {"lat": 45.547243116342656, "lng": 131.8817661961913}, "feature": {"sight_features": "", "sight_content": ""}}, {"title": "北大荒纪念园", "address": "黑龙江省密山市8510农场内 158100", "image": "", "rank": 17, "time": 2, "location": {"lat": 45.30943223140293, "lng": 131.3003657619015}, "feature": {"sight_features": "", "sight_content": ""}}, {"title": "烈士陵园", "address": "同心路附近", "image": "", "rank": 18, "time": 2, "location": {"lat": 39.93375362215177, "lng": 119.64189448600118}, "feature": {"sight_features": "", "sight_content": ""}}, {"title": "八五五农场公园", "address": "鸡西市密山市", "image": "", "rank": 19, "time": 2, "location": {"lat": 45.53564080974782, "lng": 131.85353110655427}, "feature": {"sight_features": "", "sight_content": ""}}, {"title": "铁西公园", "address": "黑龙江省鸡西市密山市光复街", "image": "", "rank": 20, "time": 2, "location": {"lat": 45.55601751023971, "lng": 131.88118928463007}, "feature": {"sight_features": "", "sight_content": ""}}, {"title": "东北老航校纪念馆", "address": "黑龙江省鸡西市密山市密山镇政府西南300米", "image": "", "rank": 21, "time": 2, "location": {"lat": 45.547840527109635, "lng": 131.87670717401681}, "feature": {"sight_features": "", "sight_content": ""}}, {"title": "丽康少儿乐园", "address": "延寿路", "image": "", "rank": 22, "time": 2, "location": {"lat": 42.915658458428176, "lng": 125.15819402914131}, "feature": {"sight_features": "", "sight_content": ""}}, {"title": "黑龙江省图书馆(密山市分馆)", "address": "东安街", "image": "", "rank": 23, "time": 2, "location": {"lat": 39.854618293661765, "lng": 116.28891924039162}, "feature": {"sight_features": "", "sight_content": ""}}, {"title": "北大荒开发建设纪念馆", "address": "061乡道", "image": "", "rank": 24, "time": 2, "location": {"lat": 45.46005140730213, "lng": 132.1402564812667}, "feature": {"sight_features": "", "sight_content": ""}}, {"title": "环宇艺术画廊(北京密山分店)", "address": "中心街道皇都家居广场", "image": "", "rank": 25, "time": 2, "location": {"lat": 45.77652906322122, "lng": 132.96450269005666}, "feature": {"sight_features": "", "sight_content": ""}}, {"title": "密山市图书馆", "address": "东安街536号", "image": "", "rank": 26, "time": 1.5, "location": {"lat": 45.55466194612392, "lng": 131.88651376326922}, "feature": {"sight_features": "", "sight_content": ""}}, {"title": "新亚商业步行街", "address": "黑龙江省密山市长明街与安定街中段", "image": "", "rank": 27, "time": 2, "location": {"lat": 45.55152580087592, "lng": 131.87795127414813}, "feature": {"sight_features": "", "sight_content": ""}}, {"title": "蜂蜜山", "address": "黑龙江省鸡西市密山市 ‎", "image": "", "rank": 28, "time": 2, "location": {"lat": 45.53564080974782, "lng": 131.85353110655427}, "feature": {"sight_features": "", "sight_content": ""}}, {"title": "当壁镇", "address": "黑龙江省鸡西密山市当壁镇", "image": "", "rank": 29, "time": 2, "location": {"lat": 45.3836152356415, "lng": 131.84481182539284}, "feature": {"sight_features": "", "sight_content": ""}}, {"title": "青年水库", "address": "黑龙江省鸡西市密山市", "image": "", "rank": 30, "time": 2, "location": {"lat": 45.53564080974782, "lng": 131.85353110655427}, "feature": {"sight_features": "", "sight_content": ""}}, {"title": "泄洪闸景区", "address": "黑龙江省鸡西市密山市", "image": "", "rank": 31, "time": 2, "location": {"lat": 45.53564080974782, "lng": 131.85353110655427}, "feature": {"sight_features": "", "sight_content": ""}}, {"title": "白棱河桥", "address": "黑龙江省鸡西市密山市白棱河", "image": "", "rank": 32, "time": 2, "location": {"lat": 45.53564080974782, "lng": 131.85353110655427}, "feature": {"sight_features": "", "sight_content": ""}}]}