{"cityName": "米易", "days": 2, "cityImage": "", "spots": [{"title": "海塔世外桃源风景区", "address": "攀枝花市米易县撒莲镇海塔村", "image": "", "rank": 1, "time": 2.0, "location": {"lat": 26.91638405592136, "lng": 102.01453574250209}, "feature": {"sight_features": "", "sight_content": ""}}, {"title": "龙潭溶洞", "address": "攀枝花市米易县白马镇龙塘村", "image": "", "rank": 2, "time": 1.5, "location": {"lat": 27.029200627694255, "lng": 102.19858112688516}, "feature": {"sight_features": "", "sight_content": ""}}, {"title": "白坡山自然保护区", "address": "攀枝花市，米易县白坡乡", "image": "", "rank": 3, "time": 2, "location": {"lat": 26.89696797612047, "lng": 102.11644043040211}, "feature": {"sight_features": "", "sight_content": ""}}, {"title": "龙潭清泉水世界", "address": "攀枝花市米易县S214", "image": "", "rank": 4, "time": 2, "location": {"lat": 26.89696797612047, "lng": 102.11644043040211}, "feature": {"sight_features": "", "sight_content": "在龙潭清泉水世界惊声尖叫，畅快玩水，全方位体验动感魅力，水世界环境优美，交通便捷，建筑独特，设施先进，停车宽敞。"}}, {"title": "撒莲镇", "address": "攀枝花市米易县敏垭路", "image": "", "rank": 5, "time": 2, "location": {"lat": 26.89696797612047, "lng": 102.11644043040211}, "feature": {"sight_features": "", "sight_content": ""}}, {"title": "米易观音温泉", "address": "攀枝花市米易县观音乡莲花塘", "image": "", "rank": 6, "time": 2, "location": {"lat": 26.99436785638902, "lng": 102.16924908945059}, "feature": {"sight_features": "", "sight_content": "米易观音温泉位于米易县观音乡莲花塘，中国医疗矿泉专家陈炎冰在《矿泉与疗养》一书中认为，温泉一般含有多种活性作用的微量元素，有一定的矿化度，泉水温度常高于30℃以上。温矿泉可对以下疾病具有医疗作用：肥胖症、运动系统疾病（如创伤、慢性风湿性关节炎等）、神经系统疾病（神经损伤、神经炎等），早期轻度心血管系统疾病、痛风、皮肤病等。"}}, {"title": "龙潭清泉度假村", "address": "攀莲镇观音村加油站对面", "image": "", "rank": 7, "time": 2, "location": {"lat": 26.977802197613375, "lng": 102.16576843856679}, "feature": {"sight_features": "", "sight_content": ""}}, {"title": "芭蕉菁", "address": "四川省米易县丙谷镇 626700", "image": "", "rank": 8, "time": 2, "location": {"lat": 26.81897336933605, "lng": 102.07739458610132}, "feature": {"sight_features": "", "sight_content": ""}}, {"title": "重庆九龙鱼府米易店", "address": "城中街86号", "image": "", "rank": 9, "time": 1.5, "location": {"lat": 31.389690634573633, "lng": 121.25616605128687}, "feature": {"sight_features": "", "sight_content": ""}}, {"title": "西昌航天皮衣店", "address": "四川省攀枝花市米易县新隆巷13-、15号", "image": "", "rank": 10, "time": 1.5, "location": {"lat": 26.89445705522135, "lng": 102.11785436327435}, "feature": {"sight_features": "", "sight_content": ""}}, {"title": "何家坝史前遗址", "address": "G5京昆高速入口附近", "image": "", "rank": 11, "time": 2, "location": {"lat": 37.637102361304905, "lng": 112.32799737684492}, "feature": {"sight_features": "", "sight_content": ""}}, {"title": "米易县基督教永生堂", "address": "214省道附近", "image": "", "rank": 12, "time": null, "location": {"lat": 40.25674691410845, "lng": 116.28095415138388}, "feature": {"sight_features": "", "sight_content": ""}}, {"title": "龙塘大溶洞", "address": "宁华乡", "image": "", "rank": 13, "time": 2, "location": {"lat": 27.02578918491943, "lng": 102.17943220974219}, "feature": {"sight_features": "", "sight_content": ""}}, {"title": "二滩展览馆", "address": "二滩大道", "image": "", "rank": 14, "time": 2, "location": {"lat": 26.674339215877215, "lng": 101.8334841525691}, "feature": {"sight_features": "", "sight_content": ""}}, {"title": "康源农家乐", "address": "盐米路", "image": "", "rank": 15, "time": 2, "location": {"lat": 27.076688303332876, "lng": 101.9506488466369}, "feature": {"sight_features": "", "sight_content": ""}}, {"title": "伍兴娱乐园", "address": "盐米路", "image": "", "rank": 16, "time": 2, "location": {"lat": 27.076688303332876, "lng": 101.9506488466369}, "feature": {"sight_features": "", "sight_content": ""}}, {"title": "小丁当益智乐园", "address": "府城路79号", "image": "", "rank": 17, "time": 2, "location": {"lat": 26.896522630682163, "lng": 102.11692003571373}, "feature": {"sight_features": "", "sight_content": ""}}, {"title": "米易县档案馆", "address": "城中街62-、64-、66号", "image": "", "rank": 18, "time": null, "location": {"lat": 26.892688108063673, "lng": 102.11679041022869}, "feature": {"sight_features": "", "sight_content": ""}}, {"title": "米易县图书馆", "address": "同和路10号", "image": "", "rank": 19, "time": 2, "location": {"lat": 36.10724491641314, "lng": 120.4094107327452}, "feature": {"sight_features": "", "sight_content": ""}}, {"title": "阳光果业", "address": "丙谷镇有机水果种植基地", "image": "", "rank": 20, "time": 2, "location": {"lat": 26.81897336933605, "lng": 102.07739458610132}, "feature": {"sight_features": "", "sight_content": ""}}, {"title": "农府印象农家乐", "address": "米易高铁站对面(出高速过柳溪河加油站前行500米靠右)", "image": "", "rank": 21, "time": 2, "location": {"lat": 26.89696797612047, "lng": 102.11644043040211}, "feature": {"sight_features": "", "sight_content": ""}}, {"title": "康阳休闲山庄", "address": "盐米路西50米", "image": "", "rank": 22, "time": 2, "location": {"lat": 40.992419128093715, "lng": 117.96125552034992}, "feature": {"sight_features": "", "sight_content": ""}}, {"title": "青杠林天然氧吧", "address": "攀莲镇观音村三社观音寺下行300米", "image": "", "rank": 23, "time": 2, "location": {"lat": 33.257991600135156, "lng": 111.68117348880949}, "feature": {"sight_features": "", "sight_content": ""}}, {"title": "望月楼 Wangyue Tower", "address": "四川省米易县挂榜乡", "image": "", "rank": 24, "time": 2, "location": {"lat": 26.89696797612047, "lng": 102.11644043040211}, "feature": {"sight_features": "", "sight_content": ""}}, {"title": "红阳校油泵", "address": "四川省米易县214省道", "image": "", "rank": 25, "time": 2, "location": {"lat": 26.7737653759139, "lng": 101.98805361882242}, "feature": {"sight_features": "", "sight_content": ""}}, {"title": "麦地丫口", "address": "攀枝花市-米易县", "image": "", "rank": 26, "time": 2, "location": {"lat": 26.89696797612047, "lng": 102.11644043040211}, "feature": {"sight_features": "", "sight_content": ""}}, {"title": "摸鱼沟", "address": "攀枝花市-米易县-普威镇独树村德源农家乐南2公里", "image": "", "rank": 27, "time": 2, "location": {"lat": 27.030726103266804, "lng": 101.9790876683608}, "feature": {"sight_features": "", "sight_content": ""}}, {"title": "海塔风景区", "address": "四川省米易县撒莲镇 644304", "image": "", "rank": 28, "time": 2, "location": {"lat": 26.852311706769257, "lng": 102.02931554059523}, "feature": {"sight_features": "", "sight_content": ""}}, {"title": "兰家火山", "address": "四川省攀枝花市东区新华街一村48号", "image": "", "rank": 29, "time": 2, "location": {"lat": 26.587089389006312, "lng": 101.72296177647391}, "feature": {"sight_features": "", "sight_content": ""}}]}