{"cityName": "米脂", "days": 2, "cityImage": "", "spots": [{"title": "李自成行宫", "address": "榆林市米脂县行宫路13号", "image": "", "rank": 1, "time": 2.0, "location": {"lat": 37.761397514329296, "lng": 110.19045141746625}, "feature": {"sight_features": "", "sight_content": ""}}, {"title": "高西沟生态园", "address": "榆林市米脂县高渠道便民服务中心高西沟村", "image": "", "rank": 2, "time": 2, "location": {"lat": 37.87377637437517, "lng": 110.1912620384771}, "feature": {"sight_features": "", "sight_content": ""}}, {"title": "万佛洞", "address": "榆林市米脂县银州镇王沙沟村", "image": "", "rank": 3, "time": 1.0, "location": {"lat": 37.813597350072435, "lng": 110.15746583407216}, "feature": {"sight_features": "", "sight_content": ""}}, {"title": "米脂县水上乐园", "address": "治黄西路", "image": "", "rank": 4, "time": 2, "location": {"lat": 37.76715272544187, "lng": 110.17327764147227}, "feature": {"sight_features": "", "sight_content": ""}}, {"title": "永乐城遗址", "address": "陕西省米脂县龙镇马湖峪村", "image": "", "rank": 5, "time": 2, "location": {"lat": 37.898206166625954, "lng": 110.03601385924128}, "feature": {"sight_features": "", "sight_content": ""}}, {"title": "米脂公益图书馆", "address": "210国道附近", "image": "", "rank": 6, "time": 3.0, "location": {"lat": 30.75468488618663, "lng": 107.2576735785458}, "feature": {"sight_features": "", "sight_content": ""}}, {"title": "石摞摞山遗址", "address": "陕西省佳县朱官寨乡公家洼村 719206", "image": "", "rank": 7, "time": 2, "location": {"lat": 38.1270406774608, "lng": 110.29391061050869}, "feature": {"sight_features": "", "sight_content": ""}}, {"title": "杜斌丞纪念室", "address": "陕西省米脂县境内 718100", "image": "", "rank": 8, "time": 2, "location": {"lat": 37.761397514329296, "lng": 110.19045141746625}, "feature": {"sight_features": "", "sight_content": ""}}, {"title": "盘龙山古建筑群", "address": "陕西省米脂县盘龙山南麓 718100", "image": "", "rank": 9, "time": 2, "location": {"lat": 37.765265146525074, "lng": 110.186382901981}, "feature": {"sight_features": "", "sight_content": ""}}, {"title": "历代契约博物馆", "address": "陕西省榆林市米脂县行宫东路59号", "image": "", "rank": 10, "time": 2, "location": {"lat": 37.76645896424624, "lng": 110.18886869298822}, "feature": {"sight_features": "", "sight_content": ""}}, {"title": "beby儿童乐园", "address": "银州镇公园西路门市1楼", "image": "", "rank": 11, "time": 2, "location": {"lat": 37.76822041607138, "lng": 110.18013249224258}, "feature": {"sight_features": "", "sight_content": ""}}, {"title": "貂蝉文化广场", "address": "210国道西50米", "image": "", "rank": 12, "time": 2, "location": {"lat": 30.75468488618663, "lng": 107.25722442579081}, "feature": {"sight_features": "", "sight_content": ""}}, {"title": "城皇庙", "address": "陕西省榆林市米脂县东大街", "image": "", "rank": 13, "time": 2, "location": {"lat": 37.76394863508243, "lng": 110.19389975091215}, "feature": {"sight_features": "", "sight_content": ""}}, {"title": "常氏庄园", "address": "陕西省米脂县城东北", "image": "", "rank": 14, "time": 2, "location": {"lat": 37.761397514329296, "lng": 110.19045141746625}, "feature": {"sight_features": "", "sight_content": ""}}, {"title": "古城界古城遗址", "address": "陕西省横山县红石桥乡古城界村", "image": "", "rank": 15, "time": 2, "location": {"lat": 38.12986693273857, "lng": 109.33759693688488}, "feature": {"sight_features": "", "sight_content": ""}}, {"title": "榆林李鼎铭陵墓", "address": "陕西省横山县桃花峁村,麒麟山", "image": "", "rank": 16, "time": 2.5, "location": {"lat": 37.851606404345645, "lng": 109.46699149652117}, "feature": {"sight_features": "", "sight_content": ""}}, {"title": "米脂婆姨一条街", "address": "陕西省米脂县银河中路与行宫东路交叉口", "image": "", "rank": 17, "time": 2.0, "location": {"lat": 37.765226979338465, "lng": 110.18594501397712}, "feature": {"sight_features": "", "sight_content": ""}}, {"title": "悬空寺石窟", "address": "陕西省米脂县陌崖底村西", "image": "", "rank": 18, "time": 2, "location": {"lat": 37.761397514329296, "lng": 110.19045141746625}, "feature": {"sight_features": "", "sight_content": ""}}, {"title": "貂蝉洞", "address": "陕西省米脂县杜家石沟乡艾好湾村", "image": "", "rank": 19, "time": 2, "location": {"lat": 37.801690816232025, "lng": 110.08673354836917}, "feature": {"sight_features": "", "sight_content": ""}}, {"title": "榆林米脂杨家沟村", "address": "陕西省米脂县杨家沟镇杨家沟村", "image": "", "rank": 20, "time": 2.5, "location": {"lat": 37.76370031837625, "lng": 110.33888887698654}, "feature": {"sight_features": "", "sight_content": ""}}]}