{"cityName": "漠河", "days": 2, "cityImage": "", "spots": [{"title": "北极村", "address": "大兴安岭地区漠河市", "image": "", "rank": 1, "time": 1.5, "location": {"lat": 52.97830367837742, "lng": 122.54542083420051}, "feature": {"sight_features": "特色1 来这里有意思的就是各种找北。 特色2 中国北方的人家、哨所、邮局，也是中国唯一有可能看到北极光的地方。", "sight_content": "人们在室外可以下棋，打篮球，如果幸运的话可以看到气势恢弘，绚丽多彩的北极光。\n烟波浩淼的黑龙江从村边流过，江里盛产哲罗、细鳞、重唇、鳇鱼等珍贵冷水鱼。\n用江水炖江鱼，其味之鲜，其情之美，无与伦比。还可以用丝网挂鱼，江边垂钓，其乐无穷。冬季在冰封的江面上凿开坚冰，用丝网从冰眼里拽出一条条鲜鱼，更增添了北国的情趣。"}}, {"title": "漠河县城", "address": "大兴安岭漠河县内", "image": "", "rank": 2, "time": 3.5, "location": {"lat": 52.94565861946904, "lng": 122.71572081474105}, "feature": {"sight_features": "", "sight_content": ""}}, {"title": "北红村", "address": "大兴安岭漠河县北红村", "image": "", "rank": 3, "time": 4.5, "location": {"lat": 53.51029957270497, "lng": 123.08129206944629}, "feature": {"sight_features": "", "sight_content": ""}}, {"title": "黑龙江第一湾", "address": "大兴安岭地区漠河县图强林业局施业区红旗岭段", "image": "", "rank": 4, "time": 2.5, "location": {"lat": 53.50612217679147, "lng": 123.40981818575985}, "feature": {"sight_features": "", "sight_content": "黑龙江第一湾位于大兴安岭地区漠河县红旗岭段。中俄界河额尔古纳河在漠河县洛古河村西北15公里处与俄罗斯方向流过来的石勒喀河汇合后就成为黑龙江源头，滚滚黑龙江水从这里为起点沿着内外兴安岭交界处的低谷一路向东流淌，后在一个叫红旗岭的地方突然拆成一个“Ω”形的江湾，这个长度达三十公里的神奇大湾就是黑龙江第一湾。"}}, {"title": "胭脂沟", "address": "大兴安岭地区漠河县金沟林场", "image": "", "rank": 5, "time": 3.0, "location": {"lat": 52.99735063567973, "lng": 122.51860300116657}, "feature": {"sight_features": "", "sight_content": ""}}, {"title": "九曲十八弯", "address": "大兴安岭地区漠河县加漠公路485段上", "image": "", "rank": 6, "time": 2.5, "location": {"lat": 52.95310489319673, "lng": 122.87100196459456}, "feature": {"sight_features": "", "sight_content": ""}}, {"title": "白桦林", "address": "大兴安岭地区漠河县", "image": "", "rank": 7, "time": 0.75, "location": {"lat": 52.94565861946904, "lng": 122.71572081474105}, "feature": {"sight_features": "", "sight_content": ""}}, {"title": "乌苏里浅滩", "address": "大兴安岭漠红倒北红村内", "image": "", "rank": 8, "time": 1.5, "location": {"lat": 50.42002595502784, "lng": 124.15292785448057}, "feature": {"sight_features": "", "sight_content": ""}}, {"title": "北陲哨所", "address": "大兴安岭地区漠河县北极村内", "image": "", "rank": 9, "time": 1.0, "location": {"lat": 53.48736255496823, "lng": 122.36612683642842}, "feature": {"sight_features": "", "sight_content": ""}}, {"title": "西山公园", "address": "大兴安岭地区漠河县城西面", "image": "", "rank": 10, "time": 1.5, "location": {"lat": 52.94565861946904, "lng": 122.71572081474105}, "feature": {"sight_features": "", "sight_content": ""}}, {"title": "神州北极广场", "address": "大兴安岭地区漠河县漠河乡北极村旅游风景区北极村旅游风景区内", "image": "", "rank": 11, "time": 1.5, "location": {"lat": 53.48585821765116, "lng": 122.36381216902764}, "feature": {"sight_features": "", "sight_content": ""}}, {"title": "李金镛祠堂", "address": "大兴安岭地区漠河县西林吉镇金沟林场", "image": "", "rank": 12, "time": 0.75, "location": {"lat": 52.99735063567973, "lng": 122.51860300116657}, "feature": {"sight_features": "", "sight_content": ""}}, {"title": "松苑原始森林公园", "address": "大兴安岭地区漠河县16区", "image": "", "rank": 13, "time": 1.5, "location": {"lat": 52.94565861946904, "lng": 122.71572081474105}, "feature": {"sight_features": "", "sight_content": ""}}, {"title": "洛古河村", "address": "大兴安岭地区漠河县洛古河村", "image": "", "rank": 14, "time": 1.5, "location": {"lat": 53.36417538288722, "lng": 121.62308218706053}, "feature": {"sight_features": "", "sight_content": ""}}, {"title": "大兴安岭五·六火灾纪念馆", "address": "大兴安岭地区漠河县中华街", "image": "", "rank": 15, "time": 1.0, "location": {"lat": 52.97799027670475, "lng": 122.54495862906646}, "feature": {"sight_features": "", "sight_content": ""}}, {"title": "中国最北邮政局", "address": "大兴安岭地区漠河县北极村", "image": "", "rank": 16, "time": 2, "location": {"lat": 53.48736255496823, "lng": 122.36612683642842}, "feature": {"sight_features": "", "sight_content": ""}}, {"title": "林海观音山", "address": "大兴安岭地区漠河县加漠公路540公里处", "image": "", "rank": 17, "time": 2.0, "location": {"lat": 52.95310489319673, "lng": 122.87100196459456}, "feature": {"sight_features": "特色1 看传说中的“佛光普照”", "sight_content": "林海观音山位于黑龙江省漠河县北极村附近。\n这是一尊三面观音正象，三位观音菩萨持着不同法器，一为持经箧，一为持念珠，一为持莲花，展现了观音大士的不同化身。"}}, {"title": "中国最北一家", "address": "大兴安岭地区漠河县", "image": "", "rank": 18, "time": 2, "location": {"lat": 52.94565861946904, "lng": 122.71572081474105}, "feature": {"sight_features": "", "sight_content": ""}}, {"title": "北望垭口广场", "address": "大兴安岭地区漠河县北极乡北极村", "image": "", "rank": 19, "time": 0.5, "location": {"lat": 53.48991300217482, "lng": 122.37179190131353}, "feature": {"sight_features": "", "sight_content": ""}}, {"title": "北极圣诞村", "address": "大兴安岭地区漠河县北极村以东22公里处", "image": "", "rank": 20, "time": 3.0, "location": {"lat": 53.48736255496823, "lng": 122.56375404862482}, "feature": {"sight_features": "", "sight_content": ""}}, {"title": "北极圣诞滑雪场", "address": "大兴安岭地区漠河县北极村（距村子约18公里）", "image": "", "rank": 21, "time": 2, "location": {"lat": 53.48736255496823, "lng": 122.36612683642842}, "feature": {"sight_features": "", "sight_content": ""}}, {"title": "兴安口岸", "address": "大兴安岭地区漠河县兴安镇", "image": "", "rank": 22, "time": 1.0, "location": {"lat": 53.40764797411074, "lng": 124.01092094100342}, "feature": {"sight_features": "", "sight_content": ""}}, {"title": "飞来松", "address": "大兴安岭地区漠河县北极村约四、五公里的加漠公路南侧", "image": "", "rank": 23, "time": 0.25, "location": {"lat": 52.95310489319673, "lng": 122.87100196459456}, "feature": {"sight_features": "", "sight_content": ""}}, {"title": "鄂伦春民族博物馆", "address": "大兴安岭地区漠河县北极村通河路", "image": "", "rank": 24, "time": 0.75, "location": {"lat": 53.48736255496823, "lng": 122.36612683642842}, "feature": {"sight_features": "", "sight_content": ""}}, {"title": "北极沙州", "address": "大兴安岭地区漠河县北极村", "image": "", "rank": 25, "time": 0.75, "location": {"lat": 53.48736255496823, "lng": 122.36612683642842}, "feature": {"sight_features": "", "sight_content": ""}}, {"title": "圣诞邮局", "address": "大兴安岭地区漠河县圣诞村旅游景区内", "image": "", "rank": 26, "time": 0.5, "location": {"lat": 52.94565861946904, "lng": 122.71572081474105}, "feature": {"sight_features": "", "sight_content": ""}}, {"title": "神龙湾景区", "address": "大兴安岭地区漠河县Z042县道", "image": "", "rank": 27, "time": null, "location": {"lat": 52.94565861946904, "lng": 122.71572081474105}, "feature": {"sight_features": "", "sight_content": ""}}, {"title": "俄罗斯小院", "address": "北极村俄罗斯小院", "image": "", "rank": 28, "time": 2, "location": {"lat": 53.48320005674849, "lng": 122.37053620226149}, "feature": {"sight_features": "", "sight_content": ""}}, {"title": "五六火灾纪念馆", "address": "黑龙江省漠河县中华路东侧 150000", "image": "", "rank": 29, "time": 0.4, "location": {"lat": 52.86872557541781, "lng": 124.5094699502427}, "feature": {"sight_features": "", "sight_content": ""}}, {"title": "古城岛", "address": "黑龙江省漠河县兴安乡东北约4公里的黑龙江中", "image": "", "rank": 30, "time": 2.5, "location": {"lat": 52.94565861946904, "lng": 122.71572081474105}, "feature": {"sight_features": "", "sight_content": ""}}, {"title": "漠河仙人洞", "address": "黑龙江省漠河县西林吉镇", "image": "", "rank": 31, "time": 2, "location": {"lat": 52.98103336302745, "lng": 122.5427507863603}, "feature": {"sight_features": "", "sight_content": ""}}, {"title": "北极观光塔", "address": "大兴安岭漠河县北极村", "image": "", "rank": 32, "time": 2, "location": {"lat": 53.48736255496823, "lng": 122.36612683642842}, "feature": {"sight_features": "", "sight_content": ""}}, {"title": "民族风情园", "address": "漠河县北极乡北极村内", "image": "", "rank": 33, "time": 2, "location": {"lat": 53.48991300217482, "lng": 122.37179190131353}, "feature": {"sight_features": "", "sight_content": ""}}, {"title": "中国北方民族园", "address": "黑龙江省大兴安岭地区漠河县通河路", "image": "", "rank": 34, "time": 3.0, "location": {"lat": 53.49354885438814, "lng": 122.34613424960844}, "feature": {"sight_features": "", "sight_content": ""}}, {"title": "七星山", "address": "北极村牌坊入口", "image": "", "rank": 35, "time": 1.5, "location": {"lat": 26.907907737148516, "lng": 112.63389174321627}, "feature": {"sight_features": "", "sight_content": ""}}, {"title": "漠河县相约户外俱乐部", "address": "36区振兴街", "image": "", "rank": 36, "time": 2, "location": {"lat": 36.65698414914894, "lng": 116.9829486463999}, "feature": {"sight_features": "", "sight_content": ""}}, {"title": "中国北极生态植物园", "address": "加漠公路", "image": "", "rank": 37, "time": 2, "location": {"lat": 50.486092003902755, "lng": 124.23807652699143}, "feature": {"sight_features": "", "sight_content": ""}}, {"title": "友谊广场", "address": "北极乡北极村", "image": "", "rank": 38, "time": 1.5, "location": {"lat": 53.48991300217482, "lng": 122.37179190131353}, "feature": {"sight_features": "", "sight_content": ""}}, {"title": "洛古河", "address": "漠洛公路(近S209)", "image": "", "rank": 39, "time": 1.5, "location": {"lat": 53.27364998197708, "lng": 121.84001803422771}, "feature": {"sight_features": "", "sight_content": ""}}, {"title": "漠河胭脂沟金矿", "address": "黑龙江省漠河县金沟林场 150000", "image": "", "rank": 40, "time": 4.5, "location": {"lat": 52.99735063567973, "lng": 122.51860300116657}, "feature": {"sight_features": "", "sight_content": ""}}, {"title": "松苑森林公园", "address": "黑龙江省漠河县西林吉镇中心16小区 150000", "image": "", "rank": 41, "time": 2, "location": {"lat": 52.98103336302745, "lng": 122.5427507863603}, "feature": {"sight_features": "", "sight_content": ""}}, {"title": "漠河图书馆", "address": "中华街030号", "image": "", "rank": 42, "time": 4.5, "location": {"lat": 24.31433316671724, "lng": 116.11852651581219}, "feature": {"sight_features": "", "sight_content": ""}}, {"title": "中国最北点", "address": "大兴安岭地区漠河县", "image": "", "rank": 43, "time": 2, "location": {"lat": 52.94565861946904, "lng": 122.71572081474105}, "feature": {"sight_features": "", "sight_content": ""}}, {"title": "漠河火灾纪念馆", "address": "林吉镇中华路东侧五·六火灾纪念馆", "image": "", "rank": 44, "time": 4.5, "location": {"lat": 37.970712769913675, "lng": 114.74264320390324}, "feature": {"sight_features": "", "sight_content": ""}}, {"title": "图强林业博物馆", "address": "图强林业局文体中心", "image": "", "rank": 45, "time": 2, "location": {"lat": 52.9253664851732, "lng": 122.66724958890543}, "feature": {"sight_features": "", "sight_content": ""}}, {"title": "张洪海", "address": "207省道", "image": "", "rank": 46, "time": 2, "location": {"lat": 41.663861161619536, "lng": 118.91663300242887}, "feature": {"sight_features": "", "sight_content": ""}}, {"title": "古城岛 Gucheng Island", "address": "黑龙江省漠河县黑龙江", "image": "", "rank": 47, "time": 2, "location": {"lat": 52.94565861946904, "lng": 122.71572081474105}, "feature": {"sight_features": "", "sight_content": ""}}, {"title": "北极村森林公园", "address": "黑龙江省漠河县漠河林场", "image": "", "rank": 48, "time": 2, "location": {"lat": 53.46984758316962, "lng": 122.36436286713577}, "feature": {"sight_features": "", "sight_content": ""}}, {"title": "大迁移壁画", "address": "大兴安岭地区-漠河市-通河路附近北方民族园内", "image": "", "rank": 49, "time": null, "location": {"lat": 53.49354885438814, "lng": 122.34613424960844}, "feature": {"sight_features": "", "sight_content": ""}}, {"title": "漠河黑龙江", "address": "漠河县段", "image": "", "rank": 50, "time": 4.5, "location": {"lat": 52.94565861946904, "lng": 122.71572081474105}, "feature": {"sight_features": "", "sight_content": ""}}, {"title": "阿木尔中国野生蓝莓之乡", "address": "黑龙江上游漠河县", "image": "", "rank": 51, "time": 2, "location": {"lat": 52.94565861946904, "lng": 122.71572081474105}, "feature": {"sight_features": "", "sight_content": ""}}, {"title": "二十八站", "address": "黑龙江省大兴安岭地区漠河县二十八站", "image": "", "rank": 52, "time": 4.0, "location": {"lat": 53.33454320991586, "lng": 123.06076249535518}, "feature": {"sight_features": "", "sight_content": ""}}, {"title": "扎林库尔山", "address": "塔河", "image": "", "rank": 53, "time": 2, "location": {"lat": 52.34030508111336, "lng": 124.71651251448932}, "feature": {"sight_features": "", "sight_content": ""}}]}