{"cityName": "墨江", "days": 2, "cityImage": "", "spots": [{"title": "北回归线标志园", "address": "普洱市墨江哈尼族自治县北回归线标志园", "image": "", "rank": 1, "time": 1.5, "location": {"lat": 23.43772577225623, "lng": 101.6985835615522}, "feature": {"sight_features": "特色1 被誉为“太阳转身的地方” 特色2 融天文、地理、植物及科普知识和园林艺术、旅游文化为一体主题公园。 特色3 四季如春、气候宜人被誉为“森林中的城市”", "sight_content": "1997年建好的北回归线标志园占地1500平方米，融天文、地理、植物及科普知识和园林艺术、旅游文化为一体，以公元2038年北回归线的位置（北纬23。26）为主轴线，截北回归线上500米地段，间 以\"太阳之路\"、\"夸父追日\"、\"北回归线之门\"、\"日晷广场\"、\"春夏秋冬\"等建筑小品，雕塑以及主体标志，创找了一个形象生动的空间系列，以科普博物馆表达对自然、生命、阳光的理解，向人们陈述从悠悠亘古到今日文化科学发展的宇宙世界，并通过技术手段精确地展示北回归线的地理位置及变化，使人们每年夏至均可在此\"捕捉\"到北回归线的身影。\n在夏至节气这一天，太阳几乎直射北回归线，是阳光直射点在一年中所能达到北半球最高的纬度。此时北半球各地白昼最长，黑夜最短。夏至这天正午时分呈绝对（接近）直射状，北回归线的地区就会出现短暂的“立竿无影”现象。立竿无影，太阳直射北回归线，标志着北回归线附近夏季的真正来临，也标志着炎热的天气气候将到来。\n墨江北回归线标志园，地处东经101o41′00\"北纬23o26′03\"61，是一个融天文、地理、气候、植物等科普知识和园林艺术、民族文化、观赏旅游为一体的地理标志实体和旅游观光景点。 北回归线是太阳在北半球能够直射到的\n因此，把这两个纬度圈分别称为北回归线与南回归线。墨江是全国唯一的哈尼族自治县，北回归线从县城穿过，被誉为“太阳转身的地方”。每到夏至日的夏至时，太阳就会直射北回归线，然后掉 头由北向南慢慢归去。在此居住的哈尼族同胞也与太阳结下了深深的情缘，每到夏至日，他们都会用自己的方式去迎接太阳的转身。\n沿着北回归线人们可顺势依山漫游，走向大自然，融入大地的怀抱，北回归线道路曲折蜿蜒，绿树成荫，蝉鸣林间，鸟语枝头，游客在欣赏建筑、雕塑、园林艺术及获得科普知识的同时，还可品尝到普洱名茶、墨江美酒。"}}, {"title": "双胞文化园", "address": "普洱市墨江县墨江河西村", "image": "", "rank": 2, "time": 2, "location": {"lat": 23.43772577225623, "lng": 101.6985835615522}, "feature": {"sight_features": "特色1 以两潭清澈见底的双胞井为主", "sight_content": "公园以展示双胞文化和生殖文化为主体，以“水”为景观轴，游路为纽带，连接各景观节点，提供人们感受自然、亲近自然的空间环境。\n墨江国际双胞文化园建设于县城西片区河西村内，核心区占地面积75亩，整个园区以两潭清澈见底的双胞井为主，泉水干冽清甜，无论春夏秋冬，既不满溢，也不下降。\n景观主要由大门入口广场、双胞文化长廊、儿童游乐场、双胞井文化广场、阳文化广场、阴文化广场、求子殿、景观配套设施和服务配套设施组成。 双生植物、双子雕塑遍布园区，向人们展示出一个双胞的丰富、多彩世界，细细品味双胞文化的韵味。"}}, {"title": "碧溪古镇", "address": "普洱市墨江哈尼族自治县218省道", "image": "", "rank": 3, "time": 2, "location": {"lat": 23.27883049765305, "lng": 101.7372500442498}, "feature": {"sight_features": "", "sight_content": ""}}, {"title": "墨江文庙", "address": "云南省墨江哈尼族自治县东正街", "image": "", "rank": 4, "time": 1.0, "location": {"lat": 23.437717776190752, "lng": 101.7000154596363}, "feature": {"sight_features": "", "sight_content": ""}}, {"title": "癸能村", "address": "云南省普洱市墨江哈尼族自治县癸能村", "image": "", "rank": 5, "time": 2, "location": {"lat": 23.45368593844622, "lng": 101.75913669206072}, "feature": {"sight_features": "", "sight_content": ""}}, {"title": "聚缘农家园", "address": "323国道", "image": "", "rank": 6, "time": 2, "location": {"lat": 24.97631276438632, "lng": 113.87824165692972}, "feature": {"sight_features": "", "sight_content": ""}}, {"title": "绿草墩", "address": "恭顺街", "image": "", "rank": 7, "time": 2, "location": {"lat": 23.434463468969025, "lng": 101.69405506064732}, "feature": {"sight_features": "", "sight_content": ""}}, {"title": "龙泉山庄", "address": "323国道附近", "image": "", "rank": 8, "time": 2, "location": {"lat": 24.97631276438632, "lng": 113.87824165692972}, "feature": {"sight_features": "", "sight_content": ""}}, {"title": "糯干", "address": "云南省普洱市景谷傣族彝族自治县", "image": "", "rank": 9, "time": 2, "location": {"lat": 23.503204071241473, "lng": 100.70945658009512}, "feature": {"sight_features": "", "sight_content": ""}}, {"title": "泗南江基督教福音堂", "address": "普洱市墨江哈尼族自治县", "image": "", "rank": 10, "time": 2, "location": {"lat": 23.43772577225623, "lng": 101.6985835615522}, "feature": {"sight_features": "", "sight_content": ""}}, {"title": "莲花广场", "address": "普洱市墨江哈尼族自治县河西村中国墨江国际双胞文化园内", "image": "", "rank": 11, "time": 1.0, "location": {"lat": 23.611567290726505, "lng": 101.18169170643091}, "feature": {"sight_features": "", "sight_content": ""}}, {"title": "石阵广场", "address": "高速路云南省墨江北回归线标志园附近", "image": "", "rank": 12, "time": 2, "location": {"lat": 23.436325674821617, "lng": 101.69008161912363}, "feature": {"sight_features": "", "sight_content": ""}}, {"title": "双子星广场", "address": "普洱市墨江哈尼族自治县墨江北回归线标志园内", "image": "", "rank": 13, "time": 2, "location": {"lat": 23.43772577225623, "lng": 101.6985835615522}, "feature": {"sight_features": "", "sight_content": ""}}, {"title": "云南省天然林保护工程墨江林业局...", "address": "218省道附近", "image": "", "rank": 14, "time": 2, "location": {"lat": 38.684744940323974, "lng": 111.4657298465704}, "feature": {"sight_features": "", "sight_content": ""}}, {"title": "森林度假村", "address": "民族学校对面", "image": "", "rank": 15, "time": 2, "location": {"lat": 39.933001423436835, "lng": 116.59326431084972}, "feature": {"sight_features": "", "sight_content": ""}}, {"title": "小主人游乐园", "address": "太阳广场与联珠大道交叉口西北100米", "image": "", "rank": 16, "time": 2, "location": {"lat": 23.431622313895716, "lng": 101.69165071271334}, "feature": {"sight_features": "", "sight_content": ""}}, {"title": "他郎清真寺", "address": "云南省普洱市墨江哈尼族自治县联珠镇东正街兴希望幼儿园东北250米", "image": "", "rank": 17, "time": 2, "location": {"lat": 23.43919536226654, "lng": 101.70503384156953}, "feature": {"sight_features": "", "sight_content": ""}}, {"title": "庾恩旸故居", "address": "218省道", "image": "", "rank": 18, "time": 2, "location": {"lat": 38.684744940323974, "lng": 111.4657298465704}, "feature": {"sight_features": "", "sight_content": ""}}, {"title": "墨江县九居阁庄园有限公司", "address": "联珠镇班中村新桥组86号", "image": "", "rank": 19, "time": null, "location": {"lat": 23.422719748464896, "lng": 101.69784817811957}, "feature": {"sight_features": "", "sight_content": ""}}, {"title": "田园牧歌生态农家乐", "address": "双胞大道附近", "image": "", "rank": 20, "time": 2, "location": {"lat": 23.43316559473344, "lng": 101.6835143743391}, "feature": {"sight_features": "", "sight_content": ""}}, {"title": "太阳广场", "address": "云南省普洱市墨江哈尼族自治县", "image": "", "rank": 21, "time": 2, "location": {"lat": 23.43772577225623, "lng": 101.6985835615522}, "feature": {"sight_features": "", "sight_content": ""}}]}