{"cityName": "墨脱", "days": null, "cityImage": "", "spots": [{"title": "墨脱", "address": "林芝市墨脱县", "image": "", "rank": 1, "time": 1.0, "location": {"lat": 29.33093770187824, "lng": 95.3394952975097}, "feature": {"sight_features": "", "sight_content": ""}}, {"title": "嘎隆拉雪山", "address": "林芝市墨脱县境内", "image": "", "rank": 2, "time": 3.5, "location": {"lat": 29.33093770187824, "lng": 95.3394952975097}, "feature": {"sight_features": "", "sight_content": ""}}, {"title": "仁钦崩寺", "address": "林芝市墨脱县，墨脱村南侧玛拉山上", "image": "", "rank": 3, "time": 1.0, "location": {"lat": 29.33093770187824, "lng": 95.3394952975097}, "feature": {"sight_features": "", "sight_content": ""}}, {"title": "果果塘大拐弯", "address": "林芝市墨脱县境内", "image": "", "rank": 4, "time": 0.5, "location": {"lat": 29.33093770187824, "lng": 95.3394952975097}, "feature": {"sight_features": "", "sight_content": ""}}, {"title": "仰桑河", "address": "林芝市墨脱县南部", "image": "", "rank": 5, "time": 2, "location": {"lat": 29.33093770187824, "lng": 95.3394952975097}, "feature": {"sight_features": "", "sight_content": ""}}, {"title": "汗密瀑布", "address": "林芝市墨脱县背崩乡汗密站", "image": "", "rank": 6, "time": 0.5, "location": {"lat": 28.475784317931737, "lng": 94.51570369356814}, "feature": {"sight_features": "", "sight_content": ""}}, {"title": "布达切波山", "address": "林芝市墨脱县境内", "image": "", "rank": 7, "time": 7.5, "location": {"lat": 29.33093770187824, "lng": 95.3394952975097}, "feature": {"sight_features": "", "sight_content": ""}}, {"title": "老虎嘴瀑布", "address": "林芝市墨脱县境内，汗密附近。", "image": "", "rank": 8, "time": 0.75, "location": {"lat": 29.33093770187824, "lng": 95.3394952975097}, "feature": {"sight_features": "", "sight_content": ""}}, {"title": "好日子莲花广场", "address": "林芝市墨脱县墨脱镇（近县人民医院）", "image": "", "rank": 9, "time": 0.25, "location": {"lat": 29.15437936679935, "lng": 95.54863828232428}, "feature": {"sight_features": "", "sight_content": ""}}, {"title": "布裙湖", "address": "林芝市墨脱县背崩乡", "image": "", "rank": 10, "time": 0.5, "location": {"lat": 28.475784317931737, "lng": 94.51570369356814}, "feature": {"sight_features": "", "sight_content": ""}}, {"title": "背崩瀑布", "address": "林芝地市墨脱县背崩乡附近", "image": "", "rank": 11, "time": 0.75, "location": {"lat": 28.475784317931737, "lng": 94.51570369356814}, "feature": {"sight_features": "", "sight_content": ""}}, {"title": "多雄拉河", "address": "林芝市墨脱县与米林县交界处多雄拉山（发源地）", "image": "", "rank": 12, "time": 2.5, "location": {"lat": 29.33093770187824, "lng": 95.3394952975097}, "feature": {"sight_features": "", "sight_content": ""}}, {"title": "墨脱解放大桥", "address": "林芝市墨脱县背崩乡境内", "image": "", "rank": 13, "time": 0.2, "location": {"lat": 28.475784317931737, "lng": 94.51570369356814}, "feature": {"sight_features": "", "sight_content": ""}}, {"title": "藤桥", "address": "林芝市墨脱县县城西南侧", "image": "", "rank": 14, "time": 0.5, "location": {"lat": 29.33093770187824, "lng": 95.3394952975097}, "feature": {"sight_features": "", "sight_content": ""}}, {"title": "德兴乡", "address": "林芝市墨脱县德兴乡", "image": "", "rank": 15, "time": 2, "location": {"lat": 29.39387487532511, "lng": 95.146249472588}, "feature": {"sight_features": "", "sight_content": ""}}, {"title": "墨脱博物馆", "address": "墨脱博物馆", "image": "", "rank": 16, "time": 4.5, "location": {"lat": 29.33093770187824, "lng": 95.3394952975097}, "feature": {"sight_features": "", "sight_content": ""}}, {"title": "门珞历史文化遗产博物馆", "address": "西藏自治区林芝市墨脱县墨脱镇致富路莲花阁", "image": "", "rank": 17, "time": 2, "location": {"lat": 29.15437936679935, "lng": 95.54863828232428}, "feature": {"sight_features": "", "sight_content": ""}}, {"title": "中心广场", "address": "金珠路1号附近", "image": "", "rank": 18, "time": 1.0, "location": {"lat": 28.937216653656638, "lng": 99.80664960597812}, "feature": {"sight_features": "", "sight_content": ""}}, {"title": "查去卡", "address": "林芝市-墨脱县", "image": "", "rank": 19, "time": 2, "location": {"lat": 29.33093770187824, "lng": 95.3394952975097}, "feature": {"sight_features": "", "sight_content": ""}}, {"title": "日那才崩溶洞", "address": "西藏自治区墨脱县", "image": "", "rank": 20, "time": 2, "location": {"lat": 29.33093770187824, "lng": 95.3394952975097}, "feature": {"sight_features": "", "sight_content": ""}}, {"title": "江新瀑布", "address": "西藏自治区墨脱县背崩乡", "image": "", "rank": 21, "time": 2, "location": {"lat": 28.475784317931737, "lng": 94.51570369356814}, "feature": {"sight_features": "", "sight_content": ""}}, {"title": "南迦巴瓦峰", "address": "林芝市米林县", "image": "", "rank": 22, "time": 1.0, "location": {"lat": 29.220916541197315, "lng": 94.21993857808282}, "feature": {"sight_features": "", "sight_content": ""}}]}