{"cityName": "牟定", "days": 2, "cityImage": "", "spots": [{"title": "唐仁桩", "address": "219省道附近", "image": "", "rank": 1, "time": 2, "location": {"lat": 40.151047949015684, "lng": 115.89871895858025}, "feature": {"sight_features": "", "sight_content": ""}}, {"title": "彝山生态园", "address": "214省道附近", "image": "", "rank": 2, "time": 2, "location": {"lat": 40.25674691410845, "lng": 116.28095415138388}, "feature": {"sight_features": "", "sight_content": ""}}, {"title": "乡谷香农家乐", "address": "新南路与214省道交叉口东南100米", "image": "", "rank": 3, "time": 2, "location": {"lat": 23.039296857556096, "lng": 116.29786588873182}, "feature": {"sight_features": "", "sight_content": ""}}, {"title": "归元寺", "address": "云南省楚雄彝族自治州牟定县共和镇化佛山景区华圣寺", "image": "", "rank": 4, "time": 2, "location": {"lat": 25.32739886834403, "lng": 101.42813919726494}, "feature": {"sight_features": "", "sight_content": ""}}, {"title": "华圣寺", "address": "云南省楚雄彝族自治州牟定县", "image": "", "rank": 5, "time": 2, "location": {"lat": 25.318845903713523, "lng": 101.5534809912178}, "feature": {"sight_features": "", "sight_content": ""}}, {"title": "中园广场", "address": "共和镇中园东路", "image": "", "rank": 6, "time": 2, "location": {"lat": 25.318754926439254, "lng": 101.55669361378833}, "feature": {"sight_features": "", "sight_content": ""}}, {"title": "全民健身乐园", "address": "学兴路", "image": "", "rank": 7, "time": 2, "location": {"lat": 45.721250098660974, "lng": 126.63165130656488}, "feature": {"sight_features": "", "sight_content": ""}}, {"title": "图书馆", "address": "文庙街", "image": "", "rank": 8, "time": 1.0, "location": {"lat": 37.13084408685483, "lng": 114.6920894264132}, "feature": {"sight_features": "", "sight_content": ""}}, {"title": "乐乐画画屋", "address": "南大街", "image": "", "rank": 9, "time": 2, "location": {"lat": 39.99223922822961, "lng": 116.48539491834674}, "feature": {"sight_features": "", "sight_content": ""}}]}