{"cityName": "墨竹工卡", "days": 2, "cityImage": "", "spots": [{"title": "思金拉错湖", "address": "林芝地区墨竹工卡县日多乡东南边", "image": "", "rank": 1, "time": 1.0, "location": {"lat": 29.69830058535569, "lng": 92.2437726068513}, "feature": {"sight_features": "", "sight_content": ""}}, {"title": "松赞干布纪念馆", "address": "拉萨市墨竹工卡县，318国道边", "image": "", "rank": 2, "time": 0.75, "location": {"lat": 29.778826113226213, "lng": 91.86030748391414}, "feature": {"sight_features": "", "sight_content": ""}}, {"title": "噶泽寺", "address": "拉萨市墨竹工卡县的秀绒河与马曲河汇合处的马曲河东", "image": "", "rank": 3, "time": 0.4, "location": {"lat": 29.839752605055274, "lng": 91.73726639859201}, "feature": {"sight_features": "", "sight_content": ""}}, {"title": "甲玛沟", "address": "墨竹工卡县城以西15公里处", "image": "", "rank": 4, "time": 2, "location": {"lat": 29.839752605055274, "lng": 91.73726639859201}, "feature": {"sight_features": "", "sight_content": ""}}, {"title": "德宗温泉", "address": "西藏自治区墨竹工卡县门巴乡德宗村 850200", "image": "", "rank": 5, "time": null, "location": {"lat": 30.10634384611649, "lng": 92.2227323338744}, "feature": {"sight_features": "", "sight_content": ""}}, {"title": "羊日岗寺", "address": "西藏自治区拉萨市墨竹工卡县", "image": "", "rank": 6, "time": 2, "location": {"lat": 29.839752605055274, "lng": 91.73726639859201}, "feature": {"sight_features": "", "sight_content": ""}}, {"title": "甲玛赤康雪利民度假村", "address": "甲玛乡附近", "image": "", "rank": 7, "time": 2, "location": {"lat": 29.76020265378833, "lng": 91.67467120765988}, "feature": {"sight_features": "", "sight_content": ""}}, {"title": "乌马曲湿地", "address": "西藏自治区墨竹工卡县境内 850200", "image": "", "rank": 8, "time": 2, "location": {"lat": 29.839752605055274, "lng": 91.73726639859201}, "feature": {"sight_features": "", "sight_content": ""}}, {"title": "直贡梯寺天葬台", "address": "西藏自治区墨竹工卡县门巴乡境内", "image": "", "rank": 9, "time": 2, "location": {"lat": 30.10634384611649, "lng": 92.2227323338744}, "feature": {"sight_features": "", "sight_content": ""}}, {"title": "达普寺", "address": "西藏自治区墨竹工卡县尼玛江热乡章达村", "image": "", "rank": 10, "time": 2, "location": {"lat": 29.931323300398123, "lng": 91.85845478449538}, "feature": {"sight_features": "", "sight_content": ""}}, {"title": "财神湖", "address": "距离拉萨约140公里的思金拉措", "image": "", "rank": 11, "time": 2, "location": {"lat": 29.65004027476773, "lng": 91.12082391546393}, "feature": {"sight_features": "", "sight_content": ""}}]}