{"cityName": "木里", "days": 2, "cityImage": "", "spots": [{"title": "木里王国", "address": "凉山州木里县", "image": "", "rank": 1, "time": 1.0, "location": {"lat": 27.934598559239884, "lng": 101.28639697674048}, "feature": {"sight_features": "", "sight_content": ""}}, {"title": "长海子", "address": "凉山彝族自治州木里藏族自治县 ‎", "image": "", "rank": 2, "time": 2.5, "location": {"lat": 27.934598559239884, "lng": 101.28639697674048}, "feature": {"sight_features": "", "sight_content": ""}}, {"title": "康坞大寺", "address": "凉山彝族自治州木里藏族自治县", "image": "", "rank": 3, "time": 2.5, "location": {"lat": 27.934598559239884, "lng": 101.28639697674048}, "feature": {"sight_features": "", "sight_content": ""}}, {"title": "白水河", "address": "四川凉山州木里县水洛乡境内", "image": "", "rank": 4, "time": 2.0, "location": {"lat": 28.287778132527297, "lng": 100.65604445198153}, "feature": {"sight_features": "", "sight_content": ""}}, {"title": "云南堡瀑布", "address": "四川省凉山彝族自治州木里藏族自治县沙湾乡境内", "image": "", "rank": 5, "time": 2, "location": {"lat": 28.50843913452462, "lng": 100.9207960063216}, "feature": {"sight_features": "", "sight_content": ""}}, {"title": "瓦尔寨大寺", "address": "凉山彝族自治州木里藏族自治县沙湾乡", "image": "", "rank": 6, "time": 2.5, "location": {"lat": 28.50843913452462, "lng": 100.9207960063216}, "feature": {"sight_features": "", "sight_content": ""}}, {"title": "彝族祖籍之谜", "address": "四川省峨边彝族自治县斯和镇 614300", "image": "", "rank": 7, "time": 2, "location": {"lat": 29.236089109562577, "lng": 103.26857725337631}, "feature": {"sight_features": "", "sight_content": ""}}, {"title": "水洛乡", "address": "凉山彝族自治州木里藏族自治县", "image": "", "rank": 8, "time": 2, "location": {"lat": 27.934598559239884, "lng": 101.28639697674048}, "feature": {"sight_features": "", "sight_content": ""}}]}