{"cityName": "穆棱", "days": 2, "cityImage": "", "spots": [{"title": "穆棱花海", "address": "牡丹江市穆棱市G301(绥满线)", "image": "", "rank": 1, "time": 2, "location": {"lat": 44.92478458958822, "lng": 130.53055850351956}, "feature": {"sight_features": "", "sight_content": ""}}, {"title": "金城公园", "address": "牡丹江市穆棱市兴林街", "image": "", "rank": 2, "time": 1.0, "location": {"lat": 44.92343055726993, "lng": 130.55415934731863}, "feature": {"sight_features": "", "sight_content": ""}}, {"title": "信飞滑雪场", "address": "牡丹江市穆棱市河西镇八面通信飞滑雪场", "image": "", "rank": 3, "time": 2, "location": {"lat": 44.93295884118611, "lng": 130.50107073493376}, "feature": {"sight_features": "", "sight_content": ""}}, {"title": "雷峰滑雪场", "address": "牡丹江市穆棱市八面通雷峰滑雪场（雷锋水库附近）", "image": "", "rank": 4, "time": null, "location": {"lat": 44.94494476435281, "lng": 130.47356721721945}, "feature": {"sight_features": "", "sight_content": ""}}, {"title": "远东林木博物馆", "address": "牡丹江市穆棱市穆棱经济开发区", "image": "", "rank": 5, "time": 1.0, "location": {"lat": 44.92478458958822, "lng": 130.53055850351956}, "feature": {"sight_features": "", "sight_content": ""}}, {"title": "六峰湖自然保护区", "address": "黑龙江省牡丹江市穆棱市", "image": "", "rank": 6, "time": 2, "location": {"lat": 44.92478458958822, "lng": 130.53055850351956}, "feature": {"sight_features": "", "sight_content": ""}}, {"title": "淘乐淘儿童乐园", "address": "东风路庆客隆超市1楼东侧", "image": "", "rank": 7, "time": 2, "location": {"lat": 46.602660002312085, "lng": 125.12804369573969}, "feature": {"sight_features": "", "sight_content": ""}}, {"title": "穆棱六峰山森林公园", "address": "黑龙江省穆棱市穆棱镇 157513", "image": "", "rank": 8, "time": 2, "location": {"lat": 44.53192597074279, "lng": 130.26956814887248}, "feature": {"sight_features": "", "sight_content": ""}}, {"title": "中俄友好纪念馆", "address": "城南路南100米穆棱市公共检验检测公共服务中心附近", "image": "", "rank": 9, "time": 2, "location": {"lat": 44.69224818720074, "lng": 130.47330982664}, "feature": {"sight_features": "", "sight_content": ""}}, {"title": "文化公园", "address": "八面通镇团结路御锦时尚花园", "image": "", "rank": 10, "time": 2, "location": {"lat": 44.91807803788961, "lng": 130.54001411582607}, "feature": {"sight_features": "", "sight_content": ""}}, {"title": "开心哈乐室内儿童主题亲子乐园", "address": "其他幸福大街幸福家园3栋5号", "image": "", "rank": 11, "time": 2, "location": {"lat": 39.89924365121202, "lng": 116.43748343734478}, "feature": {"sight_features": "", "sight_content": ""}}, {"title": "小四方山", "address": "黑龙江省穆棱市福禄乡 157502", "image": "", "rank": 12, "time": 2, "location": {"lat": 44.94322933148099, "lng": 130.59607977824732}, "feature": {"sight_features": "", "sight_content": ""}}, {"title": "宝噜噜亲子游乐园", "address": "黑龙江省牡丹江市穆棱市和平大街326", "image": "", "rank": 13, "time": 2, "location": {"lat": 44.92553587537897, "lng": 130.532137403911}, "feature": {"sight_features": "", "sight_content": ""}}, {"title": "锦绣荷园", "address": "牡丹江市穆棱市", "image": "", "rank": 14, "time": 2, "location": {"lat": 44.92478458958822, "lng": 130.53055850351956}, "feature": {"sight_features": "", "sight_content": ""}}, {"title": "清河山庄", "address": "206省道附近", "image": "", "rank": 15, "time": 1.5, "location": {"lat": 40.08163878542396, "lng": 117.10435023437643}, "feature": {"sight_features": "", "sight_content": ""}}, {"title": "德汇缘休闲度假村", "address": "示范水库附近", "image": "", "rank": 16, "time": 2, "location": {"lat": 27.230846298710482, "lng": 115.37281777821383}, "feature": {"sight_features": "", "sight_content": ""}}, {"title": "穆棱河文化艺术馆", "address": "068县道", "image": "", "rank": 17, "time": 2, "location": {"lat": 30.022408273049543, "lng": 116.11335028560431}, "feature": {"sight_features": "", "sight_content": ""}}, {"title": "穆棱市图书馆", "address": "文物管理所八面通镇长征路64号", "image": "", "rank": 18, "time": null, "location": {"lat": 44.92376837222845, "lng": 130.54109853541567}, "feature": {"sight_features": "", "sight_content": ""}}, {"title": "抗日战争纪念馆", "address": "铁路街137号", "image": "", "rank": 19, "time": 1.5, "location": {"lat": 44.92438092410258, "lng": 130.54896559189396}, "feature": {"sight_features": "", "sight_content": ""}}, {"title": "科学技术馆", "address": "长征路", "image": "", "rank": 20, "time": 2, "location": {"lat": 39.141346527814115, "lng": 117.23987241332537}, "feature": {"sight_features": "", "sight_content": ""}}, {"title": "六峰湖 Liufeng Lake", "address": "黑龙江省穆棱市六峰山山脚", "image": "", "rank": 21, "time": 2, "location": {"lat": 44.11184337988081, "lng": 130.18531513007423}, "feature": {"sight_features": "", "sight_content": ""}}, {"title": "中东铁路历史文化穆棱陈列馆", "address": "牡丹江市-穆棱市-马桥河镇新站村", "image": "", "rank": 22, "time": 2, "location": {"lat": 44.68812585370981, "lng": 130.55873203856794}, "feature": {"sight_features": "", "sight_content": ""}}, {"title": "狮子桥瞭望塔", "address": "牡丹江市-穆棱市", "image": "", "rank": 23, "time": 2, "location": {"lat": 44.92478458958822, "lng": 130.53055850351956}, "feature": {"sight_features": "", "sight_content": ""}}, {"title": "锋利跆拳道道馆", "address": "牡丹江市-穆棱市-八面通镇中联星光购物中心三楼", "image": "", "rank": 24, "time": 2, "location": {"lat": 44.92308393267423, "lng": 130.54085431264753}, "feature": {"sight_features": "", "sight_content": ""}}]}