{"cityName": "南部县", "days": 2, "cityImage": "", "spots": [{"title": "升钟湖", "address": "南充市南部县升水镇", "image": "", "rank": 1, "time": 1.0, "location": {"lat": 31.530077644476876, "lng": 105.75048140894846}, "feature": {"sight_features": "", "sight_content": ""}}, {"title": "禹迹山大佛旅游景区", "address": "南充市南部县", "image": "", "rank": 2, "time": 2, "location": {"lat": 31.353705301525753, "lng": 106.04357826970909}, "feature": {"sight_features": "", "sight_content": ""}}, {"title": "世外桃源风景区", "address": "南充市南部县老鸦镇世外桃源风景区", "image": "", "rank": 3, "time": 2.5, "location": {"lat": 31.403052611083044, "lng": 106.00248446400222}, "feature": {"sight_features": "", "sight_content": "世外桃源风景区坐落在嘉陵江畔，位于南部县老鸦镇中学对面、国道212线旁，距离阆中5A级景区仅有20余公里、南部火车站2公里，开设特色餐饮、临江茶坊、江景酒店、马尔代鸦椰树沙滩、丛林穿越、玻璃站台、飞天滑索、吊桥等项目。"}}, {"title": "醴峰观", "address": "四川省南部县丘垭乡金星村 637321", "image": "", "rank": 4, "time": 1.5, "location": {"lat": 31.42931250690242, "lng": 105.55218573528433}, "feature": {"sight_features": "", "sight_content": ""}}, {"title": "淑蓉健康生态农庄", "address": "大王镇繁荣村", "image": "", "rank": 5, "time": 2, "location": {"lat": 31.334203795621608, "lng": 105.9228998473122}, "feature": {"sight_features": "", "sight_content": ""}}, {"title": "鳄鱼漆(南部(建兴专卖店)", "address": "拱背桥街与367乡道交叉口西北50米", "image": "", "rank": 6, "time": 2, "location": {"lat": 30.65332681006581, "lng": 104.0859247215033}, "feature": {"sight_features": "", "sight_content": ""}}, {"title": "双宇·奥普乐水上乐园", "address": "滨江路红岩子广场", "image": "", "rank": 7, "time": 2, "location": {"lat": 31.370081310165375, "lng": 106.0678750676173}, "feature": {"sight_features": "", "sight_content": ""}}, {"title": "南部县康坝镇文化站影剧院", "address": "禹王路7东坝镇小学附近正街", "image": "", "rank": 8, "time": 2, "location": {"lat": 31.19145488421551, "lng": 106.09786754286571}, "feature": {"sight_features": "", "sight_content": ""}}, {"title": "红岩村生态园", "address": "212国道附近", "image": "", "rank": 9, "time": 2, "location": {"lat": 32.4966001815921, "lng": 105.6244436788112}, "feature": {"sight_features": "", "sight_content": ""}}, {"title": "张爷庙戏台", "address": "石河镇附近南街", "image": "", "rank": 10, "time": 2, "location": {"lat": 40.006733649473425, "lng": 119.7083457566607}, "feature": {"sight_features": "", "sight_content": ""}}, {"title": "吉峰长城南部分部", "address": "嘉陵路109号附近", "image": "", "rank": 11, "time": 2, "location": {"lat": 30.00863219051933, "lng": 106.27805713685724}, "feature": {"sight_features": "", "sight_content": ""}}, {"title": "植物园", "address": "蜀北大道西段", "image": "", "rank": 12, "time": 1.0, "location": {"lat": 31.34738493681059, "lng": 106.04649463920826}, "feature": {"sight_features": "", "sight_content": ""}}, {"title": "美人鱼码头", "address": "南充市南部县中国钓鱼文化博物馆附近", "image": "", "rank": 13, "time": 2, "location": {"lat": 31.53878771854442, "lng": 105.75808895799032}, "feature": {"sight_features": "", "sight_content": ""}}, {"title": "夏家祠堂", "address": "南充市南部县东坝--大堰", "image": "", "rank": 14, "time": 2, "location": {"lat": 31.353705301525753, "lng": 106.04357826970909}, "feature": {"sight_features": "", "sight_content": ""}}, {"title": "陈家祠堂", "address": "南充市南部县二零四省道", "image": "", "rank": 15, "time": 1.5, "location": {"lat": 31.353705301525753, "lng": 106.04357826970909}, "feature": {"sight_features": "", "sight_content": ""}}, {"title": "杨家祠堂", "address": "南充市南部县二一二国道", "image": "", "rank": 16, "time": 2.0, "location": {"lat": 31.287337604878854, "lng": 105.88105881311601}, "feature": {"sight_features": "", "sight_content": ""}}, {"title": "家乐水族馆", "address": "四川省南充市南部县柳林街70号", "image": "", "rank": 17, "time": 2, "location": {"lat": 31.359468283521956, "lng": 106.07658210397624}, "feature": {"sight_features": "", "sight_content": ""}}, {"title": "宋氏祠堂", "address": "南充市南部县升水镇果园场升钟湖风景区内", "image": "", "rank": 18, "time": 2, "location": {"lat": 31.53878771854442, "lng": 105.75808895799032}, "feature": {"sight_features": "", "sight_content": ""}}, {"title": "望月度假村", "address": "南充市南部县南隆镇望月村五组5号", "image": "", "rank": 19, "time": 2, "location": {"lat": 31.33524027563541, "lng": 106.02056852979999}, "feature": {"sight_features": "", "sight_content": ""}}, {"title": "南充南部望月度假村", "address": "四川省南充市南部县南隆镇望月村五组5号", "image": "", "rank": 20, "time": 7.5, "location": {"lat": 31.33524027563541, "lng": 106.02056852979999}, "feature": {"sight_features": "", "sight_content": ""}}, {"title": "满天星儿童主题乐园", "address": "南充市南部县", "image": "", "rank": 21, "time": 2, "location": {"lat": 31.353705301525753, "lng": 106.04357826970909}, "feature": {"sight_features": "", "sight_content": ""}}, {"title": "南部县双峰乡凤凰岛度假村", "address": "南部县双峰乡11村2社", "image": "", "rank": 22, "time": 2, "location": {"lat": 31.572550872400942, "lng": 105.67581596263787}, "feature": {"sight_features": "", "sight_content": ""}}, {"title": "弘燕蓝剑528夜啤酒广场", "address": "滨江路108号附近", "image": "", "rank": 23, "time": 2, "location": {"lat": 28.59638496201225, "lng": 112.36870025992235}, "feature": {"sight_features": "", "sight_content": ""}}, {"title": "南部县曹家寨天宝寺", "address": "正街", "image": "", "rank": 24, "time": 2, "location": {"lat": 37.4268809625234, "lng": 112.5658756215853}, "feature": {"sight_features": "", "sight_content": ""}}, {"title": "滨江河畔度假村", "address": "嘉陵江二桥附近", "image": "", "rank": 25, "time": 2, "location": {"lat": 31.356012669342256, "lng": 106.09625728891703}, "feature": {"sight_features": "", "sight_content": ""}}, {"title": "儿童乐园", "address": "四川省南充市南部县", "image": "", "rank": 26, "time": 2, "location": {"lat": 31.353705301525753, "lng": 106.04357826970909}, "feature": {"sight_features": "", "sight_content": ""}}, {"title": "正觉寺", "address": "南部县东街", "image": "", "rank": 27, "time": 0.75, "location": {"lat": 31.353705301525753, "lng": 106.04357826970909}, "feature": {"sight_features": "", "sight_content": ""}}, {"title": "龙腾艺术中心", "address": "一环路79号", "image": "", "rank": 28, "time": 2, "location": {"lat": 31.35328088479345, "lng": 106.05900799992834}, "feature": {"sight_features": "", "sight_content": ""}}, {"title": "盲人协会有声读物图书室", "address": "金华街22号", "image": "", "rank": 29, "time": 2, "location": {"lat": 36.40041949074909, "lng": 120.47466159775173}, "feature": {"sight_features": "", "sight_content": ""}}, {"title": "南部县档案馆", "address": "金葫路36号", "image": "", "rank": 30, "time": 2, "location": {"lat": 31.352429310347894, "lng": 106.04891438409946}, "feature": {"sight_features": "", "sight_content": ""}}, {"title": "火峰游乐园", "address": "唐巴公路", "image": "", "rank": 31, "time": 2, "location": {"lat": 30.664021741890696, "lng": 104.07623566384898}, "feature": {"sight_features": "", "sight_content": ""}}, {"title": "文艺会展中心", "address": "文化路32号", "image": "", "rank": 32, "time": 2, "location": {"lat": 35.10408674886403, "lng": 117.4658324229494}, "feature": {"sight_features": "", "sight_content": ""}}, {"title": "南部县图书馆", "address": "南隆镇蜀北大道36号", "image": "", "rank": 33, "time": 2, "location": {"lat": 31.354702885014735, "lng": 106.0648860000498}, "feature": {"sight_features": "", "sight_content": ""}}, {"title": "滨江生态园", "address": "光明大道", "image": "", "rank": 34, "time": 2, "location": {"lat": 25.828378094866306, "lng": 114.98503422401355}, "feature": {"sight_features": "", "sight_content": ""}}, {"title": "民间艺术博物馆", "address": "红岩子大道西段88号", "image": "", "rank": 35, "time": 2.0, "location": {"lat": 31.35697797960482, "lng": 106.04526164303138}, "feature": {"sight_features": "", "sight_content": ""}}, {"title": "石子岭生态植物园", "address": "幸福路280号", "image": "", "rank": 36, "time": 2, "location": {"lat": 31.35401359983473, "lng": 106.04961506239724}, "feature": {"sight_features": "", "sight_content": ""}}, {"title": "南部县美术馆", "address": "红岩子大道西段88号", "image": "", "rank": 37, "time": 2, "location": {"lat": 31.35697797960482, "lng": 106.04526164303138}, "feature": {"sight_features": "", "sight_content": ""}}, {"title": "升钟湖钓鱼俱乐部", "address": "花林街", "image": "", "rank": 38, "time": 2, "location": {"lat": 31.40086630648088, "lng": 105.68698978904588}, "feature": {"sight_features": "", "sight_content": ""}}, {"title": "振兴街社区图书室", "address": "益民街93号", "image": "", "rank": 39, "time": 2, "location": {"lat": 34.22682696755478, "lng": 113.78140412476145}, "feature": {"sight_features": "", "sight_content": ""}}, {"title": "桂花博览园", "address": "北环路", "image": "", "rank": 40, "time": 2, "location": {"lat": 38.0818836383811, "lng": 114.69308879219136}, "feature": {"sight_features": "", "sight_content": ""}}, {"title": "中国钓鱼文化博物馆", "address": "花林街", "image": "", "rank": 41, "time": 2, "location": {"lat": 31.40086630648088, "lng": 105.68698978904588}, "feature": {"sight_features": "", "sight_content": ""}}, {"title": "莲花博览园", "address": "三四路", "image": "", "rank": 42, "time": 1.5, "location": {"lat": 27.133462711027768, "lng": 113.96854067422115}, "feature": {"sight_features": "", "sight_content": ""}}, {"title": "升钟湖农家乐", "address": "双峰乡李家坝村5社", "image": "", "rank": 43, "time": 2, "location": {"lat": 31.558963462283238, "lng": 105.66898730825282}, "feature": {"sight_features": "", "sight_content": ""}}, {"title": "三官镇草莓采摘基地", "address": "三官镇杨海坝村", "image": "", "rank": 44, "time": 2, "location": {"lat": 31.296275030709733, "lng": 105.9000192334303}, "feature": {"sight_features": "", "sight_content": ""}}, {"title": "冠军农家乐", "address": "环湖路东50米", "image": "", "rank": 45, "time": 2, "location": {"lat": 38.92161273435989, "lng": 121.6620465495208}, "feature": {"sight_features": "", "sight_content": ""}}, {"title": "南部县南隆镇望月映祥生态农庄", "address": "金星望月村5组", "image": "", "rank": 46, "time": null, "location": {"lat": 33.25586900300826, "lng": 116.5545191446614}, "feature": {"sight_features": "", "sight_content": ""}}, {"title": "桑椹采摘区", "address": "升水镇果园场升钟湖风景区升钟湖国际垂钓基地内环湖路", "image": "", "rank": 47, "time": 2, "location": {"lat": 31.53878771854442, "lng": 105.75808895799032}, "feature": {"sight_features": "", "sight_content": ""}}, {"title": "伏虎何家管乐队", "address": "101省道附近", "image": "", "rank": 48, "time": 2, "location": {"lat": 41.03241923348195, "lng": 111.82384508727836}, "feature": {"sight_features": "", "sight_content": ""}}, {"title": "马王乡皮影戏社", "address": "马王乡附近", "image": "", "rank": 49, "time": 2, "location": {"lat": 29.500785388632384, "lng": 106.4915482369233}, "feature": {"sight_features": "", "sight_content": ""}}, {"title": "生育文化茶园", "address": "大升路", "image": "", "rank": 50, "time": 2, "location": {"lat": 30.87610979636816, "lng": 120.14739698085096}, "feature": {"sight_features": "", "sight_content": ""}}, {"title": "理农别院", "address": "升水镇环湖路檬垭庙村", "image": "", "rank": 51, "time": 2, "location": {"lat": 31.550800424292632, "lng": 105.76298773324147}, "feature": {"sight_features": "", "sight_content": ""}}, {"title": "南部双宇花千谷水上乐园", "address": "北环路红岩子广场旁", "image": "", "rank": 52, "time": 3.0, "location": {"lat": 31.370081310165375, "lng": 106.0678750676173}, "feature": {"sight_features": "", "sight_content": ""}}, {"title": "红岩子", "address": "四川省南部县火花路", "image": "", "rank": 53, "time": 2, "location": {"lat": 31.353705301525753, "lng": 106.04357826970909}, "feature": {"sight_features": "", "sight_content": ""}}, {"title": "金宇·五马尚街", "address": "四川省南部县G212国道近南部三中", "image": "", "rank": 54, "time": 2, "location": {"lat": 31.353402777941632, "lng": 106.04803218430897}, "feature": {"sight_features": "", "sight_content": ""}}, {"title": "南部县万达广场", "address": "四川省南部县万达广场与东风路交叉口", "image": "", "rank": 55, "time": 3.0, "location": {"lat": 31.35850343918653, "lng": 106.0717016712253}, "feature": {"sight_features": "", "sight_content": ""}}]}