{"cityName": "南丹", "days": 2, "cityImage": "", "spots": [{"title": "洞天酒海景区", "address": "河池市南丹县民行北路", "image": "", "rank": 1, "time": 2, "location": {"lat": 24.999323330641918, "lng": 107.5638973147987}, "feature": {"sight_features": "特色1 世界上最大的天然藏酒洞", "sight_content": "【名人酒库】\n南丹洞天酒海于2004年开工建设，历时十年，到2014年底建成。酒洞总投资3亿元，开发建设面积10万平米，藏酒5万吨，是世界上最大的天然藏酒洞。洞中自然景观与人文景观融为一体，浑然天成。有酒佛迎宾、饮者留名、天成酒窖、金屋藏酒、饮中八仙、石窟酒佛、饮酒思源、一线天、地下酒河、百福酒廊、天下第一福、远古森林、海枯石烂、延寿宫、纳百川、酒海大观、留香岁月、名人酒库、贵宾酒库、大客户酒库、私人订制酒库、地酒天藏等景点。\n【金屋藏酒】\n酒海洞天位于南丹县城，2015年9月荣获世界吉尼斯纪录，“世界最大天然藏酒洞”称号。壮观震撼的酒海洞天内藏了上等的美酒，不乏国内外其他品牌的酒陈列其中。丹泉酒之前是国有酒厂，多年前被私人收购。景区提供有偿藏酒的服务，爱酒的您不妨买上一大坛待十几年过后来取也是很不错的，坛底会有个人信息，不会弄错，而且藏酒有很大升值空间！\n【石窟成佛】\n\n洞内常年温度16-17度，湿度80-95%，是藏酒最佳条件；美酒用特制陶坛存放，在适宜的温湿度条件下，酒体陈化老熟，产酯生香，淳厚绵甜；洞中有丰沛的泉水，经权威机构检验，水质达到饮用矿泉水标准，丹泉酒都用洞内泉水酿造；酒洞盘桓在森林覆盖的群山之下，常年呼吸森林中的富氧空气，形成天然氧吧；洞中有规模庞大的木化石，经地质专家鉴定，木化石形成于3.5亿年前，印证南丹从古至今气候温润，森林广袤。银滩景区实景沙画表演用白色背景板现场用沙子作画，结合音乐通过投影展现在屏幕上，突破传统艺术，创意神奇、画面绝美，并且融合本土文化，与游客用心交流，带来不一样的旅途体验。具体项目有：沙画表演、沙画培训及体验、沙画宣传片制作、沙画衍生品制作售卖（沙画DIY服装纪念品、DIY魔幻杯等）及沙画道具售卖。一把细沙，一双妙手，一推一抹，就是一片海洋;一洒一点，就是一处沙滩；伴着优美动人的旋律，一幅幅栩栩如生的画面呈现在眼前。"}}, {"title": "南丹温泉", "address": "河池市南丹县西南大通道", "image": "", "rank": 2, "time": 0.7, "location": {"lat": 25.270832283868305, "lng": 107.42056669879403}, "feature": {"sight_features": "", "sight_content": ""}}, {"title": "巴平梯田", "address": "广西壮族自治区河池市南丹县芒场镇巴平村", "image": "", "rank": 3, "time": 2, "location": {"lat": 25.210998887137084, "lng": 107.46651096886654}, "feature": {"sight_features": "", "sight_content": ""}}, {"title": "歌娅思谷", "address": "广西南丹县里湖·甘河", "image": "", "rank": 4, "time": 2, "location": {"lat": 24.98184977548506, "lng": 107.54748028933784}, "feature": {"sight_features": "", "sight_content": ""}}, {"title": "感恩洞", "address": "河池市南丹县河地市南丹县里湖乡恩村", "image": "", "rank": 5, "time": 2, "location": {"lat": 25.075135885653307, "lng": 107.60784264760359}, "feature": {"sight_features": "", "sight_content": ""}}, {"title": "子华公园", "address": "六寨镇龙马庄", "image": "", "rank": 6, "time": 2, "location": {"lat": 25.276631656333862, "lng": 107.41073610412681}, "feature": {"sight_features": "", "sight_content": ""}}, {"title": "鳄鱼漆", "address": "民行中路158号", "image": "", "rank": 7, "time": 2, "location": {"lat": 24.991844626048913, "lng": 107.55472199896687}, "feature": {"sight_features": "", "sight_content": ""}}, {"title": "中逵南丹垂钓俱乐部", "address": "铜江路", "image": "", "rank": 8, "time": 2, "location": {"lat": 27.71563575372222, "lng": 109.19573888552347}, "feature": {"sight_features": "", "sight_content": ""}}, {"title": "南丹温泉景区", "address": "广西壮族自治区南丹县县城南12公里 547200", "image": "", "rank": 9, "time": 2, "location": {"lat": 24.98184977548506, "lng": 107.54748028933784}, "feature": {"sight_features": "", "sight_content": ""}}, {"title": "公园花木店", "address": "民行中路111", "image": "", "rank": 10, "time": 2, "location": {"lat": 24.990232461613964, "lng": 107.553045076377}, "feature": {"sight_features": "", "sight_content": ""}}, {"title": "恩村洞景区", "address": "河池市南丹县", "image": "", "rank": 11, "time": 2, "location": {"lat": 24.98184977548506, "lng": 107.54748028933784}, "feature": {"sight_features": "", "sight_content": ""}}, {"title": "小太阳书画苑", "address": "体育路", "image": "", "rank": 12, "time": 2, "location": {"lat": 37.077619308586534, "lng": 115.15794488598672}, "feature": {"sight_features": "", "sight_content": ""}}, {"title": "南丹县图书馆", "address": "体育路", "image": "", "rank": 13, "time": 2, "location": {"lat": 37.077619308586534, "lng": 115.15794488598672}, "feature": {"sight_features": "", "sight_content": ""}}, {"title": "榕园", "address": "车河镇堂汉村拉高屯南丹温泉公园", "image": "", "rank": 14, "time": 2, "location": {"lat": 24.911217206234014, "lng": 107.63319751734325}, "feature": {"sight_features": "", "sight_content": ""}}, {"title": "杉园", "address": "堂汉村拉高屯南丹温泉公园", "image": "", "rank": 15, "time": 2, "location": {"lat": 24.911217206234014, "lng": 107.63319751734325}, "feature": {"sight_features": "", "sight_content": ""}}, {"title": "杏园", "address": "堂汉村拉高屯南丹温泉公园", "image": "", "rank": 16, "time": 2, "location": {"lat": 24.911217206234014, "lng": 107.63319751734325}, "feature": {"sight_features": "", "sight_content": ""}}, {"title": "梨园", "address": "车河镇堂汉村拉高屯南丹温泉公园", "image": "", "rank": 17, "time": 2, "location": {"lat": 24.911217206234014, "lng": 107.63319751734325}, "feature": {"sight_features": "", "sight_content": ""}}, {"title": "白裤瑶生态博物馆", "address": "里湖瑶族乡怀里村", "image": "", "rank": 18, "time": 2, "location": {"lat": 25.11908804793119, "lng": 107.71048295249567}, "feature": {"sight_features": "", "sight_content": ""}}, {"title": "金芙蓉商业步行街", "address": "广西壮族自治区南丹县民行路", "image": "", "rank": 19, "time": 2, "location": {"lat": 24.99366290211845, "lng": 107.55630245791788}, "feature": {"sight_features": "", "sight_content": ""}}, {"title": "粘膏树园", "address": "黔南布依族苗族自治州-荔波县-瑶山瑶族乡拉片村(近小七孔景区)瑶山古寨内", "image": "", "rank": 20, "time": 2, "location": {"lat": 25.2372815475832, "lng": 107.77680459854649}, "feature": {"sight_features": "", "sight_content": ""}}, {"title": "巴乃", "address": "河池市-南丹县", "image": "", "rank": 21, "time": 1.5, "location": {"lat": 24.98184977548506, "lng": 107.54748028933784}, "feature": {"sight_features": "", "sight_content": ""}}]}