{"cityName": "乃东", "days": 2, "cityImage": "", "spots": [{"title": "昌珠寺", "address": "山南市乃东区贡布日山南麓", "image": "", "rank": 1, "time": 1.5, "location": {"lat": 29.234229154984693, "lng": 91.77868196564091}, "feature": {"sight_features": "", "sight_content": ""}}, {"title": "贡布日神山", "address": "山南市乃东区雅鲁藏布江南侧", "image": "", "rank": 2, "time": 2.5, "location": {"lat": 29.234229154984693, "lng": 91.77868196564091}, "feature": {"sight_features": "", "sight_content": ""}}, {"title": "吉如拉康寺", "address": "山南市乃东区结巴乡吉如村", "image": "", "rank": 3, "time": 1.0, "location": {"lat": 29.337576383437334, "lng": 91.82206904648682}, "feature": {"sight_features": "", "sight_content": ""}}, {"title": "泽当寺", "address": "山南市乃东区", "image": "", "rank": 4, "time": 2, "location": {"lat": 29.234229154984693, "lng": 91.77868196564091}, "feature": {"sight_features": "", "sight_content": ""}}, {"title": "赞塘玉益拉康", "address": "山南市乃东区", "image": "", "rank": 5, "time": 2, "location": {"lat": 29.234229154984693, "lng": 91.77868196564091}, "feature": {"sight_features": "", "sight_content": ""}}, {"title": "烈士陵园", "address": "山南市乃东区安徽大道11号", "image": "", "rank": 6, "time": 2, "location": {"lat": 29.234229154984693, "lng": 91.77868196564091}, "feature": {"sight_features": "", "sight_content": ""}}, {"title": "亚桑寺", "address": "山南市乃东区", "image": "", "rank": 7, "time": 2, "location": {"lat": 29.234229154984693, "lng": 91.77868196564091}, "feature": {"sight_features": "", "sight_content": ""}}, {"title": "乃东县", "address": "山南市乃东区", "image": "", "rank": 8, "time": 2, "location": {"lat": 29.234229154984693, "lng": 91.77868196564091}, "feature": {"sight_features": "", "sight_content": ""}}, {"title": "山南地区香芭拉民俗风情园", "address": "西藏自治区乃东县昌珠寺附近 856100", "image": "", "rank": 9, "time": 3.0, "location": {"lat": 29.213115944370983, "lng": 91.83204010058172}, "feature": {"sight_features": "", "sight_content": ""}}, {"title": "西藏雅砻历史文化陈列馆", "address": "西藏自治区乃东县乃东路", "image": "", "rank": 10, "time": 2, "location": {"lat": 29.224809166601112, "lng": 91.78198632586502}, "feature": {"sight_features": "", "sight_content": ""}}, {"title": "雅拉香布神山", "address": "西藏自治区乃东县县南端 856100", "image": "", "rank": 11, "time": 2, "location": {"lat": 29.213115944370983, "lng": 91.83204010058172}, "feature": {"sight_features": "", "sight_content": ""}}, {"title": "广东艺术画廊", "address": "泽当镇白日街", "image": "", "rank": 12, "time": 2, "location": {"lat": 29.231789199277788, "lng": 91.71122729852868}, "feature": {"sight_features": "", "sight_content": ""}}, {"title": "艾巴仓书吧", "address": "泽当镇三湘大道林业局商平房", "image": "", "rank": 13, "time": 2, "location": {"lat": 29.238516568011438, "lng": 91.765585836412}, "feature": {"sight_features": "", "sight_content": ""}}, {"title": "雍布拉康殿", "address": "西藏自治区乃东县泽当镇东南", "image": "", "rank": 14, "time": null, "location": {"lat": 29.24514008887194, "lng": 91.78319367362259}, "feature": {"sight_features": "", "sight_content": ""}}, {"title": "玉如寺", "address": "西藏自治区曲松县香卡拉山北麓", "image": "", "rank": 15, "time": 2, "location": {"lat": 29.06842481562376, "lng": 92.21017466297504}, "feature": {"sight_features": "", "sight_content": ""}}, {"title": "雅鲁藏布江黑颈鹤保护区", "address": "西藏雅鲁藏布江流域中断，山南地区", "image": "", "rank": 16, "time": 2, "location": {"lat": 29.299085049211154, "lng": 91.26027535722682}, "feature": {"sight_features": "", "sight_content": ""}}]}