{"cityName": "奈曼旗", "days": 2, "cityImage": "", "spots": [{"title": "孟家段水库", "address": "内蒙古自治区通辽市奈曼旗", "image": "", "rank": 1, "time": 2, "location": {"lat": 42.871846546660144, "lng": 120.66464641293936}, "feature": {"sight_features": "", "sight_content": ""}}, {"title": "生态公园", "address": "生态大街政府办公楼东侧", "image": "", "rank": 2, "time": 1.5, "location": {"lat": 32.09392190605667, "lng": 118.74617436216234}, "feature": {"sight_features": "", "sight_content": ""}}, {"title": "青龙山洼", "address": "内蒙古自治区通辽奈曼旗青龙山洼", "image": "", "rank": 3, "time": 4.5, "location": {"lat": 42.38652691756343, "lng": 121.12960677125868}, "feature": {"sight_features": "", "sight_content": ""}}, {"title": "经缘寺", "address": "通辽市奈曼旗大沁他拉镇章古台村", "image": "", "rank": 4, "time": 2, "location": {"lat": 42.84628721774126, "lng": 120.67667169193687}, "feature": {"sight_features": "", "sight_content": ""}}, {"title": "龙尾巴沟", "address": "内蒙古自治区通辽市奈曼旗青龙山镇卧龙村", "image": "", "rank": 5, "time": 2, "location": {"lat": 42.38084536426431, "lng": 121.20223689623292}, "feature": {"sight_features": "", "sight_content": ""}}, {"title": "天合农业生产资料有限公司", "address": "新镇朝古台", "image": "", "rank": 6, "time": 2, "location": {"lat": 31.241936727484692, "lng": 121.63750993278722}, "feature": {"sight_features": "", "sight_content": ""}}, {"title": "美多生态园", "address": "111国道附近", "image": "", "rank": 7, "time": 2, "location": {"lat": 50.42539598847844, "lng": 124.1866783773556}, "feature": {"sight_features": "", "sight_content": ""}}, {"title": "金刚禅木", "address": "内蒙古自治区通辽市奈曼旗奈曼大街", "image": "", "rank": 8, "time": 2, "location": {"lat": 42.85159809811368, "lng": 120.65905432998714}, "feature": {"sight_features": "", "sight_content": ""}}, {"title": "欢乐谷儿童乐园", "address": "通辽市奈曼旗帝华商务广场3楼", "image": "", "rank": 9, "time": 2, "location": {"lat": 42.85209859513067, "lng": 120.66401972447322}, "feature": {"sight_features": "", "sight_content": ""}}, {"title": "烈士陵园", "address": "111国道西50米", "image": "", "rank": 10, "time": 2, "location": {"lat": 50.42539598847844, "lng": 124.18622922460061}, "feature": {"sight_features": "", "sight_content": ""}}, {"title": "敖伦苏木城遗址", "address": "内蒙古自治区达尔罕茂明安联合旗百灵庙镇东北30公里处 014500", "image": "", "rank": 11, "time": 2, "location": {"lat": 41.807461300213326, "lng": 110.80262298630164}, "feature": {"sight_features": "", "sight_content": ""}}, {"title": "麦饭石", "address": "通辽市奈曼旗", "image": "", "rank": 12, "time": 2, "location": {"lat": 42.871846546660144, "lng": 120.66464641293936}, "feature": {"sight_features": "", "sight_content": ""}}, {"title": "3861国际母婴生活馆", "address": "奈曼旗青龙山路1944附近", "image": "", "rank": 13, "time": 2, "location": {"lat": 42.8341145390991, "lng": 120.67306048132913}, "feature": {"sight_features": "", "sight_content": ""}}, {"title": "宝贝乐园游乐场", "address": "新华街东150米", "image": "", "rank": 14, "time": 2, "location": {"lat": 22.636371818191908, "lng": 107.92256793456633}, "feature": {"sight_features": "", "sight_content": ""}}, {"title": "工业游园", "address": "工业路与生态大街交叉口东北150米", "image": "", "rank": 15, "time": 2, "location": {"lat": 42.87717457482931, "lng": 120.69298896506778}, "feature": {"sight_features": "", "sight_content": ""}}, {"title": "黄花塔拉文化广场", "address": "465县道附近", "image": "", "rank": 16, "time": 2, "location": {"lat": 38.18531088040353, "lng": 110.851022081009}, "feature": {"sight_features": "", "sight_content": ""}}, {"title": "东兴公园", "address": "111国道附近", "image": "", "rank": 17, "time": null, "location": {"lat": 50.42539598847844, "lng": 124.1866783773556}, "feature": {"sight_features": "", "sight_content": ""}}, {"title": "朝古台苏木", "address": "通辽市-奈曼旗-新镇朝古台卫生院西北(哈巴线东)", "image": "", "rank": 18, "time": 2, "location": {"lat": 42.845856541904574, "lng": 121.01134983646566}, "feature": {"sight_features": "", "sight_content": ""}}, {"title": "胜利庙嘎查", "address": "通辽市-奈曼旗-一一一国道", "image": "", "rank": 19, "time": 2, "location": {"lat": 43.21704931265591, "lng": 121.08297767706715}, "feature": {"sight_features": "", "sight_content": ""}}, {"title": "北吐里格", "address": "通辽市-奈曼旗", "image": "", "rank": 20, "time": 2, "location": {"lat": 42.871846546660144, "lng": 120.66464641293936}, "feature": {"sight_features": "", "sight_content": ""}}, {"title": "皇钻火凤凰KTV", "address": "通辽市-奈曼旗-大沁他拉镇凤凰嘉园", "image": "", "rank": 21, "time": 2, "location": {"lat": 42.867821965173434, "lng": 120.65782241806501}, "feature": {"sight_features": "", "sight_content": ""}}, {"title": "大包力皋村", "address": "通辽市-奈曼旗-一一一国道", "image": "", "rank": 22, "time": 2, "location": {"lat": 43.21704931265591, "lng": 121.08297767706715}, "feature": {"sight_features": "", "sight_content": ""}}, {"title": "艾吉佰怪柳林", "address": "通辽市奈曼旗", "image": "", "rank": 23, "time": 2, "location": {"lat": 42.871846546660144, "lng": 120.66464641293936}, "feature": {"sight_features": "", "sight_content": ""}}, {"title": "奈曼沙漠", "address": "内蒙古自治区通辽市奈曼旗大沁他拉镇奈曼沙漠", "image": "", "rank": 24, "time": 3.0, "location": {"lat": 42.84628721774126, "lng": 120.67667169193687}, "feature": {"sight_features": "", "sight_content": ""}}]}