{"cityName": "南靖", "days": 2, "cityImage": "", "spots": [{"title": "云水谣古镇", "address": "漳州市南靖县书洋镇云水谣古镇", "image": "", "rank": 1, "time": 2.5, "location": {"lat": 24.670027991943606, "lng": 117.10233196148076}, "feature": {"sight_features": "特色1 观客家土楼建筑，享受美妙闲暇时光。", "sight_content": "云水谣古镇是个历史悠久的古老村落，村中幽长古道、百年老榕、神奇土楼，还有那灵山碧水，无不给人以超然的感觉。南靖县长教风景区拥有世界文化遗产和贵楼、怀远楼、千年古榕树群、一条百年老街、千年古道。溪岸边由13棵百年、千年老榕组成榕树群蔚为壮观，其中一棵老榕树树冠覆盖面积1933平方米，树丫长达30多米，树干底端要10多个大人才能合抱，是一棵目前我省已发现的巨大榕树。村中最引人注目的是山脚下、溪岸旁、田野上星罗棋布的一座座土楼。\n这些从元朝中期就开始建造的土楼，目前保存完好的就有53座。这些土楼姿态万千，除了有建在沼泽地上堪称“天下奇景”的和贵楼，及工艺最精美、保护最完好的双环圆土楼――怀远楼外，还有吊脚楼、竹竿楼、府第式土楼等，土楼风景别具一格。云水谣古镇独有的自然景观和独特的人文资源，吸引了一批又一批电影导演、制作人到此取景拍片。1997年至今，已有《寻找远方的家》、《沧海百年》等8部电影、电视剧、MTV在这里拍摄取景。2005年底，由十届全国政协副主席、台盟中央名誉主席张克辉以自己和几位台胞的生活阅历为原型创作的电影文学剧本《寻找》改编的电影《云水谣》也曾在此拍摄。\n和贵楼：运用县浮原理，以松木为介质，采用桩基、筏基综合运用技术，在3000平方米的沼泽地上建起的方形土楼，整座土楼宛若陆上的“诺亚方舟”。土楼墙体高厚比在二百多年前就达到13：1，具有突出的建筑成就和极高的建筑技术研究价值。怀远楼：充分利用大型河卵石和夯土墙两种材料的不同特性，采用成熟的“倾壁造”技术营建的鼓形土楼，是中原版筑技术经过几千年积累提高的结晶，是夯土文明最高成就的代表。楼内楹联诗对、雕梁画栋诠释了“忠孝为本、耕读传家”的思想；是闽南建筑风格与中国儒家文化完美结合的杰出典范；是中国近代重要历史事件的实物见证。\n‍"}}, {"title": "田螺坑土楼群", "address": "漳州市南靖县书洋镇", "image": "", "rank": 2, "time": 1.5, "location": {"lat": 24.613000185300155, "lng": 117.10084313148835}, "feature": {"sight_features": "特色1 特有的山区建筑模式", "sight_content": "“不到田螺坑，不算真正看土楼。”四菜一汤原名田螺坑土楼群，是福建土楼标志性建筑，是福建土楼的名片。联合国科教文组织顾问史蒂汶斯·安德列称田螺坑土楼群是“世界上特有的神话般的山区建筑模式”。 四座圆楼簇拥着一座方楼，像是一朵怒放的梅花，美妙绝伦，璀璨夺目，又像是一支气势磅礴的五重奏交响曲，在青山秀水间激越地奏响。公路随着山势蜿蜒而下。随着观看角度的变化，田螺坑景观魔术般地不断变幻，圆楼时而在前时而退后，方楼时而隐蔽时而暴露。\n来到坡底公路上，抬头往上一看，田螺坑土楼群犹如布达拉宫横空出世，巍峨耸立，庄严肃穆，在阳光下一派金碧辉煌。这四座圆楼的建造者以顺地势增减一层屋柱高度的方法，成功地在第二层取得了平面，大大方便了居住。2003年11月被公布为中国首批历史文化名村。2008年被列入世界文化遗产名录。 2011年被评为国家5A级景区。\n裕昌楼建于1308年，是福建土楼现存最古老的土楼。裕昌楼是早期股份制的产物，由刘、罗、张、唐、范五姓族人共同出资建造，共有五层18.2米，房室270间。全楼有五部楼梯，分为五大卦，底层厨房内设有水井，共22口，是福建土楼中水井最多的土楼。楼内天井中心建有单层的圆形祖堂，堂前用卵石铺成的一个阴阳八卦，分五格，代表“金、木、水、火、土”。裕昌楼的特点是柱子东倒西歪，倾斜度为15度，看起来摇摇欲坠，但经受七百年风雨侵蚀和无数次地震的考验，至今依然如故，有惊无险，成为古民居建筑的活标本。\n\n塔下村，历史悠久，风光秀丽，文化底蕴丰厚，是首批“中国景观村落”、“省级历史文化名村”。素有“灵秀水乡，梦幻家园”的美名。古村落地形为“一水依两岸”的狭长地带，一条长约1公里的蜿蜒山溪从峡谷中穿过，水色清明澄碧，溪流上有11座风格各异的石拱桥，沿溪两岸有42座土楼，一座座土楼在青山秀水环抱下，远远望去，俨然一幅幅超凡脱俗的明清山水画，因此，塔下也获得了“闽南周庄”的美誉。塔下村张氏家庙德远堂，全国重点文物保护单位。是目前中国可见到的、最完整的古代姓氏祠堂建筑之一，堂前立着24支石龙旗杆。"}}, {"title": "云水谣景区", "address": "漳州市梅林镇璞山村", "image": "", "rank": 3, "time": 4.0, "location": {"lat": 24.66503403936622, "lng": 117.10277714372525}, "feature": {"sight_features": "", "sight_content": ""}}, {"title": "和贵楼", "address": "漳州市南靖县梅林镇璞山村", "image": "", "rank": 4, "time": 1.5, "location": {"lat": 24.66503403936622, "lng": 117.10277714372525}, "feature": {"sight_features": "", "sight_content": ""}}, {"title": "怀远楼", "address": "漳州市南靖县书洋镇", "image": "", "rank": 5, "time": 1.5, "location": {"lat": 24.613000185300155, "lng": 117.10084313148835}, "feature": {"sight_features": "", "sight_content": ""}}, {"title": "树海瀑布", "address": "漳州市南靖县船场镇下山村", "image": "", "rank": 6, "time": 2.0, "location": {"lat": 24.573734737358492, "lng": 117.17023901614597}, "feature": {"sight_features": "", "sight_content": ""}}, {"title": "福裕楼", "address": "漳州市南靖县湖坑镇洪坑村", "image": "", "rank": 7, "time": 3.0, "location": {"lat": 24.605352430888853, "lng": 117.57604505190552}, "feature": {"sight_features": "", "sight_content": ""}}, {"title": "鹅仙洞", "address": "漳州市南靖县金山镇（国道319线126KM处）", "image": "", "rank": 8, "time": 2, "location": {"lat": 24.766894251859195, "lng": 117.32525001123524}, "feature": {"sight_features": "", "sight_content": ""}}, {"title": "南靖乐土雨林", "address": "漳州市南靖县和溪镇", "image": "", "rank": 9, "time": 2, "location": {"lat": 24.89696988940435, "lng": 117.25963855743562}, "feature": {"sight_features": "", "sight_content": ""}}, {"title": "梦幻土楼3D馆", "address": "漳州市南靖县城环城路凤翔茶都大门右侧", "image": "", "rank": 10, "time": 2, "location": {"lat": 24.520851732069875, "lng": 117.36344641065965}, "feature": {"sight_features": "", "sight_content": ""}}, {"title": "翠美楼", "address": "福建省南靖县梅林镇云水谣古镇内翠美楼", "image": "", "rank": 11, "time": 1.5, "location": {"lat": 24.670027991943606, "lng": 117.10233196148076}, "feature": {"sight_features": "", "sight_content": ""}}, {"title": "金上汤温泉度假村", "address": "漳州市南靖县船场镇上汤村", "image": "", "rank": 12, "time": 2, "location": {"lat": 24.601909055452275, "lng": 117.20218647995334}, "feature": {"sight_features": "", "sight_content": ""}}, {"title": "梅林古村", "address": "漳州市南靖县梅林镇梅林乡", "image": "", "rank": 13, "time": 2, "location": {"lat": 24.73942950305971, "lng": 117.06148389624269}, "feature": {"sight_features": "", "sight_content": ""}}, {"title": "南庆楼", "address": "漳州市南靖县梅林镇梅林村", "image": "", "rank": 14, "time": 2, "location": {"lat": 24.701740296866856, "lng": 117.07636591251979}, "feature": {"sight_features": "", "sight_content": ""}}, {"title": "书洋镇", "address": "漳州市南靖县书洋镇", "image": "", "rank": 15, "time": 2, "location": {"lat": 24.613000185300155, "lng": 117.10084313148835}, "feature": {"sight_features": "", "sight_content": ""}}, {"title": "南靖长教村", "address": "福建省南靖县书洋镇长教村", "image": "", "rank": 16, "time": 1.5, "location": {"lat": 24.520851732069875, "lng": 117.36344641065965}, "feature": {"sight_features": "", "sight_content": ""}}, {"title": "田螺坑景区", "address": "福建省漳州市南靖县X562", "image": "", "rank": 17, "time": 2, "location": {"lat": 24.520851732069875, "lng": 117.36344641065965}, "feature": {"sight_features": "", "sight_content": ""}}, {"title": "土楼南靖景区塔下景点", "address": "塔下村", "image": "", "rank": 18, "time": 2, "location": {"lat": 31.813222499456216, "lng": 118.59156273478716}, "feature": {"sight_features": "", "sight_content": ""}}, {"title": "顺庆楼", "address": "书洋镇塔下村村尾石桥旁", "image": "", "rank": 19, "time": 2, "location": {"lat": 24.669372401012236, "lng": 117.06355928559731}, "feature": {"sight_features": "", "sight_content": ""}}, {"title": "虎伯寮自然保护区", "address": "福建省南靖县山城镇象溪村", "image": "", "rank": 20, "time": 2, "location": {"lat": 24.525520019840712, "lng": 117.29274216648481}, "feature": {"sight_features": "", "sight_content": ""}}, {"title": "四季温泉馆", "address": "山旧线路旁", "image": "", "rank": 21, "time": 2, "location": {"lat": 39.9497903183912, "lng": 116.73588467266721}, "feature": {"sight_features": "", "sight_content": ""}}, {"title": "鸿钵戏台", "address": "鸿砵村附近", "image": "", "rank": 22, "time": 2, "location": {"lat": 24.509699434153863, "lng": 117.42257052215322}, "feature": {"sight_features": "", "sight_content": ""}}, {"title": "东南海度假村", "address": "福建省南靖县靖城镇 363601", "image": "", "rank": 23, "time": 2, "location": {"lat": 24.548572426524736, "lng": 117.5138399887681}, "feature": {"sight_features": "", "sight_content": ""}}, {"title": "梅林影剧院", "address": "梅塔线附近", "image": "", "rank": 24, "time": 2, "location": {"lat": 24.677856111442562, "lng": 117.07107029374356}, "feature": {"sight_features": "", "sight_content": ""}}, {"title": "山城开山祖分庙", "address": "教育路与荆江路交叉口西南200米", "image": "", "rank": 25, "time": 2, "location": {"lat": 24.518471391792406, "lng": 117.36781584681133}, "feature": {"sight_features": "", "sight_content": ""}}, {"title": "东狱庙", "address": "319国道南靖县靖城东狱行宫管理委员会附近", "image": "", "rank": 26, "time": 2, "location": {"lat": 24.578867283353194, "lng": 117.52622251308317}, "feature": {"sight_features": "", "sight_content": ""}}, {"title": "硕仁庙", "address": "福建省漳州市南靖县中山路122号", "image": "", "rank": 27, "time": 2, "location": {"lat": 24.51950652450623, "lng": 117.3736349019199}, "feature": {"sight_features": "", "sight_content": ""}}, {"title": "礼拜堂", "address": "龙山镇龙山村安居西巷21号", "image": "", "rank": 28, "time": 2, "location": {"lat": 24.68217383814558, "lng": 117.37205474210462}, "feature": {"sight_features": "", "sight_content": ""}}, {"title": "礼拜堂(天口店)", "address": "古湖村附近", "image": "", "rank": 29, "time": 2, "location": {"lat": 24.663832811226918, "lng": 118.6189099867659}, "feature": {"sight_features": "", "sight_content": ""}}, {"title": "龙山镇", "address": "漳州市南靖县龙山镇", "image": "", "rank": 30, "time": null, "location": {"lat": 24.680384165300936, "lng": 117.37204603572762}, "feature": {"sight_features": "", "sight_content": ""}}, {"title": "南靖乐土亚热带雨林自然保护区", "address": "福建省南靖县和溪乡乐土村 363600", "image": "", "rank": 31, "time": 2, "location": {"lat": 24.912436589059226, "lng": 117.22186281561699}, "feature": {"sight_features": "", "sight_content": ""}}, {"title": "祖师公庙", "address": "中山南街与和平路交叉口东50米", "image": "", "rank": 32, "time": 2, "location": {"lat": 24.518216298303045, "lng": 117.3733492533441}, "feature": {"sight_features": "", "sight_content": ""}}, {"title": "注生宫", "address": "和平路6号附近", "image": "", "rank": 33, "time": 2, "location": {"lat": 40.292448914466455, "lng": 116.68633167039667}, "feature": {"sight_features": "", "sight_content": ""}}, {"title": "公园阿肥发扁食", "address": "福建省漳州市南靖县教育路2", "image": "", "rank": 34, "time": 2, "location": {"lat": 24.51983556122224, "lng": 117.36752582977583}, "feature": {"sight_features": "", "sight_content": ""}}, {"title": "优阳蜜坊蜜蜂博物馆旗舰店", "address": "建设路362号", "image": "", "rank": 35, "time": 2, "location": {"lat": 24.525442754045443, "lng": 117.36893446803539}, "feature": {"sight_features": "", "sight_content": ""}}, {"title": "贝之乐儿童乐园", "address": "漳州市南靖县", "image": "", "rank": 36, "time": 2, "location": {"lat": 24.520851732069875, "lng": 117.36344641065965}, "feature": {"sight_features": "", "sight_content": ""}}, {"title": "朝阳庙", "address": "解放东街4-3号附近", "image": "", "rank": 37, "time": 2, "location": {"lat": 24.517918960871263, "lng": 117.37846001521932}, "feature": {"sight_features": "", "sight_content": ""}}, {"title": "必应宫", "address": "漳州市南靖县书洋镇福建土楼云水谣旅游区内", "image": "", "rank": 38, "time": 2, "location": {"lat": 24.6627843100588, "lng": 117.10163366908263}, "feature": {"sight_features": "", "sight_content": ""}}, {"title": "天宝堂", "address": "漳州市南靖县607县道福建云水古道写生基地内", "image": "", "rank": 39, "time": 2, "location": {"lat": 24.830102959107602, "lng": 117.07031360250426}, "feature": {"sight_features": "", "sight_content": ""}}, {"title": "西天寺景区", "address": "福建省漳州市南靖县船场镇坑头村", "image": "", "rank": 40, "time": 2, "location": {"lat": 24.659287868053067, "lng": 117.28166631466921}, "feature": {"sight_features": "", "sight_content": ""}}, {"title": "笔峰观音庙", "address": "福建省漳州市南靖县龙船线", "image": "", "rank": 41, "time": 2, "location": {"lat": 24.67140970140189, "lng": 117.31715712479681}, "feature": {"sight_features": "", "sight_content": ""}}, {"title": "公园阿肥发扁食", "address": "福建省漳州市南靖县人民路137号-2", "image": "", "rank": 42, "time": 2, "location": {"lat": 24.515432347915826, "lng": 117.3806624357527}, "feature": {"sight_features": "", "sight_content": ""}}, {"title": "兴仁宫", "address": "中山南街与和平路交叉口东北50米", "image": "", "rank": 43, "time": 2, "location": {"lat": 24.518216298303045, "lng": 117.3733492533441}, "feature": {"sight_features": "", "sight_content": ""}}, {"title": "清水岩", "address": "福建省漳州市南靖县阡桥小学附近", "image": "", "rank": 44, "time": 2.0, "location": {"lat": 24.566638659626705, "lng": 117.51084140545134}, "feature": {"sight_features": "", "sight_content": ""}}, {"title": "永宁宫", "address": "福建省漳州市南靖县X671", "image": "", "rank": 45, "time": 2, "location": {"lat": 24.520851732069875, "lng": 117.36344641065965}, "feature": {"sight_features": "", "sight_content": ""}}, {"title": "白莲池景区", "address": "福建省漳州市南靖县金山镇都美村境内", "image": "", "rank": 46, "time": 2, "location": {"lat": 24.778809976687004, "lng": 117.31123898659051}, "feature": {"sight_features": "", "sight_content": ""}}, {"title": "祥涌保福堂", "address": "金山镇霞涌村上永", "image": "", "rank": 47, "time": 2, "location": {"lat": 41.013634172808594, "lng": 110.050831775137}, "feature": {"sight_features": "", "sight_content": ""}}, {"title": "保安宫", "address": "福建省漳州市南靖县和溪镇迎新村境内", "image": "", "rank": 48, "time": 2.0, "location": {"lat": 24.91496625032721, "lng": 117.30008131261755}, "feature": {"sight_features": "", "sight_content": ""}}, {"title": "会爽口腔堂", "address": "馨兰山庄7号楼8门市", "image": "", "rank": 49, "time": 2.0, "location": {"lat": 24.51779900140852, "lng": 117.3625171136099}, "feature": {"sight_features": "", "sight_content": ""}}, {"title": "礼拜堂(靖城镇人民调解委员会东...", "address": "东夏街附近", "image": "", "rank": 50, "time": null, "location": {"lat": 24.57804987464631, "lng": 117.52261401985078}, "feature": {"sight_features": "", "sight_content": ""}}, {"title": "礼拜堂(解放东街店)", "address": "解放东街16", "image": "", "rank": 51, "time": 2, "location": {"lat": 24.518321028764984, "lng": 117.37623536521782}, "feature": {"sight_features": "", "sight_content": ""}}, {"title": "福建省南靖县博物馆", "address": "山城镇兰陵路", "image": "", "rank": 52, "time": 2, "location": {"lat": 24.52059225682625, "lng": 117.36355649440664}, "feature": {"sight_features": "", "sight_content": ""}}, {"title": "荆城书画社", "address": "山城镇人民路24-8号", "image": "", "rank": 53, "time": 2, "location": {"lat": 24.51994681253738, "lng": 117.37430181111674}, "feature": {"sight_features": "", "sight_content": ""}}, {"title": "南靖儿童公园游乐园", "address": "建设路路63号旁", "image": "", "rank": 54, "time": 4.0, "location": {"lat": 22.593855639811483, "lng": 114.48832201704823}, "feature": {"sight_features": "", "sight_content": ""}}, {"title": "德利生态茶园", "address": "船厂镇坑头村", "image": "", "rank": 55, "time": 2, "location": {"lat": 38.54304009897465, "lng": 116.91897960137302}, "feature": {"sight_features": "", "sight_content": ""}}, {"title": "南侨戏院", "address": "人民广场", "image": "", "rank": 56, "time": 2, "location": {"lat": 39.6644791649171, "lng": 117.29341299105978}, "feature": {"sight_features": "", "sight_content": ""}}, {"title": "大树头画廊", "address": "建设路191号店", "image": "", "rank": 57, "time": 2, "location": {"lat": 22.931042187783483, "lng": 113.21226576538724}, "feature": {"sight_features": "", "sight_content": ""}}, {"title": "博艺苑画廊", "address": "南环路北50米", "image": "", "rank": 58, "time": 2, "location": {"lat": 23.013443933901662, "lng": 113.98317679912766}, "feature": {"sight_features": "", "sight_content": ""}}, {"title": "土楼情人山休闲农场", "address": "书洋镇寨仔东南侧", "image": "", "rank": 59, "time": null, "location": {"lat": 24.65161327525352, "lng": 117.12501991756902}, "feature": {"sight_features": "", "sight_content": ""}}]}