{"cityName": "南澳", "days": 2, "cityImage": "", "spots": [{"title": "南澳岛", "address": "汕头市南澳县汕头南澳岛旅游区", "image": "", "rank": 1, "time": 0.75, "location": {"lat": 23.444059764333147, "lng": 117.08774084437518}, "feature": {"sight_features": "特色1 南澳岛坐落在闽、粤、台三省交界海面，碧海蓝天，风景十分优美。", "sight_content": "南澳岛位于广东省和福建省交界的海域上，是一个海岛县。南澳岛开发较少，景色还保留着原生态的美感，海水清澈，沙质也非常不错。岛上除了自然景观之外，还有南澳总兵府、宋井等历史遗迹，闲暇之余可以逛一逛。"}}, {"title": "青澳湾", "address": "汕头市南澳县336省道", "image": "", "rank": 2, "time": 2, "location": {"lat": 23.45985987748497, "lng": 116.98125191122186}, "feature": {"sight_features": "", "sight_content": ""}}, {"title": "自然之门", "address": "汕头市南澳县南澳岛青澳湾广场", "image": "", "rank": 3, "time": 1.5, "location": {"lat": 23.44214514392511, "lng": 117.1404463905274}, "feature": {"sight_features": "", "sight_content": ""}}, {"title": "金银岛", "address": "汕头市南澳县三三六省道中段", "image": "", "rank": 4, "time": 3.0, "location": {"lat": 23.48489384263381, "lng": 117.12940423504978}, "feature": {"sight_features": "", "sight_content": ""}}, {"title": "南澳风力发电游览区", "address": "汕头市南澳县南澳岛东半岛果老山脉", "image": "", "rank": 5, "time": 1.5, "location": {"lat": 23.43868330700885, "lng": 117.10609554356617}, "feature": {"sight_features": "", "sight_content": ""}}, {"title": "总兵府", "address": "汕头市南澳县南澳岛总兵府", "image": "", "rank": 6, "time": 2.5, "location": {"lat": 23.43868330700885, "lng": 117.10609554356617}, "feature": {"sight_features": "", "sight_content": ""}}, {"title": "南澳岛宋井", "address": "汕头市南澳县南澳岛云澳镇澳前村东南海滩", "image": "", "rank": 7, "time": 0.75, "location": {"lat": 23.403125761981187, "lng": 117.11252318179316}, "feature": {"sight_features": "", "sight_content": ""}}, {"title": "长山尾炮台", "address": "汕头市南澳县南澳岛黄花山管区长山尾村长山尾渡口", "image": "", "rank": 8, "time": 0.25, "location": {"lat": 23.435091918219708, "lng": 116.97640999332127}, "feature": {"sight_features": "", "sight_content": ""}}, {"title": "南山寺", "address": "汕头市南澳县南澳岛", "image": "", "rank": 9, "time": 1.0, "location": {"lat": 23.435091918219708, "lng": 116.97640999332127}, "feature": {"sight_features": "", "sight_content": ""}}, {"title": "黄花山森林公园", "address": "汕头市南澳县南澳岛", "image": "", "rank": 10, "time": 7.5, "location": {"lat": 23.435091918219708, "lng": 116.97640999332127}, "feature": {"sight_features": "", "sight_content": ""}}, {"title": "海上渔村", "address": "汕头南澳县三澳村附近海面", "image": "", "rank": 11, "time": 2, "location": {"lat": 23.472810966503733, "lng": 117.11425686291834}, "feature": {"sight_features": "", "sight_content": ""}}, {"title": "叠石岩", "address": "汕头市南澳县南澳岛", "image": "", "rank": 12, "time": 1.5, "location": {"lat": 23.435091918219708, "lng": 116.97640999332127}, "feature": {"sight_features": "", "sight_content": ""}}, {"title": "屏山岩", "address": "广东省汕头市南澳县南澳岛屏山岩", "image": "", "rank": 13, "time": 2, "location": {"lat": 23.43868330700885, "lng": 117.10609554356617}, "feature": {"sight_features": "", "sight_content": ""}}, {"title": "云盖寺", "address": "广东省汕头市南澳县南澳岛云盖寺", "image": "", "rank": 14, "time": 1.0, "location": {"lat": 23.43868330700885, "lng": 117.10609554356617}, "feature": {"sight_features": "", "sight_content": ""}}, {"title": "祥云广场", "address": "广东省汕头市南澳县海滨路", "image": "", "rank": 15, "time": 0.75, "location": {"lat": 23.42151648014907, "lng": 117.03578144066064}, "feature": {"sight_features": "", "sight_content": ""}}, {"title": "清平乐园", "address": "广东省南澳县深澳镇吴平寨新村", "image": "", "rank": 16, "time": 2, "location": {"lat": 23.46510742812799, "lng": 117.11716195239426}, "feature": {"sight_features": "", "sight_content": ""}}, {"title": "钱澳湾旅游度假村", "address": "环岛西路104号", "image": "", "rank": 17, "time": 2, "location": {"lat": 27.757792554775662, "lng": 118.03392281055984}, "feature": {"sight_features": "", "sight_content": ""}}, {"title": "叠石岩风景区", "address": "南澳岛东半岛", "image": "", "rank": 18, "time": 2, "location": {"lat": 23.435091918219708, "lng": 116.97640999332127}, "feature": {"sight_features": "", "sight_content": ""}}, {"title": "南澳深奥猎屿渔家乐", "address": "南澳县南澳县猎屿", "image": "", "rank": 19, "time": 4.5, "location": {"lat": 23.48063978825913, "lng": 117.1102499693958}, "feature": {"sight_features": "", "sight_content": ""}}, {"title": "金山摩崖石刻", "address": "广东省南澳县深澳镇金山山顶", "image": "", "rank": 20, "time": 2, "location": {"lat": 23.46510742812799, "lng": 117.11716195239426}, "feature": {"sight_features": "", "sight_content": ""}}, {"title": "海盗船渔家乐", "address": "广东省汕头市南澳县S336", "image": "", "rank": 21, "time": 2, "location": {"lat": 23.42781204594636, "lng": 117.03049603112653}, "feature": {"sight_features": "", "sight_content": ""}}, {"title": "太子楼遗址", "address": "汕头市南澳县汕头南澳岛旅游区宋井风景区内", "image": "", "rank": 22, "time": 2, "location": {"lat": 23.403287566266503, "lng": 117.113891367559}, "feature": {"sight_features": "", "sight_content": ""}}, {"title": "云深古寺", "address": "汕头市南澳县南澳岛深澳镇金山村雄镇关内", "image": "", "rank": 23, "time": 2, "location": {"lat": 23.44270580224206, "lng": 117.10954404589236}, "feature": {"sight_features": "", "sight_content": ""}}, {"title": "地藏殿", "address": "汕头市南澳县汕头南澳岛旅游区南山寺内", "image": "", "rank": 24, "time": 2.5, "location": {"lat": 23.455428594325245, "lng": 117.10904885408185}, "feature": {"sight_features": "", "sight_content": ""}}, {"title": "南澳白鹭生态公园", "address": "汕头市南澳县环城东路", "image": "", "rank": 25, "time": 4.5, "location": {"lat": 23.434171587900256, "lng": 117.04276201916613}, "feature": {"sight_features": "", "sight_content": ""}}, {"title": "基督教深澳堂", "address": "汕头市南澳县", "image": "", "rank": 26, "time": 2, "location": {"lat": 23.42781204594636, "lng": 117.03049603112653}, "feature": {"sight_features": "", "sight_content": ""}}, {"title": "般若堂", "address": "汕头市南澳县汕头南澳岛旅游区叠石岩内", "image": "", "rank": 27, "time": 2, "location": {"lat": 23.437793961274224, "lng": 117.10089351654608}, "feature": {"sight_features": "", "sight_content": ""}}, {"title": "藏经阁", "address": "汕头市南澳县汕头南澳岛旅游区屏山岩内", "image": "", "rank": 28, "time": 1.0, "location": {"lat": 23.459245170390574, "lng": 117.09725404434988}, "feature": {"sight_features": "", "sight_content": ""}}, {"title": "天主堂", "address": "汕头市南澳县龙滨路325号", "image": "", "rank": 29, "time": 0.4, "location": {"lat": 23.43021567728148, "lng": 117.03513281286075}, "feature": {"sight_features": "", "sight_content": ""}}, {"title": "烈士陵园", "address": "后宅镇陵园街4号", "image": "", "rank": 30, "time": 2, "location": {"lat": 23.437197447408323, "lng": 117.03523486667328}, "feature": {"sight_features": "", "sight_content": ""}}, {"title": "法轮常转", "address": "汕头市南澳县汕头南澳岛旅游区云盖寺内", "image": "", "rank": 31, "time": 2, "location": {"lat": 23.444059764333147, "lng": 117.08774084437518}, "feature": {"sight_features": "", "sight_content": ""}}, {"title": "祖堂", "address": "汕头市南澳县南澳岛深澳镇金山村雄镇关云深古寺内", "image": "", "rank": 32, "time": 1.0, "location": {"lat": 23.43868330700885, "lng": 117.10609554356617}, "feature": {"sight_features": "", "sight_content": ""}}, {"title": "海防文化厅", "address": "汕头市南澳县南山路前段闽粤南澳总镇府内", "image": "", "rank": 33, "time": 2, "location": {"lat": 23.45854294919672, "lng": 117.10812732108661}, "feature": {"sight_features": "", "sight_content": ""}}, {"title": "南澳抗日殉难者纪念碑", "address": "后宅镇057县道南澳海岛国家森林公园内南澳岛生态旅游区", "image": "", "rank": 34, "time": 4.5, "location": {"lat": 23.445461991637178, "lng": 117.01831716434847}, "feature": {"sight_features": "", "sight_content": ""}}, {"title": "欣湾度假村", "address": "海滨路翔云广场对面(玉珑湾)", "image": "", "rank": 35, "time": 2, "location": {"lat": 23.422623990558154, "lng": 117.02738387594249}, "feature": {"sight_features": "", "sight_content": ""}}, {"title": "汕头南澳程家庄度假村", "address": "汕头南澳走马埔村环岛路北98号", "image": "", "rank": 36, "time": 2.5, "location": {"lat": 23.474548465204016, "lng": 117.06486131655222}, "feature": {"sight_features": "", "sight_content": ""}}, {"title": "后宅镇宫前大圆", "address": "汕头市南澳县龙滨路", "image": "", "rank": 37, "time": 2, "location": {"lat": 23.42810043861801, "lng": 117.03506251508328}, "feature": {"sight_features": "", "sight_content": ""}}, {"title": "宋井风景区", "address": "汕头市南澳县汕头南澳岛旅游区内", "image": "", "rank": 38, "time": 2, "location": {"lat": 23.444059764333147, "lng": 117.08774084437518}, "feature": {"sight_features": "", "sight_content": ""}}, {"title": "武帝庙", "address": "南澳岛山脚井路与育新路东一巷交叉口东南50米", "image": "", "rank": 39, "time": 2, "location": {"lat": 23.423122704141367, "lng": 117.03212923139063}, "feature": {"sight_features": "", "sight_content": ""}}, {"title": "南澳县博物馆", "address": "中兴路", "image": "", "rank": 40, "time": 2, "location": {"lat": 38.70935513883943, "lng": 117.51340835180949}, "feature": {"sight_features": "", "sight_content": ""}}, {"title": "黄花山桔园农家乐", "address": "黄花山国家森林公园龟埕景区内(近龟湖)", "image": "", "rank": 41, "time": 2, "location": {"lat": 23.450486575374843, "lng": 116.99022697139964}, "feature": {"sight_features": "", "sight_content": ""}}, {"title": "海滨游乐园", "address": "海滨游乐园", "image": "", "rank": 42, "time": 3.5, "location": {"lat": 22.76530843894049, "lng": 113.67356304568457}, "feature": {"sight_features": "", "sight_content": ""}}, {"title": "南澳蓝帆休闲旅游有限公司", "address": "后宅镇后江造船厂蓝帆海上游船码头", "image": "", "rank": 43, "time": 4.5, "location": {"lat": 23.445602061459176, "lng": 117.03713946209966}, "feature": {"sight_features": "", "sight_content": ""}}, {"title": "南澳岛钓鱼协会", "address": "云澳镇港边东路28号S336", "image": "", "rank": 44, "time": 2, "location": {"lat": 23.40945435189161, "lng": 117.11490545656412}, "feature": {"sight_features": "", "sight_content": ""}}, {"title": "广东省南澳潮剧团", "address": "海防史博物馆附近中兴路", "image": "", "rank": 45, "time": 2, "location": {"lat": 23.431142596079244, "lng": 117.03036236326669}, "feature": {"sight_features": "", "sight_content": ""}}, {"title": "渔家船老大", "address": "吴平寨小学往西二百也不", "image": "", "rank": 46, "time": 2, "location": {"lat": 23.480214629923005, "lng": 117.11596138504667}, "feature": {"sight_features": "", "sight_content": ""}}, {"title": "南澳海上快艇", "address": "336省道青澳湾沙滩", "image": "", "rank": 47, "time": 4.5, "location": {"lat": 23.457406344297393, "lng": 117.13720053244961}, "feature": {"sight_features": "", "sight_content": ""}}, {"title": "海豚之星海岛俱乐部", "address": "云澳镇云澳码头海豚之星海岛俱乐部", "image": "", "rank": 48, "time": 2, "location": {"lat": 23.413878767984055, "lng": 117.11214620249618}, "feature": {"sight_features": "", "sight_content": ""}}, {"title": "汕头南澳海岛森林公园", "address": "广东省南澳县南澳岛", "image": "", "rank": 49, "time": 2.5, "location": {"lat": 23.435091918219708, "lng": 116.97640999332127}, "feature": {"sight_features": "", "sight_content": ""}}, {"title": "戍台澎故兵墓园", "address": "广东省南澳县南澳岛", "image": "", "rank": 50, "time": 2, "location": {"lat": 23.435091918219708, "lng": 116.97640999332127}, "feature": {"sight_features": "", "sight_content": ""}}, {"title": "白牛大尖山", "address": "汕头市-南澳县", "image": "", "rank": 51, "time": 2, "location": {"lat": 23.42781204594636, "lng": 117.03049603112653}, "feature": {"sight_features": "", "sight_content": ""}}, {"title": "南澳悦缦度假酒店温泉", "address": "汕头市南青澳湾海滩中段南澳悦缦度假酒店", "image": "", "rank": 52, "time": 2, "location": {"lat": 23.42781204594636, "lng": 117.03049603112653}, "feature": {"sight_features": "", "sight_content": "悦缦温泉致力于打造文化底蕴氛围，夏有汗蒸房为您消除生活疲惫、儿童乐园带你回归孩童欢快。冬有地暖房为您驱寒保暖，守护您的身体健康。"}}, {"title": "招兵树", "address": "南澳县深澳镇南山路上", "image": "", "rank": 53, "time": 2, "location": {"lat": 23.457502589903754, "lng": 117.10872661213281}, "feature": {"sight_features": "", "sight_content": ""}}, {"title": "陆秀夫墓", "address": "336省道附近", "image": "", "rank": 54, "time": 2, "location": {"lat": 31.893686636307606, "lng": 121.10505712819689}, "feature": {"sight_features": "", "sight_content": ""}}, {"title": "故兵墓", "address": "336省道南150米", "image": "", "rank": 55, "time": 2, "location": {"lat": 31.892536976652604, "lng": 121.10505712819689}, "feature": {"sight_features": "", "sight_content": ""}}, {"title": "候鸟保护区", "address": "广东省南澳县乌屿岛", "image": "", "rank": 56, "time": 2.0, "location": {"lat": 23.36109274233713, "lng": 117.14166729730833}, "feature": {"sight_features": "", "sight_content": ""}}, {"title": "三囱崖灯塔", "address": "汕头市南澳县云澳镇S336海泉湾附近", "image": "", "rank": 57, "time": 2, "location": {"lat": 23.40606178273697, "lng": 117.1395554843602}, "feature": {"sight_features": "", "sight_content": ""}}]}