{"cityName": "南安", "days": 2, "cityImage": "", "spots": [{"title": "蔡氏古民居", "address": "南安市官桥镇漳里村", "image": "", "rank": 1, "time": 2.5, "location": {"lat": 24.81592119701731, "lng": 118.41515560433085}, "feature": {"sight_features": "", "sight_content": ""}}, {"title": "郑成功纪念馆", "address": "泉州市南安市石井镇西角", "image": "", "rank": 2, "time": 1.5, "location": {"lat": 24.636736122797654, "lng": 118.3933201446628}, "feature": {"sight_features": "", "sight_content": ""}}, {"title": "灵应寺", "address": "泉州市南安市洪梅镇玳瑁山灵应风景旅游区内", "image": "", "rank": 3, "time": 1.5, "location": {"lat": 25.1623550757287, "lng": 118.55885580747645}, "feature": {"sight_features": "", "sight_content": ""}}, {"title": "灵应风景旅游区", "address": "泉州市南安市洪梅镇玳瑁山", "image": "", "rank": 4, "time": 3.5, "location": {"lat": 25.1623550757287, "lng": 118.55885580747645}, "feature": {"sight_features": "", "sight_content": ""}}, {"title": "南安香草世界", "address": "泉州南安市蓬华镇天柱山风景区香草世界度假村", "image": "", "rank": 5, "time": 2, "location": {"lat": 25.22317980907799, "lng": 118.213622416116}, "feature": {"sight_features": "特色1 集生态茶园、果园、旅游观光休闲度假于一体的综合性旅游景区。 特色2 一座以香草为主题的健康休闲度假村。", "sight_content": "香草世界度假村是国家AAA级景区，省四星级乡村旅游经营单位，全国休闲农业示范点，位于福建省南安市天柱山风景区，台商独资兴建，是一个集生态茶园、果园、旅游观光休闲度假于一体的综合性旅游景区。\n景区占地面积4500亩，海拔1033.5米。这里有连绵起伏的原生态森林，环境清幽，空气清新，犹如一座天然氧吧。\n在青山绿水之间已建成的景点有天柱岩寺、金熊乐园、开心农场、好汉雄坡、天池垂钓、专业拓展基地、福建首家滑翔伞基地、顶级CS野战场、越野卡丁车、山间别墅、温莎城堡、香草基地、花园餐厅、多功能会议厅等等，集宗教朝圣、中西文化于一体，游览其间，可以领略中西文化的精髓，陶冶情怀……"}}, {"title": "泉州华侨革命历史博物馆", "address": "泉州市南安市金淘镇占石村", "image": "", "rank": 6, "time": 1.5, "location": {"lat": 25.133151694486514, "lng": 118.28303105311863}, "feature": {"sight_features": "", "sight_content": ""}}, {"title": "霞美欢乐水世界", "address": "泉州市南安市大霞美四黄村", "image": "", "rank": 7, "time": 2, "location": {"lat": 24.929014869482746, "lng": 118.49078238842746}, "feature": {"sight_features": "特色1 20多种项目玩乐设施带来刺激的水上体验 特色2 惊声尖叫，畅快玩水，全方位体验动感魅力 特色3 共设20余套水上游乐项目", "sight_content": "泉州霞美欢乐水世界位于泉州南安霞美镇，这里是所有泉州人盛夏避暑、度假的不二之选。园区主要分为疯狂冲浪、挑战刺激、童趣戏水三个主题游乐区，共设20余套水上游乐项目。全新的大喇叭滑道，巨兽碗滑道，冲天回旋，大水寨，宝贝水城，彩虹竞赛滑道，浪摆滑梯，海啸池，海浪池，炮筒雪橇，标准泳池，水疗池等项目，引爆惊险，刺激，欢乐的水上体验。\n疯狂冲浪\n\n冲浪不一定非得去海边，这里的水更蓝，浪来得温和安全，比在海边冲浪多了份安心！\n挑战刺激\n超级大喇叭毫无疑问是水上项目人气王，从16米高的平台飞一般地冲入巨大的喇叭形滑道内，如在龙卷风内来回穿梭，十分刺激。\n浪摆滑梯超经典，在重力作用下，从高台乘坐皮筏急速下滑，在巨大的滑道上来回旋转翻腾，强大的失重感让你分分钟觉得自己要上天~\n童趣戏水\n\n小朋友们也马上快放暑假啦，在这里，大人放松身心，小孩享受童趣，一起度过欢乐的家庭时光！带小朋友戏水，最不能错过的就是这座大水寨，酷似加勒比海盗的造型，保证小朋友一看到就尖叫连连、跃跃欲试。"}}, {"title": "黄巢山漂流", "address": "泉州市南安市东田镇山西村黄巢山风景区", "image": "", "rank": 8, "time": 1.0, "location": {"lat": 24.898019955214423, "lng": 118.27813905648247}, "feature": {"sight_features": "", "sight_content": "黄巢山漂流位于南安市东田镇西南部，海拔约1095米。景区地势险要、奇峰嶙峋、怪石峥嵘。在户外运动爱好者中素有“闽南张家界”之美誉。 黄巢山漂流两岸植被保护较好，水质较佳。溪水跌宕起伏，冰凉可人，两人一组驾驭皮艇自由小舟，驰骋于优美山涧，时而湍急，时而平缓，在与大自然的碰撞中演绎精彩瞬间！"}}, {"title": "黄巢山", "address": "泉州市南安市东田镇山西村黄巢山自然风景区", "image": "", "rank": 9, "time": 1.5, "location": {"lat": 24.878584322278666, "lng": 118.2898001624224}, "feature": {"sight_features": "特色1 地势险要，奇峰嶙峋，风光旖旎（免费游览无需证件）", "sight_content": "黄巢山位于南安市东田镇西南部，因唐末农民起义军领袖黄巢在此屯兵扎营而得名，现已是名闻遐迩的自然风景区。\n景区总体是一条可用于探险的狭长而崎岖陡峭的幽深峡谷，约3公里长，沿途布满各种奇石怪石，令人惊叹!中间有几个舟  渡的大小绿潭，是旅游探险的必经之处。峡谷悬泉似练，清潺如歌。景区内还留有10余处佛道教、历代兵家人文景观，历史悠久，并留下许多优美传说和动人的民间故事。\n峡谷深处是一处宏伟壮观的瀑布群，瀑布源头海拔高480多米，宽30多米，分三层瀑布，每个瀑布下有一个100M2以上的绿潭，游者可涉险攀至二瀑下，潜入潭中，尽享水中乐趣。整个瀑布群一瀑为100多米，二瀑80多米，三瀑60多米，水量大时，其声如雷，十里可闻，且瀑区经年雾蒸云腾，七彩长虹，凌空南北，非常壮观。\n黄巢山自然风景区到处山清水秀，万木争荣，百花争艳，成为各种珍稀动植物生息活动的天堂，是众多旅游爱好者假日休闲、避暑、探险、赏瀑的好去处。"}}, {"title": "雪峰寺", "address": "泉州市南安市康美镇杨梅山中", "image": "", "rank": 10, "time": 1.0, "location": {"lat": 25.084095988058728, "lng": 118.47777307593455}, "feature": {"sight_features": "", "sight_content": ""}}, {"title": "郑成功陵墓", "address": "南安", "image": "", "rank": 11, "time": 2, "location": {"lat": 24.966362350467605, "lng": 118.39257197205464}, "feature": {"sight_features": "", "sight_content": ""}}, {"title": "天心洞", "address": "泉州市南安市水头镇的琼花山麓", "image": "", "rank": 12, "time": 3.5, "location": {"lat": 24.72993135033381, "lng": 118.39530372000789}, "feature": {"sight_features": "", "sight_content": "天心洞坐落在南安水头镇的琼花山麓，始建于隋代（公元581—618年），是南安市四大古刹之一。天心洞原名天香寺，祀奉三宝佛祖，是南安佛道两教合一的游览胜地，景区内有道观、龙潭、飞瀑、天香寺四大景观，被誉为“泉南胜迹”。"}}, {"title": "南安五台山", "address": "泉州市南安市向阳乡五台山", "image": "", "rank": 13, "time": 7.5, "location": {"lat": 25.28694812131011, "lng": 118.44371767087577}, "feature": {"sight_features": "", "sight_content": ""}}, {"title": "梦多啦水上乐园", "address": "336县道红星职专往邱店方向700米处", "image": "", "rank": 14, "time": 2, "location": {"lat": 48.24548040527505, "lng": 129.39750706935092}, "feature": {"sight_features": "", "sight_content": ""}}, {"title": "清境桃源", "address": "泉州市南安市丰州镇环山水吼村", "image": "", "rank": 15, "time": 2, "location": {"lat": 24.982104694595222, "lng": 118.53939994203573}, "feature": {"sight_features": "特色1 生态、健康、旅游、养生度假区 特色2 打造现代农业、科普教育、旅游休闲、养生度假等四大基地 特色3 建设生态娱乐、健身攀岩、冒险漂流、四季花海等四大功能区。", "sight_content": "泉州清境桃源位于福建泉州南安市丰州镇环山水吼村，以生态、健康、旅游、养生度假为主，打造现代农业，旅游休闲，科普教育，养生度假四大基地。主要景点有桃花源瀑布、玻璃索道桥、特色木屋、闽南民宿、动物亲子园、听荷池、汽车露营地、垂钓烧烤、樱花园、冒险漂流、薰衣草花海、蒙古大草原、四季花海、风车玫瑰园、湿地植物园等。"}}, {"title": "华都天池温泉", "address": "水头西锦工业区华都酒店", "image": "", "rank": 16, "time": 2, "location": {"lat": 24.716221842070965, "lng": 118.43119852776726}, "feature": {"sight_features": "", "sight_content": ""}}, {"title": "皇旗尖休闲茶庄园", "address": "泉州市南安市眉山乡观山村眉峰茶厂1号", "image": "", "rank": 17, "time": 2, "location": {"lat": 25.07672215039816, "lng": 118.33777828420277}, "feature": {"sight_features": "", "sight_content": "皇旗尖休闲茶庄园是全国农业休闲与乡村旅游示范点，始创于民国期间的眉峰茶厂，坐落在南安市眉山乡观山村眉峰，规划有住宿区、会议区、娱乐体验区、休闲观光区。\n规划有住宿区、会议区、娱乐体验区、休闲观光区。庄园内有茶园观光景点、云海日出观景台、世界记忆遗产侨批档案展示长廊等景点；还有射箭除虫、观山荡秋千、趣味滑沙、水上漂、网红荡桥、时来运转漂流、水上高尔夫、游船等体验娱乐项目。是集休闲农业、科普教育、康养避暑、企业拓展、亲子活动、会场提供，观山古厝游览为一体的综合“氧”生茶庄园。\n皇旗尖“时来大运转”大漂流是全国首创的第一条按风水命理集农业灌溉与休闲体验融为一体修建的漂流带，海拔520米，设有快、慢两条滑道，采用独特的循环设计，环绕云宝山，可漂流无限长时间，漂流时可全方位360度观看茶园全景及湖光山色。堪称“无限长”漂流。安全、刺激、随到排队即漂，漂出精彩，玩出好运！"}}, {"title": "蓝溪湿地公园", "address": "河滨路东100米", "image": "", "rank": 18, "time": 2, "location": {"lat": 21.373501696333918, "lng": 110.25479330775401}, "feature": {"sight_features": "", "sight_content": ""}}, {"title": "儿童游乐场海洋世界", "address": "官桥镇政府人民广场对面大楼2楼", "image": "", "rank": 19, "time": 2, "location": {"lat": 39.740282015091616, "lng": 118.45367849473703}, "feature": {"sight_features": "", "sight_content": ""}}, {"title": "南安市荣昊休闲山庄", "address": "英都镇良山村", "image": "", "rank": 20, "time": null, "location": {"lat": 24.972321440009246, "lng": 118.24260283162155}, "feature": {"sight_features": "", "sight_content": ""}}, {"title": "五洲绿化基地", "address": "柳中路转盘", "image": "", "rank": 21, "time": 2, "location": {"lat": 42.8808794583067, "lng": 90.23037145783236}, "feature": {"sight_features": "", "sight_content": ""}}, {"title": "黑峰关帝庙", "address": "336县道东150米", "image": "", "rank": 22, "time": 2, "location": {"lat": 37.82765778143527, "lng": 113.15518469715755}, "feature": {"sight_features": "", "sight_content": ""}}, {"title": "南安市东田基督教堂", "address": "福建省泉州市南安市X305", "image": "", "rank": 23, "time": 2, "location": {"lat": 24.966362350467605, "lng": 118.39257197205464}, "feature": {"sight_features": "", "sight_content": ""}}, {"title": "四王府锦溪庙", "address": "福建省泉州市南安市滨江景观路", "image": "", "rank": 24, "time": 2, "location": {"lat": 24.965585818313183, "lng": 118.41196753155157}, "feature": {"sight_features": "", "sight_content": ""}}, {"title": "武灵宫元帅府", "address": "彭美路与新华南路交叉口北100米", "image": "", "rank": 25, "time": 2, "location": {"lat": 24.956364344490733, "lng": 118.38427443814652}, "feature": {"sight_features": "", "sight_content": ""}}, {"title": "泽龙馆", "address": "泉州市南安市长兴巷", "image": "", "rank": 26, "time": 2, "location": {"lat": 24.964409501067056, "lng": 118.39218078785264}, "feature": {"sight_features": "", "sight_content": ""}}, {"title": "玫瑰小镇漂流", "address": "东田镇桃园村溪头", "image": "", "rank": 27, "time": 2, "location": {"lat": 24.864818883980135, "lng": 118.25036576056492}, "feature": {"sight_features": "", "sight_content": ""}}, {"title": "湖圻宫", "address": "柳美南路与江北大道交叉口北200米", "image": "", "rank": 28, "time": 2, "location": {"lat": 24.97156978731972, "lng": 118.41333647099574}, "feature": {"sight_features": "", "sight_content": ""}}, {"title": "南安山美基督教堂", "address": "福建省泉州市南安市蔡边大路", "image": "", "rank": 29, "time": 2, "location": {"lat": 24.93263506541895, "lng": 118.4923066538773}, "feature": {"sight_features": "", "sight_content": ""}}, {"title": "登台庙", "address": "泉州市南安市丰州镇省道307线旭山小学北九日山内", "image": "", "rank": 30, "time": 2, "location": {"lat": 24.953898267840295, "lng": 118.53255378237348}, "feature": {"sight_features": "", "sight_content": ""}}, {"title": "燕山黄氏家庙", "address": "南门街西150米", "image": "", "rank": 31, "time": 2, "location": {"lat": 38.30749410138954, "lng": 114.3795663155415}, "feature": {"sight_features": "", "sight_content": ""}}, {"title": "关圣庙", "address": "洪濑街49号附近", "image": "", "rank": 32, "time": 2, "location": {"lat": 25.082244675967534, "lng": 118.52685995575034}, "feature": {"sight_features": "", "sight_content": ""}}, {"title": "郭王府", "address": "洪濑街270号附近", "image": "", "rank": 33, "time": 2, "location": {"lat": 25.08035202951689, "lng": 118.52890133145928}, "feature": {"sight_features": "", "sight_content": ""}}, {"title": "建兴寺", "address": "泉州市南安市洪新路91号", "image": "", "rank": 34, "time": 2, "location": {"lat": 25.083626832328182, "lng": 118.52901008170629}, "feature": {"sight_features": "", "sight_content": ""}}, {"title": "基督教洪濑主恩堂", "address": "福建省泉州市南安市S307(东大路)", "image": "", "rank": 35, "time": 2, "location": {"lat": 25.084597314424855, "lng": 118.53094033944076}, "feature": {"sight_features": "", "sight_content": ""}}, {"title": "草宫古地", "address": "仑苍村水暖城二期", "image": "", "rank": 36, "time": 2, "location": {"lat": 25.008558167025164, "lng": 118.29946413309555}, "feature": {"sight_features": "", "sight_content": ""}}, {"title": "苏家大宅", "address": "福建省泉州市南安市集星村大城68号", "image": "", "rank": 37, "time": 2.5, "location": {"lat": 25.062071973033817, "lng": 118.47931001647514}, "feature": {"sight_features": "", "sight_content": ""}}, {"title": "南安市后坑埔基督教堂", "address": "福建省泉州市南安市金淘填后坑埔", "image": "", "rank": 38, "time": 2, "location": {"lat": 25.12230523040215, "lng": 118.36305365839634}, "feature": {"sight_features": "", "sight_content": ""}}, {"title": "广峰寺", "address": "福建省泉州市南安市南安罗东镇潭溪村", "image": "", "rank": 39, "time": 7.5, "location": {"lat": 25.196740270142207, "lng": 118.52590097937899}, "feature": {"sight_features": "", "sight_content": ""}}, {"title": "水头镇影剧院", "address": "福建省泉州市南安市厦盛路4号(近时代新城)", "image": "", "rank": 40, "time": 0.5, "location": {"lat": 24.711152204700962, "lng": 118.4387257711794}, "feature": {"sight_features": "", "sight_content": ""}}, {"title": "温迪儿童主题乐园(溪美店)", "address": "环城西路超前购物广场1层", "image": "", "rank": 41, "time": 2, "location": {"lat": 24.955808318061536, "lng": 118.38904540428473}, "feature": {"sight_features": "", "sight_content": ""}}, {"title": "迪乐尼(诗山公园)", "address": "诗山镇诗山街727号公园对面", "image": "", "rank": 42, "time": 2, "location": {"lat": 25.190158776765834, "lng": 118.29719884614826}, "feature": {"sight_features": "", "sight_content": ""}}, {"title": "泉州森林山庄", "address": "丰州镇桃源水库北岸", "image": "", "rank": 43, "time": 1.5, "location": {"lat": 24.98778884908834, "lng": 118.54222559255882}, "feature": {"sight_features": "", "sight_content": ""}}, {"title": "蓝桥社区休闲广场", "address": "南侨街附近", "image": "", "rank": 44, "time": 2, "location": {"lat": 24.81043342909458, "lng": 118.44299808234894}, "feature": {"sight_features": "", "sight_content": ""}}, {"title": "温迪儿童主题乐园", "address": "福建省泉州市南安市超前购物广场1楼", "image": "", "rank": 45, "time": 0.4, "location": {"lat": 24.955808318061536, "lng": 118.38904540428473}, "feature": {"sight_features": "", "sight_content": ""}}, {"title": "顶溪寺", "address": "河滨花苑2号楼", "image": "", "rank": 46, "time": 2, "location": {"lat": 24.967314086495044, "lng": 118.39670623362049}, "feature": {"sight_features": "", "sight_content": ""}}, {"title": "武荣慈济宫", "address": "福建省泉州市南安市丰州镇南门街丰源小区", "image": "", "rank": 47, "time": 2, "location": {"lat": 24.957146271417624, "lng": 118.54915842163496}, "feature": {"sight_features": "", "sight_content": ""}}, {"title": "童年的故事休闲农庄乐园", "address": "泉州市南安市丰州镇西华村（闽丰葡萄园内）", "image": "", "rank": 48, "time": 2, "location": {"lat": 24.98003292725483, "lng": 118.55784541949002}, "feature": {"sight_features": "", "sight_content": ""}}, {"title": "泉州天后宫秉正堂石花膏(南安分...", "address": "溪美二环路双塘小区2号店(世纪豪庭对面)", "image": "", "rank": 49, "time": 1.5, "location": {"lat": 39.86191260515252, "lng": 116.43434475789292}, "feature": {"sight_features": "", "sight_content": ""}}, {"title": "海洋幻想儿童主题乐园", "address": "水头镇水头镇时代新城7号楼跨世纪时尚购物中心三楼", "image": "", "rank": 50, "time": 2, "location": {"lat": 24.707629056470296, "lng": 118.43137128089982}, "feature": {"sight_features": "", "sight_content": ""}}, {"title": "中国奢石博览馆", "address": "福建省泉州市南安市水头镇肖厝世纪大道福山工业区", "image": "", "rank": 51, "time": 2, "location": {"lat": 24.719791883739155, "lng": 118.41935259726536}, "feature": {"sight_features": "", "sight_content": ""}}, {"title": "烟峰公园", "address": "福建省泉州市南安市溪东中学对面", "image": "", "rank": 52, "time": 2, "location": {"lat": 24.612943265904164, "lng": 118.38281968986513}, "feature": {"sight_features": "", "sight_content": ""}}, {"title": "梦哆啦儿童乐园(溪美店)", "address": "溪美柳城路体育馆内", "image": "", "rank": 53, "time": 2, "location": {"lat": 24.9675935980005, "lng": 118.39221660239501}, "feature": {"sight_features": "", "sight_content": ""}}, {"title": "树下宫", "address": "英都镇良山村树溪18组", "image": "", "rank": 54, "time": 2, "location": {"lat": 24.972321440009246, "lng": 118.24260283162155}, "feature": {"sight_features": "", "sight_content": ""}}, {"title": "慕美六柱宗祠", "address": "福建省泉州市南安市X332", "image": "", "rank": 55, "time": 2, "location": {"lat": 24.966362350467605, "lng": 118.39257197205464}, "feature": {"sight_features": "", "sight_content": ""}}, {"title": "嗨童儿童乐园", "address": "福建省泉州市南安市林柄村第一小区46格兰尼大厦5楼", "image": "", "rank": 56, "time": 2, "location": {"lat": 24.630479603502053, "lng": 118.43325875192828}, "feature": {"sight_features": "", "sight_content": ""}}, {"title": "基督教石井堂", "address": "成功南路322号", "image": "", "rank": 57, "time": 2, "location": {"lat": 24.630146310941978, "lng": 118.4340098539107}, "feature": {"sight_features": "", "sight_content": ""}}, {"title": "延平王祠", "address": "延平东路南100米", "image": "", "rank": 58, "time": 2, "location": {"lat": 24.63275435910165, "lng": 118.43934004756768}, "feature": {"sight_features": "", "sight_content": ""}}, {"title": "福寿堂", "address": "福建省泉州市南安市", "image": "", "rank": 59, "time": 2, "location": {"lat": 24.966362350467605, "lng": 118.39257197205464}, "feature": {"sight_features": "", "sight_content": ""}}, {"title": "南安汉侯博物馆", "address": "福建省泉州市南安市创新路", "image": "", "rank": 60, "time": 2, "location": {"lat": 24.937552997010794, "lng": 118.48268428552893}, "feature": {"sight_features": "", "sight_content": ""}}]}