{"cityName": "南昌县", "days": 2, "cityImage": "", "spots": [{"title": "水观音亭", "address": "南昌市南昌县南湖路34号", "image": "", "rank": 1, "time": 1.0, "location": {"lat": 28.687978473994313, "lng": 115.90080263110796}, "feature": {"sight_features": "", "sight_content": ""}}, {"title": "澄碧湖公园", "address": "南昌市南昌县莲塘镇向阳路（县国税局斜对面）", "image": "", "rank": 2, "time": 1.0, "location": {"lat": 28.68542678043774, "lng": 115.82937838159255}, "feature": {"sight_features": "", "sight_content": ""}}, {"title": "国鸿生态园", "address": "南昌市南昌县蒋巷西大道621号", "image": "", "rank": 3, "time": 3.5, "location": {"lat": 28.760670489508346, "lng": 115.99036489774579}, "feature": {"sight_features": "", "sight_content": ""}}, {"title": "南昌县博物馆", "address": "南昌市南昌县澄湖北大道579号", "image": "", "rank": 4, "time": 1.0, "location": {"lat": 28.563885186863114, "lng": 115.93329636050025}, "feature": {"sight_features": "", "sight_content": ""}}, {"title": "怡心园", "address": "南昌市南昌县莲塘棠墅村（武阳大桥南侧）", "image": "", "rank": 5, "time": 2, "location": {"lat": 28.529566693385025, "lng": 116.00809813481231}, "feature": {"sight_features": "", "sight_content": ""}}, {"title": "江西凤凰山庄", "address": "南昌市南昌县向塘镇蓝园大道口", "image": "", "rank": 6, "time": 2, "location": {"lat": 28.393703752010172, "lng": 116.01653296842946}, "feature": {"sight_features": "", "sight_content": ""}}, {"title": "江西懿康生态农庄", "address": "兴武路与板钱段交叉口北50米", "image": "", "rank": 7, "time": 2, "location": {"lat": 28.535496626095973, "lng": 116.00138170573686}, "feature": {"sight_features": "", "sight_content": ""}}, {"title": "正荣水上乐园", "address": "振兴大道163号", "image": "", "rank": 8, "time": 2, "location": {"lat": 23.16116808081507, "lng": 113.93303200308507}, "feature": {"sight_features": "", "sight_content": ""}}, {"title": "农家乐休闲所", "address": "蒋巷镇河边湾子村(近湖光山舍)", "image": "", "rank": 9, "time": 2, "location": {"lat": 35.970237799714326, "lng": 120.17730827084061}, "feature": {"sight_features": "", "sight_content": ""}}, {"title": "麦芽书虫儿童概念书吧", "address": "金沙二路2718号幸福时光一期12-102", "image": "", "rank": 10, "time": 2, "location": {"lat": 28.591065387118977, "lng": 115.88604067695547}, "feature": {"sight_features": "", "sight_content": ""}}, {"title": "五星葡萄园", "address": "五五段024县", "image": "", "rank": 11, "time": 2, "location": {"lat": 28.781925732864124, "lng": 116.26816361288482}, "feature": {"sight_features": "", "sight_content": ""}}, {"title": "有个密室", "address": "府前西路256号(中国电信)", "image": "", "rank": 12, "time": 2, "location": {"lat": 28.551843972850982, "lng": 115.94540729410612}, "feature": {"sight_features": "", "sight_content": ""}}, {"title": "林和农庄", "address": "莲红段", "image": "", "rank": 13, "time": 2, "location": {"lat": 28.521470588712432, "lng": 115.96669857197438}, "feature": {"sight_features": "", "sight_content": ""}}, {"title": "钓鱼协会垂钓中心", "address": "蒋巷西大道", "image": "", "rank": 14, "time": 2, "location": {"lat": 28.755738190628662, "lng": 115.96892211077196}, "feature": {"sight_features": "", "sight_content": ""}}, {"title": "钓鱼协会南昌县晨俊垂钓俱乐部", "address": "澄湖东路", "image": "", "rank": 15, "time": 2, "location": {"lat": 31.246995832024798, "lng": 120.65718823862923}, "feature": {"sight_features": "", "sight_content": ""}}, {"title": "果桑园", "address": "黄马乡030县道凤凰沟风景区", "image": "", "rank": 16, "time": 2, "location": {"lat": 28.377900204551008, "lng": 116.01944707150287}, "feature": {"sight_features": "", "sight_content": ""}}, {"title": "江西蚕桑丝绸生态博物馆", "address": "黄马乡省蚕桑茶叶研究所内", "image": "", "rank": 17, "time": 1.5, "location": {"lat": 28.373553662457695, "lng": 116.02040454121001}, "feature": {"sight_features": "", "sight_content": ""}}, {"title": "儿童乐园", "address": "南昌市南昌县思强南路向塘百货大楼2层", "image": "", "rank": 18, "time": 2, "location": {"lat": 28.43427174157665, "lng": 115.97619144149878}, "feature": {"sight_features": "", "sight_content": ""}}, {"title": "北纬30度主题乐园", "address": "迎宾南大道999", "image": "", "rank": 19, "time": 2, "location": {"lat": 38.29213800733125, "lng": 116.8166759678776}, "feature": {"sight_features": "", "sight_content": ""}}, {"title": "江西服装学院-服饰文化陈列馆", "address": "向塘镇", "image": "", "rank": 20, "time": 2, "location": {"lat": 28.708180278455142, "lng": 115.74653404240377}, "feature": {"sight_features": "", "sight_content": ""}}, {"title": "毛泽东同志故居", "address": "江西省南昌市南昌县g105", "image": "", "rank": 21, "time": 2, "location": {"lat": 28.551604186108275, "lng": 115.95046017276752}, "feature": {"sight_features": "", "sight_content": ""}}, {"title": "莲池寺", "address": "银三角立交桥与316国道交叉口东100米", "image": "", "rank": 22, "time": 2, "location": {"lat": 28.51645046474349, "lng": 115.94756250868494}, "feature": {"sight_features": "", "sight_content": ""}}, {"title": "横岗娘娘庙", "address": "南昌市南昌县", "image": "", "rank": 23, "time": 2, "location": {"lat": 28.551604186108275, "lng": 115.95046017276752}, "feature": {"sight_features": "", "sight_content": ""}}, {"title": "弘法禅寺", "address": "繁荣路北50米", "image": "", "rank": 24, "time": 2, "location": {"lat": 38.02972890987689, "lng": 114.84615351142749}, "feature": {"sight_features": "", "sight_content": ""}}, {"title": "润子儿童乐园", "address": "江西省南昌市南昌县迎宾中大道1189号汇仁欧尚购物广场3层", "image": "", "rank": 25, "time": 2, "location": {"lat": 28.575324017722906, "lng": 115.9202030001326}, "feature": {"sight_features": "", "sight_content": ""}}, {"title": "嗨乐蹦蹦床乐园(新力都荟店)", "address": "象湖金沙大道2133号新力都荟广场一层1-95号", "image": "", "rank": 26, "time": 2, "location": {"lat": 28.59085720972449, "lng": 115.90003759820371}, "feature": {"sight_features": "", "sight_content": ""}}, {"title": "星云动漫体验中心", "address": "南昌县莲塘五一路259号3楼", "image": "", "rank": 27, "time": 2, "location": {"lat": 28.550035104183078, "lng": 115.95013453702026}, "feature": {"sight_features": "", "sight_content": ""}}, {"title": "千竹园", "address": "澄湖西路319号2附近", "image": "", "rank": 28, "time": 2, "location": {"lat": 31.24805148304692, "lng": 120.62377149104798}, "feature": {"sight_features": "", "sight_content": ""}}, {"title": "馨悦儿童游乐场", "address": "维也纳广场东路22号3楼", "image": "", "rank": 29, "time": 2, "location": {"lat": 33.40355594098556, "lng": 120.18489742797547}, "feature": {"sight_features": "", "sight_content": ""}}, {"title": "华夏艺术谷", "address": "莲塘北大道1399号化工大市场综合楼", "image": "", "rank": 30, "time": 2, "location": {"lat": 28.572089781602774, "lng": 115.94618198109968}, "feature": {"sight_features": "", "sight_content": ""}}, {"title": "游乐设施", "address": "南昌市南昌县莲塘镇澄湖东路1111号玺悦城生活广场F3", "image": "", "rank": 31, "time": 2, "location": {"lat": 28.55871085659159, "lng": 115.94476743109156}, "feature": {"sight_features": "", "sight_content": ""}}, {"title": "水月庵", "address": "江西省南昌市南昌县东莲路", "image": "", "rank": 32, "time": 2, "location": {"lat": 28.585458451925085, "lng": 115.8646119879883}, "feature": {"sight_features": "", "sight_content": ""}}, {"title": "邓氏宗祠", "address": "江西省南昌市南昌县抚生西路与桃花东路交叉口西150米", "image": "", "rank": 33, "time": 2, "location": {"lat": 28.596337833311498, "lng": 115.84489568671253}, "feature": {"sight_features": "", "sight_content": ""}}, {"title": "孩子王国儿童乐园", "address": "南昌市南昌县象湖新城金沙大道新华都购物广场象湖新城店1层", "image": "", "rank": 34, "time": 2, "location": {"lat": 28.594838574824607, "lng": 115.90003082857339}, "feature": {"sight_features": "", "sight_content": ""}}, {"title": "咪哒", "address": "南昌市南昌县象湖新城金沙大道2777号演武广场F4", "image": "", "rank": 35, "time": null, "location": {"lat": 28.60128718090025, "lng": 115.90250018058894}, "feature": {"sight_features": "", "sight_content": ""}}, {"title": "令公庙日军大屠杀遗址", "address": "柘林路与文教路交汇处向东50米", "image": "", "rank": 36, "time": 2, "location": {"lat": 21.61293072722965, "lng": 110.2886512562787}, "feature": {"sight_features": "", "sight_content": ""}}, {"title": "海盗传奇离心率蹦床俱乐部(奥体...", "address": "紫阳大道988号酷加天虹商场四楼", "image": "", "rank": 37, "time": 2, "location": {"lat": 28.68029272041527, "lng": 116.02807987728144}, "feature": {"sight_features": "", "sight_content": ""}}, {"title": "东鑫沙场", "address": "沿江南大道西50米", "image": "", "rank": 38, "time": 2, "location": {"lat": 28.621109310822973, "lng": 115.85006281276696}, "feature": {"sight_features": "", "sight_content": ""}}, {"title": "思强广场", "address": "思强南路", "image": "", "rank": 39, "time": 2, "location": {"lat": 28.43560239194192, "lng": 115.97573855358964}, "feature": {"sight_features": "", "sight_content": ""}}, {"title": "扬帆休闲农庄", "address": "南昌市南昌县富山乡", "image": "", "rank": 40, "time": 2, "location": {"lat": 28.523804172627887, "lng": 115.83879678159022}, "feature": {"sight_features": "", "sight_content": ""}}, {"title": "儿童奇幻世界", "address": "南昌市南昌县莲塘镇澄湖东路1111号玺悦城生活广场F2", "image": "", "rank": 41, "time": 2, "location": {"lat": 28.560550007463075, "lng": 115.94458345812318}, "feature": {"sight_features": "", "sight_content": ""}}, {"title": "金屋广场", "address": "江西省南昌市南昌县莲塘镇振兴大道金屋装饰城", "image": "", "rank": 42, "time": 2, "location": {"lat": 28.587172835857256, "lng": 115.92478968428534}, "feature": {"sight_features": "", "sight_content": ""}}, {"title": "南昌凤凰沟凤凰度假村", "address": "南昌凤凰沟风景区内", "image": "", "rank": 43, "time": 1.5, "location": {"lat": 28.37454570331339, "lng": 116.01423657436011}, "feature": {"sight_features": "", "sight_content": ""}}, {"title": "师大上课实验剧场", "address": "江西师范大学先骕楼1层", "image": "", "rank": 44, "time": 2, "location": {"lat": 28.686004283890945, "lng": 116.04067852222418}, "feature": {"sight_features": "", "sight_content": ""}}, {"title": "天后宫", "address": "南昌市南昌县莲塘镇澄湖东路1111号玺悦城生活广场F1", "image": "", "rank": 45, "time": 1.5, "location": {"lat": 28.558392325179263, "lng": 115.94499901425196}, "feature": {"sight_features": "", "sight_content": ""}}, {"title": "莲水巷社区休闲活动广场", "address": "农贸路与橡西巷交叉口北50米", "image": "", "rank": 46, "time": 2, "location": {"lat": 28.54612772743461, "lng": 115.94714320213066}, "feature": {"sight_features": "", "sight_content": ""}}, {"title": "海盗传奇少儿探险拓展主题乐园(...", "address": "澄湖东路1111号玺悦城湖景美食广场一楼中庭", "image": "", "rank": 47, "time": 2, "location": {"lat": 28.557591377446787, "lng": 115.94583638320739}, "feature": {"sight_features": "", "sight_content": ""}}, {"title": "森林探险儿童主题乐园", "address": "金沙三路与金澳支路交叉口北150米", "image": "", "rank": 48, "time": null, "location": {"lat": 28.544372780201176, "lng": 115.87383154626478}, "feature": {"sight_features": "", "sight_content": ""}}, {"title": "爱宝贝海洋主题乐园", "address": "澄湖东路1111号沃尔玛", "image": "", "rank": 49, "time": 2, "location": {"lat": 31.24692646156976, "lng": 120.66365836670894}, "feature": {"sight_features": "", "sight_content": ""}}, {"title": "富山影剧院", "address": "富山街附近", "image": "", "rank": 50, "time": 2, "location": {"lat": 41.29353207338861, "lng": 123.78667747895535}, "feature": {"sight_features": "", "sight_content": ""}}, {"title": "东万兴隆奄", "address": "西幽段附近", "image": "", "rank": 51, "time": 2, "location": {"lat": 28.598143244010117, "lng": 116.16170003709944}, "feature": {"sight_features": "", "sight_content": ""}}, {"title": "休闲购物广场北路", "address": "维也纳广场3栋", "image": "", "rank": 52, "time": 2, "location": {"lat": 33.40440909922992, "lng": 120.18687166004561}, "feature": {"sight_features": "", "sight_content": ""}}, {"title": "休闲购物广场西二路", "address": "江西省南昌市南昌县", "image": "", "rank": 53, "time": 2, "location": {"lat": 28.551604186108275, "lng": 115.95046017276752}, "feature": {"sight_features": "", "sight_content": ""}}, {"title": "文昌讲寺", "address": "江西省南昌市南昌县幽兰镇文昌寺", "image": "", "rank": 54, "time": 7.5, "location": {"lat": 28.582453860559262, "lng": 116.1462227326255}, "feature": {"sight_features": "", "sight_content": ""}}, {"title": "蓝海大剧场", "address": "高新开发区(紫阳大道江西科技学院)", "image": "", "rank": 55, "time": 2, "location": {"lat": 28.679550140966157, "lng": 116.01161548147614}, "feature": {"sight_features": "", "sight_content": ""}}, {"title": "省奥林匹克体育中心", "address": "高新开发区紫阳大道666号江西省奥林匹克体育中心", "image": "", "rank": 56, "time": 2, "location": {"lat": 28.679975591359625, "lng": 116.03540636718786}, "feature": {"sight_features": "", "sight_content": ""}}, {"title": "江西斗马音乐美食文化节", "address": "南昌市南昌县东莲路与桃花东路交叉口昌南体育中心", "image": "", "rank": 57, "time": 2, "location": {"lat": 28.585988077594862, "lng": 115.87672878365225}, "feature": {"sight_features": "", "sight_content": "江西斗马音乐美食文化节结合昌南体育中心的独特地理条件以及人文历史，打造集观光，娱乐，休闲，演出， 美食多元化元素综合一体的大型斗马旅游文化节，为游客带来别样风情的演出、丰富多元的游乐体验，这个夏天激情狂欢尽在江西斗马音乐美食文化节。"}}, {"title": "沙潭农家乐", "address": "316国道", "image": "", "rank": 58, "time": 2, "location": {"lat": 26.297698208697987, "lng": 118.8318521786658}, "feature": {"sight_features": "", "sight_content": ""}}, {"title": "儿童游乐场", "address": "芳华路", "image": "", "rank": 59, "time": 2, "location": {"lat": 39.95678726438856, "lng": 116.35105864011172}, "feature": {"sight_features": "", "sight_content": ""}}, {"title": "农业机械展示馆", "address": "凤凰沟风景区附近", "image": "", "rank": 60, "time": 2, "location": {"lat": 28.37454570331339, "lng": 116.01423657436011}, "feature": {"sight_features": "", "sight_content": ""}}]}