{"cityName": "南丰", "days": null, "cityImage": "", "spots": [{"title": "中国桔都沁温泉度假山庄", "address": "抚州市南丰县傅坊乡石咀村近906县道", "image": "", "rank": 1, "time": 2, "location": {"lat": 26.944332956549196, "lng": 116.58129045592194}, "feature": {"sight_features": "特色1 青山环抱，绿树成荫，环境优美，交通便利", "sight_content": "桔都沁温泉度假山庄，整个景区占地面积507.25亩，是由江西恒隆投资有限公司出资6.4亿元精心打造的高品质温 泉养生休闲度假型综合景区，由中国沁温泉酒店集团经营管理，坐落在被誉为华夏桔都、傩舞之乡的江西省抚州市南丰县境内，毗邻福建省建宁县，青山环抱，绿树成荫，环境优美，交通便 利，距离南丰县城30公里，昌福铁路（向莆铁路）穿境而过，京福、鹰瑞高速公路和206国道联通四方，可从南丰高速出口直接抵达酒店。\n桔都沁温泉具备良好的自然温泉资源，水量丰富，自然涌出水量400T/天，泵抽流量1200T/天，水温常年恒定在68 ℃-70℃，为高热泉，PH值7-8，属于重碳酸氢钙钠泉，含有硫化氢、锂、氟、铁、锶、可溶性二氧化硅、硅酸及二氧化碳等二十多种人体所需的微量矿物元素，具有较高的医疗价值，对关节 炎、风湿病、皮肤病等具有显著的康复与辅助疗效，常泡浴温泉还能够起到消除疲劳、祛病强身、美容养颜、抵抗衰老等保健作用。"}}, {"title": "罗里石蜜桔生态园", "address": "白舍镇(近昌厦公路)", "image": "", "rank": 2, "time": 2, "location": {"lat": 27.232107292701784, "lng": 116.52850243095104}, "feature": {"sight_features": "", "sight_content": ""}}, {"title": "桔都水上乐园", "address": "交通南路(醒侬公园旁)", "image": "", "rank": 3, "time": 2, "location": {"lat": 27.215608713564603, "lng": 116.53288597858396}, "feature": {"sight_features": "", "sight_content": ""}}, {"title": "黄井公故里", "address": "209省道", "image": "", "rank": 4, "time": 2, "location": {"lat": 39.99809006691208, "lng": 116.08348027993928}, "feature": {"sight_features": "", "sight_content": ""}}, {"title": "梦乐园娱乐城", "address": "206国道", "image": "", "rank": 5, "time": 2, "location": {"lat": 24.027693425509675, "lng": 115.9917729736661}, "feature": {"sight_features": "", "sight_content": ""}}, {"title": "汇香坊香薰图书馆", "address": "子固北路奇乐园旁", "image": "", "rank": 6, "time": 2, "location": {"lat": 27.228618330530633, "lng": 116.53394903961227}, "feature": {"sight_features": "", "sight_content": ""}}, {"title": "潭湖风景区", "address": "太源乡", "image": "", "rank": 7, "time": 2, "location": {"lat": 27.162572992887952, "lng": 116.68095689886489}, "feature": {"sight_features": "", "sight_content": ""}}, {"title": "里陈农场", "address": "济广高速公路", "image": "", "rank": 8, "time": 2, "location": {"lat": 27.464865747584554, "lng": 116.64660006559573}, "feature": {"sight_features": "", "sight_content": ""}}, {"title": "南丰县中小企业创业孵化基地", "address": "206国道附近", "image": "", "rank": 9, "time": 2, "location": {"lat": 24.027693425509675, "lng": 115.9917729736661}, "feature": {"sight_features": "", "sight_content": ""}}, {"title": "观必上乐园", "address": "市山镇包坊村", "image": "", "rank": 10, "time": 2, "location": {"lat": 27.2390494975804, "lng": 116.5015116723189}, "feature": {"sight_features": "", "sight_content": ""}}, {"title": "王者之星(南丰店)", "address": "建设路太平洋购物中心对面", "image": "", "rank": 11, "time": 2, "location": {"lat": 29.72199086166645, "lng": 106.64024768899307}, "feature": {"sight_features": "", "sight_content": ""}}, {"title": "曾巩读书岩", "address": "江西省南丰县琴城南门 344500", "image": "", "rank": 12, "time": 2, "location": {"lat": 27.224733524876402, "lng": 116.53140350859456}, "feature": {"sight_features": "", "sight_content": ""}}, {"title": "未来儿童乐园", "address": "大桥路95号附近", "image": "", "rank": 13, "time": 2, "location": {"lat": 37.89131501100192, "lng": 114.66151917184042}, "feature": {"sight_features": "", "sight_content": ""}}, {"title": "崇真古寺", "address": "胜利路西100米", "image": "", "rank": 14, "time": 2, "location": {"lat": 46.795651166648476, "lng": 130.36327892444106}, "feature": {"sight_features": "", "sight_content": ""}}, {"title": "开心岛儿童水上俱乐部", "address": "江西省抚州市南丰县学府路39号", "image": "", "rank": 15, "time": 2, "location": {"lat": 27.221357504780872, "lng": 116.53648470337629}, "feature": {"sight_features": "", "sight_content": ""}}, {"title": "儿童烘培主题乐园", "address": "江西省抚州市南丰县子固南路", "image": "", "rank": 16, "time": 2, "location": {"lat": 27.22313436978845, "lng": 116.52503030139333}, "feature": {"sight_features": "", "sight_content": ""}}, {"title": "大雄宝殿", "address": "抚州市南丰县军峰山内", "image": "", "rank": 17, "time": 2, "location": {"lat": 27.22216432086312, "lng": 116.37030761116924}, "feature": {"sight_features": "", "sight_content": ""}}, {"title": "米其尔儿童乐园", "address": "南丰县国安商业街十二生肖广场2楼", "image": "", "rank": 18, "time": 2, "location": {"lat": 27.231186201000227, "lng": 116.5367758246952}, "feature": {"sight_features": "", "sight_content": ""}}, {"title": "南丰县天主教教堂", "address": "江西省抚州市南丰县建设路", "image": "", "rank": 19, "time": 2, "location": {"lat": 27.213291334769536, "lng": 116.54074102426583}, "feature": {"sight_features": "", "sight_content": ""}}, {"title": "迎宾公园", "address": "江西省抚州市南丰县环城南路", "image": "", "rank": 20, "time": 0.75, "location": {"lat": 27.202837333399717, "lng": 116.53061587432367}, "feature": {"sight_features": "", "sight_content": ""}}, {"title": "儿童水上主题俱乐部", "address": "抚州市南丰县", "image": "", "rank": 21, "time": 2, "location": {"lat": 27.224733524876402, "lng": 116.53140350859456}, "feature": {"sight_features": "", "sight_content": ""}}, {"title": "南丰县琴城镇富溪村民兵连", "address": "南军段与206国道交叉口南150米", "image": "", "rank": 22, "time": 2, "location": {"lat": 24.027693425509675, "lng": 115.9917729736661}, "feature": {"sight_features": "", "sight_content": ""}}, {"title": "紫霄观漂流风景区", "address": "紫霄镇", "image": "", "rank": 23, "time": 2, "location": {"lat": 27.020556595702725, "lng": 116.29375804543272}, "feature": {"sight_features": "", "sight_content": ""}}, {"title": "曾巩纪念馆", "address": "环城南路", "image": "", "rank": 24, "time": 2, "location": {"lat": 32.343803277365524, "lng": 118.8527646843988}, "feature": {"sight_features": "", "sight_content": ""}}, {"title": "石邮傩文化古村", "address": "三溪乡石邮村", "image": "", "rank": 25, "time": 2, "location": {"lat": 27.146055066289666, "lng": 116.46558837569859}, "feature": {"sight_features": "", "sight_content": ""}}, {"title": "彩虹画廊", "address": "仓山路101附近", "image": "", "rank": 26, "time": 2, "location": {"lat": 41.834928527112965, "lng": 123.37767242263217}, "feature": {"sight_features": "", "sight_content": ""}}, {"title": "红色景区康都会议旧址", "address": "太和镇康都村境内", "image": "", "rank": 27, "time": 2, "location": {"lat": 27.01285519216861, "lng": 116.66526182177945}, "feature": {"sight_features": "", "sight_content": ""}}, {"title": "游乐梦工厂(南丰店)", "address": "桔都广场(未来城对面)", "image": "", "rank": 28, "time": 2, "location": {"lat": 38.877206616734505, "lng": 115.55420313264882}, "feature": {"sight_features": "", "sight_content": ""}}, {"title": "南丰县封令军机动喷雾机行(富士...", "address": "交通路114号附近", "image": "", "rank": 29, "time": 2, "location": {"lat": 46.242002301628034, "lng": 130.57998287673576}, "feature": {"sight_features": "", "sight_content": ""}}, {"title": "橘都广场游乐场", "address": "橘都广场东区，未来城对面", "image": "", "rank": 31, "time": 2, "location": {"lat": 22.287683983802005, "lng": 114.23542625301135}, "feature": {"sight_features": "", "sight_content": ""}}, {"title": "康都西路商业步行街", "address": "江西省南丰县康都西路与桔都大道交叉口", "image": "", "rank": 32, "time": 2, "location": {"lat": 27.220810337933703, "lng": 116.5336856537419}, "feature": {"sight_features": "", "sight_content": ""}}]}