{"cityName": "南华", "days": 2, "cityImage": "", "spots": [{"title": "南华德茂温泉庄园", "address": "楚雄彝族自治州南华县曹家冲（民族中学背后）", "image": "", "rank": 1, "time": 2, "location": {"lat": 25.19858707115555, "lng": 101.28042055018456}, "feature": {"sight_features": "", "sight_content": "南华德茂庄园是一家集温水游泳、水上冲关、儿童戏水、森林温水池、休闲娱乐、餐饮美食、垂钓、划船、生态景观等为一体的大型生态观光游乐园。"}}, {"title": "元谋金沙江渡口", "address": "云南省元谋县龙街村 651312", "image": "", "rank": 2, "time": 7.5, "location": {"lat": 25.962164875359214, "lng": 101.89006200272259}, "feature": {"sight_features": "", "sight_content": ""}}, {"title": "诸葛营汉晋古城遗址", "address": "云南省施甸县诸葛营村东部 678200", "image": "", "rank": 3, "time": 2, "location": {"lat": 24.728835000146223, "lng": 99.19546936222197}, "feature": {"sight_features": "", "sight_content": ""}}, {"title": "南华县科普园", "address": "云南省楚雄彝族自治州南华县龙川镇科普园", "image": "", "rank": 4, "time": 2, "location": {"lat": 25.170251331104822, "lng": 101.26337412517175}, "feature": {"sight_features": "", "sight_content": ""}}, {"title": "烤食代酒吧文化烧烤", "address": "南华大酒店旁步行街", "image": "", "rank": 5, "time": null, "location": {"lat": 31.020729278037713, "lng": 119.04208495023796}, "feature": {"sight_features": "", "sight_content": ""}}, {"title": "宝珠寺", "address": "楚雄彝族自治州南华县", "image": "", "rank": 6, "time": 1.0, "location": {"lat": 25.19858707115555, "lng": 101.28042055018456}, "feature": {"sight_features": "", "sight_content": ""}}, {"title": "龙泉广场", "address": "320国道西50米", "image": "", "rank": 7, "time": 0.75, "location": {"lat": 27.256565251327487, "lng": 111.28113249254281}, "feature": {"sight_features": "", "sight_content": ""}}, {"title": "星亿山庄", "address": "320国道附近", "image": "", "rank": 8, "time": 2, "location": {"lat": 27.256565251327487, "lng": 111.28158164529765}, "feature": {"sight_features": "", "sight_content": ""}}, {"title": "林澜山庄", "address": "Z064附近", "image": "", "rank": 9, "time": 2, "location": {"lat": 23.100931760317003, "lng": 113.27528273950196}, "feature": {"sight_features": "", "sight_content": ""}}, {"title": "南華影图书馆", "address": "龙泉路与320国道交叉口东南150米", "image": "", "rank": 10, "time": 2, "location": {"lat": 25.47870491747508, "lng": 103.80806322938894}, "feature": {"sight_features": "", "sight_content": ""}}, {"title": "大蛇腰山", "address": "楚雄彝族自治州-南华县", "image": "", "rank": 11, "time": 2, "location": {"lat": 25.19858707115555, "lng": 101.28042055018456}, "feature": {"sight_features": "", "sight_content": ""}}]}