{"cityName": "南和", "days": 2, "cityImage": "", "spots": [{"title": "航宇公园", "address": "邢台市南和县中兴路与和阳大街交叉口东60米", "image": "", "rank": 1, "time": 1.0, "location": {"lat": 37.01068654083238, "lng": 114.70050264859918}, "feature": {"sight_features": "", "sight_content": ""}}, {"title": "白雀庵", "address": "河北省邢台市南和县贾宋镇白佛村白雀庵", "image": "", "rank": 2, "time": 2, "location": {"lat": 37.07631684079439, "lng": 114.76515940039228}, "feature": {"sight_features": "", "sight_content": ""}}, {"title": "南和农业嘉年华", "address": "邢台市南和县325省道与中兴东大街交汇处", "image": "", "rank": 3, "time": 3.5, "location": {"lat": 37.06823532063225, "lng": 114.54384508910299}, "feature": {"sight_features": "特色1 具有河北地方特色的农艺景观。", "sight_content": "南和农业嘉年华是以农业活动为元素，融入先进的农业科技、文化创新理念，通过观赏、娱乐、体验、创意、狂欢等打造的一种都市农业、休闲农业、时尚农业。综合服务区、创意风情馆、高效农业示范区、农业迪士尼主题乐园、精致乐活体验区等通过不同的地域文化元素打造的功能分区共同构成了嘉年华的五大乐游篇章。\n南和农业嘉年华项目规划总投资3亿元，由南和县政府与中国农大合作建设，位于贾宋镇，规划面积446亩，其中温室总建筑面积47000。项目核心区——创意风情馆建设连栋温室41280，设有疏朗星空、畿南粮仓、本草华堂、童话果园、花样年华、同舟共冀6个主题活动场馆，以蔬菜、瓜果、花卉、粮食、功能性植物、水科技为主要元素，充分展现具有河北地方特色的农艺景观。南和农业嘉年华是中国农大设计的国内第四个农业嘉年华综合体，也是河北省首个具有较大影响力的嘉年华品牌，将成为华北现代农业新地标和推动当地农业转型升级的有力抓手。"}}, {"title": "南和欢乐水世界", "address": "邢台市南和县一中北（人民公园西临，水务公司对面）", "image": "", "rank": 4, "time": 2, "location": {"lat": 37.010997970560375, "lng": 114.6905477239546}, "feature": {"sight_features": "", "sight_content": ""}}, {"title": "东圣葡萄庄园", "address": "325省道史召派出所西侧", "image": "", "rank": 5, "time": 2, "location": {"lat": 37.078403814059016, "lng": 114.86843215731255}, "feature": {"sight_features": "", "sight_content": ""}}, {"title": "兴和园", "address": "南和县城南环路以北，兴和路西，振兴路以东", "image": "", "rank": 6, "time": 2, "location": {"lat": 37.00837393201148, "lng": 114.71264192795573}, "feature": {"sight_features": "", "sight_content": ""}}, {"title": "儿童乐园", "address": "河北省邢台市南和县建设大街283", "image": "", "rank": 7, "time": 2, "location": {"lat": 37.013932610242584, "lng": 114.68849660681417}, "feature": {"sight_features": "", "sight_content": ""}}, {"title": "南和抗日战争纪念碑", "address": "河北省邢台市南和县河郭乡育才街南和抗日战争纪念碑", "image": "", "rank": 8, "time": 2, "location": {"lat": 37.01799463202344, "lng": 114.64381888551246}, "feature": {"sight_features": "", "sight_content": ""}}, {"title": "白氏祠堂", "address": "邢台市南和县", "image": "", "rank": 9, "time": 2, "location": {"lat": 37.010997970560375, "lng": 114.6905477239546}, "feature": {"sight_features": "", "sight_content": ""}}, {"title": "小精灵儿童乐园", "address": "河北省邢台市南和县郝桥镇第二中学附近", "image": "", "rank": 10, "time": 2, "location": {"lat": 37.07782658728749, "lng": 114.82820759333919}, "feature": {"sight_features": "", "sight_content": ""}}, {"title": "和阳广场", "address": "河北省邢台市南和县和阳镇宋璟大街和阳广场", "image": "", "rank": 11, "time": 2, "location": {"lat": 37.015464695692216, "lng": 114.68483384065658}, "feature": {"sight_features": "", "sight_content": ""}}]}