{"cityName": "南江", "days": 2, "cityImage": "", "spots": [{"title": "光雾山", "address": "巴中市南江县光雾山镇", "image": "", "rank": 1, "time": 2.5, "location": {"lat": 32.67207095732583, "lng": 106.81234532872317}, "feature": {"sight_features": "特色1 原始的大自然景观，红叶季的游客众多。", "sight_content": "光雾山旅游景区：位于华夏版图腹心、米仓山腹地，地处中国南北气候分界线，冷暖气候交汇处，被称为“南方的北方、北方的南方”。2014年批准为国家级风景名胜区，2018年4月批准为世界地质公园。目前，联合国教科文组织世界遗产委员会已将南江光雾山列入世界文化与自然遗产预备名录。景区以奇特的岩溶岭脊峰丛地貌，古朴的原生态植被、迷人的峡谷风光为景观特色，有“山奇、峰险、石怪、谷幽、水秀”五绝，是国内资源禀赋极高的自然山水景区，极具科考价值，是进行中国岩溶对比、研究的不可多得的经典样本；更是一座文史宝库,历史文化底蕴深厚，民俗文化异彩纷呈，红军文化悲壮感人，生态文化博大深邃，著名诗人高平赞曰：“九寨看水，光雾看山，山水不全看，不算到四川”。"}}, {"title": "米仓山国家森林公园", "address": "巴中市南江县", "image": "", "rank": 2, "time": 3.5, "location": {"lat": 32.35253165416549, "lng": 106.83448345088068}, "feature": {"sight_features": "特色1 原始丰茂的生物植被景观", "sight_content": "米仓山国家森林公园，园内山奇水秀，环境优美，风光迷人。地层古老，地貌奇特，地域广阔，森林浩翰，红叶奇绝，山体灵秀，天象多彩，自然景观富集，人文底蕴深厚。春赏山花，夏看山水，秋观红叶，冬咏雾凇。由牟阳城、十八月潭、万字山三个景区，88个景点组成，其中自然景观74个、人文景观14个。米仓山红叶甲天下，十八月潭瀑布赛九寨。公园包融黄山之美、武陵之怪、峨眉之秀、青城之幽、剑门之雄，令人心旷神怡，流连忘返。森林公园的自然生态环境独特奇异，古朴原始的风韵犹存。公园内及周边地区分布着茂密的森林，其中80%以上是天然林，林海茫茫，浩瀚壮丽。森林的季相丰富，观赏价值很高。春天烂漫艳丽，观花树种有杜鹃、玉兰、丁香、栀子、迎春、厚朴、木槿、蔷薇、茶花、忍冬、猕猴桃、连香树、野桂花、野樱桃等。其中最艳丽的要数杜鹃花了，满山遍野，姹紫千红。秋天是公园最美的季节，观叶树种有枫类、槭类、水青冈、椴树、桦木、杨树等，仅水青冈的分布面积就约4000公顷，落叶阔叶林面积约30000公顷，其面积之大，色彩之丰富，位于国内同类景观的前茅。"}}, {"title": "光雾山小巫峡景区", "address": "巴中市南江县赶场镇西坝村", "image": "", "rank": 3, "time": 3.0, "location": {"lat": 32.42673485379754, "lng": 106.9412071867566}, "feature": {"sight_features": "", "sight_content": ""}}, {"title": "十八月潭景区", "address": "巴中市南江县米仓山国家森林公园西南部", "image": "", "rank": 4, "time": 2.5, "location": {"lat": 32.72038107703731, "lng": 106.87257005492675}, "feature": {"sight_features": "", "sight_content": ""}}, {"title": "光雾山景区（桃园景区）", "address": "巴中市南江县光雾山景区", "image": "", "rank": 5, "time": 2.5, "location": {"lat": 32.584882191913614, "lng": 106.74442790758995}, "feature": {"sight_features": "", "sight_content": ""}}, {"title": "巴山游击队纪念馆", "address": "巴中市南江县", "image": "", "rank": 6, "time": 1.0, "location": {"lat": 32.35253165416549, "lng": 106.83448345088068}, "feature": {"sight_features": "", "sight_content": ""}}, {"title": "牟阳故城", "address": "巴中市南江县090乡道", "image": "", "rank": 7, "time": null, "location": {"lat": 32.35253165416549, "lng": 106.83448345088068}, "feature": {"sight_features": "", "sight_content": ""}}, {"title": "大坝森林公园", "address": "巴中市南江县北端", "image": "", "rank": 8, "time": 2.5, "location": {"lat": 32.35253165416549, "lng": 106.83448345088068}, "feature": {"sight_features": "", "sight_content": ""}}, {"title": "断渠公园", "address": "巴中市南江县米仓山大道断渠段", "image": "", "rank": 9, "time": 1.5, "location": {"lat": 32.36963117768922, "lng": 106.85865067899874}, "feature": {"sight_features": "", "sight_content": ""}}, {"title": "铁炉坝村", "address": "巴中市南江县铁炉坝村", "image": "", "rank": 10, "time": 1.5, "location": {"lat": 32.719038870179794, "lng": 106.86392487588523}, "feature": {"sight_features": "", "sight_content": ""}}, {"title": "感灵寺", "address": "巴中市南江县光雾山桃园景区", "image": "", "rank": 11, "time": 0.5, "location": {"lat": 32.68586003416474, "lng": 106.81156916401677}, "feature": {"sight_features": "", "sight_content": ""}}, {"title": "光雾山温泉旅游酒店温泉", "address": "巴中市南江县双元村马跃溪桥（巴陕高速路北出口处）", "image": "", "rank": 12, "time": 2, "location": {"lat": 32.39950284702252, "lng": 106.8790315772397}, "feature": {"sight_features": "", "sight_content": "光雾山温泉旅游酒店坐落在巴中南江县马跃溪境内，地处光雾山景区国家级风景名胜区、米仓山国家级自然保护区和小巫峡景区的重要节点，以秦巴文化为载体，融入光雾山旅游文化思想，功能定位以温泉为主体，融入SPA、KTV、宴会、餐饮、棋牌、会议、客房等功能，形成一个休息旅游胜地。"}}, {"title": "光雾山镇", "address": "四川省巴中市南江县", "image": "", "rank": 13, "time": 2, "location": {"lat": 32.35253165416549, "lng": 106.83448345088068}, "feature": {"sight_features": "", "sight_content": ""}}, {"title": "双拥公园", "address": "光雾山大道城庙段681", "image": "", "rank": 14, "time": 2, "location": {"lat": 32.367225465515645, "lng": 106.86261029470361}, "feature": {"sight_features": "", "sight_content": ""}}, {"title": "大兰沟", "address": "四川省巴中市南江县", "image": "", "rank": 15, "time": 2, "location": {"lat": 32.35253165416549, "lng": 106.83448345088068}, "feature": {"sight_features": "", "sight_content": ""}}, {"title": "通天洞", "address": "巴中市南江县小巫峡景区内", "image": "", "rank": 16, "time": 0.75, "location": {"lat": 32.460023547234435, "lng": 106.94030563656712}, "feature": {"sight_features": "", "sight_content": ""}}, {"title": "穿花洞", "address": "巴中市南江县小巫峡景区内", "image": "", "rank": 17, "time": 0.75, "location": {"lat": 32.460023547234435, "lng": 106.94030563656712}, "feature": {"sight_features": "", "sight_content": ""}}, {"title": "燕子岩", "address": "巴中市南江县光雾山桃园景区内", "image": "", "rank": 18, "time": 4.0, "location": {"lat": 32.68586003416474, "lng": 106.81156916401677}, "feature": {"sight_features": "", "sight_content": ""}}, {"title": "红树农家乐", "address": "光雾山月琴路加油站河对面", "image": "", "rank": 19, "time": 2, "location": {"lat": 32.584882191913614, "lng": 106.74442790758995}, "feature": {"sight_features": "", "sight_content": ""}}, {"title": "赵家桥休闲度假村", "address": "X125桥梁村西北侧", "image": "", "rank": 20, "time": 2, "location": {"lat": 41.17764194691222, "lng": 107.46730438554177}, "feature": {"sight_features": "", "sight_content": ""}}, {"title": "林海山庄", "address": "光雾山镇茶园路42号", "image": "", "rank": 21, "time": 2, "location": {"lat": 32.673476414828976, "lng": 106.81451894030012}, "feature": {"sight_features": "", "sight_content": ""}}, {"title": "琉璃寺", "address": "南江镇琉璃路", "image": "", "rank": 22, "time": 2, "location": {"lat": 32.36999171152378, "lng": 106.85720737423077}, "feature": {"sight_features": "", "sight_content": ""}}, {"title": "宏鑫茶楼", "address": "大堂坝好邻居超市楼下", "image": "", "rank": 23, "time": 2, "location": {"lat": 31.856897300956664, "lng": 106.78221064003453}, "feature": {"sight_features": "", "sight_content": ""}}, {"title": "官家祠堂", "address": "巴中市南江县凉水--寺岭", "image": "", "rank": 24, "time": 2, "location": {"lat": 32.35253165416549, "lng": 106.83448345088068}, "feature": {"sight_features": "", "sight_content": ""}}, {"title": "CY儿童乐园", "address": "四川省巴中市南江县大店子街", "image": "", "rank": 25, "time": 2, "location": {"lat": 31.979252039558393, "lng": 106.6045354759282}, "feature": {"sight_features": "", "sight_content": ""}}, {"title": "温家祠堂", "address": "巴中市南江县恩阳--野羊溪", "image": "", "rank": 26, "time": 2, "location": {"lat": 32.18096400931296, "lng": 106.74629024942068}, "feature": {"sight_features": "", "sight_content": ""}}, {"title": "孙家祠堂", "address": "巴中市南江县正直--回风", "image": "", "rank": 27, "time": 2, "location": {"lat": 32.35253165416549, "lng": 106.83448345088068}, "feature": {"sight_features": "", "sight_content": ""}}, {"title": "郭家祠堂", "address": "巴中市南江县", "image": "", "rank": 28, "time": 2, "location": {"lat": 32.35253165416549, "lng": 106.83448345088068}, "feature": {"sight_features": "", "sight_content": ""}}, {"title": "梁家祠堂", "address": "巴中市南江县南江沙河--通江涪阳", "image": "", "rank": 29, "time": 2, "location": {"lat": 32.35253165416549, "lng": 106.83448345088068}, "feature": {"sight_features": "", "sight_content": ""}}, {"title": "花祠堂", "address": "巴中市南江县双庙子--金盆", "image": "", "rank": 30, "time": 2, "location": {"lat": 32.560063498572035, "lng": 106.83966462374009}, "feature": {"sight_features": "", "sight_content": ""}}, {"title": "南江县云溪谷水上乐园", "address": "四川省巴中市南江县一环路", "image": "", "rank": 31, "time": 2, "location": {"lat": 32.35253165416549, "lng": 106.83448345088068}, "feature": {"sight_features": "", "sight_content": ""}}, {"title": "观音殿", "address": "Y31县道琉璃寺附近", "image": "", "rank": 32, "time": null, "location": {"lat": 34.84561651867165, "lng": 113.65992736298664}, "feature": {"sight_features": "", "sight_content": ""}}, {"title": "小兰沟", "address": "四川省巴中市南江县", "image": "", "rank": 33, "time": 2, "location": {"lat": 32.35253165416549, "lng": 106.83448345088068}, "feature": {"sight_features": "", "sight_content": ""}}, {"title": "南江县博物馆", "address": "南江镇西门沟65号", "image": "", "rank": 34, "time": 2, "location": {"lat": 41.83255170913408, "lng": 117.94386624984715}, "feature": {"sight_features": "", "sight_content": ""}}, {"title": "断渠公园游乐场", "address": "南江镇第六小学后面", "image": "", "rank": 35, "time": null, "location": {"lat": 39.74727259978786, "lng": 116.3478310329059}, "feature": {"sight_features": "", "sight_content": ""}}, {"title": "龙潭峡漂流风景区", "address": "正直镇望龙村龙潭河(正直下高速1公里)", "image": "", "rank": 36, "time": 2, "location": {"lat": 32.00664813160294, "lng": 106.58953916554123}, "feature": {"sight_features": "", "sight_content": ""}}, {"title": "静乐斋画廊", "address": "南江镇仿古街9号楼24号门市", "image": "", "rank": 37, "time": 2, "location": {"lat": 32.3629946501757, "lng": 106.85328049367698}, "feature": {"sight_features": "", "sight_content": ""}}, {"title": "南江县图书馆", "address": "集州步行街68", "image": "", "rank": 38, "time": 2, "location": {"lat": 32.35272290513397, "lng": 106.83197081491161}, "feature": {"sight_features": "", "sight_content": ""}}, {"title": "鳄鱼", "address": "光雾山大道红星段168", "image": "", "rank": 39, "time": 2, "location": {"lat": 32.358216384983656, "lng": 106.84722996769419}, "feature": {"sight_features": "", "sight_content": ""}}, {"title": "佳和画廊", "address": "阳光街与101省道交叉口东南50米", "image": "", "rank": 40, "time": 2, "location": {"lat": 31.035221706207057, "lng": 104.68408828040262}, "feature": {"sight_features": "", "sight_content": ""}}, {"title": "南江县寨坡乡梅影山庄", "address": "水田坪村一社", "image": "", "rank": 41, "time": 2, "location": {"lat": 32.430150848792564, "lng": 109.97437639940284}, "feature": {"sight_features": "", "sight_content": ""}}, {"title": "蜀门客栈", "address": "101省道", "image": "", "rank": 42, "time": 2, "location": {"lat": 41.03241923348195, "lng": 111.82384508727836}, "feature": {"sight_features": "", "sight_content": ""}}, {"title": "南江升钟风景区", "address": "四川省南江县县西北部", "image": "", "rank": 43, "time": 1.0, "location": {"lat": 32.35253165416549, "lng": 106.83448345088068}, "feature": {"sight_features": "", "sight_content": ""}}, {"title": "集州步行街", "address": "四川省南江县光雾山广场西街", "image": "", "rank": 44, "time": 2, "location": {"lat": 32.35098421690806, "lng": 106.83434434467925}, "feature": {"sight_features": "", "sight_content": ""}}, {"title": "玉石梁", "address": "巴中市-南江县", "image": "", "rank": 45, "time": 2, "location": {"lat": 32.35253165416549, "lng": 106.83448345088068}, "feature": {"sight_features": "", "sight_content": ""}}, {"title": "小竹岭", "address": "巴中市-南江县", "image": "", "rank": 46, "time": 2, "location": {"lat": 32.35253165416549, "lng": 106.83448345088068}, "feature": {"sight_features": "", "sight_content": ""}}, {"title": "小竹岭", "address": "巴中市-南江县-二零二省道", "image": "", "rank": 47, "time": 2, "location": {"lat": 32.35253165416549, "lng": 106.83448345088068}, "feature": {"sight_features": "", "sight_content": ""}}, {"title": "小竹岭", "address": "巴中市-南江县-赶场--旭光", "image": "", "rank": 48, "time": 2, "location": {"lat": 32.445685413002536, "lng": 106.9693258452197}, "feature": {"sight_features": "", "sight_content": ""}}, {"title": "朱池垭", "address": "巴中市-南江县-光雾山风景区", "image": "", "rank": 49, "time": 2, "location": {"lat": 32.627215657312185, "lng": 106.83605458721765}, "feature": {"sight_features": "", "sight_content": ""}}, {"title": "红四门", "address": "四川省南江县南江镇 636600", "image": "", "rank": 50, "time": 2, "location": {"lat": 32.37497928558613, "lng": 106.8512170239375}, "feature": {"sight_features": "", "sight_content": ""}}]}