{"cityName": "南涧", "days": 2, "cityImage": "", "spots": [{"title": "无量山樱花谷", "address": "大理州南涧县无量镇德安村", "image": "", "rank": 1, "time": 2, "location": {"lat": 24.779016999052384, "lng": 100.54535374960332}, "feature": {"sight_features": "", "sight_content": ""}}, {"title": "无量山镇", "address": "大理白族自治州南涧彝族自治县无量山镇", "image": "", "rank": 2, "time": 3.0, "location": {"lat": 24.808815519736754, "lng": 100.56757564143722}, "feature": {"sight_features": "", "sight_content": ""}}, {"title": "南涧土林", "address": "大理白族自治州南涧彝族自治县", "image": "", "rank": 3, "time": 2, "location": {"lat": 25.049426762093695, "lng": 100.51554862226698}, "feature": {"sight_features": "", "sight_content": ""}}, {"title": "玉皇阁", "address": "大理白族自治州南涧县南涧镇安定村东南方向", "image": "", "rank": 4, "time": 1.0, "location": {"lat": 25.04560697617788, "lng": 100.5340230619892}, "feature": {"sight_features": "", "sight_content": ""}}, {"title": "伊兰山庄", "address": "祥临公路", "image": "", "rank": 5, "time": 2, "location": {"lat": 23.85980625001216, "lng": 100.09746104790115}, "feature": {"sight_features": "", "sight_content": ""}}, {"title": "石洞寺", "address": "大理白族自治州南涧彝族自治县二一四国道", "image": "", "rank": 6, "time": 1.0, "location": {"lat": 24.807668373065685, "lng": 100.54878664476959}, "feature": {"sight_features": "", "sight_content": ""}}, {"title": "樱花广场", "address": "大理白族自治州南涧彝族自治县", "image": "", "rank": 7, "time": 1.0, "location": {"lat": 25.049426762093695, "lng": 100.51554862226698}, "feature": {"sight_features": "", "sight_content": ""}}, {"title": "偃月公园", "address": "云南省大理白族自治州南涧彝族自治县振兴南路20", "image": "", "rank": 8, "time": 2, "location": {"lat": 25.05371980150123, "lng": 100.5261794373636}, "feature": {"sight_features": "", "sight_content": ""}}, {"title": "三代麻油厂", "address": "公民路74号", "image": "", "rank": 9, "time": 2, "location": {"lat": 25.096772009618842, "lng": 117.02978102485609}, "feature": {"sight_features": "", "sight_content": ""}}, {"title": "韩舍农家乐", "address": "214国道东50米", "image": "", "rank": 10, "time": 2, "location": {"lat": 28.319159428535947, "lng": 99.13068489835592}, "feature": {"sight_features": "", "sight_content": ""}}]}