{"cityName": "南木林", "days": 2, "cityImage": "", "spots": [{"title": "热拉雍仲林寺", "address": "日喀则市南木林县奴马乡玉拉杰山麓", "image": "", "rank": 1, "time": 1.0, "location": {"lat": 29.357958006862813, "lng": 89.65660322975954}, "feature": {"sight_features": "", "sight_content": ""}}, {"title": "格登曲廓林寺", "address": "日喀则市南木林县境内（距县城约1公里）", "image": "", "rank": 2, "time": 1.0, "location": {"lat": 29.68793803655162, "lng": 89.1057042130769}, "feature": {"sight_features": "", "sight_content": ""}}, {"title": "色吾沟", "address": "日喀则市南木林县拉布普乡以北", "image": "", "rank": 3, "time": 1.5, "location": {"lat": 29.86811012517514, "lng": 89.3909927079657}, "feature": {"sight_features": "", "sight_content": ""}}, {"title": "甘典曲果寺", "address": "日喀则地区南木林县", "image": "", "rank": 4, "time": 2, "location": {"lat": 29.68793803655162, "lng": 89.1057042130769}, "feature": {"sight_features": "", "sight_content": ""}}, {"title": "湘河铁索桥", "address": "湘河北路4号", "image": "", "rank": 5, "time": 2, "location": {"lat": 27.682777781740253, "lng": 113.72397565714199}, "feature": {"sight_features": "", "sight_content": ""}}, {"title": "雅居水族馆", "address": "鲁定路北100米", "image": "", "rank": 6, "time": 2, "location": {"lat": 29.66454088703651, "lng": 91.08818389493912}, "feature": {"sight_features": "", "sight_content": ""}}, {"title": "滨河公园", "address": "湘河南路3", "image": "", "rank": 7, "time": 2.0, "location": {"lat": 27.67622725341802, "lng": 113.72523621512812}, "feature": {"sight_features": "", "sight_content": ""}}, {"title": "加阿到", "address": "日喀则市-南木林县", "image": "", "rank": 8, "time": 2, "location": {"lat": 29.68793803655162, "lng": 89.1057042130769}, "feature": {"sight_features": "", "sight_content": ""}}, {"title": "爬热庆", "address": "日喀则市-南木林县", "image": "", "rank": 9, "time": 2, "location": {"lat": 29.68793803655162, "lng": 89.1057042130769}, "feature": {"sight_features": "", "sight_content": ""}}]}