{"cityName": "南宁", "days": "3", "cityImage": "", "spots": [{"title": "青秀山", "address": "南宁市青秀区青山路19号", "image": "", "rank": 1, "time": 7.5, "location": {"lat": 22.798836388758374, "lng": 108.37649841709074}, "feature": {"sight_features": "特色1 南宁著名的自然景区 特色2 踏青郊游、赏花与登高的好去处。", "sight_content": "郁金香花展、兰花展等你来邂逅！\n来青秀山共赴一场\n春之生命的浪漫之约~不要辜负这大好春光~\n7大色系、63个品种、\n32万多株郁金香！\n在和煦的冬日暖阳里\n五彩斑斓的郁金香饱满地盛开在和风中\n送来阵阵春意，令人陶醉\n郁金香素有“花中皇后”的美誉\n她们绚丽多彩的颜色也深得人们喜爱\n青秀山本次郁金香展将囊括七大色系\n让我们先来认识一下吧！\n一望无际的花海炫彩夺目\n各色郁金香在阳光下闪耀着五彩光芒\n美轮美奂\n春日暖阳下，浪漫的郁金香\n让人如梦似幻，仿佛身处童话世界。\n兰园中，一场以兰花为主角的“大秀”正在上演！珍稀兰花争奇斗艳，花儿们个个“盛装出席”！美洲兜兰、猴仙三角兰等更是星光耀眼，热闹非凡。这里的兰花都来自热带，她们身上散发出来奔放、如火的热情，让人无法抗拒，包括卡特兰、领带兰、树兰等150多个品种绚丽多彩的兰花。她们时常与大树为邻，攀援共生。在这里，以卡特兰的姿色最为傲人，她雍容华贵，花色娇艳多变，芳香馥郁，受到很多人的喜爱。\n【新春赏花·青秀山】\n青秀山风景区位于南宁市区往东南约9公里处的邕江江畔，青山顶上有一座高高的宝塔，这就是被誉为“南宁市的巨肺”。青秀山景区由青山岭、凤凰岭等18座大小岭组成，总面积4.07平方公里，其中水面面积14667平方米，绿地面积25000平方米，主峰海拔289米。\n青秀山顶上耸立的宝塔叫龙象塔，俗称青山塔，它是青秀山的象征，始建于明万历年间，共有九层，高60米，塔基直径12米，有207级旋梯，为广西最高的塔之一。登上塔顶，可眺望远近一二十里的风光，南宁城景色更是一览无遗。与满山青翠的树木相映的是山腰上天池和瑶池这两个巨大的人工湖。\n天池面积达15000平方米，水深2—3米，池水波光粼粼，青松翠柏、蓝天白云倒映水中瑶池位于供有壮族女神洛甲、聪明女神布劣陀和勇敢之神布伯三尊石神像的佛堂“三宝堂”的东边，面积5000平方米，池中立有王母娘娘塑像59作，东沿岸的花岗岩青石上刻有八仙聚会瑶池的浮雕图，形态栩栩如生。"}}, {"title": "南湖公园", "address": "南宁市青秀区双拥路1号", "image": "", "rank": 2, "time": 2.5, "location": {"lat": 22.80790697083599, "lng": 108.3528997993005}, "feature": {"sight_features": "", "sight_content": ""}}, {"title": "大明山", "address": "南宁市武鸣区两江镇明山路1号", "image": "", "rank": 3, "time": 3.0, "location": {"lat": 23.50388923987235, "lng": 108.44542854291787}, "feature": {"sight_features": "特色1 汇集大草坪、瀑布、峡谷等自然景观，冬季有机会看到雾凇美景。 特色2 山高坡陡 沟谷幽深 溪流纵横 林木茂盛", "sight_content": "广西大明山是国家4A级旅游景区，人称“岭南奇山 人间仙境”。春天的大明山以花为艳，山上新绿交柯，山花烂漫，蜂飞蝶舞，鸟语虫鸣。万顷绿涛随山势连绵起伏，万亩杜鹃点缀茫茫林海之中，真如人间仙境。五彩缤纷的杜鹃花竞相开放，满山鲜艳的颜色就像给山林披上了一道彩霞，非常惹人喜爱。每年四月至五月漫山遍野杜鹃花争妍斗艳，姹紫嫣红，七彩俱全的景色令人流连忘返。杜鹃花又名映山红，为我国十大名花之一，被誉为“花中西施”。杜鹃花品种繁多，在大明山有华南杜鹃、武鸣杜鹃、羊角杜鹃、变色杜鹃等24种。每年3月下旬至4月中旬，大明山杜鹃花盛开，此时漫山遍野姹紫嫣红，山风过处，花浪翻滚，在车道两边形成蔚为大观的高山花廊。其中的变色杜鹃非常引人注目，她在不同的天气和时间下呈现出不同的色彩，可在1—2天内由红变紫再变白，令人称奇。大明山的野生杜鹃形成一个十里长廊，争奇斗艳的花朵势必为游客打造一场无与伦比的旅游盛宴。\n大明山以“雨后晴翠，层峦迭嶂，满目生机”而得名，又曰“鸣山叠翠”，是桂中最高蜂之一。大明山山川秀丽，雄伟挺拔，峰峦层叠，郁郁葱葱。山上溪流纵横交错，幽谷密林丛生；悬崖飞瀑，险蜂峡谷，云雾缥缈，瞬息万变，是广西难得的一处生态旅游胜地。\n\n大明山由于地形复杂，气候独特，动植物资源丰富，相对高差大，形成了明显而奇特的四季景观。“春之岚，夏之瀑，秋之云，冬之雪”是大明山四季景观的缩写。大明山长年云雾缭绕。电影《神女峰的迷雾》、《雾界》、《心泉》等的外景多拍摄于大明山。\n大明山风景秀丽，旅游资源丰富，类型多样。具有雄、险、秀、幽等景观特色，古今许多文人墨客都做诗咏诗称赞，人们称之为“广西庐山”。\n大明山以春岚、夏瀑、秋云、冬雪四时之景不同，著称于世。春季明山晴翠，山花烂漫，万里绿涛随山势连绵起伏，汹涌如潮。四、五月间盛开各色的杜鹃花、吊钟花，争妍斗艳。夏季雨量充沛，溪流不竭，可观飞瀑。山上气温最高只有28℃，与山下温差达8－ 10 ℃左右，是绝妙的避暑胜地。秋季雨量渐少，宜登山远眺，观赏满山紫树红叶，秋云悠悠，彩霞轻拥。冬季在海拔1500米以上山峰，常有冰雪，南国亦可观赏北国风光。\n大明山长年云来雾往，飘忽不定，迷迷朦朦。“雾”是其一大景。 　大明山风景之秀丽，今人有\"广西庐山\"之誉。主要景点有“林海日出”、“壮乡远眺”、“深山飞瀑”、“南疆冰雪”、“奇松劲秀”、“高山草坪”、“奇峰幽谷”等，同时建有宾馆 、饭店4家，床位220个，以及餐厅、歌舞厅等旅游配套设施，成为消夏避暑和森林生态旅游的佳地。自1980年以来，已有10多个国家和地区以及国内游客数十万人上山游览、科学考察。随着“壮乡之旅”项目的建设，大明山作为\"壮乡之旅\"链式旅游长廊的终点，将会成为21世纪壮族地区的旅游名胜。"}}, {"title": "南宁动物园", "address": "南宁市西乡塘区大学西路3号", "image": "", "rank": 4, "time": 1.0, "location": {"lat": 22.843221835321373, "lng": 108.27604650569151}, "feature": {"sight_features": "", "sight_content": ""}}, {"title": "广西大学", "address": "南宁市西乡塘区大学东路100号", "image": "", "rank": 5, "time": 2.0, "location": {"lat": 22.839000779742815, "lng": 108.29492338358715}, "feature": {"sight_features": "", "sight_content": ""}}, {"title": "云顶观光", "address": "南宁市青秀区金湖路59号地王大厦59楼", "image": "", "rank": 6, "time": 2.0, "location": {"lat": 22.822472608281366, "lng": 108.37636286278934}, "feature": {"sight_features": "特色1 俯瞰南宁美丽夜景 特色2 站在地王大厦高层的全透明观光走廊上", "sight_content": "地王国际商会中心，276米，58层，是西南第一高楼，南宁唯一国际5A甲级纯写字楼，占据琅东CBD龙脉地段，巍峨耸立在琅东CBD核心，构筑成“南宁地标，商务领袖”，以巅峰气势号令大西南。他的横空出世，打破了“南宁近十年来一直没有真正写字楼”的尴尬局面，标志着南宁真正进入国际化纯正商务时代，是广西商务地产第一品牌。\n南宁地王云顶观光项目观光层位于第54层，是目前西南地区最高的观光层之一，是集旅游、观光和休闲为一体的城市瞭望平台，既有独立的场所，又有共同的空间，于细微处显露高雅品质、凸显城市品味，诚为南宁各界骄子欢聚亲朋，拓展商务之理想场所。二百七十六米的凌云高度，带来的不仅有城市全景风貌的视觉盛宴，还有现代都市奇异景观的高度冲击，三百六十度全视角高空风景苑线，与南宁会展中心、南湖美景相映成辉。\n多姿多彩的主题展览和特色民族风情演绎的完美融合，各种各样的互动节目带来丰富多采的娱乐新体验。两部速度为6米/秒的高速观光电梯约用60秒即可将观光宾客从地下1层直达观光层。层高4.8米，360o景观环绕无遮拦，与南宁会展中心、南湖美景呼应成辉；凭栏远眺，绿城美景尽收眼底。高层观光讲究的是“山登绝顶我为峰”带来的惟我独尊的感受，而登临南宁制高点地王观光平台，尽享博大胸怀，感受“会当凌绝顶，一览众山小”之境界。\n西南摩天高楼的内在神韵和建筑品质，确立地王“南宁旅游第一站”的目标和地位；国内高层建筑“云顶凌空踏步”的惊险刺激，必将震撼你的神经，紧抓你的眼球……"}}, {"title": "扬美古镇", "address": "南宁市市郊左江下游扬美古镇", "image": "", "rank": 7, "time": 3.0, "location": {"lat": 22.84445034411976, "lng": 108.07157241166175}, "feature": {"sight_features": "", "sight_content": ""}}, {"title": "伊岭岩", "address": "南宁市武鸣县双桥镇伊岭村", "image": "", "rank": 8, "time": 2.0, "location": {"lat": 23.036704205921136, "lng": 108.30508003171369}, "feature": {"sight_features": "特色1 南宁近郊有名的喀斯特溶洞，可欣赏绚丽的石笋群。 特色2 群峰拔地起，仿佛桂林城", "sight_content": "伊岭岩位于武鸣县境内，距南宁市郊18公里，是一座典型的喀斯特岩溶洞。因地处伊岭村而得名，又名“敢宫”（壮语），意为宫殿一样美丽的岩洞。据地质学家推断，形成于一百万年前。相传南宋开禧、嘉定年间(1205-1224)，有周师庆道士在此“结庵修炼”，“坐化岩中”。后人把伊岭岩叫“望仙岩”，并建在山顶仙寺。经过40年的开发建设，景区设施不断完善，档次得到提升，游客逐年增多。有越南总理潘文凯踏足留影，有毛泽东之孙游览题字，有大诗人郭沫若到访赋诗……如今，景区已成为八方游客旅游观光、休闲度假，避暑养生的最佳选择。\n伊岭岩位于梁满山腹中，整个岩洞状若海螺，面积2400平方米，游程1100米。洞分三层，游道曲折迂回，处处石笋重重，柱幔叠叠，峡窍盘错，扑朔迷离。有的地方像一个拱窿大厅，可容上千人；有的地方如夹缝小巷，仅容一人通过。洞内已开辟了八大景区，100多个大小景点，主要景点有“双狮迎宾”、“空中走廊”、“瑶池盛会”、“红水河畔”、“海滨公园”、“壮乡新貌”、“江山多娇”、“北国风光”等。人们进入洞道，时而攀登，如遨游云天；时而下坡，似步入深谷；时而拐弯，又像置身神幻境界。每年都吸引数十万中外游客观光游览。\n\n古朴典雅，独具特色的壮文化大观园内，绿树成荫，曲径通幽，竹竿哒哒，山歌袅袅，酒气氤氲、猴子嬉戏，一幅幅生动的画面，处处映人眼帘，美不胜收；粗陋斑驳的农具、石器，图案精美的土布壮衣，默默地展示着壮族人那曾经的辛劳以及智慧的创造……伊岭岩风景区内的壮文化大观园景点主要有：唢呐迎客、竹杠舞、山歌对唱、壮民族文化展示馆、艺术长廊、民族风味小吃、壮族堂鼓舞、壮乡酒坊等。这些淳朴的壮民族风情以及古朴的建筑，多方位、多视角艺术再现了源远流长的壮民族文化。"}}, {"title": "龙虎山风景区", "address": "南宁市西北面83公里处隆安县境内", "image": "", "rank": 9, "time": 2.0, "location": {"lat": 23.1715852498276, "lng": 107.70257390338148}, "feature": {"sight_features": "特色1 中国著名的“猴山”，在这里游人可随时与猴群近距离接触。", "sight_content": "【龙虎山自然保护区】\n\n龙虎山风景区，隶属隆安县，距南宁市83公里，国家AAAA级景区。南宁至大新、靖西、凭祥、云南的公路贯通景区，交通便利。 景区总面积为271公顷，森林覆盖率达98.7%，其中栖息着珍贵濒危的国家一、二级保护动植物，据不完全统计，现有野生猕猴3000多只，集散在路边、桥头及沿江，活泼可爱，能与游客嬉戏玩耍，好不热闹。??\n\n游龙虎山最大的亮点就是观猴，龙虎山现有8大猴群，每个群都有自己的猴王。这里的猴子喜与人亲近，刚到大门便有迎宾部队的猴群前来迎客，往深入走还会见到我们海陆空三军猴群，它们或伸手讨吃的，或嬉戏玩耍，更甚有调皮者会跳到游客的肩膀上。在这里游客随时可以与猴子们零距离接触，合影留念，尽情享受人与自然和谐的乐趣。\n离开喧嚣的都市，走进金龙寨，这里依山傍水，空气中每立方厘米达2-5万个负氧离子，是天然的氧吧。水边有神奇的六合神树，更是风水宝地，游客们可以在这边点上一炷香系上红绸带，许上一个美好的心愿。还可以参与玩板鞋竞走、推磨等活动，参观农家洞房，在竹阁楼里小憩，品各种农家特色小吃，感受纯朴的乡村气息，尽享浓郁的乡土风情。\n这里一年四季绿水常清，乘坐竹排游绿水江，欣赏两岸如画山景，与绿水江相互辉映，形成了奇妙的美景，感受宛如“船在画中走，人在画中游”的无穷意境。沿江而下，可以在竹排上对山歌体验壮族的特色风情，还可以看到猴子潜水、跳水等精彩镜头。\n游玩龙山来到我们的虎山，虎山海拔397米，登上虎山，还可一览众山小，包括一览对面龙山的全貌，那又是另外一个“神龙见首不见尾”的景致。在虎山脚下，古木幽深，藤缠蔓绕，植物繁多，有植物皇后毛瓣金花茶、金丝李、蚬木等，均是国家重点保护植物；另外还有各式各样中草药如蜘蛛抱蛋、黄精、青天葵等，仿佛一个若大的植物园。\n仙佛园坐落于虎山脚下，是众生虔心礼佛的庙堂。内有千年石龟。游人到此只要上一柱香，便可以请观音菩萨和各位神佛，为亲人为自己祈福，无论求子、求财、求平安、求姻缘，只要心诚必能一一显灵。往虎山深处走，内有大大小小千姿百态的石头和千百年的古榕和其他老树蔸，还有那只有鬼斧神工才能劈开的一线天，构成了无数个栩栩如生，造型可爱的天然盆景。\n目前龙虎山已建成较为完善的吃、住、玩一条龙服务。不仅在酒楼能够品尝到原生态的壮乡土鸡、土鸭、野生青竹鱼等特色风味，还可以夜宿龙虎山体验山夜的奥妙，享受大自然的赐予的舒适和祥和。这里远离了城市中的喧嚣烦躁和污染的空气，可以清晰的看到夜空中闪烁眨眼的群星，温柔如少女般的月亮，而进入耳际的是风过林间的低语呢喃，山间不知名的鸟啼虫鸣，远处绿水江日夜奔流的哗哗浪声，这一切组成了一曲美妙协和的催眠曲，让您很快进入美梦中\n这里青山滴翠，绿水清绝，更有行走的小精灵相伴。"}}, {"title": "花花大世界", "address": "南宁市武鸣县双桥镇伊岭工业区C—3", "image": "", "rank": 10, "time": 7.5, "location": {"lat": 23.020777017770847, "lng": 108.28118785217441}, "feature": {"sight_features": "特色1 四季可欣赏到大片的各类花卉，也可逗喂动物和体验采摘", "sight_content": "景区介绍\n花花大世界景区位于广西壮族自治区首府南宁市武鸣区双桥镇，占地约1700亩，是集生态观光旅游、户外亲子运动、婚礼婚庆盛典、科普教学基地、休闲商务\n会务、苗木花卉产销、养生养老旅游度假于一体的综合性旅游景区。\n景区现有爱琴海、天福池、芳草绿境、壮乡风雨桥、花山栈道、探索王国、宝巾花海、一树生春、东方韵生态餐厅、欢乐烧烤场等景点和游玩项目。\n花花大世界动静结合、人景相融，未来将全力打造成适合各年龄段人群、覆盖散客、情侣、家庭亲子和单位团体的旅游休闲目的地。\n1、幸福花海\n寓意鲜花的海洋，幸福的港湾。每个季节有主题花卉种植，如格桑花、油菜花、葵花等。\n2、宝巾花海\n在这里可以看到红色、紫色还有罕见的黄色和白色宝巾花，在花期期间，就是一片的宝巾花海和春色满园的景色，幸运的话还能看到小松鼠、\n变色龙或各种鸟类。建议观赏时间：每年5月、10月。\n3、爱琴海\n这里椰林高耸林立，一座欧式教堂伫立在青翠的草坪中央，草坪外围衔接一片白色沙滩，在这里我们不用去到海边也可以感受到海滩白沙的质感。细腻银白的\n沙滩是小孩子的玩耍圣地，教堂也可以对外接洽婚礼。更多的是婚纱摄影，教堂的两边是五颜六色\n的鲜花围绕，一路的芬芳，在照片中留下幸福的记忆。\n4、芳草绿境\n它的面积约有12万平方米，是目前南宁周边较大的一个活动草坪绿地。草皮茂密齐整，颜色青翠，像一张天然的绿地毯。草坪上设有多组梅花鹿、麋鹿、奶牛、\n山羊、仙鹤、熊猫等动物造型和标准的高尔夫球场沙坑供小朋友玩耍，还可以尽情奔跑嬉戏、\n放风筝，是家庭出游的理想活动场所，除此之外公司团体也能在此开展户外拓展活动。\n5、壮乡风雨桥\n景区独具特色的建筑之一。整座建筑不用一钉一铆和其它铁件，皆以木榫衔接。桥的两边，是天福池和碧荷池，荷叶飘香，水波荡漾，在六、七月份，清澈的\n湖水，荷花开满湖面，点缀碧绿的荷叶，这不正是西湖美景吗？\n6、天福池\n天福池，寓意为天赐福地，就像聚宝盆，无论是拂晓或是日暮，天福池都宛如一幅秀美的自然山水画卷。\n7、花山栈道\n景区内的观景好的地方，从山底拾级而上，一路欣赏沿途的美景，不同高度，所呈现的景色有所不同，到了山顶，可以在山顶的凉亭上休息，景区全貌一览\n无遗，感受习习微风带来的凉意，或者走到栅栏旁，欣赏花花大世界的山水画卷美景，就是那种一览\n众山小的心境。胆大的游客，也可以在山顶的玻璃栈道上，感受心惊肉跳的刺激。\n8、东方韵生态餐厅\n既是景点又是餐厅，以江南风格为主，融入东南亚植物而形成的园林景观，打造品美食赏美景游水上乐园的独特饮食环境，内设大厅和多个包厢，可同时承接\n单位团体商务用餐和散客用餐。\n餐厅除了环境优美宁静，所选食材都是绿色健康食品，生态无公害。特色菜：盐香脆皮肘子、壮乡红烧肉、古典水蒸鸡、巴马养生黑豆腐、香拌柠檬鸭等。\n9、探索王国\n包含拓展乐园、轮胎乐园、射箭场、草地高尔夫等项目，是小朋友们探索未知领域的场所。\n10、一树生春\n这株榕树是景区的“镇园之宝”，柱根相连、柱根相托，盘根错节，分不清哪是根哪是枝干。远看像很多棵榕树交织在一起，其实那都是“一树生春”的根，\n它们能充分吸收空气中的水分和养分，一旦触地，便毫不犹豫的扎进土壤，迅速茁壮长大，上挂下\n连，周而复之，便形成了这种独特的造型和令人叹为观止的壮丽景观。\n这一颗榕树的壮观之美，不近看你都无法想象大自然的神奇，不近看你都无法想象它是如何纵横交错的生长。\n11、椰林大道\n主要以大王椰种植排列为观赏景点，大王椰属常绿乔木，棕榈科，多分布在中美洲和印度群岛及我国海岛区域（海南岛），是目前高大的椰子类植物之一，\n它高达10~20m，树姿高大雄伟，树干通直。椰林大道树木种植整齐有序，在这里游客可以拍出各种\n各样创意的照片，旁边还有欧式建筑风格的罗马亭，很多婚纱摄影都会选择这个地方。\n12、古树迎宾\n大门周边种植的参天古榕，代表景区喜迎天下客的心意。成片参天古榕傲然挺立，气势磅礴，如果我们走入它的树荫下，那硕大无比的树冠，就像一面巨大的\n天然华盖，将骄阳遮挡得严严实实，把世间的喧嚣也一并阻隔在外。\n13、欢乐烧烤场\n烧烤最怕的就是晒太阳！但在这里，绿树成荫，亲朋好友一起围坐在烧烤炉旁，享受烧烤带来的乐趣，增加朋友、亲人、同事之间的情谊互动，吃饱了还能打牌、\n搓麻将，或者可以到旁边的球场打篮球、排球、羽毛球等。\n另外：景区还设有旅游观光车、多人自行车骑行、游船租赁、露营等项目。\n赏花指南\n景区四季有花，包含宝巾花、扶桑花、桂花、朱瑾花、鸳鸯茉莉花、澳洲火焰木、紫荆花、黄花风铃木、桃花、木棉、炮仗花等，满园美景的花花大世界邀您\n共赏。"}}, {"title": "大龙湖景区", "address": "南宁市上林县西燕镇", "image": "", "rank": 11, "time": 3.5, "location": {"lat": 23.538713340883515, "lng": 108.52122933148662}, "feature": {"sight_features": "", "sight_content": ""}}, {"title": "石门森林公园", "address": "南宁市青秀区民族大道118号", "image": "", "rank": 12, "time": null, "location": {"lat": 22.815891885169066, "lng": 108.39425171870911}, "feature": {"sight_features": "", "sight_content": ""}}, {"title": "金湖广场", "address": "南宁市青秀区民族大道98-3号", "image": "", "rank": 13, "time": 1.0, "location": {"lat": 22.81955828696002, "lng": 108.37670683205374}, "feature": {"sight_features": "", "sight_content": ""}}, {"title": "民族大道", "address": "南宁市青秀区", "image": "", "rank": 14, "time": 1.0, "location": {"lat": 22.792227439630846, "lng": 108.5014386100909}, "feature": {"sight_features": "", "sight_content": ""}}, {"title": "三里洋渡风景区", "address": "南宁市上林县澄泰乡洋渡小学附近", "image": "", "rank": 15, "time": 3.5, "location": {"lat": 23.470224881767287, "lng": 108.71462861843007}, "feature": {"sight_features": "", "sight_content": ""}}, {"title": "南宁海底世界", "address": "南宁市兴宁区民主路6-8号人民公园后门(近官塘入口)", "image": "", "rank": 16, "time": 3.0, "location": {"lat": 22.83192756644889, "lng": 108.34172599894704}, "feature": {"sight_features": "特色1 穿梭“海底隧道”感受海洋世界的迷人，欣赏精彩表演。 特色2 不一样的地方，不一样的海底世界。", "sight_content": "南宁海底世界位于广西首府南宁市人民公园内，占地5000多平方米，是广西规模较大的游乐公园及水族馆之一，也是南宁地区甚至广西的海洋教育中心及海洋动物保护区，被评为2005年南宁市较优旅游景区之一。神奇美丽、变幻莫测、绚丽多彩的海底水晶就在你面前，一起揭开它的神秘面纱，感受它独特迷人的吸引力，一起探索海平面下的生命惊奇。\n\n南宁海底世界建筑分布于南宁市人民公园内，设有两个进出口：正门入口及海狮剧场入口。拥有十二个主题游乐区，分别为：触摸池、海底长廊、沙滩和千年海龟池、珍奇贝壳馆、鲨鱼表演馆、梦幻水径、时光隧道、海底观光船、小迷宫、水晶城、鲳鱼馆、海狮剧场。主打四个特色娱乐表演节目：海狮表演、人鲨之恋表演、魔鬼鱼进食表演、水中芭蕾表演。还有丰富多彩的海洋生物特性演示：鲳鱼捕食演示、刺豚胀气演示、黑鳍鲨鱼捕食演示、电鳗放电演示、射水鱼捕食演示、狮子鱼捕食演示、石头鱼捕食演示、乌贼变色演示。小朋友游客在观赏各类海洋生物的同时还可参与各类的即有游戏性又有教育性的趣味课堂。海狮剧场内有更精彩有趣的人与海狮表演，不容错过。各种海洋生物和演员造等可供游客穿梭游览及拍照留念。并可品尝南北小食，或选购精美的传统海洋手工艺品和纪念品。\n在新奇独特、美轮美奂的海底世界，您不仅可以探索各种神秘的海洋生物，还可以欣赏人鲨表演、水中芭蕾、海狮表演等精彩表演。在海底世界游览过程中，我们将引领每一位游客穿越“五大洲四大洋”，经历一次终生难忘的“海洋之旅”。\n在中央展厅的触摸池，您可以亲手触摸漂亮的五角海星、胆小的寄居蟹和有着“远古活化石”之称的中华鲎。\n在海底世界里面，有一个神奇美丽、变幻莫测、绚丽多彩的“海底隧道”。在梦幻般的海底隧道，鱼儿在身旁游动，体验人在水中走、鱼在天上游的奇妙感觉。\n海龟保育区，您将看到我们的寿星——千年海龟。在这里，你可以亲自给海龟喂食，还可以和它们拍照留念，记录精彩瞬间。\n在鲨鱼馆，您可以亲身体验鲨鱼扑面而来，那种惊险刺激令人窒息的快感。\n在水母馆，您可以看到海月水母、彩色水母、霞水母轻盈曼妙的舞蹈。这里为观众表演的是来自南美洲的南海狮，名叫阿杜，它会为您带来海洋动物们的特色表演。"}}, {"title": "南宁人民公园", "address": "南宁市兴宁区新民路44号", "image": "", "rank": 17, "time": 2.5, "location": {"lat": 22.829771832747422, "lng": 108.33404741729781}, "feature": {"sight_features": "", "sight_content": ""}}, {"title": "良凤江国家森林公园", "address": "南宁市友谊路78号", "image": "", "rank": 18, "time": 3.5, "location": {"lat": 22.72816585825974, "lng": 108.29866795752797}, "feature": {"sight_features": "特色1 郊游踏青的好去处，可体验滑草、真人CS等活动。 特色2 林木繁茂，亭阁错落，芳草萋萋", "sight_content": "良凤江国家森林公园位于广西首府南宁市南郊，距市区7公里，总面积4863.7公顷，地处北回归线以南，属南亚热带季风气候，冬短夏长。属丘陵盆地地貌，狮子岭雄踞其中，良凤江从公园腹地蜿蜒穿流而过。 公园由良凤江核心区、凤凰湖森林度假区、五象岭森林公园区组成。园内山屏苍翠，绿树葱郁，森林奇观千姿百态，良凤江碧波涟漪，青山绿水相映生辉，山幽、水碧、树奇、气清、楼雅构成了钟灵秀丽的自然风光。在公园中不仅可以游览的自然风光和巧夺天工的人文景观，尽享21世纪的绿色食品，还可以观看各具特色的民俗风情表演。\n\n良凤江国家森林公园良凤江森林公园中有亚热带树种及广西濒临灭绝的树种共122科1294个品种，属国家保护植物的85种。 它的华南地区较大的金花茶种质资源基因库就建在这里。良凤江森林公园，从城市来到这里，精神顿时清爽，是名副其实的“森林浴室”。\n良凤江森林公园内可以满足游客游览、烧烤、登山、划船、垂钓、游泳、森林浴、会议、度假、科普、科研、文化娱乐、集体活动等不同需要，大凡来者，均可以自得其乐。在这里不仅可以游览得天独厚的自然风光和巧夺天工的人文景观、尽享21世纪的绿色食品，还可以观看各具特色的民族风情表演。整个公园由三个景色各异的景区及游览区构成。可以细分为：菩提佛光、双狮拜佛、树木家园、阳光部落、八卦水域、休闲河州、雨林天簌、激情地带、绿岛龙珠、原始群落等十个各具特性的景点。"}}, {"title": "广西壮族自治区博物馆", "address": "南宁市青秀区民族大道34号", "image": "", "rank": 19, "time": 2.5, "location": {"lat": 22.818769945122302, "lng": 108.34169365545716}, "feature": {"sight_features": "", "sight_content": ""}}, {"title": "广西民族博物馆", "address": "南宁市青环路11号", "image": "", "rank": 20, "time": 2.0, "location": {"lat": 22.77936870230318, "lng": 108.4075280040063}, "feature": {"sight_features": "", "sight_content": ""}}, {"title": "嘉和城温泉谷", "address": "南宁市兴宁区昆仑大道995号", "image": "", "rank": 21, "time": null, "location": {"lat": 22.915002229289094, "lng": 108.45733627594053}, "feature": {"sight_features": "特色1 拥有高品质温泉水，还有众多养生项目与水上娱乐设施。", "sight_content": "嘉和城温泉谷位于南宁市南梧大道嘉和城内，车从南宁国际会展中心出发，行驶13公里便能到达。温泉谷还连接着国际锦标级18洞的嘉和城温泉高尔夫球场，是集多国风情的温泉休闲疗养、水上乐园、温泉SPA 、餐饮、康体为一体的大型复合温泉休闲中心。这里的温泉水源自1300米深处的寒武系地层，经过12000多年的深沉蕴藏,水质清澈透明,含有偏硅酸、硫化氢、二氧化碳、钠、钾、锶等40多种微量元素和矿物盐,是优质偏硅酸疗养型热矿泉。\n嘉和城温泉谷的温泉休闲中心包括风情六国泡浴区、玛雅水世界、活力SPA等,我们先体验的就是六国风情泡浴。在具民族特色、文化氛围最浓厚的千年华夏区,六神汤、美肤亲亲鱼、石板浴疗等十余种中医药浴、推拿按摩的传统精髓让人舒服的不愿离去；在芬兰区内，“千岛之国”的桑那木屋、户外冰湖、高温泡浴的特色设施带给我们“冰火两重天”的美妙冷热两极；而神秘美丽约旦的典型盐浴,风情土耳其的肚脐石浴，一海之隔的东瀛竹泉浴、红酒浴,泰式特色的菩提泉浴等等，无一不让人感到惊喜和浪漫。\n可惜我们忙于体验不同风情的泡浴，居然错过了精彩的玛雅水上表演,着实感到遗憾。 泡罢风情温泉，不妨在水岸食舫享用包罗万象的中式餐饮,尝尝特色的药膳食疗。如果你喜欢享受私密的空间，也可以选择独立空间设计的雅苑，星级酒店的服务和标准的酒店设施一定能让你获得满意的温泉之旅。\n温泉还不爽？18℃摄氏度，冷泉玩过瘾！嘉和城温泉谷18度冷泉夏季上市。我们通过压缩空气冷风技术，将泉水降温至最冰爽的18度，与温泉同等功效，但在夏天会更舒服，既健康又舒服。"}}, {"title": "广西科技馆", "address": "广西壮族自治区南宁市青秀区民族大道20号", "image": "", "rank": 22, "time": 2.5, "location": {"lat": 22.81823056876799, "lng": 108.33663619992919}, "feature": {"sight_features": "", "sight_content": ""}}, {"title": "凤岭欢乐世界", "address": "南宁市青秀区云景路25号凤岭儿童公园内", "image": "", "rank": 23, "time": 0.5, "location": {"lat": 22.826542339122533, "lng": 108.40439132238691}, "feature": {"sight_features": "", "sight_content": ""}}, {"title": "南宁国际会展中心", "address": "南宁市青秀区民族大道东段106号", "image": "", "rank": 24, "time": 2.5, "location": {"lat": 22.819729430228282, "lng": 108.35788741337171}, "feature": {"sight_features": "", "sight_content": ""}}, {"title": "广西药用植物园", "address": "南宁市兴宁区长堽路189号", "image": "", "rank": 25, "time": 2.5, "location": {"lat": 22.852195522702733, "lng": 108.38036195991836}, "feature": {"sight_features": "特色1 规模很大的药用植物园。 特色2 可见到两面针、草珊瑚等各种药用植物。", "sight_content": "【景点介绍】\n\n位于广西壮族自治区南宁市厢竹大道的广西药用植物园创建于1959年，占地面积202公顷，是我国对外（国际）开放的二十一个大型植物园之一。建园52年来，广西药用植物园共收集、保存活体药用植物品种5600多种，其中珍稀濒危药用植物100多种。广西药用植物园于2011年8月正式向英国吉尼斯总部递交申请，并提交相关申报材料。12月9日，广西药用植物园申报吉尼斯世界纪录成功，获得“世界最大的药用植物园”吉尼斯纪录证书。\n同时也是广西壮族自治区卫生厅直属的从事药用动、植物资源收集、保存、展示、科普教育；药用动、植物资源保存与利用、特色中药资源、民族药资源产品开发、中药材产品质量检测技术与标准研究；中药材产品质量标准起草以及检测服务的公益性事业单位。广西药用植物园是我国对外（国际）开放的二十一个大型植物园之一，作为全国中医药文化宣传教育基地、国家旅游标准化试点单位和国家AAAA级旅游景区，承担着传播中医药文化的重任\n\n药物园划分为7个药物区：广西特产区、药物疗效区、荫生植物区、木本药物区、草本药物区、藤本药物区和药用动物区。它集南药、北药、本区特产药物和区外、国外药物于一园。药物有灌木、乔木、藤木、草木等，药用动物园还饲养黑叶猴、恒河猴、梅花鹿和飞虎等一些珍贵药用动物。药用植物园，既是游乐休闲的好地方，也是科普学习的好去处。\n\n每年春节，药用植物园里的桃花就会争先开放，美不胜收！"}}, {"title": "金花茶公园", "address": "南宁市青秀区葛村路3-5号金花茶大厦", "image": "", "rank": 26, "time": null, "location": {"lat": 22.824829534440834, "lng": 108.35814700120638}, "feature": {"sight_features": "", "sight_content": ""}}, {"title": "狮山公园", "address": "南宁市兴宁区邕武路4号", "image": "", "rank": 27, "time": 1.5, "location": {"lat": 22.863504614509367, "lng": 108.3459002081589}, "feature": {"sight_features": "", "sight_content": ""}}, {"title": "民歌湖景区", "address": "南宁市青秀区金浦路", "image": "", "rank": 28, "time": 1.5, "location": {"lat": 22.817817744263593, "lng": 108.38007928563209}, "feature": {"sight_features": "特色1 乘坐游船荡漾民歌湖，欣赏美丽城市夜景。", "sight_content": "南宁民歌湖景区于2009年11月28日由南宁建宁水务投资集团有限责任公司启动建设，总投资约为15亿元。2014年被国家旅游局批准成为国家AAAA级景区。南宁民歌湖景区位于广西首府南宁琅东cbd核心核心地带，毗邻南宁国际会展中心、竹溪立交、五象广场、航洋国际。是南宁市环城水系的一部分，也是南宁市中心最优美的环城水域风景带。南宁民歌湖景区不收取门票，免费面向市民游客开放。景区游览项目包括水上游览、徒步游览、现代艺术酒吧街、广场活动、文艺表演等，配套有游客中心、游船码头、酒吧、餐饮美食、购物、艺术品收藏、演艺厅、大型停车场等，是南宁市具魅力的新旅游景区。2015年3月，由南宁市委宣传部、南宁市文化新闻出版广电局主办，南宁市群众艺术馆等单位承办“百姓大舞台·想秀你就来”南宁民歌湖周周演百场群众文化活动在南宁市民歌湖水上舞台启动。从3月底到年底，将有百场歌舞表演、电影展演等在民歌湖水上舞台亮相。游客可免费观赏。\n民歌湖是在南宁国际民歌节大地飞歌晚会主场原址进行建设，结合竹排江水系的拓宽，形成的一个中心景观湖景。总占地总面积约310亩，其中水面面积约170亩。整个民歌湖通过曲水桥、声光感应桥、凌波桥、七弦桥四座桥梁相互贯通，配上幻彩繁华区与沁香园的园林绿化，营造出具有特色风格的中心滨水景观区。\n民歌湖竹排江全长4.8公里，江面宽度约50米，两岸分片种植了本地特色的植物及名贵树种，打造出一条由桃李园、椰棕园、枫竹园、沁香园和溢彩坡五个主题公园组成的“水韵五景”城市滨水景观带。游客可以沿着亲水步道徒步游览美景，也可乘坐游船在水上游览。此外沿途的7座桥梁通过装饰壁画浮雕与沿岸雕塑小品结合，渲染历史环境氛围。其特色造型和寓意增添了湖光水色的文化底蕴。全长752米连通明渠运用大型浮雕的手法展现了古南宁的历史，内敛大气、简洁大方，原汁原味的将广西特色融入其中。南湖是一座水体景观与亚热带园林风光相结合的综合性公园。公园内设有南湖广场、名树博览园、百色起义陈列馆、盆景园、兰花圃、儿童乐园等景点，是广大游客观光、休闲娱乐的好地方，南湖水域也是每年国际龙舟赛举办地。\n目前景区开发了五条游船游览路线，由南宁水城旅游开发有限公司经营，可让游客充分体验“绿城上善之旅，舟游中国水城”的南宁魅力。线路一（全程）：乘船游览国家4A级景区民歌湖核心游览线路（南湖-竹排江-民歌湖水系，全长约6.8公里，时间约1小时），乘船带您穿越十四座光幻琉璃的桥梁、七彩的南湖大桥瀑布、广西首府南宁琅东CBD最璀璨的夜景，欣赏连通明渠南宁古文化长廊、南宁地标国际会展中心，游船穿行竹排江景观带，两岸亚热带植物尽收眼底，体验“舟在碧波上，人在画中游”绿水双城南宁的独特魅力。线路二（半程）：乘船游览国家4A级景区民歌湖精华游览线路（全长约5公里，时间约50分钟），沿途欣赏民歌湖酒吧街风貌、南宁地标国际会展中心、贤宾湖，游船穿行竹排江景观带，两岸亚热带植物尽收眼底，享受在喧哗都市中的宁静悠闲。"}}, {"title": "邕江", "address": "南宁市区境内，是珠江水系西江支流郁江自西向东流经南宁市的河段。", "image": "", "rank": 29, "time": 0.75, "location": {"lat": 23.437524584654504, "lng": 108.84274054133736}, "feature": {"sight_features": "", "sight_content": ""}}, {"title": "民族广场", "address": "南宁市青秀区民族大道49-2号", "image": "", "rank": 30, "time": 2, "location": {"lat": 22.820341197421683, "lng": 108.3399510110396}, "feature": {"sight_features": "", "sight_content": ""}}, {"title": "龙象塔", "address": "南宁市青秀区凤岭南路6-6号青秀山风景区内", "image": "", "rank": 31, "time": 0.25, "location": {"lat": 22.80306163897871, "lng": 108.41136513395702}, "feature": {"sight_features": "", "sight_content": ""}}, {"title": "南宁大桥", "address": "南宁市青秀区青山路延长线，南接平乐大道", "image": "", "rank": 32, "time": 0.25, "location": {"lat": 22.752712240013206, "lng": 108.39025172776611}, "feature": {"sight_features": "", "sight_content": ""}}, {"title": "美丽南方", "address": "广西壮族自治区南宁市西乡塘区石埠镇忠良村", "image": "", "rank": 33, "time": 2, "location": {"lat": 22.774836748279636, "lng": 108.16768816553524}, "feature": {"sight_features": "特色1 欣赏怡人的田园之景，还可体验丰富多彩的休闲活动。 特色2 是您休闲旅游放松的好去处。", "sight_content": "【景区简介】\n南宁太阳谷体育园位于南宁市西乡塘区美丽南方景区内，是在国家“加快发展体育产业、推进全民健身”的政策号召下，以城市规划为指引，有机融入广西体育产业建设框架，开发水上运动休闲产业，打造一个集水上运动竞赛、表演、体育健身、旅游休闲、文化娱乐等相关配套服务于一体的休闲体育产业园区，目前园区内拥有水上运动场、水上休闲俱乐部，船艇营销4S店、各大球类运动场、体育休闲公园、休闲商务区等各项配套设施齐全的活动区域，是人们娱乐健身、休闲度假、游览观光的首选圣地。\n【景区特色】\n引领水上运动休闲时尚，以水上休闲基地为导向；极速极炫表现为标志；全面颠覆错位的生活方式，诠释正能量亲水体验新生活。\n【景点介绍】\n1、提供赛事活动、户外扩展、商品展贸、球类运动等场地租借，船艇停泊，船艇租赁等园区物业管理服务。\n2、提供摩托艇、游艇体验、球类娱乐健身、户外扩展、船艇驾驶培训、球类运动项目培训等服务。\n3、提供水上休闲运动项目表演，如水上摩托、水上花式摩托、水上飞人等商业表演。\n4、提供船艇（及水上运动装备）售卖、保养、维修、改装等系列专业服务。\n胤龙马术俱乐部\n俱乐部配套设施齐全，马术俱乐部会所配备了马具及整套马术装备展销中心、VIP贵宾休息室、咖啡茶艺馆、KTV豪华包厢、游泳馆、儿童水上乐园等完整配套设施，胤龙马术俱乐部致力于发扬体育精神，传递马术文化，倡导健康休闲生活。\n烧烤基地\n胤龙大榕树烧烤野炊基地于2014年建成营业，主营各式烧烤，夏季户外烧烤，烤肉烤全羊系列，环境卫生与服务态度一流，是南宁市集户外烧烤、野外烧烤、田园烧烤于一体的高档烧烤城。开业以来吸引大批客人前来。\n基地占地面积约50亩，配套设施齐全，基地内有两百余年的参天古树，游客可在阴凉的树下进行各种户外拓展活动。\n桂漳土猪店\n“桂漳土猪店”原名“橄榄林餐厅”，坐落于广西南宁市西乡塘区美丽南方核心景区内，距离市区仅20余公里，交通便利。土猪店可提供多种用餐形式：自助餐、围桌、独立点餐等，可接婚宴、同学聚餐、公司聚餐等，餐厅拥有餐位700余个，餐厅由主楼、副楼两栋楼组成，拥有独立包厢10间，可容纳200人开会就餐的多媒体会议室1间（有音响、投影仪、K歌系统），全空调覆盖，另有一个1000余平方米独立的庭院一个，可用于户外游戏、户外婚礼等活动。"}}, {"title": "八桂田园", "address": "南宁市西乡塘区相思湖东路19号", "image": "", "rank": 34, "time": 2, "location": {"lat": 22.83681800235068, "lng": 108.25333543171095}, "feature": {"sight_features": "特色1 四季都有不同的植物风光，更是享受采摘乐趣的好地方。 特色2 围绕现代农业展示的全国农业科普示范基地", "sight_content": "南宁八桂田园位于广西南宁市大学东路176号。距市中心10千米。是集旅游观光、生产、科研、信息、科普教育一体的综合性现代农业科技观光园。八桂田园作为旅游景点向市民开放以来，以现代农业观光、果蔬采摘、农业DIY、户外休闲等农耕游乐项目吸引了大批游客，并为游客提供了以特色有机农产品、观赏瓜果产品、珍稀花卉、名优种子种苗及各类特色农业纪念品为主的旅游产品，已成为南宁市市民及来邕游客进行农业观光和体验农业的首选之处，“八桂田园生态欢乐游”已成为广西农业旅游的突出品牌。\n★现代农业观光区——100000㎡的现代农业设施，既有生产性又有观光性，使游客在观光的过程中了解到先进农业设施和生产技术，寓教于乐。\n★野菜瓜果采摘区 — 约60000㎡的超大型“绿色超市”和80亩的露地栽培区，包括网室、连栋大棚、单棚等现代农业栽培设施，常年为游客提供50多种有机水果蔬菜，让游客自己动手，过足摘菜瘾，感受自摘之清爽味道！\n★农业DIY体验区 — 为广大市民、学生、家庭开辟的农业体验区，寓教于劳，在自己认领的菜地里，感受种植与收获的乐趣，体验都市农耕，享受一份田间作息的清闲。\n★野菜馆 —推动健康饮食新潮流，最具田园特色的绿色消费：野菜火锅套餐、田园鸡煲、清水雁鹅、香猪等特色田园料理，价格实惠，还原汁原味体现了“返璞归真，重回自然”的健康饮食潮流！"}}, {"title": "凤岭水世界", "address": "南宁市青秀区云景路25号凤岭儿童公园内", "image": "", "rank": 35, "time": 12.0, "location": {"lat": 22.826542339122533, "lng": 108.40439132238691}, "feature": {"sight_features": "", "sight_content": ""}}, {"title": "南湖大桥", "address": "南宁市青秀区民族大道", "image": "", "rank": 36, "time": 0.25, "location": {"lat": 22.819357105455286, "lng": 108.37605229791362}, "feature": {"sight_features": "", "sight_content": ""}}, {"title": "九曲湾温泉", "address": "南宁市兴宁区三塘镇温泉路9号", "image": "", "rank": 37, "time": 2, "location": {"lat": 22.88900127050992, "lng": 108.42547053008707}, "feature": {"sight_features": "特色1 重碳酸钠型热矿水。 特色2 具有浓郁民族风情和地方特色的温泉生态旅游。", "sight_content": "九曲湾温泉度假村位于广西首府南宁市昆仑大道三塘，着落于风光秀丽的九曲湾农场，距市中心仅12公里，交通十分便捷，独享优越的地理环境。温泉水由地下1219.94m深的地热田复合圈喷涌而出，日涌水达744m³/d，试问在53.3℃-61℃之间，水质经营体柔，经地质矿产部广西中心、广西疾病预防控制中心、广西保健食品及生物产品质量监督检验站实地严格检测，矿水年龄约为12000年，泉水中含有偏硼酸、偏硅酸、硫化物、氟、 氡、锂等30多种对人体有益的微量元素和矿物质，是一种罕有的重碳酸钠型温热级含氡、偏硅酸的氟医疗热矿水。对多种慢性疾病，如神经性麻痹、瘫痪、风湿性关节炎、肠胃病、心脏病、高血压、糖尿病、动脉硬化等有明显的辅助医疗功效，并具有繁防治皮肤病、抑制肥胖、美容肌肤等保健医疗作用。2006年7月通过国家旅游局的实地考擦和验收，九曲湾温泉度假村这颗南宁市旅游业的璀璨明珠正式成为南宁市继青秀山之后的第二批国家级AAAA旅游景区。\n九曲湾温泉度假村继生态性、民族性、科技性、医疗性为一体，从不同层次，多主体的融入广西独有的壮乡文化和独特的少数民族旅游文化韵味。度假村内，拥有300多种亚热带植物，碧波荡漾，曲径通幽，泉水淙淙，水雾弥漫犹如人间仙境一般。入门正面的《八桂风情》大型花岗岩浮雕、广场内矗立着中国的壮族始祖“布洛陀”和壮族生育女神“姆六甲花岗岩雕塑像”、主广场周边12根代表着广西12个民族信仰与风情的图腾柱、六面青铜铸造的铜鼓和玻璃钢彩色大绣球以及温泉浴池中间的“风雨桥”等，无处不体现着广西壮乡浓郁的民族文化，更能让人感受到少数民族那纯真，朴实的气息。\n九曲湾温泉有露天温泉浴池和室内多功能泡浴池，包括：石板浴、温泉鲜花浴、啤酒鱼、芦荟浴、中药浴、茶具、盐浴、薄荷浴等，可同时容纳1000人泡浴。浴池内安装了目前国际先进的水疗设备和自动恒温补水装置，高科技的设施和独具特色的配方与优质的温泉热矿水相结合，以及温泉区内的康田保健中心，桑拿浴、蒸汽浴、光波浴、雾蒸浴等一应俱全，并配以壮、瑶中医特色保健按摩理疗等项目，使温泉的医疗保健达到了非常好的效果。\n九曲湾水上乐园是一座融参与性、观赏性、 娱乐性、趣味性于一体的现代时尚主题水上乐园，拥有近6000㎡超大嬉水池。设有海盗船、U型滑板、标准游泳池、宝贝水城、螺旋滑梯、组合滑梯、海龟喷水、枪林弹雨、喷水葵花、缓冲气泡泉、喷水门、景观木廊架、激流泉、圣泉飞瀑、水上休息岛、温泉体验岛，配套设施有大型接待大楼、休息区、美食长廊等，是您夏日清爽休闲的选择。\n【U型滑板】\n随着10多米的滑梯向下滑行，感受轻松的舒畅，释放所有的压力，绝对是你工作后游玩减压释放的好地方。\n【宝贝水城】\n特别为儿童设计，这个区域是一份供全家放松理想的地方，也是儿童的水上乐园。\n【螺旋滑梯】\n托马斯回旋滑梯，急速滑行中体检犹如风中滑行之美，特别适合喜欢体验刺激新奇的游客。"}}, {"title": "凤岭儿童公园", "address": "南宁市青秀区月湾路1号", "image": "", "rank": 38, "time": 3.0, "location": {"lat": 22.82145202649284, "lng": 108.40256548499781}, "feature": {"sight_features": "", "sight_content": ""}}, {"title": "凤岭摩天轮", "address": "南宁市青秀区云景路25号", "image": "", "rank": 39, "time": 1.0, "location": {"lat": 22.83003271415418, "lng": 108.40460774394693}, "feature": {"sight_features": "", "sight_content": ""}}, {"title": "民族文物苑", "address": "南宁市青秀区民族大道古城路21-6（广西壮族自治区博物馆内）", "image": "", "rank": 40, "time": 1.0, "location": {"lat": 22.827753315047822, "lng": 108.34256287832598}, "feature": {"sight_features": "", "sight_content": ""}}, {"title": "南宁孔庙", "address": "南宁市青秀区青环路", "image": "", "rank": 41, "time": 2.5, "location": {"lat": 22.77301182652521, "lng": 108.4282286540867}, "feature": {"sight_features": "", "sight_content": ""}}, {"title": "凤凰谷景区", "address": "南宁市兴宁区三塘镇四塘凤凰谷", "image": "", "rank": 42, "time": 6.0, "location": {"lat": 22.97252912597879, "lng": 108.48537205762634}, "feature": {"sight_features": "特色1 南宁市里的小巴马 特色2 四季鸟语花香， 竹海幽深 特色3 谷内山水环抱，山涧泉潭", "sight_content": "凤凰谷景区位于南宁市兴宁区三塘镇四塘凤凰谷，占地约1000亩，距市中心26.8公里，仅30分钟的车程。它主要以天然的河谷、原生态山水景观为主要特色。\n传说有三只金凤凰来到壮乡南宁，一只留在美丽的邕江河畔，另外两只则迷恋四塘秀丽的小溪，化做青山与水相伴，凤凰谷因此而得名。\n它谷长5公里，谷内山环水抱，形成了一个自然天成的太极河谷。在这太极福地中，山涧泉潭，曲径通幽，溪水潺潺、深潭幽谷，飞瀑众多壮观，奇石遍布、青藤野果、负氧离子含量极高。谷内还生长着国家一级保护植物金花茶，二级保护植物金狗毛，是一个植物认知基地。\n\n\n历史方面有宋代名将狄青、农智高的著名历史故事，有明朝广德公主留下的“无尾螺”、“一瑶黄金”的藏宝故事。目前当地还有“二月二”、“三月三”、“四月八“等民谷活动。凤凰谷是一个融山、水、石、溪、瀑及珍惜植物、风土人情、农家田园为一体的生态特色旅游胜地。"}}, {"title": "嘉和城景区", "address": "南宁市兴宁区昆仑大道995号嘉和城", "image": "", "rank": 43, "time": 2, "location": {"lat": 22.915002229289094, "lng": 108.45733627594053}, "feature": {"sight_features": "", "sight_content": ""}}, {"title": "千年苏铁园", "address": "南宁市青秀区凤岭南路6-6号青秀山风景区内", "image": "", "rank": 44, "time": 1.0, "location": {"lat": 22.80306163897871, "lng": 108.41136513395702}, "feature": {"sight_features": "", "sight_content": ""}}, {"title": "加勒比水世界", "address": "南宁市西乡塘区大学西路3号", "image": "", "rank": 45, "time": 3.0, "location": {"lat": 22.843221835321373, "lng": 108.27604650569151}, "feature": {"sight_features": "", "sight_content": ""}}, {"title": "广西民族大学", "address": "南宁市西乡塘区大学东路188号", "image": "", "rank": 46, "time": 1.5, "location": {"lat": 22.844751173480027, "lng": 108.24240071267396}, "feature": {"sight_features": "", "sight_content": ""}}, {"title": "南宁剧场", "address": "南宁市星光大道4号", "image": "", "rank": 47, "time": 2, "location": {"lat": 22.804598847766243, "lng": 108.3185386999785}, "feature": {"sight_features": "", "sight_content": ""}}, {"title": "广西医科大学", "address": "南宁市青秀区双拥路22号", "image": "", "rank": 48, "time": 1.5, "location": {"lat": 22.804909972498155, "lng": 108.35891507487479}, "feature": {"sight_features": "", "sight_content": ""}}, {"title": "昆仑关", "address": "南宁市宾阳县昆仑镇昆仑关景区", "image": "", "rank": 49, "time": 2, "location": {"lat": 23.118812795143196, "lng": 108.66084254908874}, "feature": {"sight_features": "", "sight_content": ""}}, {"title": "新秀公园", "address": "南宁市西乡塘区明新阳路288-58号", "image": "", "rank": 50, "time": 2, "location": {"lat": 22.823916892961638, "lng": 108.29494208990107}, "feature": {"sight_features": "", "sight_content": ""}}, {"title": "乡村大世界", "address": "南宁市兴宁区昆仑大道（原南梧大道）三塘镇蒙村", "image": "", "rank": 51, "time": 2, "location": {"lat": 22.877547994403855, "lng": 108.41235922847811}, "feature": {"sight_features": "", "sight_content": ""}}, {"title": "南宁万达乐园", "address": "南宁市五象新区良堤路6号南宁万达茂1号门", "image": "", "rank": 52, "time": 7.5, "location": {"lat": 22.778232060068888, "lng": 108.43846601137005}, "feature": {"sight_features": "特色1 具备桂文化特色的室内游乐园 特色2 将游乐设备与当地文化、山水元素完美结合。 特色3 设置2大特色主题游乐区：欢庆小寨、青秀山水 特色4 实现全天候、全室内、全龄段、全家庭的欢乐世界", "sight_content": "南宁万达乐园是以广西民族文化为主题的全天候室内乐园，坐落于五象新区南宁万达茂，于2017年6月17日盛大揭幕。\n乐园精选国内外深受欢迎的游乐项目，将游乐设备与当地文化、山水元素完美结合，设置2大特色主题游乐区：欢庆小寨、青秀山水，缔造16项娱乐设施。\n涵盖四个“全国首创型项目”：邕江险渡、凤鸟历险、百鸟剧场和绣球飞舞，实现全天候、全室内、全龄段、全家庭的欢乐世界。\n\n\n【30元园内项目】\n游乐设备名称    实际对应设备    价格\n邕江险渡        峡谷漂流       30元（此设备每张票最多只能刷2次）\n凤鸟历险        速降过山车      30元（此设备每张票最多只能刷2次）\n【20元园内项目】\n游乐设备名称    实际对应设备    价格\n鼓楼穿梭        自由落体       20元\n铜鼓飞旋        翻滚音乐船      20元\n帅美游南宁       脱口秀        20元\n\n奇幻北海        绘画互动       20元\n吉象如意        旋转飞象       20元\n【15元园内项目】\n游乐设备名称    实际对应设备      价格\n龙舟竞渡       海盗船         15元\n锦羽缤纷       跳伞塔         15元\n盘王伞舞       逍遥塔         15元\n百鸟剧场       动感影院         15元\n斗牛大赛       碰碰车          15元\n百鸟欢歌       旋转木马         15元\n朱瑾花开       音乐喷泉         15元\n\n网络票自助取票处"}}, {"title": "李宁体育园", "address": "南宁市青秀区凤岭南路13号", "image": "", "rank": 53, "time": 2, "location": {"lat": 22.80547716282666, "lng": 108.41798135705287}, "feature": {"sight_features": "", "sight_content": ""}}, {"title": "滨湖广场", "address": "南宁市青秀区民族大道双拥路", "image": "", "rank": 54, "time": 0.4, "location": {"lat": 22.819357105455286, "lng": 108.37605229791362}, "feature": {"sight_features": "", "sight_content": ""}}, {"title": "名树博览园", "address": "南宁市青秀区南湖公园（近双拥路）", "image": "", "rank": 55, "time": 1.5, "location": {"lat": 22.817085583018837, "lng": 108.36444739625452}, "feature": {"sight_features": "", "sight_content": ""}}, {"title": "邓颖超纪念馆", "address": "南宁市兴宁区朝阳路3号", "image": "", "rank": 56, "time": 1.5, "location": {"lat": 22.81949431594907, "lng": 108.32826801608934}, "feature": {"sight_features": "", "sight_content": ""}}, {"title": "南宁国际民歌艺术节", "address": "南宁市五象大道669号广西体育中心", "image": "", "rank": 57, "time": null, "location": {"lat": 22.766398747293792, "lng": 108.40172562054967}, "feature": {"sight_features": "", "sight_content": ""}}, {"title": "桃花岛", "address": "南宁市青秀区凤岭南路6-6号青秀山景区内", "image": "", "rank": 58, "time": 2, "location": {"lat": 22.80306163897871, "lng": 108.41136513395702}, "feature": {"sight_features": "", "sight_content": ""}}, {"title": "五象湖公园", "address": "南宁市良庆区大明路", "image": "", "rank": 59, "time": 2.5, "location": {"lat": 22.749347603135295, "lng": 108.3340552729795}, "feature": {"sight_features": "", "sight_content": ""}}, {"title": "龙门水都", "address": "南宁市西乡塘区振兴路那秧坡附近", "image": "", "rank": 60, "time": 2, "location": {"lat": 22.884296052160895, "lng": 108.27829043153262}, "feature": {"sight_features": "特色1 独具匠心地秘制各种药浴汤池", "sight_content": "温馨提示\n泡汤方式：男女混浴\n洗浴设施：冲浴\n必备用品：需自备泳衣、泳帽\n综合设施：含露天温泉\n免费提供：免费提供储物柜、浴巾、拖鞋\n不宜人群：皮肤过敏、孕妇、手术过后、高血压、心脏病患者、女性生理期不宜泡汤\n其他：\n1、温泉前台收取手牌押金100元/位（金额仅供参考，具体押金金额以景区现场通知为准）。\n2、可凭房卡温泉一次，酒店提供浴袍，可穿浴袍进入温泉区域（一人一房卡一次）\n3、酒店离温泉较远，有接驳车接送（可使用酒店赠送车票）\n\n\n实用信息：\n特色泡池：山泉药浴、牛奶浴、鲜花浴、瑶浴等\n餐饮信息：景区内有提供餐饮(付费)；\n特色项目：水上乐园\n娱乐设施：玻璃桥(付费)、碧海龙宫(付费)、玻璃滑道(付费)、高空滑索(付费)等项目；\n安全提示：不宜长时间浸泡，避免空腹饭后、酒后泡温泉。\n\n\n龙门水都\n位于南宁市西北，高新区外环高速旁。这里风光秀美，四季树木常青，终年花香四溢，群山环抱，森林密布，沟涧纵横，山泉潺潺不息，负氧离子达到了每立方厘米空气中有三万到六万个，是南宁市目前规模大、质量高的环保低碳大型生态观光产业。景点设有八桂状元林、药王谷、风雨长廊、桂学园、九龙献瑞、游船观光、山洞客房、水上雅苑、龙门客栈等项目；以及配备会议活动设施和专业体贴的一站式会议管家服务的会议中心，此外还有纯正温泉、SPA水疗、儿童戏水、休闲泳池、娱乐中心等康体娱乐设施，集娱乐休闲、历史文化、自然风光、商务会议、健身活动、科普教育、特色餐饮于一体的大型旅游度假圣地。\n鲤鱼湾温泉\n鲤鱼湾温泉，城市转角的一抹绿韵，精心雕琢后，处处透出贵族的气息。来自地下深处的温泉，是大自然赐予的珍贵资源，山水之间，轻盈松弛的心境不由得让人浮想联翩。在这里，你会想到欧美风情的梦幻庄园，想到陶渊明笔下的世外桃源，想到童年梦中的游乐园。当你爱上这里，你会发现时间是可以“浪费”在，美好事物上面。\n经国家地矿部门检测，鲤鱼湾温泉富含纳、锶、锂、溴、碘、硒、锌等50 多种有益于人体的微量元素和化学成分，泉水晶莹剔透，滑爽如抚锦缎。\n鲤鱼湾温泉建筑非常独特，下面还有两层，主要设有大型的更衣室和储物柜，还有VIP专区，我们的储物柜数量有一千多个，鲤鱼湾温泉共有10个温泉岛，56个泡池，可同时容纳2000人。\n龙门水都水上乐园挑选目前国际流行的水上娱乐项目，引进国外先进技术和设备，有高速滑道、组合滑道、儿童戏水池、按摩池等。\n\n今后大家不用去张家界、在家门口也可体验惊险刺激的玻璃桥了，龙门水都高空玻璃吊桥全桥总长288米，距离地面高度约92米，游玩约20分钟，是目前广西较长的玻璃吊桥。\n由国家知名甲级设计院负责设计，并由有丰富经验的索桥工程公司实施建造施工，试想一下，站在广西最长玻璃吊桥，凌空百米，明显的上下浮动感，脚下的美景一览无余，会是一种怎样的体验？"}}]}