{"cityName": "南通", "days": "", "cityImage": "", "spots": [{"title": "南通水上乐园", "address": "南通市港闸区北大街1号", "image": "", "rank": 1, "time": 7.5, "location": {"lat": 32.045260832089525, "lng": 120.86584840945383}, "feature": {"sight_features": "特色1 恒温水上乐园，一年四季畅游其中。", "sight_content": "南通水上乐园坐落于中国历史文化名城江苏省南通市港闸区，南通探险王国邻侧，是华强集团继探险王国之后又一华丽大作！南通水上乐园是目前世界上项目最齐全、环境最宜人的大型室内的恒温恒湿水上游乐公园，单体投资5亿元，采用先进的计算机自动控制技术保持四季恒温恒湿，采用世界先进的紫外线杀菌处理系统，时刻保证水质清澈。南通水上乐园以“动感、奇妙、梦幻”三重游乐个性为核心，将主题景观与水上游玩项目巧妙融合，让你体验最炫的亲水激情。\n南通水上乐园包括全家总动员、飞天双龙、太空飞毯、熊出没水寨、彩虹滑道、翻江倒海、自由落体等刺激的水上游乐及景观项目40余种，无论是酷暑还是严寒均可畅游其中。\n\n全家总动员（合家欢泛伐戏水）：\n一家人乘坐巨大的浮圈，一同经历三段跌宕下滑的惊险过程。让你领略360度的水上高空旋转特技，与家人共同体验无尽的天伦之乐！\n太空飞毯（三人巨碗滑道组合）：\n穿越在水晶通道中，俯冲来到一个无法比拟的巨碗之中。仰望着蓝天白云时，突然发现巨碗中出现一个巨大的黑洞将你们猛然吸入，突如其来的变化让人措手不及。尚未平息心中的激动已经成功穿越黑洞回到现实中来...\n熊出没水寨（水寨）：\n新潮个性的水寨，尽情享受喷泉、冲淋的突然来袭，如果你的小心脏受不了大滑道的疯狂，那水寨里滑道的小清新，将给你无与伦比的玩水快感！熊出没水寨，让你在奇异的水域迷城里体验一把四季如夏的清凉畅爽！\n彩虹滑道（3条滑道疾驰竞赛）：\n滑道疾驰竞赛是一条彩色滑道，专为爱挑战的年轻人而准备。双手扳着滑板提手使整个身体趴在滑板上，在滑道上转上几圈后猛地向下俯冲，感受非一般的速度与激情，让你尽情享受水上竞赛所带来的快乐体验！\n翻江倒海（大水环组合）：\n从高台瞬间跌落，依靠重力惯性冲入立面环状水环滑道，再落入水池中，享受水浪拍打的刺激与快速穿梭滑道的快感。\n爱琴湾（造浪池）：\n犹如置身于波浪汹涌的浪潮中，倍觉回归自然的轻松惬意，享受在大海中嬉水的自由与欢乐。随海浪拍击节奏轻轻呼吸，弹奏与自然的和谐之曲。\n一飞冲天（家庭式大滑板）：\n外形神似眼镜蛇的急速飞驰，给你极其震撼的视觉冲击。六人乘坐木筏，顺着蛇形轨道极速下滑，环形交错，带来高刺激性、高娱乐性、高速度的三重水上体验！\n\n自由落体（大直道）：\n沿着垂直的滑道急速下滑，瞬间穿梭滑道沉入谷底，让你来不及心跳，来不及反应，感受狂热冲刺、自由滑落的尖峰时刻！\n龙卷风（全室外滑道）\n南通水上乐园的全室外水滑道，借着地心引力从高点，再经过曲形管道，冲到滑道底部，享受水上飞驰般的欢快感，一路激起水花片片，肯定能让你乐而忘返。\n古树探险（室内儿童滑道组合）：\n水上乐园不仅仅是成年人的专属天地，古树探险给孩子们提供了无与伦比的欢乐小天堂，针对儿童设计的玩水项目，快拿起手枪，和你的小伙伴们一较高下吧！"}}, {"title": "狼山风景区", "address": "南通市静海商贸街西侧", "image": "", "rank": 2, "time": 2.0, "location": {"lat": 31.957531772404494, "lng": 120.89897735072934}, "feature": {"sight_features": "特色1 位列中国佛教“八小名山”之首 特色2 天主教十二大朝圣地之一。 特色3 江南福地，灵秀狼山。", "sight_content": "南通狼山海拔106.94 米，面积18公顷，是由黄海入长江的一座山，以其完美的山水组合而著称。相传狼山曾有白狼居其上，又传因山形似狼而得名。自唐总章二年（公元669年）兴建寺庙禅院以来，经历历代陆续建缮，南通狼山形成了法乳堂、葵竹山房、碧云半天阁、萃景楼、大观台、魁星楼、支云塔等几十处名胜古迹和美丽的风景建筑群。狼山建筑颇具特色，依照“龙伏狼”布局构建，全部建筑为跃动的“龙”形身架，其“头下尾上，而当香客、游人涌动于弯曲山道时，这条龙便活龙活现起来。\n\n南通狼山风景名胜区是江苏省六大风景名胜区之一、国家AAAA级风景旅游区。狼山是全国佛教八小名山之一，为西方三圣之一的大势至菩萨道场，香火极旺，历代不衰。狼山海拔106．94 米，是由黄海入长江的座山， 以其完美的山水组合而著称。相传狼山曾有白狼居其上，又传因山形似狼而得名。狼山景区最吸引人的特色是佛教文化，狼山山包寺，寺包山，山是一座寺，寺是一座山。\n南通狼山山顶广教寺始建于唐总章二年（公元669年），距今已经有了1341年的历史。广教寺因供奉西方三圣之一的大势至菩萨而闻名，而更为深入民心的是还供奉着东南亚地区穿龙袍的菩萨——大圣菩萨。因为民间传说大圣菩萨是观音菩萨的化身，慈悲为怀，有求必应，而且是先照远后照近，保佑外地客人可以心想事成，因而南通狼山又被誉为最灵验的名山之一。\n\n秀丽的狼山自古便人文荟萃，大文学家王安石游狼山后，发出“遨游半是江湖里，始觉今朝眼界开”的赞叹。狼山北麓以山为屏构建北麓园，内有为纪念清末状元，中国近代实业家、政治家、教育家张謇先生所建的“謇园”；为我国元代书法家赵孟頫和我国“仿真绣” 创始人沈寿所建的“赵绘沈绣之楼”等。狼山山道沿路有许多历史名人的墓葬。如号称“初唐四杰”之一的骆宾王墓、南宋民族英雄文天祥、金应将军墓、滦州起义领袖、李大钊的老师白雅雨烈士墓等等。这些仁人义士的墓葬为狼山增添了几许风流和忠烈之气。\n作为南通狼山的地方茶，“狼山春晓”军山茶生长在绿树成荫的狼山风景名胜区内，茶树品种优良，茶叶制作精细，属于典型的炒青绿茶，具有独特的色、香、味，品赏价值较高。多年来，“狼山春晓”军山茶一直受到市内外茶客的追捧。"}}, {"title": "濠河风景名胜区", "address": "南通市崇川区濠北路508号", "image": "", "rank": 3, "time": 3.0, "location": {"lat": 32.03072706465411, "lng": 120.86753275474268}, "feature": {"sight_features": "特色1 漫步河畔赏美景，或参观两岸众多名胜景点。", "sight_content": "濠河环绕南通老城区，形如葫芦，宛如珠链，被誉为南通城的“翡翠项链”!城拥水，水抱城，城水相依形成濠河独特的风景线，城也因河而兴，河缘城而魅 。濠河水清如镜，自然风光优美，拥有江鸥、野鸭、鱼鹰等自然生态群落。\n而夜幕下的濠河也是更加迷离梦幻。从与濠河上的怡桥紧紧相连“怡园”旅游码头上船，夜色中，波光树影，摇曳生姿。坐在画舫中沿着固定的路线，每一次确会有不一样的心情。静静地看四周灯影幻融在幽幽的河水中，默默地听讲解员讲述濠河的往事今生。欣赏着迷彩的灯影在水中涟漪里荡出的图案，同时不忘按动手中相机的快门。\n濠河十景：\n别业双辉\n当年张謇兄弟心怀“实业救国、教育兴国”的宏伟理想，举家返乡，于濠河南北两岸建立家园，建成了濠南别业和城南别业。两座别业建筑风格各异，城南别业成“H”型布局；濠南别业采用“山”字形布局并参照了慈禧行宫畅观楼的图样改良设计。两座别业隔河相望，恰如一兄一弟，相互照应。濠南别业和城南别业是南通现存保护最完好的大型别墅之一。\n五亭邀月\n濠西书苑五亭，似五位妙龄少女，静静立于濠河中央。明月悬空，五亭昂首相邀，月光倒映水中。清风徐来，天上月与水中月齐邀五亭共舞。而亭中人独享泛舟仙境的妙感。\n北阁波光\n北极阁建于宋政和三年（1113年），是古通州城北城门遗址，也是南通古城至今留存的遗迹。登上北极阁，面朝西北濠河，此处为濠河较宽阔之处。因濠河水通江海，河水常年流动，因而北濠河面即便在无风之日，也可见波光粼粼，登上北极阁，居高而下，俯视北濠河，在阳光的照耀下，便如万片金鳞闪动。\n文峰晨霭、仙桥绿堤、绿苑探幽、启秀风荷。\n\n天宁闻钟\n晨光中，千年古寺慢慢苏醒，钟声响起，浑厚悠扬。天宁寺是南通最古老的建筑之一，始建于唐代，初名报恩光孝禅寺，寺内光孝塔，有“未有城，先有塔，前人就塔建城”之说。宋代，原天宁寺迁并于此，改名为天宁报恩光孝禅寺。明代改名为天宁寺。天宁寺是一座具有典型宋代艺术特征的建筑，有“一洲伟观”之称。\n五园揽翠\n濠河曲折处，沿河两岸，分东、西、南、北、中建有五园，风格、功能各异。五园之间以水相隔而又以五堤四桥相连。五园内树木繁盛，花木品种繁多。张謇亲自创作的歌词中描述五园为“楼台亭树中央高，林荫水色上下交。”\n怡园泊舟\n“船荡烟波摇万象，荫垂柳岸拂千丝”。怡园紧靠码头，游船经常泊于怡园附近，轻风吹过，泊在岸边的游船随波起伏，园边种植的杨柳随风摆动，轻抚游船，让人顿生怜爱之情。"}}, {"title": "啬园", "address": "南通市崇川区狼山街道南郊路150号", "image": "", "rank": 4, "time": 1.5, "location": {"lat": 31.97288401792028, "lng": 120.91356192907395}, "feature": {"sight_features": "特色1 以田园野趣为特色的植物观赏园。 特色2 啬园建于1924年，为全国重点文物保护单位、\"江苏省环境教育基地\"、\"南通市爱国主义教育基地\"。 特色3 园内古木参天，有珙桐、台湾杉等珍稀树种200多种，总数万余株，为南通规模最大的植物观赏园之一。", "sight_content": "啬园建于1924年，为全国重点文物保护单位、\"江苏省环境教育基地\"、\"南通市爱国主义教育基地\"。清末状元、近代民族工业的先驱、实业家、教育家张謇先生（1853-1926）长眠于此。这里环境雅静、景色宜人。园内古木参天，有珙桐、台湾杉等珍稀树种200多种，总数万余株，为南通规模最大的植物观赏园之一，是空气质量最好、负离子含量最高的生态园林之一，素有\"城市氧吧\"之称。\n园内张謇墓、张謇纪念馆、鱼乐廊、映山楼、松鹤轩、花溪等游览景点及野外烧烤、环溪观鱼、勇者之路、磨坊、百花园、CS真人野战等参与性游览项目，把自然与历史、传统与现代融为一体。游人在此可体验到远离城市喧嚣的生态环境和回归大自然的情趣，形成了\"名人、鸟语、花香、鱼游、绿色休闲\"的旅游特色。\n啬园是南通规模较大的珍贵天然植物园，园内各类树木59科140余种，万余株，其中许多珍稀树种是墓园建造时由张謇的国外朋友和亲友所赠，如日本柳杉、璎珞柏、台湾杉、大龙柏、赤松、枸骨等。墓道两旁枝干遒劲的大龙柏与南京中山陵的龙柏为同一时期栽种的树种。\n邀上您的朋友、家人，相聚啬园，这里为您准备了炊具、餐具等烧烤器具，柴灶、煤气灶、烤炉随你挑，自己动手制作的\"自助餐\"，真是别有情趣，同时也给独生子女一个展露身手的锻炼机会，野外聚餐，烧烤等您来享受。"}}, {"title": "碧海银沙（恒大海上威尼斯酒店）", "address": "南通市启东市恒大路1号恒大海上威尼斯碧海银沙景区", "image": "", "rank": 5, "time": null, "location": {"lat": 31.72315339670218, "lng": 121.94628212408675}, "feature": {"sight_features": "", "sight_content": ""}}, {"title": "南通海底世界", "address": "南通市崇川区桃园路7号体育会展中心一层", "image": "", "rank": 6, "time": 3.5, "location": {"lat": 31.970883808593214, "lng": 120.90463187399926}, "feature": {"sight_features": "特色1 领略海洋的神奇，与海底生物亲密接触。 特色2 有千奇百怪的海底生物，和海龟嬉戏，看美人鱼表演。", "sight_content": "南通海底世界是南通市展示面积最大的海洋水族馆之一，是第四都市体验型海洋主题海洋馆。馆内拥有海洋生物1000余种，10000余尾，分为热带雨林馆、珊瑚海生物馆、海兽表演馆、深海隧道馆、极地馆、海洋欢乐剧场及科普体验区七大场馆。在这里您可以领略到海洋的神奇，观赏到千奇百怪的海底生物，您也可以鲨鱼亲密接触，也可以海龟嬉戏，与海豹玩耍，奇特海洋，乐趣无处不在，这是一个您只需联想就会激动的地方，南通海底世界天天精彩，场场狂欢！\n\n水母宫\n梦幻水母宫集中展示几十种上千只水母，大多从国外进口，一部分由海底世界自己培养繁殖。展示品种主要有海月水母、丝带水母、倒立水母、澳洲斑点水母、太平洋海刺、彩色水母、海蛰等。这些晶莹剔透的生灵，将用它们如丝如锦的腕带，牵引您步入蔚蓝色的梦幻世界。\n热带雨林馆\n这里的森林树冠高耸、遮天蔽日、葛藤缠绕、郁郁葱葱，置身其中犹如开始了一次原始雨林的探险之旅。在这里生活着世界上攻击性较强的和体形较大的热带淡水鱼，相信您一定会大开眼界的！\n1、瀑布景观区：飞流的瀑布一泻而下，潺潺水声萦绕耳畔，您将在这里欣赏到世界第九大湖——马拉维湖特有的“慈鲷鱼”。\n2、娃娃鱼专区：国家二级保护动物，我国的特有物种，具有及其重要的学术价值。\n3、精品淡水鱼类展示区：你见过肚皮朝上的鱼吗？见过像树叶一样的鱼吗？见过通体透明的鱼吗？你见过会射水的鱼吗？这里是异形鱼的舞台，它们都分别有着与众不同的身体和功能，相信在此一定会让你大开眼界的！\n4、鳄鱼潭：在这里您将目睹到号称“水中霸王”的尼罗鳄。这是一种可以捕食羚羊、河马、水牛等动物的大型性脊椎型动物。其凶残程度是让您难以想象的呢！\n5、亚马逊干流景观：有“食人鱼”之称的银鲳，体形怪异的匙吻鲟，雍容华贵的地图鱼，古老的巨古舌鱼，气宇轩昂的银龙……它们究竟是怎么生活的呢？又有什么与众不同之处呢？期待您的探索与发现。\n珊瑚海生物馆+极地馆\n馆内分为：精品海洋生物展区，大堡礁景观，活体珊瑚展示区，椰海风情景观。这里特有的夏威夷迷人风光一定会让您如痴如醉，留恋往返的！\n\n海兽表演馆+儿童乐园\n\n海兽表演馆：幽默滑稽的海洋明星——海狮先生，将在此隆重登场，可容纳300人的观看台让您每天都能欣赏到无与伦比的精彩表演。\n深海隧道馆：分180°、90°两种海底隧道，总长度约50米。展示近百种大型深海海洋生物。大型水下仿真造景，为您展现真实的深海世界。鲨鱼档案：护士鲨、豹纹鲨、柠檬鲨、白鳍鲨、黑鳍鲨。"}}, {"title": "全国3D魔幻艺术巡展启东站", "address": "南通市启东市明天商务广场（人民路新岛咖啡西侧）", "image": "", "rank": 7, "time": 2, "location": {"lat": 31.81926804569563, "lng": 121.65759595415979}, "feature": {"sight_features": "", "sight_content": ""}}, {"title": "南通探险王国", "address": "南通市港闸区北大街1号", "image": "", "rank": 8, "time": 7.5, "location": {"lat": 32.045260832089525, "lng": 120.86584840945383}, "feature": {"sight_features": "特色1 综合性主题公园，游独特恒温水世界。", "sight_content": "南通探险王国坐落于沿海城市江苏省南通市港闸区，占地面积约27万平方米，是由深圳华强集团投资20亿精心打造的大型高科技第四代主题公园。公园以科幻探险和惊险体验为大特色，采用当今先进的理念和技术精心打造，可与西方先进的主题公园媲美。\n\n南通探险王国定位为“文化+科技+游乐+商业”四位一体的城市版主题乐园，建设成后将成为“覆盖长三角、国内较领先”的华强方特第四代高科技主题乐园。\n南通探险王国由史前探险、3D、4D巨幕、海螺湾、嘟比历险、室外水上游乐项目、童梦天地，恒温水世界、摩天轮、大摆锤、旋转木马、飓风飞椅、高空飞翔、毛勒立环、波浪翻滚、太空飞梭、海盗船、空中飞舞、转转杯等40余个单体游乐项目组成，可以满足不同人群的游玩需求。\n南通探险王国区别于国内其他游乐场的特点是，正在建造国内一大型室内水上恒温项目——水世界。水世界建筑面积2万余平米，由加拿大白水公司设计和提供设备。主要包括水上过山车、巨型水寨、漂流河、大型儿童水上游戏、大喇叭滑道状滑道、高速滑梯、水道管道过山车等丰富的游乐项目。\n恒温水世界单项投资5亿元，采用先进的计算机自动控制技术保持四季恒温。内部包含家庭式踏浪滑板、合家欢泛筏戏水、水上过山车、巨蟒滑道、三人巨碗滑道组合、三滑道疾驰竞赛、大水环组合、室外家庭管状滑道组合、三人泛阀、儿童滑道、造浪池、冲浪等刺激的水上游乐项目，无论酷暑严寒均可畅游其中。"}}, {"title": "南通洲际绿博园", "address": "南通市通州区先锋镇人民东路、通海路口向北300米", "image": "", "rank": 9, "time": 3.0, "location": {"lat": 32.02787700385524, "lng": 120.93391725525196}, "feature": {"sight_features": "特色1 梦幻花园。 特色2 集植物收集、展示、科普教育与生态休闲娱乐等功能于一体。 特色3 一步一景，韵味无穷，宛若世外桃源。", "sight_content": "南通绿博园占地390亩，已投入2.5亿人民币，由泰山石壁照、地球仪音乐喷泉、紫薇园、热带水果谷、热带名花雨林馆、“生命之舟”沙生植物园、花海梯田、木化石风情园、月亮湾戏水沙滩、塞外稀树草原、爱丁堡绿岛等主要景点组成而成，同时还有梅山、桂花林、樱花谷、荷花池、山顶花房等特色景观小品点缀其中。\n这些大大小小数十个主要景点，每一个都有自己特有的景观理念和园林风格。将植物世界的神秘梦幻珍奇美艳和背后知识的博大精深展现得淋漓尽致。\n在这里每天都有花开，每天都有果香，每天都有惊艳，一步一景，处处惊奇，韵味无穷，宛若来到世外桃源。目前景区已荣获“江苏省科普教育基地”的荣誉称号。\n南通绿博园是以全球珍奇植物收集展示为核心内容，以“爱与地球”为设计理念，通过主题化、现代化、专业化的设计手法。\n打造成集植物收集、展示、科普教育、自然保护、主题摄影、生态休闲娱乐等功能于一体的梦幻花园。"}}, {"title": "南通园艺博览园", "address": "南通市崇川区临港路18号", "image": "", "rank": 10, "time": 2.5, "location": {"lat": 31.955231708186396, "lng": 120.8976347999074}, "feature": {"sight_features": "", "sight_content": ""}}, {"title": "南通城隍庙", "address": "南通市崇川区濠东路199号", "image": "", "rank": 11, "time": 1.5, "location": {"lat": 32.03021738618742, "lng": 120.87642508098595}, "feature": {"sight_features": "", "sight_content": ""}}, {"title": "城市绿谷景区", "address": "南通市港闸区芦泾港芦泾路10号", "image": "", "rank": 12, "time": 3.0, "location": {"lat": 32.034436381524046, "lng": 120.79199123508518}, "feature": {"sight_features": "特色1 苏北最大的双式私家园林，植被丰富、水流清秀，还有一系列游乐项目。", "sight_content": "城市绿谷位于江苏南通城西北古港小镇芦泾港。始建于清朝末期，已有一百多年的历史，系近代南通著名实业家之一陈维庸所创，经其子陈葆初扩建，占地面积一度曾达30余公顷。花园取法英风格庄园式园林。是南通市乃至苏北最大的私人花园和别墅区之一，也是南通地区保存相对完整的，融中、西风格于一园的独特园林。园中既有西式复合住宅、车库及仆佣房，也有传统中式西院附房，再配以假山、荷花池等。游人徜徉其中，有时空交错更迭之美妙奇趣。可谓用心奇巧、构思非凡。\n“城市绿谷”旅游资源十分丰富、十分珍贵。园内珍奇异木2000多棵，品种有150种之多，树龄在100－120年的就达20多棵。6棵120年的龙柏、一对120年姐妹榉树高达8米多。1棵110年的香樟树要4人才能合围。这些名木古树，是全国乃至亚洲绝无仅有的。游人置身其中，恍如隔世。深深地吸一口气，心旷神怡，延年益寿。    园中真实展现了西式别墅、荷花池、荷香亭、郁香书院、温室花房、张謇与水利展馆等。园区有“绿谷思贤”、“洋楼映翠”、“双榉参天”、“雪松覆茵”、 “古柏奇姿”、“灵石天生”、“九龙腾云”、“书院通幽”等八大著名景点。\n“城市绿谷”是2009-2010年度南通的重点工程之一。她是南通人民宝贵的历史文化遗产。南通市政府投资3亿多元，对城市绿谷进行修复和重建。修建后的城市绿谷占地二十万平方米，园中景点包罗万象，其中灵石天生区、九龙柱广场真可谓神来之笔。灵石天生区以弘扬中华石文化为主题，围绕着书院设置了奇山异石区、碑林古道、篆刻阁和石雕苑；九龙柱广场的占地面积近3万平米，以绿谷生态流线为主题，形成大面积的广场铺地，半圆弧形铺地不断扩展，充分展现其开放性。九龙柱广场作为景区最大的广场之一，可举行各类大型以体育、文化、风情、节日为主题的活动，其中高达20.99米的九龙柱巧夺天工，蔚为壮观。\n“城市绿谷”开设了一系列现代游乐项目。模拟射击馆为世界一流的科技载体，如临其境的高清品质，不虚“梦幻家的游乐园”之名。以射击为特色的游戏项目有：模拟射击、三屏激光狩猎、模拟坦克、喷火神枪、移动靶射箭、模拟潜水艇、模拟飞行等；其他还包括模拟高尔夫、虚拟运动、壁球、自动飞镖机、沙狐球、气旋球、桌上足球等。模拟射击馆主打游击项目，演绎杀与伐的绝代"}}, {"title": "南通博物苑", "address": "南通市崇川区濠南路19号", "image": "", "rank": 13, "time": 3.0, "location": {"lat": 32.018592648965786, "lng": 120.87527785501915}, "feature": {"sight_features": "", "sight_content": ""}}, {"title": "苏通大桥", "address": "南通市通州区苏通大桥", "image": "", "rank": 14, "time": 1.0, "location": {"lat": 31.800935166113476, "lng": 121.00946897786343}, "feature": {"sight_features": "", "sight_content": ""}}, {"title": "南通滨江公园", "address": "南通市崇川区滨江公园路", "image": "", "rank": 15, "time": 3.0, "location": {"lat": 31.968722655093863, "lng": 120.87873604736804}, "feature": {"sight_features": "", "sight_content": ""}}, {"title": "中国珠算博物馆", "address": "南通市崇川区濠北路58号", "image": "", "rank": 16, "time": 1.5, "location": {"lat": 32.03041469966828, "lng": 120.86407788432757}, "feature": {"sight_features": "", "sight_content": ""}}, {"title": "军山", "address": "南通市崇川区狼山镇长江南路58号旭日山庄18号", "image": "", "rank": 17, "time": 1.5, "location": {"lat": 31.95852251226168, "lng": 120.90605493365594}, "feature": {"sight_features": "特色1 在世界最大的翡翠观音座像前礼佛祈福。", "sight_content": "军山相传曾为秦王屯兵之地，因形似伏象，又名象山。俯瞰军山，山水相依自然构成一幅八卦图。明代山西高僧法空驻锡军山，创建普陀禅院，狼山总兵题榜出门，著名书法家董其昌撰写了《军山普陀别院碑记》，认为于浙江普陀山相比“不减珞珈真境”。寺庙、宴堂曾多达百余处，为昔日东南佛门胜地。山上古迹有：燕真人洞、白云泉、四贤祠、包公祠、董其昌碑刻及中国历史上较早的民办气象台等。\n军山各主要景点\n承露台和观音净瓶：\n浙江普陀山是观音菩萨的道场。军山，正是观音菩萨在南通的道场。军山山顶上，在明代崇祯三年（公元1630年）建成了普陀别院，主要供奉观音菩萨、普贤菩萨和文殊菩萨，已有将近400年历史；2002年，毁坏多年的普陀别院得到重建，并请来了一尊世所罕见的翡翠观音座像作为镇山之宝。凡到军山的信众，大慈大悲的观音菩萨都会用杨柳枝蘸净瓶水洒向他们，表示热烈欢迎。\n观音净瓶，瓶高9.19米，这个吉祥的数字暗合观音菩萨的成道日，农历九月十九。观音净瓶于2002年农历九月十九落成，来纪念军山的开山祖师法空高僧。传说，法空大师曾用净瓶里的水洒向听他诵大悲咒的一条大蟒蛇，这条大蟒蛇从此皈依佛门成了正果。这个净瓶重10吨，全部用黄铜铸成。杨柳枝从净瓶口斜出，挂在瓶外，点点甘露从枝头上洒出。净瓶和柳枝是观音菩萨普济众生的法器，净瓶下面的莲花座重达2吨。\n\n其他主要景点：瀑布；大山门崖；采药路；憩台；望江台；浮生茶社；普陀别院；翡翠观音楼；军山气象台；象鼻岩；孔雀园；潇湘榭；\n山下的大块区域是景区是儿童乐园、烧烤区域，有专为小朋友们准备的儿童游乐区域，有卡丁车、碰碰车、射击、套圈各种娱乐活动。"}}, {"title": "黄泥山", "address": "南通市崇川区狼山风景区内", "image": "", "rank": 18, "time": 1.0, "location": {"lat": 31.95440123565102, "lng": 120.89472823541286}, "feature": {"sight_features": "", "sight_content": ""}}, {"title": "文峰公园", "address": "南通市崇川区文峰路(三元桥东)", "image": "", "rank": 19, "time": 1.5, "location": {"lat": 32.01697004778958, "lng": 120.8832437426205}, "feature": {"sight_features": "", "sight_content": ""}}, {"title": "南通风筝博物馆", "address": "南通市崇川区北濠桥路北濠桥东村静业庵内", "image": "", "rank": 20, "time": 1.0, "location": {"lat": 32.03576101879187, "lng": 120.87172820079648}, "feature": {"sight_features": "", "sight_content": ""}}, {"title": "南通纺织博物馆", "address": "南通市崇川区文峰路4号", "image": "", "rank": 21, "time": 1.0, "location": {"lat": 32.01604625986745, "lng": 120.88344444024092}, "feature": {"sight_features": "", "sight_content": ""}}, {"title": "文峰塔", "address": "南通市崇川区文峰路2号", "image": "", "rank": 22, "time": 2.0, "location": {"lat": 32.01663049290872, "lng": 120.88153568116788}, "feature": {"sight_features": "", "sight_content": ""}}, {"title": "水绘园", "address": "南通市如皋市碧霞路299号", "image": "", "rank": 23, "time": 2.5, "location": {"lat": 32.40136507275452, "lng": 120.57782563455274}, "feature": {"sight_features": "特色1 不只是单纯的古典园林，还有游乐园、动物园等项目。", "sight_content": "水绘园，国家AAAA级旅游景区，是我国徽派园林的孤本代表，是我国众多的名园之中，一处出类拔萃的佼佼者，是江海平原上一颗璀璨的明珠。“绘者，会也。”园以水为贵、倒影为佳，既秀且雅；而其以园言志，以园为忆、并融诗、文、琴、棋、书、画、博古，曲艺等于一园的特色，又足以说明它原来是一座饶有书卷气的“文人园”。江南才子冒辟疆与秦淮佳丽董小婉栖隐过，因此颇为出名。\n在我国众多的名园之中，有一个出类拔萃的佼佼者，那就是明末清初江南才子冒辟疆与秦淮佳丽董小宛栖隐过的如皋水绘园。水绘园是江海平原上一颗璀璨的明珠。是园以水为贵、倒影为佳，既秀且雅；而其以园言志，以园为忆、并融诗、文、琴、棋、书、画、博古，曲艺等于一园的特色，又足以说明它原来是一座饶有书卷气的“文人园”。\n中国第一情侣文化园——水绘园风景区位于中国旅游城市、我国长寿之乡——如皋境内，占地面积约30万平方米。由重点文物保护单位水绘园、水明楼古建筑群、中国如派盆景园（古澹园）、匿峰庐、逸园、中国如皋长寿博物馆、灵威观、动物园、游乐园等景区景点组成。"}}, {"title": "剑山", "address": "南通市崇川区剑山路一号", "image": "", "rank": 24, "time": 2.5, "location": {"lat": 31.951417091333454, "lng": 120.9012508487886}, "feature": {"sight_features": "", "sight_content": ""}}, {"title": "红十四军纪念馆", "address": "南通市如皋市福寿东路156号", "image": "", "rank": 25, "time": 2.0, "location": {"lat": 32.38995354470874, "lng": 120.59792033984468}, "feature": {"sight_features": "", "sight_content": ""}}, {"title": "黄金海滩", "address": "南通市启东市圆陀角旅游度假区东部", "image": "", "rank": 26, "time": 4.0, "location": {"lat": 31.81423284964318, "lng": 121.66347374677267}, "feature": {"sight_features": "特色1 黄金海滩有滨海沙滩、湿地，还有踩文蛤、沙滩摩托车、快艇等互动娱乐项目。", "sight_content": "黄金海滩风景区位于启东市圆陀角旅游度假区东侧，总面积2700余亩。这里东临黄海，南濒长江，拥有极其丰富的野生动植物资源和良好的生态环境，2017年被评为江苏省省级湿地公园。景区位于江苏省最东端，是长三角地区最早迎接日出的地方，吸引着众多游客到此海上观日出。每逢旭日东升，霞光四射，瑰丽雄浑，整个海滩犹如铺满金沙，“黄金海滩”由此得名。\n江海交融，湿地广袤，水美物丰，黄金海滩风景区旖旎多姿的原生态景观、丰茂多彩的动植物，构成了中国东部沿海地区一道独特的风景线。集生态湿地保护、科普教育、休闲度假于一身，黄金海滩风景区内建有鲸鱼馆、新能源科普展示馆、湿地动植物教育基地、沙滩越野基地、气垫登陆艇基地等旅游设施，可以开展文蛤采摘、生态垂钓、水上漂游、沙滩越野、科普教育等众多旅游活动。无论青少年科普教育、团队户外拓展，还是全家度假游乐、情侣浪漫表白，这里都是最适合您且荡漾着最鲜活气息的滨海度假胜地。"}}, {"title": "沈寿艺术馆", "address": "南通市崇川区濠阳路23号", "image": "", "rank": 27, "time": 1.0, "location": {"lat": 32.018808795373545, "lng": 120.87035070409357}, "feature": {"sight_features": "", "sight_content": ""}}, {"title": "定慧禅寺", "address": "南通市如皋市如城镇曙光路17号", "image": "", "rank": 28, "time": 1.5, "location": {"lat": 32.39572583902633, "lng": 120.57877738924057}, "feature": {"sight_features": "", "sight_content": ""}}, {"title": "苏中七战七捷纪念馆", "address": "江苏省海安县海安镇长江中路68号", "image": "", "rank": 29, "time": 1.0, "location": {"lat": 32.54144138657369, "lng": 120.48131752954653}, "feature": {"sight_features": "", "sight_content": ""}}, {"title": "法宝禅寺", "address": "南通市如皋市白蒲镇", "image": "", "rank": 30, "time": 1.0, "location": {"lat": 32.25896965171511, "lng": 120.77173268246146}, "feature": {"sight_features": "", "sight_content": ""}}, {"title": "南通城市博物馆", "address": "南通市崇川区环城南路1号", "image": "", "rank": 31, "time": 1.0, "location": {"lat": 32.019963262434885, "lng": 120.87498359169344}, "feature": {"sight_features": "", "sight_content": ""}}, {"title": "江淮文化园", "address": "南通市海安县凤山北路33号", "image": "", "rank": 32, "time": 2.5, "location": {"lat": 32.52913352083013, "lng": 120.43608921523844}, "feature": {"sight_features": "特色1 享受历史文明传承，欣赏现代艺术成果。", "sight_content": "江淮文化园景区是由海安县人民政府和海安县苏中植物园开发有限公司按国家5A级旅游景区标准共同投资打造的以江淮历史文化为底蕴的人文景观项目。该项目计划投资5亿元，花十年时间全部建成，到目前为止已建设九年时间，投入4亿元，一期工程基本建成，并对外开放。\n海安是长江文化和淮河文化相交融的地方，海安青墩遗址的发现，轰动考古界，把海安的历史向前推移3000年，由此，青墩文化被公认为中华文化的重要组成部分——江淮文化的起源。悠久的历史古老的文明，让江淮大地上的海安更具风采，江淮文化园景区也就在海安应运而生。\n江淮文化园景区占地260多亩，中国古典园林景观，三万平米湖面环绕，以江淮历史文化为底蕴的人文景观。整个园区由四大景区组成，即白龙故里景区、先贤景区、凤山书院景区和中国名人艺术馆群景区。白龙故里景区包括数万平米的白龙湖，数十座亭、台、楼、阁、榭、轩、廊、桥，以及几百种奇花异草、古树、奇石，特别是国家一级珍稀保护树种——红豆杉，在我们景区已成功移植成林；先贤景区恢复的是海安古建筑，为与海安结缘的三位历史贤人文天祥、范仲淹、胡瑗（安定）而建，是纪念先贤，启发教育后人，发扬传承中华传统文化的地方；凤山书院景区亦是海安古景观的恢复，是历代先贤大儒、学者敦教化倡文明的重要场所。\n中国名人艺术馆群景区则由数座古式建筑和十一栋欧式建筑结合而成，作为国内外有影响的知名艺术家办培训、搞创作、办展览的基地，已有十多位艺术大家、名家走进了江淮文化园景区，并陆续布展、开馆。目前有六家艺术馆开馆，分别是侯康乙赏石艺术馆、刘万年艺术馆、吴向明国礼艺术馆、胡建雄书法艺术馆、王建梓艺术馆、罗杨书法艺术馆。"}}, {"title": "吕四风情区", "address": "南通市启东市吕四港镇", "image": "", "rank": 33, "time": 2, "location": {"lat": 32.0472252377395, "lng": 121.61775205523102}, "feature": {"sight_features": "", "sight_content": ""}}, {"title": "张謇文化旅游景区", "address": "南通市海门市常乐镇状元街", "image": "", "rank": 34, "time": 1.0, "location": {"lat": 31.945195740184847, "lng": 121.2590699909327}, "feature": {"sight_features": "", "sight_content": ""}}, {"title": "东洲公园", "address": "南通市海门市公园巷1号", "image": "", "rank": 35, "time": 2, "location": {"lat": 31.898393268422048, "lng": 121.18682107537619}, "feature": {"sight_features": "", "sight_content": ""}}, {"title": "真人CS基地", "address": "南通市崇川区长江南路滨江公园", "image": "", "rank": 36, "time": 2, "location": {"lat": 31.985598852959228, "lng": 120.870099117466}, "feature": {"sight_features": "", "sight_content": ""}}, {"title": "支云塔", "address": "江苏省南通市崇川区临港路", "image": "", "rank": 37, "time": 1.0, "location": {"lat": 31.977825387733304, "lng": 120.87233150277699}, "feature": {"sight_features": "", "sight_content": ""}}, {"title": "如东人民公园", "address": "南通市如东县日晖西路6号", "image": "", "rank": 38, "time": 2, "location": {"lat": 32.31409115444919, "lng": 121.18612229340134}, "feature": {"sight_features": "", "sight_content": ""}}, {"title": "天宁寺", "address": "南通市崇川区中学堂街11号", "image": "", "rank": 39, "time": 1.5, "location": {"lat": 32.0266240717269, "lng": 120.86959274893816}, "feature": {"sight_features": "", "sight_content": ""}}, {"title": "南通蓝印花布博物馆", "address": "江苏省南通市崇川区濠东绿苑81号", "image": "", "rank": 40, "time": 1.0, "location": {"lat": 32.02133731822529, "lng": 120.87881873549193}, "feature": {"sight_features": "", "sight_content": ""}}, {"title": "如东小洋口乡村俱乐部", "address": "江苏省如东县洋口镇跨港大桥西侧。", "image": "", "rank": 41, "time": 2, "location": {"lat": 32.53978279270181, "lng": 121.06396514964342}, "feature": {"sight_features": "", "sight_content": ""}}, {"title": "海上迪斯科休闲旅游区", "address": "南通市如东县洋口港经济开发区", "image": "", "rank": 42, "time": 2, "location": {"lat": 32.53200699836552, "lng": 121.43448656885124}, "feature": {"sight_features": "", "sight_content": ""}}, {"title": "海安县博物馆", "address": "南通市海安县宁海北路58-8号", "image": "", "rank": 43, "time": 1.0, "location": {"lat": 32.55324580889161, "lng": 120.46992158093167}, "feature": {"sight_features": "", "sight_content": ""}}, {"title": "南通民间艺术馆", "address": "江苏省南通市人民中路十字街八仙城二号区二楼", "image": "", "rank": 44, "time": 1.0, "location": {"lat": 32.021583424772935, "lng": 120.8741830020602}, "feature": {"sight_features": "", "sight_content": ""}}, {"title": "东升国际高尔夫俱乐部", "address": "南通市如东县掘港镇泰山路168号", "image": "", "rank": 45, "time": 2, "location": {"lat": 32.346725813634876, "lng": 121.1937032678713}, "feature": {"sight_features": "", "sight_content": ""}}, {"title": "王个簃艺术馆", "address": "江苏省南通市文峰路7号", "image": "", "rank": 46, "time": 1.0, "location": {"lat": 32.016691799877265, "lng": 120.88151856305808}, "feature": {"sight_features": "", "sight_content": ""}}, {"title": "江天生态园", "address": "南通市启东市汇泰镇江海南路与惠丰路交叉口", "image": "", "rank": 47, "time": 2, "location": {"lat": 31.77867080596784, "lng": 121.62011080877132}, "feature": {"sight_features": "", "sight_content": ""}}, {"title": "下一站北欧", "address": "南通市崇川区桃园路8号（中南百货向东50米国美电器负一楼）", "image": "", "rank": 48, "time": 2, "location": {"lat": 31.975024171258887, "lng": 120.9025670262591}, "feature": {"sight_features": "", "sight_content": ""}}, {"title": "猛犸象开心城堡", "address": "南通市崇川区南通园艺博览园内", "image": "", "rank": 49, "time": 2, "location": {"lat": 31.95971863876891, "lng": 120.88862800798282}, "feature": {"sight_features": "", "sight_content": ""}}, {"title": "奇幻3D魔幻艺术画展（南通馆）", "address": "南通市南大街33号工贸大厦五星电器四楼", "image": "", "rank": 50, "time": 2, "location": {"lat": 32.02000790800586, "lng": 120.87340587616691}, "feature": {"sight_features": "", "sight_content": ""}}, {"title": "3D错觉趣味馆（经典怀旧展）", "address": "南通市崇川区工农路与桃园路交汇处星光耀广场5号楼5楼", "image": "", "rank": 51, "time": 2, "location": {"lat": 31.97223003089052, "lng": 120.89558871327782}, "feature": {"sight_features": "特色1 参观者可自由发挥拍出创意照片，妙不可言", "sight_content": "南通3D错觉趣味馆 展览内容包括世界名画、立体魔幻、无疆界动物园、大冒险、搞笑主题等不同风格的3D立体巨画、错觉艺术装置、搞笑互动道具、体感游戏在内的近百余件作品，囊括历险，搞笑，错觉，亲子，爱情五大主题，画作可以多种拍摄角度，参观者可自由发挥拍出创意照片，妙不可言。"}}, {"title": "MC精品密室逃脱", "address": "南通市崇川区工农路19号", "image": "", "rank": 52, "time": 2, "location": {"lat": 32.00646862046737, "lng": 120.89084825449143}, "feature": {"sight_features": "", "sight_content": ""}}, {"title": "圆陀角风景区", "address": "南通市启东市林连路与海寅线交叉口东", "image": "", "rank": 53, "time": 1.0, "location": {"lat": 31.725705225080528, "lng": 121.88868106890482}, "feature": {"sight_features": "", "sight_content": ""}}, {"title": "大海陶艺馆", "address": "南通市崇川区崇川路83号中南谷负一层造物天地第三空间", "image": "", "rank": 54, "time": 2, "location": {"lat": 31.978455800362386, "lng": 120.90295128003423}, "feature": {"sight_features": "特色1 专业的陶艺师指导烧制。", "sight_content": "大海陶艺DIY项目始创于1999年，从陶泥、瓷泥材料到制作陶艺的设备，从专业的陶艺师资到陶瓷烧制服务一应俱全。\n我们的专业老师都会给你贴心、个性化的专业指导，让每一位没有接触过陶艺的朋友都能亲自制作出一件您喜欢的陶艺作品，我们还为您提供后续修坯、烧制等专业服务，给您留作永久的纪念。\n让您体验电动转盘旋转给您带来的独特感觉，从揉泥、定中心、拉坯、做器形，每一步都让您充满惊喜，是您智慧与灵感的完美演绎。"}}, {"title": "南通3D错觉魔像馆", "address": "南通市崇川区桃园路8号，南通中央公园负一楼", "image": "", "rank": 55, "time": 3.0, "location": {"lat": 31.977354608675206, "lng": 120.90338268586557}, "feature": {"sight_features": "", "sight_content": ""}}, {"title": "长江高尔夫俱乐部", "address": "江苏省南通市通州区五接镇开沙岛", "image": "", "rank": 56, "time": 2, "location": {"lat": 32.05455279899241, "lng": 120.66438419127287}, "feature": {"sight_features": "特色1 锦标赛级高尔夫球场。 特色2 国内少有的岛屿型高尔夫球场，具有浓厚的湖景韵味。", "sight_content": "南通长江高尔夫俱乐部是泰国著名设计师桑番先生和中国高尔夫职业球手程军先生担纲球场设计，占地面积约1400亩，是一座18洞锦标赛高尔夫球场。整个球场以长江为载体，是国内少有的岛屿型高尔夫球场，具有浓厚的湖景韵味。 在强调球场特色的前提下，本着生态环保、球场与自然完美结合的理念，使球场特别创造出原始栖息地的风貌。南通长江高尔夫俱乐部会所，建筑总面积4000平方米，尽显高尔夫球场的恢宏大气，又不失江南水乡的温婉绰约。会所外部主要以江南古建筑风格建造，彰显古典与尊贵；内部则以现代与经典完美结合的装修风格为主，气派堂皇、别具品质。球手在体验高尔夫运动之余，更能享受高雅舒适的休闲服务。\n\n\n\n$$$$${    \"特色\": [        \"锦标赛级高尔夫球场。 \",        \"国内少有的岛屿型高尔夫球场，具有浓厚的湖景韵味。 \",        \"\"    ],    \"简介\": \"南通长江高尔夫俱乐部是泰国著名设计师桑番先生和中国高尔夫职业球手程军先生担纲球场设计，占地面积约1400亩，是一座18洞锦标赛高尔夫球场。整个球场以长江为载体，是国内少有的岛屿型高尔夫球场，具有浓厚的湖景韵味。 在强调球场特色的前提下，本着生态环保、球场与自然完美结合的理念，使球场特别创造出原始栖息地的风貌。南通长江高尔夫俱乐部会所，建筑总面积4000平方米，尽显高尔夫球场的恢宏大气，又不失江南水乡的温婉绰约。会所外部主要以江南古建筑风格建造，彰显古典与尊贵；内部则以现代与经典完美结合的装修风格为主，气派堂皇、别具品质。球手在体验高尔夫运动之余，更能享受高雅舒适的休闲服务。\",    \"参数\": {        \"球场类型\": \"湖景\",        \"球道长度\": \"7428码\",        \"球场洞数\": \"18洞\",        \"球场附加\": \"\",        \"球场面积\": \"1200亩\",        \"建立时间\": \"2011\",        \"球场设计\": \"桑潘、程军\",        \"果岭草种\": \"本特A4冷季型\",        \"球道草种\": \"夏威夷\"    },    \"Tee台\": {        \"黑Tee\": \"\",        \"蓝Tee\": \"\",        \"白Tee\": \"\",        \"红Tee\": \"\"    },    \"电话\": \"0513-68118888\"}$$$$$"}}, {"title": "中国审计博物馆", "address": "南通市崇川区濠北路518", "image": "", "rank": 57, "time": 1.0, "location": {"lat": 32.03045891750672, "lng": 120.86510390732175}, "feature": {"sight_features": "", "sight_content": ""}}, {"title": "黄海大桥-阳光岛", "address": "南通市如东县洋口港经济开发区", "image": "", "rank": 58, "time": 2, "location": {"lat": 32.53200699836552, "lng": 121.43448656885124}, "feature": {"sight_features": "", "sight_content": ""}}, {"title": "小洋口", "address": "南通市如东县洋口镇跨港大桥西侧", "image": "", "rank": 59, "time": 4.5, "location": {"lat": 32.53978279270181, "lng": 121.06396514964342}, "feature": {"sight_features": "", "sight_content": ""}}, {"title": "青墩遗址", "address": "江苏省南通市海安县", "image": "", "rank": 60, "time": 1.0, "location": {"lat": 32.553985066143284, "lng": 120.47392692165361}, "feature": {"sight_features": "", "sight_content": ""}}]}