{"cityName": "南县", "days": 2, "cityImage": "", "spots": [{"title": "罗文花海涂鸦村", "address": "益阳市南县乌嘴乡罗文村", "image": "", "rank": 1, "time": 2, "location": {"lat": 29.360579922859802, "lng": 112.45505765726448}, "feature": {"sight_features": "", "sight_content": ""}}, {"title": "德昌公园", "address": "湖南省益阳市南县南洲西路", "image": "", "rank": 2, "time": 3.0, "location": {"lat": 29.382770940725123, "lng": 112.402842140361}, "feature": {"sight_features": "", "sight_content": ""}}, {"title": "智立方密室逃脱", "address": "世纪城1号楼", "image": "", "rank": 3, "time": 2, "location": {"lat": 22.733346034346585, "lng": 114.47876943625828}, "feature": {"sight_features": "", "sight_content": ""}}, {"title": "金盆农场(三分场)", "address": "零零五县道", "image": "", "rank": 4, "time": 2, "location": {"lat": 41.94218328379205, "lng": 126.45811314187574}, "feature": {"sight_features": "", "sight_content": ""}}, {"title": "金盆农场", "address": "401乡道附近", "image": "", "rank": 5, "time": 2, "location": {"lat": 47.37847367944935, "lng": 133.7966669840186}, "feature": {"sight_features": "", "sight_content": ""}}, {"title": "千红生态农庄", "address": "003县道附近", "image": "", "rank": 6, "time": 2, "location": {"lat": 40.157783260865884, "lng": 116.31747817545298}, "feature": {"sight_features": "", "sight_content": ""}}, {"title": "汤家岗新石器遗址", "address": "湖南省安乡县虎渡河 415600", "image": "", "rank": 7, "time": 2, "location": {"lat": 29.57425044905047, "lng": 112.22067616740934}, "feature": {"sight_features": "", "sight_content": ""}}, {"title": "佘家湖遗址", "address": "湖南省南县河口乡 415327", "image": "", "rank": 8, "time": 2, "location": {"lat": 29.224090211451113, "lng": 112.64299884711752}, "feature": {"sight_features": "", "sight_content": ""}}, {"title": "南县烈士墓", "address": "湖南省南县九都山乡 413000", "image": "", "rank": 9, "time": 1.5, "location": {"lat": 29.370838428758823, "lng": 112.4374258245171}, "feature": {"sight_features": "", "sight_content": ""}}, {"title": "全胜营遗址", "address": "湖南省凤凰县廖家桥镇永兴坪村 416201", "image": "", "rank": 10, "time": 0.25, "location": {"lat": 27.943590394332247, "lng": 109.49918189814926}, "feature": {"sight_features": "", "sight_content": ""}}, {"title": "益阳市大通湖区大润发游乐场", "address": "大通湖区建设路金泰市场2楼", "image": "", "rank": 11, "time": 1.0, "location": {"lat": 36.94170979592331, "lng": 101.69056608506651}, "feature": {"sight_features": "", "sight_content": ""}}, {"title": "游乐城", "address": "德昌公园附近", "image": "", "rank": 12, "time": 2, "location": {"lat": 29.378963971827087, "lng": 112.40296647033506}, "feature": {"sight_features": "", "sight_content": ""}}, {"title": "百觉寺", "address": "湖南省益阳市南县南洲镇306省道百觉寺(德昌公园旁)", "image": "", "rank": 13, "time": 2, "location": {"lat": 29.380265586094524, "lng": 112.40646547180378}, "feature": {"sight_features": "", "sight_content": ""}}, {"title": "齐乐儿儿童主题公园", "address": "南洲广场(南县新一中南县妇科医院正对面)", "image": "", "rank": 14, "time": 2, "location": {"lat": 29.365304885229655, "lng": 112.40363856005978}, "feature": {"sight_features": "", "sight_content": ""}}, {"title": "基督教堂", "address": "202省道东50米", "image": "", "rank": 15, "time": 2.0, "location": {"lat": 37.77792504283699, "lng": 114.12661586886976}, "feature": {"sight_features": "", "sight_content": ""}}, {"title": "基督教堂", "address": "湖南省益阳市南县人民路", "image": "", "rank": 16, "time": 2.0, "location": {"lat": 29.37851820291351, "lng": 112.41252587375536}, "feature": {"sight_features": "", "sight_content": ""}}, {"title": "琪琪儿童乐园", "address": "益阳市南县", "image": "", "rank": 17, "time": 2, "location": {"lat": 29.36706985336325, "lng": 112.40254156733745}, "feature": {"sight_features": "", "sight_content": ""}}, {"title": "大通湖生态公园", "address": "大通湖大道", "image": "", "rank": 18, "time": 2, "location": {"lat": 29.19610245690401, "lng": 112.6387499689551}, "feature": {"sight_features": "", "sight_content": ""}}, {"title": "观音寺", "address": "湖南省益阳市南县X002", "image": "", "rank": 19, "time": 2.0, "location": {"lat": 29.36706985336325, "lng": 112.40254156733745}, "feature": {"sight_features": "", "sight_content": ""}}, {"title": "南洲生态玫瑰园", "address": "南县南洲镇南洲村", "image": "", "rank": 20, "time": 2, "location": {"lat": 29.355759504028622, "lng": 112.42133142368344}, "feature": {"sight_features": "", "sight_content": ""}}, {"title": "南洲广场", "address": "兴盛西路兴盛车站附近", "image": "", "rank": 21, "time": 2, "location": {"lat": 29.365212563275485, "lng": 112.40058690934501}, "feature": {"sight_features": "", "sight_content": ""}}, {"title": "中央公园", "address": "益阳市南县南洲镇宝塔湖社区10组", "image": "", "rank": 22, "time": 2.5, "location": {"lat": 29.36596628486859, "lng": 112.41368676205026}, "feature": {"sight_features": "", "sight_content": ""}}, {"title": "南华广场", "address": "南华大桥附近", "image": "", "rank": 23, "time": 2, "location": {"lat": 29.38642304092841, "lng": 112.41743892577435}, "feature": {"sight_features": "", "sight_content": ""}}, {"title": "花甲湖山庄", "address": "林荫路附近", "image": "", "rank": 24, "time": 2, "location": {"lat": 31.21826542997723, "lng": 121.49318334475527}, "feature": {"sight_features": "", "sight_content": ""}}, {"title": "厂窖惨案遇难同胞纪念馆", "address": "益阳市南县厂窖镇中心路", "image": "", "rank": 25, "time": 2, "location": {"lat": 29.14739176620855, "lng": 112.23320276645357}, "feature": {"sight_features": "", "sight_content": ""}}, {"title": "南县城建档案馆", "address": "复兴街", "image": "", "rank": 26, "time": 2, "location": {"lat": 38.103437068933594, "lng": 114.52604686142357}, "feature": {"sight_features": "", "sight_content": ""}}, {"title": "转角零食乐园", "address": "学宫路小雨花旁", "image": "", "rank": 27, "time": 2, "location": {"lat": 26.90670999658604, "lng": 112.65292258798137}, "feature": {"sight_features": "", "sight_content": ""}}, {"title": "兴隆休闲娱乐中心", "address": "兴盛东路兴隆大厦", "image": "", "rank": 28, "time": 4.5, "location": {"lat": 29.367876261580072, "lng": 112.41935911488606}, "feature": {"sight_features": "", "sight_content": ""}}, {"title": "南县剧院", "address": "南洲镇和平街", "image": "", "rank": 29, "time": 2.0, "location": {"lat": 29.378729640217813, "lng": 112.42565825589972}, "feature": {"sight_features": "", "sight_content": ""}}, {"title": "北洲子农场", "address": "湖南省南县北洲子镇", "image": "", "rank": 30, "time": 2, "location": {"lat": 29.163417589314037, "lng": 112.72295535866907}, "feature": {"sight_features": "", "sight_content": ""}}, {"title": "南茅运河", "address": "湖南省南县茅草街", "image": "", "rank": 31, "time": 2, "location": {"lat": 29.490773855374286, "lng": 112.32925609707719}, "feature": {"sight_features": "", "sight_content": ""}}, {"title": "桌游吧", "address": "益阳市-南县-兴盛东路香香超市2层", "image": "", "rank": 32, "time": 2, "location": {"lat": 29.36708669080688, "lng": 112.41371547099605}, "feature": {"sight_features": "", "sight_content": ""}}]}