{"cityName": "南阳", "days": "", "cityImage": "", "spots": [{"title": "赊店古城", "address": "南阳市社旗县永庆街9附近", "image": "", "rank": 1, "time": 3.0, "location": {"lat": 33.06132700229399, "lng": 112.9521904688625}, "feature": {"sight_features": "", "sight_content": ""}}, {"title": "老界岭", "address": "南阳市西峡县太平镇", "image": "", "rank": 2, "time": 3.5, "location": {"lat": 33.652510701696656, "lng": 111.71388229529292}, "feature": {"sight_features": "特色1 奇峰、奇石、奇树 特色2 老界岭景区有奇峰、奇石、奇树三大自然景观。 特色3 境区内建有1063米的中原高索道，12分钟可以直达景区中部", "sight_content": "老界岭旅游度假风景区简介\n西峡县老界岭旅游度假风景区是中国南阳伏牛山世界地质公园核心区，国家5A级景区。由情人谷、仙人谷、日月谷及界岭主峰四大景区和老界岭避暑山庄、老界岭索道组成。\n景区内群山叠翠，林海苍莽，四季景色异彩纷呈，界岭主峰犄角尖海拔2212.5千米，为中原最高峰，素有“避暑胜地、度假天堂”的美誉。长江黄河分水岭，八百里伏牛凌绝顶”的伏牛山主峰——犄角尖鹤立群山，堪称人间仙境。乘坐全长1061米的老界岭索道直到山顶拜千年老子山神，祈福平安；分水岭，体验时光的变迁，聆听长江黄河的澎湃；踏观景台，回忆漫画西游，闻风声，赏云海，领悟“一日有四季，十里不同天”的自然景观；登犄角尖，纵观伏牛神韵，看日出，揽胜景“品味一脚踏两市，鸡鸣三县听”的传奇故事。\n\n景内代步工具索道，为您空中览胜、感受天然氧吧、实现登山梦想搭建平台。大自然对伏牛山的偏爱造就了老界岭的好山好水、清山绿水、高山流水、奇山秀水。相约老界岭，乘索道，观胜景，登中原最高峰；品山珍，吃野菜，住中原最高宾馆，感受原始森林，尽享世外桃源。老界岭点（景点）、线（风景线）、串（索道吊厢）的完美结合，将共同演绎出老界岭更加美好的明天，老界岭因您的参与才显得更加壮观与神奇。"}}, {"title": "南阳", "address": "南阳市", "image": "", "rank": 3, "time": 4.5, "location": {"lat": 32.99656220465144, "lng": 112.53450131351325}, "feature": {"sight_features": "", "sight_content": ""}}, {"title": "七十二潭", "address": "南阳市方城县杨集乡大河口村(239省道南200米)", "image": "", "rank": 4, "time": 2, "location": {"lat": 33.42957207846896, "lng": 113.05424929344542}, "feature": {"sight_features": "特色1 有“中华第一石川”之美誉。 特色2 百潭漫瀑，秀峰奇石，领阅大自然野趣之美。", "sight_content": "七十二潭景区四季各有看点：春看花，夏戏水，秋采果，冬赏川。醉倒了无数位游客，使他们流连忘返，美不胜收！\n水清潭奇\n七十二潭主要特色：潭多、水奇，常年不断的飞瀑流水将七十二个水潭串联起来，放眼望去，潭潭相连，环环相扣，宛如一条神龙，在石穴峡谷中时隐时现，形成壮美奇观。上有天池，下有迎宾潭，中间有五连潭、三连瀑、福禄潭、老龙潭等等，潭因水而变化莫测，上潭牵下潭，下潭接上潭，一步一潭，一潭一景，潭之多，景之奇，溪水吟吟，紫竹深深，相得益彰，绝无仅有。\n天然健康足道\n景区峡谷之间，是以天然保健、山水观光为主题的康体娱乐区，也是国内少有的足道按摩区。据地质专家检测，峡谷内整块的花岗岩里含有人体不可缺少的微量元素，在日温的激发下形成特定的频谱可以侵润人体，改善血液循环，有很好的足疗保健效果。\n走瀑溯溪\n中原首家走瀑溯溪，消暑刺激，是炎热夏季旅行的必选项目。在神龟潭至景观长廊近千米的流水瀑布中，游客可以脚穿一双防滑草鞋攀行于瀑潭之间，与水来次别样的亲密接触，可以沿着中华第一石川体验亲水步道，穿行在丛林幽谷之间；也可以触摸瀑布上下求索，把高温和酷暑都踩在水里，感受瀑布拍打在身上带来的身心的悸动和快乐！\n惊险刺激、其乐无穷\n这里不仅有别开生面的天然健康足道、供人戏耍的走瀑溯溪，惊险刺激的3D高空玻璃桥，扣人心弦的魔幻宫，精彩的少数民族演艺，滑草、空中飞人，玻璃滑道等娱乐项目，而且还有元代兵营遗址、金华姑娘传说轶事、帝王刘秀驻足留恋、诗仙李白至此赋诗，七十二潭是一个山水与人文相结合的多样化景区。"}}, {"title": "荆紫关古镇", "address": "南阳市淅川县", "image": "", "rank": 5, "time": 3.0, "location": {"lat": 33.14418526002652, "lng": 111.49743203615358}, "feature": {"sight_features": "", "sight_content": ""}}, {"title": "南阳武侯祠", "address": "南阳市卧龙区卧龙路766号", "image": "", "rank": 6, "time": 2.5, "location": {"lat": 32.9838845506543, "lng": 112.51483138725291}, "feature": {"sight_features": "", "sight_content": ""}}, {"title": "西峡恐龙遗迹园", "address": "南阳市西峡县丹水镇", "image": "", "rank": 7, "time": 3.5, "location": {"lat": 33.21972060150644, "lng": 111.64965437748248}, "feature": {"sight_features": "特色1 恐龙蛋化石博物馆", "sight_content": "【景点介绍】\n中国西峡恐龙园位于河南省西峡县丹水镇，以西峡恐龙蛋化石为主要展出特色。中国西峡恐龙园有全国唯一一个以恐龙蛋化石为主要展品的西峡恐龙蛋化石博物馆，有世界唯一一座以恐龙蛋化石原始埋藏状态为特色的恐龙蛋遗址展馆。中国西峡恐龙园有中原首座动感4d影院。中国西峡恐龙园有以展示地球沧海桑田变化和生物复杂演化主题的时空隧道。\n西峡恐龙遗迹，属于白垩纪断陷盆地沉积，已发现的蛋化石归于8科11属15种。特别是西峡巨型长形蛋和戈壁棱柱形蛋，世界稀有罕见，是西峡蛋化石的标志。西峡出土的恐龙蛋化石数量之大、种类之多、分布之广、保存之好，堪称“世界之最”，被誉为继秦始皇陵兵马俑之后的“世界第九大奇迹”。\n沧海桑田，乾坤挪移。这些由大自然缔造，用化石书写的最精美的文字记录了远古生命的演变，地质环境变化的过程，为科学研究提供了宝贵的资料；而富含恐龙元素的娱乐设施将带我们回归现代，享受另一种娱乐的美妙。\n\n\n【主要景点】\n恐龙蛋遗址\n西峡盆地的恐龙蛋化石有6科9属13种，其中巨型长形蛋、戈壁凌柱型蛋，属世界稀有罕见，独一无二。\n蛋化石博物馆\n馆内有恐龙蛋化石展示、4D影院、时光隧道和动态情景恐龙、具有科普、教育、旅游等多重功能。\n动感4D影院\n4D电影是国际上新兴的一种电影院模式，是三维立体和周围环境模拟组成四维空间，和其他传统类型的影院相比，4D影院具有主题突出、科技含量高、效果逼真等特点和优势。 [5]\n恐龙馆\n恐龙馆与恐龙蛋化石博物馆交相辉映，是展示难养恐龙蛋化石群世界级地质遗迹的又一窗口。\n仿真恐龙园\n在广袤的苍穹下一篇阴暗的丛林中，霸王恐龙蠢蠢欲动，梁恐龙悠然自得，粗心的圆角恐龙刚下完蛋，却被偷蛋恐龙偷走了一个，于是战斗即将爆发。"}}, {"title": "宝天曼生态旅游区", "address": "南阳市内乡县夏管镇葛条爬村", "image": "", "rank": 8, "time": 2.5, "location": {"lat": 33.485162146856574, "lng": 111.8942195572357}, "feature": {"sight_features": "特色1 沟谷壑涧，飞瀑高悬", "sight_content": "宝天曼生态旅游区，座落在河南省内乡县境内。为八百里伏牛山的第一门户。西汉时被称为“秋林峪”，百里无炊烟，鸟翔难飞过。隋唐时被誉为“秋林胜境”，茂林修竹之地、桐漆之乡。宝天曼，1980年被河南省批建为第一个自然保护区，1988年被国务院批准为国家级自然保护区，2001年成为联合国教科文组织“世界生物圈保护区”之一，2006年9月又被联合国教科文组织命名为“世界地质公园”。\n\n景区地质和森林资源丰富、文化历史悠久，环境条件优越，千姿百态的自然景观，让你目不暇接。茫茫林海涛声，无数溪水河流，沟谷壑涧，飞瀑高悬，花鸟草虫；禽兽蝶竹，同生共荣，浑为一体，丰富多彩的物种资源交织在一起，构成了一幅独具一格的天然图画，成为我国中原地区一块带有神秘色彩的风景旅游胜地。\n这里山高水长，水质清纯，没有污染，气候适中，四季分明，环抱的群峰形成的天然屏障，既阻挡了西北寒流的侵入，又截留了亚热带的温暖气流，构成了特殊的小气候，冬不太寒，夏日清爽，年平均气温14.6度，极高气温不超过28度，夏季的平均气温为15度左右，且空气清新，负氧离子含量极高，为旅游观光、疗养度假和消夏避暑胜地。\n\n宝天曼的地理位置特殊，地貌复杂，300平方公里神奇的土地上，连绵重叠着近千座姿态各异的石峰，其势，横看侧望，下俯上仰，变化多端，妙不可言。“牧虎顶”是宝天曼著名的山峰，登上峰顶，由然生出“一览众山小”的感觉。岩峰见奇、清水见幽。这里的水也别具特点。“久旱不断流，久雨水碧清”。一条条山泉从岩壁石缝间钻出欢悦而下，一条条潜流从谷泥沙土中突然冒出，汇成了几十条小河，25条悬崖飞瀑，82处泉水成潭，蜿蜒曲折，东流而去。沿岸峭壁万纫，峰峦千叠，把宝天曼装点成一条使人陶醉的水彩画廊，构成了一幅幅天然的山水丹青。“百尺冰挂”，又名晨露崖，冬春季节，近百米的白色披练，凝冻而成，沿悬壁而垂下，四月以后，冰挂匐然而下，又变成涓涓细流。"}}, {"title": "内乡县衙", "address": "南阳市内乡县城东大街", "image": "", "rank": 9, "time": 1.5, "location": {"lat": 33.05120310547566, "lng": 111.8554252869733}, "feature": {"sight_features": "", "sight_content": ""}}, {"title": "南阳府衙", "address": "南阳市宛城区民主街100号", "image": "", "rank": 10, "time": 3.5, "location": {"lat": 32.998807665101594, "lng": 112.54316438051241}, "feature": {"sight_features": "特色1 封建社会府级官署衙门 特色2 北京故宫的缩影 特色3 南阳历史文化名城的一颗明珠", "sight_content": "南阳府署，通常称为府衙或知府衙门，是元、明、清三代南阳知府的官署。故址在旧城内西南隅，即今民主街西端北侧。南阳府署由元代迄今已有700多年历史，具有很高的文物价值。市委、市政府决定修复南阳府署，是一件深得民心之举。\n南阳知府衙门布局严谨、规模宏大、气势雄伟，是秦始皇设置郡县制以来，留下的一个完整的郡级实物标本。现存建筑就是一座历史档案馆，它既是北京故宫的缩影，又是南阳历史文化名城的象征，具有较高的历史、艺术、科学和文化价值。知府衙门是南阳历史文化名城的一颗明珠，闪射出灿烂的光辉。 　　南阳府署始建于何时不详。自秦昭襄王设置南阳郡直至隋代以前，南阳皆有郡守（西汉景帝时改称太守）治所，即郡署。"}}, {"title": "伏牛山世界地质公园", "address": "南阳市和洛阳市境内，主要以西峡、内乡、南召、栾川、嵩县等县境内的伏牛山为主体", "image": "", "rank": 11, "time": 7.5, "location": {"lat": 33.48085340119936, "lng": 112.00024445184859}, "feature": {"sight_features": "", "sight_content": ""}}, {"title": "山陕会馆", "address": "南阳市社旗县赊店镇永庆街9号", "image": "", "rank": 12, "time": 0.15000000000000002, "location": {"lat": 33.06132700229399, "lng": 112.9521904688625}, "feature": {"sight_features": "", "sight_content": ""}}, {"title": "香严寺", "address": "南阳市淅川县仓房镇", "image": "", "rank": 13, "time": 1.0, "location": {"lat": 32.78125825668144, "lng": 111.48565526349404}, "feature": {"sight_features": "特色1 原为大唐慧忠国师道场，有“千顷香岩”之称", "sight_content": "香严寺景区位于南水北调中线渠首和亚洲第一人工湖的丹江小太洋西岸，与道教名山武当山遥遥相望，并且与洛阳白马寺、嵩山少林寺，开封相国寺并称为中原四大名寺。香严寺地势优越，东为龙山，西为虎山，南对面山，背靠清风岭。整个地势就象一朵盛开的莲花，寺院恰好就坐落在莲花台上。寺院周围40多处自然景观和名胜古迹留下了许多脍炙人口的美丽传说和动人故事。\n\n香严寺又名显通禅寺，香严长寿寺，素有“万顷香严”之称。寺院始建于大唐开元年间，距今已有1300多年。宋、元、明、清各有重修。鼎盛时，各类建筑房屋达437间，院墙700余丈，占地一万多平方米。但经过“文革”以后，现仅剩房舍144间。\n过去，香严寺分上下两寺，一在白崖山丛中，一在丹水山麓旁。可惜，下寺已淹没于丹江水库之中。现存的香严上寺，为唐肃宗，唐代宗两朝国师慧忠的修炼道场。说的是唐开元年间，一位姓冉名虎茵，法名慧忠的和尚，云游到顺阳川党子谷，结茅为奄，设立道场，一住就是40几年。唐天宝年间，玄宗遍访天下名僧，得知禅宗南禅派六祖慧能五大弟子的慧忠，“戒行精专，堪称一代大师”遂下诏迎慧忠于长安龙兴寺。“安史之乱”，慧忠又“循归”党子谷。肃宗李享继位，再次迎慧忠入京，尊为国师。其间，慧忠奏请在白崖山建“长寿寺”，还将佛径一套分藏长寿寺作为镇寺之宝。不久，慧忠在原修炼道场就是今天这个地方建长寿寺，代宗李豫御赐“永镇山川”匾额。慧忠在长安生活16年圆寂。代宗赐“大证禅师”。并遵其遗愿，派十位大臣（亦传十位王子），将尸骨运至白崖山入塔。大师入塔，高官显宦，齐来送葬，香烟袅袅，经月不散，人们便以“香光庄严”之义称长寿寺为香严寺。\n香严寺是一家皇家寺院。唐开成五年，唐武宗李炎在继位前，因害怕光王李忱与其争夺王位，千方百计加害光王。李忱为免遭武宗杀害，在香严寺削发为僧，避难七年，后即位宣宗皇帝。一千多年来，唐、明、清、多位皇帝，历有敕封。因此，香严寺就自然成为一家偏居一隅的皇家寺院了。\n\n香严寺四周峰峦叠翠，碧水缠绕，茂林修竹，古木参天，泉水叮咚，是“深山藏古寺”的真实写照。寺内主体建筑有石牌坊、韦驮殿、凝月轩、大雄宝殿、接官厅和藏经楼等，雕梁画栋，气势磅礴。砖雕、木雕、石雕和大雄宝殿内保存的中原最大原型壁画，被称为“三绝一宝”；寺里的三大奇观“美女抱将军”树、能识善恶的痒痒树、“灵气宝地”，寺外的一柏单八榆、一柏一石一座庙、双石洞、珍珠泉、百亩竹园、塔林、迎宾桥等各具魅力，是游人朝圣崇佛、寄情山水、生态休闲的一方净土。"}}, {"title": "丹江大观苑", "address": "南阳市淅川县石桥村鲁家沟", "image": "", "rank": 14, "time": 2, "location": {"lat": 32.84920277110871, "lng": 111.58922088687498}, "feature": {"sight_features": "特色1 中原休闲度假胜地和祈福圣地 特色2 湖中千顷碧水、烟波浩渺、天水一色 特色3 四周青山环绕、群峰耸立、惊险壮观", "sight_content": "景点介绍\n\n河南丹江大观苑位于举世瞩目的南水北调中线工程水源地——丹江水库北岸，是河南省黄金旅游带“南水北调中线沿线生态观光带”的源头，由河南福森实业集团投资建设，集“观赏性、知识性、趣味性、娱乐性、养生性”为一体的中原休闲度假胜地和祈福圣地。\n丹江大观苑由多个伸入丹江湖中的小岛组成，占地26.8平方公里，是丹江库区周边自然景观丰富的区域，是古代楚国始都丹阳所在地、楚文化发祥地，历史文化底蕴丰厚。岛上鸟语花香、苍松翠柏、松针铺地；湖中千顷碧水、烟波浩渺、天水一色；四周青山环绕、群峰耸立、惊险壮观。\n景区佳景荟萃、自然天成，吸引着海内外大批游客慕名而来，已成为中原旅游业跃起的一颗璀璨明珠，被誉为河南省旅游业的一张珍贵名片。\n为提高综合服务水平和接待能力，景区投资建设了融餐饮住宿、商务会议、休闲度假、健身娱乐等多功能为一体的福森半岛假日酒店和江畔度假疗养别墅区，为游客配备了高档的客房设施、特色的餐饮美食、优良的会议设备、丰富的娱乐休闲项目，让您在繁杂的公务之余享受片刻的闲暇，在这丹江湖畔，看山林之奇峻、听小鸟之啁啾、吸富氧之灵气、品养生之药膳，体味别样的休闲和适意；让您仿佛置身于灵秀惠兰之室或清幽水乡一隅，在这灵山秀水中感受回归自然的淳朴，追寻慢慢远逝的纯真，见证内心深处的震撼……\n景区依丹江湖沿岸而建，拥有风格迥异的万米观江长廊，布局合理的南水北调中线工程纪念馆、楚风楼、范蠡阁、世界精英馆、中华长河馆、文博园、中华世纪龙等50多处固定景点，错落有致，内涵丰富，趣韵叠加。景区游览车观光、湖中乘游船揽胜、空中直升机俯瞰，实现“海陆空”立体化观光接待，满足不同消费群体游览观光需求。\n范蠡，一代商圣。在楚国位居宰相后，急流勇退，弃官从商，成就一代儒商，富可 敌国。其在商业上的创见至今仍闪耀着真理的光芒，可谓市场经济的鼻祖。他提出的 “ 经商十八则”及相关经商哲学仍有着现实的指导意义，为诸多商家学者 所称赞与研究。 丹江大观苑筹建的范蠡阁及相关建筑旨在向游客提供文化观光的同时 ，传播商圣范蠡的 经商风范，使其发扬光大，成就更多商业巨子。"}}, {"title": "卧龙岗", "address": "南阳市卧龙区卧龙路766号", "image": "", "rank": 15, "time": null, "location": {"lat": 32.9838845506543, "lng": 112.51483138725291}, "feature": {"sight_features": "", "sight_content": ""}}, {"title": "莲花温泉", "address": "南阳市南召县皇路店镇", "image": "", "rank": 16, "time": 0.7, "location": {"lat": 33.2604969074439, "lng": 112.61446089280452}, "feature": {"sight_features": "", "sight_content": ""}}, {"title": "医圣祠", "address": "南阳市宛城区医圣祠街88号", "image": "", "rank": 17, "time": 1.0, "location": {"lat": 33.00363811985154, "lng": 112.55974099983388}, "feature": {"sight_features": "", "sight_content": ""}}, {"title": "南阳五朵山", "address": "河南省南阳市南召县五朵山", "image": "", "rank": 18, "time": 2.0, "location": {"lat": 33.49618580462491, "lng": 112.43542522254566}, "feature": {"sight_features": "特色1 久负盛名的中原道教圣地 特色2 仙人仙山仙境界，玄门玄户玄妙地 特色3 奇峰相峙，飞瀑高挂，怪石林立、泉流潺潺", "sight_content": "五朵山风景区，国家4a级旅游区，是南阳伏牛山世界地质公园的主要园区之一。五朵山位于河南省南召县四棵树乡，五朵山风景区，是久负盛名的中原道教圣地。五朵山与“南顶”湖北武当山齐名，素有“北顶”之称、奇峰相峙，飞瀑高挂，怪石林立，泉流潺潺，春天杜鹃烂漫，夏日绿意盎然，秋季层林尽染，冬季银装素裹，山水如诗如画，兼具南秀北雄。唐贞观年间，著名道士吴筠在此创建吴筠观。明朝皇帝朱允文也曾到此避难。后为纪念朱允文而建的祖师庙雄踞海拔1665米的五朵山主峰圣垛之上，四周云雾茫茫，扑朔迷离，恍若仙境。五朵山景区内的“五垛晓烟”、“金顶日出”、“三潭夜月”、“鹰啸长空”、“群蝶戏瀑”、“仙女沐浴”、“拴马桩”、“藏兵洞”、“插剑石”、“青牛宫”等四十多个名胜景点，让人回味无穷，叹为观止。\n\n五朵山现已开放金顶、万福宫和暴瀑峡三大游览区，120多处景点，主要景观有金顶、天梯、暴瀑、万福宫、鸳鸯溪、仙人桥等。金顶四周摩壁万仞，站立其上俯瞰五朵山的钟鼓楼峰、大峰和奇峰怪石、茫茫林海等，如临仙境，四千余级的石阶路势则宛如登天云梯。\n五朵山暴瀑峡位于北大河河谷内，峡谷内飞瀑流泉，瀑潭相连，水流潺潺，碧潭幽幽，石崖石壁、造型岩体、突兀巨石、悬天一线和人造平湖、飞瀑渊潭、茂林修竹、烂漫山花、珍禽异兽等特色鲜明的自然景观十分秀美。主景点暴瀑落差近百余米，九转十折，“轰隆”而下，声若雷鸣，传说即真武祖师明朝建文皇帝朱允炆净化体内“戾暴”之气的瀑水，因此被敬称为“暴瀑”。 这里自古就是道教胜地，文化底蕴深厚，历史传统颇多，民间道士信徒皆慕名朝拜。五朵山祖始庙为明永乐年间（1403－1425）所建，鼎盛于明、清两代。世传明朝第二代皇帝建文帝朱允炆在“靖难之变”中下野后辗转到五朵山建庙修道，民称“祖师爷”，钦封“真武大帝”。自此其山成为“北顶”，又称“祖师顶”、“金顶”，与南顶武当山遥相辉映。\n五朵山万福宫坐落在圣朵下山腰谷地中，包括玉皇殿、药王殿、文昌殿、财神殿、土地庙等几组庙宇道观，规模宏大，气势恢宏。其中，药王殿又名千金阁，殿内除供奉唐朝名医药王孙思邈外，还供奉了神农，扁鹊，华佗，张仲景，李时珍等历代名医，堪称独树一帜。"}}, {"title": "汉画馆", "address": "南阳市卧龙区汉画街398号", "image": "", "rank": 19, "time": 1.0, "location": {"lat": 32.976962072236155, "lng": 112.5139824112917}, "feature": {"sight_features": "", "sight_content": ""}}, {"title": "南阳花洲书院", "address": "南阳市邓州市人民东路", "image": "", "rank": 20, "time": 2.0, "location": {"lat": 32.69391743997009, "lng": 112.09342010302309}, "feature": {"sight_features": "特色1 是河南省重点文物保护单位", "sight_content": "花洲书院，国家3A级景区，始建于宋代庆历年间，北宋著名政治家、军事家、文学家、教育家、思想家范仲淹任邓州知州期间创建了书院内讲学堂——春风堂、藏书楼、斋舍，并在书院东侧创建百花洲，重修览秀亭，构筑春风阁，花洲书院因百花洲而得名。\n\n书院建筑是花洲书院内主体，为五进四院，中院更有全国少有的小巧精致的泮池，状元桥，成为花洲书院一大特色。书院西侧并列为二进一院的范公祠。范公祠北为新建四进三院的名人馆，中院有古三眼井——范公井，整个建筑风格为清代北方建筑。百花洲位于花洲书院东侧，紧临邓州保存最完好的一段明代古土城墙。布局为南山北水，花洲南由各具特色的峭壁假山、五峰山和别有洞天组成。别有洞天假山将南北隔离，花洲北湖内大小三岛，岛上再现范仲淹任知州时与民同乐的嘉赏亭及菊花台等。百花洲建筑采用范仲淹家乡清代江南园林风格。从而使花洲书院形成完美一体的中国典型书院园林。\n2002到2005年，邓州市委、市政府多方筹措资金1400余万元，历时三年，对花洲书院进行全面修复，创历史规模之最。重修后的花洲书院，占地126亩，有各类仿古建筑66座，建筑面积达4000平方米，花洲书院内处处充满了厚重的历史文化气息。"}}, {"title": "西峡老君洞", "address": "南阳市西峡县二郎坪乡大庙村老君洞景区", "image": "", "rank": 21, "time": 2.5, "location": {"lat": 33.570730508726236, "lng": 111.66703599801552}, "feature": {"sight_features": "特色1 负氧离子丰富，空气质量优秀", "sight_content": "西峡老君洞·野人谷生态养生旅游区，位于伏牛山世界地质公园核心地带，311国道，豫51省道穿境而过，位置优越，交通便利。老君洞占地面积126平方公里，拥有14坐千米以上山峰，5条河流，13眼涌泉，森林覆盖率98%，生长这2200多种植物、300多种野生动物。老君洞被誉为“伏牛山之肺”，“生态基因库”。老君洞是世界文化名人老子隐居、养生、讲道120年的文化圣地，也是中原地区野人频繁活动的中心地带。山、水、林、洞、龙、气、人七大原生态资源号称“全真七大景”，老君洞人称“天下第四洞天”。\n\n游老君洞的n个理由\n四个靓点：\n1.老君洞-老子隐居地。人文与山水的综合性景区，集道家文化，养生文化，野人迷踪，溶洞、山水为一体。\n2.老君洞景观种类全：山水、瀑布、深潭、溶洞、地下暗河。\n3.北国氧都，老君洞森林覆盖率达98%，是河南省唯一一个不用戴遮阳帽的景区。\n4.老君洞高山流水。\n两个特色：\n\n1、一地两日游，游玩时间长达10个小时。\n2、老君洞独特的紫荆花资源每年清明后一周举办紫荆花节，十八万亩野生紫荆花满山遍野。\n老君洞\n西出函谷逾千载莫知所踪，南下伏牛有百年却在此地。世界文化名人老子归隐地到底在哪里？\n经多方考察，选定了西峡老君洞作为归隐之地，在老君洞度过了他长达百年的隐居、养生、传经生活。这就是当代多位老子研究学者们为我们解析的老子下落之谜，也是当前学术界越来越趋向统一的看法，即“老子入楚说”。但这些只能是学术界的推理和看法，要想解开老子隐居地的真正秘密，不妨亲自来探索一番吧。\n太清谷\n\n太清谷全长3公里，是西峡老君洞景区森林覆盖率最高的地方。植物种类特别丰富，达2200多种之多，隶属于125科516属，占河南省植物种类的一半以上。谷内经仪器测量负氧离子高达16.8个每立方米，被称之为中原第一氧吧。\n野人谷\n\n神秘的野人从公元前5世纪的《山海经》时代起频繁在这里出没，上世纪六七十年代至本世纪初多次见证野人活动的目击者依然健在。旋天栈道被不少游客赞叹为人间奇迹，它全长两千多米，最高海拔1490米，全部修建在悬崖绝壁之上，以险、高、奇、长、仿生、坚固而驰名中原，被誉为“中原第一栈道”。深处危崖之上，绝壁半腰，你尽可抒发“可上九天揽月”的豪情壮志，也尽可体会“一览众山小”的英雄感受。\n老君洞-紫荆花节\n“据说，紫荆花是陪伴并护佑了老子一生的那团祥光紫气，在老子得道成仙后物化而成，因而，紫荆花也就象征着和谐秀美，繁荣昌盛！象征着吉祥安康，清净不争！”\n老君洞紫荆花闻春绽放时，艳丽的花朵密集地爬满了整棵树的每个枝条；那花有玫瑰一样的颜色，形如一群翩飞的蝴蝶，密密层层，满树嫣红。因为它的美丽，在历代诗人的笔下也成为故园亲情的代表植物。"}}, {"title": "五道幢", "address": "南阳市西峡县二郎坪镇", "image": "", "rank": 22, "time": 2, "location": {"lat": 33.52860401727409, "lng": 111.72982906141793}, "feature": {"sight_features": "特色1 集探险、休闲、度假、科教、强身健体为一体", "sight_content": "五道幢景区位于西峡县城东北部的二郎坪乡境内，距县城46公里，紧靠311国道和豫51省道。五道幢景区峡谷奇特，断岩峥蝾，悬崖陡峭，鬼斧神工。谷中河水清澈，缓如垂练，急如抛珠，瀑泻如注，轰鸣而下，山水相映相辉，如诗如画。\n\n五道幢景区内，春天百花争艳，盛夏满山翠绿，金秋万山红遍，严冬银装素裹：北临刀棱山峭壁，东与马武寨奇峰相连，西、南和黄花墁上的天然韭菜园接壤，四周秀山起伏，景点连线，风光无限。悬崖建栈道，峭壁有攀岩，峡谷有速降，吊桥空中悬，小桥伴流水，五幢胜景，各有千秋。"}}, {"title": "七峰山生态旅游区", "address": "方城县杨集乡磨沟村", "image": "", "rank": 23, "time": 2, "location": {"lat": 33.34337041178011, "lng": 113.00425385325359}, "feature": {"sight_features": "特色1 楚国长城遗址、高空百米索桥 特色2 是生态旅游、避暑休闲的理想去处", "sight_content": "七峰山生态旅游区是集高山滑雪，旅游观光，养生度假为一体的大型四季旅游圣地。景区位于河南省南阳市方城县境内，横跨杨集、拐河两乡镇。地跨长江、淮河两大流域。距县城15公里，主景区面积约40平方公里。因景区内有被誉为“长城之祖”的楚国长城，所以七峰山景区又有“天下第一古长城”的美称。七峰山山系方圆约105平方公里，形成于1.5亿年前。七峰山又称七顶山，古称七石山。《魏书·地理志》载：“七峰山古称七石山，因山有七峰列峙，如笔架然，故名。”七峰山山势险峻，巍峨壮阔，常年云雾缭绕。位于七峰山景区的主峰名为 云秀峰，海拔768余米，为方城县最高峰。\n景区内山势峭拔、壁立千丈、层峦叠嶂。具有代表性的景点有：紧贴悬崖峭壁的长达千米的绝壁栈道、悬空百米索桥、七峰登天梯、云端观景台等，适合具有探险精神的你;景区内谷深林密、飞瀑流泉：玉女湖、龙湖、汉化长廊、青帘廊道、蝴蝶谷等，适合喜欢幽静清雅的你；景区内石奇洞幽：当年著名地质学家李四光亲临考察参观的神仙洞，历史悠久，供奉了七十余尊神灵。\n有春看百花争艳：每年的三、四月份，整个七峰山谷开满葛藤花，金色的花海宛如仙境，吸引了无数的游客和摄影爱好者。被专家誉为“中原少见的万亩滕海”。葛根有解酒的功效，还有降血脂去火的功能，是一种非常好的中医药材。夏季避暑休闲：七峰山山谷内温度比常温低3—5摄氏度，是您与家人、朋友避暑度假的完美选择！秋季硕果满枝：七峰山山谷内柿子、核桃、山楂、野韭菜、蕨菜等成熟之时，也是红叶漫山红遍的时候。若您在这个时候来到七峰山，一定会有意想不到的收获！冬季高山滑雪：在冬季的七峰山您可以找到中原最美的滑雪场，童话世界般银装素裹，美轮美奂。\n自开放以来七峰山生态旅游区获得了“伏牛山世界地质公园”；“七峰山省级森林公园”；“天下第一古长城”；“中原最美滑雪场”；“中原最大葛藤海”等美称。七峰山生态旅游区历史底蕴深厚，自然景观迷人。畅游七峰山水，寻觅长城之祖；最美滑雪圣地，避暑休闲天堂。交通便捷、设施齐全，是生态旅游、避暑休闲、探寻历史、冬季滑雪的理想去处。"}}, {"title": "云露山景区", "address": "南阳市内乡县马山口镇石庙村", "image": "", "rank": 24, "time": 4.0, "location": {"lat": 33.296813555110646, "lng": 112.08988093741554}, "feature": {"sight_features": "", "sight_content": ""}}, {"title": "龙潭沟景区", "address": "南阳市西峡县城北38公里处", "image": "", "rank": 25, "time": 3.0, "location": {"lat": 33.31331611529193, "lng": 111.48039809758171}, "feature": {"sight_features": "特色1 被誉为“中原一绝，人间仙境” 特色2 中原一绝，人间仙境 特色3 融山秀、石奇、水澈、林茂、潭幽于一体", "sight_content": "龙潭沟自然生态风景区位于河南省伏牛山脉腹地的西峡县双龙镇化山村，龙潭沟距西峡县城30公里，龙潭沟距南阳160公里，311国道途经此地，交通极为便利。龙潭沟景区景点集中，瀑布密集，融山秀、石奇、水澈、林茂、潭幽于一体，环境独特，景色优美。\n龙潭沟属于谷地型旅游地，龙潭沟全长12公里，龙潭沟景区5公里，自然落差近千米，整个龙潭沟山体犹如两条巨龙盘踞，分别显现龙首、龙口、龙角和龙身。瀑布群的上游河流叫西庄河，源于二郎坪乡蒿坪村老龙垛通天壕，经蒿坪村、西庄河桥和双龙镇化山村龙潭沟口汇入蛇尾河，全长10余公里，而落差则由海拔1300米降至400米，特别是西庄河村下河以下至化山村炉子沟龙潭沟这段长约3公里的河谷落差更大，相对高差500多米，形成“梯式”瀑布群。经勘察，由两山相夹的峡谷自下而上形成多处梯式瀑布共计19个，大小潭穴72处，一瀑一潭景色壮观。 龙潭沟青龙潭、黑龙潭、黄龙潭、白龙潭、双龙潭、九龙圣母潭……潭深瀑奇，潭瀑相连。落差最高的瀑布约35米 ，最低的也有15米 ；最大的潭水面积800平方米 ，最小的400平方米 ；潭水深度从2米到50米不等，而小瀑小潭更是不计其数。最为著名的“四连瀑”四瀑相连，逶迤蛇行，飞流直下，气象万千。沟的两岸石壁陡峭，林木丛生，山涧溪水从悬崖倾泻而下；急流如注，浪花飞溅，水雾飘洒，弥漫谷间，瀑水长啸，落入龙潭，登高了望，十分壮观。夏秋旺水季节，峡谷内银练直挂，碧花横飞，云蒸霞蔚，令人叫绝。而进入秋冬，漫山红遍，层林尽染，潦水尽而寒潭清，百尺龙潭一碧到底，上下空明，游鱼可数，实乃自然奇景。\n龙潭沟水灵山秀，石奇崖险，颇饶登临之趣。整个龙潭沟峡谷两侧是花岗岩山体，一色的苍青如黛，更显巨石千姿。大龙潭沟附近的一块巨石酷似一条鳄鱼头正伸入水中啜饮，游人称之为“鳄鱼戏水”；“四连瀑”附近有块巨石更是神奇，从对面的山上看，犹如猪八戒的头，像是伸向水面偷看龙女洗澡，人们称之“八戒窥浴”；从后面看又酷似船头，因此又叫“船石”；黑龙潭旁边有三条极像鲨鱼的巨石，鱼头伸向潭水美其名曰 : “三鲨闹龙潭”。此外，还有“绝壁挂雪”、“神龟过江”、“鲤鱼跳龙门”等等。奇石遍布，形态各异，惟妙惟肖，浑然天成。 龙潭沟景区树林茂密，龙潭沟森林覆盖率达96.5%，龙潭沟到处是古树参天，三季有花，四季常青。南北动植物在此交汇，物种繁多，保护良好，堪称纯自然美的处女地，生物资源丰富多样的“基因库”。畅游于大自然之中，龙潭沟与这些动植物为伴，远离了都市的喧嚣，享受着天然氧吧的清新，体验在静谧的氛围中，仿佛置身于“人间仙境”，龙潭沟使人真正有一种返璞归真、回归自然的无穷乐趣。龙潭沟“美景藏深山，秀水躲密林”。龙潭沟自然生态风景区，是人们休闲、寻幽、消暑、探险的极佳境地。龙潭沟，秀山秀水，美丽神奇！"}}, {"title": "桐柏山淮源风景区", "address": "南阳市桐柏县城关镇淮源大道135号", "image": "", "rank": 26, "time": 1.0, "location": {"lat": 32.371100151889735, "lng": 113.39971936981402}, "feature": {"sight_features": "特色1 因淮河发源于此而得名", "sight_content": "‍‍桐柏山淮源风景名胜区位于豫鄂两省交界的桐柏山脉中段，总面积108平方公里，是千里淮河的发源地。1996年被批准为省级风景名胜区，1997年被评为河南省十佳文明景区，2001年被批淮为淮河源国家森林公园，2003年被评为十佳生态旅游好去处，2004年被评定为3A级旅游区，2006年被评选为“全国最佳旅游去处”、“河南省十佳风景名胜区”。这里兼“雄、奇、幽、险、秀”为一体，集淮源、盘古、红色、佛道、《西游记》诸文化于一身。历代文人骚客在此多有吟唱：诗仙李白写下了“寻幽无归期，乘兴不觉远”的绝句，韦应物以“因何去不归，淮上有青山”表达留恋之情，明代“弘正七子”之一的何景明流露出“他年淮源能相访，桐柏山中共结庐”的强烈愿望。\n景区地处我国南北气候过渡带，风光优美，四季鲜明。区内奇峰竞秀，层峦叠嶂，森林密布，瀑泉众多，景象万千，专家评价其“比华山高险、与黄山竞秀”。植物系南北兼容，植被覆盖率达95%，被称为中原天然物种基因库和自然博物馆。有豫南第一高峰的太白顶、万山尽染的红叶、心旌神怡的淮汉鸳鸯池、曲涧幽险的六盘谷和千年雨露天的水帘洞等各具特色景点130多处。\n景区文化底蕴厚重，各种文化相辉映。淮源文化渊源流长：“秦并天下，始建淮祠”，自此历代帝王亲自或遣臣来此祈福祭淮；明朱元璋、清康熙、雍正、乾隆等撰文刻碑于祠内，乾隆亲书《淮源记》。佛道文化饮誉海内外：全国佛教五大宗派之临济宗白云系祖庭，云台禅寺素有“南普陀，北云台”之盛誉：“金台观”为全国五大道观之一，张良、鬼谷子、孙膑、张三丰曾在此隐居辟谷。《西游记》文化引人入胜：是吴承恩惊世名著灵感源泉创作基地。盘古文化博大精深：是中华神话故事中心，“盘古开天地，骨节为山林，血为淮渎，毛发为草木”，是人类始祖盘古的仙栖之地。红色文化跌宕起伏：是中共中央中原局、中原军区、三军会师旧址；刘少奇、李先念、杨靖宇、赵紫阳、贺龙、王震、彭雪枫等革命家生活战斗过的地方。八十年代根据《桐柏英雄》故事拍摄的著名电影《小花》主要外景就在这里。\n‍‍【园区内特色精品线路推荐】\n1、 盘古神文化游线路\n进入景区首先映入眼帘的是天地造化的自然奇观----雄跨豫鄂两省的盘古神，首南足北，仰面而卧，身绵长6000余米，其髻、眼、鼻、胸清晰可辩，雨则云托，晴则雾罩，神态惟妙惟肖，其特点为男人头、女人身。该线路沿途还有摩崖石刻“盘古”，鱼虾相戏的混沌池、玄机奥妙的五行盘、精致别样的日月廊、瀑潭碧影的龙虎涧，妙趣可爱的四叠瀑；盘古祖殿为一高大宏伟的古建筑，掩映在绿木之中，内供人类始祖盘古，是一处顶礼膜拜、寻根问祖之所，殿前的盘古井长年不枯，源水自4米高的井台上汩汩溢出，让人啧啧称奇。游览该线路，切身感受到大自然的厚爱和浓浓盘古文化。\n2、《西游记》神话仙境游线路\n该线路有众多与《西游记》描述地点相吻合的景点，有千年雨露天的水帘洞，十里画廊一溪流的通天河，憨态可掬的白龟石以及再现神话场景的人文景观，有普渡通天河的师徒群像、金猴拜观音、承恩草堂等景观。置身此线路使人仿佛在现实与虚幻中随意的切换，“不知身也在人间”之感油然而生。\n3、 南山不老松生态环保线路\n该线路为一尘不染的原生态区，有“空气中维他命”之称负氧离子高达3万个，被专家称为长寿区。该线路自然风光绝美，移步换景，有天然氧吧原始森林，饱尝风霜的不老松、婀娜多姿的仙人摆布，桐柏古八景之一的“桃洞铺霞”以及自然之中融合着美丽传说的情人谷，殉情崖、还魂坡、龙女潭等景点。留恋该线路可听松涛、临清风、嬉溪水、逗鱼蟹、“蘸”满目绿色，可尽情享受大自然的馈赠。"}}, {"title": "南阳龙湾温泉", "address": "南阳市长江路中段理工学院东500米向南1000米", "image": "", "rank": 27, "time": 2.0, "location": {"lat": 32.982567053335785, "lng": 112.55941321174652}, "feature": {"sight_features": "", "sight_content": ""}}, {"title": "淘气猫游乐园", "address": "南阳市宛城区育阳桥（近白河）", "image": "", "rank": 28, "time": 1.5, "location": {"lat": 33.00987004062646, "lng": 112.546454166629}, "feature": {"sight_features": "", "sight_content": ""}}, {"title": "南召大宝天曼度假区", "address": "河南南阳市南召县乔端镇-南召宝天曼景区", "image": "", "rank": 29, "time": 4.0, "location": {"lat": 33.392525716539694, "lng": 111.9250855699146}, "feature": {"sight_features": "特色1 保存河南省唯一较为完整的原始次生林", "sight_content": "南召宝天曼地处伏牛山腹地，古老繁茂的原始森林及丰富独特的野生动植物资源，在同纬度居全国之首位，被中外专家誉为“天然物种基因库 ”，“中州绿色明珠”。\n宝天曼的生态旅游资源十分独特，四季景色秀美，春天春花似海，遍布山峦，尤其是位于西石壁的万亩杜鹃林，混合着迎春花、连翘花、山茱萸花、玉兰、樱花、紫藤等各色花朵竟相开放，争芳斗艳；\n夏无酷署，清凉世界，扫帚场绿色天然空调，树影摇曳，凉爽宜人；深秋红叶，层林尽染，枫红松翠，色彩斑斓；冬披银装，满枝冰挂，冰潭冰瀑相间，景色迷人。\n区内3000公顷的原始处女林老藤缠绕，古木参天，堪称一绝；直插云天的宝天曼，酷似刀削的雁翎刀，高耸入云的牧虎顶，突兀拔起直刺云天的扫帚壁，若隐若现的姑娘楼等，气势磅礴，浑然天成，自然风光尽占风流。宝天大峡谷栈道全长4公里，峡谷内瀑、潭景观美轮美奂，云雾缭绕，仿佛置身于仙境一般。"}}, {"title": "伏牛地下河", "address": "南阳市西峡县双龙镇小水村", "image": "", "rank": 30, "time": 2, "location": {"lat": 33.479436260209795, "lng": 111.59323586155521}, "feature": {"sight_features": "特色1 河水清澈见底，野鱼成群，虾蟹游弋", "sight_content": "河南西峡伏牛地下河景区位于西峡县城北30公里处，距中国名镇双龙镇3公里、龙潭沟景区6公里、五道幢、老君洞景区13公里、老界岭滑雪场50公里、鹳河漂流16公里、栾川县景区群中心60公里，恰处河南西峡旅游黄金线路金三角位置。景区紧邻311国道，区位、交通优势十分优越。\n伏牛地下河景区旅游资源极其独特，别有洞天 ：洞内乘船、岩壁栈道观瞻、数量及种类极多的蝙蝠群以及形态万千的岩画及栩栩如生的钟乳石星罗棋布，实属中原仅有，北方独特。亲临其景、如梦如幻，美不胜收，尤如置身世外桃源。伏牛地下河洞内冬暖夏凉，常温18度左右，是四季旅游观光的最佳去处和选择。地下河水清澈见底，野鱼成群，虾蟹游弋，碧潭深不可测，激流鱼翔浅底、峡谷奇石、 裂岩纵横，令游客浮想联翩、神秘莫测；船楫拨动，水灯辉映，金壁辉煌，尤如步入水下龙宫，油然而生无穷遐思。洞内钟乳石发育独特：“迎宾大厅”气势雄浑，“蓬莱仙阁”浑然天成，“擎天玉柱”巍然耸立，“佛光普照”惟妙惟肖。\n当游客乘舟游入地下河道，您就走进了神秘，走进了新奇，走进了静谧，走进了时空隧道，走进了地下宫殿。温馨的提醒尊敬的游客：静静地，静静地，切莫惊动了洞内的佛爷、蝠群、睡狮、醉梦中的八仙。伏牛地下河正成为河南乃至中国一个新的旅游靓点，她以其极为独特的旅游资源热烈欢迎八方宾朋！"}}, {"title": "南召猿人山滑雪场", "address": "南阳市南召县马市坪乡猿人山", "image": "", "rank": 31, "time": 4.0, "location": {"lat": 33.6177402139141, "lng": 112.23846831873561}, "feature": {"sight_features": "", "sight_content": ""}}, {"title": "鹳河漂流", "address": "南阳市西峡县老鹳河上游", "image": "", "rank": 32, "time": null, "location": {"lat": 33.51688811827859, "lng": 111.48423926721358}, "feature": {"sight_features": "", "sight_content": ""}}, {"title": "福胜寺塔", "address": "南阳邓州市古城街旁边", "image": "", "rank": 33, "time": 1.0, "location": {"lat": 32.69391743997009, "lng": 112.09342010302309}, "feature": {"sight_features": "", "sight_content": ""}}, {"title": "张衡墓", "address": "南阳市卧龙区石桥镇小石桥村", "image": "", "rank": 34, "time": 1.0, "location": {"lat": 33.17226758302508, "lng": 112.62471139050426}, "feature": {"sight_features": "", "sight_content": ""}}, {"title": "墨派真人版密室逃脱", "address": "南阳市宛城区长江路水务小区（海底捞火锅东侧）内一单元（临街楼）7楼", "image": "", "rank": 35, "time": 2, "location": {"lat": 32.99229475976812, "lng": 112.54595893080138}, "feature": {"sight_features": "", "sight_content": ""}}, {"title": "邓州台湾村", "address": "邓州市张村镇上营村、冠军村", "image": "", "rank": 36, "time": 1.5, "location": {"lat": 32.800259456881456, "lng": 111.94430953420111}, "feature": {"sight_features": "", "sight_content": ""}}, {"title": "南召百尺潭", "address": "南阳市南召县崔庄乡", "image": "", "rank": 37, "time": 1.5, "location": {"lat": 33.59588828982893, "lng": 112.41306401250287}, "feature": {"sight_features": "", "sight_content": ""}}, {"title": "宝天曼自然博物馆", "address": "南阳市内乡县城东5公里五龙庙坡处312国道旁", "image": "", "rank": 38, "time": 1.0, "location": {"lat": 33.06536244935987, "lng": 111.8854271638872}, "feature": {"sight_features": "", "sight_content": ""}}, {"title": "西峡龙河漂流", "address": "南阳市西峡县二郎坪乡西峡龙河景区内", "image": "", "rank": 39, "time": 3.5, "location": {"lat": 33.52879435201046, "lng": 111.69422707519209}, "feature": {"sight_features": "", "sight_content": ""}}, {"title": "独山森林公园", "address": "南阳市卧龙区独山大道", "image": "", "rank": 40, "time": 2.5, "location": {"lat": 33.008217433284905, "lng": 112.57308869323704}, "feature": {"sight_features": "", "sight_content": ""}}, {"title": "彭雪枫纪念馆", "address": "南阳市镇平县建设东路378号", "image": "", "rank": 41, "time": 1.0, "location": {"lat": 33.04922207843038, "lng": 112.24749833904406}, "feature": {"sight_features": "", "sight_content": ""}}, {"title": "云华蝙蝠洞", "address": "南阳市西峡县五里桥镇油坊组", "image": "", "rank": 42, "time": 1.5, "location": {"lat": 33.34009482111722, "lng": 111.44359405461736}, "feature": {"sight_features": "", "sight_content": ""}}, {"title": "老鹳河", "address": "河南省西峡县军马河乡", "image": "", "rank": 43, "time": 2, "location": {"lat": 33.52921743490105, "lng": 111.4982128846249}, "feature": {"sight_features": "", "sight_content": ""}}, {"title": "水帘洞", "address": "南阳市桐柏县水濂路", "image": "", "rank": 44, "time": 1.5, "location": {"lat": 32.37476708991843, "lng": 113.37813693829001}, "feature": {"sight_features": "", "sight_content": ""}}, {"title": "坐禅谷", "address": "南阳市淅川县仓房镇", "image": "", "rank": 45, "time": 2.5, "location": {"lat": 32.78125825668144, "lng": 111.48565526349404}, "feature": {"sight_features": "", "sight_content": ""}}, {"title": "白象湾水上乐园", "address": "南阳市卧龙大桥南", "image": "", "rank": 46, "time": 2, "location": {"lat": 32.984769364381975, "lng": 112.53670155655479}, "feature": {"sight_features": "特色1 集水上休闲、娱乐以及完善的各种服务设施为一体的大型主体性水上娱乐项目！ 特色2 娱乐区内有所有水体均设置国际标准的水净化系统，十多种时尚动感，惊险刺激，新颖好玩！ 特色3 园内最大的玩水区，可供不同年龄段的游客尽情挥洒热情，无限亲近清澈水世界！", "sight_content": "【景点介绍】\n白象湾水上乐园位于白河南岸，风景绮丽，环境优美、绿树成荫，景色迷人，由南阳君达游乐有限公司斥资5000万投建，是南阳市区第一家水上娱乐产业一站式体验基地。白象湾水上乐园总占地3万平米，全市仅20分钟可达，交通极其便利。以南阳市母亲河——白河得天独厚的绿色自然空间为依托，以激情夏日游闲人居为特色，以追求人们释放压力乐活人生为宗旨的，集水上休闲、娱乐以及完善的各种服务设施为一体的大型主体性水上娱乐项目。娱乐区内有所有水体均设置国际标准的水净化系统，十多种时尚动感，惊险刺激，新颖好玩，适合各类人群的新鲜刺激的娱乐项目。"}}, {"title": "桃花源", "address": "南阳市内乡县夏馆镇青杠树村", "image": "", "rank": 47, "time": 4.5, "location": {"lat": 33.419022734556286, "lng": 111.82349094021242}, "feature": {"sight_features": "", "sight_content": ""}}, {"title": "玉雕湾自然风景区", "address": "南阳市镇平县石佛寺镇", "image": "", "rank": 48, "time": 1.0, "location": {"lat": 33.10241438908425, "lng": 112.17332645771288}, "feature": {"sight_features": "", "sight_content": ""}}, {"title": "寺山国家森林公园", "address": "南阳市西峡县灌河桥西", "image": "", "rank": 49, "time": 1.5, "location": {"lat": 33.31331611529193, "lng": 111.48039809758171}, "feature": {"sight_features": "", "sight_content": ""}}, {"title": "三贤山", "address": "南阳市方城县广阳镇北边，位于广阳镇北5公里许。", "image": "", "rank": 50, "time": 1.5, "location": {"lat": 33.297625639620854, "lng": 112.72329660062933}, "feature": {"sight_features": "", "sight_content": ""}}, {"title": "桐柏革命纪念馆", "address": "南阳市桐柏县大同路与三一二国道交汇处", "image": "", "rank": 51, "time": 1.0, "location": {"lat": 32.46467923772593, "lng": 113.24026240353261}, "feature": {"sight_features": "", "sight_content": ""}}, {"title": "南阳西峡银树沟生态旅游区", "address": "南阳市西峡县二郎坪乡栗坪村", "image": "", "rank": 52, "time": 2.0, "location": {"lat": 33.52879435201046, "lng": 111.69422707519209}, "feature": {"sight_features": "", "sight_content": ""}}, {"title": "宛城大剧院", "address": "南阳市建设路宛城大剧院（人民公园北门东100米）", "image": "", "rank": 53, "time": 2, "location": {"lat": 33.009447636300116, "lng": 112.54696149275054}, "feature": {"sight_features": "", "sight_content": ""}}, {"title": "商圣苑", "address": "内乡县城东五公里处，312国道旁", "image": "", "rank": 54, "time": 1.0, "location": {"lat": 33.06536244935987, "lng": 111.8854271638872}, "feature": {"sight_features": "", "sight_content": ""}}, {"title": "西峡灌河军事漂流", "address": "河南省西峡县米坪镇。", "image": "", "rank": 55, "time": 3.5, "location": {"lat": 33.60562697324576, "lng": 111.45363346220023}, "feature": {"sight_features": "", "sight_content": ""}}, {"title": "八仙洞", "address": "南阳市淅川县马蹬镇余沟村", "image": "", "rank": 56, "time": 1.0, "location": {"lat": 32.87922796646493, "lng": 111.56430253701156}, "feature": {"sight_features": "特色1 洞内钟乳石形态各异、姿态万千", "sight_content": "八仙洞位于贵州黔西县乌江源百里画廊，地处六冲河、三岔河、鸭池河三江交汇处，在这里山势险峻、雄关漫漫、碧水绵延、一泻千里。自古为一夫当关，万夫难敌之险。八仙洞不仅拥有令人惊叹的洞穴奇观，而且容纳了博大精深的佛道文化。洞穴内的“聚仙阁”、“万佛山”、“观音堂”、“财神殿”巧妙的将洞穴奇观和佛道文化紧密联系，造就出厚重的文化底蕴。这也是八仙洞比较全国其他旅游溶洞最具其特色的地方。\n\n八仙洞是一个多层次、多类型的高位溶洞，洞内沉积物生长独特，景物千姿百态，精妙绝伦。洞内空间开阔，地形起伏跌宕。全洞长约2公里，两壁最宽处30米，垂直高度多在20—40米，最高处达80米。目前八仙洞已开发9个洞景，全洞大小景观80余个，洞内目前已发现的滴石地貌有30多种类型，几乎囊括溶洞所有类型，其中有些类型极为独特，在国内是极为罕见的。特别是龙宫洞景中的“定海神针”和水晶宫中的“盘花玉笋”堪称国宝。\n水晶宫的盘花玉笋，通体透明，高10余米直径1米。在全国的溶洞中是绝无仅有的。洞顶是鹅管状钟乳石，它的中部是空心的，鹅管悬于洞顶到达一定程度时，则会因为自身的重量而引起破裂和坠落，通过实验研究，完好的鹅管可支持900克重量。它的形成条件相当严格：洞顶水平，裂隙小且分布均匀，滴水洁净滴速也十分缓慢。像这么大面积的均匀分布，在国内是极为少见的。"}}, {"title": "南召白河第一漂", "address": "南阳市南召县乔端镇。", "image": "", "rank": 57, "time": 4.0, "location": {"lat": 33.5779510487974, "lng": 112.11667194345357}, "feature": {"sight_features": "", "sight_content": ""}}, {"title": "鸭河口水库", "address": "南阳市南召县", "image": "", "rank": 58, "time": 1.0, "location": {"lat": 33.49618580462491, "lng": 112.43542522254566}, "feature": {"sight_features": "", "sight_content": ""}}, {"title": "石门湖", "address": "西峡县城312国道与滨河大道交叉口向北八公里", "image": "", "rank": 59, "time": 4.0, "location": {"lat": 33.28018682143717, "lng": 111.61482969681101}, "feature": {"sight_features": "", "sight_content": ""}}, {"title": "南阳市人民公园", "address": "河南省南阳市宛城区人民路中段", "image": "", "rank": 60, "time": 2.5, "location": {"lat": 32.69610994454448, "lng": 112.8452998386025}, "feature": {"sight_features": "", "sight_content": ""}}]}