{"cityName": "南漳", "days": 2, "cityImage": "", "spots": [{"title": "香水河", "address": "襄阳市南漳县薜坪镇东4公里处", "image": "", "rank": 1, "time": 3.5, "location": {"lat": 31.78112970677853, "lng": 111.84538618391599}, "feature": {"sight_features": "特色1 遍布数十个瀑布、喀斯特溶洞穴", "sight_content": "景区内有奇形与象形山石、洞穴、瀑布群、溪、古树名木、山寨寺庙遗址等。在不太长的地段上分布着三叠瀑、七彩瀑、雄鹰瀑等数十个瀑布。最为奇特的“七彩瀑”，落差百余米，由5股清泉汇集而成，晴日上午8时至11时，太阳光从林间射下，与飞瀑溅起的水珠逆向角度，便现出扑朔迷离之状：赤、橙、黄绿、青、蓝、紫，如彩虹当空，晶光闪烁，福祥之气溢满山野。\n其河谷落岩而生，喀斯特溶洞穴遍布，罗汉洞、金牛洞、狮子洞、回箭洞、大小钳中洞、楚乐洞筹构成品。洞穴中还有东、西天坑和大山天悬眼等喀斯特漏斗和天井。再就是绝壁奇峰，断裂山体又构成本景区内另一大特色。该景区内杂灌木遍野，植被完整，山谷中尚有珍贵的野生腊梅、紫薇、红豆杉、玉兰等，加上季相变化的黄栌木、乌析、枫树，以及大量色泽艳丽的草木、木本花卉，四季绚丽多姿，季季色彩各异。\n特别是老林之中的獐子、鹿、果子狸、獾子、狐狸、猕猴、大水獭、吾鼠尊小型野生动物，以及雉鸡、锦鸡、语眉等种类繁多的禽鸟群，更使整个景区增添了灵动和新奇、也丰富了景区观光览胜的内涵。香水河本名陈家河，属蛮河上游三条支流之一， 其上游为毛山河(穿山洞以西)。本景区以瀑布群为主景。"}}, {"title": "春秋寨景区", "address": "襄阳市南漳县东巩镇陆坪村", "image": "", "rank": 2, "time": 3.5, "location": {"lat": 31.378284576687438, "lng": 111.89418229013332}, "feature": {"sight_features": "特色1 AAAA级景区", "sight_content": "春秋寨又名青云寨、陆坪寨，是举世闻名的南漳古山寨群的杰出代表，为中国“百大新发现”之一，它因寨内建有纪念关公的建筑春秋楼而得名。这里 “水作青罗带，山如碧玉簪”，蓝天白云，秀水苍崖，敌楼古堡，交相辉映，美不胜收，人文景观和自然景观珠联璧合，实为罕见的世界奇观。其壮美被专家们誉为“凌驾于泰山天街、华山北峰之上”，中国乃至世界最美的古山寨之一。\n春秋寨位于湖北省襄阳市南漳县东巩镇陆坪村境内，250 省道76KM（里程碑）处，海拔高 270米，总长490米，东西最宽处50余米，占地面积2.45万平方米，建筑面积9500平方米，依山就势建于山脊上的石砌房屋鳞次栉比，蔚为壮观，放眼远眺，春秋寨宛如一段长城横亘于一座南北走向的山顶之上。"}}, {"title": "水镜庄", "address": "襄阳市南漳县城关镇白凤路2号", "image": "", "rank": 3, "time": null, "location": {"lat": 31.782514662967944, "lng": 111.85261143479384}, "feature": {"sight_features": "", "sight_content": ""}}, {"title": "龙王峡漂流", "address": "襄阳市南漳县肖堰镇", "image": "", "rank": 4, "time": 2.0, "location": {"lat": 31.670279528416604, "lng": 111.8428079572718}, "feature": {"sight_features": "", "sight_content": ""}}, {"title": "湖北锦秀谷景区", "address": "襄阳市南漳县长坪镇长岭村", "image": "", "rank": 5, "time": 2, "location": {"lat": 31.756038513706258, "lng": 111.6248261114922}, "feature": {"sight_features": "", "sight_content": ""}}, {"title": "水镜庄攀岩", "address": "襄樊市南漳县城南0.5公里处", "image": "", "rank": 6, "time": 2, "location": {"lat": 31.78112970677853, "lng": 111.84538618391599}, "feature": {"sight_features": "", "sight_content": ""}}, {"title": "香水河七彩瀑布风景区", "address": "湖北省襄阳市南漳薛坪镇", "image": "", "rank": 7, "time": 2, "location": {"lat": 31.64546036144102, "lng": 111.67472983918299}, "feature": {"sight_features": "", "sight_content": ""}}, {"title": "龙王峡", "address": "251省道", "image": "", "rank": 8, "time": 2.0, "location": {"lat": 40.38415434004843, "lng": 119.09209039395995}, "feature": {"sight_features": "", "sight_content": ""}}, {"title": "七里山森林公园", "address": "湖北省南漳县九集镇", "image": "", "rank": 9, "time": 2, "location": {"lat": 31.81948141403095, "lng": 112.0119514441361}, "feature": {"sight_features": "", "sight_content": ""}}, {"title": "朱家州农家乐", "address": "城关镇朱家洲村头", "image": "", "rank": 10, "time": 2, "location": {"lat": 32.24937976418121, "lng": 111.64771530958153}, "feature": {"sight_features": "", "sight_content": ""}}, {"title": "染坊湾生态农场直营店", "address": "便河路103号附近", "image": "", "rank": 11, "time": 2, "location": {"lat": 30.357060220686552, "lng": 112.19748059934538}, "feature": {"sight_features": "", "sight_content": ""}}, {"title": "凯骑水上乐园", "address": "经济开发区凯骑产业卫星城", "image": "", "rank": 12, "time": 2, "location": {"lat": 26.655443026404118, "lng": 118.1922561315343}, "feature": {"sight_features": "", "sight_content": ""}}, {"title": "汉徐庶故里", "address": "徐庶路10-1", "image": "", "rank": 13, "time": 2, "location": {"lat": 31.78395872369139, "lng": 111.8571516702651}, "feature": {"sight_features": "", "sight_content": ""}}, {"title": "宝宝军团儿童成长主题乐园", "address": "湖北省襄阳市南漳县水镜路318号", "image": "", "rank": 14, "time": 2, "location": {"lat": 31.781986328594808, "lng": 111.85424922539964}, "feature": {"sight_features": "", "sight_content": ""}}, {"title": "孩子王国儿童乐园", "address": "湖北省襄阳市南漳县南井街", "image": "", "rank": 15, "time": 2, "location": {"lat": 31.81993352037456, "lng": 112.01098836361241}, "feature": {"sight_features": "", "sight_content": ""}}, {"title": "楚源度假山庄", "address": "305省道附近", "image": "", "rank": 16, "time": 2, "location": {"lat": 38.97180225572126, "lng": 112.6319987223776}, "feature": {"sight_features": "", "sight_content": ""}}, {"title": "美食广场", "address": "湖北省襄阳市南漳县万山路", "image": "", "rank": 17, "time": 2, "location": {"lat": 31.78227033267956, "lng": 111.85185479206278}, "feature": {"sight_features": "", "sight_content": ""}}, {"title": "陈家祠堂", "address": "襄阳市南漳县", "image": "", "rank": 18, "time": 1.5, "location": {"lat": 31.78112970677853, "lng": 111.84538618391599}, "feature": {"sight_features": "", "sight_content": ""}}, {"title": "开心岛儿童水上主题俱乐部", "address": "水镜路龙鹏大厦2楼", "image": "", "rank": 19, "time": 2, "location": {"lat": 31.782334411890652, "lng": 111.85145799524783}, "feature": {"sight_features": "", "sight_content": ""}}, {"title": "太平儿童乐园", "address": "湖北省襄阳市南漳县东巩镇太坪儿童乐园", "image": "", "rank": 20, "time": 3.5, "location": {"lat": 31.433687400641922, "lng": 111.87357412958139}, "feature": {"sight_features": "", "sight_content": ""}}, {"title": "襄樊烟草白鹤山庄", "address": "镜湖路88号附近", "image": "", "rank": 21, "time": 2, "location": {"lat": 31.76955811685881, "lng": 111.82302969716356}, "feature": {"sight_features": "", "sight_content": ""}}, {"title": "水镜湖度假村", "address": "泰鸿山附近", "image": "", "rank": 22, "time": 2, "location": {"lat": 31.78880075777471, "lng": 111.8067119245748}, "feature": {"sight_features": "", "sight_content": ""}}, {"title": "水镜湖度假村", "address": "水镜路498-1号", "image": "", "rank": 23, "time": null, "location": {"lat": 31.76835609000276, "lng": 111.82285030375661}, "feature": {"sight_features": "", "sight_content": ""}}, {"title": "科学技术馆", "address": "苗圃路28号", "image": "", "rank": 24, "time": 2, "location": {"lat": 31.950924135300987, "lng": 118.85931765870419}, "feature": {"sight_features": "", "sight_content": ""}}, {"title": "华中绿谷水上乐园", "address": "涌泉工业园绿谷大道1号", "image": "", "rank": 25, "time": 2, "location": {"lat": 31.79618460980734, "lng": 111.91074895892466}, "feature": {"sight_features": "", "sight_content": ""}}, {"title": "响水洞农家乐", "address": "251省道附近", "image": "", "rank": 26, "time": 2, "location": {"lat": 40.38415434004843, "lng": 119.09209039395995}, "feature": {"sight_features": "", "sight_content": ""}}, {"title": "盐池农家乐", "address": "251省道附近", "image": "", "rank": 27, "time": 2, "location": {"lat": 40.38415434004843, "lng": 119.09209039395995}, "feature": {"sight_features": "", "sight_content": ""}}, {"title": "松颜阁根雕艺术馆", "address": "水镜大道717号附近", "image": "", "rank": 28, "time": 2, "location": {"lat": 31.779486275650783, "lng": 111.83474098604636}, "feature": {"sight_features": "", "sight_content": ""}}, {"title": "清河农场(育英路)", "address": "清凤街1", "image": "", "rank": 29, "time": 2, "location": {"lat": 31.72077065229102, "lng": 111.9770478805629}, "feature": {"sight_features": "", "sight_content": ""}}, {"title": "四海钓鱼", "address": "武镇白起小区6号(荩忱大道)", "image": "", "rank": 30, "time": 2, "location": {"lat": 29.465456818306386, "lng": 97.67405630185306}, "feature": {"sight_features": "", "sight_content": ""}}, {"title": "湖北金态源现代农业发展有限公司", "address": "武安镇刘家巷村委会李家岗榆树湾坝堰冲窑冲", "image": "", "rank": 31, "time": 2, "location": {"lat": 29.069465584623046, "lng": 111.63112898717334}, "feature": {"sight_features": "", "sight_content": ""}}, {"title": "樱桃谷", "address": "城关镇榆树岭村", "image": "", "rank": 32, "time": 2, "location": {"lat": 31.806493524766022, "lng": 111.84431533098534}, "feature": {"sight_features": "", "sight_content": ""}}, {"title": "白马洞游泳池", "address": "襄阳市-南漳县-玉凤路与西关街交叉口南150米", "image": "", "rank": 33, "time": 2, "location": {"lat": 31.77768205100405, "lng": 111.84250756929909}, "feature": {"sight_features": "", "sight_content": ""}}, {"title": "天池茶场", "address": "襄阳市-南漳县-刘坪村一组", "image": "", "rank": 34, "time": 2, "location": {"lat": 31.81559765027087, "lng": 111.78580490227122}, "feature": {"sight_features": "", "sight_content": ""}}, {"title": "漫云村", "address": "湖北省南漳县巡检镇境内", "image": "", "rank": 35, "time": 2.5, "location": {"lat": 31.388747862116716, "lng": 111.6266397193507}, "feature": {"sight_features": "", "sight_content": ""}}, {"title": "玉印岩", "address": "湖北省南漳县板桥镇", "image": "", "rank": 36, "time": 2, "location": {"lat": 31.537461643812197, "lng": 111.59313812771235}, "feature": {"sight_features": "", "sight_content": ""}}]}