{"cityName": "南召", "days": 2, "cityImage": "", "spots": [{"title": "南阳五朵山", "address": "河南省南阳市南召县五朵山", "image": "", "rank": 1, "time": 2.0, "location": {"lat": 33.49618580462491, "lng": 112.43542522254566}, "feature": {"sight_features": "特色1 久负盛名的中原道教圣地 特色2 仙人仙山仙境界，玄门玄户玄妙地 特色3 奇峰相峙，飞瀑高挂，怪石林立、泉流潺潺", "sight_content": "五朵山风景区，国家4a级旅游区，是南阳伏牛山世界地质公园的主要园区之一。五朵山位于河南省南召县四棵树乡，五朵山风景区，是久负盛名的中原道教圣地。五朵山与“南顶”湖北武当山齐名，素有“北顶”之称、奇峰相峙，飞瀑高挂，怪石林立，泉流潺潺，春天杜鹃烂漫，夏日绿意盎然，秋季层林尽染，冬季银装素裹，山水如诗如画，兼具南秀北雄。唐贞观年间，著名道士吴筠在此创建吴筠观。明朝皇帝朱允文也曾到此避难。后为纪念朱允文而建的祖师庙雄踞海拔1665米的五朵山主峰圣垛之上，四周云雾茫茫，扑朔迷离，恍若仙境。五朵山景区内的“五垛晓烟”、“金顶日出”、“三潭夜月”、“鹰啸长空”、“群蝶戏瀑”、“仙女沐浴”、“拴马桩”、“藏兵洞”、“插剑石”、“青牛宫”等四十多个名胜景点，让人回味无穷，叹为观止。\n\n五朵山现已开放金顶、万福宫和暴瀑峡三大游览区，120多处景点，主要景观有金顶、天梯、暴瀑、万福宫、鸳鸯溪、仙人桥等。金顶四周摩壁万仞，站立其上俯瞰五朵山的钟鼓楼峰、大峰和奇峰怪石、茫茫林海等，如临仙境，四千余级的石阶路势则宛如登天云梯。\n五朵山暴瀑峡位于北大河河谷内，峡谷内飞瀑流泉，瀑潭相连，水流潺潺，碧潭幽幽，石崖石壁、造型岩体、突兀巨石、悬天一线和人造平湖、飞瀑渊潭、茂林修竹、烂漫山花、珍禽异兽等特色鲜明的自然景观十分秀美。主景点暴瀑落差近百余米，九转十折，“轰隆”而下，声若雷鸣，传说即真武祖师明朝建文皇帝朱允炆净化体内“戾暴”之气的瀑水，因此被敬称为“暴瀑”。 这里自古就是道教胜地，文化底蕴深厚，历史传统颇多，民间道士信徒皆慕名朝拜。五朵山祖始庙为明永乐年间（1403－1425）所建，鼎盛于明、清两代。世传明朝第二代皇帝建文帝朱允炆在“靖难之变”中下野后辗转到五朵山建庙修道，民称“祖师爷”，钦封“真武大帝”。自此其山成为“北顶”，又称“祖师顶”、“金顶”，与南顶武当山遥相辉映。\n五朵山万福宫坐落在圣朵下山腰谷地中，包括玉皇殿、药王殿、文昌殿、财神殿、土地庙等几组庙宇道观，规模宏大，气势恢宏。其中，药王殿又名千金阁，殿内除供奉唐朝名医药王孙思邈外，还供奉了神农，扁鹊，华佗，张仲景，李时珍等历代名医，堪称独树一帜。"}}, {"title": "南召大宝天曼度假区", "address": "河南南阳市南召县乔端镇-南召宝天曼景区", "image": "", "rank": 2, "time": 4.0, "location": {"lat": 33.392525716539694, "lng": 111.9250855699146}, "feature": {"sight_features": "特色1 保存河南省唯一较为完整的原始次生林", "sight_content": "南召宝天曼地处伏牛山腹地，古老繁茂的原始森林及丰富独特的野生动植物资源，在同纬度居全国之首位，被中外专家誉为“天然物种基因库 ”，“中州绿色明珠”。\n宝天曼的生态旅游资源十分独特，四季景色秀美，春天春花似海，遍布山峦，尤其是位于西石壁的万亩杜鹃林，混合着迎春花、连翘花、山茱萸花、玉兰、樱花、紫藤等各色花朵竟相开放，争芳斗艳；\n夏无酷署，清凉世界，扫帚场绿色天然空调，树影摇曳，凉爽宜人；深秋红叶，层林尽染，枫红松翠，色彩斑斓；冬披银装，满枝冰挂，冰潭冰瀑相间，景色迷人。\n区内3000公顷的原始处女林老藤缠绕，古木参天，堪称一绝；直插云天的宝天曼，酷似刀削的雁翎刀，高耸入云的牧虎顶，突兀拔起直刺云天的扫帚壁，若隐若现的姑娘楼等，气势磅礴，浑然天成，自然风光尽占风流。宝天大峡谷栈道全长4公里，峡谷内瀑、潭景观美轮美奂，云雾缭绕，仿佛置身于仙境一般。"}}, {"title": "南召百尺潭", "address": "南阳市南召县崔庄乡", "image": "", "rank": 3, "time": 1.5, "location": {"lat": 33.59588828982893, "lng": 112.41306401250287}, "feature": {"sight_features": "", "sight_content": ""}}, {"title": "南召白河第一漂", "address": "南阳市南召县乔端镇。", "image": "", "rank": 4, "time": 4.0, "location": {"lat": 33.5779510487974, "lng": 112.11667194345357}, "feature": {"sight_features": "", "sight_content": ""}}, {"title": "鸭河口水库", "address": "南阳市南召县", "image": "", "rank": 5, "time": 1.0, "location": {"lat": 33.49618580462491, "lng": 112.43542522254566}, "feature": {"sight_features": "", "sight_content": ""}}, {"title": "猿人山峡谷漂流", "address": "南阳市南召县崔庄乡山坪村", "image": "", "rank": 6, "time": 2, "location": {"lat": 33.600143675464395, "lng": 112.39626261288855}, "feature": {"sight_features": "", "sight_content": ""}}, {"title": "南召宝天曼天河冲浪", "address": "河南南阳市南召县乔端镇-南召宝天曼景区", "image": "", "rank": 7, "time": 4.0, "location": {"lat": 33.392525716539694, "lng": 111.9250855699146}, "feature": {"sight_features": "特色1 天河冲浪位于世界地质公园、世界生物圈保护区、国家级自然保护区——南召宝天曼景区内！<br> 漂流河道经专业人士精心设计，自然原始，浑然天成！<br> 河道时宽时窄，既有急流险滩，又有平湖深潭，两岸风景秀丽，自然风光十分迷人！", "sight_content": "【景区介绍】\n天河冲浪的水源自海拔1830米的宝天曼曼顶，水质清澈、甘甜。宝天曼保护圈内有高等植物2900余种，其中国家重点保护植物31种；野生动物380余种，其中国家重点保护野生动物48种；\n鸟类34科78属153种，其中国家重点保护鸟类14种；昆虫3000余种，仅蝶类就160余种。良好的生态与众多的中药材使得河南南阳南召宝天曼峡谷漂流——天河冲浪成为一条纯生原生态的天然漂流。\n天河冲浪上码头与下码头之间的河道长度为8.9公里，蜿蜒于崇山峻岭之间，穿行于密林花草之中，两岸鸟飞蝶舞，花香荡漾，乘船而下，分明就是一次对中原大地最珍贵的生态宝库的巡礼。\n宝天曼峡谷漂流河段落差达159米，皮艇时而迎着岩石直冲而去，时而顺着数米的瀑布跌宕而下，时而在幽深的水潭中旋而复转，如遇到开阔的潭面你还可以重温一下童年的水战梦……\n庄生梦蝶，不知是梦是醒；我们，在这童话般的生态秘境中，也要不知是梦是醒了。"}}, {"title": "南召中华猿人大峡谷漂流", "address": "南阳市南召县崔庄乡", "image": "", "rank": 8, "time": 4.0, "location": {"lat": 33.59588828982893, "lng": 112.41306401250287}, "feature": {"sight_features": "", "sight_content": ""}}, {"title": "南召真武顶风景区", "address": "南召县马市坪乡", "image": "", "rank": 9, "time": 4.0, "location": {"lat": 33.6177402139141, "lng": 112.23846831873561}, "feature": {"sight_features": "", "sight_content": ""}}, {"title": "南召莲花温泉", "address": "南阳市南召县皇路店镇温泉路(近鸭河)莲花中医院旁", "image": "", "rank": 10, "time": 2, "location": {"lat": 33.2604969074439, "lng": 112.61446089280452}, "feature": {"sight_features": "", "sight_content": ""}}, {"title": "南召九龙瀑", "address": "河南省南阳市南召县九龙瀑景区", "image": "", "rank": 11, "time": 3.0, "location": {"lat": 33.49618580462491, "lng": 112.43542522254566}, "feature": {"sight_features": "", "sight_content": ""}}, {"title": "南阳南召白河漂流", "address": "南阳市南召县乔端镇", "image": "", "rank": 12, "time": 2.0, "location": {"lat": 33.5779510487974, "lng": 112.11667194345357}, "feature": {"sight_features": "", "sight_content": ""}}, {"title": "兄弟联盟密室逃脱", "address": "人民路与丹霞路交叉口向西40米,公路局对面四楼(老汽车站)", "image": "", "rank": 13, "time": 2, "location": {"lat": 33.49100134472398, "lng": 112.43988007048497}, "feature": {"sight_features": "", "sight_content": ""}}, {"title": "南召县兴达无公害果蔬农民专业合...", "address": "231省道东150米", "image": "", "rank": 14, "time": 2, "location": {"lat": 38.570258381735, "lng": 115.41481678205713}, "feature": {"sight_features": "", "sight_content": ""}}, {"title": "南阳山王度假村", "address": "南阳南阳夏馆镇大石窑村（宝天曼风景区山门内5公里）", "image": "", "rank": 15, "time": 2, "location": {"lat": 33.51201703368141, "lng": 111.90437428029689}, "feature": {"sight_features": "", "sight_content": ""}}, {"title": "丹霞山公园", "address": "河南省南阳市南召县留山镇", "image": "", "rank": 16, "time": 3.0, "location": {"lat": 33.48954652451738, "lng": 112.56139182575093}, "feature": {"sight_features": "", "sight_content": ""}}, {"title": "日晔兴度假村", "address": "河南省南阳市南召县S333", "image": "", "rank": 17, "time": 2, "location": {"lat": 33.49618580462491, "lng": 112.43542522254566}, "feature": {"sight_features": "", "sight_content": ""}}, {"title": "科迪食文化广场南召三店", "address": "河南省南阳市南召县光明路", "image": "", "rank": 18, "time": 2, "location": {"lat": 33.48627726140388, "lng": 112.4469695442816}, "feature": {"sight_features": "", "sight_content": ""}}, {"title": "滨河公园", "address": "农业路与滨河路交汇处向南", "image": "", "rank": 19, "time": 2.0, "location": {"lat": 34.15911620709235, "lng": 113.47478067664856}, "feature": {"sight_features": "", "sight_content": ""}}, {"title": "天主堂", "address": "207国道附近", "image": "", "rank": 20, "time": 0.4, "location": {"lat": 38.67484937592033, "lng": 114.04837902844483}, "feature": {"sight_features": "", "sight_content": ""}}, {"title": "恒欣避暑山庄", "address": "大石窑村附近", "image": "", "rank": 21, "time": 2, "location": {"lat": 40.733304499606476, "lng": 116.24287188256021}, "feature": {"sight_features": "", "sight_content": ""}}, {"title": "碧水山庄", "address": "皇路店镇鸭河大桥莲花温泉对面", "image": "", "rank": 22, "time": 2, "location": {"lat": 33.283330402286374, "lng": 112.6412312863243}, "feature": {"sight_features": "", "sight_content": ""}}, {"title": "北顶度假村", "address": "玉京宫附近", "image": "", "rank": 23, "time": 2, "location": {"lat": 33.328413740330284, "lng": 112.26054966349336}, "feature": {"sight_features": "", "sight_content": ""}}, {"title": "玉京宫", "address": "文昌庙附近", "image": "", "rank": 24, "time": 2, "location": {"lat": 37.74645392003926, "lng": 112.60981168748506}, "feature": {"sight_features": "", "sight_content": ""}}, {"title": "白水河文化休闲广场", "address": "331省道附近", "image": "", "rank": 25, "time": 2, "location": {"lat": 38.76243571351783, "lng": 115.64385441420583}, "feature": {"sight_features": "", "sight_content": ""}}, {"title": "南河店清真寺", "address": "南河店便桥附近", "image": "", "rank": 26, "time": 2, "location": {"lat": 33.355807171317224, "lng": 112.41580200817185}, "feature": {"sight_features": "", "sight_content": ""}}, {"title": "常绿耐寒木兰科植物园", "address": "231省道", "image": "", "rank": 27, "time": 2, "location": {"lat": 38.570258381735, "lng": 115.41346932379217}, "feature": {"sight_features": "", "sight_content": ""}}, {"title": "中日友好大增植物园", "address": "S231", "image": "", "rank": 28, "time": 2, "location": {"lat": 38.75587208936252, "lng": 115.49672400896527}, "feature": {"sight_features": "", "sight_content": ""}}, {"title": "百尺潭滑雪场", "address": "243省道", "image": "", "rank": 29, "time": 2, "location": {"lat": 32.14968473714547, "lng": 119.36607869484463}, "feature": {"sight_features": "", "sight_content": ""}}, {"title": "圣朵主峰", "address": "南邵县五朵山景区内", "image": "", "rank": 30, "time": 2, "location": {"lat": 33.331811586383594, "lng": 112.3860121313583}, "feature": {"sight_features": "", "sight_content": ""}}, {"title": "大雪山国家森林游乐区", "address": "南阳路逸仙庄1号", "image": "", "rank": 31, "time": 2, "location": {"lat": 40.663642685489165, "lng": 122.25223969874885}, "feature": {"sight_features": "", "sight_content": ""}}, {"title": "莲花温泉水城水上乐园", "address": "皇路店镇", "image": "", "rank": 32, "time": 2, "location": {"lat": 33.2604969074439, "lng": 112.61446089280452}, "feature": {"sight_features": "", "sight_content": ""}}, {"title": "南召县图书馆", "address": "人民路332号附近", "image": "", "rank": 33, "time": 2, "location": {"lat": 30.904007411250454, "lng": 121.61868589501205}, "feature": {"sight_features": "", "sight_content": ""}}, {"title": "赵家大院(宝天曼店)", "address": "乔端镇玉藏村三组松河中桥西50米", "image": "", "rank": 34, "time": 2, "location": {"lat": 31.24085250989917, "lng": 121.45574794213611}, "feature": {"sight_features": "", "sight_content": ""}}, {"title": "儿童主题乐园", "address": "丹霞路与人民路交叉口东150米", "image": "", "rank": 35, "time": 2, "location": {"lat": 33.49100134472398, "lng": 112.44158685095393}, "feature": {"sight_features": "", "sight_content": ""}}, {"title": "暴瀑峡", "address": "河南省南阳市南召县", "image": "", "rank": 36, "time": 2, "location": {"lat": 33.49618580462491, "lng": 112.43542522254566}, "feature": {"sight_features": "", "sight_content": ""}}]}