{"cityName": "那坡", "days": 2, "cityImage": "", "spots": [{"title": "百合茶场七分场", "address": "沿边公路附近", "image": "", "rank": 1, "time": 2, "location": {"lat": 21.55760447700426, "lng": 107.96431721492563}, "feature": {"sight_features": "", "sight_content": ""}}, {"title": "甑皮岩遗址", "address": "广西壮族自治区桂林市象山区独山西南麓 541002", "image": "", "rank": 2, "time": 2, "location": {"lat": 25.26793001021147, "lng": 110.2874226752738}, "feature": {"sight_features": "", "sight_content": ""}}, {"title": "童星游乐园", "address": "百色市那坡县", "image": "", "rank": 3, "time": 1.5, "location": {"lat": 23.39379383129231, "lng": 105.83942261016988}, "feature": {"sight_features": "", "sight_content": ""}}, {"title": "老虎跳跨国大峡谷", "address": "广西壮族自治区百色市那坡县", "image": "", "rank": 4, "time": 2, "location": {"lat": 23.39379383129231, "lng": 105.83942261016988}, "feature": {"sight_features": "", "sight_content": ""}}, {"title": "平孟烈士陵园", "address": "沿边公路附近", "image": "", "rank": 5, "time": 2, "location": {"lat": 21.55760447700426, "lng": 107.96431721492563}, "feature": {"sight_features": "", "sight_content": ""}}, {"title": "图书馆", "address": "龙泉街", "image": "", "rank": 6, "time": 1.0, "location": {"lat": 38.89508678687626, "lng": 113.95862322365193}, "feature": {"sight_features": "", "sight_content": ""}}, {"title": "老虎跳大峡谷漂流", "address": "百南乡境内", "image": "", "rank": 7, "time": 2, "location": {"lat": 23.045383543643496, "lng": 105.80439875451741}, "feature": {"sight_features": "", "sight_content": ""}}, {"title": "陆家芒果店", "address": "那毕新村", "image": "", "rank": 8, "time": 2, "location": {"lat": 22.950124192501068, "lng": 108.53327152916611}, "feature": {"sight_features": "", "sight_content": ""}}, {"title": "吞力黑衣壮山寨", "address": "广西壮族自治区那坡县城北面", "image": "", "rank": 9, "time": 2, "location": {"lat": 23.39379383129231, "lng": 105.83942261016988}, "feature": {"sight_features": "", "sight_content": ""}}, {"title": "感驮岩新石器时代遗址 Gantuoyan...", "address": "广西壮族自治区那坡县龙泉街", "image": "", "rank": 10, "time": 2, "location": {"lat": 23.41537363296647, "lng": 105.85005975023557}, "feature": {"sight_features": "", "sight_content": ""}}, {"title": "那坡黑衣壮风情园", "address": "广西省百色市那坡县吞力屯黑衣壮风情园。", "image": "", "rank": 11, "time": 2, "location": {"lat": 23.49113964713172, "lng": 105.87866911795543}, "feature": {"sight_features": "", "sight_content": ""}}]}