{"cityName": "那曲", "days": "2", "cityImage": "", "spots": [{"title": "羌塘草原", "address": "那曲市尼玛县603县道东150米", "image": "", "rank": 1, "time": 4.0, "location": {"lat": 31.790953326637915, "lng": 87.24329241086829}, "feature": {"sight_features": "", "sight_content": ""}}, {"title": "错那湖", "address": "那曲地区安多县境内", "image": "", "rank": 2, "time": 1.0, "location": {"lat": 33.32168189507654, "lng": 90.56931425424872}, "feature": {"sight_features": "", "sight_content": ""}}, {"title": "当惹雍错", "address": "那曲地区尼玛县当惹雍错", "image": "", "rank": 3, "time": 1.0, "location": {"lat": 31.24568010308733, "lng": 86.71300484073682}, "feature": {"sight_features": "", "sight_content": ""}}, {"title": "色林措", "address": "西藏自治区申扎县和班戈县境内", "image": "", "rank": 4, "time": 1.0, "location": {"lat": 30.936393285832022, "lng": 88.7164811082338}, "feature": {"sight_features": "", "sight_content": ""}}, {"title": "卓玛峡谷", "address": "那曲地区色尼区古路乡", "image": "", "rank": 5, "time": 1.0, "location": {"lat": 31.476117292678243, "lng": 92.0598468366504}, "feature": {"sight_features": "", "sight_content": ""}}, {"title": "桑丹康桑雪山", "address": "那曲地区色尼区古露乡境内的青藏公路旁", "image": "", "rank": 6, "time": 1.0, "location": {"lat": 31.476117292678243, "lng": 92.0598468366504}, "feature": {"sight_features": "", "sight_content": ""}}, {"title": "双湖无人区", "address": "那曲藏北高原西北部，东邻班戈县，南接文部、申扎，西与阿里地区改则县接壤", "image": "", "rank": 7, "time": 1.0, "location": {"lat": 32.30835664324378, "lng": 84.06911336253982}, "feature": {"sight_features": "", "sight_content": ""}}, {"title": "草原八塔", "address": "那曲地区色尼区文化路东段（青藏公路路旁）", "image": "", "rank": 8, "time": null, "location": {"lat": 31.476117292678243, "lng": 92.0598468366504}, "feature": {"sight_features": "", "sight_content": ""}}, {"title": "比如骷髅墙", "address": "西藏自治区比如县茶曲乡", "image": "", "rank": 9, "time": 1.0, "location": {"lat": 31.530951308884916, "lng": 93.28753317997158}, "feature": {"sight_features": "", "sight_content": ""}}, {"title": "达则错", "address": "西藏那曲地区尼玛县达则错", "image": "", "rank": 10, "time": 2, "location": {"lat": 31.90761212609361, "lng": 87.57193729709194}, "feature": {"sight_features": "", "sight_content": ""}}, {"title": "普若岗日冰川", "address": "那曲地区羌塘西北部的双湖特别区东北部90公里", "image": "", "rank": 11, "time": 1.0, "location": {"lat": 33.19415091997964, "lng": 88.8426412899883}, "feature": {"sight_features": "", "sight_content": ""}}, {"title": "申扎自然保护区", "address": "西藏自治区申扎县境内", "image": "", "rank": 12, "time": 1.0, "location": {"lat": 30.936393285832022, "lng": 88.7164811082338}, "feature": {"sight_features": "", "sight_content": ""}}, {"title": "孝登寺", "address": "那曲地区色尼区那曲镇", "image": "", "rank": 13, "time": 1.0, "location": {"lat": 31.476117292678243, "lng": 92.0598468366504}, "feature": {"sight_features": "", "sight_content": ""}}, {"title": "象雄王国遗址", "address": "那曲地区尼玛县文部乡", "image": "", "rank": 14, "time": 2.5, "location": {"lat": 33.5369659807842, "lng": 87.65484664650761}, "feature": {"sight_features": "", "sight_content": ""}}, {"title": "达果雪山", "address": "西藏自治区尼玛县布文达乡", "image": "", "rank": 15, "time": 1.0, "location": {"lat": 31.790953326637915, "lng": 87.24329241086829}, "feature": {"sight_features": "", "sight_content": ""}}, {"title": "格拉丹东雪山", "address": "那曲地区安多县玛飞吉日乡", "image": "", "rank": 16, "time": 1.0, "location": {"lat": 32.1630530869136, "lng": 91.4066350756759}, "feature": {"sight_features": "", "sight_content": ""}}, {"title": "沱沱河气象站", "address": "长江源头唐古拉山麓，唐古拉乡", "image": "", "rank": 17, "time": 2, "location": {"lat": 37.86839046555923, "lng": 112.55243338961195}, "feature": {"sight_features": "", "sight_content": ""}}, {"title": "纳木措圣象天门", "address": "那曲市班戈县纳木措风景区", "image": "", "rank": 18, "time": 7.5, "location": {"lat": 31.39872762296325, "lng": 90.01670772711378}, "feature": {"sight_features": "", "sight_content": "郑重承诺：\n*不进任何购物店\n*不推任何自费项目\n*不因旺季人多安排大巴车\n\n\n车型：商务车小团，7~14人一车（福特全顺、别克、九龙商务车），哪怕旺季人再多也坚决不安排几十座的大巴车\n导游：司机兼领队，无跟车导游，此行程以自然风光观光为主，真正杜绝进购物店的隐患\n购物：不进任何购物店，不推任何自费项目，省出了更多游玩的时间，2天深度环湖游玩纳木错\n餐费：含两顿午餐，晚餐早饭需自理，午餐餐标30/人，是普通团餐餐标的2倍，虽然在西藏高物价的情况下可能还是吃不好但是起码有荤有素能吃饱\n\n\n\n\n圣象天门，西藏最美终结地\n\n除了当地人，很少有游客深入过位于班戈县境内这个绝美秘境\n\n也是我第一次最深接触到纳木错最~美的灵魂所在地\n无法用言语来形容当时的惊艳和震撼\n只能双手合十，凝望无言……\n\n\n旅游达人 梦艺 【圣象天门 西藏最美终结地】\n\n\n如果有机会和老西藏们聊聊天，就会从他们口中得知一个神秘的去处——“圣象天门”\n\n它静静藏匿与纳木错的北岸，隔着圣湖与神山念青唐拉（念青唐古拉是误读，实际从未有过此名）对望。这是老西藏心中深藏的天边秘境\n圣象天门，顾名思义。一只天然形成的巨大石象，站立在辽阔的纳木错岸边，象鼻恰恰的深入湖面，仿佛正在汲取这来自雪域的神圣之水\n而石象的身体与象鼻之间，就如同一个巨大的门，是通往天堂的圣门\n作为藏传密宗的一处圣地，千百年来无数的高僧隐士在此清修。现在依旧如此\n\n\n旅游达人 王川 【天边秘境 通往天堂的圣门】\n\n\n圣象天门，是隐藏在传说中的圣地。很少有人能够到达这里，就连本地人也有很多从未听说过这里\n\n由于路途遥远，以及藏北无人区的荒芜，只有真正虔诚的人才能到此朝拜这时间少有的美景\n2015年，藏历羊年，按照藏族“马年转山，羊年转湖”的传统，纳木错成为信徒们纷纷朝拜的目的地\n为了方便信徒，政府修通了环湖公路，以让朝拜圣湖更加便捷。而这也让隐秘在圣湖北岸的“圣象天门”浮出沉沦，它静静矗立千百年之后终于来到了世俗面前\n但无论如何，它还是打动了人们。因为它有着惊世骇俗的风光，当你站在高崖之上，苍鹰盘桓在天地之间，你已无法分清面前的水天一色\n当你站在圣湖岸边，任由水浪拍打浑然天成的水湾，你会有幻觉仿佛站在辽阔的大海之前\n你向远处眺望，高大的念青唐拉神山，鼎立在天地之间，你才恍惚回转，原来你还在美丽的雪域高原。在圣象天门中走三个来回，就会消除你三世的罪业，并带给你无尽的财富\n\n\n旅游达人 刘河易 【传说终成现实 充满敬畏之心】\n\n\n\n传说中，今世夫妻，见到三生石\n\n将可修来三世姻缘\n另一个角度的念青唐拉神山，也显得更加雄伟\n徒步前往高崖之上，那里可以俯瞰整个壮美的纳木措。一步步的向上，对心肺都是巨大的挑战，几步就要停下来\n但左右环顾，你可以看到辽阔的纳木错平铺天地\n一个浑然天成的水湾，就出现在眼前，与那湛蓝的湖水相接。构成了天地间的画\n\n\n旅游达人 李怡色 【三生石 三世姻缘】\n\n\n纳木错，西藏的必游之地。与玛旁雍措、羊卓雍措共称为西藏的三大圣湖\n\n纳木措就像一颗晶莹的宝石，镶嵌在羌塘大草原上，以其瑰丽迷人的湖光山色和美丽的传说，陶醉了众多的游人和朝圣者\n每个到过纳木措的人，整个灵魂都仿佛被纯净的湖水所洗涤。站在纳木措湖边，这世界上最高最美的神湖让人震撼，仿佛置身于一个蓝色的世界\n蓝得清澈，蓝得丰润，蓝得迷人，似乎包容了世界上一切的蓝色\n旅游达人 小慧 【纳木措 包容了世界上一切蓝色】"}}, {"title": "错鄂", "address": "那曲申扎县色林错", "image": "", "rank": 19, "time": 1.0, "location": {"lat": 31.729767645540775, "lng": 89.01884254567491}, "feature": {"sight_features": "", "sight_content": ""}}, {"title": "麦莫溶洞", "address": "那曲地区巴青县与比如县布龙乡之间", "image": "", "rank": 20, "time": 1.0, "location": {"lat": 32.19883852200739, "lng": 94.01894879778365}, "feature": {"sight_features": "", "sight_content": ""}}, {"title": "赞丹寺", "address": "那曲地区索县亚拉镇", "image": "", "rank": 21, "time": 1.0, "location": {"lat": 31.891385784999652, "lng": 93.78955604351319}, "feature": {"sight_features": "", "sight_content": ""}}, {"title": "门莫扎嘎山脉", "address": "那曲地区巴青县", "image": "", "rank": 22, "time": 1.0, "location": {"lat": 32.19883852200739, "lng": 94.01894879778365}, "feature": {"sight_features": "", "sight_content": ""}}, {"title": "绒玛岩画和温泉", "address": "那曲地区尼玛县绒玛乡", "image": "", "rank": 23, "time": 1.0, "location": {"lat": 33.5369659807842, "lng": 87.65484664650761}, "feature": {"sight_features": "", "sight_content": ""}}, {"title": "羊秀自然风景区", "address": "那曲地区比如县白嘎乡", "image": "", "rank": 24, "time": 1.0, "location": {"lat": 31.200152441543914, "lng": 94.04847272187355}, "feature": {"sight_features": "", "sight_content": ""}}, {"title": "安多县", "address": "西藏那曲地区(唐古拉山脉南北两侧)", "image": "", "rank": 25, "time": 2, "location": {"lat": 31.480679830119627, "lng": 92.06701836885875}, "feature": {"sight_features": "", "sight_content": ""}}, {"title": "吴如错", "address": "那曲地区色尼区申扎县", "image": "", "rank": 26, "time": 2, "location": {"lat": 31.03523425938085, "lng": 88.73536212773197}, "feature": {"sight_features": "", "sight_content": ""}}, {"title": "牛奶草莓", "address": "金桥开发区炼油厂,到茂盛营子村,云喜草莓采摘园75号棚", "image": "", "rank": 27, "time": 2, "location": {"lat": 40.775562101872666, "lng": 111.73004118189124}, "feature": {"sight_features": "", "sight_content": ""}}, {"title": "查日阿共玛", "address": "那曲市色尼区", "image": "", "rank": 28, "time": 2, "location": {"lat": 31.476117292678243, "lng": 92.0598468366504}, "feature": {"sight_features": "", "sight_content": ""}}, {"title": "巴木错", "address": "西藏自治区那曲市班戈县", "image": "", "rank": 29, "time": 0.25, "location": {"lat": 31.39872762296325, "lng": 90.01670772711378}, "feature": {"sight_features": "", "sight_content": ""}}, {"title": "异度空间", "address": "317国道附近附近", "image": "", "rank": 30, "time": 2, "location": {"lat": 31.408980835514807, "lng": 103.11125800875102}, "feature": {"sight_features": "", "sight_content": ""}}, {"title": "永珠藏布江沼泽", "address": "西藏自治区申扎县永珠藏布江中游 853100", "image": "", "rank": 31, "time": 2, "location": {"lat": 30.936393285832022, "lng": 88.7164811082338}, "feature": {"sight_features": "", "sight_content": ""}}, {"title": "咸水湖", "address": "那曲地区尼玛县", "image": "", "rank": 32, "time": 2, "location": {"lat": 33.5369659807842, "lng": 87.65484664650761}, "feature": {"sight_features": "", "sight_content": ""}}, {"title": "日拱错纳", "address": "西藏自治区那曲地区双湖县", "image": "", "rank": 33, "time": 2, "location": {"lat": 34.1025791506508, "lng": 88.22141706156933}, "feature": {"sight_features": "", "sight_content": ""}}, {"title": "折日木坡错", "address": "那曲地区申扎县", "image": "", "rank": 34, "time": 2, "location": {"lat": 31.03523425938085, "lng": 88.73536212773197}, "feature": {"sight_features": "", "sight_content": ""}}, {"title": "日隆错查", "address": "那曲地区安多县", "image": "", "rank": 35, "time": 2, "location": {"lat": 33.32168189507654, "lng": 90.56931425424872}, "feature": {"sight_features": "", "sight_content": ""}}, {"title": "青藏铁路", "address": "西藏自治区拉萨市", "image": "", "rank": 36, "time": 2, "location": {"lat": 29.65004027476773, "lng": 91.12082391546393}, "feature": {"sight_features": "", "sight_content": ""}}, {"title": "聂荣安多沼泽湿地", "address": "西藏自治区聂荣县唐古拉山至错那湖段 853500", "image": "", "rank": 37, "time": 2, "location": {"lat": 32.758900766776115, "lng": 92.72053646728338}, "feature": {"sight_features": "", "sight_content": ""}}, {"title": "军冲浪", "address": "那曲地区索县", "image": "", "rank": 38, "time": 2, "location": {"lat": 31.59278758901301, "lng": 94.31254981824308}, "feature": {"sight_features": "", "sight_content": ""}}, {"title": "烈士陵园", "address": "那曲地区比如县", "image": "", "rank": 39, "time": 2, "location": {"lat": 31.447135538509855, "lng": 93.49342413665181}, "feature": {"sight_features": "", "sight_content": ""}}, {"title": "振热藏布", "address": "西藏自治区拉萨市林周县", "image": "", "rank": 40, "time": 2, "location": {"lat": 29.898733205887016, "lng": 91.26950057392972}, "feature": {"sight_features": "", "sight_content": ""}}, {"title": "洛曲珍", "address": "那曲地区双湖县", "image": "", "rank": 41, "time": 2, "location": {"lat": 34.1025791506508, "lng": 88.22141706156933}, "feature": {"sight_features": "", "sight_content": ""}}, {"title": "藏家乐园", "address": "神华路附近", "image": "", "rank": 42, "time": 2, "location": {"lat": 39.033473735235624, "lng": 111.10210463342365}, "feature": {"sight_features": "", "sight_content": ""}}, {"title": "四季生态园", "address": "帕那镇安狮西路", "image": "", "rank": 43, "time": 2, "location": {"lat": 33.42904465014651, "lng": 109.15957460913961}, "feature": {"sight_features": "", "sight_content": ""}}, {"title": "孝登寺", "address": "西藏自治区那曲县那曲镇", "image": "", "rank": 44, "time": 1.0, "location": {"lat": 31.475741826209184, "lng": 92.05175816146553}, "feature": {"sight_features": "", "sight_content": ""}}, {"title": "色林错国家级自然保护区", "address": "西藏自治区申扎县和班戈县境内", "image": "", "rank": 45, "time": 2, "location": {"lat": 30.936393285832022, "lng": 88.7164811082338}, "feature": {"sight_features": "", "sight_content": ""}}, {"title": "那曲活火山", "address": "西藏自治区那曲县境内", "image": "", "rank": 46, "time": 3.0, "location": {"lat": 31.252314725152477, "lng": 92.03462645364408}, "feature": {"sight_features": "", "sight_content": ""}}, {"title": "那曲高寒草原", "address": "西藏自治区那曲县那曲镇", "image": "", "rank": 47, "time": 3.0, "location": {"lat": 31.475741826209184, "lng": 92.05175816146553}, "feature": {"sight_features": "", "sight_content": ""}}, {"title": "达果雪山", "address": "西藏自治区尼玛县布文达乡", "image": "", "rank": 48, "time": 1.0, "location": {"lat": 31.790953326637915, "lng": 87.24329241086829}, "feature": {"sight_features": "", "sight_content": ""}}, {"title": "羌塘保护区", "address": "西藏自治区日土县境内", "image": "", "rank": 49, "time": 2, "location": {"lat": 33.3871860438718, "lng": 79.73910913826312}, "feature": {"sight_features": "", "sight_content": ""}}, {"title": "甭波诺", "address": "那曲市-安多县", "image": "", "rank": 50, "time": 2, "location": {"lat": 32.271268023108426, "lng": 91.6888906779995}, "feature": {"sight_features": "", "sight_content": ""}}, {"title": "日玛波", "address": "那曲市-班戈县", "image": "", "rank": 51, "time": 2, "location": {"lat": 31.39872762296325, "lng": 90.01670772711378}, "feature": {"sight_features": "", "sight_content": ""}}, {"title": "日玛波", "address": "那曲市-申扎县", "image": "", "rank": 52, "time": 2, "location": {"lat": 30.936393285832022, "lng": 88.7164811082338}, "feature": {"sight_features": "", "sight_content": ""}}, {"title": "打耳多朗", "address": "那曲市-尼玛县", "image": "", "rank": 53, "time": 2, "location": {"lat": 31.790953326637915, "lng": 87.24329241086829}, "feature": {"sight_features": "", "sight_content": ""}}, {"title": "卡不日", "address": "那曲市-巴青县-雅安镇卡不日", "image": "", "rank": 54, "time": 2, "location": {"lat": 31.924549424275728, "lng": 94.0598815647657}, "feature": {"sight_features": "", "sight_content": ""}}, {"title": "扎卡夏达卡", "address": "那曲市-安多县", "image": "", "rank": 55, "time": 2, "location": {"lat": 32.271268023108426, "lng": 91.6888906779995}, "feature": {"sight_features": "", "sight_content": ""}}, {"title": "铎木日", "address": "那曲市-双湖县", "image": "", "rank": 56, "time": 2, "location": {"lat": 33.193503165808735, "lng": 88.84342793612339}, "feature": {"sight_features": "", "sight_content": ""}}, {"title": "洛玛我定", "address": "那曲市-申扎县", "image": "", "rank": 57, "time": 2, "location": {"lat": 30.936393285832022, "lng": 88.7164811082338}, "feature": {"sight_features": "", "sight_content": ""}}, {"title": "扎琼日", "address": "那曲市-巴青县-雅安镇扎琼日", "image": "", "rank": 58, "time": 2, "location": {"lat": 31.924549424275728, "lng": 94.0598815647657}, "feature": {"sight_features": "", "sight_content": ""}}, {"title": "邦措日木", "address": "那曲市-比如县", "image": "", "rank": 59, "time": 2, "location": {"lat": 31.48635726205027, "lng": 93.68596593861217}, "feature": {"sight_features": "", "sight_content": ""}}, {"title": "泊儿控约玛", "address": "那曲市-色尼区", "image": "", "rank": 60, "time": 2, "location": {"lat": 31.476117292678243, "lng": 92.0598468366504}, "feature": {"sight_features": "", "sight_content": ""}}]}