{"cityName": "讷河", "days": 2, "cityImage": "", "spots": [{"title": "雨亭公园", "address": "齐齐哈尔市讷河市讷河镇南环路东", "image": "", "rank": 1, "time": 2, "location": {"lat": 48.48811088757885, "lng": 124.88258967771671}, "feature": {"sight_features": "", "sight_content": ""}}, {"title": "畅品农家乐", "address": "东北街人民医院西路南", "image": "", "rank": 2, "time": 2, "location": {"lat": 30.207916159869793, "lng": 103.87205925562142}, "feature": {"sight_features": "", "sight_content": ""}}, {"title": "迪士尼儿童乐园", "address": "讷河市其他齐齐哈尔市讷河市", "image": "", "rank": 3, "time": 2, "location": {"lat": 48.49008659326358, "lng": 124.89054905619638}, "feature": {"sight_features": "", "sight_content": ""}}, {"title": "考拉大冒险儿童游乐园", "address": "黑龙江省齐齐哈尔市讷河市农乐街164号", "image": "", "rank": 4, "time": 2, "location": {"lat": 48.48504492041378, "lng": 124.89383442893805}, "feature": {"sight_features": "", "sight_content": ""}}, {"title": "爱乐宝儿童乐园", "address": "齐齐哈尔市讷河市", "image": "", "rank": 5, "time": 2, "location": {"lat": 48.49008659326358, "lng": 124.89054905619638}, "feature": {"sight_features": "", "sight_content": ""}}, {"title": "人和广场", "address": "中心大街西200米", "image": "", "rank": 6, "time": 2, "location": {"lat": 43.621711048260174, "lng": 122.2554415030272}, "feature": {"sight_features": "", "sight_content": ""}}, {"title": "萁萁儿童乐园(淘气堡)", "address": "通南镇东北街(邮政储蓄对面)", "image": "", "rank": 7, "time": 2, "location": {"lat": 48.135264844204556, "lng": 125.04343568636611}, "feature": {"sight_features": "", "sight_content": ""}}, {"title": "普渡寺", "address": "111国道附近", "image": "", "rank": 8, "time": 0.6, "location": {"lat": 50.42539598847844, "lng": 124.1866783773556}, "feature": {"sight_features": "", "sight_content": ""}}, {"title": "尼尔基斯湖大架山滑雪场", "address": "鸿基索道游乐设备有限公司旁", "image": "", "rank": 9, "time": 2, "location": {"lat": 34.75798621297116, "lng": 113.68832892749893}, "feature": {"sight_features": "", "sight_content": ""}}, {"title": "黑龙江省讷河市图书馆", "address": "中心大街297号", "image": "", "rank": 10, "time": 2, "location": {"lat": 40.95879396214325, "lng": 117.7970340002901}, "feature": {"sight_features": "", "sight_content": ""}}, {"title": "喜善浴韩式洗浴中心", "address": "齐齐哈尔市讷河市西南街泰福综合109号", "image": "", "rank": 11, "time": 2, "location": {"lat": 48.49008659326358, "lng": 124.89054905619638}, "feature": {"sight_features": "", "sight_content": ""}}]}