{"cityName": "内黄", "days": 2, "cityImage": "", "spots": [{"title": "颛顼帝喾陵", "address": "安阳市内黄县梁庄镇三杨庄村", "image": "", "rank": 1, "time": 1.0, "location": {"lat": 35.7338235794602, "lng": 114.78113384151345}, "feature": {"sight_features": "特色1 上古帝王颛顼帝喾之陵墓", "sight_content": "颛顼帝喾陵位于河南省安阳市内黄县梁庄镇，史载二帝葬于“鲋山之阳”，即指此处。\n封土冢南北长约65米，东西宽约54米，顶高25米，陵墓底部都残存有高1米左右的砖砌陵墙，南面陵墙上分别镶嵌有“颛顼陵”和“帝喾陵”石碑各一通。 院中元代石碑记载，砖砌围墙系元代天历二年重修时所筑。\n在二帝陵庙之前的高台地上，还残存有元代至元十一年重修的陵庙拜殿和左右配殿。\n近几年，在拜殿和配殿前后清理出历代碑碣165通。为元、明、清时期的遗物，内容多为历代王朝派遣特使来此祭奠的祭文、历代重修陵庙的庙记，以及文人墨客的拜谒赋诗。据史料记载，昔日二陵建筑宏伟，古朴典雅，碑碣林立，松柏蓊郁。清末被黄沙湮埋，1986年清沙时重见天日。经考古确认均为汉代初建、元代修缮，发现有御桥、御道、神道、水井、山门、棂星门、庙院、寝殿、享殿等基址。其中165通历朝历代祭祀碑，古朴苍劲，记录帝陵的历史。颛顼陵有元、清标志碑，帝喾陵有明代标志碑。元、明、清三代陵碑均立于两位上古帝王陵前，实属罕见。"}}, {"title": "花田紫韵薰衣草庄园", "address": "安阳市内黄县颛顼帝喾陵北500米路西", "image": "", "rank": 2, "time": 2, "location": {"lat": 35.743948585672726, "lng": 114.76658263881177}, "feature": {"sight_features": "", "sight_content": ""}}, {"title": "绿能生态园", "address": "金星大道与东环路交叉口西南角", "image": "", "rank": 3, "time": 2, "location": {"lat": 35.94083277345606, "lng": 114.9142140559844}, "feature": {"sight_features": "", "sight_content": ""}}, {"title": "乾祥环保室内环境净化中心(内黄...", "address": "人民路人民医院斜对面领秀城一期向南120米路东", "image": "", "rank": 4, "time": 2, "location": {"lat": 35.97694966806135, "lng": 114.90758875550918}, "feature": {"sight_features": "", "sight_content": ""}}, {"title": "内黄县图书馆", "address": "朝阳路东段", "image": "", "rank": 5, "time": 1.0, "location": {"lat": 30.822952844176786, "lng": 103.56852010444312}, "feature": {"sight_features": "", "sight_content": ""}}, {"title": "西明寺", "address": "河南省安阳市内黄县石盘屯乡杨村Y010乡道路东(汤亳线)", "image": "", "rank": 6, "time": 2.0, "location": {"lat": 36.044290549678735, "lng": 114.81024055069852}, "feature": {"sight_features": "", "sight_content": ""}}, {"title": "麒麟岳飞庙", "address": "河南省安阳市内黄县石盘屯乡麒麟村兰前线", "image": "", "rank": 7, "time": 1.0, "location": {"lat": 35.85051329343861, "lng": 114.78122492609893}, "feature": {"sight_features": "", "sight_content": ""}}, {"title": "农家乐特色菜", "address": "东大街与东环路交叉口南200米", "image": "", "rank": 8, "time": 2, "location": {"lat": 22.617509352603705, "lng": 114.14733733676542}, "feature": {"sight_features": "", "sight_content": ""}}, {"title": "欢乐谷儿童乐园", "address": "213省道附近", "image": "", "rank": 9, "time": 2, "location": {"lat": 39.999164912284996, "lng": 116.42332353742155}, "feature": {"sight_features": "", "sight_content": ""}}, {"title": "何氏祠堂", "address": "河南省安阳市内黄县石盘屯乡大理村", "image": "", "rank": 10, "time": 2, "location": {"lat": 36.06421888763247, "lng": 114.80864013409347}, "feature": {"sight_features": "", "sight_content": ""}}, {"title": "小红帽游乐园", "address": "河南省安阳市内黄县石盘屯南门外路西", "image": "", "rank": 11, "time": 2, "location": {"lat": 36.04500931555251, "lng": 114.80982517872222}, "feature": {"sight_features": "", "sight_content": ""}}, {"title": "石盘屯中心游乐园", "address": "河南省安阳市内黄县麒麟岳飞庙向南450米兰前线路西", "image": "", "rank": 12, "time": 2, "location": {"lat": 36.04846187693288, "lng": 114.8290169701969}, "feature": {"sight_features": "", "sight_content": ""}}, {"title": "胡张村福音堂", "address": "河南省安阳市内黄县石盘屯乡胡庄村西头", "image": "", "rank": 13, "time": 2, "location": {"lat": 36.04344114627915, "lng": 114.78707560336}, "feature": {"sight_features": "", "sight_content": ""}}, {"title": "关羽庙", "address": "石盘屯乡东街村村委会南侧", "image": "", "rank": 14, "time": 2, "location": {"lat": 38.121559457877304, "lng": 114.17260614657245}, "feature": {"sight_features": "", "sight_content": ""}}, {"title": "小洞村奶奶庙", "address": "河南省安阳市内黄县宋村乡小洞村", "image": "", "rank": 15, "time": 2, "location": {"lat": 36.11958951236962, "lng": 114.86835905231185}, "feature": {"sight_features": "", "sight_content": ""}}, {"title": "东大街城隍庙", "address": "城关镇东大街", "image": "", "rank": 16, "time": 2, "location": {"lat": 37.21250765954506, "lng": 112.19524899193785}, "feature": {"sight_features": "", "sight_content": ""}}, {"title": "凯德儿童游乐园", "address": "河南省安阳市内黄县S301", "image": "", "rank": 17, "time": 2, "location": {"lat": 35.97694966806135, "lng": 114.90758875550918}, "feature": {"sight_features": "", "sight_content": ""}}, {"title": "安阳市内黄县农业观光博览园", "address": "河南省安阳市内黄县S215", "image": "", "rank": 18, "time": 3.0, "location": {"lat": 35.97694966806135, "lng": 114.90758875550918}, "feature": {"sight_features": "", "sight_content": ""}}, {"title": "周侗墓", "address": "河南省安阳市内黄县S22(南林高速公路)", "image": "", "rank": 19, "time": 2, "location": {"lat": 36.07030863973237, "lng": 114.28518287913424}, "feature": {"sight_features": "", "sight_content": ""}}, {"title": "基督教会", "address": "河南省安阳市内黄县二安镇双安大道二安乡汽车客运站东", "image": "", "rank": 20, "time": 2, "location": {"lat": 35.82657974012495, "lng": 114.66956525476786}, "feature": {"sight_features": "", "sight_content": ""}}, {"title": "内黄县花卉博览园", "address": "林子村215省道", "image": "", "rank": 21, "time": 2, "location": {"lat": 36.52111105176839, "lng": 115.24987145143434}, "feature": {"sight_features": "", "sight_content": ""}}, {"title": "内黄县枣乡度假村工会委员会", "address": "二帝大道北段", "image": "", "rank": 22, "time": 2, "location": {"lat": 35.956129301923184, "lng": 114.8999863061477}, "feature": {"sight_features": "", "sight_content": ""}}, {"title": "河南省内黄县东庄镇北街兴隆寺", "address": "302省道附近", "image": "", "rank": 23, "time": 2, "location": {"lat": 40.09862711264105, "lng": 117.61062300284506}, "feature": {"sight_features": "", "sight_content": ""}}, {"title": "枣乡度假村", "address": "安阳内黄县颛顼大道北段路东", "image": "", "rank": 24, "time": 2, "location": {"lat": 35.95422519821264, "lng": 114.89964252013749}, "feature": {"sight_features": "", "sight_content": ""}}, {"title": "产业集聚区展馆", "address": "建设路", "image": "", "rank": 25, "time": 2, "location": {"lat": 39.08959553212996, "lng": 117.0126917080218}, "feature": {"sight_features": "", "sight_content": ""}}, {"title": "枣相情生态园", "address": "后河镇开发区北段路西66号", "image": "", "rank": 26, "time": 2, "location": {"lat": 35.83206440640438, "lng": 114.88518371624225}, "feature": {"sight_features": "", "sight_content": ""}}, {"title": "安阳市规划设计院(东大街)", "address": "硝河大道与东大街交叉口", "image": "", "rank": 27, "time": 3.0, "location": {"lat": 35.95704404863712, "lng": 114.91916459339564}, "feature": {"sight_features": "", "sight_content": ""}}, {"title": "亿家能太阳能展示馆", "address": "303省道附近", "image": "", "rank": 28, "time": 2, "location": {"lat": 38.25466494631471, "lng": 114.66726867564682}, "feature": {"sight_features": "", "sight_content": ""}}, {"title": "铂金汉宫艺术馆(内黄旗舰店)", "address": "枣乡大道附近", "image": "", "rank": 29, "time": 2, "location": {"lat": 39.026378612987095, "lng": 88.18168440133898}, "feature": {"sight_features": "", "sight_content": ""}}, {"title": "树袋熊儿童乐园", "address": "人民路与文化路交叉口南150米", "image": "", "rank": 30, "time": 2, "location": {"lat": 34.094082648110216, "lng": 117.48478668627774}, "feature": {"sight_features": "", "sight_content": ""}}, {"title": "三杨庄汉代遗址", "address": "河南省安阳市汤阴县三杨庄村", "image": "", "rank": 31, "time": 1.0, "location": {"lat": 35.987619989193924, "lng": 114.55572034030065}, "feature": {"sight_features": "", "sight_content": ""}}]}