{"cityName": "内江", "days": "", "cityImage": "", "spots": [{"title": "隆昌石牌坊群", "address": "内江市隆昌县金鹅镇南北二关（成渝古驿道古关隘）", "image": "", "rank": 1, "time": 1.5, "location": {"lat": 29.3373602307964, "lng": 105.30092229358962}, "feature": {"sight_features": "", "sight_content": ""}}, {"title": "重龙山", "address": "内江市资中县", "image": "", "rank": 2, "time": 2.5, "location": {"lat": 29.770234032564836, "lng": 104.85849482242187}, "feature": {"sight_features": "", "sight_content": ""}}, {"title": "大千园", "address": "内江市大千路336号", "image": "", "rank": 3, "time": 2, "location": {"lat": 29.598805816676133, "lng": 105.06362683810181}, "feature": {"sight_features": "", "sight_content": ""}}, {"title": "古宇湖", "address": "内江市东隆昌县境内", "image": "", "rank": 4, "time": 2.5, "location": {"lat": 29.36786874915794, "lng": 105.25295771713975}, "feature": {"sight_features": "", "sight_content": ""}}, {"title": "圣水禅林", "address": "内江市市中区圣江路", "image": "", "rank": 5, "time": null, "location": {"lat": 29.592633174681485, "lng": 105.05012074200101}, "feature": {"sight_features": "", "sight_content": ""}}, {"title": "大洲广场", "address": "四川省内江市市中区滨江路", "image": "", "rank": 6, "time": 2, "location": {"lat": 29.59363576201924, "lng": 105.06809500970697}, "feature": {"sight_features": "", "sight_content": ""}}, {"title": "人民公园", "address": "内江市市中区城西街道公园街380号", "image": "", "rank": 7, "time": 2.5, "location": {"lat": 29.587649380103024, "lng": 105.06854653511958}, "feature": {"sight_features": "", "sight_content": ""}}, {"title": "圣灵山地质公园", "address": "内江市资中县金李井镇", "image": "", "rank": 8, "time": 2, "location": {"lat": 29.77150861639702, "lng": 104.67450665740485}, "feature": {"sight_features": "特色1 号称亚洲最长的溶洞", "sight_content": "资中县圣灵山地质公园位于成渝高速公路资中县鱼溪站出口2公里，区位优势突出,海拔1051米,园区总占地面积7平方公里,东距成都127公里，南距重庆220公里，西距国家级千年古镇罗泉33公里,距资中县城区12公里。\n2006年12月被四川省人民政府批准为省级地质公园,2007年12月29日举行了隆重的揭碑开园仪式,2009年12月31日正式向游客开放.景区以圣灵山大溶洞为主体,圣灵山大溶洞号称亚洲最长的溶洞,共43公里,分上、中、下、底四层,现已向游客开放5.8公里,溶洞内景观众多，最著名的景点有迎宾塔林、贵妃池、山路十八弯、巨人脚印、东方巨龙、海底世界、佛祖、莫愁湖莫愁女、七仙姑下凡、牛郎织女、洞中塔林、圣灵火炬、孔子问乐、会唱歌的石头等396处。景区内有会议中心、长城大酒店、迎宾停车场、贵宾停车场、茶楼、音乐广场、松山别墅等，配套设施完善。\n景区区以圣灵山大溶洞为主体,圣灵山大溶洞号称亚洲最长的溶洞,共43公里,分上、中、下、底四层,现已向游客开放5.8公里,溶洞内景观众多，最著名的景点有迎宾塔林、贵妃池、山路十八弯、巨人脚印、东方巨龙、海底世界、佛祖、莫愁湖莫愁女、七仙姑下凡、牛郎织女、洞中塔林、圣灵火炬、孔子问乐、会唱歌的石头等396处。景区内有会议中心、长城大酒店、迎宾停车场、贵宾停车场、茶楼、音乐广场、松山别墅等，配套设施完善。\n未来的圣灵山地质公园可以建成一个集科考、观光、探险、休闲、娱乐、环境教育、佛教研究、美食旅游为一体的综合性风景区。"}}, {"title": "高峰寺", "address": "内江市隆昌市明星村7组", "image": "", "rank": 9, "time": 2, "location": {"lat": 29.394167602304574, "lng": 105.2702606139837}, "feature": {"sight_features": "", "sight_content": ""}}, {"title": "加勒比水上世界", "address": "内江市东兴区新店乡天荷旅游度假区", "image": "", "rank": 10, "time": 2, "location": {"lat": 29.75407534840267, "lng": 105.18766011892721}, "feature": {"sight_features": "", "sight_content": ""}}, {"title": "川南大草原", "address": "内江市市中区内荣路", "image": "", "rank": 11, "time": 1.0, "location": {"lat": 29.526657419426915, "lng": 104.83767494833593}, "feature": {"sight_features": "特色1 内蒙太远，来川南大草原", "sight_content": "“川南大草原”是四川省川南大草原旅游开发有限公司开发的景点，位于四川省东南部，地属内江乡村旅游重点区，紧邻永安镇尚腾新村，距离内江市13公里，自贡市18公里，西距成都178公里，东距重庆181公里，是西南各省交通的重要交汇点。项目规划用地2500亩，结合周边用地关系和上层规划，以 “两岭夹一谷”地形为基础，以“展书画之乡的大地艺术，秀草原风光之生态谷地”为主题，建设草原湿地、草原花海、草原休闲、草原露营、草原运动等多层次的山水空间。项目总体定位以运动休闲为主导，兼观光度假、餐饮住宿、文化体验、养生养老为一体的多元化、高品质生态旅游综合体。\n如果你爱上一匹野马，不用担心家里没有草原，内江川南大草原够你薅草喂马啦！ 中国草原类型包括高山草原、中低山草原和南方草山草坡三中类型，川南大草原采用最具代表性的蒙古草原为文化基调。大片的绿色延伸到远方，直到那飘着朵朵白云的蓝天边；羊群、牛群、马匹，或肆意奔驰，或悠然小憩……这里就是一片绿色的天堂。"}}, {"title": "内江西林寺", "address": "四川省内江市东兴区沱江岸边", "image": "", "rank": 12, "time": 2, "location": {"lat": 29.619426657165693, "lng": 105.03818896313645}, "feature": {"sight_features": "", "sight_content": ""}}, {"title": "隆昌县万花谷园艺有限公司", "address": "响石镇鹰嘴村万花谷", "image": "", "rank": 13, "time": 1.5, "location": {"lat": 29.289841042123836, "lng": 105.16601579351907}, "feature": {"sight_features": "", "sight_content": ""}}, {"title": "七彩蝴蝶园", "address": "内江市东兴区新店乡天荷旅游度假区", "image": "", "rank": 14, "time": 2, "location": {"lat": 29.75407534840267, "lng": 105.18766011892721}, "feature": {"sight_features": "", "sight_content": ""}}, {"title": "凤栖谷花海", "address": "内江市威远县老场村蓉遵高速内威荣高速段新场镇出口", "image": "", "rank": 15, "time": 2, "location": {"lat": 29.625319426739235, "lng": 104.55252477399054}, "feature": {"sight_features": "", "sight_content": "凤栖谷花海位于威远县新场镇老场村，凤栖谷是以康养休闲和花海鉴赏为核心的田园综合体，一期融汇打造1000亩花海等项目。"}}, {"title": "内江大自然景园", "address": "内江市市中区乐贤镇", "image": "", "rank": 16, "time": 2, "location": {"lat": 29.553691942701793, "lng": 105.09266695948307}, "feature": {"sight_features": "", "sight_content": ""}}, {"title": "花芊谷农业科技园", "address": "内江市资中县银山镇岗石村5组", "image": "", "rank": 17, "time": 2, "location": {"lat": 29.696653568893264, "lng": 104.95030617027614}, "feature": {"sight_features": "", "sight_content": ""}}, {"title": "范长江故居", "address": "内江市东兴区田家镇", "image": "", "rank": 18, "time": 2, "location": {"lat": 29.68161688352367, "lng": 105.15664406588246}, "feature": {"sight_features": "", "sight_content": ""}}, {"title": "中央公园城", "address": "内江", "image": "", "rank": 19, "time": 2, "location": {"lat": 29.58588653832045, "lng": 105.06458802499718}, "feature": {"sight_features": "", "sight_content": ""}}, {"title": "状元街", "address": "内江市资中县状元街", "image": "", "rank": 20, "time": 2, "location": {"lat": 29.789245083284744, "lng": 104.85894664853392}, "feature": {"sight_features": "", "sight_content": ""}}, {"title": "罗泉古镇", "address": "资中县罗泉镇", "image": "", "rank": 21, "time": 2, "location": {"lat": 29.834837063808827, "lng": 104.5157053996582}, "feature": {"sight_features": "", "sight_content": ""}}, {"title": "万花谷佳兴游乐园", "address": "响石镇万花谷", "image": "", "rank": 22, "time": 2, "location": {"lat": 29.305341390185898, "lng": 105.15527866216877}, "feature": {"sight_features": "", "sight_content": ""}}, {"title": "云顶寨景区", "address": "内江市隆昌县云顶镇云顶寨", "image": "", "rank": 23, "time": 2, "location": {"lat": 29.233573281787606, "lng": 105.30145682399501}, "feature": {"sight_features": "", "sight_content": ""}}, {"title": "花朝门生态园", "address": "观英滩镇一碗水乡崔贡坳", "image": "", "rank": 24, "time": 2, "location": {"lat": 29.722366191176924, "lng": 104.62814198394703}, "feature": {"sight_features": "", "sight_content": ""}}, {"title": "鲢鱼化石博物馆", "address": "金李井镇归沙路圣灵山地质公园", "image": "", "rank": 25, "time": 2, "location": {"lat": 29.79543290804533, "lng": 104.68964617565122}, "feature": {"sight_features": "", "sight_content": ""}}, {"title": "长沙湖自然生态风景区", "address": "观滩镇黄荆沟镇", "image": "", "rank": 26, "time": 2, "location": {"lat": 29.65561358817367, "lng": 104.68745903798948}, "feature": {"sight_features": "", "sight_content": ""}}, {"title": "鱼进沟", "address": "四川省内江市资中县", "image": "", "rank": 27, "time": 2, "location": {"lat": 29.770234032564836, "lng": 104.85849482242187}, "feature": {"sight_features": "", "sight_content": ""}}, {"title": "喻培伦纪念馆", "address": "四川省内江市人民公园内", "image": "", "rank": 28, "time": null, "location": {"lat": 29.58885613052057, "lng": 105.06884494748545}, "feature": {"sight_features": "", "sight_content": ""}}, {"title": "响水滩·乡村记忆旅游景区", "address": "内江市资中县鱼溪镇双联村", "image": "", "rank": 29, "time": 2, "location": {"lat": 29.82109121264044, "lng": 104.72969613776598}, "feature": {"sight_features": "", "sight_content": ""}}, {"title": "果果乐园", "address": "汉安大道北京华联3楼", "image": "", "rank": 30, "time": 2, "location": {"lat": 39.89953571018789, "lng": 116.27142869941719}, "feature": {"sight_features": "", "sight_content": ""}}, {"title": "内江市图书馆", "address": "叠象路76号", "image": "", "rank": 31, "time": 1.5, "location": {"lat": 29.590277539752243, "lng": 105.06963304168876}, "feature": {"sight_features": "", "sight_content": ""}}, {"title": "华联儿童沙滩乐园", "address": "汉安大道北京华联3楼(内江市公安局)", "image": "", "rank": 32, "time": 2, "location": {"lat": 29.60929396271256, "lng": 105.07233660800156}, "feature": {"sight_features": "", "sight_content": ""}}, {"title": "爱儿乐SPA水育乐园", "address": "西林街道星桥街266号", "image": "", "rank": 33, "time": 2, "location": {"lat": 29.60254812541296, "lng": 105.06566786008426}, "feature": {"sight_features": "", "sight_content": ""}}, {"title": "精灵乐园", "address": "K09县道开心超市对面", "image": "", "rank": 34, "time": 2, "location": {"lat": 29.587628426869394, "lng": 105.24086790499499}, "feature": {"sight_features": "", "sight_content": ""}}, {"title": "谢家河公园", "address": "汉安大道汇宇一品南侧", "image": "", "rank": 35, "time": 2, "location": {"lat": 29.60781105790731, "lng": 105.04769042225816}, "feature": {"sight_features": "", "sight_content": ""}}, {"title": "邦泰铂仕公馆", "address": "汉安大道与十号路交汇处", "image": "", "rank": 36, "time": 2, "location": {"lat": 29.61031970946735, "lng": 105.07141747078711}, "feature": {"sight_features": "", "sight_content": ""}}, {"title": "内江市人民艺术剧院", "address": "阴家巷1号", "image": "", "rank": 37, "time": 2, "location": {"lat": 29.592173808874577, "lng": 105.07233052018512}, "feature": {"sight_features": "", "sight_content": ""}}, {"title": "鳄鱼漆(白马镇专卖店)", "address": "林场路与白朝路交叉口东南100米", "image": "", "rank": 38, "time": 2, "location": {"lat": 29.537445796538076, "lng": 104.99415066738928}, "feature": {"sight_features": "", "sight_content": ""}}, {"title": "汉安天地水上乐园(汉安天地店)", "address": "汉安大道西段888号(汉安天地售楼部后10米)", "image": "", "rank": 39, "time": 2, "location": {"lat": 29.610084792556073, "lng": 105.05803488630404}, "feature": {"sight_features": "", "sight_content": ""}}, {"title": "重庆融汇温泉", "address": "兴盛路705号", "image": "", "rank": 40, "time": 1.5, "location": {"lat": 29.606335405191327, "lng": 105.08803402023216}, "feature": {"sight_features": "", "sight_content": ""}}, {"title": "糖业历史博物馆", "address": "四川省内江市东兴区境内 641100", "image": "", "rank": 41, "time": 2, "location": {"lat": 29.59848572858322, "lng": 105.08254748773004}, "feature": {"sight_features": "", "sight_content": ""}}, {"title": "金桂休闲山庄", "address": "321国道附近", "image": "", "rank": 42, "time": 2, "location": {"lat": 23.231187385915014, "lng": 112.93308957690171}, "feature": {"sight_features": "", "sight_content": ""}}, {"title": "太子湖度假村", "address": "四川省内江市市中区渝昆高速公路", "image": "", "rank": 43, "time": 2, "location": {"lat": 29.437309343610124, "lng": 105.16794845290786}, "feature": {"sight_features": "", "sight_content": ""}}, {"title": "骏网一卡通", "address": "商贸街64号", "image": "", "rank": 44, "time": 2, "location": {"lat": 29.838742736647635, "lng": 103.8597266872516}, "feature": {"sight_features": "", "sight_content": ""}}, {"title": "东东水上乐园", "address": "威远大道235号", "image": "", "rank": 45, "time": 2, "location": {"lat": 22.822951372898135, "lng": 113.65720712655774}, "feature": {"sight_features": "", "sight_content": ""}}, {"title": "曾家大院", "address": "金李井镇白果村1号", "image": "", "rank": 46, "time": 2, "location": {"lat": 29.804940661008608, "lng": 104.69359656036737}, "feature": {"sight_features": "", "sight_content": ""}}, {"title": "清代一条街", "address": "新正街", "image": "", "rank": 47, "time": 2, "location": {"lat": 37.857658592928395, "lng": 112.61292077944834}, "feature": {"sight_features": "", "sight_content": ""}}, {"title": "三磊石钓鱼山庄", "address": "成渝街附近", "image": "", "rank": 48, "time": 2, "location": {"lat": 29.823615943455998, "lng": 104.72740344471534}, "feature": {"sight_features": "", "sight_content": ""}}, {"title": "鑫龙农场", "address": "通龙路附近", "image": "", "rank": 49, "time": 2, "location": {"lat": 29.379303458304552, "lng": 105.21266290860201}, "feature": {"sight_features": "", "sight_content": ""}}, {"title": "威远无花果产品展示营销中心", "address": "207省道附近", "image": "", "rank": 50, "time": 2, "location": {"lat": 41.663861161619536, "lng": 118.91663300242887}, "feature": {"sight_features": "", "sight_content": ""}}, {"title": "瓦场湾锤钓鱼", "address": "镇西中学后门瓦场湾", "image": "", "rank": 51, "time": null, "location": {"lat": 30.77961397270524, "lng": 120.2941796205879}, "feature": {"sight_features": "", "sight_content": ""}}, {"title": "资中金泰葡萄园", "address": "明心寺镇万福场", "image": "", "rank": 52, "time": 2, "location": {"lat": 29.730577711577606, "lng": 104.89634519456393}, "feature": {"sight_features": "", "sight_content": ""}}, {"title": "云君农场", "address": "金鹅街道光照村11社", "image": "", "rank": 53, "time": 2, "location": {"lat": 29.365767873852807, "lng": 105.31936230485488}, "feature": {"sight_features": "", "sight_content": ""}}, {"title": "长沙湖", "address": "四川省威远县观英滩镇 643000", "image": "", "rank": 54, "time": 2, "location": {"lat": 29.722366191176924, "lng": 104.62814198394703}, "feature": {"sight_features": "", "sight_content": ""}}, {"title": "俩母山", "address": "四川省威远县越溪镇和两河镇境内 642450", "image": "", "rank": 55, "time": 2, "location": {"lat": 29.726423969729684, "lng": 104.397975666035}, "feature": {"sight_features": "", "sight_content": ""}}, {"title": "石板河景区", "address": "四川省威远县", "image": "", "rank": 56, "time": 2, "location": {"lat": 29.533634931412458, "lng": 104.67449822860426}, "feature": {"sight_features": "", "sight_content": ""}}, {"title": "情趣园渡假村", "address": "内江古宇湖", "image": "", "rank": 57, "time": 2, "location": {"lat": 29.335596309791413, "lng": 105.24412290422966}, "feature": {"sight_features": "", "sight_content": ""}}, {"title": "白云湖度假村", "address": "四川省内江市资中县", "image": "", "rank": 58, "time": 2, "location": {"lat": 29.770234032564836, "lng": 104.85849482242187}, "feature": {"sight_features": "", "sight_content": ""}}, {"title": "杏林湾度假村", "address": "北环路附近", "image": "", "rank": 59, "time": 2, "location": {"lat": 38.0818836383811, "lng": 114.69308879219136}, "feature": {"sight_features": "", "sight_content": ""}}, {"title": "南关石牌坊古镇", "address": "四川省隆昌县牌坊东街121号 642150", "image": "", "rank": 60, "time": 2, "location": {"lat": 29.36786874915794, "lng": 105.25295771713975}, "feature": {"sight_features": "", "sight_content": ""}}]}