{"cityName": "内丘", "days": 2, "cityImage": "", "spots": [{"title": "扁鹊庙", "address": "邢台市内丘县", "image": "", "rank": 1, "time": 1.0, "location": {"lat": 37.292857912046905, "lng": 114.51849293403419}, "feature": {"sight_features": "特色1 内邱县一处古代建筑。", "sight_content": "扁鹊庙，又名扁鹊祠，位于内邱县城西26公里的鹊山脚下神头村西，北距省会石家庄市90公里，南距邢台市50公里，东距京珠高速、107国道、京广铁路20余公里，位置优越，交通便利。现为国家AAAA级旅游区、全国重点文物保护单位。‍‍\n扁鹊庙是祭祀、谒拜华夏医祖扁鹊的古建筑群。原有单体建筑27座，按天（玉皇）、地（后土）、人（扁鹊）三才布局。现存有回生桥、山门、扁鹊殿、后土总司殿、玉皇殿、三清殿、老君殿、财神殿百子殿、三霄殿、药王庙等19座，占地面积15万平方米。\n扁鹊庙，始建不祥，汉唐有之。历代均曾修葺。其中扁鹊殿、扁鹊墓、透灵碑、回生桥、九龙柏、古代碑廊、三清殿、汉代神兽，为扁鹊庙八大景观，具有丰富的历史文化内涵。扁鹊庙内古柏参天、建筑错落、碑刻林立，现存有宋、元、明、清历代碑刻100余件，其中“透灵碑”保存的最为完好，碑文为元代参知政事王鄂所撰，元代重臣刘秉忠书丹。是研究扁鹊中医文化和我国医学发展史的重要实物资料。扁鹊庙与鹊山相呼应、融为一体，文化积淀沉厚，留下了许多脍炙人口的传说。‍‍"}}, {"title": "内邱长寿百果庄园", "address": "邢台市内丘县328省道", "image": "", "rank": 2, "time": 2, "location": {"lat": 37.35820139648349, "lng": 114.18461523361313}, "feature": {"sight_features": "", "sight_content": ""}}, {"title": "黄巾军寨", "address": "河北省邢台市内丘县", "image": "", "rank": 3, "time": 1.0, "location": {"lat": 37.292857912046905, "lng": 114.51849293403419}, "feature": {"sight_features": "", "sight_content": ""}}, {"title": "且停寺", "address": "河北省邢台市内丘县寺沟村南侧", "image": "", "rank": 4, "time": 2, "location": {"lat": 37.342529247246375, "lng": 114.34417044012507}, "feature": {"sight_features": "", "sight_content": ""}}, {"title": "白草坪长寿山庄", "address": "白草坪村二道沟", "image": "", "rank": 5, "time": 2, "location": {"lat": 37.63020010411615, "lng": 114.23816360414786}, "feature": {"sight_features": "", "sight_content": ""}}, {"title": "长寿百果园", "address": "邢台市内丘县328省道", "image": "", "rank": 6, "time": 12.0, "location": {"lat": 37.35820139648349, "lng": 114.18461523361313}, "feature": {"sight_features": "", "sight_content": ""}}, {"title": "寒山风景区", "address": "河北省邢台市内丘县202省道", "image": "", "rank": 7, "time": 2, "location": {"lat": 37.33691348684119, "lng": 114.20040142583163}, "feature": {"sight_features": "", "sight_content": ""}}, {"title": "儿童乐园", "address": "东盛国际4层西南角", "image": "", "rank": 8, "time": 2, "location": {"lat": 34.785493294315344, "lng": 113.68919419692547}, "feature": {"sight_features": "", "sight_content": ""}}, {"title": "付殿", "address": "邢台市内丘县", "image": "", "rank": 9, "time": 2, "location": {"lat": 37.292857912046905, "lng": 114.51849293403419}, "feature": {"sight_features": "", "sight_content": ""}}, {"title": "扁鹊公园", "address": "内丘镇平安南大街", "image": "", "rank": 10, "time": 2, "location": {"lat": 37.29043658302663, "lng": 114.51575767101058}, "feature": {"sight_features": "", "sight_content": ""}}, {"title": "启蒙儿童游乐园", "address": "河北省邢台市内丘县三木超市2楼", "image": "", "rank": 11, "time": 2, "location": {"lat": 37.282384958541265, "lng": 114.52159494735007}, "feature": {"sight_features": "", "sight_content": ""}}, {"title": "优优儿童游乐园", "address": "平安大街心连心超市楼上", "image": "", "rank": 12, "time": 2, "location": {"lat": 23.167811183888762, "lng": 113.27231030316366}, "feature": {"sight_features": "", "sight_content": ""}}, {"title": "邢窑文化博物馆", "address": "中兴北大街", "image": "", "rank": 13, "time": 2, "location": {"lat": 37.298447095246345, "lng": 114.52376245793542}, "feature": {"sight_features": "", "sight_content": ""}}, {"title": "依林山庄", "address": "328省道", "image": "", "rank": 14, "time": 2, "location": {"lat": 39.81070544583611, "lng": 116.15036110142927}, "feature": {"sight_features": "", "sight_content": ""}}, {"title": "大堡礁梦幻王国", "address": "中兴北大街全得利购物中心5层", "image": "", "rank": 15, "time": 2, "location": {"lat": 37.295038281521215, "lng": 114.52245822074175}, "feature": {"sight_features": "", "sight_content": ""}}, {"title": "东盛水上乐园", "address": "胜利东路东盛国际西侧(供销商业街中段)", "image": "", "rank": 16, "time": 2, "location": {"lat": 34.785493294315344, "lng": 113.68919419692547}, "feature": {"sight_features": "", "sight_content": ""}}, {"title": "光华冬枣采摘园", "address": "328省道48.5公里,柳林镇房家庄村南", "image": "", "rank": 17, "time": 2, "location": {"lat": 37.30167999465743, "lng": 114.38378187196074}, "feature": {"sight_features": "", "sight_content": ""}}, {"title": "金艺文化石", "address": "獐么乡米家沟村农村s202路东信用合作社对面", "image": "", "rank": 18, "time": 2, "location": {"lat": 37.3449521881184, "lng": 114.25746194004584}, "feature": {"sight_features": "", "sight_content": ""}}, {"title": "红宝石礼品画廊", "address": "胜利西路与155乡道交叉口西150米", "image": "", "rank": 19, "time": 2, "location": {"lat": 37.29925216721566, "lng": 114.50287203002954}, "feature": {"sight_features": "", "sight_content": ""}}, {"title": "大鹏画廊", "address": "解放路与001乡道交叉口东南100米", "image": "", "rank": 20, "time": 2, "location": {"lat": 26.200875965740984, "lng": 119.5430082523939}, "feature": {"sight_features": "", "sight_content": ""}}, {"title": "墨岛画廊", "address": "公园路与幸福南大街交叉口东50米", "image": "", "rank": 21, "time": 2, "location": {"lat": 37.289018838222916, "lng": 114.52003938763065}, "feature": {"sight_features": "", "sight_content": ""}}, {"title": "中国河北树莓实验示范基地", "address": "金店镇冢圪塔村内", "image": "", "rank": 22, "time": 2, "location": {"lat": 37.29471153647144, "lng": 114.63380549734867}, "feature": {"sight_features": "", "sight_content": ""}}]}