{"cityName": "内乡", "days": 2, "cityImage": "", "spots": [{"title": "内乡县衙", "address": "南阳市内乡县城东大街", "image": "", "rank": 1, "time": 1.5, "location": {"lat": 33.05120310547566, "lng": 111.8554252869733}, "feature": {"sight_features": "", "sight_content": ""}}, {"title": "云露山景区", "address": "南阳市内乡县马山口镇石庙村", "image": "", "rank": 2, "time": 4.0, "location": {"lat": 33.296813555110646, "lng": 112.08988093741554}, "feature": {"sight_features": "", "sight_content": ""}}, {"title": "桃花源", "address": "南阳市内乡县夏馆镇青杠树村", "image": "", "rank": 3, "time": 4.5, "location": {"lat": 33.419022734556286, "lng": 111.82349094021242}, "feature": {"sight_features": "", "sight_content": ""}}, {"title": "商圣苑", "address": "内乡县城东五公里处，312国道旁", "image": "", "rank": 4, "time": 1.0, "location": {"lat": 33.06536244935987, "lng": 111.8854271638872}, "feature": {"sight_features": "", "sight_content": ""}}, {"title": "中原二龙山风景区", "address": "南阳市内乡县板厂乡让河村", "image": "", "rank": 5, "time": 2, "location": {"lat": 33.455732087723405, "lng": 111.71860871176756}, "feature": {"sight_features": "", "sight_content": "内乡二龙山，华夏二龙山景色区，坐落河南省内乡县，因十座连绵的山峰酷似两条戏珠巨龙而闻名遐迩。\n景区海拔1380m，空气质量一级，风光旖旎，地灵人杰，山势雄壮美丽，景色四时不同；景区前史悠久，具有凝练深厚的汉文明、儒释道文明、华夏古建筑文明。奇特的自然景观与人文前史完美交融，使这儿成为集俊美山水游、休闲休假摄生、领会华夏文明精华、参拜修禅的名胜。\n中原二龙山帐篷啤酒狂欢节\n激情DJ音乐、酷炫灯光秀、神秘嘉宾莅临。音乐狂欢节强势助阵本次活动，知名摇滚乐队DJ轮番轰炸，够燃！够劲爆！！打造最强大阵容的酷炫演出！更有知名网红，明星主持，炫酷魔术师倾情参与，燥热一夏瞬间燃爆！只有您想不到的精彩，没有您看不到的震撼！唤醒沉睡的洒脱、嚣张，陪你度过这个夏天， 青春荷尔蒙，燥起来！\n全天类互动游戏\n1/森林大寻宝（在景区游览的同时，可发现并带走景区提前放置好的大礼包，在寻宝的同时可以发现更多的自然奥秘，不仅惊喜多多，趣味也多多！ ）\n2/集章赢年票（入园时领取集章卡一份，集齐景区各地点印章，可获得景区旅游年卡一张）\n3/狂欢水上游乐园（凭景区活动门票可免费不限时间畅玩水上娱乐游戏，仅需在景区内购买泳衣，泳衣售价30元/套）\n\n\n每天上午互动游戏\n1/幸运大转盘（奖品分为3个等级，现场抽取幸运观众，每人转动转盘一次，千万不要摇到谢谢谢参与 ）\n2/互动赢大奖（参与主办方现场演出时的互动比拼，可获得相应大礼品一份）\n3/王者吃鸡争霸赛（主办方现场举办王者荣耀及绝地求生刺激战场比赛，获胜者可获得主办方提供的相应礼品一份）\n4/吃西瓜比赛（主办方现场举办吃西瓜比赛，获胜者可获得主办方提供的相应礼品一份）\n\n\n每天下午互动游戏\n1/嗨啤一下啤酒大比拼：看谁喝得多/看谁喝得快（每天晚上17：00-19：00）\n2/虾路相逢勇者胜：看谁吃得多/看谁吃得快（每天晚上17：00-19：00）\n3/龙虾烧烤啤酒限时免费（每天晚上17：00-19：00）\n\n\n演出演绎类活动\n1/灯光烟火时光秀（2018.7.7--2018.8.19每天晚上20：30）\n2/魅力新歌声音乐专场（2018.7.7--2018.7.13每天下午15：30-17：00晚上19：00-20：30）\n3/“足球之夜”帐篷啤洒狂欢节暨明星见面会（2018.7.7--2018.7.13晚上19：00-20：30）（李阳13-15，小潘潘/乐颜14，何静静/韩佳15）\n4/小丑魔术嘉年华（2018.7.16--2018.7.22每天下午15：30-17：00晚上19：00-20：30）\n5/DJ狂欢音乐节（2018.7.23--2018.7.29每天下午15：30-17：00晚上19：00-20：30）\n6/“非遗”曲艺、玩杂耍（2018.7.30--2018.8.5每天下午15：30-17：00晚上19：00-20：30）\n7/歌舞维秘大汇演（2018.8.6--2018.8.12每天下午15：30-17：00晚上19：00-20：30）\n8/七夕“鹊桥会”山巅“贺新人”（2018.8.13--2018.8.19全天）"}}, {"title": "七星潭", "address": "南阳市内乡县七里坪乡大龙村", "image": "", "rank": 6, "time": 0.3, "location": {"lat": 33.392893677215234, "lng": 111.93005236396064}, "feature": {"sight_features": "", "sight_content": ""}}, {"title": "宝天曼峡谷漂流", "address": "南阳市内乡县大龙村", "image": "", "rank": 7, "time": 2, "location": {"lat": 33.392893677215234, "lng": 111.93005236396064}, "feature": {"sight_features": "", "sight_content": "【景点介绍】\n宝天曼峡谷漂流景区位于中国优秀旅游城市河南省南阳市的内乡县。宝天曼是河南省唯一的世界生物圈保护区、是南阳伏牛山世界地质公园核心景区、国家自然保护区、国家AAAA级景区，宝天曼峡谷漂流是生态型峡谷漂流，也是真正的峡谷第一漂，宝天曼峡谷漂流，全长12．8公里，分激流勇士和休闲娱乐双程漂。“波涛汹涌”的“浪花”给了别样的清爽感觉，239米的整体落差、九曲十八弯的漂流河道，冲浪区、激流区、水仗区、逍遥区，区区给我欢乐；神龟石、巨石滩、杜鹃山、蝴蝶谷、情人峡、神龙湾、月牙石、汉王台、湍河叠翠，处处令大家惊叹惊险刺激，挑战极限。河道刺激，惊险浪漫：在这段精华河道，分布两大漂段4大游乐区和9大景观。激流勇士漂长8公里，漂时3小时10分。\n宝天曼峡谷漂流位于河南省南阳市内乡县境内，是国内唯一的生态峡谷型漂流如灿烂的明珠镶嵌在大宝天曼生态旅游区核心。在方圆30公里范围内，宝天曼（宝顶）、七星潭、天心洞、桃花源4大风景旅游区如众星拱月，将峡谷漂流环抱其中，映衬得更加光彩夺目。她是响彻故乡田园的古老牧歌，更是魂牵梦绕的梦幻童年。"}}, {"title": "吴垭石头村", "address": "南阳市内乡县", "image": "", "rank": 8, "time": 2, "location": {"lat": 33.05120310547566, "lng": 111.8554252869733}, "feature": {"sight_features": "", "sight_content": ""}}, {"title": "让河风景区", "address": "河南省南阳市内乡县板场乡", "image": "", "rank": 9, "time": 1.0, "location": {"lat": 33.429928040214705, "lng": 111.68344288879902}, "feature": {"sight_features": "", "sight_content": ""}}, {"title": "菊潭公园", "address": "河南省南阳市内乡县湍河西路", "image": "", "rank": 10, "time": 2, "location": {"lat": 33.05697071239742, "lng": 111.85872015480417}, "feature": {"sight_features": "", "sight_content": ""}}, {"title": "天心洞", "address": "河南省南阳市内乡县七里坪乡", "image": "", "rank": 11, "time": 3.5, "location": {"lat": 33.329882784872986, "lng": 111.86290690975218}, "feature": {"sight_features": "", "sight_content": ""}}, {"title": "红鲜鲜草莓园", "address": "菊潭大街北281号", "image": "", "rank": 12, "time": 2, "location": {"lat": 33.0654157396213, "lng": 111.84761245446137}, "feature": {"sight_features": "", "sight_content": ""}}, {"title": "秋林河谷", "address": "河北省南阳市内乡县夏馆镇葛条爬村宝天曼森林生态旅游区", "image": "", "rank": 13, "time": 2, "location": {"lat": 33.51201703368141, "lng": 111.90437428029689}, "feature": {"sight_features": "", "sight_content": ""}}, {"title": "七宝农家", "address": "宝天曼峡谷漂流下码头(31号宾馆附近)", "image": "", "rank": 14, "time": 2, "location": {"lat": 33.38784932237109, "lng": 111.92741856813761}, "feature": {"sight_features": "", "sight_content": ""}}, {"title": "z先生密室逃脱", "address": "县衙路与灵山路交叉口西100米", "image": "", "rank": 15, "time": 2, "location": {"lat": 33.05050744633332, "lng": 111.8385132897812}, "feature": {"sight_features": "", "sight_content": ""}}, {"title": "宝天曼漂流", "address": "249省道", "image": "", "rank": 16, "time": 2, "location": {"lat": 34.251184186395946, "lng": 118.36169776685699}, "feature": {"sight_features": "", "sight_content": ""}}, {"title": "文庙", "address": "大成路与黉学路丁字路口", "image": "", "rank": 17, "time": 1.5, "location": {"lat": 33.048625299022376, "lng": 111.85846560556503}, "feature": {"sight_features": "", "sight_content": ""}}, {"title": "通灵禅寺", "address": "南阳市内乡县", "image": "", "rank": 18, "time": 2, "location": {"lat": 33.05120310547566, "lng": 111.8554252869733}, "feature": {"sight_features": "", "sight_content": ""}}, {"title": "希望游园", "address": "县衙路与灵山路交叉口西50米", "image": "", "rank": 19, "time": 2, "location": {"lat": 33.05050744633332, "lng": 111.83896244253619}, "feature": {"sight_features": "", "sight_content": ""}}, {"title": "双乡街中心广场", "address": "249省道附近", "image": "", "rank": 20, "time": 2, "location": {"lat": 34.251184186395946, "lng": 118.36169776685699}, "feature": {"sight_features": "", "sight_content": ""}}, {"title": "方山", "address": "河南省南阳市内乡县方山公园附近", "image": "", "rank": 21, "time": 3.5, "location": {"lat": 33.025164947822425, "lng": 111.80641646560443}, "feature": {"sight_features": "", "sight_content": ""}}, {"title": "康乐广场", "address": "河南省南阳市内乡县", "image": "", "rank": 22, "time": 2, "location": {"lat": 33.05120310547566, "lng": 111.8554252869733}, "feature": {"sight_features": "", "sight_content": ""}}, {"title": "书法艺术馆", "address": "湍河东路", "image": "", "rank": 23, "time": 0.4, "location": {"lat": 33.060424963425724, "lng": 111.86250011659351}, "feature": {"sight_features": "", "sight_content": ""}}, {"title": "宛西地方自治博物馆", "address": "县衙路", "image": "", "rank": 24, "time": 2, "location": {"lat": 33.05379687155453, "lng": 111.85606529820845}, "feature": {"sight_features": "", "sight_content": ""}}, {"title": "鲵生态园", "address": "七宝路", "image": "", "rank": 25, "time": 2, "location": {"lat": 33.369480472360685, "lng": 111.94340777919795}, "feature": {"sight_features": "", "sight_content": ""}}, {"title": "花卉植物园", "address": "教育路与范蠡大街交叉口", "image": "", "rank": 26, "time": 1.5, "location": {"lat": 33.04703904207787, "lng": 111.85601934000027}, "feature": {"sight_features": "", "sight_content": ""}}, {"title": "内乡县康之源食用菌农民专业合作...", "address": "夏馆镇", "image": "", "rank": 27, "time": 1.5, "location": {"lat": 33.457001865430016, "lng": 111.84417768812358}, "feature": {"sight_features": "", "sight_content": ""}}, {"title": "杨州摘桔子", "address": "大桥乡杨州摘桔子", "image": "", "rank": 28, "time": 2, "location": {"lat": 43.353984417998156, "lng": 128.38347222431966}, "feature": {"sight_features": "", "sight_content": ""}}, {"title": "绿桂生态园", "address": "渚阳大道", "image": "", "rank": 29, "time": 2, "location": {"lat": 33.06016393716254, "lng": 111.84345830710508}, "feature": {"sight_features": "", "sight_content": ""}}, {"title": "宝天曼保护区", "address": "河南省内乡县夏馆镇", "image": "", "rank": 30, "time": 2, "location": {"lat": 33.457001865430016, "lng": 111.84417768812358}, "feature": {"sight_features": "", "sight_content": ""}}, {"title": "欧月花海风情园", "address": "南阳市内乡县灌涨镇马山路口向北3公里", "image": "", "rank": 31, "time": 2, "location": {"lat": 33.04020698528076, "lng": 111.9935735875213}, "feature": {"sight_features": "", "sight_content": "欧月花海风情园是集果木花卉种植、生态观光、娱乐休闲为一体的乡村旅游综合开发重点项目。 这里不只有水上乐园。还有网红摇摆桥，月季花海迷宫，空中廊道，时空穿梭车，儿童室外游乐，七彩滑道，清水摸鱼池等娱乐设施以供成人和儿童尽情玩耍。"}}, {"title": "宝天幔国家地质公园", "address": "河南内乡县马山口镇 474364", "image": "", "rank": 32, "time": 2, "location": {"lat": 33.260627782857426, "lng": 111.99686186717958}, "feature": {"sight_features": "", "sight_content": ""}}]}