{"cityName": "聂拉木", "days": 2, "cityImage": "", "spots": [{"title": "希夏邦马峰", "address": "日喀则市聂拉木县", "image": "", "rank": 1, "time": 12.0, "location": {"lat": 28.16083936054344, "lng": 85.98877040304578}, "feature": {"sight_features": "", "sight_content": ""}}, {"title": "樟木口岸", "address": "日喀则市聂拉木县樟木镇中尼边境", "image": "", "rank": 2, "time": 1.0, "location": {"lat": 28.012690124362244, "lng": 86.02841888601809}, "feature": {"sight_features": "", "sight_content": ""}}, {"title": "佩枯错", "address": "日喀则地区聂拉木县差那乡", "image": "", "rank": 3, "time": 1.0, "location": {"lat": 29.18473987871333, "lng": 85.89388781818276}, "feature": {"sight_features": "", "sight_content": ""}}, {"title": "中尼友谊桥", "address": "日喀则市聂拉木县樟木口岸附近的中尼界河上", "image": "", "rank": 4, "time": 0.2, "location": {"lat": 27.974828643865703, "lng": 85.9728518233275}, "feature": {"sight_features": "", "sight_content": ""}}, {"title": "樟木318国道", "address": "日喀则市聂拉木县", "image": "", "rank": 5, "time": 2, "location": {"lat": 28.16083936054344, "lng": 85.98877040304578}, "feature": {"sight_features": "", "sight_content": ""}}, {"title": "立新原始森林景区", "address": "日喀则市聂拉木县", "image": "", "rank": 6, "time": 2, "location": {"lat": 28.16083936054344, "lng": 85.98877040304578}, "feature": {"sight_features": "", "sight_content": ""}}, {"title": "热盆景", "address": "日喀则市聂拉木县烟台路", "image": "", "rank": 7, "time": 2, "location": {"lat": 28.159720136260898, "lng": 85.98909102400253}, "feature": {"sight_features": "", "sight_content": ""}}, {"title": "塔", "address": "西藏自治区日喀则市聂拉木县", "image": "", "rank": 8, "time": 1.5, "location": {"lat": 28.16083936054344, "lng": 85.98877040304578}, "feature": {"sight_features": "", "sight_content": ""}}, {"title": "樟木邦村夏尔巴民俗度假村", "address": "希望路69号附近", "image": "", "rank": 9, "time": 2, "location": {"lat": 29.216394682646804, "lng": 119.84869624816639}, "feature": {"sight_features": "", "sight_content": ""}}, {"title": "Sino-Nepal Friendship Bridge", "address": "Zhangmu", "image": "", "rank": 10, "time": 2, "location": {"lat": 31.2269037829552, "lng": 121.47591123934187}, "feature": {"sight_features": "", "sight_content": ""}}, {"title": "那查普", "address": "日喀则市-聂拉木县", "image": "", "rank": 11, "time": 2, "location": {"lat": 28.16083936054344, "lng": 85.98877040304578}, "feature": {"sight_features": "", "sight_content": ""}}, {"title": "樟木小镇", "address": "西藏聂拉木县", "image": "", "rank": 12, "time": 2, "location": {"lat": 28.16083936054344, "lng": 85.98877040304578}, "feature": {"sight_features": "", "sight_content": ""}}]}