{"cityName": "尼勒克", "days": 2, "cityImage": "", "spots": [{"title": "乔尔玛", "address": "新疆维吾尔自治区伊犁哈萨克自治州尼勒克县乔尔玛", "image": "", "rank": 1, "time": 1.0, "location": {"lat": 43.66773728573696, "lng": 84.34458122218588}, "feature": {"sight_features": "", "sight_content": ""}}, {"title": "独库公路", "address": "伊犁哈萨克自治州尼勒克县", "image": "", "rank": 2, "time": 1.5, "location": {"lat": 43.80459483623821, "lng": 82.51800753168041}, "feature": {"sight_features": "", "sight_content": ""}}, {"title": "乔尔玛革命烈士陵园", "address": "疆维吾尔自治区伊犁哈萨克自治州尼勒克县", "image": "", "rank": 3, "time": 2, "location": {"lat": 43.80459483623821, "lng": 82.51800753168041}, "feature": {"sight_features": "", "sight_content": ""}}, {"title": "喀什河", "address": "中国新疆维吾尔自治区伊犁哈萨克自治州尼勒克县喀什河", "image": "", "rank": 4, "time": 2, "location": {"lat": 43.768988832350175, "lng": 83.38009861310363}, "feature": {"sight_features": "", "sight_content": ""}}, {"title": "阿克塔斯避暑山庄", "address": "新疆维吾尔自治区尼勒克县城东 835700", "image": "", "rank": 5, "time": 2, "location": {"lat": 43.80459483623821, "lng": 82.51800753168041}, "feature": {"sight_features": "", "sight_content": ""}}, {"title": "绿雅农家", "address": "中学路武进中学正南方300米(社会福利院斜对面)", "image": "", "rank": 6, "time": 2, "location": {"lat": 31.641758625666522, "lng": 119.71996722846707}, "feature": {"sight_features": "", "sight_content": ""}}, {"title": "尼勒克次森林度假村", "address": "新疆维吾尔自治区尼勒克县距县城3千米 835700", "image": "", "rank": 7, "time": 2, "location": {"lat": 43.80459483623821, "lng": 82.51800753168041}, "feature": {"sight_features": "", "sight_content": ""}}, {"title": "百里画廓(唐布拉)", "address": "伊犁哈萨克自治州尼勒克县315省道", "image": "", "rank": 8, "time": 1.0, "location": {"lat": 43.7226561968122, "lng": 84.00507289324183}, "feature": {"sight_features": "", "sight_content": ""}}, {"title": "乌拉斯台乡民间艺术馆", "address": "315省道", "image": "", "rank": 9, "time": 2, "location": {"lat": 36.88733965403998, "lng": 115.75610288886648}, "feature": {"sight_features": "", "sight_content": ""}}, {"title": "黑蜂乐园", "address": "315省道", "image": "", "rank": 10, "time": 2, "location": {"lat": 36.88733965403998, "lng": 115.75610288886648}, "feature": {"sight_features": "", "sight_content": ""}}, {"title": "尼勒克县图书馆", "address": "唐布拉路35号", "image": "", "rank": 11, "time": 2, "location": {"lat": 43.79228624723832, "lng": 82.50834418981793}, "feature": {"sight_features": "", "sight_content": ""}}, {"title": "克孜勒库伦", "address": "伊犁哈萨克自治州-新源县", "image": "", "rank": 12, "time": 2, "location": {"lat": 43.43592700218544, "lng": 83.26702230149687}, "feature": {"sight_features": "", "sight_content": ""}}, {"title": "尼勒克唐布拉格瑞斯蓝山庄", "address": "伊犁哈萨克自治州-尼勒克县-维吾尔族自治区伊犁哈萨克自治州尼勒克县城东部唐布拉避暑山庄附近", "image": "", "rank": 13, "time": null, "location": {"lat": 43.79795222078118, "lng": 82.51291726868608}, "feature": {"sight_features": "", "sight_content": ""}}, {"title": "巩乃斯河", "address": "中国新疆维吾尔自治区伊犁哈萨克自治州尼勒克县巩乃斯河", "image": "", "rank": 14, "time": 2, "location": {"lat": 43.5700376799501, "lng": 82.61710383452197}, "feature": {"sight_features": "", "sight_content": ""}}, {"title": "乌拉斯台山牧场", "address": "新疆维吾尔自治区伊犁哈萨克自治州尼勒克县", "image": "", "rank": 15, "time": 2, "location": {"lat": 43.80459483623821, "lng": 82.51800753168041}, "feature": {"sight_features": "", "sight_content": ""}}, {"title": "哈希勒根达坂", "address": "新疆维吾尔自治区伊犁哈萨克自治州尼勒克县", "image": "", "rank": 16, "time": 2, "location": {"lat": 43.80459483623821, "lng": 82.51800753168041}, "feature": {"sight_features": "", "sight_content": ""}}]}