{"cityName": "尼玛", "days": 2, "cityImage": "", "spots": [{"title": "当惹雍错", "address": "那曲地区尼玛县当惹雍错", "image": "", "rank": 1, "time": 1.0, "location": {"lat": 31.24568010308733, "lng": 86.71300484073682}, "feature": {"sight_features": "", "sight_content": ""}}, {"title": "色林措", "address": "西藏自治区申扎县和班戈县境内", "image": "", "rank": 2, "time": 1.0, "location": {"lat": 30.936393285832022, "lng": 88.7164811082338}, "feature": {"sight_features": "", "sight_content": ""}}, {"title": "达则错", "address": "西藏那曲地区尼玛县达则错", "image": "", "rank": 3, "time": 2, "location": {"lat": 31.90761212609361, "lng": 87.57193729709194}, "feature": {"sight_features": "", "sight_content": ""}}, {"title": "象雄王国遗址", "address": "那曲地区尼玛县文部乡", "image": "", "rank": 4, "time": 2.5, "location": {"lat": 33.5369659807842, "lng": 87.65484664650761}, "feature": {"sight_features": "", "sight_content": ""}}, {"title": "达果雪山", "address": "西藏自治区尼玛县布文达乡", "image": "", "rank": 5, "time": 1.0, "location": {"lat": 31.790953326637915, "lng": 87.24329241086829}, "feature": {"sight_features": "", "sight_content": ""}}, {"title": "绒玛岩画和温泉", "address": "那曲地区尼玛县绒玛乡", "image": "", "rank": 6, "time": 1.0, "location": {"lat": 33.5369659807842, "lng": 87.65484664650761}, "feature": {"sight_features": "", "sight_content": ""}}, {"title": "咸水湖", "address": "那曲地区尼玛县", "image": "", "rank": 7, "time": 2, "location": {"lat": 33.5369659807842, "lng": 87.65484664650761}, "feature": {"sight_features": "", "sight_content": ""}}, {"title": "达果雪山", "address": "西藏自治区尼玛县布文达乡", "image": "", "rank": 8, "time": 1.0, "location": {"lat": 31.790953326637915, "lng": 87.24329241086829}, "feature": {"sight_features": "", "sight_content": ""}}, {"title": "羌塘保护区", "address": "西藏自治区日土县境内", "image": "", "rank": 9, "time": 2, "location": {"lat": 33.3871860438718, "lng": 79.73910913826312}, "feature": {"sight_features": "", "sight_content": ""}}, {"title": "打耳多朗", "address": "那曲市-尼玛县", "image": "", "rank": 10, "time": 2, "location": {"lat": 31.790953326637915, "lng": 87.24329241086829}, "feature": {"sight_features": "", "sight_content": ""}}, {"title": "日根强弄当玛", "address": "那曲市-尼玛县", "image": "", "rank": 11, "time": 2, "location": {"lat": 31.790953326637915, "lng": 87.24329241086829}, "feature": {"sight_features": "", "sight_content": ""}}, {"title": "特翁我加", "address": "那曲市-尼玛县", "image": "", "rank": 12, "time": 2, "location": {"lat": 31.790953326637915, "lng": 87.24329241086829}, "feature": {"sight_features": "", "sight_content": ""}}, {"title": "文部南村", "address": "尼玛县文部乡南村", "image": "", "rank": 13, "time": 2, "location": {"lat": 31.790953326637915, "lng": 87.24329241086829}, "feature": {"sight_features": "", "sight_content": ""}}, {"title": "文部北村", "address": "尼玛县文部乡北村", "image": "", "rank": 14, "time": 2, "location": {"lat": 31.790953326637915, "lng": 87.24329241086829}, "feature": {"sight_features": "", "sight_content": ""}}, {"title": "尼玛", "address": "那曲地区尼玛县", "image": "", "rank": 15, "time": 1.0, "location": {"lat": 33.5369659807842, "lng": 87.65484664650761}, "feature": {"sight_features": "", "sight_content": ""}}, {"title": "错愕湖", "address": "西藏自治区那曲地区尼玛县", "image": "", "rank": 16, "time": 2, "location": {"lat": 33.5369659807842, "lng": 87.65484664650761}, "feature": {"sight_features": "", "sight_content": ""}}]}