{"cityName": "宁国", "days": 2, "cityImage": "", "spots": [{"title": "恩龙世界木屋村", "address": "宣城市宁国市港路8公里处", "image": "", "rank": 1, "time": 2, "location": {"lat": 30.639352229689443, "lng": 118.98960981494011}, "feature": {"sight_features": "特色1 展现不同民族的风土人情和民族建筑风格 特色2 看不尽的美，说不完的旖旎，", "sight_content": "恩龙世界木屋村位于安徽省东南部的宁国市，距市区8公里，占地150公顷，是宁国市恩龙生态发展有限公司，在大力发展科技生态产业的基础上创办起来的集观光旅游、商贸会议、休闲度假于一体的综合性三星级涉外旅游饭店和旅游度假区，以其优美的自然风光和古朴典雅的木屋别墅吸引了很多海内外游客。\n恩龙世界木屋村内民族风情园，将全国十几个少数民族集中于一体，集中展现了不同民族的风土人情和民族建筑风格，分布着蒙、苗、佤、傣、摩梭人家等民族村寨和异国风情表演区，在区内可欣赏别具特色的蒙古摔跤、苗族绣球舞、芦笙舞、傣族泼水、佤族剽牛、摩梭民歌等民族歌舞。游客可参与的互动性节目有苗族抢婚、苗族竹杆舞、蒙古射箭、高空溜索等。\n其中风情园最具特色的项目有蜚声东南亚的泰国红艺人表演、飞车走壁、广西融水斗马、苗族上刀山下火海、斗牛表演、四川变脸喷火术等。其中泰国人妖表演是其他旅游景区所不具备的一道独特的景观，让游客在旅游观光中不仅领略到山川秀美的自然风光，同时还能欣赏到民族文化和异国风情。"}}, {"title": "夏霖九天银瀑风景区", "address": "宁国市中溪镇夏林村夏霖风景区", "image": "", "rank": 2, "time": 1.5, "location": {"lat": 30.51254364487025, "lng": 119.23644872810863}, "feature": {"sight_features": "特色1 西望黄山奇景，南眺西湖秀色", "sight_content": "夏霖风景区位于宁国市中溪镇境内，距市区仅29公里，系黄山山脉和天目山脉交汇带。这里西望黄山奇景，南眺西湖秀色。境内奇峰幽洞无数，孤壁绝崖万千；沟壑峡谷险峻，飞瀑流泉密布；野藤古树参天，竹海松涛共鸣。\n\n夏霖以飞瀑、神潭、深涧、怪石、险峡独具特色的景观，被誉为“五绝天下景”；又以星罗棋布，各具千秋的大小瀑布，被誉为“东南第一瀑布群”。"}}, {"title": "南极漂流", "address": "宁国市南极乡梅村", "image": "", "rank": 3, "time": 2, "location": {"lat": 30.34894151054269, "lng": 119.04149663828152}, "feature": {"sight_features": "特色1 全长3公里，总落差100米，华东最震撼的双人皮筏漂流。", "sight_content": "“宁国南极漂流”位于皖浙两省交界的中国山核桃第一乡——安徽省宁国市南极乡，属峡谷落差激情式漂流，总长度约2.5公里，落差约75米。\n有惊无险的漂流刺激体验和沿途峡谷七彩壮观的岩石地质景观，以达到视觉冲击与心灵震撼相结合的双重快感。\n度假区分步行休闲观光区、水上运动休闲区、森林峡谷探险区、农耕文化博览区，是集生态养生、度假休闲、旅游观光、文化交流于一体的大型综合性生态休闲示范基地。"}}, {"title": "青龙双河漂流", "address": "宣城宁国市青龙乡龙阁村", "image": "", "rank": 4, "time": 4.5, "location": {"lat": 30.597014031213963, "lng": 118.87710964585523}, "feature": {"sight_features": "特色1 处于大山与古木大树之间，常年烟雨弥漫", "sight_content": "青龙双河漂流景区，隶属于宁国市青龙湖旅游休闲观光有限公司开发。景区位于宁国市青龙乡，距离宁国市区仅20分钟，距离周边其他景区基本都在30-50分钟时间，交通便利，资源丰富，风景秀丽，所用水源为青龙湖水库源头之水，清澈见底，水质优良。素有《皖南第一净水漂流》之称，漂流河段全长2公里，落差45米，河水湍急，惊险刺激，整条漂流河道处于大山与古木大树之间，山间常年烟雨弥漫，独具风格。\n河道峡窄流急，设有惊险、探秘暗渠漂流河道，让你回味漂流乐趣，有惊无险，体验山水之美，如在画中畅游，沿途激流险滩，飞舟而下，浪花飞溅，一路欢笑，一路尖叫，快乐无限，激流回旋，尽享漂流魅力，与浪共舞，一“漂”难忘！河道穿空过野，享受仙境搏舟畅快，人在水中漂，如在画中游，即可享受澎湃刺激而又安全的漂流，又能享受清澈水质的无穷魅力。"}}, {"title": "石柱山风景区", "address": "宣城市宁国市霞西镇石柱山风景区", "image": "", "rank": 5, "time": 3.5, "location": {"lat": 30.497385500757712, "lng": 118.98316562633029}, "feature": {"sight_features": "特色1 集奇、险、秀为一体", "sight_content": "小溪、溶洞、飞瀑随意点缀;日出、晨雾、暮霭、晚风、夕照、雨洒、雪落、月光在葱郁的山林间变幻万端。一年四季，石柱山上绿色飞逸，石柱山脚鸡犬相闻，大自然的千古灵秀，在这里造化出一个不染丝毫尘俗、自由自在的桃源世界。同时，被誉为皖南张家界。\n景区核心景点之一石观音，一座70余米高的“飞来”巨型石柱屹立山顶，上细下粗，与地相接处方圆约20平方米。外形笔立巍峨，内质沉静肃穆，其神情体态极似普度万千众生的南海观世音菩萨。原看其神似怀抱婴儿，被当地村民称之为“送子观音。\n百丈天梯，也叫石长城。共288级，台阶异常陡峭，道旁上下立些木桩，上拴铁索作为扶手。部分位置由于过于陡峭，无法构筑台阶，因此辅以木梯，需手脚并用，攀爬而上。"}}, {"title": "巨浪谷水上乐园", "address": "宁国市宁国大道奥林匹克体育公园", "image": "", "rank": 6, "time": 2, "location": {"lat": 30.654246377193516, "lng": 118.98806226361431}, "feature": {"sight_features": "", "sight_content": ""}}, {"title": "华东大裂谷", "address": "宣城市宁国市宁墩镇", "image": "", "rank": 7, "time": 2, "location": {"lat": 30.44211597098547, "lng": 119.12750124592584}, "feature": {"sight_features": "特色1 处处断崖绝壁，巨瀑高挂", "sight_content": "华东大裂谷风景区位于皖浙两省交界的天目山北麓----安徽省宁国市宁墩镇。华东大裂谷位置十分优越，与南京、合肥、芜湖、马鞍山、上海、杭州、苏州、无锡、常州、镇江等均有高 速贯通。\n华东大裂谷属于大裂谷地质构造，由于炽热地幔的上升作用，在地幔对流上升的地方上拱呈穹隆状外形，引起区域性拉张，此处岩石（层）不断变薄，最终导致穹隆轴部破裂而下陷，形成 裂谷。景区呈环形结构，整个景区通体封闭，如世外桃源。\n\n\n山谷两侧，处处断崖绝壁，巨瀑高挂；一年四季，时时各呈异色，浑然天成。"}}, {"title": "世京生态庄园", "address": "宣城市宁国市方塘乡葛村2组", "image": "", "rank": 8, "time": 12.0, "location": {"lat": 30.49906015491195, "lng": 118.72880709834796}, "feature": {"sight_features": "", "sight_content": ""}}, {"title": "青龙湾国家森林公园", "address": "宣城市宁国市", "image": "", "rank": 9, "time": 2, "location": {"lat": 30.639352229689443, "lng": 118.98960981494011}, "feature": {"sight_features": "", "sight_content": ""}}, {"title": "千秋关漂流", "address": "宣城市宁国市云梯畲族乡千秋村", "image": "", "rank": 10, "time": 2, "location": {"lat": 30.36434664657783, "lng": 119.27989216506336}, "feature": {"sight_features": "", "sight_content": ""}}, {"title": "女儿山神奇漂流", "address": "宣城市宁国市梅林镇沙埠村", "image": "", "rank": 11, "time": 2, "location": {"lat": 30.59481122172785, "lng": 119.0702498804179}, "feature": {"sight_features": "", "sight_content": "宁国女儿山神奇漂流位于安徽省宁国市梅林镇沙埠村中德智造小镇，河道全长3公里，总落差158米，最高垂直落差5.2米。\n总投资约3000万元左右，是目前华东区域最具激情与挑战性的漂流体验项目。让您体验“水上过山车”的惊险漂流。这里青山竹海环绕，漫山的野花争相斗艳，水质清澈见底。\n顺山势而成的自然跌落，时而水流平缓，时而急流险滩。龙门虎口急速下坠让你心跳加速。激流回旋，风光无限。体验与自然的搏斗。体验“有惊无险”后的轻松！尽享漂流魅力，一漂难忘。来体验男人心跳女人尖叫的漂流盛宴！"}}, {"title": "青龙池漂流", "address": "宣城市宁国市青龙乡青龙村茶林", "image": "", "rank": 12, "time": 2, "location": {"lat": 30.65218144598632, "lng": 118.85161670385538}, "feature": {"sight_features": "特色1 处于天然氧吧之中，全程无阳光直射", "sight_content": "青龙池漂流位于宁静的皖南小镇——安徽宁国市，森林覆盖率达97.5%。被誉为“天然氧吧”、“一级空气一级水”，青龙池漂流全程2.3公里，可到蜿蜒，整天落差45米。\n河道两岸绿树成荫一步一景，奇石、瀑布交相呼应，沿途经过古村落，漂流全程无阳光直射。乘坐景区交通车前往漂流上码头沿途可观赏皖南山区的自然风光，座皮筏顺流而下，水流时而湍急，浪花飞溅，爽透全身。冲漂过坝，有惊无险，让您亲身体验秘境漂流的奇妙快感！"}}, {"title": "山门洞风景区", "address": "宣城市宁国市港口镇山门村", "image": "", "rank": 13, "time": 2, "location": {"lat": 30.685724770364168, "lng": 118.89979902666352}, "feature": {"sight_features": "", "sight_content": ""}}, {"title": "千秋畲族民俗风情文化园", "address": "宣城市宁国市云梯畲族乡千秋村（西天目山脚下）", "image": "", "rank": 14, "time": 2, "location": {"lat": 30.36434664657783, "lng": 119.27989216506336}, "feature": {"sight_features": "", "sight_content": ""}}, {"title": "宁国市烈士陵园", "address": "安徽省宁国市宁阳东路", "image": "", "rank": 15, "time": 3.0, "location": {"lat": 30.62850196423968, "lng": 118.9938237005111}, "feature": {"sight_features": "", "sight_content": ""}}, {"title": "宁国闲云山庄", "address": "安徽省宣城市宁国市万家乡", "image": "", "rank": 16, "time": 2, "location": {"lat": 30.410034236238197, "lng": 119.14984569987594}, "feature": {"sight_features": "", "sight_content": ""}}, {"title": "青龙湾慧云禅寺", "address": "安徽省宣城市宁国市青龙湾水库内", "image": "", "rank": 17, "time": 2.0, "location": {"lat": 30.514422852667046, "lng": 118.88801236006711}, "feature": {"sight_features": "", "sight_content": ""}}, {"title": "吴越古道", "address": "宣城市宁国市万家乡云山村大塔", "image": "", "rank": 18, "time": 2.0, "location": {"lat": 30.374481430930523, "lng": 119.11932015756162}, "feature": {"sight_features": "", "sight_content": "吴越古道全长约35公里，顺吴越古道石板路台阶而上，一路溪流陪伴，瀑布奏鸣，曲径通幽，跌宕起伏，天地人合一，似在画中游。\n约2—3个小时到达千倾关，千顷关为两块巨大而光滑的花岗岩构成，像门一样挡在眼前，这一处天然石门，高近4米，厚约3米，宽可两人并行，其势“一夫当关，万夫莫开”。\n登上石门，拔开石墙上面的杂枝，曼延起伏的两翼石墙，是古城墙防守工事。"}}, {"title": "宁国闲云山庄", "address": "宁国市万家乡", "image": "", "rank": 19, "time": null, "location": {"lat": 30.410034236238197, "lng": 119.14984569987594}, "feature": {"sight_features": "", "sight_content": ""}}, {"title": "小苹果游乐园", "address": "宁阳东路66号(英雄岭加油车站加油站斜对面，宁阳公园出水口)", "image": "", "rank": 20, "time": 2, "location": {"lat": 30.630418136667668, "lng": 118.99698418453261}, "feature": {"sight_features": "", "sight_content": ""}}, {"title": "跑马场游乐园", "address": "河沥溪办事处坞村", "image": "", "rank": 21, "time": 2, "location": {"lat": 30.6446242392187, "lng": 119.0138403098169}, "feature": {"sight_features": "", "sight_content": ""}}, {"title": "恒祥水果乐园", "address": "胡乐路北侧恒祥新村4栋1008号聚丰园饭店对面", "image": "", "rank": 22, "time": 2, "location": {"lat": 30.647136158231206, "lng": 118.99057590299063}, "feature": {"sight_features": "", "sight_content": ""}}, {"title": "华兴农庄", "address": "008乡道附近", "image": "", "rank": 23, "time": 2, "location": {"lat": 41.737958580181754, "lng": 117.99106634564795}, "feature": {"sight_features": "", "sight_content": ""}}, {"title": "狮子山生态园", "address": "宁国大道西50米", "image": "", "rank": 24, "time": 2, "location": {"lat": 30.654246377193516, "lng": 118.98761311085931}, "feature": {"sight_features": "", "sight_content": ""}}, {"title": "北川地震遗址", "address": "四川省北川县曲山镇", "image": "", "rank": 25, "time": 2.5, "location": {"lat": 31.875265832474888, "lng": 104.51571161227419}, "feature": {"sight_features": "", "sight_content": ""}}, {"title": "原始森林农家乐", "address": "宁国市方塘乡板桥村一组", "image": "", "rank": 26, "time": 2, "location": {"lat": 30.52998906181405, "lng": 118.65195609629092}, "feature": {"sight_features": "", "sight_content": ""}}, {"title": "宣城宁国恩龙山庄", "address": "安徽省宁国市境内 242300", "image": "", "rank": 27, "time": 12.0, "location": {"lat": 30.639352229689443, "lng": 118.98960981494011}, "feature": {"sight_features": "", "sight_content": ""}}, {"title": "陶艺轩艺术馆", "address": "安徽省宁国市滨河路", "image": "", "rank": 28, "time": 2, "location": {"lat": 30.63497285433755, "lng": 118.98349992803091}, "feature": {"sight_features": "", "sight_content": ""}}, {"title": "南极青山牡丹园", "address": "安徽省宣城市宁国市X056", "image": "", "rank": 29, "time": 2, "location": {"lat": 30.639352229689443, "lng": 118.98960981494011}, "feature": {"sight_features": "", "sight_content": ""}}, {"title": "棒棒糖儿童乐园", "address": "宣城市宁国市", "image": "", "rank": 30, "time": 2, "location": {"lat": 30.639352229689443, "lng": 118.98960981494011}, "feature": {"sight_features": "", "sight_content": ""}}, {"title": "酷游水上乐园", "address": "仙霞大桥往南150米（阳城花园对面）", "image": "", "rank": 31, "time": 2, "location": {"lat": 30.62798054097507, "lng": 118.97507345853359}, "feature": {"sight_features": "", "sight_content": ""}}, {"title": "儿童主题乐园", "address": "凤形路与津河西路交叉口西南150米", "image": "", "rank": 32, "time": 2, "location": {"lat": 30.637691274056447, "lng": 118.97014982267744}, "feature": {"sight_features": "", "sight_content": ""}}, {"title": "梦想家儿童乐园", "address": "津河西路苏果超市总店二楼", "image": "", "rank": 33, "time": 2, "location": {"lat": 30.62458835237824, "lng": 118.9872690104422}, "feature": {"sight_features": "", "sight_content": ""}}, {"title": "包归园", "address": "汪溪街道104省道飞达工业园南250米", "image": "", "rank": 34, "time": 2, "location": {"lat": 30.679510141698117, "lng": 118.9845372400304}, "feature": {"sight_features": "", "sight_content": ""}}, {"title": "儿童乐园", "address": "安徽省宣城市宁国市河沥商务街b区", "image": "", "rank": 35, "time": 2, "location": {"lat": 30.64523781802011, "lng": 119.01825075900638}, "feature": {"sight_features": "", "sight_content": ""}}, {"title": "蜗牛小镇", "address": "安徽省宣城市宁国市津河东路台客隆购物广场二楼", "image": "", "rank": 36, "time": 2, "location": {"lat": 30.624327122737395, "lng": 118.98691790863192}, "feature": {"sight_features": "", "sight_content": ""}}, {"title": "开心多肉植物园", "address": "安徽省宣城市宁国市X047", "image": "", "rank": 37, "time": 2, "location": {"lat": 30.639352229689443, "lng": 118.98960981494011}, "feature": {"sight_features": "", "sight_content": ""}}, {"title": "宁国市南山公园", "address": "安徽省宣城市宁国市钓鱼台路19", "image": "", "rank": 38, "time": 2.5, "location": {"lat": 30.60741438930477, "lng": 118.9689671944905}, "feature": {"sight_features": "", "sight_content": ""}}, {"title": "宁国市梅林镇凤栖寺", "address": "梅林镇阳山村凤栖寺", "image": "", "rank": 39, "time": 2, "location": {"lat": 30.587510350778675, "lng": 119.25513058478259}, "feature": {"sight_features": "", "sight_content": ""}}, {"title": "哈尼游乐园", "address": "荷香路开源电力公司隔壁", "image": "", "rank": 40, "time": 2, "location": {"lat": 30.701113079410305, "lng": 117.22185562611878}, "feature": {"sight_features": "", "sight_content": ""}}, {"title": "妙妙屋儿童乐园（清华路店）", "address": "宁国市山门路与清华路交叉口", "image": "", "rank": 41, "time": 2, "location": {"lat": 30.624789184401802, "lng": 118.97803514844404}, "feature": {"sight_features": "", "sight_content": ""}}, {"title": "宣城东津河度假村", "address": "宣城宁国市梅林镇田村村", "image": "", "rank": 42, "time": null, "location": {"lat": 30.571250108735388, "lng": 119.15523475500324}, "feature": {"sight_features": "", "sight_content": ""}}, {"title": "爱纯策划中心-婚礼活动策划商业...", "address": "青龙东路37附近", "image": "", "rank": 43, "time": 2, "location": {"lat": 31.795393337955502, "lng": 120.02728562818011}, "feature": {"sight_features": "", "sight_content": ""}}, {"title": "太子塘度假村", "address": "054县道西100米", "image": "", "rank": 44, "time": 2, "location": {"lat": 22.526267027237505, "lng": 113.3829636090835}, "feature": {"sight_features": "", "sight_content": ""}}, {"title": "栊翠谷度假村", "address": "安徽省宣城市宁国市宁城北路国土局附近", "image": "", "rank": 45, "time": 2, "location": {"lat": 30.631869797622702, "lng": 118.98862036016664}, "feature": {"sight_features": "", "sight_content": ""}}, {"title": "宁国市普济禅寺", "address": "安徽省宣城市宁国市蟠龙村（S215）附近", "image": "", "rank": 46, "time": 1.5, "location": {"lat": 30.532082804554722, "lng": 118.8910886054894}, "feature": {"sight_features": "", "sight_content": ""}}, {"title": "梦幻堡", "address": "安徽省宣城市宁国市长乐路2号", "image": "", "rank": 47, "time": 1.0, "location": {"lat": 30.628963116635024, "lng": 118.99589344401629}, "feature": {"sight_features": "", "sight_content": ""}}, {"title": "宣城军天湖度假村", "address": "宣城宣城市上海军天湖农场总场内", "image": "", "rank": 48, "time": 12.0, "location": {"lat": 30.900064660259115, "lng": 118.6309558622144}, "feature": {"sight_features": "", "sight_content": ""}}, {"title": "锦苑广场", "address": "北园路", "image": "", "rank": 49, "time": 2, "location": {"lat": 31.210602359727332, "lng": 121.52856305336744}, "feature": {"sight_features": "", "sight_content": ""}}, {"title": "滨河人口文化园", "address": "山门北路与滨河路交叉口北50米", "image": "", "rank": 50, "time": 2, "location": {"lat": 30.63356385014821, "lng": 118.98059657408027}, "feature": {"sight_features": "", "sight_content": ""}}, {"title": "将军岭滑草滑沙场", "address": "沙埠村街道（云中飞水上乐园对面2公里）", "image": "", "rank": 51, "time": 2, "location": {"lat": 39.6484096172677, "lng": 118.60230030900563}, "feature": {"sight_features": "", "sight_content": ""}}, {"title": "天之蓝农家乐", "address": "万家乡云山村朱塘山组27号", "image": "", "rank": 52, "time": 2, "location": {"lat": 30.374481430930523, "lng": 119.11932015756162}, "feature": {"sight_features": "", "sight_content": ""}}, {"title": "畲族四季花海", "address": "宣城市宁国市云梯畲族乡云梯村", "image": "", "rank": 53, "time": 2, "location": {"lat": 30.381376357804264, "lng": 119.29611407857284}, "feature": {"sight_features": "", "sight_content": "畲族四季花海位于宁国市云梯畲族乡云梯村，该地多谷多丘，地形多样，易于打造灿烂绚丽的各类景观。以大地观花为主题，种植有月季、红梅、杜鹃花等花卉，是集旅游观光、生态体验、户外拓展、花卉培育、民俗文化传承为一体的大型观光旅游项目。"}}, {"title": "嘉艺画廊", "address": "山门北路6号", "image": "", "rank": 54, "time": 2, "location": {"lat": 30.63191645201622, "lng": 118.98067783749161}, "feature": {"sight_features": "", "sight_content": ""}}, {"title": "宁国市档案馆", "address": "市府巷", "image": "", "rank": 55, "time": 1.0, "location": {"lat": 33.63570201202082, "lng": 116.98408002086767}, "feature": {"sight_features": "", "sight_content": ""}}, {"title": "世京桃园", "address": "061县道", "image": "", "rank": 56, "time": 2, "location": {"lat": 43.224068078932625, "lng": 124.79710948268877}, "feature": {"sight_features": "", "sight_content": ""}}, {"title": "弘大艺术馆", "address": "宁国大道", "image": "", "rank": 57, "time": 2, "location": {"lat": 30.654246377193516, "lng": 118.98806226361431}, "feature": {"sight_features": "", "sight_content": ""}}, {"title": "桃园·十尚里民俗文化街", "address": "宁国大道", "image": "", "rank": 58, "time": 1.5, "location": {"lat": 30.654246377193516, "lng": 118.98806226361431}, "feature": {"sight_features": "", "sight_content": ""}}, {"title": "宁国市书画院(西城河巷店)", "address": "宁城北路20号(近西城河巷)", "image": "", "rank": 59, "time": 2, "location": {"lat": 30.633369298490567, "lng": 118.98831074929126}, "feature": {"sight_features": "", "sight_content": ""}}]}