{"cityName": "宁陕", "days": 2, "cityImage": "", "spots": [{"title": "秦岭峡谷漂流", "address": "安康市宁陕县广货街镇（西汉高速至朱雀出口下行20公里处）", "image": "", "rank": 1, "time": 2, "location": {"lat": 33.76789083286975, "lng": 108.78433589395298}, "feature": {"sight_features": "特色1 情侣罗曼蒂克之谷、妇孺儿童亲情戏水之乡", "sight_content": "秦岭峡谷漂流景区位于宁陕县广货街镇，是我省第一家高山峡谷水上娱乐基地，这里交通便利，210国道、西汉高速穿境而过，距西安只有80公里，景区除了漂流、攀岩、射箭、水上滚筒、水上悠波球、水上拓展、篝火、表演等项目外，还有可同时接待上百人的综合会议室、餐厅、迷你小别墅、团体木屋等服务设施。是集会议、餐饮、娱乐、休闲为一体的综合性旅游服务景区。这里青山绿水，景色怡人，是年轻人猎奇探险之地，老年人吐故纳新之所，妇孺儿童亲情戏水之乡，情侣罗曼蒂克之谷，更是都市白领们休闲娱乐度假的绝佳之处。"}}, {"title": "苍龙峡", "address": "安康市宁陕县", "image": "", "rank": 2, "time": 2, "location": {"lat": 33.31655548650337, "lng": 108.32056400011153}, "feature": {"sight_features": "", "sight_content": ""}}, {"title": "天华山国家森林公园", "address": "安康市宁陕县西北部", "image": "", "rank": 3, "time": 3.0, "location": {"lat": 33.31655548650337, "lng": 108.32056400011153}, "feature": {"sight_features": "", "sight_content": ""}}, {"title": "陕西秦岭悠然山高山湿地景区", "address": "安康市宁陕县城关镇八亩村", "image": "", "rank": 4, "time": 2, "location": {"lat": 33.37210890785768, "lng": 108.27006293788374}, "feature": {"sight_features": "特色1 秦岭独特的高山湿地生态旅游观光景区", "sight_content": "中国秦岭悠然山高山湿地景区位于终南山脉南部中段——陕西省安康市宁陕县城关镇八亩村，海拔1200米，景区层林叠嶂，气候宜人。悠然山高山湿地独有的芦苇、红柳及万亩野生海棠等自然、原生态的环境，形成了秦岭山脉独特的高山湿地生态系统。悠然山在极尽返璞归真的同时充分融入了完美的居住理念，以“景观是栖居的家”为设计理念，建筑风格迥异，唯美委婉，最精美的现代居室风格展现简约之美。\n\n一期总建筑面积 2 万平方米。拥有白金五星级酒店、豪华单体式酒店、时尚会所、酒类品尝、中西各色美食 、会议室 、家庭影院、棋牌室等娱乐休闲设施，另有滑雪场、悠然山兰花博物馆、托管式儿童服务中心、1000 余停车位等多元化配套设施，为您呈现新型生态旅游和度假休闲的绝美新坐标。悠然山，把自然还给你。忙碌浮躁的都市生活之外，悠然自在的秦岭秘境之内，距离西安仅 2 小时车程，国际化度假理念及卓越服务，带您体验知停而行，过悠然生活。"}}, {"title": "筒车湾欢乐水世界", "address": "安康市宁陕县筒车湾景区内", "image": "", "rank": 5, "time": 2, "location": {"lat": 33.31655548650337, "lng": 108.32056400011153}, "feature": {"sight_features": "", "sight_content": ""}}, {"title": "筒车湾漂流", "address": "安康市宁陕县筒车湾镇", "image": "", "rank": 6, "time": 2, "location": {"lat": 33.43341027864903, "lng": 108.21912030909098}, "feature": {"sight_features": "", "sight_content": ""}}, {"title": "上坝河国家森林公园", "address": "安康市宁陕县上坝河", "image": "", "rank": 7, "time": 2, "location": {"lat": 33.365520588171144, "lng": 108.45696513417145}, "feature": {"sight_features": "", "sight_content": ""}}, {"title": "皇冠朝阳沟金丝猴科普基地", "address": "安康市宁陕县皇冠镇", "image": "", "rank": 8, "time": 1.0, "location": {"lat": 33.60474462749658, "lng": 108.434435304998}, "feature": {"sight_features": "", "sight_content": ""}}, {"title": "秦岭四季滑雪场", "address": "安康市宁陕县广货街镇", "image": "", "rank": 9, "time": 2, "location": {"lat": 33.76789083286975, "lng": 108.78433589395298}, "feature": {"sight_features": "特色1 炎炎夏日，带来清凉", "sight_content": "秦岭四季室内滑雪馆位于安康市宁陕县广货街镇，室内滑雪道8000平米（长200米，宽40米），通过国际先进制冷技术，常年保持室内恒温-3到-5度，保证一年四季冰雪不消融，真正达到全年无休滑雪。\n景区的儿童嬉雪、嬉冰游乐区、雪圈滑道、冰雕展示参观区近3000平米，魅力独特的冰雕艺术，刺激有趣的嬉冰游乐。"}}, {"title": "西北农林科技大学教学试验林场", "address": "210国道附近", "image": "", "rank": 10, "time": 2, "location": {"lat": 30.75468488618663, "lng": 107.2576735785458}, "feature": {"sight_features": "", "sight_content": ""}}, {"title": "城隍庙+十八丈瀑布", "address": "陕西省安康市宁陕县县城以北", "image": "", "rank": 11, "time": 2, "location": {"lat": 33.31655548650337, "lng": 108.32056400011153}, "feature": {"sight_features": "", "sight_content": ""}}, {"title": "农家乐", "address": "子午路", "image": "", "rank": 12, "time": 2, "location": {"lat": 44.3141235244596, "lng": 86.04697171236083}, "feature": {"sight_features": "", "sight_content": ""}}, {"title": "喜迎客农家乐", "address": "皇冠镇朝阳沟", "image": "", "rank": 13, "time": 2, "location": {"lat": 33.60400736244008, "lng": 108.39484933832694}, "feature": {"sight_features": "", "sight_content": ""}}, {"title": "小向坪农家乐", "address": "东江大道35号", "image": "", "rank": 14, "time": 2, "location": {"lat": 30.656466067572637, "lng": 113.18625669175452}, "feature": {"sight_features": "", "sight_content": ""}}, {"title": "平河梁森林公园", "address": "210国道附近", "image": "", "rank": 15, "time": 2, "location": {"lat": 30.75468488618663, "lng": 107.2576735785458}, "feature": {"sight_features": "", "sight_content": ""}}, {"title": "清家山庄富硒农家乐", "address": "城关镇", "image": "", "rank": 16, "time": 2, "location": {"lat": 33.8523792245012, "lng": 113.47977737169182}, "feature": {"sight_features": "", "sight_content": ""}}, {"title": "天花山龙潭瀑布", "address": "陕西省宁陕县柴家关村萝卜峪组境内 711607", "image": "", "rank": 17, "time": 2, "location": {"lat": 33.56241301778161, "lng": 108.15367085388874}, "feature": {"sight_features": "", "sight_content": ""}}, {"title": "陕西墁沟", "address": "陕西省宁陕县铁桥村 711600", "image": "", "rank": 18, "time": 2, "location": {"lat": 33.76577207824808, "lng": 108.72182844139765}, "feature": {"sight_features": "", "sight_content": ""}}, {"title": "环山公园", "address": "陕西省安康市宁陕县三星路1", "image": "", "rank": 19, "time": 2, "location": {"lat": 33.31541239870051, "lng": 108.31837217509093}, "feature": {"sight_features": "", "sight_content": ""}}, {"title": "仙居缘小镇", "address": "陕西省安康市宁陕县秦岭峡谷漂流向西户菜路北", "image": "", "rank": 20, "time": 3.5, "location": {"lat": 33.76346938129414, "lng": 108.71299239668949}, "feature": {"sight_features": "", "sight_content": ""}}, {"title": "正旺岭南度假山庄", "address": "210国道附近", "image": "", "rank": 21, "time": 2, "location": {"lat": 30.75468488618663, "lng": 107.2576735785458}, "feature": {"sight_features": "", "sight_content": ""}}, {"title": "宁陕县图书馆", "address": "关口街209号", "image": "", "rank": 22, "time": 2, "location": {"lat": 22.54171964618236, "lng": 113.92514479267615}, "feature": {"sight_features": "", "sight_content": ""}}, {"title": "神龙十八潭", "address": "陕西省宁陕县广货街", "image": "", "rank": 23, "time": 2, "location": {"lat": 33.769777347503386, "lng": 108.7875432686238}, "feature": {"sight_features": "", "sight_content": ""}}, {"title": "安康九连洞", "address": "陕西省宁陕县旬阳坝镇", "image": "", "rank": 24, "time": 3.5, "location": {"lat": 33.55403888047818, "lng": 108.55440424390652}, "feature": {"sight_features": "", "sight_content": ""}}, {"title": "宁陕县商贸步行街", "address": "陕西省宁陕县商贸步行街", "image": "", "rank": 25, "time": 2, "location": {"lat": 33.318009045822464, "lng": 108.32246723999552}, "feature": {"sight_features": "", "sight_content": ""}}]}