{"cityName": "宁津", "days": 2, "cityImage": "", "spots": [{"title": "李满碧霞祠", "address": "德州市宁津县", "image": "", "rank": 1, "time": 2.5, "location": {"lat": 37.658018745854946, "lng": 116.80653761373941}, "feature": {"sight_features": "", "sight_content": ""}}, {"title": "福瑞汇福宾馆足道", "address": "阳光大街187附近", "image": "", "rank": 2, "time": 2, "location": {"lat": 37.64949698670727, "lng": 116.7934889626473}, "feature": {"sight_features": "", "sight_content": ""}}, {"title": "康宁湖垂钓园", "address": "宁城街道正阳路宁津公园附近", "image": "", "rank": 3, "time": 2, "location": {"lat": 37.6438362357158, "lng": 116.79887749496079}, "feature": {"sight_features": "", "sight_content": ""}}, {"title": "妇女儿童乐园", "address": "山东省德州市宁津县新艺家灯饰厨卫城", "image": "", "rank": 4, "time": null, "location": {"lat": 37.65667456793684, "lng": 116.91369464817635}, "feature": {"sight_features": "", "sight_content": ""}}, {"title": "基督教会", "address": "山东省德州市宁津县宁城街道中心大街宁津镇政府西南50米", "image": "", "rank": 5, "time": 2, "location": {"lat": 37.65550723277216, "lng": 116.8218103965115}, "feature": {"sight_features": "", "sight_content": ""}}, {"title": "龙槐民俗文化博物馆", "address": "山东省德州市宁津县柴胡店镇文化站", "image": "", "rank": 6, "time": 2, "location": {"lat": 37.65789768881343, "lng": 116.90068928373186}, "feature": {"sight_features": "", "sight_content": ""}}, {"title": "游乐设施", "address": "德州市宁津县正阳路与黄河大街交叉口西南角德百广场F4", "image": "", "rank": 7, "time": 2, "location": {"lat": 37.63640475585898, "lng": 116.79825043459617}, "feature": {"sight_features": "", "sight_content": ""}}, {"title": "宁津县基督教会", "address": "津泉路与福宁大街交叉口西150米", "image": "", "rank": 8, "time": 2, "location": {"lat": 37.65324797774388, "lng": 116.81085616088538}, "feature": {"sight_features": "", "sight_content": ""}}, {"title": "宁津普渡寺", "address": "山东省德州市宁津县", "image": "", "rank": 9, "time": 0.6, "location": {"lat": 37.658018745854946, "lng": 116.80653761373941}, "feature": {"sight_features": "", "sight_content": ""}}, {"title": "中心大街广场", "address": "中心大街中段", "image": "", "rank": 10, "time": 2, "location": {"lat": 34.55011876327918, "lng": 110.2526269533221}, "feature": {"sight_features": "", "sight_content": ""}}, {"title": "文化艺术中心水上乐园", "address": "阳光大街492号", "image": "", "rank": 11, "time": 2, "location": {"lat": 37.649557486445126, "lng": 116.8095472066895}, "feature": {"sight_features": "", "sight_content": ""}}, {"title": "果味多", "address": "开放市场街与津泉路交叉口南100米", "image": "", "rank": 12, "time": 2, "location": {"lat": 37.6542497223985, "lng": 116.81252475798034}, "feature": {"sight_features": "", "sight_content": ""}}, {"title": "墨香缘画廊", "address": "中心大街与安业路交叉口南150米", "image": "", "rank": 13, "time": 2, "location": {"lat": 37.65702551386896, "lng": 116.79522369029898}, "feature": {"sight_features": "", "sight_content": ""}}]}