{"cityName": "宁都", "days": 2, "cityImage": "", "spots": [{"title": "翠微峰国家森林公园", "address": "赣州市宁都县", "image": "", "rank": 1, "time": 3.0, "location": {"lat": 26.475979503340323, "lng": 116.0154944374297}, "feature": {"sight_features": "", "sight_content": ""}}, {"title": "宁都起义指挥部旧址", "address": "赣州市宁都县县城梅江镇梅江路", "image": "", "rank": 2, "time": 1.5, "location": {"lat": 26.480141416938533, "lng": 116.03045221230197}, "feature": {"sight_features": "", "sight_content": ""}}, {"title": "蘇區紅軍反圍剿紀念館", "address": "中国江西省赣州市宁都县梅江镇", "image": "", "rank": 3, "time": 2, "location": {"lat": 26.493512104130414, "lng": 115.97262533571018}, "feature": {"sight_features": "", "sight_content": ""}}, {"title": "森林人农业(宁都店)", "address": "麻里排131号", "image": "", "rank": 4, "time": 2, "location": {"lat": 26.499375636019085, "lng": 116.030218236954}, "feature": {"sight_features": "", "sight_content": ""}}, {"title": "田葡萄", "address": "梅江镇王泥排", "image": "", "rank": 5, "time": 2, "location": {"lat": 26.47552673392268, "lng": 115.93426816295549}, "feature": {"sight_features": "", "sight_content": ""}}, {"title": "水口塔", "address": "江西省宁都县梅江之滨 342800", "image": "", "rank": 6, "time": 7.5, "location": {"lat": 26.475979503340323, "lng": 116.0154944374297}, "feature": {"sight_features": "", "sight_content": ""}}, {"title": "翠微剧院", "address": "广场南路登峰大道", "image": "", "rank": 7, "time": 2, "location": {"lat": 26.478433950452814, "lng": 116.01536157804482}, "feature": {"sight_features": "", "sight_content": ""}}, {"title": "同威水上乐园", "address": "赣州市宁都县永宁路", "image": "", "rank": 8, "time": 2, "location": {"lat": 26.475979503340323, "lng": 116.0154944374297}, "feature": {"sight_features": "特色1 海浪池、海啸池、大型水寨、大喇叭、高速滑梯、漂流河、竞赛滑梯、儿童戏水池、螺旋滑梯等十多种时尚动感、新颖好玩的水上游乐设施。", "sight_content": "同威水上乐园位于江西省赣州市宁都县，由江西同威实业有限公司投资3亿建设，园区占地面积约5万平方米，是刺激好玩的大型主题水上乐园。\n同威水上乐园游客服务系统全部采用先进的智能化系统。园区内充值、储物柜、租赁、消费结算等全部使用一卡通进行结算。储物柜、更衣室、停车场均按规范设计，可同时接待近万名游客同时参与游玩。先进的理念、优质的服务、专业的操作、好玩的项目、丰富的活动等服务于每一位游客，必将给大家带来极佳的游玩体验。\n乐园内有海浪池、海啸池、大型水寨、大喇叭、高速滑梯、漂流河、竞赛滑梯、儿童戏水池、螺旋滑梯等十多种时尚动感、惊险刺激、新颖好玩的水上游乐设施，二期还将安装眼镜蛇、游蛇、流星球、双飞龙等国内最新、最刺激、最好玩的滑梯。这里能满足不同人们的需求，特别适合朋友闺蜜以及一家人一起参与体验。园区内还有中餐、各式风味小吃、各种消暑饮料以及各种精致的纪念品供游客在游玩过程中用餐和购买。通过景观、水上娱乐等方面的体验，精彩纷呈的演艺、各具特色的主题文化活动让景区内容更加丰富；完善的配套设施，优质贴心的服务为前来体验的游客提供最为健康、舒适、卫生、安全的休闲之旅。"}}, {"title": "温泉度假村", "address": "425县道附近", "image": "", "rank": 9, "time": 2, "location": {"lat": 45.659499022846795, "lng": 121.40949932359922}, "feature": {"sight_features": "", "sight_content": ""}}, {"title": "金牛禅寺", "address": "田头镇璜山村", "image": "", "rank": 10, "time": 2, "location": {"lat": 26.304979750560758, "lng": 115.98371453544735}, "feature": {"sight_features": "", "sight_content": ""}}, {"title": "显华寺", "address": "江西省赣州市宁都县G35(济广高速公路)", "image": "", "rank": 11, "time": 2.0, "location": {"lat": 25.7248565063071, "lng": 115.91117385118348}, "feature": {"sight_features": "", "sight_content": ""}}, {"title": "普照禅寺", "address": "赣州市宁都县", "image": "", "rank": 12, "time": 1.0, "location": {"lat": 26.475979503340323, "lng": 116.0154944374297}, "feature": {"sight_features": "", "sight_content": ""}}, {"title": "中央苏区反围剿战争纪念馆", "address": "江西省赣州市宁都县凌云大道", "image": "", "rank": 13, "time": 2, "location": {"lat": 26.475979503340323, "lng": 116.0154944374297}, "feature": {"sight_features": "", "sight_content": ""}}, {"title": "哈哈堡儿童乐园", "address": "江西省赣州市宁都县解放西路62", "image": "", "rank": 14, "time": 2, "location": {"lat": 26.47876725687618, "lng": 116.02496380458707}, "feature": {"sight_features": "", "sight_content": ""}}, {"title": "大乘寺", "address": "江西省赣州市宁都县", "image": "", "rank": 15, "time": 1.5, "location": {"lat": 26.475979503340323, "lng": 116.0154944374297}, "feature": {"sight_features": "", "sight_content": ""}}, {"title": "毛泽东旧居", "address": "江西省赣州市宁都县中王陂", "image": "", "rank": 16, "time": 1.5, "location": {"lat": 26.475979503340323, "lng": 116.0154944374297}, "feature": {"sight_features": "", "sight_content": ""}}, {"title": "儿童乐园", "address": "北门心连心超市内", "image": "", "rank": 17, "time": 2, "location": {"lat": 32.42508072122567, "lng": 119.44878437341887}, "feature": {"sight_features": "", "sight_content": ""}}, {"title": "莲花山青莲古寺", "address": "莲花山景区附近", "image": "", "rank": 18, "time": 2, "location": {"lat": 36.501810590986544, "lng": 101.56528221830308}, "feature": {"sight_features": "", "sight_content": ""}}, {"title": "八峰台旅游度假村", "address": "江西省赣州市宁都县梅江镇翠微峰国家森林公园", "image": "", "rank": 19, "time": 2, "location": {"lat": 26.51261038271122, "lng": 115.99185602829861}, "feature": {"sight_features": "", "sight_content": ""}}, {"title": "宁都县博物馆", "address": "梅江镇梅江北路4号", "image": "", "rank": 20, "time": 2, "location": {"lat": 26.479678376145525, "lng": 116.03031460447414}, "feature": {"sight_features": "", "sight_content": ""}}, {"title": "冰淇淋批发", "address": "城南一路29号", "image": "", "rank": 21, "time": 2, "location": {"lat": 26.47357860564456, "lng": 116.02685150019188}, "feature": {"sight_features": "", "sight_content": ""}}, {"title": "石上温泉", "address": "樟莲湖村(昌厦公路上)", "image": "", "rank": 22, "time": 2, "location": {"lat": 26.59318207091496, "lng": 116.06382409041026}, "feature": {"sight_features": "", "sight_content": ""}}, {"title": "乐专画廊", "address": "三环路与领秀新都步行街交叉口西北100米", "image": "", "rank": 23, "time": 2, "location": {"lat": 26.478600831935186, "lng": 116.01608959806718}, "feature": {"sight_features": "", "sight_content": ""}}, {"title": "烘焙剧场", "address": "中山中路32号附近", "image": "", "rank": 24, "time": 2, "location": {"lat": 29.303413139439442, "lng": 121.43619906690019}, "feature": {"sight_features": "", "sight_content": ""}}, {"title": "博鑫花苑商业步行街", "address": "江西省宁都县博鑫花苑商业步行街", "image": "", "rank": 25, "time": 2, "location": {"lat": 26.47108896099746, "lng": 116.02319758054819}, "feature": {"sight_features": "", "sight_content": ""}}, {"title": "宁都美食街", "address": "江西省宁都县环西南路", "image": "", "rank": 26, "time": 2, "location": {"lat": 26.47544841446016, "lng": 116.02376123850973}, "feature": {"sight_features": "", "sight_content": ""}}]}