{"cityName": "宁安", "days": 2, "cityImage": "", "spots": [{"title": "镜泊湖风景区", "address": "牡丹江市宁安市", "image": "", "rank": 1, "time": 4.5, "location": {"lat": 44.34698357750037, "lng": 129.4893679801412}, "feature": {"sight_features": "特色1 观瀑布水流澎湃，看惊险的悬崖跳水表演，感受原始林海中的清凉。 特色2 著名旅游、避暑和疗养胜地，国家级重点风景名胜区。 特色3 邓小平有“镜泊胜景”，叶剑英有“高山平湖，风光胜江南”的赞誉。", "sight_content": "镜泊湖是中国最大、世界第二大高山堰塞湖，著名旅游、避暑和疗养胜地，国家级重点风景名胜区，国际生态旅游度假避暑胜地，世界地质公园，2011年被评为5a级旅游景区。镜泊湖是5000年前经多次火山喷发，熔岩阻塞牡丹江古河床而成的火山熔岩堰塞湖。镜泊湖是中国最大、世界第二大高山堰塞湖，著名旅游、避暑和疗养胜地，国家级重点风景名胜区，国际生态旅游度假避暑胜地，世界地质公园，2011年被评为5a级旅游景区。镜泊湖是5000年前经多次火山喷发，熔岩阻塞牡丹江古河床而成的火山熔岩堰塞湖。\n小平有“镜泊胜景”，叶剑英有“高山平湖，风光胜江南”的赞誉。镜泊湖蜿蜒曲折，湖中大小岛屿星罗棋布，而最著名的湖中八大景，犹如八颗光彩照人的明珠镶嵌在这条在万绿丛中的缎带\n上。在熔岩床上，游人可发现许多被常年流水冲击的熔岩块因磨蚀而形成的大小深浅不等的熔洞，这些熔洞，犹如人工凿琢般光滑圆润十分别致。环潭的黑古壁，是一个天然的回音壁，可与北京天坛公园的“回音壁”相媲美，游人的轻歌笑语经圆形石壁折射，清晰地传到自己的耳边。\n湖水在熔岩床面翻滚、泡哮，如千军万马之势向深潭冲来，然后从断岩峭壁之上飞泻直下，扑进圆型瓯穴之中。潭水浪花四溅，如浮云堆雪，白雾弥漫；又似银河倒泻，白练悬空。水声震耳如有雷鸣。瀑布一般幅宽四十余米落差为十二米。雨季或汛期，瀑布呈现两股或数股迭落，总幅宽达二百余米。\n\n镜泊湖原始天然，风韵奇秀，山重水复，曲径通幽，可谓春华含笑，夏水有情，秋叶似火，冬雪恬静，万种风情四季分明让人久久难忘，无限眷恋。吊水楼瀑布酷似闻名世界的“尼亚加拉大瀑布”。"}}, {"title": "吊水楼瀑布", "address": "牡丹江市宁安市镜泊湖景区内，镜泊湖最北端", "image": "", "rank": 2, "time": 2.0, "location": {"lat": 44.04989057192912, "lng": 128.97300811125353}, "feature": {"sight_features": "", "sight_content": ""}}, {"title": "火山口地下森林", "address": "牡丹江市宁安市火山口旅游公路", "image": "", "rank": 3, "time": 12.0, "location": {"lat": 44.08565417378218, "lng": 128.8214934370393}, "feature": {"sight_features": "", "sight_content": "火山口地下森林位于镜泊湖风景区内，有着一万多年的历史。地下森林源于火山喷发而成，原本的火山口如今被郁郁葱葱的树林所覆盖，游人若是站在火山顶，往下望去，都是绿色的树木植被，让人心旷神怡。景区底部周围是各色松林，有千年的落叶松，有百年的云杉树，抬头看天，却被阔叶大树照映的尽是婆娑光阴，趣味横生。"}}, {"title": "大孤山", "address": "牡丹江市宁安市镜泊湖景区内", "image": "", "rank": 4, "time": 3.5, "location": {"lat": 44.04989057192912, "lng": 128.97300811125353}, "feature": {"sight_features": "", "sight_content": ""}}, {"title": "小孤山", "address": "牡丹江宁安市镜泊湖景区镜泊湖中部，距北湖头六十余华里", "image": "", "rank": 5, "time": 1.0, "location": {"lat": 43.88529104397474, "lng": 128.92169917593145}, "feature": {"sight_features": "", "sight_content": ""}}, {"title": "城墙砬子", "address": "牡丹江市宁安市镜泊湖中部西岸山顶", "image": "", "rank": 6, "time": 1.0, "location": {"lat": 43.88529104397474, "lng": 128.92169917593145}, "feature": {"sight_features": "", "sight_content": ""}}, {"title": "熔岩隧道", "address": "牡丹江市宁安市西、镜泊湖西北约30公里处", "image": "", "rank": 7, "time": 1.0, "location": {"lat": 43.88529104397474, "lng": 128.92169917593145}, "feature": {"sight_features": "", "sight_content": ""}}, {"title": "珍珠门", "address": "牡丹江市宁安市镜泊湖风景区内", "image": "", "rank": 8, "time": 1.0, "location": {"lat": 44.0467337551112, "lng": 128.94694321454227}, "feature": {"sight_features": "", "sight_content": ""}}, {"title": "道士山", "address": "牡丹江市宁安市镜泊湖的南部", "image": "", "rank": 9, "time": 2.5, "location": {"lat": 43.88529104397474, "lng": 128.92169917593145}, "feature": {"sight_features": "", "sight_content": ""}}, {"title": "老鸹砬子", "address": "牡丹江市宁安市镜泊湖景区内", "image": "", "rank": 10, "time": 0.5, "location": {"lat": 44.04989057192912, "lng": 128.97300811125353}, "feature": {"sight_features": "", "sight_content": ""}}, {"title": "兴隆寺", "address": "牡丹江宁安市渤海镇", "image": "", "rank": 11, "time": 1.0, "location": {"lat": 44.126875228806895, "lng": 129.17597546404437}, "feature": {"sight_features": "", "sight_content": ""}}, {"title": "白石砬子", "address": "牡丹江市宁安县镜泊湖边，孤山前湖之左岸", "image": "", "rank": 12, "time": 1.0, "location": {"lat": 43.88529104397474, "lng": 128.92169917593145}, "feature": {"sight_features": "", "sight_content": ""}}, {"title": "渤海国上京龙泉府宫城遗址", "address": "牡丹江市宁安市渤海镇境内", "image": "", "rank": 13, "time": null, "location": {"lat": 44.126875228806895, "lng": 129.17597546404437}, "feature": {"sight_features": "", "sight_content": ""}}, {"title": "城子后山城遗址", "address": "牡丹江宁安市镜泊湖瀑布东北约3公里处", "image": "", "rank": 14, "time": 1.0, "location": {"lat": 44.06100004338449, "lng": 128.95847112872806}, "feature": {"sight_features": "", "sight_content": ""}}, {"title": "马骏纪念馆", "address": "江牡丹江市宁安市马骏街（带状公园之中）", "image": "", "rank": 15, "time": 1.0, "location": {"lat": 44.344788167764065, "lng": 129.47284158418248}, "feature": {"sight_features": "", "sight_content": ""}}, {"title": "紫菱湖旅游区", "address": "牡丹江宁安市镜泊湖风景区内", "image": "", "rank": 16, "time": 2.5, "location": {"lat": 44.0467337551112, "lng": 128.94694321454227}, "feature": {"sight_features": "", "sight_content": ""}}, {"title": "宁安大石桥", "address": "牡丹江宁安市区西鸡陵山下", "image": "", "rank": 17, "time": 1.0, "location": {"lat": 44.34698357750037, "lng": 129.4893679801412}, "feature": {"sight_features": "", "sight_content": ""}}, {"title": "嘉禾水立方", "address": "黑龙江省牡丹江市宁安市宁安农场现代农业示范园嘉禾生态园", "image": "", "rank": 18, "time": 2.0, "location": {"lat": 44.175665708362125, "lng": 129.36892575550016}, "feature": {"sight_features": "特色1 冬季也可以在温暖的室内游水", "sight_content": ""}}, {"title": "牡丹江镜泊湖大峡谷民俗度假村", "address": "宁安牡丹江市镜泊湖峡谷风景区内", "image": "", "rank": 19, "time": 2.5, "location": {"lat": 43.88529104397474, "lng": 128.92169917593145}, "feature": {"sight_features": "", "sight_content": ""}}, {"title": "渤海风情园", "address": "牡丹江市宁安市渤海镇境内", "image": "", "rank": 20, "time": 1.5, "location": {"lat": 44.126875228806895, "lng": 129.17597546404437}, "feature": {"sight_features": "", "sight_content": ""}}, {"title": "镜泊峡谷", "address": "牡丹江市宁安市火山口旅游公路", "image": "", "rank": 21, "time": 2, "location": {"lat": 44.08565417378218, "lng": 128.8214934370393}, "feature": {"sight_features": "", "sight_content": ""}}, {"title": "毛公山", "address": "牡丹江宁安市火山口旅游公路西段镜泊湖景区内", "image": "", "rank": 22, "time": 3.5, "location": {"lat": 44.04989057192912, "lng": 128.97300811125353}, "feature": {"sight_features": "", "sight_content": ""}}, {"title": "映月潭火山岩温泉", "address": "牡丹江市宁安市渤海镇小朱家村", "image": "", "rank": 23, "time": 2, "location": {"lat": 44.07859979285346, "lng": 129.10349590764986}, "feature": {"sight_features": "", "sight_content": ""}}, {"title": "渤海农业旅游示范园", "address": "牡丹江市宁安市宁安农场", "image": "", "rank": 24, "time": 1.5, "location": {"lat": 44.180058409906415, "lng": 129.35619838966184}, "feature": {"sight_features": "", "sight_content": ""}}, {"title": "黑龙江省总工会镜泊湖职工休养院", "address": "镜泊湖杏花村", "image": "", "rank": 25, "time": 2, "location": {"lat": 38.050042363345355, "lng": 114.51538632408904}, "feature": {"sight_features": "", "sight_content": ""}}, {"title": "镜泊湖源头漂流", "address": "尔站路", "image": "", "rank": 26, "time": 2, "location": {"lat": 43.98283705965908, "lng": 128.57850011675896}, "feature": {"sight_features": "", "sight_content": ""}}, {"title": "牡丹江镜泊湖华侨度假村住宿", "address": "牡丹江牡丹江镜泊湖景区北门口150米", "image": "", "rank": 27, "time": 2.5, "location": {"lat": 43.88529104397474, "lng": 128.92169917593145}, "feature": {"sight_features": "", "sight_content": ""}}, {"title": "镜泊湖瀑布度假村", "address": "瀑布村附近", "image": "", "rank": 28, "time": 2, "location": {"lat": 44.06612449914908, "lng": 128.96781505650716}, "feature": {"sight_features": "", "sight_content": ""}}, {"title": "镜泊湖休闲度假村", "address": "杏镜公路附近", "image": "", "rank": 29, "time": 2, "location": {"lat": 44.04849749532902, "lng": 129.02386147183455}, "feature": {"sight_features": "", "sight_content": ""}}, {"title": "黑龙江省渤海上京遗址博物馆", "address": "黑龙江省牡丹江宁安市渤海上京遗址博物馆", "image": "", "rank": 30, "time": 2, "location": {"lat": 44.111381858671905, "lng": 129.15994665927033}, "feature": {"sight_features": "", "sight_content": ""}}, {"title": "镜泊湖日月潭生态庄园", "address": "莫延公路与镜泊小镇环路交口西北150米", "image": "", "rank": 31, "time": 2, "location": {"lat": 44.076645415321565, "lng": 128.99326683186038}, "feature": {"sight_features": "", "sight_content": ""}}, {"title": "蘑菇石", "address": "牡丹江宁安市火山口旅游公路西段镜泊湖景区内", "image": "", "rank": 32, "time": 0.25, "location": {"lat": 44.04989057192912, "lng": 128.97300811125353}, "feature": {"sight_features": "", "sight_content": ""}}, {"title": "垂钓城", "address": "渤沙线", "image": "", "rank": 33, "time": 2, "location": {"lat": 44.184201325877915, "lng": 129.02447781361784}, "feature": {"sight_features": "", "sight_content": ""}}, {"title": "福尔阳光温泉会馆", "address": "东大街金太阳歌厅斜对面", "image": "", "rank": 34, "time": 2, "location": {"lat": 40.7285309099862, "lng": 120.93604112615564}, "feature": {"sight_features": "", "sight_content": ""}}, {"title": "佛手山", "address": "横道河子", "image": "", "rank": 35, "time": 1.5, "location": {"lat": 40.62400904916658, "lng": 123.68435451392537}, "feature": {"sight_features": "", "sight_content": ""}}, {"title": "罗勒密山峡谷漂流(响水河漂流)", "address": "方正国有重点林区后河林场", "image": "", "rank": 36, "time": 2, "location": {"lat": 45.857758440062085, "lng": 128.83563368133866}, "feature": {"sight_features": "", "sight_content": ""}}, {"title": "牡丹江边墙", "address": "黑龙江省宁安市渤海镇 157431", "image": "", "rank": 37, "time": 2.5, "location": {"lat": 44.126875228806895, "lng": 129.17597546404437}, "feature": {"sight_features": "", "sight_content": ""}}, {"title": "药师古刹", "address": "黑龙江省宁安市龙泉山南麓 157400", "image": "", "rank": 38, "time": 2, "location": {"lat": 44.34698357750037, "lng": 129.4893679801412}, "feature": {"sight_features": "", "sight_content": ""}}, {"title": "柳州蟠龙山", "address": "广西壮族自治区柳江县柳江东岸 545100", "image": "", "rank": 39, "time": 3.5, "location": {"lat": 24.20953852534694, "lng": 109.27422094664966}, "feature": {"sight_features": "", "sight_content": ""}}, {"title": "地藏殿", "address": "牡丹江市宁安市火山口旅游公路附近中国镜泊湖世界地质公园镜泊湖北湖药师古刹内", "image": "", "rank": 40, "time": 2.5, "location": {"lat": 44.0703688696362, "lng": 128.96131480644706}, "feature": {"sight_features": "", "sight_content": ""}}, {"title": "三陵坟", "address": "宁安市其他三灵乡三星村", "image": "", "rank": 41, "time": 2, "location": {"lat": 44.17451558944847, "lng": 129.12343687603848}, "feature": {"sight_features": "", "sight_content": ""}}, {"title": "圣爱基督教堂", "address": "北仓东街与环卫路交叉口西150米", "image": "", "rank": 42, "time": 2, "location": {"lat": 44.36183440430564, "lng": 129.47648045451518}, "feature": {"sight_features": "", "sight_content": ""}}, {"title": "小朱家龙泉岛度假村", "address": "朱家村附近", "image": "", "rank": 43, "time": 2, "location": {"lat": 21.889866478825223, "lng": 101.3622890951321}, "feature": {"sight_features": "", "sight_content": ""}}, {"title": "上京龙泉府遗址", "address": "黑龙江省宁安市镜泊湖东北 157400", "image": "", "rank": 44, "time": 2, "location": {"lat": 43.88529104397474, "lng": 130.33563204863677}, "feature": {"sight_features": "", "sight_content": ""}}, {"title": "三道关", "address": "黑龙江省宁安市牡丹江市的西北部 157400", "image": "", "rank": 45, "time": 2.5, "location": {"lat": 44.34698357750037, "lng": 129.4893679801412}, "feature": {"sight_features": "", "sight_content": ""}}, {"title": "三陵坟", "address": "黑龙江省宁安市三灵乡三星村 157400", "image": "", "rank": 46, "time": 2, "location": {"lat": 44.17451558944847, "lng": 129.12343687603848}, "feature": {"sight_features": "", "sight_content": ""}}, {"title": "古冰洞观光亭候车亭", "address": "牡丹江市宁安市火山口旅游公路附近中国镜泊湖世界地质公园火山口国家森林公园内", "image": "", "rank": 47, "time": 2, "location": {"lat": 44.0703688696362, "lng": 128.96131480644706}, "feature": {"sight_features": "", "sight_content": ""}}, {"title": "宫城一殿东廊庑址", "address": "牡丹江市宁安市镜泊湖国家级风景名胜区渤海上京龙泉府遗址景区内", "image": "", "rank": 48, "time": 2, "location": {"lat": 44.133713872831265, "lng": 128.63212528882156}, "feature": {"sight_features": "", "sight_content": ""}}, {"title": "东夏国城子后山城遗址", "address": "牡丹江市宁安市火山口旅游公路附近镜泊峡谷内", "image": "", "rank": 49, "time": 2, "location": {"lat": 44.073517068636235, "lng": 128.97107619386446}, "feature": {"sight_features": "", "sight_content": ""}}, {"title": "东京城林业局-休闲广场", "address": "黑龙江省牡丹江市宁安市振兴大街附近", "image": "", "rank": 50, "time": 2, "location": {"lat": 44.12106616192504, "lng": 129.2164963987682}, "feature": {"sight_features": "", "sight_content": ""}}, {"title": "水上乐园", "address": "渤海稻作文化园附近", "image": "", "rank": 51, "time": 2, "location": {"lat": 44.15475992191571, "lng": 129.15722176359063}, "feature": {"sight_features": "", "sight_content": ""}}, {"title": "北湖度假村", "address": "火山口旅游公路西50米", "image": "", "rank": 52, "time": 2, "location": {"lat": 44.08565417378218, "lng": 128.82104428428428}, "feature": {"sight_features": "", "sight_content": ""}}, {"title": "牡丹江志富渡假村", "address": "牡丹江宁安市镜泊湖水产养殖场内", "image": "", "rank": 53, "time": 2.5, "location": {"lat": 43.844311294541505, "lng": 128.93169044062714}, "feature": {"sight_features": "", "sight_content": ""}}, {"title": "唐·渤海国佛教文化博物馆", "address": "牡丹江市宁安市", "image": "", "rank": 54, "time": 2, "location": {"lat": 44.34698357750037, "lng": 129.4893679801412}, "feature": {"sight_features": "", "sight_content": ""}}, {"title": "普利斯度假村", "address": "火山口旅游公路附近", "image": "", "rank": 55, "time": 2, "location": {"lat": 44.08565417378218, "lng": 128.8214934370393}, "feature": {"sight_features": "", "sight_content": ""}}, {"title": "宁安市城市建设档案馆", "address": "古塔西街", "image": "", "rank": 56, "time": 4.5, "location": {"lat": 30.077652646485923, "lng": 115.95269723836931}, "feature": {"sight_features": "", "sight_content": ""}}, {"title": "火山口野生动物园", "address": "火山口旅游公路", "image": "", "rank": 57, "time": 2, "location": {"lat": 44.08565417378218, "lng": 128.8214934370393}, "feature": {"sight_features": "", "sight_content": ""}}, {"title": "宏光爱宝乐园", "address": "宏光秀丽城二期北门市", "image": "", "rank": 58, "time": 2, "location": {"lat": 44.353154143122175, "lng": 129.46952892900418}, "feature": {"sight_features": "", "sight_content": ""}}, {"title": "镜泊小镇温泉", "address": "镜泊湖景区北门外镜泊小镇", "image": "", "rank": 59, "time": 2, "location": {"lat": 44.076645415321565, "lng": 128.99326683186038}, "feature": {"sight_features": "", "sight_content": ""}}, {"title": "顺峰镜泊湖园林宾馆水上乐园(九...", "address": "光华街126号禧禄达国际酒店镜泊湖园林宾馆院内", "image": "", "rank": 60, "time": 2, "location": {"lat": 44.59579615068981, "lng": 129.62233571418602}, "feature": {"sight_features": "", "sight_content": ""}}]}