{"cityName": "宁晋", "days": 2, "cityImage": "", "spots": [{"title": "四季公园", "address": "邢台市宁晋县凤凰路与宁高路交叉口西100米", "image": "", "rank": 1, "time": 2.0, "location": {"lat": 37.62926615124457, "lng": 114.92296789495873}, "feature": {"sight_features": "", "sight_content": ""}}, {"title": "海星水上乐园", "address": "邢台市宁晋县九河大街100号（新汽车站西行400米路北）", "image": "", "rank": 2, "time": 2, "location": {"lat": 37.60906012194901, "lng": 114.92611406088871}, "feature": {"sight_features": "", "sight_content": ""}}, {"title": "凤凰之都假日会馆", "address": "邢台市宁晋县友谊大街孙家庄村南", "image": "", "rank": 3, "time": 6.0, "location": {"lat": 37.64175925344578, "lng": 114.92067032949824}, "feature": {"sight_features": "", "sight_content": ""}}, {"title": "绿色植物园", "address": "鼓楼西街传奇女人的小衣橱旁", "image": "", "rank": 4, "time": 2, "location": {"lat": 40.229904363754606, "lng": 116.23559614242117}, "feature": {"sight_features": "", "sight_content": ""}}, {"title": "名门婚礼演出", "address": "凤凰路98号", "image": "", "rank": 5, "time": 2, "location": {"lat": 31.39977691255487, "lng": 119.00320761635997}, "feature": {"sight_features": "", "sight_content": ""}}, {"title": "观音禅寺", "address": "邢台市宁晋县西环路东100米", "image": "", "rank": 6, "time": 2, "location": {"lat": 37.68117961698429, "lng": 115.04134891448845}, "feature": {"sight_features": "", "sight_content": ""}}, {"title": "宁晋县弘善寺", "address": "河北省邢台市宁晋县宁纺集团加油站十字路口南行一百米路东", "image": "", "rank": 7, "time": 2, "location": {"lat": 37.61995425098475, "lng": 114.97720994778791}, "feature": {"sight_features": "", "sight_content": ""}}, {"title": "福寿寺", "address": "河北省邢台市宁晋县大陆村镇东魏家庄", "image": "", "rank": 8, "time": 1.5, "location": {"lat": 37.6562396366858, "lng": 115.05826104283315}, "feature": {"sight_features": "", "sight_content": ""}}, {"title": "行愿寺", "address": "工业东路", "image": "", "rank": 9, "time": 2.0, "location": {"lat": 28.84855298012725, "lng": 120.74950465887905}, "feature": {"sight_features": "", "sight_content": ""}}, {"title": "双井天主堂", "address": "河北省邢台市宁晋县S234", "image": "", "rank": 10, "time": 2, "location": {"lat": 37.62561227993201, "lng": 114.92556169283063}, "feature": {"sight_features": "", "sight_content": ""}}, {"title": "星期六儿童乐园", "address": "河北省邢台市宁晋县赵宁线", "image": "", "rank": 11, "time": 2, "location": {"lat": 37.67275572189268, "lng": 115.04031354911697}, "feature": {"sight_features": "", "sight_content": ""}}, {"title": "勇士拓展探险乐园", "address": "凤凰路天一广场d栋西门旁", "image": "", "rank": 12, "time": 2, "location": {"lat": 37.63860650999974, "lng": 114.92337952908578}, "feature": {"sight_features": "", "sight_content": ""}}, {"title": "咖啡休闲DIY体验儿童游乐园", "address": "河北省邢台市宁晋县凤凰路166号", "image": "", "rank": 13, "time": 2, "location": {"lat": 37.62713961034918, "lng": 114.92326301886114}, "feature": {"sight_features": "", "sight_content": ""}}, {"title": "边村天主堂", "address": "邢台市宁晋县边村", "image": "", "rank": 14, "time": 2, "location": {"lat": 37.67337049141653, "lng": 114.8468851022145}, "feature": {"sight_features": "", "sight_content": ""}}, {"title": "合元宫", "address": "河北省邢台市宁晋县S393冯家庄村东", "image": "", "rank": 15, "time": 2, "location": {"lat": 37.608786542510636, "lng": 115.0599247962648}, "feature": {"sight_features": "", "sight_content": ""}}, {"title": "云台寺", "address": "邢台市宁晋县", "image": "", "rank": 16, "time": 2, "location": {"lat": 37.62561227993201, "lng": 114.92556169283063}, "feature": {"sight_features": "", "sight_content": ""}}, {"title": "欣涛水族馆", "address": "河北省邢台市宁晋县西关街60号", "image": "", "rank": 17, "time": 2, "location": {"lat": 37.62567901555818, "lng": 114.92587304552038}, "feature": {"sight_features": "", "sight_content": ""}}, {"title": "邱头民心文体广场", "address": "河北省邢台市宁晋县侯口乡邱头村北环路邱头小区", "image": "", "rank": 18, "time": 2, "location": {"lat": 37.563474511343124, "lng": 115.11747345598127}, "feature": {"sight_features": "", "sight_content": ""}}, {"title": "儿童成长主题乐园", "address": "石坊路与西关街交叉口北50米", "image": "", "rank": 19, "time": 2, "location": {"lat": 37.62566450628074, "lng": 114.92898407333203}, "feature": {"sight_features": "", "sight_content": ""}}, {"title": "燕赵当代艺术馆", "address": "天宝街", "image": "", "rank": 20, "time": 2, "location": {"lat": 38.931818806938274, "lng": 121.56783100102355}, "feature": {"sight_features": "", "sight_content": ""}}, {"title": "宁晋县图书馆", "address": "西关街62号", "image": "", "rank": 21, "time": 2, "location": {"lat": 40.33496718721187, "lng": 120.33849773312616}, "feature": {"sight_features": "", "sight_content": ""}}, {"title": "新宏泰博览中心", "address": "234省道", "image": "", "rank": 22, "time": 2, "location": {"lat": 38.2624574136461, "lng": 114.98072501724845}, "feature": {"sight_features": "", "sight_content": ""}}, {"title": "魔方嬉水游乐城", "address": "凤凰路(西环路)南段网通花苑南行50米", "image": "", "rank": 23, "time": 2, "location": {"lat": 37.614429805601524, "lng": 114.92029837981369}, "feature": {"sight_features": "", "sight_content": ""}}, {"title": "南海画苑", "address": "凤凰路爱唱嘉年华KTV北侧", "image": "", "rank": 24, "time": 2, "location": {"lat": 27.86123828505436, "lng": 112.91148751317456}, "feature": {"sight_features": "", "sight_content": ""}}, {"title": "凤城画廊", "address": "凤凰路", "image": "", "rank": 25, "time": 2.0, "location": {"lat": 39.967235147563706, "lng": 116.46376010598681}, "feature": {"sight_features": "", "sight_content": ""}}, {"title": "宁晋县全红粮棉种植专业合作社", "address": "234省道西50米", "image": "", "rank": 26, "time": 2, "location": {"lat": 38.2624574136461, "lng": 114.98027586449345}, "feature": {"sight_features": "", "sight_content": ""}}, {"title": "鸿雁艺术", "address": "吉祥路西50米", "image": "", "rank": 27, "time": 2, "location": {"lat": 39.91751906216139, "lng": 116.67085859154673}, "feature": {"sight_features": "", "sight_content": ""}}, {"title": "燕赵画廊", "address": "凤凰路西50米", "image": "", "rank": 28, "time": 2, "location": {"lat": 22.982846981273422, "lng": 113.93615604195273}, "feature": {"sight_features": "", "sight_content": ""}}, {"title": "渊晖生态园", "address": "长江东路西200米", "image": "", "rank": 29, "time": 2, "location": {"lat": 34.18538418760702, "lng": 117.19135315318825}, "feature": {"sight_features": "", "sight_content": ""}}, {"title": "西城区志东生态园", "address": "肖河路东100米", "image": "", "rank": 30, "time": 2, "location": {"lat": 37.6151124557722, "lng": 114.89765664063812}, "feature": {"sight_features": "", "sight_content": ""}}, {"title": "清水湾水上乐园", "address": "大曹庄管理区盐场后村", "image": "", "rank": 31, "time": 2, "location": {"lat": 37.536267636060366, "lng": 114.9484944281948}, "feature": {"sight_features": "", "sight_content": ""}}, {"title": "好邻居水上乐园", "address": "老宁高路与西仓路交叉口(原九河酒厂对面)", "image": "", "rank": 32, "time": 2, "location": {"lat": 32.49944312239232, "lng": 119.91871232347953}, "feature": {"sight_features": "", "sight_content": ""}}, {"title": "天客隆好运街", "address": "河北省宁晋县西关街附近", "image": "", "rank": 33, "time": 2, "location": {"lat": 37.62576318817412, "lng": 114.92062379367961}, "feature": {"sight_features": "", "sight_content": ""}}]}