{"cityName": "宁明", "days": 2, "cityImage": "", "spots": [{"title": "花山壁画", "address": "崇左市宁明县攀龙村耀达屯", "image": "", "rank": 1, "time": 1.75, "location": {"lat": 22.145884844183623, "lng": 107.0835238190199}, "feature": {"sight_features": "", "sight_content": ""}}, {"title": "狮子山森林公园", "address": "广西壮族自治区崇左市宁明县海渊镇那才村南部狮子头", "image": "", "rank": 2, "time": 2, "location": {"lat": 22.043442469489225, "lng": 107.53896226454576}, "feature": {"sight_features": "", "sight_content": ""}}, {"title": "派阳山森林公园", "address": "崇左市宁明县明江镇派阳山林场鸿鸪分场", "image": "", "rank": 3, "time": 2, "location": {"lat": 22.017243662090067, "lng": 107.21038261292763}, "feature": {"sight_features": "特色1 享受休闲时光，体验森林氧吧 特色2 充满了森系的浪漫气息和田园风光，开始惬意的慢生活 特色3 梦幻玻璃桥，体验不一样的玻璃互动感", "sight_content": "派阳山森林公园离南宁200多公里，森林资源丰富，负氧离子高，面积2.1万亩，2017年12年获得国家AAAA级旅游景区。\n鸿鸪桥，74年用石头砌成，历史悠久，林海无边波涛阵阵展鸿图，苍山有序峰峦绵绵韵鹄声！\n溪谷栈道，全场1.25公里，逆流而上，沿涂可以领略最美的自然生态景观和林下溪谷、溪谷瀑布等自然风光。\n花海和婚纱摄影基地，充满了森系的浪漫气息和田园风光，开始惬意的慢生活。\n梦幻玻璃桥，“声光电”互动三者相结合，时而繁花盛开、鱼儿大战、玻璃碎裂等，体验不一样的玻璃互动感。\n樱花生态烧烤园，不仅可以欣赏美丽的樱花谷下午还有机会欣赏美丽的森林水库晚霞，绝对是一场别致风格烧烤盛宴。"}}, {"title": "陇瑞国家级自然保护区", "address": "崇左市宁明县花山西南部陇瑞自然保护区", "image": "", "rank": 4, "time": 2, "location": {"lat": 22.362673229499205, "lng": 107.10786520161912}, "feature": {"sight_features": "", "sight_content": ""}}, {"title": "花山岩画博物馆", "address": "570县道东50米", "image": "", "rank": 5, "time": 2, "location": {"lat": 22.223645339050936, "lng": 107.06138813397254}, "feature": {"sight_features": "", "sight_content": ""}}, {"title": "宁明花山温泉度假区", "address": "崇左市宁明县花山路（火车站附近，小河拐角处路边）", "image": "", "rank": 6, "time": 1.75, "location": {"lat": 22.15059212813746, "lng": 107.0739164649498}, "feature": {"sight_features": "", "sight_content": ""}}, {"title": "温泉制衣", "address": "南华街一巷与荷城街交叉口东北50米", "image": "", "rank": 7, "time": 2, "location": {"lat": 22.13732633541149, "lng": 107.07201333106649}, "feature": {"sight_features": "", "sight_content": ""}}, {"title": "十八水", "address": "广西壮族自治区贺州市路花山区", "image": "", "rank": 8, "time": 3.0, "location": {"lat": 24.409450902865487, "lng": 111.57352631416218}, "feature": {"sight_features": "", "sight_content": ""}}, {"title": "弘恩寺", "address": "广西宁明县海渊镇那才村狮子山", "image": "", "rank": 9, "time": 2, "location": {"lat": 22.043442469489225, "lng": 107.53896226454576}, "feature": {"sight_features": "", "sight_content": ""}}, {"title": "蓉峰塔", "address": "崇左市宁明县", "image": "", "rank": 10, "time": 2, "location": {"lat": 22.145884844183623, "lng": 107.0835238190199}, "feature": {"sight_features": "", "sight_content": ""}}, {"title": "宁明县革命烈士陵园", "address": "广西壮族自治区崇左市宁明县兴宁大道西", "image": "", "rank": 11, "time": 2, "location": {"lat": 22.132098330820625, "lng": 107.06073451610402}, "feature": {"sight_features": "", "sight_content": ""}}, {"title": "阴阳河", "address": "那楠乡境内", "image": "", "rank": 12, "time": 2, "location": {"lat": 21.91158833803906, "lng": 107.44133067671794}, "feature": {"sight_features": "", "sight_content": ""}}, {"title": "红日农业", "address": "新城南街与环城街交叉口西50米", "image": "", "rank": 13, "time": 2, "location": {"lat": 22.117380012199522, "lng": 107.44680324101854}, "feature": {"sight_features": "", "sight_content": ""}}, {"title": "天西华侨农场艺术团", "address": "528县道附近", "image": "", "rank": 14, "time": 2, "location": {"lat": 36.01906538057338, "lng": 111.65608222142355}, "feature": {"sight_features": "", "sight_content": ""}}, {"title": "陇瑞自然保护区", "address": "广西壮族自治区宁明县亭亮乡院景村", "image": "", "rank": 15, "time": 2, "location": {"lat": 22.248212310326476, "lng": 107.13348626084064}, "feature": {"sight_features": "", "sight_content": ""}}, {"title": "大型壮族神话实景剧《花山》", "address": "崇左市宁明县城中镇外埠珠连村", "image": "", "rank": 16, "time": 2, "location": {"lat": 22.204191606290095, "lng": 107.05098311784715}, "feature": {"sight_features": "特色1 结合花山岩画的原始性、抽象性、神秘性和仪式性。 特色2 呈现宏大的壮族先民对抗水怪、以及展现花山神韵、花界神话的效果。", "sight_content": "大型壮族神话实景剧《花山》是一台以日、月、山、林为主要形象构成，以花山岩画及山体、河流、丰富的植被组成的壮丽神奇的自然景观作为舞台背景，结合花山岩画的原始性、抽象性、神秘性和仪式性，从中构思出演出内容的文学故事、舞美服装、人物造型。\n它所讲述的是一场关于壮族先民与化作水怪的洪灾斗争的故事。先民们在当时艰苦的环境中，为了抵御洪灾，一代又一代的人在奋力拼搏。壮族先民崇尚万物有灵，先民们从族群的繁衍、日常生产劳作到洪灾的发生都认为与自然界的神秘力量相关。族群从一代又一代的繁衍到奋斗再到牺牲的过程中，也曾孕育出动人的爱情以及亲情故事……\n为了呈现宏大的壮族先民对抗水怪、以及展现花山神韵、花界神话的效果，大型壮族神话实景剧《花山》邀请了享誉国内的山水实景演出创始人梅帅元先生担任总导演，国家一级舞美设计师、同时也是太庙版《图兰朵》的舞美设计高广健老师担纲此次的舞美设计。在整场演出中，花山岩画上绘制的大量祭祀活动和生活场景都将一一呈现，从繁衍到遭遇洪灾，从祭祀祈祷到慌忙逃难，从孤立无援到花山赤子的一呼百应，这一幕幕的述说，定将不负花山这块世界文化遗产的灵土，不负花山与您的缘分。"}}, {"title": "中旅宁明花山岩画景区", "address": "崇左市宁明县X570县道", "image": "", "rank": 17, "time": 2, "location": {"lat": 22.145884844183623, "lng": 107.0835238190199}, "feature": {"sight_features": "特色1 雄伟壮观的两千多年前骆越先民所作的图画。 特色2 单体大、内容丰富、保存完好的一处岩画世界文化遗产。", "sight_content": "中旅宁明花山岩画景区（壮语：Pyalaiz（岜来））是世界文化遗产---左江花山岩画文化景观的核心组成部分，景区位于风景秀丽的明江之滨，是左江流域岩画群的代表，因悬崖上有雄伟壮观的两千多年前骆越先民所作的图画而闻名世界，也是目前为止中国发现的单体面积大、内容丰富、保存完好的一处岩画。景区中濑江屯、岜耀屯是传统的壮族原始村落，被称为“岩画活的博物馆”，村落依地势而建，错落有致，与山水辉映。\n明江里、游船上、听传说、观岩画，奇山胜水难解神卷；竹篱旁、稻田边、古屋下，古村美景出神入“画”；击铜鼓、打战鼓、弹天琴、唱山歌，壮乡歌舞尽展民族风情；编竹篓、织壮布、刺壮绣，传统手工领略民族技艺；簸箕宴、糖波酒、舂糍粑、熬红糖，饕餮壮乡独特美味。中旅·花山景区每年举办春节大庙会、“三月三”骆越祭祖大典、花山国际歌坡节……为海内外游客打造出一系列缤纷绚丽的民族节庆盛宴。"}}]}