{"cityName": "宁强", "days": 2, "cityImage": "", "spots": [{"title": "青木川古镇", "address": "汉中市宁强县大青路附近", "image": "", "rank": 1, "time": 2.5, "location": {"lat": 32.86231322169554, "lng": 105.85712843222872}, "feature": {"sight_features": "特色1 山清水秀，生态天然，民风古朴 特色2 有大片原始森林和众多的珍贵野生动物", "sight_content": "青木川古镇山清水秀，生态天然，民风古朴。古镇历史悠久，古时曾是羌汉杂居地区，自明朝年间逐渐繁华盛，民居多建于明清时期。现在古镇上保留有大片古街、古祠、古栈道、古民居等建筑群，已被列为宁强县重点文物保护单位。这里河水穿镇而过，人们悠然地做着各种活计，生活自在。古街回龙场系明成化年间所建，街长800米，宽4米，基本维持古时原貌。古镇保存最为完整的魏氏大院，系民国年间知名绅士魏辅唐所建。现遗存有魏氏大院三处，其倡办的中学一所，保存完好。还有明清时期所建的瞿氏、魏氏、赵氏、屠氏祠堂，立碑刻字等。在距古街5公里的地方，有明清时留下的通往甘肃的商运古栈道，长达60公里，道路顺河而上，依崖凿路，路势十分险峻。青木川的传奇故事——民国时期的大地主魏辅堂是这一带的传奇人物。魏辅唐原是贫苦农民，因杀死民团团长而掌握了当地大权，种植罂粟而发家，买枪屯兵，拥有上千人，数百条枪，成为陕甘川边界一支强大的地方武装。魏辅唐先后当过宁强县独立自卫队大队长、宁西人民自卫队总队长、陕甘川三省九县联防办事处副处长，建有豪宅数处，娶了大小老婆6个。魏辅唐虽然种植大烟，自己却不抽，也不允许部下抽。但是他重视文化，办中学，办剧社，送乡里贫困孩子出去念书，从这方面来说他为当地造福不少。向往山外生活的魏辅唐却从没有出过山。青木川民风纯朴，很大一部分与魏辅唐有关。至今镇上居民大多时候忙于农活，冬天农闲则在家围着火塘烤火，街上鲜见赌博现象。重要提示：青木川古镇是“5·12”地震较重灾区之一，经过灾后重建，目前青木川古镇的受损古建筑已基本修缮完毕。2009年5月起，明代老街重新迎接外地游客。"}}, {"title": "青木川自然保护区", "address": "汉中市宁强县青木川镇", "image": "", "rank": 2, "time": 2, "location": {"lat": 32.856140343480874, "lng": 105.61938628346803}, "feature": {"sight_features": "", "sight_content": ""}}, {"title": "人民广场", "address": "陕西省汉中市宁强县人民路", "image": "", "rank": 3, "time": 1.5, "location": {"lat": 32.83637317118963, "lng": 106.26331660548966}, "feature": {"sight_features": "", "sight_content": ""}}, {"title": "侯家台子广场", "address": "陕西省汉中市宁强县", "image": "", "rank": 4, "time": 2, "location": {"lat": 32.835380199208785, "lng": 106.26458864382062}, "feature": {"sight_features": "", "sight_content": ""}}, {"title": "羌文化博物馆", "address": "羌州中路", "image": "", "rank": 5, "time": 2, "location": {"lat": 32.8369152319548, "lng": 106.26038235611762}, "feature": {"sight_features": "", "sight_content": ""}}, {"title": "汉水源森林公园", "address": "黄坝驿乡红石梁(108国道出口与公园大门相接)", "image": "", "rank": 6, "time": 1.0, "location": {"lat": 32.72665031396854, "lng": 106.11445565241296}, "feature": {"sight_features": "", "sight_content": ""}}, {"title": "西沟栈道遗址", "address": "汉中市宁强县青木川镇", "image": "", "rank": 7, "time": 2, "location": {"lat": 32.856140343480874, "lng": 105.61938628346803}, "feature": {"sight_features": "", "sight_content": ""}}, {"title": "羌州公园", "address": "市场路东头", "image": "", "rank": 8, "time": 2, "location": {"lat": 26.674766434276183, "lng": 119.58005486029137}, "feature": {"sight_features": "", "sight_content": ""}}, {"title": "莲台寺", "address": "陕西省汉中市宁强县寺坝里", "image": "", "rank": 9, "time": 1.0, "location": {"lat": 32.990097277117044, "lng": 106.2568725246765}, "feature": {"sight_features": "", "sight_content": ""}}, {"title": "禹王宫千年古桂", "address": "108国道西100米", "image": "", "rank": 10, "time": 2, "location": {"lat": 36.13357010619177, "lng": 111.55096466657913}, "feature": {"sight_features": "", "sight_content": ""}}, {"title": "卧云山庄", "address": "宁强汉中宁强县大安镇开发区", "image": "", "rank": 11, "time": 2, "location": {"lat": 33.08548451604309, "lng": 106.31774860322233}, "feature": {"sight_features": "", "sight_content": ""}}, {"title": "月亮山庄休闲度假村", "address": "汉水源森林公园西门里", "image": "", "rank": 12, "time": 2, "location": {"lat": 32.753410187695955, "lng": 106.18674767226106}, "feature": {"sight_features": "", "sight_content": ""}}, {"title": "休闲广场", "address": "汉中市宁强县青木川镇青木川古镇内", "image": "", "rank": 13, "time": 2, "location": {"lat": 32.83653912848736, "lng": 105.59043422476296}, "feature": {"sight_features": "", "sight_content": ""}}, {"title": "大安中心广场", "address": "陕西省汉中市宁强县G108陕南金牛新区安置点对面", "image": "", "rank": 14, "time": 1.5, "location": {"lat": 32.835380199208785, "lng": 106.26458864382062}, "feature": {"sight_features": "", "sight_content": ""}}, {"title": "羌苑休闲山庄", "address": "G5京昆高速附近", "image": "", "rank": 15, "time": 2, "location": {"lat": 31.861712342000274, "lng": 104.96053012312672}, "feature": {"sight_features": "", "sight_content": ""}}, {"title": "关门寺①号高架桥", "address": "陕西省汉中市宁强县", "image": "", "rank": 16, "time": 2, "location": {"lat": 32.835380199208785, "lng": 106.26458864382062}, "feature": {"sight_features": "", "sight_content": ""}}, {"title": "广场", "address": "民主路附近", "image": "", "rank": 17, "time": 2, "location": {"lat": 39.016404050449765, "lng": 117.35235292658737}, "feature": {"sight_features": "", "sight_content": ""}}, {"title": "回龙场", "address": "汉中市宁强县青木川镇", "image": "", "rank": 18, "time": 0.5, "location": {"lat": 32.856140343480874, "lng": 105.61938628346803}, "feature": {"sight_features": "", "sight_content": ""}}, {"title": "吊咀上", "address": "汉中市-宁强县", "image": "", "rank": 19, "time": 2, "location": {"lat": 32.835380199208785, "lng": 106.26458864382062}, "feature": {"sight_features": "", "sight_content": ""}}, {"title": "黑木丘", "address": "汉中市-宁强县", "image": "", "rank": 20, "time": 2, "location": {"lat": 32.835380199208785, "lng": 106.26458864382062}, "feature": {"sight_features": "", "sight_content": ""}}, {"title": "黄柏垭", "address": "汉中市-宁强县", "image": "", "rank": 21, "time": 2, "location": {"lat": 32.835380199208785, "lng": 106.26458864382062}, "feature": {"sight_features": "", "sight_content": ""}}, {"title": "青木川民俗馆", "address": "汉中市-宁强县-青木川镇青木川古镇内", "image": "", "rank": 22, "time": 2, "location": {"lat": 32.83653912848736, "lng": 105.59043422476296}, "feature": {"sight_features": "", "sight_content": ""}}, {"title": "火地塆", "address": "汉中市-宁强县", "image": "", "rank": 23, "time": 2, "location": {"lat": 32.835380199208785, "lng": 106.26458864382062}, "feature": {"sight_features": "", "sight_content": ""}}, {"title": "荣盛魁", "address": "汉中市宁强县青木川古镇", "image": "", "rank": 24, "time": 2, "location": {"lat": 32.83653912848736, "lng": 105.59043422476296}, "feature": {"sight_features": "", "sight_content": ""}}, {"title": "阳平关", "address": "陕西省汉中市宁强县", "image": "", "rank": 25, "time": 2, "location": {"lat": 32.835380199208785, "lng": 106.26458864382062}, "feature": {"sight_features": "", "sight_content": ""}}, {"title": "飞凤桥", "address": "汉中市宁强县青木川镇", "image": "", "rank": 26, "time": 2, "location": {"lat": 32.856140343480874, "lng": 105.61938628346803}, "feature": {"sight_features": "", "sight_content": ""}}, {"title": "魏氏宅院", "address": "汉中市宁强县青木川镇", "image": "", "rank": 27, "time": 2, "location": {"lat": 32.856140343480874, "lng": 105.61938628346803}, "feature": {"sight_features": "", "sight_content": ""}}, {"title": "烟馆", "address": "汉中市宁强县青木川镇", "image": "", "rank": 28, "time": null, "location": {"lat": 32.856140343480874, "lng": 105.61938628346803}, "feature": {"sight_features": "", "sight_content": ""}}, {"title": "回龙阁", "address": "青木川镇青木川古镇内", "image": "", "rank": 29, "time": 1.0, "location": {"lat": 32.83653912848736, "lng": 105.59043422476296}, "feature": {"sight_features": "", "sight_content": ""}}]}