{"cityName": "宁洱", "days": 2, "cityImage": "", "spots": [{"title": "那柯里村", "address": "云南省宁洱哈尼族彝族自治县同心乡", "image": "", "rank": 1, "time": 2, "location": {"lat": 22.971476698470457, "lng": 101.07303899784728}, "feature": {"sight_features": "", "sight_content": ""}}, {"title": "茶源广场", "address": "云南省普洱市宁洱哈尼族彝族自治县", "image": "", "rank": 2, "time": 2, "location": {"lat": 23.054590179481025, "lng": 101.05244246946019}, "feature": {"sight_features": "", "sight_content": ""}}, {"title": "西岭温泉", "address": "化良路", "image": "", "rank": 3, "time": 2, "location": {"lat": 23.03799474200664, "lng": 101.00502505380948}, "feature": {"sight_features": "", "sight_content": ""}}, {"title": "清水河温泉度假村", "address": "G8511昆磨高速入口", "image": "", "rank": 4, "time": 2, "location": {"lat": 24.960499361287596, "lng": 102.79558957878623}, "feature": {"sight_features": "", "sight_content": ""}}, {"title": "同心天然温泉", "address": "同心乡高速路收费站旁", "image": "", "rank": 5, "time": 2, "location": {"lat": 47.4342272493491, "lng": 126.88839103404891}, "feature": {"sight_features": "", "sight_content": ""}}, {"title": "普洱现代林业科技示范园中心苗圃", "address": "323国道附近", "image": "", "rank": 6, "time": 1.0, "location": {"lat": 24.97631276438632, "lng": 113.87824165692972}, "feature": {"sight_features": "", "sight_content": ""}}, {"title": "普洱普特茶厂勐先生态茶园", "address": "155县道附近", "image": "", "rank": 7, "time": 1.0, "location": {"lat": 29.193160259973485, "lng": 111.62357136325929}, "feature": {"sight_features": "", "sight_content": ""}}, {"title": "景东文华农场纯菜籽油宁洱直销点", "address": "凤凰路与茶源路交叉口西南50米", "image": "", "rank": 8, "time": 2, "location": {"lat": 31.39556909964162, "lng": 118.07814550275009}, "feature": {"sight_features": "", "sight_content": ""}}, {"title": "东洱河水库", "address": "云南省宁洱哈尼族彝族自治县城东 665100", "image": "", "rank": 9, "time": 2, "location": {"lat": 23.054590179481025, "lng": 101.05244246946019}, "feature": {"sight_features": "", "sight_content": ""}}, {"title": "石镶古道", "address": "云南省宁洱哈尼族彝族自治县境内 665100", "image": "", "rank": 10, "time": 2, "location": {"lat": 23.054590179481025, "lng": 101.05244246946019}, "feature": {"sight_features": "", "sight_content": ""}}, {"title": "民族团结园", "address": "普洱市宁洱哈尼族彝族自治县凤凰路12号", "image": "", "rank": 11, "time": 2, "location": {"lat": 23.072155473687438, "lng": 101.05194355792278}, "feature": {"sight_features": "", "sight_content": ""}}, {"title": "民族影剧院", "address": "云南省普洱市宁洱哈尼族彝族自治县宁洱镇G213(旧)科恩·清水湾怡园附近", "image": "", "rank": 12, "time": 2, "location": {"lat": 23.12628597838073, "lng": 101.04480543444079}, "feature": {"sight_features": "", "sight_content": ""}}, {"title": "普洱奇石馆", "address": "云南省宁洱哈尼族彝族自治县东山路", "image": "", "rank": 13, "time": 1.0, "location": {"lat": 23.071728712823344, "lng": 101.05741082116636}, "feature": {"sight_features": "", "sight_content": ""}}, {"title": "儿童乐园", "address": "普洱市宁洱哈尼族彝族自治县", "image": "", "rank": 14, "time": 2, "location": {"lat": 23.054590179481025, "lng": 101.05244246946019}, "feature": {"sight_features": "", "sight_content": ""}}, {"title": "欢乐谷", "address": "普洱市宁洱哈尼族彝族自治县商业街6--102", "image": "", "rank": 15, "time": 4.5, "location": {"lat": 23.066373794571145, "lng": 101.04922847248223}, "feature": {"sight_features": "", "sight_content": ""}}, {"title": "园照寺", "address": "滨河大道", "image": "", "rank": 16, "time": 2, "location": {"lat": 35.577103347384345, "lng": 110.70954352208794}, "feature": {"sight_features": "", "sight_content": ""}}, {"title": "宁洱哈尼族彝族自治县档案馆", "address": "凌云路", "image": "", "rank": 17, "time": 2, "location": {"lat": 39.41842999934754, "lng": 115.94927426318965}, "feature": {"sight_features": "", "sight_content": ""}}, {"title": "誓词碑文陈列馆", "address": "凤凰路", "image": "", "rank": 18, "time": 2, "location": {"lat": 39.967235147563706, "lng": 116.46376010598681}, "feature": {"sight_features": "", "sight_content": ""}}, {"title": "大自然温泉", "address": "化良路东200米左右", "image": "", "rank": 19, "time": 2, "location": {"lat": 23.03799474200664, "lng": 101.00682166482883}, "feature": {"sight_features": "", "sight_content": ""}}, {"title": "小黑江漂流", "address": "宁洱县小黑江森林公园旁200米处", "image": "", "rank": 20, "time": 2, "location": {"lat": 23.054590179481025, "lng": 101.05244246946019}, "feature": {"sight_features": "", "sight_content": ""}}, {"title": "观音山寺", "address": "云南省宁洱哈尼族彝族自治县匡河乡", "image": "", "rank": 21, "time": 2, "location": {"lat": 23.054590179481025, "lng": 101.05244246946019}, "feature": {"sight_features": "", "sight_content": ""}}, {"title": "新世纪商业广场", "address": "云南省宁洱哈尼族彝族自治县茶乡路", "image": "", "rank": 22, "time": 2, "location": {"lat": 23.06201035993197, "lng": 101.05438091393648}, "feature": {"sight_features": "", "sight_content": ""}}]}