{"cityName": "宁化", "days": 2, "cityImage": "", "spots": [{"title": "客家祖地", "address": "福建省三明市宁化县石壁镇石碧村", "image": "", "rank": 1, "time": 2.0, "location": {"lat": 26.25455050385193, "lng": 116.49009647212242}, "feature": {"sight_features": "特色1 宁化石壁客家祖地，是客家摇篮、客家人的祖地！ 特色2 古之石壁，土地肥沃、地势平坦、森林茂密，有“玉屏”美称！ 特色3 “北有大槐树，南有石壁村”！", "sight_content": "宁化石壁客家祖地，地处闽赣交界的武夷山东麓，福建宁化县城西22公里(新路十来公里)处的石壁镇石礕村。“北有大槐树，南有石礕村”，石壁是客家摇篮、客家人的祖地。\n古之石壁，土地肥沃、地势平坦、森林茂密，有“玉屏”美称。石壁人的品性富有客家人坚韧不拔、刻苦耐劳、守礼节、重道义、好学问、论伦理的特点。同时，石壁人在漫长历史的演变中，逐渐形成了较独特的客家文化及民俗风情。"}}, {"title": "无公害绿色草莓园", "address": "鱼龙村森林派出所旁(伍家坊小学)", "image": "", "rank": 2, "time": 2, "location": {"lat": 26.23759340198754, "lng": 116.69676017325574}, "feature": {"sight_features": "", "sight_content": ""}}, {"title": "宁化客家马术", "address": "石壁307省道边", "image": "", "rank": 3, "time": 2.0, "location": {"lat": 40.264498296993764, "lng": 116.57268632168496}, "feature": {"sight_features": "", "sight_content": ""}}, {"title": "宁化长征集结出发地", "address": "福建省宁化县湖村镇巫坊村 365401", "image": "", "rank": 4, "time": 2.0, "location": {"lat": 26.357673569347924, "lng": 116.84723562113173}, "feature": {"sight_features": "", "sight_content": ""}}, {"title": "石壁现代农业观光园", "address": "石壁镇客家租地斜对面", "image": "", "rank": 5, "time": 2, "location": {"lat": 19.182171555460595, "lng": 110.25058740273056}, "feature": {"sight_features": "", "sight_content": ""}}, {"title": "慈恩宝塔", "address": "三明市宁化县闽赣建材市场对面", "image": "", "rank": 6, "time": 2, "location": {"lat": 26.247109545729483, "lng": 116.67629178006487}, "feature": {"sight_features": "", "sight_content": ""}}, {"title": "北山公园", "address": "三明市宁化县北大街36号-A号", "image": "", "rank": 7, "time": 1.0, "location": {"lat": 26.270883971604118, "lng": 116.6629448187851}, "feature": {"sight_features": "", "sight_content": ""}}, {"title": "客家马场", "address": "三明市宁化县307省道石壁镇(化县石壁派出所北500米)", "image": "", "rank": 8, "time": null, "location": {"lat": 26.25755243146181, "lng": 116.52890263593697}, "feature": {"sight_features": "", "sight_content": ""}}, {"title": "3D魔幻画展", "address": "南大街步行街夏商百货四楼", "image": "", "rank": 9, "time": 2, "location": {"lat": 26.27142628756804, "lng": 117.6426015850844}, "feature": {"sight_features": "", "sight_content": ""}}, {"title": "杨梅日用陶瓷", "address": "中环中路与中环北路交叉口北50米", "image": "", "rank": 10, "time": 2, "location": {"lat": 26.26755284469078, "lng": 116.66909403260921}, "feature": {"sight_features": "", "sight_content": ""}}, {"title": "宁化红军医院旧址", "address": "福建省宁化县石壁镇陈塘村 365413", "image": "", "rank": 11, "time": 2.0, "location": {"lat": 26.275820063145964, "lng": 116.48634032710834}, "feature": {"sight_features": "", "sight_content": ""}}, {"title": "童欢儿童乐园", "address": "宁化县边贸城旁边,长城宾馆2楼", "image": "", "rank": 12, "time": 2, "location": {"lat": 26.262346827670562, "lng": 116.66407399599723}, "feature": {"sight_features": "", "sight_content": ""}}, {"title": "迪乐尼儿童乐园", "address": "中环中路与龙门路交叉口西南150米", "image": "", "rank": 13, "time": 2, "location": {"lat": 26.261017055181004, "lng": 116.67113982908542}, "feature": {"sight_features": "", "sight_content": ""}}, {"title": "东山古寺", "address": "福建省三明市宁化县X796(东大路)", "image": "", "rank": 14, "time": 2, "location": {"lat": 26.26908422422301, "lng": 116.67496865240507}, "feature": {"sight_features": "", "sight_content": ""}}, {"title": "宁化万星广场", "address": "中环南路与龙门路交叉口东南150米", "image": "", "rank": 15, "time": 2.0, "location": {"lat": 26.262232055441284, "lng": 116.67248728734994}, "feature": {"sight_features": "", "sight_content": ""}}, {"title": "宁化县蛟龙溪漂流", "address": "福建省宁化县湖村镇肖严坊自然村", "image": "", "rank": 16, "time": 2, "location": {"lat": 26.358798780856922, "lng": 116.86123329156676}, "feature": {"sight_features": "", "sight_content": ""}}, {"title": "天主堂", "address": "西大二路6号", "image": "", "rank": 17, "time": 0.4, "location": {"lat": 26.26450311226403, "lng": 116.65887063499346}, "feature": {"sight_features": "", "sight_content": ""}}, {"title": "灵隐寺", "address": "福建省三明市宁化县", "image": "", "rank": 18, "time": 1.5, "location": {"lat": 26.267956490540477, "lng": 116.66042551200016}, "feature": {"sight_features": "", "sight_content": ""}}, {"title": "格调街区", "address": "南大街21号附近", "image": "", "rank": 19, "time": 2, "location": {"lat": 40.24008028249176, "lng": 116.13195895373515}, "feature": {"sight_features": "", "sight_content": ""}}, {"title": "永利步行街", "address": "福建省宁化县永利商业步行街", "image": "", "rank": 20, "time": 2, "location": {"lat": 26.24685213845125, "lng": 116.6761513237103}, "feature": {"sight_features": "", "sight_content": ""}}]}