{"cityName": "宁蒗", "days": 2, "cityImage": "", "spots": [{"title": "永宁坝子", "address": "泸沽湖西北部的永宁乡", "image": "", "rank": 1, "time": 2, "location": {"lat": 27.71973254967949, "lng": 100.78668120445606}, "feature": {"sight_features": "", "sight_content": ""}}, {"title": "永宁土知府衙署", "address": "丽江市宁蒗彝族自治县永宁乡忠实村", "image": "", "rank": 2, "time": 2, "location": {"lat": 27.76299601462131, "lng": 100.66797089940289}, "feature": {"sight_features": "", "sight_content": ""}}, {"title": "竹地村", "address": "丽江市宁蒗彝族自治县", "image": "", "rank": 3, "time": 1.5, "location": {"lat": 27.287727826051697, "lng": 100.85859038623477}, "feature": {"sight_features": "", "sight_content": ""}}, {"title": "格姆山", "address": "云南省宁蒗彝族自治县宁蒗县永宁坝与泸沽湖之间 674300", "image": "", "rank": 4, "time": 2, "location": {"lat": 27.578843737946354, "lng": 100.8152391504736}, "feature": {"sight_features": "", "sight_content": ""}}, {"title": "大渔坝", "address": "云南省丽江市宁蒗彝族自治县泸沽湖", "image": "", "rank": 5, "time": 2, "location": {"lat": 27.578843737946354, "lng": 100.8152391504736}, "feature": {"sight_features": "", "sight_content": ""}}, {"title": "小渔坝", "address": "丽江市宁蒗彝族自治县泸沽湖", "image": "", "rank": 6, "time": 2, "location": {"lat": 27.578843737946354, "lng": 100.8152391504736}, "feature": {"sight_features": "", "sight_content": ""}}, {"title": "尼龙村", "address": "昆明宜良县耿家营彝族苗族乡尼龙村", "image": "", "rank": 7, "time": 2, "location": {"lat": 25.13574486199178, "lng": 103.25325754492609}, "feature": {"sight_features": "", "sight_content": ""}}, {"title": "老沙鱼塘", "address": "万格路243号", "image": "", "rank": 8, "time": 2, "location": {"lat": 27.281969768911154, "lng": 100.85728801474042}, "feature": {"sight_features": "", "sight_content": ""}}, {"title": "摩梭温泉", "address": "永温线", "image": "", "rank": 9, "time": 0.7, "location": {"lat": 27.81018469701424, "lng": 100.71252950358264}, "feature": {"sight_features": "", "sight_content": ""}}, {"title": "高原漂流", "address": "307省道", "image": "", "rank": 10, "time": 2, "location": {"lat": 40.264498296993764, "lng": 116.57268632168496}, "feature": {"sight_features": "", "sight_content": ""}}, {"title": "杨二车娜姆国际艺术博物馆", "address": "泸沽湖小落水娅口", "image": "", "rank": 11, "time": 1.5, "location": {"lat": 27.71973254967949, "lng": 100.78668120445606}, "feature": {"sight_features": "", "sight_content": ""}}, {"title": "观景亭", "address": "云南省宁蒗彝族自治县永宁乡的泸沽湖 674300", "image": "", "rank": 12, "time": 0.3, "location": {"lat": 27.730389036023332, "lng": 100.69560035864225}, "feature": {"sight_features": "", "sight_content": ""}}, {"title": "戛姆山", "address": "云南省宁蒗彝族自治县泸沽湖旁 674309", "image": "", "rank": 13, "time": 2, "location": {"lat": 27.578843737946354, "lng": 100.8152391504736}, "feature": {"sight_features": "", "sight_content": ""}}, {"title": "宁蒗热水泉", "address": "云南省宁蒗彝族自治县永宁乡 674309", "image": "", "rank": 14, "time": 4.0, "location": {"lat": 27.763389007574546, "lng": 100.66937998232368}, "feature": {"sight_features": "", "sight_content": ""}}, {"title": "阿夏婚母系大家庭", "address": "云南省丽江市古城区沪沽湖 674100", "image": "", "rank": 15, "time": 2, "location": {"lat": 26.883161684001312, "lng": 100.2324803392115}, "feature": {"sight_features": "", "sight_content": ""}}, {"title": "殉情崖", "address": "云南省丽江市宁蒗彝族自治县南47公里", "image": "", "rank": 16, "time": 2, "location": {"lat": 26.909843885731576, "lng": 100.85859038623477}, "feature": {"sight_features": "", "sight_content": ""}}, {"title": "烈士陵园", "address": "赤格阿龙路107号附近", "image": "", "rank": 17, "time": 2, "location": {"lat": 27.288236884708013, "lng": 100.85710408474779}, "feature": {"sight_features": "", "sight_content": ""}}, {"title": "女神洞索道上站", "address": "丽江市宁蒗彝族自治县泸沽湖风景区内", "image": "", "rank": 18, "time": null, "location": {"lat": 27.287727826051697, "lng": 100.85859038623477}, "feature": {"sight_features": "", "sight_content": ""}}, {"title": "释迦牟尼殿", "address": "丽江市宁蒗彝族自治县泸沽湖风景区里务比岛内", "image": "", "rank": 19, "time": 2, "location": {"lat": 27.689773311518767, "lng": 100.79257265670057}, "feature": {"sight_features": "", "sight_content": ""}}, {"title": "菩提塔", "address": "云南省丽江市宁蒗彝族自治县泸沽湖景区", "image": "", "rank": 20, "time": null, "location": {"lat": 27.659611941052816, "lng": 100.81597306607502}, "feature": {"sight_features": "", "sight_content": ""}}, {"title": "女神洞索道下站", "address": "云南省丽江市宁蒗彝族自治县泸沽湖风景区内", "image": "", "rank": 21, "time": 2, "location": {"lat": 27.287727826051697, "lng": 100.85859038623477}, "feature": {"sight_features": "", "sight_content": ""}}, {"title": "七里香农家乐", "address": "307省道", "image": "", "rank": 22, "time": 2, "location": {"lat": 40.264498296993764, "lng": 116.57268632168496}, "feature": {"sight_features": "", "sight_content": ""}}, {"title": "宁蒗县科技馆", "address": "朝阳路与万格路交叉口", "image": "", "rank": 23, "time": 2, "location": {"lat": 27.284996548897112, "lng": 100.85737958539082}, "feature": {"sight_features": "", "sight_content": ""}}, {"title": "泸沽湖尼赛别院", "address": "泸沽湖景区尼赛村内", "image": "", "rank": 24, "time": 2, "location": {"lat": 27.659611941052816, "lng": 100.81597306607502}, "feature": {"sight_features": "", "sight_content": ""}}, {"title": "宁乡温泉", "address": "永温线(近温泉村)", "image": "", "rank": 25, "time": 0.7, "location": {"lat": 27.81018469701424, "lng": 100.71252950358264}, "feature": {"sight_features": "", "sight_content": ""}}, {"title": "桥东商贸步行街", "address": "云南省宁蒗彝族自治县桥东商贸步行街", "image": "", "rank": 26, "time": 2, "location": {"lat": 27.287727826051697, "lng": 100.85859038623477}, "feature": {"sight_features": "", "sight_content": ""}}, {"title": "扎美寺", "address": "云南省宁蒗彝族自治县永宁乡落水村 674309", "image": "", "rank": 27, "time": 2.0, "location": {"lat": 27.733641638788008, "lng": 100.74455049728921}, "feature": {"sight_features": "", "sight_content": ""}}, {"title": "木楞房", "address": "云南省宁蒗彝族自治县永宁乡落水村 674309", "image": "", "rank": 28, "time": 2, "location": {"lat": 27.733641638788008, "lng": 100.74455049728921}, "feature": {"sight_features": "", "sight_content": ""}}, {"title": "比依仙人洞", "address": "云南省宁蒗彝族自治县红桥乡 674300", "image": "", "rank": 29, "time": 2, "location": {"lat": 27.434648253951565, "lng": 100.80427005957291}, "feature": {"sight_features": "", "sight_content": ""}}, {"title": "摩梭风情路", "address": "云南省宁蒗彝族自治县永宁乡落水村 674309", "image": "", "rank": 30, "time": 2, "location": {"lat": 27.733641638788008, "lng": 100.74455049728921}, "feature": {"sight_features": "", "sight_content": ""}}, {"title": "摩梭人村寨", "address": "云南省宁蒗彝族自治县泸沽湖周围 674300", "image": "", "rank": 31, "time": 2, "location": {"lat": 27.578843737946354, "lng": 100.8152391504736}, "feature": {"sight_features": "", "sight_content": ""}}, {"title": "长江又一湾", "address": "丽江通往泸沽湖途中", "image": "", "rank": 32, "time": 2, "location": {"lat": 27.578843737946354, "lng": 100.8152391504736}, "feature": {"sight_features": "", "sight_content": ""}}, {"title": "小凉山", "address": "宁蒗彝族自治县宁蒗县", "image": "", "rank": 33, "time": 2, "location": {"lat": 27.287727826051697, "lng": 100.85859038623477}, "feature": {"sight_features": "", "sight_content": ""}}, {"title": "木底箐村", "address": "丽江市宁蒗彝族自治县木底箐村", "image": "", "rank": 34, "time": 2, "location": {"lat": 27.63176470072135, "lng": 100.69194929561007}, "feature": {"sight_features": "", "sight_content": ""}}, {"title": "宁蒗", "address": "云南.丽江.宁蒗", "image": "", "rank": 35, "time": 4.0, "location": {"lat": 26.860657438064884, "lng": 100.23246452903453}, "feature": {"sight_features": "", "sight_content": ""}}]}