{"cityName": "农安", "days": 2, "cityImage": "", "spots": [{"title": "农安辽塔", "address": "长春市农安县宝塔街与黄龙路交叉口东北100米", "image": "", "rank": 1, "time": 1.5, "location": {"lat": 44.43460875771614, "lng": 125.18185054362776}, "feature": {"sight_features": "", "sight_content": ""}}, {"title": "龙府广场", "address": "长春市农安县德彪街241号附近", "image": "", "rank": 2, "time": 1.0, "location": {"lat": 44.435968600453286, "lng": 125.18781598343871}, "feature": {"sight_features": "", "sight_content": ""}}, {"title": "人民公园", "address": "长春市农安县农安路", "image": "", "rank": 3, "time": 2.5, "location": {"lat": 44.443434051972936, "lng": 125.18871517245354}, "feature": {"sight_features": "", "sight_content": ""}}, {"title": "太平池水库", "address": "长春市农安县西南部（龙王、三岗、烧锅三乡的交界处）", "image": "", "rank": 4, "time": 1.0, "location": {"lat": 44.43890395126124, "lng": 125.1914841066626}, "feature": {"sight_features": "", "sight_content": ""}}, {"title": "前岗水库", "address": "长春市农安县东部前岗乡境内", "image": "", "rank": 5, "time": 1.0, "location": {"lat": 44.299712213318415, "lng": 125.32125289214227}, "feature": {"sight_features": "", "sight_content": ""}}, {"title": "红石砬风景区", "address": "农安县靠山镇东北16公里处", "image": "", "rank": 6, "time": 2, "location": {"lat": 44.82366896029708, "lng": 125.82742165030744}, "feature": {"sight_features": "", "sight_content": ""}}, {"title": "刘尧生态园", "address": "长春市农安县靠山镇境内", "image": "", "rank": 7, "time": 2, "location": {"lat": 44.82366896029708, "lng": 125.68369276871097}, "feature": {"sight_features": "", "sight_content": ""}}, {"title": "波罗湖", "address": "长春市农安县西部", "image": "", "rank": 8, "time": 2, "location": {"lat": 44.43890395126124, "lng": 125.1914841066626}, "feature": {"sight_features": "", "sight_content": ""}}, {"title": "辽金时代观光园", "address": "长春市农安县前岗乡新开村", "image": "", "rank": 9, "time": 2, "location": {"lat": 44.22774110088473, "lng": 125.27598512245957}, "feature": {"sight_features": "", "sight_content": ""}}, {"title": "金刚寺", "address": "长春市农安县北七巷与古城街交叉口东北100米", "image": "", "rank": 10, "time": 1.5, "location": {"lat": 44.44415299949757, "lng": 125.19860368627008}, "feature": {"sight_features": "", "sight_content": ""}}, {"title": "剑鹏国际马城", "address": "华家镇", "image": "", "rank": 11, "time": 2, "location": {"lat": 39.27730383167283, "lng": 122.04289095519151}, "feature": {"sight_features": "", "sight_content": ""}}, {"title": "吉祥休闲宾馆", "address": "宝塔街古城派出所对面", "image": "", "rank": 12, "time": 2, "location": {"lat": 44.451920183872474, "lng": 125.17910795941425}, "feature": {"sight_features": "", "sight_content": ""}}, {"title": "在水一方休闲垂钓乡村野味", "address": "烧锅镇在水一方休闲垂钓乡村野味", "image": "", "rank": 13, "time": 2, "location": {"lat": 39.87127241421273, "lng": 116.26187001014661}, "feature": {"sight_features": "", "sight_content": ""}}, {"title": "辽黄龙府遗址", "address": "吉林省农安县农安镇 130200", "image": "", "rank": 14, "time": 2, "location": {"lat": 44.51740862277735, "lng": 125.22135545978588}, "feature": {"sight_features": "", "sight_content": ""}}, {"title": "玫瑰堂", "address": "吉林省长春市农安县", "image": "", "rank": 15, "time": 1.5, "location": {"lat": 44.43890395126124, "lng": 125.1914841066626}, "feature": {"sight_features": "", "sight_content": ""}}, {"title": "圈湖度假村", "address": "康宁街", "image": "", "rank": 16, "time": 2, "location": {"lat": 38.0341988775226, "lng": 114.53371830963128}, "feature": {"sight_features": "", "sight_content": ""}}, {"title": "哈拉海镇", "address": "长春市农安县哈拉海镇", "image": "", "rank": 17, "time": 2, "location": {"lat": 44.67581515038445, "lng": 125.13643939630091}, "feature": {"sight_features": "", "sight_content": ""}}, {"title": "开安镇", "address": "长春市农安县开安镇", "image": "", "rank": 18, "time": 2, "location": {"lat": 44.176284290324844, "lng": 125.20165478632457}, "feature": {"sight_features": "", "sight_content": ""}}, {"title": "开安基督教会", "address": "吉林省长春市农安县开安大路688号", "image": "", "rank": 19, "time": 2, "location": {"lat": 44.17299095629394, "lng": 125.21358990239803}, "feature": {"sight_features": "", "sight_content": ""}}, {"title": "二道河景观公园", "address": "029乡道东侧", "image": "", "rank": 20, "time": 2, "location": {"lat": 31.686081170072438, "lng": 118.75696665396602}, "feature": {"sight_features": "", "sight_content": ""}}, {"title": "水族馆龙鱼之巅", "address": "吉林省长春市农安县黄龙路483号", "image": "", "rank": 21, "time": 2, "location": {"lat": 44.435103435123594, "lng": 125.19136622562374}, "feature": {"sight_features": "", "sight_content": ""}}, {"title": "安农县站前铁西基督教会", "address": "长春市农安县X010", "image": "", "rank": 22, "time": 2, "location": {"lat": 44.43890395126124, "lng": 125.1914841066626}, "feature": {"sight_features": "", "sight_content": ""}}, {"title": "快乐宝贝亲子乐园", "address": "长春市农安县", "image": "", "rank": 23, "time": 2, "location": {"lat": 44.43890395126124, "lng": 125.1914841066626}, "feature": {"sight_features": "", "sight_content": ""}}, {"title": "星期六儿童成长游乐园", "address": "吉林省长春市农安县伏龙泉镇兴隆龙林街大地花园小区附近", "image": "", "rank": 24, "time": 2, "location": {"lat": 44.4042726242867, "lng": 124.6520493419706}, "feature": {"sight_features": "", "sight_content": ""}}, {"title": "伏龙泉天主教会", "address": "玫瑰堂附近", "image": "", "rank": 25, "time": 2, "location": {"lat": 31.163454779779418, "lng": 121.31131013939051}, "feature": {"sight_features": "", "sight_content": ""}}, {"title": "润泽·中央广场", "address": "农安路与文化街交叉口南100米", "image": "", "rank": 26, "time": 2, "location": {"lat": 44.44269121090115, "lng": 125.18641064871859}, "feature": {"sight_features": "", "sight_content": ""}}, {"title": "吉盛伟邦龙泉山庄", "address": "伏龙泉镇国税局附近", "image": "", "rank": 27, "time": 2, "location": {"lat": 44.41526510550251, "lng": 124.64765885312954}, "feature": {"sight_features": "", "sight_content": ""}}, {"title": "天泉生态", "address": "X005和平村东南侧", "image": "", "rank": 28, "time": 2, "location": {"lat": 31.713787326636815, "lng": 118.51266960223802}, "feature": {"sight_features": "", "sight_content": ""}}, {"title": "黄龙艺术剧院", "address": "宝塔街", "image": "", "rank": 29, "time": 1.5, "location": {"lat": 26.58949696274104, "lng": 111.88965638655218}, "feature": {"sight_features": "", "sight_content": ""}}, {"title": "白三牛奶草莓采摘园", "address": "302国道东50米", "image": "", "rank": 30, "time": 2, "location": {"lat": 45.75877779746667, "lng": 122.5736815255446}, "feature": {"sight_features": "", "sight_content": ""}}, {"title": "步行街商业区", "address": "吉林省农安县德彪街", "image": "", "rank": 31, "time": 2, "location": {"lat": 44.430038170621295, "lng": 125.18586394268014}, "feature": {"sight_features": "", "sight_content": ""}}, {"title": "华城商业街", "address": "吉林省农安县文昌街", "image": "", "rank": 32, "time": 2, "location": {"lat": 44.43169949547049, "lng": 125.17296302152235}, "feature": {"sight_features": "", "sight_content": ""}}, {"title": "张维屯", "address": "长春市-农安县", "image": "", "rank": 33, "time": 2, "location": {"lat": 44.43890395126124, "lng": 125.1914841066626}, "feature": {"sight_features": "", "sight_content": ""}}]}