{"cityName": "怒江", "days": "", "cityImage": "", "spots": [{"title": "丙中洛", "address": "怒江傈僳族自治州贡山独龙族怒族自治县双拉小学对面", "image": "", "rank": 1, "time": 7.5, "location": {"lat": 27.978695690748083, "lng": 98.66207432426012}, "feature": {"sight_features": "", "sight_content": ""}}, {"title": "六库", "address": "怒江傈僳族自治州泸水县", "image": "", "rank": 2, "time": 1.0, "location": {"lat": 26.0702282029572, "lng": 98.85930047595942}, "feature": {"sight_features": "", "sight_content": ""}}, {"title": "怒江大峡谷", "address": "怒江州贡山独龙族怒族自治县丙中洛乡", "image": "", "rank": 3, "time": 3.0, "location": {"lat": 28.021127465542115, "lng": 98.62783785045468}, "feature": {"sight_features": "", "sight_content": ""}}, {"title": "碧罗雪山", "address": "怒江傈僳族自治州兰坪白族普米族自治县 ‎", "image": "", "rank": 4, "time": 2, "location": {"lat": 26.459207904687954, "lng": 99.42328466998799}, "feature": {"sight_features": "", "sight_content": ""}}, {"title": "高黎贡山自然保护区", "address": "怒江傈僳族自治州泸水县", "image": "", "rank": 5, "time": 3.0, "location": {"lat": 26.0702282029572, "lng": 98.85930047595942}, "feature": {"sight_features": "", "sight_content": ""}}, {"title": "怒江第一湾", "address": "怒江傈僳族自治州贡山独龙族怒族自治县丙中洛乡日丹村附近", "image": "", "rank": 6, "time": 1.5, "location": {"lat": 28.021127465542115, "lng": 98.62783785045468}, "feature": {"sight_features": "", "sight_content": ""}}, {"title": "老姆登教堂", "address": "怒江傈僳族自治州福贡县老母登村", "image": "", "rank": 7, "time": 2, "location": {"lat": 26.559667022706172, "lng": 98.92348050983126}, "feature": {"sight_features": "", "sight_content": ""}}, {"title": "怒江溜索", "address": "怒江傈僳族自治州贡山独龙族怒族自治县", "image": "", "rank": 8, "time": 0.5, "location": {"lat": 27.74706787527189, "lng": 98.6723994486867}, "feature": {"sight_features": "", "sight_content": ""}}, {"title": "独龙江峡谷", "address": "怒江傈僳族自治州贡山独龙族怒族自治县独龙江乡境内", "image": "", "rank": 9, "time": 1.0, "location": {"lat": 27.742466049688318, "lng": 98.35624757082877}, "feature": {"sight_features": "", "sight_content": ""}}, {"title": "贡当神山", "address": "怒江傈僳族自治州贡山独龙族怒族自治县丙中洛村乡丙中洛村西南", "image": "", "rank": 10, "time": 1.0, "location": {"lat": 28.019184759314413, "lng": 98.62917497012111}, "feature": {"sight_features": "", "sight_content": ""}}, {"title": "迪麻洛", "address": "怒江傈僳族自治州贡山独龙族怒族自治县迪麻洛村", "image": "", "rank": 11, "time": 1.0, "location": {"lat": 27.940868688141144, "lng": 98.70689524891989}, "feature": {"sight_features": "", "sight_content": ""}}, {"title": "桃花岛", "address": "怒江僳僳族自治州贡山独龙族怒族自治县丙中洛乡东面的扎拉桶村", "image": "", "rank": 12, "time": 2, "location": {"lat": 28.02252045568007, "lng": 98.64001440409606}, "feature": {"sight_features": "", "sight_content": ""}}, {"title": "片马", "address": "云南省怒江傈僳族自治州泸水县片马镇", "image": "", "rank": 13, "time": 1.0, "location": {"lat": 26.039537578555827, "lng": 98.65061317483853}, "feature": {"sight_features": "", "sight_content": ""}}, {"title": "听命湖", "address": "怒江傈僳族自治州泸水县片马东北部", "image": "", "rank": 14, "time": 1.0, "location": {"lat": 26.01456302415464, "lng": 98.6205853665494}, "feature": {"sight_features": "", "sight_content": ""}}, {"title": "罗古箐", "address": "怒江傈僳族自治州兰坪白族普米族自治县通甸乡德胜村", "image": "", "rank": 15, "time": 4.5, "location": {"lat": 26.69879705486791, "lng": 99.5326692657992}, "feature": {"sight_features": "", "sight_content": ""}}, {"title": "石月亮观景台", "address": "福贡县石月亮乡石月亮村228省道", "image": "", "rank": 16, "time": 1.0, "location": {"lat": 27.255263320324918, "lng": 98.8983423859399}, "feature": {"sight_features": "", "sight_content": ""}}, {"title": "独龙江藤网桥", "address": "怒江傈僳族自治州贡山独龙族怒族自治县独龙江乡境内", "image": "", "rank": 17, "time": 1.0, "location": {"lat": 27.742466049688318, "lng": 98.35624757082877}, "feature": {"sight_features": "", "sight_content": ""}}, {"title": "驼峰航线飞机残骸", "address": "怒江傈僳族自治州泸水县片马镇", "image": "", "rank": 18, "time": 1.0, "location": {"lat": 26.039537578555827, "lng": 98.65061317483853}, "feature": {"sight_features": "", "sight_content": ""}}, {"title": "秋那桶村", "address": "云南省怒江傈僳族自治州贡山独龙族怒族自治县秋那桶村", "image": "", "rank": 19, "time": 3.0, "location": {"lat": 28.077422119819115, "lng": 98.5859460880619}, "feature": {"sight_features": "", "sight_content": ""}}, {"title": "白汉洛教堂", "address": "贡山县丙中洛乡白汉洛村", "image": "", "rank": 20, "time": 2, "location": {"lat": 28.021127465542115, "lng": 98.62783785045468}, "feature": {"sight_features": "", "sight_content": ""}}, {"title": "驼峰航线纪念馆", "address": "怒江傈僳族自治州泸水县片马镇", "image": "", "rank": 21, "time": 1.0, "location": {"lat": 26.039537578555827, "lng": 98.65061317483853}, "feature": {"sight_features": "", "sight_content": ""}}, {"title": "高山冰碛湖", "address": "怒江", "image": "", "rank": 22, "time": 1.0, "location": {"lat": 25.823707417657754, "lng": 98.8632883813579}, "feature": {"sight_features": "", "sight_content": ""}}, {"title": "雾里村", "address": "怒江州贡山县（前往秋那桶途中的怒江对面）", "image": "", "rank": 23, "time": 4.0, "location": {"lat": 28.098302783465897, "lng": 98.58045173266622}, "feature": {"sight_features": "", "sight_content": ""}}, {"title": "知子罗", "address": "云南省怒江傈僳族自治州福贡县知子罗村", "image": "", "rank": 24, "time": 2, "location": {"lat": 26.544553722645468, "lng": 98.92178760458975}, "feature": {"sight_features": "", "sight_content": ""}}, {"title": "普化寺", "address": "怒江州贡山县丙中洛乡坎桶村", "image": "", "rank": 25, "time": 1.0, "location": {"lat": 28.021127465542115, "lng": 98.62783785045468}, "feature": {"sight_features": "", "sight_content": ""}}, {"title": "飞来石", "address": "云南省怒江傈僳族自治州福贡县", "image": "", "rank": 26, "time": 0.5, "location": {"lat": 26.908055208498066, "lng": 98.87564942449333}, "feature": {"sight_features": "", "sight_content": ""}}, {"title": "石月亮", "address": "云南省怒江傈僳族自治州福贡县", "image": "", "rank": 27, "time": 1.0, "location": {"lat": 26.908055208498066, "lng": 98.87564942449333}, "feature": {"sight_features": "", "sight_content": ""}}, {"title": "重丁教堂", "address": "怒江州贡山县丙中洛乡重丁村（丙中洛乡东部）", "image": "", "rank": 28, "time": 1.0, "location": {"lat": 28.021127465542115, "lng": 98.62783785045468}, "feature": {"sight_features": "", "sight_content": ""}}, {"title": "怒江大桥", "address": "云南省怒江傈僳族自治州泸水县六库镇", "image": "", "rank": 29, "time": 1.5, "location": {"lat": 25.874423096951652, "lng": 98.88746995361035}, "feature": {"sight_features": "", "sight_content": ""}}, {"title": "金满村", "address": "云南省怒江傈僳族自治州泸水县洛本卓乡金满村", "image": "", "rank": 30, "time": 2, "location": {"lat": 26.429268980828155, "lng": 98.86473490205911}, "feature": {"sight_features": "", "sight_content": ""}}, {"title": "滇藏茶马古道", "address": "云南省怒江傈僳族自治州贡山独龙族怒族自治县丙中洛乡", "image": "", "rank": 31, "time": 2, "location": {"lat": 28.021127465542115, "lng": 98.62783785045468}, "feature": {"sight_features": "", "sight_content": ""}}, {"title": "怒江民族演艺厅", "address": "新闻路1", "image": "", "rank": 32, "time": 3.0, "location": {"lat": 39.948870120323555, "lng": 119.59871125581371}, "feature": {"sight_features": "", "sight_content": ""}}, {"title": "老虎跳", "address": "云南省怒江傈僳族自治州贡山独龙族怒族自治县", "image": "", "rank": 33, "time": 2, "location": {"lat": 27.74706787527189, "lng": 98.6723994486867}, "feature": {"sight_features": "", "sight_content": ""}}, {"title": "青山公园", "address": "穿城路382", "image": "", "rank": 34, "time": 1.5, "location": {"lat": 25.862723576990724, "lng": 98.85925217612657}, "feature": {"sight_features": "", "sight_content": ""}}, {"title": "独龙江", "address": "云南省贡山独龙族怒族自治县贡山县西北 673500", "image": "", "rank": 35, "time": 1.0, "location": {"lat": 27.74706787527189, "lng": 98.6723994486867}, "feature": {"sight_features": "", "sight_content": ""}}, {"title": "怒江州公路规划勘察设计院", "address": "雅兰苑小区附近", "image": "", "rank": 36, "time": 2, "location": {"lat": 30.365273013181692, "lng": 120.08997389346511}, "feature": {"sight_features": "", "sight_content": ""}}, {"title": "片马抗英胜利纪念馆", "address": "片马镇", "image": "", "rank": 37, "time": 2, "location": {"lat": 26.039537578555827, "lng": 98.65061317483853}, "feature": {"sight_features": "", "sight_content": ""}}, {"title": "贡山县城", "address": "云南省怒江州贡山县茨开镇", "image": "", "rank": 38, "time": 3.5, "location": {"lat": 27.738228642412846, "lng": 98.67615997114355}, "feature": {"sight_features": "", "sight_content": ""}}, {"title": "草塘小院", "address": "赖茂村", "image": "", "rank": 39, "time": null, "location": {"lat": 25.8287942937551, "lng": 98.85585070907686}, "feature": {"sight_features": "", "sight_content": ""}}, {"title": "片马口岸", "address": "县城进出口口岸", "image": "", "rank": 40, "time": 2, "location": {"lat": 34.27425436103569, "lng": 117.19430618343358}, "feature": {"sight_features": "", "sight_content": ""}}, {"title": "风雪丫口", "address": "片马镇", "image": "", "rank": 41, "time": 2, "location": {"lat": 26.039537578555827, "lng": 98.65061317483853}, "feature": {"sight_features": "", "sight_content": ""}}, {"title": "怒江民族文化生态园", "address": "怒江大道", "image": "", "rank": 42, "time": 3.0, "location": {"lat": 25.83112829471458, "lng": 98.86261429559836}, "feature": {"sight_features": "", "sight_content": ""}}, {"title": "龙泉生态园(分店)", "address": "怒江路东50米", "image": "", "rank": 43, "time": 2, "location": {"lat": 31.235648407590286, "lng": 121.40621902163969}, "feature": {"sight_features": "", "sight_content": ""}}, {"title": "登埂澡塘会", "address": "怒江州泸水县跃进桥旁", "image": "", "rank": 44, "time": 2, "location": {"lat": 25.944810060881352, "lng": 98.84299727684412}, "feature": {"sight_features": "", "sight_content": ""}}, {"title": "石门关", "address": "云南省怒江傈僳族自治州贡山独龙族怒族自治县丙中洛镇石门关", "image": "", "rank": 45, "time": 3.0, "location": {"lat": 28.035847892853084, "lng": 98.6071600101478}, "feature": {"sight_features": "", "sight_content": ""}}, {"title": "福贡高山湖", "address": "云南省福贡县高黎贡山和碧罗雪山上 673400", "image": "", "rank": 46, "time": 0.5, "location": {"lat": 26.908055208498066, "lng": 98.87564942449333}, "feature": {"sight_features": "", "sight_content": ""}}, {"title": "干地衣比湖", "address": "云南省福贡县上帕镇驻地东 673400", "image": "", "rank": 47, "time": 2, "location": {"lat": 26.907598255623977, "lng": 98.87485108242075}, "feature": {"sight_features": "", "sight_content": ""}}, {"title": "马吊桥", "address": "云南省福贡县上帕镇腊竹底村 673400", "image": "", "rank": 48, "time": 2, "location": {"lat": 26.95377927109137, "lng": 98.87068766455297}, "feature": {"sight_features": "", "sight_content": ""}}, {"title": "碧莲雪山七莲湖", "address": "云南省兰坪白族普米族自治县碧罗雪山上 671400", "image": "", "rank": 49, "time": 2, "location": {"lat": 26.465863965127827, "lng": 99.00920189519456}, "feature": {"sight_features": "", "sight_content": ""}}, {"title": "怒江茶马古道景区", "address": "云南省泸水县境内 673200", "image": "", "rank": 50, "time": 3.0, "location": {"lat": 26.0702282029572, "lng": 98.85930047595942}, "feature": {"sight_features": "", "sight_content": ""}}, {"title": "三江并流展览馆", "address": "云南省泸水县三江国家公园内 673200", "image": "", "rank": 51, "time": 9.0, "location": {"lat": 26.0702282029572, "lng": 98.85930047595942}, "feature": {"sight_features": "", "sight_content": ""}}, {"title": "美客来农家乐", "address": "云南省怒江傈僳族自治州泸水市上江镇上江乡大练地村民委员会", "image": "", "rank": 52, "time": 2, "location": {"lat": 25.752123520234694, "lng": 98.87102069515119}, "feature": {"sight_features": "", "sight_content": ""}}, {"title": "匹河影剧院", "address": "匹河乡匹河村", "image": "", "rank": 53, "time": 2, "location": {"lat": 26.533674908167413, "lng": 98.90376831021844}, "feature": {"sight_features": "", "sight_content": ""}}, {"title": "鹿马登影剧院", "address": "228省道鹿马登边防派出所附近", "image": "", "rank": 54, "time": null, "location": {"lat": 27.031869172078387, "lng": 98.87309814701527}, "feature": {"sight_features": "", "sight_content": ""}}, {"title": "普华寺", "address": "石门关附近", "image": "", "rank": 55, "time": 2.5, "location": {"lat": 32.01605591031875, "lng": 119.03774434070867}, "feature": {"sight_features": "", "sight_content": ""}}, {"title": "青山公园路", "address": "云南省怒江傈僳族自治州泸水市", "image": "", "rank": 56, "time": null, "location": {"lat": 25.829026769971726, "lng": 98.86458616332774}, "feature": {"sight_features": "", "sight_content": ""}}, {"title": "尼大当", "address": "怒江州贡山县丙中洛乡北部", "image": "", "rank": 57, "time": 2, "location": {"lat": 28.021127465542115, "lng": 98.62783785045468}, "feature": {"sight_features": "", "sight_content": ""}}, {"title": "嘎娃嘎普雪山", "address": "云南省怒江傈僳族自治州贡山独龙族怒族自治县丙中洛乡", "image": "", "rank": 58, "time": 2, "location": {"lat": 28.021127465542115, "lng": 98.62783785045468}, "feature": {"sight_features": "", "sight_content": ""}}, {"title": "大羊场", "address": "怒江傈僳族自治州兰坪白族普米族自治县", "image": "", "rank": 59, "time": 2, "location": {"lat": 26.459207904687954, "lng": 99.42328466998799}, "feature": {"sight_features": "", "sight_content": ""}}, {"title": "极乐山庄", "address": "泸水市其他穿城路511", "image": "", "rank": 60, "time": 2, "location": {"lat": 25.829026769971726, "lng": 98.86458616332774}, "feature": {"sight_features": "", "sight_content": ""}}]}