{"cityName": "攀枝花", "days": "", "cityImage": "", "spots": [{"title": "海塔世外桃源风景区", "address": "攀枝花市米易县撒莲镇海塔村", "image": "", "rank": 1, "time": 2.0, "location": {"lat": 26.91638405592136, "lng": 102.01453574250209}, "feature": {"sight_features": "", "sight_content": ""}}, {"title": "二滩国家森林公园", "address": "攀枝花市盐边县中环南路11号", "image": "", "rank": 2, "time": 3.5, "location": {"lat": 26.6816667665396, "lng": 101.85851014817014}, "feature": {"sight_features": "", "sight_content": ""}}, {"title": "攀枝花公园", "address": "攀枝花市东区攀枝花大道东段体育馆旁", "image": "", "rank": 3, "time": 2.5, "location": {"lat": 26.584792733520512, "lng": 101.72977825342721}, "feature": {"sight_features": "", "sight_content": ""}}, {"title": "格萨拉生态旅游区", "address": "攀枝花市盐边县格萨拉乡", "image": "", "rank": 4, "time": 3.5, "location": {"lat": 27.11395773537938, "lng": 101.30795349458165}, "feature": {"sight_features": "特色1 独具特色的生态文化旅游胜境", "sight_content": "格萨拉生态旅游区位于攀枝花市盐边县西北角，景区景观由天坑地漏、岩溶景观、高山草甸和彝家风情等组成。主景区距泸沽湖116公里,距丽江376公里，沿省道216线（稻攀路）前行可达稻城、亚丁。这里群山绵绵，峰回路转间，时而黄土高坡，时而丛林密布，茶花万朵，地质地貌变化极大。一位资深的地质学者曾说“此地山川地貌堪与九寨黄龙媲美。\n格萨拉生态旅游区幅员面积594.23km，境内植被多样、生物丰富。主要自然景观以万亩杜鹃、原始森林、天然园林、大地盆景以及鬼斧神工的天坑地漏、瑰丽多姿的天堂石林、奇幻百出的地下溶洞、连绵起伏的高山草甸为主，加上多民族的文化风情、优美的传奇故事，以奇伟瑰丽的生态群落、博大精深的民族文化，集生态旅游、文化观光、猎奇探险、民俗大观于一体，构成了独具特色的生态旅游、文化旅游胜境。高山草甸层峦起伏，低矮的盘松虬劲有力；在盐边岩口、洼落一带300多平方公里的范围内，拥有1000余个直径和深度不一的漏斗群，漏斗群中面积较大的约5000余平方米，深度约30多米，小的面积约400余平方米，深度不一。在这些溶洞中，一号天洞格外引人注目。在200多米的峭壁之下，向竖洞投石10秒后，方听得訇然水声，约有155米深，其周围5个大小不等的溶洞富有彝族民族文化的色彩，如灵泽洞，洞中的岩溶景观别致新颖，有“观音殿”、“罗汉群”、“骆驼峰”、“狮子山”、“罗汉群”等。\n彝语“格萨拉”指“人与自然和谐共生的美丽天堂”，俗称最好玩的地方。格萨拉生态旅游区区位优势明显，交通状况较为便利，地处攀枝花盐边县与四川省凉山州盐源县、云南省丽江市华坪县的交界处，省道216线由南向北经岩口乡纵贯全区。从岩口乡向西有一条通往云南省丽江市华坪县的机耕道。岩口乡政府驻地向东南至攀枝花市118km距二滩水库湖面36km，较经西昌至泸沽湖的距离缩短了近89km。从区位条件上看，格萨拉生态旅游区不仅可成为攀西大裂谷风景区的旅游支撑中心，而且还可成为攀枝花至泸沽湖旅游精品线上的重要旅游支撑点。作为攀西大裂谷旅游区重要的组成部分，格萨拉生态旅游区拥有类型多样、特色鲜明、品位极高的自然生态旅游资源。同时该区域也是彝族聚居区，具有浓郁的彝族风情。生态旅游区内地形复杂，山高谷深，植被丰茂，生物多样性明显，野生动植物种类丰富，特别是万亩杜鹃、盘松竹林、高山草甸和彝族风情等巧妙组合，构成了一幅幅奇异的大裂谷风光画卷。再加上惊心动魄、千姿百态的地质奇观和天坑地漏群，幽静的原始森林以及彝族村寨、古老传说等人文资源，充分显现出格萨拉生态旅游区独具魅力的自然生态和人文生态旅游价值。"}}, {"title": "攀钢", "address": "攀枝花市东区向阳村", "image": "", "rank": 5, "time": 1.0, "location": {"lat": 26.557088216131557, "lng": 101.69819980543845}, "feature": {"sight_features": "", "sight_content": ""}}, {"title": "龙潭溶洞", "address": "攀枝花市米易县白马镇龙塘村", "image": "", "rank": 6, "time": 1.5, "location": {"lat": 27.029200627694255, "lng": 102.19858112688516}, "feature": {"sight_features": "", "sight_content": ""}}, {"title": "竹湖园公园", "address": "攀枝花市东区，攀枝花大道东段劳动大厦(近湖光剧场)", "image": "", "rank": 7, "time": 2, "location": {"lat": 26.584540129913094, "lng": 101.73013755946158}, "feature": {"sight_features": "", "sight_content": ""}}, {"title": "苏铁林", "address": "攀枝花市西区河门口北街98号", "image": "", "rank": 8, "time": 2.5, "location": {"lat": 26.61844524670459, "lng": 101.5958015040507}, "feature": {"sight_features": "", "sight_content": ""}}, {"title": "攀枝花红山高尔夫乡村俱乐部", "address": "攀枝花市盐边县红格镇红山国际社区", "image": "", "rank": 9, "time": 2, "location": {"lat": 26.527661196485244, "lng": 101.92628067207583}, "feature": {"sight_features": "", "sight_content": ""}}, {"title": "大黑山森林公园", "address": "攀枝花市仁和区务本乡", "image": "", "rank": 10, "time": 3.0, "location": {"lat": 26.68510299035187, "lng": 101.74863830067082}, "feature": {"sight_features": "", "sight_content": ""}}, {"title": "红格温泉宾馆", "address": "攀枝花市盐边县红格镇", "image": "", "rank": 11, "time": 2, "location": {"lat": 26.513057905358853, "lng": 101.92704681708233}, "feature": {"sight_features": "特色1 对人体具有较高的医疗保健功能 特色2 红格温泉是全国少有的氡气矿泉。 特色3 旅游观光、温泉养生 、度假休闲的理想胜地。", "sight_content": "大自然赋予这里独特的气候资源—属南亚热带气候，干湿分明、无霜期长、阳光明媚、气温宜人，年平均降水量873毫米，平均气温20.5℃。年日照时间为2700小时，常年气候温暖，日照充足，堪称“内陆的海南”、“四川的三亚”。是旅游观光、温泉养生 、度假休闲、会议培训的理想胜地。\n红格温泉为含偏硼酸、镭、氡、氟、硅、硫化氢、偏硅酸的复合型、弱碱性高温医疗矿泉水，以含特殊气体、多种医疗矿泉水成分、高温水、弱碱性和低矿化度五大要素为特征，尚含二氧化碳、溴、锶、锂等多种微量有益成分而闻名于世。井口水温高达57°c，富含60多种有益于人体健康的矿物质和微量元素，日本温泉规划专家赞誉“世界罕见的温泉”。\n温泉浴区设有荷塘苑泡池、vip池、垂柳苑生态泡池、象耳树露天泡池、木桶浴室、大型露天阳光浴场、游泳池、儿童互动戏水城堡等设施，配套有翠泉楼、象耳树贵宾楼、荷塘苑别墅、接待中心、会议中心、餐饮中心、康体中心、网球场、茶厅、停车场等住宿、餐饮、娱乐服务设施。适合各层次消费群体消费。"}}, {"title": "中国苴却砚博物馆", "address": "攀枝花市仁和镇沙沟村下沙沟组附近", "image": "", "rank": 12, "time": 2.0, "location": {"lat": 26.4830641154093, "lng": 101.75828275116524}, "feature": {"sight_features": "", "sight_content": ""}}, {"title": "普达.芒果乐园", "address": "攀枝花市普达阳光国际康养度假区芒果乐园", "image": "", "rank": 13, "time": 5.0, "location": {"lat": 26.496305872345523, "lng": 101.69183772375096}, "feature": {"sight_features": "", "sight_content": ""}}, {"title": "鑫岛欢乐世界", "address": "攀枝花市仁和区大河中路289号（鑫岛车站下即到）", "image": "", "rank": 14, "time": 2, "location": {"lat": 26.5263031613798, "lng": 101.72902091091642}, "feature": {"sight_features": "", "sight_content": ""}}, {"title": "长江国际漂流基地", "address": "攀枝花市，格里评镇金沙滩路", "image": "", "rank": 15, "time": 2, "location": {"lat": 26.597987005631325, "lng": 101.53895682392353}, "feature": {"sight_features": "", "sight_content": ""}}, {"title": "攀枝花花舞人间", "address": "攀枝花市东区机场路", "image": "", "rank": 16, "time": 2, "location": {"lat": 26.53059486481311, "lng": 101.76820478255368}, "feature": {"sight_features": "特色1 一个有着六百年历史的彝族村寨（凭有效证件免费参观）", "sight_content": "攀枝花花舞人间景区位于东区银江镇阿署达村，这是一个有着六百年历史的彝族村寨，景区主要以四季花果、运动健康、阳光休闲为主题，着力打造成国家4A级旅游风景区、国际避寒养生胜地。"}}, {"title": "中国三线建设博物馆", "address": "攀枝花市仁和区炳仁路", "image": "", "rank": 17, "time": 2, "location": {"lat": 26.528280526936758, "lng": 101.74351352433133}, "feature": {"sight_features": "", "sight_content": ""}}, {"title": "务本乡", "address": "攀枝花市仁和区零九零乡道", "image": "", "rank": 18, "time": 3.0, "location": {"lat": 26.504019493295285, "lng": 101.7444499629099}, "feature": {"sight_features": "", "sight_content": ""}}, {"title": "河门口公园", "address": "攀枝花市西区苏铁中路864号", "image": "", "rank": 19, "time": 2, "location": {"lat": 26.604299859132638, "lng": 101.60768968096242}, "feature": {"sight_features": "", "sight_content": ""}}, {"title": "隆厦公园", "address": "攀枝花市东区雅阁巷10号", "image": "", "rank": 20, "time": 4.5, "location": {"lat": 26.592833277442484, "lng": 101.74736025357473}, "feature": {"sight_features": "", "sight_content": ""}}, {"title": "普达阳光国际康养度假旅游区", "address": "攀枝花市仁和区前进镇普达村（迤沙拉大道与炳仁线交汇处）", "image": "", "rank": 21, "time": 2, "location": {"lat": 26.51208874914393, "lng": 101.7238662299865}, "feature": {"sight_features": "", "sight_content": ""}}, {"title": "白坡山自然保护区", "address": "攀枝花市，米易县白坡乡", "image": "", "rank": 22, "time": 2, "location": {"lat": 26.89696797612047, "lng": 102.11644043040211}, "feature": {"sight_features": "", "sight_content": ""}}, {"title": "宝鼎生态旅游区", "address": "攀枝花市仁和区太平乡", "image": "", "rank": 23, "time": 2, "location": {"lat": 26.547783307758774, "lng": 101.57626597508076}, "feature": {"sight_features": "", "sight_content": ""}}, {"title": "回龙洞", "address": "攀枝花市仁和区民政乡巴关河村一无名溪沟旁的半山腰上", "image": "", "rank": 24, "time": 2, "location": {"lat": 26.642305687377707, "lng": 101.60084506997887}, "feature": {"sight_features": "", "sight_content": ""}}, {"title": "下湾遗址", "address": "攀枝花市仁和区新生乡共和村东北约300米的大河、篦箩河汇合处二级台地上", "image": "", "rank": 25, "time": 2, "location": {"lat": 26.72239784578148, "lng": 101.54720816965727}, "feature": {"sight_features": "", "sight_content": ""}}, {"title": "欧方营地", "address": "攀枝花市盐边县二滩欧方营地", "image": "", "rank": 26, "time": 2, "location": {"lat": 26.763925394919937, "lng": 101.81939285803894}, "feature": {"sight_features": "", "sight_content": ""}}, {"title": "中国邮政(竹湖园店)", "address": "大道东段490号，竹湖园中国邮政，(竹湖园新视窗宾馆旁边)", "image": "", "rank": 27, "time": 2, "location": {"lat": 26.58404830652323, "lng": 101.73022358838362}, "feature": {"sight_features": "", "sight_content": ""}}, {"title": "攀枝花市金沙公园", "address": "江边街80", "image": "", "rank": 28, "time": 2, "location": {"lat": 26.559910842924715, "lng": 101.70696250619375}, "feature": {"sight_features": "", "sight_content": ""}}, {"title": "马鹿寨", "address": "攀枝花市米易县境内（二滩库区右岸）", "image": "", "rank": 29, "time": 2, "location": {"lat": 26.83299886983668, "lng": 101.77908986032989}, "feature": {"sight_features": "", "sight_content": ""}}, {"title": "龙潭清泉水世界", "address": "攀枝花市米易县S214", "image": "", "rank": 30, "time": 2, "location": {"lat": 26.89696797612047, "lng": 102.11644043040211}, "feature": {"sight_features": "", "sight_content": "在龙潭清泉水世界惊声尖叫，畅快玩水，全方位体验动感魅力，水世界环境优美，交通便捷，建筑独特，设施先进，停车宽敞。"}}, {"title": "撒莲镇", "address": "攀枝花市米易县敏垭路", "image": "", "rank": 31, "time": 2, "location": {"lat": 26.89696797612047, "lng": 102.11644043040211}, "feature": {"sight_features": "", "sight_content": ""}}, {"title": "米易观音温泉", "address": "攀枝花市米易县观音乡莲花塘", "image": "", "rank": 32, "time": 2, "location": {"lat": 26.99436785638902, "lng": 102.16924908945059}, "feature": {"sight_features": "", "sight_content": "米易观音温泉位于米易县观音乡莲花塘，中国医疗矿泉专家陈炎冰在《矿泉与疗养》一书中认为，温泉一般含有多种活性作用的微量元素，有一定的矿化度，泉水温度常高于30℃以上。温矿泉可对以下疾病具有医疗作用：肥胖症、运动系统疾病（如创伤、慢性风湿性关节炎等）、神经系统疾病（神经损伤、神经炎等），早期轻度心血管系统疾病、痛风、皮肤病等。"}}, {"title": "红格温泉山庄", "address": "攀枝花市盐边县310省道", "image": "", "rank": 33, "time": 2, "location": {"lat": 26.537549831842263, "lng": 101.99736599271908}, "feature": {"sight_features": "", "sight_content": ""}}, {"title": "红格温泉假日酒店碧水金辉温泉", "address": "红格镇红格温泉度假区内", "image": "", "rank": 34, "time": 2, "location": {"lat": 34.61201118507224, "lng": 118.68457877054712}, "feature": {"sight_features": "", "sight_content": ""}}, {"title": "二滩水电站", "address": "四川省雅砻江干流下游河段上（距攀枝花市约40km）", "image": "", "rank": 35, "time": 2, "location": {"lat": 26.993510739819072, "lng": 101.76819739309256}, "feature": {"sight_features": "", "sight_content": ""}}, {"title": "青龙洞", "address": "四川省攀枝花市盐边县江西乡苍蒲村", "image": "", "rank": 36, "time": 2.5, "location": {"lat": 26.976218495030903, "lng": 101.38250344932143}, "feature": {"sight_features": "", "sight_content": ""}}, {"title": "MFMS", "address": "肯德基背后奇丽整形楼上18楼16~1室", "image": "", "rank": 37, "time": 2, "location": {"lat": 22.325134800700056, "lng": 114.18044299484947}, "feature": {"sight_features": "", "sight_content": ""}}, {"title": "平江天主教堂", "address": "四川省攀枝花市西区格里坪镇", "image": "", "rank": 38, "time": 1.0, "location": {"lat": 26.632503415232154, "lng": 101.55818958530955}, "feature": {"sight_features": "", "sight_content": ""}}, {"title": "泰隆儿童乐园", "address": "泰隆大厦B1楼商场", "image": "", "rank": 39, "time": 2, "location": {"lat": 37.698624866867746, "lng": 112.75380365042642}, "feature": {"sight_features": "", "sight_content": ""}}, {"title": "阳光水艺", "address": "攀枝花大道博美华龙广场", "image": "", "rank": 40, "time": 2, "location": {"lat": 26.51724587779077, "lng": 101.7326076229351}, "feature": {"sight_features": "", "sight_content": ""}}, {"title": "仁和公园涌泉塔", "address": "仁和公园内", "image": "", "rank": 41, "time": 2, "location": {"lat": 22.442280039888217, "lng": 113.11176260655698}, "feature": {"sight_features": "", "sight_content": ""}}, {"title": "绿色饭庄", "address": "红格大道229号", "image": "", "rank": 42, "time": 2, "location": {"lat": 26.59341662525529, "lng": 101.84035936792307}, "feature": {"sight_features": "", "sight_content": ""}}, {"title": "快乐乡村农家乐", "address": "盐择路", "image": "", "rank": 43, "time": 2, "location": {"lat": 26.733720868636127, "lng": 101.72138776555985}, "feature": {"sight_features": "", "sight_content": ""}}, {"title": "红继山庄", "address": "盐择路", "image": "", "rank": 44, "time": 2, "location": {"lat": 26.733720868636127, "lng": 101.72138776555985}, "feature": {"sight_features": "", "sight_content": ""}}, {"title": "攀枝花市龙腾四海农牧业有限公司", "address": "红格镇新民2社益民乡", "image": "", "rank": 45, "time": 2, "location": {"lat": 42.00710932066467, "lng": 122.87539513741082}, "feature": {"sight_features": "", "sight_content": ""}}, {"title": "龙潭清泉度假村", "address": "攀莲镇观音村加油站对面", "image": "", "rank": 46, "time": 2, "location": {"lat": 26.977802197613375, "lng": 102.16576843856679}, "feature": {"sight_features": "", "sight_content": ""}}, {"title": "朴仁艺术书吧", "address": "攀枝花学院内，篮球场旁边", "image": "", "rank": 47, "time": 2, "location": {"lat": 26.58803317333301, "lng": 101.72554117091441}, "feature": {"sight_features": "", "sight_content": ""}}, {"title": "花景时光茶楼", "address": "炳草岗街道文青巷5号", "image": "", "rank": 48, "time": 2, "location": {"lat": 26.583374352305672, "lng": 101.72401113564827}, "feature": {"sight_features": "", "sight_content": ""}}, {"title": "芭蕉菁", "address": "四川省米易县丙谷镇 626700", "image": "", "rank": 49, "time": 2, "location": {"lat": 26.81897336933605, "lng": 102.07739458610132}, "feature": {"sight_features": "", "sight_content": ""}}, {"title": "重庆九龙鱼府米易店", "address": "城中街86号", "image": "", "rank": 50, "time": 1.5, "location": {"lat": 31.389690634573633, "lng": 121.25616605128687}, "feature": {"sight_features": "", "sight_content": ""}}, {"title": "平凡人家啤酒广场NO.51", "address": "攀枝花大道南段812", "image": "", "rank": 51, "time": 2, "location": {"lat": 26.5208400481865, "lng": 101.7260963398889}, "feature": {"sight_features": "", "sight_content": ""}}, {"title": "梅老坎啤酒广场", "address": "苏铁中路玉泉广场1楼", "image": "", "rank": 52, "time": 2, "location": {"lat": 26.60275914989582, "lng": 101.63690872593678}, "feature": {"sight_features": "", "sight_content": ""}}, {"title": "靓轩雪花啤酒广场", "address": "攀枝花东区雅阁巷10号", "image": "", "rank": 53, "time": 2, "location": {"lat": 26.592833277442484, "lng": 101.74736025357473}, "feature": {"sight_features": "", "sight_content": ""}}, {"title": "老街吞之呼", "address": "弄弄坪东路24号", "image": "", "rank": 54, "time": 2, "location": {"lat": 26.575197723978935, "lng": 101.70728976517904}, "feature": {"sight_features": "", "sight_content": ""}}, {"title": "东区凤凰花公园", "address": "枣子坪下街与枣子坪北街交叉口北50米", "image": "", "rank": 55, "time": 2, "location": {"lat": 26.580519477732146, "lng": 101.70384378888794}, "feature": {"sight_features": "", "sight_content": ""}}, {"title": "百盛儿童乐园", "address": "人民街289号曼哈顿广场百盛购物中心5楼", "image": "", "rank": 56, "time": 2, "location": {"lat": 26.583626437050953, "lng": 101.71640714479705}, "feature": {"sight_features": "", "sight_content": ""}}, {"title": "中国苴却砚文化主题公园", "address": "迤沙拉大道北200米", "image": "", "rank": 57, "time": 2, "location": {"lat": 26.51370519029126, "lng": 101.7238662299865}, "feature": {"sight_features": "", "sight_content": ""}}, {"title": "儿童乐园", "address": "炳草岗大街58", "image": "", "rank": 58, "time": 2, "location": {"lat": 26.587061589047313, "lng": 101.723060481385}, "feature": {"sight_features": "", "sight_content": ""}}, {"title": "卡啦娃(攀枝花店)", "address": "人民街百盛购物中心5楼", "image": "", "rank": 59, "time": 2, "location": {"lat": 39.977648316132594, "lng": 116.4414905985637}, "feature": {"sight_features": "", "sight_content": ""}}, {"title": "欢乐屋儿童乐园", "address": "攀枝花市东区", "image": "", "rank": 60, "time": 2, "location": {"lat": 26.58803317333301, "lng": 101.72554117091441}, "feature": {"sight_features": "", "sight_content": ""}}]}