{"cityName": "沛县", "days": 2, "cityImage": "", "spots": [{"title": "汉城景区", "address": "徐州市沛县", "image": "", "rank": 1, "time": 2.5, "location": {"lat": 34.76515195541547, "lng": 116.94258562390337}, "feature": {"sight_features": "", "sight_content": ""}}, {"title": "微山湖千岛湿地景区", "address": "徐州市沛县微山湖千岛湿地景区", "image": "", "rank": 2, "time": 3.5, "location": {"lat": 34.82489579174472, "lng": 116.98206587438881}, "feature": {"sight_features": "", "sight_content": ""}}, {"title": "歌风台", "address": "徐州市沛县汤沐路4号附近", "image": "", "rank": 3, "time": 2, "location": {"lat": 34.7362586584147, "lng": 116.93672480926463}, "feature": {"sight_features": "", "sight_content": ""}}, {"title": "泗水亭公园", "address": "徐州市沛县东风路168号", "image": "", "rank": 4, "time": 2, "location": {"lat": 34.74023435447147, "lng": 116.93003299196131}, "feature": {"sight_features": "", "sight_content": ""}}, {"title": "沛公园", "address": "徐州市沛县汉邦路北首", "image": "", "rank": 5, "time": 1.5, "location": {"lat": 34.76515195541547, "lng": 116.94258562390337}, "feature": {"sight_features": "", "sight_content": ""}}, {"title": "晓明楼", "address": "徐州市沛县", "image": "", "rank": 6, "time": 2, "location": {"lat": 34.76515195541547, "lng": 116.94258562390337}, "feature": {"sight_features": "", "sight_content": ""}}, {"title": "射戟台", "address": "沛城镇东环路58号", "image": "", "rank": 7, "time": 2, "location": {"lat": 34.74492917937918, "lng": 116.96157652102872}, "feature": {"sight_features": "", "sight_content": ""}}, {"title": "张庄童话海洋水上乐园", "address": "汉韵广场西侧", "image": "", "rank": 8, "time": 2, "location": {"lat": 34.52865181310151, "lng": 117.01562927034456}, "feature": {"sight_features": "", "sight_content": ""}}, {"title": "大风歌广场", "address": "韩信路", "image": "", "rank": 9, "time": 2, "location": {"lat": 33.51471447486502, "lng": 119.15423750473455}, "feature": {"sight_features": "", "sight_content": ""}}, {"title": "好人广场", "address": "迎宾大道", "image": "", "rank": 10, "time": 2, "location": {"lat": 40.09022363082665, "lng": 114.15469279026227}, "feature": {"sight_features": "", "sight_content": ""}}, {"title": "沛县樊哙肉狗产业化示范基地", "address": "321省道附近", "image": "", "rank": 11, "time": 2, "location": {"lat": 37.11728765273746, "lng": 114.47042757060345}, "feature": {"sight_features": "", "sight_content": ""}}, {"title": "沛县七彩田野生态园", "address": "012乡道与253省道交叉口西150米", "image": "", "rank": 12, "time": 2, "location": {"lat": 42.03943121264008, "lng": 117.37717289403135}, "feature": {"sight_features": "", "sight_content": ""}}, {"title": "徐州荷香园生态农庄", "address": "湖西农场丁坑", "image": "", "rank": 13, "time": 2, "location": {"lat": 34.727450080893526, "lng": 117.02464915597024}, "feature": {"sight_features": "", "sight_content": ""}}, {"title": "max潮品馆", "address": "中煤集团大屯煤电公司上海城院内北边(集团)", "image": "", "rank": 14, "time": 2, "location": {"lat": 34.82336233597194, "lng": 116.91551489181768}, "feature": {"sight_features": "", "sight_content": ""}}, {"title": "汉源汤泉", "address": "香城路南40", "image": "", "rank": 15, "time": 3.0, "location": {"lat": 22.785173326880976, "lng": 115.36994687195745}, "feature": {"sight_features": "", "sight_content": ""}}, {"title": "法治广场", "address": "新沛路23附近", "image": "", "rank": 16, "time": 2, "location": {"lat": 34.72353627842849, "lng": 116.94463115178692}, "feature": {"sight_features": "", "sight_content": ""}}, {"title": "威尼斯水上乐园", "address": "江苏省徐州市沛县正阳大道新汽车站南188米处", "image": "", "rank": 17, "time": 2, "location": {"lat": 34.7651345903658, "lng": 116.94760758828062}, "feature": {"sight_features": "", "sight_content": ""}}, {"title": "沛县张庄汉韵艺术团", "address": "253省道附近", "image": "", "rank": 18, "time": 2, "location": {"lat": 34.536208551793756, "lng": 117.01533238037351}, "feature": {"sight_features": "", "sight_content": ""}}, {"title": "敬安广场", "address": "江苏省徐州市沛县X307(钢城路)", "image": "", "rank": 19, "time": 2, "location": {"lat": 34.49441351075405, "lng": 116.93735174656139}, "feature": {"sight_features": "", "sight_content": ""}}, {"title": "汉城休闲广场", "address": "汉城路7号附近", "image": "", "rank": 20, "time": 2, "location": {"lat": 34.739026618801006, "lng": 116.94090612497276}, "feature": {"sight_features": "", "sight_content": ""}}, {"title": "昭阳湖休闲度假村", "address": "龙固新开发区", "image": "", "rank": 21, "time": 2, "location": {"lat": 22.68024436192944, "lng": 113.84283907747097}, "feature": {"sight_features": "", "sight_content": ""}}, {"title": "沛县关帝庙", "address": "江苏省徐州市沛县张寨镇司楼关帝寺路关帝庙", "image": "", "rank": 22, "time": 1.5, "location": {"lat": 34.61411984159034, "lng": 116.96476119911253}, "feature": {"sight_features": "", "sight_content": ""}}, {"title": "欢乐嘉年华体智能乐园", "address": "徐州市沛县", "image": "", "rank": 23, "time": 2, "location": {"lat": 34.76515195541547, "lng": 116.94258562390337}, "feature": {"sight_features": "", "sight_content": ""}}, {"title": "梦幻岛儿童乐园", "address": "江苏省徐州市沛县大屯街道沛敬线江南绿洲东门", "image": "", "rank": 24, "time": 2, "location": {"lat": 34.813046752656895, "lng": 116.908553358285}, "feature": {"sight_features": "", "sight_content": ""}}, {"title": "沛龙公园", "address": "江苏省徐州市沛县龙固镇253省道湖陵公园附近", "image": "", "rank": 25, "time": 2, "location": {"lat": 34.91233211721452, "lng": 116.82093401953732}, "feature": {"sight_features": "", "sight_content": ""}}, {"title": "侨城中央公园", "address": "江苏省徐州市沛县正阳大道", "image": "", "rank": 26, "time": 2, "location": {"lat": 34.7651345903658, "lng": 116.94760758828062}, "feature": {"sight_features": "", "sight_content": ""}}, {"title": "大屯镇人民政府人口文化广场", "address": "321省道附近", "image": "", "rank": 27, "time": 2, "location": {"lat": 37.11728765273746, "lng": 114.47042757060345}, "feature": {"sight_features": "", "sight_content": ""}}, {"title": "曹庄烈士陵园", "address": "江苏省徐州市沛县", "image": "", "rank": 28, "time": 2, "location": {"lat": 34.76515195541547, "lng": 116.94258562390337}, "feature": {"sight_features": "", "sight_content": ""}}, {"title": "沛县魏庙佛教居士林", "address": "201县道附近", "image": "", "rank": 29, "time": 2, "location": {"lat": 52.434100448246895, "lng": 125.2582118471889}, "feature": {"sight_features": "", "sight_content": ""}}, {"title": "江苏微山湖湖滨湿地公园", "address": "疏港路与龙湖大道交叉口北100米", "image": "", "rank": 30, "time": 2, "location": {"lat": 30.567812610818194, "lng": 104.20555403535275}, "feature": {"sight_features": "", "sight_content": ""}}, {"title": "沛县图书馆", "address": "沛城镇东风西路48号", "image": "", "rank": 31, "time": 1.5, "location": {"lat": 34.74120436167081, "lng": 116.93396676700989}, "feature": {"sight_features": "", "sight_content": ""}}, {"title": "怡园小区图书阅览室", "address": "汉源大道", "image": "", "rank": 32, "time": 2, "location": {"lat": 34.204307515825086, "lng": 117.29752998180525}, "feature": {"sight_features": "", "sight_content": ""}}, {"title": "山东工艺美术馆", "address": "长清区大学路山东工艺美院教学1号楼内", "image": "", "rank": 33, "time": 2, "location": {"lat": 36.561525461741816, "lng": 116.79924177940441}, "feature": {"sight_features": "", "sight_content": ""}}, {"title": "昭阳庄园", "address": "杨屯镇卞庄北昭阳湖畔昭阳庄园", "image": "", "rank": 34, "time": 2, "location": {"lat": 27.32614420605265, "lng": 103.71347042315112}, "feature": {"sight_features": "", "sight_content": ""}}, {"title": "沛县百盈龙鸭业专业合作社(二郎...", "address": "321省道沛县龙飞鸭养殖有限公司附近", "image": "", "rank": 35, "time": 2, "location": {"lat": 34.72324088243312, "lng": 116.82762829999433}, "feature": {"sight_features": "", "sight_content": ""}}, {"title": "沛县老干部冬枣种植基地", "address": "204县道附近", "image": "", "rank": 36, "time": 2, "location": {"lat": 32.59147570591893, "lng": 118.64926790806925}, "feature": {"sight_features": "", "sight_content": ""}}, {"title": "樱花万泉", "address": "鼓楼街东50米", "image": "", "rank": 37, "time": 2, "location": {"lat": 39.150996938926646, "lng": 117.18075578918871}, "feature": {"sight_features": "", "sight_content": ""}}, {"title": "珍钰水族馆", "address": "昭阳大道与华天路交叉口旁", "image": "", "rank": 38, "time": 2, "location": {"lat": 34.8768938997867, "lng": 116.9056940302874}, "feature": {"sight_features": "", "sight_content": ""}}, {"title": "沛县玉侠家庭农场", "address": "安国镇刘田寨村", "image": "", "rank": 39, "time": 2, "location": {"lat": 34.84529092522688, "lng": 116.78377263962415}, "feature": {"sight_features": "", "sight_content": ""}}, {"title": "尚舟屋", "address": "汉城南路17", "image": "", "rank": 40, "time": 2, "location": {"lat": 34.2600060215046, "lng": 108.87895784185167}, "feature": {"sight_features": "", "sight_content": ""}}, {"title": "祥和采摘园", "address": "253省道北50米", "image": "", "rank": 41, "time": null, "location": {"lat": 34.53658025969575, "lng": 117.01533238037351}, "feature": {"sight_features": "", "sight_content": ""}}, {"title": "沛县文学创作团", "address": "歌风路1号附近", "image": "", "rank": 42, "time": 2, "location": {"lat": 34.7272999749533, "lng": 116.94848800044315}, "feature": {"sight_features": "", "sight_content": ""}}, {"title": "沛县北京街", "address": "江苏省沛县汉城路", "image": "", "rank": 43, "time": 2, "location": {"lat": 34.731858384117835, "lng": 116.93803606402092}, "feature": {"sight_features": "", "sight_content": ""}}, {"title": "江苏省徐州市沛县汉街", "address": "江苏省沛县汉街", "image": "", "rank": 44, "time": 2, "location": {"lat": 34.74061327744106, "lng": 116.93644902947305}, "feature": {"sight_features": "", "sight_content": ""}}, {"title": "沛县城建展览馆", "address": "江苏省沛县汉邦路与沛公路交叉口", "image": "", "rank": 45, "time": 2, "location": {"lat": 34.76514424427997, "lng": 116.93737608614919}, "feature": {"sight_features": "", "sight_content": ""}}, {"title": "沛县上海街", "address": "江苏省沛县新庄路", "image": "", "rank": 46, "time": 2, "location": {"lat": 34.73809973045932, "lng": 116.94242910404961}, "feature": {"sight_features": "", "sight_content": ""}}, {"title": "沛县南京街", "address": "江苏省沛县新庄路", "image": "", "rank": 47, "time": 2, "location": {"lat": 34.73809973045932, "lng": 116.94242910404961}, "feature": {"sight_features": "", "sight_content": ""}}, {"title": "沛县温州街", "address": "江苏省沛县新庄路", "image": "", "rank": 48, "time": 2, "location": {"lat": 34.73809973045932, "lng": 116.94242910404961}, "feature": {"sight_features": "", "sight_content": ""}}, {"title": "前三里庙", "address": "徐州市-沛县-二零四县道", "image": "", "rank": 49, "time": 2, "location": {"lat": 34.76515195541547, "lng": 116.94258562390337}, "feature": {"sight_features": "", "sight_content": ""}}, {"title": "后三里庙", "address": "徐州市-沛县", "image": "", "rank": 50, "time": 2, "location": {"lat": 34.76515195541547, "lng": 116.94258562390337}, "feature": {"sight_features": "", "sight_content": ""}}]}