{"cityName": "澎湖", "days": "", "cityImage": "", "spots": [{"title": "澎湖国家风景区", "address": "台湾澎湖县马公市光华里171号", "image": "", "rank": 1, "time": 7.5, "location": {"lat": 23.553888320459862, "lng": 119.62479752637174}, "feature": {"sight_features": "", "sight_content": ""}}, {"title": "双心石沪", "address": "台湾澎湖县七美乡东北端", "image": "", "rank": 2, "time": 1.0, "location": {"lat": 23.207440569142022, "lng": 119.44301103270128}, "feature": {"sight_features": "", "sight_content": ""}}, {"title": "通梁古榕", "address": "台湾澎湖县白沙乡通梁村68-1号", "image": "", "rank": 3, "time": 1.0, "location": {"lat": 23.746107378216422, "lng": 119.62087524963499}, "feature": {"sight_features": "", "sight_content": ""}}, {"title": "南海", "address": "台湾澎湖县马公市新营路25号", "image": "", "rank": 4, "time": 0.75, "location": {"lat": 23.553888320459862, "lng": 119.62479752637174}, "feature": {"sight_features": "", "sight_content": ""}}, {"title": "马公", "address": "880台湾澎湖县马公市", "image": "", "rank": 5, "time": 1.5, "location": {"lat": 23.553888320459862, "lng": 119.62479752637174}, "feature": {"sight_features": "", "sight_content": ""}}, {"title": "澎湖小台湾", "address": "台湾澎湖县七美乡七美屿东部", "image": "", "rank": 6, "time": 0.75, "location": {"lat": 23.207440569142022, "lng": 119.44301103270128}, "feature": {"sight_features": "", "sight_content": ""}}, {"title": "吉贝屿", "address": "台湾澎湖县白沙乡", "image": "", "rank": 7, "time": 1.0, "location": {"lat": 23.746107378216422, "lng": 119.62087524963499}, "feature": {"sight_features": "", "sight_content": ""}}, {"title": "七美岛", "address": "台湾澎湖列岛(最南端)", "image": "", "rank": 8, "time": 4.0, "location": {"lat": 24.086956718804895, "lng": 121.97387097871568}, "feature": {"sight_features": "", "sight_content": ""}}, {"title": "四眼井", "address": "880台湾澎湖县马公市中央街40号", "image": "", "rank": 9, "time": 1.5, "location": {"lat": 23.553888320459862, "lng": 119.62479752637174}, "feature": {"sight_features": "", "sight_content": ""}}, {"title": "澎湖天后宫", "address": "台湾澎湖县马公市正义街19号", "image": "", "rank": 10, "time": 1.5, "location": {"lat": 23.553888320459862, "lng": 119.62479752637174}, "feature": {"sight_features": "", "sight_content": ""}}, {"title": "山水沙滩", "address": "880台湾澎湖縣馬公市", "image": "", "rank": 11, "time": null, "location": {"lat": 24.086956718804895, "lng": 121.97387097871568}, "feature": {"sight_features": "", "sight_content": ""}}, {"title": "澎湖跨海大桥", "address": "884台湾澎湖县白沙乡跨海大桥", "image": "", "rank": 12, "time": 1.5, "location": {"lat": 23.746107378216422, "lng": 119.62087524963499}, "feature": {"sight_features": "", "sight_content": ""}}, {"title": "白沙", "address": "884台湾澎湖县白沙乡203县道", "image": "", "rank": 13, "time": 1.5, "location": {"lat": 23.746107378216422, "lng": 119.62087524963499}, "feature": {"sight_features": "", "sight_content": ""}}, {"title": "二坎古厝", "address": "881台湾澎湖县西屿乡二崁村", "image": "", "rank": 14, "time": 1.5, "location": {"lat": 23.60820232631298, "lng": 119.52381160648261}, "feature": {"sight_features": "", "sight_content": ""}}, {"title": "笃行十村", "address": "澎湖县马公市新复路二巷22号", "image": "", "rank": 15, "time": 1.5, "location": {"lat": 31.097760916677235, "lng": 117.9520226285217}, "feature": {"sight_features": "", "sight_content": ""}}, {"title": "渔翁岛灯塔", "address": "881台湾澎湖县西屿乡195号", "image": "", "rank": 16, "time": 1.5, "location": {"lat": 23.60820232631298, "lng": 119.52381160648261}, "feature": {"sight_features": "", "sight_content": ""}}, {"title": "西屿古堡", "address": "台湾澎湖县西屿乡", "image": "", "rank": 17, "time": 1.0, "location": {"lat": 23.60820232631298, "lng": 119.52381160648261}, "feature": {"sight_features": "", "sight_content": ""}}, {"title": "通粱古榕", "address": "884台湾澎湖县白沙乡通梁村", "image": "", "rank": 18, "time": null, "location": {"lat": 23.746107378216422, "lng": 119.62087524963499}, "feature": {"sight_features": "", "sight_content": ""}}, {"title": "员贝屿", "address": "884台湾澎湖县白沙乡员贝村 （位于白沙乡岐头村东方）", "image": "", "rank": 19, "time": 4.5, "location": {"lat": 23.746107378216422, "lng": 119.62087524963499}, "feature": {"sight_features": "", "sight_content": ""}}, {"title": "中社古厝", "address": "882台湾澎湖县望安乡", "image": "", "rank": 20, "time": 1.5, "location": {"lat": 23.378482526074954, "lng": 119.51335622057067}, "feature": {"sight_features": "", "sight_content": ""}}, {"title": "东北海岸", "address": "884台湾澎湖县白沙乡", "image": "", "rank": 21, "time": 1.5, "location": {"lat": 23.746107378216422, "lng": 119.62087524963499}, "feature": {"sight_features": "", "sight_content": ""}}, {"title": "澎湖开拓馆", "address": "880台湾澎湖县马公市治平路30号", "image": "", "rank": 22, "time": 1.5, "location": {"lat": 23.553888320459862, "lng": 119.62479752637174}, "feature": {"sight_features": "", "sight_content": ""}}, {"title": "大果叶玄武岩柱", "address": "台湾澎湖县西屿乡池东村10号", "image": "", "rank": 23, "time": 1.5, "location": {"lat": 23.60820232631298, "lng": 119.52381160648261}, "feature": {"sight_features": "", "sight_content": ""}}, {"title": "目斗屿", "address": "台湾澎湖县白沙乡", "image": "", "rank": 24, "time": 1.0, "location": {"lat": 23.746107378216422, "lng": 119.62087524963499}, "feature": {"sight_features": "", "sight_content": ""}}, {"title": "顺承门", "address": "台湾澎湖县马公市中山路80号", "image": "", "rank": 25, "time": 1.0, "location": {"lat": 23.98487399040968, "lng": 121.61584350526923}, "feature": {"sight_features": "", "sight_content": ""}}, {"title": "西屿灯塔", "address": "881台湾澎湖县西屿乡195号", "image": "", "rank": 26, "time": 1.5, "location": {"lat": 23.60820232631298, "lng": 119.52381160648261}, "feature": {"sight_features": "", "sight_content": ""}}, {"title": "望安岛", "address": "台湾澎湖县望安乡", "image": "", "rank": 27, "time": 2, "location": {"lat": 23.378482526074954, "lng": 119.51335622057067}, "feature": {"sight_features": "", "sight_content": ""}}, {"title": "澎湖水族馆", "address": "台湾澎湖县白沙乡", "image": "", "rank": 28, "time": 1.0, "location": {"lat": 23.746107378216422, "lng": 119.62087524963499}, "feature": {"sight_features": "", "sight_content": ""}}, {"title": "奎壁山摩西分海", "address": "885台灣澎湖縣湖西鄉澎14鄉道", "image": "", "rank": 29, "time": 2, "location": {"lat": 31.262054980735144, "lng": 120.62576954707853}, "feature": {"sight_features": "", "sight_content": ""}}, {"title": "观音亭", "address": "台湾澎湖县马公镇(西海岸)", "image": "", "rank": 30, "time": 1.0, "location": {"lat": 24.086956718804895, "lng": 121.97387097871568}, "feature": {"sight_features": "", "sight_content": ""}}, {"title": "澎湖海事水产图书馆", "address": "台湾澎湖县马公市民族路63号", "image": "", "rank": 31, "time": 4.0, "location": {"lat": 23.553888320459862, "lng": 119.62479752637174}, "feature": {"sight_features": "", "sight_content": ""}}, {"title": "张雨生故事馆", "address": "澎湖县马公市新复路2巷22号", "image": "", "rank": 32, "time": 2, "location": {"lat": 31.097760916677235, "lng": 117.9520226285217}, "feature": {"sight_features": "", "sight_content": ""}}, {"title": "中央街", "address": "880台湾澎湖县马公市中央街", "image": "", "rank": 33, "time": null, "location": {"lat": 23.553888320459862, "lng": 119.62479752637174}, "feature": {"sight_features": "", "sight_content": ""}}, {"title": "果叶", "address": "台湾澎湖县湖西乡", "image": "", "rank": 34, "time": 1.5, "location": {"lat": 23.583543640736465, "lng": 119.65774169697264}, "feature": {"sight_features": "", "sight_content": ""}}, {"title": "桶盘屿", "address": "台湾澎湖县马公市", "image": "", "rank": 35, "time": 2, "location": {"lat": 23.553888320459862, "lng": 119.62479752637174}, "feature": {"sight_features": "", "sight_content": ""}}, {"title": "鲸鱼洞", "address": "澎湖县西屿乡北端的小门屿上", "image": "", "rank": 36, "time": 2, "location": {"lat": 30.87532711771733, "lng": 121.13156576447413}, "feature": {"sight_features": "", "sight_content": ""}}, {"title": "大义宫", "address": "台湾澎湖县西屿乡76号", "image": "", "rank": 37, "time": 2, "location": {"lat": 23.60820232631298, "lng": 119.52381160648261}, "feature": {"sight_features": "", "sight_content": ""}}, {"title": "安宅周王庙", "address": "台湾澎湖县马公市安宅里8号", "image": "", "rank": 38, "time": 2, "location": {"lat": 23.553888320459862, "lng": 119.62479752637174}, "feature": {"sight_features": "", "sight_content": ""}}, {"title": "温王殿", "address": "澎湖县马公市风柜里1号", "image": "", "rank": 39, "time": 2, "location": {"lat": 30.87532711771733, "lng": 121.13156576447413}, "feature": {"sight_features": "", "sight_content": ""}}, {"title": "隘门沙滩", "address": "澎湖马公市马公航空站附近", "image": "", "rank": 40, "time": 2, "location": {"lat": 23.553888320459862, "lng": 119.62479752637174}, "feature": {"sight_features": "", "sight_content": ""}}, {"title": "澎湖白沙中屯绿能源公园", "address": "台湾澎湖县白沙乡中屯村永安桥旁", "image": "", "rank": 41, "time": 4.0, "location": {"lat": 23.746107378216422, "lng": 119.62087524963499}, "feature": {"sight_features": "", "sight_content": ""}}, {"title": "西屿岛", "address": "台湾澎湖县西屿乡", "image": "", "rank": 42, "time": 2, "location": {"lat": 23.60820232631298, "lng": 119.52381160648261}, "feature": {"sight_features": "", "sight_content": ""}}, {"title": "分岔仔", "address": "澎湖县七美乡东岸", "image": "", "rank": 43, "time": 2, "location": {"lat": 30.87532711771733, "lng": 121.13156576447413}, "feature": {"sight_features": "", "sight_content": ""}}, {"title": "Penghu Sea-Crossing Bridge", "address": "通梁村 白沙鄉, 台中市 Taiwan", "image": "", "rank": 44, "time": 2, "location": {"lat": 19.231378733012683, "lng": 109.45747066911305}, "feature": {"sight_features": "", "sight_content": ""}}, {"title": "Penghu Living Museum", "address": "新生路327號 Magong, Taiwan, 澎湖縣 880 Taiwan", "image": "", "rank": 45, "time": 2, "location": {"lat": 40.97716265140264, "lng": 117.94719291499817}, "feature": {"sight_features": "", "sight_content": ""}}, {"title": "萬軍井", "address": "中央街1巷11號 Magong, Taiwan, 澎湖縣 880 Taiwan", "image": "", "rank": 46, "time": 2, "location": {"lat": 47.19172176305136, "lng": 133.58387180333696}, "feature": {"sight_features": "", "sight_content": ""}}, {"title": "馬公風櫃尾荷蘭城堡", "address": "澎湖县風櫃西段2地號", "image": "", "rank": 47, "time": 2, "location": {"lat": 30.87532711771733, "lng": 121.13156576447413}, "feature": {"sight_features": "", "sight_content": ""}}, {"title": "东台古堡", "address": "澎湖县西屿乡 881", "image": "", "rank": 48, "time": null, "location": {"lat": 23.60820232631298, "lng": 119.52381160648261}, "feature": {"sight_features": "", "sight_content": ""}}, {"title": "外埯饵砲", "address": "澎湖县西屿乡 881", "image": "", "rank": 49, "time": 2, "location": {"lat": 23.60820232631298, "lng": 119.52381160648261}, "feature": {"sight_features": "", "sight_content": ""}}, {"title": "望安绿蠵龟保育中心", "address": "澎湖县望安乡东埯村1-4号 882", "image": "", "rank": 50, "time": 2, "location": {"lat": 24.624033992143787, "lng": 118.56845516033937}, "feature": {"sight_features": "", "sight_content": ""}}, {"title": "海洋途径潜水", "address": "澎湖县马公市山水里珠江140-10号 880", "image": "", "rank": 51, "time": 2, "location": {"lat": 32.05712546870462, "lng": 118.79149223842808}, "feature": {"sight_features": "", "sight_content": ""}}, {"title": "Yuwengdao Lighthouse Siyu Ligh...", "address": "澎湖县西屿乡外埯村", "image": "", "rank": 52, "time": 2, "location": {"lat": 30.87532711771733, "lng": 121.13156576447413}, "feature": {"sight_features": "", "sight_content": ""}}, {"title": "Guanyin Ting Bikeway", "address": "澎湖县Magong City", "image": "", "rank": 53, "time": 2, "location": {"lat": 30.87532711771733, "lng": 121.13156576447413}, "feature": {"sight_features": "", "sight_content": ""}}, {"title": "Beizhen Market", "address": "澎湖县No.20 Beizheng Street, Magong City 880", "image": "", "rank": 54, "time": 2, "location": {"lat": 30.87532711771733, "lng": 121.13156576447413}, "feature": {"sight_features": "", "sight_content": ""}}, {"title": "Wenkang Shopping Area", "address": "澎湖县Wenkang Street, Magong City 880", "image": "", "rank": 55, "time": 2, "location": {"lat": 30.87532711771733, "lng": 121.13156576447413}, "feature": {"sight_features": "", "sight_content": ""}}, {"title": "Qingluoshazhui Wetlands", "address": "澎湖县Qingluo Village, Huxi Town 885", "image": "", "rank": 56, "time": 2, "location": {"lat": 30.87532711771733, "lng": 121.13156576447413}, "feature": {"sight_features": "", "sight_content": ""}}, {"title": "Chixiyanpu", "address": "澎湖县Chixi Village, Xiyu Township 881", "image": "", "rank": 57, "time": 2, "location": {"lat": 30.87532711771733, "lng": 121.13156576447413}, "feature": {"sight_features": "", "sight_content": ""}}, {"title": "Suogang Ziwei Temlpe", "address": "澎湖县No.593 Suogangli, Magong City 880", "image": "", "rank": 58, "time": 2, "location": {"lat": 30.87532711771733, "lng": 121.13156576447413}, "feature": {"sight_features": "", "sight_content": ""}}, {"title": "虎井屿", "address": "澎湖县马公市虎井里 880", "image": "", "rank": 59, "time": 2, "location": {"lat": 30.87532711771733, "lng": 121.13156576447413}, "feature": {"sight_features": "", "sight_content": ""}}, {"title": "龙门后湾沙滩", "address": "澎湖县湖西乡龙门村 885", "image": "", "rank": 60, "time": 3.5, "location": {"lat": 32.19717105556706, "lng": 119.37682770718715}, "feature": {"sight_features": "", "sight_content": ""}}]}