{"cityName": "蓬安", "days": 2, "cityImage": "", "spots": [{"title": "嘉陵第一桑梓", "address": "南充市蓬安县相如镇", "image": "", "rank": 1, "time": 4.5, "location": {"lat": 31.036647268521577, "lng": 106.41770391430103}, "feature": {"sight_features": "", "sight_content": ""}}, {"title": "周子古镇", "address": "南充市蓬安县", "image": "", "rank": 2, "time": 2.5, "location": {"lat": 31.034630778270895, "lng": 106.41848194209304}, "feature": {"sight_features": "", "sight_content": ""}}, {"title": "龙角山", "address": "南充市蓬安新县城，西北部", "image": "", "rank": 3, "time": 2, "location": {"lat": 31.034630778270895, "lng": 106.41848194209304}, "feature": {"sight_features": "", "sight_content": ""}}, {"title": "新政离堆", "address": "仪陇新政，乘舟顺江南南去，约行1. 5公里", "image": "", "rank": 4, "time": 2, "location": {"lat": 31.277597359981243, "lng": 106.30943016843716}, "feature": {"sight_features": "", "sight_content": ""}}, {"title": "百牛渡江", "address": "四川省南充市蓬安县", "image": "", "rank": 5, "time": 2, "location": {"lat": 31.034630778270895, "lng": 106.41848194209304}, "feature": {"sight_features": "", "sight_content": ""}}, {"title": "长寿庄园钓鱼休闲度假区", "address": "三元贯村", "image": "", "rank": 6, "time": 12.0, "location": {"lat": 31.146101639636207, "lng": 106.33048891454135}, "feature": {"sight_features": "", "sight_content": ""}}, {"title": "蓬安乐乐生态园", "address": "相如镇油坊沟村百牛渡江景点下游", "image": "", "rank": 7, "time": 2, "location": {"lat": 31.020379597009395, "lng": 106.35784783920415}, "feature": {"sight_features": "", "sight_content": ""}}, {"title": "蓬安县图书馆", "address": "城东路2号", "image": "", "rank": 8, "time": 2, "location": {"lat": 31.050792355208184, "lng": 121.77089823999725}, "feature": {"sight_features": "", "sight_content": ""}}, {"title": "临江阁", "address": "相如镇油坊沟村二社", "image": "", "rank": 9, "time": 2, "location": {"lat": 31.017871916584557, "lng": 106.3535034684697}, "feature": {"sight_features": "", "sight_content": ""}}, {"title": "金马太极地", "address": "四川省成都市温江区金马乡 611130", "image": "", "rank": 10, "time": 2, "location": {"lat": 30.68848683662664, "lng": 103.86357306318057}, "feature": {"sight_features": "", "sight_content": ""}}, {"title": "邓家祠堂", "address": "南充市蓬安县二零三省道", "image": "", "rank": 11, "time": 2, "location": {"lat": 31.034630778270895, "lng": 106.41848194209304}, "feature": {"sight_features": "", "sight_content": ""}}, {"title": "石油广场", "address": "南充市蓬安县建设南路221号", "image": "", "rank": 12, "time": 2, "location": {"lat": 31.02873466914191, "lng": 106.42412861192703}, "feature": {"sight_features": "", "sight_content": ""}}, {"title": "儿童娱乐天地", "address": "向阳街与紫荆街交叉口东南100米", "image": "", "rank": 13, "time": 2, "location": {"lat": 31.196386235431532, "lng": 106.43666833746468}, "feature": {"sight_features": "", "sight_content": ""}}, {"title": "英特纳科农度假村", "address": "203省道附近", "image": "", "rank": 14, "time": 2, "location": {"lat": 38.70057735317822, "lng": 114.30841754306506}, "feature": {"sight_features": "", "sight_content": ""}}, {"title": "画圣广场", "address": "龙角山附近", "image": "", "rank": 15, "time": 2, "location": {"lat": 24.790202810361038, "lng": 106.570123098906}, "feature": {"sight_features": "", "sight_content": ""}}, {"title": "桑梓文化广场", "address": "安汉大道北段西50米", "image": "", "rank": 16, "time": 2, "location": {"lat": 31.009846551665717, "lng": 106.43441893645073}, "feature": {"sight_features": "", "sight_content": ""}}, {"title": "长寿度假休闲山庄", "address": "石梁乡三元贯村", "image": "", "rank": 17, "time": 2, "location": {"lat": 31.146101639636207, "lng": 106.33048891454135}, "feature": {"sight_features": "", "sight_content": ""}}, {"title": "锦屏古镇", "address": "四川省蓬安县城西锦屏镇", "image": "", "rank": 18, "time": 2, "location": {"lat": 31.07635811092827, "lng": 106.37269549170719}, "feature": {"sight_features": "", "sight_content": ""}}, {"title": "小乐山摩崖造像", "address": "四川省蓬安县城南9.25公里原河舒区", "image": "", "rank": 19, "time": 2, "location": {"lat": 31.034630778270895, "lng": 106.41848194209304}, "feature": {"sight_features": "", "sight_content": ""}}, {"title": "司马相如故里", "address": "203省道", "image": "", "rank": 20, "time": 2, "location": {"lat": 38.70057735317822, "lng": 114.30841754306506}, "feature": {"sight_features": "", "sight_content": ""}}]}