{"cityName": "彭泽", "days": 2, "cityImage": "", "spots": [{"title": "龙宫洞风景区", "address": "九江市彭泽县西南乌龙山麓", "image": "", "rank": 1, "time": 4.5, "location": {"lat": 29.90212200490592, "lng": 116.55550980643851}, "feature": {"sight_features": "特色1 国家“AAAA”级景区 特色2 整个景区青山环绕，绿水长流，鸟语花香，鹿影常现 特色3 龙宫洞长达约2700米，洞中有大量石钟乳、石幔、石笋等", "sight_content": "龙宫洞风景区由溶洞群（龙宫洞、玉壶洞、玉仙洞）、仙真岩庙宇、森林公园和情人谷漂流等部分组成。龙宫洞全长1600米，在古生代寒武纪时期，这座独特的喀斯特溶洞就被大自然逐渐溶塑成一座规模宏大、气派非凡的地下艺术宫殿。洞内四季恒温18摄氏度，小桥流水，钟乳倒悬，石笋擎天，姿态万千让人目不睱接，酷似古典小说《西游记》中描绘的东海龙宫，令您叹为观止。玉壶洞由水、旱两洞组成，旱洞500米，水洞700米，洞内流水潺潺，波光倒影，乘舟畅游，别有一番情趣。宽敞明亮的玉壶大厅曾多次举办过全国性的篮球赛，被评为世界吉尼斯之最。\n如果您持火把进行一次浪漫、刺激的玉仙洞火把探险之旅，鼓足勇气在黑暗中沿着蜿蜒曲折的道路去探寻，那巨大的云帆和雪白如玉的龙宫雪山都将带给您莫大的惊喜。当您从弥勒佛大袖中走出，拾阶而上便来到仙真岩，岩外悬崖峭壁，古树参天，竹影婆娑；岩内有始建于公元227年的千年古刹——龙仙寺，晨钟暮鼓、梵音绕耳、香烟袅袅，倘若您到此一游，千万不要忘记试一试古刹仙气之灵验。"}}, {"title": "马当炮台", "address": "九江市彭泽县马当镇", "image": "", "rank": 2, "time": 2, "location": {"lat": 29.905897955268, "lng": 116.5624440485492}, "feature": {"sight_features": "", "sight_content": ""}}, {"title": "国家级桃红岭梅花鹿保护区", "address": "九江市彭泽县黄岭乡三坂村", "image": "", "rank": 3, "time": 2, "location": {"lat": 29.780566531877362, "lng": 116.5825897218925}, "feature": {"sight_features": "", "sight_content": ""}}, {"title": "双峰尖", "address": "九江市彭泽县裕中路", "image": "", "rank": 4, "time": 2, "location": {"lat": 29.893722469853735, "lng": 116.5568690325052}, "feature": {"sight_features": "", "sight_content": ""}}, {"title": "龙宫洞情人谷漂流", "address": "天红镇212省道东50米", "image": "", "rank": 5, "time": 2, "location": {"lat": 40.390563512510504, "lng": 116.26089463002387}, "feature": {"sight_features": "", "sight_content": ""}}, {"title": "龙城尊宴", "address": "东风路66号", "image": "", "rank": 6, "time": 2, "location": {"lat": 35.6176057341347, "lng": 111.36855485392645}, "feature": {"sight_features": "", "sight_content": ""}}, {"title": "曹家祠堂", "address": "九江市彭泽县", "image": "", "rank": 7, "time": 1.5, "location": {"lat": 29.90212200490592, "lng": 116.55550980643851}, "feature": {"sight_features": "", "sight_content": ""}}, {"title": "创世纪儿童乐园", "address": "九江市彭泽县渊明路180号", "image": "", "rank": 8, "time": 2, "location": {"lat": 29.883032721149217, "lng": 116.54724737202154}, "feature": {"sight_features": "", "sight_content": ""}}, {"title": "糖心水上乐园", "address": "江西省九江市彭泽县浪溪镇", "image": "", "rank": 9, "time": 2, "location": {"lat": 29.918978258152134, "lng": 116.73452851393527}, "feature": {"sight_features": "", "sight_content": ""}}, {"title": "香格里拉休闲广场", "address": "双峰路47号附近", "image": "", "rank": 10, "time": 1.0, "location": {"lat": 29.729753798156736, "lng": 115.99818071442604}, "feature": {"sight_features": "", "sight_content": ""}}, {"title": "宗林禅寺", "address": "邓家山附近", "image": "", "rank": 11, "time": 2, "location": {"lat": 35.641046092404416, "lng": 112.1274932316608}, "feature": {"sight_features": "", "sight_content": ""}}, {"title": "佛应禅寺", "address": "彭泽县工业园区", "image": "", "rank": 12, "time": 2, "location": {"lat": 29.90212200490592, "lng": 116.55550980643851}, "feature": {"sight_features": "", "sight_content": ""}}, {"title": "黄花新区广场", "address": "江西省九江市彭泽县", "image": "", "rank": 13, "time": 2, "location": {"lat": 29.90212200490592, "lng": 116.55550980643851}, "feature": {"sight_features": "", "sight_content": ""}}, {"title": "搁排洲自然村图书室", "address": "301省道", "image": "", "rank": 14, "time": 2, "location": {"lat": 38.13474737719127, "lng": 114.42863974573754}, "feature": {"sight_features": "", "sight_content": ""}}, {"title": "光彩画廊", "address": "龙城大道962号", "image": "", "rank": 15, "time": 2, "location": {"lat": 29.898943370385894, "lng": 116.56154641946357}, "feature": {"sight_features": "", "sight_content": ""}}, {"title": "彭泽县剧院", "address": "东风路145号", "image": "", "rank": 16, "time": 2, "location": {"lat": 42.682111718740735, "lng": 125.54457894245166}, "feature": {"sight_features": "", "sight_content": ""}}, {"title": "都昌县图书馆", "address": "解放路28号", "image": "", "rank": 17, "time": 2, "location": {"lat": 39.61973616436596, "lng": 118.2087242678505}, "feature": {"sight_features": "", "sight_content": ""}}, {"title": "彭泽县文化馆", "address": "东风路44号", "image": "", "rank": 18, "time": 2, "location": {"lat": 35.617558744227125, "lng": 111.36798279860481}, "feature": {"sight_features": "", "sight_content": ""}}, {"title": "金白沙杨梅种植家庭农场", "address": "太平关乡白沙村内", "image": "", "rank": 19, "time": 2, "location": {"lat": 29.733546711151845, "lng": 116.4921807708711}, "feature": {"sight_features": "", "sight_content": ""}}, {"title": "浪荡矶", "address": "江西省贵溪市天门山", "image": "", "rank": 20, "time": 2, "location": {"lat": 27.926750075044687, "lng": 117.24034336022346}, "feature": {"sight_features": "", "sight_content": ""}}, {"title": "江西桃红岭", "address": "江西省彭泽县龙城镇龙青路", "image": "", "rank": 21, "time": 2, "location": {"lat": 29.903299306546103, "lng": 116.55404382125352}, "feature": {"sight_features": "", "sight_content": ""}}]}