{"cityName": "偏关", "days": 2, "cityImage": "", "spots": [{"title": "老营堡", "address": "忻州市偏关县304省道", "image": "", "rank": 1, "time": 1.0, "location": {"lat": 39.54766448161599, "lng": 111.49242083886617}, "feature": {"sight_features": "", "sight_content": ""}}, {"title": "老牛湾老冯农家乐客栈", "address": "山西省忻州市偏关县038乡道", "image": "", "rank": 2, "time": 2, "location": {"lat": 39.44223009038652, "lng": 111.51447352049172}, "feature": {"sight_features": "", "sight_content": ""}}, {"title": "老牛湾黄河农家", "address": "万家寨镇老牛湾村", "image": "", "rank": 3, "time": 2, "location": {"lat": 39.64409759773484, "lng": 111.4490228615601}, "feature": {"sight_features": "", "sight_content": ""}}, {"title": "寺沟渡口", "address": "山西省寺沟渡口", "image": "", "rank": 4, "time": 2, "location": {"lat": 38.216058754759956, "lng": 112.51514254411207}, "feature": {"sight_features": "", "sight_content": ""}}, {"title": "桦林堡", "address": "山西省忻州偏关县桦林堡村", "image": "", "rank": 5, "time": 2, "location": {"lat": 39.46250727687243, "lng": 111.39570745847465}, "feature": {"sight_features": "", "sight_content": ""}}, {"title": "老李农庄", "address": "万家寨镇河畔圪梁", "image": "", "rank": 6, "time": 2, "location": {"lat": 39.61210499076425, "lng": 111.46749077509888}, "feature": {"sight_features": "", "sight_content": ""}}, {"title": "文笔塔", "address": "凌霄路与文笔大街交叉口东150米", "image": "", "rank": 7, "time": 0.5, "location": {"lat": 39.441754076290295, "lng": 111.51617341724555}, "feature": {"sight_features": "", "sight_content": ""}}, {"title": "如家农庄", "address": "老牛湾村(近郭二龙农家乐)", "image": "", "rank": 8, "time": 2, "location": {"lat": 40.11745212368053, "lng": 116.25731479273605}, "feature": {"sight_features": "", "sight_content": ""}}, {"title": "老牛湾食全食美农家院", "address": "陕西省太原忻州市偏关县万家寨镇老牛湾村", "image": "", "rank": 9, "time": 2, "location": {"lat": 39.589940306447446, "lng": 111.52322489721064}, "feature": {"sight_features": "", "sight_content": ""}}, {"title": "偏关县普渡寺", "address": "山西省忻州市偏关县S249", "image": "", "rank": 10, "time": 2, "location": {"lat": 39.44223009038652, "lng": 111.51447352049172}, "feature": {"sight_features": "", "sight_content": ""}}, {"title": "图书馆", "address": "304省道", "image": "", "rank": 11, "time": 1.0, "location": {"lat": 38.007414201086036, "lng": 114.44892402313616}, "feature": {"sight_features": "", "sight_content": ""}}, {"title": "张三驴牛羊农家乐", "address": "304省道附近", "image": "", "rank": 12, "time": 2, "location": {"lat": 38.007414201086036, "lng": 114.44892402313616}, "feature": {"sight_features": "", "sight_content": ""}}, {"title": "百味佳肴农家乐", "address": "038乡道附近", "image": "", "rank": 13, "time": 2, "location": {"lat": 32.373686813320546, "lng": 119.3274975511577}, "feature": {"sight_features": "", "sight_content": ""}}, {"title": "忻州迤西洞", "address": "山西省偏关县楼沟乡迤西村", "image": "", "rank": 14, "time": 7.5, "location": {"lat": 39.3233113228634, "lng": 111.58769957595145}, "feature": {"sight_features": "", "sight_content": ""}}]}