{"cityName": "平舆", "days": 2, "cityImage": "", "spots": [{"title": "上河城", "address": "驻马店市平舆县境内", "image": "", "rank": 1, "time": 2, "location": {"lat": 32.96798240043784, "lng": 114.62542865923078}, "feature": {"sight_features": "", "sight_content": ""}}, {"title": "平舆县档案馆", "address": "清河大道2号", "image": "", "rank": 2, "time": 2, "location": {"lat": 32.96800613481616, "lng": 114.62584044696808}, "feature": {"sight_features": "", "sight_content": ""}}, {"title": "平舆县城关基督教会", "address": "古槐中心幼儿园附近", "image": "", "rank": 3, "time": 7.5, "location": {"lat": 32.95431418539065, "lng": 114.64816522084108}, "feature": {"sight_features": "", "sight_content": ""}}, {"title": "人民公园体能乐园", "address": "人民路人民公园", "image": "", "rank": 4, "time": 2, "location": {"lat": 36.912833646662925, "lng": 114.89404806386213}, "feature": {"sight_features": "", "sight_content": ""}}, {"title": "农民专业合作社", "address": "十字路乡十字路小学向南10米", "image": "", "rank": 5, "time": 2, "location": {"lat": 33.14382505572929, "lng": 114.67122221162002}, "feature": {"sight_features": "", "sight_content": ""}}, {"title": "温泉名酒行", "address": "清河大道温泉大酒店南侧", "image": "", "rank": 6, "time": 2, "location": {"lat": 32.97022534965275, "lng": 114.62759296017056}, "feature": {"sight_features": "", "sight_content": ""}}, {"title": "四季春", "address": "清河南路218", "image": "", "rank": 7, "time": 2, "location": {"lat": 32.96354111907233, "lng": 114.62993200039644}, "feature": {"sight_features": "", "sight_content": ""}}, {"title": "家齐合作社", "address": "高杨店镇王阁村", "image": "", "rank": 8, "time": 2, "location": {"lat": 33.00995783185338, "lng": 114.78792306747305}, "feature": {"sight_features": "", "sight_content": ""}}, {"title": "考拉大冒险儿童乐园", "address": "建设街与西塔寺街交叉口东南50米", "image": "", "rank": 9, "time": 2, "location": {"lat": 32.961189706213716, "lng": 114.64297594975751}, "feature": {"sight_features": "", "sight_content": ""}}, {"title": "舆兴乐园", "address": "河南省驻马店市平舆县茨园路圆通速递东南50米", "image": "", "rank": 10, "time": 2, "location": {"lat": 32.968658594913954, "lng": 114.62927296754211}, "feature": {"sight_features": "", "sight_content": ""}}, {"title": "平舆城市之心水上乐园", "address": "太任公园南100米左拐", "image": "", "rank": 11, "time": 2, "location": {"lat": 32.94891295134486, "lng": 114.62828995811067}, "feature": {"sight_features": "", "sight_content": ""}}, {"title": "月旦评游乐园", "address": "清河南路东100米", "image": "", "rank": 12, "time": 2, "location": {"lat": 35.99508943986226, "lng": 106.29816364678187}, "feature": {"sight_features": "", "sight_content": ""}}, {"title": "小勇士训练营(平舆店)", "address": "其他德磬路上河城东方迪斯尼内南侧", "image": "", "rank": 13, "time": 2, "location": {"lat": 32.96681538783645, "lng": 114.61914539845985}, "feature": {"sight_features": "", "sight_content": ""}}, {"title": "古槐镇基督教会", "address": "河南省平舆县广播电视局附近", "image": "", "rank": 14, "time": 2, "location": {"lat": 32.956750672136394, "lng": 114.64601880965554}, "feature": {"sight_features": "", "sight_content": ""}}, {"title": "奚仲公园", "address": "人民路", "image": "", "rank": 15, "time": 2, "location": {"lat": 23.37490057686854, "lng": 103.40661159663834}, "feature": {"sight_features": "", "sight_content": ""}}, {"title": "万和园", "address": "平舆五中附近", "image": "", "rank": 16, "time": 2, "location": {"lat": 32.9709993153089, "lng": 114.65535669543176}, "feature": {"sight_features": "", "sight_content": ""}}, {"title": "太任公园", "address": "清河大道与草河北路交叉口南150米", "image": "", "rank": 17, "time": 2, "location": {"lat": 32.94943488955766, "lng": 114.62706898844795}, "feature": {"sight_features": "", "sight_content": ""}}, {"title": "科迪食文化广场(平舆001店)", "address": "健康路与泰和路交叉口西150米", "image": "", "rank": 18, "time": 2, "location": {"lat": 32.957216125941564, "lng": 114.62953349949593}, "feature": {"sight_features": "", "sight_content": ""}}, {"title": "舆新乐园", "address": "解放街西段", "image": "", "rank": 19, "time": 2, "location": {"lat": 42.26573348259214, "lng": 118.96192844081958}, "feature": {"sight_features": "", "sight_content": ""}}, {"title": "清河春天生态园", "address": "政通路万金店乡政府往北", "image": "", "rank": 20, "time": 2, "location": {"lat": 32.883014949437076, "lng": 114.70378281835531}, "feature": {"sight_features": "", "sight_content": ""}}, {"title": "温泉水上乐园", "address": "德馨路与工业路交叉口向南300米路东(上河城迪斯尼乐园北门正对面)", "image": "", "rank": 21, "time": 2, "location": {"lat": 22.530405878799574, "lng": 113.92740043781095}, "feature": {"sight_features": "", "sight_content": ""}}, {"title": "三温暖温泉会馆", "address": "槐树街与解放街交口向北50米", "image": "", "rank": 22, "time": 2, "location": {"lat": 32.964708553308334, "lng": 114.64017310002394}, "feature": {"sight_features": "", "sight_content": ""}}, {"title": "二王楼农场", "address": "古槐街道办事处", "image": "", "rank": 23, "time": 2, "location": {"lat": 35.420594294848364, "lng": 116.58685972493662}, "feature": {"sight_features": "", "sight_content": ""}}, {"title": "小铁道酵子馍", "address": "陈蕃路60附近", "image": "", "rank": 24, "time": 2, "location": {"lat": 32.9670474463035, "lng": 114.64348810067791}, "feature": {"sight_features": "", "sight_content": ""}}, {"title": "东皇步行街", "address": "河南省平舆县东皇步行街", "image": "", "rank": 25, "time": 2, "location": {"lat": 32.95975218758194, "lng": 114.64805291199131}, "feature": {"sight_features": "", "sight_content": ""}}]}