{"cityName": "屏东", "days": "3", "cityImage": "", "spots": [{"title": "垦丁国家公园", "address": "台湾屏东县恒春镇", "image": "", "rank": 1, "time": 6.0, "location": {"lat": 26.10705674357276, "lng": 119.30846756124312}, "feature": {"sight_features": "", "sight_content": ""}}, {"title": "台湾海洋生物博物馆", "address": "屏东县车城乡后湾村后湾路2号", "image": "", "rank": 2, "time": 2.0, "location": {"lat": 31.60068253784665, "lng": 120.72933527017139}, "feature": {"sight_features": "特色1 【景点详情】携程暑期独家夜宿位~白鲸区！ 特色2 限时优惠！提前预订享早鸟价，两大一小省35元起！ 特色3 《爸爸回来了》同款，和美丽的海底精灵一起沉沉睡去，做个甜梦！", "sight_content": "❀ 场馆介绍 ❀\n*夜间就寝时刻，为模拟实际自然环境，各展缸皆会熄灯\n\n【珊瑚王国馆】：包含海底隧道、白鲸隧道、甲板区三个区域。\n【世界水域馆】：包含极地水域、海藻森林、鲨鱼区三个区域。\n\n\n【台湾水域馆】：海生馆最早开放的展示空间，透过小水滴的旅行意象，学习台湾从山到海的生态环境改变，选择此区您将更加认识台湾自然之美，多方位的就寝选择，亲近台湾了解我们生活的海岛。\n❀ Q&A ❀\n1、如果于活动中途离馆访亲或至垦丁逛街可以吗?\n--A 您需在离馆前告知活动解说员，完备相关作业流程后可离馆活动；并请您回馆前与本馆当日值班主管连系，以便安排您回馆相关程序。若活动次日需要提早离馆，也可与离馆前告知执行活动解说员，我们会先行将夜宿海生馆纪念礼品赠送给您，若有任何疑问，随时与现场解说员反应。\n\n\n2、夜宿当天提早入馆是否需另行购票?\n--A 夜宿海生馆活动已包含活动当日及第二天日的门票，若您提早抵达可迳至游客中心服务台报到，先行入馆参观直到夜宿活动集合时间；隔日亦可自由参观至当日闭馆为止。\n\n\n3、夜宿海生馆行李放置位置是否足够?\n--A 海生馆夜宿行李放置区，单一木柜可容纳28吋行李箱，若行李箱大于28吋，亦可使用夜宿专用行李房，此行李房足以容纳数十名参与者之行李箱。\n★您可能需要：\n\n\n1、高雄↔垦丁拼车接驳【指定地点上车】\n75元起/人▶▶▶点击查看详情\n\n\n2、高雄↔垦丁拼车接驳【酒店民俗接送】\n86元起/人▶▶▶点击查看详情"}}, {"title": "鹅銮鼻公园", "address": "屏东县恒春镇鹅銮里鹅銮路301号", "image": "", "rank": 3, "time": 2.0, "location": {"lat": 21.909290004627895, "lng": 120.86105146347577}, "feature": {"sight_features": "", "sight_content": ""}}, {"title": "小琉球", "address": "台湾屏东琉球乡", "image": "", "rank": 4, "time": 1.0, "location": {"lat": 22.34233235373826, "lng": 120.38193484442712}, "feature": {"sight_features": "", "sight_content": ""}}, {"title": "龙磐公园", "address": "台湾屏东县恒春镇台26线946号", "image": "", "rank": 5, "time": 2.0, "location": {"lat": 26.10705674357276, "lng": 119.30846756124312}, "feature": {"sight_features": "", "sight_content": ""}}, {"title": "垦丁白沙湾海滩", "address": "屏东县恒春镇白砂路", "image": "", "rank": 6, "time": 1.5, "location": {"lat": 26.10705674357276, "lng": 119.30846756124312}, "feature": {"sight_features": "", "sight_content": ""}}, {"title": "猫鼻头公园", "address": "台湾屏东县恒春镇下泉路100号", "image": "", "rank": 7, "time": 2.5, "location": {"lat": 26.10705674357276, "lng": 119.30846756124312}, "feature": {"sight_features": "", "sight_content": ""}}, {"title": "恒春古城", "address": "台湾屏东县恒春镇恒东路259-2号", "image": "", "rank": 8, "time": 1.5, "location": {"lat": 26.10705674357276, "lng": 119.30846756124312}, "feature": {"sight_features": "", "sight_content": ""}}, {"title": "砂岛生态保护区", "address": "屏东县恒春镇鹅銮里砂岛路221号", "image": "", "rank": 9, "time": 1.5, "location": {"lat": 36.038402018795715, "lng": 120.21515634423139}, "feature": {"sight_features": "", "sight_content": ""}}, {"title": "出火特别景观区", "address": "台湾屏东恒春", "image": "", "rank": 10, "time": 1.0, "location": {"lat": 26.10705674357276, "lng": 119.30846756124312}, "feature": {"sight_features": "", "sight_content": ""}}, {"title": "大鹏湾国家风景区", "address": "台湾屏东县东港镇大潭路169号", "image": "", "rank": 11, "time": 1.0, "location": {"lat": 26.10705674357276, "lng": 119.30846756124312}, "feature": {"sight_features": "", "sight_content": ""}}, {"title": "佳乐水风景区", "address": "屏东县满洲乡满州村中山路43号", "image": "", "rank": 12, "time": 2.0, "location": {"lat": 26.101568040334776, "lng": 119.30686305158657}, "feature": {"sight_features": "", "sight_content": ""}}, {"title": "关山福德宫", "address": "屏东县恒春镇山海里槟榔路17-1号", "image": "", "rank": 13, "time": 1.0, "location": {"lat": 24.491158020748042, "lng": 118.12447503097953}, "feature": {"sight_features": "", "sight_content": ""}}, {"title": "东港东隆宫", "address": "台湾屏东县东港镇东隆街21-1号", "image": "", "rank": 14, "time": 1.0, "location": {"lat": 26.10705674357276, "lng": 119.30846756124312}, "feature": {"sight_features": "", "sight_content": ""}}, {"title": "后湾", "address": "944台湾屏东县车城乡 ‎", "image": "", "rank": 15, "time": 2.0, "location": {"lat": 26.10705674357276, "lng": 119.30846756124312}, "feature": {"sight_features": "", "sight_content": ""}}, {"title": "福安宫", "address": "944台湾屏东县车城乡福安路51号 ‎", "image": "", "rank": 16, "time": 2, "location": {"lat": 26.10705674357276, "lng": 119.30846756124312}, "feature": {"sight_features": "", "sight_content": ""}}, {"title": "万金圣母圣殿", "address": "台湾屏东县万峦乡万兴路24号", "image": "", "rank": 17, "time": 1.0, "location": {"lat": 26.10705674357276, "lng": 119.30846756124312}, "feature": {"sight_features": "", "sight_content": ""}}, {"title": "万里桐", "address": "屏东县恒春镇万里桐", "image": "", "rank": 18, "time": 1.0, "location": {"lat": 26.10705674357276, "lng": 119.30846756124312}, "feature": {"sight_features": "", "sight_content": ""}}, {"title": "鹅銮鼻灯塔", "address": "屏东县恒春镇鹅銮里灯塔路90号", "image": "", "rank": 19, "time": 1.0, "location": {"lat": 21.247380983387785, "lng": 110.4613829507845}, "feature": {"sight_features": "", "sight_content": ""}}, {"title": "六堆客家文化园区", "address": "912台湾屏东县内埔乡信义路588号", "image": "", "rank": 20, "time": 2.5, "location": {"lat": 22.761007864632674, "lng": 113.71017459524064}, "feature": {"sight_features": "", "sight_content": ""}}, {"title": "佳乐水冲浪沙滩", "address": "屏东县满州乡茶山路上", "image": "", "rank": 21, "time": 2.5, "location": {"lat": 26.10705674357276, "lng": 119.30846756124312}, "feature": {"sight_features": "", "sight_content": ""}}, {"title": "凉山瀑布", "address": "903台湾屏东县玛家乡凉山村", "image": "", "rank": 22, "time": 1.5, "location": {"lat": 26.10705674357276, "lng": 119.30846756124312}, "feature": {"sight_features": "", "sight_content": ""}}, {"title": "大鹏湾环湾自行车道", "address": "台湾屏东县东港镇大鹏里大潭路169号", "image": "", "rank": 23, "time": 1.5, "location": {"lat": 26.10705674357276, "lng": 119.30846756124312}, "feature": {"sight_features": "", "sight_content": ""}}, {"title": "屏东科技大学", "address": "台湾屏东县内埔乡老埤村学府路1号", "image": "", "rank": 24, "time": 1.0, "location": {"lat": 26.10705674357276, "lng": 119.30846756124312}, "feature": {"sight_features": "", "sight_content": ""}}, {"title": "东港镇", "address": "台湾屏东东港镇中正路", "image": "", "rank": 25, "time": 1.5, "location": {"lat": 22.4688615051557, "lng": 120.48384074683621}, "feature": {"sight_features": "特色1 东港镇是个奇妙的地方，海鲜是这里的特色，转角都能遇到惊喜。", "sight_content": "东港镇位于台湾屏东县西部中段沿海，北临新园乡、崁顶乡，东邻南州乡，西南隔台湾海峡与琉球乡相望，南接林边乡，是南台湾知名渔港，拥有得天独厚的黑鲔鱼产业资源。此外，3年一次的“王船祭”也是东港镇的特色活动，宛如一座东港文化的小小缩影。"}}, {"title": "阿信巧克力农场", "address": "屏东县恒春镇万里路10-8号946", "image": "", "rank": 26, "time": 1.5, "location": {"lat": 31.3913765179875, "lng": 120.62201134135036}, "feature": {"sight_features": "", "sight_content": ""}}, {"title": "茂林国家风景区", "address": "台湾屏东县三地门乡赛嘉巷120号", "image": "", "rank": 27, "time": 1.5, "location": {"lat": 22.790154133563913, "lng": 120.68855135392698}, "feature": {"sight_features": "", "sight_content": ""}}, {"title": "垦丁大街", "address": "台湾屏東縣恆春鎮墾丁路", "image": "", "rank": 28, "time": 2.5, "location": {"lat": 24.086956718804895, "lng": 121.97387097871568}, "feature": {"sight_features": "特色1 垦丁最热闹的街道之一，聚集各式各样的民宿、餐厅、小店、租车行。", "sight_content": "垦丁大街是垦丁国家公园内热闹的商店街，不到2公里的街区，夕阳下，闲适小街泛着橙色金光，酒吧霓虹开始闪耀，一路上众多酒吧、舞场和小吃摊，你可以站在路边小酌一杯，街上还有许多PUB，表演者会来到街上秀一段绝技，每次都会引起路人骚动，相当特別。"}}, {"title": "船帆石", "address": "屏东县恒春镇船帆路600号海岸珊瑚礁前缘", "image": "", "rank": 29, "time": 1.5, "location": {"lat": 21.936739500624956, "lng": 120.83462650436552}, "feature": {"sight_features": "", "sight_content": ""}}, {"title": "南湾游憩区", "address": "台湾屏东县恒春镇南湾里南湾路223号", "image": "", "rank": 30, "time": 2.0, "location": {"lat": 21.96427549141387, "lng": 120.77346610136635}, "feature": {"sight_features": "", "sight_content": ""}}, {"title": "后壁湖渔港", "address": "台湾后壁湖渔港", "image": "", "rank": 31, "time": 2.0, "location": {"lat": 24.086956718804895, "lng": 121.97387097871568}, "feature": {"sight_features": "", "sight_content": ""}}, {"title": "关山风景区", "address": "台湾屏东县恒春镇‎", "image": "", "rank": 32, "time": 2.0, "location": {"lat": 26.10705674357276, "lng": 119.30846756124312}, "feature": {"sight_features": "", "sight_content": ""}}, {"title": "龙坑生态保护区", "address": "屏东县恒春镇鹅銮里鹅銮路50号", "image": "", "rank": 33, "time": 2.0, "location": {"lat": 21.909290004627895, "lng": 120.86105146347577}, "feature": {"sight_features": "", "sight_content": ""}}, {"title": "风吹沙", "address": "946台湾屏东县恒春镇佳鹅公路", "image": "", "rank": 34, "time": 1.0, "location": {"lat": 26.10705674357276, "lng": 119.30846756124312}, "feature": {"sight_features": "", "sight_content": ""}}, {"title": "阿嘉的家", "address": "台湾屏东县恒春镇光明路90号", "image": "", "rank": 35, "time": null, "location": {"lat": 26.10705674357276, "lng": 119.30846756124312}, "feature": {"sight_features": "", "sight_content": ""}}, {"title": "垦丁海水浴场", "address": "屏东县恒春镇垦丁路451号", "image": "", "rank": 36, "time": 3.0, "location": {"lat": 21.948782969048473, "lng": 120.8080215248311}, "feature": {"sight_features": "", "sight_content": ""}}, {"title": "垦丁牧场", "address": "台湾屏东县恒春镇牧场路1号", "image": "", "rank": 37, "time": 2.0, "location": {"lat": 26.10705674357276, "lng": 119.30846756124312}, "feature": {"sight_features": "", "sight_content": ""}}, {"title": "小湾海水浴场", "address": "屏东县恆春镇垦丁路附近", "image": "", "rank": 38, "time": 2.0, "location": {"lat": 33.91338585709025, "lng": 118.26146050462789}, "feature": {"sight_features": "", "sight_content": ""}}, {"title": "港口吊桥", "address": "947台湾屏东县满州乡茶山吊桥", "image": "", "rank": 39, "time": 1.5, "location": {"lat": 26.10705674357276, "lng": 119.30846756124312}, "feature": {"sight_features": "", "sight_content": ""}}, {"title": "四重溪温泉", "address": "屏东县车城乡", "image": "", "rank": 40, "time": 2, "location": {"lat": 26.10705674357276, "lng": 119.30846756124312}, "feature": {"sight_features": "", "sight_content": ""}}, {"title": "社顶自然公园", "address": "屏东县恒春镇垦丁里社兴路186-1号 (垦丁牌楼往森林游乐区方向后)", "image": "", "rank": 41, "time": 2.0, "location": {"lat": 25.111809653052394, "lng": 117.04686782870156}, "feature": {"sight_features": "", "sight_content": ""}}, {"title": "恒春老街", "address": "屏东县恒春镇福德路中山路", "image": "", "rank": 42, "time": 1.5, "location": {"lat": 26.10705674357276, "lng": 119.30846756124312}, "feature": {"sight_features": "", "sight_content": ""}}, {"title": "龙銮潭", "address": "台湾屏东县恒春镇草潭路250巷86号", "image": "", "rank": 43, "time": 2.0, "location": {"lat": 26.10705674357276, "lng": 119.30846756124312}, "feature": {"sight_features": "", "sight_content": ""}}, {"title": "台湾最南点", "address": "台湾屏东县恒春镇最南点", "image": "", "rank": 44, "time": 0.75, "location": {"lat": 26.10705674357276, "lng": 119.30846756124312}, "feature": {"sight_features": "", "sight_content": ""}}, {"title": "出水口", "address": "龙鼓滩海旁路", "image": "", "rank": 45, "time": 2, "location": {"lat": 22.402751086677764, "lng": 113.92958721704878}, "feature": {"sight_features": "", "sight_content": ""}}, {"title": "垦丁国家森林游乐区", "address": "屏东县恒春镇公园路201号", "image": "", "rank": 46, "time": 1.5, "location": {"lat": 26.10705674357276, "lng": 119.30846756124312}, "feature": {"sight_features": "", "sight_content": ""}}, {"title": "砂岛贝壳砂展示馆", "address": "屏东县恒春镇鹅銮里砂岛路221号", "image": "", "rank": 47, "time": 1.5, "location": {"lat": 36.038402018795715, "lng": 120.21515634423139}, "feature": {"sight_features": "", "sight_content": ""}}, {"title": "垦丁南湾冲浪体验", "address": "屏东县恒春镇南湾里南湾路南湾游憩区", "image": "", "rank": 48, "time": 6.0, "location": {"lat": 22.214189584352077, "lng": 113.53417663315585}, "feature": {"sight_features": "", "sight_content": ""}}, {"title": "白榕园", "address": "947台湾屏东县满州乡茶山吊橋旁", "image": "", "rank": 49, "time": 2.0, "location": {"lat": 26.10705674357276, "lng": 119.30846756124312}, "feature": {"sight_features": "", "sight_content": ""}}, {"title": "垦丁PADI潜水课程", "address": "恒春镇大光路118-5号", "image": "", "rank": 50, "time": 6.0, "location": {"lat": 32.03231156477752, "lng": 118.81188493860682}, "feature": {"sight_features": "", "sight_content": ""}}, {"title": "垦丁后壁湖潜水体验", "address": "屏东县恒春镇大光里大光路", "image": "", "rank": 51, "time": null, "location": {"lat": 32.03217774809703, "lng": 118.81404378593385}, "feature": {"sight_features": "", "sight_content": ""}}, {"title": "红柴坑", "address": "屏东县恒春镇恒春海岸公路", "image": "", "rank": 52, "time": 1.0, "location": {"lat": 26.10705674357276, "lng": 119.30846756124312}, "feature": {"sight_features": "", "sight_content": ""}}, {"title": "垦丁亲吻石", "address": "屏东县恆春镇灯塔路90号", "image": "", "rank": 53, "time": 6.0, "location": {"lat": 21.247380983387785, "lng": 110.4613829507845}, "feature": {"sight_features": "", "sight_content": ""}}, {"title": "香蕉湾生态保护区", "address": "946台湾屏东恒春", "image": "", "rank": 54, "time": 2.5, "location": {"lat": 26.10705674357276, "lng": 119.30846756124312}, "feature": {"sight_features": "", "sight_content": ""}}, {"title": "垦丁后壁湖帆船出海", "address": "屏东县恒春镇大光路79-41号后壁湖游艇码头", "image": "", "rank": 55, "time": 6.0, "location": {"lat": 32.03125782362271, "lng": 118.81328338020103}, "feature": {"sight_features": "", "sight_content": ""}}, {"title": "后壁湖海鲜市场（后壁湖渔会）", "address": "屏东县恒春镇砂尾路", "image": "", "rank": 56, "time": 2, "location": {"lat": 21.95493148937226, "lng": 120.73661396223885}, "feature": {"sight_features": "", "sight_content": ""}}, {"title": "大湾沙滩", "address": "台湾屏东县恒春镇大湾路附近沙滩", "image": "", "rank": 57, "time": 2, "location": {"lat": 21.948562972979744, "lng": 120.80662200976231}, "feature": {"sight_features": "", "sight_content": ""}}, {"title": "大尖山", "address": "946台湾屏东县恒春镇", "image": "", "rank": 58, "time": 2.5, "location": {"lat": 26.10705674357276, "lng": 119.30846756124312}, "feature": {"sight_features": "", "sight_content": ""}}, {"title": "青蛙石", "address": "屏东县恒春镇垦丁路17号", "image": "", "rank": 59, "time": 0.75, "location": {"lat": 21.94498599810615, "lng": 120.81577803358502}, "feature": {"sight_features": "", "sight_content": ""}}, {"title": "垦丁青年活动中心", "address": "屏东县恒春镇垦丁路17号", "image": "", "rank": 60, "time": 2.0, "location": {"lat": 21.94498599810615, "lng": 120.81577803358502}, "feature": {"sight_features": "", "sight_content": ""}}]}