{"cityName": "平遥", "days": 2, "cityImage": "", "spots": [{"title": "平遥古城", "address": "晋中市平遥县照壁南街58号", "image": "", "rank": 1, "time": 1.5, "location": {"lat": 37.211523063924005, "lng": 112.19106177975233}, "feature": {"sight_features": "特色1 我国保存较为完好的四大古城之一。 特色2 平遥票号日升昌，是中国现代银行的开衫鼻祖 特色3 游览原汁原味古城，感受浓郁的晋商文化气息", "sight_content": "平遥古城，位于山西中部平遥县，是一座具有2700多年历史的文化名城，与同为第二批国家历史文化名城的四川阆中、云南丽江、安徽歙县并称为“保存最为完好的四大古城”，也是中国仅有的以整座古城申报世界文化遗产获得成功的两座古县城之一（另一座为丽江古城）。\n平遥古城是中国境内保存最为完整的一座古代县城之一，是中国汉民族城市在明清时期的杰出范例，在中国历史的发展中，为人们展示了一幅非同寻常的文化、社会、经济及宗教发展的完整画卷。\n平遥旧称“古陶”，明朝初年，为防御外族南扰，始建城墙，洪武三年（公元1370年）在旧墙垣基础上重筑扩修，并全面包砖。以后景泰、正德、嘉靖、隆庆和万历各代进行过十次的补修和修葺，更新城楼，增设敌台。康熙四十三年（公元1703年）因皇帝西巡路经平遥，而筑了四面大城楼，使城池更加壮观。平遥城墙总周长6163米，墙高约12米，把面积约2.25平方公里的平遥县城一隔为两个风格迥异的世界。城墙以内街道、铺面、市楼保留明清形制；城墙以外称新城。这是一座古代与现代建筑各成一体、交相辉映、令人遐思不已的佳地。2009年，平遥古城荣膺世界纪录协会中国现存最完整的古代县城之一，再获殊荣。\n八小街和七十二条蚰蜒巷，名称各有由来，有的得名于附近的建筑或醒目标志，例如衙门街、书院街、校场巷、贺兰桥巷、旗杆街、三眼井街、照壁南街、小察院巷等；有的得名于祠庙，例如文庙街、城隍庙街、罗汉庙街、火神庙街、关帝庙街、真武庙街、五道庙街等；有的得名于当地的大户，例如赵举人街、雷家院街、宋梦槐巷、阎家巷、冀家巷、郭家巷、范家街、邵家巷、马家巷等；古城东北角有一座相对封闭的城中之城，类似于古代城市中的坊，附近的四条街道也就被命名为东壁景堡、中壁景堡、西壁景堡和堡外街；还有一些街巷则已经无法探究名称来历了，例如仁义街、甜水巷、豆芽街 、葫芦肚巷等。\n\n\n平遥古城民居，以砖墙瓦顶的木结构四合院为主，布局严谨，左右对称，尊卑有序。大家族则修建二进、三进院落甚至更大的院群，院落之间多用装饰华丽的垂花门分隔。民居院内大多装饰精美，进门通常建有砖雕照壁，檐下梁枋有木雕雀替，柱础、门柱、石鼓多用石雕装饰。\n民间有句俗语：“平遥古城十大怪”，其中一条是“房子半边盖。”平遥民居之所以大多为单坡内落水，流传最广的说法称之为“四水归堂”或“肥水不流外人田”，山西地处干旱，且风沙较大，将房屋建成单坡，能增加房屋临街外墙的高度，而临街又不开窗户，则能够有效地抵御风沙和提高安全系数。而院内紧凑的布局则显示对外排斥，对内凝聚的民族性格。\n平遥夜景人称平遥有三宝，古城墙便是其一。平遥县城墙。明洪武三年(1370年)建，周长6.4公里，是山西现存历史较早、规模较大的一座城城墙。一宝古城墙即平遥县城墙。明洪武三年(1370年)建，周长6.4公里，是山西现存历史较早、规模最大的一座城城墙之一。明、清两代都有补修，但基本上还是明初的形制和构造。二宝镇国寺出古城北门，它是古城的第二宝。该寺的万佛殿建于五代(公元10世纪)时期，目前是中国排名第三位的古老木结构建筑，距今已有1000余年的历史。殿内的五代时期彩塑更是不可多得的雕塑艺术珍品。三宝双林寺位于古城西南。该寺修建于北齐武平二年(公元571年)。寺内10余座大殿内保存有元代至明代(公元13～17世纪)的彩塑造像2000余尊，被人们誉为“彩塑艺术的宝库”。\n1986年平遥县为第二批中国历史文化名城，平遥古城是中国四大古城之一。\n1997年12月，中国仅有的以整座古城申报世界文化遗产获得成功的两座古县城之一（另一座为丽江古城）。\n山西省平遥古城获得“华夏第一古城”的荣誉称号。\n2007年11月19日，平遥古城获得由中国旅游论坛组委会授予的“中国休闲旅游县”、“中国十大古城”荣誉称号。\n2009年平遥古城荣膺世界纪录协会中国现存最完整的古代县城之一，美国《纽约时报》评选出2011年全球最值得旅游的41个地方，中国仅有杭州和平遥榜上有名。\n2013年11月6日，2014年全球百大优价旅游目的地排行榜正式发布，平遥古城高居前十名，位列世界第八名。\n2013年11月12日，第四届中国最令人向往的地方”评选活动中，被中国旅游电视协会授予20家“中国最令人向往的地方”之一。\n中国适宜旅游目的地、魅力城镇、资源节约型及环境友好型景区、中国美丽十大古城、国际精品文化旅游县、全国低碳旅游示范县等荣誉称号，并入围“中国十大完美旅游线路”。\n平遥古城—世界文化遗产，是一座历史文化名城，人文历史，“三分靠看，七分靠听”建议您买古城门票后考虑带解说，可以让您更好的认识平遥，了解平遥！"}}, {"title": "平遥古城墙", "address": "晋中市平遥县照壁南街58号平遥古城内", "image": "", "rank": 2, "time": 3.0, "location": {"lat": 37.211523063924005, "lng": 112.19106177975233}, "feature": {"sight_features": "特色1 平遥古城墙是国内保存最好的古县城城墙，距今已经有六百多年的历史。 特色2 是中国现存完好的四座古城墙之一。 特色3 游览原汁原味古城，感受浓郁的晋商文化气息。", "sight_content": "平遥古城墙是平遥古城的一道宏伟的风景线，平遥古城墙是由瓮城（东西各两座城门都是瓮城）、城楼、角楼、点将台等建筑设施组成。如果你有兴趣登上平遥古城墙，还可以看到平遥古城墙顶上设有的望孔、射孔、垛口、铁炮等御敌设施。你可以从北门登上平遥古城墙，然后走到南门下平遥古城墙。"}}, {"title": "日升昌票号", "address": "晋中市平遥县西大街38号", "image": "", "rank": 3, "time": 1.0, "location": {"lat": 37.21148277926846, "lng": 112.19012183239214}, "feature": {"sight_features": "特色1 这里是中国最早的私人银行，其经营网点曾经几乎遍布整个中国，是平遥古城中的必游之地。", "sight_content": "日升昌票号位于平遥古城中的西大街，当时的经营网点几乎遍布整个中国，而如今日升昌票号成为中国票号博物馆。这里保留了一些当时经营所用的实物资料，向人们展示着中国古代银行业的辉煌历史。日升昌票号大院墙高宅深，为了防盗，院落上空都架设有铁丝天网，网上系有响铃。"}}, {"title": "双林寺", "address": "晋中市平遥县", "image": "", "rank": 4, "time": 1.5, "location": {"lat": 37.195600690703, "lng": 112.182455563814}, "feature": {"sight_features": "特色1 寺中拥有两千余尊宋元明清等各朝代的彩绘泥塑，个个都是稀世珍宝。", "sight_content": "双林寺是与平遥古城墙、镇国寺等景点一同列入《世界遗产名录》的古寺，寺内比较珍贵的是全部由木胎泥塑而成的雕塑，集宋、元、明、清历代彩塑之精华。"}}, {"title": "镇国寺", "address": "晋中市平遥县", "image": "", "rank": 5, "time": 1.5, "location": {"lat": 37.195600690703, "lng": 112.182455563814}, "feature": {"sight_features": "特色1 寺内有保存完好的五代时期的木结构建筑，万佛殿内可观赏与众不同的菩萨塑像。", "sight_content": "镇国寺位于平遥县城，是我国现存古老的木结构建筑之一。镇国寺面积并不大，其重要的建筑是中轴线上的大殿，也称为万佛殿，殿堂整体“梁架”结构严密，工艺精湛，完整保留了一千多年前五代时期的木结构建筑架构；在万佛殿内，千年前的塑像依然色彩鲜艳，是古代雕塑艺术中的精品。在万佛殿后的三佛殿内，墙壁上画满了明代的佛教故事壁画，细腻生动。"}}, {"title": "华北第一镖局", "address": "晋中市平遥县东大街24号", "image": "", "rank": 6, "time": 1.5, "location": {"lat": 37.21182399296075, "lng": 112.1926018104644}, "feature": {"sight_features": "", "sight_content": ""}}, {"title": "城隍庙", "address": "晋中市平遥县城隍庙街", "image": "", "rank": 7, "time": 1.5, "location": {"lat": 37.208560616363236, "lng": 112.19558011184033}, "feature": {"sight_features": "", "sight_content": ""}}, {"title": "雷履泰故居", "address": "晋中市平遥县古城内书院街（近南门）", "image": "", "rank": 8, "time": 0.75, "location": {"lat": 37.204603551122815, "lng": 112.18831438870605}, "feature": {"sight_features": "", "sight_content": ""}}, {"title": "文庙", "address": "晋中市平遥县城隍庙街67号", "image": "", "rank": 9, "time": 1.5, "location": {"lat": 37.20736945617572, "lng": 112.19668463326148}, "feature": {"sight_features": "", "sight_content": ""}}, {"title": "中国镖局博物馆", "address": "晋中市平遥县南大街61号", "image": "", "rank": 10, "time": 0.75, "location": {"lat": 37.209893321127424, "lng": 112.19200634799608}, "feature": {"sight_features": "", "sight_content": ""}}, {"title": "蔚泰厚票号博物馆", "address": "平遥古城内西大街路南", "image": "", "rank": 11, "time": 1.0, "location": {"lat": 37.21528229945167, "lng": 112.18926920571734}, "feature": {"sight_features": "", "sight_content": ""}}, {"title": "同兴公镖局", "address": "晋中市平遥古城南大街105号", "image": "", "rank": 12, "time": 0.75, "location": {"lat": 37.195600690703, "lng": 112.182455563814}, "feature": {"sight_features": "", "sight_content": ""}}, {"title": "清虚观", "address": "平遥东大街东段路北", "image": "", "rank": 13, "time": 0.5, "location": {"lat": 39.63066079909864, "lng": 118.20639924927531}, "feature": {"sight_features": "", "sight_content": ""}}, {"title": "中国商会博物馆", "address": "晋中市平遥县东大街15号", "image": "", "rank": 14, "time": 1.0, "location": {"lat": 37.21225428827464, "lng": 112.19213900885548}, "feature": {"sight_features": "", "sight_content": ""}}, {"title": "平遥古县衙", "address": "晋中市平遥古城内", "image": "", "rank": 15, "time": 1.0, "location": {"lat": 37.21528229945167, "lng": 112.18926920571734}, "feature": {"sight_features": "", "sight_content": ""}}, {"title": "协同庆票号(中国钱庄博物馆)", "address": "晋中市平遥县南大街南大街市楼旁边 ‎", "image": "", "rank": 16, "time": 1.0, "location": {"lat": 37.20892890040647, "lng": 112.19246622921378}, "feature": {"sight_features": "", "sight_content": ""}}, {"title": "百川通票号", "address": "晋中市平遥县南大街109号", "image": "", "rank": 17, "time": 1.0, "location": {"lat": 37.20841292747653, "lng": 112.19234752442877}, "feature": {"sight_features": "", "sight_content": ""}}, {"title": "明清古街", "address": "晋中市平遥县南大街", "image": "", "rank": 18, "time": 1.0, "location": {"lat": 37.20892890040647, "lng": 112.19246622921378}, "feature": {"sight_features": "", "sight_content": ""}}, {"title": "迎薰门", "address": "晋中市平遥县平遥古城南门迎薰门", "image": "", "rank": 19, "time": 0.25, "location": {"lat": 37.20554315416468, "lng": 112.19358193453853}, "feature": {"sight_features": "", "sight_content": ""}}, {"title": "古市楼（金井楼）", "address": "晋中市平遥古城南街", "image": "", "rank": 20, "time": 1.0, "location": {"lat": 37.195600690703, "lng": 112.182455563814}, "feature": {"sight_features": "", "sight_content": ""}}, {"title": "汇武林武术陈列馆", "address": "晋中市平遥县平遥古城西大街", "image": "", "rank": 21, "time": 1.5, "location": {"lat": 37.2111286342882, "lng": 112.18689480728828}, "feature": {"sight_features": "", "sight_content": ""}}, {"title": "平遥大戏堂", "address": "平遥古城内城隍庙街", "image": "", "rank": 22, "time": 6.0, "location": {"lat": 37.21528229945167, "lng": 112.18926920571734}, "feature": {"sight_features": "", "sight_content": ""}}, {"title": "古民居博览苑", "address": "晋中市平遥古城西大街18号", "image": "", "rank": 23, "time": 1.0, "location": {"lat": 37.21162099681272, "lng": 112.19092110510947}, "feature": {"sight_features": "", "sight_content": ""}}, {"title": "平遥牛肉博物馆", "address": "晋中市平遥县平遥古城北大街附近，距离北门200米处", "image": "", "rank": 24, "time": 1.5, "location": {"lat": 37.21468505821653, "lng": 112.1887640247494}, "feature": {"sight_features": "", "sight_content": ""}}, {"title": "清凉寺", "address": "晋中市平遥县卜宜乡永城村北", "image": "", "rank": 25, "time": 1.0, "location": {"lat": 37.10765924322414, "lng": 112.23228283582452}, "feature": {"sight_features": "", "sight_content": ""}}, {"title": "蔚盛长珍藏博物馆", "address": "晋中市平遥县南大街13号", "image": "", "rank": 26, "time": 1.0, "location": {"lat": 37.21157378520092, "lng": 112.19154658804963}, "feature": {"sight_features": "", "sight_content": ""}}, {"title": "苗世民藏报博物馆", "address": "晋中市平遥县南大街142号", "image": "", "rank": 27, "time": 1.0, "location": {"lat": 37.20744770244153, "lng": 112.19326635621965}, "feature": {"sight_features": "", "sight_content": ""}}, {"title": "中国珍奇报纸陈列馆", "address": "晋中市平遥县南大街142号", "image": "", "rank": 28, "time": 1.5, "location": {"lat": 37.20744770244153, "lng": 112.19326635621965}, "feature": {"sight_features": "", "sight_content": ""}}, {"title": "北门城楼", "address": "晋中市平遥县平遥古城北门城楼", "image": "", "rank": 29, "time": 0.75, "location": {"lat": 37.217365362550765, "lng": 112.18803681679498}, "feature": {"sight_features": "", "sight_content": ""}}, {"title": "慈相寺", "address": "晋中市平遥县城东8公里的冀郭村", "image": "", "rank": 30, "time": 1.0, "location": {"lat": 37.245178750541676, "lng": 112.29443901948478}, "feature": {"sight_features": "", "sight_content": ""}}, {"title": "龙在天皮影表演", "address": "平遥古城北门里往东80米处（龙在天皮影戏馆）", "image": "", "rank": 31, "time": 2, "location": {"lat": 37.210078757929764, "lng": 112.19001737742744}, "feature": {"sight_features": "", "sight_content": ""}}, {"title": "蔚盛长票号", "address": "平遥县城南大街13号", "image": "", "rank": 32, "time": 0.75, "location": {"lat": 37.195600690703, "lng": 112.182455563814}, "feature": {"sight_features": "", "sight_content": ""}}, {"title": "漫步古城墙", "address": "晋中市平遥县古城", "image": "", "rank": 33, "time": 2.5, "location": {"lat": 37.195600690703, "lng": 112.182455563814}, "feature": {"sight_features": "", "sight_content": ""}}, {"title": "天吉祥博物馆", "address": "晋中市平遥古城南大街北口路东20号", "image": "", "rank": 34, "time": 1.0, "location": {"lat": 37.195600690703, "lng": 112.182455563814}, "feature": {"sight_features": "", "sight_content": ""}}, {"title": "平遥古城热气球飞行体验", "address": "晋中市平遥县生态植物园", "image": "", "rank": 35, "time": 6.0, "location": {"lat": 37.195600690703, "lng": 112.182455563814}, "feature": {"sight_features": "特色1 以全新视角看古城，人文、地理、地貌一览无余", "sight_content": "乘坐热气球被世界公认为是浪漫、奇幻、美妙之旅！热气球被国际航空联合会列入最安全的航空器，它与所有航空领域的飞行器（包括飞机）不同之处在于无动力飞行，乘风而起，随风缓慢降落，自由自在，和大自然融为一体！360度无死角观景是热气球的魅力所在，这是所有飞行器都不具备的！为满足广大游客的飞行梦想，天外天航空开展热气球空中游览，随着热气球数量的增加一定会成为一道美丽的风景线！\n日出日落时分，是热气球飞行的最佳时间，此时气流比较稳定，光线绝佳！在平遥古城上空及周边飘飞，迎着朝霞，色彩艳丽的热气球腾空而起，以全新视角看古城，人文、地理、地貌一览无余。飞行时间：早6：00―7：00，晚：18：00―19：00，飞行时长：30分钟左右。"}}, {"title": "平遥文庙学宫", "address": "山西省平遥县平遥古城内", "image": "", "rank": 36, "time": null, "location": {"lat": 37.21528229945167, "lng": 112.18926920571734}, "feature": {"sight_features": "", "sight_content": ""}}, {"title": "平遥国际3D画展", "address": "晋中市平遥县古城下西门柴油机厂1号厅", "image": "", "rank": 37, "time": 6.0, "location": {"lat": 37.212888436571994, "lng": 112.18033457467438}, "feature": {"sight_features": "", "sight_content": ""}}, {"title": "火神庙", "address": "晋中市平遥县红园巷", "image": "", "rank": 38, "time": 1.0, "location": {"lat": 37.207269610543115, "lng": 112.18313991900234}, "feature": {"sight_features": "", "sight_content": ""}}, {"title": "南门城楼", "address": "晋中市平遥县平遥古城南门", "image": "", "rank": 39, "time": null, "location": {"lat": 37.20554315416468, "lng": 112.19358193453853}, "feature": {"sight_features": "", "sight_content": ""}}, {"title": "二郎庙", "address": "平遥北大街79号", "image": "", "rank": 40, "time": 1.0, "location": {"lat": 37.214985181078006, "lng": 112.1884077964379}, "feature": {"sight_features": "", "sight_content": ""}}, {"title": "平遥天主教堂", "address": "晋中市平遥古城内上东门城隍庙街(安家巷边上)", "image": "", "rank": 41, "time": 1.0, "location": {"lat": 37.21528229945167, "lng": 112.18926920571734}, "feature": {"sight_features": "", "sight_content": ""}}, {"title": "平遥县博物馆", "address": "山西省晋中市平遥县观道巷", "image": "", "rank": 42, "time": 2, "location": {"lat": 37.21402392063269, "lng": 112.1972344770811}, "feature": {"sight_features": "", "sight_content": ""}}, {"title": "三晋剪纸博览馆", "address": "小察院街与南大街交叉口北侧", "image": "", "rank": 43, "time": 2, "location": {"lat": 37.210011377361866, "lng": 112.19320575114011}, "feature": {"sight_features": "", "sight_content": ""}}, {"title": "王家庄村", "address": "晋中市平遥县王家庄村", "image": "", "rank": 44, "time": 2, "location": {"lat": 37.287465266232175, "lng": 112.17994264128546}, "feature": {"sight_features": "", "sight_content": ""}}, {"title": "平遥广胜寺", "address": "晋中市平遥县梁村广胜寺", "image": "", "rank": 45, "time": 1.0, "location": {"lat": 37.170881699433195, "lng": 112.24296575084762}, "feature": {"sight_features": "", "sight_content": ""}}, {"title": "平遥风情区", "address": "山西省晋中市平遥县北大街平遥古城", "image": "", "rank": 46, "time": 2.5, "location": {"lat": 37.210078757929764, "lng": 112.19001737742744}, "feature": {"sight_features": "", "sight_content": ""}}, {"title": "平遥国际摄影博物馆", "address": "晋中市平遥县城隍庙街67号", "image": "", "rank": 47, "time": 6.0, "location": {"lat": 37.20736945617572, "lng": 112.19668463326148}, "feature": {"sight_features": "", "sight_content": ""}}, {"title": "中国科举博物馆", "address": "城隍庙街67号", "image": "", "rank": 48, "time": 1.5, "location": {"lat": 37.20736945617572, "lng": 112.19668463326148}, "feature": {"sight_features": "", "sight_content": ""}}, {"title": "武庙", "address": "山西省平遥县真武庙街", "image": "", "rank": 49, "time": 1.5, "location": {"lat": 37.21475004211066, "lng": 112.19481748190306}, "feature": {"sight_features": "", "sight_content": ""}}, {"title": "晋中市平遥双林寺彩塑艺术馆", "address": "桥头村北侧双林寺", "image": "", "rank": 50, "time": 6.0, "location": {"lat": 37.177408552667295, "lng": 112.1381182553853}, "feature": {"sight_features": "", "sight_content": ""}}, {"title": "旅行者酒吧", "address": "晋中市平遥县政府街37号", "image": "", "rank": 51, "time": 2, "location": {"lat": 37.20805995945316, "lng": 112.19170099958036}, "feature": {"sight_features": "", "sight_content": ""}}, {"title": "永隆号", "address": "小察院街与南大街交叉口旁", "image": "", "rank": 52, "time": 2, "location": {"lat": 37.210011377361866, "lng": 112.19320575114011}, "feature": {"sight_features": "", "sight_content": ""}}, {"title": "日新中票号", "address": "晋中市平遥县平遥古城内衙门街日新中票号", "image": "", "rank": 53, "time": 2, "location": {"lat": 37.21528229945167, "lng": 112.18926920571734}, "feature": {"sight_features": "", "sight_content": ""}}, {"title": "古城奇幻宫", "address": "东大街94号", "image": "", "rank": 54, "time": 1.5, "location": {"lat": 22.617509352603705, "lng": 114.14733733676542}, "feature": {"sight_features": "特色1 设有3D画+许愿树+镜子迷宫 特色2 在奇幻宫中，晋商文化、孝德文化、黄土文化、根祖文化、一带一路文化荟萃其间，以科幻手段实现了互动体验。 特色3 “黄土高坡”实景再现了一年四季的变化，春华秋实，夏收冬藏。", "sight_content": "在奇幻宫中，晋商文化、孝德文化、黄土文化、根祖文化、一带一路文化荟萃其间，以科幻手段实现了互动体验。\n记者看到，“黄土高坡”实景再现了一年四季的变化，春华秋实，夏收冬藏。高坡脚下，五个可爱的晋福娃娃都有着寓意深刻的名字“平平”“遥遥”“欢欢”“迎迎”“妮妮”，组合起来就是“平遥欢迎你”。 每个晋福娃娃各代表着一个美好的祝愿：和平、幸福、快乐、梦想、初心。“晋商文化”景点，将晋商文明和晋商精神通过娱乐欣赏的方式得以传承，令人在愉快体验的同时再忆无数晋商家族勤奋进取、无畏险阻的艰苦创业精神，严守承诺、“以义制利”崇尚信誉的精神。“星光隧道”，运用现代灯光技术，铺成一条熠熠生辉的小路，浩渺天穹，群星闪烁，斑斑驳驳的点点星光超然于尘嚣之上，给人们绝美的心灵享受。“错觉艺术”，以一种全新的艺术表现形式，给人们带来错觉和假象，甚至是一种误会。还有镜子迷宫、时空隧道、无线星空、疯狂斗牛，都会给人们带来非同寻常的艺术享受，使人们在游乐中获取信息，提高自己艺术审美能力，开拓自己的思维和创意。"}}, {"title": "范宅故居", "address": "平遥古城上西门南街38号", "image": "", "rank": 55, "time": 2, "location": {"lat": 37.203002124413466, "lng": 112.18446938510627}, "feature": {"sight_features": "", "sight_content": ""}}, {"title": "草莓园", "address": "西大街21号", "image": "", "rank": 56, "time": 2, "location": {"lat": 37.9384491083104, "lng": 115.21899930692206}, "feature": {"sight_features": "", "sight_content": ""}}, {"title": "西华兴漆文化博物馆", "address": "政府街55号", "image": "", "rank": 57, "time": 2, "location": {"lat": 36.54339046494505, "lng": 115.30239923731645}, "feature": {"sight_features": "", "sight_content": ""}}, {"title": "西城图书馆", "address": "永安街86号", "image": "", "rank": 58, "time": 2, "location": {"lat": 41.86498744228497, "lng": 123.47396504660419}, "feature": {"sight_features": "", "sight_content": ""}}, {"title": "民间工艺美术家协会展览中心", "address": "东外环路", "image": "", "rank": 59, "time": 2, "location": {"lat": 37.88975422761368, "lng": 115.20615317611225}, "feature": {"sight_features": "", "sight_content": ""}}, {"title": "文涛坊古兵器博物馆", "address": "古城西大街212号", "image": "", "rank": 60, "time": 2, "location": {"lat": 26.883161684001312, "lng": 100.2324803392115}, "feature": {"sight_features": "", "sight_content": ""}}]}