{"cityName": "平罗", "days": 2, "cityImage": "", "spots": [{"title": "沙湖生态旅游区", "address": "石嘴山市平罗县下沙公路(前进农场境内)", "image": "", "rank": 1, "time": 3.0, "location": {"lat": 38.82682715895897, "lng": 106.34211007733062}, "feature": {"sight_features": "特色1 中国十大魅力湿地 罕见荒漠湿地特色景观。 特色2 融江南水乡之秀色与塞北大漠之雄浑为一体的\"旅游明珠\"。 特色3 既能坐游船畅游湖面，又能够骑骆驼、玩滑沙，体验大漠风光。", "sight_content": "景区项目这么多推荐怎么玩？\n\n摇橹船 ：沙湖湖水丽色呈奇观，清黄绿白又泛蓝，簇簇芦苇湖中立，影随白云伴蓝天。如果说迁徒的候鸟是这里的过客，那么沙湖的芦苇的芦苇就是就是这里原始居民。沙湖的芦苇一簇簇，一敦敦地生长着，他们联袂接踵，形成了迂回的风景，摇橹船滑行其间，便有了曲径通幽的意境，而船出芦苇，却又是一番豁然开朗的天地。\n自驾摩托艇是自己把控油门，摩托艇虽外形小巧，速度却飞快，穿梭在芦苇丛中，尾部喷出浪花，当浪花打来，整个摩托艇都在飘荡，那种感觉极为刺激，身边的教练给予了十足的安全感。\n雾海云天作黛，月色空明水亦悠，镜湖碧水充满着盎然绿色，山绿水绿，构成一幅绿色的水彩画，在这里游泳、荡舟都会时时感到清新舒畅，心旷神怡。沙湖东北面，芦苇成片成丛，芦苇幽深，游艇在芦苇中穿行，如同迷宫，不时惊起一串鸥鹭，令人兴趣盎然。\n沙湖是鸟的天堂，它水产丰富，无污染，更得到人类的格外关照，位于湖中心的“百鸟乐园”，又称“观鸟台”，是候鸟繁衍，栖息的理想之地，在此可观赏到天鹅、大鸨、中华秋水鸭、海鸥、白鹤、灰鹤等11目24科，百万只鸟类在这里流连，成为沙湖景色一绝。\n位于沙湖南端一望无际的沙漠给人以豪放、博大的感觉训练有素的沙漠之舟----骆驼载人进入大漠深处，阵阵悠扬的驼铃声清脆地在空中回荡，使人心神荡漾，如醉如痴。在这里，可以领略大自然的神奇，寻找前所未有的刺激和新奇。\n一般说到沙漠，脑子里就蹦出“缺水”，神奇的沙湖景区可是将沙与水作了最佳组合，来这里看沙，玩水，矛盾和谐统一！可以坐上快艇激情戏水，也可以骑着骆驼畅游沙漠。"}}, {"title": "银川大漠沙湖滑雪场", "address": "宁夏回族自治区平罗县西大滩镇 753400", "image": "", "rank": 2, "time": 3.5, "location": {"lat": 38.864919212776336, "lng": 106.37327277247198}, "feature": {"sight_features": "", "sight_content": ""}}, {"title": "万亩荷花精品园景区", "address": "位于沙湖东侧", "image": "", "rank": 3, "time": 2, "location": {"lat": 22.683886914087726, "lng": 114.33158876727984}, "feature": {"sight_features": "", "sight_content": ""}}, {"title": "大漠丝路奇观景区", "address": "银川市平罗县境内的西大滩", "image": "", "rank": 4, "time": 2, "location": {"lat": 38.492460055509596, "lng": 106.23849358740017}, "feature": {"sight_features": "", "sight_content": ""}}, {"title": "尼罗河风景区", "address": "银川市平罗县境内的西大滩", "image": "", "rank": 5, "time": 2, "location": {"lat": 38.492460055509596, "lng": 106.23849358740017}, "feature": {"sight_features": "", "sight_content": ""}}, {"title": "百鸟乐园景区", "address": "西大滩百鸟乐园景区", "image": "", "rank": 6, "time": 2, "location": {"lat": 21.915710647716363, "lng": 107.92111609948974}, "feature": {"sight_features": "", "sight_content": ""}}, {"title": "天河湾生态旅游区", "address": "陶乐黄河大桥北侧沙树林1680米处", "image": "", "rank": 7, "time": 2, "location": {"lat": 40.56933398984486, "lng": 110.21188083227135}, "feature": {"sight_features": "", "sight_content": ""}}, {"title": "平罗影剧院", "address": "鼓楼北街附近", "image": "", "rank": 8, "time": 3.0, "location": {"lat": 40.2333082074263, "lng": 116.23984161331221}, "feature": {"sight_features": "", "sight_content": ""}}, {"title": "沙湖垂钓中心", "address": "姚沙公路", "image": "", "rank": 9, "time": 2, "location": {"lat": 38.777822748549795, "lng": 106.46202105756764}, "feature": {"sight_features": "", "sight_content": ""}}, {"title": "平罗城关清真寺", "address": "宁夏回族自治区石嘴山市平罗县新民巷59", "image": "", "rank": 10, "time": 3.0, "location": {"lat": 38.91262009524749, "lng": 106.55039058022975}, "feature": {"sight_features": "", "sight_content": ""}}, {"title": "前进农场清真寺", "address": "宁夏回族自治区石嘴山市平罗县文化路", "image": "", "rank": 11, "time": 2, "location": {"lat": 38.84681571732866, "lng": 106.38159575537794}, "feature": {"sight_features": "", "sight_content": ""}}, {"title": "海洋之星儿童乐园", "address": "步行街富民商厦一号店三楼", "image": "", "rank": 12, "time": 2, "location": {"lat": 38.910225711569, "lng": 106.55447325390814}, "feature": {"sight_features": "", "sight_content": ""}}, {"title": "宁夏农业博物馆", "address": "沙湖旅游专用大道106", "image": "", "rank": 13, "time": 2, "location": {"lat": 38.828702018372006, "lng": 106.38132909698052}, "feature": {"sight_features": "", "sight_content": ""}}, {"title": "沙湖景区缆车-北站", "address": "石嘴山市平罗县境内西大滩(沙湖生态旅游区)沙湖景区缆车内", "image": "", "rank": 14, "time": 2, "location": {"lat": 38.80492547933307, "lng": 106.3834084110326}, "feature": {"sight_features": "", "sight_content": ""}}, {"title": "海狮表演馆", "address": "石嘴山市平罗县境内西大滩(沙湖生态旅游区)沙湖景区内", "image": "", "rank": 15, "time": 2, "location": {"lat": 38.80492547933307, "lng": 106.3834084110326}, "feature": {"sight_features": "", "sight_content": ""}}, {"title": "接引寺", "address": "石嘴山市平罗县", "image": "", "rank": 16, "time": 1.5, "location": {"lat": 38.91960682591035, "lng": 106.53651847762919}, "feature": {"sight_features": "", "sight_content": ""}}, {"title": "淘气堡乐园", "address": "鼓楼南街33", "image": "", "rank": 17, "time": 2, "location": {"lat": 40.22091136264545, "lng": 116.2400049845421}, "feature": {"sight_features": "", "sight_content": ""}}, {"title": "儿童乐园", "address": "鼓楼东街45附近", "image": "", "rank": 18, "time": 2, "location": {"lat": 38.91050849544617, "lng": 106.55583867828331}, "feature": {"sight_features": "", "sight_content": ""}}, {"title": "吴家湾清真大寺", "address": "宁夏回族自治区石嘴山市平罗县黄宝公路宝丰镇吴家湾村村民委员会", "image": "", "rank": 19, "time": 2, "location": {"lat": 39.04656694264596, "lng": 106.72007753743607}, "feature": {"sight_features": "", "sight_content": ""}}, {"title": "西园", "address": "萧公大街与贺兰山路交叉口西100米", "image": "", "rank": 20, "time": 1.5, "location": {"lat": 38.925798608520296, "lng": 106.54244701911355}, "feature": {"sight_features": "", "sight_content": ""}}, {"title": "欢乐谷儿童主题乐园", "address": "萧公大街阳光商业广场3楼北侧", "image": "", "rank": 21, "time": 2, "location": {"lat": 38.91039802780381, "lng": 106.53852924288611}, "feature": {"sight_features": "", "sight_content": ""}}, {"title": "星期六儿童主题乐园", "address": "鼓楼北街富龙百货3楼", "image": "", "rank": 22, "time": 2, "location": {"lat": 38.911228255084346, "lng": 106.55278994885707}, "feature": {"sight_features": "", "sight_content": ""}}, {"title": "平罗火车站基督教会", "address": "301省道太西镇基督教堂附近", "image": "", "rank": 23, "time": 3.0, "location": {"lat": 40.12001670417053, "lng": 113.3862702862079}, "feature": {"sight_features": "", "sight_content": ""}}, {"title": "红崖子清真寺", "address": "203省道附近", "image": "", "rank": 24, "time": null, "location": {"lat": 38.70057735317822, "lng": 114.30841754306506}, "feature": {"sight_features": "", "sight_content": ""}}, {"title": "太西镇基督教堂", "address": "301省道附近", "image": "", "rank": 25, "time": 2, "location": {"lat": 38.13474737719127, "lng": 114.42863974573754}, "feature": {"sight_features": "", "sight_content": ""}}, {"title": "金马度假村", "address": "拉巴湖附近", "image": "", "rank": 26, "time": 2, "location": {"lat": 38.786932272907315, "lng": 106.7612993992883}, "feature": {"sight_features": "", "sight_content": ""}}, {"title": "农垦博物馆", "address": "沙湖旅游专用大道106号", "image": "", "rank": 27, "time": 1.0, "location": {"lat": 38.828702018372006, "lng": 106.38132909698052}, "feature": {"sight_features": "", "sight_content": ""}}, {"title": "湿地公园博物馆", "address": "平陶公路", "image": "", "rank": 28, "time": 2, "location": {"lat": 29.974792062829227, "lng": 120.73222750679099}, "feature": {"sight_features": "", "sight_content": ""}}, {"title": "西北植物展览馆", "address": "姚西公路", "image": "", "rank": 29, "time": 2, "location": {"lat": 33.44128968890363, "lng": 119.46518290277469}, "feature": {"sight_features": "", "sight_content": ""}}, {"title": "毛主席像章纪念馆", "address": "姚沙公路", "image": "", "rank": 31, "time": 2, "location": {"lat": 38.777822748549795, "lng": 106.46202105756764}, "feature": {"sight_features": "", "sight_content": ""}}, {"title": "高庄清真大寺", "address": "翰林南大街", "image": "", "rank": 32, "time": 2, "location": {"lat": 38.89118995958247, "lng": 106.54632680600099}, "feature": {"sight_features": "", "sight_content": ""}}, {"title": "平罗书画院", "address": "玉皇阁大道218号", "image": "", "rank": 33, "time": 3.0, "location": {"lat": 38.91939326593073, "lng": 106.52961996471956}, "feature": {"sight_features": "", "sight_content": ""}}, {"title": "黄渠桥羔羊育肥基地", "address": "前光路附近", "image": "", "rank": 34, "time": 2, "location": {"lat": 39.023676717906994, "lng": 106.6350909012736}, "feature": {"sight_features": "", "sight_content": ""}}, {"title": "一九八九演艺", "address": "鼓楼北街72", "image": "", "rank": 35, "time": 2, "location": {"lat": 38.91351989967782, "lng": 106.55203350914306}, "feature": {"sight_features": "", "sight_content": ""}}, {"title": "一峰房艺馆画廊", "address": "东苑街127号", "image": "", "rank": 36, "time": 2, "location": {"lat": 38.87853051679539, "lng": 115.53728788149473}, "feature": {"sight_features": "", "sight_content": ""}}, {"title": "天成垂钓", "address": "高庄乡301省道天成垂钓", "image": "", "rank": 37, "time": 2, "location": {"lat": 38.92351863585295, "lng": 106.5462190093398}, "feature": {"sight_features": "", "sight_content": ""}}, {"title": "平罗县沙湖民间艺术团", "address": "阳光路78", "image": "", "rank": 38, "time": 2, "location": {"lat": 36.80524892736015, "lng": 116.76276562064612}, "feature": {"sight_features": "", "sight_content": ""}}, {"title": "平罗县商业步行街", "address": "宁夏回族自治区平罗县鼓楼东路88号", "image": "", "rank": 39, "time": 2, "location": {"lat": 38.91960682591035, "lng": 106.53651847762919}, "feature": {"sight_features": "", "sight_content": ""}}]}