{"cityName": "平湖", "days": null, "cityImage": "", "spots": [{"title": "东湖景区", "address": "嘉兴市平湖市平湖城东", "image": "", "rank": 1, "time": 2.5, "location": {"lat": 30.682240998057836, "lng": 121.02257525525401}, "feature": {"sight_features": "", "sight_content": ""}}, {"title": "莫氏庄园", "address": "嘉兴市平湖市人民西路19号", "image": "", "rank": 2, "time": 1.5, "location": {"lat": 30.703512317937047, "lng": 121.02676432962684}, "feature": {"sight_features": "", "sight_content": ""}}, {"title": "九龙山乐满地水上乐园", "address": "嘉兴市平湖市乍浦镇九龙山庄园", "image": "", "rank": 3, "time": 3.0, "location": {"lat": 30.606711682643077, "lng": 121.14344164268907}, "feature": {"sight_features": "特色1 国际大师设计的以欧洲海洋神话为主题的水上娱乐王国。 特色2 九龙山乐满地水上乐园拥有6条各自独立、完全相同的滑道并列，6个游客可各自选一条滑道，从15米高的平台飞驰而下，开始急驰竞赛！ 特色3 趴在特制的滑毯上，加速俯冲到水池里，一路激起水花片片，尽享风驰电掣的竞赛快感！", "sight_content": "乐满地水上乐园是一所先进而充满乐趣的四季恒温水上乐园，不仅气氛欢乐，还有怡人的温泉，身心在此刻放松。\n\n乐园内有上古海兽、飞天漩涡、怒海冲天、月神河、梦幻彩梯、烈金马车、海中巨蟒等多个刺激大型游乐项目。乐园内包含餐厅4间，商店2间，园区内预计最多一天可接待15000名游客。\n上古神兽：游客将乘坐浮圈从20米高的站台上滑下，从管道滑道蜿蜒迂回极速而下到主冲击滑道，在离心力的带动下向大碗口内盘旋而下成为寻求刺激的勇敢者们的天堂。“巨兽碗”将会让你体验到完全不同于其他设备的全新滑行体验。飞天漩涡：游客坐在特别设计的四叶草型浮圈里面滑行，每个浮圈最多能够载四个人。\n怒海冲天：此滑梯运用新型高技术设计的惊险度极高的水上滑道，从15米高处快速回落，用惯性的原理完成回旋再直至滑向落水池，游客往返其中，来自神经末梢的兴奋，恍如时光倒流。\n游客从15米高处滑行到一个巨大的大喇叭型圆锥体里面，像是被龙卷风吸进去的感觉。特别适合喜欢体验新鲜感受的游客。"}}, {"title": "九龙山旅游度假区", "address": "嘉兴市平湖市乍浦镇", "image": "", "rank": 4, "time": 2, "location": {"lat": 30.623131672483076, "lng": 121.10281152432033}, "feature": {"sight_features": "", "sight_content": ""}}, {"title": "南湾炮台", "address": "嘉兴市平湖市乍浦镇东南一公里处九龙山西段", "image": "", "rank": 5, "time": 0.25, "location": {"lat": 30.623131672483076, "lng": 121.1117945794201}, "feature": {"sight_features": "", "sight_content": ""}}, {"title": "金稼园", "address": "嘉兴市平湖市当湖街道金家村", "image": "", "rank": 6, "time": 2, "location": {"lat": 30.651853315231573, "lng": 121.04543353187108}, "feature": {"sight_features": "", "sight_content": ""}}, {"title": "九龙山将军高尔夫俱乐部", "address": "平湖市乍浦镇九龙山马会俱乐部", "image": "", "rank": 7, "time": 2, "location": {"lat": 30.623131672483076, "lng": 121.10281152432033}, "feature": {"sight_features": "特色1 符合国际高尔夫PGA大赛标准的球场。 特色2 球场内有1000多亩的人工湖,更有6座山峰镶嵌在球场中，使得球场处处有景，洞洞生趣。 特色3 球场共分A.B.C三组球道,共27洞，A组9洞是海景,B组9洞是庄园风格,C组9洞为峡谷球场。各具特色，其乐无穷。", "sight_content": "九龙山将军高尔夫俱乐部总面积2700亩，球道全长11800码，27洞国际标准高尔夫球场，符合国际高尔夫PGA大赛标准.球场内有大于1000亩的人工湖,有6座山镶嵌在球场中处处有景，洞洞生趣。球场共分A.B.C三组球道,共27洞，A组9洞是海景,B组9洞是庄园风格,C组9洞为峡谷球场.星空璀璨，其乐融融,球场造价13.8亿元人民币.球场还有天然草皮发球台的高尔夫练习场，顺天然地势，逶迤而上，全方位、无屏障开阔视野，犹如身处果岭丛山间，极具真实感。球场拥有天然庄园会所和海滨会所两组，星罗棋布，山水相依。 球场会所总面积占10000平方米，有西餐厅、咖啡厅、红酒雪茄吧、露天茶座、VIP休息室，多功能会议厅室，房间大小兼备，适合各类型团体举办会议活动，高尔夫用品专卖店，男女桑拿浴室，水力按摩，会员活动室，设施。\n\n球道总长度：7500 码，标准杆：72杆。     黑Tee：7500码，  蓝Tee：6407码， 白Tee：5869码， 红Tee：5355码。"}}, {"title": "李叔同纪念馆", "address": "嘉兴市平湖市叔同路29号叔同公园内", "image": "", "rank": 8, "time": 0.75, "location": {"lat": 30.704161924392814, "lng": 121.03286963607624}, "feature": {"sight_features": "", "sight_content": ""}}, {"title": "叔同公园", "address": "嘉兴市平湖市叔同路29号", "image": "", "rank": 9, "time": 1.5, "location": {"lat": 30.704161924392814, "lng": 121.03286963607624}, "feature": {"sight_features": "", "sight_content": ""}}, {"title": "报本塔", "address": "嘉兴市平湖市环城东路东湖景区内（宝塔路）", "image": "", "rank": 10, "time": 0.25, "location": {"lat": 30.70237527773862, "lng": 121.03478548906789}, "feature": {"sight_features": "", "sight_content": ""}}, {"title": "当湖公园", "address": "嘉兴市平湖市当湖东路161号", "image": "", "rank": 11, "time": 1.5, "location": {"lat": 30.69044932188133, "lng": 121.02275154321883}, "feature": {"sight_features": "", "sight_content": ""}}, {"title": "澳多奇农庄", "address": "嘉兴市平湖市曹桥街道马厩村", "image": "", "rank": 12, "time": 2, "location": {"lat": 30.646617209175123, "lng": 120.99316051082145}, "feature": {"sight_features": "特色1 澳多奇农庄的设计富有江南水乡的秀丽雅致，返朴归真的乡土气息，浓郁醇厚的民族风情。 特色2 农庄内绿草茵茵、流水悠悠，有各种花草苗木，果园有五月桃、油桃、水蜜桃和梨园。 特色3 果园翠竹、花廊凉亭，融自然风光，人文风情，休闲娱乐，科技知识于一体，是休闲旅游的好地方。", "sight_content": "平湖市澳多奇农庄AA级旅游景区，科普教育基地，生态环境教育示范基地。位于浙江省北部平湖市西郊。边临上海，杭州，苏州，紧邻杭州跨海大桥，乍嘉苏高速公路，与周边景区嘉兴南湖、海盐南北湖、九龙山旅游度假区、莫氏庄园相隔不到20分钟的路程。农庄由中国美院、中国旅游学院教授作规划指导，总体规划占地20万平方米。现已投入1000多万元资金，开发建设13个景点，是一家集生态养殖、休闲观光、餐饮服务为一体的生态型农庄。\n果蔬采摘区: “八方翠香荟其中，四季时鲜任君采”在果园里、在菜园里或种植或采摘，全凭你你的喜好。休闲游乐区：抛开生活的压力和现实的残酷，在休闲游乐区里放松片刻，重拾童真，感觉内心的那份自然、快乐。动物乐园：张狂的鸵鸟、骄傲的孔雀、悠闲觅食的家禽，憨态可掬的小猪，互不相让的山羊，一曲动物交响曲因你而奏响。"}}, {"title": "报本禅寺", "address": "嘉兴市平湖市环城东路东湖景区塔影垂虹景区内", "image": "", "rank": 13, "time": 0.75, "location": {"lat": 30.70237527773862, "lng": 121.03478548906789}, "feature": {"sight_features": "", "sight_content": ""}}, {"title": "汤山公园", "address": "嘉兴市平湖市滨海大道和天妃路交叉口", "image": "", "rank": 14, "time": 1.5, "location": {"lat": 30.605284848616975, "lng": 121.10080198974195}, "feature": {"sight_features": "", "sight_content": ""}}, {"title": "九峰一览楼", "address": "嘉兴市平湖市环城东路东湖景区南村书堆内", "image": "", "rank": 15, "time": 0.75, "location": {"lat": 30.70052265168193, "lng": 121.03120063474381}, "feature": {"sight_features": "", "sight_content": ""}}, {"title": "九龙山国家森林公园", "address": "嘉兴市平湖市汤山东路", "image": "", "rank": 16, "time": 4.0, "location": {"lat": 30.602299325778816, "lng": 121.10457261184888}, "feature": {"sight_features": "", "sight_content": ""}}, {"title": "山湾渔村", "address": "嘉兴市平湖市山湾渔业村", "image": "", "rank": 17, "time": 7.5, "location": {"lat": 30.59986454135057, "lng": 121.10359650140377}, "feature": {"sight_features": "", "sight_content": ""}}, {"title": "外蒲山", "address": "嘉兴市平湖市乍浦镇九龙山旅游度假区内", "image": "", "rank": 18, "time": 2.5, "location": {"lat": 30.612309731694648, "lng": 121.14838805148817}, "feature": {"sight_features": "", "sight_content": ""}}, {"title": "平湖民俗风情馆", "address": "嘉兴市平湖市环城北路31弄1号", "image": "", "rank": 19, "time": 0.75, "location": {"lat": 30.707048374227952, "lng": 121.03071176969884}, "feature": {"sight_features": "", "sight_content": ""}}, {"title": "天妃宫炮台", "address": "嘉兴市平湖市乍浦镇汤山公园内", "image": "", "rank": 20, "time": 0.2, "location": {"lat": 30.600085215119503, "lng": 121.10142894410653}, "feature": {"sight_features": "", "sight_content": ""}}, {"title": "平湖博物馆", "address": "嘉兴市平湖市新华南路372号", "image": "", "rank": 21, "time": 1.0, "location": {"lat": 30.690657637440577, "lng": 121.01689178408905}, "feature": {"sight_features": "", "sight_content": ""}}, {"title": "瑞祥寺", "address": "嘉兴市平湖市乍浦镇汤山上", "image": "", "rank": 22, "time": 1.5, "location": {"lat": 30.60271152745164, "lng": 121.10175261795466}, "feature": {"sight_features": "", "sight_content": ""}}, {"title": "金丝娘农庄", "address": "嘉兴市平湖市全塘镇杭浦高速（新仓、全塘）出口处", "image": "", "rank": 23, "time": 2, "location": {"lat": 30.631743850340044, "lng": 120.99778256216193}, "feature": {"sight_features": "", "sight_content": ""}}, {"title": "陆维钊书画院", "address": "嘉兴市平湖市乐园路80-136号", "image": "", "rank": 24, "time": 1.0, "location": {"lat": 30.69606997708898, "lng": 121.02906245832487}, "feature": {"sight_features": "", "sight_content": ""}}, {"title": "吴一峰艺术馆", "address": "嘉兴市平湖市当湖东路161号当湖公园西侧", "image": "", "rank": 25, "time": 0.75, "location": {"lat": 30.69044932188133, "lng": 121.02275154321883}, "feature": {"sight_features": "", "sight_content": ""}}, {"title": "九龙山高尔夫练习场", "address": "嘉兴市平湖市乍浦镇九龙山旅游度假区内，九龙山将军高尔夫俱乐部北面。", "image": "", "rank": 26, "time": 2, "location": {"lat": 30.612309731694648, "lng": 121.14838805148817}, "feature": {"sight_features": "", "sight_content": ""}}, {"title": "九龙山赛车赛马俱乐部", "address": "嘉兴市平湖市乍浦镇九龙山旅游度假区内", "image": "", "rank": 27, "time": 0.75, "location": {"lat": 30.612309731694648, "lng": 121.14838805148817}, "feature": {"sight_features": "", "sight_content": ""}}, {"title": "海红亭", "address": "嘉兴市平湖市乍浦镇汤山东路（九龙山森林公园内）", "image": "", "rank": 28, "time": 0.2, "location": {"lat": 30.601911283624766, "lng": 121.10658236112228}, "feature": {"sight_features": "", "sight_content": ""}}, {"title": "通天桥", "address": "嘉兴市平湖市乍浦镇九龙山旅游度假区内", "image": "", "rank": 29, "time": 0.25, "location": {"lat": 30.612309731694648, "lng": 121.14838805148817}, "feature": {"sight_features": "", "sight_content": ""}}, {"title": "小普陀观音禅院", "address": "嘉兴市平湖市乍浦镇九龙山旅游度假区内的外蒲山上", "image": "", "rank": 30, "time": 0.75, "location": {"lat": 30.612309731694648, "lng": 121.14838805148817}, "feature": {"sight_features": "", "sight_content": ""}}, {"title": "九龙山马会俱乐部", "address": "嘉兴市平湖市乍浦镇九龙山旅游度假区内", "image": "", "rank": 31, "time": 2, "location": {"lat": 30.612309731694648, "lng": 121.14838805148817}, "feature": {"sight_features": "特色1 马球速度赛马场地障碍赛为一体的马术嘉年华。 特色2 俱乐部以世界标准的马房设备、专业的马球教练和精良的马医团队闻名。 特色3 300多个标准马房，2个国际标准的马球场和设备完善的马医房。", "sight_content": "九龙山马会成立于2007年是中国集马球赛马马术为一体并以国际标准建设且取得国际马术联合会认可的俱乐部，马会位于平湖市东南浙江九龙山旅游度假区内。\n俱乐部成立至今创下了各项骄人的纪录，于2007年10月份协手皇家礼炮将马球这项运动重新带回中国，创办了“九龙山速度赛马全国骑师邀请赛”“王者杯国际马球赛”及由各国驻沪大使参加的“大使杯国际马球邀请赛”和集马球速度赛马场地障碍赛为一体的马术嘉年华等国内国际知名度颇高的品牌赛事。俱乐部以世界标准的马房设备、专业的马球教练和精良的马医团队闻名。\n目前，俱乐部拥有的马主和会员是国内俱乐部中教多的。我们有国内一条国际标准的可以承办各种级别赛马赛事的草坪赛马道，300多个标准马房，2个国际标准的马球场和设备完善的马医房。"}}, {"title": "贞女亭", "address": "嘉兴市平湖市乍浦镇汤山东路九龙山国家公园内", "image": "", "rank": 32, "time": 0.25, "location": {"lat": 30.602299325778816, "lng": 121.10457261184888}, "feature": {"sight_features": "", "sight_content": ""}}, {"title": "九龙山游艇俱乐部", "address": "嘉兴市平湖市乍浦镇九龙山旅游度假区内", "image": "", "rank": 33, "time": 2, "location": {"lat": 30.612309731694648, "lng": 121.14838805148817}, "feature": {"sight_features": "", "sight_content": ""}}, {"title": "白马湖公园", "address": "嘉兴市平湖市城南西路白马湖附近", "image": "", "rank": 34, "time": 1.0, "location": {"lat": 30.704469904331756, "lng": 121.01006248022912}, "feature": {"sight_features": "", "sight_content": ""}}, {"title": "九龙山飞行俱乐部", "address": "嘉兴市平湖市乍浦镇九龙山旅游度假区内", "image": "", "rank": 35, "time": 2, "location": {"lat": 30.612309731694648, "lng": 121.14838805148817}, "feature": {"sight_features": "", "sight_content": ""}}, {"title": "虫草博物馆", "address": "嘉兴市平湖市经济技术开发区新群路1938号", "image": "", "rank": 36, "time": 2, "location": {"lat": 30.744390734420957, "lng": 121.00666949857215}, "feature": {"sight_features": "", "sight_content": ""}}, {"title": "含珠凝辉", "address": "当湖街道东湖西岸", "image": "", "rank": 37, "time": 2, "location": {"lat": 28.691259179775223, "lng": 115.9054660260597}, "feature": {"sight_features": "", "sight_content": ""}}, {"title": "十衫亭", "address": "嘉兴市平湖市", "image": "", "rank": 38, "time": 2, "location": {"lat": 30.682240998057836, "lng": 121.02257525525401}, "feature": {"sight_features": "", "sight_content": ""}}, {"title": "白马湖", "address": "绍兴市上虞驿亭镇", "image": "", "rank": 39, "time": 2.5, "location": {"lat": 30.025352316837733, "lng": 120.95642465104191}, "feature": {"sight_features": "", "sight_content": ""}}, {"title": "INBABY儿童职教乐园", "address": "嘉兴市平湖市三港路瑞丰国际广场", "image": "", "rank": 40, "time": 2, "location": {"lat": 30.703492680473044, "lng": 121.04458610728351}, "feature": {"sight_features": "", "sight_content": ""}}, {"title": "科普画廊(解放西路店)", "address": "解放西路58号", "image": "", "rank": 41, "time": 2, "location": {"lat": 38.309767368218374, "lng": 116.83838640678182}, "feature": {"sight_features": "", "sight_content": ""}}, {"title": "北原牧唱", "address": "城东案山路", "image": "", "rank": 42, "time": 2, "location": {"lat": 36.605707645661155, "lng": 101.8095690383313}, "feature": {"sight_features": "", "sight_content": ""}}, {"title": "刘公祠", "address": "新埭镇鱼旗塘", "image": "", "rank": 43, "time": 2, "location": {"lat": 30.811624049538878, "lng": 121.08783177060221}, "feature": {"sight_features": "", "sight_content": ""}}, {"title": "coco温泉度假村", "address": "乍浦镇coco温泉度假村(西潼高速第9出口处)", "image": "", "rank": 44, "time": 2, "location": {"lat": 30.901069239042627, "lng": 116.35767214403897}, "feature": {"sight_features": "", "sight_content": ""}}, {"title": "嘟嘟大本营儿童乐园", "address": "浙江省嘉兴市平湖市雅山中路170号", "image": "", "rank": 45, "time": 2, "location": {"lat": 30.609745140048865, "lng": 121.10071719419334}, "feature": {"sight_features": "", "sight_content": ""}}, {"title": "西林寺东区", "address": "环城西路386", "image": "", "rank": 46, "time": 2, "location": {"lat": 29.870137097754633, "lng": 121.52823046007889}, "feature": {"sight_features": "", "sight_content": ""}}, {"title": "滨水广场", "address": "当湖街道解放西路68弄8号", "image": "", "rank": 47, "time": 2, "location": {"lat": 30.70657501915171, "lng": 121.01941330968945}, "feature": {"sight_features": "", "sight_content": ""}}, {"title": "茶艺展厅", "address": "平湖市其他滨海大道1188号", "image": "", "rank": 48, "time": 2, "location": {"lat": 30.60527967379472, "lng": 121.09464552928529}, "feature": {"sight_features": "", "sight_content": ""}}, {"title": "平湖和合公园", "address": "浙江省嘉兴市平湖市金虹公路", "image": "", "rank": 49, "time": 0.75, "location": {"lat": 30.65591405104479, "lng": 121.05975420692127}, "feature": {"sight_features": "", "sight_content": ""}}, {"title": "地藏寺", "address": "林埭镇东西大道佳达制衣厂后面", "image": "", "rank": 50, "time": 1.0, "location": {"lat": 30.591983199703837, "lng": 121.00544845345176}, "feature": {"sight_features": "", "sight_content": ""}}, {"title": "普照寺", "address": "嘉兴市平湖市独新西路338号", "image": "", "rank": 51, "time": 0.75, "location": {"lat": 30.75910495495903, "lng": 121.13337010810791}, "feature": {"sight_features": "", "sight_content": ""}}, {"title": "钟埭樱花公园", "address": "浙江省嘉兴市平湖市和盎路", "image": "", "rank": 52, "time": 2, "location": {"lat": 30.772541753376167, "lng": 120.99976809401707}, "feature": {"sight_features": "", "sight_content": ""}}, {"title": "圆通禅寺", "address": "浙江省嘉兴市平湖市", "image": "", "rank": 53, "time": 2, "location": {"lat": 30.682240998057836, "lng": 121.02257525525401}, "feature": {"sight_features": "", "sight_content": ""}}, {"title": "福陵园", "address": "平兴公路东50米", "image": "", "rank": 54, "time": 2, "location": {"lat": 30.783782277884132, "lng": 121.06126072634628}, "feature": {"sight_features": "", "sight_content": ""}}, {"title": "廊下星空度假营", "address": "嘉兴市平湖市廊华路888号", "image": "", "rank": 55, "time": 2, "location": {"lat": 30.682240998057836, "lng": 121.02257525525401}, "feature": {"sight_features": "", "sight_content": ""}}, {"title": "福源禅寺", "address": "杨庄浜村32组", "image": "", "rank": 56, "time": 2, "location": {"lat": 30.82365214338053, "lng": 121.10672707993655}, "feature": {"sight_features": "", "sight_content": ""}}, {"title": "巾帼林", "address": "浙江省嘉兴市平湖市钟埭街道宏建路新群新村西北300米", "image": "", "rank": 57, "time": 2, "location": {"lat": 30.732219886167567, "lng": 120.99129914005897}, "feature": {"sight_features": "", "sight_content": ""}}, {"title": "九龙山国际自行车公园", "address": "多凌路1(九龙山将军高尔夫练习场东10米)", "image": "", "rank": 58, "time": 2, "location": {"lat": 30.618245900644514, "lng": 121.1321847769197}, "feature": {"sight_features": "", "sight_content": ""}}, {"title": "七彩花海", "address": "金虹公路", "image": "", "rank": 59, "time": 2, "location": {"lat": 30.65591405104479, "lng": 121.05975420692127}, "feature": {"sight_features": "", "sight_content": ""}}, {"title": "沙井禅寺", "address": "浙江省嘉兴市平湖市乍全线188号附近", "image": "", "rank": 60, "time": 2, "location": {"lat": 30.649080149999406, "lng": 121.16692540494118}, "feature": {"sight_features": "", "sight_content": ""}}]}