{"cityName": "屏边", "days": 2, "cityImage": "", "spots": [{"title": "大围山国家公园", "address": "云南省南部屏边县与河口交界地带", "image": "", "rank": 1, "time": 2, "location": {"lat": 22.989989585512753, "lng": 103.69343183231612}, "feature": {"sight_features": "", "sight_content": ""}}, {"title": "滇越铁路五家寨人字桥", "address": "云南红河屏边县北湾圹乡度箐与倮姑站之间", "image": "", "rank": 2, "time": 2, "location": {"lat": 23.19564539133823, "lng": 103.7127358697528}, "feature": {"sight_features": "", "sight_content": ""}}, {"title": "开春兰园", "address": "235省道附近", "image": "", "rank": 3, "time": 2, "location": {"lat": 38.72736549768279, "lng": 115.81277537552413}, "feature": {"sight_features": "", "sight_content": ""}}, {"title": "天艺兰园", "address": "235省道附近", "image": "", "rank": 4, "time": 2, "location": {"lat": 38.72736549768279, "lng": 115.81277537552413}, "feature": {"sight_features": "", "sight_content": ""}}, {"title": "五家寨人字桥", "address": "云南省屏边苗族自治县湾塘乡 661207", "image": "", "rank": 5, "time": 2, "location": {"lat": 23.094296611843262, "lng": 103.7408988559903}, "feature": {"sight_features": "", "sight_content": ""}}, {"title": "屏边影剧院", "address": "云南省红河哈尼族彝族自治州屏边苗族自治县建设路69号附近", "image": "", "rank": 6, "time": 2, "location": {"lat": 22.989874226432043, "lng": 103.69316657424874}, "feature": {"sight_features": "", "sight_content": ""}}, {"title": "大围山原始森林公园", "address": "云南省红河哈尼族彝族自治州屏边苗族自治县", "image": "", "rank": 7, "time": 2, "location": {"lat": 22.989989585512753, "lng": 103.69343183231612}, "feature": {"sight_features": "", "sight_content": ""}}, {"title": "屏边烈士陵园陈列室", "address": "人民路28号", "image": "", "rank": 8, "time": 2, "location": {"lat": 22.99130647478197, "lng": 103.69984220960272}, "feature": {"sight_features": "", "sight_content": ""}}, {"title": "屏边苗族自治县档案馆", "address": "人民路28号", "image": "", "rank": 9, "time": 2, "location": {"lat": 22.989989585512753, "lng": 103.69343183231612}, "feature": {"sight_features": "", "sight_content": ""}}, {"title": "爱宝宝乐园", "address": "大广场旁青少年活动中心一楼", "image": "", "rank": 10, "time": 2, "location": {"lat": 24.30000428014099, "lng": 116.12572498011566}, "feature": {"sight_features": "", "sight_content": ""}}, {"title": "大围山保护区 Mt. Dawei Natural...", "address": "云南省屏边苗族自治县县城东北角", "image": "", "rank": 11, "time": 2, "location": {"lat": 22.989989585512753, "lng": 103.69343183231612}, "feature": {"sight_features": "", "sight_content": ""}}, {"title": "石洞村溶洞", "address": "云南省屏边苗族自治县新现乡吉咪石洞村", "image": "", "rank": 12, "time": 2, "location": {"lat": 23.145511977321544, "lng": 103.5572910856278}, "feature": {"sight_features": "", "sight_content": ""}}]}