{"cityName": "平阴", "days": 2, "cityImage": "", "spots": [{"title": "洪范池", "address": "济南市平阴县", "image": "", "rank": 1, "time": 0.75, "location": {"lat": 36.29486132106647, "lng": 116.46261667805571}, "feature": {"sight_features": "", "sight_content": ""}}, {"title": "圣母山生态农业观光园", "address": "济南市平阴县城南1.5公里处", "image": "", "rank": 2, "time": null, "location": {"lat": 36.29486132106647, "lng": 116.46261667805571}, "feature": {"sight_features": "", "sight_content": ""}}, {"title": "平阴博物馆", "address": "济南市平阴县府前街西端", "image": "", "rank": 3, "time": 1.0, "location": {"lat": 36.295122582499694, "lng": 116.46038264525241}, "feature": {"sight_features": "", "sight_content": ""}}, {"title": "日月泉", "address": "济南市平阴县洪范池镇云翠山风景区南天观回阳洞内", "image": "", "rank": 4, "time": 0.4, "location": {"lat": 36.07843623824145, "lng": 116.30883153127516}, "feature": {"sight_features": "", "sight_content": ""}}, {"title": "书院泉", "address": "济南市平阴县洪范池镇书院村", "image": "", "rank": 5, "time": 0.75, "location": {"lat": 36.10636371654719, "lng": 116.30274246259614}, "feature": {"sight_features": "", "sight_content": ""}}, {"title": "扈泉", "address": "济南市平阴县机耕路（洪范池南约l公里处）", "image": "", "rank": 6, "time": 0.25, "location": {"lat": 36.10984764338687, "lng": 116.29839789603109}, "feature": {"sight_features": "", "sight_content": ""}}, {"title": "云翠山", "address": "济南市平阴县洪范池镇向南3公里处", "image": "", "rank": 7, "time": 2, "location": {"lat": 36.07809991868617, "lng": 116.3161523519779}, "feature": {"sight_features": "", "sight_content": ""}}, {"title": "胡庄天主教堂", "address": "山东省济南市平阴县城西南8公里胡庄村北", "image": "", "rank": 8, "time": 2, "location": {"lat": 36.2469290869637, "lng": 116.44389187519191}, "feature": {"sight_features": "", "sight_content": ""}}, {"title": "梦幻星空主题乐园", "address": "胡庄教堂西侧梦幻星空主题乐园", "image": "", "rank": 9, "time": 2, "location": {"lat": 36.242333873209134, "lng": 116.43062352911444}, "feature": {"sight_features": "", "sight_content": ""}}, {"title": "圣母山海棠园", "address": "山东省济南市平阴县胡庄村附近", "image": "", "rank": 10, "time": 2, "location": {"lat": 36.2469290869637, "lng": 116.44389187519191}, "feature": {"sight_features": "", "sight_content": ""}}, {"title": "润翔滑雪场", "address": "济南市平阴县G105国道与S329省道交叉口肥城方向300米路南（分水岭村）", "image": "", "rank": 11, "time": 2, "location": {"lat": 36.22880985646975, "lng": 116.47507334761335}, "feature": {"sight_features": "", "sight_content": ""}}, {"title": "牛头寨生态农家乐", "address": "玫瑰镇北石硖", "image": "", "rank": 12, "time": 2, "location": {"lat": 36.23292043715676, "lng": 116.42198820628099}, "feature": {"sight_features": "", "sight_content": ""}}, {"title": "平阴县博物馆", "address": "府前街中段", "image": "", "rank": 13, "time": 2, "location": {"lat": 24.120247510857773, "lng": 117.62755149494814}, "feature": {"sight_features": "", "sight_content": ""}}, {"title": "中国玫瑰书画院", "address": "东关街", "image": "", "rank": 14, "time": 2, "location": {"lat": 39.73038687646979, "lng": 117.32121108201522}, "feature": {"sight_features": "", "sight_content": ""}}, {"title": "店子农场", "address": "店丘线附近", "image": "", "rank": 15, "time": 2, "location": {"lat": 36.13943271679701, "lng": 116.52108882098898}, "feature": {"sight_features": "", "sight_content": ""}}, {"title": "夏鑫艺灯画廊", "address": "东关街中段妇幼保健站对过", "image": "", "rank": 16, "time": 2, "location": {"lat": 36.45017752391008, "lng": 115.9888696656618}, "feature": {"sight_features": "", "sight_content": ""}}, {"title": "垂钓园炒鸡店", "address": "孝直镇前庄科村", "image": "", "rank": 17, "time": 2, "location": {"lat": 36.09073140006387, "lng": 116.44107725226634}, "feature": {"sight_features": "", "sight_content": ""}}, {"title": "东平陵故城", "address": "山东省济南市龙山镇东北 250200", "image": "", "rank": 18, "time": 2, "location": {"lat": 36.74150676558462, "lng": 119.63183447488314}, "feature": {"sight_features": "", "sight_content": ""}}, {"title": "东阿镇幸福农家乐", "address": "东阿镇老福胶厂路口向西", "image": "", "rank": 19, "time": 2, "location": {"lat": 36.19499631979318, "lng": 116.30554970684027}, "feature": {"sight_features": "", "sight_content": ""}}, {"title": "幸福农家乐", "address": "山东省济南市平阴县南门路中段", "image": "", "rank": 20, "time": 2, "location": {"lat": 36.28825628919824, "lng": 116.45514495729846}, "feature": {"sight_features": "", "sight_content": ""}}, {"title": "宝贝嘉年华(翠屏街店)", "address": "翠屏街锦水城苏宁电器3楼", "image": "", "rank": 21, "time": 2, "location": {"lat": 22.260792524526604, "lng": 113.52700492128876}, "feature": {"sight_features": "", "sight_content": ""}}, {"title": "卡卡兔儿童乐园(茂昌银座店)", "address": "茂昌银座3层303-307", "image": "", "rank": 22, "time": 2, "location": {"lat": 36.29070967715726, "lng": 116.46344082844583}, "feature": {"sight_features": "", "sight_content": ""}}, {"title": "银楚展厅", "address": "锦水河街与青龙路交叉口东北100米", "image": "", "rank": 23, "time": 2, "location": {"lat": 36.283977460193675, "lng": 116.45105665214284}, "feature": {"sight_features": "", "sight_content": ""}}, {"title": "观音院", "address": "济南市平阴县", "image": "", "rank": 24, "time": 2, "location": {"lat": 36.29486132106647, "lng": 116.46261667805571}, "feature": {"sight_features": "", "sight_content": ""}}, {"title": "中国若瑟山", "address": "白云峪村北", "image": "", "rank": 25, "time": 2, "location": {"lat": 36.19956869615933, "lng": 116.42900640582353}, "feature": {"sight_features": "", "sight_content": ""}}, {"title": "平阴县宝贝嘉年华儿童乐园", "address": "山东省济南市平阴县翠屏街锦水城苏宁电器3楼", "image": "", "rank": 26, "time": 2, "location": {"lat": 36.287841085125564, "lng": 116.4619473281626}, "feature": {"sight_features": "", "sight_content": ""}}, {"title": "尹花佳园", "address": "青龙路玫瑰酒厂向东100米尹庄佳园附近", "image": "", "rank": 27, "time": 2, "location": {"lat": 36.26875913685728, "lng": 116.44932819466362}, "feature": {"sight_features": "", "sight_content": ""}}, {"title": "观音院", "address": "山东省济南市平阴县翠屏山路", "image": "", "rank": 28, "time": 2, "location": {"lat": 36.24493909203716, "lng": 116.38994553196035}, "feature": {"sight_features": "", "sight_content": ""}}, {"title": "平阴县南关基督教会", "address": "南门路附近", "image": "", "rank": 29, "time": 2, "location": {"lat": 37.8762023173779, "lng": 112.50933231485321}, "feature": {"sight_features": "", "sight_content": ""}}, {"title": "糖果儿童乐园(龙山店)", "address": "济南市平阴县东关路与五岭路交叉口龙山小学西玫城超市3楼", "image": "", "rank": 30, "time": 2, "location": {"lat": 36.298043800192076, "lng": 116.46664324267363}, "feature": {"sight_features": "", "sight_content": ""}}, {"title": "玫瑰汤泉", "address": "济南市平阴县城青龙路247号", "image": "", "rank": 31, "time": 2, "location": {"lat": 36.25425775310174, "lng": 116.44859206294227}, "feature": {"sight_features": "", "sight_content": "玫瑰汤泉是集汤泉、客房、自助美食、养生汗蒸、儿童水上乐园、儿童淘气堡、游泳、健身、休闲娱乐于一体的大型休闲汤泉。\n\n\n内设有特色岩石房、黄土房、玉石沙坑、露营区、儿童乐园等休闲娱乐场所。"}}, {"title": "平阴狮耳山", "address": "济南市平阴县东阿镇西两公里的范庄村南", "image": "", "rank": 32, "time": 0.75, "location": {"lat": 36.17533816721456, "lng": 116.24837506201271}, "feature": {"sight_features": "", "sight_content": ""}}, {"title": "莲花山紫云珠葡萄采摘园", "address": "220国道", "image": "", "rank": 33, "time": 2, "location": {"lat": 37.17596288433241, "lng": 117.3770162573979}, "feature": {"sight_features": "", "sight_content": ""}}, {"title": "平阴军事水上乐园", "address": "玫城公园内东北角", "image": "", "rank": 34, "time": 0.75, "location": {"lat": 36.30034548580974, "lng": 116.45583456757406}, "feature": {"sight_features": "", "sight_content": ""}}, {"title": "薰衣草靓装", "address": "汇东大街与105国道交叉口西150米", "image": "", "rank": 35, "time": 2, "location": {"lat": 36.11801394800359, "lng": 116.46093636615859}, "feature": {"sight_features": "", "sight_content": ""}}, {"title": "一霖少儿艺术团", "address": "黄河路", "image": "", "rank": 36, "time": 2, "location": {"lat": 31.810521873018473, "lng": 120.50645664966702}, "feature": {"sight_features": "", "sight_content": ""}}, {"title": "易启巴巴体验馆", "address": "黄河路中段", "image": "", "rank": 37, "time": 2, "location": {"lat": 36.29178533121477, "lng": 116.45998505882692}, "feature": {"sight_features": "", "sight_content": ""}}, {"title": "玫瑰翠屏山", "address": "山东省济南市平阴县城西南10公里", "image": "", "rank": 38, "time": 2, "location": {"lat": 36.29486132106647, "lng": 116.46261667805571}, "feature": {"sight_features": "", "sight_content": ""}}, {"title": "露德圣母堂", "address": "山东省济南市平阴胡庄尖山", "image": "", "rank": 39, "time": 1.5, "location": {"lat": 36.246901178436524, "lng": 116.44288746363172}, "feature": {"sight_features": "", "sight_content": ""}}, {"title": "圣母山教堂", "address": "山东省济南市平阴青龙路", "image": "", "rank": 40, "time": 2, "location": {"lat": 36.27604116080598, "lng": 116.44786973458339}, "feature": {"sight_features": "", "sight_content": ""}}]}