{"cityName": "平度", "days": null, "cityImage": "", "spots": [{"title": "青岛茶山", "address": "青岛市平度市店子镇", "image": "", "rank": 1, "time": 4.5, "location": {"lat": 36.91146103897639, "lng": 119.88793091590848}, "feature": {"sight_features": "特色1 有世界上最大山体活观音", "sight_content": "青岛茶山风景区位于平度市城北20公里，北接大泽，东邻崮山，最高峰海拔560米。\n占地面积约10平方公里。以“山石、山泉、山花、山寺”为主题，不仅依靠山奇水秀、物产丰富的自然优势，而且还凭借山东省海拔最高的般若寺宗教文人气息，形成了生态观光区、拓展体验区、别墅接待区、宗教朝圣区、茶山湖水上运动区、餐饮服务区、儿童游乐区等八大功能区，是融山、石、林、花、果、河、湖、泉、瀑、寺于一体，集观光游览、宗教朝圣、动感体验、休闲度假于一身的多元多质综合型精品旅游景区，是都市人回归山野、身心康宁、追寻放松的绝佳胜地。\n茶山是果树的世界，每年从4月到11月，桃树、樱桃树、杏树、梨树、葡萄、栗子树、柿子树等纯天然无污染绿色果树相继成熟结果，真可谓一年三季瓜果飘香、色彩缤纷、伸手可及，令人垂涎欲滴、身心陶醉，回归山林之乐尽在不言中。茶山景区的山体形奇而石怪，大自然的鬼斧神工、造化神秀表露无遗，堪称自然阴阳对称奇迹的万古睡佛及与其对称的千年睡菩萨自然山体景观，便是如此杰作。"}}, {"title": "大泽山", "address": "青岛市平度市大泽山风景名胜区", "image": "", "rank": 2, "time": 2.0, "location": {"lat": 37.004877654023474, "lng": 120.02137368917818}, "feature": {"sight_features": "", "sight_content": ""}}, {"title": "现河公园", "address": "青岛市平度市红旗路29号", "image": "", "rank": 3, "time": 1.0, "location": {"lat": 36.79369303500993, "lng": 119.97873356282406}, "feature": {"sight_features": "", "sight_content": ""}}, {"title": "平度市博物馆", "address": "青岛市平度市红旗路91号", "image": "", "rank": 4, "time": 1.0, "location": {"lat": 36.79227428417047, "lng": 119.96375221191876}, "feature": {"sight_features": "", "sight_content": ""}}, {"title": "中国芹菜博物馆", "address": "青岛市平度市青岛路（马家沟芹菜产业示范园）", "image": "", "rank": 5, "time": 1.0, "location": {"lat": 36.78489713078323, "lng": 119.97475122448131}, "feature": {"sight_features": "", "sight_content": ""}}, {"title": "东莫汤泉（平度店）", "address": "青岛市平度天津路宜室宜家国际家居博览中心南门西侧", "image": "", "rank": 6, "time": 2, "location": {"lat": 36.804694773482694, "lng": 120.00721404437371}, "feature": {"sight_features": "", "sight_content": ""}}, {"title": "刘谦初故居", "address": "青岛市平度市田庄镇刘家庄村东首街南北巷东侧78号", "image": "", "rank": 7, "time": 0.75, "location": {"lat": 36.79001263103681, "lng": 119.80004622669621}, "feature": {"sight_features": "", "sight_content": ""}}, {"title": "平度革命烈士陵园", "address": "青岛市平度市李元办事处万家疃", "image": "", "rank": 8, "time": 0.75, "location": {"lat": 36.78269225408944, "lng": 119.9944142939757}, "feature": {"sight_features": "", "sight_content": ""}}, {"title": "老龙湾", "address": "平度城东北十公里", "image": "", "rank": 9, "time": 7.5, "location": {"lat": 36.78269225408944, "lng": 119.9944142939757}, "feature": {"sight_features": "", "sight_content": ""}}, {"title": "杨明斋故居", "address": "青岛市平度市马戈庄镇马戈庄村", "image": "", "rank": 10, "time": 0.75, "location": {"lat": 36.811160626252295, "lng": 119.62685419457645}, "feature": {"sight_features": "", "sight_content": ""}}, {"title": "青岛茶山国际高尔夫乡村俱乐部", "address": "山东省青岛市平度市店子镇茶山", "image": "", "rank": 11, "time": 0.75, "location": {"lat": 36.93663132833031, "lng": 119.99279324329308}, "feature": {"sight_features": "", "sight_content": ""}}, {"title": "蓝树谷青少年世博园（全国青少年...", "address": "青岛平度市云山镇蓝树谷路8号（309国道旁）", "image": "", "rank": 12, "time": 2, "location": {"lat": 36.77498588868054, "lng": 119.79427865347448}, "feature": {"sight_features": "", "sight_content": "蓝树谷现有主题场馆57个，总建设面积20万平方米，以“学工、学农、学军、学商”的各种社会职业体验和角色互动为特色。各场馆主要针对5-18岁年龄阶段的青少年及其家长。场馆园区涵盖了艺术体验类、媒体体验类、体育体验类、现代科技体验类、公共事业体验类、金融、商业体验类、医疗体验类、建筑体验类、军事体验类、工业体验类、农业体验类、交通体验类等丰富多样的体验内容。"}}, {"title": "黄金湖岸乡村高尔夫", "address": "中国青岛平度市祝沟镇北黄东村", "image": "", "rank": 13, "time": 2, "location": {"lat": 36.963947755418474, "lng": 120.2659398319149}, "feature": {"sight_features": "", "sight_content": ""}}, {"title": "金湾国际商务会馆", "address": "青岛市平度市杭州路16号（杭州路中学对面）", "image": "", "rank": 14, "time": 2, "location": {"lat": 36.78740633667712, "lng": 119.97442394213995}, "feature": {"sight_features": "", "sight_content": ""}}, {"title": "文王山风景区", "address": "青岛市平度市李园街道办事处092县道北", "image": "", "rank": 15, "time": 2, "location": {"lat": 36.79760562094244, "lng": 119.94335059066799}, "feature": {"sight_features": "", "sight_content": ""}}, {"title": "琥珀山庄跑马场", "address": "青岛市平度市古琥公路双庙水库东侧（佳乐家超市北直行5公里）", "image": "", "rank": 16, "time": 2, "location": {"lat": 36.85204396397196, "lng": 119.9637511743759}, "feature": {"sight_features": "", "sight_content": ""}}, {"title": "大泽山葡萄(尹家葡萄)", "address": "人民路195号(国美电器西100米)", "image": "", "rank": 17, "time": 2, "location": {"lat": 42.97503212235259, "lng": 126.75502868678304}, "feature": {"sight_features": "", "sight_content": ""}}, {"title": "大泽山周家大院", "address": "大泽山镇北台村78号", "image": "", "rank": 18, "time": 2, "location": {"lat": 37.00890456780724, "lng": 120.00669414287337}, "feature": {"sight_features": "", "sight_content": ""}}, {"title": "xroom竟跑联盟", "address": "胜利路惠和衣家时尚广场四楼(北方国贸西侧)", "image": "", "rank": 19, "time": 2, "location": {"lat": 30.588355955449092, "lng": 114.29689282235536}, "feature": {"sight_features": "", "sight_content": ""}}, {"title": "口子樱桃园", "address": "张戈庄村", "image": "", "rank": 20, "time": 2, "location": {"lat": 36.072522775613855, "lng": 120.17013393142754}, "feature": {"sight_features": "", "sight_content": ""}}, {"title": "平度市北苑朝阳马术俱乐部", "address": "广州路北端梨沟山北苑环保材料公司院内", "image": "", "rank": 21, "time": 2, "location": {"lat": 29.93654018611347, "lng": 121.83366606254555}, "feature": {"sight_features": "", "sight_content": ""}}, {"title": "龙虎山避暑山庄", "address": "217省道", "image": "", "rank": 22, "time": 7.5, "location": {"lat": 39.08362397662689, "lng": 117.74948306857745}, "feature": {"sight_features": "", "sight_content": ""}}, {"title": "韩龙高尔夫球场", "address": "祝沟镇北黄同水库", "image": "", "rank": 23, "time": 2, "location": {"lat": 36.87961248684012, "lng": 120.25174250319431}, "feature": {"sight_features": "", "sight_content": ""}}, {"title": "东莫汤泉", "address": "广场西路", "image": "", "rank": 24, "time": 2, "location": {"lat": 37.98241729184802, "lng": 115.22348279194271}, "feature": {"sight_features": "", "sight_content": ""}}, {"title": "豹竹云台", "address": "山东省平度市城北六里两髻山前豹竹涧内 266700", "image": "", "rank": 25, "time": 2, "location": {"lat": 36.78269225408944, "lng": 119.9944142939757}, "feature": {"sight_features": "", "sight_content": ""}}, {"title": "六曲山墓群", "address": "山东省平度市市区东南25公里处六曲山 266700", "image": "", "rank": 26, "time": 2, "location": {"lat": 36.78269225408944, "lng": 119.9944142939757}, "feature": {"sight_features": "", "sight_content": ""}}, {"title": "平度市背包客旅游信息咨询工作室", "address": "苏州路60号", "image": "", "rank": 27, "time": 2, "location": {"lat": 36.294950065962674, "lng": 120.01966696530248}, "feature": {"sight_features": "", "sight_content": ""}}, {"title": "官庄影剧院", "address": "603省道附近", "image": "", "rank": 28, "time": 2, "location": {"lat": 36.444232017881475, "lng": 120.9089036760214}, "feature": {"sight_features": "", "sight_content": ""}}, {"title": "天柱山魏碑", "address": "青岛市平度市天柱山南", "image": "", "rank": 29, "time": 4.5, "location": {"lat": 36.97194221296452, "lng": 119.94723703130434}, "feature": {"sight_features": "", "sight_content": ""}}, {"title": "小平子草莓采摘基地", "address": "白沙河街道办事处麻兰徐家河岔村", "image": "", "rank": 30, "time": 2, "location": {"lat": 36.74516772177042, "lng": 120.10146766305849}, "feature": {"sight_features": "", "sight_content": ""}}, {"title": "代家庄文化活动广场", "address": "山东省青岛市平度市南京路140-142号", "image": "", "rank": 31, "time": 2, "location": {"lat": 36.8008366865312, "lng": 119.96189012161358}, "feature": {"sight_features": "", "sight_content": ""}}, {"title": "西城小院", "address": "山东省青岛市平度市李园街道锦州路西关鸿运新区南区", "image": "", "rank": 32, "time": 2, "location": {"lat": 36.78174763147771, "lng": 119.94308182574416}, "feature": {"sight_features": "", "sight_content": ""}}, {"title": "香里乡亲农家院", "address": "青岛路97号(东环石化加油站以东公路局100米景芝酒业院里)", "image": "", "rank": 33, "time": 2, "location": {"lat": 37.46321300722956, "lng": 118.54183382184013}, "feature": {"sight_features": "", "sight_content": ""}}, {"title": "平韩高尔夫练习场", "address": "同和街道办事处高尔夫路5号", "image": "", "rank": 34, "time": 2, "location": {"lat": 36.743851296475135, "lng": 119.9651077836791}, "feature": {"sight_features": "", "sight_content": ""}}, {"title": "博文伟业旗舰店", "address": "苏州路大润发对面碗碗香旁边", "image": "", "rank": 35, "time": 2, "location": {"lat": 38.8673689736002, "lng": 115.51321414212717}, "feature": {"sight_features": "", "sight_content": ""}}, {"title": "何家楼村土陶陈列馆", "address": "山东省平度市朝阳街市场附近", "image": "", "rank": 36, "time": 2, "location": {"lat": 36.77212545835669, "lng": 119.9724665344337}, "feature": {"sight_features": "", "sight_content": ""}}, {"title": "东方搏击武馆(西馆)", "address": "苏州路西50米", "image": "", "rank": 37, "time": 1.5, "location": {"lat": 39.190869127582516, "lng": 122.11592821198559}, "feature": {"sight_features": "", "sight_content": ""}}, {"title": "现河畔·公园家", "address": "人民路48号附近", "image": "", "rank": 38, "time": 2, "location": {"lat": 37.76088147293166, "lng": 114.540829562845}, "feature": {"sight_features": "", "sight_content": ""}}, {"title": "求知文化广场", "address": "山东省青岛市平度市西北街村即兰路南村镇政府西南100米", "image": "", "rank": 39, "time": 2, "location": {"lat": 36.54026210508002, "lng": 120.13805538147976}, "feature": {"sight_features": "", "sight_content": ""}}, {"title": "军伟沙场", "address": "山东省青岛市平度市李园街道顺昌街门村镇卫生院东450米", "image": "", "rank": 40, "time": 2, "location": {"lat": 36.79854780037933, "lng": 119.86379188021057}, "feature": {"sight_features": "", "sight_content": ""}}, {"title": "龅牙兔儿童情商乐园", "address": "山东省青岛市平度市杭州路94", "image": "", "rank": 41, "time": 2, "location": {"lat": 36.80402923378252, "lng": 119.97352163378062}, "feature": {"sight_features": "", "sight_content": ""}}, {"title": "迪乐尼儿童欢乐主题乐园", "address": "山东省青岛市平度市同和路191号-5号附近", "image": "", "rank": 42, "time": 2, "location": {"lat": 36.744069759295, "lng": 119.93909628134905}, "feature": {"sight_features": "", "sight_content": ""}}, {"title": "马家疃天主教堂", "address": "山东省青岛市平度市东马家疃村", "image": "", "rank": 43, "time": 2, "location": {"lat": 36.77905794539807, "lng": 119.86218440561913}, "feature": {"sight_features": "", "sight_content": ""}}, {"title": "平度市陶艺博物馆", "address": "山东省青岛市平度市凤台街道何家楼村", "image": "", "rank": 44, "time": 2, "location": {"lat": 36.77348625292486, "lng": 119.97240526011657}, "feature": {"sight_features": "", "sight_content": ""}}, {"title": "景福宫(天厨一品)", "address": "人民路85号(东莱大酒店对面)", "image": "", "rank": 45, "time": 2, "location": {"lat": 36.796885006047255, "lng": 119.9728943955515}, "feature": {"sight_features": "", "sight_content": ""}}, {"title": "奇乐儿儿童乐园（北方国贸店）", "address": "扬州路北方国贸2楼", "image": "", "rank": 46, "time": 2, "location": {"lat": 36.789665693934964, "lng": 119.96012980752606}, "feature": {"sight_features": "", "sight_content": ""}}, {"title": "旧店公园", "address": "山东省青岛市平度市S217", "image": "", "rank": 47, "time": 2, "location": {"lat": 36.78269225408944, "lng": 119.9944142939757}, "feature": {"sight_features": "", "sight_content": ""}}, {"title": "聪明树儿童乐园", "address": "山东省青岛市平度市S603", "image": "", "rank": 48, "time": 2, "location": {"lat": 36.78269225408944, "lng": 119.9944142939757}, "feature": {"sight_features": "", "sight_content": ""}}, {"title": "老贾樱桃采摘", "address": "三城路南仲家村北端(中国石化加油站斜对面)", "image": "", "rank": 49, "time": 2, "location": {"lat": 28.941021965251572, "lng": 118.87014828101871}, "feature": {"sight_features": "", "sight_content": ""}}, {"title": "平度财富广场", "address": "山东省青岛市平度市长江路17", "image": "", "rank": 50, "time": 2, "location": {"lat": 36.78316043101719, "lng": 120.00595205269157}, "feature": {"sight_features": "", "sight_content": ""}}, {"title": "侯家站村民广场", "address": "同兴路与宏泰路交叉口西150米", "image": "", "rank": 51, "time": 0.4, "location": {"lat": 36.73736104591528, "lng": 119.95407219840432}, "feature": {"sight_features": "", "sight_content": ""}}, {"title": "农家小院", "address": "人民路87-11附近", "image": "", "rank": 52, "time": 2, "location": {"lat": 31.743337788183187, "lng": 120.57047228081764}, "feature": {"sight_features": "", "sight_content": ""}}, {"title": "老谭家大泽山葡萄采摘", "address": "天池岭北侧", "image": "", "rank": 53, "time": 2, "location": {"lat": 36.2172778981181, "lng": 113.53853355613245}, "feature": {"sight_features": "", "sight_content": ""}}, {"title": "旧店泰德文化广场", "address": "山东省青岛市平度市金山路10号", "image": "", "rank": 54, "time": 7.5, "location": {"lat": 36.99819558912784, "lng": 120.21545520149151}, "feature": {"sight_features": "", "sight_content": ""}}, {"title": "老渔翁度假村", "address": "广州路16", "image": "", "rank": 55, "time": 2, "location": {"lat": 33.59045609962369, "lng": 119.12098952809761}, "feature": {"sight_features": "", "sight_content": ""}}, {"title": "万科住宅文化馆", "address": "山东省青岛市平度市红旗路87号", "image": "", "rank": 56, "time": 2.5, "location": {"lat": 36.792485503879064, "lng": 119.96559234134916}, "feature": {"sight_features": "", "sight_content": ""}}, {"title": "欢乐多多儿童室内游乐园", "address": "山东省青岛市平度市烟台路金桥·东方明珠附近", "image": "", "rank": 57, "time": 2, "location": {"lat": 36.76996302342547, "lng": 120.01302071095293}, "feature": {"sight_features": "", "sight_content": ""}}, {"title": "平度市基督教万家基督教会", "address": "万利街203号附近", "image": "", "rank": 58, "time": 2, "location": {"lat": 46.58076621772699, "lng": 125.11104354739214}, "feature": {"sight_features": "", "sight_content": ""}}, {"title": "前北村广场", "address": "南村镇前北村村委会附近", "image": "", "rank": 59, "time": 2, "location": {"lat": 36.55821809191936, "lng": 120.14713844762689}, "feature": {"sight_features": "", "sight_content": ""}}, {"title": "奇乐儿童主题公园", "address": "青岛市平度市扬州路58号北方国贸购物中心F2", "image": "", "rank": 60, "time": 2, "location": {"lat": 36.78939740838272, "lng": 119.95951835881289}, "feature": {"sight_features": "", "sight_content": ""}}]}