{"cityName": "平南", "days": 2, "cityImage": "", "spots": [{"title": "北帝山峡谷漂流", "address": "贵港市平南县大鹏镇景华村", "image": "", "rank": 1, "time": 2, "location": {"lat": 23.814837966739397, "lng": 110.19027805976107}, "feature": {"sight_features": "", "sight_content": ""}}, {"title": "平南县丹竹镇农科蜜丝枣农场", "address": "梅令村松山顶屯(省道旁)", "image": "", "rank": 2, "time": 2, "location": {"lat": 23.489419801009475, "lng": 110.55099171461382}, "feature": {"sight_features": "", "sight_content": ""}}, {"title": "鹏山胜景", "address": "广西壮族自治区平南县大鹏镇 537300", "image": "", "rank": 3, "time": 2, "location": {"lat": 23.780906505791123, "lng": 110.15321227034607}, "feature": {"sight_features": "", "sight_content": ""}}, {"title": "思旺影剧院", "address": "思旺镇附近", "image": "", "rank": 4, "time": 2, "location": {"lat": 23.727868232413076, "lng": 110.3016998283156}, "feature": {"sight_features": "", "sight_content": ""}}, {"title": "鲜榨果蔬汁", "address": "富强路与桂花路交叉口西南200米", "image": "", "rank": 5, "time": 2, "location": {"lat": 23.384299418002296, "lng": 110.519746972749}, "feature": {"sight_features": "", "sight_content": ""}}, {"title": "白马双英", "address": "广西壮族自治区平南县丹竹镇白马圩村 537313", "image": "", "rank": 6, "time": 2, "location": {"lat": 23.51810424477671, "lng": 110.54130945084727}, "feature": {"sight_features": "", "sight_content": ""}}, {"title": "思界圆通", "address": "广西壮族自治区贵港市平南县思界乡政府西北100米", "image": "", "rank": 7, "time": 2, "location": {"lat": 23.58189938605812, "lng": 110.30537002795006}, "feature": {"sight_features": "", "sight_content": ""}}, {"title": "美发园", "address": "丹竹镇镇北街", "image": "", "rank": 8, "time": null, "location": {"lat": 23.476528576015166, "lng": 110.53031406474769}, "feature": {"sight_features": "", "sight_content": ""}}, {"title": "宝福寺", "address": "广西壮族自治区贵港市平南县寺面镇", "image": "", "rank": 9, "time": 2, "location": {"lat": 23.16583138490453, "lng": 110.4987801215088}, "feature": {"sight_features": "", "sight_content": ""}}, {"title": "乌江广场", "address": "贵港市平南县江滨路19号", "image": "", "rank": 10, "time": 2, "location": {"lat": 23.552630017592012, "lng": 110.38899000506369}, "feature": {"sight_features": "", "sight_content": ""}}, {"title": "炫迪儿童乐园", "address": "广西壮族自治区贵港市平南县平南镇环城路百姓超市南50米", "image": "", "rank": 11, "time": 2, "location": {"lat": 23.551932108158606, "lng": 110.40149786313435}, "feature": {"sight_features": "", "sight_content": ""}}, {"title": "张廷纶尚书纪念馆", "address": "广西壮族自治区贵港市平南县朝阳路425号", "image": "", "rank": 12, "time": 2, "location": {"lat": 23.539326265601087, "lng": 110.41025005371519}, "feature": {"sight_features": "", "sight_content": ""}}, {"title": "王氏宗祠", "address": "广西壮族自治区贵港市平南县S211", "image": "", "rank": 13, "time": 2, "location": {"lat": 23.545506098828316, "lng": 110.39845197864268}, "feature": {"sight_features": "", "sight_content": ""}}, {"title": "平南县平南镇清平水族馆", "address": "广西壮族自治区贵港市平南县兴平路258号", "image": "", "rank": 14, "time": 2, "location": {"lat": 23.545070530964438, "lng": 110.40461754342365}, "feature": {"sight_features": "", "sight_content": ""}}, {"title": "梦幻儿童游乐园", "address": "广西壮族自治区贵港市平南县平南镇喜洋洋幼儿园", "image": "", "rank": 15, "time": 2, "location": {"lat": 23.519055729926865, "lng": 110.44956475366858}, "feature": {"sight_features": "", "sight_content": ""}}, {"title": "小马哥儿童游乐园", "address": "镇百货大楼", "image": "", "rank": 16, "time": 2, "location": {"lat": 39.91999423328294, "lng": 116.4166035591388}, "feature": {"sight_features": "", "sight_content": ""}}, {"title": "平南县财富广场", "address": "平南县商业大道", "image": "", "rank": 17, "time": 2, "location": {"lat": 23.56173685612323, "lng": 110.39929566717737}, "feature": {"sight_features": "", "sight_content": ""}}, {"title": "江滨广场", "address": "广西壮族自治区贵港市平南县城东路272号", "image": "", "rank": 18, "time": 2, "location": {"lat": 23.545028373814777, "lng": 110.3985186329115}, "feature": {"sight_features": "", "sight_content": ""}}, {"title": "海洋之星儿童游乐场", "address": "财富广场南面A2座（万国进口商品生活馆里）", "image": "", "rank": 19, "time": 2, "location": {"lat": 31.471330933235773, "lng": 104.7581937239566}, "feature": {"sight_features": "", "sight_content": ""}}, {"title": "贵港市平南县马练乡利俩村金月潭...", "address": "广西壮族自治区贵港市平南县", "image": "", "rank": 20, "time": 1.0, "location": {"lat": 23.545506098828316, "lng": 110.39845197864268}, "feature": {"sight_features": "", "sight_content": ""}}, {"title": "畅岩山", "address": "县城西北", "image": "", "rank": 21, "time": 2, "location": {"lat": 39.754319199493544, "lng": 118.4675874287618}, "feature": {"sight_features": "", "sight_content": ""}}, {"title": "平南县博物馆", "address": "贵港市平南县平南镇城湖路273号", "image": "", "rank": 22, "time": 2, "location": {"lat": 23.552911191769518, "lng": 110.40909159892989}, "feature": {"sight_features": "", "sight_content": ""}}, {"title": "粤东会馆", "address": "大安镇", "image": "", "rank": 23, "time": 3.0, "location": {"lat": 39.914734585359795, "lng": 117.54622102486748}, "feature": {"sight_features": "", "sight_content": ""}}, {"title": "欢乐儿童乐园", "address": "朝阳路新润成购物中心三楼电梯右手边直入", "image": "", "rank": 24, "time": 2, "location": {"lat": 23.55192690720238, "lng": 110.40215018834124}, "feature": {"sight_features": "", "sight_content": ""}}, {"title": "猎人归生态农庄", "address": "平南珍禽基地(平南车管所)", "image": "", "rank": 25, "time": 2, "location": {"lat": 23.545506098828316, "lng": 110.39845197864268}, "feature": {"sight_features": "", "sight_content": ""}}, {"title": "德湖水上乐园", "address": "德湖山庄大门往新桥方向约2公里", "image": "", "rank": 26, "time": 2, "location": {"lat": 22.800614073708534, "lng": 114.50987421673484}, "feature": {"sight_features": "", "sight_content": ""}}, {"title": "欢乐海洋游乐场", "address": "龚州大道华鹏国际对面(龙祥美食城对面)", "image": "", "rank": 27, "time": 2, "location": {"lat": 23.545963957016745, "lng": 110.41900505599226}, "feature": {"sight_features": "", "sight_content": ""}}, {"title": "鳄鱼漆", "address": "环城路118号", "image": "", "rank": 28, "time": 2, "location": {"lat": 31.39860317634355, "lng": 121.26374656941763}, "feature": {"sight_features": "", "sight_content": ""}}, {"title": "银丰乐园", "address": "丰门岭国道旁银丰乐园", "image": "", "rank": 29, "time": 2, "location": {"lat": 28.346972062956016, "lng": 121.65113115102953}, "feature": {"sight_features": "", "sight_content": ""}}, {"title": "银宇水上乐园", "address": "小桥村丰门屯", "image": "", "rank": 30, "time": 2, "location": {"lat": 39.555451753675335, "lng": 113.66190955943343}, "feature": {"sight_features": "", "sight_content": ""}}, {"title": "常满种植合作社", "address": "丹竹镇丹竹派出所100米", "image": "", "rank": 31, "time": 2, "location": {"lat": 23.47629258795554, "lng": 110.53255342090868}, "feature": {"sight_features": "", "sight_content": ""}}, {"title": "快乐魔方作文", "address": "平南镇大通道二小对面路口直入50米", "image": "", "rank": 32, "time": 2, "location": {"lat": 23.55729395398012, "lng": 110.39792593093621}, "feature": {"sight_features": "", "sight_content": ""}}, {"title": "桂润生态葡萄园", "address": "思旺镇六桂村内", "image": "", "rank": 33, "time": 2, "location": {"lat": 23.74689277653951, "lng": 110.2938174346208}, "feature": {"sight_features": "", "sight_content": ""}}, {"title": "平南县龚南群乐牛歌戏剧团", "address": "富民路", "image": "", "rank": 34, "time": 2, "location": {"lat": 40.35561640416306, "lng": 116.79599550361348}, "feature": {"sight_features": "", "sight_content": ""}}, {"title": "中华广场步行街", "address": "广西壮族自治区平南县环城路", "image": "", "rank": 35, "time": 2, "location": {"lat": 23.556995272447907, "lng": 110.40594892022294}, "feature": {"sight_features": "", "sight_content": ""}}, {"title": "东湖时代广场步行街", "address": "广西壮族自治区平南县东湖路附近", "image": "", "rank": 36, "time": 2, "location": {"lat": 23.54513927442081, "lng": 110.42136613524474}, "feature": {"sight_features": "", "sight_content": ""}}, {"title": "武塘肚", "address": "贵港市-平南县-二一一省道", "image": "", "rank": 37, "time": 2, "location": {"lat": 23.157806269396826, "lng": 110.36303808053452}, "feature": {"sight_features": "", "sight_content": ""}}, {"title": "马尾垌", "address": "贵港市-平南县", "image": "", "rank": 38, "time": 2, "location": {"lat": 23.545506098828316, "lng": 110.39845197864268}, "feature": {"sight_features": "", "sight_content": ""}}, {"title": "平南雄森动物大世界", "address": "贵港市平南县349县道北100米", "image": "", "rank": 39, "time": 2, "location": {"lat": 23.493948473536324, "lng": 110.36611226164975}, "feature": {"sight_features": "特色1 这里不仅是摄影爱好者的天堂，也是小朋友们的动植物科普基地 特色2 大规模动物种群放养和动物亲密互动", "sight_content": "平南雄森动物大世界位于平南县城区南侧平南县工业园区内，东面为211省道，主要配套项目有动物幼儿园、天鹅湖、大象乐园、猛兽区、天桥观光长廊、黑熊乐园、猴乐园、恐龙百鸟园、鸵鸟园、长颈鹿斑马馆、鳄鱼馆、两栖动物馆、大马戏演艺中心、农家乐餐厅、俄罗斯特色餐厅等。\n一进园区就是萌萌哒的动物幼儿园了，老虎、非洲狮、亚洲黑熊的小宝宝都在这里啦。萌态百出的它们是您来到雄森动物大世界见到的第一站小动物哦~\n它\n是南非的国兽\n是世界上最高的动物\n是世界上最优雅的动物\n是世界上脖子最长的动物\n是动物界当之无愧的大长腿\n它就是长颈鹿，还有斑马为邻\n它们都是非洲大草原上的土著哦！"}}]}