{"cityName": "萍乡", "days": "", "cityImage": "", "spots": [{"title": "孽龙洞", "address": "萍乡市上栗县福田镇清溪村", "image": "", "rank": 1, "time": 2.5, "location": {"lat": 27.75853688181981, "lng": 113.85239821589114}, "feature": {"sight_features": "特色1 不可多见的“岩溶地质的博物馆”", "sight_content": "孽龙洞位于江西省萍乡市上栗县福田镇清溪村，国家AAAA级旅游景区。319国道可直达，距萍乡市中心13公里，是以天然溶洞为主的自然景观，形成于1.8亿年前。一九八三年曾被中国风景名胜权威、同济大学教授、中国园林学家陈丛周先生誉名为\"天下第一洞、地下艺术长廊\",是一个休闲、游览、避暑的最佳去处.上海同济大学、上海电视台曾两次来访拍片,使孽龙洞闻名遐迩,吸引了众多中外游客前来观光游览.\n\n溶洞形成于1.8亿年前的海相石灰岩层,洞长4200米,常年恒温18度冬暖夏凉,蜿延曲折,溪水相伴,水随洞转,洞因水活,平坦处溪水静如玉带飘荡,断层处跌落成瀑,飞瀑声如春雷滚滚,岩缝中不时有清泉涌出,其声如铃似琴,洞中岩景乳石甚是发育,有的如玉雕,有的像刺绣,似人似兽,若物若影,惟妙惟肖.洞内庭廊相连,石笋、石花、石幔玲珑剔透,闪光发亮。"}}, {"title": "杨岐山", "address": "萍乡市上栗县", "image": "", "rank": 2, "time": 2, "location": {"lat": 27.886415692068386, "lng": 113.80153822403567}, "feature": {"sight_features": "", "sight_content": ""}}, {"title": "箭桥射箭馆", "address": "萍乡市安源区文化路步行街KFC对面三楼（冰点网吧楼上）", "image": "", "rank": 3, "time": 2, "location": {"lat": 27.636990069922696, "lng": 113.85737567911009}, "feature": {"sight_features": "", "sight_content": ""}}, {"title": "碧湖潭森林公园", "address": "南昌市高新区火炬大街38号世纪大厦六楼北侧", "image": "", "rank": 4, "time": 5.0, "location": {"lat": 28.693638914085017, "lng": 115.95591974846876}, "feature": {"sight_features": "", "sight_content": ""}}, {"title": "3D魔幻艺术动漫展", "address": "萍乡安源区文化路步行街万豪国际影城二楼", "image": "", "rank": 5, "time": 2, "location": {"lat": 27.638326646625917, "lng": 113.85718638637648}, "feature": {"sight_features": "", "sight_content": ""}}, {"title": "荷花博览园", "address": "萍乡市莲花县琴亭镇莲花村", "image": "", "rank": 6, "time": 2.5, "location": {"lat": 27.10701125271788, "lng": 113.9612920656058}, "feature": {"sight_features": "", "sight_content": ""}}, {"title": "仙凤三宝农业休闲观光园", "address": "萍乡市宣风镇竹垣村", "image": "", "rank": 7, "time": 2, "location": {"lat": 27.722554680885832, "lng": 114.17894753985392}, "feature": {"sight_features": "", "sight_content": "三宝园坐落在江西省萍乡市宣风镇竹垣村，江西健航实业有限公司根据未来的发展以及产业化目标而建立。三宝园在苗圃基地的自然和生态绿化环境的基础上，大力发掘宣风“三宝”的文化内涵， 集旅游观光、休闲娱乐、餐饮住宿、商务会议、运动竞技、拓展培训、素质教育以及购物于一体的综合性旅游实体，园内格局充分体现田园风光、自然生态、饲养农耕、湿地沙滩、三宝文化等特点，涉及十多门学科的理论与实践知识，能使每一个进园者在休闲娱乐中领略到其科学性、趣味性、时尚性，既是青少年学生体验农村生活、学习人类历史、开展科学实践的综合性课堂，也是都市人回归自然、休闲度假的好去处。\n园区总投资5.4个亿，总占地面积6200亩。一期开放1000亩，预计投资1个亿。仙凤三宝农业休闲观光园，以“沙湖湾”中央湖景区为核心，借以打造沙滩度假综合体验区和“湖心岛”景观中心，并与“暮光森林”相结合，建设出打破传统建筑束缚的生态帐篷酒店；并以观光游览小火车为线索，串联各个景观节点，营造“森林休博园”概念。同时以三宝农业文化体验区为核心,构建体验性观光农业。"}}, {"title": "万龙峡漂流", "address": "萍乡市芦溪县万龙乡", "image": "", "rank": 8, "time": 2, "location": {"lat": 27.636604718699513, "lng": 114.03651940468296}, "feature": {"sight_features": "特色1 两岸翠绿看不尽，一漂纵情山水间", "sight_content": "江西武功山万龙峡漂流地处江西省萍乡市武功山风景名胜区万龙山乡东坑村，全长4.2公里，落差高达168米，单个落差30余米，漂流时长约1个半小时，森林覆盖率达89.5%，号称“天然大氧吧”。 这里山水环绕，古木葱葱，谷深幽长，蜂蝶起舞，秀丽迷人，沿途S型、回旋型、波浪型多个激流险滩，真正让你徜徉在自然的怀抱，漂得刺激，玩的尽兴！"}}, {"title": "呀米DIY蛋糕烘培坊", "address": "萍乡市安源区武官巷二中旁边", "image": "", "rank": 9, "time": 2, "location": {"lat": 27.625750987015415, "lng": 113.85803010006373}, "feature": {"sight_features": "", "sight_content": ""}}, {"title": "明月峡漂流", "address": "萍乡市南坑镇明月湖旅游风景区（坪村水库)", "image": "", "rank": 10, "time": 2, "location": {"lat": 27.50054817227646, "lng": 113.98673107692764}, "feature": {"sight_features": "", "sight_content": ""}}, {"title": "晨飞CS野战基地", "address": "萍乡湘东区麻山镇善洲村颜家冲", "image": "", "rank": 11, "time": 2, "location": {"lat": 27.59229692092704, "lng": 113.81976503865769}, "feature": {"sight_features": "", "sight_content": ""}}, {"title": "安源锦绣城", "address": "萍乡市安源区萍安南大道东50米", "image": "", "rank": 12, "time": 2, "location": {"lat": 27.61252144489127, "lng": 113.8886525731257}, "feature": {"sight_features": "", "sight_content": "江西省萍乡市安源锦绣城，位于国家经典红色旅游区--安源景区的中心，地处安源国家森林公园境内。这里是中国现代工业的启航处、是工运动策源地、也是工农革命军和中国少年儿童团的诞生地，景区周边有多处国家级文物保护单位，红色文化旅游资源非常丰富。截至至今，安源锦绣城已完成第一、第二期项目，合计占地260亩。其中完成建筑面积5.6万平方米，绿化面积14万平方米，总计投资已超过5亿元人币。\n\n\n第一期工程建有仿明清风格街道、城楼、城墙、戏台、牌坊、赣西傩文化馆、民俗博物馆等，再现了老安源的街道、祠堂、茶楼、酒馆、宗教活动场所、民宅、以及工人俱乐部等多种功能设施。\n第二期工程仿造北京圆明园皇家园林风格建设。建有千米彩绘回廊，观光塔、中国革命历史石刻林，民俗浮雕群、文化广场，饮食文化街、会展大厅、宾馆等。\n第三期项目主要内容为锦绣城后山建设工程。长度将超过4千米的“中华历史文化长廊”（南起安源锦绣城现址，北至十里村，依山势建设）将成为后山建设的标志性工程之一。中华民族在五千年历史进程中，名人辈出，我们选取在科技与文化领域作出杰出贡献的像孔子、老子、祖冲之、张衡、屈原、班固、李白、郦道元、曹雪芹等教育家、哲学家、科学家和文学家、书法家等科技、文化名家，与古建筑融为一体，展示中华文明，激励人们特别是青少年为振兴中华而发奋图强。将中华历史文化名人融为一体的建筑就是中华历史文化长廊”。并且，将把中华历史文化名人廊打造成“天下第一名廊”。"}}, {"title": "一支枪野战俱乐部", "address": "萍乡市莲花县南岭乡、长家坪三一九国道803公桩", "image": "", "rank": 13, "time": 2, "location": {"lat": 27.315218245635737, "lng": 113.9200751157017}, "feature": {"sight_features": "", "sight_content": ""}}, {"title": "麻山阳光水岸度假村", "address": "萍乡市湘东区麻山镇幸福村", "image": "", "rank": 14, "time": 2, "location": {"lat": 27.56331214580841, "lng": 113.81153110118643}, "feature": {"sight_features": "", "sight_content": "麻山阳光水岸度假村山清水秀，风景宜人，近山近水，交通便利，市区驱车20分钟左右，集吃喝玩乐为一体。"}}, {"title": "天泉水都萍乡馆", "address": "萍乡市聚龙公园南2门（320国道旁，昌盛医药公司后）", "image": "", "rank": 15, "time": 2, "location": {"lat": 27.66525526118578, "lng": 113.81159322709719}, "feature": {"sight_features": "特色1 萍乡最大的室内四季恒温俱乐部", "sight_content": "天泉水都萍乡馆位于萍乡市聚龙公园南2门（320国道旁，昌盛医药公司后），众多专门的水疗SPA池和泡汤池，可同时容纳百人使用，纳米牛奶浴、死海漂浮池，湿蒸房、远红外烤箱、热疗房、能量房、冰水池等让可以随心选择。除了SPA池、泡汤池之外，还有大型互动亲子游乐区，你玩乐不断。\n天泉水都在江西已优质运营十余年时间。并聘请国际知名水处理专家李文昌博士担任俱乐部水质管理顾问，引进台湾一流的资深专业管理团队，采用国际先进的微电脑水监测仪、紫外线中压杀菌系统保障水质，场馆内终年保持恒温及不间断的水循环，单池3-4小时完成一个水循环，地暖覆盖，环境更清新，水质更清洁，让您的休闲体验更健康、更尽兴。天泉水都（萍乡馆）拥有两组国标泳道；18项独特水疗；多种泡汤池；三温暖和健身房等顶级设施。更拥有舒适的VIP更衣室；专业的教练与服务团队，保障您在游泳娱乐的中的安全与舒适；琴瑟悠扬，令人心旷神怡、心驰神往！\n天泉水都（萍乡馆）营业面积达10000平方米以上，拥有100多个停车位。馆外林木成荫，室内泳池内挑高达10米，宽敞舒适，环境优雅。场内科学合理地分布着泡汤区、SPA水疗区、三温暖、泳池区、健身区等八大功能区。独有的18项专业水疗项目让每位莅临者享尽真正的高级水疗设施的无限乐趣。"}}, {"title": "孽龙洞水上乐园", "address": "萍乡市上栗县杨岐乡清溪村", "image": "", "rank": 16, "time": 1.0, "location": {"lat": 27.83342511212099, "lng": 113.8518782218655}, "feature": {"sight_features": "", "sight_content": "江西省萍乡市孽龙洞水上乐园位于上栗县杨岐乡，距萍乡市中心13公里。占地6万平方米，可同时接待10000名游客参与体验，是萍乡首家大型水上乐园。\n\n\n园区内有娱乐区、美食区以及各类精彩热辣的活动。娱乐区有海啸池、大型水寨、大喇叭、冲天回旋、儿童戏水池等十多种惊险刺激、新颖好玩的水上游乐设施；全国美食、中西餐点、各式风味小食品种丰富；更有千人比基尼大会、俄罗斯足球世界杯狂欢节、非洲风情泼水狂欢节等众多精彩刺激的活动。"}}, {"title": "毛家湾文化村", "address": "迎宾大道（高速入口）与319国道交叉路口左侧", "image": "", "rank": 17, "time": 2, "location": {"lat": 29.723846606462008, "lng": 107.36733566907118}, "feature": {"sight_features": "", "sight_content": ""}}, {"title": "武功山滑草场", "address": "萍乡市芦溪县武功山风景名胜区麻田办事处大江边村", "image": "", "rank": 18, "time": 0.75, "location": {"lat": 27.481235990310147, "lng": 114.15003467871932}, "feature": {"sight_features": "特色1 集滑草、滑雪、水上乐园、卡丁车乐园、户外运动和拓展于一体的休闲娱乐游乐园", "sight_content": "武功山滑草场位于国家5A级景区萍乡武功山脚下，是集滑草、滑雪、水上乐园、卡丁车乐园、户外运动和拓展于一体的休闲娱乐游乐园。\n\n景区内环境优美，空气清醒，在罕见有雪的萍乡，滑草简直就是应景而生，园区内项目老少咸宜，让你玩到尽兴而归。\n主要游玩项目：\n七彩虹极速滑草\n滑草就是滑滑梯的衍生后代，滑道变成七彩的草道，坐在滑草盆从彩虹之巅往下极速滑下。这酸爽！！谁玩儿谁知道！\nATV越野车\n看着大红的越野车，铺满石子的弯曲赛道，血脉扩张，喜欢追求刺激、挑战极限的人一定可以在骑行的过程中享受到征服的快感。\n\n\n履带滑草\n\n仿佛中了臧老的魔咒，“倒，倒，倒，诶，又倒一个”，看着我们摔倒，他可开心了！\n\n\n极速漂流\n归还完滑草履带鞋子，可以在旁边坐圆皮艇滑水下来，一路的清凉。水上滑下来过程中还会自己打转转，十五秒的样子，速度不会太快，意外的是体验感还不错！\n百步穿杨射箭\n射箭区有雨棚阵雨来临时的落脚点，玩一次给十支箭。弓箭是偏专业的那种，需要比较大的力气拉开，人性化的分了儿童区和成人区。\n\n\n另外，景区还有四轮滑草车、高峰攀岩、游乐坦克、狩猎大战、旱滑、植物迷宫等刺激有趣的体验项目！"}}, {"title": "中国少年儿童运动安源纪念馆", "address": "陵园路", "image": "", "rank": 19, "time": 2, "location": {"lat": 39.621393536285936, "lng": 118.17592745707117}, "feature": {"sight_features": "", "sight_content": ""}}, {"title": "发发婆小龙庄", "address": "麻山镇连山村连山小学正对面100米(连山小学)", "image": "", "rank": 20, "time": 2, "location": {"lat": 27.55436254110975, "lng": 113.78486484014847}, "feature": {"sight_features": "", "sight_content": ""}}, {"title": "横龙寺", "address": "江西省萍乡市安源", "image": "", "rank": 21, "time": 2, "location": {"lat": 27.621307703861603, "lng": 113.87743991926233}, "feature": {"sight_features": "", "sight_content": ""}}, {"title": "山水美生态主题公园", "address": "萍乡市上栗县", "image": "", "rank": 22, "time": 2, "location": {"lat": 27.886415692068386, "lng": 113.80153822403567}, "feature": {"sight_features": "", "sight_content": ""}}, {"title": "乐骋沙滩车俱乐部", "address": "萍乡市芦溪县石溪村", "image": "", "rank": 23, "time": 2, "location": {"lat": 27.494972437334994, "lng": 114.10641759932395}, "feature": {"sight_features": "", "sight_content": "萍乡市武功山乐聘部落户外俱乐部有限公司成立于2017年，该项目经营沙滩车业务，公司现有多台全地形沙滩车。每天可运营4-5趟，可接待人数100至150人。每趟骑行时间90分钟至120分钟（视游客上手情况而定）。全程公里数15公里，全程与山地越野专业领队一起启程，一路体验不同的骑行乐趣.\n\n\n乐骋沙滩车俱乐部位于自然风景绝美的武功山石溪村，仅此一家。景区周边景色秀丽，宁静安谧。四周云蒙山脉群山环绕，郁郁青山连绵起伏，巍峨险峻各不相同，门前白河水潺潺流过，河水清澈见底，各色卵石在水中闪亮。一场酣畅淋漓的飞跃之后，在休息区坐下来，架上烧烤架，饮一杯清茶，尝一串烧烤，欣赏武功石溪全景，绝对会释放出所有积压的负能量！"}}, {"title": "安源森林公园", "address": "江西省萍乡市安源辽源小号大道1号", "image": "", "rank": 24, "time": 2, "location": {"lat": 27.621307703861603, "lng": 113.87743991926233}, "feature": {"sight_features": "", "sight_content": ""}}, {"title": "文廷式墓", "address": "江西省萍乡市安源区境内", "image": "", "rank": 25, "time": 2, "location": {"lat": 27.621307703861603, "lng": 113.87743991926233}, "feature": {"sight_features": "", "sight_content": ""}}, {"title": "瑶金山寺", "address": "萍乡市上栗县金山镇", "image": "", "rank": 26, "time": 2, "location": {"lat": 27.93310367255757, "lng": 113.8089668952955}, "feature": {"sight_features": "", "sight_content": ""}}, {"title": "人文纪念公园", "address": "青浦区外青松公路7270号福寿园", "image": "", "rank": 27, "time": 1.0, "location": {"lat": 31.117877869038054, "lng": 121.13797319801571}, "feature": {"sight_features": "", "sight_content": ""}}, {"title": "湖塘村", "address": "萍乡市莲花县湖塘村", "image": "", "rank": 28, "time": 2, "location": {"lat": 27.273556866198167, "lng": 114.1268274598261}, "feature": {"sight_features": "", "sight_content": ""}}, {"title": "莲花村", "address": "江西省萍乡莲花县莲花村", "image": "", "rank": 29, "time": 2, "location": {"lat": 27.10701125271788, "lng": 113.9612920656058}, "feature": {"sight_features": "", "sight_content": ""}}, {"title": "白竺村", "address": "萍乡市莲花县白竺村", "image": "", "rank": 30, "time": 2, "location": {"lat": 27.421782656256593, "lng": 113.82397540376802}, "feature": {"sight_features": "", "sight_content": ""}}, {"title": "黄沙村", "address": "萍乡市莲花县黄沙村", "image": "", "rank": 31, "time": 2, "location": {"lat": 27.41510686481097, "lng": 114.02279676934411}, "feature": {"sight_features": "", "sight_content": ""}}, {"title": "金水湾", "address": "李畋大道西50米", "image": "", "rank": 32, "time": 2, "location": {"lat": 27.890879315954926, "lng": 113.80999639922317}, "feature": {"sight_features": "", "sight_content": ""}}, {"title": "孽龙洞农场 鲜果采摘园", "address": "孽龙洞出口前200m", "image": "", "rank": 33, "time": 2, "location": {"lat": 27.776471078359545, "lng": 113.87467156266464}, "feature": {"sight_features": "", "sight_content": ""}}, {"title": "栗都休闲广场", "address": "建设西路附近", "image": "", "rank": 34, "time": 2, "location": {"lat": 40.81103539442299, "lng": 114.88582245368022}, "feature": {"sight_features": "", "sight_content": ""}}, {"title": "荷塘乡", "address": "江西省萍乡莲花县荷塘乡", "image": "", "rank": 35, "time": 2, "location": {"lat": 27.175954076712337, "lng": 113.86776725927997}, "feature": {"sight_features": "", "sight_content": ""}}, {"title": "四桂村", "address": "萍乡市莲花县四桂村", "image": "", "rank": 36, "time": 2, "location": {"lat": 27.237991447357523, "lng": 113.9575608656374}, "feature": {"sight_features": "", "sight_content": ""}}, {"title": "仰山文塔", "address": "江西省萍乡市莲花县", "image": "", "rank": 37, "time": 2, "location": {"lat": 27.133462711027768, "lng": 113.96854067422115}, "feature": {"sight_features": "", "sight_content": ""}}, {"title": "双月湾旅游度假区", "address": "萍乡市湘东区麻山生态新区幸福村内", "image": "", "rank": 38, "time": 2.5, "location": {"lat": 27.645875074875434, "lng": 113.74049971211109}, "feature": {"sight_features": "", "sight_content": ""}}, {"title": "三十六湾峡谷漂流", "address": "萍乡市湘东区塘溪村三十六湾大峡谷", "image": "", "rank": 39, "time": 2, "location": {"lat": 27.439377844745778, "lng": 113.7297061015985}, "feature": {"sight_features": "", "sight_content": ""}}, {"title": "武功山漂流", "address": "萍乡市芦溪县麻田乡大江边村（武功山滑草场附近）", "image": "", "rank": 40, "time": 2, "location": {"lat": 27.486877461021873, "lng": 114.13932625361991}, "feature": {"sight_features": "特色1 云中草原“夏”的激湧之约", "sight_content": "萍乡武功山漂流位于国家AAAA级武功山风景名胜区的核心景区内。海拔1918米的高山孕育出武功大峡谷清泉，漂流河道从武功山山脚龙王潭村贯穿至大江边村，全长3.2公里，总落差138米，单体最大落差18米，大小刺激节点33处，五虎踏浪、古桥映波、流水穿石、一线清空、龙潭飞越等留恋忘返的景点9处，经科学设计精工打造，武功山漂流以有惊无险、极速刺激的穿越之感，让户外爱好者在云中仙境的大美武功山体验中流击水、浪遏飞舟豪迈之情。\n萍乡武功山漂流游客服务中心为每位挑战漂流的勇士提供免费专用漂流鞋、帽，免费冷热水冲浴、免费姜茶，舒适的游客等候厅。"}}, {"title": "机械迷城超级密室", "address": "翡翠城4栋201室", "image": "", "rank": 41, "time": 2, "location": {"lat": 43.85904138492022, "lng": 125.3505299955097}, "feature": {"sight_features": "", "sight_content": ""}}, {"title": "星河·大艺画廊", "address": "北桥桥头滨河东路26号(海天阁河对面)", "image": "", "rank": 42, "time": 2, "location": {"lat": 27.633808831359318, "lng": 113.86107674542018}, "feature": {"sight_features": "", "sight_content": ""}}, {"title": "鹅湖公园旋风骑士", "address": "鹅湖公园游乐场(鹅湖公园游乐场)", "image": "", "rank": 43, "time": 2, "location": {"lat": 27.64271428015015, "lng": 113.86970170629675}, "feature": {"sight_features": "", "sight_content": ""}}, {"title": "萍乡市萍乡剧院", "address": "楚萍东路208号", "image": "", "rank": 44, "time": 1.5, "location": {"lat": 27.648811527463998, "lng": 113.86238710366713}, "feature": {"sight_features": "", "sight_content": ""}}, {"title": "大中国凯歌大剧院", "address": "文化路步行街", "image": "", "rank": 45, "time": 2, "location": {"lat": 27.637092926590825, "lng": 113.85753498011765}, "feature": {"sight_features": "", "sight_content": ""}}, {"title": "宝宏葡萄种植基地", "address": "314省道附近", "image": "", "rank": 46, "time": 2, "location": {"lat": 40.19306973684933, "lng": 117.32479692178045}, "feature": {"sight_features": "", "sight_content": ""}}, {"title": "博尚高尔夫俱乐部", "address": "东大街街道康庄路龙华云锦附近", "image": "", "rank": 47, "time": 2, "location": {"lat": 22.75759664922203, "lng": 114.04852876121132}, "feature": {"sight_features": "", "sight_content": ""}}, {"title": "萍乡学院-音乐厅", "address": "城郊管委会萍乡学院-音乐厅", "image": "", "rank": 48, "time": 1.5, "location": {"lat": 27.63256374096875, "lng": 113.84082005588877}, "feature": {"sight_features": "", "sight_content": ""}}, {"title": "上栗县彭高乐维松果园", "address": "彭高镇东山村中国石化加油站旁319国道边(高速桥)", "image": "", "rank": 49, "time": 2, "location": {"lat": 28.941021965251572, "lng": 118.87014828101871}, "feature": {"sight_features": "", "sight_content": ""}}, {"title": "一枝枪纪念馆", "address": "解放街148号", "image": "", "rank": 50, "time": 2, "location": {"lat": 31.561362319068166, "lng": 121.63935415489752}, "feature": {"sight_features": "", "sight_content": ""}}, {"title": "哈贝熊儿童中心", "address": "人民东路新天地步行街A209", "image": "", "rank": 51, "time": 2, "location": {"lat": 23.36352934495819, "lng": 103.40007193252787}, "feature": {"sight_features": "", "sight_content": ""}}, {"title": "芦溪县宣风镇火龙果基地", "address": "320国道附近", "image": "", "rank": 52, "time": 2, "location": {"lat": 27.256565251327487, "lng": 111.28158164529765}, "feature": {"sight_features": "", "sight_content": ""}}, {"title": "均享葡萄主题公园", "address": "312省道西50米", "image": "", "rank": 53, "time": 2, "location": {"lat": 36.622905905946894, "lng": 114.42276087515805}, "feature": {"sight_features": "", "sight_content": ""}}, {"title": "萍乡岩溶博物馆", "address": "江西省芦溪县境内 337200", "image": "", "rank": 54, "time": 1.5, "location": {"lat": 27.636604718699513, "lng": 114.03651940468296}, "feature": {"sight_features": "", "sight_content": ""}}, {"title": "渐潭村", "address": "江西省萍乡市莲花县渐潭村", "image": "", "rank": 55, "time": 2, "location": {"lat": 27.18845030779239, "lng": 113.9703234109119}, "feature": {"sight_features": "", "sight_content": ""}}, {"title": "安源路矿工人运动纪念馆", "address": "安源镇安源路", "image": "", "rank": 56, "time": 2, "location": {"lat": 27.613777462220526, "lng": 113.88025916127391}, "feature": {"sight_features": "", "sight_content": ""}}, {"title": "萍乡市群众艺术馆", "address": "江西省萍乡市南环路", "image": "", "rank": 57, "time": 1.5, "location": {"lat": 27.62382217580011, "lng": 113.86323676683178}, "feature": {"sight_features": "", "sight_content": ""}}, {"title": "后殿列仙", "address": "萍乡市湘东区聚仙寺内", "image": "", "rank": 58, "time": 2, "location": {"lat": 27.645875074875434, "lng": 113.74049971211109}, "feature": {"sight_features": "", "sight_content": ""}}, {"title": "万仕达儿童乐园", "address": "金山七街与金山路交叉口东北50米万仕达超级购物中心", "image": "", "rank": 59, "time": 2, "location": {"lat": 27.652390173451224, "lng": 113.88128271302926}, "feature": {"sight_features": "", "sight_content": ""}}, {"title": "龙安庙", "address": "江西省萍乡市安源区昭萍西路横龙古洞附近", "image": "", "rank": 60, "time": 2, "location": {"lat": 27.63247327742603, "lng": 113.83706986843681}, "feature": {"sight_features": "", "sight_content": ""}}]}