{"cityName": "平泉", "days": 2, "cityImage": "", "spots": [{"title": "乐翻天欢乐谷", "address": "承德市平泉市G101国道", "image": "", "rank": 1, "time": 1.5, "location": {"lat": 41.02375562592939, "lng": 118.70742672204064}, "feature": {"sight_features": "", "sight_content": "乐翻天欢乐谷拥有50余种娱乐项目，集 海、陆、空三栖游乐于一体的日夜两重大型娱乐主题乐园。浪漫摩天轮、刺激大摆锤、大型水上乐园， 豪华旋转木马、高空飞翔、惊险跳楼机、奇趣海盗船、疯狂过山车、峡谷冲刺带来刺激体验。"}}, {"title": "辽河源冰雪公园", "address": "承德市平泉市柳溪满族乡七家村", "image": "", "rank": 2, "time": 2, "location": {"lat": 41.24087027832708, "lng": 118.6578180742353}, "feature": {"sight_features": "", "sight_content": ""}}, {"title": "辽河源", "address": "城西北60公里", "image": "", "rank": 3, "time": 2, "location": {"lat": 37.06766958520577, "lng": 101.77241422413312}, "feature": {"sight_features": "", "sight_content": ""}}, {"title": "鑫旺顶佳艺术画廊", "address": "府前街", "image": "", "rank": 4, "time": 2, "location": {"lat": 40.21766577839302, "lng": 116.66222689966413}, "feature": {"sight_features": "", "sight_content": ""}}, {"title": "国才自选李子采摘园", "address": "南五十家子镇杨杖子村平铁线公路到东", "image": "", "rank": 5, "time": 2, "location": {"lat": 40.91812148227934, "lng": 118.65075903772426}, "feature": {"sight_features": "", "sight_content": ""}}, {"title": "北京林业大学北方基地", "address": "平青乐线与252省道交叉口北200米", "image": "", "rank": 6, "time": 1.0, "location": {"lat": 41.024995881424516, "lng": 118.71487178827678}, "feature": {"sight_features": "", "sight_content": ""}}, {"title": "百家蘑菇庄园", "address": "卧龙镇", "image": "", "rank": 7, "time": 2, "location": {"lat": 29.139038842587052, "lng": 93.71011369599941}, "feature": {"sight_features": "", "sight_content": ""}}, {"title": "会州城", "address": "河北省平泉县会州城村 067500", "image": "", "rank": 8, "time": 2, "location": {"lat": 40.92855752423673, "lng": 118.64559941521404}, "feature": {"sight_features": "", "sight_content": ""}}, {"title": "平泉中心广场", "address": "喧哗街", "image": "", "rank": 9, "time": 1.5, "location": {"lat": 41.00822593339305, "lng": 118.69704845475499}, "feature": {"sight_features": "", "sight_content": ""}}, {"title": "辽河源漂流", "address": "柳溪镇七家村辽河源漂流景区", "image": "", "rank": 10, "time": 2, "location": {"lat": 41.24087027832708, "lng": 118.6578180742353}, "feature": {"sight_features": "", "sight_content": ""}}, {"title": "就日馆", "address": "平泉市福佑路", "image": "", "rank": 11, "time": 2, "location": {"lat": 41.02375562592939, "lng": 118.70742672204064}, "feature": {"sight_features": "", "sight_content": ""}}, {"title": "承德市休闲山庄度假村", "address": "火神庙粮食北山", "image": "", "rank": 12, "time": 4.5, "location": {"lat": 34.91213317214712, "lng": 111.9768075694661}, "feature": {"sight_features": "", "sight_content": ""}}, {"title": "建为契丹文化博物馆", "address": "兴平中路369号附近", "image": "", "rank": 13, "time": 2, "location": {"lat": 26.411026246513373, "lng": 106.26530811415665}, "feature": {"sight_features": "", "sight_content": ""}}, {"title": "中国皇家酒文化博物馆", "address": "承德市平泉市山庄老酒集团", "image": "", "rank": 14, "time": 2, "location": {"lat": 41.02375562592939, "lng": 118.70742672204064}, "feature": {"sight_features": "", "sight_content": ""}}, {"title": "高乐迪游乐场", "address": "承德市平泉县", "image": "", "rank": 15, "time": 2, "location": {"lat": 41.07530376870277, "lng": 118.73932350857935}, "feature": {"sight_features": "", "sight_content": ""}}, {"title": "卧龙生态山庄", "address": "252省道西100米", "image": "", "rank": 16, "time": 2, "location": {"lat": 40.357909355104375, "lng": 118.90783293216145}, "feature": {"sight_features": "", "sight_content": ""}}, {"title": "平泉县博物馆", "address": "双桥街", "image": "", "rank": 17, "time": 2, "location": {"lat": 41.822210391152524, "lng": 120.79481746950779}, "feature": {"sight_features": "", "sight_content": ""}}, {"title": "山旮旯生态农场", "address": "台头山乡郑杖子村郑杖子南沟", "image": "", "rank": 18, "time": 2, "location": {"lat": 41.13845247567541, "lng": 118.96255964686414}, "feature": {"sight_features": "", "sight_content": ""}}, {"title": "考拉大冒险童趣儿童乐园", "address": "承德市-平泉市-水泉北路", "image": "", "rank": 19, "time": 2, "location": {"lat": 41.01075667693184, "lng": 118.69681730008624}, "feature": {"sight_features": "", "sight_content": ""}}]}