{"cityName": "平果", "days": 2, "cityImage": "", "spots": [{"title": "黎明通天河景区", "address": "百色市平果县黎明乡208省道旁", "image": "", "rank": 1, "time": 2.0, "location": {"lat": 23.657846204772557, "lng": 107.70857817740817}, "feature": {"sight_features": "特色1 飞龙与银鱼亿年绝唱爱情故事为后人流传", "sight_content": "溶洞特点是面积大，总面积超过10万平方米，其中“天上人间”面积3.3万平方米；空气好，6处洞口空气通畅；空间高，最高的“九九洞天”99米；景点多，石笋、石柱、石幔、石瀑、石盾、石梯田、石钟乳千姿百态，鬼斧神工，20米以上石柱26余根；景观奇，“神奇龙脊”长达60多米，镇洞之宝“金银双塔”各高达30多米。\n红七军韦拔群部队曾在红军岩通天河遭敌人围剿，坚守36天绝处逢生的神奇历史，成为革命传统红色教育基地之一；通天河飞龙与银鱼亿年绝唱爱情故事为后人千古流传。\n红军岩通天河景区位于广西西南部中心地带，东距大化红水河28公里，可连接大化七百弄等景点；北距巴马县63公里，208省道直达，适合与巴马连线旅游，可连接“东巴凤”各景点；西可连接百色、德天瀑布、通灵大峡谷等景点；南可连接南宁、北海等景点。景区按国家aaaa景区标准全新建设，2500平米园林古建风格的综合服务楼，配套有可容纳250人同时用餐的风味餐厅、可同时容纳60人休息的游客中心、司陪豪华休息室、购物中心、医疗室、照相服务中心等。"}}, {"title": "布镜湖荷莲世界", "address": "百色市平果县坡造镇", "image": "", "rank": 2, "time": 2, "location": {"lat": 23.439197999021925, "lng": 107.6965535910082}, "feature": {"sight_features": "", "sight_content": ""}}, {"title": "墨岩", "address": "广西壮族自治区平果县堆圩乡 531414", "image": "", "rank": 3, "time": 2, "location": {"lat": 23.683777736206842, "lng": 107.750271048673}, "feature": {"sight_features": "", "sight_content": ""}}, {"title": "百色关岳庙", "address": "广西壮族自治区平果县果化镇东北角 531406", "image": "", "rank": 4, "time": 1.5, "location": {"lat": 23.400892493329135, "lng": 112.20745016296645}, "feature": {"sight_features": "", "sight_content": ""}}, {"title": "东壁塔", "address": "广西壮族自治区平果县旧城乡菊良村 531412", "image": "", "rank": 5, "time": 1.5, "location": {"lat": 23.61228703323713, "lng": 107.6292867380187}, "feature": {"sight_features": "", "sight_content": ""}}, {"title": "鸳鸯滩漂流景区", "address": "百色市平果县马头镇金显村内沙屯", "image": "", "rank": 6, "time": 2, "location": {"lat": 23.346089580323863, "lng": 107.70906900255561}, "feature": {"sight_features": "特色1 集漂流赏鸟为一体", "sight_content": "平果鸳鸯滩漂流景区位于平果县马头镇金显村，距平果县城区约15公里，鸳鸯滩漂流景区是濑江河段不可多得的自然溪谷景观，河水清澈透底，带给您盛夏的清凉。漂流河段全长4.8公里，全程共19个落差，最长段500米连续落差，流经八弯九滩，多半河段被森林全覆盖，急而不险，老少皆宜，四季可漂。景区内森林茂密，野花烂漫、藤萝垂悬，空气清新自然，空气中负氧离子含量非常高。“藤缠树绕千番景、江回路转九重天”就是鸳鸯滩的真实写照，鸳鸯滩因环境优美，森林植被茂密，吸引了许多鸟类如白鹭、野鸭等在此栖息，特别是不时有成对的鸳鸯在此河滩被发现，鸳鸯滩因此而得名。\n漂流全程约4.8公里，景区的游客中心和接待设施设置在漂流的终点站。在接待设施方面，景区游客中心设有冲浴房、超市、餐厅等，餐厅可同时容纳300人就餐。漂流日接待能力为2000人次，完善的设施、规范的管理、优质的服务和便捷的交通，使景区漂流项目在广西迅速成为了旅游热点，得到了游客的青睐，受到了社会的好评。景区集漂流赏鸟为一体，是市民家庭休闲娱乐消暑的最好去处之一。"}}, {"title": "百色旧城墙遗址", "address": "广西壮族自治区平果县旧城镇兴宁街 531412", "image": "", "rank": 7, "time": 2.0, "location": {"lat": 23.571778257643828, "lng": 107.65604395518446}, "feature": {"sight_features": "", "sight_content": ""}}, {"title": "没六鱼洞", "address": "广西壮族自治区平果县县城东南 531400", "image": "", "rank": 8, "time": 2, "location": {"lat": 23.33492274259196, "lng": 107.59657106849201}, "feature": {"sight_features": "", "sight_content": ""}}, {"title": "背王山崖墓葬", "address": "广西壮族自治区平果县凤梧乡香美村 531401", "image": "", "rank": 9, "time": 2, "location": {"lat": 23.710255160643936, "lng": 107.72568377111}, "feature": {"sight_features": "", "sight_content": ""}}, {"title": "独石滩", "address": "广西壮族自治区平果县果化镇附近 531400", "image": "", "rank": 10, "time": 2, "location": {"lat": 23.400892493329135, "lng": 107.43380078618989}, "feature": {"sight_features": "", "sight_content": ""}}, {"title": "平果县邓公山", "address": "城东路东100米", "image": "", "rank": 11, "time": 2, "location": {"lat": 34.76086124237468, "lng": 113.70061555411166}, "feature": {"sight_features": "", "sight_content": ""}}, {"title": "平果乐园", "address": "广西壮族自治区百色市平果县马头镇大学路城东建材市场东北150米", "image": "", "rank": 12, "time": 5.5, "location": {"lat": 23.32473152141609, "lng": 107.61208363684703}, "feature": {"sight_features": "", "sight_content": ""}}, {"title": "观音皇帝庙", "address": "广西壮族自治区百色市平果县", "image": "", "rank": 13, "time": 2, "location": {"lat": 23.33492274259196, "lng": 107.59657106849201}, "feature": {"sight_features": "", "sight_content": ""}}, {"title": "欣欣托辅乐园", "address": "铝城大道1306号附近", "image": "", "rank": 14, "time": 2, "location": {"lat": 29.281091801701052, "lng": 106.33234089927271}, "feature": {"sight_features": "", "sight_content": ""}}, {"title": "普惠园1期基地", "address": "驮湾村驮秀屯", "image": "", "rank": 15, "time": 2, "location": {"lat": 23.29877990463145, "lng": 107.62422447116643}, "feature": {"sight_features": "", "sight_content": ""}}, {"title": "平果县图书馆", "address": "马头镇新兴街", "image": "", "rank": 16, "time": 2, "location": {"lat": 23.336028966609895, "lng": 107.59548744255568}, "feature": {"sight_features": "", "sight_content": ""}}, {"title": "逸彩画廊", "address": "208省道东50米", "image": "", "rank": 17, "time": 2, "location": {"lat": 39.82817275160928, "lng": 115.96593592599206}, "feature": {"sight_features": "", "sight_content": ""}}, {"title": "芦仙湖", "address": "广西壮族自治区百色市平果县那马水库", "image": "", "rank": 18, "time": 2, "location": {"lat": 23.361782867099652, "lng": 107.6267597246708}, "feature": {"sight_features": "", "sight_content": ""}}, {"title": "亿鑫商业街", "address": "广西壮族自治区平果县亿鑫商业街", "image": "", "rank": 19, "time": 2, "location": {"lat": 23.330021256056554, "lng": 107.59629542254805}, "feature": {"sight_features": "", "sight_content": ""}}, {"title": "盘龙财富中心商业街", "address": "广西壮族自治区平果县新兴街", "image": "", "rank": 20, "time": 2, "location": {"lat": 23.336028966609895, "lng": 107.59548744255568}, "feature": {"sight_features": "", "sight_content": ""}}, {"title": "平果文化公园", "address": "广西百色平果县教育路平果文化公园", "image": "", "rank": 21, "time": 1.5, "location": {"lat": 23.332958459565756, "lng": 107.59638877894815}, "feature": {"sight_features": "", "sight_content": ""}}]}