{"cityName": "平阳", "days": 2, "cityImage": "", "spots": [{"title": "南雁荡山", "address": "温州市平阳县雁荡山风景区", "image": "", "rank": 1, "time": 12.0, "location": {"lat": 27.667724401092695, "lng": 120.57251537444397}, "feature": {"sight_features": "", "sight_content": ""}}, {"title": "三盘尾", "address": "温州市平阳县鳌江镇曙光路", "image": "", "rank": 2, "time": 2.5, "location": {"lat": 27.61471902111538, "lng": 120.54831637147143}, "feature": {"sight_features": "", "sight_content": ""}}, {"title": "南麂山列岛", "address": "温州市平阳县", "image": "", "rank": 3, "time": 6.0, "location": {"lat": 27.667724401092695, "lng": 120.57251537444397}, "feature": {"sight_features": "", "sight_content": ""}}, {"title": "南雁荡山东西洞景区", "address": "温州市平阳县南雁镇", "image": "", "rank": 4, "time": 12.0, "location": {"lat": 27.5967020713483, "lng": 120.25821670354745}, "feature": {"sight_features": "", "sight_content": ""}}, {"title": "会文书院", "address": "温州市平阳县南雁荡山东西洞景区内", "image": "", "rank": 5, "time": 2, "location": {"lat": 27.607549171430218, "lng": 120.28929402012963}, "feature": {"sight_features": "", "sight_content": ""}}, {"title": "西洞", "address": "温州市平阳县南雁荡山景区", "image": "", "rank": 6, "time": 2, "location": {"lat": 27.610920725997243, "lng": 120.29357264927225}, "feature": {"sight_features": "", "sight_content": ""}}, {"title": "云关", "address": "温州市平阳县南雁荡东西洞", "image": "", "rank": 7, "time": 0.75, "location": {"lat": 27.667724401092695, "lng": 120.57251537444397}, "feature": {"sight_features": "", "sight_content": ""}}, {"title": "竹屿", "address": "温州市平阳县南麂岛东部", "image": "", "rank": 8, "time": 2, "location": {"lat": 27.470177399118036, "lng": 121.08076744844436}, "feature": {"sight_features": "", "sight_content": ""}}, {"title": "三台道院", "address": "浙江省温州市平阳县", "image": "", "rank": 9, "time": 2, "location": {"lat": 27.667724401092695, "lng": 120.57251537444397}, "feature": {"sight_features": "", "sight_content": ""}}, {"title": "赤岩山", "address": "浙江省温州市平阳县腾蛟镇", "image": "", "rank": 10, "time": 2, "location": {"lat": 27.705006184230037, "lng": 120.32336560187402}, "feature": {"sight_features": "", "sight_content": ""}}, {"title": "东洞", "address": "温州市平阳县南雁荡溪石岸", "image": "", "rank": 11, "time": 2, "location": {"lat": 27.667724401092695, "lng": 120.57251537444397}, "feature": {"sight_features": "", "sight_content": ""}}, {"title": "东南屏障", "address": "温州市平阳县南雁荡山景区内", "image": "", "rank": 12, "time": 2, "location": {"lat": 27.610920725997243, "lng": 120.29357264927225}, "feature": {"sight_features": "", "sight_content": ""}}, {"title": "十八都淘趣庄", "address": "温州市平阳县鳖江镇重阳村铁场路10号", "image": "", "rank": 13, "time": 2, "location": {"lat": 27.665135049666212, "lng": 120.4430246316302}, "feature": {"sight_features": "", "sight_content": ""}}, {"title": "大檑山", "address": "温州市平阳县南麂岛北面", "image": "", "rank": 14, "time": 2, "location": {"lat": 27.470177399118036, "lng": 121.08076744844436}, "feature": {"sight_features": "", "sight_content": ""}}, {"title": "云祥寺", "address": "温州平阳县南雁荡山", "image": "", "rank": 15, "time": 2, "location": {"lat": 27.610920725997243, "lng": 120.29357264927225}, "feature": {"sight_features": "", "sight_content": ""}}, {"title": "南雁古井", "address": "温州市平阳县南雁镇", "image": "", "rank": 16, "time": 2, "location": {"lat": 27.5967020713483, "lng": 120.25821670354745}, "feature": {"sight_features": "", "sight_content": ""}}, {"title": "国姓澳", "address": "浙江省温州市平阳县鳌江镇", "image": "", "rank": 17, "time": 2, "location": {"lat": 27.599045773893998, "lng": 120.56517963738065}, "feature": {"sight_features": "", "sight_content": ""}}, {"title": "万欣生态园", "address": "温州市平阳县万全镇金阳村", "image": "", "rank": 18, "time": 2, "location": {"lat": 27.74166030565415, "lng": 120.58936345360024}, "feature": {"sight_features": "", "sight_content": ""}}, {"title": "水乡田园", "address": "温州市平阳县万全镇栏杆桥村", "image": "", "rank": 19, "time": 2, "location": {"lat": 27.722219988139102, "lng": 120.57443520153856}, "feature": {"sight_features": "", "sight_content": ""}}, {"title": "浙江省平阳县革命烈士纪念馆", "address": "昆鳌路275", "image": "", "rank": 20, "time": 2, "location": {"lat": 27.66246251362478, "lng": 120.58051325788831}, "feature": {"sight_features": "", "sight_content": ""}}, {"title": "子久茶博苑", "address": "温州市平阳县振兴南路5号", "image": "", "rank": 21, "time": 2, "location": {"lat": 27.68739221180135, "lng": 120.56754797314504}, "feature": {"sight_features": "", "sight_content": ""}}, {"title": "种玉西晋墓", "address": "温州平阳种玉乡横河村", "image": "", "rank": 22, "time": 2, "location": {"lat": 27.615866137846755, "lng": 120.56432930767332}, "feature": {"sight_features": "", "sight_content": ""}}, {"title": "南麂岛秀莲农家乐", "address": "鳌江镇南麂大沙岙(大沙滩)", "image": "", "rank": 23, "time": 2, "location": {"lat": 27.46676024265514, "lng": 121.06854027349092}, "feature": {"sight_features": "", "sight_content": ""}}, {"title": "剧院粥庄", "address": "剧院前街40号", "image": "", "rank": 24, "time": 2, "location": {"lat": 24.953958771613745, "lng": 114.07027512065079}, "feature": {"sight_features": "", "sight_content": ""}}, {"title": "美龄居", "address": "面朝南麂大沙澳，背靠狮山", "image": "", "rank": 25, "time": 2, "location": {"lat": 39.976692483065946, "lng": 116.44272826413263}, "feature": {"sight_features": "", "sight_content": ""}}, {"title": "金钱会起义遗址", "address": "平阳县钱仓镇凤山麓", "image": "", "rank": 26, "time": 2, "location": {"lat": 27.5864559696838, "lng": 120.51188460339024}, "feature": {"sight_features": "", "sight_content": ""}}, {"title": "宝胜寺双塔", "address": "浙江省温州市平阳县宋宝胜寺双塔", "image": "", "rank": 27, "time": 2, "location": {"lat": 27.601451457101295, "lng": 120.5273201869631}, "feature": {"sight_features": "", "sight_content": ""}}, {"title": "水仙花岛", "address": "位于平阳南麂列岛内", "image": "", "rank": 28, "time": 2, "location": {"lat": 27.47017784728417, "lng": 121.08076725980021}, "feature": {"sight_features": "", "sight_content": ""}}, {"title": "白云山农业观光园", "address": "浙江瓯海区娄桥街道东耕村白云山顶", "image": "", "rank": 29, "time": 2, "location": {"lat": 27.932652004592153, "lng": 120.62547536653011}, "feature": {"sight_features": "", "sight_content": ""}}, {"title": "平阳小竹屋度假村", "address": "温州平阳南麂列岛大沙滩", "image": "", "rank": 30, "time": 2, "location": {"lat": 27.47017784728417, "lng": 121.08076725980021}, "feature": {"sight_features": "", "sight_content": ""}}, {"title": "南麓林农家乐", "address": "马祖岙村18,20号", "image": "", "rank": 31, "time": 2, "location": {"lat": 27.46774394282974, "lng": 121.06788702572429}, "feature": {"sight_features": "", "sight_content": ""}}, {"title": "康馨果园", "address": "城新线2号", "image": "", "rank": 32, "time": 2, "location": {"lat": 32.967218116845835, "lng": 119.8981625285315}, "feature": {"sight_features": "", "sight_content": ""}}, {"title": "不可私议·Vue密室逃脱", "address": "鳌江万达广场4F", "image": "", "rank": 33, "time": 2, "location": {"lat": 27.592620262296016, "lng": 120.58036063668052}, "feature": {"sight_features": "", "sight_content": ""}}, {"title": "基督教堂(民安路)", "address": "温州市平阳县民安路", "image": "", "rank": 34, "time": 2, "location": {"lat": 27.689381136950107, "lng": 120.33569499590972}, "feature": {"sight_features": "", "sight_content": ""}}, {"title": "骑士农庄", "address": "万全镇章桥村入口直行1000米", "image": "", "rank": 35, "time": 2, "location": {"lat": 27.755936767792722, "lng": 120.61082842602524}, "feature": {"sight_features": "", "sight_content": ""}}, {"title": "平阳县第一农场(海涂分场)", "address": "城新线附近", "image": "", "rank": 36, "time": 2, "location": {"lat": 32.967218116845835, "lng": 119.8981625285315}, "feature": {"sight_features": "", "sight_content": ""}}, {"title": "平阳县第一农场", "address": "万达路东100米", "image": "", "rank": 37, "time": 2, "location": {"lat": 40.666544346414604, "lng": 109.85941362277936}, "feature": {"sight_features": "", "sight_content": ""}}, {"title": "小鸽农家乐", "address": "萧江镇万兴路1-13号", "image": "", "rank": 38, "time": 2, "location": {"lat": 27.56943634777342, "lng": 120.48170156701073}, "feature": {"sight_features": "", "sight_content": ""}}, {"title": "山平田村图书室", "address": "钱马线附近", "image": "", "rank": 39, "time": 2, "location": {"lat": 27.670816265682145, "lng": 120.44991316885488}, "feature": {"sight_features": "", "sight_content": ""}}, {"title": "小洋山", "address": "浙江省嵊泗县洋山镇 212461", "image": "", "rank": 40, "time": 2.5, "location": {"lat": 30.589905262811207, "lng": 122.08164666389328}, "feature": {"sight_features": "", "sight_content": ""}}, {"title": "长济庙", "address": "后南线北50米", "image": "", "rank": 41, "time": 2, "location": {"lat": 26.10718010985761, "lng": 119.58548198380777}, "feature": {"sight_features": "", "sight_content": ""}}, {"title": "平阳县萧江镇张家山村五显老殿", "address": "浙江省温州市平阳县萧江镇张家山村11号(G104旁)", "image": "", "rank": 42, "time": 2, "location": {"lat": 27.572899556860857, "lng": 120.4588007026353}, "feature": {"sight_features": "", "sight_content": ""}}, {"title": "大日寺", "address": "浙江省温州市平阳县鳌江镇交剪岩12号", "image": "", "rank": 43, "time": 2, "location": {"lat": 27.603640341671312, "lng": 120.52632216954184}, "feature": {"sight_features": "", "sight_content": ""}}, {"title": "锡安堂", "address": "温州市平阳县环江路52号", "image": "", "rank": 44, "time": null, "location": {"lat": 27.581547107121224, "lng": 120.4862230243021}, "feature": {"sight_features": "", "sight_content": ""}}, {"title": "鹤湖禅寺", "address": "浙江省温州市平阳县萧江镇鹤湖村104号", "image": "", "rank": 45, "time": 2, "location": {"lat": 27.56447144059724, "lng": 120.47394826341089}, "feature": {"sight_features": "", "sight_content": ""}}, {"title": "平阳县鳌江镇莲华寺", "address": "浙江省温州市平阳县城新线", "image": "", "rank": 46, "time": 2, "location": {"lat": 27.621583510922697, "lng": 120.66870678899731}, "feature": {"sight_features": "", "sight_content": ""}}, {"title": "宝贝游乐园", "address": "振兴路9～13号", "image": "", "rank": 47, "time": 2, "location": {"lat": 41.78471424210367, "lng": 123.34665285540603}, "feature": {"sight_features": "", "sight_content": ""}}, {"title": "泡泡堂儿童游乐园（鳌江万达店）", "address": "火车站大道鳌江万达商业广场二楼2001号", "image": "", "rank": 48, "time": 2, "location": {"lat": 31.678931794850588, "lng": 120.3057980651047}, "feature": {"sight_features": "", "sight_content": ""}}, {"title": "西山革命烈士纪念室", "address": "公园路与西山大道交叉口北150米", "image": "", "rank": 49, "time": 2, "location": {"lat": 27.644063006599353, "lng": 120.2531405066716}, "feature": {"sight_features": "", "sight_content": ""}}, {"title": "麻车宫", "address": "浙江省温州市平阳县灵内线琼阁宾馆附近", "image": "", "rank": 50, "time": 2, "location": {"lat": 27.637790058089973, "lng": 120.32819768063436}, "feature": {"sight_features": "", "sight_content": ""}}, {"title": "溪头广济庙", "address": "水头镇桥中路东200米", "image": "", "rank": 51, "time": 2, "location": {"lat": 27.62876368174643, "lng": 120.3335355610916}, "feature": {"sight_features": "", "sight_content": ""}}, {"title": "基督教水头救恩堂", "address": "凤林北路170号", "image": "", "rank": 52, "time": 2, "location": {"lat": 31.69030381658971, "lng": 119.93364984881046}, "feature": {"sight_features": "", "sight_content": ""}}, {"title": "妙妙乐儿童乐园(平阳太平洋购物...", "address": "浙江省温州市平阳县水头客运中心南侧平阳太平洋购物中心2层", "image": "", "rank": 53, "time": 2, "location": {"lat": 27.643227591294465, "lng": 120.34551042807826}, "feature": {"sight_features": "", "sight_content": ""}}, {"title": "白马观", "address": "白马路与龙洋路交叉口东南100米", "image": "", "rank": 54, "time": 2, "location": {"lat": 27.64300558949743, "lng": 120.3337822268015}, "feature": {"sight_features": "", "sight_content": ""}}, {"title": "朋友儿童乐园", "address": "水头后街11号", "image": "", "rank": 55, "time": 2, "location": {"lat": 27.638141064101102, "lng": 120.33422932513164}, "feature": {"sight_features": "", "sight_content": ""}}, {"title": "平阳县鳌江镇碧泉寺", "address": "浙江省温州市平阳县鳌江镇岩庵水库边", "image": "", "rank": 56, "time": 2, "location": {"lat": 27.599045773893998, "lng": 120.56517963738065}, "feature": {"sight_features": "", "sight_content": ""}}, {"title": "麦麦游乐园", "address": "桑果园街34号", "image": "", "rank": 57, "time": 2, "location": {"lat": 27.672986272461795, "lng": 120.57106586867354}, "feature": {"sight_features": "", "sight_content": ""}}, {"title": "白碧莲寺", "address": "温州市平阳县", "image": "", "rank": 58, "time": null, "location": {"lat": 27.667724401092695, "lng": 120.57251537444397}, "feature": {"sight_features": "", "sight_content": ""}}, {"title": "东岳道观", "address": "浙江省温州市平阳县昆阳镇坡南东岳观", "image": "", "rank": 59, "time": 2, "location": {"lat": 27.681632362852202, "lng": 120.53507156010438}, "feature": {"sight_features": "", "sight_content": ""}}, {"title": "基督徒聚会处", "address": "白垟路18号", "image": "", "rank": 60, "time": 2, "location": {"lat": 27.675932307985242, "lng": 120.57672927258987}, "feature": {"sight_features": "", "sight_content": ""}}]}