{"cityName": "平利", "days": 2, "cityImage": "", "spots": [{"title": "龙头村", "address": "安康市平利县县城东南5公里龙头村", "image": "", "rank": 1, "time": 2.5, "location": {"lat": 32.36138703821529, "lng": 109.36487716639178}, "feature": {"sight_features": "", "sight_content": ""}}, {"title": "天书峡景区", "address": "安康市平利县八仙镇", "image": "", "rank": 2, "time": 2, "location": {"lat": 32.1144147369194, "lng": 109.26230655290557}, "feature": {"sight_features": "", "sight_content": ""}}, {"title": "安康牛头山", "address": "陕西省安康市汉滨区花园乡与谭坝乡的交界处", "image": "", "rank": 3, "time": 3.5, "location": {"lat": 32.748681594523305, "lng": 108.93450515624222}, "feature": {"sight_features": "", "sight_content": ""}}, {"title": "平利县马盘山生态农业观光园", "address": "城关镇陈家坝马盘山", "image": "", "rank": 4, "time": 2, "location": {"lat": 32.380754241739126, "lng": 109.33068666695273}, "feature": {"sight_features": "", "sight_content": ""}}, {"title": "安康必捷滑雪场", "address": "安康市平利县老县镇女娲山乡", "image": "", "rank": 5, "time": 3.5, "location": {"lat": 32.50175530619338, "lng": 109.2419242515114}, "feature": {"sight_features": "", "sight_content": ""}}, {"title": "紫荆山庄农家乐", "address": "龙头村一组", "image": "", "rank": 6, "time": 2, "location": {"lat": 40.404242828886254, "lng": 119.48312281748727}, "feature": {"sight_features": "", "sight_content": ""}}, {"title": "宏成农家乐", "address": "城关镇纸坊沟村", "image": "", "rank": 7, "time": 2, "location": {"lat": 32.78995826573035, "lng": 110.80663776425298}, "feature": {"sight_features": "", "sight_content": ""}}, {"title": "白果山庄农家乐", "address": "308省道附近", "image": "", "rank": 8, "time": 2, "location": {"lat": 40.337133976011295, "lng": 116.52614205897426}, "feature": {"sight_features": "", "sight_content": ""}}, {"title": "龙头茶业有机基地", "address": "平镇公路", "image": "", "rank": 9, "time": 2, "location": {"lat": 32.11408841978561, "lng": 109.427569266543}, "feature": {"sight_features": "", "sight_content": ""}}, {"title": "桃花山庄垂钓中心", "address": "平镇公路", "image": "", "rank": 10, "time": 2, "location": {"lat": 32.11408841978561, "lng": 109.427569266543}, "feature": {"sight_features": "", "sight_content": ""}}, {"title": "巴山神田草原", "address": "陕西省平利县巴山颠峰之上 725500", "image": "", "rank": 11, "time": 2, "location": {"lat": 32.39480412318467, "lng": 109.36854670128137}, "feature": {"sight_features": "", "sight_content": ""}}, {"title": "平利桃花溪景区", "address": "广佛镇铁炉村桃花溪", "image": "", "rank": 12, "time": 2.5, "location": {"lat": 32.29016878221044, "lng": 109.34258969914661}, "feature": {"sight_features": "", "sight_content": ""}}, {"title": "关垭遗址", "address": "陕西省十堰市竹溪县S308", "image": "", "rank": 13, "time": 2, "location": {"lat": 32.32412004885334, "lng": 109.72154249888798}, "feature": {"sight_features": "", "sight_content": ""}}, {"title": "女娲庙遗址", "address": "陕西省安康市平利县", "image": "", "rank": 14, "time": 2, "location": {"lat": 32.39480412318467, "lng": 109.36854670128137}, "feature": {"sight_features": "", "sight_content": ""}}, {"title": "体育广场", "address": "月湖南路与西关路交叉口西200米", "image": "", "rank": 15, "time": 2, "location": {"lat": 32.393901000509175, "lng": 109.35796858976553}, "feature": {"sight_features": "", "sight_content": ""}}, {"title": "楚长城关垭城门", "address": "湖北省十堰市竹溪县", "image": "", "rank": 16, "time": 2, "location": {"lat": 32.32412004885334, "lng": 109.72154249888798}, "feature": {"sight_features": "", "sight_content": ""}}, {"title": "悟真观", "address": "安康市平利县八仙镇东北", "image": "", "rank": 17, "time": 2, "location": {"lat": 32.1144147369194, "lng": 109.26230655290557}, "feature": {"sight_features": "", "sight_content": ""}}, {"title": "平利县图书馆", "address": "安康市平利县中兴路与新正街交叉口西北50米", "image": "", "rank": 18, "time": 2, "location": {"lat": 32.394153976098195, "lng": 109.36882994419511}, "feature": {"sight_features": "", "sight_content": ""}}, {"title": "女娲富硒茶业公司高效有机茶园基...", "address": "龙头村", "image": "", "rank": 19, "time": 2, "location": {"lat": 40.404242828886254, "lng": 119.48312281748727}, "feature": {"sight_features": "", "sight_content": ""}}, {"title": "观龙阁农家乐", "address": "平镇公路", "image": "", "rank": 20, "time": 2, "location": {"lat": 32.11408841978561, "lng": 109.427569266543}, "feature": {"sight_features": "", "sight_content": ""}}]}