{"cityName": "平原", "days": 2, "cityImage": "", "spots": [{"title": "文昌阁", "address": "德州市平原县恩城镇", "image": "", "rank": 1, "time": 0.75, "location": {"lat": 37.149647798284846, "lng": 116.26584778689399}, "feature": {"sight_features": "", "sight_content": ""}}, {"title": "以马内利图书馆", "address": "三一八省道南侧附近", "image": "", "rank": 2, "time": 2, "location": {"lat": 39.54871980361448, "lng": 115.77642274814633}, "feature": {"sight_features": "", "sight_content": ""}}, {"title": "平原县兴业家庭农场", "address": "杨黑庄村西北500米", "image": "", "rank": 3, "time": 2, "location": {"lat": 37.27424146469892, "lng": 116.31792434493536}, "feature": {"sight_features": "", "sight_content": ""}}, {"title": "鑫源粮食种植专业合作社", "address": "龙门街道东开发区宝岛路北首", "image": "", "rank": 4, "time": 2, "location": {"lat": 27.674984433335606, "lng": 113.51452403431699}, "feature": {"sight_features": "", "sight_content": ""}}, {"title": "康熙探花庄园", "address": "花园村", "image": "", "rank": 5, "time": 2, "location": {"lat": 34.74470735946092, "lng": 113.67582734176747}, "feature": {"sight_features": "", "sight_content": ""}}, {"title": "和谐广场", "address": "德州市平原县", "image": "", "rank": 6, "time": 2, "location": {"lat": 37.171221463311625, "lng": 116.4405047082665}, "feature": {"sight_features": "", "sight_content": ""}}, {"title": "千层槐", "address": "山东省平原县腰站镇南北大街 253119", "image": "", "rank": 7, "time": 2, "location": {"lat": 37.05341715111818, "lng": 116.28926255479142}, "feature": {"sight_features": "", "sight_content": ""}}, {"title": "游乐设施", "address": "德州市平原县新华南路1058号家庭号购物中心B1", "image": "", "rank": 8, "time": 2, "location": {"lat": 37.16130237302873, "lng": 116.44141900630946}, "feature": {"sight_features": "", "sight_content": ""}}, {"title": "基督教会(平苏公路)", "address": "镇府路兴原大街路口附近", "image": "", "rank": 9, "time": 2, "location": {"lat": 37.1663124567685, "lng": 116.4449384747721}, "feature": {"sight_features": "", "sight_content": ""}}, {"title": "金碧辉煌休闲广场", "address": "千佛塔路与101省道交叉口东北100米", "image": "", "rank": 10, "time": 2, "location": {"lat": 42.85646580255288, "lng": 124.414086267546}, "feature": {"sight_features": "", "sight_content": ""}}, {"title": "科迪食文化广场", "address": "山东省德州市平原县平安大街", "image": "", "rank": 11, "time": 2, "location": {"lat": 37.17407162080692, "lng": 116.43241250274096}, "feature": {"sight_features": "", "sight_content": ""}}, {"title": "通德历史文化展馆", "address": "富民大街", "image": "", "rank": 12, "time": 2, "location": {"lat": 37.07483164083673, "lng": 114.38338940228344}, "feature": {"sight_features": "", "sight_content": ""}}, {"title": "刘文善翰墨书画院", "address": "镇府路", "image": "", "rank": 13, "time": 2, "location": {"lat": 39.55727563850202, "lng": 116.12129447463606}, "feature": {"sight_features": "", "sight_content": ""}}, {"title": "平原县翰墨书画有限公司", "address": "金街市场文昌街3号-6", "image": "", "rank": 14, "time": 2, "location": {"lat": 45.372618138499845, "lng": 126.31385224351573}, "feature": {"sight_features": "", "sight_content": ""}}, {"title": "文化馆", "address": "平安大街", "image": "", "rank": 15, "time": 2, "location": {"lat": 39.13280270919063, "lng": 117.18857410675409}, "feature": {"sight_features": "", "sight_content": ""}}, {"title": "旺源奶牛合作社", "address": "315省道北50米", "image": "", "rank": 16, "time": 2, "location": {"lat": 36.88770045942784, "lng": 115.75610288886648}, "feature": {"sight_features": "", "sight_content": ""}}, {"title": "孟宪国桃园", "address": "郝王庄镇105国道东150米", "image": "", "rank": 17, "time": 2, "location": {"lat": 37.24803265070282, "lng": 116.29068962717882}, "feature": {"sight_features": "", "sight_content": ""}}, {"title": "德州市电视台希望少儿艺术团(平...", "address": "帝景·财神道3号050号六号路休闲街", "image": "", "rank": 18, "time": 3.5, "location": {"lat": 39.12950075693365, "lng": 117.20562725738587}, "feature": {"sight_features": "", "sight_content": ""}}, {"title": "千佛塔", "address": "山东省德州市平原县崔家庙村东50米处", "image": "", "rank": 19, "time": 1.5, "location": {"lat": 37.20560319895294, "lng": 116.42567675829821}, "feature": {"sight_features": "", "sight_content": ""}}]}