{"cityName": "平和", "days": 2, "cityImage": "", "spots": [{"title": "平和县三平风景区", "address": "漳州市平和县三平风景区", "image": "", "rank": 1, "time": 3.0, "location": {"lat": 24.355431136491976, "lng": 117.49687672887939}, "feature": {"sight_features": "", "sight_content": ""}}, {"title": "绳武楼", "address": "漳州市平和县芦溪镇蕉路村", "image": "", "rank": 2, "time": 1.0, "location": {"lat": 24.485480083802205, "lng": 117.05844669567037}, "feature": {"sight_features": "", "sight_content": "绳武楼历经嘉庆至光绪五朝，终于建成，长达一百多年。楼中共有二十四个开间，处处可见石雕、木雕、泥塑、壁画等，富丽精工，精美绝伦。仅木雕就有六百四十六处，无一雷同，散见于屏风、壁橱、门窗、梯手上，既有人物花草、文字对联，又有飞禽走兽、诗画结合，动静相宜，被称为“木雕博物馆”。"}}, {"title": "林语花溪温泉度假村", "address": "漳州市平和县坂仔镇民主村（大世界购物中心北300米）", "image": "", "rank": 3, "time": 2, "location": {"lat": 24.292137134100287, "lng": 117.27576193131688}, "feature": {"sight_features": "", "sight_content": ""}}, {"title": "大芹山", "address": "福建省漳州市平和县", "image": "", "rank": 4, "time": 2, "location": {"lat": 24.368365040125912, "lng": 117.32255159131472}, "feature": {"sight_features": "", "sight_content": ""}}, {"title": "高寨村", "address": "漳州市平和县霞寨镇高寨村", "image": "", "rank": 5, "time": 2, "location": {"lat": 24.400917191724755, "lng": 117.20891736635767}, "feature": {"sight_features": "", "sight_content": ""}}, {"title": "太极峰神摇漂流", "address": "漳州市平和县南胜镇欧寮村横石9-1号", "image": "", "rank": 6, "time": 2, "location": {"lat": 24.287652864843174, "lng": 117.43806593646623}, "feature": {"sight_features": "", "sight_content": ""}}, {"title": "庄上土楼", "address": "大溪镇庄上村", "image": "", "rank": 7, "time": 2, "location": {"lat": 24.117404550070706, "lng": 117.11560019526566}, "feature": {"sight_features": "", "sight_content": ""}}, {"title": "鑫鑫温泉城", "address": "207省道", "image": "", "rank": 8, "time": 2, "location": {"lat": 41.663861161619536, "lng": 118.91663300242887}, "feature": {"sight_features": "", "sight_content": ""}}, {"title": "锦溪惠农果蔬专业合作社", "address": "宝祥路与西环路交叉口东北200米", "image": "", "rank": 9, "time": 2, "location": {"lat": 24.376390327310794, "lng": 117.30380807136352}, "feature": {"sight_features": "", "sight_content": ""}}, {"title": "福建省平和县图书馆", "address": "龙溪路133号附近", "image": "", "rank": 10, "time": 2, "location": {"lat": 29.822615938043924, "lng": 106.4446296521187}, "feature": {"sight_features": "", "sight_content": ""}}, {"title": "南胜窑遗址", "address": "福建省平和县南胜镇 363701", "image": "", "rank": 11, "time": null, "location": {"lat": 24.23953094533971, "lng": 117.36316667293411}, "feature": {"sight_features": "", "sight_content": ""}}, {"title": "庙前剧场", "address": "坡仔头附近", "image": "", "rank": 12, "time": 2, "location": {"lat": 24.40716411017392, "lng": 117.34203545065002}, "feature": {"sight_features": "", "sight_content": ""}}, {"title": "佛具香纸行", "address": "福建省漳州市平和县建设街35号", "image": "", "rank": 13, "time": 2, "location": {"lat": 24.368740695227153, "lng": 117.3156420948259}, "feature": {"sight_features": "", "sight_content": ""}}, {"title": "龙头基督教会", "address": "福建省漳州市平和县安马线", "image": "", "rank": 14, "time": 2, "location": {"lat": 24.11900432560884, "lng": 117.24286117043142}, "feature": {"sight_features": "", "sight_content": ""}}, {"title": "延陵公园", "address": "福建省漳州市平和县大溪镇壶嗣村", "image": "", "rank": 15, "time": 2, "location": {"lat": 24.10441667835552, "lng": 117.17979024408781}, "feature": {"sight_features": "", "sight_content": ""}}, {"title": "管溪威惠庙", "address": "福建省漳州市平和县建设街附近", "image": "", "rank": 16, "time": 2, "location": {"lat": 24.365031808101286, "lng": 117.31725712686107}, "feature": {"sight_features": "", "sight_content": ""}}, {"title": "员工休闲公园", "address": "黄井工业区", "image": "", "rank": 17, "time": 2, "location": {"lat": 24.486052880692764, "lng": 117.47517871264922}, "feature": {"sight_features": "", "sight_content": ""}}, {"title": "鸿江公园", "address": "福建省漳州市平和县环镇西路", "image": "", "rank": 18, "time": 2, "location": {"lat": 24.120638601190755, "lng": 117.12144394299608}, "feature": {"sight_features": "", "sight_content": ""}}, {"title": "平和灵通山地质博物馆", "address": "灵通风景区", "image": "", "rank": 19, "time": 3.0, "location": {"lat": 24.161301247730382, "lng": 117.15337703211871}, "feature": {"sight_features": "", "sight_content": ""}}, {"title": "霄岭关帝庙", "address": "国强乡乾岭村", "image": "", "rank": 20, "time": 2, "location": {"lat": 24.225965867467934, "lng": 117.22861965586411}, "feature": {"sight_features": "", "sight_content": ""}}, {"title": "朱熹公园", "address": "九峰镇九峰小学北260米", "image": "", "rank": 21, "time": 2, "location": {"lat": 24.259665926720096, "lng": 117.02969568313776}, "feature": {"sight_features": "", "sight_content": ""}}, {"title": "石恩宫", "address": "福建省漳州市平和县九峰镇陈彩村境内", "image": "", "rank": 22, "time": 2, "location": {"lat": 24.250792611151677, "lng": 116.96635203124141}, "feature": {"sight_features": "", "sight_content": ""}}, {"title": "平和暴动遗址", "address": "平和县长乐乡政府旁边", "image": "", "rank": 23, "time": 3.0, "location": {"lat": 24.306523974305286, "lng": 116.95381684080327}, "feature": {"sight_features": "", "sight_content": ""}}, {"title": "天端茗谷度假村", "address": "漳州市平和县九峰镇三坑狮头峰", "image": "", "rank": 24, "time": 2, "location": {"lat": 24.2565272243204, "lng": 117.02773797539814}, "feature": {"sight_features": "", "sight_content": ""}}, {"title": "吴妈老棵柚", "address": "福建省漳州市平和县中山东路", "image": "", "rank": 25, "time": 2, "location": {"lat": 24.368365040125912, "lng": 117.32255159131472}, "feature": {"sight_features": "", "sight_content": ""}}, {"title": "家宝贝欢乐谷", "address": "福建省漳州市平和县长安路128号", "image": "", "rank": 26, "time": 2, "location": {"lat": 24.372850559157282, "lng": 117.32139923422723}, "feature": {"sight_features": "", "sight_content": ""}}, {"title": "镇南宫", "address": "南山路附近", "image": "", "rank": 27, "time": 2, "location": {"lat": 43.82869857677157, "lng": 126.5856267421523}, "feature": {"sight_features": "", "sight_content": ""}}, {"title": "三平人家休闲山庄", "address": "水上餐厅附近", "image": "", "rank": 28, "time": 2, "location": {"lat": 39.66455644313246, "lng": 115.55226389406984}, "feature": {"sight_features": "", "sight_content": ""}}, {"title": "礼拜堂(坂仔卫生院西南)", "address": "309省道附近", "image": "", "rank": 29, "time": null, "location": {"lat": 40.709016096764906, "lng": 116.52743651721413}, "feature": {"sight_features": "", "sight_content": ""}}, {"title": "高峰谷", "address": "漳州市平和县霞寨镇官峰村", "image": "", "rank": 31, "time": 2, "location": {"lat": 24.408457117611615, "lng": 117.11883828928895}, "feature": {"sight_features": "", "sight_content": "高峰谷位于素有\"中国柚都\"美誉的漳州市平和县,海拔约900米，是集禅茶文化、休闲观光、养生度假、红色教育、拓展培训为一体的生态旅游度假区。项目一期已建成餐饮、住宿、购物、茶坊等配套设施，以及蚂蚁王国、东昇玻璃桥等体验项目。"}}, {"title": "蔡家堡", "address": "漳州市平和县蔡家堡", "image": "", "rank": 32, "time": 2, "location": {"lat": 24.368365040125912, "lng": 117.32255159131472}, "feature": {"sight_features": "", "sight_content": ""}}, {"title": "龙游山庄", "address": "207省道", "image": "", "rank": 33, "time": 1.5, "location": {"lat": 41.663861161619536, "lng": 118.91663300242887}, "feature": {"sight_features": "", "sight_content": ""}}, {"title": "盛佳画艺", "address": "琯溪路278号", "image": "", "rank": 34, "time": 2, "location": {"lat": 24.37533994432564, "lng": 117.32076827521689}, "feature": {"sight_features": "", "sight_content": ""}}, {"title": "英才水上运动中心", "address": "207省道", "image": "", "rank": 35, "time": 2, "location": {"lat": 41.663861161619536, "lng": 118.91663300242887}, "feature": {"sight_features": "", "sight_content": ""}}, {"title": "克拉克", "address": "广成东路100号", "image": "", "rank": 36, "time": 1.0, "location": {"lat": 34.17541410016066, "lng": 112.8636875535813}, "feature": {"sight_features": "", "sight_content": ""}}, {"title": "桥头帝君剧场", "address": "207省道附近", "image": "", "rank": 37, "time": 2, "location": {"lat": 41.663861161619536, "lng": 118.91663300242887}, "feature": {"sight_features": "", "sight_content": ""}}, {"title": "黄金百香果种植基地", "address": "五寨乡大浦", "image": "", "rank": 38, "time": 2, "location": {"lat": 24.16094694928763, "lng": 117.39970997193245}, "feature": {"sight_features": "", "sight_content": ""}}, {"title": "绳武楼水上农家乐", "address": "芦溪镇绳武楼景区", "image": "", "rank": 39, "time": 2, "location": {"lat": 33.85153484582433, "lng": 117.94442424938246}, "feature": {"sight_features": "", "sight_content": ""}}, {"title": "有间画廊", "address": "霞寨镇兴霞大道121号", "image": "", "rank": 40, "time": 2, "location": {"lat": 24.379617863178424, "lng": 117.15291349210283}, "feature": {"sight_features": "", "sight_content": ""}}, {"title": "观音湖休闲山庄", "address": "文昌路", "image": "", "rank": 41, "time": 2, "location": {"lat": 32.40026860918857, "lng": 119.45024605841589}, "feature": {"sight_features": "", "sight_content": ""}}, {"title": "天湖雪中心剧场", "address": "南湖村附近", "image": "", "rank": 42, "time": 2, "location": {"lat": 38.32694268349156, "lng": 114.449576959191}, "feature": {"sight_features": "", "sight_content": ""}}, {"title": "红红果苗专业合作社", "address": "九峰镇福坑村四角楼8号", "image": "", "rank": 43, "time": 2, "location": {"lat": 24.25521786907128, "lng": 117.0191716361425}, "feature": {"sight_features": "", "sight_content": ""}}, {"title": "坂仔林果场", "address": "漳州市-平和县-坂仔镇", "image": "", "rank": 44, "time": null, "location": {"lat": 24.29409071272303, "lng": 117.30511610389753}, "feature": {"sight_features": "", "sight_content": ""}}]}