{"cityName": "平定", "days": null, "cityImage": "", "spots": [{"title": "娘子关景区", "address": "阳泉市平定县娘子关镇", "image": "", "rank": 1, "time": 3.0, "location": {"lat": 37.967044756080504, "lng": 113.81197677960655}, "feature": {"sight_features": "特色1 长城的著名关隘，历代兵家必争之地", "sight_content": "娘子关，又称苇泽关，在河北、山西两省交界处，是晋冀的咽喉要地，是长城的著名关隘，有“三晋门户”和“天下第九关”的称号，为历代兵家必争之地。现存关城为明嘉靖二十年（1542）所建。古城堡依山傍水，居高临下，建有关门两座。东门为一般砖券城门，额题“直隶娘子关”，上有平台城保，似为检阅兵士和了望敌情之用。南门危楼高耸，气宇轩昂，坚厚固实，青石筑砌。城门上“宿将楼”巍然屹立，相传为平阳公主聚将御敌之所。门洞上额书“京畿藩屏”四字，展示了娘子关的重要性。关城东南侧长城依绵山蜿蜒，巍峨挺拔。城西有桃河水环绕，终年不息。险山、河谷、长城为晋冀间筑起一道天然屏障。另有承天寨、老君洞、烽火台、点将台、洗脸盆、避暑楼等十多处景点，传说为当年平阳公主驻防时所建。\n\n娘子关还以山明水秀的宜人景色闻名遐迩，“娘子关瀑布”悬流百尺，顺悬崖峭壁而下，形成了一幅绚丽的“水帘瀑布”，如喷珠散玉直泻谷底。瀑布旁又有水帘洞、趵突泉等景点，景色极为优美。这里家家流水，处处涌泉，组成一幅“小桥，流水，人家”的天然画卷。古往今来，不知有多少文人墨客纷至沓来，留下了许多脍炙人口的诗篇。有联曰：“雄关百二谁为最，要路三千此并名。”“楼头古戍楼边寨，城外青山城下河。”充分描绘出这座古关名隘的独特风貌和秀丽天成的优美景物。"}}, {"title": "固关长城", "address": "阳泉市平定县娘子关镇新关村", "image": "", "rank": 2, "time": 2.5, "location": {"lat": 37.89992507979322, "lng": 113.91810100075799}, "feature": {"sight_features": "", "sight_content": ""}}, {"title": "平定冠山森林公园", "address": "阳泉市平定县", "image": "", "rank": 3, "time": 1.0, "location": {"lat": 37.792796383591316, "lng": 113.66442115516472}, "feature": {"sight_features": "", "sight_content": ""}}, {"title": "药林寺", "address": "阳泉市平定县城南20公里处", "image": "", "rank": 4, "time": 1.0, "location": {"lat": 37.792796383591316, "lng": 113.66442115516472}, "feature": {"sight_features": "", "sight_content": ""}}, {"title": "娘子关瀑布", "address": "阳泉市平定县娘子关景区内", "image": "", "rank": 5, "time": 2, "location": {"lat": 37.972966771036084, "lng": 113.89027770784148}, "feature": {"sight_features": "", "sight_content": ""}}, {"title": "开河寺", "address": "阳泉市平定县乱流村", "image": "", "rank": 6, "time": 1.0, "location": {"lat": 37.85635495423332, "lng": 113.70131810447815}, "feature": {"sight_features": "", "sight_content": ""}}, {"title": "红岩岭自然风景区", "address": "阳泉市平定县岔口乡主铺掌村", "image": "", "rank": 7, "time": 2, "location": {"lat": 38.092800246196944, "lng": 113.81437350541906}, "feature": {"sight_features": "", "sight_content": ""}}, {"title": "文化宫剧场", "address": "山西省阳泉市平定县平阳路", "image": "", "rank": 8, "time": 2, "location": {"lat": 37.807814326166586, "lng": 113.63864669589603}, "feature": {"sight_features": "", "sight_content": ""}}, {"title": "张果老洞", "address": "山西省平定县娘子关镇三星村 045200", "image": "", "rank": 9, "time": 2, "location": {"lat": 37.99106062469179, "lng": 113.86404105242178}, "feature": {"sight_features": "", "sight_content": ""}}, {"title": "阳泉水帘洞瀑布", "address": "山西省平定县娘子关镇 045200", "image": "", "rank": 10, "time": 2, "location": {"lat": 37.967044756080504, "lng": 113.81197677960655}, "feature": {"sight_features": "", "sight_content": ""}}, {"title": "晋盛园", "address": "山西省平定县平定路", "image": "", "rank": 11, "time": 2, "location": {"lat": 37.79347875281376, "lng": 113.66622074047422}, "feature": {"sight_features": "", "sight_content": ""}}, {"title": "窦瑸故居", "address": "山西省阳泉市平定县东关新民街60号", "image": "", "rank": 12, "time": 2, "location": {"lat": 37.80193699757459, "lng": 113.64119088484614}, "feature": {"sight_features": "", "sight_content": ""}}, {"title": "洪济禅寺", "address": "自强路东150米", "image": "", "rank": 13, "time": 2, "location": {"lat": 39.755805866705465, "lng": 116.29409383765467}, "feature": {"sight_features": "", "sight_content": ""}}, {"title": "开心岛儿童乐园", "address": "阳泉市平定县东大街金地商厦3层", "image": "", "rank": 14, "time": 2, "location": {"lat": 37.808679473114005, "lng": 113.63838440685662}, "feature": {"sight_features": "", "sight_content": ""}}, {"title": "戏台", "address": "阳泉市平定县娘子关镇关城景区内", "image": "", "rank": 15, "time": 2, "location": {"lat": 37.967044756080504, "lng": 113.81197677960655}, "feature": {"sight_features": "", "sight_content": ""}}, {"title": "地道战遗址", "address": "山西省平定县南庄村", "image": "", "rank": 16, "time": 2, "location": {"lat": 37.97270463849565, "lng": 113.67704532097115}, "feature": {"sight_features": "", "sight_content": ""}}, {"title": "松鹤墓园", "address": "山西省阳泉市平定县三冠线", "image": "", "rank": 17, "time": 2, "location": {"lat": 37.80757129261345, "lng": 113.59165186290424}, "feature": {"sight_features": "", "sight_content": ""}}, {"title": "国防教育广场", "address": "评梅西街北50米", "image": "", "rank": 18, "time": 2, "location": {"lat": 37.81141406538801, "lng": 113.63257920631199}, "feature": {"sight_features": "", "sight_content": ""}}, {"title": "小蘑菇度假村", "address": "阳泉市平定县", "image": "", "rank": 19, "time": 2, "location": {"lat": 37.792796383591316, "lng": 113.66442115516472}, "feature": {"sight_features": "", "sight_content": ""}}, {"title": "评梅广场", "address": "东大街77号", "image": "", "rank": 20, "time": 2, "location": {"lat": 22.617509352603705, "lng": 114.14733733676542}, "feature": {"sight_features": "", "sight_content": ""}}, {"title": "五龙泉公园", "address": "五龙泉公园(西门)附近", "image": "", "rank": 21, "time": 2, "location": {"lat": 37.96973648752288, "lng": 113.88663061621675}, "feature": {"sight_features": "", "sight_content": ""}}, {"title": "石佛寺", "address": "307国道附近", "image": "", "rank": 22, "time": 1.5, "location": {"lat": 38.073000928506836, "lng": 114.40128804973918}, "feature": {"sight_features": "", "sight_content": ""}}, {"title": "平定县图书馆", "address": "府新街", "image": "", "rank": 23, "time": 2, "location": {"lat": 23.05974002097212, "lng": 113.77624241159512}, "feature": {"sight_features": "", "sight_content": ""}}, {"title": "鑫森生态种植专业合作社", "address": "娘白线岩会村7号", "image": "", "rank": 24, "time": 2, "location": {"lat": 37.89289393103544, "lng": 113.81601765243465}, "feature": {"sight_features": "", "sight_content": ""}}, {"title": "耕古嘉和农业", "address": "府新街金源国际酒店一层", "image": "", "rank": 25, "time": 2, "location": {"lat": 37.79243114607751, "lng": 113.66563365650138}, "feature": {"sight_features": "", "sight_content": ""}}, {"title": "金泰商贸步行街", "address": "山西省平定县平阳路", "image": "", "rank": 26, "time": 2, "location": {"lat": 37.807814326166586, "lng": 113.63864669589603}, "feature": {"sight_features": "", "sight_content": ""}}, {"title": "梁家洼", "address": "阳泉市-平定县", "image": "", "rank": 27, "time": 2, "location": {"lat": 37.792796383591316, "lng": 113.66442115516472}, "feature": {"sight_features": "", "sight_content": ""}}, {"title": "梁家垴村", "address": "阳泉市-平定县", "image": "", "rank": 28, "time": 2, "location": {"lat": 37.792796383591316, "lng": 113.66442115516472}, "feature": {"sight_features": "", "sight_content": ""}}, {"title": "东道沟", "address": "阳泉市-平定县", "image": "", "rank": 29, "time": 2, "location": {"lat": 37.792796383591316, "lng": 113.66442115516472}, "feature": {"sight_features": "", "sight_content": ""}}, {"title": "平阳湖", "address": "阳泉市平定县娘子关村", "image": "", "rank": 30, "time": 2, "location": {"lat": 37.97167384570568, "lng": 113.89907331981863}, "feature": {"sight_features": "", "sight_content": ""}}]}