{"cityName": "屏南", "days": 2, "cityImage": "", "spots": [{"title": "白水洋风景区", "address": "宁德市屏南县双溪镇", "image": "", "rank": 1, "time": 5.0, "location": {"lat": 27.03902841163225, "lng": 119.06359034706716}, "feature": {"sight_features": "特色1 去天然冲浪游泳池戏水玩耍。 特色2 感受细腻的沙子渗透脚趾的细痒感，尽享大自然赐予的清凉。 特色3 白水洋鸳鸯溪景区被CCTV赞为“完美假期中国十佳旅游线路”。", "sight_content": "屏南白水洋鸳鸯溪世界地质公园、国家级风景名胜区、国家AAAAA级景区、全国唯一的“鸳鸯之乡”、“国家绿色旅游示范基地”、“第一批省级现代服务业集聚示范区”、CCTV“完美假期中国十佳旅游线路”、体育旅游十佳精品景区、福建省旅游十大品牌之一。白水洋被誉为“奇特景观”“天下绝景，宇宙之谜”，是目前世界唯一的“浅水广场”，其平坦的河床长约2公里，最宽处182米，总面积达8万平方米，一石而就，河床布水均匀，净无沙砾，人行其上，水仅没踝，阳光下波光潋滟，一片白炽，因而得名白水洋。\n‍\n在中下洋之间有一条近百米长的天然滑道，赤身下滑不伤肌肤，被称为“天然冲浪游泳池”。阳光、白水、水蚀波痕，形成了色彩斑斓的河床。人们或踏水、或冲浪、或开展赛跑、拔河、武术、骑车、舞狮等别具一格的水上运动，尽享大自然赐予的清凉。‍‍站在中洋上，远眺对面的山峰，前方座落在白水洋边上秀丽的山峰便是五老峰，其前方的小平台人称棋盘石，传说当年有五位神仙在棋盘石上，面对棋局冥思苦想，忘却了‍岁月的流逝，专注凝神而化为五老峰。\n白水洋的下洋波平如镜，它与喧嚣的中洋冲浪区形成鲜明的对比，给人以宁静的感觉，洋中央那块突起的岩石，它与河床是连体的，它的形随步换，从左上方看，象一顶明代的乌纱帽，故称“纱帽岩”。‍‍观景台是依山而建、因势而上，像一艘巨轮泊岸。观景台，顾名思义就是揽胜白水洋的平台。观景台内部拥有医疗救护点、超市、休闲区和寄存更衣等设施。为游客免去负担，而站在观景台上眺望平平展展的白水洋，凭栏远眺，偌大个浅水广场，尽收眼底。绿涛唤白浪，山风吹水韵，让人心旷神怡。放眼上洋双龙桥横架两岸，构成了一幅青山、流水、古桥浑然一体的唯美画卷。\n冰雪世界其乐无穷，让你体验童话世界里的美好。"}}, {"title": "万安桥", "address": "屏南县921县道", "image": "", "rank": 2, "time": 0.25, "location": {"lat": 26.83907398977628, "lng": 118.86718063893694}, "feature": {"sight_features": "", "sight_content": ""}}, {"title": "国家地质公园", "address": "福建宁德屏南县202省道国家地质公园", "image": "", "rank": 3, "time": 3.0, "location": {"lat": 27.070318214899476, "lng": 119.05876944143074}, "feature": {"sight_features": "", "sight_content": ""}}, {"title": "漈下建筑群", "address": "宁德市屏南县甘棠乡漈下村", "image": "", "rank": 4, "time": 1.0, "location": {"lat": 26.85550986693756, "lng": 118.94790567241134}, "feature": {"sight_features": "", "sight_content": ""}}, {"title": "长潭溪", "address": "福建省屏南县代溪镇凎山村", "image": "", "rank": 5, "time": 2, "location": {"lat": 26.81763846475482, "lng": 119.12499385219827}, "feature": {"sight_features": "", "sight_content": ""}}, {"title": "金造溪", "address": "棠口乡和代溪镇交界处", "image": "", "rank": 6, "time": 2, "location": {"lat": 26.933642483611894, "lng": 119.05543188791972}, "feature": {"sight_features": "", "sight_content": ""}}, {"title": "甘棠影剧院", "address": "202省道附近", "image": "", "rank": 7, "time": 2, "location": {"lat": 37.77792504283699, "lng": 114.12616671611477}, "feature": {"sight_features": "", "sight_content": ""}}, {"title": "漈头村张氏宗祠八家分祠", "address": "福建省宁德市屏南县S303", "image": "", "rank": 8, "time": 2, "location": {"lat": 26.914264918059377, "lng": 118.99259621521281}, "feature": {"sight_features": "", "sight_content": ""}}, {"title": "人民公园", "address": "宁德市屏南县达顺新村110号", "image": "", "rank": 9, "time": 2.5, "location": {"lat": 26.913847886363094, "lng": 118.99454324838808}, "feature": {"sight_features": "", "sight_content": ""}}, {"title": "屏南县城东基督教堂", "address": "福建省宁德市屏南县际头路", "image": "", "rank": 10, "time": 2, "location": {"lat": 26.917871231036187, "lng": 118.99818567870433}, "feature": {"sight_features": "", "sight_content": ""}}, {"title": "屏南基督教城关福音堂", "address": "福建省宁德市屏南县古峰镇东环北路翠园一街129号", "image": "", "rank": 11, "time": 5.0, "location": {"lat": 26.922351450321084, "lng": 118.99503132202574}, "feature": {"sight_features": "", "sight_content": ""}}, {"title": "双峰寺", "address": "福建省宁德市屏南县棠口乡仕洋村双峰寺（距西村村475m）", "image": "", "rank": 12, "time": 1.0, "location": {"lat": 26.970626137491475, "lng": 118.99537359259443}, "feature": {"sight_features": "", "sight_content": ""}}, {"title": "屏南鹫峰寺", "address": "屏南县鹫峰山", "image": "", "rank": 13, "time": 5.0, "location": {"lat": 26.914264918059377, "lng": 118.99259621521281}, "feature": {"sight_features": "", "sight_content": ""}}, {"title": "国宝度假山庄", "address": "福建省宁德市屏南县202省道小梨洋村入口", "image": "", "rank": 14, "time": 2, "location": {"lat": 26.85015083345544, "lng": 118.97981686623545}, "feature": {"sight_features": "", "sight_content": ""}}, {"title": "屏南县图书馆", "address": "文化路19号", "image": "", "rank": 16, "time": 2, "location": {"lat": 26.914264918059377, "lng": 118.99259621521281}, "feature": {"sight_features": "", "sight_content": ""}}, {"title": "双溪猕猴自然保护区", "address": "932县道", "image": "", "rank": 17, "time": 2, "location": {"lat": 36.6037353091862, "lng": 112.07532984700205}, "feature": {"sight_features": "", "sight_content": ""}}, {"title": "凯旋烘焙剧场", "address": "古峰镇公园路公园壹号城市综合体101-3号", "image": "", "rank": 18, "time": 2, "location": {"lat": 26.57518273503087, "lng": 104.86922171308935}, "feature": {"sight_features": "", "sight_content": ""}}, {"title": "长潭溪", "address": "福建省屏南县代溪镇凎山村", "image": "", "rank": 19, "time": 2, "location": {"lat": 26.81763846475482, "lng": 119.12499385219827}, "feature": {"sight_features": "", "sight_content": ""}}, {"title": "江氏夫人殿", "address": "福建省屏南县甘棠乡小梨洋村", "image": "", "rank": 20, "time": 2, "location": {"lat": 26.85015083345544, "lng": 118.97981686623545}, "feature": {"sight_features": "", "sight_content": ""}}, {"title": "狮坪", "address": "福建省屏南县双溪镇", "image": "", "rank": 21, "time": 2, "location": {"lat": 27.03902841163225, "lng": 119.06359034706716}, "feature": {"sight_features": "", "sight_content": ""}}, {"title": "满里瀑布", "address": "福建省屏南县双溪镇", "image": "", "rank": 22, "time": 2, "location": {"lat": 27.03902841163225, "lng": 119.06359034706716}, "feature": {"sight_features": "", "sight_content": ""}}, {"title": "双溪新四军驻地旧址", "address": "福建省屏南县双溪镇双溪村", "image": "", "rank": 23, "time": 2, "location": {"lat": 27.024287023825497, "lng": 119.05063555453222}, "feature": {"sight_features": "", "sight_content": ""}}, {"title": "步行街", "address": "福建省屏南县翠屏路附近", "image": "", "rank": 24, "time": 2, "location": {"lat": 26.917834636018384, "lng": 118.9925616304507}, "feature": {"sight_features": "", "sight_content": ""}}, {"title": "双溪镇", "address": "福建省宁德屏南县双溪镇", "image": "", "rank": 25, "time": 2, "location": {"lat": 27.03902841163225, "lng": 119.06359034706716}, "feature": {"sight_features": "", "sight_content": ""}}, {"title": "漈头村", "address": "福建省宁德屏南县漈头村", "image": "", "rank": 26, "time": 2.0, "location": {"lat": 26.90391335967057, "lng": 119.04258645509753}, "feature": {"sight_features": "", "sight_content": ""}}, {"title": "闽东北廊桥", "address": "宁德市屏南县棠口乡棠口村", "image": "", "rank": 27, "time": 2, "location": {"lat": 26.96062316891776, "lng": 119.02223249794386}, "feature": {"sight_features": "", "sight_content": ""}}]}