{"cityName": "平顺", "days": 2, "cityImage": "", "spots": [{"title": "太行水乡华野漂流", "address": "长治市平顺县324省道实会村内", "image": "", "rank": 1, "time": 2, "location": {"lat": 36.369926293525246, "lng": 113.52171472489971}, "feature": {"sight_features": "特色1 被誉为华北峡谷第一漂", "sight_content": "华野漂流位于太行水乡西段，距离平顺县27公里，距离长治35公里，选址于太行山十大峡谷的浊漳河大峡谷之精品地段。经历九曲八弯，七瀑六潭，全长十三公里，落差68米，深处50米，浅处0.3米，它是时尚、休闲、绿色、健康、激情、运动的娱乐项目。\n沿途有惊心动魄、有惊无险的急流冲浪，有野趣十足、风光旖旎的水中小鸟，有波光粼粼，山水相依的谷低平湖。"}}, {"title": "神龙湾生态民俗度假村", "address": "山西省长治市平顺县东寺头乡神龙湾村", "image": "", "rank": 2, "time": 3.0, "location": {"lat": 36.09891230278406, "lng": 113.6765716705266}, "feature": {"sight_features": "", "sight_content": ""}}, {"title": "黑龙潭景区(太行山大峡谷)", "address": "山西省长治市壶关县桥上乡", "image": "", "rank": 3, "time": 2, "location": {"lat": 35.94179426543203, "lng": 113.60018459296035}, "feature": {"sight_features": "", "sight_content": ""}}, {"title": "天脊山省级地质公园", "address": "山西省长治市紫金西路233号", "image": "", "rank": 4, "time": 2, "location": {"lat": 36.20544889675487, "lng": 113.11374467552409}, "feature": {"sight_features": "", "sight_content": ""}}, {"title": "红石坪", "address": "山西省长治市平顺县", "image": "", "rank": 5, "time": 2, "location": {"lat": 36.205989459384334, "lng": 113.44251696707077}, "feature": {"sight_features": "", "sight_content": ""}}, {"title": "太行水乡展厅", "address": "原起寺附近", "image": "", "rank": 6, "time": 2, "location": {"lat": 36.35886349259114, "lng": 113.43882825515514}, "feature": {"sight_features": "", "sight_content": ""}}, {"title": "响泉水观光园", "address": "001乡道附近", "image": "", "rank": 7, "time": 2, "location": {"lat": 42.370177806786245, "lng": 117.99555275285643}, "feature": {"sight_features": "", "sight_content": ""}}, {"title": "清华科普太阳能(平顺专卖店)", "address": "兴华西街95号附近", "image": "", "rank": 8, "time": 2, "location": {"lat": 37.89278629464532, "lng": 112.50619489572398}, "feature": {"sight_features": "", "sight_content": ""}}, {"title": "三味书屋", "address": "彩凤小区12", "image": "", "rank": 9, "time": 1.5, "location": {"lat": 36.20414847281367, "lng": 113.44629751096205}, "feature": {"sight_features": "", "sight_content": ""}}, {"title": "绿野漂流", "address": "潞城市黄牛蹄乡辛安村", "image": "", "rank": 10, "time": 2, "location": {"lat": 36.35938747099324, "lng": 113.43651365333065}, "feature": {"sight_features": "", "sight_content": ""}}, {"title": "青龙洞", "address": "玉石线西50米", "image": "", "rank": 11, "time": 2.5, "location": {"lat": 36.06823807666966, "lng": 113.62995643718908}, "feature": {"sight_features": "", "sight_content": ""}}, {"title": "华北泉域第一漂", "address": "长治市平顺县324省道附近", "image": "", "rank": 12, "time": null, "location": {"lat": 36.369926293525246, "lng": 113.52171472489971}, "feature": {"sight_features": "", "sight_content": ""}}, {"title": "天王殿", "address": "长治市平顺县龙门寺内", "image": "", "rank": 13, "time": 2, "location": {"lat": 36.396433819928546, "lng": 113.63562687034788}, "feature": {"sight_features": "", "sight_content": ""}}, {"title": "大雄宝殿", "address": "长治市平顺县202省道附近平顺太行水乡风景区原起寺内", "image": "", "rank": 14, "time": 2, "location": {"lat": 36.35886349259114, "lng": 113.43882825515514}, "feature": {"sight_features": "", "sight_content": ""}}, {"title": "弥陀殿", "address": "长治市平顺县001乡道大云院内", "image": "", "rank": 15, "time": 2, "location": {"lat": 36.13191694968876, "lng": 113.53520206348762}, "feature": {"sight_features": "", "sight_content": ""}}, {"title": "漂流景区展厅", "address": "长治市平顺县324省道附近华北泉域第一漂内", "image": "", "rank": 16, "time": 2, "location": {"lat": 36.35781715218147, "lng": 113.44070122214345}, "feature": {"sight_features": "", "sight_content": ""}}, {"title": "舍财寺", "address": "长治市平顺县", "image": "", "rank": 17, "time": 2, "location": {"lat": 36.205989459384334, "lng": 113.44251696707077}, "feature": {"sight_features": "", "sight_content": ""}}, {"title": "大禹庙", "address": "665县道附近", "image": "", "rank": 18, "time": 1.0, "location": {"lat": 36.2541039373934, "lng": 113.19937504010991}, "feature": {"sight_features": "", "sight_content": ""}}, {"title": "月亮山", "address": "长治市平顺县阳高乡奥治村大禹峡风景区停车场内", "image": "", "rank": 19, "time": 1.5, "location": {"lat": 36.36451810575842, "lng": 113.57083283681185}, "feature": {"sight_features": "", "sight_content": ""}}, {"title": "淳化寺", "address": "长治市平顺县202省道附近平顺太行水乡风景区内", "image": "", "rank": 20, "time": 2, "location": {"lat": 36.205989459384334, "lng": 113.44251696707077}, "feature": {"sight_features": "", "sight_content": ""}}, {"title": "河神庙", "address": "长治市平顺县202省道附近平顺太行水乡风景区天鹅湖风景区内", "image": "", "rank": 21, "time": 2.5, "location": {"lat": 36.36770360062091, "lng": 113.54754247883768}, "feature": {"sight_features": "", "sight_content": ""}}, {"title": "瑞康山庄度假村", "address": "长治平顺县东寺头乡井底瑞康山庄度假村", "image": "", "rank": 22, "time": 2, "location": {"lat": 36.161893240658486, "lng": 113.58745437769694}, "feature": {"sight_features": "", "sight_content": ""}}, {"title": "太行水乡华野漂流区", "address": "324省道附近", "image": "", "rank": 23, "time": 2, "location": {"lat": 34.101022772229115, "lng": 117.56430801824291}, "feature": {"sight_features": "", "sight_content": ""}}, {"title": "平顺文物博物馆", "address": "兴华东街", "image": "", "rank": 24, "time": 2, "location": {"lat": 35.38202313337087, "lng": 119.43386735286605}, "feature": {"sight_features": "", "sight_content": ""}}, {"title": "平顺县图书馆", "address": "青羊西街", "image": "", "rank": 25, "time": 2, "location": {"lat": 31.546350991313105, "lng": 104.7061985649707}, "feature": {"sight_features": "", "sight_content": ""}}, {"title": "大禹岛漂流", "address": "红石坪景区内(阳高乡阳高村东2公里原恐龙谷)", "image": "", "rank": 26, "time": 2, "location": {"lat": 36.357244427534624, "lng": 113.63035865348118}, "feature": {"sight_features": "", "sight_content": ""}}, {"title": "平顺县档案局", "address": "青羊镇康乐街33号", "image": "", "rank": 27, "time": 2, "location": {"lat": 39.94532064558787, "lng": 119.60300145872593}, "feature": {"sight_features": "", "sight_content": ""}}, {"title": "山西龙门山", "address": "山西省平顺县东北", "image": "", "rank": 28, "time": 2, "location": {"lat": 36.205989459384334, "lng": 113.44251696707077}, "feature": {"sight_features": "", "sight_content": ""}}, {"title": "东道沟", "address": "长治市-平顺县", "image": "", "rank": 29, "time": 2, "location": {"lat": 36.205989459384334, "lng": 113.44251696707077}, "feature": {"sight_features": "", "sight_content": ""}}]}