{"cityName": "邳州", "days": 2, "cityImage": "", "spots": [{"title": "艾山风景名胜区", "address": "徐州市邳州市艾山风景区", "image": "", "rank": 1, "time": 2, "location": {"lat": 34.51618408785136, "lng": 117.976360738602}, "feature": {"sight_features": "特色1 一山不独景，百景各不同", "sight_content": "徐州艾山风景名胜区位于邳州北部，苏鲁两省交界处。面积23.3平方公里。东近花果山，西邻云龙山，是苏北三大名山之一。此山因春秋时期艾王城遗址而得名，又说此山每60年才生长出一次名贵中药材“艾草”而取名。\n春秋时期的艾王城遗址，三国时期徐庶隐居的徐庶洞，唐宋时期的古战场黑风口，明清时期的奶奶庙，嵩山少林寺下院――铁佛寺，华严寺，九龙佛塔，如意大道，六度门等人文景观十分独特。更有凤凰台、九龙脊、九龙涧、橡树林等自然景观及其美丽传说。\n俗话说：“一山不独景，百景各不同”，景区四季气候怡人，风景优美。既有湖光山色之美景，又有人文古迹之景观。她既是休闲观光之处，又是佛教文化胜地。湖水波光粼粼，山林郁郁葱葱，物种丰富。满山遍野的乌桕树，苏北仅此山才有。\n满山遍野的乌桕树、刺槐林，苏北仅此山才有。春秋时期的艾王城遗址，三国时期徐庶隐居的徐庶洞，唐宋时期的古战场黑风口，明清时期的奶奶庙，嵩山少林寺下院――铁佛寺，华严寺，九龙佛塔，如意大道，六度门等人文景观十分独特。更有凤凰台、九龙脊、九龙涧、橡树林等自然景观及其美丽传说。\n由中央主塔及四周8条汉龙组合而成。主体雕塑座落在如意平台中心，它是以佛教文化为主题的传统大型塔式音乐喷泉转动雕塑。中央主塔为密宗、禅宗，汉传风格，高36.7米，总造型面积3000平方米左右，材质为青铜铸造，用青铜700多吨；8条青铜汉龙，每条龙高9.7米，重7吨，它苍劲有力、粗旷奔放、昂扬向上，是目前我国最大的汉龙青铜雕塑；中央塔底部为“八龙引水”的汉白玉石雕。8条巨龙与中央主塔用7米环水池相隔，池内设置音乐喷泉。"}}, {"title": "大运河", "address": "徐州市贾汪区", "image": "", "rank": 2, "time": 2.5, "location": {"lat": 34.44162040061657, "lng": 117.46943039702548}, "feature": {"sight_features": "", "sight_content": ""}}, {"title": "土山古镇景区", "address": "徐州市邳州市土山镇", "image": "", "rank": 3, "time": 2, "location": {"lat": 34.21623096550426, "lng": 117.820848109902}, "feature": {"sight_features": "", "sight_content": ""}}, {"title": "银杏博览园", "address": "徐州市邳州市港上镇博览园北路", "image": "", "rank": 4, "time": 2, "location": {"lat": 34.533541378857144, "lng": 118.12448277610856}, "feature": {"sight_features": "", "sight_content": ""}}, {"title": "沙沟湖农业示范园", "address": "徐州市邳州市扬州路西侧", "image": "", "rank": 5, "time": 2, "location": {"lat": 34.3449388908761, "lng": 118.01211080869454}, "feature": {"sight_features": "", "sight_content": ""}}, {"title": "银杏时光隧道", "address": "徐州市邳州市九龙大道与310国道交叉口南100米", "image": "", "rank": 6, "time": 2, "location": {"lat": 34.541234346894136, "lng": 118.05192798123777}, "feature": {"sight_features": "", "sight_content": ""}}, {"title": "锦绣大地水世界", "address": "徐州市邳州市环城北路锦绣大地生态农业观光园内", "image": "", "rank": 7, "time": 2, "location": {"lat": 34.370005004193416, "lng": 118.03480618479382}, "feature": {"sight_features": "", "sight_content": ""}}, {"title": "桃花岛", "address": "邳州市运河街道解放路", "image": "", "rank": 8, "time": 2, "location": {"lat": 34.313953005266754, "lng": 117.99001463021789}, "feature": {"sight_features": "", "sight_content": ""}}, {"title": "银杏湖玻璃栈道", "address": "徐州市邳州市官授线橡胶坝附近", "image": "", "rank": 9, "time": 2, "location": {"lat": 34.47937793006348, "lng": 118.061521991881}, "feature": {"sight_features": "", "sight_content": ""}}, {"title": "王杰纪念馆", "address": "徐州市邳州市", "image": "", "rank": 10, "time": 2, "location": {"lat": 34.339753160806566, "lng": 117.963410663065}, "feature": {"sight_features": "", "sight_content": ""}}, {"title": "古银杏姊妹园", "address": "江苏省徐州市邳州市博览园北路 ‎", "image": "", "rank": 11, "time": 2, "location": {"lat": 34.533541378857144, "lng": 118.12448277610856}, "feature": {"sight_features": "", "sight_content": ""}}, {"title": "九美堂沐足汇", "address": "徐州市邳州市邳新路84号（大象城向东1000米）", "image": "", "rank": 12, "time": 2, "location": {"lat": 34.31792297424428, "lng": 117.99876895607382}, "feature": {"sight_features": "", "sight_content": ""}}, {"title": "天地源温泉休闲养生会所", "address": "徐州市邳州市官湖镇新华大道（3路公交车终点站旁）", "image": "", "rank": 13, "time": 2, "location": {"lat": 34.4529831325173, "lng": 118.01814062963363}, "feature": {"sight_features": "", "sight_content": ""}}, {"title": "三乐斋美术馆", "address": "徐州市邳州市瑞兴南路涌金花苑西门", "image": "", "rank": 14, "time": null, "location": {"lat": 34.31313841008976, "lng": 117.98416623644943}, "feature": {"sight_features": "", "sight_content": ""}}, {"title": "夏威夷水上乐园", "address": "建设北路广安汽车销售有限公司隔壁(耀邦广场北200米)", "image": "", "rank": 15, "time": 2.0, "location": {"lat": 34.35559402740643, "lng": 117.99216924922088}, "feature": {"sight_features": "", "sight_content": ""}}, {"title": "文化馆书画社", "address": "青年西路158号", "image": "", "rank": 16, "time": 2, "location": {"lat": 34.317468291659175, "lng": 117.96357424449839}, "feature": {"sight_features": "", "sight_content": ""}}, {"title": "邳州四季芳庭花卉种植专业合作社", "address": "206县道附近", "image": "", "rank": 17, "time": 2, "location": {"lat": 36.795379702700444, "lng": 114.32158768997742}, "feature": {"sight_features": "", "sight_content": ""}}, {"title": "树林葡萄自采园", "address": "250省道附近", "image": "", "rank": 18, "time": 2, "location": {"lat": 34.132194006766184, "lng": 118.00159637266647}, "feature": {"sight_features": "", "sight_content": ""}}, {"title": "开心哈乐", "address": "奋达路与育才路交叉口东200米", "image": "", "rank": 19, "time": 2, "location": {"lat": 34.60375675773578, "lng": 118.065545734023}, "feature": {"sight_features": "", "sight_content": ""}}, {"title": "海天水族馆", "address": "长江西路与建设中路交叉口旁", "image": "", "rank": 20, "time": 2, "location": {"lat": 30.94009655867093, "lng": 117.8105595698622}, "feature": {"sight_features": "", "sight_content": ""}}, {"title": "邳州市千岛湖休闲垂钓中心", "address": "松花江东路", "image": "", "rank": 21, "time": 2, "location": {"lat": 31.797093713257944, "lng": 121.67750580524554}, "feature": {"sight_features": "", "sight_content": ""}}, {"title": "小西湖垂钓园餐馆", "address": "车辐山镇望母山后", "image": "", "rank": 22, "time": 2, "location": {"lat": 34.48542351489141, "lng": 117.79709498625118}, "feature": {"sight_features": "", "sight_content": ""}}, {"title": "金钟音乐表演", "address": "现代汉城环球新天地商业街", "image": "", "rank": 23, "time": 2, "location": {"lat": 32.41258228409243, "lng": 119.42088557612763}, "feature": {"sight_features": "", "sight_content": ""}}, {"title": "农家乐全羊馆", "address": "韩世商业步行街与步行街交叉口旁", "image": "", "rank": 24, "time": 2, "location": {"lat": 28.018727661665885, "lng": 120.68009581346953}, "feature": {"sight_features": "", "sight_content": ""}}, {"title": "东方汤泉", "address": "福州路与长江路交叉口东方国贸", "image": "", "rank": 25, "time": 1.5, "location": {"lat": 34.34231670176008, "lng": 117.98487401046243}, "feature": {"sight_features": "", "sight_content": ""}}, {"title": "娄楼村基督教", "address": "土闫线北50米", "image": "", "rank": 26, "time": 2, "location": {"lat": 34.22599774794205, "lng": 117.74213649076081}, "feature": {"sight_features": "", "sight_content": ""}}, {"title": "小雅庄战斗纪念碑", "address": "碾倪线西50米", "image": "", "rank": 27, "time": 2, "location": {"lat": 34.32754551590306, "lng": 117.79037370542544}, "feature": {"sight_features": "", "sight_content": ""}}, {"title": "卡其乐儿童乐园", "address": "解放路80号附近", "image": "", "rank": 28, "time": 2, "location": {"lat": 38.92205469714505, "lng": 121.64438880604348}, "feature": {"sight_features": "", "sight_content": ""}}, {"title": "儿童体验乐园(邳州店)", "address": "建设路同盛国际广场1层", "image": "", "rank": 29, "time": 2, "location": {"lat": 33.645818930125905, "lng": 116.99176508648861}, "feature": {"sight_features": "", "sight_content": ""}}, {"title": "ck儿童游乐园", "address": "江苏省徐州市邳州市青山路", "image": "", "rank": 30, "time": 2, "location": {"lat": 34.39394225152518, "lng": 117.77286923712238}, "feature": {"sight_features": "", "sight_content": ""}}, {"title": "新城基督教会", "address": "泰州路附近", "image": "", "rank": 31, "time": 1.0, "location": {"lat": 39.183979611796246, "lng": 117.2337794217462}, "feature": {"sight_features": "", "sight_content": ""}}, {"title": "梦幻岛儿童乐园", "address": "陈炮线与303县道交叉口东南50米", "image": "", "rank": 32, "time": 2, "location": {"lat": 34.396044467747664, "lng": 118.05402642290908}, "feature": {"sight_features": "", "sight_content": ""}}, {"title": "基督教会", "address": "富山路北50米", "image": "", "rank": 33, "time": 2, "location": {"lat": 34.47506356005374, "lng": 117.76005790307481}, "feature": {"sight_features": "", "sight_content": ""}}, {"title": "奚仲园", "address": "江苏省徐州市邳州市运河街道建设南路和平广场附近", "image": "", "rank": 34, "time": 2, "location": {"lat": 34.32666873704615, "lng": 117.96969889326203}, "feature": {"sight_features": "", "sight_content": ""}}, {"title": "在路上，户外体育场店跑步攀岩", "address": "江苏省徐州市邳州市青年东路46号", "image": "", "rank": 35, "time": 2, "location": {"lat": 34.31321293847891, "lng": 117.9735289966683}, "feature": {"sight_features": "", "sight_content": ""}}, {"title": "奇趣水上大世界", "address": "运河镇耀邦公馆东500米", "image": "", "rank": 36, "time": 2, "location": {"lat": 30.48977414944533, "lng": 120.3018374361112}, "feature": {"sight_features": "", "sight_content": ""}}, {"title": "占城影剧院", "address": "占城街39号附近", "image": "", "rank": 37, "time": 2, "location": {"lat": 34.18155168455849, "lng": 117.77524672482409}, "feature": {"sight_features": "", "sight_content": ""}}, {"title": "邳州市柳琴剧团", "address": "奚仲路44号附近", "image": "", "rank": 38, "time": 2, "location": {"lat": 34.32558288399498, "lng": 117.95456064701126}, "feature": {"sight_features": "", "sight_content": ""}}, {"title": "咏缘根艺馆", "address": "江苏省邳州市花园路", "image": "", "rank": 39, "time": 2, "location": {"lat": 34.31067986468448, "lng": 117.97852322316803}, "feature": {"sight_features": "", "sight_content": ""}}, {"title": "青岛啤酒广场", "address": "九龙大道与育才路交叉口西侧100米", "image": "", "rank": 40, "time": 2, "location": {"lat": 38.860620068875775, "lng": 110.50704956552121}, "feature": {"sight_features": "", "sight_content": ""}}, {"title": "欢乐牧场", "address": "银杏大道新苏购物中心六楼", "image": "", "rank": 41, "time": 2, "location": {"lat": 34.33390170843127, "lng": 117.98596235429966}, "feature": {"sight_features": "", "sight_content": ""}}, {"title": "碾庄镇中心教堂", "address": "淮海路与超时大道交叉口北150米", "image": "", "rank": 42, "time": 2, "location": {"lat": 34.31046470462201, "lng": 117.78948725664989}, "feature": {"sight_features": "", "sight_content": ""}}, {"title": "开心哈乐儿童游乐场", "address": "民主路锦华大酒店西巷内30米4楼（潮人酒吧北边10来米）", "image": "", "rank": 43, "time": 2, "location": {"lat": 34.31712410356295, "lng": 117.96827858511512}, "feature": {"sight_features": "", "sight_content": ""}}, {"title": "碾庄烈士纪念碑", "address": "江苏省徐州市邳州市碾庄镇淮海战役碾庄圩战斗纪念馆", "image": "", "rank": 44, "time": 2, "location": {"lat": 34.307666077680175, "lng": 117.79170844907422}, "feature": {"sight_features": "", "sight_content": ""}}, {"title": "爱玩游乐场", "address": "江苏省徐州市邳州市燕汴线燕子埠镇中心小学旁", "image": "", "rank": 45, "time": 2, "location": {"lat": 34.506006030812856, "lng": 117.70993333775405}, "feature": {"sight_features": "", "sight_content": ""}}, {"title": "欣心乐园", "address": "恒山路附近", "image": "", "rank": 46, "time": 2, "location": {"lat": 37.86696131310809, "lng": 112.47812854020087}, "feature": {"sight_features": "", "sight_content": ""}}, {"title": "千禧园", "address": "江苏省徐州市邳州市陈楼镇余杭路千禧园", "image": "", "rank": 47, "time": 2, "location": {"lat": 34.39584902957688, "lng": 118.0667277522605}, "feature": {"sight_features": "", "sight_content": ""}}, {"title": "基督大孙教会", "address": "303县道附近", "image": "", "rank": 48, "time": 2, "location": {"lat": 31.672789553142973, "lng": 120.34790344096838}, "feature": {"sight_features": "", "sight_content": ""}}, {"title": "碾庄镇文化广场", "address": "江苏省徐州市邳州市", "image": "", "rank": 49, "time": 2, "location": {"lat": 34.339753160806566, "lng": 117.963410663065}, "feature": {"sight_features": "", "sight_content": ""}}, {"title": "法制广场", "address": "徐州市邳州市", "image": "", "rank": 50, "time": 2, "location": {"lat": 34.339753160806566, "lng": 117.963410663065}, "feature": {"sight_features": "", "sight_content": ""}}, {"title": "山前人家度假村", "address": "310国道北100米", "image": "", "rank": 51, "time": 2, "location": {"lat": 34.34201782738435, "lng": 117.25163434058804}, "feature": {"sight_features": "", "sight_content": ""}}, {"title": "法制广场", "address": "复兴东路北50米", "image": "", "rank": 52, "time": 2, "location": {"lat": 35.597100206312064, "lng": 110.7191939292494}, "feature": {"sight_features": "", "sight_content": ""}}, {"title": "法治广场", "address": "江苏省徐州市邳州市水杉大道官湖镇政府", "image": "", "rank": 53, "time": 2, "location": {"lat": 34.4243558025669, "lng": 118.00929662953187}, "feature": {"sight_features": "", "sight_content": ""}}, {"title": "岔河镇法制文化广场", "address": "云坛东路南50米", "image": "", "rank": 54, "time": 2, "location": {"lat": 34.545025015688346, "lng": 117.90337551256134}, "feature": {"sight_features": "", "sight_content": ""}}, {"title": "法制广场", "address": "奋达路与花园路交叉口西南100米", "image": "", "rank": 55, "time": 2, "location": {"lat": 34.603866255767244, "lng": 118.0605156238114}, "feature": {"sight_features": "", "sight_content": ""}}, {"title": "喜多多文化健身娱乐", "address": "江苏省徐州市邳州市303县道附近", "image": "", "rank": 56, "time": 2, "location": {"lat": 34.396044467747664, "lng": 118.05402642290908}, "feature": {"sight_features": "", "sight_content": ""}}, {"title": "瑞香寺", "address": "江苏省徐州市邳州市黎明大道附近", "image": "", "rank": 57, "time": 2, "location": {"lat": 34.39110777415973, "lng": 117.77510924635223}, "feature": {"sight_features": "", "sight_content": ""}}, {"title": "基督教会", "address": "官楼线东50米", "image": "", "rank": 58, "time": 2, "location": {"lat": 34.44534852307751, "lng": 118.0294417612036}, "feature": {"sight_features": "", "sight_content": ""}}, {"title": "邹庄影剧院", "address": "奋达路与育才路交叉口东南100米", "image": "", "rank": 59, "time": 2, "location": {"lat": 34.60375675773578, "lng": 118.06464742851303}, "feature": {"sight_features": "", "sight_content": ""}}, {"title": "基督教会", "address": "碾韩线南50米", "image": "", "rank": 60, "time": 2, "location": {"lat": 34.32143205492931, "lng": 117.7652111143786}, "feature": {"sight_features": "", "sight_content": ""}}]}