{"cityName": "普安", "days": 2, "cityImage": "", "spots": [{"title": "普安森林温泉", "address": "黔西南州普安县盘水镇温泉路八号（森林公园旁）", "image": "", "rank": 1, "time": 2, "location": {"lat": 25.791727346139506, "lng": 104.97773172674108}, "feature": {"sight_features": "特色1 集餐饮、温泉、商务、住宿于一体", "sight_content": "普安森林温泉位于贵州省黔西南州北部普安县高速公路出口，地理位置得天独厚，交通快捷，依傍美丽的普安森林公园。是由普安县温泉旅游度假有限公司按照国家四星级酒店标准设计投资建设，作为普安县委、县政府招商引资的重点项目，是温泉养生为核心，集餐饮住宿、休闲娱乐、商务会议、旅游度假等于一体的温泉旅游度假区。\n普安森林温泉景区由四星级酒店和温泉旅游度假区组成，总占地面积150亩，森林覆盖率90%以上，风景秀丽，空气清新，是天然的氧吧和优良的避暑胜地。\n普安森林温泉源自地下2200米深处，出水水温52℃左右，日出水量800立方米/日，属于硅酸盐温泉，富含多种矿物质元素，其中锶、钡、偏硅酸、氟已达到我国饮用水标准，具有良好的疗养价值。\n温泉度假区由spa水疗区、户外儿童戏水区、游泳池、森林静泡区、休闲娱乐区、休息大厅、电玩室、自助餐厅等组成，项目齐全，养生与休闲兼具，可同时容纳1000人温泉沐浴、休闲娱乐。同时还拥有52套各种房型的客房，如花园房、豪华套房、亲子房、情趣房、温泉单间、标间等，独具良好的视景效果，温馨舒适典雅，给你独特的度假体验。"}}, {"title": "青山夜郎群落遗址", "address": "黔西南州普安县青山镇", "image": "", "rank": 2, "time": 2, "location": {"lat": 25.49919443032103, "lng": 104.99069671414524}, "feature": {"sight_features": "", "sight_content": ""}}, {"title": "旧营清真寺", "address": "贵州省黔西南布依族苗族自治州普安县", "image": "", "rank": 3, "time": null, "location": {"lat": 25.789951769128603, "lng": 104.95954583801976}, "feature": {"sight_features": "", "sight_content": ""}}, {"title": "普安县烈士陵园", "address": "贵州省黔西南布依族苗族自治州普安县", "image": "", "rank": 4, "time": 2, "location": {"lat": 25.789951769128603, "lng": 104.95954583801976}, "feature": {"sight_features": "", "sight_content": ""}}, {"title": "云盘公园", "address": "贵州省黔西南布依族苗族自治州普安县环城东路", "image": "", "rank": 5, "time": 2, "location": {"lat": 25.79654016023146, "lng": 104.96922989570243}, "feature": {"sight_features": "", "sight_content": ""}}, {"title": "青山镇农民文化广场", "address": "贵州省黔西南布依族苗族自治州普安县", "image": "", "rank": 6, "time": 2, "location": {"lat": 25.789951769128603, "lng": 104.95954583801976}, "feature": {"sight_features": "", "sight_content": ""}}, {"title": "普安县青山镇清真寺", "address": "贵州省黔西南布依族苗族自治州普安县C0505", "image": "", "rank": 7, "time": 2, "location": {"lat": 25.789951769128603, "lng": 104.95954583801976}, "feature": {"sight_features": "", "sight_content": ""}}, {"title": "普白森林公园", "address": "贵州省黔西南布依族苗族自治州普安县X632", "image": "", "rank": 8, "time": 2, "location": {"lat": 25.789951769128603, "lng": 104.95954583801976}, "feature": {"sight_features": "", "sight_content": ""}}, {"title": "三道沟竹海景区", "address": "贵州省黔西南布依族苗族自治州兴仁县", "image": "", "rank": 9, "time": 2, "location": {"lat": 25.49978380271888, "lng": 105.27763031670058}, "feature": {"sight_features": "", "sight_content": ""}}, {"title": "半个箐生态娱乐园", "address": "320国道", "image": "", "rank": 10, "time": 2, "location": {"lat": 27.256565251327487, "lng": 111.28158164529765}, "feature": {"sight_features": "", "sight_content": ""}}, {"title": "惠民特色农家乐", "address": "313省道东南侧", "image": "", "rank": 11, "time": 2, "location": {"lat": 40.47363217982258, "lng": 116.99325005466613}, "feature": {"sight_features": "", "sight_content": ""}}, {"title": "普安县楼下镇锦绣家乡休闲农庄", "address": "楼下镇楼下社区楼下客车站南80米", "image": "", "rank": 12, "time": 2, "location": {"lat": 25.38427130494113, "lng": 104.9000660658156}, "feature": {"sight_features": "", "sight_content": ""}}, {"title": "牛腻塘", "address": "黔西南布依族苗族自治州-普安县", "image": "", "rank": 13, "time": 2, "location": {"lat": 25.789951769128603, "lng": 104.95954583801976}, "feature": {"sight_features": "", "sight_content": ""}}, {"title": "牛尖箐", "address": "黔西南布依族苗族自治州-普安县", "image": "", "rank": 14, "time": 2, "location": {"lat": 25.789951769128603, "lng": 104.95954583801976}, "feature": {"sight_features": "", "sight_content": ""}}, {"title": "牛肩膀", "address": "黔西南布依族苗族自治州-普安县", "image": "", "rank": 15, "time": 2, "location": {"lat": 25.789951769128603, "lng": 104.95954583801976}, "feature": {"sight_features": "", "sight_content": ""}}, {"title": "盘州虎跳峡", "address": "黔西南布依族苗族自治州-普安县", "image": "", "rank": 16, "time": 2, "location": {"lat": 25.789951769128603, "lng": 104.95954583801976}, "feature": {"sight_features": "", "sight_content": ""}}]}