{"cityName": "浦北", "days": 2, "cityImage": "", "spots": [{"title": "五皇山", "address": "钦州市浦北县龙门镇马兰村五皇山风景区", "image": "", "rank": 1, "time": 7.5, "location": {"lat": 22.13405333016009, "lng": 109.41948120604076}, "feature": {"sight_features": "特色1 兼具高山草地风光和南亚热带雨林风光", "sight_content": "钦州五皇山原名叫“五皇岭”，浦北八景之一，五皇山是钦州市著名的森林公园，位于钦州市浦北县龙门、北通、白石水、大成、张黄五镇境内，距离县城30公里。\n五皇山已被钦州市定为重点开发的森林公园，具有集高山草地风光、南亚热带雨林风光、山村农家风情和蕉田荔园风光于一体的梯级综合生态景观。"}}, {"title": "越州天湖", "address": "钦州市浦北县十字村东南小江水库区", "image": "", "rank": 2, "time": 2, "location": {"lat": 22.077997004483514, "lng": 109.51436306453397}, "feature": {"sight_features": "", "sight_content": ""}}, {"title": "红椎林", "address": "广西壮族自治区浦北县五黄岭 535319", "image": "", "rank": 3, "time": 2, "location": {"lat": 22.16141856011766, "lng": 109.30628323327313}, "feature": {"sight_features": "", "sight_content": ""}}, {"title": "百汇儿童游乐场", "address": "钦州市浦北县", "image": "", "rank": 4, "time": 2, "location": {"lat": 22.27782232693711, "lng": 109.56342292940231}, "feature": {"sight_features": "", "sight_content": ""}}, {"title": "清湖生态公园", "address": "广西壮族自治区钦州市浦北县北通镇清湖小学西北350米", "image": "", "rank": 5, "time": 2, "location": {"lat": 22.203106755357343, "lng": 109.31054043962595}, "feature": {"sight_features": "", "sight_content": ""}}, {"title": "萌宝", "address": "广西壮族自治区钦州市浦北县解放路134号", "image": "", "rank": 6, "time": 2, "location": {"lat": 22.27429300517515, "lng": 109.56301051734282}, "feature": {"sight_features": "", "sight_content": ""}}, {"title": "浦北县张黄天然休闲山庄", "address": "广西壮族自治区钦州市浦北县低龙塘", "image": "", "rank": 7, "time": 2, "location": {"lat": 21.986880092111743, "lng": 109.4336057405697}, "feature": {"sight_features": "", "sight_content": ""}}, {"title": "亚美广场", "address": "广西壮族自治区钦州市浦北县小江街道泰禾大道浦北汽车站", "image": "", "rank": 8, "time": 2, "location": {"lat": 22.271783139970946, "lng": 109.5524202185196}, "feature": {"sight_features": "", "sight_content": ""}}, {"title": "天湖余氏沙场", "address": "广西壮族自治区钦州市浦北县新屋坡", "image": "", "rank": 9, "time": 2, "location": {"lat": 22.13851679075582, "lng": 109.53913838169439}, "feature": {"sight_features": "", "sight_content": ""}}, {"title": "五皇山国家地质公园", "address": "广西壮族自治区钦州市浦北县", "image": "", "rank": 10, "time": 2, "location": {"lat": 22.27782232693711, "lng": 109.56342292940231}, "feature": {"sight_features": "", "sight_content": ""}}, {"title": "五皇山国家地质公园博物馆", "address": "小江镇(新车站旁)浦北县博物馆附近", "image": "", "rank": 11, "time": 2, "location": {"lat": 22.271298315256267, "lng": 109.55086359071547}, "feature": {"sight_features": "", "sight_content": ""}}, {"title": "浦北县博物馆", "address": "金浦新区", "image": "", "rank": 12, "time": 2, "location": {"lat": 24.938304302712663, "lng": 118.53339950646847}, "feature": {"sight_features": "", "sight_content": ""}}, {"title": "南宁市绿城林业调查规划设计院", "address": "西滨路49附近", "image": "", "rank": 13, "time": 7.5, "location": {"lat": 24.98762453564035, "lng": 109.98697253992819}, "feature": {"sight_features": "", "sight_content": ""}}, {"title": "浦北垂钓中心", "address": "和谐路附近", "image": "", "rank": 14, "time": 2, "location": {"lat": 39.73993638282692, "lng": 116.58168810196308}, "feature": {"sight_features": "", "sight_content": ""}}, {"title": "天涯画廊", "address": "小江镇解放路203号", "image": "", "rank": 15, "time": 2, "location": {"lat": 22.278772797746583, "lng": 109.56365199371406}, "feature": {"sight_features": "", "sight_content": ""}}, {"title": "钦州市浦北县图书馆(北通镇分管)", "address": "315县道东50米", "image": "", "rank": 16, "time": 5.0, "location": {"lat": 28.311936195449086, "lng": 116.85379709160847}, "feature": {"sight_features": "", "sight_content": ""}}, {"title": "浦北县图书馆", "address": "解放路3号", "image": "", "rank": 17, "time": 2, "location": {"lat": 39.61559288951924, "lng": 118.20764322274553}, "feature": {"sight_features": "", "sight_content": ""}}, {"title": "泰禾步行街", "address": "广西壮族自治区浦北县泰禾步行街", "image": "", "rank": 18, "time": 2, "location": {"lat": 22.270706901264887, "lng": 109.55360331472333}, "feature": {"sight_features": "", "sight_content": ""}}, {"title": "戊子田", "address": "钦州市-浦北县", "image": "", "rank": 19, "time": 2, "location": {"lat": 22.27782232693711, "lng": 109.56342292940231}, "feature": {"sight_features": "", "sight_content": ""}}, {"title": "石祖禅茶园", "address": "钦州市浦北县北通镇那新村", "image": "", "rank": 20, "time": 2, "location": {"lat": 22.21528613740003, "lng": 109.36875908791153}, "feature": {"sight_features": "", "sight_content": "座落在石祖禅茶旅游度假区的四合院古茶坊石祖禅茶园，环境清幽，古色古香，景区内的古茶树多为百年以上，天生天养野味十足，杆大枝粗，赏心悦目！"}}, {"title": "大朗书院", "address": "钦州市浦北县平马桥", "image": "", "rank": 21, "time": 2, "location": {"lat": 22.27782232693711, "lng": 109.56342292940231}, "feature": {"sight_features": "", "sight_content": "大朗书院始建于清光绪二十五年（1899年），是浦北县清代兴建的16所书院中保存很完整的书院，客家文化浓郁，书香古风犹存。整座书院三进两厢设计，采用砖、瓦、石、木的传统结构与小型园林风格相结合，是一座古老的中原文化和岭南建筑文化相交融的建筑群。"}}]}