{"cityName": "蒲城", "days": null, "cityImage": "", "spots": [{"title": "蒲城县博物馆", "address": "渭南市蒲城县红旗路中段正街14号", "image": "", "rank": 1, "time": 1.5, "location": {"lat": 34.96122147162917, "lng": 109.59477865583074}, "feature": {"sight_features": "", "sight_content": ""}}, {"title": "清代考院博物馆", "address": "渭南市蒲城县槐院巷，杨虎城故居东侧", "image": "", "rank": 2, "time": 1.0, "location": {"lat": 34.95993977074324, "lng": 109.59095873022589}, "feature": {"sight_features": "", "sight_content": ""}}, {"title": "王鼎纪念馆", "address": "渭南市蒲城县城中心达仁巷54号", "image": "", "rank": 3, "time": 0.3, "location": {"lat": 34.963195995604266, "lng": 109.58931936219562}, "feature": {"sight_features": "", "sight_content": ""}}, {"title": "唐睿宗桥陵", "address": "渭南市蒲城县城西北15公里的丰山", "image": "", "rank": 4, "time": 1.5, "location": {"lat": 34.96127412878287, "lng": 109.59249651068265}, "feature": {"sight_features": "", "sight_content": ""}}, {"title": "盛鑫温泉水上乐园", "address": "渭南市蒲城县孙镇将军大道", "image": "", "rank": 5, "time": 2, "location": {"lat": 34.98897835409751, "lng": 109.76254712890857}, "feature": {"sight_features": "特色1 “曲径通幽处，禅房花木深”", "sight_content": "盛鑫温泉水上乐园是中国西北地区规模较大的水上乐园之一---千里传音、飞龙在天、勇往直前、激流勇进、蛟龙入海、快乐无限、万有引力、儿童天地、环城漂流等众多国际领先、国内先进水上娱乐项目。\n是您夏季避暑的狂欢乐园.园区绿树成荫，葡萄蔓架，花草珍奇，空气清新，建有十二栋别墅式疗养馆，馆内陈设功能齐全、实用豪华、格调高雅，在您疲于嬉水之时，足不出户便能享受温泉泡澡、水疗按摩，户外、窗前漫步，青石阶上、瓜果架下、木栏侧旁、闲庭信步，惬意闻香，所谓“曲径通幽处，禅房花木深”。\n宾至如归的感觉令您心旷神怡。最适宜家庭休闲、朋友聚会、商务洽谈、会议培训等活动。因为静谧才得以身心的安详，这里就是您养生避暑的天堂！"}}, {"title": "王台温泉度假村", "address": "孙镇平路庙乡王台村", "image": "", "rank": 6, "time": 2, "location": {"lat": 34.93434795715576, "lng": 109.77334548157954}, "feature": {"sight_features": "", "sight_content": ""}}, {"title": "MIX-A极客休闲娱乐馆", "address": "解放路中段周大生珠宝五楼", "image": "", "rank": 7, "time": 2, "location": {"lat": 43.252277568077545, "lng": 117.5431997404712}, "feature": {"sight_features": "", "sight_content": ""}}, {"title": "大蒲城动漫水上乐园", "address": "南转盘红旗停车场院内", "image": "", "rank": 8, "time": 2, "location": {"lat": 35.821211309448394, "lng": 116.10842797564712}, "feature": {"sight_features": "", "sight_content": ""}}, {"title": "杨虎城纪念馆", "address": "城内东槐院巷29号", "image": "", "rank": 9, "time": 2, "location": {"lat": 34.95999877667537, "lng": 109.59101903347478}, "feature": {"sight_features": "", "sight_content": ""}}, {"title": "党木镇宝泉瓜果行", "address": "201省道", "image": "", "rank": 10, "time": 2, "location": {"lat": 38.686331107748025, "lng": 113.87626234527481}, "feature": {"sight_features": "", "sight_content": ""}}, {"title": "蒲城碧水湾温泉度假村", "address": "平路庙常乐村西铁疗养院", "image": "", "rank": 11, "time": 2, "location": {"lat": 31.15612577430775, "lng": 118.58008993433931}, "feature": {"sight_features": "", "sight_content": ""}}, {"title": "毛毛书屋", "address": "尧山街与育才巷交叉口西150米", "image": "", "rank": 12, "time": 2, "location": {"lat": 34.967659877317544, "lng": 109.60275906094743}, "feature": {"sight_features": "", "sight_content": ""}}, {"title": "黄土高原民俗村", "address": "陕西省蒲城县翔村乡南陶池村 715500", "image": "", "rank": 13, "time": 2, "location": {"lat": 35.013574799600484, "lng": 109.60475254190804}, "feature": {"sight_features": "", "sight_content": ""}}, {"title": "尧山小剧院", "address": "尧山街与重泉路交叉口东150米", "image": "", "rank": 14, "time": 2, "location": {"lat": 34.966416378935776, "lng": 109.58665603188403}, "feature": {"sight_features": "", "sight_content": ""}}, {"title": "李仪祉纪念馆", "address": "陕西省渭南市蒲城县洛滨镇富塬村", "image": "", "rank": 15, "time": 2, "location": {"lat": 35.08050317538597, "lng": 109.80122723532033}, "feature": {"sight_features": "", "sight_content": ""}}, {"title": "飞飞瓜果联系处", "address": "钤原路北50米", "image": "", "rank": 16, "time": 2, "location": {"lat": 23.05887018634875, "lng": 112.48955591705814}, "feature": {"sight_features": "", "sight_content": ""}}, {"title": "红豆杉养生公馆", "address": "南环路体育场西邻", "image": "", "rank": 17, "time": 2, "location": {"lat": 38.02445208545248, "lng": 114.78866638114692}, "feature": {"sight_features": "", "sight_content": ""}}, {"title": "红阳动漫水世界", "address": "南转盘南50米红旗停车场院内", "image": "", "rank": 18, "time": 2, "location": {"lat": 35.821211309448394, "lng": 116.10842797564712}, "feature": {"sight_features": "", "sight_content": ""}}, {"title": "永丰烈士陵园", "address": "张永路西150米", "image": "", "rank": 19, "time": 3.0, "location": {"lat": 29.925167132133414, "lng": 107.5420850664467}, "feature": {"sight_features": "", "sight_content": ""}}, {"title": "洞耳花果山水上乐园", "address": "其他洞耳十字向西100米", "image": "", "rank": 20, "time": 2, "location": {"lat": 40.033727335446734, "lng": 115.39769114984865}, "feature": {"sight_features": "", "sight_content": ""}}, {"title": "紫荆公园", "address": "南转盘北侧300米", "image": "", "rank": 21, "time": 1.5, "location": {"lat": 34.404560385965624, "lng": 114.20974133818508}, "feature": {"sight_features": "", "sight_content": ""}}, {"title": "梦想风情游乐园", "address": "陕西省渭南市蒲城县椿林镇平峨村", "image": "", "rank": 22, "time": 2, "location": {"lat": 34.96906714324964, "lng": 109.69025219495741}, "feature": {"sight_features": "", "sight_content": ""}}, {"title": "乐天书画社", "address": "解放路南段", "image": "", "rank": 23, "time": 2, "location": {"lat": 31.779855941211284, "lng": 104.7496500372682}, "feature": {"sight_features": "", "sight_content": ""}}, {"title": "皓星水上乐园", "address": "北环路加气站向北80米", "image": "", "rank": 24, "time": 2, "location": {"lat": 36.23428294844259, "lng": 113.1342165397742}, "feature": {"sight_features": "", "sight_content": ""}}, {"title": "激情夏日移动水上乐园", "address": "雏鹰学校对面", "image": "", "rank": 25, "time": 2, "location": {"lat": 22.700813500083736, "lng": 113.3442511026014}, "feature": {"sight_features": "", "sight_content": ""}}, {"title": "蒲城县基督教会", "address": "西府巷11号", "image": "", "rank": 26, "time": 2, "location": {"lat": 34.95787775853483, "lng": 109.59169289375987}, "feature": {"sight_features": "", "sight_content": ""}}, {"title": "巧媳妇农家乐", "address": "305省道南50米", "image": "", "rank": 27, "time": 2, "location": {"lat": 38.971451620148976, "lng": 112.6319987223776}, "feature": {"sight_features": "", "sight_content": ""}}, {"title": "蒲城县木头家庭农场", "address": "坡洞路南50米", "image": "", "rank": 28, "time": 2, "location": {"lat": 19.887417506866008, "lng": 110.5041988126314}, "feature": {"sight_features": "", "sight_content": ""}}, {"title": "福宝阁农家乐", "address": "106省道南50米", "image": "", "rank": 29, "time": 2, "location": {"lat": 41.7052257285863, "lng": 122.68623993431082}, "feature": {"sight_features": "", "sight_content": ""}}, {"title": "犇犇莊園", "address": "朝阳街与永安巷交叉口", "image": "", "rank": 30, "time": 2, "location": {"lat": 34.95621141047305, "lng": 109.60591835651076}, "feature": {"sight_features": "", "sight_content": ""}}, {"title": "天赐庄园(桥陵店)", "address": "桥陵赵山新村三组", "image": "", "rank": 31, "time": 2, "location": {"lat": 39.93661954509986, "lng": 116.17005222769963}, "feature": {"sight_features": "", "sight_content": ""}}, {"title": "通义村", "address": "渭南市-蒲城县", "image": "", "rank": 32, "time": 2, "location": {"lat": 34.96127412878287, "lng": 109.59249651068265}, "feature": {"sight_features": "", "sight_content": ""}}]}