{"cityName": "普洱", "days": "", "cityImage": "", "spots": [{"title": "茶马古道", "address": "普洱市北市区旅游环线东侧（腊梅坡大桥旁）", "image": "", "rank": 1, "time": 1.5, "location": {"lat": 22.81814009772905, "lng": 101.00420296323414}, "feature": {"sight_features": "特色1 历史悠久的古道，游客可骑马体验古人的道路。", "sight_content": "普洱茶马古道旅游景区位于“世界茶源”云南省普洱市，距离城区5km。普洱自古以来便是茶马古道上独具优势的滇南茶叶集散贸易中心，素有银思茅、东南亚陆路码头之称。\n茶马古道是中国知名线性文化遗址之一，景区内的茶马古道遗址是茶马古道南北走向中的重要一段，是贡茶入京的起点，也是迄今保存最完整、里程最长、文化最厚重、沿路生态最好的一段。\n在这依山傍水，风景如画的亚热带丛林中，远眺苍翠绵延的普洱茶山，品味源远流长的茶马文化。让我们带领您重走茶马古道，一赏非物质文化遗产鱼鹰抓鱼绝技，与走南闯北的马锅头围炉煮酒，在芳草连天的湿地里打马而过。"}}, {"title": "勐梭龙潭", "address": "普洱市西盟县", "image": "", "rank": 2, "time": 1.0, "location": {"lat": 22.650656010974465, "lng": 99.59662215028884}, "feature": {"sight_features": "", "sight_content": ""}}, {"title": "孟连宣抚司署", "address": "普洱市孟连傣族拉祜族佤族自治县 ‎", "image": "", "rank": 3, "time": 1.5, "location": {"lat": 22.33530761555575, "lng": 99.59096282557785}, "feature": {"sight_features": "", "sight_content": ""}}, {"title": "中华普洱茶博览苑", "address": "普洱市思茅区倚象镇营盘山", "image": "", "rank": 4, "time": 2, "location": {"lat": 22.690887526217153, "lng": 101.21800654208391}, "feature": {"sight_features": "特色1 了解普洱茶的演变历史、 体验茶山情趣", "sight_content": "景区特色1：亲手参与并体验普洱茶鲜叶从采摘、萎凋、杀青、揉捻、晾晒等加工环节；\n景区特色2：现场用多种普洱茶原料，个性化制作多种规格的普洱茶饼、砖、沱等产品；\n景区特色3：沿着两位国家领导人来采茶和视察的地方，重温和感受普洱茶的魅力和瞩目；\n景区特色4：观赏3540万年前的“宽叶木兰”茶叶化石、分别与云南普洱茶的古树巨型化石、树龄300多年的古茶树合影留念；\n景区特色5：下榻景区“闲逸居”宾馆，惬意感受：晨观云海、暮赏晚霞、虫鸣鸟叫的茶山茶海美妙风光；\n景区特色6：在嘉烩坊和村村寨寨，品味普洱茶餐、民族烧烤、民族演奏和娱乐，感受普洱少数民族的热情和淳朴"}}, {"title": "北回归线标志园", "address": "普洱市墨江哈尼族自治县北回归线标志园", "image": "", "rank": 5, "time": 1.5, "location": {"lat": 23.43772577225623, "lng": 101.6985835615522}, "feature": {"sight_features": "特色1 被誉为“太阳转身的地方” 特色2 融天文、地理、植物及科普知识和园林艺术、旅游文化为一体主题公园。 特色3 四季如春、气候宜人被誉为“森林中的城市”", "sight_content": "1997年建好的北回归线标志园占地1500平方米，融天文、地理、植物及科普知识和园林艺术、旅游文化为一体，以公元2038年北回归线的位置（北纬23。26）为主轴线，截北回归线上500米地段，间 以\"太阳之路\"、\"夸父追日\"、\"北回归线之门\"、\"日晷广场\"、\"春夏秋冬\"等建筑小品，雕塑以及主体标志，创找了一个形象生动的空间系列，以科普博物馆表达对自然、生命、阳光的理解，向人们陈述从悠悠亘古到今日文化科学发展的宇宙世界，并通过技术手段精确地展示北回归线的地理位置及变化，使人们每年夏至均可在此\"捕捉\"到北回归线的身影。\n在夏至节气这一天，太阳几乎直射北回归线，是阳光直射点在一年中所能达到北半球最高的纬度。此时北半球各地白昼最长，黑夜最短。夏至这天正午时分呈绝对（接近）直射状，北回归线的地区就会出现短暂的“立竿无影”现象。立竿无影，太阳直射北回归线，标志着北回归线附近夏季的真正来临，也标志着炎热的天气气候将到来。\n墨江北回归线标志园，地处东经101o41′00\"北纬23o26′03\"61，是一个融天文、地理、气候、植物等科普知识和园林艺术、民族文化、观赏旅游为一体的地理标志实体和旅游观光景点。 北回归线是太阳在北半球能够直射到的\n因此，把这两个纬度圈分别称为北回归线与南回归线。墨江是全国唯一的哈尼族自治县，北回归线从县城穿过，被誉为“太阳转身的地方”。每到夏至日的夏至时，太阳就会直射北回归线，然后掉 头由北向南慢慢归去。在此居住的哈尼族同胞也与太阳结下了深深的情缘，每到夏至日，他们都会用自己的方式去迎接太阳的转身。\n沿着北回归线人们可顺势依山漫游，走向大自然，融入大地的怀抱，北回归线道路曲折蜿蜒，绿树成荫，蝉鸣林间，鸟语枝头，游客在欣赏建筑、雕塑、园林艺术及获得科普知识的同时，还可品尝到普洱名茶、墨江美酒。"}}, {"title": "梅子湖公园", "address": "普洱市思茅区梅子乡", "image": "", "rank": 6, "time": 1.0, "location": {"lat": 22.79249798435956, "lng": 100.98355510297533}, "feature": {"sight_features": "", "sight_content": ""}}, {"title": "普洱国家公园犀牛坪景区", "address": "普洱市思茅区东南42公里", "image": "", "rank": 7, "time": 1.0, "location": {"lat": 22.79249798435956, "lng": 101.36084341704145}, "feature": {"sight_features": "特色1 中国面积最大的南亚热带季风常绿阔叶林", "sight_content": "普洱国家公园犀牛坪景区处于普洱国家公园的中北部，距普洱市思茅区东南42公里，距思小高速公路南岛河出入口21公里，总面积2000亩，由湄公河旅游有限公司于2011年8月投资建设，2013年8月建设完工。\n景区地处热带与亚热带的过渡地区，森林覆盖率达94.5%，保存着中国面积最大、最完整的南亚热带季风常绿阔叶林。海拔最高处1708米，最低处1530米，气候受印度洋季风控制，南亚热带气候特征明显，日温差大、年温差小，年平均气温17.7摄氏度，全年干湿季分明，年降雨量1600毫米，空气负氧离子含量极高，有着夏无酷暑，冬无严寒的宜人气候。\n犀牛坪景区是一个融“山、林、水、人”四大主题为一体，集中展示云南丰富的动物资源与北热带、南亚热带季风常绿阔叶林景观的综合性山岳型景区。以实现天人合一、人与自然和谐共融为总体目标，在野生动植物生物多样性展示方面，创新形式、突破局限，让游客在以生态为主体、以森林为依托的自然环境中，与各种野 生动植物进行亲密接触，充分满足现代人向往自然野趣，力求亲身体验、深度感知的目的。景区主要项目有“犀牛归隐、猕猴乐土、鱼影溯溪、桫椤小径、嬉猿半岛、鱼鹰戏水、蝴蝶溪谷、旅行的小熊猫、嬉鸟乐园、兰花幽园”十大景点和民族歌舞演艺。\n在这里不但可以在茫茫森林中漫步，零距离观赏与恐龙同时代的活化石“中华桫椤”，徘徊在各色各样的兰花中静待花开，还能欣赏到犀牛在草地自由地奔跑，长臂猿在林间欢乐地飘荡，小熊猫在林中无拘地旅行，各种水禽在湿地悠闲地徜徉，蝴蝶在山谷婉转起舞，鸟儿在枝头雀跃歌唱，更能细细品味会聚了普洱14个世居少数民族歌舞的文化盛宴。"}}, {"title": "龙摩爷圣地", "address": "普洱市西盟县新县城附近", "image": "", "rank": 8, "time": 1.0, "location": {"lat": 22.650223734709915, "lng": 99.60125600356558}, "feature": {"sight_features": "", "sight_content": ""}}, {"title": "江城", "address": "普洱市江城哈尼族彝族自治县", "image": "", "rank": 9, "time": 1.0, "location": {"lat": 22.59168385943026, "lng": 101.86847918429268}, "feature": {"sight_features": "", "sight_content": ""}}, {"title": "娜允古镇", "address": "普洱市孟连傣族拉祜族佤族自治县", "image": "", "rank": 10, "time": 1.0, "location": {"lat": 22.33530761555575, "lng": 99.59096282557785}, "feature": {"sight_features": "", "sight_content": ""}}, {"title": "勐卧佛寺双塔", "address": "普洱市景谷县威远镇大寨", "image": "", "rank": 11, "time": 1.0, "location": {"lat": 23.592507977677847, "lng": 100.49130269181461}, "feature": {"sight_features": "", "sight_content": ""}}, {"title": "中城佛寺", "address": "普洱市孟连县城西侧的娜允古镇内", "image": "", "rank": 12, "time": 1.0, "location": {"lat": 22.35391295099542, "lng": 99.5604402009699}, "feature": {"sight_features": "", "sight_content": ""}}, {"title": "阿佤山云海", "address": "普洱市西盟佤族自治县岳宋段", "image": "", "rank": 13, "time": 1.0, "location": {"lat": 22.735749847357603, "lng": 99.42212720333877}, "feature": {"sight_features": "", "sight_content": ""}}, {"title": "双胞文化园", "address": "普洱市墨江县墨江河西村", "image": "", "rank": 14, "time": 2, "location": {"lat": 23.43772577225623, "lng": 101.6985835615522}, "feature": {"sight_features": "特色1 以两潭清澈见底的双胞井为主", "sight_content": "公园以展示双胞文化和生殖文化为主体，以“水”为景观轴，游路为纽带，连接各景观节点，提供人们感受自然、亲近自然的空间环境。\n墨江国际双胞文化园建设于县城西片区河西村内，核心区占地面积75亩，整个园区以两潭清澈见底的双胞井为主，泉水干冽清甜，无论春夏秋冬，既不满溢，也不下降。\n景观主要由大门入口广场、双胞文化长廊、儿童游乐场、双胞井文化广场、阳文化广场、阴文化广场、求子殿、景观配套设施和服务配套设施组成。 双生植物、双子雕塑遍布园区，向人们展示出一个双胞的丰富、多彩世界，细细品味双胞文化的韵味。"}}, {"title": "孟连大金塔", "address": "普洱市孟连县的南垒河畔", "image": "", "rank": 15, "time": null, "location": {"lat": 22.33530761555575, "lng": 99.59096282557785}, "feature": {"sight_features": "", "sight_content": ""}}, {"title": "迁糯佛寺", "address": "普洱市景谷县永平镇迁糯乡大寨村", "image": "", "rank": 16, "time": 1.0, "location": {"lat": 23.42040357715755, "lng": 100.4043553476002}, "feature": {"sight_features": "", "sight_content": ""}}, {"title": "倒生根公园", "address": "普洱市思茅区振兴大道与长青巷交叉口西100米", "image": "", "rank": 17, "time": 1.0, "location": {"lat": 22.77822135310512, "lng": 100.97589195690968}, "feature": {"sight_features": "", "sight_content": ""}}, {"title": "上城佛寺", "address": "普洱市孟连县娜允镇的金山", "image": "", "rank": 18, "time": 1.0, "location": {"lat": 22.331234698810647, "lng": 99.5832419651798}, "feature": {"sight_features": "", "sight_content": ""}}, {"title": "勐外土司避暑山寨", "address": "普洱市孟连县娜允镇", "image": "", "rank": 19, "time": 1.0, "location": {"lat": 22.331234698810647, "lng": 99.5832419651798}, "feature": {"sight_features": "", "sight_content": ""}}, {"title": "西盟佤部落旅游区木依吉神谷景区", "address": "普洱市西盟佤族自治县勐卡路1号", "image": "", "rank": 20, "time": 2, "location": {"lat": 22.65060589930732, "lng": 99.59660219533025}, "feature": {"sight_features": "", "sight_content": ""}}, {"title": "西盟佤部落旅游区里坎瀑布景区", "address": "普洱市西盟佤族自治区里坎瀑布景区", "image": "", "rank": 21, "time": 2, "location": {"lat": 22.664701175563902, "lng": 99.61557204874444}, "feature": {"sight_features": "", "sight_content": ""}}, {"title": "无量山自然保护区", "address": "普洱市景东彝族自治县境内无量山", "image": "", "rank": 22, "time": 1.0, "location": {"lat": 24.344553194318216, "lng": 100.80038294700533}, "feature": {"sight_features": "", "sight_content": ""}}, {"title": "千家寨", "address": "普洱市镇沅县东北角", "image": "", "rank": 23, "time": 1.0, "location": {"lat": 23.94714236146736, "lng": 100.98205355627458}, "feature": {"sight_features": "", "sight_content": ""}}, {"title": "酒井乡达保老寨", "address": "普洱市澜沧县东南部澜沧至西双版纳国道214线旁", "image": "", "rank": 24, "time": 2, "location": {"lat": 22.561831918086543, "lng": 99.93858828323933}, "feature": {"sight_features": "", "sight_content": ""}}, {"title": "景东文庙", "address": "普洱市景东彝族自治县锦屏镇玉屏路115号", "image": "", "rank": 25, "time": 1.0, "location": {"lat": 24.454068159202297, "lng": 100.83888364667428}, "feature": {"sight_features": "", "sight_content": ""}}, {"title": "普洱江城龙富通道", "address": "云南省普洱市江城哈尼族彝族自治县162县道", "image": "", "rank": 26, "time": 2.0, "location": {"lat": 22.500104367460672, "lng": 101.96737166158137}, "feature": {"sight_features": "", "sight_content": ""}}, {"title": "小橄榄坝", "address": "普洱市思茅区以西103公里的澜沧江畔", "image": "", "rank": 27, "time": 1.0, "location": {"lat": 22.759790794138333, "lng": 100.38052177530899}, "feature": {"sight_features": "", "sight_content": ""}}, {"title": "勐马瀑布", "address": "普洱市孟连县勐马镇政府东南面约3公里处，勐马小河中下游。", "image": "", "rank": 28, "time": 1.0, "location": {"lat": 22.23492321565669, "lng": 99.38498170458098}, "feature": {"sight_features": "", "sight_content": ""}}, {"title": "勐马温泉（芒蚌温泉）", "address": "普洱市孟连县勐马镇", "image": "", "rank": 29, "time": 2, "location": {"lat": 22.23492321565669, "lng": 99.38498170458098}, "feature": {"sight_features": "", "sight_content": ""}}, {"title": "翁基布朗族老寨", "address": "普洱市澜沧拉祜族自治县芒景村村委西边", "image": "", "rank": 30, "time": 2, "location": {"lat": 22.16325024572729, "lng": 100.02353011997964}, "feature": {"sight_features": "", "sight_content": ""}}, {"title": "洗马河公园", "address": "普洱市思茅区磨思路洗马河公园", "image": "", "rank": 31, "time": 2, "location": {"lat": 22.786834251653353, "lng": 100.99093283402462}, "feature": {"sight_features": "", "sight_content": ""}}, {"title": "糯福教堂", "address": "普洱市澜沧县糯福乡西北300米处", "image": "", "rank": 32, "time": 1.0, "location": {"lat": 22.225387571521892, "lng": 99.70563281565197}, "feature": {"sight_features": "", "sight_content": ""}}, {"title": "菜阳河国家森林公园", "address": "倚象镇太阳河自然保护区展厅东南", "image": "", "rank": 33, "time": 1.0, "location": {"lat": 38.53808700277353, "lng": 106.06990607708718}, "feature": {"sight_features": "", "sight_content": ""}}, {"title": "小黑江森林公园", "address": "云南省普洱市景谷县", "image": "", "rank": 34, "time": 2, "location": {"lat": 23.503204071241473, "lng": 100.70945658009512}, "feature": {"sight_features": "", "sight_content": ""}}, {"title": "思茅区公共图书馆", "address": "边城东路2号", "image": "", "rank": 35, "time": 2, "location": {"lat": 22.790771692595893, "lng": 100.98223286912953}, "feature": {"sight_features": "", "sight_content": ""}}, {"title": "那柯里村", "address": "云南省宁洱哈尼族彝族自治县同心乡", "image": "", "rank": 36, "time": 2, "location": {"lat": 22.971476698470457, "lng": 101.07303899784728}, "feature": {"sight_features": "", "sight_content": ""}}, {"title": "梅子湖栈道", "address": "普洱市思茅区梅子乡梅子湖公园内", "image": "", "rank": 37, "time": 2, "location": {"lat": 22.75924754860481, "lng": 100.99607778271265}, "feature": {"sight_features": "", "sight_content": ""}}, {"title": "孟连总佛寺", "address": "普洱市孟连县娜允古镇", "image": "", "rank": 38, "time": 1.5, "location": {"lat": 22.35391295099542, "lng": 99.5604402009699}, "feature": {"sight_features": "", "sight_content": ""}}, {"title": "柏联景迈山庄园", "address": "普洱市澜沧拉祜族自治县惠民乡景迈柏联内", "image": "", "rank": 39, "time": 2, "location": {"lat": 22.561831918086543, "lng": 99.93858828323933}, "feature": {"sight_features": "", "sight_content": ""}}, {"title": "天壁山城郊休闲公园", "address": "云南省普洱县城水平距离1公里", "image": "", "rank": 40, "time": 2, "location": {"lat": 23.60134800387915, "lng": 101.07514103004502}, "feature": {"sight_features": "", "sight_content": ""}}, {"title": "漫湾百里长湖景区", "address": "云南省临沧市云县漫湾镇", "image": "", "rank": 41, "time": 2, "location": {"lat": 24.66744470018824, "lng": 100.35751593944323}, "feature": {"sight_features": "", "sight_content": ""}}, {"title": "营盘山万亩茶园旅游休闲点", "address": "云南省普洱市思茅区", "image": "", "rank": 42, "time": 2, "location": {"lat": 22.79249798435956, "lng": 100.98355510297533}, "feature": {"sight_features": "", "sight_content": ""}}, {"title": "碧溪古镇", "address": "普洱市墨江哈尼族自治县218省道", "image": "", "rank": 43, "time": 2, "location": {"lat": 23.27883049765305, "lng": 101.7372500442498}, "feature": {"sight_features": "", "sight_content": ""}}, {"title": "茶源广场", "address": "云南省普洱市宁洱哈尼族彝族自治县", "image": "", "rank": 44, "time": 2, "location": {"lat": 23.054590179481025, "lng": 101.05244246946019}, "feature": {"sight_features": "", "sight_content": ""}}, {"title": "墨江文庙", "address": "云南省墨江哈尼族自治县东正街", "image": "", "rank": 45, "time": 1.0, "location": {"lat": 23.437717776190752, "lng": 101.7000154596363}, "feature": {"sight_features": "", "sight_content": ""}}, {"title": "镇沅博物馆(镇沅拉祜族历史文化...", "address": "云南省普洱市镇沅县", "image": "", "rank": 46, "time": 2, "location": {"lat": 23.94714236146736, "lng": 100.98205355627458}, "feature": {"sight_features": "", "sight_content": ""}}, {"title": "勐卧总佛寺", "address": "云南省普洱市景谷傣族彝族自治县", "image": "", "rank": 47, "time": 2, "location": {"lat": 23.503204071241473, "lng": 100.70945658009512}, "feature": {"sight_features": "", "sight_content": ""}}, {"title": "癸能村", "address": "云南省普洱市墨江哈尼族自治县癸能村", "image": "", "rank": 48, "time": 2, "location": {"lat": 23.45368593844622, "lng": 101.75913669206072}, "feature": {"sight_features": "", "sight_content": ""}}, {"title": "哀牢山－漫湾", "address": "普洱市景东县", "image": "", "rank": 49, "time": 1.0, "location": {"lat": 24.451863775494918, "lng": 100.83848864452241}, "feature": {"sight_features": "", "sight_content": ""}}, {"title": "仙女洞", "address": "普洱市孟连县景信乡政府驻地1公里处孟西公路旁", "image": "", "rank": 50, "time": 1.0, "location": {"lat": 22.457710778725918, "lng": 99.67620041683094}, "feature": {"sight_features": "", "sight_content": ""}}, {"title": "整控江摩崖", "address": "普洱市澜沧县雅口乡勐况村下勐况寨东北岩壁上", "image": "", "rank": 51, "time": 1.0, "location": {"lat": 22.586351583888, "lng": 100.28068723694754}, "feature": {"sight_features": "", "sight_content": ""}}, {"title": "贺井塔", "address": "普洱市江城县整董镇曼贺井村东北的小山顶上", "image": "", "rank": 52, "time": 1.0, "location": {"lat": 22.488277398303527, "lng": 101.51420175906082}, "feature": {"sight_features": "", "sight_content": ""}}, {"title": "大杨梅山庄", "address": "213国道", "image": "", "rank": 53, "time": 2, "location": {"lat": 24.055864840380938, "lng": 102.20969505158318}, "feature": {"sight_features": "", "sight_content": ""}}, {"title": "普洱金智塔科技乐园", "address": "茶苑路华尔兹广场百信超市4楼", "image": "", "rank": 54, "time": 2, "location": {"lat": 22.767582377376012, "lng": 100.98546761876139}, "feature": {"sight_features": "", "sight_content": ""}}, {"title": "幸福水上乐园", "address": "振兴大道与石龙路交叉口西南角卫生院旁", "image": "", "rank": 55, "time": 2, "location": {"lat": 22.607229572655147, "lng": 114.1231780388964}, "feature": {"sight_features": "", "sight_content": ""}}, {"title": "锦辉集团游泳池", "address": "龙生路88号(龙园1号内)", "image": "", "rank": 56, "time": 2, "location": {"lat": 22.76213308665861, "lng": 100.97583937729158}, "feature": {"sight_features": "", "sight_content": ""}}, {"title": "骐丞庄园", "address": "思茅镇茶马古镇b区", "image": "", "rank": 57, "time": 2, "location": {"lat": 22.803657314618825, "lng": 100.97534486010849}, "feature": {"sight_features": "", "sight_content": ""}}, {"title": "普洱市图书馆(思茅分馆)", "address": "思茅镇振兴大道51号", "image": "", "rank": 58, "time": 1.0, "location": {"lat": 22.784226605417583, "lng": 100.97618091214805}, "feature": {"sight_features": "", "sight_content": ""}}, {"title": "普洱学院逸夫图书馆", "address": "菩提路北150米", "image": "", "rank": 59, "time": 1.0, "location": {"lat": 34.29161909208097, "lng": 117.16518660602209}, "feature": {"sight_features": "", "sight_content": ""}}, {"title": "普洱大剧院", "address": "滨河路西150米", "image": "", "rank": 60, "time": 2.0, "location": {"lat": 40.601378873691075, "lng": 115.06779399744747}, "feature": {"sight_features": "", "sight_content": ""}}]}