{"cityName": "普兰", "days": "", "cityImage": "", "spots": [{"title": "玛旁雍错", "address": "阿里地区普兰县霍尔乡境内", "image": "", "rank": 1, "time": 4.5, "location": {"lat": 30.77677403420513, "lng": 81.61936690820315}, "feature": {"sight_features": "", "sight_content": ""}}, {"title": "拉昂错", "address": "西藏自治区阿里地区普兰县玛旁雍错东北角", "image": "", "rank": 2, "time": 1.0, "location": {"lat": 30.69773491939785, "lng": 81.46642535590499}, "feature": {"sight_features": "", "sight_content": ""}}, {"title": "纳木那尼峰", "address": "阿里地区普兰县玛旁雍错旁边", "image": "", "rank": 3, "time": 1.0, "location": {"lat": 30.69773491939785, "lng": 81.46642535590499}, "feature": {"sight_features": "", "sight_content": ""}}, {"title": "科迦寺", "address": "西藏自治区普兰县普兰镇科加村", "image": "", "rank": 4, "time": 2.0, "location": {"lat": 30.200547415587522, "lng": 81.28355963470088}, "feature": {"sight_features": "", "sight_content": ""}}, {"title": "公珠错", "address": "阿里地区普兰县", "image": "", "rank": 5, "time": 2, "location": {"lat": 30.30016259107777, "lng": 81.18309473197418}, "feature": {"sight_features": "", "sight_content": ""}}, {"title": "即乌寺", "address": "阿里地区普兰县", "image": "", "rank": 6, "time": 2, "location": {"lat": 30.30016259107777, "lng": 81.18309473197418}, "feature": {"sight_features": "", "sight_content": ""}}, {"title": "普兰古城", "address": "阿里地区普兰县普兰镇", "image": "", "rank": 7, "time": 3.0, "location": {"lat": 30.290425407576933, "lng": 81.18319289314098}, "feature": {"sight_features": "", "sight_content": ""}}, {"title": "普兰", "address": "阿里地区南部、喜马拉雅山南侧的峡谷地带及中国、印度、尼泊尔三国交界处。", "image": "", "rank": 8, "time": 2.5, "location": {"lat": 30.10197243683529, "lng": 81.28822405462076}, "feature": {"sight_features": "", "sight_content": ""}}, {"title": "止热寺", "address": "阿里地区普兰县北部", "image": "", "rank": 9, "time": 1.5, "location": {"lat": 30.30016259107777, "lng": 81.18309473197418}, "feature": {"sight_features": "", "sight_content": ""}}, {"title": "卓玛拉山口", "address": "阿里地区普兰县北部冈仁波齐的一座山口", "image": "", "rank": 10, "time": 3.0, "location": {"lat": 30.30016259107777, "lng": 81.18309473197418}, "feature": {"sight_features": "", "sight_content": ""}}, {"title": "楚果寺", "address": "阿里地区普兰县", "image": "", "rank": 11, "time": 2, "location": {"lat": 30.30016259107777, "lng": 81.18309473197418}, "feature": {"sight_features": "", "sight_content": ""}}, {"title": "温泉湖温泉", "address": "阿里地区普兰县", "image": "", "rank": 12, "time": 2, "location": {"lat": 30.30016259107777, "lng": 81.18309473197418}, "feature": {"sight_features": "", "sight_content": ""}}, {"title": "贤伯林寺", "address": "阿里地区普兰县城之西，孔雀河西边的山上", "image": "", "rank": 13, "time": 1.0, "location": {"lat": 30.30016259107777, "lng": 81.18309473197418}, "feature": {"sight_features": "", "sight_content": ""}}, {"title": "曲普水热爆炸奇观", "address": "阿里地区普兰县曲普", "image": "", "rank": 14, "time": 2, "location": {"lat": 30.590939358288296, "lng": 81.59582389345009}, "feature": {"sight_features": "", "sight_content": ""}}, {"title": "阿里神山圣湖旅游区", "address": "阿里地区普兰县霍尔、巴嘎两乡境内", "image": "", "rank": 15, "time": 2, "location": {"lat": 30.857643826573305, "lng": 81.43681049074377}, "feature": {"sight_features": "", "sight_content": ""}}, {"title": "悬空寺", "address": "西藏自治区阿里地区普兰县城", "image": "", "rank": 16, "time": 3.0, "location": {"lat": 30.30016259107777, "lng": 81.18309473197418}, "feature": {"sight_features": "", "sight_content": ""}}, {"title": "科加寺", "address": "西藏阿里普兰县科加乡科加村", "image": "", "rank": 17, "time": 2, "location": {"lat": 30.200547415587522, "lng": 81.28355963470088}, "feature": {"sight_features": "", "sight_content": ""}}, {"title": "卓玛拉山", "address": "阿里地区普兰县北部", "image": "", "rank": 18, "time": 2, "location": {"lat": 30.30016259107777, "lng": 81.18309473197418}, "feature": {"sight_features": "", "sight_content": ""}}, {"title": "曲古寺", "address": "阿里地区普兰县境内，位于县驻地以北、神山冈仁波且峰西面。", "image": "", "rank": 19, "time": 2.5, "location": {"lat": 30.30016259107777, "lng": 81.18309473197418}, "feature": {"sight_features": "", "sight_content": ""}}, {"title": "托加寺", "address": "西藏自治区阿里地区普兰县", "image": "", "rank": 20, "time": 2, "location": {"lat": 30.30016259107777, "lng": 81.18309473197418}, "feature": {"sight_features": "", "sight_content": ""}}, {"title": "阿里神山圣湖美", "address": "西藏自治区普兰县境内", "image": "", "rank": 21, "time": 2, "location": {"lat": 30.30016259107777, "lng": 81.18309473197418}, "feature": {"sight_features": "", "sight_content": ""}}, {"title": "基乌寺", "address": "阿里普兰县境内，玛旁雍错旁边", "image": "", "rank": 22, "time": 2, "location": {"lat": 30.69773491939785, "lng": 81.46642535590499}, "feature": {"sight_features": "", "sight_content": ""}}, {"title": "科伽寺", "address": "阿里地区的普兰县", "image": "", "rank": 23, "time": 2, "location": {"lat": 30.30016259107777, "lng": 81.18309473197418}, "feature": {"sight_features": "", "sight_content": ""}}, {"title": "冈仁布钦山", "address": "西藏自治区普兰县境内 859500", "image": "", "rank": 24, "time": 2, "location": {"lat": 30.30016259107777, "lng": 81.18309473197418}, "feature": {"sight_features": "", "sight_content": ""}}, {"title": "巴嘎", "address": "阿里地区普兰县巴嘎乡", "image": "", "rank": 25, "time": 1.0, "location": {"lat": 30.98067944609758, "lng": 81.29727521672905}, "feature": {"sight_features": "", "sight_content": ""}}, {"title": "马攸木拉山", "address": "西藏自治区普兰县境内", "image": "", "rank": 26, "time": 1.5, "location": {"lat": 30.30016259107777, "lng": 81.18309473197418}, "feature": {"sight_features": "", "sight_content": ""}}, {"title": "托吉措", "address": "西藏自治区阿里地区普兰县普兰镇", "image": "", "rank": 27, "time": 2, "location": {"lat": 30.290425407576933, "lng": 81.18319289314098}, "feature": {"sight_features": "", "sight_content": ""}}]}