{"cityName": "普宁", "days": 2, "cityImage": "", "spots": [{"title": "盘龙湾温泉", "address": "揭阳市普宁市云落镇古安村（近324国道）", "image": "", "rank": 1, "time": 2, "location": {"lat": 23.217694242153083, "lng": 116.05378821317136}, "feature": {"sight_features": "特色1 药浴、玫瑰浴、牛奶浴等特色浴池 特色2 桑拿、汗蒸、水疗spa、美容区及养生区 特色3 含私汤，特色露天温泉表演", "sight_content": "盘龙湾温泉度假村位于广东省普宁市盘龙自然风景保护区,地处梅林河与云落河两河交汇处，毗邻粤东最大的朝佛圣地——盘龙阁寺。度假村依山傍水、空气清新、风景秀丽、景色宜人；地理位置优越，交通方便快捷，324国道和惠普高速等为交通主要干线，距离普宁市区12公里，市内专线公交车直达，距离汕头市70公里，潮州市82公里，距离惠州市1个小时车程，深圳市3个小时车程；广州市约4.5小时车程、香港4个小时车程。\n盘龙湾温泉度假村温泉水源于风景绝美的普宁市梅林河与云落河交汇处，取水于地表深处，水源属构盘龙湾温泉度假村造带裂隙水。盘龙湾温泉水质属有“美容圣水”美称的偏硅酸（h2sio3）型温泉。常年水温泉保持在68—80度之间，因水温的体表适宜性与水质富含矿物质元素，故而盘龙湾温泉水又可定义为“黄金温泉”。"}}, {"title": "德安里", "address": "揭阳市普宁市洪阳镇德安里", "image": "", "rank": 2, "time": 2.0, "location": {"lat": 23.439173555858122, "lng": 116.22258063320355}, "feature": {"sight_features": "特色1 岭南建筑装饰艺术博物馆", "sight_content": "德安里位于广东省普宁市洪阳镇区东南，为清朝广东水师提督方耀府第，始建于清同治十年(1871)，陆续用20年时间建成，分“老寨”、“中寨”和“新德安里”三部分。建筑格局老寨俗称“百鸟朝凰”，中寨与新德安里为“四马拖车”，三寨相连，房屋773间，外置护寨河，占地面积6.3万多平方米，建筑面积3.2万平方米。德安里内有官厅、祠堂、佛堂、书斋、餐厅、库房、阁楼等。德安里以其罕见的建筑布局和独特的设计风格，被编入华南理工大学建筑系的民用建筑教科书中。它也是潮汕民居建筑形式的大全，平房、下山虎、四点金、三厅通、独脚狮……其他地方罕见的建筑形式在这里都能看到。德安里还是岭南建筑装饰艺术的博物馆。\n德安里的建筑，是艺术与科学的结合，最典型的要数村落的排水系统。它们采取传统明沟的方式，经过“九转十八弯”的流向，最终汇入寨前溪，经百里桥，注入榕江。德安里的排水系统还有一个特点，无论从天井流出的水，还是从支流排入中沟，再流入大沟，水都是从中行。水从中行即“衍”，意在生生不息，繁衍千秋万载。"}}, {"title": "流沙会议旧址", "address": "揭阳市普宁区流沙新河东侧", "image": "", "rank": 3, "time": 2, "location": {"lat": 23.300650300911897, "lng": 116.16166564996453}, "feature": {"sight_features": "", "sight_content": ""}}, {"title": "马嘶岩寺", "address": "揭阳市普宁市池尾街道西部马山东麓", "image": "", "rank": 4, "time": 2, "location": {"lat": 23.288917324117282, "lng": 116.12340198272865}, "feature": {"sight_features": "", "sight_content": ""}}, {"title": "培风塔", "address": "揭阳市普宁市洪阳镇后坑村", "image": "", "rank": 5, "time": 0.3, "location": {"lat": 23.45668002862964, "lng": 116.23949378201773}, "feature": {"sight_features": "", "sight_content": ""}}, {"title": "N.Care真人密室逃脱", "address": "揭阳市普宁市流沙大道西与赤华路口交界（龙苑新村5栋3楼）", "image": "", "rank": 6, "time": null, "location": {"lat": 23.30424962547293, "lng": 116.16669192081673}, "feature": {"sight_features": "", "sight_content": ""}}, {"title": "普宁3D艺术馆", "address": "普宁市流沙环市北路普宁广场万泰汇购物中心负一层", "image": "", "rank": 7, "time": 2, "location": {"lat": 23.318823064024865, "lng": 116.16887022364376}, "feature": {"sight_features": "", "sight_content": ""}}, {"title": "御泉湾水上乐园", "address": "揭阳市普宁市云落镇寨妈水库南方梅园内", "image": "", "rank": 8, "time": 2, "location": {"lat": 23.263978410823352, "lng": 116.11119993787185}, "feature": {"sight_features": "", "sight_content": ""}}, {"title": "普宁大坝仔水库", "address": "揭阳市普宁市下架山镇咸寮村村后", "image": "", "rank": 9, "time": 2, "location": {"lat": 23.216757800324274, "lng": 116.24286257589945}, "feature": {"sight_features": "", "sight_content": ""}}, {"title": "南岩古寺", "address": "揭阳市普宁市", "image": "", "rank": 10, "time": 2, "location": {"lat": 23.30363452186039, "lng": 116.1724489811672}, "feature": {"sight_features": "", "sight_content": ""}}, {"title": "桂德山庄", "address": "普宁市大南山街道大南山路", "image": "", "rank": 11, "time": 2, "location": {"lat": 23.296188580877104, "lng": 116.17993134504563}, "feature": {"sight_features": "", "sight_content": ""}}, {"title": "流沙人民公园", "address": "流沙大道东", "image": "", "rank": 12, "time": 2, "location": {"lat": 23.30009818235759, "lng": 116.19732616796901}, "feature": {"sight_features": "", "sight_content": ""}}, {"title": "出米石庵", "address": "揭阳市普宁市下架山咸寮村后山处", "image": "", "rank": 13, "time": 2, "location": {"lat": 23.256968959149493, "lng": 116.2488525596821}, "feature": {"sight_features": "", "sight_content": ""}}, {"title": "金城温泉宾馆", "address": "广达北路南华路口(近国际服装城)", "image": "", "rank": 14, "time": 2, "location": {"lat": 23.32502272198867, "lng": 116.16585919160927}, "feature": {"sight_features": "", "sight_content": ""}}, {"title": "象鼻山动物园", "address": "324国道高明村(梅园对面)", "image": "", "rank": 15, "time": 2, "location": {"lat": 22.832564590560672, "lng": 108.21240414116232}, "feature": {"sight_features": "", "sight_content": ""}}, {"title": "天明湖水上乐园", "address": "南径镇林内村", "image": "", "rank": 16, "time": 2, "location": {"lat": 23.34905885217461, "lng": 116.33533486640535}, "feature": {"sight_features": "", "sight_content": ""}}, {"title": "da真人密室逃脱", "address": "流沙龙苑新村5栋438号", "image": "", "rank": 17, "time": 2, "location": {"lat": 23.30424962547293, "lng": 116.16669192081673}, "feature": {"sight_features": "", "sight_content": ""}}, {"title": "棉湖欢乐特水上乐园", "address": "棉湖大道中段165-167号", "image": "", "rank": 18, "time": 2, "location": {"lat": 23.44653379638263, "lng": 116.15599579711296}, "feature": {"sight_features": "", "sight_content": ""}}, {"title": "碧水湾温泉", "address": "238省道", "image": "", "rank": 19, "time": 2, "location": {"lat": 32.02406130021086, "lng": 119.88529029655679}, "feature": {"sight_features": "", "sight_content": ""}}, {"title": "世宇乐园大型室内游乐场", "address": "流沙环城北路普宁广场万泰汇购物中心负一楼", "image": "", "rank": 20, "time": 2, "location": {"lat": 23.318823064024865, "lng": 116.16887022364376}, "feature": {"sight_features": "", "sight_content": ""}}, {"title": "龙珠温泉", "address": "汤头666KYV旁边", "image": "", "rank": 21, "time": null, "location": {"lat": 23.334585110961847, "lng": 113.54428952931256}, "feature": {"sight_features": "", "sight_content": ""}}, {"title": "777温泉宾馆", "address": "流沙长春路兰花广场对面", "image": "", "rank": 22, "time": 2, "location": {"lat": 23.303166782303045, "lng": 116.17895828255143}, "feature": {"sight_features": "", "sight_content": ""}}, {"title": "德善苗木种植基地", "address": "236省道附近", "image": "", "rank": 23, "time": 2, "location": {"lat": 39.929207438628275, "lng": 115.51073811390424}, "feature": {"sight_features": "", "sight_content": ""}}, {"title": "新厝农家乐", "address": "南径镇新厝仔", "image": "", "rank": 24, "time": 2, "location": {"lat": 23.34358116910768, "lng": 116.30476242446876}, "feature": {"sight_features": "", "sight_content": ""}}, {"title": "大笑江湖真人密室逃脱", "address": "南华路22号", "image": "", "rank": 25, "time": 2, "location": {"lat": 31.295737778810825, "lng": 121.31449823462846}, "feature": {"sight_features": "", "sight_content": ""}}, {"title": "威尼斯水上乐园", "address": "塘边村", "image": "", "rank": 26, "time": 2, "location": {"lat": 29.384514957512756, "lng": 119.69893382040735}, "feature": {"sight_features": "", "sight_content": ""}}, {"title": "鱼你相约啤酒广场", "address": "广东省揭阳市普宁市玉华南路", "image": "", "rank": 27, "time": 2, "location": {"lat": 23.29682571495802, "lng": 116.16956098644512}, "feature": {"sight_features": "", "sight_content": ""}}, {"title": "新兰花广场", "address": "流沙镇赤华北路与长春路交界处", "image": "", "rank": 28, "time": 2, "location": {"lat": 23.311742313606214, "lng": 116.16648902414448}, "feature": {"sight_features": "", "sight_content": ""}}, {"title": "舞茶道(普宁店)", "address": "流沙兰花广场名苑第2栋第4间门市1-2楼", "image": "", "rank": 29, "time": 2, "location": {"lat": 40.768776528652594, "lng": 120.8633160188483}, "feature": {"sight_features": "", "sight_content": ""}}, {"title": "卡诺淇休闲奶咖(洪阳店)", "address": "洪阳镇洪东路73号", "image": "", "rank": 30, "time": 2, "location": {"lat": 23.438089925626873, "lng": 116.22497840471198}, "feature": {"sight_features": "", "sight_content": ""}}, {"title": "广东南方梅园生态村展示中心", "address": "广东省普宁市近玉华南路", "image": "", "rank": 31, "time": 2, "location": {"lat": 23.29682571495802, "lng": 116.16956098644512}, "feature": {"sight_features": "", "sight_content": ""}}, {"title": "夜色啤酒广场", "address": "广东省揭阳市普宁市G324(环城南路)", "image": "", "rank": 32, "time": 2, "location": {"lat": 23.295001036917355, "lng": 116.1766683266377}, "feature": {"sight_features": "", "sight_content": ""}}, {"title": "湖山禅寺", "address": "广东省揭阳市普宁市顶新厝", "image": "", "rank": 33, "time": 2, "location": {"lat": 23.371317887278746, "lng": 116.13986858117904}, "feature": {"sight_features": "", "sight_content": ""}}, {"title": "陶陶儿童乐园（万泰汇店）", "address": "环城北路普宁广场万泰汇购物中心负一楼A33-A38", "image": "", "rank": 34, "time": 2, "location": {"lat": 23.318823064024865, "lng": 116.16887022364376}, "feature": {"sight_features": "", "sight_content": ""}}, {"title": "大坝基督教会礼拜堂", "address": "广东省揭阳市普宁市S236", "image": "", "rank": 35, "time": 2, "location": {"lat": 23.30363452186039, "lng": 116.1724489811672}, "feature": {"sight_features": "", "sight_content": ""}}, {"title": "普宁巿孙氏祖祠", "address": "广东省揭阳市普宁市环城北路", "image": "", "rank": 36, "time": 2, "location": {"lat": 23.31306710418157, "lng": 116.1913306658956}, "feature": {"sight_features": "", "sight_content": ""}}, {"title": "张天师法坛", "address": "广东省揭阳市普宁市桂硕园西南(环城南路北)", "image": "", "rank": 37, "time": null, "location": {"lat": 23.29585045217028, "lng": 116.17962176740767}, "feature": {"sight_features": "", "sight_content": ""}}, {"title": "五爪龙祖祠堂", "address": "广东省揭阳市普宁市麒麟镇径水村", "image": "", "rank": 38, "time": 2, "location": {"lat": 23.388940675494243, "lng": 116.29506143372723}, "feature": {"sight_features": "", "sight_content": ""}}, {"title": "天阁寺", "address": "侨光路北50米", "image": "", "rank": 39, "time": 2, "location": {"lat": 24.722259987097924, "lng": 118.4836429158468}, "feature": {"sight_features": "", "sight_content": ""}}, {"title": "五座祠堂", "address": "382乡道附近", "image": "", "rank": 40, "time": 2, "location": {"lat": 32.657457596015725, "lng": 120.35045013708917}, "feature": {"sight_features": "", "sight_content": ""}}, {"title": "大陇长兴文化公园", "address": "广东省揭阳市普宁市", "image": "", "rank": 41, "time": 2, "location": {"lat": 23.30363452186039, "lng": 116.1724489811672}, "feature": {"sight_features": "", "sight_content": ""}}, {"title": "普宁市天主教大埔寮堂", "address": "南径镇大埔寮村内", "image": "", "rank": 42, "time": 2, "location": {"lat": 22.45381433045263, "lng": 114.17556452130447}, "feature": {"sight_features": "", "sight_content": ""}}, {"title": "棉湖湖西聚福堂", "address": "湖滨西路东150米", "image": "", "rank": 43, "time": 2, "location": {"lat": 26.660134511818686, "lng": 119.59824982010171}, "feature": {"sight_features": "", "sight_content": ""}}, {"title": "普宁市天德佛堂", "address": "广东省揭阳市普宁市大坝镇华东天德佛堂(华东幼儿园附近)", "image": "", "rank": 44, "time": 2, "location": {"lat": 23.417610801610145, "lng": 116.1479900984107}, "feature": {"sight_features": "", "sight_content": ""}}, {"title": "白石禅寺", "address": "广东省揭阳市普宁市军田村", "image": "", "rank": 45, "time": 2, "location": {"lat": 23.304821009759095, "lng": 115.92631624760068}, "feature": {"sight_features": "", "sight_content": ""}}, {"title": "斗文公园(鼎泰园)", "address": "广东省揭阳市普宁市斗文学校对面", "image": "", "rank": 46, "time": 2, "location": {"lat": 23.317160443646262, "lng": 116.18609848006463}, "feature": {"sight_features": "", "sight_content": ""}}, {"title": "普宁佛教报恩居士林", "address": "云落镇广灿路南0609号", "image": "", "rank": 47, "time": 2, "location": {"lat": 39.6129869967351, "lng": 118.20604028639353}, "feature": {"sight_features": "", "sight_content": ""}}, {"title": "玉龙禅寺", "address": "文竹南路与普宁大道交叉口南100米", "image": "", "rank": 48, "time": 2, "location": {"lat": 23.29306136636586, "lng": 116.18671265333822}, "feature": {"sight_features": "", "sight_content": ""}}, {"title": "平湖伯公", "address": "揭阳市普宁市平湖寨内13栋", "image": "", "rank": 49, "time": 0.75, "location": {"lat": 23.300649988000284, "lng": 116.17548219955118}, "feature": {"sight_features": "", "sight_content": ""}}, {"title": "南山伯公", "address": "普宁市流沙环城南路", "image": "", "rank": 50, "time": 2, "location": {"lat": 23.303166782303045, "lng": 116.17895828255143}, "feature": {"sight_features": "", "sight_content": ""}}, {"title": "盛世游乐园", "address": "揭阳市普宁市大南山街道灰寨村", "image": "", "rank": 51, "time": 2, "location": {"lat": 23.265123335084752, "lng": 116.18140305333503}, "feature": {"sight_features": "", "sight_content": ""}}, {"title": "贝儿健咿呀咿呀呦儿童乐园", "address": "广东省揭阳市普宁市大南山路", "image": "", "rank": 52, "time": 2, "location": {"lat": 23.296188580877104, "lng": 116.17993134504563}, "feature": {"sight_features": "", "sight_content": ""}}, {"title": "金佛禅寺", "address": "广东省揭阳市普宁市流沙西街道新村普宁大道玉龙禅寺", "image": "", "rank": 53, "time": null, "location": {"lat": 23.28021336479619, "lng": 116.18505055458587}, "feature": {"sight_features": "", "sight_content": ""}}, {"title": "普宁市佛教流沙居士林", "address": "环城南路", "image": "", "rank": 54, "time": 2, "location": {"lat": 32.343803277365524, "lng": 118.8527646843988}, "feature": {"sight_features": "", "sight_content": ""}}, {"title": "龙溪寺", "address": "广东省揭阳市普宁市溪心乡道", "image": "", "rank": 55, "time": 2, "location": {"lat": 23.318528442667173, "lng": 116.19739252040719}, "feature": {"sight_features": "", "sight_content": ""}}, {"title": "秀龙古观", "address": "揭阳市环城北路", "image": "", "rank": 56, "time": 2, "location": {"lat": 23.045170521940666, "lng": 116.30107897931956}, "feature": {"sight_features": "", "sight_content": ""}}, {"title": "宝德寺", "address": "占陇镇塘下寨管区北侧", "image": "", "rank": 57, "time": 2, "location": {"lat": 23.29157855760677, "lng": 116.24930189209805}, "feature": {"sight_features": "", "sight_content": ""}}, {"title": "浮屿茂林文化公园", "address": "中华西街附近", "image": "", "rank": 58, "time": 2, "location": {"lat": 43.82910486391073, "lng": 125.41795959992048}, "feature": {"sight_features": "", "sight_content": ""}}, {"title": "占苏浮佛寺(佛祖)", "address": "广东省揭阳市普宁市X110", "image": "", "rank": 59, "time": 2, "location": {"lat": 23.30363452186039, "lng": 116.1724489811672}, "feature": {"sight_features": "", "sight_content": ""}}, {"title": "汤坑山泉游乐园", "address": "下架山镇汤坑水库管理处旁", "image": "", "rank": 60, "time": 2, "location": {"lat": 39.298191477801495, "lng": 115.25132951715847}, "feature": {"sight_features": "", "sight_content": ""}}]}