{"cityName": "濮阳", "days": "", "cityImage": "", "spots": [{"title": "戚城文物景区", "address": "濮阳市华龙区京开大道戚城村北", "image": "", "rank": 1, "time": 1.5, "location": {"lat": 35.79576069464147, "lng": 115.06050206804653}, "feature": {"sight_features": "", "sight_content": ""}}, {"title": "濮上园", "address": "濮阳市中原路西段濮上园北门进入后一百米处", "image": "", "rank": 2, "time": 2, "location": {"lat": 35.787286783183994, "lng": 115.02289259178563}, "feature": {"sight_features": "", "sight_content": ""}}, {"title": "中原绿色庄园景区", "address": "濮阳市黄河西路中原绿色景区斜对面海洋馆附近", "image": "", "rank": 3, "time": 2.5, "location": {"lat": 35.78034819926466, "lng": 114.97114875173227}, "feature": {"sight_features": "", "sight_content": ""}}, {"title": "濮阳毛楼生态旅游区", "address": "濮阳市范县", "image": "", "rank": 4, "time": 2.5, "location": {"lat": 35.85765508771859, "lng": 115.51058621044251}, "feature": {"sight_features": "", "sight_content": ""}}, {"title": "濮阳海洋馆", "address": "濮阳市黄河西路中原绿色景区斜对面", "image": "", "rank": 5, "time": 2.5, "location": {"lat": 35.78034819926466, "lng": 114.97114875173227}, "feature": {"sight_features": "", "sight_content": ""}}, {"title": "濮阳世锦园", "address": "濮阳市龙华区王助乡", "image": "", "rank": 6, "time": 2.5, "location": {"lat": 35.725865012875815, "lng": 114.9503721058972}, "feature": {"sight_features": "", "sight_content": ""}}, {"title": "冀鲁豫边区革命根据地旧址纪念馆", "address": "河南省濮阳市清丰县双庙乡单拐村", "image": "", "rank": 7, "time": 1.0, "location": {"lat": 35.83132720540252, "lng": 115.22669238812307}, "feature": {"sight_features": "", "sight_content": ""}}, {"title": "蓝宝石温泉水世界", "address": "濮阳市黄河西路394号，濮上园向西300米路北", "image": "", "rank": 8, "time": 2, "location": {"lat": 35.78051330808394, "lng": 114.96012645249752}, "feature": {"sight_features": "特色1 濮阳蓝宝石水世界位于濮阳黄河西路，东临濮上园、中原绿色庄园，西临大广、濮鹤高速路口，是一家集温泉泡浴、商务会议、休闲娱乐、旅游度假、养老养生诸功能于一体的休闲旅游度假区！", "sight_content": "蓝宝石温泉水世界位于濮阳市，是蓝宝石温泉度假区配套项目，属于当地比较有特色的水上乐园。冬季有温泉，夏季有水上乐园。园内既有惊险刺激的冲浪和滑梯又有休闲娱乐的儿童戏水小品，适合各个年龄阶段的群体需求，水上项目丰富，是夏季游玩消暑又一欢乐地方。"}}, {"title": "中心公园", "address": "濮阳市华龙区黄河东路", "image": "", "rank": 9, "time": 1.0, "location": {"lat": 35.77486701062843, "lng": 115.0852011460265}, "feature": {"sight_features": "", "sight_content": ""}}, {"title": "濮上园天鹅湖滑雪场", "address": "中原路濮上园北门内向南50米", "image": "", "rank": 10, "time": 2, "location": {"lat": 35.78767092980488, "lng": 114.96043939059497}, "feature": {"sight_features": "", "sight_content": ""}}, {"title": "水秀国际大剧院", "address": "濮阳市华龙区中原路与开州路交叉口向北200米路西", "image": "", "rank": 11, "time": 2, "location": {"lat": 35.77479728556669, "lng": 115.13731362011879}, "feature": {"sight_features": "", "sight_content": ""}}, {"title": "龙行户外先锋岩馆", "address": "濮阳华龙区黄河路东段768号都市花园蜀九香对面", "image": "", "rank": 12, "time": 2, "location": {"lat": 35.77378629851645, "lng": 115.09165682184053}, "feature": {"sight_features": "", "sight_content": ""}}, {"title": "濮阳市博物馆", "address": "开州中路与黄河路交汇处", "image": "", "rank": 13, "time": 2.5, "location": {"lat": 35.77687418335942, "lng": 115.03259316302169}, "feature": {"sight_features": "", "sight_content": ""}}, {"title": "光华科技馆", "address": "濮阳华龙区黄河西路北段", "image": "", "rank": 14, "time": 2, "location": {"lat": 35.78034819926466, "lng": 114.97114875173227}, "feature": {"sight_features": "", "sight_content": ""}}, {"title": "名泉度假村温泉", "address": "濮阳市黄河路东段与濮洲路交叉口向北50米路西", "image": "", "rank": 15, "time": 2, "location": {"lat": 35.783646572960876, "lng": 115.07763125125668}, "feature": {"sight_features": "", "sight_content": ""}}, {"title": "城市海景水上乐园", "address": "濮阳市濮上路石化交叉口向西200米", "image": "", "rank": 16, "time": 3.0, "location": {"lat": 35.776989728622056, "lng": 115.01749921940207}, "feature": {"sight_features": "", "sight_content": ""}}, {"title": "城隍庙", "address": "中国河南省濮阳市濮阳县南街", "image": "", "rank": 17, "time": 1.5, "location": {"lat": 35.717888889374784, "lng": 115.03558408559006}, "feature": {"sight_features": "", "sight_content": ""}}, {"title": "濮阳市油田一中足球场", "address": "五一东路附近", "image": "", "rank": 18, "time": 2.5, "location": {"lat": 23.635260217539734, "lng": 112.4495691543292}, "feature": {"sight_features": "", "sight_content": ""}}, {"title": "中原杂技博物馆", "address": "濮阳市濮阳县黄金北路", "image": "", "rank": 19, "time": 2, "location": {"lat": 35.74744783100997, "lng": 115.2334977943615}, "feature": {"sight_features": "", "sight_content": ""}}, {"title": "西环公园", "address": "河南省濮阳市华龙区濮上中路", "image": "", "rank": 20, "time": 2, "location": {"lat": 35.777170158907396, "lng": 115.01719534241076}, "feature": {"sight_features": "", "sight_content": ""}}, {"title": "濮阳挥公陵舜帝宫景区", "address": "河南省濮阳市濮阳县南环路东段", "image": "", "rank": 21, "time": 2.5, "location": {"lat": 35.717888889374784, "lng": 115.03558408559006}, "feature": {"sight_features": "", "sight_content": ""}}, {"title": "张挥公园", "address": "老城南环路", "image": "", "rank": 22, "time": 2, "location": {"lat": 34.68960106349699, "lng": 112.4765035657198}, "feature": {"sight_features": "", "sight_content": ""}}, {"title": "世锦园鲜花基地", "address": "河南省濮阳市华龙区濮阳市农业开发示范园区内", "image": "", "rank": 23, "time": 2, "location": {"lat": 35.78363288453635, "lng": 115.08041294409888}, "feature": {"sight_features": "", "sight_content": ""}}, {"title": "梁村", "address": "濮阳市清丰县", "image": "", "rank": 24, "time": 7.5, "location": {"lat": 35.89130816827738, "lng": 115.11047186341266}, "feature": {"sight_features": "", "sight_content": ""}}, {"title": "冀鲁豫边区革命根据地旧址", "address": "濮阳市清丰县双庙乡单拐村", "image": "", "rank": 25, "time": 1.0, "location": {"lat": 35.83132720540252, "lng": 115.22669238812307}, "feature": {"sight_features": "", "sight_content": ""}}, {"title": "濮阳刘邓大军渡黄河纪念馆", "address": "孙口乡", "image": "", "rank": 26, "time": 2.5, "location": {"lat": 35.96157391836708, "lng": 115.9017493023876}, "feature": {"sight_features": "", "sight_content": ""}}, {"title": "解忧公主薰衣草", "address": "兴华路与昌乐南街交叉口东南150米", "image": "", "rank": 27, "time": 2, "location": {"lat": 36.08266014967572, "lng": 115.20905509546898}, "feature": {"sight_features": "", "sight_content": ""}}, {"title": "台前县图书馆", "address": "纬二路与经六路交叉口西南200米", "image": "", "rank": 28, "time": 2, "location": {"lat": 40.02673142222965, "lng": 116.69151225666258}, "feature": {"sight_features": "", "sight_content": ""}}, {"title": "党河口鲜食葡萄采摘", "address": "101省道党马线交叉口东", "image": "", "rank": 29, "time": 2, "location": {"lat": 41.03241923348195, "lng": 111.82384508727836}, "feature": {"sight_features": "", "sight_content": ""}}, {"title": "关爷庙殿", "address": "濮阳市清丰县", "image": "", "rank": 30, "time": null, "location": {"lat": 35.89130816827738, "lng": 115.11047186341266}, "feature": {"sight_features": "", "sight_content": ""}}, {"title": "杏坛公园", "address": "濮阳市范县黄河路与杏坛路交叉口东南角", "image": "", "rank": 31, "time": 0.4, "location": {"lat": 35.86225784722923, "lng": 115.50632959158008}, "feature": {"sight_features": "", "sight_content": ""}}, {"title": "明月湖公园", "address": "河南省濮阳市清丰县人民路", "image": "", "rank": 32, "time": 2.0, "location": {"lat": 35.890739187928006, "lng": 115.11268334335783}, "feature": {"sight_features": "", "sight_content": ""}}, {"title": "南乐文庙", "address": "城关镇昌州路东段", "image": "", "rank": 33, "time": 2.0, "location": {"lat": 36.07886009206541, "lng": 115.20435095786931}, "feature": {"sight_features": "", "sight_content": ""}}, {"title": "弘法寺", "address": "河南省濮阳市台前县X007顺河街(佳士中学对面)", "image": "", "rank": 34, "time": 1.5, "location": {"lat": 35.9941273700782, "lng": 115.8502332780014}, "feature": {"sight_features": "", "sight_content": ""}}, {"title": "观音堂", "address": "曹家村附近", "image": "", "rank": 35, "time": 2.0, "location": {"lat": 36.50195071569735, "lng": 113.90476107679919}, "feature": {"sight_features": "", "sight_content": ""}}, {"title": "冀鲁豫军区纪念馆", "address": "濮阳市清丰县单拐村附近", "image": "", "rank": 36, "time": 2.0, "location": {"lat": 35.83132720540252, "lng": 115.22669238812307}, "feature": {"sight_features": "", "sight_content": ""}}, {"title": "郑板桥纪念馆", "address": "濮阳市范县辛庄镇毛楼", "image": "", "rank": 37, "time": 2, "location": {"lat": 35.66558699255481, "lng": 115.43501068992144}, "feature": {"sight_features": "", "sight_content": ""}}, {"title": "释佛寺", "address": "濮阳市范县101省道附近", "image": "", "rank": 38, "time": 7.5, "location": {"lat": 35.815871458206814, "lng": 115.55436198540198}, "feature": {"sight_features": "", "sight_content": ""}}, {"title": "城市公园", "address": "濮阳市华龙区昆吾北路24", "image": "", "rank": 39, "time": 1.5, "location": {"lat": 35.7870002384965, "lng": 115.0270944697069}, "feature": {"sight_features": "", "sight_content": ""}}, {"title": "顿丘农庄", "address": "大广高速清丰出口向西800米路南", "image": "", "rank": 40, "time": 2, "location": {"lat": 35.91898072217431, "lng": 115.01924009236174}, "feature": {"sight_features": "", "sight_content": ""}}, {"title": "东北庄杂技文化园区", "address": "濮阳市华龙区岳村镇东北庄村", "image": "", "rank": 41, "time": 2, "location": {"lat": 35.807460653673566, "lng": 115.19502709284548}, "feature": {"sight_features": "", "sight_content": ""}}, {"title": "东北庄野生动物园", "address": "濮阳市华龙区东北庄村西S101与X008交叉口西50米路北", "image": "", "rank": 42, "time": 1.5, "location": {"lat": 35.807460653673566, "lng": 115.19502709284548}, "feature": {"sight_features": "特色1 濮阳地区新开野生动物园。 特色2 野生动物园内含3个区域：分别为南区步行区、步行区和北区动物散养区。", "sight_content": "濮阳东北庄野生动物园位于濮阳市绿城路以北，占地面积约1200亩，集展示观赏、表演驯化、驯养繁殖、马戏表演、观光休闲、餐饮服务于一体，南区以温驯的小动物为主，北区为猛兽区和游乐项目区。"}}, {"title": "寻味桑葚园", "address": "卫都路与101省道交叉口向北700米(路西第三路口向西100米北侧)", "image": "", "rank": 43, "time": 2, "location": {"lat": 23.0073396296765, "lng": 114.0283663838771}, "feature": {"sight_features": "", "sight_content": ""}}, {"title": "有缘桑葚园", "address": "卫都路与101省道向北700米", "image": "", "rank": 44, "time": 2, "location": {"lat": 41.03718083712316, "lng": 111.82384508727836}, "feature": {"sight_features": "", "sight_content": ""}}, {"title": "鲜桃采摘", "address": "班家耕读小镇", "image": "", "rank": 45, "time": 2, "location": {"lat": 39.695094240945295, "lng": 109.73705575175694}, "feature": {"sight_features": "", "sight_content": ""}}, {"title": "宝多园儿童乐园", "address": "丽都路义乌商贸城一号门三楼1区", "image": "", "rank": 46, "time": 2, "location": {"lat": 22.646436593850222, "lng": 114.21307982549143}, "feature": {"sight_features": "", "sight_content": ""}}, {"title": "清濮垂钓苑", "address": "昆吾路街道站前路濮上路交叉口东300米", "image": "", "rank": 47, "time": 2, "location": {"lat": 35.78241636205982, "lng": 115.02697391710747}, "feature": {"sight_features": "", "sight_content": ""}}, {"title": "尚杨少儿美术馆", "address": "育兴街29号附近", "image": "", "rank": 48, "time": 2, "location": {"lat": 29.86283461302241, "lng": 121.59386259826118}, "feature": {"sight_features": "", "sight_content": ""}}, {"title": "奇妙的朋友儿童创意美术馆", "address": "政和路35号附近", "image": "", "rank": 49, "time": 2, "location": {"lat": 31.70679968595356, "lng": 120.04218486138552}, "feature": {"sight_features": "", "sight_content": ""}}, {"title": "濮阳绿色庄园", "address": "河南濮阳市华龙区黄河路西段 457000", "image": "", "rank": 50, "time": 2.5, "location": {"lat": 35.78363288453635, "lng": 115.08041294409888}, "feature": {"sight_features": "", "sight_content": ""}}, {"title": "新天涂料有限公司", "address": "中国河南省濮阳市濮阳县023乡道", "image": "", "rank": 51, "time": 2, "location": {"lat": 35.717888889374784, "lng": 115.03558408559006}, "feature": {"sight_features": "", "sight_content": ""}}, {"title": "老赵家葡萄采摘园", "address": "马庄桥镇西赵家", "image": "", "rank": 52, "time": 2, "location": {"lat": 35.84860862839593, "lng": 115.06059921709252}, "feature": {"sight_features": "", "sight_content": ""}}, {"title": "台前县垂钓俱乐部", "address": "盛源路", "image": "", "rank": 53, "time": 2, "location": {"lat": 29.70569996009233, "lng": 121.43480759885213}, "feature": {"sight_features": "", "sight_content": ""}}, {"title": "时尚温泉", "address": "北环与惠风路交叉口西100米路南(时尚宾馆院内)", "image": "", "rank": 54, "time": 2, "location": {"lat": 22.526267027237505, "lng": 113.3829636090835}, "feature": {"sight_features": "", "sight_content": ""}}, {"title": "尚雅儿童游乐场", "address": "户部寨镇原粮所(户部寨卫生院西100米路北)", "image": "", "rank": 55, "time": 2, "location": {"lat": 35.723430682769035, "lng": 115.31839994489073}, "feature": {"sight_features": "", "sight_content": ""}}, {"title": "儿童乐园", "address": "富民路与工业路交叉口北200米", "image": "", "rank": 56, "time": 2, "location": {"lat": 33.69836998966755, "lng": 118.32470009054676}, "feature": {"sight_features": "", "sight_content": ""}}, {"title": "名人温泉", "address": "红旗路裕华文清苑旁", "image": "", "rank": 57, "time": 2, "location": {"lat": 35.720188722893866, "lng": 115.01884530954774}, "feature": {"sight_features": "", "sight_content": ""}}, {"title": "农家休闲采摘垂钓园", "address": "307省道附近", "image": "", "rank": 58, "time": 2, "location": {"lat": 40.264498296993764, "lng": 116.57268632168496}, "feature": {"sight_features": "", "sight_content": ""}}, {"title": "天意温泉宾馆", "address": "濮上路南段濮阳耐火材料厂北临", "image": "", "rank": 59, "time": 2, "location": {"lat": 35.776989728622056, "lng": 115.01749921940207}, "feature": {"sight_features": "", "sight_content": ""}}, {"title": "濮阳市龙都瑞祥生态园", "address": "106国道西50米", "image": "", "rank": 60, "time": 2.5, "location": {"lat": 23.86424620577106, "lng": 113.53885608621688}, "feature": {"sight_features": "", "sight_content": ""}}]}