{"cityName": "铅山", "days": 2, "cityImage": "", "spots": [{"title": "河口古镇", "address": "上饶市铅山县河口镇", "image": "", "rank": 1, "time": 3.5, "location": {"lat": 28.30254532796491, "lng": 117.71941230979192}, "feature": {"sight_features": "", "sight_content": ""}}, {"title": "鹅湖书院", "address": "上饶市铅山县鹅湖镇鹅湖山", "image": "", "rank": 2, "time": 1.0, "location": {"lat": 28.23521695003973, "lng": 117.81175045453946}, "feature": {"sight_features": "特色1 古代江西四大书院之一", "sight_content": "据《广信府志》介绍：“大义寺左为四贤词。”此实为大义寺的附属寺左，即仁寿寺左，为“四贤祠”。祠为当时的信州刺史杨汝砺所建，这是鹅湖书院之始。以后屡有修举，明代宸濠之乱，兵燹之余，鹅湖书院的学舍全部毁坏。清康熙二十二年(1683)，地方官潘士瑞曾予修理。康熙五十四年(1715)，令尹施德大加修建，当时李光地所作《重修鹅湖书院记》说：“书院之建，实为国家学校，相为表里，李渤高士尔。朱子犹倦焉。今使先贤遗址，焕然重修，江有故理学地，必有游于斯，而奋乎兴起，以绍前贤者。”鹅湖书院绝有官方的支持得以重修，昔日的辉煌已不复再现，以致成为历史的陈迹。\n鹅湖书院在鹅湖寺，即仁寿寺的左边，而鹅湖塔则在鹅湖书院的左边。鹅湖书院的大门，不在正中，而在左面，所以正对着鹅湖塔。书院四周有山有溪，环境幽雅。鹅湖书院比鹅湖寺大得多，建筑规模颇似孔庙。由大门进去，经过两排桃树，有一个大圆门，圆门内有一个大院子，对面又是一个大圆门，上面是三排殿宇，由此登石阶而入，又是一个院子，里面是半月池，池周围是石栏杆。渡过古桥是第一排殿宇，再过一个院子，是第二排殿宇，其最后一排殿宇，是四贤祠。祠前也是一个院子，祠后则是一个相当高的坪台，其下有一小池，其后是一座高墙，正对那两大圆门的北端高墙。这三排殿宇是主屋。在主屋两旁，又是一排一排的房屋，错落有致。在鹅湖书院后面的四贤词内，设有朱、吕、二陆四个牌位，又有一个题着“顿渐同归”字样的匾额，这和书院前排建筑中所悬“道学之宗”的御匾，正遥遥相对，由此可见宋代朱陆鹅湖之会的盛况。抗日战争期间，鹅湖书院成为东南训练团的驻扎营地。\n这所书院，自南宋至清代，八百多年来，几遭兵毁，又几次重建。其中尤以清代康熙五十六年(公元1717年)整修和扩建工程规模最大：新筑山门、牌坊、大堂、浮池、拱桥、碑亭、御书楼；两侧更修建厢房数十间，作为士子读书之所。康熙皇帝还为御书楼题字作对，门额题为“穷理居敬”，联语为“章岩月朗中天镜，石井波分太极泉”。至今牌坊、泮池、后殿、厢房等建筑保留尚完好；泮池两侧的厢房内，尚存明、清两代古碑13块，是研究这座书院历史的珍贵资料。"}}, {"title": "葛仙山风景区", "address": "上饶市铅山县", "image": "", "rank": 3, "time": 1.0, "location": {"lat": 28.321504694791088, "lng": 117.71642163695348}, "feature": {"sight_features": "特色1 著名的道教名山，有“九龙窜顶”之称。", "sight_content": "葛仙山是著名的道教名山，位于上饶市铅山县中部，系武夷山的支脉；站在主峰眺望四周，近观九条支脉如九条苍龙，盘旋腾跃，气势雄伟，人称“九龙窜顶”。葛仙山自然景观和人文景观极为丰富。奇峰、异石、云海、松涛，与黄山媲美；试剑石、道人石、龙舌池、七星井、仙人足印蔚为奇观。该山相传因东汉葛玄在此山修道成仙而得名。\n\n\n葛仙山面积约13平方公里，最高点海拔1322米。景区以孤峰挺拔，溶洞幽深为特色，座座孤峰呈三角形，如刀削斧砍，互不相联，千姿百态，宛如硕大的群雕造像，令人称奇叫绝。山中多溶洞，素有“九妖十八洞”、“二十四峰、八十一洞”之说。葛仙山有名的溶洞如五龙洞、五爪洞、水帘洞、灵泉洞、朝天洞、仙女洞、毛狗洞、雷声洞、无底洞、石象洞，洞洞妙趣横生。石象洞掩映在青松翠柏笔林丛中，深约70米，洞中石笋、石柱、石花、钟乳石各具形态，玲珑剔透。雷声洞口小腹空，岩顶滴水，发出叮呼声，宛如琴声，洞中清潭久旱不涸，久雨不涨，极为神奇。形似五指的五爪洞，由五个洞组成，以五指命名，其中以无名指最深，各洞弯路道险，如同迷宫。"}}, {"title": "上饶辛弃疾墓", "address": "江西省上饶市铅山县瓜山之后的虎头门阳原山腰之中", "image": "", "rank": 4, "time": 1.0, "location": {"lat": 28.321504694791088, "lng": 117.71642163695348}, "feature": {"sight_features": "", "sight_content": ""}}, {"title": "仙人寨", "address": "上饶市铅山县汪二镇漕源仙人寨", "image": "", "rank": 5, "time": 3.5, "location": {"lat": 28.26384637533441, "lng": 117.54635111413025}, "feature": {"sight_features": "", "sight_content": ""}}, {"title": "石塘镇", "address": "中国江西省上饶铅山县石塘镇", "image": "", "rank": 6, "time": 2, "location": {"lat": 28.10469128575519, "lng": 117.8556509556113}, "feature": {"sight_features": "", "sight_content": ""}}, {"title": "紫竹林", "address": "上饶市铅山县鹅湖镇旭鹅线鹅湖书院入口", "image": "", "rank": 7, "time": 1.5, "location": {"lat": 28.261723096190543, "lng": 117.82634361618838}, "feature": {"sight_features": "", "sight_content": ""}}, {"title": "武夷山漂流", "address": "124乡道", "image": "", "rank": 8, "time": 6.0, "location": {"lat": 31.341211384316882, "lng": 118.71555000893682}, "feature": {"sight_features": "", "sight_content": ""}}, {"title": "小蓝鲸游乐园", "address": "河口镇狮江大道鹏泰购物广场海尚百货三楼", "image": "", "rank": 9, "time": 2, "location": {"lat": 28.318026615087817, "lng": 117.71789519844715}, "feature": {"sight_features": "", "sight_content": ""}}, {"title": "旋转木马", "address": "狮江大道60号附近", "image": "", "rank": 10, "time": 0.15000000000000002, "location": {"lat": 28.317897816147685, "lng": 117.72346438808161}, "feature": {"sight_features": "", "sight_content": ""}}, {"title": "上饶书展", "address": "江西省上饶市铅山县复兴北路12", "image": "", "rank": 11, "time": 2.0, "location": {"lat": 28.318347806277007, "lng": 117.71959984184673}, "feature": {"sight_features": "", "sight_content": ""}}, {"title": "东祝宗祠", "address": "江西省上饶市铅山县槐溪路", "image": "", "rank": 12, "time": 2, "location": {"lat": 28.1173212163923, "lng": 117.83446107307913}, "feature": {"sight_features": "", "sight_content": ""}}, {"title": "铅山骑龙庙", "address": "江西省上饶市铅山县", "image": "", "rank": 13, "time": null, "location": {"lat": 28.321504694791088, "lng": 117.71642163695348}, "feature": {"sight_features": "", "sight_content": ""}}, {"title": "朱公庙", "address": "江西省上饶市铅山县韩家惠济河路河口镇第四中心小学西北", "image": "", "rank": 14, "time": null, "location": {"lat": 28.307050010285632, "lng": 117.72410864650502}, "feature": {"sight_features": "", "sight_content": ""}}, {"title": "北斗古寺", "address": "上饶市铅山县", "image": "", "rank": 15, "time": 2, "location": {"lat": 28.321504694791088, "lng": 117.71642163695348}, "feature": {"sight_features": "", "sight_content": ""}}, {"title": "艺术公园", "address": "江西省上饶市铅山县河口镇狮江大道中国石化加油站东", "image": "", "rank": 16, "time": 3.0, "location": {"lat": 28.317568177043793, "lng": 117.71682646012803}, "feature": {"sight_features": "", "sight_content": ""}}, {"title": "葛仙山风景区-葛仙山葛仙祠", "address": "葛仙山乡", "image": "", "rank": 17, "time": 2, "location": {"lat": 28.124980559784838, "lng": 117.67304370175597}, "feature": {"sight_features": "", "sight_content": ""}}, {"title": "铅山古玩城", "address": "马鞍山公园旁", "image": "", "rank": 18, "time": 1.0, "location": {"lat": 27.785293152302415, "lng": 120.65954723932549}, "feature": {"sight_features": "", "sight_content": ""}}, {"title": "全友家私超级生活馆", "address": "狮江大道附近", "image": "", "rank": 19, "time": 2, "location": {"lat": 28.317568177043793, "lng": 117.71682646012803}, "feature": {"sight_features": "", "sight_content": ""}}, {"title": "佳禾水上乐园", "address": "河口镇政府往虹桥方向南800米路东", "image": "", "rank": 20, "time": 2, "location": {"lat": 31.86787589818504, "lng": 117.28868870716242}, "feature": {"sight_features": "", "sight_content": ""}}, {"title": "贝贝总动员店", "address": "永平镇桐江路116号", "image": "", "rank": 21, "time": 2, "location": {"lat": 28.218137048175674, "lng": 117.78291383986684}, "feature": {"sight_features": "", "sight_content": ""}}, {"title": "桐木溪", "address": "江西省铅山县境内", "image": "", "rank": 22, "time": 2, "location": {"lat": 28.321504694791088, "lng": 117.71642163695348}, "feature": {"sight_features": "", "sight_content": ""}}, {"title": "黄岗山", "address": "福建省武夷山市黄岗山大峡谷", "image": "", "rank": 23, "time": 5.0, "location": {"lat": 27.875849938085864, "lng": 117.86656799779246}, "feature": {"sight_features": "", "sight_content": ""}}, {"title": "戈家蓬", "address": "上饶市-铅山县", "image": "", "rank": 24, "time": 2, "location": {"lat": 28.321504694791088, "lng": 117.71642163695348}, "feature": {"sight_features": "", "sight_content": ""}}, {"title": "外西坑", "address": "上饶市-铅山县", "image": "", "rank": 25, "time": null, "location": {"lat": 28.321504694791088, "lng": 117.71642163695348}, "feature": {"sight_features": "", "sight_content": ""}}, {"title": "鑫悦汇KTV", "address": "上饶市-铅山县-永平镇佰乐超市隔壁", "image": "", "rank": 26, "time": 2, "location": {"lat": 28.218298008301407, "lng": 117.7824045616407}, "feature": {"sight_features": "", "sight_content": ""}}, {"title": "永平镇", "address": "中国江西省上饶铅山县永平镇", "image": "", "rank": 27, "time": 2, "location": {"lat": 28.198328728339096, "lng": 117.76351521167136}, "feature": {"sight_features": "", "sight_content": ""}}, {"title": "河口明清古街", "address": "上饶市铅山县河口镇", "image": "", "rank": 28, "time": 1.0, "location": {"lat": 28.30254532796491, "lng": 117.71941230979192}, "feature": {"sight_features": "", "sight_content": ""}}]}