{"cityName": "黔东南", "days": "4", "cityImage": "", "spots": [{"title": "西江千户苗寨", "address": "黔东南苗族侗族自治州雷山县西江镇南贵村", "image": "", "rank": 1, "time": 0.75, "location": {"lat": 26.49508063853721, "lng": 108.16668089826216}, "feature": {"sight_features": "特色1 俯瞰苗寨全景，万家灯火齐亮。 特色2 领略和认识中国苗族历史与发展地之一。", "sight_content": "西江苗族是黔东南苗族的重要组成部分之一，现主要居住的是苗族的“西”氏族。西江千户苗寨拥有深厚的苗族文化底蕴，这里的苗族建筑、服饰、银饰、语言、饮食、传统习俗不但典型，而且保存较好。西江苗族过去穿长袍，包头巾头帕，颜色都是黑色的，故称“黑苗”，也称“长裙苗”。西江苗族的语言属于汉藏语系苗瑶语族苗语支中部方言的北部次方言，这里现使用的文字是通用的汉语言文字，尽管汉语言是西江苗族与外界交流的必备语言工具，但苗族之间的语言交流仍然使用传统的苗语。也是重要的苗族之一，这也是黔东南的重要的代表之一。\n吊脚楼不但造型美观实用，而且在以下几方面表现出很高的科学文化价值。一栋栋的吊脚楼沿山坡依次第上，上千栋吊脚楼相连成片，形成一个整体的环形，形成了单个吊脚楼所不具备的视觉效果。吊脚楼群与周围的青山绿水和田园风光融为一体，和谐统一，相得益彰，使得西江吊脚楼具有很高的美学价值。\n风雨桥除了吊脚楼外，风雨桥也是西江千户苗寨的重要建筑之一。出于改善村寨风水条件和方便居民生活考虑，多数苗寨都在自己村寨附近建有风雨桥，以关风蓄气和挡风遮雨。西江以前有风雨木桥，主要有平寨通往欧嘎的平寨风雨桥和南贵村关锁整个西江大寨的南寿风雨桥。由于是木质结构，几经修复又被洪水冲毁。2008年以来西江修建的风雨桥有五座，是连接大寨和西江中学的弓形水泥风雨桥、主道一号弓形水泥风雨桥、连接大寨对面的也薅寨二号及四号弓形水泥风雨桥、连接南贵弓形水泥风雨桥，由于以前的风雨桥的建造属全木式结构，容易被大水冲垮，现所修建的风雨桥全采用水泥和木材的混合结构，使得风雨桥的坚实性和抵御洪水的能力大大增加。\n苗寨千户灯夜景西江千户苗寨夜景更为璀璨、迷人了。每到黄昏时分，千家万户就亮起了各自家的灯。随着天色越来越暗，西江千户苗寨变成了灯的海洋，可以看到苗寨呈现那牛头的形状，摄友们陶醉在美景面前，唯有不停的按下快门。为使游客更好地观赏西江千户苗寨夜景，景区在路边修建了气派的观景台，开通了观光车。\n苗寨歌舞文化到西江苗寨，有个重要环节不能错过，就是在大广场上欣赏苗族的姑娘小伙们的歌舞表演。景区每天提供一场富有民族特色的表演，时间是11:30（时间有可能变动，建议进入景区时先咨询景区工作人员）。当地苗族青年男女表演的苗族歌舞节目，苗族人自己表演的歌舞节目具有当地的色彩，华丽的服饰，欢快的歌舞都和美丽的爱情故事都能使你更加了解苗族人民！有苗族古歌演唱，非常原生态，演唱者全是寨中的老人，用苗族古语演唱其史诗般宏大的古歌（苗族古歌有四部分，涵括万物起源、天地洪荒及辛酸迁徙史等）能就此传承下去，也是一大功德。要是运气好，遇到特别活动或是有重要人物出现，还是能够看到掌坳的铜鼓舞、方祥的高排芦笙、反排的木鼓舞等。"}}, {"title": "肇兴侗寨", "address": "黔东南苗族侗族自治州黎平县肇兴镇", "image": "", "rank": 2, "time": 4.5, "location": {"lat": 25.942669988056736, "lng": 109.17597487344547}, "feature": {"sight_features": "特色1 世界上最大的民族博物馆之一。 特色2 联合国世界文化基金会确定为全球\"返扑归真，回归自然\"十大旅游首选地之一。 特色3 世界乡土文化保护基金会授予的全球18个生态文化保护圈之一。", "sight_content": "肇兴侗寨，位于贵州省黔东南苗族侗族自治州黎平县，是黔东南侗族地区较大的侗族村寨之一。占地18万平方米，居民800余户，4000多人。\n肇兴侗寨四面环山，寨子建于山中盆地，一条小河穿寨而过。寨中房屋为干栏式吊脚楼，鳞次栉比，错落有致，全部用杉木建造，硬山顶覆小青瓦，古朴实用。肇兴侗寨全为陆姓侗族，分为五大房族，分居五个自然片区，当地称之为\"团\"。分为仁团、义团、礼团、智团、信团五团。肇兴不仅是鼓楼之乡，而且是歌舞之乡，寨上有侗歌队、侗戏班。\n黎平到肇兴只有40公里，肇兴是一个镇级单位，肇兴有5个自然村（寨）分别称为“仁、义、礼、智、信”。共建有鼓楼五座，花桥五座、戏台五座。其中以智寨鼓楼最为美观。如果你想尽可能地捕捉到信息量更丰富的画面，一支广角镜头是少不了的。拍摄时一方面要采取低角度拍摄，同时也要注意因此而来的眩光问题。\n\n\n近年来随着当地旅游业的发展，这座西南腹地的古老村寨开始频繁的出现在旅游媒体和互联网上。走进肇兴侗寨，看着老街上兀自奔跑的小孩，缓慢前行的老人，以及凝聚了百年风尘的鼓楼群，你先不用急着举起相机，在这里，可以被放慢的不仅是快门，还有你的生活节奏。\n虽然肇兴是一个出名的旅游景点，但由于贵州自身地势的特殊性而相对封闭，跟中国很多的旅游城市比起来，肇兴的商业味道并不浓。居民有着自己的日常生活，丝毫不理会身边的背包客们好奇的目光和咔嚓咔嚓的快门声。他们，有他们自己的生活，并没有因为外人的到来而改变多少。"}}, {"title": "镇远古城", "address": "黔东南苗族侗族自治州镇远县兴隆街21号", "image": "", "rank": 3, "time": 4.0, "location": {"lat": 27.05481989859542, "lng": 108.43374597735763}, "feature": {"sight_features": "", "sight_content": ""}}, {"title": "观景台", "address": "黔东南苗族侗族自治州雷山县西江镇西江千户苗寨景区内", "image": "", "rank": 4, "time": 0.5, "location": {"lat": 26.501706239608055, "lng": 108.18309972123232}, "feature": {"sight_features": "", "sight_content": ""}}, {"title": "青龙洞", "address": "黔东南苗族侗族自治州镇远县东峡街", "image": "", "rank": 5, "time": 2.5, "location": {"lat": 27.056733366719886, "lng": 108.44002067547837}, "feature": {"sight_features": "特色1 青龙洞古建筑群至今已有500多年的历史 特色2 山势挺拔，峭壁悬崖;巨岩、洞穴融为一体。 特色3 集儒、道、佛、会馆、桥梁及绎道建筑文化于一身。", "sight_content": "1981年9月16日，县人民政府公布为第一批县级文物保护单位。1982年2月23日，省人民政府公布为省级文物保护单位。1988年1月13日，国务院公布为全国重点文物保护单位。2004年7月， 联合国教科文组织将青龙洞古建筑群确定为“世界贴崖古建筑园林”。\n青龙洞古建筑群是镇远旅游观赏价值的名胜古迹，是贵州古建筑规模大、构造精巧、融佛教经殿、道教庙堂、儒家书院、会馆为一体的佛、道、儒、俗古建筑群落。它位于镇远城 东的中和山，距县城中心仅0.5公里，占地面积21200平方米，建筑面积6600平方米。它建筑在高80米、长300米的中河山悬崖地带和溶岩奇石之中，由祝圣桥、中元禅院、紫阳书院、青龙洞、 万寿宫、香炉岩等6个古建筑群、35个单体建筑组成，它既有园林韵味，又具有寺院风格。\n青龙洞古建筑群始建于明洪武二十一年（1388年），迄今已有六百多年的历史了。这片建筑群的总体特点是：依山而立,贴壁凌空。这里山势挺拔，峭壁悬崖。巨岩、洞穴合为一体。道、 儒、佛三种宗教的寺庙群生山腰。它背靠青山，面临绿水，贴壁临空，五步一楼，十步一阁，翘翼飞檐、雕梁画栋。这些古建筑依山因地，分别采用了“吊”、“借”、“附”、“嵌”、“ 筑”等多种工艺，硬是在一段悬崖上筑出中元洞、紫阳洞、青龙洞、万寿宫等一片阁楼洞天。\n它气势雄伟、构思大胆、布局精巧。使其呈现出洞中建楼、楼中藏洞，欲露先藏、欲扬先抑、底层吊脚、阁楼悬空的独特风格，同时是一处全国独有的中原建筑形式与贵州苗侗吊脚干栏式 建筑巧妙结合的建筑群。整个建筑群与石崖、洞穴、古木、藤萝融为一体,真是巧夺天工。集佛教、道教、儒家文化遗址于一山,错杂而不乱,有层次而又各自独立,是将建筑艺术、雕刻艺术与 自然风光完美结合的艺术珍品。"}}, {"title": "杉木河漂流", "address": "黔东南苗族侗族自治州施秉县", "image": "", "rank": 6, "time": 2.5, "location": {"lat": 27.03982205173296, "lng": 108.13043978205083}, "feature": {"sight_features": "", "sight_content": ""}}, {"title": "祝圣桥", "address": "贵州省镇远县城东中河山", "image": "", "rank": 7, "time": 0.5, "location": {"lat": 27.054820913900503, "lng": 108.43658077263082}, "feature": {"sight_features": "", "sight_content": ""}}, {"title": "黔东南州民族博物馆", "address": "黔东南苗族侗族自治州凯里市广场路5号", "image": "", "rank": 8, "time": 3.0, "location": {"lat": 26.578826670826274, "lng": 107.98666670117582}, "feature": {"sight_features": "", "sight_content": ""}}, {"title": "田园风光", "address": "黔东南州雷山县西江千户苗寨景区内", "image": "", "rank": 9, "time": 2, "location": {"lat": 26.501706239608055, "lng": 108.18309972123232}, "feature": {"sight_features": "", "sight_content": ""}}, {"title": "歌舞表演", "address": "黔东南州雷山县西江千户苗寨景区内", "image": "", "rank": 10, "time": 2, "location": {"lat": 26.501706239608055, "lng": 108.18309972123232}, "feature": {"sight_features": "", "sight_content": ""}}, {"title": "从江", "address": "黔东南苗族侗族自治州", "image": "", "rank": 11, "time": 3.0, "location": {"lat": 26.58970296982603, "lng": 107.9894462407788}, "feature": {"sight_features": "", "sight_content": ""}}, {"title": "加榜梯田", "address": "黔东南苗族侗族自治州从江县加榜乡加车村", "image": "", "rank": 12, "time": 3.5, "location": {"lat": 25.5906923211934, "lng": 108.58483618150748}, "feature": {"sight_features": "", "sight_content": ""}}, {"title": "下司古镇", "address": "黔东南苗族侗族自治州麻江县下司镇", "image": "", "rank": 13, "time": 2.5, "location": {"lat": 26.511464827018205, "lng": 107.80770582479116}, "feature": {"sight_features": "特色1 有清水江上的明珠之美称。 特色2 走进古镇，环境清幽，古风依旧、青瓦木楼沿河而建、隔江相望、清风传雨、感受古镇神韵根脉标签：阳明书院、名犬博览苑、清江皇木博物馆、华酸汤博物馆六大看点：字库塔、明心湾、芦笙广场、下司面、卵石花街、大码头。", "sight_content": "下司古镇景区位于贵州黔东南州凯里市下司镇，毗邻清水江，距贵阳129公里，距凯里高铁南站及凯里客运站6公里，下司古镇全面积134平方公里，2.5万人，其中以苗族、仫佬、畲族等为主的少数民族共2万人，占总人口的81.26%,是贵州及至川滇南下东进的交通要塞，更是黔东南州生态旅游与民族文化旅游的门户。下司在历史上上承川滇，下接湘粤，自元代中期设立翁袍蛮夷长官司始，至清代嘉庆13年（1808年）下司被正式辟为商埠，民国时期发展为闹市，顺江而过的人们行船于此，必然会休顿停歇，文化多元碰撞，商贾云集。于是，孕育出一座隐出贵州黔东南的山间小镇——下司。\n从元代、明清到现代，600百年的岁月沧桑，记录了下司风云过往，也映出了下司的灿烂未来。下司古镇是茶马古道的重要驿站，有深厚的民族文化底蕴和得天独厚的古码头为特色的水镇风光。曾被人誉为\"小上海\"、有\"清水江上的明珠\"之美称。这里山清水秀，物华天宝，人杰地灵，是中国红蒜之乡，锌硒米之乡，世界名犬下司犬之乡，中国现代民间绘画之乡,中国龙舟冠军之乡 这里有“世界一流、亚洲最好、贵州唯一”的皮划艇激流回旋训练基地。\n下司古镇景区最大的特色是多元文化的融合共生，“黔湘川水陆通衢，六百年清江风华”，基于“吃、住、行、游、购、娱、商、养、学、闲、情、奇”的全要素发展理念，下司古镇景区可概括为“一大根脉、三大标签、六大看点”，其中，“一大根脉”为心学精神文化高地的阳明书院，“三大标签”为下司犬代言的世界名犬博览苑、讲述木商文化的清江皇木博物馆、引领舌尖之旅的中华酸汤博物馆，“六大看点”为国学书香的字库塔、浪漫唯美的明心湾、斑斓风情的芦笙广场、一牵千年的下司面、历史回响的卵石花街、放排清江的大码头。\n下司古镇中多类建筑艺术共融，江南院落、微派建筑、闽南建筑、苗侗建筑等多种建筑形式集于一体，并相互借鉴吸收，构成多元化的建筑特征和文化。虽经历史沧桑，但基本保持完好，其格局、结构仍然体现当年的历史情景。\n走进古镇，环境清幽，古风依旧、青瓦木楼、沿河而建、隔江相望、清风传雨、独享古镇神韵。"}}, {"title": "岜沙苗寨", "address": "黔东南苗族侗族自治州从江县丙妹镇", "image": "", "rank": 14, "time": 3.0, "location": {"lat": 25.729594141745736, "lng": 108.90048190732936}, "feature": {"sight_features": "特色1 纯苗族村寨，至今仍保留了古老而原始的生活方式。 特色2 岜沙誉为苗族传统文化的“活化石”和“博物馆”。 特色3 受历史和自然条件等因素的影响, 岜沙村民长期与外界很少交往。", "sight_content": "‍‍【景点介绍】\n岜沙部落仅2000余人，分住在月亮山麓茫然林海中的5个寨子里。走进岜沙，随处可见茂密的森林。他们以稻作为主，狩猎为伴。这里箐黑林密，鸟道蚕丛，具有很强的隐蔽性，千百年来极少有外人进入。岜沙村不大，村寨建于山粱坳口及面向都柳江一侧的半坡上。村寨木楼古朴、简单；四周则为密林环绕，环境幽雅；村民全系苗族，衣着传统，发饰奇特。‍‍\n岜沙是一个非常和谐的社会，他们自有一套解决问题的体系，年纪较大、代表权威的长老们便是这里掌管一切的人，就如同很多原始部落的酋长一般。部落里面的大小事情都是由长老们商议，就连乡里的干部来到这里推广一些政策都是要先找到长老们征求他们的意见。由于岜沙人对树木的保护，这里的生态环境优美，而岜沙人就在这样的环境里过着与世无争的和谐日子。\n发式：岜沙男人非常重视他们的发髻，是男性装束中最重要的性别标志——剃掉男性头部四周大部分的头发，仅留下中部盘发为鬏髻，并终生保持这种发式。据说，这种装束是从蚩尤老祖时代传下来的，也是迄今为止在中国所能见到最古老的男性发式。\n配枪：岜沙汉子终身带枪，但从不乱放。以前是为了狩猎，现在主要在迎接贵宾和有重要庆典活动时，才会对天鸣枪。\n另外岜沙人对树有着特殊的感情，每个岜沙的孩子出生后，父母都会为他种植一棵树，让树随着孩子成长。如果这棵树被风刮倒或是被人砍掉，他们会认为这是不祥的预兆。人死之后，家人会用这棵生命之树为其制作棺材，埋葬的时候不是立一个墓碑，而是再种上一棵树缅怀已故的亲人。"}}, {"title": "和平村", "address": "黔东南苗族侗族自治州镇远县和平街", "image": "", "rank": 15, "time": 2.0, "location": {"lat": 27.05345756378207, "lng": 108.42695241438129}, "feature": {"sight_features": "", "sight_content": ""}}, {"title": "舞阳河风景名胜区", "address": "黔东南苗族侗族自治州镇远县小田溪村", "image": "", "rank": 16, "time": 3.5, "location": {"lat": 27.063721498662318, "lng": 108.40243693029294}, "feature": {"sight_features": "特色1 乘船顺流而下，峡谷中空气清新，两岸奇峰林立，令人心旷神怡。", "sight_content": "风景名胜区——舞阳河，位于历史文化名城镇远县城西17公里的群山峻岭中。由龙王峡、诸葛峡、西峡组成，有小三峡之美称， 1988年即被列入国家级风景名胜区的舞阳河风景区。\n景区以高峡平湖、瀑泉飞流、喀斯特为主体；山色水韵风光迷人。“破镜重圆”半含水中半露峥嵘；鸳鸯夫妻结队戏水，情深意浓；奇妙的三叠水、珠落玉盘直泻深潭；喊泉神灵有喊必应，呼之水出、止呼水隐；石峰神形如“孔雀开屏 ”、形态逼真；“大圣师徒”前往探幽，忙里偷闲，整个景区一湾一画，一步一景，令游人忘返流连......\n神秘的下舞阳，不是天堂胜似天堂。鲜明的个性特征之所撼动人心，主要在于下舞阳具有长江三峡之雄；蜀地蛾眉之秀；桂林漓江之美；阳朔胜景之幽而名冠天下。\n凡游览过下舞阳的客人，无不恭维赞誉其幽谷、山色、水景为天下绝色、叹为观止。清代爱国将领林则徐曾在此留下著名诗章：\n两山夹溪溪水恶，一经秋烟凿山脚。\n行人在山影在溪，此身未坠胆已破 。"}}, {"title": "郎德苗寨", "address": "黔东南苗族侗族自治州雷山县郎德镇", "image": "", "rank": 17, "time": 3.0, "location": {"lat": 26.461359430294394, "lng": 108.03818145264613}, "feature": {"sight_features": "特色1 这里依山傍水，四面被群山环抱，没有被过度开发，适合向往清净的朋友。", "sight_content": "这是一个有百户人家的苗族村寨。郎德上寨系苗语“能兑昂纠”的意译，“能兑”即欧兑河下游之意，村以河名，“昂纠”即上寨，郎德上寨因属郎德地片上方，故名。\n寨内苗民的服饰以长裙为特征，所以又称为“长裙苗”。\n‍‍‍‍‍‍‍‍郎德苗寨先后被评为 “民族歌舞之乡”、 “中国民间艺术之乡” “全国百座特色博物馆”、“全国重点文物保护单位”、历史文化名镇（村）、世界文化遗产预备名单、 “中国景观村落” “奥运圣火走过的地方”、 “中国历史文化名村”等美称，这些殊荣，得益于苗寨的民族风情浓郁，知名度和美誉度逐渐提高，前来景区观光游客络绎不绝。‍‍‍‍"}}, {"title": "西江苗族博物馆", "address": "黔东南州雷山县西江千户苗寨景区内", "image": "", "rank": 18, "time": 0.75, "location": {"lat": 26.501706239608055, "lng": 108.18309972123232}, "feature": {"sight_features": "", "sight_content": ""}}, {"title": "堂安侗寨", "address": "黔东南苗族侗族自治州黎平县肇兴乡", "image": "", "rank": 19, "time": 3.0, "location": {"lat": 25.913294182728833, "lng": 109.18805345070152}, "feature": {"sight_features": "", "sight_content": ""}}, {"title": "南花苗寨", "address": "黔东南苗族侗族自治州凯里市东南面的巴拉河畔三棵树镇南花村", "image": "", "rank": 20, "time": 2.5, "location": {"lat": 26.573079425675388, "lng": 107.98746889069089}, "feature": {"sight_features": "", "sight_content": ""}}, {"title": "铁溪自然风景区", "address": "黔东南苗族侗族自治州镇远县城北部", "image": "", "rank": 21, "time": 2.5, "location": {"lat": 27.054820913900503, "lng": 108.43658077263082}, "feature": {"sight_features": "特色1 国家重点风景名胜区舞阳河十大景区之一，被誉为 “云贵高原小九寨”。", "sight_content": "铁溪又名铁山溪，是国家重点风景名胜区氵舞阳河十大景区之一，位于镇远县城北面4—14公里，总面积50平方公里，全长21公里，其中核心景区游览线路全长12公里，整个铁溪景区分别由甘溪、马路河、龙池、龙塘河、翁仲河5个地段组成。\n景区内峡谷幽深，河床狭窄，河水湍急，岸壁陡峭，茂林覆盖，石巨、浅滩，溶洞星落棋布，还有名闻遐迩的“龙池”，龙池面积300平方米，水呈蓝色，深不可测，有绝壁奇峰崖台多处，小桥流水“桃花源”似的田园村庄显现其间，人与自然高度和谐。是具有娱乐、疗养、田园风光、农家乐等为一体的多种功能生态休闲旅游度假示范区。\n铁溪气候宜人，风景独秀，古往今来，吸引了无数达官显贵、名人雅士、学者和专家为之寻幽觅胜，吟诗记游。明弘治二年（1489年）思南知府祁顺在《铁溪游记》写道：“镇远多佳山水，其去廓而近者，铁溪为甚，士大夫南迂多游焉，或不得游而恨者矣！”\n清代著名文学家吴敬梓也被铁溪当地的苗民风俗和自然风光所吸引，将“铁溪龙神嫁妹”的故事编入到《儒林外史》第四十三回中。"}}, {"title": "拦门酒", "address": "黔东南苗族侗族自治州雷山县西江镇南贵村", "image": "", "rank": 22, "time": 2, "location": {"lat": 26.49508063853721, "lng": 108.16668089826216}, "feature": {"sight_features": "", "sight_content": ""}}, {"title": "西江夜景", "address": "黔东南苗族侗族自治州雷山县东北，西江千户苗寨内", "image": "", "rank": 23, "time": 1.0, "location": {"lat": 26.50127590770845, "lng": 108.17917357279882}, "feature": {"sight_features": "", "sight_content": ""}}, {"title": "镇远石屏山", "address": "黔东南苗族侗族自治州镇远县", "image": "", "rank": 24, "time": 2.5, "location": {"lat": 27.054820913900503, "lng": 108.43658077263082}, "feature": {"sight_features": "特色1 镇远古城制高点，石屏山顶可以望尽镇远古镇的全景，狭长幽深的古巷尽收眼底。", "sight_content": "石屏山位于贵州省镇远县舞阳镇舞阳河东侧，属祁连山系，重岩叠障，雄伟 险峻。东西绵延2.2公里，主峰海拔668.1米，与舞阳河面相对高差204米。\n石屏山面城一面的北山，象一个大屏风，竖立在山中。石崖绝壁高千仞，“端直苍阔如屏风”，因此得名。\n在石屏山的南麓，古色古香的明清四和院建筑群体如波叠涌，同自山顶到山脚的府城垣、四官殿、天后宫等省级重点文物保护单位、火神庙、文庙、邹公祠、苏公馆、北极宫、紫皇阁、青狮洞以及众多的古巷道、古井泉、古码头等几十个县级文物保护单位参差坐落于一起，组成一个庞大的古建筑群落。\n镇远府城垣,位于镇远县城北石屏山山顶上,建于明代初期。府城垣北跨石屏山顶几个山头,东起于石屏山东段的悬崖之顶,顺山势起伏延伸向西直至天后宫西侧下石屏山西段南麓至水北岸。南临水,以水为天然屏障。人称:“屏山为城,水为池,金汤之固,其无逾于斯乎”。专家考证后誉为“南国苗疆的塞外长城”。‍‍‍‍"}}, {"title": "剑河", "address": "贵州省黔东南苗族侗族自治州剑河县南寨乡", "image": "", "rank": 25, "time": 0.9, "location": {"lat": 26.63214622828232, "lng": 108.77523357577665}, "feature": {"sight_features": "", "sight_content": ""}}, {"title": "车江三宝侗寨", "address": "黔东南苗族侗族自治州榕江县308省道西50米", "image": "", "rank": 26, "time": 3.0, "location": {"lat": 25.953293945066694, "lng": 108.45082430479232}, "feature": {"sight_features": "", "sight_content": ""}}, {"title": "贵州高过河风景名胜区", "address": "黔东南州镇远县县城以东", "image": "", "rank": 27, "time": null, "location": {"lat": 27.054820913900503, "lng": 108.43658077263082}, "feature": {"sight_features": "特色1 体验刺激的高过河漂流，还可感受高过河两岸令人流连忘返、拍案叫绝的峡谷景观。", "sight_content": "高过河自然风景区是一个鲜为人知而又充满野趣神韵的旅游处女地，在贵州省黔东南苗族侗族自治州镇远县境内，位于镇远境内的西北羊场镇与尚寨乡交界处的洞塘，风景区所处条件优越，距国家历史文化名城镇远县城30公里。这里没有现代都市的喧嚣，也没有令人生厌的工业污染，而是一处纯粹自然成就的幽地，是一块难得净土。\n\n\n高过河自然风景区是由峻岭险峰、急流险滩、流泉飞瀑、岩溶穿洞、原始森林、寺店遗址等45个景点集中组成的风景名胜区，形成了险、峻、奇、幽的景观特色。高过河风景区是一个天然植物园，保存着大量的原生常绿阔叶林。同时拥有亚热带植物区系成份和暖温带植物区系成份，是多种植物区系成份交叉荟萃的场所。这里的植物种类有400多种，有落叶的，也有常绿的。它们共处一地，济济一处，相辅相成，有花有果，五颜六色，组成了一幅壮丽幽雅的立体画面，令人迷醉，素有“森林王国”和“天然植物园”的美称，被誉为“一条会唱歌的河”。\n在三寨村一般不放言喝酒！你要知道，这三寨村是青酒集团办的，这些村民都是用青酒洗澡洗出来的，个个身怀绝技，尤其是女生，一碗高度白酒只是脖子抬一抬就没了。各位驴友练练嗓子是可以的，千万别玩真的，三寨村村姑饮酒那是当真了得！小坝三寨村距离镇上三公里，分为侗寨，苗寨、土家寨。进到三寨村，每当夜幕降临，就有篝火晚会、独特的水幕表演和浓郁的少数民族歌舞表演。"}}, {"title": "云台山", "address": "黔东南州施秉县云台山管理站", "image": "", "rank": 28, "time": 4.5, "location": {"lat": 27.109202087985203, "lng": 108.11993817203228}, "feature": {"sight_features": "特色1 新晋世界遗产地。 特色2 云台山是施秉喀斯特世界自然遗产地的重要组成部分。 特色3 景区山势独特，白云岩塔状群峰鼎立，层峦叠嶂、沟壑纵横。", "sight_content": "云台山景区距施秉县城北13公里，是600年前的佛教胜地。现保存有周公庙、徐公殿及诸多摩崖石刻景点。景区由云台山、外营台、轿顶山及大田垴等群峰组成。面积约210平方公里，主要有云台山主峰、拜经石、道庵井、印头阁、野牛洞、盘藤道、笔架山、老虎背、徐公殿、周公殿、渡云桥等24个景点。主峰团仑岩海拔1066米，突起于群山之间，因山形“四面削成，独出于云霄之半”，山巅如台，加之云雾缭绕，故名云台山。\n据清康熙《贵州通志》卷6“山川”所载，云台山“独立于万山中”，“不连岗，不属岭，屹然天柱”，山顶“平行可数百亩”，“群峦拱代如儿孙”。明代曾建大刹，僧众多达200余人，朝山拜佛者来自四面八方，是黔东南盛极一时的佛教和旅游胜地。今仅存山门一座，明清石碑各一通。云台山以原始自然生态、天象奇观、奇峰丽水、佛教遗址、道教古刹等自然和人文景观为特色。面积47平方公里。分为云台山、排云关两大旅游片区，规划景点24处，山间珍稀等植物近400种，珍贵等动物近百种，被称为“植物宝盆、动物宝库”，是贵州东线探险寻幽的旅游宝地。"}}, {"title": "古巷道", "address": "贵州省黔东南苗族侗族自治州镇远县", "image": "", "rank": 29, "time": 2, "location": {"lat": 27.054820913900503, "lng": 108.43658077263082}, "feature": {"sight_features": "", "sight_content": ""}}, {"title": "雷公山", "address": "黔东南市雷山县境内雷毛公路7公里处", "image": "", "rank": 30, "time": 3.5, "location": {"lat": 26.384205121689497, "lng": 108.08452891457038}, "feature": {"sight_features": "", "sight_content": ""}}, {"title": "台江", "address": "黔东南苗族侗族自治州台江县", "image": "", "rank": 31, "time": 1.0, "location": {"lat": 26.672372539642534, "lng": 108.32855163000316}, "feature": {"sight_features": "", "sight_content": ""}}, {"title": "镇远展览馆", "address": "黔东南苗族侗族自治州镇远县舞阳镇顺城街，县政府办公楼旁", "image": "", "rank": 32, "time": 1.0, "location": {"lat": 27.056451036461265, "lng": 108.43777102743114}, "feature": {"sight_features": "", "sight_content": ""}}, {"title": "镇远府城垣", "address": "黔东南苗族侗族自治州镇远县城北石屏山山顶", "image": "", "rank": 33, "time": 0.75, "location": {"lat": 27.054820913900503, "lng": 108.43658077263082}, "feature": {"sight_features": "", "sight_content": ""}}, {"title": "肇兴鼓楼群", "address": "黔东南苗族侗族自治州黎平县肇兴乡", "image": "", "rank": 34, "time": 2.5, "location": {"lat": 25.913294182728833, "lng": 109.18805345070152}, "feature": {"sight_features": "", "sight_content": ""}}, {"title": "龙潭", "address": "黔东南苗族侗族自治州镇远县铁溪景区内", "image": "", "rank": 35, "time": 0.25, "location": {"lat": 27.056699489906492, "lng": 108.43748599509291}, "feature": {"sight_features": "", "sight_content": ""}}, {"title": "隆里古城", "address": "黔东南苗族侗族自治州锦屏县隆里乡二零二省道旁边", "image": "", "rank": 36, "time": 3.5, "location": {"lat": 26.425080323697816, "lng": 109.10858658212736}, "feature": {"sight_features": "", "sight_content": ""}}, {"title": "地扪侗寨", "address": "黔东南苗族侗族自治州黎平县茅贡乡地扪村", "image": "", "rank": 37, "time": 1.0, "location": {"lat": 26.18010678519404, "lng": 108.86777843679147}, "feature": {"sight_features": "", "sight_content": ""}}, {"title": "大利侗寨", "address": "黔东南州榕江县栽麻乡大利村", "image": "", "rank": 38, "time": 7.5, "location": {"lat": 26.043599286360184, "lng": 108.64917573711223}, "feature": {"sight_features": "", "sight_content": ""}}, {"title": "小黄侗寨", "address": "黔东南苗族侗族自治州从江县高增乡小黄村", "image": "", "rank": 39, "time": 3.0, "location": {"lat": 25.877762037679478, "lng": 108.98196560651857}, "feature": {"sight_features": "", "sight_content": ""}}, {"title": "翘街", "address": "黔东南苗族侗族自治州黎平县德凤镇", "image": "", "rank": 40, "time": 1.5, "location": {"lat": 26.235652974770467, "lng": 109.14409832636657}, "feature": {"sight_features": "", "sight_content": ""}}, {"title": "下舞阳河景区", "address": "黔东南苗族侗族自治州镇远县", "image": "", "rank": 41, "time": 2, "location": {"lat": 27.054820913900503, "lng": 108.43658077263082}, "feature": {"sight_features": "", "sight_content": ""}}, {"title": "从江鼓楼", "address": "黔东南苗族侗族自治州从江县平瑞村202省道旁", "image": "", "rank": 42, "time": 0.25, "location": {"lat": 25.802733766418797, "lng": 108.96098502917016}, "feature": {"sight_features": "", "sight_content": ""}}, {"title": "丹寨", "address": "黔东南苗族侗族自治州丹寨县", "image": "", "rank": 43, "time": 3.0, "location": {"lat": 26.20442116986921, "lng": 107.7955134897186}, "feature": {"sight_features": "", "sight_content": ""}}, {"title": "镇远古城水上游", "address": "黔东南苗族侗族自治州镇远县步行街县委对面禹门码头", "image": "", "rank": 44, "time": 1.0, "location": {"lat": 27.054457118705596, "lng": 108.43481450816819}, "feature": {"sight_features": "特色1 乘画舫，观古城", "sight_content": "镇远县位于贵州东部，属黔东南苗族侗族自治州。从地图上看，东邻的湖南湘西中部有一凸出部分，恰像一个楔子，插入贵州东部凹处。\n镇远县就处在这个凸凹结合部上。不知哪朝哪代哪位先生称镇远为\"湘黔门户\"，确是慧眼独具。全县东西长85公里，南北宽60公里，东部狭长而西部较宽，略呈三角状，总幅员面积为1878平方公里（合285万亩），东面与湖南新晃接壤；东北部与本省玉屏县相连；西邻旋秉；南界剑河、三穗；北连岑巩、石阡。地形为南北高中间低、由西北向东南倾斜，属贵州高原向湘西丘陵过渡的斜坡地带。\n古老而美丽的舞阳河像\"太极图\"旋绕在府卫两城中间，两座大石拱桥像两条纽带横架河上，连结两城。镇远自古为由湘楚人夜郎舍舟登陆要冲，也是京城与西南边陲以及安南、缅甸、暹罗、印度等国礼物献赠和信使往还的捷径和必经之地，有\"南方丝绸之路\"要津之美称。"}}, {"title": "鼓藏堂", "address": "西江千户苗寨景区内", "image": "", "rank": 45, "time": 2, "location": {"lat": 26.495216744654694, "lng": 108.18052611996406}, "feature": {"sight_features": "", "sight_content": ""}}, {"title": "酿酒坊", "address": "西江千户苗寨景区内", "image": "", "rank": 46, "time": 2, "location": {"lat": 26.495216744654694, "lng": 108.18052611996406}, "feature": {"sight_features": "", "sight_content": ""}}, {"title": "中共镇远支部旧址", "address": "镇远卫城西门街“周公馆”内", "image": "", "rank": 47, "time": 2, "location": {"lat": 27.05050126635605, "lng": 108.42400393944416}, "feature": {"sight_features": "", "sight_content": ""}}, {"title": "季刀苗寨", "address": "黔东南州凯里市三棵树镇", "image": "", "rank": 48, "time": 2.5, "location": {"lat": 26.55861797659987, "lng": 108.09738919907754}, "feature": {"sight_features": "", "sight_content": ""}}, {"title": "周达文故居", "address": "镇远县古城南门街，南门沟农贸市场旁边", "image": "", "rank": 49, "time": 1.5, "location": {"lat": 27.054305096214346, "lng": 108.43067710882119}, "feature": {"sight_features": "", "sight_content": ""}}, {"title": "台江翁密河漂流", "address": "贵州省台江县翁密河漂流风景区。", "image": "", "rank": 50, "time": 2.5, "location": {"lat": 26.492707323244293, "lng": 108.47916225040072}, "feature": {"sight_features": "", "sight_content": ""}}, {"title": "麻塘革家寨", "address": "黔东南苗族侗族自治州凯里市龙场镇麻塘寨", "image": "", "rank": 51, "time": 1.5, "location": {"lat": 26.669674798006447, "lng": 107.92690504609254}, "feature": {"sight_features": "", "sight_content": ""}}, {"title": "野洞河", "address": "黔东南苗族侗族自治州黄平县野洞河乡境内", "image": "", "rank": 52, "time": 1.5, "location": {"lat": 26.87456438453246, "lng": 107.86822228287556}, "feature": {"sight_features": "", "sight_content": ""}}, {"title": "地坪风雨桥", "address": "黔东南苗族侗族自治州黎平县地坪乡", "image": "", "rank": 53, "time": 0.5, "location": {"lat": 25.76931919510371, "lng": 109.24808562509921}, "feature": {"sight_features": "", "sight_content": ""}}, {"title": "报京侗寨", "address": "黔东南苗族侗族自治州镇远县", "image": "", "rank": 54, "time": 2.0, "location": {"lat": 27.054820913900503, "lng": 108.43658077263082}, "feature": {"sight_features": "", "sight_content": ""}}, {"title": "苹果山公园", "address": "黔东南苗族侗族自治州凯里市洗马河街道北京路46号附近", "image": "", "rank": 55, "time": 1.0, "location": {"lat": 26.589334382904024, "lng": 107.98954631919902}, "feature": {"sight_features": "", "sight_content": ""}}, {"title": "高要梯田", "address": "黔东南苗族侗族自治州丹寨县高要村", "image": "", "rank": 56, "time": 2, "location": {"lat": 26.1496610054396, "lng": 107.84261771025507}, "feature": {"sight_features": "", "sight_content": ""}}, {"title": "黎平会议会址", "address": "黔东南苗族侗族自治州黎平县城德凤镇二郎坡52号", "image": "", "rank": 57, "time": 0.75, "location": {"lat": 26.23809973440152, "lng": 109.14653691501164}, "feature": {"sight_features": "", "sight_content": ""}}, {"title": "三门塘", "address": "黔东南天柱县坌处镇", "image": "", "rank": 58, "time": null, "location": {"lat": 26.7803538514337, "lng": 109.30665299468534}, "feature": {"sight_features": "", "sight_content": ""}}, {"title": "镇江阁", "address": "黔东南苗族侗族自治州镇远县", "image": "", "rank": 59, "time": 0.15000000000000002, "location": {"lat": 27.054820913900503, "lng": 108.43658077263082}, "feature": {"sight_features": "", "sight_content": ""}}, {"title": "玉屏山", "address": "黔东南苗族侗族自治州镇远县", "image": "", "rank": 60, "time": 3.5, "location": {"lat": 27.054820913900503, "lng": 108.43658077263082}, "feature": {"sight_features": "", "sight_content": ""}}]}