{"cityName": "迁安", "days": 2, "cityImage": "", "spots": [{"title": "山叶口景区", "address": "迁安市大五里乡山叶口村", "image": "", "rank": 1, "time": 3.5, "location": {"lat": 39.98843108346287, "lng": 118.53893224204288}, "feature": {"sight_features": "特色1 融地质文化、民俗特色于一体。 特色2 被喻为全息太古时代地质地貌档案馆。 特色3 它以优美的峡谷溪流、山石林地、山顶湖泊为自然景观。", "sight_content": "山叶口景区座落于迁安市西部大五里乡山叶口村，总面积14平方公里，它以优美的峡谷溪流、山石林地、山顶湖泊为自然景观，融地质文化、民俗特色于一体，这里有景色奇特的砾石风光、丰富完整的太古地貌，这里被地质学家誉为“全息太古时代地质地貌档案馆”。山叶口景区始建于2007年，景区定位为集休闲、体验、观光、娱乐为一体的生态旅游区，是国家aa级景区，是迁安国家地质公园的重要组成部分。迁安通过新农村建设、旅游开发以及科学发展示范村创建的相结合的方式，按照以旅游促增收的目标，鼓励、带动群众大力发展富有特色的乡村农家餐馆、旅馆，对符合标准的农家餐馆的工作人员进行集中培训，提高服务质量和接待水平。\n景区水资源丰富，山泉从海拔1800米处涌出，奔崖跌谷，流长10余里，形成无数个清潭飞瀑，十分壮观。徜徉于黑山大峡谷，身心皆舒畅，脚踩青石板铺就的歩游路，耳听鸟语，鼻闻花香，最沁人心脾，让人陶醉的就是一直伴随左右，不离不弃的潺潺溪水，时而婉转回折，时而奔宕起伏，清澈的水流淌在光滑的岩石上，还有一抹抹的藓苔点缀其中，此乃黑山大峡谷的独特景色。山叶口景区属于国家地质公园、河北省级森林公园山叶口景区坐落于河北省迁安市西部大五里乡山叶口村，总面积14平方公里，森林覆盖率达69%以上。交通便捷，东距秦皇岛100公里，南距京沈高速32公里，西距北京200公里。 形成于18亿年前的五彩石颜色绚丽，似鸟似兽，鬼斧神工，令人叹为观止；更有树龄高达1200余年的六股神松，傲然卓立，龙卷云海，实属人间一绝。\n山叶口景区，三面环山，经地质专家考证，遍地的五彩石是38.5亿年前远古海底的鹅卵石、泥沙在高温高压下，又经过地壳运动形成，有“海底五彩琥珀”的美称。其中的比目鱼石形象生动逼真，独存一眼、断尾而立。奇树“六股神松”树龄已逾千年，一根生六股、十四杈、二十八枝，虬枝苍劲，四季葱郁。罕见的海底地貌，塑造了山叶口独特的地质和自然景观。奇特的地质构造、怡人的生态环境、美丽的民间传说吸引了八方游客。山叶口四季分明，季季有景，景景迷人。三四月份，冰雪消融，松针吐绿，尽享踏青寻春的乐趣；五月伊始，杜鹃花悄然绽放，山顶花园亦真亦幻；六月花盛，花海如潮，香飘满山，迷醉其中，乐不思蜀；七八月份，呼伴唤友，漫步于天然云罗伞下，听松涛阵阵、闻百鸟齐鸣、踏清流飞涧、赏千古奇石，丝丝凉意，沁人心脾；九月十月，百果飘香，红叶为衬，让您深刻领略“金秋采栗实，橡林赏红叶”的乐趣；冬雪悄至，云纱罩松，空谷足音，真可谓“瘦石寒梅共结邻，亭亭不改四时春。须知傲雪凌霜质，不是繁华队里身”！"}}, {"title": "白羊峪长城旅游区", "address": "唐山市迁安市大崔庄镇白羊峪村", "image": "", "rank": 2, "time": 3.0, "location": {"lat": 40.19971293023345, "lng": 118.73183049016896}, "feature": {"sight_features": "", "sight_content": ""}}, {"title": "灵山风景区", "address": "唐山市迁安市大五里乡山叶口村", "image": "", "rank": 3, "time": 3.0, "location": {"lat": 39.98843108346287, "lng": 118.53893224204288}, "feature": {"sight_features": "", "sight_content": ""}}, {"title": "龙山公园", "address": "唐山市迁安市大五里乡山叶口村", "image": "", "rank": 4, "time": 2, "location": {"lat": 39.98843108346287, "lng": 118.53893224204288}, "feature": {"sight_features": "", "sight_content": ""}}, {"title": "塔寺峪", "address": "唐山市迁安市大五里乡上庄子村", "image": "", "rank": 5, "time": 2, "location": {"lat": 39.97452238602845, "lng": 118.87931274820319}, "feature": {"sight_features": "特色1 同时具备自然景观和人文景致 特色2 动植物资源丰富，山形奇特，峡谷幽静", "sight_content": "塔寺峪景区位于河北省迁安市大五里乡境内，地处迁安市、迁西县的交界地带。距市政府所在地迁安市区 23.3 公里。迁安塔寺峪景区由迁安市塔寺峪旅游开发有限公司开发建设。塔寺峪景区占地面积5000亩。森林保护区面积90万平方米，山桔、花椒、杜鹃、高山寒杨等植物200多种。漫山遍野的板栗、核桃、秋子、梨树共计2万多棵。野鸡、猫头鹰、狐狸等动物百余种。动植物资源丰富，山形奇特，峡谷幽静，佛寺久远，犹如世外桃源。天造地设的自然景观与耐人寻味的人文景致，包容着久远的历史沧桑和深厚的文化底蕴。有千年古刹九龙寺，还有16条沟、18道岭、18个天然洞等自然景观，山体景观多种多样，高峰、山谷、峭壁令人向往，植被覆盖率高且植物物类丰富。大面积的果园和部分农田，有田园品味。自然环境优美，动植物生长良好，山林资源丰富，生态系统良好。"}}, {"title": "红峪山庄长城溶洞风景区", "address": "唐山市迁安市五重安乡红峪口村北", "image": "", "rank": 6, "time": 2.5, "location": {"lat": 40.24343365358526, "lng": 118.62934689014769}, "feature": {"sight_features": "", "sight_content": ""}}, {"title": "黄台山公园", "address": "唐山市迁安市阜安大路", "image": "", "rank": 7, "time": 2, "location": {"lat": 40.01254764964643, "lng": 118.69577715033962}, "feature": {"sight_features": "", "sight_content": ""}}, {"title": "迁安市冷口东河漂流", "address": "冷口村", "image": "", "rank": 8, "time": 2, "location": {"lat": 34.761617798185256, "lng": 103.34363157476697}, "feature": {"sight_features": "", "sight_content": ""}}, {"title": "成山旅游区", "address": "唐山市迁安市太平庄乡尚庄村西500米", "image": "", "rank": 9, "time": 1.5, "location": {"lat": 39.938006463423676, "lng": 118.4846228746903}, "feature": {"sight_features": "", "sight_content": ""}}, {"title": "挂云山风景区", "address": "唐山市迁安市大五里乡王家湾子村西", "image": "", "rank": 10, "time": 2.5, "location": {"lat": 40.03313339394758, "lng": 118.50823240779859}, "feature": {"sight_features": "特色1 登巍巍高山，听潺潺流水，品世外桃源", "sight_content": "挂云山景区位于河北省迁安市大五里乡境内\n景区最高峰—云顶海拔639米,景区内“原始山林，奇花异草、峰峦叠嶂、山泉环绕”，加之“雨后常有云雾缭绕其上”，故此得名挂云山。在这里，可以登巍巍高山，听潺潺流水，品世外桃源。"}}, {"title": "果丰生态采摘园", "address": "迁徐线288乡", "image": "", "rank": 11, "time": 2, "location": {"lat": 40.078354057182594, "lng": 118.84391794536354}, "feature": {"sight_features": "", "sight_content": ""}}, {"title": "吉祥岛", "address": "杨各庄镇青山院村东", "image": "", "rank": 12, "time": 2, "location": {"lat": 40.074441588566685, "lng": 118.83837100046661}, "feature": {"sight_features": "", "sight_content": ""}}, {"title": "沙河驿垂钓园(南门)", "address": "102国道附近", "image": "", "rank": 13, "time": 2.0, "location": {"lat": 39.9583743375638, "lng": 116.91102159370762}, "feature": {"sight_features": "", "sight_content": ""}}, {"title": "华农发展", "address": "包各庄村", "image": "", "rank": 14, "time": 2, "location": {"lat": 40.09866634022426, "lng": 118.89610425208402}, "feature": {"sight_features": "", "sight_content": ""}}, {"title": "佳源牧业骑马场", "address": "隔滦河村", "image": "", "rank": 15, "time": 2, "location": {"lat": 40.14333376597914, "lng": 118.6637578553182}, "feature": {"sight_features": "", "sight_content": ""}}, {"title": "桃子采摘", "address": "建昌营教场沟旅游路西行500米", "image": "", "rank": 16, "time": 2, "location": {"lat": 40.18617364183429, "lng": 118.76309667998645}, "feature": {"sight_features": "", "sight_content": ""}}, {"title": "塞罕塔", "address": "河北省围场县塞罕塔风景区 068450", "image": "", "rank": 17, "time": 2, "location": {"lat": 42.33307255812383, "lng": 117.46303840894883}, "feature": {"sight_features": "", "sight_content": ""}}, {"title": "木兰围场滑雪场", "address": "河北省围场县塞罕坝国家森林公园内 068450", "image": "", "rank": 18, "time": 2, "location": {"lat": 42.395362684820284, "lng": 117.39344857651547}, "feature": {"sight_features": "", "sight_content": ""}}, {"title": "六郎拴马槐", "address": "河北省文安县武各庄村东北角 065800", "image": "", "rank": 19, "time": 2, "location": {"lat": 38.878950493070235, "lng": 116.46460947899904}, "feature": {"sight_features": "", "sight_content": ""}}, {"title": "迁安市大五里乡基督教会", "address": "大莲线附近", "image": "", "rank": 20, "time": 2, "location": {"lat": 22.35904980119962, "lng": 113.23602526160953}, "feature": {"sight_features": "", "sight_content": ""}}, {"title": "滦河", "address": "迁安市野鸡坨镇与滦县东安各庄镇交界处", "image": "", "rank": 21, "time": 2.0, "location": {"lat": 39.914103587815724, "lng": 118.67463460580592}, "feature": {"sight_features": "", "sight_content": ""}}, {"title": "风度生活(杨柏线)", "address": "102国道南50米", "image": "", "rank": 22, "time": 2, "location": {"lat": 39.95802867757187, "lng": 116.91102159370762}, "feature": {"sight_features": "", "sight_content": ""}}, {"title": "骑马场", "address": "大五里乡迎宾路北", "image": "", "rank": 23, "time": 2, "location": {"lat": 39.99046721657609, "lng": 118.5355045678271}, "feature": {"sight_features": "", "sight_content": ""}}, {"title": "坝上红山军马场", "address": "河北省围场县木兰围场 068450", "image": "", "rank": 24, "time": 4.5, "location": {"lat": 42.32608578468671, "lng": 117.50118495781989}, "feature": {"sight_features": "", "sight_content": ""}}, {"title": "万嘉水上乐园", "address": "万嘉商贸园小百区西北角(三高中东十字路口北行200米路东)", "image": "", "rank": 25, "time": 2, "location": {"lat": 41.829963796421254, "lng": 123.4196110729932}, "feature": {"sight_features": "", "sight_content": ""}}, {"title": "宝宝游乐园", "address": "唐山市迁安市", "image": "", "rank": 26, "time": 2, "location": {"lat": 40.00418392493125, "lng": 118.70645736056483}, "feature": {"sight_features": "", "sight_content": ""}}, {"title": "迁安市石佛寺", "address": "河北省唐山市迁安市钢城路", "image": "", "rank": 27, "time": 1.5, "location": {"lat": 39.997284633893145, "lng": 118.62952748638571}, "feature": {"sight_features": "", "sight_content": ""}}, {"title": "石佛古寺", "address": "河北省唐山市迁安市钢城西路", "image": "", "rank": 28, "time": 1.5, "location": {"lat": 39.99192607943334, "lng": 118.60455295469906}, "feature": {"sight_features": "", "sight_content": ""}}, {"title": "回民公园", "address": "河北省唐山市迁安市福田路建昌营镇回民小学东南350米", "image": "", "rank": 29, "time": 2, "location": {"lat": 40.15052396577779, "lng": 118.80801990369247}, "feature": {"sight_features": "", "sight_content": ""}}, {"title": "大风车儿童乐园（兴宝店）", "address": "兴宝大百货四楼", "image": "", "rank": 30, "time": 2, "location": {"lat": 40.020836329433074, "lng": 118.71011503692338}, "feature": {"sight_features": "", "sight_content": ""}}, {"title": "大风车儿童乐园（北购店）", "address": "兴安大街北购商场六楼北侧", "image": "", "rank": 31, "time": 2, "location": {"lat": 40.020103865733766, "lng": 118.70613046539313}, "feature": {"sight_features": "", "sight_content": ""}}, {"title": "额吉纳", "address": "其他金三元街40号(随遇宾馆对面)", "image": "", "rank": 32, "time": 2, "location": {"lat": 38.91511254770373, "lng": 121.63138217768314}, "feature": {"sight_features": "", "sight_content": ""}}, {"title": "佛善阁", "address": "河北省唐山市迁安市京哈高速公路沙河驿镇农贸市场附近", "image": "", "rank": 33, "time": 2, "location": {"lat": 39.797998674465596, "lng": 118.26063217891374}, "feature": {"sight_features": "", "sight_content": ""}}, {"title": "关帝庙", "address": "河北省唐山市迁安市大五里乡迎宾路关帝庙(山叶口景区旁)", "image": "", "rank": 34, "time": 0.5, "location": {"lat": 39.99345595873765, "lng": 118.53108268500509}, "feature": {"sight_features": "", "sight_content": ""}}, {"title": "志华民俗博物馆", "address": "惠宁大街1737号附近", "image": "", "rank": 35, "time": 2, "location": {"lat": 40.01441842007483, "lng": 118.7173359435958}, "feature": {"sight_features": "", "sight_content": ""}}, {"title": "硕果儿童乐园", "address": "兴安大街北侧摩点蛋糕店北行10米三楼", "image": "", "rank": 36, "time": 2, "location": {"lat": 38.03242249030786, "lng": 114.6656318093974}, "feature": {"sight_features": "", "sight_content": ""}}, {"title": "大风车儿童乐园（乐购店）", "address": "汇西路乐购天地1楼", "image": "", "rank": 37, "time": 2, "location": {"lat": 40.016644007123304, "lng": 118.70811500372238}, "feature": {"sight_features": "", "sight_content": ""}}, {"title": "好起点儿童乐园", "address": "祺福大街南200米", "image": "", "rank": 38, "time": 2, "location": {"lat": 40.02570008001377, "lng": 118.70421810591161}, "feature": {"sight_features": "", "sight_content": ""}}, {"title": "青年广场", "address": "河北省唐山市迁安市大五里乡迎宾路山叶口景区", "image": "", "rank": 39, "time": 2, "location": {"lat": 39.991012298141, "lng": 118.53320637355276}, "feature": {"sight_features": "", "sight_content": ""}}, {"title": "佛善阁", "address": "河北省唐山市迁安市帝景豪庭81号楼底商", "image": "", "rank": 40, "time": 2, "location": {"lat": 39.998095248762006, "lng": 118.7201132212664}, "feature": {"sight_features": "", "sight_content": ""}}, {"title": "迁安地志博物馆(钢城大街)", "address": "钢城大街北50米迁安博物馆", "image": "", "rank": 41, "time": 2, "location": {"lat": 36.073283677475395, "lng": 117.84468773228869}, "feature": {"sight_features": "", "sight_content": ""}}, {"title": "龙湾游艇俱乐部长城国家公园", "address": "惠泉大街2122号附近", "image": "", "rank": 42, "time": 2, "location": {"lat": 40.007916756952255, "lng": 118.71572776563113}, "feature": {"sight_features": "", "sight_content": ""}}, {"title": "亲亲开心乐园", "address": "兴安街道兴安大街东之美三楼", "image": "", "rank": 43, "time": 2, "location": {"lat": 22.817913554766232, "lng": 113.6792612769055}, "feature": {"sight_features": "", "sight_content": ""}}, {"title": "馨园", "address": "燕山大街与惠泉大街交汇处附近", "image": "", "rank": 44, "time": 2, "location": {"lat": 40.0274129205914, "lng": 118.71151868329969}, "feature": {"sight_features": "", "sight_content": ""}}, {"title": "荷香园", "address": "102国道北50米", "image": "", "rank": 45, "time": 2, "location": {"lat": 39.95871999579458, "lng": 116.91102159370762}, "feature": {"sight_features": "", "sight_content": ""}}, {"title": "君合广场儿童游乐场", "address": "迁安红星美凯龙西侧", "image": "", "rank": 46, "time": 2, "location": {"lat": 40.00418392493125, "lng": 118.70645736056483}, "feature": {"sight_features": "", "sight_content": ""}}, {"title": "中國嵩山少林寺迁安市少林禅武文...", "address": "汇元路24", "image": "", "rank": 47, "time": 2, "location": {"lat": 44.19339948627609, "lng": 87.71912519882582}, "feature": {"sight_features": "", "sight_content": ""}}, {"title": "成山米尔山庄", "address": "河北省唐山市迁安市", "image": "", "rank": 48, "time": 2, "location": {"lat": 40.00418392493125, "lng": 118.70645736056483}, "feature": {"sight_features": "", "sight_content": ""}}, {"title": "三里河生态走廊", "address": "祺光路东50米", "image": "", "rank": 49, "time": 2, "location": {"lat": 40.032975028108766, "lng": 118.62975074944055}, "feature": {"sight_features": "", "sight_content": ""}}, {"title": "常青园", "address": "河北省唐山市迁安市祺福大街1268号", "image": "", "rank": 50, "time": 2, "location": {"lat": 40.02703714748026, "lng": 118.71204938944342}, "feature": {"sight_features": "", "sight_content": ""}}, {"title": "三里河公园", "address": "丰乐大路与祺光大街交叉口西150米", "image": "", "rank": 51, "time": 2.0, "location": {"lat": 40.03086509918701, "lng": 118.71532889283216}, "feature": {"sight_features": "", "sight_content": ""}}, {"title": "白云度假村", "address": "蓝海实业附近", "image": "", "rank": 52, "time": 2, "location": {"lat": 38.82425129845651, "lng": 115.49002588376067}, "feature": {"sight_features": "", "sight_content": ""}}, {"title": "众购广场", "address": "河北省唐山市迁安市迁安镇兴安大街众购商场(东购商场南)", "image": "", "rank": 53, "time": 2, "location": {"lat": 40.02077632805525, "lng": 118.70788319149402}, "feature": {"sight_features": "", "sight_content": ""}}, {"title": "迁安博物馆(花园街)", "address": "河北省唐山市迁安市钢城大街与丰庆路交叉口", "image": "", "rank": 54, "time": 2, "location": {"lat": 40.0027921628434, "lng": 118.72392282713756}, "feature": {"sight_features": "", "sight_content": ""}}, {"title": "民乡植物园", "address": "迁徐线", "image": "", "rank": 55, "time": 2, "location": {"lat": 40.078354057182594, "lng": 118.84391794536354}, "feature": {"sight_features": "", "sight_content": ""}}, {"title": "建昌营镇前窝子村图书室", "address": "252省道", "image": "", "rank": 56, "time": 2.0, "location": {"lat": 40.357909355104375, "lng": 118.90873123767143}, "feature": {"sight_features": "", "sight_content": ""}}, {"title": "迁安市规划展馆", "address": "钢城大街东段会展中心内", "image": "", "rank": 57, "time": 2, "location": {"lat": 36.07291902614001, "lng": 117.84468773228869}, "feature": {"sight_features": "", "sight_content": ""}}, {"title": "凝聚斋画廊", "address": "燕山北路541号", "image": "", "rank": 58, "time": 2, "location": {"lat": 40.025884574076926, "lng": 118.71134980186383}, "feature": {"sight_features": "", "sight_content": ""}}, {"title": "中国眼镜文化博物馆", "address": "虹桥亮点街", "image": "", "rank": 59, "time": 2, "location": {"lat": 40.020450480594604, "lng": 118.70964032647834}, "feature": {"sight_features": "", "sight_content": ""}}, {"title": "3D魔幻艺术展(东安商场店)", "address": "兴安大街东安商场西外侧老圆梦三楼", "image": "", "rank": 60, "time": 2, "location": {"lat": 40.01967449077594, "lng": 118.71157946534541}, "feature": {"sight_features": "", "sight_content": ""}}]}