{"cityName": "潜山", "days": 2, "cityImage": "", "spots": [{"title": "天柱山", "address": "安庆市潜山县天柱山路112号", "image": "", "rank": 1, "time": 4.5, "location": {"lat": 30.642530663205676, "lng": 116.5737707560966}, "feature": {"sight_features": "特色1 观雄峰、怪石、奇洞、云海，领略“古南岳”绝美风光。", "sight_content": "天柱山（世界地质公园）的自然景观令人叹为观止。峰无不奇，石无不怪，洞无不杳，泉无不秀。“天柱一峰擎日月，洞门千仞锁云雷”，是白居易赞美天柱山的诗句；李白的“待吾还丹成，投迹归此地”。\n天柱山主要特色：一是峰雄洞幽，松奇石怪。由于超高压变质带的地质现象形成了天柱山独特的地貌奇观。无峰不雄，洞幽壑险——海拨千米以上的雄峰有45座，其中以海拨1488米的天柱主峰最为壮观，顶天立地，如一柱擎天。唐代大诗人白居易诗赞“天柱一峰擎日月，洞门千仞锁云雷”。\n号称“华夏花岗岩第一秘府”的神秘谷，神秘莫测，妙不可言。无松不奇，无石不怪——大自然的鬼斧神工为天柱山雕琢出了无数的奇松怪石，如奇松有天柱松、父子松、探海松、虬龙松等，怪石有飞来石、鹦鹉石、象鼻石、蜒蚰石，双乳石等，惟妙惟俏，栩栩如生。二是山清水秀，宜游宜居。天柱山山高水长，水资源十分丰富，水绕山转，既有飞瀑悬空，又有流水潺潺；既有激流险滩，又有高山平湖，为天柱山增添了妩媚灵秀之美。加上天柱山植被繁茂，森林覆盖率高达95%以上，负氧离子丰富，被誉为“绿色博物馆”和天然大氧巴，是人们休闲度假、修身养性的好地方。三是历史悠久，人文荟萃。天柱山由于景色秀丽，自古以来这里就是佛道两教必争的宝地。"}}, {"title": "天柱峰", "address": "安庆市潜山县天柱山景区内", "image": "", "rank": 2, "time": 4.0, "location": {"lat": 30.75863927599329, "lng": 116.55281551688097}, "feature": {"sight_features": "", "sight_content": ""}}, {"title": "炼丹湖", "address": "安庆市潜山县天柱山景区内", "image": "", "rank": 3, "time": 1.0, "location": {"lat": 30.75863927599329, "lng": 116.55281551688097}, "feature": {"sight_features": "", "sight_content": ""}}, {"title": "神秘谷", "address": "安庆市潜山县天柱山景区内", "image": "", "rank": 4, "time": 1.0, "location": {"lat": 30.75863927599329, "lng": 116.55281551688097}, "feature": {"sight_features": "", "sight_content": ""}}, {"title": "飞来峰", "address": "安庆市潜山县天柱山景区内", "image": "", "rank": 5, "time": 1.0, "location": {"lat": 30.75863927599329, "lng": 116.55281551688097}, "feature": {"sight_features": "", "sight_content": ""}}, {"title": "天龙关大峡谷", "address": "安庆市潜山县水吼镇", "image": "", "rank": 6, "time": 4.0, "location": {"lat": 30.706414255109195, "lng": 116.4047197255303}, "feature": {"sight_features": "特色1 历代兵家争此地", "sight_content": "天龙关峡谷山体酷似巨龙，峡谷景美气清，山幽瀑奇，植被保护完好，动静结合，得天地之灵 天龙大峡谷气。峡内悬崖峭壁，山势险峻，宏伟壮观。谷底奇石、瀑布、深潭、冰川遗迹众多，地质古老奇趣，奇石形象逼真，峰林险峻宏伟，瀑布雄伟壮观，森林多样神秘，古树名木奇特，奇花异草珍稀，气象变动神奇。峰、岸、岭、台、石天然雕琢，泉、潭、瀑、溪、洞秀色天成，奇石、瀑布、深潭、冰川遗迹众多，山峰有庐山之秀、泰山之宏、华山之险、黄山之奇。\n天龙关景区内森林覆盖率83.4%，空气质量达到A级水平，空气负离子浓度在10000个/cm3以上。\n\n天龙关景区内主要景观有龙角岭、天龙角、天龙口、海狮采松针、鳄鱼出海、锦鲤冲瀑、双龟戏峡、天龙潭、天书奇石等。"}}, {"title": "天柱山大峡谷", "address": "安庆市潜山县天柱山景区东南", "image": "", "rank": 7, "time": 1.5, "location": {"lat": 30.75863927599329, "lng": 116.55281551688097}, "feature": {"sight_features": "特色1 典型的原生态景区 特色2 潭水盈盈、伴有翠竹幽径 特色3 毗邻国家级风景名胜区天柱山主景区", "sight_content": "天柱大峡谷景区毗邻国家级风景名胜区天柱山主景区，位于天柱山景区环山公路的中点位置，距离天柱山主景区5公里，是游客进入天柱山主景区的必经之地。天柱大峡谷景区风光集山岳峡谷景观之大全，拥有华东九寨沟之美荣。峡谷全长3.5公里，上下落差200多米，整个峡谷由瀑布、竹海、田园、湖光四大主题组成一幅优美画卷，春夏秋冬四季风景各异，整个游程2小时左右。\n峡谷里的通天瀑落差百米，瀑宽40米，气势磅礴，堪称华东之最。峡谷内的桃源湖，青山环绕，湖水清澈见底，天柱群峰倒影，恰似仙境。天柱大峡谷--通天瀑，天柱大峡谷景区是典型的原生态景区，低碳环保，最适宜休闲自助游，整个游程不走回头路。峡谷内植被茂盛、品种繁多，步道沿溪而行，溪流宗宗，游人尽情享受 “天劈苍崖九派通，从来此地驻游龙，飞流悬沫三千尺，灌木连云几万重”。"}}, {"title": "总关寨", "address": "安庆市潜山县天柱山景区内", "image": "", "rank": 8, "time": 1.5, "location": {"lat": 30.75863927599329, "lng": 116.55281551688097}, "feature": {"sight_features": "", "sight_content": ""}}, {"title": "三祖寺", "address": "安庆市潜山县天柱山南面的凤形山上", "image": "", "rank": 9, "time": 1.0, "location": {"lat": 30.644358381709893, "lng": 116.56607434397877}, "feature": {"sight_features": "", "sight_content": ""}}, {"title": "白马潭旅游景区", "address": "安庆市潜山县水吼镇马潭村", "image": "", "rank": 10, "time": 2, "location": {"lat": 30.722676437205795, "lng": 116.36909178186843}, "feature": {"sight_features": "", "sight_content": ""}}, {"title": "天池峰", "address": "安庆市潜山县天柱山景区内", "image": "", "rank": 11, "time": 0.4, "location": {"lat": 30.75863927599329, "lng": 116.55281551688097}, "feature": {"sight_features": "", "sight_content": ""}}, {"title": "渡仙桥", "address": "安庆市潜山县天柱山景区内", "image": "", "rank": 12, "time": 0.25, "location": {"lat": 30.75863927599329, "lng": 116.55281551688097}, "feature": {"sight_features": "", "sight_content": ""}}, {"title": "安徽板仓生态旅游区", "address": "安庆市潜山县塔畈乡", "image": "", "rank": 13, "time": 5.5, "location": {"lat": 30.964042910371607, "lng": 116.55172553759323}, "feature": {"sight_features": "", "sight_content": ""}}, {"title": "天柱晴雪", "address": "安庆市潜山县天柱山景区内", "image": "", "rank": 14, "time": 0.25, "location": {"lat": 30.75863927599329, "lng": 116.55281551688097}, "feature": {"sight_features": "", "sight_content": ""}}, {"title": "西关寨", "address": "安庆市潜山县天柱山景区内", "image": "", "rank": 15, "time": 1.5, "location": {"lat": 30.75863927599329, "lng": 116.55281551688097}, "feature": {"sight_features": "", "sight_content": ""}}, {"title": "大天门", "address": "安庆市潜山县天柱山风景区", "image": "", "rank": 16, "time": 1.0, "location": {"lat": 30.740923319431094, "lng": 116.46497045228857}, "feature": {"sight_features": "", "sight_content": ""}}, {"title": "天柱山白马潭漂流", "address": "安庆市潜山县水吼镇马谭村", "image": "", "rank": 17, "time": 1.0, "location": {"lat": 30.706414255109195, "lng": 116.4047197255303}, "feature": {"sight_features": "", "sight_content": ""}}, {"title": "摩崖刻石", "address": "安庆市潜山县天柱山景区内", "image": "", "rank": 18, "time": 1.0, "location": {"lat": 30.75863927599329, "lng": 116.55281551688097}, "feature": {"sight_features": "", "sight_content": ""}}, {"title": "花峰", "address": "安庆市潜山县天柱山景区内", "image": "", "rank": 19, "time": 0.25, "location": {"lat": 30.75863927599329, "lng": 116.55281551688097}, "feature": {"sight_features": "", "sight_content": ""}}, {"title": "龙潭河", "address": "安庆市潜山县天柱山东侧", "image": "", "rank": 20, "time": 2.5, "location": {"lat": 30.644358381709893, "lng": 116.56607434397877}, "feature": {"sight_features": "", "sight_content": ""}}, {"title": "东关寨", "address": "安庆市潜山县天柱山景区内", "image": "", "rank": 21, "time": 1.5, "location": {"lat": 30.75863927599329, "lng": 116.55281551688097}, "feature": {"sight_features": "", "sight_content": ""}}, {"title": "仙桃石", "address": "安庆市潜山县天柱山景区内", "image": "", "rank": 22, "time": 2, "location": {"lat": 30.75863927599329, "lng": 116.55281551688097}, "feature": {"sight_features": "", "sight_content": ""}}, {"title": "后山景区", "address": "安庆市潜山县天柱山景区内", "image": "", "rank": 23, "time": 2.5, "location": {"lat": 30.75863927599329, "lng": 116.55281551688097}, "feature": {"sight_features": "", "sight_content": ""}}, {"title": "石牛古洞", "address": "安庆市潜山县城天柱路27号", "image": "", "rank": 24, "time": 3.0, "location": {"lat": 30.64392347641966, "lng": 116.5665144238481}, "feature": {"sight_features": "", "sight_content": ""}}, {"title": "虎头崖", "address": "安庆市潜山县天柱山景区内", "image": "", "rank": 25, "time": 2, "location": {"lat": 30.75863927599329, "lng": 116.55281551688097}, "feature": {"sight_features": "", "sight_content": ""}}, {"title": "潜山县博物馆", "address": "安庆市潜山县梅城镇皖光苑路28号", "image": "", "rank": 26, "time": 1.0, "location": {"lat": 30.64955446434596, "lng": 116.56572806067926}, "feature": {"sight_features": "", "sight_content": ""}}, {"title": "九井河", "address": "安庆市潜山县天柱山景区内", "image": "", "rank": 27, "time": 1.0, "location": {"lat": 30.75863927599329, "lng": 116.55281551688097}, "feature": {"sight_features": "", "sight_content": ""}}, {"title": "天仙峡景区", "address": "安庆市潜山县水吼镇天柱村河湾组", "image": "", "rank": 28, "time": 2.0, "location": {"lat": 30.715399370206313, "lng": 116.43636923039362}, "feature": {"sight_features": "", "sight_content": "天柱山天仙峡景区位于世界地质公园、国家级风景名胜区、国家5A级景区天柱山腹地，以打造“天仙文化”为主题，在七仙女下凡地演绎唯美的爱情故事。天仙峡景区是一个集山水风光、民俗风情、休闲娱乐、美食养生于一体的新型景区。漫步在姹紫嫣红的爱情花海，挑战惊险刺激的华东首家竹林穿越高空漂流（长度1600余米，高度落差107米），与告白喷泉呐喊互动，同会说话的古槐树交流对话，远离尘世纷扰，醉情于绿色的天然氧吧，世间最美体验莫过于此。这是一处摄影采风的绝佳地，修身静心的世外桃源。\n高空漂流始于天仙瑶池，瑶池上接落差达40余米的银河飞瀑，游客从瑶池起，顺着滑道而下，穿过一片竹林，享受着仙女下凡的惬意来到人间，与心爱的人相见。高空漂流全长1600余米，高度落差107米，是由人工架设的钢架和弧形钢化玻璃打造而成，是目前为止华东地区线路最长的高空漂流。\n天仙峡景区的花海不同于其他景区，单从花卉品种来看，景区从国内外引进了十余种不常见的花卉品种，有不少还属于南半球植物门类，游客们可以不需跨过赤道，就能欣赏到地球另一半的美景。在这里，我们可以欣赏到绣球花、欧月、紫薇花、马鞭草、醉蝶花、长春花、非洲凤仙花、百日草、果岭草等，各色花海相映成趣，五彩斑斓，只要拿出相机，不需要构图、不需要角度，每一幅都是大师级的作品。"}}, {"title": "野人寨", "address": "安庆市潜山县", "image": "", "rank": 29, "time": 2, "location": {"lat": 30.75863927599329, "lng": 116.55281551688097}, "feature": {"sight_features": "", "sight_content": ""}}, {"title": "马祖庵景区（南大门）", "address": "安庆市潜山县天柱山景区内", "image": "", "rank": 30, "time": 3.0, "location": {"lat": 30.75863927599329, "lng": 116.55281551688097}, "feature": {"sight_features": "", "sight_content": ""}}, {"title": "大龙窝景区（西大门）", "address": "安庆市潜山县天柱山景区内", "image": "", "rank": 31, "time": 0.3, "location": {"lat": 30.75863927599329, "lng": 116.55281551688097}, "feature": {"sight_features": "", "sight_content": ""}}, {"title": "船形石", "address": "安庆市潜山县虎头崖下的溪流中 ‎", "image": "", "rank": 32, "time": 20.0, "location": {"lat": 30.75863927599329, "lng": 116.55281551688097}, "feature": {"sight_features": "", "sight_content": ""}}, {"title": "白水湾景区", "address": "安庆市潜山县天柱山镇白水村", "image": "", "rank": 33, "time": 2, "location": {"lat": 30.694490899393127, "lng": 116.46318131517043}, "feature": {"sight_features": "特色1 空中会动的玻璃桥全长约200米", "sight_content": "白水湾空中会动的玻璃桥，全长约200米，高近百米，横跨山涧，站在桥上，眼前的瀑布近在咫尺， 行走其上，会因桥的细微晃动让您头晕目眩、举步维艰，害怕的让人爬着前行！\n景区内百米高悬崖秋千依山而建，当您坐在上面荡出时，身体即刻悬空,那一刹那犹如遁入空门，与世隔绝，心跳急速加快！体验命悬一线的快感与刺激。"}}, {"title": "天柱山滑雪胜地", "address": "安庆市潜山县水吼镇和平村刘垅组", "image": "", "rank": 34, "time": null, "location": {"lat": 30.77705697735105, "lng": 116.4478801198934}, "feature": {"sight_features": "", "sight_content": ""}}, {"title": "茶庄中心接待站", "address": "包含在景区门票内", "image": "", "rank": 35, "time": 2, "location": {"lat": 36.591695138571275, "lng": 114.51904664955055}, "feature": {"sight_features": "", "sight_content": ""}}, {"title": "太平寺", "address": "安庆市潜山县彰法山", "image": "", "rank": 36, "time": 1.0, "location": {"lat": 30.646142956318997, "lng": 116.57674944733714}, "feature": {"sight_features": "", "sight_content": ""}}, {"title": "二乔与胭脂井", "address": "安庆市潜山县", "image": "", "rank": 37, "time": 2, "location": {"lat": 30.75863927599329, "lng": 116.55281551688097}, "feature": {"sight_features": "", "sight_content": ""}}, {"title": "薛家岗文化遗址", "address": "安庆市潜山县南岳路 ‎", "image": "", "rank": 38, "time": 2, "location": {"lat": 30.641485989043655, "lng": 116.58180747149417}, "feature": {"sight_features": "", "sight_content": ""}}, {"title": "天宁寨", "address": "安庆市潜山县 ‎", "image": "", "rank": 39, "time": 2, "location": {"lat": 30.75863927599329, "lng": 116.55281551688097}, "feature": {"sight_features": "", "sight_content": ""}}, {"title": "张恨水陈列馆", "address": "南岳路", "image": "", "rank": 40, "time": 2, "location": {"lat": 30.442467448775933, "lng": 115.27447869833695}, "feature": {"sight_features": "", "sight_content": ""}}, {"title": "天柱山水吼观光园", "address": "安徽省潜山县水吼镇马潭村", "image": "", "rank": 41, "time": 1.0, "location": {"lat": 30.722676437205795, "lng": 116.36909178186843}, "feature": {"sight_features": "", "sight_content": ""}}, {"title": "胭脂井", "address": "安徽省安庆潜山县胭脂井", "image": "", "rank": 42, "time": 2, "location": {"lat": 30.652684040806157, "lng": 116.58418571017928}, "feature": {"sight_features": "", "sight_content": ""}}, {"title": "九曲河", "address": "仅19公里的天柱山镇茶庄村距主景区6公里", "image": "", "rank": 43, "time": 2, "location": {"lat": 30.719875613076315, "lng": 116.47717416799766}, "feature": {"sight_features": "", "sight_content": ""}}, {"title": "阿酋湾水上乐园投资发展有限公司", "address": "潜山合肥-经开-徽园繁华大道315号欢乐岛西侧", "image": "", "rank": 44, "time": 2, "location": {"lat": 31.78816090121511, "lng": 117.22340047174836}, "feature": {"sight_features": "", "sight_content": ""}}, {"title": "潜山剧场", "address": "梅苑路270号附近", "image": "", "rank": 45, "time": 1.5, "location": {"lat": 30.638907368439835, "lng": 116.58446038146185}, "feature": {"sight_features": "", "sight_content": ""}}, {"title": "青龙涧", "address": "安徽省潜山县天柱山 246300", "image": "", "rank": 46, "time": 2, "location": {"lat": 30.644358381709893, "lng": 116.56607434397877}, "feature": {"sight_features": "", "sight_content": ""}}, {"title": "许祠堂", "address": "安徽省安庆市潜山县零零二乡道", "image": "", "rank": 47, "time": 2, "location": {"lat": 30.75863927599329, "lng": 116.55281551688097}, "feature": {"sight_features": "", "sight_content": ""}}, {"title": "黄家祠堂", "address": "安庆市潜山县一零五国道", "image": "", "rank": 48, "time": 2, "location": {"lat": 30.585541757951344, "lng": 116.50717402013093}, "feature": {"sight_features": "", "sight_content": ""}}, {"title": "奇悦儿童乐园(潜山店)", "address": "潜阳路金润万家超市1楼潜阳路与舒台路交界口东北角工商行南侧", "image": "", "rank": 49, "time": 2, "location": {"lat": 30.63715510860064, "lng": 116.58654117681971}, "feature": {"sight_features": "", "sight_content": ""}}, {"title": "芙蓉庵", "address": "安徽省安庆市潜山县天柱山旅游区", "image": "", "rank": 50, "time": 0.75, "location": {"lat": 30.727220930826586, "lng": 116.46634374402338}, "feature": {"sight_features": "", "sight_content": ""}}, {"title": "潜山县肖公寺", "address": "安徽省安庆市潜山县X048", "image": "", "rank": 51, "time": 2, "location": {"lat": 30.75863927599329, "lng": 116.55281551688097}, "feature": {"sight_features": "", "sight_content": ""}}, {"title": "天柱山莲花河漂流", "address": "安徽省潜山县水吼镇 246310", "image": "", "rank": 52, "time": 1.0, "location": {"lat": 30.706414255109195, "lng": 116.4047197255303}, "feature": {"sight_features": "", "sight_content": ""}}, {"title": "潜河漂流景区", "address": "天柱山路", "image": "", "rank": 53, "time": 2, "location": {"lat": 31.216751374543996, "lng": 121.4998285391043}, "feature": {"sight_features": "", "sight_content": ""}}, {"title": "潜山县黄梅戏剧团", "address": "梅苑路270号", "image": "", "rank": 54, "time": 2, "location": {"lat": 30.638907368439835, "lng": 116.58446038146185}, "feature": {"sight_features": "", "sight_content": ""}}, {"title": "阿弥陀佛", "address": "安徽省安庆市潜山县南岳路222号", "image": "", "rank": 55, "time": 2, "location": {"lat": 30.634608075021053, "lng": 116.58375110997355}, "feature": {"sight_features": "", "sight_content": ""}}, {"title": "大香山寺", "address": "安徽省安庆市潜山县", "image": "", "rank": 56, "time": 2, "location": {"lat": 30.75863927599329, "lng": 116.55281551688097}, "feature": {"sight_features": "", "sight_content": ""}}, {"title": "周庵寺", "address": "安徽省安庆市潜山县梅城镇七里村", "image": "", "rank": 57, "time": 2, "location": {"lat": 30.624268747272655, "lng": 116.52959500971048}, "feature": {"sight_features": "", "sight_content": ""}}, {"title": "慈航寺", "address": "安庆市潜山县", "image": "", "rank": 58, "time": 1.0, "location": {"lat": 30.75863927599329, "lng": 116.55281551688097}, "feature": {"sight_features": "", "sight_content": ""}}, {"title": "欢乐岛水世界", "address": "南岳路与望岳路交叉口", "image": "", "rank": 59, "time": 2, "location": {"lat": 30.657451407206665, "lng": 116.56823094554201}, "feature": {"sight_features": "", "sight_content": ""}}, {"title": "健康主题公园", "address": "滨河路西50米", "image": "", "rank": 60, "time": 1.0, "location": {"lat": 40.601378873691075, "lng": 115.06779399744747}, "feature": {"sight_features": "", "sight_content": ""}}]}