{"cityName": "黔西", "days": 2, "cityImage": "", "spots": [{"title": "水西公园", "address": "毕节市黔西县文峰路63号", "image": "", "rank": 1, "time": 2.0, "location": {"lat": 27.02901398004523, "lng": 106.0485289989163}, "feature": {"sight_features": "", "sight_content": ""}}, {"title": "大话西游漂流", "address": "毕节市黔西县中建乡政府西", "image": "", "rank": 2, "time": 2, "location": {"lat": 27.014344747084042, "lng": 106.03857397725803}, "feature": {"sight_features": "", "sight_content": ""}}, {"title": "居美轩画廊", "address": "莲城大道231号(近高管)", "image": "", "rank": 3, "time": 2, "location": {"lat": 34.026139482655594, "lng": 113.84618375307035}, "feature": {"sight_features": "", "sight_content": ""}}, {"title": "水西半岛游乐场", "address": "莲城街道莲城大道水西半岛游乐场", "image": "", "rank": 4, "time": 2, "location": {"lat": 27.013489127359808, "lng": 106.04961622975264}, "feature": {"sight_features": "", "sight_content": ""}}, {"title": "青苹果宝贝儿童乐园", "address": "城关镇水西公园后门(福娃幼儿园旁)", "image": "", "rank": 5, "time": 2, "location": {"lat": 27.029420225251176, "lng": 106.05019571675558}, "feature": {"sight_features": "", "sight_content": ""}}, {"title": "南泉山", "address": "贵州省黎平县县城南 557300", "image": "", "rank": 6, "time": 1.0, "location": {"lat": 26.236874050191798, "lng": 109.14356697147115}, "feature": {"sight_features": "", "sight_content": ""}}, {"title": "犀牛洞", "address": "贵州省镇宁布依族苗族自治县县城东 561200", "image": "", "rank": 7, "time": 1.5, "location": {"lat": 26.063829083031695, "lng": 105.77658344485114}, "feature": {"sight_features": "", "sight_content": ""}}, {"title": "烟植物花卉", "address": "贵州省毕节市黔西县公园路45", "image": "", "rank": 8, "time": 2, "location": {"lat": 27.030148341499785, "lng": 106.04809326684578}, "feature": {"sight_features": "", "sight_content": ""}}, {"title": "孩子堡儿童乐园", "address": "水西大道大转盘水西大厦富万家超市4楼", "image": "", "rank": 9, "time": 2, "location": {"lat": 27.029178311892576, "lng": 106.04461570074312}, "feature": {"sight_features": "", "sight_content": ""}}, {"title": "黔西基督教堂", "address": "贵州省毕节市黔西县黔化路117号", "image": "", "rank": 10, "time": 1.0, "location": {"lat": 27.040115510376594, "lng": 106.03899645033921}, "feature": {"sight_features": "", "sight_content": ""}}, {"title": "杜鹃花广场", "address": "毕节市黔西县", "image": "", "rank": 11, "time": 2, "location": {"lat": 27.014344747084042, "lng": 106.03857397725803}, "feature": {"sight_features": "", "sight_content": ""}}, {"title": "欢乐堡儿童成长主题乐园", "address": "贵州省毕节市黔西县迎宾路", "image": "", "rank": 12, "time": 2, "location": {"lat": 27.012842487248367, "lng": 106.04438517848153}, "feature": {"sight_features": "", "sight_content": ""}}, {"title": "激情广场", "address": "黔金路甘棠街路口附近", "image": "", "rank": 13, "time": 2, "location": {"lat": 27.03397161899282, "lng": 106.0502756246239}, "feature": {"sight_features": "", "sight_content": ""}}, {"title": "金洲园度假村", "address": "738县道附近", "image": "", "rank": 14, "time": 2, "location": {"lat": 27.068147450776053, "lng": 105.95980668745548}, "feature": {"sight_features": "", "sight_content": ""}}, {"title": "百花坪", "address": "738县道", "image": "", "rank": 15, "time": 2, "location": {"lat": 27.068147450776053, "lng": 105.95980668745548}, "feature": {"sight_features": "", "sight_content": ""}}, {"title": "同心游乐园", "address": "同心商贸城", "image": "", "rank": 16, "time": 4.5, "location": {"lat": 23.0383896718116, "lng": 113.11152434000361}, "feature": {"sight_features": "", "sight_content": ""}}, {"title": "水西泰丰园(草莓采摘)", "address": "杜鹃办事处乌骡坝社区", "image": "", "rank": 17, "time": 2, "location": {"lat": 25.698024856615813, "lng": 100.16742694064195}, "feature": {"sight_features": "", "sight_content": ""}}, {"title": "黔西县图书馆", "address": "东山路109附近", "image": "", "rank": 18, "time": 2, "location": {"lat": 29.464541285164422, "lng": 119.90952919634967}, "feature": {"sight_features": "", "sight_content": ""}}, {"title": "花都画廊", "address": "公园路26号", "image": "", "rank": 19, "time": 2.0, "location": {"lat": 37.86959002539233, "lng": 112.52141425986059}, "feature": {"sight_features": "", "sight_content": ""}}, {"title": "卓豪·农业", "address": "004县道南50米", "image": "", "rank": 20, "time": 2, "location": {"lat": 23.178986569363055, "lng": 112.87388929538905}, "feature": {"sight_features": "", "sight_content": ""}}, {"title": "草莓家族(文峰路)", "address": "园丁路与文峰路交叉口东南50米", "image": "", "rank": 21, "time": 2, "location": {"lat": 27.02905545277768, "lng": 106.04768532744941}, "feature": {"sight_features": "", "sight_content": ""}}, {"title": "烂田湾草莓园", "address": "水西街道打鱼寨", "image": "", "rank": 22, "time": 2, "location": {"lat": 27.04887318462484, "lng": 106.02245417503946}, "feature": {"sight_features": "", "sight_content": ""}}, {"title": "东山剧场", "address": "东山路", "image": "", "rank": 23, "time": 1.5, "location": {"lat": 49.59462222100006, "lng": 117.47174086587414}, "feature": {"sight_features": "", "sight_content": ""}}, {"title": "文迪农业", "address": "金碧镇卫生院", "image": "", "rank": 24, "time": 2, "location": {"lat": 26.94067600932486, "lng": 105.96917567436196}, "feature": {"sight_features": "", "sight_content": ""}}, {"title": "农民专业合作社联合社", "address": "金碧镇新大街", "image": "", "rank": 25, "time": 2, "location": {"lat": 25.73756843398254, "lng": 101.32666716024755}, "feature": {"sight_features": "", "sight_content": ""}}, {"title": "杜仲林山庄", "address": "黔西至金碧镇八公里处路口左转", "image": "", "rank": 26, "time": 2, "location": {"lat": 26.93512728792446, "lng": 105.97689890179504}, "feature": {"sight_features": "", "sight_content": ""}}, {"title": "黔西县步行街", "address": "贵州省黔西县恭勤路", "image": "", "rank": 27, "time": 2, "location": {"lat": 27.02710240173258, "lng": 106.04709621150973}, "feature": {"sight_features": "", "sight_content": ""}}, {"title": "黔西银海生态园", "address": "毕节市-黔西县", "image": "", "rank": 28, "time": 2, "location": {"lat": 27.014344747084042, "lng": 106.03857397725803}, "feature": {"sight_features": "", "sight_content": ""}}, {"title": "对沙井", "address": "毕节市-黔西县", "image": "", "rank": 29, "time": 2, "location": {"lat": 27.014344747084042, "lng": 106.03857397725803}, "feature": {"sight_features": "", "sight_content": ""}}, {"title": "九洞天九狮山泉", "address": "毕节市-黔西县-水西大道25号", "image": "", "rank": 30, "time": 2, "location": {"lat": 27.03039850046566, "lng": 106.0460609602234}, "feature": {"sight_features": "", "sight_content": ""}}, {"title": "柳岸水乡解放村景区", "address": "贵州省黔西县柳岸水乡解放村", "image": "", "rank": 31, "time": 2, "location": {"lat": 27.076447271488533, "lng": 105.98638923091147}, "feature": {"sight_features": "", "sight_content": ""}}]}