{"cityName": "潜江", "days": "", "cityImage": "", "spots": [{"title": "曹禺纪念馆", "address": "潜江市园林办事处晶鹏路", "image": "", "rank": 1, "time": 2, "location": {"lat": 30.44584737094702, "lng": 112.90109137231771}, "feature": {"sight_features": "", "sight_content": ""}}, {"title": "返湾湖风景区", "address": "潜江市中部", "image": "", "rank": 2, "time": 2, "location": {"lat": 30.40835793241892, "lng": 112.9054740908161}, "feature": {"sight_features": "", "sight_content": ""}}, {"title": "田关水利休闲度假区", "address": "潜江市境内", "image": "", "rank": 3, "time": 2, "location": {"lat": 30.40835793241892, "lng": 112.9054740908161}, "feature": {"sight_features": "", "sight_content": ""}}, {"title": "世博湖北馆", "address": "潜江市湖滨路靠近曹禺公园", "image": "", "rank": 4, "time": 2.5, "location": {"lat": 30.444440168612825, "lng": 112.90428059043757}, "feature": {"sight_features": "", "sight_content": ""}}, {"title": "龙湾遗址展示园", "address": "潜江市龙湾", "image": "", "rank": 5, "time": 2, "location": {"lat": 30.40835793241892, "lng": 112.9054740908161}, "feature": {"sight_features": "", "sight_content": ""}}, {"title": "生态龙虾城游乐园", "address": "东环路与紫月路交汇处生态龙虾城内", "image": "", "rank": 6, "time": 2, "location": {"lat": 30.410951513551026, "lng": 112.91967834098067}, "feature": {"sight_features": "", "sight_content": ""}}, {"title": "潜江市博物馆", "address": "湖北省潜江市章华大道24号 433100", "image": "", "rank": 7, "time": 2.5, "location": {"lat": 30.408106502317736, "lng": 112.90519840085507}, "feature": {"sight_features": "", "sight_content": ""}}, {"title": "欢乐岛乐园", "address": "嘉宁广场3楼", "image": "", "rank": 8, "time": 5.5, "location": {"lat": 30.45425967935385, "lng": 112.70348398662347}, "feature": {"sight_features": "", "sight_content": ""}}, {"title": "鲁卡奇儿童乐园", "address": "东方路盛世东方好又多超市2楼(好又多超市在盛世东方小区门口位置，到了小区门口就能看见)", "image": "", "rank": 9, "time": 2, "location": {"lat": 40.45668703215669, "lng": 124.07007039803769}, "feature": {"sight_features": "", "sight_content": ""}}, {"title": "亲亲我孕婴乐园", "address": "育才路75-77号", "image": "", "rank": 10, "time": 2, "location": {"lat": 30.416714342764738, "lng": 112.89661850167496}, "feature": {"sight_features": "", "sight_content": ""}}, {"title": "曹禺大剧院", "address": "湖滨路梅苑西侧", "image": "", "rank": 11, "time": 2, "location": {"lat": 30.44245288508575, "lng": 112.89870726949424}, "feature": {"sight_features": "", "sight_content": ""}}, {"title": "建南农场", "address": "庆阳路西100米", "image": "", "rank": 12, "time": 2, "location": {"lat": 38.31111987025025, "lng": 114.68408567882786}, "feature": {"sight_features": "", "sight_content": ""}}, {"title": "华惠春农产品种植专业合作社联社", "address": "襄岳公路与西城路交叉口西南100米", "image": "", "rank": 13, "time": 2, "location": {"lat": 31.909199228140412, "lng": 121.30903625505988}, "feature": {"sight_features": "", "sight_content": ""}}, {"title": "远教剧场", "address": "318国道北50米", "image": "", "rank": 14, "time": 2, "location": {"lat": 31.023735098058253, "lng": 120.88254137011852}, "feature": {"sight_features": "", "sight_content": ""}}, {"title": "油建处农场", "address": "工农路附近", "image": "", "rank": 15, "time": 2, "location": {"lat": 38.42216268398484, "lng": 115.32654473093268}, "feature": {"sight_features": "", "sight_content": ""}}, {"title": "苏港生态园", "address": "浩口镇318国道北(苏港生态园附近)", "image": "", "rank": 16, "time": 2, "location": {"lat": 30.388082811283674, "lng": 112.58385700297852}, "feature": {"sight_features": "", "sight_content": ""}}, {"title": "杨林口生态园", "address": "竹根滩镇凤尾湾", "image": "", "rank": 17, "time": 2, "location": {"lat": 30.463225806926168, "lng": 112.97852556958301}, "feature": {"sight_features": "", "sight_content": ""}}, {"title": "吉之岛水上乐园(熊口店)", "address": "熊口鑫襄岳商务宾馆旁", "image": "", "rank": 18, "time": 2, "location": {"lat": 35.09521228046746, "lng": 111.06637707127396}, "feature": {"sight_features": "", "sight_content": ""}}, {"title": "熊口红二军团部旧址", "address": "湖北省潜江市熊口镇", "image": "", "rank": 19, "time": 2, "location": {"lat": 30.309555949328356, "lng": 112.80364799742807}, "feature": {"sight_features": "", "sight_content": ""}}, {"title": "潜江市图书馆", "address": "湖北省潜江市东风路70号 433100", "image": "", "rank": 20, "time": 1.0, "location": {"lat": 30.42391621319996, "lng": 112.91342148208238}, "feature": {"sight_features": "", "sight_content": ""}}, {"title": "章华台", "address": "湖北省潜江市龙湾镇章华台路 433139", "image": "", "rank": 21, "time": 2, "location": {"lat": 30.238608126484255, "lng": 112.7375037541173}, "feature": {"sight_features": "", "sight_content": ""}}, {"title": "潜江市群众艺术馆", "address": "湖北省潜江市东风路118号 433100", "image": "", "rank": 22, "time": 2, "location": {"lat": 30.42653975695361, "lng": 112.90495900243668}, "feature": {"sight_features": "", "sight_content": ""}}, {"title": "住房档案管理中心", "address": "东方路6号", "image": "", "rank": 23, "time": 2, "location": {"lat": 31.249715891624398, "lng": 121.52474348618647}, "feature": {"sight_features": "", "sight_content": ""}}, {"title": "国家综合档案馆", "address": "建设街74号", "image": "", "rank": 24, "time": 2, "location": {"lat": 37.153574557095865, "lng": 111.79377574762067}, "feature": {"sight_features": "", "sight_content": ""}}, {"title": "浩口影剧院", "address": "仙桥路29", "image": "", "rank": 25, "time": 2, "location": {"lat": 20.052686259677564, "lng": 110.36349216386373}, "feature": {"sight_features": "", "sight_content": ""}}, {"title": "成胜奥普乐水上乐园", "address": "江汉路原二汽车站院内", "image": "", "rank": 26, "time": 2, "location": {"lat": 30.59636660928248, "lng": 114.30509749573073}, "feature": {"sight_features": "", "sight_content": ""}}, {"title": "万达电影乐园(潜江站点)", "address": "东风路新时代广场18层1号", "image": "", "rank": 27, "time": 2, "location": {"lat": 28.976229233874488, "lng": 117.13722636412284}, "feature": {"sight_features": "", "sight_content": ""}}, {"title": "田关水上乐园", "address": "田关旅游度假村(从市区过东荆大桥后第一个红绿灯左转)", "image": "", "rank": 28, "time": 2, "location": {"lat": 34.4244264028217, "lng": 112.43011473860811}, "feature": {"sight_features": "", "sight_content": ""}}, {"title": "周矶小苹果游乐园", "address": "周矶中学大门正对面", "image": "", "rank": 29, "time": 2, "location": {"lat": 30.420187079176028, "lng": 112.80943872088112}, "feature": {"sight_features": "", "sight_content": ""}}, {"title": "音飞儿儿童美术馆", "address": "喻王街105附近", "image": "", "rank": 30, "time": null, "location": {"lat": 30.41995062462215, "lng": 112.89701358901453}, "feature": {"sight_features": "", "sight_content": ""}}, {"title": "国土资源勘测规划院", "address": "横堤路3号", "image": "", "rank": 31, "time": 2, "location": {"lat": 30.419987928689245, "lng": 112.91282718853412}, "feature": {"sight_features": "", "sight_content": ""}}, {"title": "3D魔幻艺术展", "address": "章华南路中润金桥郡大门", "image": "", "rank": 32, "time": 1.5, "location": {"lat": 30.374304165360996, "lng": 112.91005796596902}, "feature": {"sight_features": "", "sight_content": ""}}, {"title": "西大垸农场", "address": "中华路66附近", "image": "", "rank": 33, "time": 2, "location": {"lat": 30.11632906984512, "lng": 112.77203169573302}, "feature": {"sight_features": "", "sight_content": ""}}, {"title": "运粮湖农场(运闸分场)", "address": "146乡道附近", "image": "", "rank": 34, "time": 2, "location": {"lat": 39.714825482506754, "lng": 118.91865868135386}, "feature": {"sight_features": "", "sight_content": ""}}, {"title": "薰衣草(步行街)", "address": "园林北路与步行街交叉口东南50米", "image": "", "rank": 35, "time": 2, "location": {"lat": 32.98235570412741, "lng": 120.74020767196214}, "feature": {"sight_features": "", "sight_content": ""}}, {"title": "体育中心游乐园", "address": "章华南路12号", "image": "", "rank": 36, "time": 2, "location": {"lat": 30.410720015035004, "lng": 112.90500456179723}, "feature": {"sight_features": "", "sight_content": ""}}, {"title": "潜江剧院", "address": "江汉路14", "image": "", "rank": 37, "time": 2.0, "location": {"lat": 35.773486819368586, "lng": 115.07148099539619}, "feature": {"sight_features": "", "sight_content": ""}}, {"title": "荆宝葡萄种植合作社", "address": "积玉口镇荆河村3组04号", "image": "", "rank": 38, "time": 2, "location": {"lat": 30.47116364760997, "lng": 112.61450043800967}, "feature": {"sight_features": "", "sight_content": ""}}, {"title": "女士商业街", "address": "湖北省潜江市潜阳中路", "image": "", "rank": 39, "time": 2, "location": {"lat": 30.42259763567799, "lng": 112.8980062426539}, "feature": {"sight_features": "", "sight_content": ""}}, {"title": "园林公园商业城", "address": "湖北省潜江市园林北路", "image": "", "rank": 40, "time": 2, "location": {"lat": 30.42379853717014, "lng": 112.90147869200953}, "feature": {"sight_features": "", "sight_content": ""}}, {"title": "绅士商业街", "address": "湖北省潜江市章华中路", "image": "", "rank": 41, "time": 2, "location": {"lat": 30.423174948116564, "lng": 112.90360964515386}, "feature": {"sight_features": "", "sight_content": ""}}, {"title": "曹禺公园", "address": "湖北省潜江市247省道章华北路", "image": "", "rank": 42, "time": 2, "location": {"lat": 30.460426456163955, "lng": 112.89487890700403}, "feature": {"sight_features": "", "sight_content": ""}}]}