{"cityName": "乾县", "days": 2, "cityImage": "", "spots": [{"title": "乾陵", "address": "咸阳市乾县城北6公里梁山上", "image": "", "rank": 1, "time": 2.5, "location": {"lat": 34.53401826614159, "lng": 108.24537762553739}, "feature": {"sight_features": "特色1 夫妻皇帝合葬陵，埋葬了唐高宗李治和女皇武则天。", "sight_content": "“秦中自古帝王州”，在中国历史上有记载的皇帝共计208位，有73位皇帝葬在陕西境内，一共72座帝王陵墓，这其中最特殊的就是女皇武则天和唐高宗李治的合葬陵——乾陵。\n乾陵的建筑遗址、出土文物，赢得了各国首脑赞叹和大量观众的喜爱，可与欧亚已列入世界遗产的同类项目相媲美，具有人类普遍价值的文化神韵。1961年3月乾陵被国务院列为全国首批重点文物保护单位。乾陵博物成立于1978年，建在唐永泰公主墓的遗址上。\n馆藏文物丰富，馆内设有乾陵文物精华展：集中展出了上世纪唐乾陵陪葬墓出土的各类精美文物一百余件，有色彩亮丽的唐三彩、雕刻精美的石椁线刻画以及绚丽多彩的唐墓壁画，它们被称为“唐墓文物三绝”，还有做工精美、雕刻细腻的金银玉器和铜镜，从不同角度向我们展现了盛唐文化的精彩与辉煌;专题陈列——唐代胡俑展：(胡人，是对少数民族或外国人的统称)这个展览是为了配合2008年奥运会特地举办的，收集展出了建国以来陕西境内出土的各类胡俑精品一百余件，他们形象生动，表情各异，有的络腮胡须、有的深目高鼻、有的身穿翻领开叉胡服等等，仿佛让我们看到了1300年前胡人在长安城的生活情景，聆听到了西市酒家中的胡姬招徕客人时清脆的声音。"}}, {"title": "懿德太子墓", "address": "咸阳市乾县东南隅的韩家堡北，乾陵东南2公里处", "image": "", "rank": 2, "time": 1.5, "location": {"lat": 34.576720771484695, "lng": 108.2435104005179}, "feature": {"sight_features": "", "sight_content": ""}}, {"title": "永泰公主墓", "address": "咸阳市乾县城关镇乾陵东南2.5公里处", "image": "", "rank": 3, "time": 1.0, "location": {"lat": 34.576720771484695, "lng": 108.45012066781284}, "feature": {"sight_features": "", "sight_content": ""}}, {"title": "章怀太子墓", "address": "咸阳市乾县城关镇乾陵东南约3公里处", "image": "", "rank": 4, "time": 1.0, "location": {"lat": 34.576720771484695, "lng": 108.22554429031834}, "feature": {"sight_features": "", "sight_content": ""}}, {"title": "大唐牡丹园", "address": "咸阳市乾县城北6公里梁山上（乾陵脚下）", "image": "", "rank": 5, "time": 2, "location": {"lat": 34.576720771484695, "lng": 108.22554429031834}, "feature": {"sight_features": "", "sight_content": ""}}, {"title": "乾陵大唐牡丹园", "address": "乾陵景区旁边", "image": "", "rank": 6, "time": 2, "location": {"lat": 34.576720771484695, "lng": 108.22554429031834}, "feature": {"sight_features": "", "sight_content": ""}}, {"title": "阙楼遗迹", "address": "咸阳市乾县乾陵博物馆旁乾陵旅游区乾陵博物馆内", "image": "", "rank": 7, "time": 2, "location": {"lat": 34.56608536200334, "lng": 108.2458047563328}, "feature": {"sight_features": "", "sight_content": ""}}, {"title": "东新街广场", "address": "东二环北路", "image": "", "rank": 8, "time": 2, "location": {"lat": 34.537296753397406, "lng": 108.25828711652974}, "feature": {"sight_features": "", "sight_content": ""}}, {"title": "乾县图书馆", "address": "城关镇高庙巷", "image": "", "rank": 9, "time": 1.5, "location": {"lat": 37.52325899780429, "lng": 105.19629334706927}, "feature": {"sight_features": "", "sight_content": ""}}, {"title": "奉天文化广场", "address": "桥东新街与西兰大街交叉口北100米", "image": "", "rank": 10, "time": 2, "location": {"lat": 34.53897676945742, "lng": 108.257401975687}, "feature": {"sight_features": "", "sight_content": ""}}, {"title": "二广场", "address": "东新街", "image": "", "rank": 11, "time": 2, "location": {"lat": 39.63587293053526, "lng": 116.28867087418931}, "feature": {"sight_features": "", "sight_content": ""}}, {"title": "啤酒广场", "address": "城关镇南环路", "image": "", "rank": 12, "time": 2, "location": {"lat": 40.21932716847132, "lng": 116.27767364835641}, "feature": {"sight_features": "", "sight_content": ""}}, {"title": "欢乐多游乐园", "address": "咸阳市乾县", "image": "", "rank": 13, "time": 2, "location": {"lat": 34.53401826614159, "lng": 108.24537762553739}, "feature": {"sight_features": "", "sight_content": ""}}, {"title": "铜牛广场", "address": "咸阳市乾县东新街8号", "image": "", "rank": 14, "time": 2, "location": {"lat": 34.53290458967425, "lng": 108.25748013635112}, "feature": {"sight_features": "", "sight_content": ""}}, {"title": "红辣椒农家乐", "address": "咸阳市乾县乾陵景区前", "image": "", "rank": 15, "time": 2, "location": {"lat": 34.56005774469542, "lng": 108.22763663339354}, "feature": {"sight_features": "", "sight_content": ""}}, {"title": "观音寺", "address": "陕西省咸阳市乾县阳洪镇中心完小西北500米", "image": "", "rank": 16, "time": 2.0, "location": {"lat": 34.519536644856466, "lng": 108.31869261503923}, "feature": {"sight_features": "", "sight_content": ""}}, {"title": "陕西省乾县阳洪镇化度寺", "address": "陕西省咸阳市乾县城关街道化度寺", "image": "", "rank": 17, "time": 2, "location": {"lat": 34.53130473537491, "lng": 108.22435689302745}, "feature": {"sight_features": "", "sight_content": ""}}, {"title": "大风车儿童乐园", "address": "陕西省咸阳市乾县风水台街90号", "image": "", "rank": 18, "time": 2, "location": {"lat": 34.536797261994586, "lng": 108.24950974105273}, "feature": {"sight_features": "", "sight_content": ""}}, {"title": "鲁卡奇儿童乐园", "address": "陕西省咸阳市乾县东大街72号", "image": "", "rank": 19, "time": 2, "location": {"lat": 34.53255524307078, "lng": 108.25249795433169}, "feature": {"sight_features": "", "sight_content": ""}}, {"title": "陕西省乾县道教协会吕祖祠", "address": "陕西省咸阳市乾县关中环线道教协会吕祖祠(盛唐大观园附近)", "image": "", "rank": 20, "time": null, "location": {"lat": 34.54533353800147, "lng": 108.25011016037085}, "feature": {"sight_features": "", "sight_content": ""}}, {"title": "陕西民间艺术展", "address": "咸阳市乾县东南隅的韩家堡北唐懿德太子墓博物馆内", "image": "", "rank": 21, "time": 2, "location": {"lat": 34.56061218690086, "lng": 108.23953735963718}, "feature": {"sight_features": "", "sight_content": ""}}, {"title": "天爱游乐儿童乐园", "address": "陕西省咸阳市乾县G312(沪霍线)", "image": "", "rank": 22, "time": 2, "location": {"lat": 34.53401826614159, "lng": 108.24537762553739}, "feature": {"sight_features": "", "sight_content": ""}}, {"title": "小太子农家乐", "address": "懿德太子墓门前向东20米", "image": "", "rank": 23, "time": 2, "location": {"lat": 25.8830566985579, "lng": 104.52387788404954}, "feature": {"sight_features": "", "sight_content": ""}}, {"title": "陕西乾县众鑫现代专业合作社", "address": "朱家村", "image": "", "rank": 24, "time": 2, "location": {"lat": 21.889866478825223, "lng": 101.3622890951321}, "feature": {"sight_features": "", "sight_content": ""}}, {"title": "咸阳黄土文化民俗村", "address": "陕西省乾县乾陵镇", "image": "", "rank": 25, "time": 2.5, "location": {"lat": 34.57525373626006, "lng": 108.24351606523246}, "feature": {"sight_features": "", "sight_content": ""}}, {"title": "精品服装鞋帽一条街", "address": "陕西省乾县桥东新街", "image": "", "rank": 26, "time": 2, "location": {"lat": 34.53897676945742, "lng": 108.257401975687}, "feature": {"sight_features": "", "sight_content": ""}}]}