{"cityName": "前郭", "days": 2, "cityImage": "", "spots": [{"title": "成吉思汗召", "address": "松原市前郭尔罗斯蒙古族自治县查干湖景区内", "image": "", "rank": 1, "time": 2, "location": {"lat": 45.2067383897589, "lng": 124.37034277156944}, "feature": {"sight_features": "", "sight_content": ""}}, {"title": "渔猎文化博物馆", "address": "松原市前郭尔罗斯蒙古族自治县", "image": "", "rank": 2, "time": 2, "location": {"lat": 45.12341609292575, "lng": 124.83045556164775}, "feature": {"sight_features": "", "sight_content": ""}}, {"title": "君瑞易禾温泉水乐园", "address": "松原市前郭县经济技术开发区阿拉坦大路宝骏4S店前300米", "image": "", "rank": 3, "time": 2, "location": {"lat": 45.1018077208324, "lng": 124.88959415743928}, "feature": {"sight_features": "", "sight_content": ""}}, {"title": "王爷府", "address": "松原市前郭尔罗斯蒙古族自治县王府站镇", "image": "", "rank": 4, "time": 2, "location": {"lat": 44.880737036591285, "lng": 125.03242442972422}, "feature": {"sight_features": "", "sight_content": ""}}, {"title": "宝华采摘观光园", "address": "新水线", "image": "", "rank": 5, "time": 2, "location": {"lat": 23.93408306523124, "lng": 99.13063153631374}, "feature": {"sight_features": "", "sight_content": ""}}, {"title": "郭尔罗斯博物馆", "address": "乌兰大街东侧(县民族体育场北侧)", "image": "", "rank": 6, "time": 2, "location": {"lat": 26.5730707838352, "lng": 107.98498045507309}, "feature": {"sight_features": "", "sight_content": ""}}, {"title": "前郭县圣湖渔业有限公司", "address": "前郭县乌兰图嘎镇乌兰村", "image": "", "rank": 7, "time": 2, "location": {"lat": 36.9357478590324, "lng": 98.48673569929515}, "feature": {"sight_features": "", "sight_content": ""}}, {"title": "盛和骑士运营中心", "address": "苏雅乐胡同与青格勒大街交叉口南100米", "image": "", "rank": 8, "time": 2, "location": {"lat": 45.11847217002298, "lng": 124.83653364405042}, "feature": {"sight_features": "", "sight_content": ""}}, {"title": "鼎诚合作社", "address": "农前线附近", "image": "", "rank": 9, "time": 2, "location": {"lat": 45.086401446244054, "lng": 124.81169939175206}, "feature": {"sight_features": "", "sight_content": ""}}, {"title": "繁荣村葡萄采摘园", "address": "长山镇302国道繁荣村葡萄采摘园", "image": "", "rank": 10, "time": 2, "location": {"lat": 45.29199749443068, "lng": 124.55358641295696}, "feature": {"sight_features": "", "sight_content": ""}}, {"title": "老渔村野营山庄", "address": "新水线", "image": "", "rank": 11, "time": 2, "location": {"lat": 23.93408306523124, "lng": 99.13063153631374}, "feature": {"sight_features": "", "sight_content": ""}}, {"title": "金鼎内室娱乐公园", "address": "莱美健身俱乐部哈萨尔广场内", "image": "", "rank": 12, "time": 2, "location": {"lat": 45.121249261311995, "lng": 124.83497465190565}, "feature": {"sight_features": "", "sight_content": ""}}, {"title": "前郭县前郭镇巴彦社区图书馆分馆", "address": "乌兰大街", "image": "", "rank": 13, "time": 2, "location": {"lat": 40.72550194335148, "lng": 111.13964298275255}, "feature": {"sight_features": "", "sight_content": ""}}, {"title": "新玛特沙滩乐园", "address": "乌兰大街与哈萨尔路交叉口东南角新玛特7楼", "image": "", "rank": 14, "time": 2, "location": {"lat": 45.12304156006054, "lng": 124.83015313721647}, "feature": {"sight_features": "", "sight_content": ""}}, {"title": "飞鱼", "address": "009乡道与302国道交叉口南100米", "image": "", "rank": 15, "time": 2, "location": {"lat": 42.90771946413277, "lng": 128.411195027392}, "feature": {"sight_features": "", "sight_content": ""}}, {"title": "王府苗圃", "address": "松原市-前郭尔罗斯蒙古族自治县", "image": "", "rank": 16, "time": null, "location": {"lat": 45.12341609292575, "lng": 124.83045556164775}, "feature": {"sight_features": "", "sight_content": ""}}, {"title": "华阳水貂养殖场", "address": "松原市-前郭尔罗斯蒙古族自治县-前郭尔罗斯镇前郭县广宇驾校后", "image": "", "rank": 17, "time": 2, "location": {"lat": 45.12198505959833, "lng": 124.83291018145378}, "feature": {"sight_features": "", "sight_content": ""}}, {"title": "本师佛园", "address": "松原市-前郭尔罗斯蒙古族自治县-查干湖旅游经济开发区妙因寺西侧", "image": "", "rank": 18, "time": 2, "location": {"lat": 45.2067383897589, "lng": 124.37034277156944}, "feature": {"sight_features": "", "sight_content": ""}}, {"title": "高娃广场", "address": "松原市-前郭尔罗斯蒙古族自治县-前郭尔罗斯镇世纪新城", "image": "", "rank": 19, "time": 2, "location": {"lat": 45.11136575319376, "lng": 124.85182291881344}, "feature": {"sight_features": "", "sight_content": ""}}, {"title": "查干高娃广场", "address": "松原市-前郭尔罗斯蒙古族自治县-(查干湖大路北)", "image": "", "rank": 20, "time": 2, "location": {"lat": 45.2095770394965, "lng": 124.43970469850552}, "feature": {"sight_features": "", "sight_content": ""}}, {"title": "查干湖北湖渔场", "address": "松原市-前郭尔罗斯蒙古族自治县", "image": "", "rank": 21, "time": 2, "location": {"lat": 45.12341609292575, "lng": 124.83045556164775}, "feature": {"sight_features": "", "sight_content": ""}}, {"title": "郭尔罗斯王府", "address": "松原市前郭尔罗斯蒙古族自治县郭尔罗斯王府", "image": "", "rank": 22, "time": null, "location": {"lat": 45.20534222244948, "lng": 124.43762833628533}, "feature": {"sight_features": "", "sight_content": ""}}, {"title": "妙音寺", "address": "松原市前郭尔罗斯蒙古族自治县查干湖旁", "image": "", "rank": 23, "time": 2, "location": {"lat": 45.2067383897589, "lng": 124.37034277156944}, "feature": {"sight_features": "", "sight_content": ""}}]}