{"cityName": "蕲春", "days": 2, "cityImage": "", "spots": [{"title": "湖北鄂人谷生态旅游度假村", "address": "黄冈市蕲春县漕河镇严垅村", "image": "", "rank": 1, "time": 2, "location": {"lat": 30.212138712499996, "lng": 115.46834168705531}, "feature": {"sight_features": "", "sight_content": ""}}, {"title": "李时珍陵园", "address": "黄冈市蕲春县时珍路168号", "image": "", "rank": 2, "time": 1.0, "location": {"lat": 30.051261644864272, "lng": 115.3622600186359}, "feature": {"sight_features": "", "sight_content": ""}}, {"title": "南天河漂流", "address": "黄冈市蕲春县青石镇界岭村。", "image": "", "rank": 3, "time": 2, "location": {"lat": 30.21850715234522, "lng": 115.77273855380912}, "feature": {"sight_features": "", "sight_content": ""}}, {"title": "郑家山木石河", "address": "黄冈市蕲春县青石镇郑家山村", "image": "", "rank": 4, "time": 1.5, "location": {"lat": 30.27854124593419, "lng": 115.80482872423698}, "feature": {"sight_features": "", "sight_content": ""}}, {"title": "横岗山生态园", "address": "黄冈市蕲春县与武穴市交界处", "image": "", "rank": 5, "time": 2.0, "location": {"lat": 30.23253549973421, "lng": 115.4423985340966}, "feature": {"sight_features": "特色1 丘陵岗地，四周群山连绵", "sight_content": "这里大部分为丘陵岗地，四周群山连绵，风景秀丽迷人。早在1300多年前，横岗山便是荆、吴、豫一带道、佛两教活动的主要场所，历史上建有多座规模宏大的殿宇，现有大小各类庙宇近三十座。"}}, {"title": "云丹山避暑度假区", "address": "黄冈市蕲春县青石镇云丹山", "image": "", "rank": 6, "time": 2, "location": {"lat": 30.316788366424433, "lng": 115.70530976146652}, "feature": {"sight_features": "", "sight_content": ""}}, {"title": "太平森林公园", "address": "黄冈市蕲春县青石镇", "image": "", "rank": 7, "time": 4.0, "location": {"lat": 30.316788366424433, "lng": 115.70530976146652}, "feature": {"sight_features": "", "sight_content": ""}}, {"title": "黄冈市蕲春李时珍纪念馆", "address": "蕲州镇", "image": "", "rank": 8, "time": 7.5, "location": {"lat": 30.062169564984213, "lng": 115.4097831468947}, "feature": {"sight_features": "", "sight_content": ""}}, {"title": "大鑫湾湖北仙人湖养生度假区", "address": "大同镇游山村一组", "image": "", "rank": 9, "time": 2, "location": {"lat": 30.52950527806444, "lng": 115.78632961434442}, "feature": {"sight_features": "", "sight_content": ""}}, {"title": "太平避暑山庄", "address": "黄冈市蕲春县太平森林公园", "image": "", "rank": 10, "time": 7.5, "location": {"lat": 30.252166716917383, "lng": 115.81472353158192}, "feature": {"sight_features": "", "sight_content": ""}}, {"title": "桐梓温泉", "address": "黄冈市蕲春县青石镇温泉村", "image": "", "rank": 11, "time": 0.7, "location": {"lat": 30.242082316871155, "lng": 115.72943291512304}, "feature": {"sight_features": "", "sight_content": ""}}, {"title": "蕲春县图书馆", "address": "漕河二路医疗保险管理局附近", "image": "", "rank": 12, "time": 2, "location": {"lat": 39.68979280618826, "lng": 106.82578939144315}, "feature": {"sight_features": "", "sight_content": ""}}, {"title": "蕲春县少儿图书馆", "address": "蕲阳北路16号", "image": "", "rank": 13, "time": 2, "location": {"lat": 30.254213307563216, "lng": 115.44313833898919}, "feature": {"sight_features": "", "sight_content": ""}}, {"title": "蕲春林业局特种水果示范基地", "address": "012乡道附近", "image": "", "rank": 14, "time": 2, "location": {"lat": 42.03943121264008, "lng": 117.37717289403135}, "feature": {"sight_features": "", "sight_content": ""}}, {"title": "鳄鱼漆", "address": "电力街154号", "image": "", "rank": 15, "time": 2, "location": {"lat": 30.244866972193158, "lng": 115.44040126049013}, "feature": {"sight_features": "", "sight_content": ""}}, {"title": "涂呀儿童美术馆", "address": "第二实验小学正对面(原漕河镇中)", "image": "", "rank": 16, "time": 2, "location": {"lat": 39.921873657039, "lng": 116.59871222924217}, "feature": {"sight_features": "", "sight_content": ""}}, {"title": "蕲春县国营八里湖农场自来水厂", "address": "八里总场", "image": "", "rank": 17, "time": 2, "location": {"lat": 24.477038309694066, "lng": 118.17049400503653}, "feature": {"sight_features": "", "sight_content": ""}}, {"title": "赤龙湖国家湿地公园", "address": "金牛洞48号", "image": "", "rank": 18, "time": 2, "location": {"lat": 40.24088421800283, "lng": 119.87833833716424}, "feature": {"sight_features": "", "sight_content": ""}}, {"title": "濒湖公园", "address": "李时珍大道131号", "image": "", "rank": 19, "time": 2, "location": {"lat": 30.22381165436223, "lng": 115.45101410319191}, "feature": {"sight_features": "", "sight_content": ""}}, {"title": "欢乐彩虹岛主题乐园", "address": "湖北省黄冈市蕲春县漕河二路205号", "image": "", "rank": 20, "time": 2, "location": {"lat": 30.23529419316562, "lng": 115.44412435864238}, "feature": {"sight_features": "", "sight_content": ""}}, {"title": "陈家祠堂", "address": "黄冈市蕲春县", "image": "", "rank": 21, "time": 1.5, "location": {"lat": 30.23253549973421, "lng": 115.4423985340966}, "feature": {"sight_features": "", "sight_content": ""}}, {"title": "蕲春梓瑞文化娱乐有限责任公司罗...", "address": "湖北省黄冈市蕲春县漕河镇罗州城社区六组", "image": "", "rank": 22, "time": 2, "location": {"lat": 30.26739963979085, "lng": 115.4415494287794}, "feature": {"sight_features": "", "sight_content": ""}}, {"title": "蕲春县黄梅戏剧团", "address": "齐昌大道163", "image": "", "rank": 23, "time": 2, "location": {"lat": 30.238130920808935, "lng": 115.44374211886822}, "feature": {"sight_features": "", "sight_content": ""}}, {"title": "雄武门", "address": "中心街与时珍路交叉口西南50米", "image": "", "rank": 24, "time": 2, "location": {"lat": 30.064790549342295, "lng": 115.34785169232387}, "feature": {"sight_features": "", "sight_content": ""}}, {"title": "胡风纪念馆", "address": "蕲春县蕲州镇菩堤村", "image": "", "rank": 25, "time": 2, "location": {"lat": 30.059059023730455, "lng": 115.46622099255991}, "feature": {"sight_features": "", "sight_content": ""}}, {"title": "梅祠堂", "address": "黄冈市蕲春县红色旅游路", "image": "", "rank": 26, "time": 2, "location": {"lat": 30.209287512993196, "lng": 115.7976106589049}, "feature": {"sight_features": "", "sight_content": ""}}, {"title": "濒湖游乐园", "address": "李时珍大道106号", "image": "", "rank": 27, "time": 2, "location": {"lat": 30.22854883627132, "lng": 115.45340555794446}, "feature": {"sight_features": "", "sight_content": ""}}, {"title": "喜洋洋儿童乐园", "address": "湖北省黄冈市蕲春县体育路53号", "image": "", "rank": 28, "time": 2, "location": {"lat": 30.233175080497162, "lng": 115.43611892942911}, "feature": {"sight_features": "", "sight_content": ""}}, {"title": "政府广场", "address": "漕河一路与漕河大道交叉口西南100米", "image": "", "rank": 29, "time": 2, "location": {"lat": 30.232067092502394, "lng": 115.44285831560238}, "feature": {"sight_features": "", "sight_content": ""}}, {"title": "田桥观音山普度寺", "address": "湖北省黄冈市蕲春县檀林镇田桥观音山", "image": "", "rank": 30, "time": 2, "location": {"lat": 30.636067071002273, "lng": 115.7687558273984}, "feature": {"sight_features": "", "sight_content": ""}}, {"title": "高家祠堂", "address": "黄冈市蕲春县二零五省道", "image": "", "rank": 31, "time": 2, "location": {"lat": 30.23253549973421, "lng": 115.4423985340966}, "feature": {"sight_features": "", "sight_content": ""}}, {"title": "郁金香", "address": "体育路9号", "image": "", "rank": 32, "time": 2, "location": {"lat": 41.30964121231224, "lng": 123.77329057092346}, "feature": {"sight_features": "", "sight_content": ""}}, {"title": "金宝贝儿童艺术馆", "address": "蕲州大道68号", "image": "", "rank": 33, "time": 2, "location": {"lat": 30.076099644946332, "lng": 115.34851816763937}, "feature": {"sight_features": "", "sight_content": ""}}, {"title": "周密画匾行", "address": "齐昌大道157号", "image": "", "rank": 34, "time": null, "location": {"lat": 30.244690449563908, "lng": 115.43965026001598}, "feature": {"sight_features": "", "sight_content": ""}}, {"title": "蕲春科技馆", "address": "广场东区二路", "image": "", "rank": 35, "time": 2.5, "location": {"lat": 25.490612776676176, "lng": 103.80572603967319}, "feature": {"sight_features": "", "sight_content": ""}}, {"title": "刘河镇图书馆", "address": "政府路", "image": "", "rank": 36, "time": 2, "location": {"lat": 39.62386645950974, "lng": 116.50681337651953}, "feature": {"sight_features": "", "sight_content": ""}}, {"title": "H-Room密室逃脱", "address": "漕河镇棕盛商业广场", "image": "", "rank": 37, "time": 2, "location": {"lat": 30.242864355187862, "lng": 115.4392664041902}, "feature": {"sight_features": "", "sight_content": ""}}, {"title": "龙泉花海", "address": "蕲州镇龙泉庵村", "image": "", "rank": 38, "time": 2, "location": {"lat": 30.022488579615434, "lng": 115.39988396480193}, "feature": {"sight_features": "", "sight_content": ""}}, {"title": "御花园农家乐", "address": "漕河一路48附近", "image": "", "rank": 39, "time": 2, "location": {"lat": 30.23330420640544, "lng": 115.45051381529407}, "feature": {"sight_features": "", "sight_content": ""}}, {"title": "蕲春县顺丰园家庭农场", "address": "青石镇赵围村三组(S205省道)", "image": "", "rank": 40, "time": 2, "location": {"lat": 30.297237601922806, "lng": 115.68143108434948}, "feature": {"sight_features": "", "sight_content": ""}}, {"title": "奇奇葡萄园", "address": "豁口路126号", "image": "", "rank": 41, "time": 2, "location": {"lat": 30.24178078192531, "lng": 115.43297537577155}, "feature": {"sight_features": "", "sight_content": ""}}, {"title": "蕲阳步行街", "address": "湖北省蕲春县蕲阳步行街", "image": "", "rank": 42, "time": 2, "location": {"lat": 30.245511481502017, "lng": 115.43793224893155}, "feature": {"sight_features": "", "sight_content": ""}}, {"title": "棠树岭村", "address": "黄冈市-蕲春县", "image": "", "rank": 43, "time": 2, "location": {"lat": 30.23253549973421, "lng": 115.4423985340966}, "feature": {"sight_features": "", "sight_content": ""}}, {"title": "小竹岭", "address": "黄冈市-蕲春县", "image": "", "rank": 44, "time": null, "location": {"lat": 30.23253549973421, "lng": 115.4423985340966}, "feature": {"sight_features": "", "sight_content": ""}}, {"title": "华中影视城", "address": "湖北省黄冈市蕲春县蕲州镇西角湖影视基地", "image": "", "rank": 45, "time": 2, "location": {"lat": 30.062169564984213, "lng": 115.4097831468947}, "feature": {"sight_features": "", "sight_content": ""}}]}