{"cityName": "启东", "days": 2, "cityImage": "", "spots": [{"title": "全国3D魔幻艺术巡展启东站", "address": "南通市启东市明天商务广场（人民路新岛咖啡西侧）", "image": "", "rank": 1, "time": 2, "location": {"lat": 31.81926804569563, "lng": 121.65759595415979}, "feature": {"sight_features": "", "sight_content": ""}}, {"title": "碧海银沙（恒大海上威尼斯酒店）", "address": "南通市启东市恒大路1号恒大海上威尼斯碧海银沙景区", "image": "", "rank": 2, "time": 2, "location": {"lat": 31.72315339670218, "lng": 121.94628212408675}, "feature": {"sight_features": "", "sight_content": ""}}, {"title": "黄金海滩", "address": "南通市启东市圆陀角旅游度假区东部", "image": "", "rank": 3, "time": 4.0, "location": {"lat": 31.81423284964318, "lng": 121.66347374677267}, "feature": {"sight_features": "特色1 黄金海滩有滨海沙滩、湿地，还有踩文蛤、沙滩摩托车、快艇等互动娱乐项目。", "sight_content": "黄金海滩风景区位于启东市圆陀角旅游度假区东侧，总面积2700余亩。这里东临黄海，南濒长江，拥有极其丰富的野生动植物资源和良好的生态环境，2017年被评为江苏省省级湿地公园。景区位于江苏省最东端，是长三角地区最早迎接日出的地方，吸引着众多游客到此海上观日出。每逢旭日东升，霞光四射，瑰丽雄浑，整个海滩犹如铺满金沙，“黄金海滩”由此得名。\n江海交融，湿地广袤，水美物丰，黄金海滩风景区旖旎多姿的原生态景观、丰茂多彩的动植物，构成了中国东部沿海地区一道独特的风景线。集生态湿地保护、科普教育、休闲度假于一身，黄金海滩风景区内建有鲸鱼馆、新能源科普展示馆、湿地动植物教育基地、沙滩越野基地、气垫登陆艇基地等旅游设施，可以开展文蛤采摘、生态垂钓、水上漂游、沙滩越野、科普教育等众多旅游活动。无论青少年科普教育、团队户外拓展，还是全家度假游乐、情侣浪漫表白，这里都是最适合您且荡漾着最鲜活气息的滨海度假胜地。"}}, {"title": "吕四风情区", "address": "南通市启东市吕四港镇", "image": "", "rank": 4, "time": 2, "location": {"lat": 32.0472252377395, "lng": 121.61775205523102}, "feature": {"sight_features": "", "sight_content": ""}}, {"title": "江天生态园", "address": "南通市启东市汇泰镇江海南路与惠丰路交叉口", "image": "", "rank": 5, "time": 2, "location": {"lat": 31.77867080596784, "lng": 121.62011080877132}, "feature": {"sight_features": "", "sight_content": ""}}, {"title": "圆陀角风景区", "address": "南通市启东市林连路与海寅线交叉口东", "image": "", "rank": 6, "time": 1.0, "location": {"lat": 31.725705225080528, "lng": 121.88868106890482}, "feature": {"sight_features": "", "sight_content": ""}}, {"title": "乐世界儿童王国", "address": "南通市启东市寅阳镇恒大路1号恒大海上威尼斯", "image": "", "rank": 7, "time": 2, "location": {"lat": 31.72315339670218, "lng": 121.94628212408675}, "feature": {"sight_features": "特色1 设置独立棋牌区域、洗手间和电视沙发区域。 特色2 提供运动功能性饮料、咖啡、果汁、高蛋白小食。 特色3 提供中国象棋、围棋、桥牌等棋牌服务。", "sight_content": "乐世界儿童王国是一座专为儿童打造的游乐城堡，场馆建筑设计为城堡造型，里面建筑设计新颖，可爱，以儿童为对象，集体验、益智、互动为一体，是个好玩的亲子主题乐园。\n儿童游乐王国是一个大型的淘气堡，适合130CM以下的小朋友游玩。这里有炫酷的机枪城堡和蜘蛛爬网，小型的蹦床，有趣的椰子树、八爪章鱼和滚筒。\n彩绘陶艺世界有丰富多彩的手工制作，如三角组合折纸、玩转粘土、雪花泥、创意喷画、花样挂饰等。专业老师通过讲解示范指导，让小朋友在这里享受到手工的乐趣。\n电玩城里有100多台电玩器械，有格斗类、赛车类、射击类、运动类、益智类以及动感音乐类，符合各种年龄段的人游玩。"}}, {"title": "嘉仕有机农庄", "address": "南通市启东市永兴路118号", "image": "", "rank": 8, "time": 2, "location": {"lat": 31.789373189690238, "lng": 121.46613611952816}, "feature": {"sight_features": "", "sight_content": ""}}, {"title": "紫薇公园", "address": "南通市启东市公园北路1185号", "image": "", "rank": 9, "time": 0.75, "location": {"lat": 31.82481724835897, "lng": 121.67814118930903}, "feature": {"sight_features": "", "sight_content": ""}}, {"title": "金双洋射击基地", "address": "南通市启东市滨海工业园区江洲路38号", "image": "", "rank": 10, "time": 2, "location": {"lat": 31.91306887220699, "lng": 121.83712488666907}, "feature": {"sight_features": "", "sight_content": ""}}, {"title": "田仓农庄", "address": "南通市启东市汇龙镇光荣村荣北一路", "image": "", "rank": 11, "time": 2, "location": {"lat": 31.87735193303763, "lng": 121.61456627043484}, "feature": {"sight_features": "", "sight_content": ""}}, {"title": "江海清风园", "address": "启东市市民广场(世纪大道北200米)", "image": "", "rank": 12, "time": 2, "location": {"lat": 31.79690762167147, "lng": 121.66069015940414}, "feature": {"sight_features": "", "sight_content": ""}}, {"title": "灵秀公园", "address": "江苏省南通市启东市汇龙镇南苑中路彩臣南村南150米", "image": "", "rank": 13, "time": 1.5, "location": {"lat": 31.802963613509444, "lng": 121.67725975936636}, "feature": {"sight_features": "", "sight_content": ""}}, {"title": "欧洲风情街·淮安广场", "address": "江苏省南通市启东市人民中路528号", "image": "", "rank": 14, "time": 2, "location": {"lat": 31.81441286737876, "lng": 121.66957321693117}, "feature": {"sight_features": "", "sight_content": ""}}, {"title": "公园中路与长江中路交叉口", "address": "启东市", "image": "", "rank": 15, "time": 2, "location": {"lat": 31.81423284964318, "lng": 121.66347374677267}, "feature": {"sight_features": "", "sight_content": ""}}, {"title": "H9 BEER 进口啤酒超市体验吧", "address": "和平中路730-34号", "image": "", "rank": 16, "time": 2, "location": {"lat": 31.822554745341773, "lng": 121.66055057710078}, "feature": {"sight_features": "", "sight_content": ""}}, {"title": "启东大自然度假村", "address": "惠萍镇大兴镇村（近G40沪陕高速启东高速南出口）", "image": "", "rank": 17, "time": 4.0, "location": {"lat": 31.760432253499342, "lng": 121.68206416582707}, "feature": {"sight_features": "", "sight_content": ""}}, {"title": "王鲍烈士纪念馆", "address": "经济开发区天聚线王鲍烈士纪念馆", "image": "", "rank": 18, "time": 2, "location": {"lat": 31.964383590181697, "lng": 121.55203436690181}, "feature": {"sight_features": "", "sight_content": ""}}, {"title": "启东市烈士陵园", "address": "长安路10号", "image": "", "rank": 19, "time": 3.0, "location": {"lat": 39.35620298344437, "lng": 115.50930488542917}, "feature": {"sight_features": "", "sight_content": ""}}, {"title": "春田花花生态园(启东王鲍镇中施...", "address": "王鲍镇中施村", "image": "", "rank": 20, "time": 2, "location": {"lat": 31.63762022864346, "lng": 118.34544747318152}, "feature": {"sight_features": "", "sight_content": ""}}, {"title": "金凤凰创业园", "address": "南苑中路869号", "image": "", "rank": 21, "time": 2, "location": {"lat": 22.866313809336305, "lng": 113.23520079681273}, "feature": {"sight_features": "", "sight_content": ""}}, {"title": "启东华鑫农业生态基地", "address": "通海大道1000", "image": "", "rank": 22, "time": 4.0, "location": {"lat": 31.857984944639796, "lng": 121.8114459505134}, "feature": {"sight_features": "", "sight_content": ""}}, {"title": "大兴农场", "address": "建涛兴泰路附近", "image": "", "rank": 23, "time": 3.5, "location": {"lat": 31.746158708473452, "lng": 121.63496550578616}, "feature": {"sight_features": "", "sight_content": ""}}, {"title": "和合农场", "address": "沿江线", "image": "", "rank": 24, "time": 2, "location": {"lat": 31.942437476005882, "lng": 120.77015734205472}, "feature": {"sight_features": "", "sight_content": ""}}, {"title": "启东雄愈农业生态园", "address": "通海大道北50米", "image": "", "rank": 25, "time": 4.0, "location": {"lat": 40.69345248854472, "lng": 120.81168793983275}, "feature": {"sight_features": "", "sight_content": ""}}, {"title": "启东市通兴农场", "address": "028县道附近", "image": "", "rank": 26, "time": 4.0, "location": {"lat": 31.284814956884386, "lng": 118.49953017108598}, "feature": {"sight_features": "", "sight_content": ""}}, {"title": "新鳄鱼", "address": "欧洲风情街与人民中路交叉口东北150米", "image": "", "rank": 27, "time": 2, "location": {"lat": 31.814741088098778, "lng": 121.66944119117375}, "feature": {"sight_features": "", "sight_content": ""}}, {"title": "华寅垂钓", "address": "寅阳镇沿江公路北", "image": "", "rank": 28, "time": 2, "location": {"lat": 31.762222662821173, "lng": 121.67754048792298}, "feature": {"sight_features": "", "sight_content": ""}}, {"title": "华阳垂钓俱乐部", "address": "惠萍镇336省道香格小学西南", "image": "", "rank": 29, "time": null, "location": {"lat": 31.789089134434207, "lng": 121.72443348630725}, "feature": {"sight_features": "", "sight_content": ""}}, {"title": "江苏华夏牡丹园", "address": "启东市合作镇兴隆村18组88号", "image": "", "rank": 30, "time": 2, "location": {"lat": 31.95238059980421, "lng": 121.59675015120456}, "feature": {"sight_features": "", "sight_content": ""}}, {"title": "启东人民首战日军纪念地", "address": "人民中路与民胜中路交汇处", "image": "", "rank": 31, "time": 4.0, "location": {"lat": 31.81614287464137, "lng": 121.66512755506402}, "feature": {"sight_features": "", "sight_content": ""}}, {"title": "启东市规划馆", "address": "汇龙镇人民中路783号建筑业大厦底楼", "image": "", "rank": 32, "time": 4.0, "location": {"lat": 31.816056113026278, "lng": 121.66301266182559}, "feature": {"sight_features": "", "sight_content": ""}}, {"title": "启东裕德隆生态农业园", "address": "启东王鲍镇久西村", "image": "", "rank": 33, "time": 4.0, "location": {"lat": 31.81423284964318, "lng": 121.66347374677267}, "feature": {"sight_features": "", "sight_content": ""}}, {"title": "圣路加堂", "address": "志圩线东50米", "image": "", "rank": 34, "time": 2, "location": {"lat": 31.92522937107247, "lng": 121.63006370055052}, "feature": {"sight_features": "", "sight_content": ""}}, {"title": "渔民大队突围战纪念地", "address": "江苏省南通市启东市海防线与海王线交汇处", "image": "", "rank": 35, "time": 2, "location": {"lat": 31.777855201442748, "lng": 121.8944111028376}, "feature": {"sight_features": "", "sight_content": ""}}, {"title": "吕四国家中心渔港", "address": "江苏省启东吕四镇 226200", "image": "", "rank": 36, "time": 1.5, "location": {"lat": 32.06488965109019, "lng": 121.61509721031328}, "feature": {"sight_features": "", "sight_content": ""}}, {"title": "优漫星未来少儿艺术团", "address": "汇龙镇民乐中路779号", "image": "", "rank": 37, "time": 2, "location": {"lat": 31.820038324470616, "lng": 121.66060452393988}, "feature": {"sight_features": "", "sight_content": ""}}, {"title": "惠萍镇基督教堂", "address": "二滧沿河路东50米", "image": "", "rank": 38, "time": 2, "location": {"lat": 31.760833309175368, "lng": 121.75832441163837}, "feature": {"sight_features": "", "sight_content": ""}}, {"title": "拓展训练营", "address": "海防线与林连线交汇处", "image": "", "rank": 39, "time": 2, "location": {"lat": 33.22197258593346, "lng": 120.5844009721738}, "feature": {"sight_features": "", "sight_content": ""}}, {"title": "圣彼得堂", "address": "紫薇中路688号附2", "image": "", "rank": 40, "time": 2, "location": {"lat": 32.29872596356245, "lng": 118.34075340454874}, "feature": {"sight_features": "", "sight_content": ""}}, {"title": "德肋撒堂", "address": "合作镇天主堂", "image": "", "rank": 41, "time": 0.5, "location": {"lat": 31.92755677995521, "lng": 121.65631253070478}, "feature": {"sight_features": "", "sight_content": ""}}, {"title": "安息堂", "address": "南通市启东市", "image": "", "rank": 42, "time": 0.4, "location": {"lat": 31.81423284964318, "lng": 121.66347374677267}, "feature": {"sight_features": "", "sight_content": ""}}, {"title": "小毛快艇海上旅游观光", "address": "吕四港水产路木兰饭庄隔壁", "image": "", "rank": 43, "time": 2, "location": {"lat": 32.08255862940386, "lng": 121.60500935801255}, "feature": {"sight_features": "", "sight_content": ""}}, {"title": "巧巧儿童游乐园", "address": "吕四港镇香堂路509号(豆豆幼儿园西隔壁)", "image": "", "rank": 44, "time": 2, "location": {"lat": 32.06819162506878, "lng": 121.61293707835549}, "feature": {"sight_features": "", "sight_content": ""}}, {"title": "龙王庙遗址", "address": "江苏省南通市启东市G328", "image": "", "rank": 45, "time": 2, "location": {"lat": 31.81423284964318, "lng": 121.66347374677267}, "feature": {"sight_features": "", "sight_content": ""}}, {"title": "启东市吕四港镇姜公馆休闲生态园", "address": "启东市吕四港镇兆天线168号", "image": "", "rank": 46, "time": 4.0, "location": {"lat": 32.03935696482828, "lng": 121.55916381170042}, "feature": {"sight_features": "", "sight_content": ""}}, {"title": "药监365法制文化园", "address": "南苑中路与民胜中路交叉口西北50米", "image": "", "rank": 47, "time": 2, "location": {"lat": 31.80399623132237, "lng": 121.6681419278977}, "feature": {"sight_features": "", "sight_content": ""}}, {"title": "和平广场", "address": "港东路与长江西路交叉口西北50米", "image": "", "rank": 48, "time": 0.25, "location": {"lat": 31.82955789898591, "lng": 121.6608864768869}, "feature": {"sight_features": "", "sight_content": ""}}, {"title": "南阳镇农民文化休闲广场", "address": "圩北路北200米", "image": "", "rank": 49, "time": 2, "location": {"lat": 33.61176063170592, "lng": 119.04490300199568}, "feature": {"sight_features": "", "sight_content": ""}}, {"title": "近海镇休闲广场", "address": "东惠线与南海公路交叉口东北100米", "image": "", "rank": 50, "time": 2, "location": {"lat": 31.910651489913366, "lng": 121.79360209520223}, "feature": {"sight_features": "", "sight_content": ""}}, {"title": "红盾法治文化广场", "address": "民胜中路568号附近", "image": "", "rank": 51, "time": 2, "location": {"lat": 31.81568427482794, "lng": 121.67874658947406}, "feature": {"sight_features": "", "sight_content": ""}}, {"title": "丁仓港滨河体育公园", "address": "丁仓港路与吉祥路交叉口东100米", "image": "", "rank": 52, "time": 2, "location": {"lat": 31.7987320202959, "lng": 121.69853573011576}, "feature": {"sight_features": "", "sight_content": ""}}, {"title": "海复影剧院", "address": "江苏省南通市启东市复西兴海路海复镇政府东北150米", "image": "", "rank": 53, "time": 2, "location": {"lat": 31.99251008302369, "lng": 121.69598412116216}, "feature": {"sight_features": "", "sight_content": ""}}, {"title": "合作堂", "address": "志圩线附近", "image": "", "rank": 54, "time": 2, "location": {"lat": 31.92522937107247, "lng": 121.62961454779554}, "feature": {"sight_features": "", "sight_content": ""}}, {"title": "长丰度假村", "address": "江苏省南通市启东市启东北收费站北", "image": "", "rank": 55, "time": 2, "location": {"lat": 31.863328615442562, "lng": 121.69511720065009}, "feature": {"sight_features": "", "sight_content": ""}}, {"title": "儿童乐园", "address": "汇龙镇汇龙镇公园中路", "image": "", "rank": 56, "time": 2, "location": {"lat": 31.815392854566387, "lng": 121.67089340353917}, "feature": {"sight_features": "", "sight_content": ""}}, {"title": "七甲大圣庙", "address": "南通市启东市二二一省道", "image": "", "rank": 57, "time": 2, "location": {"lat": 32.04206039515794, "lng": 121.67666581233945}, "feature": {"sight_features": "", "sight_content": ""}}, {"title": "公园南路", "address": "江苏省南通市启东市", "image": "", "rank": 58, "time": 2, "location": {"lat": 31.81423284964318, "lng": 121.66347374677267}, "feature": {"sight_features": "", "sight_content": ""}}, {"title": "章震画廊", "address": "文汇新村1号", "image": "", "rank": 59, "time": 2, "location": {"lat": 29.90882092486897, "lng": 121.59458239788981}, "feature": {"sight_features": "", "sight_content": ""}}, {"title": "启东市档案馆", "address": "民乐中路664号", "image": "", "rank": 60, "time": 1.0, "location": {"lat": 22.597124134237003, "lng": 113.24523742683165}, "feature": {"sight_features": "", "sight_content": ""}}]}