{"cityName": "祁东", "days": 2, "cityImage": "", "spots": [{"title": "万福寺", "address": "衡阳市祁东县", "image": "", "rank": 1, "time": 2.0, "location": {"lat": 26.805995255190922, "lng": 112.09644737847452}, "feature": {"sight_features": "", "sight_content": ""}}, {"title": "洪城温泉", "address": "衡阳市祁东县", "image": "", "rank": 2, "time": 2, "location": {"lat": 26.805995255190922, "lng": 112.09644737847452}, "feature": {"sight_features": "", "sight_content": ""}}, {"title": "祁东图书馆", "address": "沿江东路", "image": "", "rank": 3, "time": 1.5, "location": {"lat": 30.18103337336947, "lng": 121.09115798570218}, "feature": {"sight_features": "", "sight_content": ""}}, {"title": "祁东温泉游泳池水上世界", "address": "沿江路", "image": "", "rank": 4, "time": 2, "location": {"lat": 23.121864282887806, "lng": 113.28399612328477}, "feature": {"sight_features": "", "sight_content": ""}}, {"title": "玉合广场", "address": "永昌大道与竹苑路交叉口西北150米", "image": "", "rank": 5, "time": 2, "location": {"lat": 26.80304405106866, "lng": 112.09527153159625}, "feature": {"sight_features": "", "sight_content": ""}}, {"title": "灵官镇图书室", "address": "317省道", "image": "", "rank": 6, "time": 2, "location": {"lat": 36.10879203258049, "lng": 114.98930841622683}, "feature": {"sight_features": "", "sight_content": ""}}, {"title": "赤松亭遗址", "address": "湖南省南县城东北隅 413200", "image": "", "rank": 7, "time": null, "location": {"lat": 29.36706985336325, "lng": 112.40254156733745}, "feature": {"sight_features": "", "sight_content": ""}}, {"title": "清江桥", "address": "湖南省祁东县城连墟乡 421641", "image": "", "rank": 8, "time": 2, "location": {"lat": 26.87192636023019, "lng": 111.70494673219386}, "feature": {"sight_features": "", "sight_content": ""}}, {"title": "三友村窑址", "address": "湖南省祁东县河洲镇 421691", "image": "", "rank": 9, "time": 2, "location": {"lat": 26.508160813911807, "lng": 112.27111057355502}, "feature": {"sight_features": "", "sight_content": ""}}, {"title": "衡宝战役烈士墓", "address": "湖南省郴州市北湖区黄土铺镇五四村 410300", "image": "", "rank": 10, "time": 1.5, "location": {"lat": 25.790814594339682, "lng": 113.01748199382278}, "feature": {"sight_features": "", "sight_content": ""}}, {"title": "永昌故城", "address": "湖南省祁东县砖墉镇烟河岭村 421600", "image": "", "rank": 11, "time": 3.0, "location": {"lat": 26.832026150021363, "lng": 111.77116950265554}, "feature": {"sight_features": "", "sight_content": ""}}, {"title": "株树山亭", "address": "湖南省祁东县过水坪镇樟树村 421600", "image": "", "rank": 12, "time": 2, "location": {"lat": 26.65734825856132, "lng": 112.14870063858228}, "feature": {"sight_features": "", "sight_content": ""}}, {"title": "砖塘汉墓群", "address": "湖南省祁东县西北42公里 421600", "image": "", "rank": 13, "time": 2, "location": {"lat": 26.805995255190922, "lng": 111.71915906440842}, "feature": {"sight_features": "", "sight_content": ""}}, {"title": "江口度假村", "address": "393乡道附近", "image": "", "rank": 14, "time": 2, "location": {"lat": 32.50743504049546, "lng": 120.36223680368559}, "feature": {"sight_features": "", "sight_content": ""}}, {"title": "唐家祠堂", "address": "衡阳市祁东县金星村对家组", "image": "", "rank": 15, "time": 2.5, "location": {"lat": 26.768947211590714, "lng": 112.23613142746606}, "feature": {"sight_features": "", "sight_content": ""}}, {"title": "湖南省衡南县近尾洲镇临江村临江...", "address": "湖南省衡阳市衡南县", "image": "", "rank": 16, "time": 2, "location": {"lat": 26.74453195677219, "lng": 112.68440252778792}, "feature": {"sight_features": "", "sight_content": ""}}, {"title": "陈家祠堂", "address": "衡阳市祁东县", "image": "", "rank": 17, "time": 1.5, "location": {"lat": 26.805995255190922, "lng": 112.09644737847452}, "feature": {"sight_features": "", "sight_content": ""}}, {"title": "老祠堂", "address": "衡阳市祁东县二一零省道", "image": "", "rank": 18, "time": 2, "location": {"lat": 26.64185631876061, "lng": 112.2069065273364}, "feature": {"sight_features": "", "sight_content": ""}}, {"title": "桥头山水上乐园", "address": "步云桥镇桥头山村", "image": "", "rank": 19, "time": 2, "location": {"lat": 26.949677291414346, "lng": 111.78376590542773}, "feature": {"sight_features": "", "sight_content": ""}}, {"title": "兴旺画廊", "address": "劳动街与莲花西路交叉口西南50米", "image": "", "rank": 20, "time": 2, "location": {"lat": 26.796722792475123, "lng": 112.11492265541747}, "feature": {"sight_features": "", "sight_content": ""}}, {"title": "志华生态休闲农庄", "address": "河洲镇前锦村通花铺", "image": "", "rank": 21, "time": 2, "location": {"lat": 26.51511755267834, "lng": 112.29705711940507}, "feature": {"sight_features": "", "sight_content": ""}}, {"title": "万福村窑址", "address": "湖南省祁东县万福岭乡", "image": "", "rank": 22, "time": 2, "location": {"lat": 26.805995255190922, "lng": 112.09644737847452}, "feature": {"sight_features": "", "sight_content": ""}}, {"title": "永安步行街", "address": "湖南省祁东县永安步行街", "image": "", "rank": 23, "time": 3.0, "location": {"lat": 26.80276369513705, "lng": 112.0983947251584}, "feature": {"sight_features": "", "sight_content": ""}}, {"title": "湖南省衡阳市祁东县步行商业街", "address": "湖南省祁东县正东路附近", "image": "", "rank": 24, "time": 2, "location": {"lat": 26.789157828393932, "lng": 112.13401498649978}, "feature": {"sight_features": "", "sight_content": ""}}, {"title": "归阳状元桥", "address": "湖南省衡阳祁东县归阳镇", "image": "", "rank": 25, "time": null, "location": {"lat": 26.570070520784522, "lng": 112.22316227911078}, "feature": {"sight_features": "", "sight_content": ""}}]}