{"cityName": "且末", "days": 2, "cityImage": "", "spots": [{"title": "且末古城", "address": "新疆且末县城西南约6公里的老车尔臣河岸台地上", "image": "", "rank": 1, "time": 1.0, "location": {"lat": 38.15138769412976, "lng": 85.53599038573108}, "feature": {"sight_features": "", "sight_content": ""}}, {"title": "尼牙孜庄园", "address": "新疆巴音郭勒地区西托格拉克勒克乡", "image": "", "rank": 2, "time": 1.0, "location": {"lat": 38.12325488441011, "lng": 85.49003103381253}, "feature": {"sight_features": "", "sight_content": ""}}, {"title": "扎滚鲁克古墓葬", "address": "巴州且末县城西南5公里处，托格拉克勒克乡扎磙鲁克村台地上", "image": "", "rank": 3, "time": 1.0, "location": {"lat": 38.12325488441011, "lng": 85.49003103381253}, "feature": {"sight_features": "", "sight_content": ""}}, {"title": "中昆仑野生动物园", "address": "且末县且末镇以南232公里处。", "image": "", "rank": 4, "time": 1.0, "location": {"lat": 36.48314488245224, "lng": 85.5438975674504}, "feature": {"sight_features": "", "sight_content": ""}}, {"title": "且末猎场", "address": "巴音郭楞蒙古自治州且末县150公里的阿尔金山北麓的塔特勒克苏与江尕勒萨依之间地区", "image": "", "rank": 5, "time": 1.0, "location": {"lat": 37.23373097811765, "lng": 85.43517531821658}, "feature": {"sight_features": "", "sight_content": ""}}, {"title": "莫勒切河谷岩画", "address": "且末县东南约180公里处阿尔金山北麓", "image": "", "rank": 6, "time": 1.0, "location": {"lat": 37.23373097811765, "lng": 85.43517531821658}, "feature": {"sight_features": "", "sight_content": ""}}, {"title": "且末县博物馆", "address": "教育局西侧", "image": "", "rank": 7, "time": 2, "location": {"lat": 38.14916880303299, "lng": 85.53611813043393}, "feature": {"sight_features": "", "sight_content": ""}}, {"title": "鳄鱼梁", "address": "新疆维吾尔自治区巴音郭楞蒙古自治州且末县", "image": "", "rank": 8, "time": 2, "location": {"lat": 38.15138769412976, "lng": 85.53599038573108}, "feature": {"sight_features": "", "sight_content": ""}}, {"title": "且末县水上乐园", "address": "河东治沙站水上乐园", "image": "", "rank": 9, "time": 2, "location": {"lat": 39.12662568466626, "lng": 117.2616931652718}, "feature": {"sight_features": "", "sight_content": ""}}, {"title": "且末故城", "address": "新疆维吾尔自治区且末县境内", "image": "", "rank": 10, "time": 3.0, "location": {"lat": 38.15138769412976, "lng": 85.53599038573108}, "feature": {"sight_features": "", "sight_content": ""}}, {"title": "且末大巴扎市场", "address": "新疆维吾尔自治区且末县埃塔路", "image": "", "rank": 11, "time": 1.0, "location": {"lat": 38.1479681320587, "lng": 85.53828416770841}, "feature": {"sight_features": "", "sight_content": ""}}, {"title": "英吾斯塘乡科普活动站", "address": "新疆维吾尔自治区且末县315国道", "image": "", "rank": 12, "time": 2, "location": {"lat": 38.17108839385362, "lng": 85.52866838734981}, "feature": {"sight_features": "", "sight_content": ""}}, {"title": "巴拉力克塔合", "address": "巴音郭楞蒙古自治州-且末县", "image": "", "rank": 13, "time": 2, "location": {"lat": 38.15138769412976, "lng": 85.53599038573108}, "feature": {"sight_features": "", "sight_content": ""}}]}