{"cityName": "祁连", "days": 2, "cityImage": "", "spots": [{"title": "卓尔山", "address": "海北藏族自治州祁连县藏族祁连县八宝镇拉洞台村卓尔山风景区", "image": "", "rank": 1, "time": 4.0, "location": {"lat": 38.18975373297451, "lng": 100.28328128308449}, "feature": {"sight_features": "特色1 碧绿草原与火红地貌辉映，隔河观赏巍峨雪山", "sight_content": "卓尔山是国家AAAA级景区，该景区被青海省文联命名的“音乐家采风基地”和“摄影家创作基地”。坐落在祁连县城八宝河北岸紧靠八宝河，与藏区神山阿咪东索（牛心山）隔河相望。\n站在卓儿山顶视野极度开阔，四周没有任何遮拦，对面是一山尽览四季景色的牛心山（该山顶的积雪终年不化），左右两侧分别是拉洞峡和白杨沟风景区，背面是连绵起伏的祁连山，山脚下滔滔八宝河像一条黄色的哈达环绕在县城周边。属丹霞地貌，藏语称“宗穆玛釉玛”，意为美丽的红润皇后，卓尔山色若沃丹、灿若红霞的地貌景致铺展出红山绿水和美丽祁连的大美画卷，具有很高的科考和旅游观赏价值。\n卓尔山又是一个天然观景台，是摄影家的理想摄影之地，也是艺术家们创作写生的好去处。\n加上县城卓尔山的地热温泉，形成了集林海、冰川、油菜花、村庄、峡谷、温泉、草原于一体的多元景观组合，是一派欧洲风情的真实写照，因此卓尔山景区在景观形态差异较小的青藏高原旅游区内具有凸显优势。"}}, {"title": "阿柔大寺", "address": "海北藏族自治州祁连县阿柔乡草大坂村3号", "image": "", "rank": 2, "time": 1.5, "location": {"lat": 38.07069812573051, "lng": 100.44615371714977}, "feature": {"sight_features": "", "sight_content": ""}}, {"title": "大冬树山垭口", "address": "海北藏族自治州祁连县204省道", "image": "", "rank": 3, "time": 2, "location": {"lat": 38.84989285741209, "lng": 98.8738231791415}, "feature": {"sight_features": "", "sight_content": ""}}, {"title": "牛心山", "address": "海北藏族自治州祁连县县城东南2公里", "image": "", "rank": 4, "time": 2.5, "location": {"lat": 38.18292487156922, "lng": 100.25962157242704}, "feature": {"sight_features": "", "sight_content": ""}}, {"title": "冰沟林海", "address": "海北藏族自治州祁连县东索路东100米", "image": "", "rank": 5, "time": 4.0, "location": {"lat": 38.189896381420546, "lng": 100.23911095168398}, "feature": {"sight_features": "", "sight_content": ""}}, {"title": "八一冰川", "address": "海北藏族自治州祁连县野牛沟乡", "image": "", "rank": 6, "time": 7.5, "location": {"lat": 38.46210619177484, "lng": 99.54949755537629}, "feature": {"sight_features": "", "sight_content": ""}}, {"title": "俄博岭垭口", "address": "海北藏族自治州祁连县G227公路", "image": "", "rank": 7, "time": 1.0, "location": {"lat": 38.18292487156922, "lng": 100.25962157242704}, "feature": {"sight_features": "", "sight_content": ""}}, {"title": "黑河大峡谷", "address": "海北藏族自治州祁连县黄藏寺村附近", "image": "", "rank": 8, "time": 2.0, "location": {"lat": 38.227027857168665, "lng": 100.2008593864073}, "feature": {"sight_features": "", "sight_content": ""}}, {"title": "阿柔草原", "address": "海北藏族自治州祁连县阿柔乡", "image": "", "rank": 9, "time": 2.0, "location": {"lat": 38.07069812573051, "lng": 100.44615371714977}, "feature": {"sight_features": "", "sight_content": ""}}, {"title": "八宝河", "address": "海北藏族自治州祁连县八宝镇", "image": "", "rank": 10, "time": 1.0, "location": {"lat": 38.18904464398858, "lng": 100.25154832114777}, "feature": {"sight_features": "", "sight_content": ""}}, {"title": "祁连山草原", "address": "海北藏族自治州祁连县祁连山冷龙岭北麓", "image": "", "rank": 11, "time": 1.5, "location": {"lat": 38.18292487156922, "lng": 100.25962157242704}, "feature": {"sight_features": "", "sight_content": ""}}, {"title": "祁连山风光旅游景区", "address": "海北藏族自治州祁连县境内", "image": "", "rank": 12, "time": 4.5, "location": {"lat": 38.18292487156922, "lng": 100.25962157242704}, "feature": {"sight_features": "", "sight_content": ""}}, {"title": "峨堡古城遗址", "address": "海北藏族自治州祁连县峨堡镇", "image": "", "rank": 13, "time": 1.0, "location": {"lat": 37.974713680098496, "lng": 100.94268549153271}, "feature": {"sight_features": "", "sight_content": ""}}, {"title": "《天境祁连》大型民族歌舞剧", "address": "海北藏族自治州祁连县光明路天境大剧院", "image": "", "rank": 14, "time": 2, "location": {"lat": 38.17749454644735, "lng": 100.26697815557046}, "feature": {"sight_features": "特色1 顶尖的演出场所、顶尖的灯光音响设备 特色2 浪漫唯美的传奇爱情故事", "sight_content": "【序：先知的歌】\n雪山从睡梦中惊醒，缓缓诉说着千年的传说⋯⋯（在很久很久以前，宗姆玛釉玛是龙宫里的公主。当时，山神阿咪东索与她之间产生了爱情，但是，他们一个在神界，一个在仙界，所以不能在一起。阿咪东索为了能与龙女宗姆玛釉玛长相厮守，想尽一切办法把宗姆玛釉玛请到卓尔山，又从景阳岭引来了八宝河流经卓尔山下，使龙女宗姆玛釉玛得到了滋润。\n【第一幕：山海恋】\n龙女跑出龙宫，来到人世间，与山神演绎一段美丽的爱情传奇。\n雪山神牛\n龙女玛釉玛逃出圣湖，第一次看到美丽的草原。白色的毡房映衬着湛蓝的天空和碧绿的草地，白色牦牛在绿野上奔跑，藏族少女跳着舞蹈。古老的抢婚习俗欢腾着人们的喜悦，欢欣的龙女情不自禁地加入到跳舞的人群，陶醉在天地之间\n山盟海誓\n舞蹈的人群中健壮而深情的汉子阿咪东索与龙女玛釉玛在舞阵中相互对望，眉目传情，彼此都深深的坠入爱河，鲜花开满草原，蝴蝶到处飞舞。\n\n\n【第二幕：爱成决】\n龙女与山神的爱情触怒天神，山神被天神凝成山石。为救山神，龙女踏上了求索之路。\n【第三幕：龙女泪】\n峨堡古城里雄伟的建筑错落有致，商品琳琅满目，各族商人叫卖声此起彼落，兜售祁连神鹿，牦牛皮毡，牦牛肉，冬虫夏草，黄蘑菇。龙女穿街过巷打听着老者的下落，终于在热闹的街角找到了老者……\n\n【第四幕：太阳舞】\n河流环抱的草原腹地，蒙古包上飞扬着彩旗一个盛大的节日正在进行，骑马射箭，祭祀摔跤，牧马少年巴特尔正在和伙伴们比舞，绚丽的技巧让无数姑娘迷醉，有一双眼睛分明真挚，他温热的眼神似曾相似……\n前世今生\n所有舞者都败下阵来，龙女走上前与巴特尔“挑战”，巴特尔也觉得龙女似曾相识，又不知何时见过。龙女带巴特尔跳起当年他们跳过的双人舞，一瞬间太阳的光芒投射在巴特尔的身上，前世的所有记忆都苏醒了，酥油灯点亮……\n【尾声：爱的史诗】\n雪山上，天境祁连的歌声久久回荡，人们在阿柔大寺为祁连祈福，众人用歌声、用舞蹈表达对这片土地的歌颂。"}}, {"title": "雪域温泉水世界", "address": "海北州祁连县卓尔山森林公园八宝河畔", "image": "", "rank": 15, "time": 2, "location": {"lat": 38.1457075762479, "lng": 100.29482367705681}, "feature": {"sight_features": "特色1 水上旅游基地。 特色2 集餐饮、娱乐、温泉、疗理于一体的高档次温泉总汇。", "sight_content": "祁连县雪域温泉水世界是祁连玉林旅游开发有限公司开发的旅游重大项目之一，位于祁连县赤壁丹霞的卓尔山底八宝河畔。场馆总占地面积为9779㎡，总建筑面积为13000㎡。\n其中包括娱乐场馆、人工湖、地热井三眼、冷水井蓄水池200立方米，管道长500米，以及水世界场馆内装饰装潢、绿化等配套项目。场馆项目主要包括：游泳池、温泉泡池、儿童戏水区、成人滑水区、餐饮区、健身康体中心、沙疗区、造浪池、演艺舞台、多功能大厅、休闲广场等20多个泡池，最大容纳人数可达2023人用于洗浴、娱乐、休闲、养生、温泉理疗及商务商洽。\n祁连县东方瑞士水世界地建成，将为祁连县打造集观光、休闲、度假、娱乐为一体的青藏高原综合性旅游提供优良的服务平台。"}}, {"title": "三角城遗址", "address": "海北藏族自治州祁连县峨堡镇黄草沟村", "image": "", "rank": 16, "time": 0.5, "location": {"lat": 38.02092891465027, "lng": 100.70121041805582}, "feature": {"sight_features": "", "sight_content": ""}}, {"title": "默勒草原", "address": "海北藏族自治州祁连县默勒镇", "image": "", "rank": 17, "time": 1.5, "location": {"lat": 37.72417502698225, "lng": 100.58588762753308}, "feature": {"sight_features": "", "sight_content": ""}}, {"title": "祁连鹿场", "address": "海北藏族自治州祁连县野牛沟乡二尕公路附近", "image": "", "rank": 18, "time": 2.5, "location": {"lat": 38.075189918675235, "lng": 100.22628063913592}, "feature": {"sight_features": "", "sight_content": ""}}, {"title": "青秀牧家休闲园", "address": "宁张公路", "image": "", "rank": 19, "time": 2, "location": {"lat": 38.36782738373057, "lng": 100.87053551714168}, "feature": {"sight_features": "", "sight_content": ""}}, {"title": "聚能山庄", "address": "白杨沟村口300", "image": "", "rank": 20, "time": 2, "location": {"lat": 37.79386071833458, "lng": 114.19421344473294}, "feature": {"sight_features": "", "sight_content": ""}}, {"title": "森辉山庄", "address": "林场路36号", "image": "", "rank": 21, "time": 2, "location": {"lat": 32.06054279851417, "lng": 119.07314154956978}, "feature": {"sight_features": "", "sight_content": ""}}, {"title": "祁连县峨堡镇德源牛羊育肥基地", "address": "304省道附近", "image": "", "rank": 22, "time": 2, "location": {"lat": 38.007414201086036, "lng": 114.44892402313616}, "feature": {"sight_features": "", "sight_content": ""}}, {"title": "外江寺", "address": "304省道附近", "image": "", "rank": 23, "time": 2, "location": {"lat": 38.007414201086036, "lng": 114.44892402313616}, "feature": {"sight_features": "", "sight_content": ""}}, {"title": "野牛沟清真大寺", "address": "二尕公路西50米", "image": "", "rank": 24, "time": 2, "location": {"lat": 38.075189918675235, "lng": 100.22583148638093}, "feature": {"sight_features": "", "sight_content": ""}}, {"title": "文化广场", "address": "人民路", "image": "", "rank": 25, "time": 1.5, "location": {"lat": 23.37490057686854, "lng": 103.40661159663834}, "feature": {"sight_features": "", "sight_content": ""}}, {"title": "云咖啡", "address": "瑞士街入口1号", "image": "", "rank": 26, "time": 2, "location": {"lat": 38.07967382894908, "lng": 114.48988656125546}, "feature": {"sight_features": "", "sight_content": ""}}, {"title": "海北州祁连山", "address": "青海省祁连县境内 810400", "image": "", "rank": 27, "time": 2, "location": {"lat": 38.18292487156922, "lng": 100.25962157242704}, "feature": {"sight_features": "", "sight_content": ""}}, {"title": "海悦避暑山庄", "address": "祁连八宝镇冰沟村259号", "image": "", "rank": 28, "time": 2, "location": {"lat": 38.166327698886974, "lng": 100.20443432343856}, "feature": {"sight_features": "", "sight_content": ""}}, {"title": "天境之眼休闲广场", "address": "海北藏族自治州祁连县八宝镇中心广场后面卓尔山风景区内", "image": "", "rank": 29, "time": 2, "location": {"lat": 38.18975373297451, "lng": 100.28328128308449}, "feature": {"sight_features": "", "sight_content": ""}}, {"title": "祁连山野牧歌度假村", "address": "海北祁连拉洞台村卓尔山风景区路口", "image": "", "rank": 30, "time": 2, "location": {"lat": 38.18975373297451, "lng": 100.28328128308449}, "feature": {"sight_features": "", "sight_content": ""}}, {"title": "佛光普照", "address": "海北藏族自治州祁连县神鹿山旅游度假山庄内", "image": "", "rank": 31, "time": 2, "location": {"lat": 38.18292487156922, "lng": 100.25962157242704}, "feature": {"sight_features": "", "sight_content": ""}}, {"title": "央隆清真大寺", "address": "央隆清真寺35", "image": "", "rank": 32, "time": 2, "location": {"lat": 38.82516751399718, "lng": 98.42157935758759}, "feature": {"sight_features": "", "sight_content": ""}}, {"title": "下塘台遗址", "address": "扎麻什乡下塘台遗址", "image": "", "rank": 33, "time": 2, "location": {"lat": 38.230355841678666, "lng": 99.99221165262246}, "feature": {"sight_features": "", "sight_content": ""}}, {"title": "避暑山庄", "address": "东索路西50米", "image": "", "rank": 34, "time": 7.5, "location": {"lat": 37.976439963662315, "lng": 100.23865162831402}, "feature": {"sight_features": "", "sight_content": ""}}, {"title": "石佛寺", "address": "227国道附近", "image": "", "rank": 35, "time": 1.5, "location": {"lat": 37.96006729119905, "lng": 100.95816145394333}, "feature": {"sight_features": "", "sight_content": ""}}, {"title": "错格尔陇哇", "address": "海北藏族自治州祁连县", "image": "", "rank": 36, "time": 2, "location": {"lat": 38.18292487156922, "lng": 100.25962157242704}, "feature": {"sight_features": "", "sight_content": ""}}, {"title": "祁连县档案馆", "address": "八宝西路41号", "image": "", "rank": 37, "time": 2, "location": {"lat": 38.18114222691429, "lng": 100.25516004828118}, "feature": {"sight_features": "", "sight_content": ""}}, {"title": "民俗博物馆", "address": "广场东路8号", "image": "", "rank": 38, "time": 1.5, "location": {"lat": 29.0291778620997, "lng": 119.17826293863403}, "feature": {"sight_features": "", "sight_content": ""}}, {"title": "图书馆", "address": "广场西路", "image": "", "rank": 39, "time": 1.0, "location": {"lat": 37.98241729184802, "lng": 115.22348279194271}, "feature": {"sight_features": "", "sight_content": ""}}, {"title": "祁连县资源分布展览馆", "address": "广场东路", "image": "", "rank": 40, "time": 2, "location": {"lat": 37.98188574771287, "lng": 115.22630694858466}, "feature": {"sight_features": "", "sight_content": ""}}, {"title": "卓尔山农家驿站", "address": "拉洞台村卓尔山风景区内", "image": "", "rank": 41, "time": null, "location": {"lat": 38.18975373297451, "lng": 100.28328128308449}, "feature": {"sight_features": "", "sight_content": ""}}, {"title": "祁连温泉", "address": "水磨路57号", "image": "", "rank": 42, "time": 4.0, "location": {"lat": 38.1928171827489, "lng": 100.24892697583908}, "feature": {"sight_features": "", "sight_content": ""}}, {"title": "东方瑞士印象街", "address": "青海省祁连县人民路附近", "image": "", "rank": 43, "time": 1.5, "location": {"lat": 38.184199911455686, "lng": 100.25618305117221}, "feature": {"sight_features": "", "sight_content": ""}}, {"title": "祁连天域景都帐篷度假村", "address": "海北藏族自治州马拉河村", "image": "", "rank": 44, "time": 4.0, "location": {"lat": 38.2030627220967, "lng": 100.26865439365207}, "feature": {"sight_features": "", "sight_content": ""}}, {"title": "冬树哑口", "address": "海北藏族自治州祁连县大冬树山哑口", "image": "", "rank": 45, "time": 2, "location": {"lat": 38.18292487156922, "lng": 100.25962157242704}, "feature": {"sight_features": "", "sight_content": ""}}, {"title": "古三角城", "address": "青海省海北藏族自治州祁连县黄草沟村", "image": "", "rank": 46, "time": 2, "location": {"lat": 38.02092891465027, "lng": 100.70121041805582}, "feature": {"sight_features": "", "sight_content": ""}}, {"title": "祁连大草原", "address": "祁连县祁连", "image": "", "rank": 47, "time": 10.5, "location": {"lat": 38.18292487156922, "lng": 100.25962157242704}, "feature": {"sight_features": "", "sight_content": ""}}]}