{"cityName": "青龙", "days": 2, "cityImage": "", "spots": [{"title": "祖山风景区", "address": "秦皇岛市青龙满族自治县京省高速秦皇岛北出口青龙方向25公里处", "image": "", "rank": 1, "time": 4.5, "location": {"lat": 40.41279370231334, "lng": 118.95648129586817}, "feature": {"sight_features": "特色1 登祖山天女峰，向东可观日出，向西可望长城。 步入东门，看十里画廊两旁山势峥嵘、奇峰叠出。", "sight_content": "祖山风景区位于秦皇岛市青龙满族自治县东南境内，山清水秀、石奇林密，自然旅游资源丰富，素有“京东胜地”、“塞北黄山”的美誉，是集观景、观鸟、休闲、度假为一体的中国最有魅力的文化生态旅游胜地。总面积118平方公里，共分天女峰、望海寺、画廊谷、飞瀑谷及乌龙谷五大景区，72处景点，被评为河北十大名山之一、国家4A级旅游景区、河北省四星级森林公园、国家级地质公园、国家级风景名胜区、国家稀有植物及濒危野生动物保护区。\n祖山一年四季景色皆宜。春季，繁花似锦，百鸟争鸣；南国仙子杜鹃花是报春的使者，那绿与红相间的春意仿若一夜甜梦而颊区红晕的少女，美丽可人。 六月份，是古生代遗留、国家濒危植物天女木兰盛开的季节，四面八方的游客云集于此，只为一睹天女木兰的芳容；秋季，红叶漫山，野果飘香；冬季的祖山银装素裹，玉树琼花。"}}, {"title": "天女峰", "address": "秦皇岛市青龙满族自治县祖山镇祖山风景区内", "image": "", "rank": 2, "time": 0.6, "location": {"lat": 40.13593186136551, "lng": 119.50179652203873}, "feature": {"sight_features": "", "sight_content": ""}}, {"title": "画廊谷", "address": "秦皇岛市青龙满族自治县祖山镇祖山风景区内", "image": "", "rank": 3, "time": 2.5, "location": {"lat": 40.13593186136551, "lng": 119.50179652203873}, "feature": {"sight_features": "", "sight_content": ""}}, {"title": "望海禅寺", "address": "秦皇岛市青龙满族自治县祖山镇祖山风景区内", "image": "", "rank": 4, "time": 1.0, "location": {"lat": 40.13593186136551, "lng": 119.50179652203873}, "feature": {"sight_features": "", "sight_content": ""}}, {"title": "仙女云床", "address": "秦皇岛市青龙满族自治县祖山镇祖山风景区内", "image": "", "rank": 5, "time": 2, "location": {"lat": 40.13593186136551, "lng": 119.50179652203873}, "feature": {"sight_features": "", "sight_content": ""}}, {"title": "花果山景区", "address": "秦皇岛市青龙满族自治县高速下口", "image": "", "rank": 6, "time": 1.5, "location": {"lat": 40.41279370231334, "lng": 118.95648129586817}, "feature": {"sight_features": "", "sight_content": ""}}, {"title": "响山景区", "address": "秦皇岛市青龙满族自治县祖山镇祖山旅游区内", "image": "", "rank": 7, "time": 1.0, "location": {"lat": 40.168936506827016, "lng": 119.43391531339724}, "feature": {"sight_features": "", "sight_content": ""}}, {"title": "黄金溶洞", "address": "秦皇岛市青龙满族自治县凉水河乡石山沟村", "image": "", "rank": 8, "time": 1.0, "location": {"lat": 40.317108904228846, "lng": 118.67192789991446}, "feature": {"sight_features": "", "sight_content": ""}}, {"title": "神龟探海", "address": "秦皇岛市青龙满族自治县祖山镇祖山风景区内", "image": "", "rank": 9, "time": 0.4, "location": {"lat": 40.13593186136551, "lng": 119.50179652203873}, "feature": {"sight_features": "", "sight_content": ""}}, {"title": "飞流三跳", "address": "秦皇岛市青龙满族自治县祖山镇祖山风景区内", "image": "", "rank": 10, "time": 0.4, "location": {"lat": 40.13593186136551, "lng": 119.50179652203873}, "feature": {"sight_features": "", "sight_content": ""}}, {"title": "刘伶醉卧", "address": "秦皇岛市青龙满族自治县祖山镇祖山风景区内", "image": "", "rank": 11, "time": 0.75, "location": {"lat": 40.13593186136551, "lng": 119.50179652203873}, "feature": {"sight_features": "", "sight_content": ""}}, {"title": "童戏驼峰", "address": "秦皇岛市青龙满族自治县祖山镇祖山风景区内", "image": "", "rank": 12, "time": 0.4, "location": {"lat": 40.13593186136551, "lng": 119.50179652203873}, "feature": {"sight_features": "", "sight_content": ""}}, {"title": "飞瀑谷", "address": "秦皇岛市青龙满族自治县祖山镇祖山风景区内", "image": "", "rank": 13, "time": 1.0, "location": {"lat": 40.13593186136551, "lng": 119.50179652203873}, "feature": {"sight_features": "", "sight_content": ""}}, {"title": "天女亭", "address": "秦皇岛市青龙满族自治县祖山镇祖山风景区内", "image": "", "rank": 14, "time": 0.25, "location": {"lat": 40.13593186136551, "lng": 119.50179652203873}, "feature": {"sight_features": "", "sight_content": ""}}, {"title": "秀才观榜", "address": "秦皇岛市青龙满族自治县祖山镇祖山风景区内", "image": "", "rank": 15, "time": 0.35, "location": {"lat": 40.13593186136551, "lng": 119.50179652203873}, "feature": {"sight_features": "", "sight_content": ""}}, {"title": "青龙官场梨花节", "address": "秦皇岛市青龙县官场乡头道窝铺村", "image": "", "rank": 16, "time": 4.5, "location": {"lat": 40.166739173510486, "lng": 119.14434180716886}, "feature": {"sight_features": "", "sight_content": ""}}, {"title": "南胡哈石长城", "address": "秦皇岛市青龙县干沟乡南胡哈村", "image": "", "rank": 17, "time": 2, "location": {"lat": 40.49886044332781, "lng": 119.51892712187669}, "feature": {"sight_features": "", "sight_content": ""}}, {"title": "花厂峪", "address": "河北省青龙满族自治县祖山镇 066501", "image": "", "rank": 18, "time": 2, "location": {"lat": 40.23560365538944, "lng": 119.46615186989439}, "feature": {"sight_features": "", "sight_content": ""}}, {"title": "青龙影剧院", "address": "八旗街与祖山路交叉口东南50米", "image": "", "rank": 19, "time": 4.5, "location": {"lat": 40.4105865467139, "lng": 118.9589436294236}, "feature": {"sight_features": "", "sight_content": ""}}, {"title": "佛光永照", "address": "秦皇岛市青龙满族自治县燕山路", "image": "", "rank": 20, "time": 2, "location": {"lat": 40.41233781665064, "lng": 118.9478290830945}, "feature": {"sight_features": "", "sight_content": ""}}, {"title": "贝百佳儿童乐园", "address": "河北省秦皇岛市青龙满族自治县服务街8-3号", "image": "", "rank": 21, "time": 2, "location": {"lat": 40.41051358275721, "lng": 118.95471796706737}, "feature": {"sight_features": "", "sight_content": ""}}, {"title": "福乐游乐园", "address": "秦皇岛市青龙满族自治县中兴路", "image": "", "rank": 22, "time": 2, "location": {"lat": 40.41449865135643, "lng": 118.9816382572344}, "feature": {"sight_features": "", "sight_content": ""}}, {"title": "花场峪抗日纪念馆", "address": "祖山风景区附近", "image": "", "rank": 23, "time": 2, "location": {"lat": 40.14468909025135, "lng": 119.46327356878612}, "feature": {"sight_features": "", "sight_content": ""}}, {"title": "圣母泉", "address": "河北省秦皇岛市青龙满族自治县三星口乡李台子村", "image": "", "rank": 24, "time": 2, "location": {"lat": 40.42231513961717, "lng": 119.50877669181753}, "feature": {"sight_features": "", "sight_content": ""}}, {"title": "桃林口水库建设纪念碑", "address": "避暑洞附近", "image": "", "rank": 25, "time": 2, "location": {"lat": 28.51369030850385, "lng": 113.06279658856354}, "feature": {"sight_features": "", "sight_content": ""}}, {"title": "御水湾天然温泉", "address": "秦皇岛市青龙满族自治县温泉村", "image": "", "rank": 26, "time": 2, "location": {"lat": 40.20842705274754, "lng": 118.83124975001087}, "feature": {"sight_features": "", "sight_content": "青龙县御水湾天然温泉坐落于冷口关脚下，本地山青水秀，空气怡人，鸟语花香，在室内建设有游泳、冲浪、水疗、鱼疗、药浴、漂流、儿童水寨、滑梯、汗蒸、康养健身、餐饮等项目。"}}, {"title": "红蜻蜓温泉", "address": "252省道", "image": "", "rank": 27, "time": 2, "location": {"lat": 40.357909355104375, "lng": 118.90873123767143}, "feature": {"sight_features": "", "sight_content": ""}}, {"title": "国家档案馆", "address": "燕山路227号", "image": "", "rank": 28, "time": 1.0, "location": {"lat": 40.41386694112519, "lng": 118.96462099211111}, "feature": {"sight_features": "", "sight_content": ""}}, {"title": "图书馆", "address": "中兴路", "image": "", "rank": 29, "time": 1.0, "location": {"lat": 38.70935513883943, "lng": 117.51340835180949}, "feature": {"sight_features": "", "sight_content": ""}}, {"title": "龙潭幸福农家院", "address": "青龙镇棉花沟门", "image": "", "rank": 30, "time": 2, "location": {"lat": 40.30557621748649, "lng": 118.9647136756804}, "feature": {"sight_features": "", "sight_content": ""}}, {"title": "龙潭峡谷漂流", "address": "龙潭村龙潭峡谷漂流(龙潭村村委会旁)", "image": "", "rank": 31, "time": 2, "location": {"lat": 27.113097106081483, "lng": 119.32918799290914}, "feature": {"sight_features": "", "sight_content": ""}}, {"title": "老岭", "address": "河北省青龙满族自治县县城东南部", "image": "", "rank": 32, "time": 4.5, "location": {"lat": 40.41279370231334, "lng": 118.95648129586817}, "feature": {"sight_features": "", "sight_content": ""}}, {"title": "青龙河", "address": "河北省青龙满族自治县境内", "image": "", "rank": 33, "time": null, "location": {"lat": 40.41279370231334, "lng": 118.95648129586817}, "feature": {"sight_features": "", "sight_content": ""}}, {"title": "大棒锤沟", "address": "秦皇岛市-青龙满族自治县", "image": "", "rank": 34, "time": 2, "location": {"lat": 40.41279370231334, "lng": 118.95648129586817}, "feature": {"sight_features": "", "sight_content": ""}}, {"title": "祖山索道-上站", "address": "秦皇岛市-青龙满族自治县-京省高速秦皇岛北出口青龙方向25公里处祖山风景区内", "image": "", "rank": 35, "time": 2, "location": {"lat": 40.13593186136551, "lng": 119.50179652203873}, "feature": {"sight_features": "", "sight_content": ""}}, {"title": "七彩青龙自然城", "address": "秦皇岛市青龙满族自治县茨榆山乡蔡峪村", "image": "", "rank": 36, "time": 2, "location": {"lat": 40.3137656779162, "lng": 119.16030354535181}, "feature": {"sight_features": "", "sight_content": ""}}]}