{"cityName": "庆元", "days": 2, "cityImage": "", "spots": [{"title": "百山祖景区", "address": "丽水市庆元百山祖乡车根村林学路66号", "image": "", "rank": 1, "time": 7.5, "location": {"lat": 27.74026232892494, "lng": 119.19222472266227}, "feature": {"sight_features": "特色1 负氧离子高达100000个/ m3", "sight_content": "百山祖景区为国家AAAA级旅游景区，浙江省生态旅游示范区，是浙江凤阳山—百山祖国家级自然保护区的重要组成部分。百山祖最高峰海拔1856.7米，属武夷山系洞宫山脉，为浙江省第二高峰，被誉为“百山之祖”，并且是瓯江、闽江、赛江的发源地，素称“三江之源”。\n云海日出是著名景观之一，因山高雾多，云海成为百山祖的一大景观。夏日初秋，云海时如蛟龙翻滚，时如烈马狂奔，风平浪静之时，尤如姑娘害羞的脸上蒙着一层薄薄淡淡的面纱，茫茫云海，蔚为壮观，人在云上走，形似神仙游。此情此景可与泰山的日出相媲美，与黄山的云海比高低。\n百山祖景区位于丽水市庆元县百山祖乡境内，距庆元县城22公里。景区总面积570.9公顷，区内自然资源丰富，人文历史悠久，地理环境特殊，构成了百山祖的独特魅力。景区内分布有百山祖冷杉、低碳体验区、神秘百瀑沟、古道杜鹃谷等主要景点十余处。百山祖冷杉是第四世纪冰川时期的孑遗植物，素有“活化石”之称。因全球气候变暖，原先在地球上分布较广的百山祖冷杉只有向高海拔退缩，现生长在百山祖南坡的三株百山祖冷杉已是全球绝无仅有，故被国际物种保护委员会列为物种保护的全球十二种最濒危的植物之一。"}}, {"title": "月山村", "address": "丽水市庆元县举水乡月山村", "image": "", "rank": 2, "time": 3.0, "location": {"lat": 27.498281412852457, "lng": 119.18647029883849}, "feature": {"sight_features": "", "sight_content": ""}}, {"title": "龙泉大峡谷", "address": "丽水市庆元县百山祖乡境内", "image": "", "rank": 3, "time": 2.5, "location": {"lat": 27.740835670608732, "lng": 119.1918766688027}, "feature": {"sight_features": "", "sight_content": ""}}, {"title": "兰溪桥", "address": "丽水市庆元县五大堡乡西洋村", "image": "", "rank": 4, "time": 0.25, "location": {"lat": 27.68684177048052, "lng": 119.13679136942305}, "feature": {"sight_features": "", "sight_content": ""}}, {"title": "如龙桥", "address": "丽水市庆元县举水乡月山村", "image": "", "rank": 5, "time": 0.25, "location": {"lat": 27.498281412852457, "lng": 119.18647029883849}, "feature": {"sight_features": "", "sight_content": ""}}, {"title": "庆元古桥", "address": "省丽水市庆元县各乡镇", "image": "", "rank": 6, "time": 0.75, "location": {"lat": 27.625431778353544, "lng": 119.06948685497508}, "feature": {"sight_features": "", "sight_content": ""}}, {"title": "庆元县香菇博物馆", "address": "丽水市庆元县咏归路6号（生态公园内）", "image": "", "rank": 7, "time": null, "location": {"lat": 27.627049541568212, "lng": 119.06625832431227}, "feature": {"sight_features": "", "sight_content": ""}}, {"title": "濛淤桥", "address": "丽水市庆元县五大堡乡濛淤村", "image": "", "rank": 8, "time": 0.4, "location": {"lat": 27.607897135439334, "lng": 119.16152660868318}, "feature": {"sight_features": "", "sight_content": ""}}, {"title": "后坑桥", "address": "丽水市庆元县竹口镇大泽村与枫堂村之间", "image": "", "rank": 9, "time": 0.25, "location": {"lat": 27.747079256171006, "lng": 118.92819435313793}, "feature": {"sight_features": "", "sight_content": ""}}, {"title": "白云桥", "address": "丽水市庆元县举水乡月山村", "image": "", "rank": 10, "time": 0.25, "location": {"lat": 27.498281412852457, "lng": 119.18647029883849}, "feature": {"sight_features": "", "sight_content": ""}}, {"title": "来凤桥", "address": "丽水市庆元先举水乡月山村", "image": "", "rank": 11, "time": 0.4, "location": {"lat": 27.498281412852457, "lng": 119.18647029883849}, "feature": {"sight_features": "", "sight_content": ""}}, {"title": "双门桥", "address": "丽水市庆元县松源镇大济村", "image": "", "rank": 12, "time": 0.25, "location": {"lat": 27.60808086806846, "lng": 119.0842046277677}, "feature": {"sight_features": "", "sight_content": ""}}, {"title": "新桥", "address": "丽水市庆元县松源街道乌石岭村", "image": "", "rank": 13, "time": 0.25, "location": {"lat": 27.57951119898349, "lng": 119.0446783975278}, "feature": {"sight_features": "", "sight_content": ""}}, {"title": "黄水长桥", "address": "丽水市庆元县合湖乡黄水村", "image": "", "rank": 14, "time": 0.4, "location": {"lat": 27.768931451544017, "lng": 119.30527925580272}, "feature": {"sight_features": "", "sight_content": ""}}, {"title": "香菇城（庆元）", "address": "浙江省丽水市庆元县", "image": "", "rank": 15, "time": 2, "location": {"lat": 27.625431778353544, "lng": 119.06948685497508}, "feature": {"sight_features": "", "sight_content": ""}}, {"title": "庆元廊桥博物馆", "address": "丽水市庆元县松源镇石龙街1-1号", "image": "", "rank": 16, "time": 1.5, "location": {"lat": 27.62584681766746, "lng": 119.06820883572645}, "feature": {"sight_features": "", "sight_content": ""}}, {"title": "咏归桥", "address": "丽水市庆云县松源镇咏归路", "image": "", "rank": 17, "time": 2, "location": {"lat": 27.62741030217291, "lng": 119.06620381782885}, "feature": {"sight_features": "", "sight_content": ""}}, {"title": "上庄漂流", "address": "丽水庆元县上庄村", "image": "", "rank": 18, "time": 2, "location": {"lat": 27.669464096019077, "lng": 119.04857438176059}, "feature": {"sight_features": "", "sight_content": ""}}, {"title": "杉树王", "address": "丽水市庆元县（举水乡）月山村", "image": "", "rank": 19, "time": 2, "location": {"lat": 27.498281412852457, "lng": 119.18647029883849}, "feature": {"sight_features": "", "sight_content": ""}}, {"title": "步蟾桥", "address": "丽水市庆元县举水乡", "image": "", "rank": 20, "time": 2, "location": {"lat": 27.479883139725317, "lng": 119.18284632870048}, "feature": {"sight_features": "", "sight_content": ""}}, {"title": "烧香岩", "address": "浙江省丽水市龙泉市", "image": "", "rank": 21, "time": 2, "location": {"lat": 28.080508725251303, "lng": 119.14844476520678}, "feature": {"sight_features": "", "sight_content": ""}}, {"title": "新村阙桥", "address": "丽水市庆元县贤良镇新村", "image": "", "rank": 22, "time": 0.25, "location": {"lat": 27.67324672748297, "lng": 119.23401456780346}, "feature": {"sight_features": "", "sight_content": ""}}, {"title": "余地桥", "address": "丽水市庆元县安南乡上余村余地", "image": "", "rank": 23, "time": 0.25, "location": {"lat": 27.545341835231604, "lng": 119.09199012843362}, "feature": {"sight_features": "", "sight_content": ""}}, {"title": "龙凤桥", "address": "丽水市庆元县岭头乡小际头村", "image": "", "rank": 24, "time": null, "location": {"lat": 27.523324360568644, "lng": 119.20934314147183}, "feature": {"sight_features": "", "sight_content": ""}}, {"title": "鸳鸯井", "address": "丽水市庆元县（举水乡）月山村", "image": "", "rank": 25, "time": 0.15000000000000002, "location": {"lat": 27.498281412852457, "lng": 119.18647029883849}, "feature": {"sight_features": "", "sight_content": ""}}, {"title": "山源人家", "address": "百山祖镇", "image": "", "rank": 26, "time": null, "location": {"lat": 27.764009840294616, "lng": 119.25326786625004}, "feature": {"sight_features": "", "sight_content": ""}}, {"title": "常青乐园", "address": "竹坑路附近", "image": "", "rank": 27, "time": 2, "location": {"lat": 24.511903043976478, "lng": 118.10154731086257}, "feature": {"sight_features": "", "sight_content": ""}}, {"title": "落花垟", "address": "丽水市-庆元县", "image": "", "rank": 28, "time": 2, "location": {"lat": 27.625431778353544, "lng": 119.06948685497508}, "feature": {"sight_features": "", "sight_content": ""}}, {"title": "双苗尖", "address": "宁德市寿宁县 ‎", "image": "", "rank": 29, "time": 2, "location": {"lat": 27.46664965996927, "lng": 119.51142504877579}, "feature": {"sight_features": "", "sight_content": ""}}]}