{"cityName": "庆城", "days": 2, "cityImage": "", "spots": [{"title": "周祖陵景区", "address": "庆城县庆城镇东山", "image": "", "rank": 1, "time": 2, "location": {"lat": 35.97817225020684, "lng": 107.93816227943245}, "feature": {"sight_features": "", "sight_content": ""}}, {"title": "中国农业博物馆庆阳分馆", "address": "周祖陵森林公园内", "image": "", "rank": 2, "time": 2, "location": {"lat": 36.00861500085611, "lng": 107.90122322025164}, "feature": {"sight_features": "", "sight_content": ""}}, {"title": "马嵬驿庆州古城游乐场", "address": "甘肃省庆阳市庆城县周祖陵山下出口向南一公里内", "image": "", "rank": 3, "time": 2, "location": {"lat": 36.00975890035219, "lng": 107.90206205793686}, "feature": {"sight_features": "", "sight_content": ""}}, {"title": "庆城县博物馆", "address": "庆阳市庆城县普照寺广场东50米", "image": "", "rank": 4, "time": 2, "location": {"lat": 36.00494452867338, "lng": 107.89855419108989}, "feature": {"sight_features": "", "sight_content": ""}}, {"title": "周祖农耕文化展览馆", "address": "周祖陵森林公园内", "image": "", "rank": 5, "time": 2, "location": {"lat": 36.00861500085611, "lng": 107.90122322025164}, "feature": {"sight_features": "", "sight_content": ""}}, {"title": "垂钓中心", "address": "211国道附近", "image": "", "rank": 6, "time": 2, "location": {"lat": 37.471036550412045, "lng": 106.6767897543686}, "feature": {"sight_features": "", "sight_content": ""}}, {"title": "红宇休闲山庄(东南门)", "address": "202省道附近", "image": "", "rank": 7, "time": 2, "location": {"lat": 37.77792504283699, "lng": 114.12616671611477}, "feature": {"sight_features": "", "sight_content": ""}}, {"title": "普照寺广场", "address": "庆阳市庆城县十字街", "image": "", "rank": 8, "time": 2, "location": {"lat": 36.00496845397834, "lng": 107.89746722525332}, "feature": {"sight_features": "", "sight_content": ""}}, {"title": "陕甘宁边区陇东分区纪念馆", "address": "甘肃省庆阳市庆城县人民路61号", "image": "", "rank": 9, "time": 2, "location": {"lat": 36.01107660616178, "lng": 107.89126884520367}, "feature": {"sight_features": "", "sight_content": ""}}, {"title": "傅介子墓", "address": "甘肃省庆阳市庆城县石马坳", "image": "", "rank": 10, "time": 2, "location": {"lat": 35.9927616016501, "lng": 107.88218228122126}, "feature": {"sight_features": "", "sight_content": ""}}, {"title": "大风车儿童乐园", "address": "甘肃省庆阳市庆城县安宁路", "image": "", "rank": 11, "time": 2, "location": {"lat": 36.01630186477035, "lng": 107.88953268492106}, "feature": {"sight_features": "", "sight_content": ""}}, {"title": "鲁卡奇儿童乐园", "address": "庆阳市庆城县", "image": "", "rank": 12, "time": 2, "location": {"lat": 36.021726360644436, "lng": 107.88840619723527}, "feature": {"sight_features": "", "sight_content": ""}}, {"title": "周旧邦牌坊", "address": "庆城县南街", "image": "", "rank": 13, "time": 2, "location": {"lat": 36.021726360644436, "lng": 107.88840619723527}, "feature": {"sight_features": "", "sight_content": ""}}, {"title": "庆城县北区广场", "address": "丹凤路中段", "image": "", "rank": 14, "time": 2, "location": {"lat": 33.14813667960907, "lng": 116.20201575232177}, "feature": {"sight_features": "", "sight_content": ""}}, {"title": "周祖遗陵", "address": "庆城县山", "image": "", "rank": 15, "time": 2, "location": {"lat": 36.021726360644436, "lng": 107.88840619723527}, "feature": {"sight_features": "", "sight_content": ""}}, {"title": "高楼乡群众文化广场", "address": "309国道附近", "image": "", "rank": 16, "time": 2, "location": {"lat": 36.73046791589426, "lng": 118.90798977630351}, "feature": {"sight_features": "", "sight_content": ""}}, {"title": "岐黄中医药文化博物馆", "address": "周祖陵森林公园内", "image": "", "rank": 17, "time": 2, "location": {"lat": 36.00861500085611, "lng": 107.90122322025164}, "feature": {"sight_features": "", "sight_content": ""}}, {"title": "开心哈乐亲子游乐园", "address": "金凤苑小区门面房(法院南侧斜对面)", "image": "", "rank": 18, "time": 2, "location": {"lat": 37.49491548293956, "lng": 122.13838472864977}, "feature": {"sight_features": "", "sight_content": ""}}, {"title": "红色经典农家乐", "address": "202省道附近", "image": "", "rank": 19, "time": 2, "location": {"lat": 37.77792504283699, "lng": 114.12616671611477}, "feature": {"sight_features": "", "sight_content": ""}}, {"title": "米家川农民专业合作社", "address": "驿马镇熊家庙办事处", "image": "", "rank": 20, "time": 2, "location": {"lat": 35.86465803056341, "lng": 107.68550169618607}, "feature": {"sight_features": "", "sight_content": ""}}, {"title": "北区步行街", "address": "甘肃省庆城县长庆路", "image": "", "rank": 21, "time": 3.0, "location": {"lat": 36.020432655885415, "lng": 107.8804894891657}, "feature": {"sight_features": "", "sight_content": ""}}]}