{"cityName": "晴隆", "days": 2, "cityImage": "", "spots": [{"title": "24道拐", "address": "黔西南晴隆县莲城镇安南古城", "image": "", "rank": 1, "time": 2, "location": {"lat": 25.827300374952106, "lng": 105.22342910013555}, "feature": {"sight_features": "", "sight_content": ""}}, {"title": "安南古城", "address": "黔西南州兴义市晴隆县莲城镇320国道附近", "image": "", "rank": 2, "time": 2.0, "location": {"lat": 25.803462888103784, "lng": 105.16867558270945}, "feature": {"sight_features": "", "sight_content": ""}}, {"title": "烈士陵园", "address": "贵州省黔西南布依族苗族自治州晴隆县", "image": "", "rank": 3, "time": 2, "location": {"lat": 25.841047900453187, "lng": 105.22548361466674}, "feature": {"sight_features": "", "sight_content": ""}}, {"title": "二十四道拐", "address": "黔西南布依族苗族自治州晴隆县城西南1公里", "image": "", "rank": 4, "time": 2, "location": {"lat": 25.841047900453187, "lng": 105.22548361466674}, "feature": {"sight_features": "", "sight_content": ""}}, {"title": "美军加油站", "address": "黔西南布依族苗族自治州晴隆县沙子镇", "image": "", "rank": 5, "time": 2, "location": {"lat": 25.796732805026416, "lng": 105.16856080172296}, "feature": {"sight_features": "", "sight_content": ""}}, {"title": "马帮山寨", "address": "黔西南州晴隆县沙子镇", "image": "", "rank": 6, "time": 2, "location": {"lat": 25.796732805026416, "lng": 105.16856080172296}, "feature": {"sight_features": "", "sight_content": ""}}, {"title": "卡奇乐儿童乐园", "address": "黔西南布依族苗族自治州晴隆县", "image": "", "rank": 7, "time": 2, "location": {"lat": 25.841047900453187, "lng": 105.22548361466674}, "feature": {"sight_features": "", "sight_content": ""}}, {"title": "抗战文化广场", "address": "贵州省黔西南布依族苗族自治州晴隆县莲城镇抗战路抗战文化广场", "image": "", "rank": 8, "time": 2, "location": {"lat": 25.843687770685015, "lng": 105.22872459853885}, "feature": {"sight_features": "", "sight_content": ""}}, {"title": "保家村优质苗圃基地", "address": "320国道附近", "image": "", "rank": 9, "time": 2, "location": {"lat": 27.256565251327487, "lng": 111.28158164529765}, "feature": {"sight_features": "", "sight_content": ""}}]}