{"cityName": "庆阳", "days": "", "cityImage": "", "spots": [{"title": "周祖陵森林公园", "address": "庆阳市庆城县东山", "image": "", "rank": 1, "time": 1.0, "location": {"lat": 36.021726360644436, "lng": 107.88840619723527}, "feature": {"sight_features": "", "sight_content": ""}}, {"title": "南梁革命纪念馆", "address": "庆阳市华池县南梁乡荔园堡村", "image": "", "rank": 2, "time": 1.0, "location": {"lat": 36.405275850225095, "lng": 108.349129571854}, "feature": {"sight_features": "", "sight_content": ""}}, {"title": "北石窟寺", "address": "庆阳市西峰区董志镇北石窟寺", "image": "", "rank": 3, "time": 1.0, "location": {"lat": 35.61930449429681, "lng": 107.54281145248805}, "feature": {"sight_features": "", "sight_content": ""}}, {"title": "潜夫山森林公园", "address": "庆阳市镇原县潜夫山上", "image": "", "rank": 4, "time": 1.0, "location": {"lat": 35.68829337938565, "lng": 107.20898791629602}, "feature": {"sight_features": "", "sight_content": ""}}, {"title": "小崆峒", "address": "庆阳市西峰区董志乡境内", "image": "", "rank": 5, "time": 1.0, "location": {"lat": 35.66887948072166, "lng": 107.65782931859523}, "feature": {"sight_features": "", "sight_content": ""}}, {"title": "董志原", "address": "庆阳市西峰区、宁县、合水县和庆城县", "image": "", "rank": 6, "time": 1.0, "location": {"lat": 35.73686447597771, "lng": 107.65739112516746}, "feature": {"sight_features": "", "sight_content": ""}}, {"title": "华池双塔寺", "address": "庆阳市华池县林镇乡张岔村双塔沟", "image": "", "rank": 7, "time": 1.0, "location": {"lat": 36.40916373911268, "lng": 108.49025783743974}, "feature": {"sight_features": "", "sight_content": ""}}, {"title": "南佐遗址", "address": "庆阳市西峰区后官寨乡南佐行政村", "image": "", "rank": 8, "time": 1.0, "location": {"lat": 35.73566530754328, "lng": 107.62713401809884}, "feature": {"sight_features": "", "sight_content": ""}}, {"title": "夏家沟森林公园", "address": "庆阳市合水县太白乡烟景川自然村(近309国道)", "image": "", "rank": 9, "time": 1.0, "location": {"lat": 36.07953995353073, "lng": 108.3024961118977}, "feature": {"sight_features": "", "sight_content": ""}}, {"title": "公刘殿", "address": "庆阳市西峰区温泉乡刘家店", "image": "", "rank": 10, "time": 1.0, "location": {"lat": 35.73083078608996, "lng": 107.67964928968689}, "feature": {"sight_features": "", "sight_content": ""}}, {"title": "正宁县人民广场", "address": "甘肃省庆阳市正宁县南环路", "image": "", "rank": 11, "time": 0.25, "location": {"lat": 35.49243069330503, "lng": 108.3724375330229}, "feature": {"sight_features": "", "sight_content": ""}}, {"title": "芭提雅圣境温泉", "address": "庆阳市西峰区天富亿生态民俗村内", "image": "", "rank": 12, "time": 2, "location": {"lat": 35.73686447597771, "lng": 107.65739112516746}, "feature": {"sight_features": "", "sight_content": ""}}, {"title": "窑洞民居", "address": "甘肃省庆阳市西峰区境内", "image": "", "rank": 13, "time": 2, "location": {"lat": 35.73686447597771, "lng": 107.65739112516746}, "feature": {"sight_features": "", "sight_content": ""}}, {"title": "八珠花海", "address": "庆阳市环县八珠乡政府以东500米", "image": "", "rank": 14, "time": 2, "location": {"lat": 36.55183916214754, "lng": 107.56952284350534}, "feature": {"sight_features": "", "sight_content": ""}}, {"title": "庆阳普罗旺斯薰衣草庄园", "address": "庆阳市西峰区温泉乡王家寨子（老西合公路陇东学院正门向东3公里处）", "image": "", "rank": 15, "time": 1.0, "location": {"lat": 35.72949664339563, "lng": 107.7342844661598}, "feature": {"sight_features": "", "sight_content": ""}}, {"title": "周祖陵景区", "address": "庆城县庆城镇东山", "image": "", "rank": 16, "time": 2, "location": {"lat": 35.97817225020684, "lng": 107.93816227943245}, "feature": {"sight_features": "", "sight_content": ""}}, {"title": "黑老锅冰窟", "address": "甘肃省庆阳市西峰区显胜乡毛寺村", "image": "", "rank": 17, "time": 2, "location": {"lat": 35.45524544702583, "lng": 107.64505433088691}, "feature": {"sight_features": "", "sight_content": ""}}, {"title": "中国农业博物馆庆阳分馆", "address": "周祖陵森林公园内", "image": "", "rank": 18, "time": 2, "location": {"lat": 36.00861500085611, "lng": 107.90122322025164}, "feature": {"sight_features": "", "sight_content": ""}}, {"title": "天下画廊", "address": "南二环与南环路交叉口东北200米", "image": "", "rank": 19, "time": 2, "location": {"lat": 35.49239527808657, "lng": 108.37372600585317}, "feature": {"sight_features": "", "sight_content": ""}}, {"title": "马嵬驿庆州古城游乐场", "address": "甘肃省庆阳市庆城县周祖陵山下出口向南一公里内", "image": "", "rank": 20, "time": 2, "location": {"lat": 36.00975890035219, "lng": 107.90206205793686}, "feature": {"sight_features": "", "sight_content": ""}}, {"title": "大风车儿童乐园", "address": "211国道附近", "image": "", "rank": 21, "time": 2, "location": {"lat": 37.471036550412045, "lng": 106.6767897543686}, "feature": {"sight_features": "", "sight_content": ""}}, {"title": "庆城县博物馆", "address": "庆阳市庆城县普照寺广场东50米", "image": "", "rank": 22, "time": 2, "location": {"lat": 36.00494452867338, "lng": 107.89855419108989}, "feature": {"sight_features": "", "sight_content": ""}}, {"title": "合水县图书馆", "address": "西华北街31附近", "image": "", "rank": 23, "time": 2, "location": {"lat": 35.825493612820445, "lng": 108.02565314432269}, "feature": {"sight_features": "", "sight_content": ""}}, {"title": "陇东滑雪场", "address": "肖金镇显胜乡毛寺村(黑老锅冰窟对面)", "image": "", "rank": 24, "time": 2, "location": {"lat": 35.48724541779442, "lng": 107.66687562158936}, "feature": {"sight_features": "", "sight_content": ""}}, {"title": "噜啦啦卡童乐园", "address": "圣鼎国际步行街3楼Ｂ３－７１号", "image": "", "rank": 25, "time": 2, "location": {"lat": 31.4707878758284, "lng": 104.75488769018823}, "feature": {"sight_features": "", "sight_content": ""}}, {"title": "万兴垂钓园", "address": "庆化大道红樱幼儿园西侧第二个路口向南100米(后官寨村)", "image": "", "rank": 26, "time": 2, "location": {"lat": 35.72645657786824, "lng": 107.63554313952017}, "feature": {"sight_features": "", "sight_content": ""}}, {"title": "亲亲天使婴童纪念馆", "address": "安定西路圣鼎步行街D2-132(原杰克狼人)", "image": "", "rank": 27, "time": 2, "location": {"lat": 31.4707878758284, "lng": 104.75488769018823}, "feature": {"sight_features": "", "sight_content": ""}}, {"title": "兴隆观剧场", "address": "兴隆观附近", "image": "", "rank": 28, "time": 2, "location": {"lat": 31.62576988461273, "lng": 104.9151646169062}, "feature": {"sight_features": "", "sight_content": ""}}, {"title": "声韵大剧院", "address": "兴隆观内", "image": "", "rank": 29, "time": 2, "location": {"lat": 31.62576988461273, "lng": 104.9151646169062}, "feature": {"sight_features": "", "sight_content": ""}}, {"title": "水上乐园", "address": "东门村小区对面(东门村文化广场东100米，锦绣坊东口)", "image": "", "rank": 30, "time": 2, "location": {"lat": 35.736744812234704, "lng": 107.6620519356958}, "feature": {"sight_features": "", "sight_content": ""}}, {"title": "名阳正青春剧场", "address": "岐黄大道（唯客乐王子酒店三楼）", "image": "", "rank": 31, "time": 2, "location": {"lat": 35.71126903470499, "lng": 107.6535153581972}, "feature": {"sight_features": "", "sight_content": ""}}, {"title": "周祖农耕文化展览馆", "address": "周祖陵森林公园内", "image": "", "rank": 32, "time": 2, "location": {"lat": 36.00861500085611, "lng": 107.90122322025164}, "feature": {"sight_features": "", "sight_content": ""}}, {"title": "宁县博物馆", "address": "辑宁南路16号", "image": "", "rank": 33, "time": 2.5, "location": {"lat": 35.50785038942042, "lng": 107.9338384044365}, "feature": {"sight_features": "", "sight_content": ""}}, {"title": "轩辕书画院", "address": "南环路4号", "image": "", "rank": 34, "time": 2, "location": {"lat": 42.2900991951358, "lng": 123.84058320979483}, "feature": {"sight_features": "", "sight_content": ""}}, {"title": "革命烈士陵园", "address": "庙咀西路2号", "image": "", "rank": 35, "time": 2, "location": {"lat": 35.50927214561295, "lng": 107.92593584018718}, "feature": {"sight_features": "", "sight_content": ""}}, {"title": "垂钓中心", "address": "211国道附近", "image": "", "rank": 36, "time": 2, "location": {"lat": 37.471036550412045, "lng": 106.6767897543686}, "feature": {"sight_features": "", "sight_content": ""}}, {"title": "生态农家乐", "address": "双塔公园内", "image": "", "rank": 37, "time": 2, "location": {"lat": 36.46035173843319, "lng": 108.00272410099417}, "feature": {"sight_features": "", "sight_content": ""}}, {"title": "红宇休闲山庄(东南门)", "address": "202省道附近", "image": "", "rank": 38, "time": 2, "location": {"lat": 37.77792504283699, "lng": 114.12616671611477}, "feature": {"sight_features": "", "sight_content": ""}}, {"title": "山庄林场", "address": "018县道附近", "image": "", "rank": 39, "time": 2, "location": {"lat": 40.21837834043955, "lng": 116.11557422055537}, "feature": {"sight_features": "", "sight_content": ""}}, {"title": "庆阳中盛华盛有机肥厂", "address": "005县道", "image": "", "rank": 40, "time": 1.0, "location": {"lat": 40.14566755657564, "lng": 116.77615988580014}, "feature": {"sight_features": "", "sight_content": ""}}, {"title": "湘乐砖塔", "address": "甘肃省宁县湘乐镇湘乐桥村 745213", "image": "", "rank": 41, "time": 2, "location": {"lat": 35.602783240281724, "lng": 108.15600269150103}, "feature": {"sight_features": "", "sight_content": ""}}, {"title": "明赵氏石坊", "address": "甘肃省正宁县罗川乡罗川街 745304", "image": "", "rank": 42, "time": 2, "location": {"lat": 35.49821878089757, "lng": 108.36637461671222}, "feature": {"sight_features": "", "sight_content": ""}}, {"title": "新农村农家乐", "address": "灵武路", "image": "", "rank": 43, "time": 2, "location": {"lat": 36.58340133291455, "lng": 107.30380510221366}, "feature": {"sight_features": "", "sight_content": ""}}, {"title": "双佛堂村农民文化广场", "address": "双佛堂村附近", "image": "", "rank": 44, "time": 2, "location": {"lat": 35.35994991954081, "lng": 108.38896691764405}, "feature": {"sight_features": "", "sight_content": ""}}, {"title": "人民文化广场", "address": "211国道环县木钵初级中学附近", "image": "", "rank": 45, "time": 2, "location": {"lat": 36.454870719595284, "lng": 107.44664630166112}, "feature": {"sight_features": "", "sight_content": ""}}, {"title": "普照寺广场", "address": "庆阳市庆城县十字街", "image": "", "rank": 46, "time": 2, "location": {"lat": 36.00496845397834, "lng": 107.89746722525332}, "feature": {"sight_features": "", "sight_content": ""}}, {"title": "天富亿晨卓天然生态农业观光科技...", "address": "兰州路106号(天富亿内)", "image": "", "rank": 47, "time": 2, "location": {"lat": 36.55505009754875, "lng": 104.14353176299316}, "feature": {"sight_features": "", "sight_content": ""}}, {"title": "镇原县图书馆", "address": "紫东家园对面", "image": "", "rank": 48, "time": 2, "location": {"lat": 35.679163945760074, "lng": 107.2148059087111}, "feature": {"sight_features": "", "sight_content": ""}}, {"title": "凝寿寺塔", "address": "甘肃省宁县政平乡政平村 745207", "image": "", "rank": 49, "time": 2.0, "location": {"lat": 35.27646518758066, "lng": 107.9487063505593}, "feature": {"sight_features": "", "sight_content": ""}}, {"title": "东华池塔", "address": "甘肃省华池县林镇乡东华池村 745615", "image": "", "rank": 50, "time": 2, "location": {"lat": 36.249189816800786, "lng": 108.46756318717132}, "feature": {"sight_features": "", "sight_content": ""}}, {"title": "市政广场", "address": "保健路与庙咀东路交叉口东南100米", "image": "", "rank": 51, "time": 0.75, "location": {"lat": 35.511719257006845, "lng": 107.92916686634376}, "feature": {"sight_features": "", "sight_content": ""}}, {"title": "雪花啤酒广场", "address": "早胜镇早胜镇中街向南888米", "image": "", "rank": 52, "time": 2, "location": {"lat": 35.40633070155105, "lng": 108.0137478277379}, "feature": {"sight_features": "", "sight_content": ""}}, {"title": "地球村生态园", "address": "甘肃省庆阳市西峰区S202", "image": "", "rank": 53, "time": 2, "location": {"lat": 35.73686447597771, "lng": 107.65739112516746}, "feature": {"sight_features": "", "sight_content": ""}}, {"title": "紫缘度假村(城区形象店)", "address": "育才东路北150米", "image": "", "rank": 54, "time": 2, "location": {"lat": 37.92483362277543, "lng": 114.42696185926532}, "feature": {"sight_features": "", "sight_content": ""}}, {"title": "白小白儿童成长主题乐园", "address": "庆阳市庆阳市广场路16号", "image": "", "rank": 55, "time": 2, "location": {"lat": 35.731356618994184, "lng": 107.64588451429684}, "feature": {"sight_features": "", "sight_content": ""}}, {"title": "黄帝冢", "address": "甘肃省庆阳市正宁县S303", "image": "", "rank": 56, "time": 2, "location": {"lat": 35.49821878089757, "lng": 108.36637461671222}, "feature": {"sight_features": "", "sight_content": ""}}, {"title": "调令关森林公园", "address": "林业总场中湾林场", "image": "", "rank": 57, "time": 2, "location": {"lat": 36.01990669853675, "lng": 106.29625741643883}, "feature": {"sight_features": "", "sight_content": ""}}, {"title": "糖果儿童乐园", "address": "甘肃省庆阳市正宁县永正路", "image": "", "rank": 58, "time": 2, "location": {"lat": 35.49365937044566, "lng": 108.37084781613478}, "feature": {"sight_features": "", "sight_content": ""}}, {"title": "庆阳市祥云民俗博物馆", "address": "303省道南50米", "image": "", "rank": 59, "time": 1.0, "location": {"lat": 38.25431075864957, "lng": 114.66726867564682}, "feature": {"sight_features": "", "sight_content": ""}}, {"title": "昔家牡丹园", "address": "甘肃省庆阳市宁县", "image": "", "rank": 60, "time": 2, "location": {"lat": 35.5079329745365, "lng": 107.934570925868}, "feature": {"sight_features": "", "sight_content": ""}}]}