{"cityName": "清流", "days": 2, "cityImage": "", "spots": [{"title": "灵台山", "address": "三明市清流县长校镇长校镇东侧", "image": "", "rank": 1, "time": 1.0, "location": {"lat": 25.977020095467363, "lng": 116.76451896259657}, "feature": {"sight_features": "", "sight_content": ""}}, {"title": "七星岩", "address": "三明市清流县嵩溪镇境内", "image": "", "rank": 2, "time": 2.5, "location": {"lat": 26.273840041704467, "lng": 116.93576196095749}, "feature": {"sight_features": "", "sight_content": ""}}, {"title": "久隆水上乐园", "address": "龙津镇迎宾路", "image": "", "rank": 3, "time": 2, "location": {"lat": 28.866087240711128, "lng": 115.56002125981962}, "feature": {"sight_features": "", "sight_content": ""}}, {"title": "花海温泉养生苑", "address": "嵩口镇马排村", "image": "", "rank": 4, "time": 2, "location": {"lat": 26.121766597374762, "lng": 116.88505774695537}, "feature": {"sight_features": "", "sight_content": ""}}, {"title": "清流温泉生态休闲度假区", "address": "204省道附近", "image": "", "rank": 5, "time": 1.0, "location": {"lat": 38.05803661623474, "lng": 114.77437992974008}, "feature": {"sight_features": "", "sight_content": ""}}, {"title": "清流影剧院王连三音乐厅(清流店)", "address": "龙津镇北大路1号（王连三音乐厅）", "image": "", "rank": 6, "time": 1.0, "location": {"lat": 26.195680640509472, "lng": 116.83541982698306}, "feature": {"sight_features": "", "sight_content": ""}}, {"title": "清流青峰寺", "address": "龙津镇橫溪村", "image": "", "rank": 7, "time": 1.0, "location": {"lat": 28.866087240711128, "lng": 115.56002125981962}, "feature": {"sight_features": "", "sight_content": ""}}, {"title": "清流县城关基督教堂", "address": "福建省三明市清流县屏山路", "image": "", "rank": 8, "time": 2, "location": {"lat": 26.191651628761342, "lng": 116.8225558935589}, "feature": {"sight_features": "", "sight_content": ""}}, {"title": "七仙御露温泉度假村", "address": "池峰头附近", "image": "", "rank": 9, "time": 2, "location": {"lat": 26.170052165164616, "lng": 116.93604126839469}, "feature": {"sight_features": "", "sight_content": ""}}]}