{"cityName": "清镇", "days": 2, "cityImage": "", "spots": [{"title": "红枫湖", "address": "贵阳市清镇市湖滨路旁", "image": "", "rank": 1, "time": 4.0, "location": {"lat": 26.547116410421175, "lng": 106.44232921118305}, "feature": {"sight_features": "特色1 坐船游湖、登湖中小岛观光，湖畔深秋的大片红枫非常壮观。 特色2 融高原湖光山色、岩溶地貌为一体。 特色3 连本地人都爱去的度假之地。", "sight_content": "红枫湖风景名胜区位于贵阳市西郊，是贵州西线黄金旅游第一站。风景区规划面积200平方公里，是一个融高原湖光山色、岩溶地貌、少数民族风情为一体的的国家重点风景名区。\n\n红枫湖是一个典型的喀斯特高原湖泊，湖中分布着大大小小170多个岛屿， 红枫湖的山，或雄奇，或秀美。环湖四顾，但见群山环绕，山水相连。泛舟其间，山随水转，水随山环，有高峡壁立，有偏湾向隅，有鸥鹭翔集，有鱼跃浅滩。\n\n纵游山间，鸟鸣盈耳，树深荫蔽，其乐融融。是理想的生态旅游胜地。红枫湖分布着不可胜数的天然溶洞，形成了“山里有湖湖里岛，岛中藏洞洞中湖”的奇妙景观，尤以将军湾一带溶洞群最负盛名。"}}, {"title": "百花湖", "address": "贵阳市清镇市朱昌镇金朱西路路头", "image": "", "rank": 2, "time": 2.5, "location": {"lat": 26.662670305564053, "lng": 106.58933554241801}, "feature": {"sight_features": "", "sight_content": ""}}, {"title": "四季贵州极地冒险水世界", "address": "贵阳市清镇市百马大道与清州大道交汇处", "image": "", "rank": 3, "time": 7.5, "location": {"lat": 26.494021389164875, "lng": 106.51567124235143}, "feature": {"sight_features": "", "sight_content": "四季贵州极地冒险水世界，位于清镇市百马大道与清州大道交接处“四季贵州”山地旅游综合体内。\n“极地冒险水世界”由：“极地冒险室外水乐园（2018年开放）”和“海洋情景室内水乐园（2019年开放）”两部分组成，以国际知名、国内顶尖的游乐设备为基础，情景式体验游玩为线索，极地冰雪为主题，拥有国内同类项目无法具备的优势，为贵州青年、情侣、家庭等游客打造属于自己的欢乐世界，全面打造以休闲，旅游，度假集一体综合度假休闲社区。\n极地冒险室外水上乐园：以穿越极地冰雪世界为设计主题，分为6大主题区，配套有万平巨型海啸池、北海真沙沙滩、30米高的急速滑道、超级悬浮过山车与大喇叭组合、儿童流星滑道等多种具有娱乐及体验性的8大游玩组合设备区，给各类游客带来惊险刺激的水上趣味。\n\n海浪、沙滩、尖叫、狂欢，尽在四季贵州！"}}, {"title": "时光贵州小镇", "address": "贵阳市清镇市金清路与百花路交汇处", "image": "", "rank": 4, "time": 2, "location": {"lat": 26.584844467238955, "lng": 106.513556608724}, "feature": {"sight_features": "", "sight_content": ""}}, {"title": "乡愁贵州", "address": "贵阳市清镇市站街镇云站路乡愁贵州", "image": "", "rank": 5, "time": 2, "location": {"lat": 26.590003599797416, "lng": 106.41438476021841}, "feature": {"sight_features": "", "sight_content": ""}}, {"title": "巢凤寺", "address": "贵州省贵阳市清镇市 东南 1.5 公里", "image": "", "rank": 6, "time": 2, "location": {"lat": 26.56198789847887, "lng": 106.61226843677468}, "feature": {"sight_features": "", "sight_content": ""}}, {"title": "贵州水晶集团公司图书馆", "address": "东平路417号附近", "image": "", "rank": 7, "time": 2, "location": {"lat": 26.536257685044422, "lng": 106.4911356962691}, "feature": {"sight_features": "", "sight_content": ""}}, {"title": "湖畔醉美人家", "address": "站街镇毛家寨村", "image": "", "rank": 8, "time": 2, "location": {"lat": 26.56625016221474, "lng": 106.36549255419209}, "feature": {"sight_features": "", "sight_content": ""}}, {"title": "清电影剧院", "address": "清镇102省道", "image": "", "rank": 9, "time": 2, "location": {"lat": 26.476244604611807, "lng": 106.46814277368208}, "feature": {"sight_features": "", "sight_content": ""}}, {"title": "中八农场", "address": "红枫湖镇中八乡", "image": "", "rank": 10, "time": 2, "location": {"lat": 26.55578856733166, "lng": 106.47205101259863}, "feature": {"sight_features": "", "sight_content": ""}}, {"title": "红枫湖畔生态农场", "address": "067县道附近", "image": "", "rank": 11, "time": 2, "location": {"lat": 44.819329591735745, "lng": 130.80653134093689}, "feature": {"sight_features": "", "sight_content": ""}}, {"title": "绿野农家乐", "address": "红枫湖镇畔生态农场沿067县道北行600米路南50米", "image": "", "rank": 12, "time": 2, "location": {"lat": 26.535492449482188, "lng": 106.40336775998998}, "feature": {"sight_features": "", "sight_content": ""}}, {"title": "绘本儿童图画书借阅馆", "address": "曹家坡路13号附近", "image": "", "rank": 13, "time": 2, "location": {"lat": 28.18010186043597, "lng": 113.00328513522008}, "feature": {"sight_features": "", "sight_content": ""}}, {"title": "中环国际冰雕展", "address": "西清镇中心云岭中路中环国际", "image": "", "rank": 14, "time": 2, "location": {"lat": 26.563501519737823, "lng": 106.47246122740285}, "feature": {"sight_features": "", "sight_content": ""}}, {"title": "四季贵州大世界", "address": "白马大道北段", "image": "", "rank": 15, "time": 2, "location": {"lat": 33.43766853513676, "lng": 120.12213142692487}, "feature": {"sight_features": "", "sight_content": ""}}, {"title": "金麦原浆啤酒广场", "address": "云岭东路210附近", "image": "", "rank": 16, "time": 2, "location": {"lat": 31.229002886134673, "lng": 121.39872690442809}, "feature": {"sight_features": "", "sight_content": ""}}, {"title": "山东会馆", "address": "百花社区服务中心时光贵州一期E栋", "image": "", "rank": 17, "time": 2, "location": {"lat": 26.568151768858158, "lng": 106.4840359927087}, "feature": {"sight_features": "", "sight_content": ""}}, {"title": "宝贝笑笑梦幼儿童乐园", "address": "贵阳市清镇市", "image": "", "rank": 18, "time": 2, "location": {"lat": 26.56198789847887, "lng": 106.47752261032251}, "feature": {"sight_features": "", "sight_content": ""}}, {"title": "梯青塔湿地公园", "address": "贵州省贵阳市清镇市延河路(锦绣蓝湾西北)", "image": "", "rank": 19, "time": 2, "location": {"lat": 26.56730781827403, "lng": 106.47126112088598}, "feature": {"sight_features": "", "sight_content": ""}}, {"title": "清镇市叮叮冬儿童乐园", "address": "贵州省贵阳市清镇市新民路与青龙路交叉口东北角", "image": "", "rank": 20, "time": 4.0, "location": {"lat": 26.56032606738859, "lng": 106.47583607766029}, "feature": {"sight_features": "", "sight_content": ""}}, {"title": "宝贝笑笑梦幻儿童乐园", "address": "红旗路135-70", "image": "", "rank": 21, "time": 2, "location": {"lat": 36.118797838519264, "lng": 114.36075801248562}, "feature": {"sight_features": "", "sight_content": ""}}, {"title": "七彩儿童乐园", "address": "贵阳市清镇市云岭东路家多福购物中心2层", "image": "", "rank": 22, "time": 2, "location": {"lat": 26.565253800884165, "lng": 106.48660711645036}, "feature": {"sight_features": "", "sight_content": ""}}, {"title": "如意花坊植物园", "address": "民强路5号附近", "image": "", "rank": 23, "time": 2, "location": {"lat": 29.128500656499416, "lng": 121.38019044689733}, "feature": {"sight_features": "", "sight_content": ""}}, {"title": "政府广场", "address": "贵阳市清镇市新民路2中门", "image": "", "rank": 24, "time": null, "location": {"lat": 26.561558296549105, "lng": 106.47629767464137}, "feature": {"sight_features": "", "sight_content": ""}}, {"title": "龙滩休闲山庄", "address": "贵州省贵阳市清镇市", "image": "", "rank": 25, "time": 2, "location": {"lat": 26.56198789847887, "lng": 106.47752261032251}, "feature": {"sight_features": "", "sight_content": ""}}, {"title": "时光贵州-时光广场", "address": "百花社区服务中心", "image": "", "rank": 26, "time": 2, "location": {"lat": 26.568151768858158, "lng": 106.4840359927087}, "feature": {"sight_features": "", "sight_content": ""}}, {"title": "贵阳致尚生活广场", "address": "百花社区服务中心东门桥", "image": "", "rank": 27, "time": 0.75, "location": {"lat": 26.568151768858158, "lng": 106.4840359927087}, "feature": {"sight_features": "", "sight_content": ""}}, {"title": "东门广场", "address": "栗山路17号", "image": "", "rank": 28, "time": 2, "location": {"lat": 26.561869280807613, "lng": 106.49329959310771}, "feature": {"sight_features": "", "sight_content": ""}}, {"title": "新龙半岛农夫庄园", "address": "红枫湖水上基地", "image": "", "rank": 29, "time": 3.5, "location": {"lat": 40.125120415812, "lng": 116.35199228855367}, "feature": {"sight_features": "", "sight_content": ""}}, {"title": "镇市站街镇水利站支部委员会", "address": "贵州省贵阳市清镇市农贸路站林路路口附近", "image": "", "rank": 30, "time": 2, "location": {"lat": 26.642053996050727, "lng": 106.37150260073}, "feature": {"sight_features": "", "sight_content": ""}}, {"title": "源福山庄", "address": "东湖路与青山路交叉口西北150米", "image": "", "rank": 31, "time": 2, "location": {"lat": 26.552001281344772, "lng": 106.47839485598935}, "feature": {"sight_features": "", "sight_content": ""}}, {"title": "杏花湾度假村", "address": "后坡附近", "image": "", "rank": 32, "time": 2, "location": {"lat": 40.63106926433298, "lng": 118.24081210807385}, "feature": {"sight_features": "", "sight_content": ""}}, {"title": "云塔山庄", "address": "锦绣蓝湾附近", "image": "", "rank": 33, "time": 2, "location": {"lat": 37.885028957862886, "lng": 112.46657546896927}, "feature": {"sight_features": "", "sight_content": ""}}, {"title": "华城兴隆度假村", "address": "红枫湖兴隆半岛", "image": "", "rank": 34, "time": 2, "location": {"lat": 40.42345402963516, "lng": 117.50742737263927}, "feature": {"sight_features": "", "sight_content": ""}}, {"title": "清镇市档案馆", "address": "红旗巷", "image": "", "rank": 35, "time": 1.0, "location": {"lat": 39.10239491410625, "lng": 117.29831498583786}, "feature": {"sight_features": "", "sight_content": ""}}, {"title": "红枫湖亚高原水上运动基地", "address": "红枫湖兴隆村", "image": "", "rank": 36, "time": 2, "location": {"lat": 40.125120415812, "lng": 116.35199228855367}, "feature": {"sight_features": "", "sight_content": ""}}, {"title": "稚慧谷", "address": "云岭东路阳光左岸1栋1层60-67室", "image": "", "rank": 37, "time": 2, "location": {"lat": 26.5657481245415, "lng": 106.48663189171631}, "feature": {"sight_features": "", "sight_content": ""}}, {"title": "中国美术学院全国书画考级培训基...", "address": "民兴路24附近", "image": "", "rank": 38, "time": 2, "location": {"lat": 30.012623320401495, "lng": 99.11564023572943}, "feature": {"sight_features": "", "sight_content": ""}}, {"title": "清镇市图书馆", "address": "红新社区服务中心前进路303号", "image": "", "rank": 39, "time": 1.5, "location": {"lat": 26.561535155153738, "lng": 106.48386835452769}, "feature": {"sight_features": "", "sight_content": ""}}, {"title": "爽爽布依农家乐", "address": "红枫湖镇关口寨村", "image": "", "rank": 40, "time": 2, "location": {"lat": 26.55578856733166, "lng": 106.47205101259863}, "feature": {"sight_features": "", "sight_content": ""}}, {"title": "mx密室逃脱", "address": "云岭中路186号天安财险旁边(魔镜KTV)", "image": "", "rank": 41, "time": 2, "location": {"lat": 26.565760586508215, "lng": 106.47432787031974}, "feature": {"sight_features": "", "sight_content": ""}}, {"title": "七里香农家乐", "address": "湖滨路南150米", "image": "", "rank": 42, "time": 2, "location": {"lat": 39.945573871355776, "lng": 116.47243876936622}, "feature": {"sight_features": "", "sight_content": ""}}, {"title": "黔灵拾趣画廊", "address": "百花路与金清路交叉口西南150米", "image": "", "rank": 43, "time": 2, "location": {"lat": 31.909199228140412, "lng": 121.30903625505988}, "feature": {"sight_features": "", "sight_content": ""}}, {"title": "侗寨农家乐", "address": "康打路西50米", "image": "", "rank": 44, "time": 2, "location": {"lat": 27.544817051072766, "lng": 99.47753763541458}, "feature": {"sight_features": "", "sight_content": ""}}, {"title": "湖畔渔村", "address": "华城兴隆度假村东南侧130米", "image": "", "rank": 45, "time": 2, "location": {"lat": 26.54227749425784, "lng": 106.42657642515508}, "feature": {"sight_features": "", "sight_content": ""}}, {"title": "行营钓具(清镇总店)", "address": "青山路78号", "image": "", "rank": 46, "time": 2, "location": {"lat": 36.15365698313878, "lng": 120.44788663634841}, "feature": {"sight_features": "", "sight_content": ""}}, {"title": "金藤葡萄园", "address": "198县道附近", "image": "", "rank": 47, "time": 2, "location": {"lat": 26.234567702972438, "lng": 119.38363983239591}, "feature": {"sight_features": "", "sight_content": ""}}, {"title": "四季贵州山地温泉水世界", "address": "贵阳市清镇市百马大道与清州大道交汇处", "image": "", "rank": 48, "time": 2, "location": {"lat": 26.494021389164875, "lng": 106.51567124235143}, "feature": {"sight_features": "", "sight_content": "四季贵州山地温泉水世界由室外半山温泉区、室内休闲服务区、室内海洋游乐区三大板块构成，室外半山温泉区以源自地下深层矿泉资源为基础，建设形态不同、功能各异的泡池近百个，其中有山居亭泉、爱莲泉、林泉密语、铜鼓泉、七彩叠泉、静思廊泉、VIP区、 知足常乐亭、无边际泳池、温泉亲亲鱼、SPA水疗池等特色泡池。"}}, {"title": "清镇市新华路步行街", "address": "贵州省清镇市新华路", "image": "", "rank": 49, "time": 4.0, "location": {"lat": 26.55643131492277, "lng": 106.47311533844108}, "feature": {"sight_features": "", "sight_content": ""}}, {"title": "清镇市海通步行街", "address": "贵州省清镇市富强路", "image": "", "rank": 50, "time": 4.0, "location": {"lat": 26.557901512778418, "lng": 106.47551514274578}, "feature": {"sight_features": "", "sight_content": ""}}, {"title": "清镇市鸿翔商业步行街", "address": "贵州省清镇市新华路", "image": "", "rank": 51, "time": 4.0, "location": {"lat": 26.55643131492277, "lng": 106.47311533844108}, "feature": {"sight_features": "", "sight_content": ""}}, {"title": "新民路商业步行街", "address": "贵州省清镇市新民路", "image": "", "rank": 52, "time": 2, "location": {"lat": 26.559462293136875, "lng": 106.47546471456937}, "feature": {"sight_features": "", "sight_content": ""}}]}