{"cityName": "清河", "days": 2, "cityImage": "", "spots": [{"title": "武松公园", "address": "邢台市清河县三羊东街", "image": "", "rank": 1, "time": 2, "location": {"lat": 37.07004773005754, "lng": 115.68324595253063}, "feature": {"sight_features": "", "sight_content": ""}}, {"title": "清河县乐达水上乐园", "address": "新世纪大街与嵩山路交叉口西行100米路南", "image": "", "rank": 2, "time": 2, "location": {"lat": 28.24054813030942, "lng": 112.95802549581606}, "feature": {"sight_features": "", "sight_content": ""}}, {"title": "云海轩汗蒸时代", "address": "邢台市清河县三羊街与泰山路交叉口东行200米路北", "image": "", "rank": 3, "time": null, "location": {"lat": 37.0393747590849, "lng": 115.68479235222875}, "feature": {"sight_features": "", "sight_content": ""}}, {"title": "神奇世界童书借阅馆", "address": "文昌路西50米", "image": "", "rank": 4, "time": 2, "location": {"lat": 32.40026860918857, "lng": 119.44979690566089}, "feature": {"sight_features": "", "sight_content": ""}}, {"title": "贝康儿童主题乐园", "address": "珠江街32号", "image": "", "rank": 5, "time": 2, "location": {"lat": 37.051419218376395, "lng": 115.66349142834888}, "feature": {"sight_features": "", "sight_content": ""}}, {"title": "法云寺", "address": "河北省邢台市清河县SL05", "image": "", "rank": 6, "time": 2, "location": {"lat": 37.04637540161698, "lng": 115.67439356764524}, "feature": {"sight_features": "", "sight_content": ""}}, {"title": "玉皇宫道观", "address": "河北省邢台市清河县东大线", "image": "", "rank": 7, "time": 2, "location": {"lat": 37.050718745822685, "lng": 115.62478222043183}, "feature": {"sight_features": "", "sight_content": ""}}, {"title": "中国羊绒博物馆", "address": "308国道中国羊绒博物馆", "image": "", "rank": 8, "time": 2, "location": {"lat": 37.09680510348652, "lng": 115.68967027241918}, "feature": {"sight_features": "", "sight_content": ""}}, {"title": "武氏文化艺术馆", "address": "济华南路5号附近", "image": "", "rank": 9, "time": 2, "location": {"lat": 37.04392007193425, "lng": 115.68835462405062}, "feature": {"sight_features": "", "sight_content": ""}}, {"title": "韦王垂钓场", "address": "282省道东50米", "image": "", "rank": 10, "time": 2, "location": {"lat": 36.92932040200166, "lng": 115.69988640005181}, "feature": {"sight_features": "", "sight_content": ""}}, {"title": "时代步行街", "address": "河北省清河县武松街", "image": "", "rank": 11, "time": 2, "location": {"lat": 37.04637540161698, "lng": 115.67439356764524}, "feature": {"sight_features": "", "sight_content": ""}}]}