{"cityName": "庆云", "days": 2, "cityImage": "", "spots": [{"title": "海岛金山寺景区", "address": "山东省德州市庆云县海岛金山寺景区", "image": "", "rank": 1, "time": 2.5, "location": {"lat": 37.81815956739508, "lng": 117.3880559551153}, "feature": {"sight_features": "", "sight_content": ""}}, {"title": "北海公园", "address": "德州市庆云县渤海路1764号附近", "image": "", "rank": 2, "time": 2.5, "location": {"lat": 37.789699314752546, "lng": 117.3842606546532}, "feature": {"sight_features": "", "sight_content": ""}}, {"title": "月亮城堡主题乐园", "address": "德州市庆云县祥云大街886号（原香海禅林）", "image": "", "rank": 3, "time": 2, "location": {"lat": 37.759538751846144, "lng": 117.35332008990962}, "feature": {"sight_features": "", "sight_content": "月亮城堡主题乐园位于山东省庆云县，占地面积680亩，乐园以当今最先进的计算机虚拟识别、互动技术、特种影视技术和声光电手段及虚拟现实场景营造为特征，以影视科幻和真实互动为最大特色，打造国际顶级的第四代游客参与幻真互动主题乐园。\n乐园采用现代国际一流的技术和理念精心打造，可与当今世界最先进的第四代主题乐园相媲美。被誉为“东方幻真乐园”。"}}, {"title": "无棣古城遗址", "address": "滨州市无棣县海丰路", "image": "", "rank": 4, "time": null, "location": {"lat": 37.75103411320876, "lng": 117.60883070369155}, "feature": {"sight_features": "", "sight_content": ""}}, {"title": "锦绣祥云温泉游泳馆", "address": "德州市庆云县庆云交警大队一中队北侧", "image": "", "rank": 5, "time": 2, "location": {"lat": 37.82466325844224, "lng": 117.40158542243502}, "feature": {"sight_features": "", "sight_content": ""}}, {"title": "香海禅林生态园", "address": "山东省德州市庆云县香海禅林古枣生态园", "image": "", "rank": 6, "time": 2, "location": {"lat": 37.78158531885699, "lng": 117.39145244824853}, "feature": {"sight_features": "", "sight_content": ""}}, {"title": "庆云宫", "address": "德州市庆云县", "image": "", "rank": 7, "time": 2, "location": {"lat": 37.78158531885699, "lng": 117.39145244824853}, "feature": {"sight_features": "", "sight_content": ""}}, {"title": "万佛殿", "address": "中心街与北环路交口西200米路北", "image": "", "rank": 8, "time": 2, "location": {"lat": 41.527150488270955, "lng": 122.73678088579479}, "feature": {"sight_features": "", "sight_content": ""}}, {"title": "庆云广场", "address": "山东省德州市庆云县迎宾路中段", "image": "", "rank": 9, "time": 0.75, "location": {"lat": 37.77818694770036, "lng": 117.39077792591227}, "feature": {"sight_features": "", "sight_content": ""}}, {"title": "金山戏院", "address": "步行街附近", "image": "", "rank": 10, "time": 2, "location": {"lat": 31.4707878758284, "lng": 104.75488769018823}, "feature": {"sight_features": "", "sight_content": ""}}, {"title": "四川苏公老酒放", "address": "山东省德州市庆云县新兴路896号", "image": "", "rank": 11, "time": 2, "location": {"lat": 37.78593848133447, "lng": 117.39518580594799}, "feature": {"sight_features": "", "sight_content": ""}}, {"title": "月亮城堡江南水世界", "address": "德州市庆云县庆云大街886号", "image": "", "rank": 12, "time": 2, "location": {"lat": 37.78158531885699, "lng": 117.39145244824853}, "feature": {"sight_features": "", "sight_content": "月亮城堡江南水世界位于月亮城堡主题乐园。\n\n\n占地面积约1万平，拥有海浪池、大喇叭、四彩滑梯、合家欢水寨、标准游泳池、儿童水寨、亲子戏水池、瀑布互动水屋等八大水世界娱乐项目。"}}, {"title": "庆云县图书馆", "address": "新华路888号", "image": "", "rank": 13, "time": 2, "location": {"lat": 37.782830277286635, "lng": 117.39560711123217}, "feature": {"sight_features": "", "sight_content": ""}}, {"title": "庆云纪念馆", "address": "渤海路2163号", "image": "", "rank": 14, "time": 1.5, "location": {"lat": 37.790161394884485, "lng": 117.38005017286797}, "feature": {"sight_features": "", "sight_content": ""}}, {"title": "乐之源游乐场", "address": "开元大街691号", "image": "", "rank": 15, "time": 2, "location": {"lat": 37.78429949469762, "lng": 117.39726851839248}, "feature": {"sight_features": "", "sight_content": ""}}, {"title": "郝氏农场", "address": "尚堂镇大郝家村", "image": "", "rank": 16, "time": 2, "location": {"lat": 37.754269556762814, "lng": 117.47116807920396}, "feature": {"sight_features": "", "sight_content": ""}}, {"title": "纪念馆", "address": "城西北", "image": "", "rank": 17, "time": 1.5, "location": {"lat": 36.63449697952408, "lng": 101.77241422413312}, "feature": {"sight_features": "", "sight_content": ""}}, {"title": "舞韵艺术中心", "address": "建设街老燃气公司", "image": "", "rank": 18, "time": 2, "location": {"lat": 38.093296108711115, "lng": 114.62444471286672}, "feature": {"sight_features": "", "sight_content": ""}}, {"title": "庆云剧院", "address": "新华路1189号", "image": "", "rank": 19, "time": 2.0, "location": {"lat": 37.78305344210287, "lng": 117.39238938089542}, "feature": {"sight_features": "", "sight_content": ""}}]}