{"cityName": "清丰", "days": 2, "cityImage": "", "spots": [{"title": "梁村", "address": "濮阳市清丰县", "image": "", "rank": 1, "time": 7.5, "location": {"lat": 35.89130816827738, "lng": 115.11047186341266}, "feature": {"sight_features": "", "sight_content": ""}}, {"title": "冀鲁豫边区革命根据地旧址", "address": "濮阳市清丰县双庙乡单拐村", "image": "", "rank": 2, "time": 1.0, "location": {"lat": 35.83132720540252, "lng": 115.22669238812307}, "feature": {"sight_features": "", "sight_content": ""}}, {"title": "关爷庙殿", "address": "濮阳市清丰县", "image": "", "rank": 3, "time": 1.5, "location": {"lat": 35.89130816827738, "lng": 115.11047186341266}, "feature": {"sight_features": "", "sight_content": ""}}, {"title": "明月湖公园", "address": "河南省濮阳市清丰县人民路", "image": "", "rank": 4, "time": 2.0, "location": {"lat": 35.890739187928006, "lng": 115.11268334335783}, "feature": {"sight_features": "", "sight_content": ""}}, {"title": "冀鲁豫军区纪念馆", "address": "濮阳市清丰县单拐村附近", "image": "", "rank": 5, "time": 2.0, "location": {"lat": 35.83132720540252, "lng": 115.22669238812307}, "feature": {"sight_features": "", "sight_content": ""}}, {"title": "顿丘农庄", "address": "大广高速清丰出口向西800米路南", "image": "", "rank": 6, "time": null, "location": {"lat": 35.91898072217431, "lng": 115.01924009236174}, "feature": {"sight_features": "", "sight_content": ""}}, {"title": "老赵家葡萄采摘园", "address": "马庄桥镇西赵家", "image": "", "rank": 7, "time": 2, "location": {"lat": 35.84860862839593, "lng": 115.06059921709252}, "feature": {"sight_features": "", "sight_content": ""}}, {"title": "时尚温泉", "address": "北环与惠风路交叉口西100米路南(时尚宾馆院内)", "image": "", "rank": 8, "time": 2, "location": {"lat": 22.526267027237505, "lng": 113.3829636090835}, "feature": {"sight_features": "", "sight_content": ""}}, {"title": "濮阳市龙都瑞祥生态园", "address": "106国道西50米", "image": "", "rank": 9, "time": 2.5, "location": {"lat": 23.86424620577106, "lng": 113.53885608621688}, "feature": {"sight_features": "", "sight_content": ""}}, {"title": "清丰县桃园种植农民专业合作社", "address": "文化路与106国道交叉口50米路西附近", "image": "", "rank": 10, "time": 2, "location": {"lat": 27.795066110993076, "lng": 113.67714394476832}, "feature": {"sight_features": "", "sight_content": ""}}, {"title": "清丰县柳阁乡百果农庄(东门)", "address": "106国道附近", "image": "", "rank": 11, "time": 2, "location": {"lat": 39.1725896711994, "lng": 116.39041588203045}, "feature": {"sight_features": "", "sight_content": ""}}, {"title": "濮阳兵工厂旧址", "address": "河南清丰县双庙乡单拐村 457325", "image": "", "rank": 12, "time": 2, "location": {"lat": 35.83132720540252, "lng": 115.22669238812307}, "feature": {"sight_features": "", "sight_content": ""}}, {"title": "佀氏纪念碑", "address": "河南省濮阳市清丰县X017", "image": "", "rank": 13, "time": 2, "location": {"lat": 35.89130816827738, "lng": 115.11047186341266}, "feature": {"sight_features": "", "sight_content": ""}}, {"title": "梦幻岛儿童成长乐园", "address": "城关镇朝阳路天润城一楼", "image": "", "rank": 14, "time": 2, "location": {"lat": 28.853577685943684, "lng": 120.75210233114174}, "feature": {"sight_features": "", "sight_content": ""}}, {"title": "欢乐谷儿童乐园", "address": "河南省濮阳市清丰县X015", "image": "", "rank": 15, "time": 2, "location": {"lat": 35.89130816827738, "lng": 115.11047186341266}, "feature": {"sight_features": "", "sight_content": ""}}, {"title": "伍仙镇西门牌坊", "address": "河南省濮阳市清丰县", "image": "", "rank": 16, "time": 2, "location": {"lat": 35.89130816827738, "lng": 115.11047186341266}, "feature": {"sight_features": "", "sight_content": ""}}, {"title": "儿童游乐园", "address": "河南省濮阳市清丰县柳格镇015县道柳格乡初级中学东450米", "image": "", "rank": 17, "time": 2, "location": {"lat": 35.84852883481995, "lng": 115.14022661378586}, "feature": {"sight_features": "", "sight_content": ""}}, {"title": "冀鲁豫边区革命根据地旧址纪念馆", "address": "河南省濮阳市清丰县双庙乡单拐村", "image": "", "rank": 18, "time": 1.0, "location": {"lat": 35.83132720540252, "lng": 115.22669238812307}, "feature": {"sight_features": "", "sight_content": ""}}, {"title": "华丰温泉", "address": "212省道", "image": "", "rank": 19, "time": 2, "location": {"lat": 40.390563512510504, "lng": 116.26044547726889}, "feature": {"sight_features": "", "sight_content": ""}}, {"title": "清丰乐园", "address": "朝阳路中段", "image": "", "rank": 20, "time": 5.5, "location": {"lat": 31.547185226476845, "lng": 120.97117502244805}, "feature": {"sight_features": "", "sight_content": ""}}, {"title": "清丰县文化馆", "address": "朝阳路与凤鸣路交叉口东", "image": "", "rank": 21, "time": 2, "location": {"lat": 23.520591488001845, "lng": 116.36149478047497}, "feature": {"sight_features": "", "sight_content": ""}}, {"title": "振龙画廊", "address": "幸福大道与文化路交叉口西北50米", "image": "", "rank": 22, "time": 2, "location": {"lat": 35.89927276424186, "lng": 115.11834587052982}, "feature": {"sight_features": "", "sight_content": ""}}, {"title": "清丰县阳光种植专业合作社", "address": "302省道附近", "image": "", "rank": 23, "time": 2, "location": {"lat": 40.09862711264105, "lng": 117.61062300284506}, "feature": {"sight_features": "", "sight_content": ""}}, {"title": "金桥商业城服装街", "address": "河南省清丰县朝阳路", "image": "", "rank": 24, "time": 2, "location": {"lat": 35.909739203816905, "lng": 115.11910253931174}, "feature": {"sight_features": "", "sight_content": ""}}]}