{"cityName": "庆安", "days": 2, "cityImage": "", "spots": [{"title": "庆安县图书馆", "address": "中央东大街71附近", "image": "", "rank": 1, "time": 2, "location": {"lat": 50.24868322538141, "lng": 127.52302089909567}, "feature": {"sight_features": "", "sight_content": ""}}, {"title": "东联工艺美术社", "address": "中央东大街", "image": "", "rank": 2, "time": 2, "location": {"lat": 50.24237078030019, "lng": 127.53131646751413}, "feature": {"sight_features": "", "sight_content": ""}}, {"title": "刘双钓场", "address": "庆安镇富永海", "image": "", "rank": 3, "time": 2, "location": {"lat": 46.87358290821883, "lng": 127.55913241498666}, "feature": {"sight_features": "", "sight_content": ""}}, {"title": "九洲戏院", "address": "黑龙江省绥化市庆安县东利民街17号", "image": "", "rank": 4, "time": 2, "location": {"lat": 46.88717809073316, "lng": 127.5131175874924}, "feature": {"sight_features": "", "sight_content": ""}}, {"title": "水上游乐园", "address": "黑龙江省绥化市庆安县中央东大街151", "image": "", "rank": 5, "time": 7.5, "location": {"lat": 46.88586212729122, "lng": 127.52160662756178}, "feature": {"sight_features": "", "sight_content": ""}}, {"title": "望龙山", "address": "黑龙江省庆安县曙光林场 152400", "image": "", "rank": 6, "time": 2, "location": {"lat": 46.60303184160559, "lng": 127.97678902293329}, "feature": {"sight_features": "", "sight_content": ""}}, {"title": "贝比淘悦城", "address": "庆安镇同源商城三楼", "image": "", "rank": 7, "time": 2, "location": {"lat": 46.88429706611928, "lng": 127.5159027837261}, "feature": {"sight_features": "", "sight_content": ""}}, {"title": "民乐人民广场", "address": "政府路西50米", "image": "", "rank": 8, "time": 1.5, "location": {"lat": 39.62386645950974, "lng": 116.50636422376455}, "feature": {"sight_features": "", "sight_content": ""}}, {"title": "海洋之星儿童主题乐园", "address": "中央东大街大时代四楼", "image": "", "rank": 9, "time": 2, "location": {"lat": 50.24237078030019, "lng": 127.53131646751413}, "feature": {"sight_features": "", "sight_content": ""}}, {"title": "音乐休闲广场", "address": "庆安县东经纬街178号", "image": "", "rank": 10, "time": 2, "location": {"lat": 46.8824772916399, "lng": 127.52249016492917}, "feature": {"sight_features": "", "sight_content": ""}}, {"title": "柳河生态山庄", "address": "柳河农场三分场附近", "image": "", "rank": 11, "time": 2, "location": {"lat": 46.70776140607816, "lng": 127.91902708482736}, "feature": {"sight_features": "", "sight_content": ""}}, {"title": "依吉密河漂流", "address": "黑龙江省绥化市庆安县日月峡谷滑雪场内", "image": "", "rank": 12, "time": 2, "location": {"lat": 46.885744465244535, "lng": 127.51461218819992}, "feature": {"sight_features": "", "sight_content": ""}}, {"title": "望龙山国家森林公园", "address": "黑龙江省绥化市庆安林管局曙光林场", "image": "", "rank": 13, "time": 2, "location": {"lat": 46.60303184160559, "lng": 127.97678902293329}, "feature": {"sight_features": "", "sight_content": ""}}, {"title": "柳河五七干校历史博物馆", "address": "柳河农场", "image": "", "rank": 14, "time": 2, "location": {"lat": 46.734106702804986, "lng": 127.81405220874476}, "feature": {"sight_features": "", "sight_content": ""}}, {"title": "三原美术社", "address": "中央东大街1", "image": "", "rank": 15, "time": 2, "location": {"lat": 50.25052725419892, "lng": 127.52076288602677}, "feature": {"sight_features": "", "sight_content": ""}}, {"title": "相聚生态园", "address": "公园路馨悦雅典西500米", "image": "", "rank": 16, "time": 2, "location": {"lat": 46.87832435081422, "lng": 127.50777331289476}, "feature": {"sight_features": "", "sight_content": ""}}, {"title": "隆盛商业街", "address": "黑龙江省庆安县解放南路", "image": "", "rank": 17, "time": 2, "location": {"lat": 46.8797375491174, "lng": 127.51368856305082}, "feature": {"sight_features": "", "sight_content": ""}}, {"title": "柳河农场三分场", "address": "绥化市-庆安县", "image": "", "rank": 18, "time": 2, "location": {"lat": 46.885744465244535, "lng": 127.51461218819992}, "feature": {"sight_features": "", "sight_content": ""}}, {"title": "柳河水库", "address": "黑龙江省绥化市庆安县", "image": "", "rank": 19, "time": 1.5, "location": {"lat": 46.885744465244535, "lng": 127.51461218819992}, "feature": {"sight_features": "", "sight_content": ""}}]}