{"cityName": "沁水", "days": 2, "cityImage": "", "spots": [{"title": "沁水历山国家森林公园", "address": "晋城市沁水县中村镇下川村", "image": "", "rank": 1, "time": 3.0, "location": {"lat": 35.44811866354062, "lng": 112.02642147954514}, "feature": {"sight_features": "特色1 国家AAAA级景区", "sight_content": "‍\n‍沁水历山国家自然保护级风景区，位于山西省晋城市沁水县距县城56公里处的“中国农耕文明发源地”下川村一带。景区坐落于太行、太岳、中条三山环抱，海拔2358米的晋西南最高峰—历山。景区覆盖了中条山脉上百平方公里的区域。是中国国家级自然保护区，中国国家级森林公园，国家AAAA级景区。景区由舜王坪草原、舜王故道、娥皇谷、女英峡、下川遗址、历山古村落群六大景点组成。拥有华北平原上唯一的一块万亩高山草原和华北地区最后一块原始森林。\n舜王坪高山草原：位于沁水历山的最高峰的峰顶之上，是一片呈丘陵状的坡地草原。因舜王于此耕治而得名。舜王坪草原海拔高达2358米，面积多达一万余亩，是华北平原上最大的一块高山草原。由于气候差异，雨量充沛，三个气候带的上百种植物生长于此，五至十月间，青松像扬蹄的马群从东坡向坡顶攀爬，簇拥满坡盛放的山花和铺陈其下的绿草，在蓝天与流云的映照下，景色极为秀美壮观。\n‍\n‍\n‍\n女英峡:传说舜耕历山用刀劈山而成，全长约6公里。仰望东侧山崖，从象耕山山崖到舜王试刀处4公里的壁崖上“象耕鸟耘”传说天然壁画蜿蜒铺开，各种由崖石形成的情景意象气度恢弘，生动展现了舜耕历山的壮阔情景；\n娥皇谷：相传是舜耕历山时用戟劈山而成。景线全长6.5公里。整条峡谷呈“Z”字型，迂回曲折，胜景如画。\n下川遗址：下川遗址是中国旧石器晚期的一处细石器文化遗址，是中国农耕文明的发源地。人类在这里开始刀耕火种。\n历山古村落群：幽静秀美的自然山水景观和灿烂的农耕文化孕育出历山独特的人文景观，这就是深藏于历山腹地，散落于峡谷交错之处，数量众多的历山古村落。"}}, {"title": "沁水湘峪", "address": "湘峪村(近皇城相府)", "image": "", "rank": 2, "time": 2, "location": {"lat": 33.51976243192146, "lng": 119.16542854267614}, "feature": {"sight_features": "", "sight_content": ""}}, {"title": "窦庄村", "address": "山西省晋城市沁水县", "image": "", "rank": 3, "time": 2, "location": {"lat": 35.69636446245674, "lng": 112.19342620968516}, "feature": {"sight_features": "", "sight_content": ""}}, {"title": "文史博物馆", "address": "晋城市沁水县县城西街379号", "image": "", "rank": 4, "time": 2, "location": {"lat": 35.69636446245674, "lng": 112.19342620968516}, "feature": {"sight_features": "", "sight_content": ""}}, {"title": "赵树理图书馆", "address": "新建街100号", "image": "", "rank": 5, "time": 2, "location": {"lat": 18.243321222342967, "lng": 109.51326891854181}, "feature": {"sight_features": "", "sight_content": ""}}, {"title": "沁水县图书馆", "address": "新建西街64号附近", "image": "", "rank": 6, "time": 2, "location": {"lat": 39.56724511407469, "lng": 113.19083763437362}, "feature": {"sight_features": "", "sight_content": ""}}, {"title": "蜀川天府农家乐", "address": "东街与331省道交叉口南100米", "image": "", "rank": 7, "time": 2, "location": {"lat": 38.76243571351783, "lng": 115.64385441420583}, "feature": {"sight_features": "", "sight_content": ""}}, {"title": "晋城山山岩", "address": "山西省沁水县沁水县境内 048200", "image": "", "rank": 8, "time": 2, "location": {"lat": 35.69636446245674, "lng": 112.19342620968516}, "feature": {"sight_features": "", "sight_content": ""}}, {"title": "沁水县张峰峡谷漂流", "address": "郑王线附近", "image": "", "rank": 9, "time": 2, "location": {"lat": 35.78088761195414, "lng": 112.38191612772447}, "feature": {"sight_features": "", "sight_content": ""}}, {"title": "晋城西峡", "address": "山西省沁水县中村镇下川村 048211", "image": "", "rank": 10, "time": 3.0, "location": {"lat": 35.447970913841544, "lng": 112.02744998365912}, "feature": {"sight_features": "", "sight_content": ""}}, {"title": "碧峰寺", "address": "山西省晋城市沁水县龙港镇碧峰路碧峰公园附近", "image": "", "rank": 11, "time": null, "location": {"lat": 35.70313482307113, "lng": 112.1945759562972}, "feature": {"sight_features": "", "sight_content": ""}}, {"title": "道仁庙", "address": "晋城市沁水县", "image": "", "rank": 12, "time": 2, "location": {"lat": 35.69636446245674, "lng": 112.19342620968516}, "feature": {"sight_features": "", "sight_content": ""}}, {"title": "龙湖湾度假村", "address": "山西省晋城市沁水县郑王街", "image": "", "rank": 13, "time": 2, "location": {"lat": 35.797672136620186, "lng": 112.3550305732349}, "feature": {"sight_features": "", "sight_content": ""}}, {"title": "民俗博物馆", "address": "晋城市沁水县新建街100号", "image": "", "rank": 14, "time": 1.5, "location": {"lat": 35.6945688344554, "lng": 112.19343186900986}, "feature": {"sight_features": "", "sight_content": ""}}, {"title": "沁水宾馆休闲楼", "address": "新建东街招商局对面", "image": "", "rank": 15, "time": null, "location": {"lat": 38.50957114248345, "lng": 115.08193300817437}, "feature": {"sight_features": "", "sight_content": ""}}, {"title": "山西省沁水县蒲剧团", "address": "西街269号西街", "image": "", "rank": 16, "time": 2, "location": {"lat": 35.69611981733874, "lng": 112.19134428066573}, "feature": {"sight_features": "", "sight_content": ""}}, {"title": "圣天寺", "address": "山西省沁县东郎村北侧", "image": "", "rank": 17, "time": 2, "location": {"lat": 36.7621899385521, "lng": 112.70545801477827}, "feature": {"sight_features": "", "sight_content": ""}}, {"title": "晋城沁水汤王庙", "address": "山西省沁水县端氏镇端氏村", "image": "", "rank": 18, "time": 3.0, "location": {"lat": 35.67993925564856, "lng": 112.5273582620811}, "feature": {"sight_features": "", "sight_content": ""}}, {"title": "晋城涧河狩猎区", "address": "山西省沁水县境内", "image": "", "rank": 19, "time": 3.0, "location": {"lat": 35.69636446245674, "lng": 112.19342620968516}, "feature": {"sight_features": "", "sight_content": ""}}, {"title": "沁水县步行街", "address": "山西省沁水县步行街18号", "image": "", "rank": 20, "time": 2, "location": {"lat": 35.69636446245674, "lng": 112.19342620968516}, "feature": {"sight_features": "", "sight_content": ""}}, {"title": "赵树理故居", "address": "山西省晋城市沁水", "image": "", "rank": 21, "time": 2, "location": {"lat": 35.69636446245674, "lng": 112.19342620968516}, "feature": {"sight_features": "", "sight_content": ""}}]}