{"cityName": "钦州", "days": "", "cityImage": "", "spots": [{"title": "三娘湾", "address": "钦州市犀牛脚镇东面约5公里处海湾边", "image": "", "rank": 1, "time": 5.0, "location": {"lat": 21.724866381754303, "lng": 108.77436336028028}, "feature": {"sight_features": "特色1 乘船出海，观看珍稀的中华白海豚 特色2 赶海观潮，感受宁静渔村生活。", "sight_content": "三娘湾位于钦州犀牛脚镇东面约5公里处海湾边，距钦州市区约38公里，南临北部湾，背倚乌雷山，是中华白海豚的故乡。掩映在枝繁叶茂的红树林里的海滩洁白柔软，站在如天外流星坠落海滩的三婆石上，朝可观旭日东升，晚可赏夕阳斜照；还可拜乌雷伏波庙、游威德寺、观东汉大将风采；更妙的是登上渔船出海观光，品海鲜、沐海风，观赏珍奇的中华白海豚，尽享蓝天碧海、人欢鱼跃的情趣。\n关于三娘湾的由来，还有个美丽的传说：古时候，三娘湾只有苏、杨、李姓三个青年居住，他们共在一条船上，共用一网，同住一舱；有三个仙女偶落凡尘，被海湾的美景和勤劳英俊的青年所打动，决定下嫁人间玉帝得知，允许住三年。每天丈夫出海打鱼，妻子在家织网，夫妻恩爱，生活美满。三年后，玉帝不见仙女回来，大怒之下，在三个青年出海时掀起狂风恶浪，三位娘子并立岸边，顶着狂风恶浪，等候丈夫几天几夜，后得知丈夫已遇难，便化身为三个花岗岩石，并排站立在沙滩上，即今天的“三婆石”。\n三娘湾的美不仅仅在于她动人的传说，而且在于她超凡脱俗的气质。黄金的沙滩柔软而亲切，婆娑的树林清丽恬静，清澈的柔波坚韧而执著，千姿百态的礁石巍然屹立，古朴的渔村温馨而恬谈，灵动的海豚亲切的呼唤，还有那悠闲从容的渔民…最富特色的是这里的海豚和奇石。海域内，常年活跃着数百头五彩斑斓的中华白海豚，而且一年四季都能近距离观看，每当渔民出海捕鱼或游人出海观光时，海豚常常追逐渔船、亲渔夫、逗游客，或在海中嬉戏，构成了一幅人、豚亲密无间、和谐相处的美好画面。这里的另一个特色是遍布各处的奇石，沙滩旁、浅海中奇石林立。\n三娘湾不仅以白海豚而闻名于世，而且还以神奇、壮丽的大潮而闻名。有青蟹、大蚝、对虾、石斑鱼等四大名产。"}}, {"title": "八寨沟", "address": "钦州市钦北区贵台镇垌利村", "image": "", "rank": 2, "time": 7.5, "location": {"lat": 22.162791929463804, "lng": 108.29241633148595}, "feature": {"sight_features": "特色1 绿树成荫、流水潺潺，这里是徒步休闲的好去处。 特色2 文化底蕴深厚，历史遗迹丰富，可开展爱国爱乡和革命传统教育。 特色3 南亚热带季风气候，风光秀丽，景区内山峦重叠，林海茫茫。", "sight_content": "钦州市八寨沟原始森林旅游景区是国家AAAA级旅游景区，位于钦州市钦北区贵台镇洞利村境内，是广西著名的十万大山原始森林最美的一段。八寨沟景区距离广西首府南宁125公里，位于南北高速公路中段；距离钦州市53公里，钦州—崇左高速公路直达景区仅需要50分钟的车程，交通十分便利。\n八寨沟核心景区包含着八寨沟和万寿谷两条森林沟谷，区域面积3262.22公顷、12公里长的山泉河谷、奇异的沟谷奇石与天然的清潭，景区内最高主峰马 山海拔674米，地势险峻、峰峦连绵、沟谷深壑，流水清澈、林海茫茫、藤蔓缠绕。据专家考证，八寨沟属于和恐龙同时代的一亿多年前形成的侏罗纪地貌，植皮类型为北热带季雨林，具有很高的科研价值和观赏价值。景区内珍稀、珍贵动植物种类繁多，主要有金花茶、桫椤、香花木、格木、紫荆木等12种国家重点保护的珍贵树种；有短尾猴、大灵猫、穿山甲、金钱龟等11种国家重点保护野生动物。在八寨沟景区的回溪沟谷深壑之间，拥有近百个著名水潭，每个水潭都盛满了美丽传说，意味深远！\n八寨沟里面空气清新，经测定，景区内每立方厘米空气含负离子6.5万个以上，整个八寨沟俨然一个巨大的天然氧吧，是城市市区空气的1000倍，是人类养生、禅修、康体的胜地。\n钦州市八寨沟原始森林景区是美丽的，春有山花烂漫、夏有竹径通幽、秋有红叶染溪、冬有百亩雪梅，它以一年四季不同的迷人景色迎接着南来北往的八方游客。\n近年来，八寨沟原始森林景区已成为各地游客向往的“天然氧吧，亲水圣地”之旅游胜地。"}}, {"title": "七十二泾", "address": "钦州市钦南区大番坡镇茅尾海内", "image": "", "rank": 3, "time": 2.5, "location": {"lat": 21.848160140778212, "lng": 108.65422481683963}, "feature": {"sight_features": "", "sight_content": ""}}, {"title": "冯子材故居", "address": "钦州市钦南区宫保街三马路和四马路之间", "image": "", "rank": 4, "time": 1.5, "location": {"lat": 21.95409423362987, "lng": 108.62683664605339}, "feature": {"sight_features": "", "sight_content": ""}}, {"title": "三宣堂(刘永福故居)", "address": "钦州市钦南区板桂街10号", "image": "", "rank": 5, "time": 1.0, "location": {"lat": 21.95091813838105, "lng": 108.62855952415653}, "feature": {"sight_features": "", "sight_content": ""}}, {"title": "六峰山", "address": "钦州市灵山县", "image": "", "rank": 6, "time": 3.0, "location": {"lat": 22.42241332670075, "lng": 109.29747796631128}, "feature": {"sight_features": "", "sight_content": "六峰山风景区位于钦州市灵山县境内，六峰山拨地横空，山石嶙峋，老树盘根，古刹幽深，东西北三面悬崖峭壁，自古只有南麓“灵岩初地”一条石径。有龙船岩、狮子岩、北帝庙、仙人井等溶洞景观、人文遗迹近百处，素有“粤西胜景”、“人寰胜地”的雅号。"}}, {"title": "大芦村古宅", "address": "钦州市灵山县江南路553号", "image": "", "rank": 7, "time": 3.0, "location": {"lat": 22.42536220394508, "lng": 109.31102309288816}, "feature": {"sight_features": "", "sight_content": "大芦村古宅位于灵山县东郊，这里有着丰厚历史文化底蕴的古文化住宅群。古宅共有九个群落，分别建于明、清两代。古宅依山傍水，古静幽深，藏有文天祥手迹等大量的文物珍品，见证着历史的辉煌。另外，这里藏有三百多副明、清时期创作的传世楹联，有着珍贵的人文历史研究价值和欣赏价值。"}}, {"title": "王岗山", "address": "钦州市大直镇西境，距市区53公里。", "image": "", "rank": 8, "time": 3.5, "location": {"lat": 22.025298189695558, "lng": 108.32256533915445}, "feature": {"sight_features": "", "sight_content": ""}}, {"title": "大芦村民俗风情旅游区", "address": "钦州市灵山县507乡道北50米", "image": "", "rank": 9, "time": 2, "location": {"lat": 22.42241332670075, "lng": 109.29747796631128}, "feature": {"sight_features": "", "sight_content": ""}}, {"title": "五皇山", "address": "钦州市浦北县龙门镇马兰村五皇山风景区", "image": "", "rank": 10, "time": 7.5, "location": {"lat": 22.13405333016009, "lng": 109.41948120604076}, "feature": {"sight_features": "特色1 兼具高山草地风光和南亚热带雨林风光", "sight_content": "钦州五皇山原名叫“五皇岭”，浦北八景之一，五皇山是钦州市著名的森林公园，位于钦州市浦北县龙门、北通、白石水、大成、张黄五镇境内，距离县城30公里。\n五皇山已被钦州市定为重点开发的森林公园，具有集高山草地风光、南亚热带雨林风光、山村农家风情和蕉田荔园风光于一体的梯级综合生态景观。"}}, {"title": "麻蓝岛", "address": "钦州市钦南区钦州湾", "image": "", "rank": 11, "time": 4.0, "location": {"lat": 21.711415993965712, "lng": 108.60022449714272}, "feature": {"sight_features": "", "sight_content": ""}}, {"title": "灵东水上游乐避暑风景区", "address": "钦州市灵山县", "image": "", "rank": 12, "time": 2, "location": {"lat": 22.42241332670075, "lng": 109.29747796631128}, "feature": {"sight_features": "", "sight_content": ""}}, {"title": "三海岩", "address": "钦州市灵山县灵山中学校园内", "image": "", "rank": 13, "time": 2, "location": {"lat": 22.418719542631532, "lng": 109.28807091820033}, "feature": {"sight_features": "", "sight_content": ""}}, {"title": "仙岛公园", "address": "钦州市钦南区龟岛", "image": "", "rank": 14, "time": 2, "location": {"lat": 21.945972440988985, "lng": 108.66454861267236}, "feature": {"sight_features": "", "sight_content": ""}}, {"title": "钦州博物馆", "address": "广西壮族自治区钦州市钦南区板桂街10号", "image": "", "rank": 15, "time": 2.5, "location": {"lat": 21.95091813838105, "lng": 108.62855952415653}, "feature": {"sight_features": "", "sight_content": ""}}, {"title": "钦州园博园", "address": "钦州市钦南区沙埠镇金海湾东大街大转盘", "image": "", "rank": 16, "time": 2, "location": {"lat": 21.94414619317679, "lng": 108.66058492405162}, "feature": {"sight_features": "", "sight_content": ""}}, {"title": "广西烟霞山风景区", "address": "钦州市灵山县烟墩镇长麓村", "image": "", "rank": 17, "time": 2, "location": {"lat": 22.48555437963036, "lng": 109.0588987918264}, "feature": {"sight_features": "特色1 经过百千年的流水塑造形成巍峨独特的地形", "sight_content": "广西烟霞山风景区位于广西钦州市灵山县烟墩镇，其地貌是由红色砂岩构成（形成于6000万年前的河、湖中），经过百千年的流水塑造形成巍峨独特的地形，地理学称为丹霞地貌。且发育典型、类型齐全、形态丰富、具有雄、奇、秀、险、幽、奥、旷等特点，如神似老人脸庞的老子峰、阳刚奇特的擎天一柱、秀丽雄伟的花龙岭等丹霞奇观。奇山亦有妙水，如流觞曲水般的银柳瀑布，柳暗花明的洞天瀑布，潺潺如歌的梦蝶瀑布，无一不显丹霞生态景观之美。\n烟霞山风景区自然生态动植物资源非常丰富，如野猪、猪仔狸、白鹭、豹猫等多种珍稀野生动物及野生石斛、金银花、田七、灵芝草等多种名贵中草药植物；景区秉持着乡村与生态相结合的建设理念，融入本土民俗文化特色，开展跳岭头、烟墩大鼓表演等非遗文化项目展示，设有民俗博物馆、各类科普教育活动场地；配备野外烧烤、农家乐、荔枝等农作物采摘、野外露营、运动拓展、动物逗趣等野趣项目。实属亲子游玩、野外拓展采风、乡村生态游玩休闲度假的上佳选择。"}}, {"title": "钦江古龙窑", "address": "钦南区滨江北路", "image": "", "rank": 18, "time": 2, "location": {"lat": 21.96267529883335, "lng": 108.64149367183423}, "feature": {"sight_features": "", "sight_content": ""}}, {"title": "越州天湖", "address": "钦州市浦北县十字村东南小江水库区", "image": "", "rank": 19, "time": 2, "location": {"lat": 22.077997004483514, "lng": 109.51436306453397}, "feature": {"sight_features": "", "sight_content": ""}}, {"title": "罗阳峡漂流", "address": "钦州市灵山县罗阳山", "image": "", "rank": 20, "time": 2, "location": {"lat": 22.495543557802424, "lng": 109.45260648221887}, "feature": {"sight_features": "", "sight_content": ""}}, {"title": "灵山人遗址", "address": "灵山县三海乡栏崇村马鞍山", "image": "", "rank": 21, "time": 1.0, "location": {"lat": 22.42241332670075, "lng": 109.29747796631128}, "feature": {"sight_features": "", "sight_content": ""}}, {"title": "天涯亭", "address": "广西壮族自治区钦州市钦南区钦州镇人民公园内", "image": "", "rank": 22, "time": 2, "location": {"lat": 21.945972440988985, "lng": 108.66454861267236}, "feature": {"sight_features": "", "sight_content": ""}}, {"title": "钦州林湖公园", "address": "广西壮族自治区钦州市钦南区", "image": "", "rank": 23, "time": 5.0, "location": {"lat": 21.945972440988985, "lng": 108.66454861267236}, "feature": {"sight_features": "", "sight_content": ""}}, {"title": "万亩荔枝园", "address": "钦州市钦北区021县道", "image": "", "rank": 24, "time": 2, "location": {"lat": 22.33169685387948, "lng": 108.6109492381651}, "feature": {"sight_features": "", "sight_content": ""}}, {"title": "林湖欢乐谷", "address": "钦州林湖森林公园内，位于钦州市钦北区人民医院直走大概800米，325国道南北二级公路旁", "image": "", "rank": 25, "time": 2, "location": {"lat": 22.036312347166316, "lng": 108.63858710823897}, "feature": {"sight_features": "", "sight_content": ""}}, {"title": "那丽镇农场", "address": "177乡道附近", "image": "", "rank": 26, "time": 2, "location": {"lat": 33.67374306294147, "lng": 117.01671604035053}, "feature": {"sight_features": "", "sight_content": ""}}, {"title": "钦廉林场(平银分场)", "address": "沙埠镇", "image": "", "rank": 27, "time": 2, "location": {"lat": 28.55178950371076, "lng": 121.19560702153092}, "feature": {"sight_features": "", "sight_content": ""}}, {"title": "三娘湾海水浴场", "address": "广西壮族自治区钦州市钦南区三娘湾旅游管理区滨海浴场", "image": "", "rank": 28, "time": 2, "location": {"lat": 21.636540307125856, "lng": 108.76366871249246}, "feature": {"sight_features": "", "sight_content": ""}}, {"title": "星期六儿童成长乐园婴幼儿SPA", "address": "钦州湾大道仟仟万家商场4楼", "image": "", "rank": 29, "time": 2, "location": {"lat": 21.981998860626007, "lng": 108.63439727120615}, "feature": {"sight_features": "", "sight_content": ""}}, {"title": "铭德生态园", "address": "金海湾东大街", "image": "", "rank": 30, "time": null, "location": {"lat": 21.94414619317679, "lng": 108.66058492405162}, "feature": {"sight_features": "", "sight_content": ""}}, {"title": "龙武农场", "address": "灵城镇西郊X312县道1号", "image": "", "rank": 31, "time": 2, "location": {"lat": 30.71626540608266, "lng": 104.02570058907966}, "feature": {"sight_features": "", "sight_content": ""}}, {"title": "旺达冰淇淋批发", "address": "六峰路245附近", "image": "", "rank": 32, "time": 2, "location": {"lat": 30.713836271715913, "lng": 117.58189227493968}, "feature": {"sight_features": "", "sight_content": ""}}, {"title": "农业局植保站", "address": "灵城镇", "image": "", "rank": 33, "time": 2, "location": {"lat": 22.43115758461308, "lng": 109.3030235269176}, "feature": {"sight_features": "", "sight_content": ""}}, {"title": "六峰山风景名胜旅游区", "address": "广西壮族自治区灵山县境内 535400", "image": "", "rank": 34, "time": 2, "location": {"lat": 22.42241332670075, "lng": 109.29747796631128}, "feature": {"sight_features": "", "sight_content": ""}}, {"title": "火山岛", "address": "防城港市港口区光坡镇红沙村", "image": "", "rank": 35, "time": 2.5, "location": {"lat": 21.69412580715744, "lng": 108.57353051978656}, "feature": {"sight_features": "特色1 看火山熔岩形成的天然海岛，欣赏奇石、远古植物等迷人风光。 特色2 火山岩石千姿百态，让人感叹大自然的神奇 特色3 海水清朗湛蓝，沙滩细软柔和", "sight_content": "火山岛，当地俗称“六墩岛”，由6座相连的小岛组成。传说在很久以前，在这里的一条小龙，爱上了天宫里的仙女，经常跑到天上与仙女相会，犯了天条。玉皇大帝一怒之下追到这里，把小龙砍成六截，化成六座小岛。传说，那位仙女经常来到这里，祭拜小龙，因此小岛也沾染了一点仙气。因此，火山岛的条件得天独厚，周围的海水清朗而湛蓝，岛沙滩细软柔和，50万年前的火山运动生成的岩石，经由海水冲刷多年后有着没有的纹理。火山岛岸边鸟声唳唳，是白鹭的长居之所。岛上树木葱翠，树木种类繁多，更有平常不多见的热带野果，是名副其实的火山岛。\n在岛上，特别是海面上吊养大蚝的一片片浮排，和插养在滩涂上的一块块蚝田，也是一幅壮观的景象。风平浪静的海湾，碧蓝的海水轻轻地摇曳着沉睡的万亩大蚝排，洁白的海鸥不时的掠过海面，满载而归的鱼船缓缓游入港湾……鱼家乐旅游是火山岛的一大特色，不可不尽兴而归，如果只想散散心，那就任由自己沉浸在岛上迷人的风光里，或是赤着脚在细柔的沙滩上散散步。"}}, {"title": "红椎林", "address": "广西壮族自治区浦北县五黄岭 535319", "image": "", "rank": 36, "time": 2, "location": {"lat": 22.16141856011766, "lng": 109.30628323327313}, "feature": {"sight_features": "", "sight_content": ""}}, {"title": "庞村清代民居群", "address": "广西壮族自治区兴业县石南镇庞村 537800", "image": "", "rank": 37, "time": 2, "location": {"lat": 22.751239883715364, "lng": 109.89365478942912}, "feature": {"sight_features": "", "sight_content": ""}}, {"title": "广州会馆", "address": "广西壮族自治区钦州市中山路", "image": "", "rank": 38, "time": 3.0, "location": {"lat": 21.957905941274458, "lng": 108.63063202276402}, "feature": {"sight_features": "", "sight_content": ""}}, {"title": "海盗船", "address": "文峰南路233号", "image": "", "rank": 39, "time": 2, "location": {"lat": 21.95979659132084, "lng": 108.62261689544711}, "feature": {"sight_features": "", "sight_content": ""}}, {"title": "钦州市小董起义烈士墓", "address": "五马路与滨江南路交叉口西北150米", "image": "", "rank": 40, "time": 5.0, "location": {"lat": 21.946733955241385, "lng": 108.6287042178182}, "feature": {"sight_features": "", "sight_content": ""}}, {"title": "钦州市天主教会", "address": "广西壮族自治区钦州市钦南区攀桂路89号", "image": "", "rank": 41, "time": 5.0, "location": {"lat": 21.949986912596874, "lng": 108.62862909612164}, "feature": {"sight_features": "", "sight_content": ""}}, {"title": "喜洋洋主题乐园", "address": "永福西大街60号附近", "image": "", "rank": 42, "time": 2, "location": {"lat": 21.984120323645595, "lng": 108.63071622004114}, "feature": {"sight_features": "", "sight_content": ""}}, {"title": "城北公园", "address": "广西壮族自治区钦州市钦北区G325(广南线)", "image": "", "rank": 43, "time": 2, "location": {"lat": 22.020367050196267, "lng": 108.63851257493252}, "feature": {"sight_features": "", "sight_content": ""}}, {"title": "新光儿童乐园", "address": "广西壮族自治区钦州市钦北区新华路", "image": "", "rank": 44, "time": 2, "location": {"lat": 21.9910859797409, "lng": 108.64626100342835}, "feature": {"sight_features": "", "sight_content": ""}}, {"title": "百汇儿童游乐场", "address": "钦州市浦北县", "image": "", "rank": 45, "time": 2, "location": {"lat": 22.27782232693711, "lng": 109.56342292940231}, "feature": {"sight_features": "", "sight_content": ""}}, {"title": "清湖生态公园", "address": "广西壮族自治区钦州市浦北县北通镇清湖小学西北350米", "image": "", "rank": 46, "time": 2, "location": {"lat": 22.203106755357343, "lng": 109.31054043962595}, "feature": {"sight_features": "", "sight_content": ""}}, {"title": "戏水乐园", "address": "贵台镇垌利村八寨沟旅游景区内", "image": "", "rank": 47, "time": 2, "location": {"lat": 22.102935897998172, "lng": 108.28599813624649}, "feature": {"sight_features": "", "sight_content": ""}}, {"title": "双鹤公园", "address": "广西壮族自治区钦州市灵山县江滨二路100号", "image": "", "rank": 48, "time": 2, "location": {"lat": 22.417481847761145, "lng": 109.30152285456366}, "feature": {"sight_features": "", "sight_content": ""}}, {"title": "风雨桥", "address": "江滨二路与环秀路交叉口东北150米", "image": "", "rank": 49, "time": 2, "location": {"lat": 22.418754693325685, "lng": 109.30184397722404}, "feature": {"sight_features": "", "sight_content": ""}}, {"title": "灵山人民英雄纪念碑", "address": "广西壮族自治区钦州市灵山县g209(六峰山附近)", "image": "", "rank": 50, "time": 1.0, "location": {"lat": 22.42508334926175, "lng": 109.29410411586784}, "feature": {"sight_features": "", "sight_content": ""}}, {"title": "公园路与江北路交叉口", "address": "广西壮族自治区钦州市灵山县", "image": "", "rank": 51, "time": 2, "location": {"lat": 22.42241332670075, "lng": 109.29747796631128}, "feature": {"sight_features": "", "sight_content": ""}}, {"title": "丁祠堂", "address": "钦州市灵山县", "image": "", "rank": 52, "time": 2, "location": {"lat": 22.42241332670075, "lng": 109.29747796631128}, "feature": {"sight_features": "", "sight_content": ""}}, {"title": "萌宝", "address": "广西壮族自治区钦州市浦北县解放路134号", "image": "", "rank": 53, "time": 2, "location": {"lat": 22.27429300517515, "lng": 109.56301051734282}, "feature": {"sight_features": "", "sight_content": ""}}, {"title": "年年丰儿童游乐场", "address": "钦州市钦南区钦州湾大道年年丰广场4层", "image": "", "rank": 54, "time": 2, "location": {"lat": 21.97243582366176, "lng": 108.63241672404894}, "feature": {"sight_features": "", "sight_content": ""}}, {"title": "浦北县张黄天然休闲山庄", "address": "广西壮族自治区钦州市浦北县低龙塘", "image": "", "rank": 55, "time": 2, "location": {"lat": 21.986880092111743, "lng": 109.4336057405697}, "feature": {"sight_features": "", "sight_content": ""}}, {"title": "星期六儿童成长主题乐园", "address": "金海湾东大街东盟商贸城小商品城2楼儿童系列区A19-5号", "image": "", "rank": 56, "time": 2, "location": {"lat": 21.94380611281177, "lng": 108.66367519022529}, "feature": {"sight_features": "", "sight_content": ""}}, {"title": "人口文化广场", "address": "广西壮族自治区钦州市钦南区宫保街32号", "image": "", "rank": 57, "time": 2.5, "location": {"lat": 21.989484568720655, "lng": 108.63291913643914}, "feature": {"sight_features": "", "sight_content": ""}}, {"title": "亚美广场", "address": "广西壮族自治区钦州市浦北县小江街道泰禾大道浦北汽车站", "image": "", "rank": 58, "time": 2, "location": {"lat": 22.271783139970946, "lng": 109.5524202185196}, "feature": {"sight_features": "", "sight_content": ""}}, {"title": "灵山县人口文化广场", "address": "广西壮族自治区钦州市灵山县沙路新光路灵山体育馆人口文化广场", "image": "", "rank": 59, "time": 2, "location": {"lat": 22.411402310374182, "lng": 109.30275922567392}, "feature": {"sight_features": "", "sight_content": ""}}, {"title": "灵山人民广场", "address": "丰江路与广场路交叉口西50米", "image": "", "rank": 60, "time": 1.5, "location": {"lat": 22.424712633034808, "lng": 109.30459434794881}, "feature": {"sight_features": "", "sight_content": ""}}]}