{"cityName": "琼中", "days": "", "cityImage": "", "spots": [{"title": "黎母山森林公园", "address": "琼中市黎母山镇", "image": "", "rank": 1, "time": 4.0, "location": {"lat": 19.292944759001415, "lng": 109.77012938808127}, "feature": {"sight_features": "", "sight_content": ""}}, {"title": "海鼎百花岭雨林文化旅游区", "address": "琼中黎族苗族自治县根营镇东南7公里处", "image": "", "rank": 2, "time": 2, "location": {"lat": 19.039163789180616, "lng": 109.84451062847003}, "feature": {"sight_features": "", "sight_content": ""}}, {"title": "鹦歌岭", "address": "琼中黎族苗族自治县鹦哥岭风景旅游区", "image": "", "rank": 3, "time": 2.0, "location": {"lat": 19.044317230816727, "lng": 109.56933144406169}, "feature": {"sight_features": "", "sight_content": ""}}, {"title": "琼中峡漂流", "address": "琼中县和平镇合口村琼中峡漂流景区", "image": "", "rank": 4, "time": 2, "location": {"lat": 18.866466468154815, "lng": 110.00990988359206}, "feature": {"sight_features": "", "sight_content": "琼中峡漂流位于海南省琼中县和平镇合口村，处于境内万泉河中，两岸沿河有罕见的火山石臼，大约形成于200-300万年的第四纪早期，堪称世界奇观。\n漂流河道分为两段：空中玻璃漂流，天然峡谷河道，全长3800米，两段河道首尾相接，合二为一。全程漂流需要90分钟左右，沿途毓秀钟林，奇石琳琅，刺激与精彩结合。\n漂流河道经公司集全国经验专业团队精心打造， 达到运动员专业赛道水准，景区内设有更衣室、沐浴区、商场等服务，大型停车场，每天可接待8000人次左右，公司集餐饮、住宿、休闲度假一体综合型景区，有按星级标准建设的‘琼中和平大自然假日酒店及餐厅’、空中漂流、山水天地、儿童漂流、亲子拓展、峡谷拓展、索溪探险、农耕农作、真人CS、露营等项目，内容丰富、老少皆宜；适合企业拓展、同学聚会、自驾游及家庭游1日游或2日游。"}}, {"title": "白沙起义纪念园", "address": "琼中县红毛镇", "image": "", "rank": 5, "time": 1.0, "location": {"lat": 19.03697386441215, "lng": 109.69635997459208}, "feature": {"sight_features": "", "sight_content": ""}}, {"title": "新进农场坡岩队", "address": "101乡道南200米", "image": "", "rank": 6, "time": 2, "location": {"lat": 49.07585558465927, "lng": 123.03278049880403}, "feature": {"sight_features": "", "sight_content": ""}}, {"title": "长征农场双生岭队", "address": "304省道附近", "image": "", "rank": 7, "time": 2, "location": {"lat": 38.007414201086036, "lng": 114.44892402313616}, "feature": {"sight_features": "", "sight_content": ""}}, {"title": "乌石农场岭头队", "address": "003乡道附近", "image": "", "rank": 8, "time": 2, "location": {"lat": 40.96482298415481, "lng": 116.62729781702801}, "feature": {"sight_features": "", "sight_content": ""}}, {"title": "阳江农场甲岭作业区", "address": "107乡道附近", "image": "", "rank": 9, "time": 4.5, "location": {"lat": 39.6291248491882, "lng": 119.25342103304115}, "feature": {"sight_features": "", "sight_content": ""}}, {"title": "新进农场山口作业区", "address": "307省道附近", "image": "", "rank": 10, "time": null, "location": {"lat": 40.264498296993764, "lng": 116.57268632168496}, "feature": {"sight_features": "", "sight_content": ""}}, {"title": "阳江农场砖瓦厂", "address": "307省道附近", "image": "", "rank": 11, "time": 4.5, "location": {"lat": 40.264498296993764, "lng": 116.57268632168496}, "feature": {"sight_features": "", "sight_content": ""}}, {"title": "乌石农场丰里队", "address": "G9811中线高速附近", "image": "", "rank": 12, "time": 2, "location": {"lat": 23.100931760317003, "lng": 113.27528273950196}, "feature": {"sight_features": "", "sight_content": ""}}, {"title": "新进农场荔枝湾队", "address": "101乡道南100米", "image": "", "rank": 13, "time": 2, "location": {"lat": 22.526267027237505, "lng": 113.3829636090835}, "feature": {"sight_features": "", "sight_content": ""}}, {"title": "月田园农家乐", "address": "新开田附近", "image": "", "rank": 14, "time": 2, "location": {"lat": 27.857533123430528, "lng": 119.97654092877778}, "feature": {"sight_features": "", "sight_content": ""}}, {"title": "营城红云湖农家乐", "address": "琼中县琼中营城红湖农家乐", "image": "", "rank": 15, "time": 2, "location": {"lat": 19.039163789180616, "lng": 109.84451062847003}, "feature": {"sight_features": "", "sight_content": ""}}, {"title": "琼中志强农庄", "address": "224国道附近", "image": "", "rank": 16, "time": 2, "location": {"lat": 18.878078730416323, "lng": 109.52217828024781}, "feature": {"sight_features": "", "sight_content": ""}}, {"title": "中郎农场", "address": "023乡道附近", "image": "", "rank": 17, "time": 2, "location": {"lat": 46.931832799339794, "lng": 132.08871701110638}, "feature": {"sight_features": "", "sight_content": ""}}, {"title": "红卫农场罗坎队", "address": "二二四国道", "image": "", "rank": 18, "time": null, "location": {"lat": 18.878078730416323, "lng": 109.52217828024781}, "feature": {"sight_features": "", "sight_content": ""}}, {"title": "太平农场什看队", "address": "158乡道附近", "image": "", "rank": 19, "time": 2, "location": {"lat": 40.207346658787095, "lng": 116.82977255524665}, "feature": {"sight_features": "", "sight_content": ""}}, {"title": "琼中白沙起义纪念碑", "address": "海南省琼中黎族苗族自治县红毛镇", "image": "", "rank": 20, "time": 2, "location": {"lat": 19.03697386441215, "lng": 109.69635997459208}, "feature": {"sight_features": "", "sight_content": ""}}, {"title": "南万大队农场", "address": "琼中黎族苗族自治县-琼中黎族苗族自治县", "image": "", "rank": 21, "time": 2, "location": {"lat": 19.039163789180616, "lng": 109.84451062847003}, "feature": {"sight_features": "", "sight_content": ""}}, {"title": "什寒村", "address": "海南省直辖县级行政单位琼中黎族苗族自治县", "image": "", "rank": 22, "time": 2, "location": {"lat": 19.039163789180616, "lng": 109.84451062847003}, "feature": {"sight_features": "", "sight_content": ""}}, {"title": "明代水会守御所古城遗址", "address": "海南省琼中黎族苗族自治县黎母山镇大保村", "image": "", "rank": 23, "time": 2, "location": {"lat": 19.29761860647111, "lng": 109.78980309260808}, "feature": {"sight_features": "", "sight_content": ""}}]}