{"cityName": "岐山", "days": 2, "cityImage": "", "spots": [{"title": "岐山周公庙景区", "address": "宝鸡市岐山县凤鸣镇", "image": "", "rank": 1, "time": 2.5, "location": {"lat": 34.45304861268759, "lng": 107.6155192476516}, "feature": {"sight_features": "", "sight_content": ""}}, {"title": "五丈原诸葛亮庙", "address": "宝鸡市岐山县五丈原镇周五路", "image": "", "rank": 2, "time": 2.5, "location": {"lat": 34.33535629310692, "lng": 107.63103748342122}, "feature": {"sight_features": "特色1 省级重点文物保护单位和风景名胜区", "sight_content": "五丈原风景名胜区位于陕西省宝鸡市岐山县境内，东距西安市135公里，西距宝鸡市56公里，东邻太白山森林公园，西邻钓鱼台景区，北邻周公庙景区。\n五丈原是三国时期一代贤相、智慧之星——诸葛亮第五次北伐屯兵之地。公元234年，蜀国丞相诸葛亮率十万大军，走褒斜道，出斜谷，驻兵五丈原，与魏将司马懿相隔渭河对峙一百多天，后因积劳成疾病逝，享年54岁。五丈原从此闻名于世，后人为纪念诸葛亮，于五丈原上最北端建祠修庙。五丈原诸葛亮庙始建于唐代，现留存为明清古建筑群。庙宇坐南朝北，耸峙原头，雄伟壮观，屋檐脊兽，千姿百态，壁画彩绘，古朴典雅。庙内有重塑于清代的诸葛亮塑像、岳飞手书诸葛亮《出师表》石刻、“将星”落星石、展示诸葛亮军事才能的八卦阵等景观二十多处。"}}, {"title": "周原博物馆", "address": "宝鸡市岐山县京当镇贺家村", "image": "", "rank": 3, "time": 1.0, "location": {"lat": 34.49735552388588, "lng": 107.85313655260742}, "feature": {"sight_features": "", "sight_content": ""}}, {"title": "中国·周原", "address": "宝鸡市岐山县凤鸣镇北郭村江家沟组岐周路西侧", "image": "", "rank": 4, "time": 1.5, "location": {"lat": 34.47417339372894, "lng": 107.60715788464273}, "feature": {"sight_features": "", "sight_content": "“中国•周原”景区位于宝鸡市岐山县凤鸣镇，景区以中华周文化展示与传承为核心，由周城、周公湖、周公庙、凤凰山四大板块组成，项目范围约4平方公里。其中周城板块占地360余亩，由周王室、百工坊、诸子百家园、封神乐园、百鸟乐园、中轴文化展示区等六大主题区组成。"}}, {"title": "箭括岭", "address": "宝鸡市岐山县", "image": "", "rank": 5, "time": 1.0, "location": {"lat": 34.44977696238733, "lng": 107.62744727878952}, "feature": {"sight_features": "", "sight_content": ""}}, {"title": "汤木森动漫乐园", "address": "宝鸡市岐山县蔡家坡镇岐渭水利风景区", "image": "", "rank": 6, "time": 2, "location": {"lat": 34.3079306408014, "lng": 107.62002797505708}, "feature": {"sight_features": "", "sight_content": ""}}, {"title": "凤栖庄农家乐接待", "address": "宝鸡岐山民俗村", "image": "", "rank": 7, "time": 2, "location": {"lat": 34.47547614497601, "lng": 107.60728256585429}, "feature": {"sight_features": "", "sight_content": ""}}, {"title": "陶然居61农家乐", "address": "北郭示范村61号", "image": "", "rank": 8, "time": 2, "location": {"lat": 31.533491666692708, "lng": 121.83679566847934}, "feature": {"sight_features": "", "sight_content": ""}}, {"title": "滨河生态园", "address": "悦诚机械东南侧", "image": "", "rank": 9, "time": 2, "location": {"lat": 34.308868875230274, "lng": 107.6327373074123}, "feature": {"sight_features": "", "sight_content": ""}}, {"title": "陕西竹聚园农业有限公司", "address": "空塔寺", "image": "", "rank": 10, "time": 2, "location": {"lat": 34.23700820900701, "lng": 107.64776661166235}, "feature": {"sight_features": "", "sight_content": ""}}, {"title": "岐山大剧院", "address": "陕西省宝鸡市岐山县太平路与礼乐路北段交汇处", "image": "", "rank": 11, "time": 2.0, "location": {"lat": 34.45926288715762, "lng": 107.63235548175699}, "feature": {"sight_features": "", "sight_content": ""}}, {"title": "崛山森林公园", "address": "陕西省岐山县东北部 722400", "image": "", "rank": 12, "time": 1.0, "location": {"lat": 34.44977696238733, "lng": 107.62744727878952}, "feature": {"sight_features": "", "sight_content": ""}}, {"title": "岐山县人口文化园", "address": "北环路与医苑路交叉口南50米", "image": "", "rank": 13, "time": 2, "location": {"lat": 34.4507713429797, "lng": 107.64140495217633}, "feature": {"sight_features": "", "sight_content": ""}}, {"title": "市民广场", "address": "周五路东50米", "image": "", "rank": 14, "time": 1.0, "location": {"lat": 38.806029455205355, "lng": 106.53237326122628}, "feature": {"sight_features": "", "sight_content": ""}}, {"title": "白云古寺", "address": "陕西省宝鸡市岐山县歧蔡西线", "image": "", "rank": 15, "time": 2, "location": {"lat": 34.34499846448631, "lng": 107.60820966834399}, "feature": {"sight_features": "", "sight_content": ""}}, {"title": "蹇家滩天主堂", "address": "陕西省岐山县蔡家坡镇华明村新华三队", "image": "", "rank": 16, "time": 2, "location": {"lat": 34.287864389890615, "lng": 107.65637364056718}, "feature": {"sight_features": "", "sight_content": ""}}, {"title": "新时代游乐广场", "address": "自强路与金三角商业步行街交叉口南50米", "image": "", "rank": 17, "time": 2, "location": {"lat": 39.93742070278223, "lng": 119.60752553637596}, "feature": {"sight_features": "", "sight_content": ""}}, {"title": "岐山凤鸣湖公园", "address": "宝鸡市岐山县凤鸣湖", "image": "", "rank": 18, "time": 2.5, "location": {"lat": 34.44977696238733, "lng": 107.62744727878952}, "feature": {"sight_features": "", "sight_content": ""}}, {"title": "民俗村又一家农家乐", "address": "周原官场牌楼向北200米路东", "image": "", "rank": 19, "time": 2, "location": {"lat": 31.531854366152213, "lng": 121.72764301601296}, "feature": {"sight_features": "", "sight_content": ""}}, {"title": "稻香村", "address": "岐周路周原广场北200米周礼坊街口", "image": "", "rank": 20, "time": 2, "location": {"lat": 34.3994650774011, "lng": 107.38707042601892}, "feature": {"sight_features": "", "sight_content": ""}}, {"title": "龙湖温泉新区", "address": "周五路附近", "image": "", "rank": 21, "time": 2, "location": {"lat": 38.806029455205355, "lng": 106.53192410847129}, "feature": {"sight_features": "", "sight_content": ""}}, {"title": "周秦画廊", "address": "凤凰西路与西三路交叉口北200米", "image": "", "rank": 22, "time": 2, "location": {"lat": 34.3251445284154, "lng": 107.61195802145734}, "feature": {"sight_features": "", "sight_content": ""}}, {"title": "静心斋画廊", "address": "广场路20号附近", "image": "", "rank": 23, "time": 2, "location": {"lat": 43.86497494416292, "lng": 126.51208313479648}, "feature": {"sight_features": "", "sight_content": ""}}, {"title": "奇艺画廊", "address": "凤鸣古街南57号附近", "image": "", "rank": 24, "time": 2, "location": {"lat": 34.4494700301253, "lng": 107.63324351065192}, "feature": {"sight_features": "", "sight_content": ""}}, {"title": "金三角商业步行街东街", "address": "陕西省岐山县蔡粮油大厦附近", "image": "", "rank": 25, "time": 2, "location": {"lat": 34.32940474885847, "lng": 107.60362700141198}, "feature": {"sight_features": "", "sight_content": ""}}]}