{"cityName": "七台河", "days": "", "cityImage": "", "spots": [{"title": "西大圈森林公园", "address": "七台河市勃利县Z003红星林场 ‎", "image": "", "rank": 1, "time": 2, "location": {"lat": 45.6977261081324, "lng": 130.33002663593746}, "feature": {"sight_features": "", "sight_content": ""}}, {"title": "石龙山森林公园", "address": "七台河市茄子河区 ‎", "image": "", "rank": 2, "time": 2, "location": {"lat": 45.791238180151915, "lng": 131.0744805937013}, "feature": {"sight_features": "", "sight_content": ""}}, {"title": "红星森林公园", "address": "黑龙江省伊春市勃利县城西南25公里", "image": "", "rank": 3, "time": 2, "location": {"lat": 47.733318457230936, "lng": 128.84754638019822}, "feature": {"sight_features": "", "sight_content": ""}}, {"title": "七台河市万宝山滑雪场", "address": "七台河市桃山区山湖大街南侧", "image": "", "rank": 4, "time": 2, "location": {"lat": 45.77179991569574, "lng": 131.02644424553824}, "feature": {"sight_features": "", "sight_content": ""}}, {"title": "仙洞山风景区", "address": "黑龙江省七台河市桃山区学府街 ‎", "image": "", "rank": 5, "time": 2, "location": {"lat": 45.78214661696845, "lng": 131.0269817250808}, "feature": {"sight_features": "", "sight_content": ""}}, {"title": "桃山公园", "address": "黑龙江省七台河市桃山区山湖路", "image": "", "rank": 6, "time": 2, "location": {"lat": 45.76968416712792, "lng": 131.01274152562794}, "feature": {"sight_features": "", "sight_content": ""}}, {"title": "银泉广场", "address": "湖滨路(近仙洞山)", "image": "", "rank": 7, "time": 0.75, "location": {"lat": 24.47760683292656, "lng": 118.11267708795793}, "feature": {"sight_features": "", "sight_content": ""}}, {"title": "万宝湖儿童公园", "address": "黑龙江省七台河市桃山区山湖路", "image": "", "rank": 8, "time": 2, "location": {"lat": 45.76968416712792, "lng": 131.01274152562794}, "feature": {"sight_features": "", "sight_content": ""}}, {"title": "扈家果园", "address": "桃山水库专用路2道弯(水库大坝靠山处再走1.5公里)", "image": "", "rank": 9, "time": 2, "location": {"lat": 43.87127652427073, "lng": 125.38046755374909}, "feature": {"sight_features": "", "sight_content": ""}}, {"title": "勃利县图书馆", "address": "长安街103号", "image": "", "rank": 10, "time": 2, "location": {"lat": 24.960878541243172, "lng": 118.38947254855458}, "feature": {"sight_features": "", "sight_content": ""}}, {"title": "小能人儿童创意乐园", "address": "山湖路东北亚广场5楼", "image": "", "rank": 11, "time": 2, "location": {"lat": 45.77847118705877, "lng": 131.01140810069165}, "feature": {"sight_features": "", "sight_content": ""}}, {"title": "七台河市图书馆", "address": "山湖路16号", "image": "", "rank": 12, "time": 2, "location": {"lat": 45.78276570681911, "lng": 131.01202051328664}, "feature": {"sight_features": "", "sight_content": ""}}, {"title": "42℃纳米汗蒸馆(经典时代店)", "address": "大同街东方彩扩摄影中心旁", "image": "", "rank": 13, "time": 2, "location": {"lat": 45.77599343301789, "lng": 131.01660366799857}, "feature": {"sight_features": "", "sight_content": ""}}, {"title": "金沙湖垂钓园", "address": "308省道西50米", "image": "", "rank": 14, "time": 2, "location": {"lat": 40.337133976011295, "lng": 116.52569290621926}, "feature": {"sight_features": "", "sight_content": ""}}, {"title": "茄子河大砬子峰", "address": "黑龙江省七台河市茄子河区红卫乡 154622", "image": "", "rank": 15, "time": 2, "location": {"lat": 45.791238180151915, "lng": 131.0744805937013}, "feature": {"sight_features": "", "sight_content": ""}}, {"title": "七台河博物馆", "address": "黑龙江省七台河市新兴区山湖路16号 154600", "image": "", "rank": 16, "time": 2.5, "location": {"lat": 45.78276570681911, "lng": 131.01202051328664}, "feature": {"sight_features": "", "sight_content": ""}}, {"title": "东北大舞台", "address": "学府街75号附近", "image": "", "rank": 17, "time": 2, "location": {"lat": 46.590381842024485, "lng": 125.15293148974135}, "feature": {"sight_features": "", "sight_content": ""}}, {"title": "蓝带啤酒广场", "address": "大同路291号", "image": "", "rank": 18, "time": 2, "location": {"lat": 24.463600436901107, "lng": 118.08674844892991}, "feature": {"sight_features": "", "sight_content": ""}}, {"title": "清潭郡汤泉会馆", "address": "东安街96号", "image": "", "rank": 19, "time": 2, "location": {"lat": 22.49455860827265, "lng": 113.33350313678837}, "feature": {"sight_features": "", "sight_content": ""}}, {"title": "青松岭", "address": "黑龙江省勃利县长白山系完达山 154604", "image": "", "rank": 20, "time": 0.4, "location": {"lat": 45.76096431316663, "lng": 130.59853255314385}, "feature": {"sight_features": "", "sight_content": ""}}, {"title": "硅化木群", "address": "黑龙江省勃利县县东南 154604", "image": "", "rank": 21, "time": 2, "location": {"lat": 45.76096431316663, "lng": 130.59853255314385}, "feature": {"sight_features": "", "sight_content": ""}}, {"title": "新发古城遗址", "address": "黑龙江省勃利县县西北 154604", "image": "", "rank": 22, "time": 2, "location": {"lat": 45.76096431316663, "lng": 129.20971630248886}, "feature": {"sight_features": "", "sight_content": ""}}, {"title": "极灵寺", "address": "七台河市勃利县", "image": "", "rank": 23, "time": 2, "location": {"lat": 45.76096431316663, "lng": 130.59853255314385}, "feature": {"sight_features": "", "sight_content": ""}}, {"title": "亿达广场", "address": "七台河市勃利县西河沿路122号", "image": "", "rank": 24, "time": 2, "location": {"lat": 45.75900398903528, "lng": 130.5733779059123}, "feature": {"sight_features": "", "sight_content": ""}}, {"title": "北兴农场图书馆", "address": "308省道北50米", "image": "", "rank": 25, "time": 2, "location": {"lat": 40.33747769696877, "lng": 116.52614205897426}, "feature": {"sight_features": "", "sight_content": ""}}, {"title": "七台河科技馆", "address": "黑龙江省七台河市新兴区大同街41号 153026", "image": "", "rank": 26, "time": 2.5, "location": {"lat": 45.77624714892582, "lng": 131.00829670457472}, "feature": {"sight_features": "", "sight_content": ""}}, {"title": "七台河市群众艺术馆", "address": "黑龙江省七台河市山湖路26号", "image": "", "rank": 27, "time": 2, "location": {"lat": 45.7798592745429, "lng": 131.01203758109133}, "feature": {"sight_features": "", "sight_content": ""}}, {"title": "石龙山", "address": "黑龙江省勃利县完达山 154604", "image": "", "rank": 28, "time": 2, "location": {"lat": 45.76096431316663, "lng": 130.59853255314385}, "feature": {"sight_features": "", "sight_content": ""}}, {"title": "勃利密塞", "address": "黑龙江省勃利县县西北 154604", "image": "", "rank": 29, "time": 2.0, "location": {"lat": 45.76096431316663, "lng": 129.20971630248886}, "feature": {"sight_features": "", "sight_content": ""}}, {"title": "勃利森林公园", "address": "黑龙江省勃利县县西南 154604", "image": "", "rank": 30, "time": 4.0, "location": {"lat": 44.78031020055154, "lng": 130.59853256281517}, "feature": {"sight_features": "", "sight_content": ""}}, {"title": "东北亚美食广场", "address": "七台河市勃利县康华街东北亚商业广场3层", "image": "", "rank": 31, "time": 2, "location": {"lat": 45.76095573138844, "lng": 130.58561456418133}, "feature": {"sight_features": "", "sight_content": ""}}, {"title": "观音阁", "address": "旭日街430", "image": "", "rank": 32, "time": 1.0, "location": {"lat": 45.77989439645651, "lng": 131.0220564192747}, "feature": {"sight_features": "", "sight_content": ""}}, {"title": "南山公园", "address": "学府路东100米", "image": "", "rank": 33, "time": 2.5, "location": {"lat": 40.17263779928602, "lng": 116.81238419023583}, "feature": {"sight_features": "", "sight_content": ""}}, {"title": "家乐儿童乐园", "address": "康华街105号(海富商厦三楼)", "image": "", "rank": 34, "time": 2, "location": {"lat": 45.76068198779977, "lng": 130.58412372557729}, "feature": {"sight_features": "", "sight_content": ""}}, {"title": "吉林水族馆", "address": "七台河市桃山区", "image": "", "rank": 35, "time": 4.5, "location": {"lat": 45.77179991569574, "lng": 131.02644424553824}, "feature": {"sight_features": "", "sight_content": ""}}, {"title": "欢乐淘气堡(银泉店)", "address": "银泉小区19号楼", "image": "", "rank": 36, "time": 2, "location": {"lat": 45.78645258332395, "lng": 131.01828529591327}, "feature": {"sight_features": "", "sight_content": ""}}, {"title": "龙泉寺", "address": "黑龙江省七台河市茄子河区铁山乡五星村一零四甚地", "image": "", "rank": 37, "time": 3.0, "location": {"lat": 45.73936392654211, "lng": 131.25896442759117}, "feature": {"sight_features": "", "sight_content": ""}}, {"title": "龙宝宝儿童游乐园", "address": "双叶大道第三小学南侧100米", "image": "", "rank": 38, "time": 2, "location": {"lat": 45.82856929622572, "lng": 130.93496147085946}, "feature": {"sight_features": "", "sight_content": ""}}, {"title": "嗨童儿童乐园", "address": "黑龙江省七台河市桃山区风采路", "image": "", "rank": 39, "time": 2, "location": {"lat": 45.775201306325194, "lng": 131.01892273619808}, "feature": {"sight_features": "", "sight_content": ""}}, {"title": "桃山基督教会", "address": "万宝河镇大明街8号", "image": "", "rank": 40, "time": 2, "location": {"lat": 45.773499036306866, "lng": 130.99786321844928}, "feature": {"sight_features": "", "sight_content": ""}}, {"title": "风雅园", "address": "教师公寓附近", "image": "", "rank": 41, "time": 2, "location": {"lat": 40.31753243570506, "lng": 116.65036829047433}, "feature": {"sight_features": "", "sight_content": ""}}, {"title": "梦幻工厂手工主题乐园", "address": "霞光街173号（市政府幼儿园与霞光街交叉口西侧30米）", "image": "", "rank": 42, "time": 2, "location": {"lat": 45.778362129303034, "lng": 131.02191879797226}, "feature": {"sight_features": "", "sight_content": ""}}, {"title": "明珠风情游乐园", "address": "万宝公园内，动物园西走50米左侧", "image": "", "rank": 43, "time": 2, "location": {"lat": 41.09849219025961, "lng": 122.80212453767575}, "feature": {"sight_features": "", "sight_content": ""}}, {"title": "一方水族馆", "address": "黑龙江省七台河市勃利县", "image": "", "rank": 44, "time": 2, "location": {"lat": 45.76096431316663, "lng": 130.59853255314385}, "feature": {"sight_features": "", "sight_content": ""}}, {"title": "广场碰碰车乐园", "address": "黑龙江省七台河市勃利县春天花园1楼门市东数第七个", "image": "", "rank": 45, "time": 2, "location": {"lat": 45.76096431316663, "lng": 130.59853255314385}, "feature": {"sight_features": "", "sight_content": ""}}, {"title": "家宝贝儿童欢乐谷（桃南菜市场店...", "address": "原桃南菜市场二楼", "image": "", "rank": 46, "time": 2, "location": {"lat": 45.771499717259076, "lng": 131.00121189028872}, "feature": {"sight_features": "", "sight_content": ""}}, {"title": "矿工广场", "address": "东进街与安康路交叉口西150米", "image": "", "rank": 47, "time": 2, "location": {"lat": 45.77090908714062, "lng": 131.00243118012014}, "feature": {"sight_features": "", "sight_content": ""}}, {"title": "七台河市博物馆", "address": "山湖路16号", "image": "", "rank": 48, "time": 2, "location": {"lat": 45.78276570681911, "lng": 131.01202051328664}, "feature": {"sight_features": "", "sight_content": ""}}, {"title": "三宝寺", "address": "黑龙江省七台河市桃山区茄子河镇东胜路佛宝寺北250米", "image": "", "rank": 49, "time": 2, "location": {"lat": 45.78948474738405, "lng": 131.03601916718944}, "feature": {"sight_features": "", "sight_content": ""}}, {"title": "七市冷兵器展览馆", "address": "学府街213号", "image": "", "rank": 50, "time": 2, "location": {"lat": 36.49046080736023, "lng": 119.23116511967532}, "feature": {"sight_features": "", "sight_content": ""}}, {"title": "百花幼儿看护乐园", "address": "大同街", "image": "", "rank": 51, "time": 2, "location": {"lat": 34.26860692204767, "lng": 117.19973645371599}, "feature": {"sight_features": "", "sight_content": ""}}, {"title": "奥乐奥欢乐谷", "address": "山湖路万宝公园内", "image": "", "rank": 52, "time": 2, "location": {"lat": 41.09849219025961, "lng": 122.80212453767575}, "feature": {"sight_features": "", "sight_content": ""}}, {"title": "红军葡萄采摘园", "address": "金山村一组红军食杂店", "image": "", "rank": 53, "time": 2, "location": {"lat": 45.31147768056788, "lng": 130.98875935473293}, "feature": {"sight_features": "", "sight_content": ""}}, {"title": "红象乐园", "address": "光明街221号", "image": "", "rank": 54, "time": 2, "location": {"lat": 31.00035093204272, "lng": 103.64405630164048}, "feature": {"sight_features": "", "sight_content": ""}}, {"title": "七彩乐园", "address": "大商一楼超市入口旁", "image": "", "rank": 55, "time": 2, "location": {"lat": 29.823915656872302, "lng": 118.34918597187027}, "feature": {"sight_features": "", "sight_content": ""}}, {"title": "大友美术", "address": "康华街236附近", "image": "", "rank": 56, "time": 2, "location": {"lat": 45.76049205231943, "lng": 130.5886034826301}, "feature": {"sight_features": "", "sight_content": ""}}, {"title": "中国草书画研究院", "address": "吉安巷4", "image": "", "rank": 57, "time": 2, "location": {"lat": 45.77597126996783, "lng": 131.02658011245}, "feature": {"sight_features": "", "sight_content": ""}}, {"title": "中共北兴农场纪律检查委员会", "address": "北兴农场附近", "image": "", "rank": 58, "time": 2, "location": {"lat": 45.973697146368195, "lng": 131.36939803047815}, "feature": {"sight_features": "", "sight_content": ""}}, {"title": "黑龙江省北兴农场中心苗圃", "address": "308省道附近", "image": "", "rank": 59, "time": 2, "location": {"lat": 40.337133976011295, "lng": 116.52614205897426}, "feature": {"sight_features": "", "sight_content": ""}}, {"title": "大陆美术", "address": "风采路29号", "image": "", "rank": 60, "time": 2, "location": {"lat": 45.78019217380349, "lng": 131.01898777890682}, "feature": {"sight_features": "", "sight_content": ""}}]}