{"cityName": "奇台", "days": 2, "cityImage": "", "spots": [{"title": "热带雨林沙滩海浪水世界", "address": "昌吉回族自治州奇台县奇台镇北京中路环二路向西100米", "image": "", "rank": 1, "time": 2, "location": {"lat": 44.00806363714301, "lng": 89.5774405971705}, "feature": {"sight_features": "", "sight_content": ""}}, {"title": "江布拉克草原", "address": "昌吉回族自治州奇台县江布拉克旅游风景区龙泉山庄", "image": "", "rank": 2, "time": 2.5, "location": {"lat": 43.653769825931825, "lng": 89.72851360771296}, "feature": {"sight_features": "", "sight_content": ""}}, {"title": "圣水世纪广场水世界", "address": "新疆维吾尔自治区奇台县北京中路向西100米", "image": "", "rank": 3, "time": null, "location": {"lat": 44.00806363714301, "lng": 89.57654229166052}, "feature": {"sight_features": "", "sight_content": ""}}, {"title": "硅化木恐龙国家地质公园", "address": "新疆奇台县将军戈壁", "image": "", "rank": 4, "time": 2, "location": {"lat": 44.76190575935546, "lng": 89.63876221988822}, "feature": {"sight_features": "", "sight_content": ""}}, {"title": "奇台县档案馆", "address": "东关街207号", "image": "", "rank": 5, "time": 2, "location": {"lat": 32.403448373341455, "lng": 119.45387656013446}, "feature": {"sight_features": "", "sight_content": ""}}, {"title": "硅化木园林公园", "address": "228省道附近", "image": "", "rank": 6, "time": 2, "location": {"lat": 39.03858546081583, "lng": 117.03749267899916}, "feature": {"sight_features": "", "sight_content": ""}}, {"title": "奇台县顺帆农机合作社(奇台办事...", "address": "303省道附近", "image": "", "rank": 7, "time": 2, "location": {"lat": 38.25466494631471, "lng": 114.66726867564682}, "feature": {"sight_features": "", "sight_content": ""}}, {"title": "农六师奇台农场光荣院", "address": "古城东街附近", "image": "", "rank": 8, "time": 2, "location": {"lat": 43.680273414207996, "lng": 89.8440646530844}, "feature": {"sight_features": "", "sight_content": ""}}, {"title": "一万泉旅游度假村", "address": "新疆维吾尔自治区昌吉市无名峰 831100", "image": "", "rank": 9, "time": 2, "location": {"lat": 44.020126845938606, "lng": 87.27386462195048}, "feature": {"sight_features": "", "sight_content": ""}}, {"title": "农耕文化博物馆", "address": "新疆维吾尔自治区奇台县老奇台镇牛王宫村", "image": "", "rank": 10, "time": 7.5, "location": {"lat": 43.833115145491185, "lng": 89.91606467333663}, "feature": {"sight_features": "", "sight_content": ""}}, {"title": "奇台硅化木园", "address": "昌吉回族自治州奇台县", "image": "", "rank": 11, "time": 7.5, "location": {"lat": 44.026897819017556, "lng": 89.6010808117238}, "feature": {"sight_features": "", "sight_content": ""}}, {"title": "桃源山庄生态旅游度假村", "address": "新疆维吾尔自治区昌吉回族自治州奇台县开芦段开垦庙社区", "image": "", "rank": 12, "time": 3.5, "location": {"lat": 43.681637746412264, "lng": 89.84610028703106}, "feature": {"sight_features": "", "sight_content": ""}}, {"title": "奇台县祥福泰度假村", "address": "奇台县古城乡果园二村3号", "image": "", "rank": 13, "time": 2, "location": {"lat": 44.0218813434884, "lng": 89.63133971486445}, "feature": {"sight_features": "", "sight_content": ""}}, {"title": "奇台儿童广场", "address": "幸福南路与健康路交汇处东侧路南", "image": "", "rank": 14, "time": 7.5, "location": {"lat": 43.795393125847006, "lng": 87.64109175542939}, "feature": {"sight_features": "", "sight_content": ""}}, {"title": "西风口度假村", "address": "168县道皮革厂后石材厂东侧（新保安公司斜对面）", "image": "", "rank": 15, "time": 2, "location": {"lat": 38.44823208951518, "lng": 115.76019240583624}, "feature": {"sight_features": "", "sight_content": ""}}, {"title": "都市根据地度假村", "address": "166县道奇台县头屯加油站向南100米", "image": "", "rank": 16, "time": 2, "location": {"lat": 44.05698929804673, "lng": 89.66219505082302}, "feature": {"sight_features": "", "sight_content": ""}}, {"title": "赵家农家庄园度假村", "address": "昌吉奇台县半截沟四队", "image": "", "rank": 17, "time": 2, "location": {"lat": 43.722700250900736, "lng": 89.77659404129658}, "feature": {"sight_features": "", "sight_content": ""}}, {"title": "榆树林度假村", "address": "吐虎玛克东街（海棠苑小区西侧）", "image": "", "rank": 18, "time": 2, "location": {"lat": 30.847064445445955, "lng": 120.20548661811164}, "feature": {"sight_features": "", "sight_content": ""}}, {"title": "紫叶羊脖子度假村", "address": "新疆维吾尔自治区昌吉回族自治州奇台县S303", "image": "", "rank": 19, "time": 2, "location": {"lat": 44.026897819017556, "lng": 89.6010808117238}, "feature": {"sight_features": "", "sight_content": ""}}, {"title": "游乐场", "address": "新疆维吾尔自治区昌吉回族自治州奇台县S303(古城南街)汇通商贸城四楼", "image": "", "rank": 20, "time": 2, "location": {"lat": 44.01583484139045, "lng": 89.58909296790164}, "feature": {"sight_features": "", "sight_content": ""}}, {"title": "古城体育广场", "address": "东大街167号", "image": "", "rank": 21, "time": 2, "location": {"lat": 22.61729942596652, "lng": 114.14733751642652}, "feature": {"sight_features": "", "sight_content": ""}}, {"title": "古城公园", "address": "昌吉回族自治州奇台县东关街356号", "image": "", "rank": 22, "time": 1.5, "location": {"lat": 44.01711114515317, "lng": 89.60744400003594}, "feature": {"sight_features": "", "sight_content": ""}}, {"title": "大唐庄生态园", "address": "西大街", "image": "", "rank": 23, "time": 2, "location": {"lat": 39.91357131364959, "lng": 116.6700940616933}, "feature": {"sight_features": "", "sight_content": ""}}, {"title": "殷氏游乐园", "address": "东大街80号", "image": "", "rank": 24, "time": 2, "location": {"lat": 22.617509352603705, "lng": 114.14733733676542}, "feature": {"sight_features": "", "sight_content": ""}}, {"title": "博物馆", "address": "地区奇台县市中心犁铧尖文化中心三楼", "image": "", "rank": 25, "time": 2, "location": {"lat": 44.033407802638116, "lng": 89.59430561190644}, "feature": {"sight_features": "", "sight_content": ""}}, {"title": "聚友庄园", "address": "头屯十字路口向北100米", "image": "", "rank": 26, "time": 2, "location": {"lat": 31.531854366152213, "lng": 121.72764301601296}, "feature": {"sight_features": "", "sight_content": ""}}, {"title": "宝玉休闲庄园", "address": "州木垒县新户镇三畦村", "image": "", "rank": 27, "time": 2, "location": {"lat": 43.8468740680102, "lng": 90.32674983494667}, "feature": {"sight_features": "", "sight_content": ""}}, {"title": "奇台县古城商业街", "address": "新疆维吾尔自治区奇台县古城商业街", "image": "", "rank": 28, "time": 2, "location": {"lat": 44.015814723677295, "lng": 89.59441319270482}, "feature": {"sight_features": "", "sight_content": ""}}, {"title": "旱码头", "address": "新疆维吾尔自治区奇台县东关街", "image": "", "rank": 29, "time": 3.5, "location": {"lat": 44.02047270008675, "lng": 89.60618079636002}, "feature": {"sight_features": "", "sight_content": ""}}, {"title": "江布拉克", "address": "新疆维吾尔自治区昌吉回族自治州奇台县", "image": "", "rank": 30, "time": 7.5, "location": {"lat": 44.026897819017556, "lng": 89.6010808117238}, "feature": {"sight_features": "特色1 东部天山自然风光中最为独特、最为优美的国家级森林公园。 特色2 拥有雪山冰川、亚高山草甸、原始森林、草原、奇花异草及野生动物。", "sight_content": "江布拉克景区是东部天山自然风光中最为独特、最为优美的国家级森林公园，它位于新疆奇台县半截沟镇境内，总面积48平方公里，离县城约45公里，距乌鲁木齐195公里。\n\n江布拉克，哈萨克语意为“圣泉”、“圣水之源”。相传周穆王和西王母瑶池相会时，在水中纵情嬉戏，致使瑶池圣水四处飞溅，落到了天山的峰峦和山巅上，这些圣水或聚集成湖泊沼泽，或穿透岩石，变成小溪，最后汇成河流奔腾流向山外。江布拉克因得圣水而出现圣泉，“圣水之源”便由此而来。江布拉克景区资源类型为自然景观、水域风光、生物景观三大系统，拥有雪山冰川、亚高山草甸、原始森林、草原、奇花异草及野生动物。\n\n景区规划建设“一轴、一心、五区、十八景”，一轴是指半截沟镇至景区旅游道路为主轴，一心是指游客服务中心；五区是指谜怪体验区、艺术创作区、体育休闲健身区、圣水之源区、游牧文化区；十八景是指游客接待中心、响坡、万亩旱田、疏勒城遗址、麻沟梁、天山怪坡、花海子、滑雪场、天山稻草人、采风基地、餐饮广场、体育健身休闲步道、高尔夫球场、圣水坛、滨河景观带、会展中心、游牧居落、黑湖。\n江布拉克景区2003年被批准为国家森林公园，2012年1月正式被国家旅游局评为国家AAAA级风景区。"}}]}