{"cityName": "丘北", "days": 2, "cityImage": "", "spots": [{"title": "天鹅湖", "address": "文山壮族苗族自治州丘北县城西边305省道旁", "image": "", "rank": 1, "time": 3.5, "location": {"lat": 24.04231463959478, "lng": 103.78142400105867}, "feature": {"sight_features": "", "sight_content": ""}}, {"title": "青龙山", "address": "文山自治州丘北县普者黑景区普者黑村西", "image": "", "rank": 2, "time": 3.0, "location": {"lat": 24.12494800126482, "lng": 104.13578166653188}, "feature": {"sight_features": "", "sight_content": ""}}, {"title": "蒲塘秀色", "address": "文山壮族苗族自治州丘北县普者黑景区仙人洞村西南蒲草塘", "image": "", "rank": 3, "time": 3.5, "location": {"lat": 24.12494800126482, "lng": 104.13578166653188}, "feature": {"sight_features": "", "sight_content": ""}}, {"title": "观音洞", "address": "文山壮族苗族自治州丘北县普者黑景区(青龙山南部山脚洞口)", "image": "", "rank": 4, "time": 2.5, "location": {"lat": 24.12494800126482, "lng": 104.13578166653188}, "feature": {"sight_features": "", "sight_content": ""}}, {"title": "那红壮族风情村(普者黑影视拍摄...", "address": "文山壮族苗族自治州丘北县下那红", "image": "", "rank": 5, "time": 3.5, "location": {"lat": 24.11533484449449, "lng": 104.0599445001832}, "feature": {"sight_features": "", "sight_content": ""}}, {"title": "摆龙湖景区（红旗水库）", "address": "文山州丘北县曰者镇南摆落村摆落大山", "image": "", "rank": 6, "time": 2, "location": {"lat": 24.132980851727435, "lng": 103.97951472984847}, "feature": {"sight_features": "", "sight_content": ""}}, {"title": "舍得村", "address": "云南省文山壮族苗族自治州丘北县舍得村", "image": "", "rank": 7, "time": 4.5, "location": {"lat": 24.24159978321397, "lng": 103.87195568217201}, "feature": {"sight_features": "", "sight_content": ""}}, {"title": "普者黑刘老肆农家乐", "address": "文山普者黑村老街子", "image": "", "rank": 8, "time": 4.5, "location": {"lat": 24.142202933569738, "lng": 104.12763727754366}, "feature": {"sight_features": "", "sight_content": ""}}, {"title": "菜花箐苗族生态旅游村", "address": "文山自治州丘北县普者黑景区普者黑村北", "image": "", "rank": 9, "time": 2, "location": {"lat": 24.12494800126482, "lng": 104.13578166653188}, "feature": {"sight_features": "", "sight_content": ""}}, {"title": "荷湖居", "address": "双龙营镇普者黑村新桥头(鱼虾饭庄)", "image": "", "rank": 10, "time": 2, "location": {"lat": 24.13627537980754, "lng": 104.12579858091117}, "feature": {"sight_features": "", "sight_content": ""}}, {"title": "普者黑好好再来彝族农家乐", "address": "普者黑景区仙人洞村", "image": "", "rank": 11, "time": 4.5, "location": {"lat": 24.12494800126482, "lng": 104.13578166653188}, "feature": {"sight_features": "", "sight_content": ""}}, {"title": "大尖山景区", "address": "云南省文山砚山县大尖山", "image": "", "rank": 12, "time": 2.0, "location": {"lat": 23.773456314168456, "lng": 104.6510879333777}, "feature": {"sight_features": "", "sight_content": ""}}, {"title": "布宜松林湖景区", "address": "文山州丘北县双龙营镇一带", "image": "", "rank": 13, "time": 2, "location": {"lat": 24.27979790392862, "lng": 104.27839398846794}, "feature": {"sight_features": "", "sight_content": ""}}, {"title": "落水洞湖景区", "address": "云南省文山壮族苗族自治州丘北县新沟农场北‎", "image": "", "rank": 14, "time": 2, "location": {"lat": 24.154758153471345, "lng": 104.08125716850225}, "feature": {"sight_features": "", "sight_content": ""}}, {"title": "姜公垂钓", "address": "13公里普者黑国家重点风景名胜区火把洞-月亮洞内", "image": "", "rank": 15, "time": 2, "location": {"lat": 24.109535643114544, "lng": 104.17385812689953}, "feature": {"sight_features": "", "sight_content": ""}}, {"title": "外贸牛场", "address": "二零六省道", "image": "", "rank": 16, "time": null, "location": {"lat": 38.811517790423125, "lng": 112.61983191355039}, "feature": {"sight_features": "", "sight_content": ""}}, {"title": "民族文化园", "address": "丘北普者黑村桥头前行50米右转-民族文化农家庄(欢乐农家庄)", "image": "", "rank": 17, "time": 2, "location": {"lat": 24.077498643840098, "lng": 103.72535105878809}, "feature": {"sight_features": "", "sight_content": ""}}, {"title": "文山官寨", "address": "云南省丘北县官寨乡 663206", "image": "", "rank": 18, "time": 3.0, "location": {"lat": 24.303167924856563, "lng": 104.05237378346635}, "feature": {"sight_features": "", "sight_content": ""}}, {"title": "隐逸水镇", "address": "青峰路25号隐逸水镇", "image": "", "rank": 19, "time": 2, "location": {"lat": 36.164886627734134, "lng": 120.4242045641719}, "feature": {"sight_features": "", "sight_content": ""}}, {"title": "六郎洞", "address": "云南省文山壮族苗族自治州丘北县", "image": "", "rank": 20, "time": 2, "location": {"lat": 24.056993896217723, "lng": 104.17344174073646}, "feature": {"sight_features": "", "sight_content": ""}}, {"title": "猴爬岩景区", "address": "文山州丘北县普者黑景区", "image": "", "rank": 21, "time": 3.0, "location": {"lat": 24.12494800126482, "lng": 104.13578166653188}, "feature": {"sight_features": "", "sight_content": ""}}, {"title": "丘北普者黑彩莲居客栈", "address": "丘北普者黑风景区内", "image": "", "rank": 22, "time": 2, "location": {"lat": 24.124424674480498, "lng": 104.13792070532338}, "feature": {"sight_features": "", "sight_content": ""}}, {"title": "和平清真寺", "address": "云南省文山壮族苗族自治州丘北县迎宾路", "image": "", "rank": 23, "time": null, "location": {"lat": 24.053998915597866, "lng": 104.17433663268521}, "feature": {"sight_features": "", "sight_content": ""}}, {"title": "天天游乐园中心", "address": "云南省文山壮族苗族自治州丘北县水乡路", "image": "", "rank": 24, "time": 2, "location": {"lat": 24.05425935508757, "lng": 104.18140530891034}, "feature": {"sight_features": "", "sight_content": ""}}, {"title": "千手千眼观音", "address": "文山壮族苗族自治州丘北县城西13公里普者黑国家重点风景名胜区观音洞内", "image": "", "rank": 25, "time": 1.0, "location": {"lat": 24.14277662056931, "lng": 104.11593069488731}, "feature": {"sight_features": "", "sight_content": ""}}, {"title": "阿弥陀佛", "address": "云南省文山壮族苗族自治州丘北县城西13公里普者黑国家重点风景名胜区观音洞内", "image": "", "rank": 26, "time": 2, "location": {"lat": 24.14277662056931, "lng": 104.11593069488731}, "feature": {"sight_features": "", "sight_content": ""}}, {"title": "寺仙老人带娃娃", "address": "云南省文山壮族苗族自治州丘北县城西13公里普者黑国家重点风景名胜区仙人洞内", "image": "", "rank": 27, "time": 2, "location": {"lat": 24.131094179183446, "lng": 104.13607677067148}, "feature": {"sight_features": "", "sight_content": ""}}, {"title": "丘北县中老年休闲广场", "address": "重阳街94号对面", "image": "", "rank": 28, "time": 2, "location": {"lat": 24.044463960153188, "lng": 104.18963230517494}, "feature": {"sight_features": "", "sight_content": ""}}, {"title": "欢乐岛游艺乐园(文山丘北店)", "address": "财富广场4F欢乐岛游艺乐园", "image": "", "rank": 29, "time": 7.5, "location": {"lat": 39.73818839715983, "lng": 116.14903505786936}, "feature": {"sight_features": "", "sight_content": ""}}, {"title": "普者黑聚星山庄", "address": "普者黑村附近", "image": "", "rank": 30, "time": 4.5, "location": {"lat": 24.142202933569738, "lng": 104.12763727754366}, "feature": {"sight_features": "", "sight_content": ""}}, {"title": "丘北县图书馆", "address": "东正街1号附近", "image": "", "rank": 31, "time": 2, "location": {"lat": 30.400071768012808, "lng": 111.4626897983686}, "feature": {"sight_features": "", "sight_content": ""}}, {"title": "彝江南住宿", "address": "普者黑桥南80米", "image": "", "rank": 32, "time": 2, "location": {"lat": 36.922992163525336, "lng": 113.73124533400077}, "feature": {"sight_features": "", "sight_content": ""}}, {"title": "兄妹农家乐", "address": "仙人洞村内", "image": "", "rank": 33, "time": 2, "location": {"lat": 40.079446745851975, "lng": 115.57250925867035}, "feature": {"sight_features": "", "sight_content": ""}}, {"title": "丘北普者黑湿地公园", "address": "丘北县以北3公里处", "image": "", "rank": 34, "time": 3.0, "location": {"lat": 24.081739687647364, "lng": 104.17344174073646}, "feature": {"sight_features": "", "sight_content": ""}}, {"title": "水围寺", "address": "云南省丘北县布宜村", "image": "", "rank": 35, "time": 2, "location": {"lat": 24.1180005735586, "lng": 104.16666945771935}, "feature": {"sight_features": "", "sight_content": ""}}, {"title": "阿在直山", "address": "文山壮族苗族自治州-丘北县", "image": "", "rank": 36, "time": 2, "location": {"lat": 24.056993896217723, "lng": 104.17344174073646}, "feature": {"sight_features": "", "sight_content": ""}}, {"title": "普者黑蝴蝶谷", "address": "文山壮族苗族自治州-丘北县-八道哨彝族乡矣堵村委会阿诺村花之道园区", "image": "", "rank": 37, "time": 4.5, "location": {"lat": 24.103320028989366, "lng": 104.09384893871292}, "feature": {"sight_features": "", "sight_content": ""}}, {"title": "普者黑天鹅湖-观景台", "address": "文山壮族苗族自治州-丘北县-普者黑风景区", "image": "", "rank": 38, "time": 4.5, "location": {"lat": 24.124424674480498, "lng": 104.13792070532338}, "feature": {"sight_features": "", "sight_content": ""}}, {"title": "普者黑天鹅湖-1号观景点", "address": "文山壮族苗族自治州-丘北县-边305省道旁普者黑天鹅湖", "image": "", "rank": 39, "time": 4.5, "location": {"lat": 24.10491174844944, "lng": 104.14370575687352}, "feature": {"sight_features": "", "sight_content": ""}}, {"title": "普者黑玫瑰庄园", "address": "文山壮族苗族自治州丘北县八道哨乡阿诺村", "image": "", "rank": 40, "time": null, "location": {"lat": 24.107352020394814, "lng": 104.09715269617404}, "feature": {"sight_features": "", "sight_content": "普者黑玫瑰庄园总占地面积1200亩，主要种植高原墨红食用玫瑰花，其余观赏性玫瑰品种50余种，园区风景秀丽，四季飘香，是广大旅游爱好者休闲度假的好去处，来玫瑰庄园体验“做花饼”、“品花茶”、“喝花酒”更是一种不错的享受。"}}, {"title": "普者黑湖", "address": "云南省文山壮族苗族自治州丘北县普者黑村", "image": "", "rank": 41, "time": 2, "location": {"lat": 24.142202933569738, "lng": 104.12763727754366}, "feature": {"sight_features": "", "sight_content": ""}}, {"title": "三生三世取景地", "address": "文山壮族苗族自治州丘北县境内", "image": "", "rank": 42, "time": 2, "location": {"lat": 24.056993896217723, "lng": 104.17344174073646}, "feature": {"sight_features": "", "sight_content": ""}}, {"title": "火把洞", "address": "普者黑景区(青龙山北东麓)", "image": "", "rank": 43, "time": 0.75, "location": {"lat": 24.12494800126482, "lng": 104.13578166653188}, "feature": {"sight_features": "", "sight_content": ""}}, {"title": "舍得草场", "address": "云南省文山市丘北县舍得村", "image": "", "rank": 44, "time": 2, "location": {"lat": 24.24159978321397, "lng": 103.87195568217201}, "feature": {"sight_features": "", "sight_content": ""}}, {"title": "猫猫冲村", "address": "云南省文山州丘北县八道哨彝族乡矣堵村委会", "image": "", "rank": 45, "time": 2, "location": {"lat": 24.103320028989366, "lng": 104.09384893871292}, "feature": {"sight_features": "", "sight_content": ""}}, {"title": "普者黑", "address": "文山壮族苗族自治州丘北县305省道与206省道交叉口（近指北山）", "image": "", "rank": 46, "time": 3.5, "location": {"lat": 24.04231463959478, "lng": 103.78142400105867}, "feature": {"sight_features": "特色1 世间罕见的喀斯特山水风光。 特色2 《三生三世十里桃花》取景地。 特色3 山得水而活，水得山而媚。", "sight_content": "普者黑位于文山州丘北县西北部，“普者黑”是彝语，意为“盛满鱼虾的池塘”。景区内不仅有数百座孤峰，大片的湖泊，还有近百个喀斯特地貌的溶洞，以及上万亩荷塘和原汁原味的民族风情，被誉为“世间罕见的喀斯特山水田园风光”。由于2013年湖南卫视亲子节目《爸爸去哪儿》和2016年《三生三世十里桃花》曾在此取景，而被众人熟知。\n普者黑现在分为核心景区（旧景区）和外围景区（新景区）两大片区，核心景区是常规游览地，能看到溶洞、万亩荷花以及普者黑典型的山水田园风光，普者黑村及仙人洞村等少数民族村落也在这里。外围包括天鹅湖、湿地等等，一般游客主要游玩的是核心景区。\n来到普者黑，一是看洞，一是游湖。可以直接购买核心景区联票，坐上彝家世代相传的柳叶小舟，泛舟在清澈得看得到湖底水草的湖面上，将湖光山色和奇洞怪石一并游览。如果不愿坐船，也可以坐小马车（费用根据路程5-15元不等）直接至各个溶洞门口购买单个洞窟的门票。\n喀斯特溶洞无疑是普者黑的一大看点，目前开放的有月亮洞、火把洞、观音洞和仙人洞，洞内不仅有形形色色的钟乳石，还有不少的神话传说。火把洞和月亮洞是连通的，通常步行进入，乘船而出。观音洞已经成为寺庙性质的景点，烧香、捐款之类的，建议看看就好。这三个洞是在一起的，可以一并游玩，仙人洞则较远，在仙人洞村附近，洞内还保留有古人生活的遗迹，需乘船入洞后上岸步行参观。\n6至9月是普者黑旅游的黄金季节，此时正值荷花盛放，一定要乘船体验一下打水仗的乐趣。然而旅游淡季，则可以带上相机游走在田园、村寨之间，拍拍原汁原味的山水田园风光，或者拍一张文艺范儿的照片留念。另外，由于普者黑是独特的喀斯特地貌，山不高，很容易攀登，其中密枝山（仙人洞村口）和青龙山（普者黑村西约600米）是摄影爱好者拍日出日落，站在山顶上，普者黑的风光可尽收眼底。\n普者黑景区有普者黑村和仙人洞村两个村子，都有宾馆和农家乐可以解决吃住。仙人洞村离景区大门比较近，大约只有1公里，步行前往即可。而普者黑村离景区大门约3公里，可以乘小马车前往景区大门（5元左右），每天晚上8:30-9:30在村里的角斗城有篝火晚会可参加，60元/人。比较推荐住在仙人洞村，乘游船进湖时，在普者黑村吃饭。"}}]}