{"cityName": "杞县", "days": 2, "cityImage": "", "spots": [{"title": "杞县东湖公园", "address": "河南省开封市杞县北门大街", "image": "", "rank": 1, "time": 2.5, "location": {"lat": 34.56527857875288, "lng": 114.79362633279992}, "feature": {"sight_features": "", "sight_content": ""}}, {"title": "欢乐谷儿童乐园", "address": "广场路与玄武路交叉口东100米", "image": "", "rank": 2, "time": 2, "location": {"lat": 39.36754798377137, "lng": 117.89038980393971}, "feature": {"sight_features": "", "sight_content": ""}}, {"title": "马青松唢呐艺术团", "address": "中山南街", "image": "", "rank": 3, "time": 2, "location": {"lat": 40.14334152944196, "lng": 116.6579930061345}, "feature": {"sight_features": "", "sight_content": ""}}, {"title": "7号公园", "address": "开封市杞县", "image": "", "rank": 4, "time": 2.5, "location": {"lat": 34.55485678068698, "lng": 114.7895921047377}, "feature": {"sight_features": "", "sight_content": ""}}, {"title": "鹿台岗遗址", "address": "河南杞县裴村店乡鹿台岗村 475201", "image": "", "rank": 5, "time": 2, "location": {"lat": 34.53150354407145, "lng": 114.90372371430671}, "feature": {"sight_features": "", "sight_content": ""}}, {"title": "汉典孔雀", "address": "城郊乡经五路袁洼", "image": "", "rank": 6, "time": null, "location": {"lat": 42.28291182750048, "lng": 118.98431338858546}, "feature": {"sight_features": "", "sight_content": ""}}, {"title": "四通温泉会馆", "address": "213省道附近(佳佳门业旁)", "image": "", "rank": 7, "time": 2, "location": {"lat": 39.999164912284996, "lng": 116.42332353742155}, "feature": {"sight_features": "", "sight_content": ""}}, {"title": "钰龙温泉馆", "address": "宗店乡宗店村", "image": "", "rank": 8, "time": 2, "location": {"lat": 34.30324605652227, "lng": 114.8467981758852}, "feature": {"sight_features": "", "sight_content": ""}}, {"title": "鑫池温泉馆", "address": "高阳镇高阳南村卫生室西20米", "image": "", "rank": 9, "time": 2, "location": {"lat": 38.68790450539052, "lng": 115.77206233008224}, "feature": {"sight_features": "", "sight_content": ""}}, {"title": "水泊王朝温泉", "address": "003乡道附近", "image": "", "rank": 10, "time": 2, "location": {"lat": 40.96482298415481, "lng": 116.62729781702801}, "feature": {"sight_features": "", "sight_content": ""}}, {"title": "神奇世界绘本馆", "address": "城关镇老卫校帮旁胡同内", "image": "", "rank": 11, "time": null, "location": {"lat": 33.8523792245012, "lng": 113.47977737169182}, "feature": {"sight_features": "", "sight_content": ""}}, {"title": "净土寺", "address": "河南省开封市杞县", "image": "", "rank": 12, "time": 1.0, "location": {"lat": 34.55485678068698, "lng": 114.7895921047377}, "feature": {"sight_features": "", "sight_content": ""}}, {"title": "杞县泥沟乡文化广场", "address": "河南省开封市杞县杞县泥沟乡人民政府附近", "image": "", "rank": 13, "time": 2, "location": {"lat": 34.72098116138049, "lng": 114.73273006663437}, "feature": {"sight_features": "", "sight_content": ""}}, {"title": "杞县城隍庙", "address": "金城大道与中山大街交叉口东70米", "image": "", "rank": 14, "time": 2.25, "location": {"lat": 34.55471845197511, "lng": 114.7907702952954}, "feature": {"sight_features": "", "sight_content": ""}}, {"title": "虎丘寺", "address": "河南省开封市杞县邢口镇虎邱寺", "image": "", "rank": 15, "time": 2, "location": {"lat": 34.45408529471444, "lng": 114.80872913461018}, "feature": {"sight_features": "", "sight_content": ""}}, {"title": "晁村基督教堂", "address": "晁东村附近", "image": "", "rank": 16, "time": 2, "location": {"lat": 34.5764156539933, "lng": 114.63803819882689}, "feature": {"sight_features": "", "sight_content": ""}}, {"title": "蔡邕蔡文姬纪念馆", "address": "213省道附近", "image": "", "rank": 17, "time": 2, "location": {"lat": 39.999164912284996, "lng": 116.42332353742155}, "feature": {"sight_features": "", "sight_content": ""}}, {"title": "高典快乐大本营", "address": "S327省道丽萍日化东南侧10米", "image": "", "rank": 18, "time": 2, "location": {"lat": 36.98733529213386, "lng": 111.18935691376028}, "feature": {"sight_features": "", "sight_content": ""}}, {"title": "杞国古韵养生园", "address": "106国道东50米", "image": "", "rank": 19, "time": 2, "location": {"lat": 38.19120557976281, "lng": 116.12001647604805}, "feature": {"sight_features": "", "sight_content": ""}}, {"title": "葛岗镇文化广场", "address": "河南省开封市杞县S327", "image": "", "rank": 20, "time": 2, "location": {"lat": 34.55485678068698, "lng": 114.7895921047377}, "feature": {"sight_features": "", "sight_content": ""}}, {"title": "红豆豆儿童乐园", "address": "河南省开封市杞县西寨乡政府附近", "image": "", "rank": 21, "time": 2, "location": {"lat": 34.64417431453386, "lng": 114.88277779357794}, "feature": {"sight_features": "", "sight_content": ""}}, {"title": "大云寺塔", "address": "河南省开封市杞县瓦岗村附近", "image": "", "rank": 22, "time": 2, "location": {"lat": 34.34175296487572, "lng": 114.84293253551294}, "feature": {"sight_features": "", "sight_content": ""}}, {"title": "基督教堂", "address": "012县道附近", "image": "", "rank": 23, "time": 2.0, "location": {"lat": 40.15507522393554, "lng": 116.62437778513727}, "feature": {"sight_features": "", "sight_content": ""}}, {"title": "鑫海岸温泉", "address": "325县道中国移动斜对面", "image": "", "rank": 24, "time": 2, "location": {"lat": 39.925058029430275, "lng": 116.41922051173354}, "feature": {"sight_features": "", "sight_content": ""}}, {"title": "文姬书画院", "address": "金城大道", "image": "", "rank": 25, "time": 2, "location": {"lat": 23.109337029238382, "lng": 113.14502670686855}, "feature": {"sight_features": "", "sight_content": ""}}, {"title": "多彩温泉会馆", "address": "平城乡舒欣大药房旁", "image": "", "rank": 26, "time": null, "location": {"lat": 34.66723613877845, "lng": 114.7097371708519}, "feature": {"sight_features": "", "sight_content": ""}}, {"title": "德艺轩书画苑", "address": "建设路26附近", "image": "", "rank": 27, "time": 2, "location": {"lat": 39.48833458265262, "lng": 115.99603690935965}, "feature": {"sight_features": "", "sight_content": ""}}, {"title": "众合源温泉", "address": "012县道中国移动斜对面", "image": "", "rank": 28, "time": 2, "location": {"lat": 31.136650238762755, "lng": 118.67637337852732}, "feature": {"sight_features": "", "sight_content": ""}}, {"title": "聚龙温泉商务宾馆", "address": "经一路与开启路交叉口200米", "image": "", "rank": 29, "time": 2, "location": {"lat": 38.57262813430383, "lng": 116.86700166919188}, "feature": {"sight_features": "", "sight_content": ""}}, {"title": "z先生密室逃脱俱乐部(杞县店)", "address": "建设路银河路口好旺角购物广场三楼(金都商务宾馆旁)", "image": "", "rank": 30, "time": null, "location": {"lat": 34.56464152392819, "lng": 114.7829807971674}, "feature": {"sight_features": "", "sight_content": ""}}, {"title": "冒险王密室逃脱杞县店", "address": "振兴街大众浴池旁新欣宾馆九楼(春蕾学校向北100米路西)", "image": "", "rank": 31, "time": 2, "location": {"lat": 34.56317443650759, "lng": 114.77569370154842}, "feature": {"sight_features": "", "sight_content": ""}}, {"title": "文化广场", "address": "327省道附近", "image": "", "rank": 32, "time": 1.5, "location": {"lat": 37.483115265356545, "lng": 114.27992652618842}, "feature": {"sight_features": "", "sight_content": ""}}, {"title": "葛岗镇早密莉葡萄园", "address": "012县道附近", "image": "", "rank": 33, "time": 2, "location": {"lat": 40.15507522393554, "lng": 116.62437778513727}, "feature": {"sight_features": "", "sight_content": ""}}, {"title": "互联网(订单服务点)", "address": "开封市-杞县-S325", "image": "", "rank": 34, "time": 2, "location": {"lat": 34.55485678068698, "lng": 114.7895921047377}, "feature": {"sight_features": "", "sight_content": ""}}]}