{"cityName": "栖霞", "days": 2, "cityImage": "", "spots": [{"title": "栖霞太虚宫", "address": "烟台市栖霞市迎宾路33号", "image": "", "rank": 1, "time": 2.5, "location": {"lat": 37.34688474713872, "lng": 120.83974922801448}, "feature": {"sight_features": "特色1 中国道教文化的发源地之一", "sight_content": "太虚宫坐落于山东省烟台市栖霞市，是一座新建的旅游景区，依山傍水，风景秀丽，交通便利，为栖霞又增添了一道亮丽的风景。太虚宫是由我国道教全真龙门派创始人、著名的道学家、养生学家和文学家丘处机，于公元1191年以故居为观主持修建，当地人称之为“滨都宫”。\n\n大虚宫位于栖霞城北郊，始建于1191年，距今已有八百多年的历史，是金元时期道教全真派一代宗师丘处机的传道之所。因太虚宫所在地名滨都里，当地俗称“滨都宫”。金章宗皇帝御赐宫名为“太虚观”，为当时负有盛名的道教从林之一。新修大虚宫西邻烟青204国道高速公路，东接被称为“胶东天池”的库容达8000万立方米的庵里水库，北依公山，南连市区，这里不仅有可供游人休闲游玩的水上乐园，而且“太虚宫”作为有影响的中国道教文化的发源地之一，其道教建筑规模之宏大，道教设施之全在全国都是空前的，是栖霞重要的旅游景点之一。"}}, {"title": "国路夼生态旅游区", "address": "烟台市栖霞市桃村镇国路夼村", "image": "", "rank": 2, "time": 1.5, "location": {"lat": 37.35358863969833, "lng": 121.19850634573817}, "feature": {"sight_features": "", "sight_content": ""}}, {"title": "十八盘林场", "address": "蛇窝泊镇寨凹", "image": "", "rank": 3, "time": 2, "location": {"lat": 37.261102631313825, "lng": 120.94025299862399}, "feature": {"sight_features": "", "sight_content": ""}}, {"title": "樱桃采摘", "address": "庙后镇祝家夼村", "image": "", "rank": 4, "time": 2, "location": {"lat": 37.38107149803222, "lng": 121.07698642667172}, "feature": {"sight_features": "", "sight_content": ""}}, {"title": "烟台栖霞苹果城高尔夫俱乐部-西...", "address": "G15沈海高速附近", "image": "", "rank": 5, "time": 1.0, "location": {"lat": 24.684208635520125, "lng": 118.28177739591544}, "feature": {"sight_features": "", "sight_content": ""}}, {"title": "栖霞市影剧院", "address": "跃进路与霞光路交叉口东100米", "image": "", "rank": 6, "time": 2.5, "location": {"lat": 37.30657472987747, "lng": 120.8391100647797}, "feature": {"sight_features": "", "sight_content": ""}}, {"title": "华侨农场(嵩山路)", "address": "嵩山路附近", "image": "", "rank": 7, "time": 2, "location": {"lat": 38.84214735857102, "lng": 117.07195742302564}, "feature": {"sight_features": "", "sight_content": ""}}, {"title": "桃村", "address": "烟台市栖霞市", "image": "", "rank": 8, "time": 2, "location": {"lat": 37.341418164799684, "lng": 120.85641658337892}, "feature": {"sight_features": "", "sight_content": ""}}, {"title": "栖霞市图书馆(山城路店)", "address": "山城路58号", "image": "", "rank": 9, "time": 2.5, "location": {"lat": 44.40613247730041, "lng": 131.17169172900523}, "feature": {"sight_features": "", "sight_content": ""}}, {"title": "栖霞市图书馆(跃进路店)", "address": "跃进路475院", "image": "", "rank": 10, "time": 2.5, "location": {"lat": 40.06281047006506, "lng": 116.19666351783904}, "feature": {"sight_features": "", "sight_content": ""}}, {"title": "栖霞书画院", "address": "庄园街道南岩子口工业园", "image": "", "rank": 11, "time": 2.5, "location": {"lat": 37.33790644450732, "lng": 120.83569770577456}, "feature": {"sight_features": "", "sight_content": ""}}, {"title": "吉祥画廊", "address": "跃进路", "image": "", "rank": 12, "time": 2, "location": {"lat": 40.06281047006506, "lng": 116.19666351783904}, "feature": {"sight_features": "", "sight_content": ""}}, {"title": "栖露市崇文艺术馆", "address": "霞光路与庄园南街交叉口旁", "image": "", "rank": 13, "time": 2, "location": {"lat": 37.32508259443004, "lng": 120.84200970513538}, "feature": {"sight_features": "", "sight_content": ""}}, {"title": "烟台奇石馆", "address": "牟氏庄园东入口的对面", "image": "", "rank": 14, "time": 1.0, "location": {"lat": 35.427067985338184, "lng": 119.4879037341572}, "feature": {"sight_features": "", "sight_content": ""}}, {"title": "高媛书画苑", "address": "霞光路225附近", "image": "", "rank": 15, "time": 2, "location": {"lat": 30.074124496451663, "lng": 103.86521365172722}, "feature": {"sight_features": "", "sight_content": ""}}, {"title": "名家画廊", "address": "电业路75号", "image": "", "rank": 16, "time": 2, "location": {"lat": 37.32140755663006, "lng": 120.8403194876234}, "feature": {"sight_features": "", "sight_content": ""}}, {"title": "古月轩画廊", "address": "栖霞铭郡小区(电业路王格庄桥铭郡小区6号)", "image": "", "rank": 17, "time": 2, "location": {"lat": 37.32067410825723, "lng": 120.859799035997}, "feature": {"sight_features": "", "sight_content": ""}}, {"title": "淑丽农业合作社", "address": "松山街道松山街", "image": "", "rank": 18, "time": 2, "location": {"lat": 24.69804018673756, "lng": 113.63883221818767}, "feature": {"sight_features": "", "sight_content": ""}}, {"title": "博士达有机苹果观光采摘园", "address": "观里镇方山", "image": "", "rank": 19, "time": 2, "location": {"lat": 37.90102023915963, "lng": 111.25037044293047}, "feature": {"sight_features": "", "sight_content": ""}}, {"title": "栖霞农商银行艺术团", "address": "文化路236号", "image": "", "rank": 20, "time": 2.5, "location": {"lat": 32.10260020782976, "lng": 118.91542298490691}, "feature": {"sight_features": "", "sight_content": ""}}, {"title": "悦心苑商业步行街", "address": "山东省栖霞市霞光路598号", "image": "", "rank": 21, "time": 2, "location": {"lat": 37.304605052139806, "lng": 120.83733621502476}, "feature": {"sight_features": "", "sight_content": ""}}, {"title": "山东栖霞寺口驻地", "address": "烟台市-栖霞市-永和路", "image": "", "rank": 22, "time": 2, "location": {"lat": 37.32514653128628, "lng": 120.65222108436265}, "feature": {"sight_features": "", "sight_content": ""}}, {"title": "牟家学堂", "address": "烟台市-栖霞市-庄园南街6号牟氏庄园内", "image": "", "rank": 23, "time": 2, "location": {"lat": 37.32485845672139, "lng": 120.84115074181351}, "feature": {"sight_features": "", "sight_content": ""}}]}