{"cityName": "淇县", "days": 2, "cityImage": "", "spots": [{"title": "云梦山风景区", "address": "鹤壁市淇县云梦山风景区（县城以西约15公里）", "image": "", "rank": 1, "time": 3.5, "location": {"lat": 35.61796460366172, "lng": 114.06535018983445}, "feature": {"sight_features": "特色1 战国时期纵横家鼻祖“鬼谷子”王禅隐居授徒之处 特色2 景区内有草原峡谷，景色奇特！ 特色3 峰峦叠嶂，山起云浮，气象万千，飞瀑流泉", "sight_content": "鹤壁市淇县的云梦山风景区，位于县城以西约十五公里处。在淇县县城的社会汽车站，每天都有多趟班车开往景区，车程约30分钟。云梦山风景区分为主景区（战国古军库、上圣古庙）、五里鬼谷（峡谷）、云梦大草原三部分组成，景区内的峡谷和“大草原”其实规模都不大，峡谷就是一条不太深也不太长的山谷；草原的亮点也不在于“大”，而是因为在太行山脉中有这样一片草原，非常罕见。游客进入景区后，根据景区的指示牌，沿着游览步道游览就可以了。\n主景区的上圣古庙位于北山，战国古军库是主景区中的主要景点，位于南山，据说这里是战国时期的纵横家鼻祖——鬼谷子王禅隐居授徒的地方，国防大学确定这里为“中国古代军事文化教育基地”。战国时期著名的孙膑、庞涓、苏秦、张仪、毛遂等名人都是在这里师从鬼谷子。如今在山中还有鬼谷洞、太孙膑洞、庞涓洞、孙膑墓等人文景点。此外还有全国字数最多规模最大的摩崖题记\"鬼谷子\"兵书。除了人文遗迹和景点，景区内青山绿水、草木茂盛，还能看到不少瀑布、泉水，是个游玩休闲的好地方。不过，如果你是冬天来这里，瀑布和泉水基本已经干枯，草木也已经枯黄，此时则是另外一番北方山脉的冷峻之色。山中多处有小卖部，可以购买到零食和饮用水。"}}, {"title": "古灵山", "address": "鹤壁市淇县县城西北部", "image": "", "rank": 2, "time": 3.5, "location": {"lat": 35.62727702033594, "lng": 114.21548972449943}, "feature": {"sight_features": "特色1 “灵山抱妙寺，神泉涤心埃” 特色2 国家级AAAA级景区2、《封神榜》故事发生地3、女娲文化圣地 特色3 体闲度假、登山探险、祭祖朝拜的游览胜地", "sight_content": "古灵山景区位于淇县（朝歌，纣王皇都）城西15公里处，是国家aaaa级旅游景区、中国最佳文化旅游景区；是女娲修真处、纣王降香处、《封神榜》故事发生地。主题文化是女娲文化和殷商文化。\n\n\n主要由六大游览版块组成：纣王降香处——女娲宫主景区，纣王采暖行宫——朝阳寺，纣王避暑行宫——清凉庵，清代古民居石头城——凉水泉，天下第一铜顶，佛教圣地——灵光阁，现存有主要景点有：女娲宫、女娲峰、女娲池、太公湖、玉带河、醒目泉、古佛洞、补天阁、灵峰、财神沟、龙潭峡等2百余处，自古就有“灵山抱妙寺，神泉涤心埃”的美誉。\n\n明代嘉靖年间淇县县令于慧题写了灵山十景：“危岩少进，群峰耸翠，列柿流丹，一经蓬壶，半岩风雨，九天鸣佩，巨崖走蛟，双剑横秋，东海龙吟，西山虎啸”。明崇祯时监察御史孙徵兰摩崖题诗曰：“山卓碧云插汉，泉滃绿玉飞花，三仁六七贤圣，灵杰千古同嘉”。"}}, {"title": "摘星台景区", "address": "鹤壁市淇县城关镇", "image": "", "rank": 3, "time": 2, "location": {"lat": 35.62727702033594, "lng": 114.21548972449943}, "feature": {"sight_features": "", "sight_content": ""}}, {"title": "锦尚温泉", "address": "鹤壁市淇县云梦大道与卫都路交叉口东南角", "image": "", "rank": 4, "time": 2, "location": {"lat": 35.61891805969721, "lng": 114.22172170999184}, "feature": {"sight_features": "", "sight_content": "鹤壁锦尚温泉占地2300平方米，提供住宿、温泉等多种项目。"}}, {"title": "商纣王帝辛墓", "address": "淇县城东12公里处，淇河大桥处", "image": "", "rank": 5, "time": 2, "location": {"lat": 35.775772671070904, "lng": 114.2289932137221}, "feature": {"sight_features": "", "sight_content": ""}}, {"title": "灵山跑马场", "address": "001乡道附近", "image": "", "rank": 6, "time": 1.0, "location": {"lat": 42.370177806786245, "lng": 117.99555275285643}, "feature": {"sight_features": "", "sight_content": ""}}, {"title": "小马庄农民专业合作社安顺种植", "address": "同济大道附近", "image": "", "rank": 7, "time": 2, "location": {"lat": 35.607552498876274, "lng": 114.2065361706509}, "feature": {"sight_features": "", "sight_content": ""}}, {"title": "益农家庭农场", "address": "朝歌镇中山路与西后路交叉口向西100米南门里荆轲塚正南", "image": "", "rank": 8, "time": 2, "location": {"lat": 35.611012861167865, "lng": 114.20904239182033}, "feature": {"sight_features": "", "sight_content": ""}}, {"title": "卫国故城", "address": "河南淇县城关镇 456750", "image": "", "rank": 9, "time": 2, "location": {"lat": 35.62727702033594, "lng": 114.21548972449943}, "feature": {"sight_features": "", "sight_content": ""}}, {"title": "五里鬼谷", "address": "河南淇县云梦山 458030", "image": "", "rank": 10, "time": 2, "location": {"lat": 35.60061806070301, "lng": 114.08265764267136}, "feature": {"sight_features": "", "sight_content": ""}}, {"title": "朝阳悬空寺", "address": "222省道附近", "image": "", "rank": 11, "time": 3.0, "location": {"lat": 36.77202196628758, "lng": 114.17537319703483}, "feature": {"sight_features": "", "sight_content": ""}}, {"title": "可以观", "address": "006乡道附近", "image": "", "rank": 12, "time": 2, "location": {"lat": 42.011747549379294, "lng": 118.25427947194045}, "feature": {"sight_features": "", "sight_content": ""}}, {"title": "圆梦苑山庄", "address": "026乡道附近", "image": "", "rank": 13, "time": 2, "location": {"lat": 45.75376621177619, "lng": 120.29702071223088}, "feature": {"sight_features": "", "sight_content": ""}}, {"title": "玉皇顶庙", "address": "010乡道附近", "image": "", "rank": 14, "time": 2, "location": {"lat": 37.55366481954672, "lng": 112.36885737069535}, "feature": {"sight_features": "", "sight_content": ""}}, {"title": "和盛·中央公园", "address": "和谐大道与淇河路交叉口东南角", "image": "", "rank": 15, "time": 2, "location": {"lat": 35.63116687729232, "lng": 114.21766000635729}, "feature": {"sight_features": "", "sight_content": ""}}, {"title": "妙妙屋儿童主题乐园", "address": "兴坛街与小西街交叉口北50米", "image": "", "rank": 16, "time": 2, "location": {"lat": 35.61380021915316, "lng": 114.20783800397902}, "feature": {"sight_features": "", "sight_content": ""}}, {"title": "开心玩国儿童乐园", "address": "中山路233", "image": "", "rank": 17, "time": 2, "location": {"lat": 31.390880790732357, "lng": 120.95727184566329}, "feature": {"sight_features": "", "sight_content": ""}}, {"title": "烈士陵园(淇县)", "address": "烈士陵园(淇县)附近", "image": "", "rank": 18, "time": 2, "location": {"lat": 35.63291324677652, "lng": 114.18288662432029}, "feature": {"sight_features": "", "sight_content": ""}}, {"title": "鹿台寺", "address": "河南省鹤壁市淇县北阳镇云梦山风景区", "image": "", "rank": 19, "time": 2, "location": {"lat": 35.61796460366172, "lng": 114.06535018983445}, "feature": {"sight_features": "", "sight_content": ""}}, {"title": "儿童乐园", "address": "012乡道附近", "image": "", "rank": 20, "time": 2, "location": {"lat": 42.03943121264008, "lng": 117.37717289403135}, "feature": {"sight_features": "", "sight_content": ""}}, {"title": "包公庙", "address": "鹤壁市淇县淇石线", "image": "", "rank": 21, "time": 1.5, "location": {"lat": 35.57138290428578, "lng": 114.25498732036596}, "feature": {"sight_features": "", "sight_content": ""}}, {"title": "崇庆寺", "address": "太行路与海中路交叉口西150米", "image": "", "rank": 22, "time": 2, "location": {"lat": 35.623478127678695, "lng": 114.204213069958}, "feature": {"sight_features": "", "sight_content": ""}}, {"title": "关帝庙", "address": "鹤壁市淇县南关村505号", "image": "", "rank": 23, "time": 0.5, "location": {"lat": 35.59858775316713, "lng": 114.2079744583826}, "feature": {"sight_features": "", "sight_content": ""}}, {"title": "三黄庙", "address": "003乡道附近", "image": "", "rank": 24, "time": 2, "location": {"lat": 40.96482298415481, "lng": 116.62729781702801}, "feature": {"sight_features": "", "sight_content": ""}}, {"title": "清真寺", "address": "004乡道附近", "image": "", "rank": 25, "time": 1.0, "location": {"lat": 42.09990729646014, "lng": 117.90189407292786}, "feature": {"sight_features": "", "sight_content": ""}}, {"title": "孙膑纪念馆", "address": "007乡道附近", "image": "", "rank": 26, "time": 2, "location": {"lat": 42.90705169386021, "lng": 129.6381359064959}, "feature": {"sight_features": "", "sight_content": ""}}, {"title": "督财府", "address": "上街路与淇河路交叉口西180米", "image": "", "rank": 27, "time": 2, "location": {"lat": 35.610388240151984, "lng": 114.2139797439033}, "feature": {"sight_features": "", "sight_content": ""}}, {"title": "夺丰水库度假村", "address": "305省道附近", "image": "", "rank": 28, "time": 2, "location": {"lat": 38.97180225572126, "lng": 112.6319987223776}, "feature": {"sight_features": "", "sight_content": ""}}, {"title": "朝阳寺", "address": "河南省鹤壁市淇县", "image": "", "rank": 29, "time": 2, "location": {"lat": 35.62727702033594, "lng": 114.21548972449943}, "feature": {"sight_features": "", "sight_content": ""}}, {"title": "图书馆", "address": "红旗路中段", "image": "", "rank": 30, "time": 1.0, "location": {"lat": 34.96122147162917, "lng": 109.59477865583074}, "feature": {"sight_features": "", "sight_content": ""}}, {"title": "艺海画廊", "address": "淇河路", "image": "", "rank": 31, "time": 2, "location": {"lat": 35.75910866613669, "lng": 114.30387995579846}, "feature": {"sight_features": "", "sight_content": ""}}, {"title": "艺缘美术绘画馆", "address": "云梦大道", "image": "", "rank": 32, "time": 2, "location": {"lat": 35.61891805969721, "lng": 114.22172170999184}, "feature": {"sight_features": "", "sight_content": ""}}, {"title": "张秦森古典艺术博物馆", "address": "朝歌路30号附近", "image": "", "rank": 33, "time": 2, "location": {"lat": 35.61140955640891, "lng": 114.19785010972561}, "feature": {"sight_features": "", "sight_content": ""}}, {"title": "岳飞纪念馆", "address": "222省道", "image": "", "rank": 34, "time": 2, "location": {"lat": 36.77202196628758, "lng": 114.17537319703483}, "feature": {"sight_features": "", "sight_content": ""}}, {"title": "云梦玫瑰庄园(淇县店)", "address": "北阳镇高云路西段189号", "image": "", "rank": 35, "time": 2, "location": {"lat": 38.88984026041105, "lng": 121.6737709015623}, "feature": {"sight_features": "", "sight_content": ""}}, {"title": "淇县电教中心技术站", "address": "同济大道与006县道交叉口西北50米", "image": "", "rank": 36, "time": 4.5, "location": {"lat": 35.607552498876274, "lng": 114.2065361706509}, "feature": {"sight_features": "", "sight_content": ""}}, {"title": "滴石画廊", "address": "海中路74附9号附近", "image": "", "rank": 37, "time": 2, "location": {"lat": 30.22948712276335, "lng": 121.4091932599798}, "feature": {"sight_features": "", "sight_content": ""}}, {"title": "三仁祠", "address": "河南省淇县城内摘心台公园南大门东侧", "image": "", "rank": 38, "time": 2, "location": {"lat": 35.62727702033594, "lng": 114.21548972449943}, "feature": {"sight_features": "", "sight_content": ""}}, {"title": "淇县灵山寺 Lingshan Mountain T...", "address": "河南淇县县西北", "image": "", "rank": 39, "time": 4.5, "location": {"lat": 35.62727702033594, "lng": 114.21548972449943}, "feature": {"sight_features": "", "sight_content": ""}}, {"title": "云梦山鬼谷子军事文化纪念品展销...", "address": "鹤壁市-淇县-009县道云梦山风景区内", "image": "", "rank": 40, "time": 2, "location": {"lat": 35.61796460366172, "lng": 114.06535018983445}, "feature": {"sight_features": "", "sight_content": ""}}, {"title": "云梦山鬼谷子军事文化纪念品展销...", "address": "鹤壁市-淇县-009县道云梦山风景区内", "image": "", "rank": 41, "time": null, "location": {"lat": 35.61796460366172, "lng": 114.06535018983445}, "feature": {"sight_features": "", "sight_content": ""}}, {"title": "淇县朝阳山景区", "address": "淇县", "image": "", "rank": 42, "time": 4.5, "location": {"lat": 35.62727702033594, "lng": 114.21548972449943}, "feature": {"sight_features": "", "sight_content": ""}}]}