{"cityName": "祁阳", "days": 2, "cityImage": "", "spots": [{"title": "浯溪碑林", "address": "永州市祁阳县浯溪南路108号", "image": "", "rank": 1, "time": 1.5, "location": {"lat": 26.568121666952717, "lng": 111.8567474681544}, "feature": {"sight_features": "", "sight_content": ""}}, {"title": "永州金洞漂流", "address": "永州市祁阳县金洞国家森林公园", "image": "", "rank": 2, "time": 4.5, "location": {"lat": 26.17277102082823, "lng": 112.09248185910712}, "feature": {"sight_features": "特色1 被称为“亚洲第一漂”", "sight_content": "永州金洞漂流被称为“亚洲第一漂”的金洞漂流，惊险、刺激、安全，野趣横生，吸引了众多的游客。位于金洞国家森林公园，有“流金的仙人洞”之称，距祁阳火车站66公里，永州火车站83公里，至衡昆高速公路（2003年建成通车）祁阳金洞接口处仅26公里，来金洞国家森林公园游览区观光旅游，欣赏旖旎的自然风光，聆听动人的瑶族民歌；参加惊险、安全又十分刺激的金洞河漂流的冒险活动，是都市人的向往和追求的好地方。\n新金洞漂流河段起漂点为桐子山，终漂点为撬排凼，全长12公里，落差108米，共有河湾28个，险滩16个，碧潭11个。河湾处九曲回肠，别有洞天；河滩上水流湍急，浪花飞舞；深潭处，碧水悠悠，游鱼如织，倒影如画；两岸地势险峻，风景秀丽；各类林木花草或郁郁葱葱、遮荫蔽日，或婀娜多姿，随风摇曳，河床两岸怪石嶙峋，拟人状物，莫不逼真，飞来石、留客石、狮山更具传奇色彩。一线瀑，白沙飞瀑、篁竹蔓瀑、吊脚楼散布于林间河畔。在金洞河漂流，既可领略到鬼斧神工的大自然风光，让您有返朴归真，回归自然之感；又可体验到漂流的惊、险、幽、奇的乐趣。漂流途中，不断有游客出惊奇的尖叫声和对自然风光无限喜爱的赞叹声。\n祁阳金洞林场先后投入数百万元大力发展旅游产业。2005年，祁阳金洞河在湘南地区激起了一股漂流热潮。2006年，永州市金洞漂流有限责任公司公司又投资2000万元，对金洞河漂流进行了改造，使金洞河漂流更加惊险、刺激、安全。其特点概括为新、秀、奇、险四绝。"}}, {"title": "陶铸纪念馆", "address": "永州市祁阳县城西南的湘江西岸浯溪碑林风景名胜区内", "image": "", "rank": 3, "time": 1.5, "location": {"lat": 26.570607110017193, "lng": 111.8549570644261}, "feature": {"sight_features": "", "sight_content": ""}}, {"title": "鸭婆洲游乐场", "address": "永州市祁阳县观音滩镇鸭婆洲", "image": "", "rank": 4, "time": 2, "location": {"lat": 26.496030378348376, "lng": 111.90027677322013}, "feature": {"sight_features": "", "sight_content": ""}}, {"title": "龙山公园", "address": "湖南省永州市祁阳县龙山路2号", "image": "", "rank": 5, "time": 2, "location": {"lat": 26.593166905775462, "lng": 111.87542845975399}, "feature": {"sight_features": "", "sight_content": ""}}, {"title": "天主堂", "address": "在祁阳县人民医院附近", "image": "", "rank": 6, "time": 0.4, "location": {"lat": 26.59417034195013, "lng": 111.86931159660621}, "feature": {"sight_features": "", "sight_content": ""}}, {"title": "祁阳平安基督教堂", "address": "湖南省永州市祁阳县G322(衡友线)", "image": "", "rank": 7, "time": 2.5, "location": {"lat": 26.586434994948338, "lng": 111.84742029287784}, "feature": null}, {"title": "祁阳县白竹湖广场", "address": "永州市祁阳县沿湖路68号", "image": "", "rank": 8, "time": 7.5, "location": {"lat": 26.58523894353633, "lng": 111.86895031519803}, "feature": {"sight_features": "", "sight_content": ""}}, {"title": "八妙温泉", "address": "湖南省祁阳县肖家村镇八庙村 426131", "image": "", "rank": 9, "time": 2, "location": {"lat": 26.32010985650317, "lng": 111.9973524482765}, "feature": {"sight_features": "", "sight_content": ""}}, {"title": "椒山公园", "address": "882路;882路", "image": "", "rank": 10, "time": 2, "location": {"lat": 26.588230329168425, "lng": 111.86529791997877}, "feature": {"sight_features": "", "sight_content": ""}}, {"title": "唐家岭休闲垂钓中心", "address": "322国道附近", "image": "", "rank": 11, "time": 2, "location": {"lat": 24.430603554871738, "lng": 109.67528447509709}, "feature": {"sight_features": "", "sight_content": ""}}, {"title": "陶铸图书馆", "address": "平安路与复兴路交汇处附近", "image": "", "rank": 12, "time": 2, "location": {"lat": 29.47928294566185, "lng": 113.46739166088584}, "feature": {"sight_features": "", "sight_content": ""}}, {"title": "金丽鸽业发展有限公司", "address": "322国道附近", "image": "", "rank": 13, "time": 2, "location": {"lat": 24.430603554871738, "lng": 109.67528447509709}, "feature": {"sight_features": "", "sight_content": ""}}, {"title": "湖南德辉现代农业开发有限公司", "address": "茅竹镇肖家村八组", "image": "", "rank": 14, "time": 2, "location": {"lat": 26.506518089186525, "lng": 111.73497161200703}, "feature": {"sight_features": "", "sight_content": ""}}, {"title": "风口岩", "address": "湖南省祁阳县羊角塘镇万福村 426165", "image": "", "rank": 15, "time": 2, "location": {"lat": 26.569879224818926, "lng": 112.03930700132612}, "feature": {"sight_features": "", "sight_content": ""}}, {"title": "雷泽洞", "address": "湖南省祁阳县观后岭 426191", "image": "", "rank": 16, "time": 2, "location": {"lat": 26.586434994948338, "lng": 111.84742029287784}, "feature": {"sight_features": "", "sight_content": ""}}, {"title": "祁阳窑址", "address": "湖南省祁阳县观音滩镇 426111", "image": "", "rank": 17, "time": null, "location": {"lat": 26.496030378348376, "lng": 111.90027677322013}, "feature": {"sight_features": "", "sight_content": ""}}, {"title": "狂狮河漂流", "address": "湖南省祁阳县金洞国家森林公园 426191", "image": "", "rank": 18, "time": 2, "location": {"lat": 26.17277102082823, "lng": 112.09248185910712}, "feature": {"sight_features": "", "sight_content": ""}}, {"title": "江村石林", "address": "湖南省祁阳县群力村 426100", "image": "", "rank": 19, "time": 2, "location": {"lat": 26.670546355459972, "lng": 111.831043291419}, "feature": {"sight_features": "", "sight_content": ""}}, {"title": "乌符三绝碑", "address": "湖南省衡阳县文富市镇 426182", "image": "", "rank": 20, "time": 2, "location": {"lat": 26.975294950860984, "lng": 112.37755268433024}, "feature": {"sight_features": "", "sight_content": ""}}, {"title": "显塘涌泉", "address": "湖南省祁阳县大村甸镇显塘村 426175", "image": "", "rank": 21, "time": 2, "location": {"lat": 26.692197776588625, "lng": 111.75278746353635}, "feature": {"sight_features": "", "sight_content": ""}}, {"title": "金洞国家级森林公园", "address": "湖南省祁阳县金洞镇人岭街 426191", "image": "", "rank": 22, "time": 1.0, "location": {"lat": 26.297483508973343, "lng": 112.0962949809448}, "feature": {"sight_features": "", "sight_content": ""}}, {"title": "贝贝乐儿童乐园", "address": "湖南省永州市祁阳县肖家村镇中国邮政东南100米", "image": "", "rank": 23, "time": 2, "location": {"lat": 26.110386857116186, "lng": 111.6240139583839}, "feature": {"sight_features": "", "sight_content": ""}}, {"title": "陆家祠堂", "address": "永州市祁阳县零零一县道", "image": "", "rank": 24, "time": 2, "location": {"lat": 26.586434994948338, "lng": 111.84742029287784}, "feature": {"sight_features": "", "sight_content": ""}}, {"title": "迪乐尼儿童游乐园", "address": "永州市祁阳县滨江豪庭41111", "image": "", "rank": 25, "time": 2, "location": {"lat": 26.579714758207132, "lng": 111.84419744220077}, "feature": {"sight_features": "", "sight_content": ""}}, {"title": "乐奇多儿童游乐园", "address": "湖南省永州市祁阳县人民东路148", "image": "", "rank": 26, "time": 2, "location": {"lat": 26.591233907816502, "lng": 111.87157457820211}, "feature": {"sight_features": "", "sight_content": ""}}, {"title": "八房祠堂", "address": "永州市祁阳县", "image": "", "rank": 27, "time": 2, "location": {"lat": 26.586434994948338, "lng": 111.84742029287784}, "feature": {"sight_features": "", "sight_content": ""}}, {"title": "儿童欢乐谷", "address": "湖南省永州市祁阳县白水镇喜善白水大桥中国邮政旁", "image": "", "rank": 28, "time": 2, "location": {"lat": 26.457532082153918, "lng": 111.99593599296239}, "feature": {"sight_features": "", "sight_content": ""}}, {"title": "三门口沙场", "address": "湖南省永州市祁阳县X001", "image": "", "rank": 29, "time": 2, "location": {"lat": 26.586434994948338, "lng": 111.84742029287784}, "feature": {"sight_features": "", "sight_content": ""}}, {"title": "白竹湖游乐场", "address": "民生南路与滨湖路交叉口南50米", "image": "", "rank": 30, "time": 2, "location": {"lat": 26.58771722881605, "lng": 111.8675119789583}, "feature": {"sight_features": "", "sight_content": ""}}, {"title": "陶铸故居", "address": "祁阳县潘市镇石洞源陶家湾村", "image": "", "rank": 31, "time": 2, "location": {"lat": 26.520395088587197, "lng": 112.03358890857038}, "feature": {"sight_features": "", "sight_content": ""}}, {"title": "鸿芸画廊", "address": "人字街62号附近", "image": "", "rank": 32, "time": 2, "location": {"lat": 38.04871337134974, "lng": 114.50404449838115}, "feature": {"sight_features": "", "sight_content": ""}}, {"title": "祁阳烈士纪念碑", "address": "湖南省祁阳县龙山之巅", "image": "", "rank": 33, "time": 1.0, "location": {"lat": 26.586434994948338, "lng": 111.84742029287784}, "feature": {"sight_features": "", "sight_content": ""}}, {"title": "三圣湖", "address": "湖南省祁阳县大江林场", "image": "", "rank": 34, "time": 2, "location": {"lat": 26.30553540520012, "lng": 111.95350503167046}, "feature": {"sight_features": "", "sight_content": ""}}, {"title": "白泥庵", "address": "湖南省祁阳县潘市镇", "image": "", "rank": 35, "time": 2, "location": {"lat": 26.498146548943232, "lng": 112.04381496067892}, "feature": {"sight_features": "", "sight_content": ""}}, {"title": "到福桥村", "address": "永州市-祁阳县", "image": "", "rank": 36, "time": 2, "location": {"lat": 26.586434994948338, "lng": 111.84742029287784}, "feature": {"sight_features": "", "sight_content": ""}}]}