{"cityName": "全南", "days": 2, "cityImage": "", "spots": [{"title": "扬芳古韵梅园", "address": "赣州市全南县南迳镇大田村", "image": "", "rank": 1, "time": 2, "location": {"lat": 24.6969688692928, "lng": 114.42064105060862}, "feature": {"sight_features": "", "sight_content": ""}}, {"title": "嘉桭农业", "address": "金龙镇来龙村", "image": "", "rank": 2, "time": 2, "location": {"lat": 24.708128170628456, "lng": 114.51695609176284}, "feature": {"sight_features": "", "sight_content": ""}}, {"title": "OK温泉", "address": "温泉路", "image": "", "rank": 3, "time": 2, "location": {"lat": 40.18833394336146, "lng": 116.40660396265952}, "feature": {"sight_features": "", "sight_content": ""}}, {"title": "龙凤温泉", "address": "南迳镇热水温泉度假村", "image": "", "rank": 4, "time": 2, "location": {"lat": 21.59494071362035, "lng": 111.18394397055168}, "feature": {"sight_features": "", "sight_content": ""}}, {"title": "金穗温泉", "address": "温泉路", "image": "", "rank": 5, "time": 2, "location": {"lat": 40.18833394336146, "lng": 116.40660396265952}, "feature": {"sight_features": "", "sight_content": ""}}, {"title": "揽月楼温泉", "address": "温泉路", "image": "", "rank": 6, "time": 2, "location": {"lat": 40.18833394336146, "lng": 116.40660396265952}, "feature": {"sight_features": "", "sight_content": ""}}, {"title": "月秀生态果园", "address": "326省道附近", "image": "", "rank": 7, "time": 2, "location": {"lat": 37.04107050186962, "lng": 114.59294494385392}, "feature": {"sight_features": "", "sight_content": ""}}, {"title": "雅溪围屋", "address": "赣州市全南县龙源坝镇雅溪村", "image": "", "rank": 8, "time": 2, "location": {"lat": 24.910826582298004, "lng": 114.48138830942932}, "feature": {"sight_features": "", "sight_content": ""}}, {"title": "闽江水族馆", "address": "赣州市全南县", "image": "", "rank": 9, "time": 2, "location": {"lat": 24.748206354966594, "lng": 114.53658236665703}, "feature": {"sight_features": "", "sight_content": ""}}, {"title": "光明寺", "address": "江西省赣州市全南县", "image": "", "rank": 10, "time": 2, "location": {"lat": 24.748206354966594, "lng": 114.53658236665703}, "feature": {"sight_features": "", "sight_content": ""}}, {"title": "月亮湾温泉", "address": "温泉路", "image": "", "rank": 11, "time": 2, "location": {"lat": 40.18833394336146, "lng": 116.40660396265952}, "feature": {"sight_features": "", "sight_content": ""}}, {"title": "桃源春温泉", "address": "南迳镇热水村", "image": "", "rank": 12, "time": 2, "location": {"lat": 24.690314791305205, "lng": 114.43821187942883}, "feature": {"sight_features": "", "sight_content": ""}}, {"title": "博雅画廊", "address": "寿梅路南海圩", "image": "", "rank": 13, "time": 2, "location": {"lat": 24.754462548929727, "lng": 114.54880417243845}, "feature": {"sight_features": "", "sight_content": ""}}, {"title": "全南县图书馆", "address": "文化巷与解放路交叉口西南150米", "image": "", "rank": 14, "time": 2, "location": {"lat": 24.74798362363611, "lng": 114.53943752651611}, "feature": {"sight_features": "", "sight_content": ""}}]}