{"cityName": "全椒", "days": 2, "cityImage": "", "spots": [{"title": "南屏山森林公园", "address": "滁州市全椒县儒林路东50米", "image": "", "rank": 1, "time": null, "location": {"lat": 32.197407809358985, "lng": 118.33370795684472}, "feature": {"sight_features": "", "sight_content": ""}}, {"title": "滁州欢乐城", "address": "滁州市全椒县206省道十字镇镇政府对面", "image": "", "rank": 2, "time": 7.5, "location": {"lat": 32.172131314822536, "lng": 118.29396400428529}, "feature": {"sight_features": "", "sight_content": ""}}, {"title": "太平文化广场", "address": "滁州市全椒县吴敬梓路", "image": "", "rank": 3, "time": 1.0, "location": {"lat": 32.10617208688089, "lng": 118.28186659315195}, "feature": {"sight_features": "", "sight_content": ""}}, {"title": "马塘湖农场", "address": "024乡道东100米", "image": "", "rank": 4, "time": 2, "location": {"lat": 35.37720857982394, "lng": 113.08436330673442}, "feature": {"sight_features": "", "sight_content": ""}}, {"title": "全椒县龙岗人文纪念园", "address": "安徽省滁州市全椒县花园路4444", "image": "", "rank": 5, "time": 2, "location": {"lat": 32.0934198330906, "lng": 118.27328195720686}, "feature": {"sight_features": "", "sight_content": ""}}, {"title": "翠湖公园", "address": "滁州市全椒县", "image": "", "rank": 6, "time": 2.0, "location": {"lat": 32.091939797603374, "lng": 118.28058428269748}, "feature": {"sight_features": "", "sight_content": ""}}, {"title": "马厂影剧院", "address": "马厂镇附近", "image": "", "rank": 7, "time": 2, "location": {"lat": 38.646192000754525, "lng": 116.93522614641961}, "feature": {"sight_features": "", "sight_content": ""}}, {"title": "三塔寺", "address": "滁州市全椒县三塔寺风景区", "image": "", "rank": 8, "time": 0.4, "location": {"lat": 32.020397394885634, "lng": 118.094543706021}, "feature": {"sight_features": "", "sight_content": ""}}, {"title": "全椒县庐剧团", "address": "南城路", "image": "", "rank": 9, "time": 2, "location": {"lat": 36.55604303452495, "lng": 114.80649545573925}, "feature": {"sight_features": "", "sight_content": ""}}, {"title": "儒林外史大剧院", "address": "安徽省滁州市全椒县儒林路火车站广场对面儒林外史国际大酒店内(原瑞祥开元大酒店)", "image": "", "rank": 10, "time": 2, "location": {"lat": 32.06926176036955, "lng": 118.29034883215024}, "feature": {"sight_features": "", "sight_content": ""}}, {"title": "孩子王", "address": "安徽省滁州市全椒县吴敬梓路", "image": "", "rank": 11, "time": 2, "location": {"lat": 32.10617208688089, "lng": 118.28186659315195}, "feature": {"sight_features": "", "sight_content": ""}}, {"title": "奇乐儿童乐园", "address": "奥康商业步行街A4-218", "image": "", "rank": 12, "time": 2, "location": {"lat": 30.454543687810443, "lng": 114.88337282396132}, "feature": {"sight_features": "", "sight_content": ""}}, {"title": "神山寺", "address": "六镇镇孙家村888号", "image": "", "rank": 13, "time": 2, "location": {"lat": 32.10444634896065, "lng": 118.11400914560828}, "feature": {"sight_features": "", "sight_content": ""}}, {"title": "开心哈乐儿童乐园", "address": "其他儒林街儒林新城尚苑5期商业街凯玛特购物广场1号收银台旁", "image": "", "rank": 14, "time": 2, "location": {"lat": 25.803914028370645, "lng": 113.03812936091187}, "feature": {"sight_features": "", "sight_content": ""}}, {"title": "法治广场", "address": "襄水北路与襄水西路交叉口西南50米", "image": "", "rank": 15, "time": 2, "location": {"lat": 32.10064179647706, "lng": 118.27857261823674}, "feature": {"sight_features": "", "sight_content": ""}}, {"title": "周家岗烈士陵园", "address": "安徽省滁州市全椒县", "image": "", "rank": 16, "time": 2, "location": {"lat": 32.091939797603374, "lng": 118.28058428269748}, "feature": {"sight_features": "", "sight_content": ""}}, {"title": "椒陵书画学院", "address": "西门街", "image": "", "rank": 17, "time": 2, "location": {"lat": 39.00402465412309, "lng": 112.30816988869645}, "feature": {"sight_features": "", "sight_content": ""}}, {"title": "全椒县档案馆", "address": "内环南路", "image": "", "rank": 18, "time": 2, "location": {"lat": 39.09192255484919, "lng": 117.08980194487951}, "feature": {"sight_features": "", "sight_content": ""}}, {"title": "全椒县图书馆", "address": "儒林路221号", "image": "", "rank": 19, "time": 2, "location": {"lat": 30.426229615576194, "lng": 103.80632989800421}, "feature": {"sight_features": "", "sight_content": ""}}, {"title": "动物园", "address": "十字镇滁州欢乐城内水上游船项目向南20米", "image": "", "rank": 20, "time": 2, "location": {"lat": 32.158329190813916, "lng": 118.29112941112992}, "feature": {"sight_features": "", "sight_content": ""}}, {"title": "全椒县大剧院", "address": "椒陵大道附近", "image": "", "rank": 21, "time": 2, "location": {"lat": 32.08137692374732, "lng": 118.29012049816079}, "feature": {"sight_features": "", "sight_content": ""}}, {"title": "全椒县清柳湾农家乐饭庄", "address": "X031全椒第二水泥厂北侧", "image": "", "rank": 22, "time": 2, "location": {"lat": 39.51616587253179, "lng": 118.71816914171903}, "feature": {"sight_features": "", "sight_content": ""}}, {"title": "太平桥 Taiping Bridge", "address": "安徽省全椒县县城区", "image": "", "rank": 23, "time": 2, "location": {"lat": 32.091939797603374, "lng": 118.28058428269748}, "feature": {"sight_features": "", "sight_content": ""}}, {"title": "乐泉宫韩式汗蒸", "address": "滁州市全椒县站前广场一号楼3-4楼", "image": "", "rank": 24, "time": 2, "location": {"lat": 32.2063544695106, "lng": 118.3268691147769}, "feature": {"sight_features": "", "sight_content": "乐泉宫韩式汗蒸是一家以韩式汗蒸为主的沐浴休闲会所。环境温馨舒适，具有异国风情，集中国古典元素与韩国传统风格融为一体。\n内有特色的韩式休闲区、天然保健盐浴、风格独特的盐岩房、木炭房、特色鱼疗、鹅卵石浴、茶吧、休息厅、电影厅、露营区、健身区、阅览区、网吧区、儿童乐园、游戏厅、K歌房等。\n是您休闲娱乐，缓解疲劳，放松身心，家庭聚会，绿色养生，感受慢生活的理想场所！"}}, {"title": "如果艾大澡堂", "address": "滁州市全椒县站前路688号意大利商贸城米兰公馆106室218室", "image": "", "rank": 25, "time": 2, "location": {"lat": 32.06791595570997, "lng": 118.29351190957976}, "feature": {"sight_features": "", "sight_content": "如果艾大澡堂在洗浴、汗蒸服务的基础上，导入休闲健身、足浴足疗、美容美甲、童趣书吧、美食餐饮、中医养生等多种经营服务内容，是集洗浴、汗蒸、休闲、养生等主的休闲场所。\n十分贴近百姓生活需要，极大提升了大众洗浴文化的内涵和外延，深受顾客欢迎和信赖，如果艾大澡堂正在成为全国洗浴行业的新锐品牌。"}}]}