{"cityName": "全州", "days": 2, "cityImage": "", "spots": [{"title": "湘山寺", "address": "桂林市全州县桂黄中路", "image": "", "rank": 1, "time": 2.0, "location": {"lat": 25.937027143501535, "lng": 111.07072687824959}, "feature": {"sight_features": "", "sight_content": ""}}, {"title": "炎井温泉", "address": "桂林市全州县大西江镇炎井温泉旅游风景区", "image": "", "rank": 2, "time": 2, "location": {"lat": 26.319906301288253, "lng": 110.96899942961984}, "feature": {"sight_features": "", "sight_content": ""}}, {"title": "龙水镇", "address": "桂林市全州县龙水镇", "image": "", "rank": 3, "time": 3.0, "location": {"lat": 26.04318010597272, "lng": 111.00425919107883}, "feature": {"sight_features": "", "sight_content": ""}}, {"title": "龙岩洞", "address": "桂林市全州县越城岭支脉的东瓜源，距全州县城5公里。", "image": "", "rank": 4, "time": 1.5, "location": {"lat": 26.221759727656664, "lng": 110.89373162187948}, "feature": {"sight_features": "", "sight_content": ""}}, {"title": "桂林天湖-冰雪世界滑雪场", "address": "桂林市全州县121县道附近桂林天湖度假区", "image": "", "rank": 5, "time": 3.0, "location": {"lat": 26.057802570209198, "lng": 111.00254285084318}, "feature": {"sight_features": "", "sight_content": ""}}, {"title": "真宝鼎", "address": "桂林市全州县越城岭山脉", "image": "", "rank": 6, "time": 4.5, "location": {"lat": 26.221759727656664, "lng": 110.89373162187948}, "feature": {"sight_features": "", "sight_content": ""}}, {"title": "全州县图书馆", "address": "中心北路附近", "image": "", "rank": 7, "time": 2, "location": {"lat": 39.24808001010722, "lng": 117.04767191052957}, "feature": {"sight_features": "", "sight_content": ""}}, {"title": "语录山", "address": "广西壮族自治区全州县枧塘乡珠塘村 541518", "image": "", "rank": 8, "time": 2, "location": {"lat": 25.875314296972, "lng": 111.0916702531736}, "feature": {"sight_features": "", "sight_content": ""}}, {"title": "燕窝楼", "address": "广西壮族自治区全州县永岁乡石头岗村 541507", "image": "", "rank": 9, "time": 2, "location": {"lat": 26.031528395863038, "lng": 111.14009751782746}, "feature": {"sight_features": "", "sight_content": ""}}, {"title": "老泉山庄", "address": "广西桂林市全州县绍水镇高田村", "image": "", "rank": 10, "time": 2, "location": {"lat": 25.928512030505406, "lng": 110.87958940600318}, "feature": {"sight_features": "", "sight_content": ""}}, {"title": "独一处野生河鱼", "address": "凤凰西路18号附近", "image": "", "rank": 11, "time": 2, "location": {"lat": 32.46128100137393, "lng": 119.90524094328899}, "feature": {"sight_features": "", "sight_content": ""}}, {"title": "开元寺遗址", "address": "广西壮族自治区桂林市象山区民主路万寿巷 541002", "image": "", "rank": 12, "time": null, "location": {"lat": 25.272212532207384, "lng": 110.29879351624591}, "feature": {"sight_features": "", "sight_content": ""}}, {"title": "China Educational Tours", "address": "广西壮族自治区桂林市象山区中山路13号金马大厦1单元1002 541002", "image": "", "rank": 13, "time": 2, "location": {"lat": 25.2786292491834, "lng": 110.29789673785558}, "feature": {"sight_features": "", "sight_content": ""}}, {"title": "雷公塔", "address": "桂林市全州县", "image": "", "rank": 14, "time": 2, "location": {"lat": 25.93434302736133, "lng": 111.07956895507631}, "feature": {"sight_features": "", "sight_content": ""}}, {"title": "室内主题乐园", "address": "广西壮族自治区桂林市全州县全州镇桂黄北路恒心中学附近", "image": "", "rank": 15, "time": 2.5, "location": {"lat": 25.939218561619406, "lng": 111.08266271925166}, "feature": {"sight_features": "", "sight_content": ""}}, {"title": "火凤凰儿童欢乐谷", "address": "中心北路中心广场附近", "image": "", "rank": 16, "time": 2, "location": {"lat": 39.24808001010722, "lng": 117.04767191052957}, "feature": {"sight_features": "", "sight_content": ""}}, {"title": "广西水利电业集团桂林天湖度假村", "address": "广西壮族自治区桂林市全州县", "image": "", "rank": 17, "time": 2, "location": {"lat": 25.93434302736133, "lng": 111.07956895507631}, "feature": {"sight_features": "", "sight_content": ""}}, {"title": "龙井村风景区", "address": "全州安和镇", "image": "", "rank": 18, "time": 2, "location": {"lat": 25.67186860072938, "lng": 110.92446765692736}, "feature": {"sight_features": "", "sight_content": ""}}, {"title": "天湖水库", "address": "桂林市全州县华南第二高峰真宝顶东侧", "image": "", "rank": 19, "time": 2, "location": {"lat": 25.93434302736133, "lng": 111.07956895507631}, "feature": {"sight_features": "", "sight_content": ""}}, {"title": "正宗老母鸡炖野生大泥鳅 鳝鱼", "address": "全州镇新华高中", "image": "", "rank": 20, "time": 2, "location": {"lat": 25.943852416624363, "lng": 111.05410199387686}, "feature": {"sight_features": "", "sight_content": ""}}, {"title": "全州百年农夫草莓园", "address": "半边街过飞鸾桥100米(桂林方向)", "image": "", "rank": 21, "time": 2, "location": {"lat": 25.945126192892005, "lng": 111.04948513294713}, "feature": {"sight_features": "", "sight_content": ""}}, {"title": "全州县才湾镇图书馆", "address": "314乡道南150米", "image": "", "rank": 22, "time": 2, "location": {"lat": 35.55727517043936, "lng": 112.51427719563465}, "feature": {"sight_features": "", "sight_content": ""}}, {"title": "井源生态农庄", "address": "来西田村", "image": "", "rank": 23, "time": 2, "location": {"lat": 25.862982258308563, "lng": 111.07538222797717}, "feature": {"sight_features": "", "sight_content": ""}}, {"title": "农业局农经站", "address": "全州镇朝阳路16号", "image": "", "rank": 24, "time": 2, "location": {"lat": 25.939609258349705, "lng": 111.08478272025451}, "feature": {"sight_features": "", "sight_content": ""}}, {"title": "棬栗树脚底", "address": "桂林市-全州县", "image": "", "rank": 25, "time": 2, "location": {"lat": 25.93434302736133, "lng": 111.07956895507631}, "feature": {"sight_features": "", "sight_content": ""}}, {"title": "弄脚底", "address": "桂林市-全州县", "image": "", "rank": 26, "time": 2, "location": {"lat": 25.93434302736133, "lng": 111.07956895507631}, "feature": {"sight_features": "", "sight_content": ""}}, {"title": "岭脚底", "address": "桂林市-全州县-\"桂林市全州县\"", "image": "", "rank": 27, "time": 2, "location": {"lat": 25.93434302736133, "lng": 111.07956895507631}, "feature": {"sight_features": "", "sight_content": ""}}, {"title": "螺蛳山", "address": "桂林市全州县境内", "image": "", "rank": 28, "time": 2, "location": {"lat": 25.93434302736133, "lng": 111.07956895507631}, "feature": {"sight_features": "", "sight_content": ""}}]}