{"cityName": "泉州", "days": "", "cityImage": "", "spots": [{"title": "崇武古城", "address": "泉州市惠安县东南海滨", "image": "", "rank": 1, "time": 4.5, "location": {"lat": 25.03694981503913, "lng": 118.80341550029883}, "feature": {"sight_features": "特色1 为抵御倭寇所建古城", "sight_content": "崇武古城，坐落于福建省惠安县东南海滨，濒临台湾海峡。系1387年（明洪武二十年）江夏侯周德兴经略海防时为抵御倭寇所建，是万里海疆修筑的60多座卫所城堡中仍保存完好的一座。\n崇武古城是中国现存较完整的丁字型石砌古城，是明朝廷为抗击倭患，在万里海疆修筑的60多座卫所城堡中仍保存完好的一座。\n1988年被国务院列为第三批国家重点文物保护单位，为福建省“国防教育基地”，泉州市“爱国主义教育基地”和“国防教育基地”。国家级AAAA级旅游景区。\n南北气候分界线、东南海的分界线在崇武古城。"}}, {"title": "大开元寺", "address": "泉州市鲤城区西街176号", "image": "", "rank": 2, "time": 1.5, "location": {"lat": 24.92530796120055, "lng": 118.58622535010133}, "feature": {"sight_features": "", "sight_content": ""}}, {"title": "清源山", "address": "泉州市丰泽区清源山游客中心东侧", "image": "", "rank": 3, "time": 12.0, "location": {"lat": 24.947220841955424, "lng": 118.60409633872453}, "feature": {"sight_features": "特色1 享有闽南蓬莱仙山的美誉 特色2 中国国家自然与文化双遗产预备名录 特色3 我国现存年代早、保存完整元代喇嘛教\"三世佛\"石雕造像", "sight_content": "清源之名\n山不在高，有仙则名。清源山的得名因羽仙岩(即老君岩)而起，老子在此地显圣，一气化三清，元始天尊，灵宝天尊，道德天尊，成就了“三清之源”的清源山。历史上，清源山并不只有一个名字。清源山自然景色秀丽，人文景观绘萃，尤以山上泉眼诸多别称“泉山”，泉州城也因山得名“泉州”。因山高入云称“齐云山”。位于城市北郊又称“北山”，山上有三峰亦称“三台山\n\n\n清源小序\n清源山景点众多，尤以老君岩、千手岩、弥陀岩、碧霄岩、瑞象岩、虎乳泉、南台岩、清源洞、赐恩岩等景点最为有名。\n道教老君造像，我国现存大型的道教石雕——老君造像，在 清源山 风景名胜区主景区内，为全国重点文物保护单位。泉州民间俗 语“摸着老君鼻，活到一百二“，但是真要摸到它却也不容易呀。石像高5.63米，厚6.85米，宽8.01米，席地面积为55平方米。我国著名规划专家任震英题赞老君造像为：“老子天下第一”。不少游客可是专门跑到题字石头那里合影呢。\n路线一：拜太上老君，登智慧天阶\n主要景点：众妙之门、西出函谷关、孔子问礼老子、道德经石刻群、老君岩、智慧天阶(涵宫、元元洞、见龙台、“ 道教圣地”摩崖石刻、无尘台、弘一法师塑像、弘一法师舍利塔)、千手岩等。\n这条线路是清源山景区的核心。老君造像，雕工精细，形态生动，须眉分明，衣褶清晰，是我国古代古雕艺术中的瑰宝，被誉为“老子天下第一”。 泉州坊间盛传“摸到老君鼻，寿高一百二”，故游清源山者必到此一游。游览时间大约2小时。\n路线二: 步清幽小道，寻多元文化\n主要景点:势至岩、千手岩、弥陀岩、碧霄岩、瑞像岩等。\n这条线是清源山的精品线路，漫步清幽小径，轻踱莲花池畔，感受青山的幽雅，沿着一路的桂花香拾级而上，去寻访清源山的多元文化，在不经意间与历史撞个满怀。游览时间:大约3小时。\n路线三: 轻车盘山行，采风清源山\n主要景点:青牛石、天湖、百丈坪、虎乳泉、清源洞、南台岩。\n这是清源山的经典线路，轻车慢行在柏油路上，领略清源秀景，俯瞰西湖风光，临风远眺，将大泉州美景尽收眼底，心旷神怡。游览时间:大约2小时。\n\n\n交通路线：搭乘市公交3路、10路、15路、45路、30路、601路、202路均可到达；另外，在游客服务中心换票后，可凭票在人工售票处免费领取下山车票一张！"}}, {"title": "西街", "address": "泉州市丰泽区城西路与西街交叉口", "image": "", "rank": 4, "time": 2.0, "location": {"lat": 24.92666204911189, "lng": 118.58526180784892}, "feature": {"sight_features": "", "sight_content": ""}}, {"title": "泉州中山街", "address": "泉州市鲤城区中山南路98号", "image": "", "rank": 5, "time": 1.0, "location": {"lat": 24.900982343045015, "lng": 118.59481855408153}, "feature": {"sight_features": "", "sight_content": ""}}, {"title": "关岳庙", "address": "泉州市鲤城区涂门街188号(近清净寺)", "image": "", "rank": 6, "time": 1.5, "location": {"lat": 24.907490291908015, "lng": 118.59916879434276}, "feature": {"sight_features": "", "sight_content": ""}}, {"title": "西沙湾", "address": "泉州市惠安县崇武镇店下南路联群西沙苑南100米", "image": "", "rank": 7, "time": 3.5, "location": {"lat": 24.88927413849524, "lng": 118.92902366788614}, "feature": {"sight_features": "", "sight_content": ""}}, {"title": "清净寺", "address": "泉州市鲤城区涂门街108-110号", "image": "", "rank": 8, "time": 1.5, "location": {"lat": 24.90843528867225, "lng": 118.5978025668829}, "feature": {"sight_features": "", "sight_content": ""}}, {"title": "洛阳桥", "address": "泉州市惠安县", "image": "", "rank": 9, "time": 0.5, "location": {"lat": 25.03694981503913, "lng": 118.80341550029883}, "feature": {"sight_features": "", "sight_content": ""}}, {"title": "西湖公园", "address": "泉州市丰泽区新华北路", "image": "", "rank": 10, "time": 1.5, "location": {"lat": 24.927873505524804, "lng": 118.58884342198385}, "feature": {"sight_features": "", "sight_content": ""}}, {"title": "天后宫", "address": "泉州市鲤城区天后路1号", "image": "", "rank": 11, "time": 1.5, "location": {"lat": 24.90087644768713, "lng": 118.5951395949961}, "feature": {"sight_features": "", "sight_content": ""}}, {"title": "石狮黄金海岸", "address": "泉州市石狮市", "image": "", "rank": 12, "time": 12.0, "location": {"lat": 24.737665160882703, "lng": 118.65451902647484}, "feature": {"sight_features": "特色1 黄金海岸风光旖旎，四季如春，已成为旅游内涵十分丰富的滨海旅游度假区。", "sight_content": "石狮黄金海岸位于福建省泉州市石狮永宁镇。石狮黄金海岸内有闽南黄金海岸旅游度假村、城隍庙等景点，其中还包括金沙游乐园、海底世界、海豚表演馆等较具规模与特色的游乐项目和服务设施。黄金海岸四季如春，已成为集行、游、娱等于一体、旅游内涵十分丰富的滨海旅游度假区，也是福建省十大重点旅游景区之一。"}}, {"title": "岱仙瀑布", "address": "泉州市德化县水口镇", "image": "", "rank": 13, "time": 1.5, "location": {"lat": 25.706951797685647, "lng": 118.45242387629925}, "feature": {"sight_features": "", "sight_content": ""}}, {"title": "安平桥", "address": "晋江市安海镇兴安路3号", "image": "", "rank": 14, "time": 0.25, "location": {"lat": 24.728789228776186, "lng": 118.46048844647842}, "feature": {"sight_features": "", "sight_content": ""}}, {"title": "泉州东西塔", "address": "泉州市鲤城区西街176号开元寺内", "image": "", "rank": 15, "time": 0.25, "location": {"lat": 24.92035996837841, "lng": 118.59193111720717}, "feature": {"sight_features": "", "sight_content": ""}}, {"title": "聚龙小镇", "address": "泉州市惠安县聚龙小镇(沈海高速公路北)", "image": "", "rank": 16, "time": 4.5, "location": {"lat": 25.0596227038662, "lng": 118.71753388777499}, "feature": {"sight_features": "特色1 聚龙小镇是一座集养生、休闲、文教、商务、酒店、医疗、运动、人居于一体的综合园区。", "sight_content": "聚龙小镇温泉公园，是泉州沿海首个岩脉温泉，经专家检测，聚龙温泉千载难逢，是温泉中的极品，也是目前泉州地区水质最好的温泉。温泉公园位置得天独厚，为泉州本地第一家温泉，打破了泉州北部无温泉这一说，你可以泡着温泉欣赏聚龙小镇的美景。温泉水经过专家检测，具有软化皮肤角质软化血管、美容养颜、抗衰老等作用。"}}, {"title": "蟳埔村", "address": "泉州市丰泽区东海社区蟳埔村", "image": "", "rank": 17, "time": 2.5, "location": {"lat": 24.894969993261856, "lng": 118.6195801523202}, "feature": {"sight_features": "", "sight_content": ""}}, {"title": "中国闽台缘博物馆", "address": "泉州市丰泽区北清东路212号", "image": "", "rank": 18, "time": 1.0, "location": {"lat": 24.94080254763962, "lng": 118.59612967229495}, "feature": {"sight_features": "", "sight_content": ""}}, {"title": "承天寺", "address": "泉州市鲤城区南俊路36号", "image": "", "rank": 19, "time": 1.5, "location": {"lat": 24.91359339066407, "lng": 118.6000160141164}, "feature": {"sight_features": "", "sight_content": ""}}, {"title": "泉州博物馆", "address": "泉州市丰泽区西湖公园北侧", "image": "", "rank": 20, "time": 1.5, "location": {"lat": 24.935652863552388, "lng": 118.5926638623165}, "feature": {"sight_features": "", "sight_content": ""}}, {"title": "海外交通史博物馆", "address": "泉州市丰泽区东湖街425号", "image": "", "rank": 21, "time": 1.5, "location": {"lat": 24.915607743438425, "lng": 118.6179475718869}, "feature": {"sight_features": "", "sight_content": ""}}, {"title": "五店市传统街区", "address": "泉州市晋江市梅岭街道五店市传统街区", "image": "", "rank": 22, "time": 1.5, "location": {"lat": 24.824777252876995, "lng": 118.58625450819987}, "feature": {"sight_features": "", "sight_content": ""}}, {"title": "清水岩", "address": "泉州市安溪县蓬莱镇", "image": "", "rank": 23, "time": 2.0, "location": {"lat": 25.124075041044474, "lng": 118.07343562325951}, "feature": {"sight_features": "", "sight_content": ""}}, {"title": "仙公山", "address": "泉州市洛江区马甲镇", "image": "", "rank": 24, "time": 12.0, "location": {"lat": 25.141410927751064, "lng": 118.65227155142865}, "feature": {"sight_features": "特色1 景区内植被茂盛、溪涧纵横，风光宜人 特色2 山中遍布历代的摩涯石刻“仙棋盘”是双善山又一独特的游乐处有佛教岩宇白水岩有“八闽名胜无双境，绝顶蓬莱显九仙”之誉。 特色3 可见山中遍布历代的摩涯石刻，碑记诗文，匾额楹联，寺观庙宇，民间传说的胜迹，错落有致，纷呈异彩。", "sight_content": "仙公山（又名双髻山）：位于市区马甲镇，南北朝时（公元480-520年）因祀“何氏九仙”而名，有“八闽名胜无双境，绝顶蓬莱显九仙”之誉。\n山中有仙灵桥、仙井、仙脚迹、仙棋盘仙茶树、仙排阁、贵雪双髻、荷潭印月等胜景，以及宋代朱熹、王十朋，明代张瑞图等历代文人骚客留下的摩崖石刻漫游双髻山，可见山中遍布历代的摩涯石刻，碑记诗文，匾额楹联，寺观庙宇，民间传说的胜迹，错落有致，纷呈异彩。\n始建于五代时期，几经修复的白水岩，是一座佛教岩宇,供奉着释迦，药师，弥陀三尊佛像。与白水岩同代建造的朝天阁，却是儒教的岩宇，为旧时读书人朝圣之地。"}}, {"title": "姑嫂塔", "address": "泉州市石狮市宝盖山风景区内", "image": "", "rank": 25, "time": 0.75, "location": {"lat": 24.723932390148992, "lng": 118.6838840272301}, "feature": {"sight_features": "", "sight_content": ""}}, {"title": "泉州少林寺", "address": "泉州市丰泽区古道街（清源山余脉东岳山下）", "image": "", "rank": 26, "time": 1.5, "location": {"lat": 24.96042585592905, "lng": 118.61503631105214}, "feature": {"sight_features": "", "sight_content": ""}}, {"title": "牛姆林生态旅游区", "address": "泉州市永春县下洋镇牛姆林", "image": "", "rank": 27, "time": 7.5, "location": {"lat": 25.433429537824065, "lng": 117.94872213472253}, "feature": {"sight_features": "特色1 寻找野趣与野生猕猴近距离接触。 特色2 原始森林景观，空气清新，游客寥寥，游山的好去处。", "sight_content": "牛姆林，又称姆林山，因“势若牛姆，孕崽怀宝”而得名。它位于永春县下洋镇境内。1958年划为森林禁伐区，1984年建立省级自然保护区，1998年规划建设生态旅游区，面积1000公顷。牛姆林是在闽南地区保留较完好的特色原始森林群体，被誉为闽南的西双版纳。\n牛姆林是避暑胜地。它位于南亚热带北缘，海拔490—1105米，属亚热带季风山地气候，年平均气温17—18℃，最低气温-4—5℃，夏季月平均气温25—28℃，常年云雾缭绕，四季如春，堪与庐山媲美。这里动植物种类繁多，现已查明，区内有维管束植物 135 科 760 种，共中宿轴木兰、钟萼木、水松、半枫荷、闽楠、闽鄂山茶、白桂木、红豆杉、红豆树、青檀等被列入国家珍稀濒危植物名录，百日青、青钱柳、深山含笑、黄檀列为全省珍贵树种，其中有牛姆林“镇山之宝”之称的青钱柳单株之高大在全省尚属罕见，群落之大更是全省数一。还有野生脊椎动物 54 科 118 种，其中蟒蛇、穿山甲、苏门羚、大灵猫、小灵猫、鹰类、白鹇等 11 种动物属国家重点保护对象，另有野生蝶类 73 种，其中金斑喙凤蝶属国家一级保护。\n牛姆林是名人仙迹荟萃胜地。宋朝永春进士陈知柔诗：“霜后绿筠仍旧色，云中金磬出新声”。都是描写臼尖牛姆林的旖旎风光。1929年8月朱德率三千红军进驻福鼎村时，也到牛姆林一带勘查，称它是：绿涛奔牛，仙泉流韵。牛姆林是天然陈列馆。这里动植物种类繁多，现已查明，区内有维管束植物135科760种，共中宿轴木兰、钟萼木、水松、半枫荷、闽楠、闽鄂山茶、白桂木、红豆杉、红豆树、青檀等被列入国家珍稀濒危植物名录，百日青、青钱柳、深山含笑、黄檀列为全省珍贵树种，其中有牛姆林“镇山之宝”之称的青钱柳单株之高大在全省尚属罕见，群落之大更是全省数一。还有野生脊椎动物54科118种，其中蟒蛇、穿山甲、苏门羚、大灵猫、小灵猫、鹰类、白鹇等11种动物属国家重点保护对象，另有野生蝶类73种，其中金斑喙凤蝶属国家一级保护。\n牛姆林是回归自然的乐园。牛姆林虽然没有寺院香火，但它那独特的森林景观，魅力无穷，当你踏进牛姆林，仿佛置身于大自然的摇篮，走进一个神奇的森林世界；穿行林中，那透过树冠的道道晨曦，让人心旷神怡，清新的空气和无尽的芳菲，沁人肺腑，令人流连忘返。正如诗人笔下的“海上蓬莱岛，人间桃花源，山中牛姆林，快活胜神仙。”毓秀流韵的牛姆林，春天，山花烂漫，百鸟欢唱，处处蒸腾着向上的生机；夏天，流水淙淙，蝉声不绝，绿树掩映着沁人的凉爽；秋天，山红涧碧，清风徐徐，霜叶吟唱着大自然的妙语；冬天，群鸟栖息，百兽云集，臼山涌动着神奇的乐园。可谓“松涛竹舞花竞开，蝶飞鸟欢春常在”。"}}, {"title": "安溪凤山风景旅游区", "address": "泉州市安溪县凤山路2号", "image": "", "rank": 28, "time": 3.5, "location": {"lat": 25.080010697060484, "lng": 118.19154025300922}, "feature": {"sight_features": "", "sight_content": ""}}, {"title": "古城泉州", "address": "泉州市鲤城区中山中路333号", "image": "", "rank": 29, "time": 2.5, "location": {"lat": 24.916580026679906, "lng": 118.59691133822405}, "feature": {"sight_features": "", "sight_content": ""}}, {"title": "九仙山风景区", "address": "泉州市德化县泉州德化赤水镇", "image": "", "rank": 30, "time": 3.0, "location": {"lat": 25.652687549096548, "lng": 118.18100998524831}, "feature": {"sight_features": "特色1 攀登刺激冒险的天梯，欣赏日出、云海、雾松三绝 特色2 感受登山观景的乐趣。", "sight_content": "有“中土蓬莱第一山”美称的九仙山，是一座集秀美风光、宗教圣地和文物古迹于一山的旅游胜地，位于德化县西北部，距离泉州市区140公里，距离德化县城关22公里，景区面积约35平方公里，主峰“尺五天”海拔1658米，现已开发弥勒洞、金顶、灵鹫岩寺、永安岩四个景区，莲花峰、广钦寺景区正在开发中。山上的湿度、风速、雾天均居全国第二位，故有佛光、云海、雾凇等气象奇观。九仙山年均气温12℃，尤其是炎夏季节，山中处处凉爽宜人，是避暑的理想去处。\n九仙山名称的由来有多种说法。有说是因该山九峰并峙故名；有说是此山最早开发在南北朝，是道教用地，因道教有九仙而得名；清乾隆版《德化县志》记载，是“相传昔有隐士九人居此，俱仙去”，故名；明知县杨九正则在《九仙山志序》说是“仙游九鲤胜事俱在，德化邻之，则山名九仙”，把这座山名的由来与仙游九鲤湖何氏九仙连在一起；还有一种说法，相传很久以前，有一附近农民上山砍柴，遇到八仙在山顶的一块名叫棋盘石的巨石上下棋，下得十分精彩，他站在一旁观看，忘了砍柴，直到日落西天了才回家，却发现家里早已儿孙满堂，方知自己遇到了仙人，急忙再折上山，但仙人早已远去，于是他就在山上修炼，后来也成了仙，因此而得名。这个传说流传甚广，今还有“山中方七日，世上几百年”的民谚在民间流传；另有一说法，说是唐代开元年间，开山僧邹无比在天然室修炼成仙，恰逢八仙在邻洞欢聚，合为九仙。“山不在高，有仙则名”，九仙山的命名大致亦出于此。\n风景秀丽的九仙山，峰峦间常有云雾飘绕，嶙峋怪石下有幽洞密布，曲径上有松阴翠竹，身旁小涧飞流，游览其间如入仙境。而山中的景致随着气候变化更是景色万千，美不胜收。春天，杜鹃花漫山怒放，红的紫的黄的七彩纷呈，令人目不暇接；夏日，时而云海飘渺，时而日丽山青，特别是雨后天晴之际，空山如洗，翠竹青松在阳光下凝碧吐绿，甚是悦目；秋风送爽时节，红叶铺径，登临峰顶，或观旭日东升，或看落霞纷飞，让人感慨万千；冬季的南国虽说青山依旧，但山中常会白雪银妆，雾凇垂玉，一派北国风光，令人流连忘返。\n九仙山不仅风光秀美，景色如画，还是闽南地区的宗教圣地。早在南北朝，就不知有多少求道的隐士在山中炼丹修行。到了唐代开元年间，高僧无比与徒弟普惠创建了灵鹫岩寺之后，道家逐渐退出，佛教的香火却长盛不衰，在明清时期，山中曾经建有大小寺院７座，灵鹫岩寺一度成为福建省佛教活动中心之一，其18支房派的900多位僧人遍布各地，许多高僧分布于89座寺院里担任住持传教，香火远播闽台及海外。"}}, {"title": "府文庙", "address": "泉州市鲤城区府学路（百源川池畔）", "image": "", "rank": 31, "time": 1.0, "location": {"lat": 24.909661282424608, "lng": 118.59816167439176}, "feature": {"sight_features": "", "sight_content": ""}}, {"title": "弘一法师纪念馆", "address": "泉州市鲤城区西街176号开元寺内尊胜院", "image": "", "rank": 32, "time": 0.75, "location": {"lat": 24.92035996837841, "lng": 118.59193111720717}, "feature": {"sight_features": "", "sight_content": ""}}, {"title": "老君岩", "address": "泉州市丰泽区清源山景区北门", "image": "", "rank": 33, "time": 1.0, "location": {"lat": 24.947257987184898, "lng": 118.61969596725633}, "feature": {"sight_features": "", "sight_content": ""}}, {"title": "涂门街", "address": "泉州市鲤城区", "image": "", "rank": 34, "time": 1.5, "location": {"lat": 24.913354167053917, "lng": 118.59348105353358}, "feature": {"sight_features": "", "sight_content": ""}}, {"title": "泉州湾古船陈列馆", "address": "泉州市鲤城区西街27号开元寺内", "image": "", "rank": 35, "time": 2, "location": {"lat": 24.92035996837841, "lng": 118.59193111720717}, "feature": {"sight_features": "", "sight_content": ""}}, {"title": "泉州钟楼", "address": "泉州市鲤城区西街与东街的交汇处", "image": "", "rank": 36, "time": 0.15000000000000002, "location": {"lat": 24.925528244164532, "lng": 118.58649924345123}, "feature": {"sight_features": "", "sight_content": ""}}, {"title": "状元街", "address": "泉州市鲤城区", "image": "", "rank": 37, "time": 2, "location": {"lat": 24.913354167053917, "lng": 118.59348105353358}, "feature": {"sight_features": "", "sight_content": ""}}, {"title": "东湖公园", "address": "泉州市丰泽区温陵北路448号（近东湖影院）。", "image": "", "rank": 38, "time": 2.5, "location": {"lat": 24.916100854596394, "lng": 118.60906551687177}, "feature": {"sight_features": "", "sight_content": ""}}, {"title": "九日山", "address": "泉州市南安市丰州镇省道307线旭山小学北", "image": "", "rank": 39, "time": 2.5, "location": {"lat": 24.953824557020145, "lng": 118.53255378237348}, "feature": {"sight_features": "", "sight_content": ""}}, {"title": "李贽故居", "address": "泉州市鲤城区南门万寿路123号", "image": "", "rank": 40, "time": 1.0, "location": {"lat": 24.89977894414125, "lng": 118.59466259477045}, "feature": {"sight_features": "", "sight_content": ""}}, {"title": "晋江博物馆", "address": "泉州市晋江市青阳街道象山洪山小区", "image": "", "rank": 41, "time": 2.0, "location": {"lat": 24.787824575144548, "lng": 118.55843052000408}, "feature": {"sight_features": "", "sight_content": ""}}, {"title": "蔡氏古民居", "address": "南安市官桥镇漳里村", "image": "", "rank": 42, "time": 2.5, "location": {"lat": 24.81592119701731, "lng": 118.41515560433085}, "feature": {"sight_features": "", "sight_content": ""}}, {"title": "石牛山森林公园", "address": "泉州市德化县水口镇水口街湖坂村赤石口", "image": "", "rank": 43, "time": 3.0, "location": {"lat": 25.68656406304096, "lng": 118.43412870242454}, "feature": {"sight_features": "", "sight_content": ""}}, {"title": "围头湾", "address": "泉州市晋江金井镇东南突出部的围头半岛", "image": "", "rank": 44, "time": 2, "location": {"lat": 24.575299153606817, "lng": 118.61685848425307}, "feature": {"sight_features": "", "sight_content": ""}}, {"title": "石笋公园", "address": "泉州市鲤城区笋江路（近江滨北路）。", "image": "", "rank": 45, "time": 1.0, "location": {"lat": 24.917811393327124, "lng": 118.57132706101993}, "feature": {"sight_features": "", "sight_content": ""}}, {"title": "樟脚村", "address": "泉州市泉港区涂岭镇", "image": "", "rank": 46, "time": 3.5, "location": {"lat": 25.167517342086654, "lng": 118.79237717968742}, "feature": {"sight_features": "", "sight_content": ""}}, {"title": "刺桐公园", "address": "泉州市丰泽区津淮街与刺桐西路交叉口", "image": "", "rank": 47, "time": 1.0, "location": {"lat": 24.895622990085172, "lng": 118.62285306376673}, "feature": {"sight_features": "", "sight_content": ""}}, {"title": "泉州海丝野生动物世界", "address": "泉州市洛江区马甲镇新庵村", "image": "", "rank": 48, "time": 1.5, "location": {"lat": 25.108209643082503, "lng": 118.62169093850514}, "feature": {"sight_features": "特色1 感受这群来自世界各地的“奇妙的朋友”所带来的热情。 特色2 集动物野趣观赏、精彩表演、休闲娱乐、科普教育为一体的大型综合性主题公园 特色3 以保护野生动物为宗旨，客户至上为理念进行经营管理", "sight_content": "泉州海丝野生动物世界坐落在泉州市洛江区马甲镇新庵村，园区占地约500亩，是按国家AAAA级风景区的标准进行建设、经营，集动物野趣观赏、精彩表演、休闲娱乐、科普教育为一体的大型综合性主题公园。园区共引进100多个物种2000多头只世界珍稀野生动物。\n浪漫花海：步入园区，走在木栈道上，两边是几千平方的薰衣草，薰衣草叶形花色优美典雅，蓝紫色花序颖长秀丽，成片花海景观独特壮丽，给人一种身心舒缓的感觉。同时寓意着心心相印，等你爱我。为了营造多变的花海，我园按春夏秋冬四季更替变化，分别种植向日葵、薰衣草、波斯菊跟鲁冰花等，一季一花，四季皆有景。\n浪漫花海：步入园区，走在木栈道上，两边是几千平方的薰衣草，薰衣草叶形花色优美典雅，蓝紫色花序颖长秀丽，成片花海景观独特壮丽，给人一种身心舒缓的感觉。同时寓意着心心相印，等你爱我。为了营造多变的花海，我园按春夏秋冬四季更替变化，分别种植向日葵、薰衣草、波斯菊跟鲁冰花等，一季一花，四季皆有景。\n\n威严的“丛林之王”——东北虎；雄壮的“草原之王”——非洲狮；魁梧的“陆地一霸”——棕熊。想要近距离观看它们，我们可以站在过道上居高临下，一览无余。尽情领略这些“霸者”们的雄威。都说一山难容二虎，但它们在这里却能其乐融融的生活在一起，相互嬉戏，相互追逐，相靠而睡。灵猴演绎。“知识渊博”的博士猴、“长尾纤细”的松鼠猴、“圆头黑发”的黑帽悬猴、“红毛白须”的赤猴、“黑白相间”的黑白疣猴。在这里，你们可以尽情的观赏到它们活泼好动，也可以深刻的体会到它们的聪明机灵。    这里有白犀牛、大羚羊、白骆驼、梅花鹿、非洲鸵鸟等，是草食动物们的家园。它们享受着轻拂的微风、和煦的阳光，咀嚼葳蕤的青草、品尝清澈的山水。它们开心的时候，会咧嘴让你拍照；它们郁闷的时候，会静静的躺着不动；它们急躁的时候，会坐立不安。它们不会掩饰自己的喜怒哀乐，因为这是它们喜爱的家！\n“南山一桂树，上有双鸳鸯。千年长交颈，欢爱不相忘”鸳鸯常被看成爱情的象征。人们喜欢鸳鸯不仅是因为它象征爱情，更因为它极具观赏性。羽色鲜艳而华丽，头具艳丽的冠羽，眼后有宽阔的白色眉纹，翅上有一对栗黄色扇状直立羽，像帆一样立于后背。海丝莺歌园除了饲养有鸳鸯外，还有红腹锦鸡、灰冠鹤、孔雀、贵妃鸡等总共上千只。\n鹤园，杨柳垂青，绿草竞高，映日荷花，如此美景唯有鹤园。走进鹤园，这里有黄嘴鹮鹳、灰鹤、白枕鹤、白琵鹭等珍稀物种，它们外观有的艳丽夺目；有的洁白如许；与周围美景相称，显得格外绚丽。\n儿童游乐园，当您陪着孩子领略过花的艳丽、观赏完动物的野趣、品尝完诱人的美食过后，这时候可以带着孩子来儿童游乐园区。这里有好玩刺激的碰碰车、海盗船、立环跑车，也有轻松安逸的小蜜蜂、自控飞机、海豚戏水等游乐项目。所有游乐项目免费玩！只有玩不够，只有再想玩！"}}, {"title": "阳光时代广场", "address": "泉州市晋江市和平路与阳光路交汇处", "image": "", "rank": 49, "time": 2.5, "location": {"lat": 24.818641560171073, "lng": 118.59778577845125}, "feature": {"sight_features": "", "sight_content": ""}}, {"title": "泉州东湖公园", "address": "福建省泉州市丰泽区温陵北路448号", "image": "", "rank": 50, "time": 1.5, "location": {"lat": 24.916100854596394, "lng": 118.60906551687177}, "feature": {"sight_features": "", "sight_content": ""}}, {"title": "伊斯兰圣墓", "address": "泉州市丰泽区东外灵山南麓，清源山景区灵山景区内。", "image": "", "rank": 51, "time": 25.0, "location": {"lat": 24.947257987184898, "lng": 118.61969596725633}, "feature": {"sight_features": "", "sight_content": ""}}, {"title": "黄金海岸度假区", "address": "泉州市石狮市永宁镇海滨", "image": "", "rank": 52, "time": 4.5, "location": {"lat": 24.702760859847867, "lng": 118.7003061460832}, "feature": {"sight_features": "", "sight_content": ""}}, {"title": "泉州师范学院", "address": "泉州市丰泽区东海大街398号", "image": "", "rank": 53, "time": 2.5, "location": {"lat": 24.87534406119245, "lng": 118.66494199811535}, "feature": {"sight_features": "", "sight_content": ""}}, {"title": "基督教泉南堂", "address": "泉州市鲤城区中山中路374号", "image": "", "rank": 54, "time": 2.0, "location": {"lat": 24.917083975863815, "lng": 118.59723214917241}, "feature": {"sight_features": "", "sight_content": ""}}, {"title": "中山公园", "address": "泉州市鲤城区中山北路威远楼北面", "image": "", "rank": 55, "time": 1.5, "location": {"lat": 24.92076347795704, "lng": 118.59818943742185}, "feature": {"sight_features": "", "sight_content": ""}}, {"title": "净峰寺", "address": "泉州市惠安县净峰镇", "image": "", "rank": 56, "time": 2, "location": {"lat": 25.01018789461898, "lng": 118.99696689372101}, "feature": {"sight_features": "", "sight_content": ""}}, {"title": "富美宫", "address": "泉州市鲤城区南门水巷末端", "image": "", "rank": 57, "time": 1.5, "location": {"lat": 24.913354167053917, "lng": 118.59348105353358}, "feature": {"sight_features": "", "sight_content": ""}}, {"title": "百源川池", "address": "泉州市鲤城区工人文化宫以西", "image": "", "rank": 58, "time": 0.75, "location": {"lat": 24.910372518950627, "lng": 118.60047093938245}, "feature": {"sight_features": "", "sight_content": ""}}, {"title": "泉州森林公园", "address": "泉州市丰泽区东海镇罗西村", "image": "", "rank": 59, "time": 3.5, "location": {"lat": 24.88536643764053, "lng": 118.63106265266715}, "feature": {"sight_features": "", "sight_content": ""}}, {"title": "泉州华侨历史博物馆", "address": "泉州市丰泽区东湖街732号", "image": "", "rank": 60, "time": 1.5, "location": {"lat": 24.91786152396608, "lng": 118.61308531365465}, "feature": {"sight_features": "", "sight_content": ""}}]}