{"cityName": "曲沃", "days": 2, "cityImage": "", "spots": [{"title": "晋国博物馆", "address": "临汾市曲沃县曲村镇晋国博物馆", "image": "", "rank": 1, "time": 2, "location": {"lat": 35.742657462484324, "lng": 111.57538323249413}, "feature": {"sight_features": "特色1 中国20世纪一百项重大考古发现", "sight_content": "晋国博物馆位于曲沃县曲村镇，是依托全国重点文物保护单位“曲村——天马遗址”而兴建的全省第一座以晋文化为主题的遗址类博物馆，于2014年国庆节正式对外开放。\n晋国博物馆所在的“曲村——天马遗址”规模宏大，东起翼城县天马村，西至曲沃县曲村镇，南起滏河岸，北达桥山坡。遗址东西长3800米，南北宽2800米，面积近11平方公里。经过北京大学和山西考古研究所连续十余次大规模勘探发掘，共揭露面积12000平方米，发掘墓葬1000余座，其中周代墓葬800余座。尤其是在该遗址的核心区域，发现了九组十九座晋国早期国君及夫人墓葬，十座车马坑，发掘各类珍贵文物12000余件，其发掘成果为我国“夏商周断代工程”西周列王编年课题的解决提供了支撑，被列为1992、1993年全国十大考古新发现之一，2001年又被评为中国20世纪一百项重大考古发现之一。\n晋国博物馆，以晋文化为主题，打造了晋国史、发掘史、遗址展三个亮点。历史文化展厅以晋国历史为线索，通过晋侯墓地出土的大量珍贵文物，展示了晋国由公元前1040年左右叔虞封唐、燮父改唐为晋、文侯勤王、献公拓疆、文公称霸、六卿专政、三家分晋等一系列足以影响中国古代历史进程的重大事件。遗址发掘史展厅展示了北京大学考古文博学院和山西省考古研究所三代考古学人历尽艰辛、博览地书、寻觅求证的经过和考古发掘工作取得的一系列重大成果；遗址展厅则采用一处遗址一种展示方式的方法，重点展示了四组晋侯及夫人墓葬和三座车马坑，呈现给观众一幅两周时期邦国王侯墓葬的全景图画。\n晋国博物馆是一座集文物收藏、保护、研究和文物遗迹展示为一体的山西省首座大型遗址博物馆，也是全国唯一一座完整展示晋国历史文化风貌的平台，对于传承和弘扬传统文化，彰显山西以晋文化为特色的地域文明，完善山西省旅游产业结构具有十分重要的意义。"}}, {"title": "万憬温泉水上乐园", "address": "临汾市曲沃县太子滩工业园区", "image": "", "rank": 2, "time": 2, "location": {"lat": 35.64732733598219, "lng": 111.48239637818867}, "feature": {"sight_features": "", "sight_content": ""}}, {"title": "焦庄水库渔家乐垂钓园", "address": "焦庄进村口往北200米路东", "image": "", "rank": 3, "time": 2, "location": {"lat": 38.84761490734998, "lng": 115.55039994517054}, "feature": {"sight_features": "", "sight_content": ""}}, {"title": "刘伟农家乐", "address": "山西省临汾市曲沃县浍河水库晋之源景区内", "image": "", "rank": 4, "time": 2, "location": {"lat": 35.65083215882144, "lng": 111.58351606747956}, "feature": {"sight_features": "", "sight_content": ""}}, {"title": "万憬温泉休闲广场", "address": "大运路太子滩", "image": "", "rank": 5, "time": 2, "location": {"lat": 34.33614880750033, "lng": 117.21139748689698}, "feature": {"sight_features": "", "sight_content": ""}}, {"title": "伽蓝寺", "address": "山西省临汾市曲沃县G108(京昆线)", "image": "", "rank": 6, "time": 2, "location": {"lat": 35.64732733598219, "lng": 111.48239637818867}, "feature": {"sight_features": "", "sight_content": ""}}, {"title": "时代爱婴儿童乐园", "address": "山西省临汾市曲沃县张高线", "image": "", "rank": 7, "time": 2, "location": {"lat": 35.70557865932341, "lng": 111.5411929306823}, "feature": {"sight_features": "", "sight_content": ""}}, {"title": "天马遗址", "address": "山西省临汾市曲沃县曲村镇晋国博物馆", "image": "", "rank": 8, "time": 2, "location": {"lat": 35.742657462484324, "lng": 111.57538323249413}, "feature": {"sight_features": "", "sight_content": ""}}, {"title": "曲沃县春秋晋国城景区", "address": "史村镇浍河水库北岸春秋晋国城景区", "image": "", "rank": 9, "time": 2, "location": {"lat": 35.65083215882144, "lng": 111.58351606747956}, "feature": {"sight_features": "", "sight_content": ""}}, {"title": "介师门业", "address": "临汾市曲沃县", "image": "", "rank": 10, "time": 2, "location": {"lat": 35.64732733598219, "lng": 111.48239637818867}, "feature": {"sight_features": "", "sight_content": ""}}, {"title": "童趣游乐园", "address": "翔宇实验小学附近", "image": "", "rank": 11, "time": 1.0, "location": {"lat": 35.6471695235514, "lng": 111.4763783636789}, "feature": {"sight_features": "", "sight_content": ""}}, {"title": "瑞祥度假村", "address": "临汾曲沃县234省道附近（曲沃苹果综合批发市场东）", "image": "", "rank": 12, "time": 2, "location": {"lat": 35.62306088314681, "lng": 111.5367483530699}, "feature": {"sight_features": "", "sight_content": ""}}, {"title": "宇晋广场", "address": "山西省临汾市曲沃县高显镇立恒大道立恒文化广场", "image": "", "rank": 13, "time": 2, "location": {"lat": 35.70288533036755, "lng": 111.46436018129491}, "feature": {"sight_features": "", "sight_content": ""}}, {"title": "星期8儿童欢乐谷", "address": "山西省临汾市曲沃县晋都北路", "image": "", "rank": 14, "time": 2, "location": {"lat": 35.65096519537823, "lng": 111.48158103568406}, "feature": {"sight_features": "", "sight_content": ""}}, {"title": "世杰儿童乐园", "address": "东关正街东关活动中心一层", "image": "", "rank": 15, "time": 2, "location": {"lat": 36.68575748014465, "lng": 117.05404261056222}, "feature": {"sight_features": "", "sight_content": ""}}, {"title": "曲沃县图书馆", "address": "太和南路", "image": "", "rank": 16, "time": 2, "location": {"lat": 23.066187181147846, "lng": 112.4343396141928}, "feature": {"sight_features": "", "sight_content": ""}}, {"title": "曲沃桥山滑雪场", "address": "杨谈乡北桥山风景区内", "image": "", "rank": 17, "time": 2, "location": {"lat": 23.53065820123223, "lng": 112.87985413380389}, "feature": {"sight_features": "", "sight_content": ""}}, {"title": "曲沃县酬勤农业发展有限公司", "address": "高显镇汾阴村东北侧", "image": "", "rank": 18, "time": 2, "location": {"lat": 35.712441863190115, "lng": 111.401491176043}, "feature": {"sight_features": "", "sight_content": ""}}, {"title": "王村水库钓鱼塘", "address": "张高线", "image": "", "rank": 19, "time": 2, "location": {"lat": 39.87103652362736, "lng": 123.02421687136724}, "feature": {"sight_features": "", "sight_content": ""}}, {"title": "体验农村生活站(可认领各种水果...", "address": "里村镇北新店村", "image": "", "rank": 20, "time": 2, "location": {"lat": 32.2995517114241, "lng": 114.145349158924}, "feature": {"sight_features": "", "sight_content": ""}}, {"title": "兴隆精品购物街", "address": "山西省曲沃县兴隆东街", "image": "", "rank": 21, "time": 4.5, "location": {"lat": 35.64910461947577, "lng": 111.48535558338608}, "feature": {"sight_features": "", "sight_content": ""}}]}