{"cityName": "曲阳", "days": 2, "cityImage": "", "spots": [{"title": "虎山风景区", "address": "保定市曲阳县范家庄乡虎山风景区", "image": "", "rank": 1, "time": 3.5, "location": {"lat": 38.942094468625726, "lng": 114.56492057063883}, "feature": {"sight_features": "特色1 中国北方的大枣之乡", "sight_content": "‍‍‍‍\n虎山风景区 位于保定市西部，曲阳县最北部，因其山顶的一块巨石颇似蓄势待发的猛虎而得名。与著名的古北岳恒山相连，主峰“三尖梁”海拔1100多米，由于与唐县、阜平接壤，形成了“一脚踩三县”的山岳旅游景观，景区面积达20多平方公里。虎山，一直深藏于太行山中，峰峦起伏，多年来人迹罕至，自然生态保持了原汁原味。山中气候湿润，空气异常清新纯净，细雾蒸腾，迷蒙如雨，似着上轻旅纱衣，被游人誉为大自然的“天然氧吧”。黄羊、松鼠、各种鸟类等野生动物不时出没于山间。虎山有很多景点，“鸟鸣涧”、“求水庙”、“金水泉”、“矿工生活区”、“三连瀑”、“神仙瀑”、“许愿树”、“空中草甸”、“三尖梁”、“淘金洞”。每个景点都各具特色，也体现了虎山不同的风景和文化。山中叮咚作响的“金水泉”奏响了虎山一曲天然之歌。泉水常年咕噜噜的冒泡，清澈甘甜的溪水上下翻腾，一年四季冬温夏凉；“神仙瀑”的水位落差高达40于米，景色壮观，在神仙瀑的映衬下，虎山显得更有灵性；“许愿树”是一棵年龄高达800余年的古树，这棵树承载了太多的历史，也承载了太多的神秘，面对这棵古树，游客可以虔诚许愿，这棵神秘的古树也会满足每位游客的心愿；“淘金洞”是古淘金洞遗留下的洞穴，深达几百米的洞穴就有多处。这些洞穴形成了当地独有的淘金文化，洞内凉风习习，有的清泉外溢，有的深长幽远。洞内形态各异的雕塑和古淘金器具向游客讲解了诸多淘金文化和历史，让游客在游览的同时受益匪浅。淘金文化，作为虎山景区的主题定位，也是虎山的特色之一。在全国体现淘金文化的景区独此一家，这也形成了虎山景区的特色之处。\n\n‍‍虎山还是中国北方的大枣之乡，山上有10条大沟，50多条小沟，沟内枣林密布，山间的大红枣不仅是山里人世世代代丰收的希望，也给游客采摘带来了无穷的乐趣。特别是农民自己酿造的红枣酒，醇香甘甜，令人陶醉。每年9月，虎山景区都会举办采摘节。除此之外，游客还可以亲自参与醉枣的加工。游客亲自从枣树上摘下红红的大枣，在景区专业人士的指导下，游客可以亲自参与制作醉枣。将泡好的枣带回家中，一周后便可品尝自己亲手制作的醉枣。醉枣易于保存，口感鲜美，同时也是赠送亲朋好友的佳品。此外，在虎山景区，还可以让游客体验枣酒的酿制过程。景区提供一套酿酒的设备，在专业人士指导下，游客可亲自酿酒。日后，在家中品尝自己酿制的枣酒或赠送亲友都具有特别的意义。虎山水资源丰富，丰水季节，河流纵横、枯水季节，这里的河水依然哗哗奔流，山高水长，清泉潺潺，畅快淋漓。虎山景区在开发建设中一直不断的致力于景点开发，在抓住游客需求的前提下，凸显自己的特色。在虎山景区，游客可以爬山、还可以玩水，摸鱼、钓鱼，同时还可以体验淘金文化。虎山景区开发四年有余，时间虽然不是很长，但游人对虎山景区的基础设施建设给予了很高评价，虎山景区的基础设施无论从面积还是从完善程度来说在全省范围内都属少见。虎山的客源主要定位于石家庄、保定、北京、天津等周边城市。其间虎山也多次举办大型活动，像是“曲阳虎山2007年河北省作家协会第三届端阳诗会”、“虎山首届户外旅游文化节”、“大枣采摘节”等大型活动，吸引了数千的游客，丰富了虎山不同的游客群，同时也丰富了虎山的旅游文化。虎山让游客参与到旅游中，体验大自然、亲近淘金宝地。"}}, {"title": "北岳庙", "address": "保定市曲阳县城内北岳路", "image": "", "rank": 2, "time": 1.0, "location": {"lat": 38.62569104737633, "lng": 114.70607727567872}, "feature": {"sight_features": "特色1 历代帝王祭祀北岳恒山的场所。", "sight_content": "‍‍曲阳北岳庙坐落于曲阳县城西南隅，始建于南北朝北魏宣武帝景明、正始年间，是汉代至清顺治十七年（公元1660年）多代封建帝王遥祭北岳恒山的地方。庙内建筑精巧，雕梁画栋，气势雄伟，蔚为壮观，并建有碑廊、石刻馆、博物馆等，于1982年2月23日被国务院定为全国重点文物保护单位。2010年被国家旅游局评为AAAA级旅游景区。“德宁之殿”是庙内主体建筑，通高30米，占地面积2009.8平方米，为宫殿式建筑，整个建筑结构严谨，是我国现存最大的元代木结构建筑之一，在建筑史上有着重要价值。殿内东西两壁绘有巨幅壁画“天宫图”，东壁为“云行雨施”，西壁为“万国咸宁”，各高8米，长18米。壁画画面完整，布局疏密得当，绘画技艺精湛，是唐代大画家吴道子所绘。\n‍‍北岳庙壁画共有三大特点：第一，画幅大，最大的一幅面积为216平方米；第二，人物画像大，最高的6.5米，次高也有3.3米；第三，气派大。中央美术学院陆鸿年教授曾多次来曲阳参观北岳庙，称这里的壁画为罕见珍品。北岳庙内建有雕刻艺术馆，保存古雕刻100多件。其作品有人物、动物、佛像、经幢等，种类丰富。尤以“西汉石虎”、“北魏石狮”、“北魏背光千佛像”、“唐代石灯”、“唐代大佛”、“石佛笑和尚”、“金代经幢”为最佳。作品造型优美，刀工细腻，线条清晰流畅，充分展示了我国北方石雕艺术在各个不同历史时期的不同风格和特点。\n‍\n\n\n‍‍北岳庙碑碣林立，现存北魏、北齐、唐、五代、宋、金、元、明、清直到民国经幢200多通，是河北省最大的碑群之一。这些碑刻是研究北岳庙历史的宝贵资料，跨越1500多年。碑刻内容多为历代重修北岳庙的记载和祭祀北岳之神的祭文，也有的用诗、词、歌、赋记的观后感。从书法艺术上讲，真、草、隶、篆、行各体俱备，在一定程度上代表了不同时期的书法艺术水平，具有很高的艺术价值，为我国现存的书法艺术珍品。为我们研究所处时代的政治、经济、文化以及书法艺术的演变，提供了珍贵的实物资料。北岳庙不仅是祭祀北岳恒山之神的风光宝地，更是一座内涵丰厚的文化艺术殿堂。它集古建、绘画、书法、石雕等艺术之花于一身，璀璨夺目，光彩照人，向世人展现出我们伟大祖先的勤劳、聪明和智慧。"}}, {"title": "嘉山悠乐谷水上乐园", "address": "保定市曲阳县高速口北行2公里嘉山东侧", "image": "", "rank": 3, "time": 2, "location": {"lat": 38.649503177183185, "lng": 114.78074427426124}, "feature": {"sight_features": "", "sight_content": ""}}, {"title": "灵山聚龙洞", "address": "保定市曲阳县灵山镇东北2公里处莲花山脚下", "image": "", "rank": 4, "time": 1.0, "location": {"lat": 38.79418565993682, "lng": 114.6672871097742}, "feature": {"sight_features": "", "sight_content": ""}}, {"title": "东方雕刻城", "address": "保定市曲阳县境内", "image": "", "rank": 5, "time": 1.0, "location": {"lat": 38.62838410412241, "lng": 114.75145481380322}, "feature": {"sight_features": "", "sight_content": ""}}, {"title": "王快水库", "address": "保定市曲阳县", "image": "", "rank": 6, "time": 2.5, "location": {"lat": 38.62838410412241, "lng": 114.75145481380322}, "feature": {"sight_features": "", "sight_content": ""}}, {"title": "定窑遗址", "address": "河北省保定市曲阳县涧磁村（北0.1 米）", "image": "", "rank": 7, "time": 2, "location": {"lat": 38.803231666816956, "lng": 114.6995988167137}, "feature": {"sight_features": "", "sight_content": ""}}, {"title": "爱国主义教育展馆", "address": "北环路", "image": "", "rank": 8, "time": 2, "location": {"lat": 38.0818836383811, "lng": 114.69308879219136}, "feature": {"sight_features": "", "sight_content": ""}}, {"title": "环亚雕塑展厅", "address": "广美路", "image": "", "rank": 9, "time": 2, "location": {"lat": 23.106167535552782, "lng": 113.93602087661759}, "feature": {"sight_features": "", "sight_content": ""}}, {"title": "河北省雕塑艺术指导委员会雕塑艺...", "address": "河北省曲阳县曲承线", "image": "", "rank": 10, "time": 2, "location": {"lat": 38.61328321394941, "lng": 114.70932419555471}, "feature": {"sight_features": "", "sight_content": ""}}, {"title": "三不误", "address": "恒山路229", "image": "", "rank": 11, "time": 2, "location": {"lat": 38.62815117466847, "lng": 114.71953206326818}, "feature": {"sight_features": "", "sight_content": ""}}, {"title": "曲阳白家湾公园", "address": "河北省保定市曲阳县北环北侧", "image": "", "rank": 12, "time": 1.5, "location": {"lat": 38.62838410412241, "lng": 114.75145481380322}, "feature": {"sight_features": "", "sight_content": ""}}, {"title": "贾庄革命烈士墓园", "address": "庄伙乡贾庄村180乡道旁边", "image": "", "rank": 13, "time": 2, "location": {"lat": 24.465866275551893, "lng": 116.07731717006423}, "feature": {"sight_features": "", "sight_content": ""}}, {"title": "曲阳孟良河公园", "address": "南环路与文昌西街交叉口西南100米", "image": "", "rank": 14, "time": 1.5, "location": {"lat": 38.6184574773256, "lng": 114.71643078746114}, "feature": {"sight_features": "", "sight_content": ""}}, {"title": "芭娜娜水上乐园", "address": "河北省保定市曲阳县曲承线附近", "image": "", "rank": 15, "time": 2, "location": {"lat": 38.61328321394941, "lng": 114.70932419555471}, "feature": {"sight_features": "", "sight_content": ""}}, {"title": "新天地儿童乐园", "address": "恒州镇正阳街与南环交汇处凯嘉购物中心三楼", "image": "", "rank": 16, "time": 2, "location": {"lat": 23.236825996173632, "lng": 116.47662941548076}, "feature": {"sight_features": "", "sight_content": ""}}, {"title": "智慧树儿童乐园", "address": "北岳路附近", "image": "", "rank": 17, "time": 2, "location": {"lat": 31.37096202198479, "lng": 119.76770008141837}, "feature": {"sight_features": "", "sight_content": ""}}, {"title": "儿童大世界", "address": "恒山中路302号附近", "image": "", "rank": 18, "time": 2, "location": {"lat": 38.627743687843044, "lng": 114.72194445972089}, "feature": {"sight_features": "", "sight_content": ""}}, {"title": "曲阳县刘家庄祠堂", "address": "河北省保定市曲阳县", "image": "", "rank": 19, "time": 2, "location": {"lat": 38.62838410412241, "lng": 114.75145481380322}, "feature": {"sight_features": "", "sight_content": ""}}, {"title": "刘家庄广场", "address": "河北省保定市曲阳县G5(京昆高速公路)", "image": "", "rank": 20, "time": 2, "location": {"lat": 38.959853947291386, "lng": 115.25393891320722}, "feature": {"sight_features": "", "sight_content": ""}}, {"title": "黄山八会寺", "address": "河北省保定市曲阳县羊平镇八会寺", "image": "", "rank": 21, "time": 2.0, "location": {"lat": 38.51936261757243, "lng": 114.6915277770626}, "feature": {"sight_features": "", "sight_content": ""}}, {"title": "爱尚迪尼思儿童成长主题乐园", "address": "河北省保定市曲阳县羊平镇曲新公路晨苑小区西南200米", "image": "", "rank": 22, "time": 2, "location": {"lat": 38.53831157594515, "lng": 114.71540534207742}, "feature": {"sight_features": "", "sight_content": ""}}, {"title": "广盛源雕刻展厅", "address": "广美路", "image": "", "rank": 23, "time": 2, "location": {"lat": 23.106167535552782, "lng": 113.93602087661759}, "feature": {"sight_features": "", "sight_content": ""}}, {"title": "马若特雕塑艺术馆", "address": "宝石玉雕大世界附近", "image": "", "rank": 24, "time": 2, "location": {"lat": 32.98452061590013, "lng": 112.52648941650031}, "feature": {"sight_features": "", "sight_content": ""}}, {"title": "河北省工艺美术大师雕塑作品展览...", "address": "正阳街", "image": "", "rank": 25, "time": 2, "location": {"lat": 38.15798988344599, "lng": 114.42083184671948}, "feature": {"sight_features": "", "sight_content": ""}}, {"title": "创意·铁匠坊金属雕塑艺术馆", "address": "粮食局附近", "image": "", "rank": 26, "time": 2, "location": {"lat": 23.377480063151243, "lng": 113.21380187948678}, "feature": {"sight_features": "", "sight_content": ""}}, {"title": "中国雕刻博物馆", "address": "正阳街与南环路交叉口", "image": "", "rank": 27, "time": 2, "location": {"lat": 38.61891088829737, "lng": 114.70944814644389}, "feature": {"sight_features": "", "sight_content": ""}}, {"title": "曲阳县博物馆", "address": "北岳路与登岳街交叉口", "image": "", "rank": 28, "time": 2, "location": {"lat": 38.62562745895023, "lng": 114.70342194028618}, "feature": {"sight_features": "", "sight_content": ""}}, {"title": "鸿运庄园", "address": "高门屯158超市路南500米", "image": "", "rank": 29, "time": 2, "location": {"lat": 38.59098488325886, "lng": 114.85996257364228}, "feature": {"sight_features": "", "sight_content": ""}}, {"title": "星之源沙雕", "address": "政府东50米", "image": "", "rank": 30, "time": 2, "location": {"lat": 39.91050690454764, "lng": 116.41421417966878}, "feature": {"sight_features": "", "sight_content": ""}}, {"title": "男人代码", "address": "南街与正阳街交叉口西150米曲阳县版权局附近", "image": "", "rank": 31, "time": 2, "location": {"lat": 38.62683751756872, "lng": 114.70845561317745}, "feature": {"sight_features": "", "sight_content": ""}}, {"title": "水岸商都商业街", "address": "河北省曲阳县恒山西路东街小区附近", "image": "", "rank": 32, "time": 2, "location": {"lat": 38.62743876181865, "lng": 114.71500461337924}, "feature": {"sight_features": "", "sight_content": ""}}, {"title": "中建路桥", "address": "保定市-曲阳县", "image": "", "rank": 33, "time": 2, "location": {"lat": 38.62838410412241, "lng": 114.75145481380322}, "feature": {"sight_features": "", "sight_content": ""}}]}