{"cityName": "衢州", "days": "", "cityImage": "", "spots": [{"title": "天脊龙门", "address": "衢州市衢江区黄坛口乡下呈村", "image": "", "rank": 1, "time": 12.0, "location": {"lat": 28.83067930439973, "lng": 118.90564869672714}, "feature": {"sight_features": "特色1 直面衢州山山水水，风景如画似锦。 特色2 以“龙”为卖点的峡谷瀑布景观，绿树掩映中水流不断，夏天玩水十分清凉。 走在山崖间百余米的悬空索桥上，赏山谷中青翠宜人的景色。 坐飞天大滑索下山，体验失重俯冲的惊险刺激。 特色3 体验华东第一长“飞龙大滑索”凌空飞渡的新奇感受等，游人置身其上，无限风光尽收眼底，令人称绝。", "sight_content": "天脊龙门景区是国家级森林公园、省级风景名胜区紫微山风景区的主要景区之一，是由衢州国际旅游集团斥巨资重新打造开发的景区。距衢州市区30公里，景区以峡谷、奇峰、绝壁、飞瀑见著。区内山峰林立，峡谷纵横，其中海拔1452.6米的水门尖，为浙西第一高峰。相对高差一千米的深谷，溪涧，时阔时狭，忽陡忽平。\n峰林景观雄奇、大气、明快，水体景观气势磅礴。得天独厚的高山深谷型地貌及气候条件孕育了丰富的动植物资源。景区内生长着各种植物千余种，其中有国家一级保护树种红豆杉、香果树等，特别是国家二级保护树种白豆杉，连续分布面积达4000多亩，为全国之冠；森林中还栖息着豹、苏门羚、毛冠鹿、穿山甲等百余种珍禽异兽。\n\n龙的传说给天脊龙门景区蒙上了一层神秘的色彩。龙生九子，各有所好，因各得山水不同之灵秀，而形异性殊。景区内的五座龙桥、九个龙亭、鲤鱼跃龙门以及龙涎温泉、龙潭飞瀑、飞天索桥等景点无不蕴含着神秘的龙文化。海拔千米高处的龙宫，楼阁悬空，飞檐翘角，神奇壮观。龙宫内的龙王威武端庄，龙子、龙女栩栩如生。面积509平方米的中华第一“龙”字，腾飞在云雾缭绕的半山中；108米长的“浙西第一索桥”似横空出世的长龙腾飞南北；飞架在海拔千米之上，总长近2千米的“飞龙在天”栈道，蜿蜒起伏于悬崖峭壁间贯穿于整个景区，恰如飞龙再现出神入化。无限风光尽收眼底，令人叹绝。"}}, {"title": "廿八都", "address": "衢州市江山市廿八都古镇", "image": "", "rank": 2, "time": 2.5, "location": {"lat": 28.301099352169672, "lng": 118.48756122207321}, "feature": {"sight_features": "特色1 在“一脚踏三省”的古镇看白墙飞檐的老建筑。 特色2 去文昌宫看精美的雕刻和彩绘壁画，在许愿台的小卡片上写下心愿。", "sight_content": "廿八都距离江山市县城70公里，是一个古老小镇。全镇有800余户4000余人口。北宋熙宁四年（1071年）江山设都四十四，此地排行第廿八，得名廿八都，至今已有900余年历史。由于历史上少受战乱，使镇上古建筑风貌依旧，保存较为完好。\n据统计现保完整、规模大的明清古建筑民居、厅堂共有36幢，公共建筑物有孔庙、大王庙、文昌阁、万寿宫、真武宙、忠义祠、观音阁、老衙门、新兴社等11幢。在这些众多的寺、庙、宫、殿中，以大王庙规模最大，孔庙最雄伟壮观。孔庙建于宣统年间，占地1500余平方米，整体布局沿中轴线依次为照壁门庭、正门、前殿、天井、正殿、天井、寝殿共计三进三天井，左右为厢房，以檐廊连结，结构上，明间均为抬梁式、边贴为穿斗式，正殿为两层重檐歇山顶楼阁，四面飞檐出挑，十分高大雄伟。\n建筑内以精湛的木雕艺术和丰富的彩绘最具特色，所有的梁、枋、脊标、天花板，均绘月山水、人物故事以及龙、凤、花、鸟等绘画作品，几何图形、牛腿、雀替、窗扇、栏板等木构件均有浮雕或镂空雕，题材丰富，形象极为生动，犹如一座艺术宝库。"}}, {"title": "江郎山景区", "address": "衢州市江山市江郎乡", "image": "", "rank": 3, "time": 7.5, "location": {"lat": 28.53720198716986, "lng": 118.55260640384225}, "feature": {"sight_features": "特色1 登顶江郎山，其险不输华山。", "sight_content": "江郎山作为浙江首个世界遗产，中国第八大世界自然遗产，具有独特的地貌科学价值和自然美学价值。巍巍江郎山，千万年大自然造化，因为有了它，中国丹霞才足够老。\n神奇江郎山，千百年文人墨客的至爱。江郎山是国家AAAA级旅游风景区，由三石峰、十八曲、塔山、须女湖、仙居寺和入口区等六部分组成，以“奇峰赤壁”为主要特色。\n江郎山有三绝：郎山三绝“三爿石”、“一线天”、“伟人峰”。伟人峰，酷似一代伟人邓小平的侧面头像，神形兼备，栩栩如生。\n江郎山的主峰海拔824米，坡度为88°以上，是一个壮观的标志性景观、是丹霞地貌的杰作。江郎山，青山绿水，空气十分清新，是远离城市喧嚣和污染的好地方。\n江郎山不仅风景优美震撼人心，还有千年古刹——开明禅寺可供游人观赏。\n江郎山素有“雄奇冠天下，秀丽甲东南”只美誉，江郎山的森林植被茂密，林中“危机四伏”，张纪中新版《西游记》，在此拍摄，江郎山走出了一位勇敢的唐僧。"}}, {"title": "烂柯山", "address": "衢州市柯城区石室乡", "image": "", "rank": 4, "time": 2.5, "location": {"lat": 28.853528047117564, "lng": 118.92181646486668}, "feature": {"sight_features": "", "sight_content": ""}}, {"title": "龙游石窟", "address": "衢州市龙游县小南海镇石岩背村", "image": "", "rank": 5, "time": 2.5, "location": {"lat": 29.064437960461547, "lng": 119.19576254440359}, "feature": {"sight_features": "特色1 深入规模宏大的地下石窟，揣摩它的身世之谜。 特色2 龙游石窟是我国古代地下人工建筑群之一。", "sight_content": "龙游石窟被称为“世界第九大奇迹”，规模宏大、气势磅礴、瑰丽壮观、巧夺天工。走进石窟，宛如时光倒流到远古。它的开采年代、开采人、用途等等，都是千古不解之谜。\n\n1992年，在四位农民的水泵声中出现一个世界奇观----龙游石窟。这是一个谜团百结的地下建筑群，在方圆0.38平方公里的土丘分布了大小24个洞窟，每个洞窟从矩形洞口开始垂直向下延伸，高度约30米。顶部呈漏斗型，洞窟内科学地分布着3-4根巨大的“鱼尾形”石柱，与洞顶浑然一体。更让人叹为观止的是洞壁、洞顶和石柱上的凿痕。\n\n竹林禅寺迄今有1300多年历史，寺院门对着衢江、灵山江，犹如双龙衬托起一颗灿烂明珠，主殿“圆通宝殿”黄琉璃顶，飞檐翘角，造型精美，带有浓厚的古刹神韵。在竹林禅寺旁边你可以看见很有特色的马鸟鱼广场。\n两江风情龙之游是以龙游石窟为依托，并以石窟文化、龙文化、商帮文化等七大文化为背景，通过素有玉带之称的衢江和灵山江，把龙游石窟、龙游民居苑、龙洲公园接轨连通，汇聚成一条靓丽的旅游风景线。在整条游线当中，您不仅可以品乾隆下江南之古邑遗风，听龙游商帮之传奇，欣赏二龙戏珠之地势。"}}, {"title": "钱江源国家森林公园", "address": "衢州市开化县205国道(山深线)", "image": "", "rank": 6, "time": 7.5, "location": {"lat": 29.063402425202792, "lng": 118.39249759235842}, "feature": {"sight_features": "", "sight_content": ""}}, {"title": "根宫佛国文化旅游区", "address": "衢州市开化县根博路1号", "image": "", "rank": 7, "time": 2.5, "location": {"lat": 29.138840551105133, "lng": 118.39939819562271}, "feature": {"sight_features": "特色1 汇聚各类植物、名贵树种160多种。 特色2 展示根艺的独特魅力，根艺美术的四库全书。 特色3 本园集各种的巨型根雕五百罗汉,根艺精品、盆景奇石、枯树名木林。", "sight_content": "开化根宫佛国文化旅游区占地360余亩，以盆景、奇石、根艺、园林古建构成恬静自如、天人合一的画卷，汇聚各类植物、名贵树种160多种 ，它是世界园林的奇迹！\n\n开化根宫佛国文化旅游区，汇聚各类植物、名贵树种，环境优雅，景色优美。主要有福门祥光、中国根雕佛国、中国根雕博物馆、中国根雕历史人物博物馆等二十多个景点。\n\n开化根宫佛国文化旅游区有佛儒道、民间神话传奇、历史风云等系列大型根艺作品2000余件，最大的有40余吨！\n此外还展示根艺文献资料、根艺大师代表作，工艺流程和醉根文化等，是一部根艺美术的四库全书，堪称世界根雕艺术之都。\n五佰罗汉更是徐谷青大师经过十余年的精心准备，是根雕艺术和佛教文化珠联璧合，是世界上最大的一套根雕五百罗汉造像之一。"}}, {"title": "药王山", "address": "衢州市衢江区黄坛口乡黄泥岭村", "image": "", "rank": 8, "time": 1.5, "location": {"lat": 28.750654696472203, "lng": 118.98899050762581}, "feature": {"sight_features": "特色1 奇峰绝立，幽谷生云 特色2 引入幽幽洞穴，如入仙境，令人飘飘然也。", "sight_content": "药王山景区是以中华药文化和山水形胜为特色，集观光、休闲度假、康体健身及科普教育为主要功能的山地型城郊风景游赏区，景区距衢州市区30公里，是紫微山国家森林公园、烂柯山——乌溪江风景名胜区的主景区之一。\n\n景区总面积10平方公里，由三老峰、药王居、马尾瀑、石林荟翠四景群及入口旅游服务中心组成。景区汇密林、清溪、深潭、飞瀑、绝峰、幽谷、仙洞、险道等自然景观于一体；奇峰绝立，幽谷生云，飞瀑流霞，顽石蕴秀，山环水抱，林木葱茏，百药丛生，峭壁崖间，古藤悬彩，天地复色，走兽观人；有特色景点、景观100多处。\n\n雄险奇秀幽的山水形胜，独特的地理位置和优越的自然条件孕育了丰富的野生动植物资源，这里生长着560种植物，国家一、二级保护树种10余种；野生果树近百种；中草药500余种，名贵药材20余种；国家一、二级保护兽类12种，特别是野生猕猴有数百只之多，景区已驯养了猕猴30余只供游人观赏；还有珍稀保护禽类6种，观赏性鸟类20余种，蛇类10余种，两栖类、鱼类10余种。因此，这里既是“天然氧吧”、“育百药之胜地”，又是“天然野生动物园”。\n\n药王山的药文化也非常丰富，有传说的，有史实的。如相传神农氏炎帝在神谷偿百草，石林炼丹配制灵丹妙药拯救苍生；药王孙思藐曾在药王居用山中的草药，山中的水熬药为百姓治病；衢州的历代名医如秦朝精通五运六气之说的刘光大，明代针灸大师杨继洲等都曾在山中采集中草药。神农炼丹、药王治病、华佗把脉的神奇传说，给药王山蒙上了神奇的色彩。\n\n衢州国际旅游集团开发药王山，坚持高起点规划，大手笔投入，规范化建设，集约化管理，建设中力求保护药王山的原始风貌，大力挖掘博大精深的中华药文化，突显“药王”特色使其自然资源及文化内涵相得益彰，深受游客及社会各界的好评。"}}, {"title": "浮盖山", "address": "衢州市江山市峡口廿八都富强村", "image": "", "rank": 9, "time": 3.0, "location": {"lat": 28.29983424829289, "lng": 118.48705439810465}, "feature": {"sight_features": "特色1 徐霞客曾留下“怪石拿云，飞霞削翠”的赞誉", "sight_content": "“浮盖山”即“浮盖堆石洞群“，是华东地区旅游景区的一个“新面孔”.景区内形态各异的顽石星罗棋布，峰顶由巨石累叠而成，下者如盘，上者如盖，有“集大地之顽石于一身”之誉，又“似盖之浮动”，因而得名。在徐霞客的《江山游记》中，浮盖山被描述为“怪石拿云、飞霞削翠”的神奇之山。\n浮盖山的花岗岩巨石布满山谷，大者如屋如室，小者如斗如盘，巨石垒叠，乱中有序，错落有致，宛如一个奇石博物馆。 浮盖堆石洞群的垒垒巨石，巧夺天工般地堆砌在一起，散落在整个山麓，营造出一处处奇妙的堆石洞群景观。\n浮盖山最高处海拔932米，各种因地壳运动而形成的垒垒巨石，巧夺天工般地堆砌在一起，散落在整个山麓，营造出一处处奇妙的堆石洞群景观，并因山顶有巨石为盖，若浮若动，而得名“浮盖”。据江山市旅游局负责人介绍，“浮盖堆石洞群”有“四怪”：云怪、石怪、洞怪、泉怪。\n浮盖山绝顶位于浮盖山最东头，出一线天，可逶迤攀登绝顶。峰顶有石，踞石而坐，下视峰麓，只见崩坑坠谷，层层如碧玉轻绡，远近万状。由此而西，则蜿蜒数峰，迭起迭伏，止于三叠石(三叠石为最西头，称为西隅)。三叠峰下即为白花岩。"}}, {"title": "仙霞关", "address": "衢州市江山市保安乡", "image": "", "rank": 10, "time": 2.5, "location": {"lat": 28.363389396091446, "lng": 118.52016980729502}, "feature": {"sight_features": "", "sight_content": ""}}, {"title": "北门街历史文化街区", "address": "衢州柯城区北门街", "image": "", "rank": 11, "time": 1.5, "location": {"lat": 28.970888864704996, "lng": 118.8814755047668}, "feature": {"sight_features": "", "sight_content": ""}}, {"title": "衢州孔庙", "address": "衢州市柯城区新桥街", "image": "", "rank": 12, "time": 2.0, "location": {"lat": 28.96532818174058, "lng": 118.88283439666385}, "feature": {"sight_features": "", "sight_content": ""}}, {"title": "三衢石林", "address": "衢州市常山县辉埠镇宋畈乡", "image": "", "rank": 13, "time": 2, "location": {"lat": 28.995561436445378, "lng": 118.53921324989656}, "feature": {"sight_features": "特色1 有“华东第一石林、世界最大的天然盆景”美誉", "sight_content": "三衢石林景区位于常山县辉埠镇境内，距离县城10公里左右，最高海拔518.8米，是国家AAAA级旅游景区、国家地质公园、省级风景名胜区。\n三衢石林景区以喀斯特灰岩岩溶地貌景观为主要特征，融石林奇观、峡谷险胜、山林野趣于一体，三衢石林岩溶属幼年期，主要由峰丛构成，微地貌为石芽和溶沟。同时又是奥陶纪晚期(4.4亿年前)的一个巨大的古生物礁，是研究华南古生代地史的重要地区。\n三衢石林因生物礁和优美岩溶地貌的结合而珍贵。典型的喀斯特岩溶地貌孕育出了千姿百态、亦真亦幻、韵味别致的石林迷宫奇观，掩映在绿色藤蔓中的溶沟石芽美仑美奂。\n毛泽东三过衢州还三问三衢山之来历。北宋名臣赵抃曾在三衢山面壁苦读，留下一代“铁面御史”千古佳话的“赵公岩”，一直为后人所敬仰、膜拜；明代忠臣于谦路经此地写就了千古名篇《石灰吟》。\n三衢山历史悠久，文史丰厚。唐《元和郡志》记载：“州有三衢山，故取其名”，并记载了尉迟公建城以三衢山命名“衢州”的历史，后人称三衢山为“衢州的母亲山”。据《韶山毛氏族谱》卷首凡例记载：“宋工部尚书让公世居三衢”，就是说毛泽东祖籍在三衢。\n在地质演变的作用下，形成了城堡石林、天井石林(天坑)、小古山岩溶凹地、紫藤峡谷、仙人洞等典型的地貌景观，形态上表现为各类象形动物、城堡、长廊、天生桥及这些单元组成的石林，被国内外地质学家称为“世界上罕见的地质地貌景观”，更有“华东第一石林”“世界最大的天然盆景”、“世界最大的象形石动物园”、“秀甲东南，江南一绝”之美誉。"}}, {"title": "府山公园", "address": "衢州市柯城区峥嵘山", "image": "", "rank": 14, "time": 2.5, "location": {"lat": 28.97420365112754, "lng": 118.87758391504455}, "feature": {"sight_features": "", "sight_content": ""}}, {"title": "龙游民居苑", "address": "衢州市龙游县文化路62号", "image": "", "rank": 15, "time": 2.5, "location": {"lat": 29.0370603263344, "lng": 119.17902216219657}, "feature": {"sight_features": "特色1 重要的古文化遗址", "sight_content": "灵山江从南而至，绕廓北去，江中流水清清，江上三桥并列。有一山突兀临江，与县城隔水相对，江岸危岩壁立，涛穴幽邃，山上古增高耸，林木之中还隐隐约约地露出砖墙和翘檐瓦角。鸡鸣山旧时“鸡鸣秋晓”列为“龙邱十二景”之一，吸引人们登临流连，文人墨客多有题咏。遗址内采集到石器、印纹陶片、纹饰和鼎器若干，上限新石器时代，下限商周时期。山上古塔高耸，有观象台和鸡鸣书院遗址等等。\n\n龙游民居苑坐落在风光炫丽的鸡鸣山，依山傍水，是极有代表性的民居古建筑之一，是我国屈指可数的古建筑集萃之地。这里是重要的古文化遗址，从新石器时代到商周时期的文物出土甚多。历史悠久，文物精湛，其中明清传统民居，堪称建筑艺术的杰作，在江南古代传统建筑中占有重要地位。明代建筑“翊秀亭”清代建筑“灵山花厅”，各有特色，奇妙无穷。\n龙游民居苑在城郊的一处风水宝地，历史积淀非常丰厚，建筑非常有特色，门楼飞檐翘角，气势刚健，如大鹏展翅，傲视蓝天。龙游民居苑，俨然是一处历史的庄园是，一座民俗民风的大观园。走进龙游民居苑，就仿佛走进长长的历史隧道——白墙黛瓦和错落有致的林间书院，与散布其间的街巷、池塘、戏台，形成了明清时期传统自然村落中富有特色的生活场景。"}}, {"title": "桃源七里景区", "address": "衢州市柯城区七里乡", "image": "", "rank": 16, "time": 2, "location": {"lat": 29.143840869864576, "lng": 118.7837976353408}, "feature": {"sight_features": "", "sight_content": ""}}, {"title": "仙霞关戴笠故居", "address": "衢州市江山市保安乡", "image": "", "rank": 17, "time": 2.5, "location": {"lat": 28.363389396091446, "lng": 118.52016980729502}, "feature": {"sight_features": "特色1 有“东南锁钥”之美誉", "sight_content": "仙霞关戴笠故居位于江山市保安乡仙霞岭，古称古泉山、泉岭山。为唐乾符五年（878年）黄巢起义军进军福建时所辟径道。义军在此仅开辟山路，并未建防御设施，然周围丛山峻岭，峭壁谷深，易守难攻，是天设之雄关。仙霞岭地形险要，自辟出山路之后，成为历代农民起义的活动地区。\n仙霞关现存石块路面修筑于南宋绍兴年间（1131—1162）。岭上设有4关，用条石建成，每关设双重大门，门为拱卷顶。关门高3.20米、宽2.40米，墙厚5米，大门已被毁。关门两边都是高山，若关门紧闭，则万夫莫天，有“东南锁钥”之美誉。\n戴笠故居是原国民党军统局长、世界谍王戴笠于1943年亲自设计建造的，外看是一座粉墙黛瓦的普通房屋，走进去却是一座前二层后三层的秘宅，300多个平方的主楼有122扇窗85扇门，整个建筑环环相扣，步入其中似走迷宫。石鼓香溪是仙霞关森林公园的一个重要组成部分。\n境内山水清音，浑然天成。清清溪水四季常流，古木参天，长藤老树不计其数，飞禽走兽出没其间。更为可贵的是，景区没有进行过人为开发和破坏，依然保持着原生态自然风貌，被时人誉为“浙江的西双版纳”。仙霞关1963年被列为首批省级重点文物保护单位。岭南的廿八都古镇，保存着大批古建筑群，具有丰富的建筑文化内涵，为省级历史文化名镇。"}}, {"title": "清漾毛氏文化村", "address": "江山市石门镇南部距江山市中心25km", "image": "", "rank": 18, "time": 5.0, "location": {"lat": 28.554453762590178, "lng": 118.59159948527065}, "feature": {"sight_features": "特色1 历史上曾出了8个尚书，83个进士", "sight_content": "清漾又叫青龙头，村庄则如一颗明珠，整个地理环境形成一幅游龙戏珠之美景，东侧有古老的清漾塔，一条“文”字形的文川溪从村中穿过，魁梧的千年老樟树屹立在村头。清漾村是江南毛氏发祥地，毛泽东祖居地，也是奉化蒋介石原配夫人毛福梅和民国第一位总理熊希龄夫人毛彦文的祖籍地。\n\n清漾毛氏文化村，距市区约20公里，位于江郎山麓，全村数百户人家皆姓毛，自江南毛氏第八代先祖清漾公毛元琼迁到这里已有1500年的历史。历史上曾出了8个尚书，83个进士，积淀了“历史悠久、人才辈出、耕读传家、贵而不富”的历史文化底蕴。\n清漾村是个贵而不富的“进士村”，毛泽东韶山家谱中所记“毛氏祖居三衢”中的“三衢”，便是指这个历史上共出过6个尚书，80个进士的清漾村。清漾村还存有“清漾祖宅”一匾，乃胡适亲笔题写，清漾村已被列为江山市文保单位。"}}, {"title": "九龙湖", "address": "衢州市衢江区黄坛口乡", "image": "", "rank": 19, "time": 3.0, "location": {"lat": 28.779566832740773, "lng": 118.93578061233671}, "feature": {"sight_features": "", "sight_content": ""}}, {"title": "衢州博物馆", "address": "衢州市柯城区新桥街98号", "image": "", "rank": 20, "time": 0.75, "location": {"lat": 28.965698159252014, "lng": 118.88421224190886}, "feature": {"sight_features": "", "sight_content": ""}}, {"title": "浮盖山峡谷漂流", "address": "衢州市江山市廿八都古镇", "image": "", "rank": 21, "time": 2, "location": {"lat": 28.301099352169672, "lng": 118.48756122207321}, "feature": {"sight_features": "特色1 一生情痴处，寻梦廿八都", "sight_content": "浮盖山峡谷漂流位于浙江首个世界自然遗产——江郎山以南30公里浮盖山峡谷内，紧邻廿八都古镇景区和浮盖山景区，沿线山多地少，植被茂盛，溪流弯道众多，落差适中，水流缓急分明，峡谷特征明显，是理想的皮筏漂流地。\n有激情漂与逍遥漂两种漂流方式供游客选择。激情漂：该段全长约2公里，水量湍急，溪水曲折、左冲右突、跌宕起伏、奇石幽源遍及全程，是集刺激性、挑战性、安全性为一体的水上运动。\n逍遥漂：全长约3公里，小小皮筏向下游、巍巍青山两岸走，全程河滩开阔，游鱼可数，青山对峙，风景迷人，顺溪而下，如同冲浪、有惊无险，享受神仙般的逍遥漂流。\n\n从漂流码头登上皮筏，在清澈底的河面上戏水飘荡，穿溪越滩，激情飞扬，放飞梦想。近看碧水浅滩、游鱼可数，旭日东升彩石纷呈 ，远眺竹林叠翠、山花簇拥、桃园隐映与廿八都古村落构成一幅又一幅美仑美奂的风景山水长卷，昭示着历史的深逐，生态的原始，民风的古朴。"}}, {"title": "衢州古城墙", "address": "浙江省衢州市 ‎", "image": "", "rank": 22, "time": 2.0, "location": {"lat": 28.975545802265025, "lng": 118.86659674035565}, "feature": {"sight_features": "", "sight_content": ""}}, {"title": "太真洞", "address": "衡州市衡江区太真乡上曹村", "image": "", "rank": 23, "time": null, "location": {"lat": 29.203639265115104, "lng": 118.81994188906563}, "feature": {"sight_features": "", "sight_content": ""}}, {"title": "七里香溪漂流", "address": "衢州柯城区七里乡七里排村", "image": "", "rank": 24, "time": 2, "location": {"lat": 29.108306546673575, "lng": 118.7768759290835}, "feature": {"sight_features": "", "sight_content": ""}}, {"title": "莲花景区", "address": "衢州市开化县钱江源国家森林公园莲花景区", "image": "", "rank": 25, "time": 1.5, "location": {"lat": 29.399964064017205, "lng": 118.22182266443573}, "feature": {"sight_features": "", "sight_content": ""}}, {"title": "衢州", "address": "浙江省衢州", "image": "", "rank": 26, "time": 2.5, "location": {"lat": 28.975545802265025, "lng": 118.86659674035565}, "feature": {"sight_features": "", "sight_content": ""}}, {"title": "紫微山国家森林公园", "address": "衢州市衢江区紫微山国家级森林公园", "image": "", "rank": 27, "time": 3.0, "location": {"lat": 28.76587785223174, "lng": 118.98791918757665}, "feature": {"sight_features": "", "sight_content": ""}}, {"title": "枫楼景区", "address": "衢州开化县钱江源国家森林公园枫楼景区", "image": "", "rank": 28, "time": null, "location": {"lat": 29.399964064017205, "lng": 118.22182266443573}, "feature": {"sight_features": "", "sight_content": ""}}, {"title": "古田山自然保护区", "address": "衢州市开化县苏庄镇古田山", "image": "", "rank": 29, "time": 4.0, "location": {"lat": 29.245986282791943, "lng": 118.1219477912586}, "feature": {"sight_features": "", "sight_content": ""}}, {"title": "荆溪", "address": "衢州市柯城区石室乡荆溪村", "image": "", "rank": 30, "time": 2, "location": {"lat": 28.876620366119422, "lng": 118.93803892364227}, "feature": {"sight_features": "", "sight_content": ""}}, {"title": "江南小布达拉宫", "address": "衢州市开化县", "image": "", "rank": 31, "time": 2, "location": {"lat": 29.143187521186665, "lng": 118.42145932131277}, "feature": {"sight_features": "", "sight_content": ""}}, {"title": "西山健身公园", "address": "衢州市江山市环城西路", "image": "", "rank": 32, "time": 2.0, "location": {"lat": 28.74187834625734, "lng": 118.62917922850504}, "feature": {"sight_features": "", "sight_content": ""}}, {"title": "九龙湖太阳岛", "address": "衢州市衢江区黄坛口乡龙湖区太阳岛", "image": "", "rank": 33, "time": 2, "location": {"lat": 28.779566832740773, "lng": 118.93578061233671}, "feature": {"sight_features": "", "sight_content": ""}}, {"title": "中国根雕佛国", "address": "衢州市开化县灵山路", "image": "", "rank": 34, "time": 0.65, "location": {"lat": 29.138366542916987, "lng": 118.4013409609485}, "feature": {"sight_features": "", "sight_content": ""}}, {"title": "醉根天工博物馆", "address": "衢州市开化县灵山路", "image": "", "rank": 35, "time": 0.75, "location": {"lat": 29.138366542916987, "lng": 118.4013409609485}, "feature": {"sight_features": "", "sight_content": ""}}, {"title": "开明禅寺", "address": "衢州市江山市江郎山风景区内", "image": "", "rank": 36, "time": 1.5, "location": {"lat": 28.53987515124939, "lng": 118.57399013351696}, "feature": {"sight_features": "", "sight_content": ""}}, {"title": "药王山漂流", "address": "衢州市区以南28公里", "image": "", "rank": 37, "time": 2, "location": {"lat": 28.975545802265025, "lng": 118.86659674035565}, "feature": {"sight_features": "特色1 药王山漂流由“狂野激情漂”和“逍遥柔情漂”组成。<br>药王山漂流位于国家历史文化名城——衢州。<br>药王山漂流，是回归大自然生态旅游的最佳选择，是一次令人难忘的狂野激情与逍遥柔情相结合的浪漫之旅。", "sight_content": "药王山漂流由“狂野激情漂”和“逍遥柔情漂”组成。狂野激情漂——地处高山峡谷, 河床百米落差, 巨石横卧, 溪流湍急, 竹海密林之下，瀑布飞舟，途经“五大激情”，游客在有惊无险的激烈刺激中使您成为真正的勇士，令您尽享大自然狂野感受!\n逍遥柔情漂——溪流时而湍急, 时而平缓, 近看碧水浅滩, 彩石缤纷, 远眺群山翠竹, 田园风光, 逍遥自在, 犹如身在优美的山水画中游, 尽情享受漂流的无穷乐趣，药王山漂流，是回归大自然生态旅游的最佳选择，是一次令人难忘的狂野激情与逍遥柔情相结合的浪漫之旅。"}}, {"title": "乌石山风景区", "address": "衢州市柯城区华墅乡", "image": "", "rank": 38, "time": 3.0, "location": {"lat": 28.874890569776543, "lng": 118.7514436712225}, "feature": {"sight_features": "", "sight_content": ""}}, {"title": "钱江源大峡谷", "address": "衢州市开化县钱江源国家森林公园大峡谷", "image": "", "rank": 39, "time": 1.25, "location": {"lat": 29.399964064017205, "lng": 118.22182266443573}, "feature": {"sight_features": "", "sight_content": ""}}, {"title": "农兴农场采摘", "address": "衢州市衢江区莲花镇山丰村", "image": "", "rank": 40, "time": 2, "location": {"lat": 29.094465078180207, "lng": 119.03457268422196}, "feature": {"sight_features": "", "sight_content": ""}}, {"title": "六春湖漂流", "address": "衢州市龙游县庙下乡严村", "image": "", "rank": 41, "time": 5.0, "location": {"lat": 28.805787906497937, "lng": 119.11829071714607}, "feature": {"sight_features": "", "sight_content": ""}}, {"title": "360度全立体穿透极限馆", "address": "衢州常山县辉埠镇路里坑村三横石林景区内", "image": "", "rank": 42, "time": 2, "location": {"lat": 29.00656844067995, "lng": 118.51690140174892}, "feature": {"sight_features": "", "sight_content": ""}}, {"title": "青梅园", "address": "衢州市开化县灵山路", "image": "", "rank": 43, "time": 0.4, "location": {"lat": 29.138366542916987, "lng": 118.4013409609485}, "feature": {"sight_features": "", "sight_content": ""}}, {"title": "须江公园", "address": "衢州市江山市江滨路40号", "image": "", "rank": 44, "time": 2.0, "location": {"lat": 28.74197514639341, "lng": 118.64386638075774}, "feature": {"sight_features": "", "sight_content": ""}}, {"title": "衢州小南海", "address": "衢州市龙游县城北3公里衢江之阳凤凰山", "image": "", "rank": 45, "time": 2.5, "location": {"lat": 28.62438892818376, "lng": 118.79640764384823}, "feature": {"sight_features": "", "sight_content": ""}}, {"title": "水月湾度假村", "address": "衢州市衢江区黄坛口乡抗口村外湾", "image": "", "rank": 46, "time": 2, "location": {"lat": 28.7914764267232, "lng": 118.87927471465794}, "feature": {"sight_features": "", "sight_content": ""}}, {"title": "龙游大峡谷漂流", "address": "衢州市龙游市罗家乡荷村", "image": "", "rank": 47, "time": 2.0, "location": {"lat": 28.9390727914778, "lng": 119.26024529799133}, "feature": {"sight_features": "特色1 龙游峡谷漂流全长4.5公里，上下落差159米。<br>时而游龙逐浪，时而平缓惬意，时而万马奔腾，时而跌宕起伏。<br>沿途欣赏着飞鸟穿梭、游鱼戏水、四季常绿、山峦叠嶂的奇景。", "sight_content": "龙游峡谷漂流位于衢州市龙游县罗家乡桃园溪，顺山势而成，隐于崇山峻岭深处。漂流全长4.5公 里，上下落差159米，两岸山高林密，在峡谷中穿行，时而游龙逐浪，时而平缓惬意，时而万马奔腾 ，时而跌宕起伏。\n沿途欣赏着飞鸟穿梭、游鱼戏水、四季常绿、山峦叠嶂的奇景，感受从高山玉带奔腾而下的刺激 ，穿越龙潭峡、游龙峡、将军峡、惊涛峡、飞瀑峡、太阳谷、月亮谷、情人谷等幻境景点，尽情感受 旋转、飞跃、驰聘、尖叫、血脉喷张的激情旅程，让身心得到最好的放松与享受。\n龙游峡谷漂流景区距龙游县城13公里，距龙游石窟18公里，距民居宛10公里，距衢州38公里，距 省道（S50）4公里，路面平坦宽畅，交通便捷，是情侣约会、朋友小聚，家人共享、野外拓展的最佳 去处。"}}, {"title": "钟楼", "address": "衢州市柯城区钟楼底", "image": "", "rank": 48, "time": 1.5, "location": {"lat": 28.96788775061615, "lng": 118.8796728885751}, "feature": {"sight_features": "", "sight_content": ""}}, {"title": "醉根谭", "address": "衢州市开化县灵山路", "image": "", "rank": 49, "time": 0.4, "location": {"lat": 29.138366542916987, "lng": 118.4013409609485}, "feature": {"sight_features": "", "sight_content": ""}}, {"title": "飞鸿滑草场", "address": "衢州市绿色产业集聚区野鸭垄路5号", "image": "", "rank": 50, "time": 2, "location": {"lat": 28.975545802265025, "lng": 118.86659674035565}, "feature": {"sight_features": "特色1 全草地覆盖，无任何硬化道路。 特色2 体验\"草地和体育\"，感受草地体育实景剧场。", "sight_content": "衢州飞鸿滑草场是衢州飞鸿现代农业开发有限公司投资建设，项目总占地面积600亩，总投资1.6亿，是目前全国占地面积较大，滑草项目较全的草上运动中心，能同时接纳游客3万人次。2016年1月1日开始接待游客，至2017年5月接待游客近50万人次，日最大接待游客量为3万人。滑草场位于衢州市绿色产业集聚区野鸭垄路5号，距离市区、东高速都只有10几公里，交通便利。\n还有团队拓展训练、户外烧烤、露营等活动项目，打破单一旅游形态，以\"草地和体育\"为主题，清新自然文化为核心，是个集草地生态、表演、趣味、互动等为一体的草地体育实景剧场，是游客市民周末最佳聚会的好去处。"}}, {"title": "中国儒学馆", "address": "衢州市柯城区新桥街79号", "image": "", "rank": 51, "time": 2, "location": {"lat": 28.96535166574545, "lng": 118.88454345748079}, "feature": {"sight_features": "", "sight_content": ""}}, {"title": "饭甑山旅游景区", "address": "衢州市衢江区全旺镇虹峰村", "image": "", "rank": 52, "time": 2, "location": {"lat": 28.895851362013392, "lng": 119.07168896469473}, "feature": {"sight_features": "", "sight_content": ""}}, {"title": "开化县", "address": "浙江省衢州市开化县", "image": "", "rank": 53, "time": 2, "location": {"lat": 29.143187521186665, "lng": 118.42145932131277}, "feature": {"sight_features": "", "sight_content": ""}}, {"title": "滑鼠丛林飞越探险乐园", "address": "衢州市柯城区九华乡新宅村", "image": "", "rank": 54, "time": 2, "location": {"lat": 29.090101889374463, "lng": 118.85397309018074}, "feature": {"sight_features": "特色1 原生态环境，通过探险挑战自我", "sight_content": "大荫山森林穿越探险乐园中的“飞越丛林”是一项在树上进行的探险项目，集冒险、运动、娱乐、挑战于一体，它是用各种各样的障碍环节将树连成一条线路，玩家需要通过悬空桥梁、网道、步道、木桶、泰山秋千、飞狐索道和其他趣味环节等方式进行树木间的探险，通过爬、滑、游、跨、跳、飞等动作越过所有障碍，到达终点。\n大荫山森林探险公园规模最大、项目种类最多、双溜索最长的飞越丛林探险乐园，它必将成为广大游客特别是青少年培养团队精神、增强拓展能力、磨练坚强毅力、超越自我心理的最佳平台。\n柯城区将以大荫山探险乐园为核心，进一步拓展森林体育空间，挖掘森林体育项目功能、发展森林体育产业、完善基础设施配套，努力创建国家级森探特色体育小镇，为衢州市建设浙江大花园添色增彩。"}}, {"title": "台回山", "address": "衢州市开化县", "image": "", "rank": 55, "time": 2, "location": {"lat": 29.143187521186665, "lng": 118.42145932131277}, "feature": {"sight_features": "", "sight_content": ""}}, {"title": "三叠岩", "address": "衢州市龙游县湖镇镇南5公里的龙丘山（九峰山）脉", "image": "", "rank": 56, "time": 1.0, "location": {"lat": 29.029890819752627, "lng": 119.31835278456332}, "feature": {"sight_features": "", "sight_content": ""}}, {"title": "石鼓香溪", "address": "衢州闽浙赣三省交界处的仙霞古道", "image": "", "rank": 57, "time": 2, "location": {"lat": 28.975545802265025, "lng": 118.86659674035565}, "feature": {"sight_features": "", "sight_content": ""}}, {"title": "和睦彩陶文化村景区", "address": "衢州市江山市清湖镇和睦村", "image": "", "rank": 58, "time": 2, "location": {"lat": 28.63175546235457, "lng": 118.58252729760623}, "feature": {"sight_features": "", "sight_content": ""}}, {"title": "仙霞古道", "address": "浙江省衢州市", "image": "", "rank": 59, "time": 2, "location": {"lat": 28.975545802265025, "lng": 118.86659674035565}, "feature": {"sight_features": "", "sight_content": ""}}, {"title": "衢州衆园", "address": "衢州市柯城区九华乡沐二村", "image": "", "rank": 60, "time": 2.5, "location": {"lat": 29.05191512787027, "lng": 118.85633110351654}, "feature": {"sight_features": "", "sight_content": ""}}]}