{"cityName": "饶平", "days": 2, "cityImage": "", "spots": [{"title": "潮州绿岛旅游山庄", "address": "潮州市饶平区钱东镇万山红绿岛山庄", "image": "", "rank": 1, "time": 0.5, "location": {"lat": 23.703234874623803, "lng": 116.87773603244104}, "feature": {"sight_features": "特色1 山环水绕，风景如画，犹如一颗镶嵌在粤东大地上的绿色明珠。", "sight_content": "绿岛山庄占地面积近万亩，林地覆盖率达95%，万树，千竹，百果，湖泊湿地山环水绕，一处生机怏然的原生态景区，犹如一颗镶嵌在粤东大地上的绿色明珠。现已建成绿岛休闲度假区、青岚地质公园、明清古寨乡村旅游区，是一处集地质科普、文物民俗、休闲度假、游乐购物于一体的大型综合性旅游胜地，假日休闲，唯有绿岛，为您开启一段前所未有的五星级心灵度假旅程，令您心驰神往！\n\n潮州绿岛旅游山庄创建于2002年，现已评为国家AAAA级旅游景区、潮州新八景饶平绿岛旅游山庄山环水绕，风景如画，犹如一颗镶嵌在粤东大地上的绿色明珠。\n\n怪石与古树相映成趣，山林与湖泊完美结合，新绿嫣红的野花漫山盛开，碧波荡漾的湖水灵光闪闪，一副生态自然的迷人景画，置身于四季如春的绿岛山庄，使您犹如走进传说中的世外桃源。"}}, {"title": "青岚国家地质公园", "address": "潮州市饶平县樟溪镇青岚地质公园", "image": "", "rank": 2, "time": null, "location": {"lat": 23.735722058999766, "lng": 116.84379378872394}, "feature": {"sight_features": "特色1 国家级地质公园 特色2 《羞羞的铁拳》外景地，探秘怪臼谷 特色3 天然岩石演绎光怪陆离", "sight_content": "潮汕超人气网红玻璃吊桥\n广东首座波浪式9D玻璃桥\n就在绿岛•青岚国家地质公园！\n2019年起，等你来挑战！\n饶平青岚地质公园是国家级地质公园，总面积17.16平方公里。青岚峡谷晶洞花岗岩地貌、火山岩地貌、河床侵蚀地貌的完美结合，构成了以“怪臼岩洞，亿年石境”古地质遗迹为独特景源，以海龙行宫传说为文化底蕴，具有极高观赏价值和地学研究与科普教育价值的游览胜地。亿万年的地质演变，大自然的鬼斧神工，成就了仙湖秀景、石臼怪洞、奇石万象、石峰险岩的奇特景观，凝萃为青岚“三险四怪十二奇”的石境大观，他处难觅，堪称一绝。\n饶平青岚地质公园，一个积淀亿万年而亘久的自然胜地，来此探寻天地奇观，唤起您对大自然的持久赞叹与永恒仰慕。人们能够成为画中的角色并身临其境般感受到自己就是画里的一份子，并与画进行交流，让观众感受到近乎极致的参与感与互动性！这是一个“可以玩”“可以触摸”的画展，千万不要局限于已有表现形式，它需要您开动脑筋、积极发挥想象力，创造出更有创意的作品。"}}, {"title": "镇风塔", "address": "潮州市饶平县柘林镇", "image": "", "rank": 3, "time": 1.0, "location": {"lat": 23.571578164422856, "lng": 117.08176589912505}, "feature": {"sight_features": "", "sight_content": ""}}, {"title": "大澳村文化公园", "address": "潮州市饶平县黄冈镇大澳村", "image": "", "rank": 4, "time": 1.5, "location": {"lat": 23.65089384527366, "lng": 116.99746142002522}, "feature": {"sight_features": "", "sight_content": ""}}, {"title": "海山石龟", "address": "潮州市饶平县海山镇隆东", "image": "", "rank": 5, "time": 0.15000000000000002, "location": {"lat": 23.53411605578129, "lng": 116.95742783491819}, "feature": {"sight_features": "", "sight_content": ""}}, {"title": "汛洲岛", "address": "潮州市饶平县海山镇汛洲岛", "image": "", "rank": 6, "time": 2, "location": {"lat": 23.579757202473814, "lng": 117.04170515195433}, "feature": {"sight_features": "", "sight_content": ""}}, {"title": "月亮湾沙滩浴场", "address": "潮州市饶平县大埕镇", "image": "", "rank": 7, "time": 2, "location": {"lat": 23.624029743676058, "lng": 117.16760434537423}, "feature": {"sight_features": "", "sight_content": ""}}, {"title": "大城所古城", "address": "潮州市饶平县所城镇", "image": "", "rank": 8, "time": 1.75, "location": {"lat": 23.612561843708963, "lng": 117.1084960377695}, "feature": {"sight_features": "", "sight_content": ""}}, {"title": "弘法寺", "address": "潮州市饶平县新丰镇溁西乡五全村三滴水山", "image": "", "rank": 9, "time": 1.5, "location": {"lat": 24.098016189360244, "lng": 116.81967242809321}, "feature": {"sight_features": "", "sight_content": ""}}, {"title": "柏峻广场", "address": "柏峻村康民路广场路1号", "image": "", "rank": 10, "time": 2, "location": {"lat": 26.5904538613842, "lng": 104.85859669026667}, "feature": {"sight_features": "", "sight_content": ""}}, {"title": "霞东公园", "address": "广东省潮州市饶平县霞东路", "image": "", "rank": 11, "time": 2, "location": {"lat": 23.670347111195284, "lng": 117.01044917588082}, "feature": {"sight_features": "", "sight_content": ""}}, {"title": "锡安水乡度假村", "address": "黄冈镇国道324线大澳路段(锡安游泳池)", "image": "", "rank": 12, "time": 2, "location": {"lat": 23.649329558211896, "lng": 116.99795491403833}, "feature": {"sight_features": "", "sight_content": ""}}, {"title": "力诚艺术馆", "address": "黄冈大道李厝路段力诚国际酒店7-8楼", "image": "", "rank": 13, "time": 2, "location": {"lat": 39.58107696196052, "lng": 118.08716042164461}, "feature": {"sight_features": "", "sight_content": ""}}, {"title": "绿庄农家乐", "address": "环城北路", "image": "", "rank": 14, "time": 2, "location": {"lat": 29.27272097970845, "lng": 120.2518720606648}, "feature": {"sight_features": "", "sight_content": ""}}, {"title": "乐和温泉度假村", "address": "新丰镇乐和温泉度假村", "image": "", "rank": 15, "time": 2, "location": {"lat": 30.901069239042627, "lng": 116.35767214403897}, "feature": {"sight_features": "", "sight_content": ""}}, {"title": "水波楼旅游风景区", "address": "潮州市饶平县永善村", "image": "", "rank": 16, "time": 1.0, "location": {"lat": 24.226195394847952, "lng": 116.91380299236661}, "feature": {"sight_features": "", "sight_content": ""}}, {"title": "琴风书院", "address": "广东省饶平县三饶镇琴峰山东南麓 515735", "image": "", "rank": 17, "time": 2, "location": {"lat": 23.987403511572627, "lng": 116.83885045572453}, "feature": {"sight_features": "", "sight_content": ""}}, {"title": "饶平榕洽生态园", "address": "广东省饶平县万山红农场 515700", "image": "", "rank": 18, "time": 2, "location": {"lat": 23.709189180877022, "lng": 116.8680364223951}, "feature": {"sight_features": "", "sight_content": ""}}, {"title": "饶平石部山基督教堂", "address": "广东省潮州市饶平县S222", "image": "", "rank": 19, "time": 2, "location": {"lat": 23.670347111195284, "lng": 117.01044917588082}, "feature": {"sight_features": "", "sight_content": ""}}, {"title": "饶平弘法寺牌坊", "address": "金丰路西220米", "image": "", "rank": 20, "time": 2, "location": {"lat": 31.617778195927087, "lng": 120.29482365713007}, "feature": {"sight_features": "", "sight_content": ""}}, {"title": "瑞光台", "address": "广东省饶平县黄冈镇 515700", "image": "", "rank": 21, "time": 2, "location": {"lat": 23.67604767853073, "lng": 116.99327222707745}, "feature": {"sight_features": "", "sight_content": ""}}, {"title": "潮州石壁山", "address": "广东省饶平县饶平县 515641", "image": "", "rank": 22, "time": 0.5, "location": {"lat": 23.670347111195284, "lng": 117.01044917588082}, "feature": {"sight_features": "", "sight_content": ""}}, {"title": "海山岩田", "address": "广东省饶平县海山镇黄隆镇南端 515700", "image": "", "rank": 23, "time": 2, "location": {"lat": 23.542794981452147, "lng": 116.98897015844918}, "feature": {"sight_features": "", "sight_content": ""}}, {"title": "祺宝山庄", "address": "生态园餐厅附近", "image": "", "rank": 24, "time": 2, "location": {"lat": 40.165487488873836, "lng": 116.36823453431009}, "feature": {"sight_features": "", "sight_content": ""}}, {"title": "饶平县钱东基督教会", "address": "小东村", "image": "", "rank": 25, "time": 2, "location": {"lat": 38.70799093562386, "lng": 115.56069736316368}, "feature": {"sight_features": "", "sight_content": ""}}, {"title": "饶平县基督教龙眼城福音堂", "address": "广东省潮州市饶平县X087(黄冈大道)", "image": "", "rank": 26, "time": 2, "location": {"lat": 23.679565331149597, "lng": 116.99331447169067}, "feature": {"sight_features": "", "sight_content": ""}}, {"title": "饶平县高堂基督教会", "address": "广东省潮州市饶平县高堂大道", "image": "", "rank": 27, "time": 2, "location": {"lat": 23.699258654218216, "lng": 116.94250551796102}, "feature": {"sight_features": "", "sight_content": ""}}, {"title": "达南基督教会", "address": "校道路西50米", "image": "", "rank": 28, "time": 2, "location": {"lat": 23.549268217868658, "lng": 116.99227033975606}, "feature": {"sight_features": "", "sight_content": ""}}, {"title": "港墘公园", "address": "钱东镇", "image": "", "rank": 29, "time": 2, "location": {"lat": 23.674245315750223, "lng": 116.92613367636902}, "feature": {"sight_features": "", "sight_content": ""}}, {"title": "子祥公祠", "address": "广东省潮州市饶平县X085", "image": "", "rank": 30, "time": 2, "location": {"lat": 23.670347111195284, "lng": 117.01044917588082}, "feature": {"sight_features": "", "sight_content": ""}}, {"title": "黄岗礼拜堂", "address": "广东省潮州市饶平县菜场街161号", "image": "", "rank": 31, "time": 2, "location": {"lat": 23.67979317246102, "lng": 117.01161580524627}, "feature": {"sight_features": "", "sight_content": ""}}, {"title": "上浮山基督教会", "address": "广东省潮州市饶平县钱东镇高堂大道上浮山小学", "image": "", "rank": 32, "time": 2, "location": {"lat": 23.689004696294255, "lng": 116.9417118641449}, "feature": {"sight_features": "", "sight_content": ""}}, {"title": "沈厝村文化公园", "address": "广东省潮州市饶平县向阳路", "image": "", "rank": 33, "time": 2, "location": {"lat": 23.68115101282902, "lng": 116.96614576861842}, "feature": {"sight_features": "", "sight_content": ""}}, {"title": "莲法寺", "address": "广东省潮州市饶平县G15(沈海高速)", "image": "", "rank": 34, "time": 2, "location": {"lat": 23.670347111195284, "lng": 117.01044917588082}, "feature": {"sight_features": "", "sight_content": ""}}, {"title": "上林公园", "address": "广东省潮州市饶平县黄冈镇上林环城北路", "image": "", "rank": 35, "time": 3.0, "location": {"lat": 23.672020076629686, "lng": 117.01202110452272}, "feature": {"sight_features": "", "sight_content": ""}}, {"title": "太公园", "address": "沿河南路西50米", "image": "", "rank": 36, "time": 1.0, "location": {"lat": 31.084843721100274, "lng": 118.21000585606733}, "feature": {"sight_features": "", "sight_content": ""}}, {"title": "宝云寺", "address": "潮州市饶平县", "image": "", "rank": 37, "time": 1.0, "location": {"lat": 23.670347111195284, "lng": 117.01044917588082}, "feature": {"sight_features": "", "sight_content": ""}}, {"title": "东山基督教会", "address": "广东省潮州市饶平县东山镇西山学校", "image": "", "rank": 38, "time": 1.5, "location": {"lat": 23.912689197425355, "lng": 116.93785371115035}, "feature": {"sight_features": "", "sight_content": ""}}, {"title": "基督教饶洋堂", "address": "新粤路与415乡道交叉口西南150米", "image": "", "rank": 39, "time": 2, "location": {"lat": 23.36958455956253, "lng": 116.30892153047009}, "feature": {"sight_features": "", "sight_content": ""}}, {"title": "西竺寺", "address": "梅州市大埔县", "image": "", "rank": 40, "time": 2, "location": {"lat": 24.353459468581786, "lng": 116.70155892128847}, "feature": {"sight_features": "", "sight_content": ""}}, {"title": "天背基督教堂", "address": "上饶大道50号", "image": "", "rank": 41, "time": 2, "location": {"lat": 28.454647761240246, "lng": 117.94733735635562}, "feature": {"sight_features": "", "sight_content": ""}}, {"title": "宫王爷庙", "address": "334省道附近", "image": "", "rank": 42, "time": 2, "location": {"lat": 38.85002562691257, "lng": 115.58014640777708}, "feature": {"sight_features": "", "sight_content": ""}}, {"title": "林姜古寺", "address": "广东省潮州市饶平县钱东镇灰寨村", "image": "", "rank": 43, "time": 2, "location": {"lat": 23.665653636418345, "lng": 116.90680224869904}, "feature": {"sight_features": "", "sight_content": ""}}, {"title": "西寨文化广场", "address": "广东省潮州市饶平县X081", "image": "", "rank": 44, "time": null, "location": {"lat": 23.670347111195284, "lng": 117.01044917588082}, "feature": {"sight_features": "", "sight_content": ""}}, {"title": "潮香园旅游度假村", "address": "广东省潮州市饶平县", "image": "", "rank": 45, "time": 2, "location": {"lat": 23.670347111195284, "lng": 117.01044917588082}, "feature": {"sight_features": "", "sight_content": ""}}, {"title": "宋帝顶度假村", "address": "饶平县钱东镇大北山三尖", "image": "", "rank": 46, "time": 2, "location": {"lat": 23.683287731569493, "lng": 116.89236066083366}, "feature": {"sight_features": "", "sight_content": ""}}, {"title": "埔坪中心广场", "address": "广东省潮州市饶平县S334", "image": "", "rank": 47, "time": 2, "location": {"lat": 23.670347111195284, "lng": 117.01044917588082}, "feature": {"sight_features": "", "sight_content": ""}}, {"title": "万山红南国生态度假村", "address": "绿岛山庄附近", "image": "", "rank": 48, "time": 2, "location": {"lat": 28.044454559439806, "lng": 120.66242255356698}, "feature": {"sight_features": "", "sight_content": ""}}, {"title": "陶背宫道", "address": "潮州市饶平县零零一县道", "image": "", "rank": 49, "time": 2, "location": {"lat": 23.670347111195284, "lng": 117.01044917588082}, "feature": {"sight_features": "", "sight_content": ""}}, {"title": "京龙山庄", "address": "221省道附近", "image": "", "rank": 50, "time": 2, "location": {"lat": 40.48669646295935, "lng": 116.04420851897628}, "feature": {"sight_features": "", "sight_content": ""}}, {"title": "基督教会三饶堂", "address": "中华路337-345号附近", "image": "", "rank": 51, "time": 2, "location": {"lat": 30.622126746873512, "lng": 120.56422492980948}, "feature": {"sight_features": "", "sight_content": ""}}, {"title": "钱东小公园(饶平县钱东镇纪律检...", "address": "溪墘路钱东小公园(饶平县钱东镇人大西)附近", "image": "", "rank": 52, "time": 2, "location": {"lat": 23.675440947606884, "lng": 116.92397653043334}, "feature": {"sight_features": "", "sight_content": ""}}, {"title": "孔庙", "address": "新韵楼附近", "image": "", "rank": 53, "time": null, "location": {"lat": 23.983154983473735, "lng": 116.82911857315484}, "feature": {"sight_features": "", "sight_content": ""}}, {"title": "古佛庵", "address": "拥军路附近", "image": "", "rank": 54, "time": 2, "location": {"lat": 46.65723169628984, "lng": 131.1789711959784}, "feature": {"sight_features": "", "sight_content": ""}}, {"title": "永鑫游乐场", "address": "广东省潮州市饶平县新丰镇334省道嘉景建材附近", "image": "", "rank": 55, "time": 2, "location": {"lat": 24.182488425801605, "lng": 116.9276882892739}, "feature": {"sight_features": "", "sight_content": ""}}, {"title": "贝儿健儿童成长乐园", "address": "黄冈镇河西南路2号", "image": "", "rank": 56, "time": 2, "location": {"lat": 23.674545114938827, "lng": 117.00123211219875}, "feature": {"sight_features": "", "sight_content": ""}}, {"title": "中山公园", "address": "潮州市饶平县汕汾中路30号", "image": "", "rank": 57, "time": 1.5, "location": {"lat": 23.680242518531823, "lng": 117.01713481463663}, "feature": {"sight_features": "", "sight_content": ""}}, {"title": "性文化展览室", "address": "中共大榕铺村支部委员会西南400米", "image": "", "rank": 58, "time": 2, "location": {"lat": 30.84963658276889, "lng": 108.36024161550395}, "feature": {"sight_features": "", "sight_content": ""}}, {"title": "张竞生生平陈列室", "address": "中共大榕铺村支部委员会西南420米", "image": "", "rank": 59, "time": 2, "location": {"lat": 30.849481565984906, "lng": 108.36024161550395}, "feature": {"sight_features": "", "sight_content": ""}}, {"title": "饶平县博物馆", "address": "丁未路", "image": "", "rank": 60, "time": 2, "location": {"lat": 23.67329730078504, "lng": 117.01248186338475}, "feature": {"sight_features": "", "sight_content": ""}}]}