{"cityName": "仁化", "days": 2, "cityImage": "", "spots": [{"title": "丹霞山", "address": "韶关市仁化县", "image": "", "rank": 1, "time": 3.5, "location": {"lat": 25.092287524427956, "lng": 113.75544293443409}, "feature": {"sight_features": "特色1 丹霞山有着悠久丰厚的历史文化。 特色2 被《中国国家地理杂志》评为中国最美的地方", "sight_content": "﻿\n中国红石公园、“丹霞地貌”命名地—丹霞山位于广东省韶关市东北郊，总面积292km2。是世界地质公园、世界自然遗产，国家级风景名胜区、国家级自然保护区，国家5A级旅游景区、中国生物圈网络成员。\n“色如渥丹，灿若明霞”。丹霞地貌是指有陡崖的陆相红层地貌。丹霞山以赤壁丹崖为特征，集“雄、险、奇、秀、幽”于一身，是发育典型、造型丰富、景色优美、研究充分的丹霞地貌集中分布区。全山有680多座山峰、石墙、岩堡、岩柱、穿洞、天生桥，最高峰巴寨海拔619.2米，是中国低海拔山岳景区的典型代表。\n“曲江山水闻来久”（唐•韩愈），“绝境方知在岭南”（唐•胡曾）。丹霞山古称曲红山、韶石山，因4000多年前舜帝南巡至此奏韶乐而得名，自古就是岭南名胜和宗教名山。现有别传禅寺、锦石岩寺、仙居岩道观以及数十处寺庙遗址，108座古山寨遍布全境。历代文人在这里留下了许多诗文、传说，存有300多处摩崖石刻、碑刻、壁画。\n丹霞山由丹霞、巴寨、韶石、飞花水、仙人迹五大园区和锦江、浈江两条风光带组成。目前，已开发长老峰游览区、阳元石游览区、翔龙湖游览区、锦江画廊游览区、竹筏漂流景区，是以自然观光为主，集科普、考察、攀岩、探险、休闲度假为一体的旅游景区。\n群峰如林、疏密相生、造型奇绝、别具一格、超凡脱俗。这里丹崖碧水、绝壑层峦、云雾飘渺，晨钟暮鼓、竹影婆裟、松涛阵阵，山间民居古树错落、阡陌纵横、炊烟袅袅，山水田园风光优美迷人。"}}, {"title": "翔龙湖", "address": "韶关市仁化县丹霞山景区内", "image": "", "rank": 2, "time": 1.5, "location": {"lat": 25.03790494920185, "lng": 113.7519243570917}, "feature": {"sight_features": "", "sight_content": ""}}, {"title": "丹霞山乐园食庄住宿", "address": "韶关市仁化县丹霞山青湖塘村(近丹霞大道)", "image": "", "rank": 3, "time": null, "location": {"lat": 25.05426928579558, "lng": 113.76995173351769}, "feature": {"sight_features": "", "sight_content": ""}}, {"title": "山地鸡农庄", "address": "106国道", "image": "", "rank": 4, "time": 2, "location": {"lat": 39.1725896711994, "lng": 116.39041588203045}, "feature": {"sight_features": "", "sight_content": ""}}, {"title": "灵溪河漂流", "address": "广东省韶关市曲江区", "image": "", "rank": 5, "time": null, "location": {"lat": 24.688407846380294, "lng": 113.61150106464875}, "feature": {"sight_features": "", "sight_content": ""}}, {"title": "必背峡谷漂流", "address": "广东省乳源瑶族自治县曲江县周田镇 512155", "image": "", "rank": 6, "time": 2, "location": {"lat": 24.782333322942147, "lng": 113.28243136491744}, "feature": {"sight_features": "", "sight_content": ""}}, {"title": "凡口国家矿山公园", "address": "广东省韶关市仁化县董塘镇", "image": "", "rank": 7, "time": 1.0, "location": {"lat": 25.08401298781489, "lng": 113.6387184675576}, "feature": {"sight_features": "", "sight_content": ""}}, {"title": "城南森林公园", "address": "广东省韶关市仁化县丹霞大道131号", "image": "", "rank": 8, "time": 2.5, "location": {"lat": 25.07857167120665, "lng": 113.76209531859364}, "feature": {"sight_features": "", "sight_content": ""}}, {"title": "爱情谷", "address": "广东省韶关市仁化县丹霞山风景区内", "image": "", "rank": 9, "time": 0.75, "location": {"lat": 25.053326175726003, "lng": 113.7650457592478}, "feature": {"sight_features": "", "sight_content": ""}}, {"title": "凡口影剧院", "address": "安岗村山背村14组", "image": "", "rank": 10, "time": 2, "location": {"lat": 28.46042285791764, "lng": 120.79694667911768}, "feature": {"sight_features": "", "sight_content": ""}}, {"title": "韶关必背峡谷漂流", "address": "韶关市仁化县浈江区丹霞山风景名胜区必背峡", "image": "", "rank": 11, "time": 2.5, "location": {"lat": 25.0400872328024, "lng": 113.74453613473234}, "feature": {"sight_features": "", "sight_content": ""}}, {"title": "妙善禅寺", "address": "广东省韶关市仁化县G106(仁桥东路)", "image": "", "rank": 12, "time": 2.0, "location": {"lat": 25.09491906586372, "lng": 113.76688763318688}, "feature": {"sight_features": "", "sight_content": ""}}, {"title": "老宿比丘泞源清公墓", "address": "韶关市仁化县浈江区丹霞山风景名胜区丹霞山旅游风景区内", "image": "", "rank": 13, "time": 2, "location": {"lat": 25.025128055628404, "lng": 113.73221466914109}, "feature": {"sight_features": "", "sight_content": ""}}, {"title": "龟裂填充岩楔", "address": "韶关市仁化县丹霞山长老峰景区内", "image": "", "rank": 14, "time": 2.0, "location": {"lat": 25.02913165243362, "lng": 113.74963224524471}, "feature": {"sight_features": "", "sight_content": ""}}, {"title": "丹霞天街", "address": "106国道附近", "image": "", "rank": 15, "time": 2, "location": {"lat": 39.1725896711994, "lng": 116.39041588203045}, "feature": {"sight_features": "", "sight_content": ""}}, {"title": "仁化县红山镇田螺塘旅游度假村", "address": "广东省韶关市仁化县红山镇X335(丹霞工夫茶叶专业合作社附近)", "image": "", "rank": 16, "time": 2, "location": {"lat": 25.248127574234793, "lng": 113.61663590380655}, "feature": {"sight_features": "", "sight_content": ""}}, {"title": "狮子岩庙遗址", "address": "韶关市仁化县丹霞山阳元石景区内", "image": "", "rank": 17, "time": 2, "location": {"lat": 25.048615600350793, "lng": 113.74836805001958}, "feature": {"sight_features": "", "sight_content": ""}}, {"title": "仁化巴寨沟度假村", "address": "车湾村巴寨景区售票处斜对面(近车湾小学)", "image": "", "rank": 18, "time": 2, "location": {"lat": 25.007726228993302, "lng": 113.6883392361828}, "feature": {"sight_features": "", "sight_content": ""}}, {"title": "钓鱼廊水族馆", "address": "广东省韶关市仁化县新城路2-8号", "image": "", "rank": 19, "time": 2, "location": {"lat": 25.09103432413131, "lng": 113.75500014168226}, "feature": {"sight_features": "", "sight_content": ""}}, {"title": "中国红石公园", "address": "霞兴南路18号", "image": "", "rank": 20, "time": 4.5, "location": {"lat": 25.050101929693263, "lng": 113.76977753231664}, "feature": {"sight_features": "", "sight_content": ""}}, {"title": "中国丹霞山世界地质公园", "address": "106国道", "image": "", "rank": 21, "time": 2, "location": {"lat": 39.1725896711994, "lng": 116.39041588203045}, "feature": {"sight_features": "", "sight_content": ""}}, {"title": "石塘影剧院", "address": "文昌路38附近", "image": "", "rank": 22, "time": 2, "location": {"lat": 32.062503437472515, "lng": 118.62732401483417}, "feature": {"sight_features": "", "sight_content": ""}}, {"title": "长江镇", "address": "广东省韶关市仁化县", "image": "", "rank": 23, "time": 2, "location": {"lat": 25.092287524427956, "lng": 113.75544293443409}, "feature": {"sight_features": "", "sight_content": ""}}, {"title": "儿童乐园", "address": "革新南路(五村小区东北)", "image": "", "rank": 24, "time": 2, "location": {"lat": 25.114739655394338, "lng": 113.63740442266482}, "feature": {"sight_features": "", "sight_content": ""}}, {"title": "丹霞地质陈列馆", "address": "霞兴北路", "image": "", "rank": 25, "time": 2, "location": {"lat": 25.052356794670473, "lng": 113.76549593696923}, "feature": {"sight_features": "", "sight_content": ""}}, {"title": "广东省仁化县图书馆", "address": "新城东路1号", "image": "", "rank": 26, "time": 2, "location": {"lat": 23.551588850150086, "lng": 113.59797479979264}, "feature": {"sight_features": "", "sight_content": ""}}, {"title": "霞宝艺术馆", "address": "新城横路", "image": "", "rank": 27, "time": null, "location": {"lat": 25.094296679586428, "lng": 113.75433732786024}, "feature": {"sight_features": "", "sight_content": ""}}, {"title": "梦幻3D全国巡回展仁化站", "address": "建设路38号雅苑中心城一楼J07铺", "image": "", "rank": 28, "time": 2, "location": {"lat": 25.09494065563718, "lng": 113.75125593065685}, "feature": {"sight_features": "", "sight_content": ""}}, {"title": "丹霞山博物馆", "address": "丹霞大道丹霞山风景区大门外", "image": "", "rank": 29, "time": 2.5, "location": {"lat": 25.053326175726003, "lng": 113.7650457592478}, "feature": {"sight_features": "", "sight_content": ""}}, {"title": "丹霞温泉假日山庄", "address": "丹霞山金霞小区霞兴南路18号", "image": "", "rank": 31, "time": 2, "location": {"lat": 25.050101929693263, "lng": 113.76977753231664}, "feature": {"sight_features": "", "sight_content": ""}}, {"title": "澄源乡下人家农庄", "address": "542乡道车湾小学西北侧", "image": "", "rank": 32, "time": 2, "location": {"lat": 33.23631854873526, "lng": 118.83845015016509}, "feature": {"sight_features": "", "sight_content": ""}}, {"title": "广东省仁化县文工团", "address": "锦江路1", "image": "", "rank": 33, "time": 2, "location": {"lat": 32.045898828068175, "lng": 118.73939962137909}, "feature": {"sight_features": "", "sight_content": ""}}, {"title": "别传寺", "address": "广东省仁化县仁化县城南4.5公里", "image": "", "rank": 34, "time": 2, "location": {"lat": 25.092287524427956, "lng": 113.75544293443409}, "feature": {"sight_features": "", "sight_content": ""}}, {"title": "丹霞步行街", "address": "广东省仁化县沿江路", "image": "", "rank": 35, "time": 2, "location": {"lat": 25.09347194982215, "lng": 113.76159427454732}, "feature": {"sight_features": "", "sight_content": ""}}, {"title": "龙皇石", "address": "韶关市-仁化县", "image": "", "rank": 36, "time": 2, "location": {"lat": 25.092287524427956, "lng": 113.75544293443409}, "feature": {"sight_features": "", "sight_content": ""}}, {"title": "仙居岩道观", "address": "广东省仁化县丹霞山 512399", "image": "", "rank": 37, "time": 3.5, "location": {"lat": 25.05426928579558, "lng": 113.76995173351769}, "feature": {"sight_features": "", "sight_content": ""}}, {"title": "五马寨生态园", "address": "韶关市仁化县大桥镇长坝茨菇塘村", "image": "", "rank": 38, "time": 2, "location": {"lat": 25.084640536266303, "lng": 113.75979753686687}, "feature": {"sight_features": "", "sight_content": ""}}]}