{"cityName": "仁怀", "days": 2, "cityImage": "", "spots": [{"title": "仁怀茅台镇", "address": "遵义市仁怀市茅台镇", "image": "", "rank": 1, "time": 3.0, "location": {"lat": 27.872014037388475, "lng": 106.38874245247837}, "feature": {"sight_features": "", "sight_content": ""}}, {"title": "茅台中国酒文化城", "address": "遵义市仁怀市河滨中路1号", "image": "", "rank": 2, "time": 2.0, "location": {"lat": 27.856499984152524, "lng": 106.37746465619436}, "feature": {"sight_features": "", "sight_content": ""}}, {"title": "茅台天酿", "address": "遵义市仁怀市茅台镇长征路31号", "image": "", "rank": 3, "time": 2, "location": {"lat": 27.859462930182048, "lng": 106.37564609214351}, "feature": {"sight_features": "", "sight_content": "茅台天酿景区坐落于茅台镇河西，依山傍水，面朝风景秀丽的赤水河，背靠美丽的西山公园。景区与茅台古镇及茅台酒厂厂区隔河相望，在景区内可以最直观的看到茅台镇及茅台酒厂厂区的风貌，并可感受茅台酒酿造所需的地理环境。"}}, {"title": "国酒门温泉", "address": "仁怀市盐津河风景区内", "image": "", "rank": 4, "time": 2, "location": {"lat": 27.78499301989527, "lng": 106.37795572118937}, "feature": {"sight_features": "", "sight_content": ""}}, {"title": "奇乐城堡", "address": "遵义市仁怀市盐津街道周林学校教职工楼负一楼", "image": "", "rank": 5, "time": 2, "location": {"lat": 27.78364542986294, "lng": 106.386059858006}, "feature": {"sight_features": "", "sight_content": ""}}, {"title": "茅台渡口", "address": "遵义市仁怀市长征路", "image": "", "rank": 6, "time": 2, "location": {"lat": 27.860363924002822, "lng": 106.37706681644686}, "feature": {"sight_features": "", "sight_content": ""}}, {"title": "红军四渡赤水纪念园", "address": "省遵义市仁怀市三渡路", "image": "", "rank": 7, "time": 2, "location": {"lat": 27.86539183125308, "lng": 106.38397514064698}, "feature": {"sight_features": "", "sight_content": ""}}, {"title": "仁怀博物馆", "address": "贵州省遵义市仁怀市208省道", "image": "", "rank": 8, "time": 2.5, "location": {"lat": 27.636142596185657, "lng": 106.29080289318284}, "feature": {"sight_features": "", "sight_content": ""}}, {"title": "楠竹林公园", "address": "遵义市仁怀市溢香路", "image": "", "rank": 9, "time": 2, "location": {"lat": 27.80125291468663, "lng": 106.41508216868391}, "feature": {"sight_features": "", "sight_content": ""}}, {"title": "杨柳湾街", "address": "遵义市仁怀市河滨路143号", "image": "", "rank": 10, "time": 2.0, "location": {"lat": 27.86108051994099, "lng": 106.38576815844431}, "feature": {"sight_features": "", "sight_content": ""}}, {"title": "茅台镇1915广场", "address": "遵义市仁怀市河滨路143号", "image": "", "rank": 11, "time": 1.0, "location": {"lat": 27.86108051994099, "lng": 106.38576815844431}, "feature": {"sight_features": "", "sight_content": ""}}, {"title": "彩虹桥", "address": "仁怀茅台镇长征路", "image": "", "rank": 12, "time": 1.0, "location": {"lat": 27.860363924002822, "lng": 106.37706681644686}, "feature": {"sight_features": "", "sight_content": ""}}, {"title": "天下第一瓶", "address": "仁怀市208省道", "image": "", "rank": 13, "time": 2, "location": {"lat": 27.636142596185657, "lng": 106.29080289318284}, "feature": {"sight_features": "", "sight_content": ""}}, {"title": "霞飞温泉", "address": "坛厂镇", "image": "", "rank": 14, "time": 2, "location": {"lat": 27.73612327073904, "lng": 106.41356266694818}, "feature": {"sight_features": "", "sight_content": ""}}, {"title": "盐津温泉", "address": "中枢镇盐津河大桥", "image": "", "rank": 15, "time": 0.7, "location": {"lat": 27.77913343848333, "lng": 106.3815869972461}, "feature": {"sight_features": "", "sight_content": ""}}, {"title": "霞霏温泉", "address": "贵州省仁怀市坛厂镇 564506", "image": "", "rank": 16, "time": 2, "location": {"lat": 27.73612327073904, "lng": 106.41356266694818}, "feature": {"sight_features": "", "sight_content": ""}}, {"title": "解放广场", "address": "遵义市仁怀市国酒中路233号", "image": "", "rank": 17, "time": 1.5, "location": {"lat": 27.815735514408072, "lng": 106.42353148478249}, "feature": {"sight_features": "", "sight_content": ""}}, {"title": "华生缘休闲山庄", "address": "390县道附近", "image": "", "rank": 18, "time": 2, "location": {"lat": 27.62623769090949, "lng": 106.49032256552997}, "feature": {"sight_features": "", "sight_content": ""}}, {"title": "神采八卦园", "address": "遵义市仁怀市坛厂镇枇杷村", "image": "", "rank": 19, "time": 2, "location": {"lat": 27.725532080154643, "lng": 106.3882926736046}, "feature": {"sight_features": "", "sight_content": ""}}, {"title": "白马宫", "address": "贵州省仁怀市白马乡 564507", "image": "", "rank": 20, "time": 2, "location": {"lat": 27.797752158542853, "lng": 106.4075265551776}, "feature": {"sight_features": "", "sight_content": ""}}, {"title": "盐津大峡谷生态旅游区", "address": "贵州省仁怀市市南 564500", "image": "", "rank": 21, "time": 2, "location": {"lat": 27.797752158542853, "lng": 106.4075265551776}, "feature": {"sight_features": "", "sight_content": ""}}, {"title": "鹿鸣公园", "address": "贵州省遵义市仁怀市S208", "image": "", "rank": 22, "time": 1.5, "location": {"lat": 27.797752158542853, "lng": 106.4075265551776}, "feature": {"sight_features": "", "sight_content": ""}}, {"title": "白果寺", "address": "遵义市仁怀市", "image": "", "rank": 23, "time": 2, "location": {"lat": 27.797752158542853, "lng": 106.4075265551776}, "feature": {"sight_features": "", "sight_content": ""}}, {"title": "妙音寺", "address": "东大街妙音路66号", "image": "", "rank": 24, "time": 2, "location": {"lat": 27.81906932703799, "lng": 106.43215962206733}, "feature": {"sight_features": "", "sight_content": ""}}, {"title": "熊出没儿童乐园", "address": "贵州省遵义市仁怀市国酒南路", "image": "", "rank": 25, "time": 2, "location": {"lat": 27.80042769002142, "lng": 106.41235465624113}, "feature": {"sight_features": "", "sight_content": ""}}, {"title": "麦幼优儿童乐园", "address": "国酒南路超一时代百货一楼（四转旁）", "image": "", "rank": 26, "time": 2, "location": {"lat": 27.797222610596556, "lng": 106.40950909297983}, "feature": {"sight_features": "", "sight_content": ""}}, {"title": "瀑布景观带", "address": "遵义市仁怀市G212", "image": "", "rank": 27, "time": 2, "location": {"lat": 27.797752158542853, "lng": 106.4075265551776}, "feature": {"sight_features": "", "sight_content": ""}}, {"title": "黔安洞藏老酒", "address": "茅台镇观音寺社区怀庄路019号亿星酒业旁", "image": "", "rank": 28, "time": null, "location": {"lat": 27.863493278850413, "lng": 106.38953205852987}, "feature": {"sight_features": "", "sight_content": ""}}, {"title": "音寺河", "address": "贵州省遵义市播州区", "image": "", "rank": 29, "time": 2, "location": {"lat": 27.542500878000244, "lng": 106.83650354793187}, "feature": {"sight_features": "", "sight_content": ""}}, {"title": "仁怀市档案馆", "address": "钟山西路23号", "image": "", "rank": 30, "time": 1.0, "location": {"lat": 24.529493712375036, "lng": 111.30863643784143}, "feature": {"sight_features": "", "sight_content": ""}}, {"title": "盐津温泉山谷", "address": "208省道", "image": "", "rank": 31, "time": 2, "location": {"lat": 39.82817275160928, "lng": 115.96548677323707}, "feature": {"sight_features": "", "sight_content": ""}}, {"title": "海洋馆水上乐园", "address": "超一时代广场一期二楼", "image": "", "rank": 32, "time": 2, "location": {"lat": 27.79673116065873, "lng": 106.40940991466172}, "feature": {"sight_features": "", "sight_content": ""}}, {"title": "酒都书画社", "address": "208省道", "image": "", "rank": 33, "time": 2, "location": {"lat": 39.82817275160928, "lng": 115.96548677323707}, "feature": {"sight_features": "", "sight_content": ""}}, {"title": "澜山草莓园农家乐", "address": "坛厂镇茅坛公路窑罐厂神采八卦园内", "image": "", "rank": 34, "time": 2, "location": {"lat": 27.72820571260431, "lng": 106.40475059262717}, "feature": {"sight_features": "", "sight_content": ""}}, {"title": "仁怀市图书馆", "address": "观景名苑北门对面", "image": "", "rank": 35, "time": 1.5, "location": {"lat": 39.93012667904479, "lng": 116.43434367992631}, "feature": {"sight_features": "", "sight_content": ""}}, {"title": "农家米汤菜", "address": "鲁班镇湾子", "image": "", "rank": 36, "time": 2, "location": {"lat": 27.742962640203526, "lng": 106.30064702980562}, "feature": {"sight_features": "", "sight_content": ""}}, {"title": "怀阳洞", "address": "贵州省仁怀市坛厂镇", "image": "", "rank": 37, "time": 2, "location": {"lat": 27.73612327073904, "lng": 106.41356266694818}, "feature": {"sight_features": "", "sight_content": ""}}, {"title": "酒都商业步行街", "address": "贵州省仁怀市振兴东路", "image": "", "rank": 38, "time": 2, "location": {"lat": 27.816178297415817, "lng": 106.42224115874838}, "feature": {"sight_features": "", "sight_content": ""}}, {"title": "新车站小吃夜食城", "address": "贵州省仁怀市茅台路", "image": "", "rank": 39, "time": 2, "location": {"lat": 27.81122640925773, "lng": 106.41475868886987}, "feature": {"sight_features": "", "sight_content": ""}}, {"title": "五马口", "address": "遵义市-仁怀市-二零八省道", "image": "", "rank": 40, "time": 2, "location": {"lat": 27.797752158542853, "lng": 106.4075265551776}, "feature": {"sight_features": "", "sight_content": ""}}, {"title": "高干子", "address": "遵义市-仁怀市", "image": "", "rank": 41, "time": 2, "location": {"lat": 27.797752158542853, "lng": 106.4075265551776}, "feature": {"sight_features": "", "sight_content": ""}}, {"title": "卢锋酒业", "address": "遵义市仁怀市盐津街道城南社区郑珍路仁怀市第一中学", "image": "", "rank": 42, "time": 1.5, "location": {"lat": 27.795803570810286, "lng": 106.40247806204368}, "feature": {"sight_features": "", "sight_content": ""}}, {"title": "卢锋酒业", "address": "仁怀市盐津街道城南社区郑珍路仁怀市第一中学", "image": "", "rank": 43, "time": 1.5, "location": {"lat": 27.795803570810286, "lng": 106.40247806204368}, "feature": {"sight_features": "", "sight_content": ""}}]}