{"cityName": "仁寿", "days": 2, "cityImage": "", "spots": [{"title": "仁寿黑龙滩", "address": "眉山市仁寿县黑龙滩镇长岛度假区", "image": "", "rank": 1, "time": 3.0, "location": {"lat": 30.075588401435404, "lng": 104.0529598242885}, "feature": {"sight_features": "", "sight_content": ""}}, {"title": "黑龙滩天堂岛水乐园", "address": "眉山市仁寿县黑龙滩长岛天堂洲际酒店水乐园大门口", "image": "", "rank": 2, "time": 2, "location": {"lat": 30.131532527508707, "lng": 104.04659409727513}, "feature": {"sight_features": "", "sight_content": ""}}, {"title": "金泉小龙虾", "address": "汪洋镇金泉村(汪洋镇金泉凹分路走涂家乡方向分路一路下行到张家沟开阔处便到了)", "image": "", "rank": 3, "time": 2, "location": {"lat": 29.760032545415566, "lng": 104.3244300887195}, "feature": {"sight_features": "", "sight_content": ""}}, {"title": "牛角寨大佛", "address": "仁寿县高家镇鹰头村牛角寨", "image": "", "rank": 4, "time": 2, "location": {"lat": 30.25984582195681, "lng": 104.20393707106189}, "feature": {"sight_features": "", "sight_content": ""}}, {"title": "钓鱼山庄", "address": "眉山仁寿县大坝西路中段", "image": "", "rank": 5, "time": 2, "location": {"lat": 30.041870248120723, "lng": 104.0561863535277}, "feature": {"sight_features": "", "sight_content": ""}}, {"title": "天府花海百香果采摘园", "address": "天府仁寿大道与三绕高速交接处(天府花海核心区内)", "image": "", "rank": 6, "time": 2, "location": {"lat": 31.24579489053041, "lng": 121.51375393727247}, "feature": {"sight_features": "", "sight_content": ""}}, {"title": "逸雅苑农家乐", "address": "213国道西50米", "image": "", "rank": 7, "time": 2, "location": {"lat": 24.055864840380938, "lng": 102.20924589882834}, "feature": {"sight_features": "", "sight_content": ""}}, {"title": "北斗镇图书室电子阅览室", "address": "大田街76号附近", "image": "", "rank": 8, "time": 2, "location": {"lat": 29.56511282836215, "lng": 103.7289625855982}, "feature": {"sight_features": "", "sight_content": ""}}, {"title": "深蓝", "address": "政协旁", "image": "", "rank": 9, "time": 2, "location": {"lat": 39.38224291358866, "lng": 117.08207580603573}, "feature": {"sight_features": "", "sight_content": ""}}, {"title": "仁寿曹家梨生态园", "address": "眉山市仁寿县曹家乡红艳路曹加初级中学东北250米", "image": "", "rank": 10, "time": 2, "location": {"lat": 29.853014851683824, "lng": 104.09284686364568}, "feature": {"sight_features": "", "sight_content": ""}}, {"title": "双石牌坊", "address": "四川省仁寿县中华乡牌坊村 620500", "image": "", "rank": 11, "time": 2, "location": {"lat": 29.835473586696285, "lng": 104.43672191916018}, "feature": {"sight_features": "", "sight_content": ""}}, {"title": "仁仪休闲山庄", "address": "四川省眉山市仁寿县文林镇天仁公园附近", "image": "", "rank": 12, "time": 2, "location": {"lat": 29.99655681887872, "lng": 104.13951657740033}, "feature": {"sight_features": "", "sight_content": ""}}, {"title": "风铃谷", "address": "龙桥乡江西村3组", "image": "", "rank": 13, "time": 2, "location": {"lat": 30.124712433699255, "lng": 104.4053581732733}, "feature": {"sight_features": "", "sight_content": ""}}, {"title": "奇妙儿童乐园", "address": "文宫镇街心花园", "image": "", "rank": 14, "time": 2, "location": {"lat": 39.40027869976182, "lng": 121.98215755001831}, "feature": {"sight_features": "", "sight_content": ""}}, {"title": "石家村度假村", "address": "四川省眉山市仁寿县文宫镇石家村5组", "image": "", "rank": 15, "time": 2, "location": {"lat": 30.18057076282917, "lng": 104.14665946245678}, "feature": {"sight_features": "", "sight_content": ""}}, {"title": "仁寿基督教堂", "address": "柏林弯路附近", "image": "", "rank": 16, "time": 1.0, "location": {"lat": 30.019230317266533, "lng": 104.16161942291129}, "feature": {"sight_features": "", "sight_content": ""}}, {"title": "根据地啤酒广场", "address": "南街与文林路一段交叉口东南50米", "image": "", "rank": 17, "time": null, "location": {"lat": 30.00136521093952, "lng": 104.14507600046993}, "feature": {"sight_features": "", "sight_content": ""}}, {"title": "肖家祠堂", "address": "眉山市仁寿县威远穿山洞--仁寿钟祥", "image": "", "rank": 18, "time": 2, "location": {"lat": 29.810359519453364, "lng": 104.48300222735776}, "feature": {"sight_features": "", "sight_content": ""}}, {"title": "三教堂", "address": "眉山市仁寿县仁寿富加--威远两河镇", "image": "", "rank": 19, "time": 2, "location": {"lat": 30.001663984300848, "lng": 104.14047690442844}, "feature": {"sight_features": "", "sight_content": ""}}, {"title": "儿童乐园", "address": "四川省眉山市仁寿县富加镇富兴大道仁寿富加客运站附近", "image": "", "rank": 20, "time": 2, "location": {"lat": 29.933085104221266, "lng": 104.303788933413}, "feature": {"sight_features": "", "sight_content": ""}}, {"title": "飞泉山", "address": "眉山市仁寿县", "image": "", "rank": 21, "time": 2, "location": {"lat": 30.001663984300848, "lng": 104.14047690442844}, "feature": {"sight_features": "", "sight_content": ""}}, {"title": "仁寿城北公园", "address": "龙滩大道与迎宾大道交汇处东南角", "image": "", "rank": 22, "time": 2, "location": {"lat": 30.021152691439266, "lng": 104.15951020157387}, "feature": {"sight_features": "", "sight_content": ""}}, {"title": "黑龙滩水库纪念碑", "address": "四川省眉山市仁寿县大坝西路2", "image": "", "rank": 23, "time": 2, "location": {"lat": 30.041143531158603, "lng": 104.0578741474114}, "feature": {"sight_features": "", "sight_content": ""}}, {"title": "蜀陵百花岛", "address": "四川省眉山市仁寿县青山沟", "image": "", "rank": 24, "time": 2, "location": {"lat": 30.043374919423176, "lng": 104.03519297352224}, "feature": {"sight_features": "", "sight_content": ""}}, {"title": "遨游太空", "address": "四川省眉山市仁寿县文林镇建设路一段泉倾天下附近", "image": "", "rank": 25, "time": 2, "location": {"lat": 30.007966996482537, "lng": 104.15003182261248}, "feature": {"sight_features": "", "sight_content": ""}}, {"title": "仁寿县中央水体公园", "address": "四川省眉山市仁寿县文林镇人民医院南150米", "image": "", "rank": 26, "time": 2, "location": {"lat": 30.02396503028924, "lng": 104.16459259136955}, "feature": {"sight_features": "", "sight_content": ""}}, {"title": "贝贝家儿童乐园", "address": "四川省眉山市仁寿县文林镇仁寿一中北校区北150米", "image": "", "rank": 27, "time": 2, "location": {"lat": 30.009937772384845, "lng": 104.17088491514475}, "feature": {"sight_features": "", "sight_content": ""}}, {"title": "街心广场", "address": "电信街与街心广场环岛交叉口西50米", "image": "", "rank": 28, "time": 2, "location": {"lat": 30.002329941792215, "lng": 104.15430272453251}, "feature": {"sight_features": "", "sight_content": ""}}, {"title": "宏远百货儿童乐园", "address": "文林镇光明路二段宏远百货5楼", "image": "", "rank": 29, "time": 2, "location": {"lat": 30.002831772222503, "lng": 104.15428511774452}, "feature": {"sight_features": "", "sight_content": ""}}, {"title": "首席音乐厅", "address": "四川省眉山市仁寿县文林镇建设路三段爱民巷8号(上城)1栋2层1号", "image": "", "rank": 30, "time": 2, "location": {"lat": 29.993244863454155, "lng": 104.14957081869878}, "feature": {"sight_features": "", "sight_content": ""}}, {"title": "添乐游乐园", "address": "书院路一段", "image": "", "rank": 31, "time": 2, "location": {"lat": 30.005219316263283, "lng": 104.15129582470234}, "feature": {"sight_features": "", "sight_content": ""}}, {"title": "仁寿县图书馆", "address": "文林路一段39号", "image": "", "rank": 32, "time": null, "location": {"lat": 30.00153533701015, "lng": 104.14646036202355}, "feature": {"sight_features": "", "sight_content": ""}}, {"title": "鸿达游乐场", "address": "人民广场24号", "image": "", "rank": 33, "time": 2, "location": {"lat": 30.000303984525484, "lng": 104.13967831083006}, "feature": {"sight_features": "", "sight_content": ""}}, {"title": "红豆山庄", "address": "景贤乡同意村(近景贤加油站，同意大队办公室)", "image": "", "rank": 34, "time": 2, "location": {"lat": 29.935208905081073, "lng": 104.08501870694263}, "feature": {"sight_features": "", "sight_content": ""}}, {"title": "成都双流魔幻森林", "address": "成都市双流县北京华联空港购物中心3楼", "image": "", "rank": 35, "time": 2.5, "location": {"lat": 30.577436735267593, "lng": 103.993337875455}, "feature": {"sight_features": "", "sight_content": ""}}, {"title": "天府花海蝶彩花卉园", "address": "清水镇石古村", "image": "", "rank": 36, "time": 2, "location": {"lat": 39.9485127505142, "lng": 115.61935653060924}, "feature": {"sight_features": "", "sight_content": ""}}, {"title": "旺庭休闲农庄", "address": "仁里路附近", "image": "", "rank": 37, "time": 2, "location": {"lat": 30.075256215262577, "lng": 103.86716063847204}, "feature": {"sight_features": "", "sight_content": ""}}, {"title": "月亮湾山庄", "address": "成都至黑龙滩旅游公路西100米", "image": "", "rank": 38, "time": 2, "location": {"lat": 31.085663882789206, "lng": 103.74728166575866}, "feature": {"sight_features": "", "sight_content": ""}}, {"title": "朱三姐农家乐", "address": "大坝东路1一3号", "image": "", "rank": 39, "time": 2, "location": {"lat": 30.035063749394645, "lng": 104.06169628464443}, "feature": {"sight_features": "", "sight_content": ""}}, {"title": "x基地真人密室逃脱", "address": "文林镇九龙天梯下(红绿灯口国贸超市旁)", "image": "", "rank": 40, "time": 2, "location": {"lat": 30.008642366540688, "lng": 104.15068184276764}, "feature": {"sight_features": "", "sight_content": ""}}, {"title": "斑竹苑农家乐", "address": "仁人路南150米(仁寿鸿达游乐场西450米)", "image": "", "rank": 41, "time": 2, "location": {"lat": 29.995236759375583, "lng": 104.13365164852429}, "feature": {"sight_features": "", "sight_content": ""}}, {"title": "蜀色天乡家庭农场", "address": "钟祥镇青石村青石桥正东100米", "image": "", "rank": 42, "time": 2, "location": {"lat": 29.85262233877276, "lng": 104.14189592818688}, "feature": {"sight_features": "", "sight_content": ""}}, {"title": "仁寿县清水镇尹朝良生态农场", "address": "清水镇五里村二组", "image": "", "rank": 43, "time": 2, "location": {"lat": 37.925130601526135, "lng": 102.68314290405964}, "feature": {"sight_features": "", "sight_content": ""}}, {"title": "五里桥钓点", "address": "黑龙滩镇黑龙滩水库", "image": "", "rank": 44, "time": 2, "location": {"lat": 30.131532527508707, "lng": 104.04659409727513}, "feature": {"sight_features": "", "sight_content": ""}}, {"title": "仁寿县金马商业街", "address": "四川省仁寿县奎星街169号", "image": "", "rank": 45, "time": 2, "location": {"lat": 29.999142004971816, "lng": 104.1454005054379}, "feature": {"sight_features": "", "sight_content": ""}}, {"title": "丽景美食休闲街", "address": "四川省仁寿县电信街", "image": "", "rank": 46, "time": 2, "location": {"lat": 30.001673453408237, "lng": 104.1567861296403}, "feature": {"sight_features": "", "sight_content": ""}}, {"title": "怡和春熙步行街", "address": "四川省仁寿县怡和春熙步行街", "image": "", "rank": 47, "time": 2, "location": {"lat": 29.999053645890115, "lng": 104.14898833764359}, "feature": {"sight_features": "", "sight_content": ""}}, {"title": "眉山市仁寿县天府新区仁寿会议中...", "address": "眉山市-仁寿县-黑龙滩镇", "image": "", "rank": 48, "time": 10.5, "location": {"lat": 30.075588401435404, "lng": 104.0529598242885}, "feature": {"sight_features": "", "sight_content": ""}}]}