{"cityName": "日喀则", "days": "3", "cityImage": "", "spots": [{"title": "扎什伦布寺", "address": "日喀则市几吉郎卡路1号", "image": "", "rank": 1, "time": 2.5, "location": {"lat": 29.275657822511512, "lng": 88.89370303482552}, "feature": {"sight_features": "特色1 后藏地区最大的寺庙，历代班禅的驻锡地，格鲁派六大寺庙之一。", "sight_content": "‍‍07:30自行抵达【布达拉宫】白塔集合，拍摄布达拉宫朝霞（具体时间以通知信息为准）\n08:00集体乘车前往拉萨火车站\n09:00踏上绿皮火车，开往日喀则（车程约3小时）\n11:55抵达日喀则，社会餐厅（简餐）用餐\n12:20游览【扎什仑布寺】，【工艺品步行街】\n15:50整理整理兴奋的心情，出发回拉萨\n17:30火车出发，返回拉萨\n20:30抵达拉萨火车站，司机迎接送往五星级酒店享用茶点，自由散团‍‍\n\n\n‍‍扎什伦布寺也称“吉祥须弥寺”，全名为“扎什伦布白吉德钦曲唐结勒南巴杰瓦林”，意为“吉祥须弥聚福殊胜诸方州”，为四世之后历代班禅喇嘛驻锡之地。\n\n‍‍\n\n‍‍远眺整个寺院依山坡而筑，背附吉祥的尼玛山，殿宇毗连，鳞次栉比，金顶红墙的高层主建筑群雄伟、浑厚、壮观、金碧辉煌。建筑间的小巷里偶尔有穿绛红色袈裟的僧侣匆匆走过。五百多年来它强烈地吸引着藏地虔诚的佛教信徒。寺内供奉有九世班禅喇嘛设计监造的高28米的世界上最大室内铜铸弥勒佛造像。‍‍"}}, {"title": "珠峰大本营", "address": "日喀则市定日县珠峰路", "image": "", "rank": 2, "time": 7.5, "location": {"lat": 28.48721026728231, "lng": 87.05795254787562}, "feature": {"sight_features": "", "sight_content": ""}}, {"title": "卡若拉冰川", "address": "日喀则市江孜县卡若拉山口", "image": "", "rank": 3, "time": 1.5, "location": {"lat": 28.901844732012655, "lng": 90.17238583477982}, "feature": {"sight_features": "", "sight_content": ""}}, {"title": "珠穆朗玛峰", "address": "日喀则市定日县正南方，喜马拉雅山中段之中尼边界", "image": "", "rank": 4, "time": 3.0, "location": {"lat": 28.66395198328889, "lng": 87.1295977393142}, "feature": {"sight_features": "", "sight_content": ""}}, {"title": "白居寺", "address": "日喀则市江孜县城西北约1km处", "image": "", "rank": 5, "time": 1.5, "location": {"lat": 28.9176346842389, "lng": 89.61201219495427}, "feature": {"sight_features": "", "sight_content": ""}}, {"title": "帕拉庄园", "address": "日喀则市江孜县江热乡班觉伦布村", "image": "", "rank": 6, "time": 2.5, "location": {"lat": 28.905478779974697, "lng": 89.58378917495956}, "feature": {"sight_features": "", "sight_content": ""}}, {"title": "满拉水库", "address": "日喀则市江孜县龙马乡年楚河之上", "image": "", "rank": 7, "time": 0.75, "location": {"lat": 28.852349893426982, "lng": 89.93530419396943}, "feature": {"sight_features": "", "sight_content": ""}}, {"title": "萨迦寺", "address": "日喀则市萨迦县八思巴路奔波山下", "image": "", "rank": 8, "time": 1.5, "location": {"lat": 28.903810652437603, "lng": 88.02758924342993}, "feature": {"sight_features": "", "sight_content": ""}}, {"title": "江孜宗山古堡", "address": "日喀则市江孜县白居寺背山顶上", "image": "", "rank": 9, "time": 1.0, "location": {"lat": 28.926245192872635, "lng": 89.60393365679042}, "feature": {"sight_features": "", "sight_content": ""}}, {"title": "绒布寺", "address": "日喀则市定日县绒布沟东西侧度母山顶处（近珠穆朗玛峰大本营）", "image": "", "rank": 10, "time": 1.0, "location": {"lat": 28.137462903063188, "lng": 86.86067389660896}, "feature": {"sight_features": "", "sight_content": ""}}, {"title": "班禅新宫", "address": "日喀则城区西南角，北距扎什伦布寺约500米", "image": "", "rank": 11, "time": 1.0, "location": {"lat": 29.27074381785521, "lng": 88.87852804599798}, "feature": {"sight_features": "", "sight_content": ""}}, {"title": "希夏邦马峰", "address": "日喀则市聂拉木县", "image": "", "rank": 12, "time": 12.0, "location": {"lat": 28.16083936054344, "lng": 85.98877040304578}, "feature": {"sight_features": "", "sight_content": ""}}, {"title": "马卡鲁峰", "address": "日喀则市定日县", "image": "", "rank": 13, "time": 2.0, "location": {"lat": 28.66395198328889, "lng": 87.1295977393142}, "feature": {"sight_features": "", "sight_content": ""}}, {"title": "灵塔殿", "address": "日喀则市桑珠孜区几吉郎卡路1号（扎什伦布寺内）", "image": "", "rank": 14, "time": 0.25, "location": {"lat": 29.27074381785521, "lng": 88.87852804599798}, "feature": {"sight_features": "", "sight_content": ""}}, {"title": "洛子峰", "address": "日喀则市东南（中尼边境珠穆朗玛峰以南约3公里处）", "image": "", "rank": 15, "time": 2, "location": {"lat": 29.275657822511512, "lng": 88.89370303482552}, "feature": {"sight_features": "", "sight_content": ""}}, {"title": "小布达拉", "address": "日喀则市桑珠孜区雪强路", "image": "", "rank": 16, "time": 1.0, "location": {"lat": 29.28948786652809, "lng": 88.88571081672453}, "feature": {"sight_features": "", "sight_content": ""}}, {"title": "樟木口岸", "address": "日喀则市聂拉木县樟木镇中尼边境", "image": "", "rank": 17, "time": 1.0, "location": {"lat": 28.012690124362244, "lng": 86.02841888601809}, "feature": {"sight_features": "", "sight_content": ""}}, {"title": "夏鲁寺", "address": "日喀则市甲措雄乡夏鲁村", "image": "", "rank": 18, "time": 3.0, "location": {"lat": 29.129260026849543, "lng": 89.00099562882848}, "feature": {"sight_features": "", "sight_content": ""}}, {"title": "佩枯错", "address": "日喀则地区聂拉木县差那乡", "image": "", "rank": 19, "time": null, "location": {"lat": 29.18473987871333, "lng": 85.89388781818276}, "feature": {"sight_features": "", "sight_content": ""}}, {"title": "绒布冰川", "address": "日喀则市定日县巴松乡南面珠穆朗玛峰下绒布沟", "image": "", "rank": 20, "time": 1.0, "location": {"lat": 28.66395198328889, "lng": 87.1295977393142}, "feature": {"sight_features": "", "sight_content": ""}}, {"title": "清真寺", "address": "日喀则市桑珠孜区雪强路帮佳孔社区内", "image": "", "rank": 21, "time": 1.0, "location": {"lat": 29.28948786652809, "lng": 88.88571081672453}, "feature": {"sight_features": "", "sight_content": ""}}, {"title": "卓奥友峰", "address": "日喀则市定日县中尼边境上", "image": "", "rank": 22, "time": 2, "location": {"lat": 28.66395198328889, "lng": 87.1295977393142}, "feature": {"sight_features": "", "sight_content": ""}}, {"title": "展佛台", "address": "日喀则市尼玛山腰、札寺伦布寺东北围墙外", "image": "", "rank": 23, "time": 0.25, "location": {"lat": 28.628568358946474, "lng": 87.72305316403626}, "feature": {"sight_features": "", "sight_content": ""}}, {"title": "嘉措拉山口", "address": "日喀则市拉孜县和定日县分界处", "image": "", "rank": 24, "time": 2, "location": {"lat": 29.08750967999499, "lng": 87.64364731807402}, "feature": {"sight_features": "", "sight_content": ""}}, {"title": "扎寺广场", "address": "西藏自治区日喀则地区日喀则市普彰路", "image": "", "rank": 25, "time": 0.75, "location": {"lat": 29.264995557951238, "lng": 88.87820532022158}, "feature": {"sight_features": "", "sight_content": ""}}, {"title": "扎什文化广场", "address": "日喀则市桑珠孜区珠峰西路（近扎什伦布寺）", "image": "", "rank": 26, "time": 2, "location": {"lat": 29.27074381785521, "lng": 88.87852804599798}, "feature": {"sight_features": "", "sight_content": ""}}, {"title": "乃钦康桑雪山", "address": "日喀则市浪卡子县和江孜县交界处", "image": "", "rank": 27, "time": 0.5, "location": {"lat": 28.9176346842389, "lng": 89.61201219495427}, "feature": {"sight_features": "", "sight_content": ""}}, {"title": "贡觉林卡", "address": "西藏自治区日喀则地区日喀则市吉林北路2号", "image": "", "rank": 28, "time": 1.0, "location": {"lat": 29.278378612285934, "lng": 88.90088246735897}, "feature": {"sight_features": "", "sight_content": ""}}, {"title": "曲登尼玛冰川", "address": "西藏自治区日喀则岗巴县", "image": "", "rank": 29, "time": 2, "location": {"lat": 28.28036304225986, "lng": 88.52652928147621}, "feature": {"sight_features": "", "sight_content": ""}}, {"title": "卓木拉日雪山", "address": "日喀则市亚东县帕里镇", "image": "", "rank": 30, "time": 2, "location": {"lat": 27.724467599920306, "lng": 89.16136794772339}, "feature": {"sight_features": "", "sight_content": ""}}, {"title": "吉隆沟", "address": "日喀则市吉隆县境内", "image": "", "rank": 31, "time": 4.5, "location": {"lat": 28.85850166495536, "lng": 85.30407376898663}, "feature": {"sight_features": "", "sight_content": ""}}, {"title": "年楚河自然观光游览区", "address": "日喀则市滨河路", "image": "", "rank": 32, "time": 2, "location": {"lat": 29.26917488417252, "lng": 88.90696927410269}, "feature": {"sight_features": "", "sight_content": ""}}, {"title": "纳塘寺", "address": "日喀则市桑珠孜区西南20公里处中尼公路旁", "image": "", "rank": 33, "time": 0.5, "location": {"lat": 29.09790224118657, "lng": 88.90295171886154}, "feature": {"sight_features": "", "sight_content": ""}}, {"title": "大弥勒殿", "address": "日喀则市桑珠孜区几吉郎卡路1号扎什伦布寺内", "image": "", "rank": 34, "time": 0.4, "location": {"lat": 29.27074381785521, "lng": 88.87852804599798}, "feature": {"sight_features": "", "sight_content": ""}}, {"title": "强巴佛大殿", "address": "日喀则市扎什伦布寺内", "image": "", "rank": 35, "time": 0.25, "location": {"lat": 29.27074381785521, "lng": 88.87852804599798}, "feature": {"sight_features": "", "sight_content": ""}}, {"title": "搭各加地热喷泉", "address": "日喀则市昂仁县", "image": "", "rank": 36, "time": 1.0, "location": {"lat": 29.30106048401354, "lng": 87.24242733675504}, "feature": {"sight_features": "", "sight_content": ""}}, {"title": "奴布林村", "address": "西藏自治区日喀则日喀则市", "image": "", "rank": 37, "time": 3.0, "location": {"lat": 29.275657822511512, "lng": 88.89370303482552}, "feature": {"sight_features": "", "sight_content": ""}}, {"title": "后藏民俗风情园", "address": "日喀则市桑珠孜区喜格孜步行街", "image": "", "rank": 38, "time": 2, "location": {"lat": 29.25558281419752, "lng": 88.90295171886154}, "feature": {"sight_features": "", "sight_content": ""}}, {"title": "帕里草原", "address": "日喀则市亚东县帕里镇", "image": "", "rank": 39, "time": 1.0, "location": {"lat": 27.724467599920306, "lng": 89.16136794772339}, "feature": {"sight_features": "", "sight_content": ""}}, {"title": "宁金抗沙峰", "address": "日喀则市江孜县喜马拉雅山以北", "image": "", "rank": 40, "time": 1.0, "location": {"lat": 28.9176346842389, "lng": 89.61201219495427}, "feature": {"sight_features": "", "sight_content": ""}}, {"title": "俄尔寺", "address": "日喀则市曲美乡白容村的山坡上", "image": "", "rank": 41, "time": 2, "location": {"lat": 29.14925812052829, "lng": 88.73248028390628}, "feature": {"sight_features": "", "sight_content": ""}}, {"title": "卓木拉日峰", "address": "日喀则市亚东县", "image": "", "rank": 42, "time": 2, "location": {"lat": 27.491108780091498, "lng": 88.91344078314533}, "feature": {"sight_features": "", "sight_content": ""}}, {"title": "加乌拉山", "address": "日喀则市定日县扎西宗乡附近", "image": "", "rank": 43, "time": 1.5, "location": {"lat": 28.424625414314036, "lng": 87.0311996810238}, "feature": {"sight_features": "", "sight_content": ""}}, {"title": "南尼寺", "address": "日喀则市康马县南尼村的郎钦山山麓", "image": "", "rank": 44, "time": 1.0, "location": {"lat": 28.561443952501328, "lng": 89.68824491576126}, "feature": {"sight_features": "", "sight_content": ""}}, {"title": "平措林寺", "address": "日喀则市拉孜县平措林乡", "image": "", "rank": 45, "time": 1.0, "location": {"lat": 29.08750967999499, "lng": 87.64364731807402}, "feature": {"sight_features": "", "sight_content": ""}}, {"title": "多情错", "address": "日喀则市亚东县帕里镇", "image": "", "rank": 46, "time": 0.75, "location": {"lat": 27.724467599920306, "lng": 89.16136794772339}, "feature": {"sight_features": "", "sight_content": ""}}, {"title": "帕巴寺", "address": "日喀则市吉隆县东部", "image": "", "rank": 47, "time": 2, "location": {"lat": 28.85850166495536, "lng": 85.30407376898663}, "feature": {"sight_features": "", "sight_content": ""}}, {"title": "中尼友谊桥", "address": "日喀则市聂拉木县樟木口岸附近的中尼界河上", "image": "", "rank": 48, "time": 0.2, "location": {"lat": 27.974828643865703, "lng": 85.9728518233275}, "feature": {"sight_features": "", "sight_content": ""}}, {"title": "章子峰", "address": "日喀则市定日县", "image": "", "rank": 49, "time": 1.0, "location": {"lat": 28.66395198328889, "lng": 87.1295977393142}, "feature": {"sight_features": "", "sight_content": ""}}, {"title": "嘎玛沟", "address": "日喀则市定日县", "image": "", "rank": 50, "time": 2, "location": {"lat": 28.66395198328889, "lng": 87.1295977393142}, "feature": {"sight_features": "", "sight_content": ""}}, {"title": "金嘎溶洞", "address": "日喀则市江孜县金嘎乡", "image": "", "rank": 51, "time": 1.0, "location": {"lat": 28.80239230315752, "lng": 89.33454647627784}, "feature": {"sight_features": "", "sight_content": ""}}, {"title": "东嘎寺", "address": "日喀则市亚东县上亚东乡西边山坡处（距县城13公里）", "image": "", "rank": 52, "time": 2.0, "location": {"lat": 27.587246581448653, "lng": 89.03286793698335}, "feature": {"sight_features": "", "sight_content": ""}}, {"title": "曲典尼玛尼姑庵", "address": "日喀则市岗巴县昌龙乡", "image": "", "rank": 53, "time": 0.5, "location": {"lat": 28.203923011853163, "lng": 88.32459346195228}, "feature": {"sight_features": "", "sight_content": ""}}, {"title": "嘎东寺", "address": "日喀则市白朗县", "image": "", "rank": 54, "time": null, "location": {"lat": 29.1118589519179, "lng": 89.26874199189538}, "feature": {"sight_features": "", "sight_content": ""}}, {"title": "觉囊寺", "address": "日喀则市拉孜县彭措林乡欧布琼山", "image": "", "rank": 55, "time": 1.0, "location": {"lat": 29.381403470003686, "lng": 88.01301876345615}, "feature": {"sight_features": "", "sight_content": ""}}, {"title": "孜布日神山", "address": "日喀则市定日县", "image": "", "rank": 56, "time": 1.0, "location": {"lat": 28.66395198328889, "lng": 87.1295977393142}, "feature": {"sight_features": "", "sight_content": ""}}, {"title": "刚坚唐卡绘画艺术中心", "address": "日喀则市桑珠孜区几吉郎卡路（扎什伦布寺对面）", "image": "", "rank": 57, "time": 0.5, "location": {"lat": 29.27074381785521, "lng": 88.87852804599798}, "feature": {"sight_features": "", "sight_content": ""}}, {"title": "刚钦寺", "address": "日喀则市萨迦县查速乡", "image": "", "rank": 58, "time": 1.0, "location": {"lat": 28.904931512620273, "lng": 88.02826948815172}, "feature": {"sight_features": "", "sight_content": ""}}, {"title": "拉孜尼姑寺", "address": "日喀则市拉孜县", "image": "", "rank": 59, "time": 2, "location": {"lat": 29.08750967999499, "lng": 87.64364731807402}, "feature": {"sight_features": "", "sight_content": ""}}, {"title": "康布温泉", "address": "日喀则市亚东县", "image": "", "rank": 60, "time": 2, "location": {"lat": 27.491108780091498, "lng": 88.91344078314533}, "feature": {"sight_features": "", "sight_content": ""}}]}