{"cityName": "日土", "days": 2, "cityImage": "", "spots": [{"title": "班公错", "address": "阿里地区日土县东北部", "image": "", "rank": 1, "time": 2.5, "location": {"lat": 33.3871860438718, "lng": 79.73910913826312}, "feature": {"sight_features": "", "sight_content": ""}}, {"title": "界山达坂", "address": "阿里地区日土县东汝乡松西村", "image": "", "rank": 2, "time": 0.4, "location": {"lat": 33.3871860438718, "lng": 79.73910913826312}, "feature": {"sight_features": "", "sight_content": ""}}, {"title": "日土岩画", "address": "西藏自治区阿里地区日土县", "image": "", "rank": 3, "time": 1.0, "location": {"lat": 33.3871860438718, "lng": 79.73910913826312}, "feature": {"sight_features": "", "sight_content": ""}}, {"title": "美马错保护区湿地", "address": "西藏自治区改则县境内 859200", "image": "", "rank": 4, "time": 2, "location": {"lat": 32.30835664324378, "lng": 84.06911336253982}, "feature": {"sight_features": "", "sight_content": ""}}, {"title": "御石宫", "address": "219国道东100米", "image": "", "rank": 5, "time": 2, "location": {"lat": 35.63178012550931, "lng": 79.52789721583396}, "feature": {"sight_features": "", "sight_content": ""}}, {"title": "班公湖度假村", "address": "219国道附近", "image": "", "rank": 6, "time": 2, "location": {"lat": 35.63178012550931, "lng": 79.52699891032398}, "feature": {"sight_features": "", "sight_content": ""}}, {"title": "藏北草原 Northern Tibet Prairi...", "address": "西藏自治区日土县县城东", "image": "", "rank": 7, "time": 2, "location": {"lat": 33.3871860438718, "lng": 79.73910913826312}, "feature": {"sight_features": "", "sight_content": ""}}, {"title": "措木那琸", "address": "阿里地区-日土县", "image": "", "rank": 8, "time": 2, "location": {"lat": 33.3871860438718, "lng": 79.73910913826312}, "feature": {"sight_features": "", "sight_content": ""}}, {"title": "日土镇", "address": "阿里地区西北部日土县", "image": "", "rank": 9, "time": 2, "location": {"lat": 33.3871860438718, "lng": 79.73910913826312}, "feature": {"sight_features": "", "sight_content": ""}}, {"title": "古格村", "address": "片角乡热河村委会", "image": "", "rank": 10, "time": 2, "location": {"lat": 26.01302217909268, "lng": 100.59105802747756}, "feature": {"sight_features": "", "sight_content": ""}}, {"title": "鸟岛", "address": "阿里地区日土县城西北", "image": "", "rank": 11, "time": 1.0, "location": {"lat": 33.3871860438718, "lng": 79.73910913826312}, "feature": {"sight_features": "", "sight_content": ""}}]}