{"cityName": "榕江", "days": 2, "cityImage": "", "spots": [{"title": "大利侗寨", "address": "黔东南州榕江县栽麻乡大利村", "image": "", "rank": 1, "time": 7.5, "location": {"lat": 26.043599286360184, "lng": 108.64917573711223}, "feature": {"sight_features": "", "sight_content": ""}}, {"title": "五榕山公园", "address": "黔东南苗族侗族自治州榕江县南面", "image": "", "rank": 2, "time": 2.0, "location": {"lat": 25.937725373250203, "lng": 108.5275536987156}, "feature": {"sight_features": "", "sight_content": ""}}, {"title": "八蒙水寨", "address": "黔东南苗族侗族自治州榕江县", "image": "", "rank": 3, "time": 1.5, "location": {"lat": 25.937725373250203, "lng": 108.5275536987156}, "feature": {"sight_features": "", "sight_content": ""}}, {"title": "榕江红七军历史陈列馆", "address": "黔东南苗族侗族自治州榕江县古州中路23号", "image": "", "rank": 4, "time": 0.75, "location": {"lat": 25.93520096162185, "lng": 108.52854487284547}, "feature": {"sight_features": "", "sight_content": ""}}, {"title": "宰荡侗寨", "address": "黔东南苗族侗族自治州榕江县城东北", "image": "", "rank": 5, "time": 2.5, "location": {"lat": 25.937725373250203, "lng": 108.5275536987156}, "feature": {"sight_features": "", "sight_content": ""}}, {"title": "晚寨侗寨", "address": "黔东南苗族侗族自治州榕江县寨蒿镇", "image": "", "rank": 6, "time": 1.5, "location": {"lat": 26.1936412015329, "lng": 108.62364268847472}, "feature": {"sight_features": "", "sight_content": ""}}, {"title": "空申苗寨", "address": "黔东南苗族侗族自治州榕江县两汪乡", "image": "", "rank": 7, "time": 2.5, "location": {"lat": 26.339151748824328, "lng": 108.46270617110784}, "feature": {"sight_features": "", "sight_content": ""}}, {"title": "摆贝苗寨", "address": "黔东南苗族侗族自治州榕江县兴华乡", "image": "", "rank": 8, "time": 2.5, "location": {"lat": 25.84196823058385, "lng": 108.1774582602247}, "feature": {"sight_features": "", "sight_content": ""}}, {"title": "七十二侗寨", "address": "黔东南侗苗族自治州榕江县乐里镇", "image": "", "rank": 9, "time": 7.5, "location": {"lat": 26.230838314335315, "lng": 108.46430048552304}, "feature": {"sight_features": "", "sight_content": ""}}, {"title": "月亮山", "address": "黔东南苗族侗族自治州榕江县计划乡、水尾乡、定威乡、兴华乡和从江县的光辉乡及荔波县的佳荣乡境内", "image": "", "rank": 10, "time": 1.5, "location": {"lat": 35.100396926269255, "lng": 118.30822484500207}, "feature": {"sight_features": "", "sight_content": ""}}, {"title": "卡寨", "address": "黔东南苗族侗族自治州榕江县朗洞镇卡寨村", "image": "", "rank": 11, "time": 0.75, "location": {"lat": 26.385670981127337, "lng": 108.6502852926371}, "feature": {"sight_features": "", "sight_content": ""}}, {"title": "苗王庙", "address": "黔东南苗族侗族自治州榕江县古州镇西门村卧龙岗山上", "image": "", "rank": 12, "time": 0.25, "location": {"lat": 25.922375421841885, "lng": 108.50769409076186}, "feature": {"sight_features": "", "sight_content": ""}}, {"title": "车江寨头萨玛祠", "address": "黔东南苗族侗族自治州榕江县车江乡寨头村", "image": "", "rank": 13, "time": 0.25, "location": {"lat": 25.97875602436494, "lng": 108.54667481240473}, "feature": {"sight_features": "", "sight_content": ""}}, {"title": "车寨鼓楼", "address": "黔东南苗族侗族自治州榕江县车江乡坝区三宝侗寨中部", "image": "", "rank": 14, "time": 0.25, "location": {"lat": 25.974448551564965, "lng": 108.54469831391044}, "feature": {"sight_features": "", "sight_content": ""}}, {"title": "龙塘景区", "address": "黔东南苗族侗族自治州榕江县北面龙塘村附近", "image": "", "rank": 15, "time": 1.5, "location": {"lat": 26.173218962980894, "lng": 108.36009266626235}, "feature": {"sight_features": "", "sight_content": ""}}, {"title": "大利村", "address": "贵州省榕江县栽麻乡大利村", "image": "", "rank": 16, "time": 2, "location": {"lat": 26.043599286360184, "lng": 108.64917573711223}, "feature": {"sight_features": "", "sight_content": ""}}, {"title": "栽南", "address": "黔东南苗族侗族自治州榕江县栽麻乡", "image": "", "rank": 17, "time": 2, "location": {"lat": 26.052315409125985, "lng": 108.69848815338817}, "feature": {"sight_features": "", "sight_content": ""}}, {"title": "瑞里花桥", "address": "黔东南苗族侗族自治州榕江县乐里镇瑞里村内", "image": "", "rank": 18, "time": 0.25, "location": {"lat": 26.238166596084582, "lng": 108.49881593888418}, "feature": {"sight_features": "", "sight_content": ""}}, {"title": "名都休闲山庄", "address": "321国道", "image": "", "rank": 19, "time": 2, "location": {"lat": 23.231187385915014, "lng": 112.93308957690171}, "feature": {"sight_features": "", "sight_content": ""}}, {"title": "车江古榕群", "address": "贵州省榕江县北部 557200", "image": "", "rank": 20, "time": 2, "location": {"lat": 30.37243861842434, "lng": 108.52755371165388}, "feature": {"sight_features": "", "sight_content": ""}}, {"title": "南岳寺", "address": "321国道附近", "image": "", "rank": 21, "time": 0.75, "location": {"lat": 23.231187385915014, "lng": 112.93308957690171}, "feature": {"sight_features": "", "sight_content": ""}}, {"title": "贵州省榕江县图书馆", "address": "五榕西路", "image": "", "rank": 22, "time": 2, "location": {"lat": 25.932078101446795, "lng": 108.52525047842268}, "feature": {"sight_features": "", "sight_content": ""}}, {"title": "侗乡楼农家乐", "address": "寨蒿河附近", "image": "", "rank": 23, "time": 2, "location": {"lat": 25.97241254884405, "lng": 108.53944573654441}, "feature": {"sight_features": "", "sight_content": ""}}, {"title": "八蒙水族村", "address": "贵州省榕江县兴华乡八蒙村", "image": "", "rank": 24, "time": 2, "location": {"lat": 25.84196823058385, "lng": 108.1774582602247}, "feature": {"sight_features": "", "sight_content": ""}}, {"title": "五榕山", "address": "贵州省榕江县古州南面", "image": "", "rank": 25, "time": 4.0, "location": {"lat": 25.937725373250203, "lng": 108.5275536987156}, "feature": {"sight_features": "", "sight_content": ""}}, {"title": "榕江孔明山", "address": "贵州省榕江县南部", "image": "", "rank": 26, "time": 7.5, "location": {"lat": 25.937725373250203, "lng": 108.5275536987156}, "feature": {"sight_features": "", "sight_content": ""}}, {"title": "寨蒿晚寨", "address": "榕江县寨蒿镇晚寨村", "image": "", "rank": 27, "time": 2, "location": {"lat": 26.17539326043067, "lng": 108.64431036175985}, "feature": {"sight_features": "", "sight_content": ""}}]}