{"cityName": "荣县", "days": 2, "cityImage": "", "spots": [{"title": "荣县大佛", "address": "自贡市荣县旭阳镇大佛街大佛寺1号", "image": "", "rank": 1, "time": 7.5, "location": {"lat": 29.459932535960505, "lng": 104.43645578357666}, "feature": {"sight_features": "特色1 国家AAAA级景区，国内第二大石刻大佛。", "sight_content": "荣县大佛位于四川省荣县县城东郊，为唐代所刻，佛像坐南面北，是一尊坐佛装弥勒摩崖石刻造像，佛身通高36．67米，头长8.76米，肩宽12.67米，膝高12米，脚宽3.5米，是世界第一大释迦牟尼佛（现世佛），第二大石刻大佛，仅次于乐山弥勒大佛（未来佛）。荣县大佛与乐山大佛相距不足百里，各有特点，映衬成趣，自古以来就有“嘉州大佛雄，荣州大佛美！”之誉。\n荣县大佛是第六批全国重点文物保护单位名单，是国家AAAA级景区，是自贡世界地质公园的一部分，与荣县金花桫椤谷公园和荣县青龙山恐龙化石公园共同组成了自贡世界地质公园荣县青龙山恐龙化石群遗迹园区。\n大佛寺坐落在四川省荣县城郊大佛山(亦称真如岩)山麓，山高海拔414米。半山之上，有一尊巍峨的石刻如来坐佛佛像，世称荣县大佛。佛身通高36．67米，头长8.76米，肩宽12.67米，膝高12米，脚宽3.5米，是世界第一大释迦牟尼佛（现世佛），第二大石刻大佛，仅次于乐山弥勒大佛（未来佛）。\n大佛气势雄伟，造型优美，衣纹流畅，神韵飘然。清代时大佛肉身贴金，衣纹施彩，金光灿烂。大佛所在庙宇，唐代名开化寺，清代以来称大佛禅寺。因寺内佛像巍峨，历史上庙宇规模很大，可惜毁于明末兵火，清代嘉庆年间重建，经过近二百年的扩建维修，寺庙已具相当规模，其布局宛如一只展翅欲飞的大雁，山下远望禅林，古刹错落有致，大佛巍巍，尤为壮观。"}}, {"title": "大佛寺", "address": "旭阳镇大佛街1号", "image": "", "rank": 2, "time": 1.5, "location": {"lat": 29.460938936116918, "lng": 104.43727793164354}, "feature": {"sight_features": "", "sight_content": ""}}, {"title": "桫椤谷", "address": "自贡市荣县金花乡大坪山村桫椤自然保护区内", "image": "", "rank": 3, "time": 2, "location": {"lat": 29.272852019227752, "lng": 104.14934268592985}, "feature": {"sight_features": "", "sight_content": ""}}, {"title": "花龙沟竹海", "address": "自贡市荣县长山镇八行村", "image": "", "rank": 4, "time": 2, "location": {"lat": 29.50512335862283, "lng": 104.2967369243483}, "feature": {"sight_features": "", "sight_content": ""}}, {"title": "双溪水库", "address": "四川省自贡市荣县城北 ‎", "image": "", "rank": 5, "time": 2, "location": {"lat": 29.451800898579698, "lng": 104.42345759120764}, "feature": {"sight_features": "", "sight_content": ""}}, {"title": "荣县军政府旧址", "address": "荣州广场", "image": "", "rank": 6, "time": 1.5, "location": {"lat": 29.46299330384126, "lng": 104.43011423355989}, "feature": {"sight_features": "", "sight_content": ""}}, {"title": "罗氏休闲山庄", "address": "014乡道和075县道的交叉口附近", "image": "", "rank": 7, "time": 2, "location": {"lat": 47.886927740402655, "lng": 132.7138064036199}, "feature": {"sight_features": "", "sight_content": ""}}, {"title": "镇南塔", "address": "四川省荣县城南500米 643100", "image": "", "rank": 8, "time": 2, "location": {"lat": 29.451800898579698, "lng": 104.42345759120764}, "feature": {"sight_features": "", "sight_content": ""}}, {"title": "荣县荣州影剧院", "address": "四川省自贡市荣县新生街67", "image": "", "rank": 9, "time": null, "location": {"lat": 29.460772500080008, "lng": 104.42789198652564}, "feature": {"sight_features": "", "sight_content": ""}}, {"title": "益群山庄", "address": "旭阳镇蓝帝大道515号", "image": "", "rank": 10, "time": 2, "location": {"lat": 29.446195658517247, "lng": 104.43275945492984}, "feature": {"sight_features": "", "sight_content": ""}}, {"title": "水缘间", "address": "南街与西街交叉口北100米", "image": "", "rank": 11, "time": 2, "location": {"lat": 38.63192262250475, "lng": 114.70547432493568}, "feature": {"sight_features": "", "sight_content": ""}}, {"title": "羽轩楼茶坊", "address": "二佛路和新生街交汇处风雨桥宾馆二楼", "image": "", "rank": 12, "time": 2, "location": {"lat": 29.458437866265367, "lng": 104.4272264616176}, "feature": {"sight_features": "", "sight_content": ""}}, {"title": "星河广场", "address": "自贡市荣县望景路107号", "image": "", "rank": 13, "time": 2, "location": {"lat": 29.45791553893683, "lng": 104.41945952533335}, "feature": {"sight_features": "", "sight_content": ""}}, {"title": "黄家祠堂", "address": "自贡市荣县荣县五宝界--翠屏区象鼻", "image": "", "rank": 14, "time": 2, "location": {"lat": 29.451800898579698, "lng": 104.42345759120764}, "feature": {"sight_features": "", "sight_content": ""}}, {"title": "白塔", "address": "大佛路南100米", "image": "", "rank": 15, "time": 0.25, "location": {"lat": 29.50977633669618, "lng": 120.89779562807762}, "feature": {"sight_features": "", "sight_content": ""}}, {"title": "荣县DO都游乐园动漫水世界", "address": "四川省自贡市荣县大佛风景区旁", "image": "", "rank": 16, "time": 1.0, "location": {"lat": 29.451800898579698, "lng": 104.42345759120764}, "feature": {"sight_features": "", "sight_content": ""}}, {"title": "儿童乐园", "address": "广场路46号", "image": "", "rank": 17, "time": 2, "location": {"lat": 32.2466977611633, "lng": 120.25375947035248}, "feature": {"sight_features": "", "sight_content": ""}}, {"title": "淘气小宝游乐园", "address": "荣复路附近", "image": "", "rank": 18, "time": 2, "location": {"lat": 31.377974982380593, "lng": 118.90801452641692}, "feature": {"sight_features": "", "sight_content": ""}}, {"title": "花祠堂", "address": "自贡市荣县零一一乡道", "image": "", "rank": 19, "time": 2, "location": {"lat": 29.451800898579698, "lng": 104.42345759120764}, "feature": {"sight_features": "", "sight_content": ""}}, {"title": "荣县新城广场", "address": "四川省自贡市荣县旭阳镇星河路新城广场(荣县政府南150米)", "image": "", "rank": 20, "time": 2.0, "location": {"lat": 29.449377648453908, "lng": 104.42393740941768}, "feature": {"sight_features": "", "sight_content": ""}}, {"title": "凤鸣广场", "address": "自贡市荣县", "image": "", "rank": 21, "time": 2, "location": {"lat": 29.451800898579698, "lng": 104.42345759120764}, "feature": {"sight_features": "", "sight_content": ""}}, {"title": "天禧半岛度假村", "address": "自贡市荣县观斗山村4组", "image": "", "rank": 22, "time": 2, "location": {"lat": 29.440008035773584, "lng": 104.44257622737018}, "feature": {"sight_features": "", "sight_content": ""}}, {"title": "长兴山庄", "address": "迎宾街西段130-2号附近", "image": "", "rank": 23, "time": 1.5, "location": {"lat": 39.32443583122327, "lng": 112.45004889065453}, "feature": {"sight_features": "", "sight_content": ""}}, {"title": "荣县图书馆", "address": "旭阳镇健康路244号", "image": "", "rank": 24, "time": 1.5, "location": {"lat": 29.465365851106853, "lng": 104.42858532746378}, "feature": {"sight_features": "", "sight_content": ""}}, {"title": "程钟书画班", "address": "水岸南苑88", "image": "", "rank": 25, "time": 2, "location": {"lat": 29.4491677638135, "lng": 104.41843352928868}, "feature": {"sight_features": "", "sight_content": ""}}, {"title": "大卫美术班", "address": "桂林街172-176附近", "image": "", "rank": 26, "time": 2, "location": {"lat": 29.108799101081605, "lng": 119.66562748446565}, "feature": {"sight_features": "", "sight_content": ""}}, {"title": "枇杷林果园", "address": "附北街附近", "image": "", "rank": 27, "time": 2, "location": {"lat": 29.473614143907938, "lng": 104.420959108941}, "feature": {"sight_features": "", "sight_content": ""}}, {"title": "金龙庄园", "address": "305省道北100米", "image": "", "rank": 28, "time": 2, "location": {"lat": 38.97250352161546, "lng": 112.6319987223776}, "feature": {"sight_features": "", "sight_content": ""}}, {"title": "余氏生态农庄", "address": "自犍路附近", "image": "", "rank": 29, "time": 2, "location": {"lat": 29.292730956496328, "lng": 104.55096151938665}, "feature": {"sight_features": "", "sight_content": ""}}, {"title": "银九谷", "address": "旭阳镇双河口水库", "image": "", "rank": 30, "time": 2, "location": {"lat": 29.51552790010394, "lng": 104.43398842579933}, "feature": {"sight_features": "", "sight_content": ""}}, {"title": "宜宾华藏寺 Yibin Huazang Templ...", "address": "四川省宜宾市翠屏区武庙街10号", "image": "", "rank": 31, "time": 3.0, "location": {"lat": 28.7767356739516, "lng": 104.63440990794592}, "feature": {"sight_features": "", "sight_content": ""}}, {"title": "荣县二佛寺", "address": "四川省荣县境内", "image": "", "rank": 32, "time": 1.0, "location": {"lat": 29.451800898579698, "lng": 104.42345759120764}, "feature": {"sight_features": "", "sight_content": ""}}, {"title": "二佛寺", "address": "四川省荣县境内", "image": "", "rank": 33, "time": 1.5, "location": {"lat": 29.451800898579698, "lng": 104.42345759120764}, "feature": {"sight_features": "", "sight_content": ""}}, {"title": "荣县白塔山", "address": "自贡市荣县大佛路", "image": "", "rank": 34, "time": 2.5, "location": {"lat": 29.460956186327632, "lng": 104.43682650168422}, "feature": {"sight_features": "", "sight_content": ""}}]}