{"cityName": "融安", "days": 2, "cityImage": "", "spots": [{"title": "石门仙湖景区", "address": "柳州市融安县大良镇石门村仙湖景区", "image": "", "rank": 1, "time": 7.5, "location": {"lat": 24.88064793225955, "lng": 109.43332134153688}, "feature": {"sight_features": "特色1 望石门、行栈道、访溶洞、探暗河，感受大自然的鬼斧神工。 特色2 卧龙锁仙湖、石门聚万仙 特色3 仙湖湖水清澈明亮，符合直钦标准", "sight_content": "广西融安石门仙湖景区地处209国道边，距柳州市70公里，距融安县城50公里，距大良镇5公里；距桂林市170公里，距三江县110公里，和邻县柳城县及融水县的距离均不超过30公里；景区的区位优势非常明显，处在柳州、柳城、融水、三江等桂北旅游圈的中心位置，更是各精品旅游线路的必游景点之一。柳州市至景区仅需1小时的车程，交通十分便利。\n石门仙湖景区景区占地8000亩，其中陆地面积2900亩，石门水库水域面积4000余亩。景区陆地植被保护完好，高达96%的植被覆盖率使得景区内天然滋生了种类繁多的动植物：石斛、灵芝、红运 当头原株等，更有世界最神秘鸟类之称的海南虎斑鸠在此繁衍 生息；对水质要求极度苛刻的四大名鱼之一：银鱼更是石门水库的特产，也是游客到石门仙湖景区旅游就餐的必点菜品。\n景区内山体雄奇秀美，地下河千万年的冲刷，形成了该地 奇特的地貌：一山穿三洞的上中下天桥（翼王石达开屯兵遗址），连接上天坑的地下暗河，有溶洞阁楼之称的里 岩（古溶洞居民遗址—清流团寨），定时喷涌的狗仔泷（泉），门扇门洞浑然天成的天门洞。古人遗留下大量的摩崖石刻（融安县摩崖石刻重点保护单位），南峰书院遗址，太平天国翼王石达开屯兵遗址等等人文景观更是为景区沉淀了丰厚的文化底蕴。\n望石门、行栈道、访溶洞、探暗河，走玻璃桥，感受大自然的鬼斧神工。石门仙湖景区现拥有曾是广西最长的3D玻璃栈道，栈道建在距离谷底达88米的悬崖壁上，依山势而造，下方就是山石峻峭的中天坑，栈道全长366米，1.6米宽，中间还设计了一个6米长、3米宽的全透明玻璃观景台。玻璃栈道升级了广西首家3D玻璃破裂效果，人一踩上，即会有玻璃破碎的显示及破碎音效，无比惊险与刺激。玻璃栈道下方的天坑的峡谷底部有地下溶洞与暗河相连，地下暗河的汩汩清流从溶洞中流出。站在玻璃栈道上观看，景色无比壮美、险奇。\n同时，景区内另建有3D玻璃悬索吊桥一座，于2018年4月18日正式对外开放。该玻璃桥全长218米，高108米，宽2米，为近几年广西游客的热门首选玻璃桥游览目的地。桥面玻璃清澈透明，3D效果如梦如幻，从石门仙湖镇谷关悬空而过，桥下为石门仙湖知名景点中天坑，一年四季常有雾气弥绕，从桥面经过宛如漫游仙境般。该桥利用全透明玻璃和特色景观3D画面，浓缩微缩知名景观，可使游客在游览的过程中感受到或奔腾怒吼，或气壮山河，或宁静怡然等风光，既能领略到惊险无比的悬崖峭壁，又能将景区的绝美景色尽收眼底，令游客有惊险刺激的全新感受。\n观美景、拍美照，留下人生珍贵记忆。2019年石门仙湖景区又推出了广西首家网红拍照地：天空之镜，项目组合的中心由方型高空镜面拼接而成，仿佛拥有将时间凝固的魔法，只感觉到蓝天白云悠悠，如梦似幻，在这里拍照，每一张相片都是绝美大片，带您称霸朋友圈。\n至此，石门仙湖景区已建成由3D玻璃悬索桥和3D悬崖玻璃栈道、网红拍照地构成的悬空环形游览线路，与景区内的中天坑、地下暗河、溶洞、清流团寨等景点遥相呼应，相辅相成，为游客带来前所未有的观光体验与打造了绝佳的拍照胜地。游客从进园伊始，即可时刻感受悬空绝美风光及惊险刺激。"}}, {"title": "白莲洞遗址", "address": "广西壮族自治区柳江县白面山南麓 545100", "image": "", "rank": 2, "time": 2, "location": {"lat": 24.246475450063873, "lng": 109.2379459890824}, "feature": {"sight_features": "", "sight_content": ""}}, {"title": "东起基督教会", "address": "广西壮族自治区柳州市融安县东起乡中学北200米", "image": "", "rank": 3, "time": 2, "location": {"lat": 24.970678464656753, "lng": 109.40171583119634}, "feature": {"sight_features": "", "sight_content": ""}}, {"title": "东圩南平庙", "address": "广场西路189", "image": "", "rank": 4, "time": 2, "location": {"lat": 25.225631497895204, "lng": 109.41346878258648}, "feature": {"sight_features": "", "sight_content": ""}}, {"title": "基督教会", "address": "新华街294", "image": "", "rank": 5, "time": 2, "location": {"lat": 44.40241346494578, "lng": 131.1778562656776}, "feature": {"sight_features": "", "sight_content": ""}}, {"title": "浮石广场", "address": "柳州市融安县", "image": "", "rank": 6, "time": 2, "location": {"lat": 25.2305114471283, "lng": 109.4045632593399}, "feature": {"sight_features": "", "sight_content": ""}}, {"title": "红茶沟森林公园", "address": "新民路", "image": "", "rank": 7, "time": 2, "location": {"lat": 38.06066679197557, "lng": 114.96413957387195}, "feature": {"sight_features": "", "sight_content": ""}}, {"title": "红日农业", "address": "长安镇长安穗丰市场", "image": "", "rank": 8, "time": 2, "location": {"lat": 25.226456081953632, "lng": 109.4127514038912}, "feature": {"sight_features": "", "sight_content": ""}}, {"title": "江那鸳鸯潭风景区", "address": "广西壮族自治区东兴市东兴镇", "image": "", "rank": 9, "time": 2, "location": {"lat": 21.594844747701487, "lng": 107.98704418082897}, "feature": {"sight_features": "", "sight_content": ""}}, {"title": "沙州尾", "address": "柳州市-融安县", "image": "", "rank": 10, "time": 2, "location": {"lat": 25.2305114471283, "lng": 109.4045632593399}, "feature": {"sight_features": "", "sight_content": ""}}, {"title": "拉叭", "address": "柳州市-融安县", "image": "", "rank": 11, "time": 2, "location": {"lat": 25.2305114471283, "lng": 109.4045632593399}, "feature": {"sight_features": "", "sight_content": ""}}, {"title": "隘底村", "address": "柳州市-融安县-二零九国道", "image": "", "rank": 12, "time": 2, "location": {"lat": 25.053211969522142, "lng": 109.34435361390912}, "feature": {"sight_features": "", "sight_content": ""}}, {"title": "坐妹", "address": "广西省三江县古宜镇侗乡鸟巢", "image": "", "rank": 13, "time": 2, "location": {"lat": 25.785667132925393, "lng": 109.62184813405678}, "feature": {"sight_features": "", "sight_content": ""}}]}