{"cityName": "汝城", "days": 2, "cityImage": "", "spots": [{"title": "汝城温泉福泉山庄", "address": "郴州市汝城县热水镇", "image": "", "rank": 1, "time": 2, "location": {"lat": 25.50747047351659, "lng": 113.90456367022855}, "feature": {"sight_features": "特色1 疗养身心的度假胜地。 特色2 清幽宁静，享自然之绚烂多资。 特色3 水温高，流量大，水质好，热田面积宽的天然温泉。", "sight_content": "汝城温泉·福泉旅游度假区享有“华南第一高温优质温泉”美誉，野奢别墅度假酒店，其生态环境优美，万亩竹海环抱，格调婉约温馨，夏无酷暑，冬无严寒，绿化覆盖率达90%以上，空气负氧离子浓度达到8827个/cm³；温泉出水口温度高达98度，温泉汤河泉眼密布，云蒸雾绕，恍若仙境。是集住宿、餐饮、娱乐、温泉水疗、商务会议、休闲养生于一体的大型热泉疗养度假福地，更是您洽谈公务、休闲度假、亲朋欢聚的品质选择。\n汝城温泉·福泉旅游度假区\n湖南省温泉协会会长单位\n湖南省温泉标准化服务试点单位\n湖南省十佳休闲度假酒店\n中国温泉行业金汤奖获奖单位\n国际金钥匙联盟会员单位\n汝城温泉—中药七生汤\n汲取数百年当地畲族、瑶族百姓汤浴精华\n采撷本地植物药材，借极品氡泉之势\n融合现代中医理念与技术\n由湘南学院中医药专家团队精心研制的\n以药浴、保健、养生为核心的本草汤浴\n汝城温泉—景观氡泉两仪池\n置身其中仿佛进入了一副自然画卷\n与大自然融为一体\n阴阳两池一冷一热\n在此泡浴可阴阳调和、强身健体\n汝城温泉—动感泡泡\n利用水压冲击人体各处穴位\n促进人体新陈代谢\n让皮肤更好的吸收氡泉内的稀有元素\n夜幕悄悄降临，灯光缓缓亮起\n山庄被热泉水蒸气笼罩着\n如梦如幻，宛若天宫仙境\n白日里是环境优美的度假山庄\n入夜后似闯入另一个奇幻世界\n\n\n美好的一天，从泡温泉开始\n浸泡在温泉中\n可以放松身心置身于大自然的怀抱之中\n细想芳华，洗尽人世烦恼\n\n\n汝城温泉—极品氡温泉\n汝城温泉的泉水富含硅、钠、钾、钙、锂、锶等\n30多种对人体有益的元素\n特别是氡的含量最高，为罕见的“极品氡泉”\n有极高的医疗保健价值\n沐浴此泉，在消除疲劳的同时，更能调节内分泌\n增强生殖腺功能，达到延年益寿的功效\n被称为“返老还童”神泉！\n汝城温泉—亲子水上乐园\n各式各样的游乐设施正在这儿等着大家来一起玩耍呢\n打排球，水中嬉戏，趣味滑梯\n在沙滩上建一座城堡\n在泳池中来一场比赛\n汝城温泉—私密花语\n花语区花蝶飞舞\n舒展身心，沐浴在自然中\n感受这一份恬静\n除此以外，竹海水疗区更有\n室内泳池、干湿桑拿、美容太空舱\n温泉彩虹鱼疗、推拿\n等水疗项目，就等你来体验！\n\n\n行至古色古香的走廊，回首一望\n也许您会对福泉山庄依依不舍\n若有机会，不妨来日再见"}}, {"title": "汝城温泉文化园", "address": "郴州市汝城县热水镇福泉山庄右侧", "image": "", "rank": 2, "time": 2, "location": {"lat": 25.53538953237293, "lng": 113.9173841014118}, "feature": {"sight_features": "", "sight_content": ""}}, {"title": "万时山", "address": "郴州市汝城县热水镇", "image": "", "rank": 3, "time": 4.0, "location": {"lat": 25.50747047351659, "lng": 113.90456367022855}, "feature": {"sight_features": "", "sight_content": ""}}, {"title": "飞水寨景区", "address": "郴州市汝城县热水镇东江水村", "image": "", "rank": 4, "time": 4.5, "location": {"lat": 25.474755406124864, "lng": 113.91814595161964}, "feature": {"sight_features": "", "sight_content": ""}}, {"title": "天仙风景区", "address": "郴州市汝城县外沙乡外沙村", "image": "", "rank": 5, "time": 2, "location": {"lat": 25.557720163960262, "lng": 113.63408037427884}, "feature": {"sight_features": "", "sight_content": ""}}, {"title": "热水河漂流", "address": "郴州市汝城县热水镇热水河漂流", "image": "", "rank": 6, "time": 2, "location": {"lat": 25.50747047351659, "lng": 113.90456367022855}, "feature": {"sight_features": "", "sight_content": ""}}, {"title": "罗泉温泉", "address": "郴州市汝城县暖水镇罗泉村", "image": "", "rank": 7, "time": 2, "location": {"lat": 25.70741183258855, "lng": 113.73458260695612}, "feature": {"sight_features": "", "sight_content": ""}}, {"title": "龙王庙国家湿地公园", "address": "湖南省郴州市汝城县卢阳镇龙王庙国家湿地公园", "image": "", "rank": 8, "time": 2, "location": {"lat": 25.554376245942393, "lng": 113.7004128341314}, "feature": {"sight_features": "", "sight_content": ""}}, {"title": "九龙江峡谷漂流", "address": "郴州市汝城县三江口镇九龙江国家森林公园三仙谷景区内", "image": "", "rank": 9, "time": 2, "location": {"lat": 25.433758743264143, "lng": 113.80211045991653}, "feature": {"sight_features": "", "sight_content": ""}}, {"title": "热水坑温泉", "address": "010县道", "image": "", "rank": 10, "time": 2, "location": {"lat": 40.00491705225616, "lng": 115.95978208409595}, "feature": {"sight_features": "", "sight_content": ""}}, {"title": "一剪梅", "address": "卢阳镇西正街1号", "image": "", "rank": 11, "time": 2, "location": {"lat": 25.556105791766566, "lng": 113.69153766013646}, "feature": {"sight_features": "", "sight_content": ""}}, {"title": "龙虎洞", "address": "湖南省汝城县境内 414100", "image": "", "rank": 12, "time": 2, "location": {"lat": 25.556056733977883, "lng": 113.69154466691944}, "feature": {"sight_features": "", "sight_content": ""}}, {"title": "广州越兴艺术玻璃", "address": "郴州市汝城县环城西路水晶家园往西南50米", "image": "", "rank": 13, "time": 3.0, "location": {"lat": 25.559745743252105, "lng": 113.69095655977684}, "feature": {"sight_features": "", "sight_content": ""}}, {"title": "二楼儿童乐园", "address": "郴州市汝城县", "image": "", "rank": 14, "time": 2.0, "location": {"lat": 25.556056733977883, "lng": 113.69154466691944}, "feature": {"sight_features": "", "sight_content": ""}}, {"title": "卡奇儿童乐园", "address": "湖南省郴州市汝城县文化路62号", "image": "", "rank": 15, "time": 2, "location": {"lat": 25.559960893596852, "lng": 113.6909711284956}, "feature": {"sight_features": "", "sight_content": ""}}, {"title": "交通广场", "address": "郴州市汝城县云头路7号", "image": "", "rank": 16, "time": 1.5, "location": {"lat": 25.564819242893154, "lng": 113.68963668526627}, "feature": {"sight_features": "", "sight_content": ""}}, {"title": "东江漂流", "address": "324省道附近", "image": "", "rank": 17, "time": 2, "location": {"lat": 34.101022772229115, "lng": 117.56430801824291}, "feature": {"sight_features": "", "sight_content": ""}}, {"title": "汝城贞子鬼屋", "address": "湖南省郴州市汝城县环城西路疾控中心斜对面", "image": "", "rank": 18, "time": 2, "location": {"lat": 25.559745743252105, "lng": 113.69095655977684}, "feature": {"sight_features": "", "sight_content": ""}}, {"title": "汝城汇海娱乐有限公司(吉祥水上...", "address": "九龙大道汝城县龙顺轩粤菜馆南侧10米", "image": "", "rank": 19, "time": 2, "location": {"lat": 25.538666356116302, "lng": 113.70339127654033}, "feature": {"sight_features": "", "sight_content": ""}}, {"title": "烈士公园", "address": "一零六国道", "image": "", "rank": 20, "time": 2.0, "location": {"lat": 35.78485495135362, "lng": 115.12563508075999}, "feature": {"sight_features": "", "sight_content": ""}}, {"title": "湘南起义策源地纪念馆", "address": "中大街", "image": "", "rank": 21, "time": 2, "location": {"lat": 39.52317468200525, "lng": 117.67996854738314}, "feature": {"sight_features": "", "sight_content": ""}}, {"title": "仰天湖休闲山庄", "address": "濂溪路太极亭山脚下", "image": "", "rank": 22, "time": 2, "location": {"lat": 27.63833451824782, "lng": 114.0549071291777}, "feature": {"sight_features": "", "sight_content": ""}}, {"title": "官溪温泉山庄", "address": "热水镇官溪坑热水漂流河公司对面", "image": "", "rank": 23, "time": 2, "location": {"lat": 25.516256542645174, "lng": 113.92654819830611}, "feature": {"sight_features": "", "sight_content": ""}}, {"title": "心语度假家馆", "address": "热水镇汤河老街", "image": "", "rank": 24, "time": 2, "location": {"lat": 25.533945984707238, "lng": 113.91879098797561}, "feature": {"sight_features": "", "sight_content": ""}}, {"title": "畲族土钵农场", "address": "益将乡谭家西北侧", "image": "", "rank": 25, "time": 2, "location": {"lat": 25.57085966176641, "lng": 113.86831012326559}, "feature": {"sight_features": "", "sight_content": ""}}, {"title": "白云仙", "address": "湖南省汝城县境内", "image": "", "rank": 26, "time": 0.4, "location": {"lat": 25.556056733977883, "lng": 113.69154466691944}, "feature": {"sight_features": "", "sight_content": ""}}, {"title": "热水寨温泉漂流度假山庄", "address": "郴州市-汝城县-热水镇热水河漂流度假山庄", "image": "", "rank": 27, "time": 2, "location": {"lat": 25.50747047351659, "lng": 113.90456367022855}, "feature": {"sight_features": "", "sight_content": ""}}, {"title": "楼梯坳", "address": "郴州市-汝城县", "image": "", "rank": 28, "time": 2, "location": {"lat": 25.556056733977883, "lng": 113.69154466691944}, "feature": {"sight_features": "", "sight_content": ""}}, {"title": "刀山埂", "address": "郴州市-汝城县", "image": "", "rank": 29, "time": 2, "location": {"lat": 25.556056733977883, "lng": 113.69154466691944}, "feature": {"sight_features": "", "sight_content": ""}}, {"title": "细埂里", "address": "郴州市-汝城县", "image": "", "rank": 30, "time": 2, "location": {"lat": 25.556056733977883, "lng": 113.69154466691944}, "feature": {"sight_features": "", "sight_content": ""}}, {"title": "尖山嘴", "address": "郴州市-汝城县", "image": "", "rank": 31, "time": 2, "location": {"lat": 25.556056733977883, "lng": 113.69154466691944}, "feature": {"sight_features": "", "sight_content": ""}}, {"title": "九十九堆", "address": "郴州市-汝城县", "image": "", "rank": 32, "time": 2, "location": {"lat": 25.556056733977883, "lng": 113.69154466691944}, "feature": {"sight_features": "", "sight_content": ""}}, {"title": "白云仙航空飞行花海", "address": "郴州市汝城县井坡镇白云仙（玉塘、龙虎村区域内）", "image": "", "rank": 33, "time": 2, "location": {"lat": 25.402275576852585, "lng": 113.59307688511979}, "feature": {"sight_features": "", "sight_content": ""}}, {"title": "朱氏祠堂", "address": "湖南省郴州市永兴县", "image": "", "rank": 34, "time": 2, "location": {"lat": 26.132968478532568, "lng": 113.1225331638553}, "feature": {"sight_features": "", "sight_content": ""}}]}