{"cityName": "如东", "days": 2, "cityImage": "", "spots": [{"title": "海上迪斯科休闲旅游区", "address": "南通市如东县洋口港经济开发区", "image": "", "rank": 1, "time": 2, "location": {"lat": 32.53200699836552, "lng": 121.43448656885124}, "feature": {"sight_features": "", "sight_content": ""}}, {"title": "小洋口", "address": "南通市如东县洋口镇跨港大桥西侧", "image": "", "rank": 2, "time": 4.5, "location": {"lat": 32.53978279270181, "lng": 121.06396514964342}, "feature": {"sight_features": "", "sight_content": ""}}, {"title": "林克斯温泉", "address": "南通市如东县小洋口国际旅游度假区", "image": "", "rank": 3, "time": 2, "location": {"lat": 32.56816601414233, "lng": 121.05923164284339}, "feature": {"sight_features": "特色1 林克斯只为还原最为至真至纯的自然风情，是谓人与自然完美融合的典范之作。", "sight_content": "临海而生，纯粹归真。林克斯温泉依傍江苏南通如东小洋口旅游度假区而卧，立于“北上海旅游度假板块”规划之核心。系出名门，超然独成。\n香港保华集团（PYI）筹措重金悉心打造，南通地区首个集温泉度假，旅游观光，户外运动，科普教育，生态探险等主题于一体的大型综合性旅游项目。\n林克斯只为还原最为至真至纯的自然风情，是谓人与自然完美融合的典范之作。"}}, {"title": "金陵金蛤岛温泉", "address": "南通市如东县沿海经济开发区金蛤大道东侧", "image": "", "rank": 4, "time": 2, "location": {"lat": 32.577411114139686, "lng": 121.00593432624109}, "feature": {"sight_features": "", "sight_content": ""}}, {"title": "长沙海滩", "address": "南通市如东县S334(洋口大道)", "image": "", "rank": 5, "time": 3.0, "location": {"lat": 32.4010714430717, "lng": 121.25693052364873}, "feature": {"sight_features": "", "sight_content": ""}}, {"title": "如东香鲸馆", "address": "南通市如东县长沙镇临港工业区会展中心内", "image": "", "rank": 6, "time": 2, "location": {"lat": 32.43148843753121, "lng": 121.33239310021803}, "feature": {"sight_features": "", "sight_content": ""}}, {"title": "唐闸公园", "address": "江苏省南通市港闸区公园路", "image": "", "rank": 7, "time": 2, "location": {"lat": 32.07103373985243, "lng": 120.8212151237325}, "feature": {"sight_features": "", "sight_content": ""}}, {"title": "浅水湾水上公园", "address": "江苏省南通市如东县珠江路", "image": "", "rank": 8, "time": 2, "location": {"lat": 32.32623818211217, "lng": 121.16926286235277}, "feature": {"sight_features": "", "sight_content": ""}}, {"title": "晓塘剧院", "address": "河西路", "image": "", "rank": 9, "time": 2, "location": {"lat": 40.052217178193615, "lng": 113.23389920794419}, "feature": {"sight_features": "", "sight_content": ""}}, {"title": "南通革命纪念馆", "address": "钟秀中路", "image": "", "rank": 10, "time": 1.5, "location": {"lat": 32.038461874182005, "lng": 120.8768141838142}, "feature": {"sight_features": "", "sight_content": ""}}, {"title": "兴昌休闲农庄", "address": "如皋西来红绿灯东首800米", "image": "", "rank": 11, "time": 2, "location": {"lat": 32.37785148610902, "lng": 120.57946558109177}, "feature": {"sight_features": "", "sight_content": ""}}, {"title": "鑫都温泉", "address": "弹琴路83号", "image": "", "rank": 12, "time": 2, "location": {"lat": 32.31547460529673, "lng": 121.19587682135783}, "feature": {"sight_features": "", "sight_content": ""}}, {"title": "悦海温泉", "address": "掘港镇人民南路144号", "image": "", "rank": 13, "time": 2, "location": {"lat": 32.31276639337568, "lng": 121.20209154770649}, "feature": {"sight_features": "", "sight_content": ""}}, {"title": "夏威夷温泉", "address": "范堤路88号", "image": "", "rank": 14, "time": 2, "location": {"lat": 32.3176577811375, "lng": 121.20499261816451}, "feature": {"sight_features": "", "sight_content": ""}}, {"title": "浩气长存烈士陵园", "address": "靖双线", "image": "", "rank": 15, "time": null, "location": {"lat": 32.42972196947065, "lng": 120.86063655676635}, "feature": {"sight_features": "", "sight_content": ""}}, {"title": "浅草汇温泉", "address": "泰山路10号政务中心南侧金顺凤凰城门口", "image": "", "rank": 16, "time": 2, "location": {"lat": 32.337734337232696, "lng": 121.19621704019684}, "feature": {"sight_features": "", "sight_content": ""}}, {"title": "洋口港垂钓中心", "address": "221省道附近S221(旧)", "image": "", "rank": 17, "time": 2, "location": {"lat": 40.48669646295935, "lng": 116.04420851897628}, "feature": {"sight_features": "", "sight_content": ""}}, {"title": "文峰购物广场-儿童乐园", "address": "文峰购物广场内", "image": "", "rank": 18, "time": 2, "location": {"lat": 32.21520273085821, "lng": 120.98457879167435}, "feature": {"sight_features": "", "sight_content": ""}}, {"title": "宝宝乐儿童欢乐谷", "address": "南通市如东县", "image": "", "rank": 19, "time": 2, "location": {"lat": 32.33587288615511, "lng": 121.19243791023843}, "feature": {"sight_features": "", "sight_content": ""}}, {"title": "美加乐儿童主题乐园", "address": "江苏省南通市如东县双通线", "image": "", "rank": 20, "time": 2, "location": {"lat": 32.33587288615511, "lng": 121.19243791023843}, "feature": {"sight_features": "", "sight_content": ""}}, {"title": "如东县赵家剧院", "address": "江苏省南通市如东县S223", "image": "", "rank": 21, "time": 2, "location": {"lat": 32.33587288615511, "lng": 121.19243791023843}, "feature": {"sight_features": "", "sight_content": ""}}, {"title": "岔河影剧院", "address": "新建路3号", "image": "", "rank": 22, "time": 2, "location": {"lat": 40.098390825936654, "lng": 113.29739903566421}, "feature": {"sight_features": "", "sight_content": ""}}, {"title": "光荣影剧院", "address": "011乡道附近", "image": "", "rank": 23, "time": 2, "location": {"lat": 42.04763809330839, "lng": 117.60157841381785}, "feature": {"sight_features": "", "sight_content": ""}}, {"title": "如东县曹埠镇影剧院", "address": "惕安路1号附近埠中路", "image": "", "rank": 24, "time": 2, "location": {"lat": 32.25381191823745, "lng": 121.09781606714206}, "feature": {"sight_features": "", "sight_content": ""}}, {"title": "童趣谷儿童乐园兵房店", "address": "江苏省南通市如东县新光乐路", "image": "", "rank": 25, "time": 2, "location": {"lat": 32.27733031048451, "lng": 121.30357614396674}, "feature": {"sight_features": "", "sight_content": ""}}, {"title": "淘气包儿童乐园", "address": "大豫镇人民南路92号邮局对面", "image": "", "rank": 26, "time": 2, "location": {"lat": 32.27148028589017, "lng": 121.30595032500585}, "feature": {"sight_features": "", "sight_content": ""}}, {"title": "星星儿童乐园", "address": "江苏省南通市如东县新店镇学生路圆通快递东南100米", "image": "", "rank": 27, "time": 2.5, "location": {"lat": 32.27843568849483, "lng": 120.93792512882713}, "feature": {"sight_features": "", "sight_content": ""}}, {"title": "金仕堡动漫城游乐园", "address": "江苏省南通市如东县人民南路66-8", "image": "", "rank": 28, "time": 2, "location": {"lat": 32.31729381912562, "lng": 121.20217176189699}, "feature": {"sight_features": "", "sight_content": ""}}, {"title": "如东县玄真观白娘娘庙", "address": "江苏省南通市如东县X203(长兵线)", "image": "", "rank": 29, "time": 2, "location": {"lat": 32.31328410493969, "lng": 121.30284743045229}, "feature": {"sight_features": "", "sight_content": ""}}, {"title": "星期六儿童乐园", "address": "栟茶镇茗海花苑门口", "image": "", "rank": 30, "time": 2, "location": {"lat": 32.53473712794686, "lng": 120.90275445950037}, "feature": {"sight_features": "", "sight_content": ""}}, {"title": "美乐迪海洋公园", "address": "江苏省南通市如东县S305(临海公路)", "image": "", "rank": 31, "time": 2, "location": {"lat": 32.47999905367342, "lng": 121.1754691886466}, "feature": {"sight_features": "", "sight_content": ""}}, {"title": "如东县马塘镇休闲健身园", "address": "马塘镇河东路南", "image": "", "rank": 32, "time": 2, "location": {"lat": 40.05251950373619, "lng": 113.24211418398546}, "feature": {"sight_features": "", "sight_content": ""}}, {"title": "卡奇乐室内亲子儿童主题乐园", "address": "青园路与黄海西路交汇乐天玛特1楼服务台南侧", "image": "", "rank": 33, "time": 2, "location": {"lat": 32.00157767192036, "lng": 120.9036905630113}, "feature": {"sight_features": "", "sight_content": ""}}, {"title": "儿童乐园", "address": "掘港镇苏果超市一楼", "image": "", "rank": 34, "time": 2, "location": {"lat": 32.32005182617806, "lng": 121.19217783013227}, "feature": {"sight_features": "", "sight_content": ""}}, {"title": "康翠河滨公园", "address": "江苏省南通市如东县掘港镇泰山路如东碧桂园南", "image": "", "rank": 35, "time": 2, "location": {"lat": 32.34961443446779, "lng": 121.19824175344341}, "feature": {"sight_features": "", "sight_content": ""}}, {"title": "东初寺", "address": "临海公路西150米", "image": "", "rank": 36, "time": 2, "location": {"lat": 34.5478515500504, "lng": 119.57389932730574}, "feature": {"sight_features": "", "sight_content": ""}}, {"title": "如东洪治文化园", "address": "江苏省南通市如东县掘港镇长江路实验小学西北700米", "image": "", "rank": 37, "time": 2, "location": {"lat": 32.33571940297339, "lng": 121.17453106125336}, "feature": {"sight_features": "", "sight_content": ""}}, {"title": "丰利大圣寺", "address": "丰利镇汽车站向南300米", "image": "", "rank": 38, "time": 2, "location": {"lat": 39.318765823394834, "lng": 115.86499398800564}, "feature": {"sight_features": "", "sight_content": ""}}, {"title": "三元市民广场", "address": "江海中路70号附近", "image": "", "rank": 39, "time": 2, "location": {"lat": 32.54389480686441, "lng": 120.46958358091113}, "feature": {"sight_features": "", "sight_content": ""}}, {"title": "童年时光儿童主题亲子乐园", "address": "江苏省南通市如东县掘港镇长江路301号长江菜场2楼西侧", "image": "", "rank": 40, "time": 2, "location": {"lat": 32.341068063519046, "lng": 121.18441541322046}, "feature": {"sight_features": "", "sight_content": ""}}, {"title": "七彩乐园", "address": "如东县西街三元世界城内（金菠萝西20米）", "image": "", "rank": 41, "time": 2, "location": {"lat": 32.31947748025141, "lng": 121.19455207225614}, "feature": {"sight_features": "", "sight_content": ""}}, {"title": "文化广场(陵园路)", "address": "江海东路与陵园路交叉口西北150米", "image": "", "rank": 42, "time": 2, "location": {"lat": 32.32117625976542, "lng": 121.19696293470247}, "feature": {"sight_features": "", "sight_content": ""}}, {"title": "烈士纪念碑", "address": "陵园路烈士纪念碑附近", "image": "", "rank": 43, "time": 2, "location": {"lat": 32.49284711515847, "lng": 120.81838735859729}, "feature": {"sight_features": "", "sight_content": ""}}, {"title": "五义革命烈士纪念碑", "address": "301县道附近", "image": "", "rank": 44, "time": 2, "location": {"lat": 39.31527850746868, "lng": 115.9545874528234}, "feature": {"sight_features": "", "sight_content": ""}}, {"title": "绿城温泉会所", "address": "南通市如东县掘港镇珠江路99号（嘉汇小区南大门壁）", "image": "", "rank": 45, "time": 2, "location": {"lat": 32.32728377570032, "lng": 121.1764862034331}, "feature": {"sight_features": "", "sight_content": ""}}, {"title": "如东县档案馆", "address": "长江路", "image": "", "rank": 46, "time": 2, "location": {"lat": 39.11339655925886, "lng": 117.21541501905301}, "feature": {"sight_features": "", "sight_content": ""}}, {"title": "彩神缘红木艺术馆", "address": "通洋路18号", "image": "", "rank": 47, "time": 2, "location": {"lat": 33.399281736712, "lng": 120.1518750032758}, "feature": {"sight_features": "", "sight_content": ""}}, {"title": "如东县图书馆(大豫分馆)", "address": "334省道", "image": "", "rank": 48, "time": 2, "location": {"lat": 38.85002562691257, "lng": 115.58014640777708}, "feature": {"sight_features": "", "sight_content": ""}}, {"title": "汤成沅金石纪念馆", "address": "范堤路", "image": "", "rank": 49, "time": null, "location": {"lat": 32.32408064215324, "lng": 121.20247288019208}, "feature": {"sight_features": "", "sight_content": ""}}, {"title": "学才图书楼", "address": "潘颂路", "image": "", "rank": 50, "time": 2, "location": {"lat": 32.23510685111849, "lng": 121.16367982713365}, "feature": {"sight_features": "", "sight_content": ""}}, {"title": "沿海生态农业园", "address": "海堤河桥旁", "image": "", "rank": 51, "time": 2, "location": {"lat": 32.430253801310435, "lng": 121.33219834758347}, "feature": {"sight_features": "", "sight_content": ""}}, {"title": "着名瓷像艺术馆", "address": "双闸路", "image": "", "rank": 52, "time": 2, "location": {"lat": 30.46016455041921, "lng": 120.45853112725163}, "feature": {"sight_features": "", "sight_content": ""}}, {"title": "如东规划馆(智能3D画展)", "address": "掘港镇泰山路9号如东规划馆内(县政府东侧)", "image": "", "rank": 53, "time": 2, "location": {"lat": 32.332882740188055, "lng": 121.19541052264557}, "feature": {"sight_features": "", "sight_content": ""}}, {"title": "颠九宫 真人密室逃脱", "address": "掘港镇青园北路9号楼601室(盛世华城艺华通讯楼上6F)", "image": "", "rank": 54, "time": 2, "location": {"lat": 32.31708520351301, "lng": 121.19022531729274}, "feature": {"sight_features": "", "sight_content": ""}}, {"title": "洋口渔港旅游度假区", "address": "掘港镇黄海西路县海洋与渔业局内", "image": "", "rank": 55, "time": 2, "location": {"lat": 32.317586011470105, "lng": 121.19100268752513}, "feature": {"sight_features": "", "sight_content": ""}}, {"title": "如东县革命烈士陵园", "address": "陵园路", "image": "", "rank": 56, "time": 2, "location": {"lat": 39.621393536285936, "lng": 118.17592745707117}, "feature": {"sight_features": "", "sight_content": ""}}, {"title": "石来运转艺术馆", "address": "掘港镇三元世纪城环元北路21号", "image": "", "rank": 57, "time": 2, "location": {"lat": 32.319578517432355, "lng": 121.193513479273}, "feature": {"sight_features": "", "sight_content": ""}}, {"title": "水韵名居生态运动社区水上乐园", "address": "倍得满家居广场", "image": "", "rank": 58, "time": 2, "location": {"lat": 40.28575914325402, "lng": 123.29724515405174}, "feature": {"sight_features": "", "sight_content": ""}}, {"title": "舞状元街舞工作室", "address": "幸福路3-1号(近文峰大世界)", "image": "", "rank": 59, "time": 2, "location": {"lat": 33.39206267312806, "lng": 120.13466772138462}, "feature": {"sight_features": "", "sight_content": ""}}, {"title": "桐炜画廊", "address": "江海西路与通洋南路交叉口北150米", "image": "", "rank": 60, "time": 2, "location": {"lat": 32.35882310994939, "lng": 120.92423290022698}, "feature": {"sight_features": "", "sight_content": ""}}]}