{"cityName": "如皋", "days": 2, "cityImage": "", "spots": [{"title": "水绘园", "address": "南通市如皋市碧霞路299号", "image": "", "rank": 1, "time": 2.5, "location": {"lat": 32.40136507275452, "lng": 120.57782563455274}, "feature": {"sight_features": "特色1 不只是单纯的古典园林，还有游乐园、动物园等项目。", "sight_content": "水绘园，国家AAAA级旅游景区，是我国徽派园林的孤本代表，是我国众多的名园之中，一处出类拔萃的佼佼者，是江海平原上一颗璀璨的明珠。“绘者，会也。”园以水为贵、倒影为佳，既秀且雅；而其以园言志，以园为忆、并融诗、文、琴、棋、书、画、博古，曲艺等于一园的特色，又足以说明它原来是一座饶有书卷气的“文人园”。江南才子冒辟疆与秦淮佳丽董小婉栖隐过，因此颇为出名。\n在我国众多的名园之中，有一个出类拔萃的佼佼者，那就是明末清初江南才子冒辟疆与秦淮佳丽董小宛栖隐过的如皋水绘园。水绘园是江海平原上一颗璀璨的明珠。是园以水为贵、倒影为佳，既秀且雅；而其以园言志，以园为忆、并融诗、文、琴、棋、书、画、博古，曲艺等于一园的特色，又足以说明它原来是一座饶有书卷气的“文人园”。\n中国第一情侣文化园——水绘园风景区位于中国旅游城市、我国长寿之乡——如皋境内，占地面积约30万平方米。由重点文物保护单位水绘园、水明楼古建筑群、中国如派盆景园（古澹园）、匿峰庐、逸园、中国如皋长寿博物馆、灵威观、动物园、游乐园等景区景点组成。"}}, {"title": "红十四军纪念馆", "address": "南通市如皋市福寿东路156号", "image": "", "rank": 2, "time": 2.0, "location": {"lat": 32.38995354470874, "lng": 120.59792033984468}, "feature": {"sight_features": "", "sight_content": ""}}, {"title": "定慧禅寺", "address": "南通市如皋市如城镇曙光路17号", "image": "", "rank": 3, "time": 1.5, "location": {"lat": 32.39572583902633, "lng": 120.57877738924057}, "feature": {"sight_features": "", "sight_content": ""}}, {"title": "法宝禅寺", "address": "南通市如皋市白蒲镇", "image": "", "rank": 4, "time": 1.0, "location": {"lat": 32.25896965171511, "lng": 120.77173268246146}, "feature": {"sight_features": "", "sight_content": ""}}, {"title": "东方大寿星园", "address": "南通市如皋市花市路", "image": "", "rank": 5, "time": 1.0, "location": {"lat": 32.41152623890232, "lng": 120.53939632425973}, "feature": {"sight_features": "", "sight_content": ""}}, {"title": "如皋烈士陵园", "address": "南通市如皋市福寿东路148号", "image": "", "rank": 6, "time": 1.5, "location": {"lat": 32.389748617640564, "lng": 120.59869985163739}, "feature": {"sight_features": "", "sight_content": ""}}, {"title": "长江药用植物园", "address": "南通市如皋长江镇环岛东路8号", "image": "", "rank": 7, "time": 2, "location": {"lat": 32.06104583484792, "lng": 120.6217164860413}, "feature": {"sight_features": "", "sight_content": ""}}, {"title": "李昌钰刑侦技术博物馆", "address": "南通市如皋市中山东路与迎春桥东河边交会处", "image": "", "rank": 8, "time": 1.5, "location": {"lat": 32.402706792702915, "lng": 120.60928024395093}, "feature": {"sight_features": "", "sight_content": ""}}, {"title": "大成殿", "address": "如皋师范附属小学校园内", "image": "", "rank": 9, "time": 1.0, "location": {"lat": 32.39613520769071, "lng": 120.57532520655556}, "feature": {"sight_features": "", "sight_content": ""}}, {"title": "花木大世界", "address": "南通市如东县花市路", "image": "", "rank": 10, "time": 1.0, "location": {"lat": 32.33587288615511, "lng": 121.19243791023843}, "feature": {"sight_features": "", "sight_content": ""}}, {"title": "九华地藏寺", "address": "南通市如皋市九华镇庙前路", "image": "", "rank": 11, "time": 1.0, "location": {"lat": 32.14286142765786, "lng": 120.70319819730733}, "feature": {"sight_features": "", "sight_content": ""}}, {"title": "如皋市博物馆", "address": "南通市如皋市宣化南路与惠政路交会处", "image": "", "rank": 12, "time": 2.0, "location": {"lat": 32.36931935572651, "lng": 120.58036198938052}, "feature": {"sight_features": "", "sight_content": ""}}, {"title": "顾庄村园艺大世界", "address": "南通市如皋市顾庄村", "image": "", "rank": 13, "time": 2, "location": {"lat": 32.36015147365231, "lng": 120.57358169976413}, "feature": {"sight_features": "", "sight_content": ""}}, {"title": "苏通生态观光园", "address": "南通市如皋市明场路", "image": "", "rank": 14, "time": 2, "location": {"lat": 32.33063133820108, "lng": 120.57197586907178}, "feature": {"sight_features": "", "sight_content": ""}}, {"title": "如皋丝毯艺术博物馆", "address": "南通市如皋市碧霞路（近中山东路）", "image": "", "rank": 15, "time": 1.5, "location": {"lat": 32.402706792702915, "lng": 120.60928024395093}, "feature": {"sight_features": "", "sight_content": ""}}, {"title": "蒲新生态园", "address": "南通市如皋市白蒲镇钱园社区16组（G15沈海高速白蒲出口向东1.2公里）", "image": "", "rank": 16, "time": 2, "location": {"lat": 32.25118683586953, "lng": 120.91132880805075}, "feature": {"sight_features": "", "sight_content": ""}}, {"title": "如皋龙盛游乐场", "address": "如城镇大司马南路南端，顾庄生态园游乐场旁(如皋市大司马南路南端)", "image": "", "rank": 17, "time": 2, "location": {"lat": 32.3530170498999, "lng": 120.57218283866126}, "feature": {"sight_features": "", "sight_content": ""}}, {"title": "如皋市美珍有机草莓园", "address": "下原镇花园头村25组", "image": "", "rank": 18, "time": 1.5, "location": {"lat": 32.2755135989686, "lng": 120.6455038755558}, "feature": {"sight_features": "", "sight_content": ""}}, {"title": "南通支云足球俱乐部", "address": "如城街道惠政东路188号西奥体中心奥体酒店", "image": "", "rank": 19, "time": 3.0, "location": {"lat": 32.38078258042313, "lng": 120.59637337511238}, "feature": {"sight_features": "", "sight_content": ""}}, {"title": "队长农家乐", "address": "013县道东50米", "image": "", "rank": 20, "time": 2, "location": {"lat": 44.74936812620221, "lng": 125.66530522926108}, "feature": {"sight_features": "", "sight_content": ""}}, {"title": "焦港村葡萄园", "address": "省334与王石线交汇处往南", "image": "", "rank": 21, "time": 2, "location": {"lat": 21.61293072722965, "lng": 110.28820210352386}, "feature": {"sight_features": "", "sight_content": ""}}, {"title": "如皋钰水晶水果采摘园", "address": "小康路66号", "image": "", "rank": 22, "time": null, "location": {"lat": 30.900288002502506, "lng": 121.24701631020987}, "feature": {"sight_features": "", "sight_content": ""}}, {"title": "凯利尔温泉", "address": "336省道", "image": "", "rank": 23, "time": 2, "location": {"lat": 31.893686636307606, "lng": 121.10505712819689}, "feature": {"sight_features": "", "sight_content": ""}}, {"title": "天阳垂钓馆", "address": "丁阳路与如港公路交叉口东50米", "image": "", "rank": 24, "time": null, "location": {"lat": 32.30892419900844, "lng": 120.57903661146497}, "feature": {"sight_features": "", "sight_content": ""}}, {"title": "南通如皋市内外城河风光带", "address": "上海都市圈内", "image": "", "rank": 25, "time": 3.0, "location": {"lat": 31.235929042252014, "lng": 121.48053886017651}, "feature": {"sight_features": "", "sight_content": ""}}, {"title": "璟瑂垂钓园", "address": "314县道附近", "image": "", "rank": 26, "time": 2, "location": {"lat": 24.744712359179193, "lng": 113.52183166968906}, "feature": {"sight_features": "", "sight_content": ""}}, {"title": "天池垂钓", "address": "336省道和石洪线的交叉口附近(盛情大酒店附近)", "image": "", "rank": 27, "time": 2, "location": {"lat": 32.142665893427484, "lng": 120.52950578117103}, "feature": {"sight_features": "", "sight_content": ""}}, {"title": "江苏九鼎集团鲜切花基地", "address": "南二号渠路与635乡道交叉口南50米", "image": "", "rank": 28, "time": 2, "location": {"lat": 32.294019979546576, "lng": 120.42446062975074}, "feature": {"sight_features": "", "sight_content": ""}}, {"title": "金磊现代农场", "address": "长江镇五零村八组99号", "image": "", "rank": 29, "time": 2, "location": {"lat": 32.12261252231572, "lng": 120.64095742021719}, "feature": {"sight_features": "", "sight_content": ""}}, {"title": "港城海明生态果园", "address": "204国道西100米", "image": "", "rank": 30, "time": 2, "location": {"lat": 31.674195505838682, "lng": 120.84039674189728}, "feature": {"sight_features": "", "sight_content": ""}}, {"title": "万福广场", "address": "万福路南30米", "image": "", "rank": 31, "time": 2, "location": {"lat": 39.361971110186595, "lng": 114.69879195690802}, "feature": {"sight_features": "", "sight_content": ""}}, {"title": "佛光普照", "address": "徐东线", "image": "", "rank": 32, "time": 2, "location": {"lat": 24.919899639760697, "lng": 118.66043661401986}, "feature": {"sight_features": "", "sight_content": ""}}, {"title": "祥水牡丹园", "address": "江苏省南通市如皋市中心大道8号", "image": "", "rank": 33, "time": 2, "location": {"lat": 32.37785148610902, "lng": 120.57946558109177}, "feature": {"sight_features": "", "sight_content": ""}}, {"title": "古希图", "address": "南通市如皋市中山路418号文峰大世界F1", "image": "", "rank": 34, "time": 2, "location": {"lat": 32.396084065558746, "lng": 120.56833494700928}, "feature": {"sight_features": "", "sight_content": ""}}, {"title": "时代广场", "address": "海阳北路西50米", "image": "", "rank": 35, "time": 2.0, "location": {"lat": 32.41755270248569, "lng": 120.56726726958863}, "feature": {"sight_features": "", "sight_content": ""}}, {"title": "振兴广场", "address": "卓吾路与振兴路交叉口东南100米", "image": "", "rank": 36, "time": 2, "location": {"lat": 30.00306126222409, "lng": 121.16937598237242}, "feature": {"sight_features": "", "sight_content": ""}}, {"title": "景诚中央公园", "address": "江苏省南通市如皋市仁寿路与通扬路交汇处(博爱医院西门斜对面)", "image": "", "rank": 37, "time": 2, "location": {"lat": 32.4046180826556, "lng": 120.5611191966105}, "feature": {"sight_features": "", "sight_content": ""}}, {"title": "新悦广场", "address": "南通市如皋市起凤路", "image": "", "rank": 38, "time": 2, "location": {"lat": 32.41582813071211, "lng": 120.55375082230897}, "feature": {"sight_features": "", "sight_content": ""}}, {"title": "观音阁", "address": "新桃路与桃金中路交叉口西南50米", "image": "", "rank": 39, "time": 1.0, "location": {"lat": 32.300300831312555, "lng": 120.61156979113643}, "feature": {"sight_features": "", "sight_content": ""}}, {"title": "如皋市皋城雕塑", "address": "如城益寿南路270号", "image": "", "rank": 40, "time": 1.5, "location": {"lat": 32.357946227755846, "lng": 120.57032990819364}, "feature": {"sight_features": "", "sight_content": ""}}, {"title": "如皋知青墙知青亭", "address": "江苏省南通市如皋市环岛西路", "image": "", "rank": 41, "time": 2, "location": {"lat": 32.05457929171054, "lng": 120.58623116365033}, "feature": {"sight_features": "", "sight_content": ""}}, {"title": "如皋金岛生态园", "address": "长江镇长青沙环岛东路18号（金岛生态园内）", "image": "", "rank": 42, "time": 2, "location": {"lat": 32.06033936173256, "lng": 120.63955539258741}, "feature": {"sight_features": "", "sight_content": ""}}, {"title": "南通市宏梅歌舞杂技团", "address": "312县道附近", "image": "", "rank": 43, "time": 3.0, "location": {"lat": 40.41741109777552, "lng": 113.68456269181779}, "feature": {"sight_features": "", "sight_content": ""}}, {"title": "戴氏家藏博物馆", "address": "中山路220号", "image": "", "rank": 44, "time": 2, "location": {"lat": 31.579201876704374, "lng": 120.30717417931542}, "feature": {"sight_features": "", "sight_content": ""}}, {"title": "贝比熊儿童乐园", "address": "江苏省南通市如皋市郭园镇工业园区鑫淼大酒店附近", "image": "", "rank": 45, "time": 2, "location": {"lat": 32.15957460757291, "lng": 120.61313562657257}, "feature": {"sight_features": "", "sight_content": ""}}, {"title": "宝庆禅寺", "address": "江苏省南通市如皋市人民路与立新河北路交叉口西北边", "image": "", "rank": 46, "time": 1.0, "location": {"lat": 32.17939800424642, "lng": 120.42093503035301}, "feature": {"sight_features": "", "sight_content": ""}}, {"title": "糖糖儿童乐园", "address": "江苏省南通市如皋市人民路", "image": "", "rank": 47, "time": 2, "location": {"lat": 32.31112761561159, "lng": 120.41646033615007}, "feature": {"sight_features": "", "sight_content": ""}}, {"title": "儿童乐园", "address": "江苏省南通市如皋市搬经镇绘龙路建工公寓旁", "image": "", "rank": 48, "time": 2, "location": {"lat": 32.3166590684237, "lng": 120.41676656580351}, "feature": {"sight_features": "", "sight_content": ""}}, {"title": "塘湾农民公园", "address": "塘鞠路与204国道交叉口东北200米", "image": "", "rank": 49, "time": 2, "location": {"lat": 32.332447527848366, "lng": 120.51842219314473}, "feature": {"sight_features": "", "sight_content": ""}}, {"title": "东方牡丹园", "address": "圃园新路与益寿南路交叉口西200米", "image": "", "rank": 50, "time": 1.0, "location": {"lat": 32.36420235180809, "lng": 120.56693606255048}, "feature": {"sight_features": "", "sight_content": ""}}, {"title": "9D虚拟现实体验馆", "address": "南通市如皋市中山西路1号正翔商业广场F1", "image": "", "rank": 51, "time": 2.0, "location": {"lat": 32.3914398140519, "lng": 120.5585555440749}, "feature": {"sight_features": "", "sight_content": ""}}, {"title": "净土寺", "address": "复兴路与301县道交叉口东150米", "image": "", "rank": 52, "time": 1.0, "location": {"lat": 39.31527850746868, "lng": 115.9545874528234}, "feature": {"sight_features": "", "sight_content": ""}}, {"title": "云轩园", "address": "弥陀寺附近", "image": "", "rank": 53, "time": 2, "location": {"lat": 37.75277249510742, "lng": 112.54798374106494}, "feature": {"sight_features": "", "sight_content": ""}}, {"title": "兄弟水族馆", "address": "蒲涛路139号附近", "image": "", "rank": 54, "time": 2, "location": {"lat": 32.24640360089145, "lng": 120.7678268698668}, "feature": {"sight_features": "", "sight_content": ""}}, {"title": "如皋知青故居", "address": "江苏省南通市如皋市东大街秀女巷10号", "image": "", "rank": 55, "time": 1.5, "location": {"lat": 32.37785148610902, "lng": 120.57946558109177}, "feature": {"sight_features": "", "sight_content": ""}}, {"title": "胡瑗纪念馆", "address": "南通市如皋市水绘园路1号水绘园风景区内", "image": "", "rank": 56, "time": 2, "location": {"lat": 32.40158620387848, "lng": 120.5758289978449}, "feature": {"sight_features": "", "sight_content": ""}}, {"title": "梦幻乐园", "address": "中山路418号文峰大世界5楼", "image": "", "rank": 57, "time": 1.5, "location": {"lat": 34.74413269639359, "lng": 119.3755470145809}, "feature": {"sight_features": "", "sight_content": ""}}, {"title": "彤乐儿童游乐园", "address": "如城镇普庆路上海新城商铺44-2(小区东大门向南100米)", "image": "", "rank": 58, "time": 2, "location": {"lat": 32.40528897328542, "lng": 120.56903394817068}, "feature": {"sight_features": "", "sight_content": ""}}, {"title": "贝美奈儿童乐园", "address": "南通市如皋市", "image": "", "rank": 59, "time": 2, "location": {"lat": 32.37785148610902, "lng": 120.57946558109177}, "feature": {"sight_features": "", "sight_content": ""}}, {"title": "儿童乐园", "address": "江苏省南通市如皋市S334", "image": "", "rank": 60, "time": 2, "location": {"lat": 32.37785148610902, "lng": 120.57946558109177}, "feature": {"sight_features": "", "sight_content": ""}}]}