{"cityName": "瑞安", "days": 2, "cityImage": "", "spots": [{"title": "寨寮溪", "address": "温州市瑞安市龙湖镇龙湖东路", "image": "", "rank": 1, "time": 3.5, "location": {"lat": 27.76734256604417, "lng": 120.29890085857237}, "feature": {"sight_features": "", "sight_content": ""}}, {"title": "花岩国家森林公园", "address": "温州市高楼镇红双林场", "image": "", "rank": 2, "time": 5.0, "location": {"lat": 27.840182575918885, "lng": 120.30792972725017}, "feature": {"sight_features": "", "sight_content": ""}}, {"title": "瑞安外滩", "address": "温州市瑞安市滨江大道 ‎", "image": "", "rank": 3, "time": 2.0, "location": {"lat": 27.766095661785346, "lng": 120.64350614663569}, "feature": {"sight_features": "", "sight_content": ""}}, {"title": "玉海楼", "address": "温州市瑞安市道院前街5号", "image": "", "rank": 4, "time": null, "location": {"lat": 27.787109778714534, "lng": 120.64007908776033}, "feature": {"sight_features": "", "sight_content": ""}}, {"title": "隆山公园", "address": "温州市瑞安市隆山路", "image": "", "rank": 5, "time": 1.0, "location": {"lat": 27.78128851661265, "lng": 120.6492555534232}, "feature": {"sight_features": "", "sight_content": ""}}, {"title": "桐溪风景名胜区", "address": "温州市瑞安市桐浦乡桐星村", "image": "", "rank": 6, "time": 2.5, "location": {"lat": 27.886479160785807, "lng": 120.55247615030358}, "feature": {"sight_features": "", "sight_content": ""}}, {"title": "卧龙峡风景区", "address": "温州市瑞安市潮基乡", "image": "", "rank": 7, "time": 3.0, "location": {"lat": 27.893636615362954, "lng": 120.44365391170754}, "feature": {"sight_features": "", "sight_content": ""}}, {"title": "林垟", "address": "浙江省温州瑞安市林垟镇", "image": "", "rank": 8, "time": 2, "location": {"lat": 27.783950736231652, "lng": 120.66158218606775}, "feature": {"sight_features": "", "sight_content": ""}}, {"title": "瑞安市博物馆", "address": "温州市瑞安市瑞安广场东首", "image": "", "rank": 9, "time": 1.5, "location": {"lat": 27.777161402175675, "lng": 120.6668399969617}, "feature": {"sight_features": "", "sight_content": ""}}, {"title": "白岩山", "address": "浙江省温州瑞安市", "image": "", "rank": 10, "time": 2, "location": {"lat": 27.783950736231652, "lng": 120.66158218606775}, "feature": {"sight_features": "", "sight_content": ""}}, {"title": "九珠潭", "address": "温州市瑞安市高楼镇杭山村", "image": "", "rank": 11, "time": 3.0, "location": {"lat": 27.76552860379146, "lng": 120.31828510301311}, "feature": {"sight_features": "", "sight_content": ""}}, {"title": "利济医学堂旧址", "address": "温州市瑞安市玉海街道公园路10号", "image": "", "rank": 12, "time": 1.0, "location": {"lat": 27.788370300659626, "lng": 120.64018343403}, "feature": {"sight_features": "", "sight_content": ""}}, {"title": "飞云江大桥", "address": "温州市瑞安市区三圣门", "image": "", "rank": 13, "time": 0.75, "location": {"lat": 27.78118463031278, "lng": 120.64362990977898}, "feature": {"sight_features": "", "sight_content": ""}}, {"title": "瑞安广场‎", "address": "温州市瑞安市罗阳大道", "image": "", "rank": 14, "time": 1.0, "location": {"lat": 27.778009988153094, "lng": 120.66753049655952}, "feature": {"sight_features": "", "sight_content": ""}}, {"title": "万松公园", "address": "温州市瑞安市阳光北路", "image": "", "rank": 15, "time": 1.0, "location": {"lat": 27.78674400646718, "lng": 120.65488667403609}, "feature": {"sight_features": "", "sight_content": ""}}, {"title": "湖滨公园", "address": "温州市瑞安市公园路", "image": "", "rank": 16, "time": 1.5, "location": {"lat": 27.78863054299952, "lng": 120.63809573070345}, "feature": {"sight_features": "", "sight_content": ""}}, {"title": "烈士陵园", "address": "温州市瑞安市区西山之上", "image": "", "rank": 17, "time": 2, "location": {"lat": 27.797620551386753, "lng": 120.63897961481649}, "feature": {"sight_features": "", "sight_content": ""}}, {"title": "巾仙溪峡谷乐园", "address": "瑞安市湖岭镇永安乡直干村", "image": "", "rank": 18, "time": 2, "location": {"lat": 27.902838813375308, "lng": 120.36108605748005}, "feature": {"sight_features": "", "sight_content": ""}}, {"title": "青云谷", "address": "温州市瑞安市顺泰乡大坟脚村东坑", "image": "", "rank": 19, "time": null, "location": {"lat": 27.80567440207871, "lng": 120.39391217007595}, "feature": {"sight_features": "", "sight_content": ""}}, {"title": "中国木活字印刷文化村", "address": "温州市瑞安市平阳坑镇东源村", "image": "", "rank": 20, "time": 1.5, "location": {"lat": 27.75040449418801, "lng": 120.39112553206284}, "feature": {"sight_features": "", "sight_content": ""}}, {"title": "马鞍山公园", "address": "温州市瑞安市马鞍山路（万松东路口）", "image": "", "rank": 21, "time": 1.0, "location": {"lat": 27.785494738441948, "lng": 120.66296159885587}, "feature": {"sight_features": "", "sight_content": ""}}, {"title": "塘下亿嘉密室", "address": "温州市瑞安市塘下镇亿嘉广场C幢2单元1703", "image": "", "rank": 22, "time": 2, "location": {"lat": 27.831603641028494, "lng": 120.70328734974518}, "feature": {"sight_features": "", "sight_content": ""}}, {"title": "圣井山风景区", "address": "温州市瑞安市大南乡境内", "image": "", "rank": 23, "time": 2, "location": {"lat": 27.72228367178024, "lng": 120.41985949206197}, "feature": {"sight_features": "", "sight_content": ""}}, {"title": "东安硐桥", "address": "浙江省温州市瑞安市丰湖街", "image": "", "rank": 24, "time": 2, "location": {"lat": 27.783153696575248, "lng": 120.64925298426944}, "feature": {"sight_features": "", "sight_content": ""}}, {"title": "金鸡山", "address": "浙江省温州市瑞安市", "image": "", "rank": 25, "time": 2.5, "location": {"lat": 27.783950736231652, "lng": 120.66158218606775}, "feature": {"sight_features": "", "sight_content": ""}}, {"title": "莲湖桥", "address": "温州市瑞安市区沿江东路以北,小东门街以南", "image": "", "rank": 26, "time": 0.4, "location": {"lat": 27.78037159833853, "lng": 120.64300293385529}, "feature": {"sight_features": "", "sight_content": ""}}, {"title": "叶适纪念馆‎", "address": "温州市瑞安市莘塍街道东街446号", "image": "", "rank": 27, "time": 1.0, "location": {"lat": 27.785398479093242, "lng": 120.69229597008817}, "feature": {"sight_features": "", "sight_content": ""}}, {"title": "上埠公园", "address": "温州市瑞安市拱瑞山路", "image": "", "rank": 28, "time": null, "location": {"lat": 27.773160713456228, "lng": 120.65457889660237}, "feature": {"sight_features": "", "sight_content": ""}}, {"title": "巾仙溪农家乐景区", "address": "温州市瑞安市湖岭镇永安乡", "image": "", "rank": 29, "time": 2, "location": {"lat": 27.902838813375308, "lng": 120.36108605748005}, "feature": {"sight_features": "", "sight_content": ""}}, {"title": "拱瑞寺‎", "address": "温州市瑞安市塘河南路", "image": "", "rank": 30, "time": 1.0, "location": {"lat": 27.78138296391161, "lng": 120.65713720332103}, "feature": {"sight_features": "", "sight_content": ""}}, {"title": "抗美援朝历史教育馆", "address": "温州市瑞安市区烈士陵园右首", "image": "", "rank": 31, "time": 1.0, "location": {"lat": 27.78827225487843, "lng": 120.63224586371591}, "feature": {"sight_features": "", "sight_content": ""}}, {"title": "陈傅良纪念馆", "address": "温州市瑞安市塘下镇陈宅村", "image": "", "rank": 32, "time": 1.0, "location": {"lat": 27.834362494345616, "lng": 120.68917238216991}, "feature": {"sight_features": "", "sight_content": ""}}, {"title": "观音寺石塔", "address": "温州市瑞安市万松山麓（观音寺西侧）", "image": "", "rank": 33, "time": 0.25, "location": {"lat": 27.563279418032312, "lng": 120.57453311414422}, "feature": {"sight_features": "", "sight_content": ""}}, {"title": "蔡雄烈士纪念馆", "address": "温州市瑞安市塘下镇镇东村", "image": "", "rank": 34, "time": 1.0, "location": {"lat": 27.833678479241843, "lng": 120.73944323203483}, "feature": {"sight_features": "", "sight_content": ""}}, {"title": "农民暴动史迹展览室", "address": "温州市瑞安市仙降街道下社村下社宫", "image": "", "rank": 35, "time": 1.0, "location": {"lat": 27.78631929805516, "lng": 120.54510239784939}, "feature": {"sight_features": "", "sight_content": ""}}, {"title": "李毓蒙纪念馆", "address": "温州市瑞安市拱瑞山路567号", "image": "", "rank": 36, "time": 1.0, "location": {"lat": 27.770106630438757, "lng": 120.6494960244183}, "feature": {"sight_features": "", "sight_content": ""}}, {"title": "垟底公园", "address": "温州市瑞安市莘塍街道垟底村", "image": "", "rank": 37, "time": 0.75, "location": {"lat": 27.79118479053623, "lng": 120.69258173185045}, "feature": {"sight_features": "", "sight_content": ""}}, {"title": "圣井山石殿", "address": "浙江省温州市瑞安市大南乡圣井山山巅", "image": "", "rank": 38, "time": 2, "location": {"lat": 27.724948567642162, "lng": 120.43773857082459}, "feature": {"sight_features": "", "sight_content": ""}}, {"title": "山皇古寨", "address": "浙江省瑞安市西泰山", "image": "", "rank": 39, "time": 2, "location": {"lat": 27.783950736231652, "lng": 120.66158218606775}, "feature": {"sight_features": "", "sight_content": ""}}, {"title": "陶山革命烈士纪念馆", "address": "温州市瑞安市桐溪水库库区内", "image": "", "rank": 40, "time": 1.0, "location": {"lat": 27.88709285807246, "lng": 120.54535955486934}, "feature": {"sight_features": "", "sight_content": ""}}, {"title": "肇平垟革命纪念馆", "address": "温州市瑞安市塘下镇肇平垟中村", "image": "", "rank": 41, "time": 1.0, "location": {"lat": 27.839547863276835, "lng": 120.68265928903809}, "feature": {"sight_features": "", "sight_content": ""}}, {"title": "林去病故居纪念馆", "address": "温州市瑞安市区西门街4弄3号", "image": "", "rank": 42, "time": 1.0, "location": {"lat": 27.83578584009063, "lng": 120.7370819794094}, "feature": {"sight_features": "", "sight_content": ""}}, {"title": "夏鼐纪念馆‎", "address": "温州市瑞安市后岸路", "image": "", "rank": 43, "time": 1.0, "location": {"lat": 27.786673786992797, "lng": 120.69781057778155}, "feature": {"sight_features": "", "sight_content": ""}}, {"title": "东一上村革命纪念馆", "address": "温州市瑞安市莘塍街道上村", "image": "", "rank": 44, "time": 1.0, "location": {"lat": 27.79235262159532, "lng": 120.68434312768207}, "feature": {"sight_features": "", "sight_content": ""}}, {"title": "章安四贤祠", "address": "浙江瑞安市安阳镇西岘山", "image": "", "rank": 45, "time": 2, "location": {"lat": 27.776930505098267, "lng": 120.660454632992}, "feature": {"sight_features": "", "sight_content": ""}}, {"title": "高则诚纪念堂", "address": "温州市瑞安市南滨街道柏树村", "image": "", "rank": 46, "time": 1.0, "location": {"lat": 27.717259087060246, "lng": 120.65972956031004}, "feature": {"sight_features": "", "sight_content": ""}}, {"title": "大坪遗址", "address": "浙江省温州市瑞安市北龙乡大岙村北龙山北麓", "image": "", "rank": 47, "time": 2, "location": {"lat": 27.66330098800456, "lng": 120.99057763186562}, "feature": {"sight_features": "", "sight_content": ""}}, {"title": "全学梅烈士纪念馆", "address": "温州市瑞安市飞云街道上步村", "image": "", "rank": 48, "time": 1.0, "location": {"lat": 27.755040250522423, "lng": 120.62339554224118}, "feature": {"sight_features": "", "sight_content": ""}}, {"title": "龙井风景区", "address": "浙江省温州市瓯海区 ‎", "image": "", "rank": 49, "time": 3.0, "location": {"lat": 27.972857351642503, "lng": 120.62144724335346}, "feature": {"sight_features": "", "sight_content": ""}}, {"title": "山前山遗址", "address": "浙江省温州市瑞安市 ‎", "image": "", "rank": 50, "time": 2, "location": {"lat": 27.783950736231652, "lng": 120.66158218606775}, "feature": {"sight_features": "", "sight_content": ""}}, {"title": "塘下华侨历史陈列馆", "address": "温州市瑞安市塘下镇新居村", "image": "", "rank": 51, "time": 1.0, "location": {"lat": 27.83063727699112, "lng": 120.66154681977984}, "feature": {"sight_features": "", "sight_content": ""}}, {"title": "铜盘岛风景区", "address": "浙江省温州市瑞安市 ‎", "image": "", "rank": 52, "time": 2, "location": {"lat": 27.783950736231652, "lng": 120.66158218606775}, "feature": {"sight_features": "", "sight_content": ""}}, {"title": "瑞安幸福谷乐园", "address": "温州市瑞安市高楼镇下泽村赵山渡引水渠北侧", "image": "", "rank": 53, "time": 2, "location": {"lat": 27.79506739865673, "lng": 120.30752402912606}, "feature": {"sight_features": "特色1 艺术与文化体验，科技农业观光等多功能集于一身的度假区", "sight_content": "瑞安幸福谷是一个以幸福为主题，集家庭假日休闲、亲子教育培训、艺术与文化体验，科技农业观光等多功能集于一身的度假区，由快乐驿站、勇士谷、乐之海、悦之湾、梦之国等分区构成。"}}, {"title": "猎鹰动力滑翔伞基地", "address": "温州市瑞安市桐浦镇沙岙村后浦路庙边", "image": "", "rank": 54, "time": 2, "location": {"lat": 27.857601645445254, "lng": 120.54546482998693}, "feature": {"sight_features": "", "sight_content": ""}}, {"title": "瑞安市西山烈士陵园", "address": "瑞安市西山公园内", "image": "", "rank": 55, "time": 2, "location": {"lat": 27.783950736231652, "lng": 120.66158218606775}, "feature": {"sight_features": "", "sight_content": ""}}, {"title": "巾仙溪漂流", "address": "瑞安市湖岭永安乡巾仙溪", "image": "", "rank": 56, "time": 2, "location": {"lat": 27.908306509038056, "lng": 120.40257923812499}, "feature": {"sight_features": "", "sight_content": ""}}, {"title": "外三甲窑址", "address": "浙江省温州市瑞安市梅屿外三甲", "image": "", "rank": 57, "time": 2, "location": {"lat": 27.80352070157712, "lng": 120.66036102955789}, "feature": {"sight_features": "", "sight_content": ""}}, {"title": "大桥", "address": "温州瑞安仙降林烊乡大桥村", "image": "", "rank": 58, "time": 1.5, "location": {"lat": 27.710948410747665, "lng": 120.63480890091138}, "feature": {"sight_features": "", "sight_content": ""}}, {"title": "万松广场", "address": "温州市瑞安市", "image": "", "rank": 59, "time": 2, "location": {"lat": 27.783950736231652, "lng": 120.66158218606775}, "feature": {"sight_features": "", "sight_content": ""}}, {"title": "大团山窑址", "address": "温州瑞安陶山荣垟村", "image": "", "rank": 60, "time": 2, "location": {"lat": 27.783950736231652, "lng": 120.66158218606775}, "feature": {"sight_features": "", "sight_content": ""}}]}