{"cityName": "瑞昌", "days": 2, "cityImage": "", "spots": [{"title": "青山", "address": "九江市瑞昌市庐山东麓鄱阳湖畔青山脚下", "image": "", "rank": 1, "time": 7.5, "location": {"lat": 29.26410086825497, "lng": 116.00951383554978}, "feature": {"sight_features": "", "sight_content": ""}}, {"title": "铜岭矿冶遗址", "address": "九江市瑞昌市夏畈镇铜岭村", "image": "", "rank": 2, "time": 2, "location": {"lat": 29.753156607712807, "lng": 115.55260085386878}, "feature": {"sight_features": "", "sight_content": ""}}, {"title": "人民公园", "address": "九江市瑞昌市人民北路165号", "image": "", "rank": 3, "time": 2.5, "location": {"lat": 29.68935803263882, "lng": 115.67193309355514}, "feature": {"sight_features": "", "sight_content": ""}}, {"title": "青峰峡漂流", "address": "九江市瑞昌市张家铺村", "image": "", "rank": 4, "time": 2, "location": {"lat": 29.630106172207356, "lng": 115.49042488774512}, "feature": {"sight_features": "", "sight_content": ""}}, {"title": "武山公园", "address": "瑞昌市求知路附近", "image": "", "rank": 5, "time": 3.0, "location": {"lat": 29.754574564936817, "lng": 115.64838670953536}, "feature": {"sight_features": "", "sight_content": ""}}, {"title": "瑞昌市博物馆", "address": "瑞昌市人民北路167号(人民公园旁)", "image": "", "rank": 6, "time": 2.5, "location": {"lat": 29.691463922070913, "lng": 115.6718492699731}, "feature": {"sight_features": "", "sight_content": ""}}, {"title": "安定湖公园", "address": "瑞昌市八里铺附近", "image": "", "rank": 7, "time": 2, "location": {"lat": 29.699260496451863, "lng": 115.70751587309911}, "feature": {"sight_features": "", "sight_content": ""}}, {"title": "峨嵋溶洞群", "address": "瑞昌市峨嵋乡附近", "image": "", "rank": 8, "time": 2, "location": {"lat": 29.494806464444043, "lng": 115.46841455943503}, "feature": {"sight_features": "", "sight_content": ""}}, {"title": "南山花千谷", "address": "九江市瑞昌市范镇红岗村南山花千谷", "image": "", "rank": 9, "time": 2.0, "location": {"lat": 29.591556394508967, "lng": 115.59606245005503}, "feature": {"sight_features": "", "sight_content": ""}}, {"title": "人民公园游乐场", "address": "瑞昌市人民北路附近（人民公园内）", "image": "", "rank": 10, "time": 2, "location": {"lat": 29.691897540342055, "lng": 115.67351523503237}, "feature": {"sight_features": "", "sight_content": ""}}, {"title": "植艺轩画廊", "address": "杨林东路", "image": "", "rank": 11, "time": 2, "location": {"lat": 30.93054766018661, "lng": 121.55961441252389}, "feature": {"sight_features": "", "sight_content": ""}}, {"title": "团结果业", "address": "高丰镇乐丰村", "image": "", "rank": 12, "time": 2, "location": {"lat": 29.641749507623132, "lng": 115.59142239936855}, "feature": {"sight_features": "", "sight_content": ""}}, {"title": "丰园油桃种植专业合作社", "address": "高丰镇乐丰村", "image": "", "rank": 13, "time": 2, "location": {"lat": 29.641749507623132, "lng": 115.59142239936855}, "feature": {"sight_features": "", "sight_content": ""}}, {"title": "立信儿童乐园", "address": "杨林大道立信中央广场一楼", "image": "", "rank": 14, "time": 2, "location": {"lat": 34.13081077618525, "lng": 118.79413314613585}, "feature": {"sight_features": "", "sight_content": ""}}, {"title": "梦幻儿童乐园", "address": "金铭福邸4号楼", "image": "", "rank": 15, "time": 2, "location": {"lat": 31.01504762843189, "lng": 121.41686108981294}, "feature": {"sight_features": "", "sight_content": ""}}, {"title": "雀友天地", "address": "其他温馨家园2楼", "image": "", "rank": 16, "time": 2, "location": {"lat": 38.70622991953281, "lng": 115.78760477159213}, "feature": {"sight_features": "", "sight_content": ""}}, {"title": "孩皮吧亲子乐园", "address": "九江市瑞昌市人民北路27号联盛购物广场F3", "image": "", "rank": 17, "time": 2, "location": {"lat": 29.683658237295624, "lng": 115.67203109868625}, "feature": {"sight_features": "", "sight_content": ""}}, {"title": "瑞昌县苏维埃革命纪念馆", "address": "江西省九江市瑞昌市", "image": "", "rank": 18, "time": 2, "location": {"lat": 29.681951286531458, "lng": 115.6874296720721}, "feature": {"sight_features": "", "sight_content": ""}}, {"title": "但家祠堂", "address": "九江市瑞昌市", "image": "", "rank": 19, "time": 2, "location": {"lat": 29.681951286531458, "lng": 115.6874296720721}, "feature": {"sight_features": "", "sight_content": ""}}, {"title": "塘坪祠堂", "address": "江西省九江市瑞昌市乐园乡周家祠堂附近", "image": "", "rank": 20, "time": 2, "location": {"lat": 29.519828320774767, "lng": 115.28916511587997}, "feature": {"sight_features": "", "sight_content": ""}}, {"title": "王母殿", "address": "九江市瑞昌市954乡道附近太清宫内", "image": "", "rank": 21, "time": 2.0, "location": {"lat": 29.591210415592666, "lng": 115.45132363326557}, "feature": {"sight_features": "", "sight_content": ""}}, {"title": "青山林场体育公园", "address": "九江市瑞昌市953乡道附近瑞昌市青山林场内", "image": "", "rank": 22, "time": 2.5, "location": {"lat": 29.582994892294913, "lng": 115.44633983429786}, "feature": {"sight_features": "", "sight_content": ""}}, {"title": "南义文化广场", "address": "梅山大道与316国道交叉口西南50米", "image": "", "rank": 23, "time": 2, "location": {"lat": 29.452197152320252, "lng": 115.33596548278118}, "feature": {"sight_features": "", "sight_content": ""}}, {"title": "良友山庄", "address": "九江市瑞昌市青山森林公园内", "image": "", "rank": 24, "time": 2, "location": {"lat": 29.583187687188428, "lng": 115.43179919028395}, "feature": {"sight_features": "", "sight_content": ""}}, {"title": "清塘寺", "address": "285县道附近", "image": "", "rank": 25, "time": 2, "location": {"lat": 29.359197261710847, "lng": 115.33220562776532}, "feature": {"sight_features": "", "sight_content": ""}}, {"title": "添嗣山万寿古寺", "address": "江西省九江市瑞昌市桂林街道五里桥瑞码大道万寿古寺", "image": "", "rank": 26, "time": 2, "location": {"lat": 29.705450037673266, "lng": 115.6985190074534}, "feature": {"sight_features": "", "sight_content": ""}}, {"title": "铜岭铜矿遗址博物馆", "address": "899乡道西100米", "image": "", "rank": 27, "time": 2, "location": {"lat": 22.60919886263197, "lng": 114.24644262262933}, "feature": {"sight_features": "", "sight_content": ""}}, {"title": "秀水街儿童游乐园", "address": "江西省九江市瑞昌市青铜街37", "image": "", "rank": 28, "time": 2, "location": {"lat": 29.681951286531458, "lng": 115.6874296720721}, "feature": {"sight_features": "", "sight_content": ""}}, {"title": "黄金广场", "address": "303省道附近", "image": "", "rank": 29, "time": 2, "location": {"lat": 38.25466494631471, "lng": 114.66726867564682}, "feature": {"sight_features": "", "sight_content": ""}}, {"title": "瑞昌画院", "address": "市府西路", "image": "", "rank": 30, "time": 1.0, "location": {"lat": 34.3755112457318, "lng": 118.33380532417894}, "feature": {"sight_features": "", "sight_content": ""}}, {"title": "非物质文化遗产专题博物馆", "address": "市府西路", "image": "", "rank": 31, "time": 2, "location": {"lat": 34.3755112457318, "lng": 118.33380532417894}, "feature": {"sight_features": "", "sight_content": ""}}, {"title": "瑞昌市美术馆", "address": "市府西路", "image": "", "rank": 32, "time": 3.0, "location": {"lat": 34.3755112457318, "lng": 118.33380532417894}, "feature": {"sight_features": "", "sight_content": ""}}, {"title": "逸风画廊", "address": "瀼溪东路附近", "image": "", "rank": 33, "time": 2, "location": {"lat": 29.685547558470258, "lng": 115.68349927555182}, "feature": {"sight_features": "", "sight_content": ""}}, {"title": "瑞昌市图书馆", "address": "杨林大道南侧(艺术中心)", "image": "", "rank": 34, "time": 1.5, "location": {"lat": 30.647243806251655, "lng": 113.20469398159385}, "feature": {"sight_features": "", "sight_content": ""}}, {"title": "江西华宸中小学馆配图书", "address": "杨林湖大街立信花园大酒店东50米斜对面(汽车站旁)", "image": "", "rank": 35, "time": 2, "location": {"lat": 29.67993232447628, "lng": 115.69146135703008}, "feature": {"sight_features": "", "sight_content": ""}}, {"title": "铜岭生态农庄", "address": "百花村", "image": "", "rank": 36, "time": 2, "location": {"lat": 31.210892360803168, "lng": 121.43028494515046}, "feature": {"sight_features": "", "sight_content": ""}}, {"title": "繁农四季乡村体验部落", "address": "高泉村", "image": "", "rank": 37, "time": 2, "location": {"lat": 46.14504147696502, "lng": 126.9090678691589}, "feature": {"sight_features": "", "sight_content": ""}}, {"title": "五里桥商业街", "address": "江西省瑞昌市铜城大道", "image": "", "rank": 38, "time": 2, "location": {"lat": 29.698283442661555, "lng": 115.70394355103637}, "feature": {"sight_features": "", "sight_content": ""}}]}