{"cityName": "芮城", "days": 2, "cityImage": "", "spots": [{"title": "永乐宫", "address": "运城市芮城县以北约2公里古魏镇上", "image": "", "rank": 1, "time": 1.5, "location": {"lat": 34.70128108705997, "lng": 110.70377089410111}, "feature": {"sight_features": "", "sight_content": ""}}, {"title": "圣天湖", "address": "运城市芮城县城东南方20公里处的陌南镇黄河之滨", "image": "", "rank": 2, "time": 2, "location": {"lat": 34.74366740533328, "lng": 110.92255050703801}, "feature": {"sight_features": "", "sight_content": ""}}, {"title": "颐和尚景锶温泉", "address": "运城市芮城县风陵渡镇田上坡底印象风陵", "image": "", "rank": 3, "time": 2, "location": {"lat": 34.6825017925562, "lng": 110.3331389761291}, "feature": {"sight_features": "特色1 窑洞客房", "sight_content": "颐和尚景锶温泉”坐落于山西省运城市苪城县风陵渡-印象风陵黄河文化风情体验园内，集温泉、窑洞客房、星级客房、中西简餐、咖啡、游泳馆、水上娱乐、SPA美容、理疗养生、棋牌、健身、美发等为一体的综合性温泉酒店。温泉旁有大型水上乐园，具备各种水上游乐设施，含大型人工造浪池。"}}, {"title": "风陵渡温泉国际度假山庄", "address": "运城市芮城县风陵渡镇田上坡底印象风陵", "image": "", "rank": 4, "time": 2, "location": {"lat": 34.6825017925562, "lng": 110.3331389761291}, "feature": {"sight_features": "", "sight_content": ""}}, {"title": "山西省永乐宫壁画艺术博物馆", "address": "永乐北路78号", "image": "", "rank": 5, "time": 2, "location": {"lat": 34.462200470425216, "lng": 115.31894830963235}, "feature": {"sight_features": "", "sight_content": ""}}, {"title": "众娃桑葚采摘园", "address": "运城市芮城县圣天湖景区往南100米", "image": "", "rank": 6, "time": 2, "location": {"lat": 34.70842352799242, "lng": 110.91066660425997}, "feature": {"sight_features": "", "sight_content": ""}}, {"title": "两合崖", "address": "陕西省蒲城县蒲溪镇北二里处 715500", "image": "", "rank": 7, "time": 1.0, "location": {"lat": 34.96127412878287, "lng": 109.59249651068265}, "feature": {"sight_features": "", "sight_content": ""}}, {"title": "吕洞宾故里", "address": "山西省芮城县永乐镇 044604", "image": "", "rank": 8, "time": null, "location": {"lat": 34.6366264056451, "lng": 110.54083693059994}, "feature": {"sight_features": "", "sight_content": ""}}, {"title": "北寺宋塔", "address": "陕西省蒲城县蒲城县城北 715500", "image": "", "rank": 9, "time": 1.0, "location": {"lat": 34.96127412878287, "lng": 109.59249651068265}, "feature": {"sight_features": "", "sight_content": ""}}, {"title": "晋商广场", "address": "风陵渡经济开发区", "image": "", "rank": 10, "time": 2, "location": {"lat": 34.645033107529926, "lng": 110.34160548939117}, "feature": {"sight_features": "", "sight_content": ""}}, {"title": "鑫盛食尚休闲广场", "address": "舍利东街附近", "image": "", "rank": 11, "time": 2, "location": {"lat": 34.70623375798544, "lng": 110.70556084149078}, "feature": {"sight_features": "", "sight_content": ""}}, {"title": "洞宾故里", "address": "山西省运城市芮城县", "image": "", "rank": 12, "time": 2, "location": {"lat": 34.69938811056296, "lng": 110.70061151319877}, "feature": {"sight_features": "", "sight_content": ""}}, {"title": "奥乐奥儿童乐园", "address": "山西省运城市芮城县学府西街", "image": "", "rank": 13, "time": 2, "location": {"lat": 34.71450403229188, "lng": 110.69406121853872}, "feature": {"sight_features": "", "sight_content": ""}}, {"title": "前庙", "address": "运城市芮城县学府东街", "image": "", "rank": 14, "time": 2, "location": {"lat": 34.71405056307759, "lng": 110.70289105954902}, "feature": {"sight_features": "", "sight_content": ""}}, {"title": "关帝庙", "address": "山西省运城市芮城县洞宾东街", "image": "", "rank": 15, "time": 0.5, "location": {"lat": 34.70185812015951, "lng": 110.70082363726529}, "feature": {"sight_features": "", "sight_content": ""}}, {"title": "民俗博物馆", "address": "829县道", "image": "", "rank": 16, "time": 1.5, "location": {"lat": 34.67284054800415, "lng": 110.8068523990834}, "feature": {"sight_features": "", "sight_content": ""}}, {"title": "吉祥书画社", "address": "阳城镇阳城街", "image": "", "rank": 17, "time": 2, "location": {"lat": 35.492181320425026, "lng": 112.42145378711842}, "feature": {"sight_features": "", "sight_content": ""}}, {"title": "田康文兴葡萄采摘园", "address": "古魏镇汉渡村(古风线沿河路6公里处路南)", "image": "", "rank": 18, "time": 2, "location": {"lat": 39.6129869967351, "lng": 118.20604028639353}, "feature": {"sight_features": "", "sight_content": ""}}, {"title": "潼关黄河湾漂流", "address": "渭南市潼关收费站500米处", "image": "", "rank": 19, "time": 1.5, "location": {"lat": 34.57932411398088, "lng": 110.3723537018787}, "feature": {"sight_features": "", "sight_content": ""}}, {"title": "人民舞台", "address": "830县道附近", "image": "", "rank": 20, "time": 2, "location": {"lat": 27.643229511349542, "lng": 118.89937770501493}, "feature": {"sight_features": "", "sight_content": ""}}, {"title": "芮城县青年蒲剧团", "address": "学府东街", "image": "", "rank": 21, "time": 2, "location": {"lat": 34.71405056307759, "lng": 110.70289105954902}, "feature": {"sight_features": "", "sight_content": ""}}, {"title": "永乐宫机器人总动员", "address": "永乐宫东侧", "image": "", "rank": 22, "time": 2, "location": {"lat": 28.03647548235425, "lng": 120.80919244180873}, "feature": {"sight_features": "", "sight_content": ""}}, {"title": "运城九峰山", "address": "山西省芮城县杜庄乡西尧村", "image": "", "rank": 23, "time": 1.0, "location": {"lat": 34.74901971320112, "lng": 110.49825737968128}, "feature": {"sight_features": "", "sight_content": ""}}, {"title": "山西芮城清凉寺", "address": "山西省芮城县陌南镇寺里村", "image": "", "rank": 24, "time": 2, "location": {"lat": 34.74366740533328, "lng": 110.92255050703801}, "feature": {"sight_features": "", "sight_content": ""}}, {"title": "圣寿寺舍利塔", "address": "山西省芮城县城北", "image": "", "rank": 25, "time": 2, "location": {"lat": 34.69938811056296, "lng": 110.70061151319877}, "feature": {"sight_features": "", "sight_content": ""}}, {"title": "寿圣寺", "address": "山西省芮城县舍利东街附近", "image": "", "rank": 26, "time": null, "location": {"lat": 34.70623375798544, "lng": 110.70556084149078}, "feature": {"sight_features": "", "sight_content": ""}}, {"title": "中条山", "address": "山西省永济市境内", "image": "", "rank": 27, "time": 2, "location": {"lat": 34.87282971471371, "lng": 110.45457767130965}, "feature": {"sight_features": "", "sight_content": ""}}, {"title": "城隍庙", "address": "山西省运城市芮城县", "image": "", "rank": 28, "time": 1.5, "location": {"lat": 34.69938811056296, "lng": 110.70061151319877}, "feature": {"sight_features": "", "sight_content": ""}}]}