{"cityName": "汝南", "days": 2, "cityImage": "", "spots": [{"title": "南海禅寺", "address": "中国河南省驻马店市汝南县南海大道", "image": "", "rank": 1, "time": 3.5, "location": {"lat": 33.00236896712755, "lng": 114.4810409280343}, "feature": {"sight_features": "特色1 已有上千年的历史，素有“小南海”之称。 特色2 琳宫璀璨，气势恢宏。 特色3 历史上被誉为蔡州“八景之一”。", "sight_content": "南海禅寺建造在汝河滩地之上，平面布局整体呈“士”字型,周边为高3米,长5300余米的围墙，为砖混结构。寺院门前为三殿门，殿内两旁供奉两尊金刚为“哼哈”二将，寺内南部是以大雄宝殿居中心的殿堂建筑区。\n大雄宝殿建筑面积5274.30平方米，高36米，为三层重檐殿堂，室内供有一尊高17米，重72吨铜雕鎏金坐像，殿前为1200平方米的广场。大雄宝殿前为天王殿，建筑面积333.16平方米，高15米，殿内有四大金刚、八大怪彩泥塑像。后为观音殿，建筑面积2170.8平方米，殿内仅供奉一尊高14米，由香樟木雕刻千手千眼前后双面观音鎏金坐像。\n左右为文殊、普贤殿，二殿建筑面积均为1520平方米，高21米，殿内均供奉一尊高9米、重12吨的通体鎏金文殊、普贤铜雕坐像。大雄宝殿左右侧前方为钟楼和鼓楼，建筑面积626平方米，高36米，为二层重檐楼阁式建筑。寺院北部为十二牌坊、山门附属建筑。十二牌坊高7.6米，宽8米,座落在长500米的甬道上。山门位于十二牌坊北面，是南海禅寺的北大门，高32米,宽50米，为牌楼式建筑。世纪和平钟楼位于寺院东北侧，建筑面积772.84平方米，高34.6米，为三层翼角楼阁式建筑，室内吊有高7米，直径6米，重21吨的世纪和平钟。钟楼北侧为白圣舍利园，上客堂是一个矩型围楼群，三层共20多间，内有放生池,池内养有金鱼，置假山和一座九曲石桥。"}}, {"title": "宿鸭湖", "address": "驻马店市汝南县", "image": "", "rank": 2, "time": 3.0, "location": {"lat": 33.01314088199241, "lng": 114.36940889397054}, "feature": {"sight_features": "", "sight_content": ""}}, {"title": "天中山文化生态园", "address": "驻马店市汝南县梁祝大道", "image": "", "rank": 3, "time": 2.5, "location": {"lat": 33.00535215607897, "lng": 114.3581686109209}, "feature": {"sight_features": "", "sight_content": ""}}, {"title": "果园度假村", "address": "梁祝大道与新阳高速路口向北300米路东果园村古塔办事处", "image": "", "rank": 4, "time": 2, "location": {"lat": 41.12290092589807, "lng": 121.13458496929316}, "feature": {"sight_features": "", "sight_content": ""}}, {"title": "森地花木种植", "address": "汝宁镇中心大街48号", "image": "", "rank": 5, "time": 2, "location": {"lat": 33.00798221577383, "lng": 114.36703206742169}, "feature": {"sight_features": "", "sight_content": ""}}, {"title": "军芳种植", "address": "梁祝大道391号", "image": "", "rank": 6, "time": 2, "location": {"lat": 30.04526270252722, "lng": 120.88512620290143}, "feature": {"sight_features": "", "sight_content": ""}}, {"title": "驻马店市古月苗圃花木基地", "address": "334省道北50米", "image": "", "rank": 7, "time": 1.5, "location": {"lat": 38.850376867772596, "lng": 115.58014640777708}, "feature": {"sight_features": "", "sight_content": ""}}, {"title": "林森种植专业合作社", "address": "206省道汝丰牧业斜对面", "image": "", "rank": 8, "time": 2, "location": {"lat": 40.08163878542396, "lng": 117.10435023437643}, "feature": {"sight_features": "", "sight_content": ""}}, {"title": "东海农场花卉盆景种苗基地", "address": "334省道附近", "image": "", "rank": 9, "time": 2, "location": {"lat": 38.85002562691257, "lng": 115.58014640777708}, "feature": {"sight_features": "", "sight_content": ""}}, {"title": "顾连财野生活鱼店", "address": "北门大街附近", "image": "", "rank": 10, "time": 2, "location": {"lat": 31.055592366638596, "lng": 121.76196502288715}, "feature": {"sight_features": "", "sight_content": ""}}, {"title": "梁祝相望墓", "address": "河南汝南县梁祝镇 463300", "image": "", "rank": 11, "time": 2, "location": {"lat": 32.76351291215231, "lng": 114.3817498950158}, "feature": {"sight_features": "", "sight_content": ""}}, {"title": "红罗山书院遗址", "address": "河南省驻马店市汝南县常兴镇常兴乡台子寺小学东北400米", "image": "", "rank": 12, "time": 2, "location": {"lat": 32.679893711426914, "lng": 114.33569827292814}, "feature": {"sight_features": "", "sight_content": ""}}, {"title": "佛光普照", "address": "南海大道与娘娘巷交叉口西南100米", "image": "", "rank": 13, "time": 2, "location": {"lat": 33.00397352721093, "lng": 114.37332583387555}, "feature": {"sight_features": "", "sight_content": ""}}, {"title": "吉瑞广场", "address": "驻马店市汝南县", "image": "", "rank": 14, "time": 2, "location": {"lat": 33.01314088199241, "lng": 114.36940889397054}, "feature": {"sight_features": "", "sight_content": ""}}, {"title": "开心岛儿童水上俱乐部", "address": "汝南县汝宁大街与滨河大道交叉口东100米", "image": "", "rank": 15, "time": 2, "location": {"lat": 33.00893870560187, "lng": 114.34465424142188}, "feature": {"sight_features": "", "sight_content": ""}}, {"title": "汝南县莲花广场", "address": "河南省驻马店市汝南县南海禅寺景区内", "image": "", "rank": 16, "time": 2, "location": {"lat": 32.99878276247009, "lng": 114.372668917429}, "feature": {"sight_features": "", "sight_content": ""}}, {"title": "汝南县图书馆", "address": "333省道", "image": "", "rank": 17, "time": 2, "location": {"lat": 39.02635958593825, "lng": 115.37834791394636}, "feature": {"sight_features": "", "sight_content": ""}}, {"title": "中天游乐城水上乐园", "address": "古塔路双星轮胎厂对面路北", "image": "", "rank": 18, "time": 2, "location": {"lat": 39.684047073907784, "lng": 118.21969444031465}, "feature": {"sight_features": "", "sight_content": ""}}, {"title": "吴四毛生态农庄", "address": "S38新阳高速旁", "image": "", "rank": 19, "time": 2, "location": {"lat": 32.55108480590118, "lng": 113.50184169176356}, "feature": {"sight_features": "", "sight_content": ""}}, {"title": "葡萄采摘园", "address": "宿鸭湖旅游台向北500米", "image": "", "rank": 20, "time": 2, "location": {"lat": 31.531854366152213, "lng": 121.72764301601296}, "feature": {"sight_features": "", "sight_content": ""}}, {"title": "河南省驻马店市汝南县步行街", "address": "河南省汝南县天中大道", "image": "", "rank": 21, "time": 2, "location": {"lat": 33.008843842081326, "lng": 114.3668232239669}, "feature": {"sight_features": "", "sight_content": ""}}, {"title": "天中山", "address": "河南省驻马店市汝南县", "image": "", "rank": 22, "time": null, "location": {"lat": 33.01314088199241, "lng": 114.36940889397054}, "feature": {"sight_features": "", "sight_content": ""}}]}