{"cityName": "若尔盖", "days": 2, "cityImage": "", "spots": [{"title": "若尔盖花湖", "address": "阿坝藏族羌族自治州若尔盖县213国道附近", "image": "", "rank": 1, "time": 1.5, "location": {"lat": 33.57871298635562, "lng": 102.98185323732498}, "feature": {"sight_features": "特色1 夏季，花团锦簇，美不胜收 特色2 草原风光独特风景优美 特色3 自然野生动物保护区", "sight_content": "若尔盖花湖位于若尔盖县城以北35公里的热尔大坝草原，岸边芦苇茂密，因湖中盛开的一种白色小花而得名花湖。此外，这里还是观看国家一级保护动物黑颈鹤的最佳去处。"}}, {"title": "黄河九曲第一湾", "address": "阿坝藏族羌族自治州若尔盖县唐克乡以西9公里", "image": "", "rank": 2, "time": 5.0, "location": {"lat": 33.41517570998596, "lng": 102.39494353576988}, "feature": {"sight_features": "特色1 “落霞与弧鹜齐飞，秋水共长天一色”的美妙景致", "sight_content": "黄河发源于青海巴颜卡拉山自西向东，迂回曲折，在四川若尔盖县唐克乡与白河汇合，形成了壮美的九曲黄河第一大转弯，隔河与甘肃省相望。\n\n九曲黄河第一弯岛屿众多，红柳成林、水鸟翔集、渔舟横渡，形成“落霞与弧鹜齐飞，秋水共长天一色”的美妙景致，同时也是是锦鸡、黄鸭、野兔、丹顶鹤、黑颈鹤的乐园，被中外科学家称为“宇宙中的庄严幻景”。唐克乡有一座索克藏寺，寺前有一山丘，登上丘顶远眺，但见白河逶迤直达天际，黄河婉蜒折北而逝，两条河流优雅别致，像一对情侣，携手走向西北天边。\n\n黄河九曲第一湾是全国三大名马河曲马的故乡，河曲马又叫唐克马，体形高大，背脊平坦，既可驮运物品，又可安全乘骑，还有涉水渡河的好本领，早在汉武帝时就开始驯养。"}}, {"title": "格尔底寺", "address": "阿坝州若尔盖县（位于四川、甘肃交界线旁，紧靠碌曲县郎木寺镇）", "image": "", "rank": 3, "time": 3.5, "location": {"lat": 33.584376654702446, "lng": 102.97439065413141}, "feature": {"sight_features": "", "sight_content": ""}}, {"title": "白龙江大峡谷", "address": "四川省若尔盖县若尔盖县北部", "image": "", "rank": 4, "time": 4.5, "location": {"lat": 33.584376654702446, "lng": 102.97439065413141}, "feature": {"sight_features": "", "sight_content": ""}}, {"title": "降扎温泉", "address": "阿坝藏族羌族自治州若尔盖县降扎乡", "image": "", "rank": 5, "time": 2, "location": {"lat": 34.163668982762424, "lng": 102.81364009852821}, "feature": {"sight_features": "", "sight_content": ""}}, {"title": "西部旅游牧场", "address": "阿坝市若尔盖县达扎寺镇麦溪路", "image": "", "rank": 6, "time": 2, "location": {"lat": 33.588987584580025, "lng": 102.95889455710108}, "feature": {"sight_features": "", "sight_content": ""}}, {"title": "云端天堂", "address": "213国道壹米阳光大酒店旁", "image": "", "rank": 7, "time": 2, "location": {"lat": 41.861379557135024, "lng": 123.39770940191372}, "feature": {"sight_features": "", "sight_content": ""}}, {"title": "花湖牧人天堂", "address": "阿坝若尔盖花湖风景区正对面", "image": "", "rank": 8, "time": 2, "location": {"lat": 33.93749273258167, "lng": 102.82900526753046}, "feature": {"sight_features": "", "sight_content": ""}}, {"title": "三朵花大自然牧家乐", "address": "红星镇花湖风情区西北方向5.7公里", "image": "", "rank": 9, "time": 2, "location": {"lat": 31.198552953069164, "lng": 121.19830891345828}, "feature": {"sight_features": "", "sight_content": ""}}, {"title": "若尔盖县图书馆", "address": "商业街与香巴拉北街交叉口南100米", "image": "", "rank": 10, "time": 2, "location": {"lat": 33.58178964270004, "lng": 102.96830177050334}, "feature": {"sight_features": "", "sight_content": ""}}, {"title": "若尔盖县图书阅览中心", "address": "商业街与香巴拉北街交叉口北100米", "image": "", "rank": 11, "time": 2, "location": {"lat": 33.58329346021099, "lng": 102.96830177050334}, "feature": {"sight_features": "", "sight_content": ""}}, {"title": "高山植物庄园", "address": "诺尔盖草原", "image": "", "rank": 12, "time": 2, "location": {"lat": 36.93011641189508, "lng": 93.17348801164687}, "feature": {"sight_features": "", "sight_content": ""}}, {"title": "九曲山庄", "address": "县道U13", "image": "", "rank": 13, "time": 2, "location": {"lat": 36.06504680178999, "lng": 113.80945833160084}, "feature": {"sight_features": "", "sight_content": ""}}, {"title": "大经堂", "address": "阿坝藏族羌族自治州若尔盖县达扎寺镇达扎寺内", "image": "", "rank": 14, "time": null, "location": {"lat": 33.58760114536331, "lng": 102.97526416101948}, "feature": {"sight_features": "", "sight_content": ""}}, {"title": "法螺观景台", "address": "阿坝藏族羌族自治州若尔盖县唐克乡以西9公里黄河九曲第一湾内", "image": "", "rank": 15, "time": 2, "location": {"lat": 33.41517570998596, "lng": 102.39494353576988}, "feature": {"sight_features": "", "sight_content": ""}}, {"title": "阿坝若尔盖若水湾度假村", "address": "阿坝藏族羌族自治州若尔盖县213线旁", "image": "", "rank": 16, "time": 2, "location": {"lat": 33.584376654702446, "lng": 102.97439065413141}, "feature": {"sight_features": "", "sight_content": ""}}, {"title": "百年牧民之家民俗度假村", "address": "九寨沟阿坝藏族羌族自治州若尔盖县日郎山隧道口加油站对面", "image": "", "rank": 17, "time": 2, "location": {"lat": 33.584376654702446, "lng": 102.97439065413141}, "feature": {"sight_features": "", "sight_content": ""}}, {"title": "福满欢乐园", "address": "往花湖方向24公里处", "image": "", "rank": 18, "time": 2, "location": {"lat": 31.874008906648484, "lng": 117.28868870716242}, "feature": {"sight_features": "", "sight_content": ""}}, {"title": "西部牧场农家乐", "address": "唐克九曲第一湾景区内", "image": "", "rank": 19, "time": 2, "location": {"lat": 28.243906031158637, "lng": 113.01160132663422}, "feature": {"sight_features": "", "sight_content": ""}}, {"title": "恩扎罗藏家乐", "address": "唐克镇S209(唐克加油站向南80米)", "image": "", "rank": 20, "time": 2, "location": {"lat": 33.41423377436874, "lng": 102.47456968022534}, "feature": {"sight_features": "", "sight_content": ""}}, {"title": "兴乐农家乐", "address": "黄河九曲第一湾距景区300米", "image": "", "rank": 21, "time": 2, "location": {"lat": 24.87778570260016, "lng": 116.284278315423}, "feature": {"sight_features": "", "sight_content": ""}}, {"title": "铁布自然保护区 Tiebu Natural R...", "address": "四川省若尔盖县崇尔乡", "image": "", "rank": 22, "time": 2, "location": {"lat": 34.146392967315975, "lng": 103.06059928941468}, "feature": {"sight_features": "", "sight_content": ""}}, {"title": "红原若尔盖大草原", "address": "阿坝藏族羌族自治州若尔盖县s209", "image": "", "rank": 23, "time": 4.0, "location": {"lat": 33.584376654702446, "lng": 102.97439065413141}, "feature": {"sight_features": "", "sight_content": ""}}, {"title": "若尔盖湿地保护区", "address": "四川省若尔盖县境内", "image": "", "rank": 24, "time": 5.0, "location": {"lat": 33.584376654702446, "lng": 102.97439065413141}, "feature": {"sight_features": "", "sight_content": ""}}, {"title": "包座战役遗址", "address": "四川省阿坝藏族羌族自治州若尔盖县包座河", "image": "", "rank": 25, "time": null, "location": {"lat": 33.584376654702446, "lng": 102.97439065413141}, "feature": {"sight_features": "", "sight_content": ""}}, {"title": "白龙峡", "address": "中国四川省阿坝藏族羌族自治州若尔盖县", "image": "", "rank": 26, "time": 2, "location": {"lat": 33.584376654702446, "lng": 102.97439065413141}, "feature": {"sight_features": "", "sight_content": ""}}, {"title": "中国工农红军班佑烈士纪念碑", "address": "四川省阿坝藏族羌族自治州若尔盖县", "image": "", "rank": 27, "time": 2, "location": {"lat": 33.584376654702446, "lng": 102.97439065413141}, "feature": {"sight_features": "", "sight_content": ""}}]}