{"cityName": "若羌", "days": 2, "cityImage": "", "spots": [{"title": "罗布泊", "address": "巴音郭楞蒙古自治州若羌县东北部", "image": "", "rank": 1, "time": 1.5, "location": {"lat": 39.028991037175174, "lng": 88.17532444189617}, "feature": {"sight_features": "", "sight_content": ""}}, {"title": "楼兰古城", "address": "巴音郭楞蒙古自治州若羌县罗布泊西部", "image": "", "rank": 2, "time": 3.0, "location": {"lat": 40.25488114914101, "lng": 90.27817044762854}, "feature": {"sight_features": "", "sight_content": ""}}, {"title": "阿尔金山自然保护区", "address": "新疆维吾尔自治区若羌县县境内", "image": "", "rank": 3, "time": 36.0, "location": {"lat": 39.028991037175174, "lng": 88.17532444189617}, "feature": {"sight_features": "", "sight_content": ""}}, {"title": "米兰故城", "address": "若羌县城东80里处", "image": "", "rank": 4, "time": 2.0, "location": {"lat": 36.605707645661155, "lng": 101.8095690383313}, "feature": {"sight_features": "", "sight_content": ""}}, {"title": "罗布泊南古城", "address": "新疆维吾尔自治区若羌县罗布泊西南荒漠", "image": "", "rank": 5, "time": 3.0, "location": {"lat": 40.25488114914101, "lng": 90.27817044762854}, "feature": {"sight_features": "", "sight_content": ""}}, {"title": "木孜塔格峰", "address": "若羌县境内阿尔金自然保护区的西南角", "image": "", "rank": 6, "time": 1.0, "location": {"lat": 39.028991037175174, "lng": 88.17532444189617}, "feature": {"sight_features": "", "sight_content": ""}}, {"title": "营盘古城", "address": "位于巴音郭楞东南部若羌县境内，楼兰古城西200公里左右的孔雀河北岸", "image": "", "rank": 7, "time": 2, "location": {"lat": 40.69148729723985, "lng": 89.97116902759095}, "feature": {"sight_features": "", "sight_content": ""}}, {"title": "楼兰博物馆", "address": "音郭楞蒙古自治州若羌县‎", "image": "", "rank": 8, "time": 2, "location": {"lat": 39.028991037175174, "lng": 88.17532444189617}, "feature": {"sight_features": "", "sight_content": ""}}, {"title": "小河墓地", "address": "位罗布泊地区孔雀河下游河谷南约60公里的罗布沙漠中", "image": "", "rank": 9, "time": 2, "location": {"lat": 22.863530646584834, "lng": 113.42375040269937}, "feature": {"sight_features": "", "sight_content": ""}}, {"title": "白龙堆雅丹", "address": "新疆维吾尔自治区若羌县罗布泊东北部 841800", "image": "", "rank": 10, "time": 2, "location": {"lat": 40.25488114914101, "lng": 90.27817044762854}, "feature": {"sight_features": "", "sight_content": ""}}, {"title": "哈萨克坟遗址", "address": "新疆维吾尔自治区若羌县县境南部的阿尔金山自然保护区的依协克帕提西南 841800", "image": "", "rank": 11, "time": 2, "location": {"lat": 31.023295957932337, "lng": 90.17247578000247}, "feature": {"sight_features": "", "sight_content": ""}}, {"title": "孔路克阿坦", "address": "新疆维吾尔自治区若羌县县城南10公里 841800", "image": "", "rank": 12, "time": 2, "location": {"lat": 39.028991037175174, "lng": 88.17532444189617}, "feature": {"sight_features": "", "sight_content": ""}}, {"title": "土台遗址", "address": "新疆维吾尔自治区若羌县县城西北约3公里处 841800", "image": "", "rank": 13, "time": 2, "location": {"lat": 39.028991037175174, "lng": 88.17532444189617}, "feature": {"sight_features": "", "sight_content": ""}}, {"title": "奇泉", "address": "新疆维吾尔自治区若羌县库木库里沙山北麓 841800", "image": "", "rank": 14, "time": 2, "location": {"lat": 39.028991037175174, "lng": 88.17532444189617}, "feature": {"sight_features": "", "sight_content": ""}}, {"title": "公共图书馆", "address": "胜利路422号", "image": "", "rank": 15, "time": 1.5, "location": {"lat": 28.683411830636373, "lng": 115.89383440699815}, "feature": {"sight_features": "", "sight_content": ""}}, {"title": "阿其克库勒湖湿地", "address": "新疆维吾尔自治区和田县阿尔金山和昆仑山之间", "image": "", "rank": 16, "time": 2, "location": {"lat": 37.090362410220656, "lng": 79.86621559504185}, "feature": {"sight_features": "", "sight_content": ""}}, {"title": "罗布泊地区湿地", "address": "新疆维吾尔自治区若羌县塔里木盆地东端", "image": "", "rank": 17, "time": 2, "location": {"lat": 40.53187825975544, "lng": 89.73976130061526}, "feature": {"sight_features": "", "sight_content": ""}}, {"title": "米兰古城", "address": "新疆维吾尔自治区若羌县城东80里处", "image": "", "rank": 18, "time": 1.5, "location": {"lat": 39.028991037175174, "lng": 88.17532444189617}, "feature": {"sight_features": "", "sight_content": ""}}, {"title": "余纯顺之墓", "address": "新疆维吾尔自治区巴音郭楞蒙古自治州若羌县 ‎", "image": "", "rank": 19, "time": 2, "location": {"lat": 39.028991037175174, "lng": 88.17532444189617}, "feature": {"sight_features": "", "sight_content": ""}}, {"title": "魔鬼谷", "address": "新疆维吾尔自治区若羌县阿尔金山", "image": "", "rank": 20, "time": 2, "location": {"lat": 39.028991037175174, "lng": 88.17532444189617}, "feature": {"sight_features": "", "sight_content": ""}}, {"title": "高原沙漠奇观", "address": "新疆维吾尔自治区若羌县县境南部的阿尔金山自然保护区", "image": "", "rank": 21, "time": 2, "location": {"lat": 39.028991037175174, "lng": 88.17532444189617}, "feature": {"sight_features": "", "sight_content": ""}}]}