{"cityName": "乳山", "days": 2, "cityImage": "", "spots": [{"title": "乳山银滩旅游度假区", "address": "威海市乳山市长江路", "image": "", "rank": 1, "time": 3.0, "location": {"lat": 36.844334063715166, "lng": 121.73002002222293}, "feature": {"sight_features": "", "sight_content": ""}}, {"title": "大乳山滨海旅游度假区", "address": "威海市乳山市海阳所镇大乳山景区", "image": "", "rank": 2, "time": null, "location": {"lat": 36.78920778814709, "lng": 121.50923574801504}, "feature": {"sight_features": "", "sight_content": ""}}, {"title": "福如东海文化园", "address": "威海市乳山市银滩旅游度假区福如东海文化园内", "image": "", "rank": 3, "time": 1.5, "location": {"lat": 36.81764388879298, "lng": 121.6446235242902}, "feature": {"sight_features": "", "sight_content": ""}}, {"title": "小汤温泉", "address": "威海市乳山市冯家镇汤上村", "image": "", "rank": 4, "time": 2, "location": {"lat": 37.01628791613381, "lng": 121.71474713884064}, "feature": {"sight_features": "特色1 “养生福地，小汤温泉”", "sight_content": "“养生福地，小汤温泉”一个以古老“温泉”与现代休闲养生文化为主题的现代化温泉度假村。坐落在乳山市区东北20公里的冯家镇汤上村，延续唐时距今约1400多年的老汤原址而建，属纯天然温泉，经专家测定，温泉水平均矿化度为2694MG/L，富含锶和偏硅酸盐等微量元素，是理想的医疗热矿水，对人体的保健作用十分明显。\n\n坐落在乳山市冯家镇汤上村的纯天然小汤温泉，小汤温泉水温常年保持在70℃左右。经专家测定，泉水的矿化度高，浮力大，对人体作用力强，而且含有丰富的矿物质，并含有大量阳离子、阴离子和硫化氢、二氧化碳等气体。用此水沐浴，对人体可起到良好的保健作用，对风湿病、关节炎及皮肤病有很好的治疗作用。因此很久以前，小汤温泉就是当地人在此沐浴的天然温水浴池。\n\n威海乳山小汤温泉度假村占地面积5000平方米，总投资6000万元，是一座集温泉嬉水、餐饮娱乐、旅游度假、运动休憩、商住会议于一体的多功能、综合性温泉山庄，拥有各类温泉理疗、保健池30余种，其中大型热带雨林式温泉嬉水乐园为度假村的最“靓点”，分为戏水区、保健理疗区、温泉区三大功能区。\n\n公共浴区采用高大壮观的立体网架结构、宽敞明快的全透明设计，网架内种植数百种热带植物。园内以绿色养生为主调，将原生态健康养生理念与温泉水相结合，并与烟台农科院联合，引进最新无土栽培技术，使您在感受老汤神奇魅力的同时，感叹现代科技给您带来的视觉大餐。\n\n小汤温泉度假村打造了胶东半岛地区目前最具特色的温泉度假村，让人们能享受到“温泉嬉水”的健康和快乐，同时也是胶东半岛集娱乐、温泉戏水等为一体的现代化温泉度假村。小汤温泉热带雨林区不但可以泡温泉，更能‘嬉’温泉。馆内的游泳池、冲浪浴、水滑梯等集娱乐性和趣味性于一体，令人流连忘返。"}}, {"title": "威海多福山国际养生旅游度假区", "address": "威海滨海新区多福山国际养生旅游度假区", "image": "", "rank": 5, "time": 5.0, "location": {"lat": 36.88541370488642, "lng": 121.73752125051956}, "feature": {"sight_features": "特色1 被评为“长寿文化研究基地”", "sight_content": "威海?多福山国际养生旅游度假区坐落于山东省著名的“长寿之乡”——乳山市，现由日百集团控股公司、威海多福山旅游开发有限公司投资开发，规划面积10余平方公里，预计总投资约11.9亿元。景区于2009年开工建设，2012年8月被评为国家AAA旅游景区，2013年5月1日正式开园纳客，已被评为山东省首个“长寿文化研究基地”。"}}, {"title": "台依湖国际酒庄生态文化区", "address": "乳山市夏村镇台依湖西侧台依湖国际酒庄生态文化区", "image": "", "rank": 6, "time": 2, "location": {"lat": 36.955319733640714, "lng": 121.50459664953088}, "feature": {"sight_features": "", "sight_content": ""}}, {"title": "岠嵎山风景区", "address": "威海市乳山市市区西南约18公里处", "image": "", "rank": 7, "time": 1.5, "location": {"lat": 36.92517735787775, "lng": 121.54642858119733}, "feature": {"sight_features": "", "sight_content": ""}}, {"title": "滴水湾温泉", "address": "威海市乳山市银滩度假区长江路588号", "image": "", "rank": 8, "time": 2, "location": {"lat": 36.90242861759479, "lng": 121.81038523496044}, "feature": {"sight_features": "特色1 富含丰富的矿物质成份和所需的微量元素", "sight_content": "‍‍滴水湾温泉近山临海，一边是“采菊东篱下，悠然见南山”的田园景象；一边是“日月之行， 若出其中。星汉灿烂， 若出其里。”的滨海风光；加之“独坐幽篁里，弹琴复长啸；林深人不知，明月来相照”的诗意禅境的园林建筑，优美恬淡的环境可以满足人们“对一张琴， 一壶酒，一溪云”的“浮生半日闲”的愿望。‍‍\n滴水湾温泉分为空中区、木屋区与露天区三大区域。共设功效各异的天然温泉泡池30余处，其中露天温泉池多达20处以上，空气清新、环境优雅、四季景色变换，各具特色。滴水湾温泉采自地下800米，泉水澄明，矿化度高，对人体祛病、保健作用极佳。\n泉水含有大量人体所需的微量元素；锶离子、偏硅酸、钠离子、碳酸氢根等多种微量元素对缓解风湿痛、慢性关节炎、神经紧张、动脉硬化等常见疾病有着独特的治疗和恢复功效。滴水湾温泉采取江南园林式建筑风格，以自然生态分布原则，集合原石、叠水、温泉、珍贵植物等元素，打造丰富的景观层次。\n在这里，竹景、山景、海景、水景、雪景错落有致、移步亦景、动静相宜；尤以海景露天空中温泉在山东半岛独一无二，令人流连忘返。于高空中，飘雪、看海、泡温泉，远离都市的喧嚣，回归大自然的宁静。“几时归去，做个闲人，对一张琴，一壶酒，一溪云。”"}}, {"title": "银滩梦幻王国", "address": "威海市乳山市银滩旅游度假区长江路中段", "image": "", "rank": 9, "time": 4.0, "location": {"lat": 36.81764388879298, "lng": 121.6446235242902}, "feature": {"sight_features": "", "sight_content": ""}}, {"title": "南泓南村", "address": "威海市乳山市海阳所镇南泓南村", "image": "", "rank": 10, "time": 2, "location": {"lat": 36.76961105076388, "lng": 121.63463497607037}, "feature": {"sight_features": "", "sight_content": ""}}, {"title": "马石山", "address": "威海市乳山市崖子镇", "image": "", "rank": 11, "time": 2.5, "location": {"lat": 37.068960075754575, "lng": 121.29249673216273}, "feature": {"sight_features": "", "sight_content": ""}}, {"title": "石佛山休闲观光景区", "address": "威海市乳山市乳山寨镇赤家口村正华山庄", "image": "", "rank": 12, "time": 1.5, "location": {"lat": 36.926934378472694, "lng": 121.39896670122359}, "feature": {"sight_features": "特色1 休闲观光好去处，为孩子普及动物知识的天堂", "sight_content": "乳山正华山庄石佛山景区是汇集特色植物观光、滑草、漂流、天然迷宫、摸鱼、垂钓、情人谷、爬山、动物养殖观光为一体的综合娱乐景区。\n特色植物园：正华山庄拥有300余亩果园，其内栽有上百种南北方珍惜植物，如香蕉、琵琶、柠檬、杨梅、辣椒树、茄子树等，游客可观光采摘购买。滑草：滑草的乐趣，并非一味直滑降为满足，应配合滑行技巧于各种不一样的斜坡及滑草场。当然刚学会了各种技术而马上要将其综合滑草应用来滑降并非易事，所以各位能从比较缓和的坡度，且稍有变化之地形开始逐渐找难度较高的坡度练习。\n草莓采摘：正华山庄有11座果蔬大棚，其中草莓为原生态草莓，还记得童年时草莓的味道吗，想回味一下就来正华山庄吧。爬山：石佛山海拔326.4米，因其远观如一弥勒佛仰卧观紫微星而得名。通过登上石佛山峰顶，观奇石、云海，欣赏大自然的鬼斧神工。参观茶厂：正华山庄种植150余亩茶园，主要了解茶叶制作流程。\n动物养殖观光：园内饲养多种观赏及食用动物：梅花鹿、马鹿、孔雀、珍珠鸡、火鸡、野猪等，既是您休闲观光的绝佳去处，也是您为孩子普及动物知识的天然天堂，园内动物除供游人参观外还特供山庄用作食材。"}}, {"title": "圣水宫", "address": "威海市乳山市冯家镇孔家村", "image": "", "rank": 13, "time": 1.5, "location": {"lat": 37.076895191468076, "lng": 121.75478266340248}, "feature": {"sight_features": "", "sight_content": ""}}, {"title": "岠嵎天池", "address": "威海市乳山市区西约18公里处岠嵎山国家森林公园内", "image": "", "rank": 14, "time": 0.4, "location": {"lat": 36.873944324502126, "lng": 121.38897882942783}, "feature": {"sight_features": "", "sight_content": ""}}, {"title": "岠嵎院", "address": "威海市乳山市区西约18公里处岠嵎山国家森林公园内", "image": "", "rank": 15, "time": 0.4, "location": {"lat": 36.873944324502126, "lng": 121.38897882942783}, "feature": {"sight_features": "", "sight_content": ""}}, {"title": "大乳山景区", "address": "大乳山休闲旅游度假区", "image": "", "rank": 16, "time": 7.5, "location": {"lat": 36.77952015115127, "lng": 121.54228838093239}, "feature": {"sight_features": "", "sight_content": ""}}, {"title": "稗子刘家村茶园", "address": "威海市乳山市白沙滩镇稗子刘家村", "image": "", "rank": 17, "time": 2, "location": {"lat": 36.89714251289344, "lng": 121.70951928912862}, "feature": {"sight_features": "", "sight_content": ""}}, {"title": "母爱广场", "address": "新华街", "image": "", "rank": 18, "time": 0.3, "location": {"lat": 39.02127929745047, "lng": 117.67844309976273}, "feature": {"sight_features": "", "sight_content": ""}}, {"title": "胶东育儿所纪念馆", "address": "田家村", "image": "", "rank": 19, "time": 2, "location": {"lat": 36.08777578722234, "lng": 120.39855422557214}, "feature": {"sight_features": "", "sight_content": ""}}, {"title": "堕崮山", "address": "山东省威海乳山", "image": "", "rank": 20, "time": 2, "location": {"lat": 36.92517735787775, "lng": 121.54642858119733}, "feature": {"sight_features": "", "sight_content": ""}}, {"title": "圣鸡岩", "address": "威海市乳山市区西约18公里处岠嵎山国家森林公园内", "image": "", "rank": 21, "time": 0.25, "location": {"lat": 36.873944324502126, "lng": 121.38897882942783}, "feature": {"sight_features": "", "sight_content": ""}}, {"title": "名扬山庄桑葚采摘园", "address": "诸往镇铁山村内", "image": "", "rank": 22, "time": 2, "location": {"lat": 36.94129894367453, "lng": 121.28979982408949}, "feature": {"sight_features": "", "sight_content": ""}}, {"title": "母爱大乳山无花果采摘园", "address": "海阳所镇赵东庄村村牌向北180米", "image": "", "rank": 23, "time": 2, "location": {"lat": 36.790953872399086, "lng": 121.5574469477521}, "feature": {"sight_features": "", "sight_content": ""}}, {"title": "大拇指广场", "address": "山东省威海乳山市长江路大拇指广场", "image": "", "rank": 24, "time": 2, "location": {"lat": 36.83496072893371, "lng": 121.70939772952872}, "feature": {"sight_features": "", "sight_content": ""}}, {"title": "威海胶东伯瑞农场", "address": "长庆路58号", "image": "", "rank": 25, "time": 5.0, "location": {"lat": 43.86696880013563, "lng": 125.32337196070472}, "feature": {"sight_features": "", "sight_content": ""}}, {"title": "兴达樱桃采摘园", "address": "乳山诸往镇铁山村", "image": "", "rank": 26, "time": 2, "location": {"lat": 36.94129894367453, "lng": 121.28979982408949}, "feature": {"sight_features": "", "sight_content": ""}}, {"title": "草莓采摘大棚", "address": "乳山寨镇赤家口村西", "image": "", "rank": 27, "time": 2, "location": {"lat": 36.92546155211046, "lng": 121.39953974108808}, "feature": {"sight_features": "", "sight_content": ""}}, {"title": "冯德英文学馆", "address": "山东省乳山市胜利街71号", "image": "", "rank": 28, "time": 2, "location": {"lat": 36.9253459876114, "lng": 121.54951373331878}, "feature": {"sight_features": "", "sight_content": ""}}, {"title": "乳山市科技馆", "address": "山东省乳山市胜利街70号", "image": "", "rank": 29, "time": 2.5, "location": {"lat": 36.92602452725075, "lng": 121.55069276738537}, "feature": {"sight_features": "", "sight_content": ""}}, {"title": "乳山市城市规划展览中心", "address": "山东省乳山市商业街2号", "image": "", "rank": 30, "time": 2.0, "location": {"lat": 36.923249935761135, "lng": 121.5657745012365}, "feature": {"sight_features": "", "sight_content": ""}}, {"title": "重庆石锅鱼啤酒广场", "address": "兴乳路2-75号(东方大厦北300米小博士幼儿园旁边)", "image": "", "rank": 31, "time": 1.5, "location": {"lat": 36.93377919474641, "lng": 121.54740038321049}, "feature": {"sight_features": "", "sight_content": ""}}, {"title": "老年代步车大世界", "address": "金银大道39县附近", "image": "", "rank": 32, "time": 2, "location": {"lat": 31.66640591423213, "lng": 110.61510484985487}, "feature": {"sight_features": "", "sight_content": ""}}, {"title": "松林公园", "address": "长江路(海岸1号小区门口)", "image": "", "rank": 33, "time": 2, "location": {"lat": 29.854003076330567, "lng": 121.69258913336967}, "feature": {"sight_features": "", "sight_content": ""}}, {"title": "基督教会(世纪大道)", "address": "世纪大道56号附近", "image": "", "rank": 34, "time": 2, "location": {"lat": 32.08181112533855, "lng": 121.07809833126588}, "feature": {"sight_features": "", "sight_content": ""}}, {"title": "嘟嘟堂儿童乐园", "address": "金丰商场2楼", "image": "", "rank": 35, "time": 2, "location": {"lat": 36.91946501936927, "lng": 121.53642794268364}, "feature": {"sight_features": "", "sight_content": ""}}, {"title": "童星儿童乐园", "address": "山东省威海市乳山市商业街南", "image": "", "rank": 36, "time": 2, "location": {"lat": 36.921723408602894, "lng": 121.54729621496398}, "feature": {"sight_features": "", "sight_content": ""}}, {"title": "基督教会", "address": "威海市乳山市", "image": "", "rank": 37, "time": 2, "location": {"lat": 36.92517735787775, "lng": 121.54642858119733}, "feature": {"sight_features": "", "sight_content": ""}}, {"title": "金牛谷生态游乐园", "address": "威海市乳山市二零七省道", "image": "", "rank": 38, "time": 2, "location": {"lat": 36.92517735787775, "lng": 121.54642858119733}, "feature": {"sight_features": "", "sight_content": ""}}, {"title": "乳山韩人教会", "address": "唐山路与深圳路交叉口东150米", "image": "", "rank": 39, "time": 2.0, "location": {"lat": 36.91584098361366, "lng": 121.56507041746252}, "feature": {"sight_features": "", "sight_content": ""}}, {"title": "金青岭公园", "address": "山东省威海市乳山市北环路", "image": "", "rank": 40, "time": 2, "location": {"lat": 36.93283919234097, "lng": 121.52756123611354}, "feature": {"sight_features": "", "sight_content": ""}}, {"title": "海阳所基督教会", "address": "山东省威海市乳山市海阳所镇金银大道银滩医院附近", "image": "", "rank": 41, "time": null, "location": {"lat": 36.81528954765355, "lng": 121.62585120645475}, "feature": {"sight_features": "", "sight_content": ""}}, {"title": "乳山民生广场", "address": "泰山路北200米", "image": "", "rank": 42, "time": 2.0, "location": {"lat": 39.93958289330011, "lng": 119.56309179125755}, "feature": {"sight_features": "", "sight_content": ""}}, {"title": "人民广场", "address": "威海市乳山市富山路29-1号", "image": "", "rank": 43, "time": 1.5, "location": {"lat": 36.91638558304378, "lng": 121.53415718894773}, "feature": {"sight_features": "", "sight_content": ""}}, {"title": "中豪度假村", "address": "威海市乳山市长江路", "image": "", "rank": 44, "time": 2, "location": {"lat": 36.844334063715166, "lng": 121.73002002222293}, "feature": {"sight_features": "", "sight_content": ""}}, {"title": "新世纪文化广场", "address": "平安路南100米", "image": "", "rank": 45, "time": 2, "location": {"lat": 40.66847595508052, "lng": 122.21798992282412}, "feature": {"sight_features": "", "sight_content": ""}}, {"title": "乳山市政府-广场", "address": "乳山市胜利街", "image": "", "rank": 46, "time": 2.0, "location": {"lat": 36.92523171390298, "lng": 121.54730419101861}, "feature": {"sight_features": "", "sight_content": ""}}, {"title": "淘气宝贝游乐园", "address": "天水路附近", "image": "", "rank": 47, "time": 2, "location": {"lat": 31.265357021075193, "lng": 121.49743304307205}, "feature": {"sight_features": "", "sight_content": ""}}, {"title": "晨读园", "address": "威海市乳山市兴东小区9号楼", "image": "", "rank": 48, "time": 2, "location": {"lat": 36.924530464551694, "lng": 121.5565618266721}, "feature": {"sight_features": "", "sight_content": ""}}, {"title": "海岸嘉景基督教会", "address": "碧海华庭(曲水绿荫西)附近", "image": "", "rank": 49, "time": 2, "location": {"lat": 36.84636739941574, "lng": 121.71822028348473}, "feature": {"sight_features": "", "sight_content": ""}}, {"title": "泓兴寺", "address": "威海市乳山市海阳所镇姜格村北", "image": "", "rank": 50, "time": 2, "location": {"lat": 36.78779803480836, "lng": 121.5699000716979}, "feature": {"sight_features": "", "sight_content": ""}}, {"title": "银之帆滨海休闲广场", "address": "威海市乳山市乳山银滩旅游度假区长江路", "image": "", "rank": 51, "time": 2, "location": {"lat": 36.81764388879298, "lng": 121.6446235242902}, "feature": {"sight_features": "", "sight_content": ""}}, {"title": "济南中恒商城度假村", "address": "山东省威海市乳山市长江路", "image": "", "rank": 52, "time": 3.0, "location": {"lat": 36.844334063715166, "lng": 121.73002002222293}, "feature": {"sight_features": "", "sight_content": ""}}, {"title": "大庆广场", "address": "威海市乳山市长江路附近", "image": "", "rank": 53, "time": 0.75, "location": {"lat": 36.844334063715166, "lng": 121.73002002222293}, "feature": {"sight_features": "", "sight_content": ""}}, {"title": "假日广场", "address": "威海市乳山市银滩开发区", "image": "", "rank": 54, "time": 2, "location": {"lat": 36.92517735787775, "lng": 121.54642858119733}, "feature": {"sight_features": "", "sight_content": ""}}, {"title": "长庆度假村", "address": "银海度假村附近", "image": "", "rank": 55, "time": 2, "location": {"lat": 36.840887589083415, "lng": 121.73383523262216}, "feature": {"sight_features": "", "sight_content": ""}}, {"title": "休闲啤酒广场", "address": "长江路附近", "image": "", "rank": 56, "time": 2, "location": {"lat": 39.11339655925886, "lng": 117.21541501905301}, "feature": {"sight_features": "", "sight_content": ""}}, {"title": "银海度假村", "address": "威海市乳山市长庆油田乳山职工培训中心附近", "image": "", "rank": 57, "time": 2, "location": {"lat": 36.84075834110495, "lng": 121.73284529995017}, "feature": {"sight_features": "", "sight_content": ""}}, {"title": "民俗艺术馆", "address": "海城街", "image": "", "rank": 58, "time": 2, "location": {"lat": 39.05094065370161, "lng": 121.76340821626523}, "feature": {"sight_features": "", "sight_content": ""}}, {"title": "启思古筝书画苑", "address": "天水路北首", "image": "", "rank": 59, "time": 2, "location": {"lat": 31.265357021075193, "lng": 121.49743304307205}, "feature": {"sight_features": "", "sight_content": ""}}, {"title": "胡八庄生态蜜桃园", "address": "夏村镇胡八庄村口", "image": "", "rank": 60, "time": 2, "location": {"lat": 36.97984077832207, "lng": 121.57600385282454}, "feature": {"sight_features": "", "sight_content": ""}}]}