{"cityName": "汝阳", "days": 2, "cityImage": "", "spots": [{"title": "西泰山", "address": "洛阳市汝阳县城南25公里处伏牛山腹地西泰山风景区", "image": "", "rank": 1, "time": 16.5, "location": {"lat": 33.83074675020425, "lng": 112.28640738759809}, "feature": {"sight_features": "特色1 赏炎黄峰、情侣峰、观世音菩萨峰", "sight_content": "西泰山位于河南省汝阳县城南52公里处的伏牛山腹地，距洛阳市120公里、郑州市240公里，毗邻连霍高速、南洛高速和二广高速。景区内临木路（郭木路）穿境而过，交通便捷，处于郑州——洛阳、郑州—少林寺—西泰山、洛阳—龙门石窟—西泰山黄金三角区内，堪称伏牛山旅游的北大门及郑州、洛阳的后花园。\n西泰山属于暖温带大陆性季风气候，气候温和，四季分明，主要河流有汝河的两个支流斜纹河和靳村河。从地形地貌与生态环境上看，西泰山位于平原与山地的过渡地带，山势有起伏但并不险峻，区域内谷地、林地、平原、山地组合状况良好，动植物资源丰富，是一个健身、养生、休闲的天然好去处。除了优美的自然环境，西泰山还是炎黄会盟合诸侯之地，有着崆峒问道、佛道合流、神农赤鞭打百草、四姐下凡、黄帝大合鬼神等传说，这些人文故事更为西泰山增添了神奇色彩。\n\n1999年，西泰山自然风景区开发项目经市计委批准成立；2000年以来，随着炎黄峰景区的开发开放，西泰山被列为洛阳南线旅游线和河南省伏牛山旅游线的重要景点之一；2002年开始每年4月份举办炎黄文化节暨杜鹃花文化节，“杜鹃花、炎黄文化”形成了一定的影响力；自2010年初着手修建的风情小镇豫西风情浓郁，在2011年十一黄金周期间成为一大亮点，高峰期入住率达到100%。\n\n西泰山内计有高低峰头九座，拢翠幽谷三道，凝碧溪流三条，天然奇石无数。这些自然界的奇观，天造地设因势成形，纵横交错，相互协调、相互映衬。特别是炎黄峰，整个山体酷似\"炎黄二帝\"石像，是中华炎黄子孙寻根祭祖的理想圣地。加上丰厚的植被，动人的传说，组成了亦实亦虚、亦真亦幻的九大景观。自下而上分别是：古朴自然的泰山民居、鬼斧神工的天然碑林，姹紫嫣红的杜鹃花海，佛道对弈的青冈棋峰，通天彻地的羚羊石窟、炽地燎天的炎黄夕照，形象逼真，惟妙惟肖的“炎黄二帝”石像，托金耀眼的西峰月辉、水激石穿的洞天飞瀑和号称\"北国第一浴\"的玉台瑶池。"}}, {"title": "恐龙谷漂流", "address": "洛阳市汝阳县靳村乡椿树村", "image": "", "rank": 2, "time": 2, "location": {"lat": 33.947661581547585, "lng": 112.25805635456736}, "feature": {"sight_features": "特色1 漂流河道两岸峡谷绝壁对峙，层峦叠嶂，一泻千里，气势磅礴，恢弘壮丽！ 特色2 水绕山，山绕河，巨石、巨崖形成天然落差的绝佳漂流河道！ 特色3 “人随山水转，心往画中游”，峡谷穿越、险滩横渡、激流回旋、浪尖飞舞！", "sight_content": "恐龙谷漂流位于靳村河石寨至椿树段，全长约8公里，总落差168米，落差6米以上的达到6个以上，最大落差8米，连续落差最长的有300多米，漂流河道两岸峡谷绝壁对峙，层峦叠嶂，一泻千里，气势磅礴，恢弘壮丽。峡谷内峰转路回，步移景换，峻岭林立，危崖千仞，奇石险滩比比皆是。水绕山，山绕河，巨石、巨崖形成天然落差的最佳漂流河道。"}}, {"title": "中国龙隐", "address": "洛阳市汝阳县付店镇西坪村", "image": "", "rank": 3, "time": 2.5, "location": {"lat": 33.85899020745903, "lng": 112.24969661299991}, "feature": {"sight_features": "特色1 回归自然避署寻幽", "sight_content": "中国龙隐景区位于河南省洛阳市汝阳县西泰山原始生态旅游区内，景区在临木路泰山村1公里处。同炎黄峰、情侣峰、会仙峰、石人山、白云山形成一条旅游线带。\n中国龙隐景区内峰峦挺拔，流水四环，且植被丰厚，山产珍奇，特点是：山峻、石奇、花艳、水幽、洞美。年均气温在11℃左右，是回归自然避署寻幽的理想之地。景区以风化的花岗岩石块组成丰富多彩的幽洞、奇石，并与潺潺溪水相伴，形成中原地区少有的水、石、洞组合景观。特别是整个景区洞连洞、洞中洞，清泉汩汩、溪水流淌，加上这里众多的有关龙的传说和故事，使龙隐更加神奇，更加诱人。"}}, {"title": "雅文虎山温泉", "address": "洛阳市汝阳县陶营镇大虎岭农业公园", "image": "", "rank": 4, "time": 2, "location": {"lat": 34.2306430604303, "lng": 112.49785052865533}, "feature": {"sight_features": "特色1 富含多种天然矿物质", "sight_content": "雅文虎山温泉位于汝阳县大虎岭农业公园园区陶营镇地界，温泉区位于园区东侧中部，有室内外温泉、洗浴、餐饮、客房、泳池、棋牌、SPA等功能分区。\n整个温泉洗浴中心用水均取自地下2200米深水温泉，出水泉温可高达60℃，水中富含多种天然矿物质，为温泉理疗养生的极好的选择。"}}, {"title": "玉马平湖风景区", "address": "洛阳市汝阳县城南15公里处的铁顶山脚下", "image": "", "rank": 5, "time": 2.5, "location": {"lat": 34.15984336489338, "lng": 112.47950327730925}, "feature": {"sight_features": "", "sight_content": ""}}, {"title": "铁顶山风景区", "address": "洛阳市汝阳县宫附近", "image": "", "rank": 6, "time": 2.5, "location": {"lat": 34.15984336489338, "lng": 112.47950327730925}, "feature": {"sight_features": "", "sight_content": ""}}, {"title": "汝阳恐龙化石群国家地质公园", "address": "洛阳市汝阳县刘店镇洪岭村", "image": "", "rank": 7, "time": 2, "location": {"lat": 34.10907868615579, "lng": 112.51918886156987}, "feature": {"sight_features": "", "sight_content": ""}}, {"title": "花溪漂流", "address": "洛阳市汝阳县付店镇西坪村", "image": "", "rank": 8, "time": 2, "location": {"lat": 33.85899020745903, "lng": 112.24969661299991}, "feature": {"sight_features": "", "sight_content": ""}}, {"title": "马兰河漂流", "address": "洛阳市汝阳县三屯乡境内", "image": "", "rank": 9, "time": 2, "location": {"lat": 34.0725712671282, "lng": 112.51133949407453}, "feature": {"sight_features": "", "sight_content": ""}}, {"title": "会仙峰景区", "address": "汝阳县", "image": "", "rank": 10, "time": null, "location": {"lat": 34.15984336489338, "lng": 112.47950327730925}, "feature": {"sight_features": "", "sight_content": ""}}, {"title": "情侣峰", "address": "汝阳县", "image": "", "rank": 11, "time": 2, "location": {"lat": 34.15984336489338, "lng": 112.47950327730925}, "feature": {"sight_features": "", "sight_content": ""}}, {"title": "云梦生态园", "address": "新汽车站旁城关镇杜康大道东段265", "image": "", "rank": 12, "time": 7.5, "location": {"lat": 34.15894532331379, "lng": 112.49258401497588}, "feature": {"sight_features": "", "sight_content": ""}}, {"title": "儿童图画书借阅馆", "address": "凤山路与宫后街交叉口东北150米", "image": "", "rank": 13, "time": 2, "location": {"lat": 34.15848210684514, "lng": 112.48036926448191}, "feature": {"sight_features": "", "sight_content": ""}}, {"title": "虎盘寨", "address": "汝阳县王坪乡大庄村", "image": "", "rank": 14, "time": 1.5, "location": {"lat": 33.907809711780246, "lng": 112.45546801296555}, "feature": {"sight_features": "", "sight_content": ""}}, {"title": "太昊伏羲陵", "address": "河南淮阳县淮阳县县城北 466000", "image": "", "rank": 15, "time": 3.0, "location": {"lat": 33.737347183458404, "lng": 114.89258615518705}, "feature": {"sight_features": "", "sight_content": ""}}, {"title": "科迪食文化广场", "address": "河南省洛阳市汝阳县S243(刘伶路)", "image": "", "rank": 16, "time": 2, "location": {"lat": 34.15695649870238, "lng": 112.48535513494377}, "feature": {"sight_features": "", "sight_content": ""}}, {"title": "杜康遗址", "address": "河南省洛阳市汝阳县文化路38号", "image": "", "rank": 17, "time": 2, "location": {"lat": 34.16029813353969, "lng": 112.47625674550126}, "feature": {"sight_features": "", "sight_content": ""}}, {"title": "儿童亲子乐园", "address": "洛阳市汝阳县人民路大千元购物广场(工会店)4层", "image": "", "rank": 18, "time": 2, "location": {"lat": 34.158664767545346, "lng": 112.47584582642537}, "feature": {"sight_features": "", "sight_content": ""}}, {"title": "天心山旅游区(建设中)", "address": "靳村乡西沟村", "image": "", "rank": 19, "time": 2, "location": {"lat": 33.979812886193486, "lng": 112.34138019129863}, "feature": {"sight_features": "", "sight_content": ""}}, {"title": "东堡清真寺", "address": "河南省洛阳市汝阳县Y034(小三路)", "image": "", "rank": 20, "time": 2, "location": {"lat": 34.07298674692234, "lng": 112.5458291759603}, "feature": {"sight_features": "", "sight_content": ""}}, {"title": "新恩堂", "address": "汝鲁路东50米", "image": "", "rank": 21, "time": 2, "location": {"lat": 34.02295315173332, "lng": 112.51166096258265}, "feature": {"sight_features": "", "sight_content": ""}}, {"title": "朵多乐儿童乐园", "address": "洛阳市汝阳县", "image": "", "rank": 22, "time": 2, "location": {"lat": 34.15984336489338, "lng": 112.47950327730925}, "feature": {"sight_features": "", "sight_content": ""}}, {"title": "香香羊儿童乐园", "address": "河南省洛阳市汝阳县人民路63号", "image": "", "rank": 23, "time": 2, "location": {"lat": 34.15874310722017, "lng": 112.47742010683162}, "feature": {"sight_features": "", "sight_content": ""}}, {"title": "温泉水上乐园", "address": "河南省洛阳市汝阳县城关镇滨河景苑附近", "image": "", "rank": 24, "time": 2, "location": {"lat": 34.15720047088891, "lng": 112.49396852924144}, "feature": {"sight_features": "", "sight_content": ""}}, {"title": "汝阳鑫源奇石馆", "address": "河南省洛阳市汝阳县X051(刘汝线)汝阳县云梦村山门南侧", "image": "", "rank": 25, "time": 2, "location": {"lat": 34.13357229524873, "lng": 112.53756593216734}, "feature": {"sight_features": "", "sight_content": ""}}, {"title": "文化广场", "address": "人民路与卧云街交叉口西100米", "image": "", "rank": 26, "time": 1.5, "location": {"lat": 34.16026618507222, "lng": 112.48076591936459}, "feature": {"sight_features": "", "sight_content": ""}}, {"title": "汝阳葡萄园教会", "address": "河南省洛阳市汝阳县城关镇刘伶路云梦馨安家园附近", "image": "", "rank": 27, "time": 2, "location": {"lat": 34.1616128691831, "lng": 112.48886750858948}, "feature": {"sight_features": "", "sight_content": ""}}, {"title": "大智寺", "address": "325省道附近", "image": "", "rank": 28, "time": 2, "location": {"lat": 40.38011571404755, "lng": 115.90477371737859}, "feature": {"sight_features": "", "sight_content": ""}}, {"title": "城关教堂", "address": "城关镇杜康大道", "image": "", "rank": 29, "time": 7.5, "location": {"lat": 34.42243160272605, "lng": 112.43687077217909}, "feature": {"sight_features": "", "sight_content": ""}}, {"title": "玉马山庄", "address": "汝椒路附近", "image": "", "rank": 30, "time": 2, "location": {"lat": 33.86292062163354, "lng": 112.45907453352024}, "feature": {"sight_features": "", "sight_content": ""}}, {"title": "汝阳县图书馆", "address": "文化路11号", "image": "", "rank": 31, "time": 2, "location": {"lat": 34.15984336489338, "lng": 112.47950327730925}, "feature": {"sight_features": "", "sight_content": ""}}, {"title": "乐爽水上乐园", "address": "体育场内", "image": "", "rank": 32, "time": 2, "location": {"lat": 37.83414812430356, "lng": 112.57228053987144}, "feature": {"sight_features": "", "sight_content": ""}}, {"title": "滨河公园", "address": "杜康大道东段与杜康大道交叉口", "image": "", "rank": 33, "time": 2.0, "location": {"lat": 34.16130709904345, "lng": 112.49388074592869}, "feature": {"sight_features": "", "sight_content": ""}}, {"title": "张明禄烈士纪念馆", "address": "文化路与书院街交叉口", "image": "", "rank": 34, "time": 2, "location": {"lat": 30.184944239506798, "lng": 105.82093023165285}, "feature": {"sight_features": "", "sight_content": ""}}, {"title": "会展中心", "address": "杜康大道中段", "image": "", "rank": 35, "time": 2, "location": {"lat": 34.15717084802177, "lng": 112.4808528016769}, "feature": {"sight_features": "", "sight_content": ""}}, {"title": "汝阳县梨香园种植专业合作社", "address": "陶营乡罗葛路后寨村东500米", "image": "", "rank": 36, "time": 2, "location": {"lat": 34.27113971580254, "lng": 112.5022943957081}, "feature": {"sight_features": "", "sight_content": ""}}, {"title": "兆泰马术俱乐部", "address": "城关镇汝鲁路北100米", "image": "", "rank": 37, "time": 2, "location": {"lat": 34.02370116147245, "lng": 112.51121180982766}, "feature": {"sight_features": "", "sight_content": ""}}, {"title": "浅银沟", "address": "洛阳市-汝阳县", "image": "", "rank": 38, "time": 2, "location": {"lat": 34.15984336489338, "lng": 112.47950327730925}, "feature": {"sight_features": "", "sight_content": ""}}, {"title": "棠树岭", "address": "洛阳市-汝阳县", "image": "", "rank": 39, "time": 2, "location": {"lat": 34.15984336489338, "lng": 112.47950327730925}, "feature": {"sight_features": "", "sight_content": ""}}]}