{"cityName": "汝州", "days": 2, "cityImage": "", "spots": [{"title": "风穴寺", "address": "平顶山市汝州市", "image": "", "rank": 1, "time": 1.5, "location": {"lat": 34.17276778855066, "lng": 112.85054971566392}, "feature": {"sight_features": "", "sight_content": ""}}, {"title": "九峰山", "address": "平顶山市汝州市寄料镇平王宋村", "image": "", "rank": 2, "time": 2.5, "location": {"lat": 33.97902412118749, "lng": 112.67617424957717}, "feature": {"sight_features": "", "sight_content": "九峰山景区位于河南省汝州市西南20公里处的寄料镇、蟒川镇境内，现为飞虎小镇拓展区，规划面积39.7平方公里，相传玉皇大帝的九个女儿因贪恋人间美景，幻化为九座山峰，永远留在了这片神奇的土地。"}}, {"title": "龙凤山滑雪滑草场", "address": "平顶山市汝州市刘何村", "image": "", "rank": 3, "time": 2, "location": {"lat": 34.27226178490425, "lng": 112.94871343275894}, "feature": {"sight_features": "", "sight_content": ""}}, {"title": "林河湾水上乐园", "address": "庙下镇淡庄村南1公里处", "image": "", "rank": 4, "time": 2, "location": {"lat": 34.191698985733844, "lng": 112.7296685115778}, "feature": {"sight_features": "", "sight_content": ""}}, {"title": "汝瓷博物馆", "address": "望嵩中路65号", "image": "", "rank": 5, "time": 2, "location": {"lat": 34.16826204250908, "lng": 112.84878400006538}, "feature": {"sight_features": "", "sight_content": ""}}, {"title": "傲康月季基地", "address": "207国道附近", "image": "", "rank": 6, "time": 2, "location": {"lat": 38.67484937592033, "lng": 114.04837902844483}, "feature": {"sight_features": "", "sight_content": ""}}, {"title": "廷怀汝瓷艺术馆", "address": "小陈村(汝北法庭)", "image": "", "rank": 7, "time": 2, "location": {"lat": 34.226311549990946, "lng": 112.8776428452009}, "feature": {"sight_features": "", "sight_content": ""}}, {"title": "陵头浩阳鱼塘", "address": "陵头村", "image": "", "rank": 8, "time": 2, "location": {"lat": 34.26413242098641, "lng": 112.79008473226186}, "feature": {"sight_features": "", "sight_content": ""}}, {"title": "江山大剧场", "address": "北环路洗耳河畔江山一号", "image": "", "rank": 9, "time": 0.5, "location": {"lat": 38.0818836383811, "lng": 114.69308879219136}, "feature": {"sight_features": "", "sight_content": ""}}, {"title": "青苹果生态农业", "address": "临汝镇崆峒山", "image": "", "rank": 10, "time": 2, "location": {"lat": 34.24575498921499, "lng": 112.6108965441003}, "feature": {"sight_features": "", "sight_content": ""}}, {"title": "温泉九号(音乐会所)", "address": "温泉镇武后像北100米路西", "image": "", "rank": 11, "time": 2, "location": {"lat": 45.764361784004585, "lng": 127.49410574278076}, "feature": {"sight_features": "", "sight_content": ""}}, {"title": "汝州杜仲种植基地", "address": "325省道北50米", "image": "", "rank": 12, "time": 2, "location": {"lat": 40.38045921422086, "lng": 115.90477371737859}, "feature": {"sight_features": "", "sight_content": ""}}, {"title": "汝州市瑞丰园种植专业合作社", "address": "时宝线附近", "image": "", "rank": 13, "time": 2, "location": {"lat": 33.91496517326685, "lng": 113.05469933821777}, "feature": {"sight_features": "", "sight_content": ""}}, {"title": "汝州市北安庄农机合作社", "address": "207国道附近", "image": "", "rank": 14, "time": 2, "location": {"lat": 38.67484937592033, "lng": 114.04837902844483}, "feature": {"sight_features": "", "sight_content": ""}}, {"title": "天泽湾国际温泉旅游度假城", "address": "温泉镇迎宾大道北段", "image": "", "rank": 15, "time": 2, "location": {"lat": 31.321117699713167, "lng": 104.0226249868441}, "feature": {"sight_features": "", "sight_content": ""}}, {"title": "范集建平葡萄基地", "address": "骑岭范集村(范集小学东400米)", "image": "", "rank": 16, "time": null, "location": {"lat": 34.223393218375996, "lng": 112.86628903789413}, "feature": {"sight_features": "", "sight_content": ""}}, {"title": "汝菇乡香菇种植示范园(汝菇乡店)", "address": "S325陈寨村汝菇乡", "image": "", "rank": 17, "time": 2, "location": {"lat": 36.68875840823275, "lng": 114.84731251507782}, "feature": {"sight_features": "", "sight_content": ""}}, {"title": "张公巷汝窑遗址", "address": "河南汝州市老城中大街 467500", "image": "", "rank": 18, "time": 2, "location": {"lat": 34.10247798744661, "lng": 112.97481815584499}, "feature": {"sight_features": "", "sight_content": ""}}, {"title": "临汝中山寨遗址", "address": "河南汝州市临汝镇 450052", "image": "", "rank": 19, "time": 2, "location": {"lat": 34.26570205684817, "lng": 112.6091459649496}, "feature": {"sight_features": "", "sight_content": ""}}, {"title": "飞剪大发师剧院旗舰店", "address": "望嵩中路汝州剧院广场正对面", "image": "", "rank": 20, "time": 2, "location": {"lat": 34.16998002044172, "lng": 112.84732102599996}, "feature": {"sight_features": "", "sight_content": ""}}, {"title": "偃师石刻", "address": "河南省平顶山市汝州市丹阳西路161号附近", "image": "", "rank": 21, "time": 4.0, "location": {"lat": 34.17558721736982, "lng": 112.83953642004376}, "feature": {"sight_features": "", "sight_content": ""}}, {"title": "徐庄天主堂", "address": "河南省平顶山市汝州市徐庄村观音堂", "image": "", "rank": 22, "time": 2, "location": {"lat": 34.08339692755195, "lng": 112.68562491581356}, "feature": {"sight_features": "", "sight_content": ""}}, {"title": "双拥公园", "address": "朝阳西路155号附近", "image": "", "rank": 23, "time": 2, "location": {"lat": 34.59541842916451, "lng": 119.15100851952808}, "feature": {"sight_features": "", "sight_content": ""}}, {"title": "卡卡兔儿童乐园（一店）", "address": "平顶山市汝州市丹阳中路336号旺京华百货F1", "image": "", "rank": 24, "time": 2, "location": {"lat": 34.173870400417165, "lng": 112.84895701999471}, "feature": {"sight_features": "", "sight_content": ""}}, {"title": "哈利路亚基督教会", "address": "美景天城附近", "image": "", "rank": 25, "time": 2, "location": {"lat": 34.17893787723141, "lng": 112.85963696162658}, "feature": {"sight_features": "", "sight_content": ""}}, {"title": "温泉如意湖公园", "address": "河南省平顶山市汝州市X003", "image": "", "rank": 26, "time": 2, "location": {"lat": 34.17276778855066, "lng": 112.85054971566392}, "feature": {"sight_features": "", "sight_content": ""}}, {"title": "淘乐宝儿童乐园", "address": "龙兴大道西段99号附近", "image": "", "rank": 27, "time": 2, "location": {"lat": 34.23171430093109, "lng": 112.70375525332815}, "feature": {"sight_features": "", "sight_content": ""}}, {"title": "基督教会(靳马线)", "address": "靳马线附近", "image": "", "rank": 28, "time": 2, "location": {"lat": 34.27747749178335, "lng": 112.96859925956215}, "feature": {"sight_features": "", "sight_content": ""}}, {"title": "乐宝王国儿童乐园", "address": "丹阳路与望嵩路交叉口正安电器(原购物中心)三楼", "image": "", "rank": 29, "time": 2, "location": {"lat": 34.16760090872545, "lng": 112.86978358736191}, "feature": {"sight_features": "", "sight_content": ""}}, {"title": "磨庄文化广场", "address": "034县道附近", "image": "", "rank": 30, "time": 2, "location": {"lat": 44.15223194167098, "lng": 126.64303478022592}, "feature": {"sight_features": "", "sight_content": ""}}, {"title": "汝州剧院", "address": "望嵩中路138", "image": "", "rank": 31, "time": 2.0, "location": {"lat": 34.17001252440448, "lng": 112.84737683322976}, "feature": {"sight_features": "", "sight_content": ""}}, {"title": "净因寺", "address": "魏国路与001县道交叉口西北50米", "image": "", "rank": 32, "time": 1.0, "location": {"lat": 34.25946620723063, "lng": 112.80902805872061}, "feature": {"sight_features": "", "sight_content": ""}}, {"title": "李湾新型社区戏苑", "address": "007县道东方大街路口附近", "image": "", "rank": 33, "time": 2, "location": {"lat": 23.04225023971262, "lng": 113.10728597920206}, "feature": {"sight_features": "", "sight_content": ""}}, {"title": "九龙山大峡谷漂流", "address": "大峪镇大泉村(焦桐高速大峪出口往汝州方向两公里处)", "image": "", "rank": 34, "time": 2, "location": {"lat": 34.23951383354221, "lng": 113.03693859143748}, "feature": {"sight_features": "", "sight_content": ""}}, {"title": "开心乐园海贝儿儿童乐园", "address": "龙兴大道西段49号附近", "image": "", "rank": 35, "time": 2, "location": {"lat": 34.22940854567367, "lng": 112.70610719634158}, "feature": {"sight_features": "", "sight_content": ""}}, {"title": "半扎清真寺", "address": "河南省平顶山市汝州市X007", "image": "", "rank": 36, "time": 2, "location": {"lat": 34.17276778855066, "lng": 112.85054971566392}, "feature": {"sight_features": "", "sight_content": ""}}, {"title": "中王庙", "address": "平顶山市汝州市大季线", "image": "", "rank": 37, "time": 2, "location": {"lat": 34.12078398739096, "lng": 112.99472757035429}, "feature": {"sight_features": "", "sight_content": ""}}, {"title": "汝州市天主教堂", "address": "河南省平顶山市汝州市城垣中路266号4层", "image": "", "rank": 38, "time": 1.0, "location": {"lat": 34.173260644411904, "lng": 112.86088899738874}, "feature": {"sight_features": "", "sight_content": ""}}, {"title": "北岳庙", "address": "平顶山市汝州市", "image": "", "rank": 39, "time": 1.0, "location": {"lat": 34.17276778855066, "lng": 112.85054971566392}, "feature": {"sight_features": "", "sight_content": ""}}, {"title": "法行寺", "address": "塔寺街20", "image": "", "rank": 40, "time": 2, "location": {"lat": 40.10098993419796, "lng": 113.31740690445739}, "feature": {"sight_features": "", "sight_content": ""}}, {"title": "地矿工会游园", "address": "广成中路64号附近", "image": "", "rank": 41, "time": 2, "location": {"lat": 34.17671854153251, "lng": 112.85885550006174}, "feature": {"sight_features": "", "sight_content": ""}}, {"title": "地矿游园", "address": "朝阳中路129号附近", "image": "", "rank": 42, "time": 2, "location": {"lat": 31.038731845462877, "lng": 104.68725799630985}, "feature": {"sight_features": "", "sight_content": ""}}, {"title": "乐乐园游乐场", "address": "丹阳西路菜篮子超市", "image": "", "rank": 43, "time": 2, "location": {"lat": 37.092791260181144, "lng": 114.47781613791456}, "feature": {"sight_features": "", "sight_content": ""}}, {"title": "汝河沙滩公园", "address": "河南省平顶山市汝州市竹竿园", "image": "", "rank": 44, "time": 2, "location": {"lat": 34.17276778855066, "lng": 112.85054971566392}, "feature": {"sight_features": "", "sight_content": ""}}, {"title": "安沟度假村", "address": "325省道附近", "image": "", "rank": 45, "time": 2, "location": {"lat": 40.38011571404755, "lng": 115.90477371737859}, "feature": {"sight_features": "", "sight_content": ""}}, {"title": "钟楼", "address": "中大街东段", "image": "", "rank": 46, "time": 1.5, "location": {"lat": 34.16525549056898, "lng": 112.85512829440756}, "feature": {"sight_features": "", "sight_content": ""}}, {"title": "南禅寺", "address": "大王庄北街与小王庄中街交叉口东北50米", "image": "", "rank": 47, "time": 1.5, "location": {"lat": 34.1570737617467, "lng": 112.84301993921818}, "feature": {"sight_features": "", "sight_content": ""}}, {"title": "娘娘山森林公园", "address": "河南省平顶山市汝州市", "image": "", "rank": 48, "time": 2, "location": {"lat": 34.17276778855066, "lng": 112.85054971566392}, "feature": {"sight_features": "", "sight_content": ""}}, {"title": "硕平花海", "address": "河南省平顶山市汝州市冯沟村南", "image": "", "rank": 49, "time": 2, "location": {"lat": 34.08673545087576, "lng": 112.76931859929617}, "feature": {"sight_features": "", "sight_content": ""}}, {"title": "陵头乡社会法庭档案室", "address": "兴陵路123号", "image": "", "rank": 50, "time": 2, "location": {"lat": 32.47306111855005, "lng": 119.97559297409794}, "feature": {"sight_features": "", "sight_content": ""}}, {"title": "汝州市图书馆", "address": "望嵩南路80号", "image": "", "rank": 51, "time": 1.5, "location": {"lat": 34.166274799503725, "lng": 112.84658441548177}, "feature": {"sight_features": "", "sight_content": ""}}, {"title": "三宝艺术馆", "address": "望嵩中路29号", "image": "", "rank": 52, "time": 2, "location": {"lat": 34.16813564440348, "lng": 112.84861386728991}, "feature": {"sight_features": "", "sight_content": ""}}, {"title": "天佑汝瓷艺术馆", "address": "北环路282号", "image": "", "rank": 53, "time": 2, "location": {"lat": 39.97040307254197, "lng": 119.60572800010134}, "feature": {"sight_features": "", "sight_content": ""}}, {"title": "水景坊水族艺术馆", "address": "利民街120号", "image": "", "rank": 54, "time": 2, "location": {"lat": 38.84978312920247, "lng": 115.4826959802909}, "feature": {"sight_features": "", "sight_content": ""}}, {"title": "河滨公园(水上乐园)", "address": "南环路二里店红路灯口南100米路西(原河滨公园内)", "image": "", "rank": 55, "time": null, "location": {"lat": 30.770234132026566, "lng": 104.1289399667638}, "feature": {"sight_features": "", "sight_content": ""}}, {"title": "月亮湾水上乐园", "address": "侯饭线王堂路东1公里", "image": "", "rank": 56, "time": 2, "location": {"lat": 38.06251381434445, "lng": 117.13696708581632}, "feature": {"sight_features": "", "sight_content": ""}}, {"title": "青瓷博物馆", "address": "金鼎时代广场8楼", "image": "", "rank": 57, "time": 1.0, "location": {"lat": 35.54579589939043, "lng": 106.68711602773132}, "feature": {"sight_features": "", "sight_content": ""}}, {"title": "汝州梦田葡萄采摘园", "address": "陵头乡陵头村庀山脚下", "image": "", "rank": 58, "time": 2, "location": {"lat": 34.26413242098641, "lng": 112.79008473226186}, "feature": {"sight_features": "", "sight_content": ""}}, {"title": "高峰竹柳国柳基地", "address": "009县道附近", "image": "", "rank": 59, "time": 2, "location": {"lat": 44.321504872459506, "lng": 125.34496535219758}, "feature": {"sight_features": "", "sight_content": ""}}, {"title": "皇龙生态园", "address": "024县道附近", "image": "", "rank": 60, "time": 2, "location": {"lat": 44.64454580385906, "lng": 126.5906344638957}, "feature": {"sight_features": "", "sight_content": ""}}]}