{"cityName": "三都", "days": 2, "cityImage": "", "spots": [{"title": "水各水寨", "address": "黔南布依族苗族自治州三都水族自治县水各村", "image": "", "rank": 1, "time": 2.0, "location": {"lat": 25.613761029535095, "lng": 107.98115314180498}, "feature": {"sight_features": "", "sight_content": ""}}, {"title": "尧人山国家森林公园", "address": "拉揽乡", "image": "", "rank": 2, "time": 2, "location": {"lat": 25.97180596150138, "lng": 107.96443139674237}, "feature": {"sight_features": "", "sight_content": ""}}, {"title": "姑鲁景区", "address": "黔南布依族苗族自治州三都水族自治县三合街道姑挂村一组", "image": "", "rank": 3, "time": 2, "location": {"lat": 25.920711859794498, "lng": 107.88544672598954}, "feature": {"sight_features": "", "sight_content": ""}}, {"title": "石龙过江风景区", "address": "三都水族自治县", "image": "", "rank": 4, "time": 2, "location": {"lat": 25.989479499372695, "lng": 107.87642925680865}, "feature": {"sight_features": "", "sight_content": ""}}, {"title": "水族农民起义关卡遗址", "address": "三都水族自治县", "image": "", "rank": 5, "time": 2, "location": {"lat": 25.989479499372695, "lng": 107.87642925680865}, "feature": {"sight_features": "", "sight_content": ""}}, {"title": "水族卯文化景区", "address": "三都水族自治县", "image": "", "rank": 6, "time": 2, "location": {"lat": 25.989479499372695, "lng": 107.87642925680865}, "feature": {"sight_features": "", "sight_content": ""}}, {"title": "三洞乡", "address": "南布依族苗族自治州三都水族自治县三洞乡", "image": "", "rank": 7, "time": 2, "location": {"lat": 25.72965842533888, "lng": 107.92830065083747}, "feature": {"sight_features": "", "sight_content": ""}}, {"title": "控抗苗寨", "address": "黔南布依族苗族自治州三都水族自治县", "image": "", "rank": 8, "time": 2, "location": {"lat": 26.09676561798542, "lng": 107.84263500353444}, "feature": {"sight_features": "", "sight_content": ""}}, {"title": "美人鱼水族馆", "address": "河滨西路与206省道交叉口西100米", "image": "", "rank": 9, "time": 2, "location": {"lat": 29.414956098688446, "lng": 105.58296060919179}, "feature": {"sight_features": "", "sight_content": ""}}, {"title": "姑鲁寨", "address": "姑鲁坡脚附近", "image": "", "rank": 10, "time": 2, "location": {"lat": 25.917778438792002, "lng": 107.90854044577823}, "feature": {"sight_features": "", "sight_content": ""}}, {"title": "瑶人山森林公园", "address": "贵州省三都水族自治县三都水族自治县城东南", "image": "", "rank": 11, "time": 2, "location": {"lat": 25.989479499372695, "lng": 107.87642925680865}, "feature": {"sight_features": "", "sight_content": ""}}, {"title": "三都水族自治县凤凰商业街", "address": "贵州省三都水族自治县建设西路", "image": "", "rank": 12, "time": 2, "location": {"lat": 25.98769880177491, "lng": 107.87622158564261}, "feature": {"sight_features": "", "sight_content": ""}}, {"title": "三都怎雷水寨", "address": "贵州省黔南布依族苗族自治州三都水族自治县怎雷水族寨", "image": "", "rank": 13, "time": 2, "location": {"lat": 26.09676561798542, "lng": 107.84263500353444}, "feature": {"sight_features": "", "sight_content": ""}}, {"title": "仙石王", "address": "黔南布依族苗族自治州三都水族自治县打孟寨村", "image": "", "rank": 14, "time": 2, "location": {"lat": 25.850427905193627, "lng": 107.96631365310733}, "feature": {"sight_features": "", "sight_content": ""}}]}