{"cityName": "桑日", "days": null, "cityImage": "", "spots": [{"title": "恰嘎曲德寺", "address": "山南市桑日县绒乡境内", "image": "", "rank": 1, "time": 1.0, "location": {"lat": 29.14908211007847, "lng": 91.98965084623448}, "feature": {"sight_features": "", "sight_content": ""}}, {"title": "卡玛当寺", "address": "山南市桑日县城东约2.5公里的一处山腰上", "image": "", "rank": 2, "time": 1.0, "location": {"lat": 29.265175836421495, "lng": 92.0221572536961}, "feature": {"sight_features": "", "sight_content": ""}}, {"title": "达古景区", "address": "山南市桑日县与加查县交界处（属桑日县增期乡达古村，距桑日县县城40公里）", "image": "", "rank": 3, "time": 2, "location": {"lat": 29.6114594551692, "lng": 92.39905621879835}, "feature": {"sight_features": "", "sight_content": ""}}, {"title": "巴郎却康", "address": "山南市桑日县绒乡巴郎村", "image": "", "rank": 4, "time": null, "location": {"lat": 29.14908211007847, "lng": 91.98965084623448}, "feature": {"sight_features": "", "sight_content": ""}}, {"title": "沃卡温泉", "address": "山南市桑日县沃卡景区", "image": "", "rank": 5, "time": 2, "location": {"lat": 29.265175836421495, "lng": 92.0221572536961}, "feature": {"sight_features": "", "sight_content": ""}}, {"title": "曲龙寺", "address": "山南市沃卡沃德页杰神山以北", "image": "", "rank": 6, "time": 1.0, "location": {"lat": 29.243026939249226, "lng": 91.77867513851903}, "feature": {"sight_features": "", "sight_content": ""}}, {"title": "桑日马鹿自然保护区", "address": "山南市桑日县增期乡", "image": "", "rank": 7, "time": 1.0, "location": {"lat": 29.6114594551692, "lng": 92.39905621879835}, "feature": {"sight_features": "", "sight_content": ""}}, {"title": "贡德林草原", "address": "山南市桑日县增期乡", "image": "", "rank": 8, "time": 4.0, "location": {"lat": 29.6114594551692, "lng": 92.39905621879835}, "feature": {"sight_features": "", "sight_content": ""}}, {"title": "沃德贡杰雪山", "address": "西藏自治区桑日县境内 856200", "image": "", "rank": 9, "time": 3.0, "location": {"lat": 29.265175836421495, "lng": 92.0221572536961}, "feature": {"sight_features": "", "sight_content": ""}}, {"title": "尼玛林寺", "address": "西藏自治区山南市桑日县", "image": "", "rank": 10, "time": 2, "location": {"lat": 29.265175836421495, "lng": 92.0221572536961}, "feature": {"sight_features": "", "sight_content": ""}}, {"title": "曲桑寺", "address": "西藏自治区拉萨市城关区娘热乡", "image": "", "rank": 11, "time": 0.75, "location": {"lat": 29.731004403424322, "lng": 91.08615055885863}, "feature": {"sight_features": "", "sight_content": ""}}, {"title": "塔尔岭曲德寺", "address": "西藏自治区乃东县境内", "image": "", "rank": 12, "time": 2, "location": {"lat": 29.213115944370983, "lng": 91.83204010058172}, "feature": {"sight_features": "", "sight_content": ""}}, {"title": "沃卡三圣", "address": "西藏自治区桑日县沃卡地区 856200", "image": "", "rank": 13, "time": 2, "location": {"lat": 29.3332526102199, "lng": 92.25013070724877}, "feature": {"sight_features": "", "sight_content": ""}}]}