{"cityName": "桑植", "days": 2, "cityImage": "", "spots": [{"title": "桑植", "address": "张家界市桑植县", "image": "", "rank": 1, "time": 3.0, "location": {"lat": 29.405923219415055, "lng": 110.17041335212696}, "feature": {"sight_features": "", "sight_content": ""}}, {"title": "茅岩河九天洞景区", "address": "张家界市桑植县利福塔镇水洞村", "image": "", "rank": 2, "time": 2.0, "location": {"lat": 29.329631863122167, "lng": 110.12676764912483}, "feature": {"sight_features": "特色1 神秘莫测，幽深无堰，享有“世界奇穴之冠””诸桂冠 特色2 景观堆珍叠玉，藏奇纳秀 特色3 集自然风光和浓郁民族风情于一体的风峦溪天然森林公园", "sight_content": "【茅岩河大峡谷】\n百里画廊茅岩河，全长50多公里，以峡谷风光见长。茅岩河两岸相对高度在100－400米之间，峭壁悬崖夹峙，山势险峻陡峭；崖壁上无数钟乳石倒垂，青苔藤蔓生机盎然，奇花异草芬芳郁人；峭壁褶皱怪石嶙峋，俨然一幅幅天然壁画。在这里，我们不仅可以领略到茅岩河水的碧、山的青、谷的幽、崖的险、石的怪、洞的奇，还可以走进六百多年前茅岗土司的传奇故事中，可以呼吸到当年土家族起义首领覃垕举兵反明的战火硝烟，也可以谛听到那令人谈虎色变的湘西土匪的故事，以及神秘消失的古苗瑶部落与界碑的故事、土家族、白族等少数民族浓郁的民俗风情……\n【九天玄女洞】\n\n“滴石铸玄女，暗河镂九天”。“亚洲第一洞”九天洞，面积250多万平方米，相当于400个标准足球场大小。自称世界第一洞的利川腾龙洞，总面积只有100万平方米，号称“世界上最大的洞”的斯洛文尼亚的波斯托伊纳溶洞，也只有190万平方米，因此被亿万游客誉为“世界奇迹”、“亚洲最大、世界最奇”、“溶洞女王”。这个隐秘的地下天堂，因洞中有“九天玄女”石柱，又名九天玄女洞。因洞内有1个可容万人的舞厅，2个玉池，3口龙井，4条暗河，5座自生桥，6座洞中山，7个小湖，8处千丘田，9个天窗，10条瀑布，36个主体洞堂……九天洞正以她扑朔迷离、冷峻美幻、冰清玉洁、神秘奇特的风貌，正吸引亿万中外游客的纷至沓来。洞分上、中、下三层400多米。洞内36支洞交错相连，内有30余座大厅、10余座洞中山、6方千丘田、5座自生桥、3段阴河、3个天然湖、12瀑、3井等景。洞中石林密布，钟乳悬浮，岩浆铸成的各种精致景物婀娜多姿。洞中的石笋、石柱、石幔、石花、石人、石兽等千姿百态，不可名状，纷呈红黄绿白黑灰诸色，可谓五彩缤纷，琳琅满目。其中九星山玉柱、九天玄女宫和寿星宫三大奇观堪称景绝盖世。\n\n\n【峰恋溪】\n澧水河畔的峰恋溪，婉约清纯，濯目濯心，足以让人忘情忘我。溪内溪水明净，花草鲜美，鸟语声声，安谧宁静。长达两公里的景区石板小路，常年被落叶覆盖。置身其间，峰恋溪，山依水，水连山，山水相融，相亲相爱，水乳交融，全然没了时间概念，没了方位之感，天荒地老，心心无隙，一切都在柔柔中融化，又在柔柔中简化，只剩下爱与恋的缠缠绵绵萦萦于怀"}}, {"title": "贺龙纪念馆", "address": "张家界市桑植县洪家关村贺龙故居旁", "image": "", "rank": 3, "time": 1.5, "location": {"lat": 29.481192727264748, "lng": 110.17516712469772}, "feature": {"sight_features": "", "sight_content": ""}}, {"title": "贺龙故居", "address": "张家界市桑植县洪家关村", "image": "", "rank": 4, "time": 1.0, "location": {"lat": 29.479104321756598, "lng": 110.17626106497792}, "feature": {"sight_features": "", "sight_content": ""}}, {"title": "贺龙桥", "address": "张家界市桑植县洪家关村贺龙故居前", "image": "", "rank": 5, "time": 0.25, "location": {"lat": 29.481192727264748, "lng": 110.17516712469772}, "feature": {"sight_features": "", "sight_content": ""}}, {"title": "峰峦溪国家森林公园", "address": "张家界市桑植县城城西南侧", "image": "", "rank": 6, "time": 2.5, "location": {"lat": 29.405923219415055, "lng": 110.17041335212696}, "feature": {"sight_features": "", "sight_content": ""}}, {"title": "贺满姑烈士纪念亭", "address": "张家界市桑植县北二路", "image": "", "rank": 7, "time": 0.25, "location": {"lat": 29.40579987229291, "lng": 110.16745139542076}, "feature": {"sight_features": "", "sight_content": ""}}, {"title": "苦竹古寨", "address": "张家界市桑植县，距桑植县城19.5公里。", "image": "", "rank": 8, "time": 1.0, "location": {"lat": 29.405923219415055, "lng": 110.17041335212696}, "feature": {"sight_features": "", "sight_content": ""}}, {"title": "有间农庄", "address": "凉水口镇人生坪村", "image": "", "rank": 9, "time": 2, "location": {"lat": 29.582361846920172, "lng": 110.11158904740235}, "feature": {"sight_features": "", "sight_content": ""}}, {"title": "八大公山国家级自然保护区", "address": "和平西路", "image": "", "rank": 10, "time": 2, "location": {"lat": 38.22400247338818, "lng": 114.74378168217098}, "feature": {"sight_features": "", "sight_content": ""}}, {"title": "庆银农家乐", "address": "文明路尚家坪种子公司大门口", "image": "", "rank": 11, "time": 2, "location": {"lat": 29.416280452827174, "lng": 110.20995690259541}, "feature": {"sight_features": "", "sight_content": ""}}, {"title": "天星山", "address": "湖南省凤凰县禾库乡板吉门村 416200", "image": "", "rank": 12, "time": 3.0, "location": {"lat": 27.95384780972621, "lng": 109.60552668830216}, "feature": {"sight_features": "", "sight_content": ""}}, {"title": "金藏河漂流", "address": "湖南省桑植县溇水上游 427100", "image": "", "rank": 13, "time": 2, "location": {"lat": 29.650660344724237, "lng": 110.35826915624473}, "feature": {"sight_features": "", "sight_content": ""}}, {"title": "桑植苏维埃政府", "address": "湖南省桑植县县人民政府院内 427100", "image": "", "rank": 14, "time": 1.0, "location": {"lat": 29.405923219415055, "lng": 110.17041335212696}, "feature": {"sight_features": "", "sight_content": ""}}, {"title": "澧水南源漂流", "address": "桑植县廖家村镇咱家村", "image": "", "rank": 15, "time": 2, "location": {"lat": 29.40241768127493, "lng": 109.9981192168451}, "feature": {"sight_features": "", "sight_content": ""}}, {"title": "桑植县芭茅溪漂流有限公司", "address": "芭茅溪街上", "image": "", "rank": 16, "time": 2, "location": {"lat": 29.5720852568323, "lng": 111.20901684692066}, "feature": {"sight_features": "", "sight_content": ""}}, {"title": "刘家坪红二方面军长征出发纪念碑", "address": "刘家坪附近", "image": "", "rank": 17, "time": 2, "location": {"lat": 36.44154760412654, "lng": 113.74922835390325}, "feature": {"sight_features": "", "sight_content": ""}}, {"title": "芙蓉龙博物馆", "address": "芙蓉桥乡芙蓉桥村", "image": "", "rank": 18, "time": 0.75, "location": {"lat": 29.514988826952564, "lng": 110.30534071354637}, "feature": {"sight_features": "", "sight_content": ""}}, {"title": "民歌广场", "address": "广场西街附近", "image": "", "rank": 19, "time": 2, "location": {"lat": 39.492537493588955, "lng": 116.01516484209223}, "feature": {"sight_features": "", "sight_content": ""}}, {"title": "九天玄女洞", "address": "张家界市桑植县利福塔乡水洞村", "image": "", "rank": 20, "time": 2, "location": {"lat": 29.346039857872654, "lng": 110.09128000282924}, "feature": {"sight_features": "特色1 洞中石林密布，钟乳悬浮，岩浆铸成的各种精致景物婀娜多姿。 特色2 洞中的石笋、石柱、石幔、石花、石人、石兽等千姿百态，不可名状，纷呈红黄绿白黑灰诸色，可谓五彩缤纷，琳琅满目。", "sight_content": "九天玄女洞位于茅岩河九天洞景区，洞中石林密布，钟乳悬浮，岩浆铸成的各种精致景物婀娜多姿。洞中的石笋、石柱、石幔、石花、石人、石兽等千姿百态，不可名状，纷呈红黄绿白黑灰诸色，可谓五彩缤纷，琳琅满目。"}}, {"title": "柳杨溪旅游休闲农庄", "address": "305省道", "image": "", "rank": 21, "time": 2, "location": {"lat": 38.97180225572126, "lng": 112.6319987223776}, "feature": {"sight_features": "", "sight_content": ""}}, {"title": "穿洞峡漂流", "address": "五道水镇芭茅溪村穿洞峡漂流风景区", "image": "", "rank": 22, "time": 2, "location": {"lat": 29.677561921632574, "lng": 110.03654194703756}, "feature": {"sight_features": "", "sight_content": ""}}, {"title": "洪家关大棚生态餐厅", "address": "贺龙故居南", "image": "", "rank": 23, "time": 2, "location": {"lat": 29.481192727264748, "lng": 110.17516712469772}, "feature": {"sight_features": "", "sight_content": ""}}, {"title": "泉水源农庄", "address": "洪家关乡李家坪村", "image": "", "rank": 24, "time": 2, "location": {"lat": 29.431695220666224, "lng": 110.11929832954068}, "feature": {"sight_features": "", "sight_content": ""}}, {"title": "汩落湖村", "address": "张家界市-桑植县", "image": "", "rank": 25, "time": 2, "location": {"lat": 29.405923219415055, "lng": 110.17041335212696}, "feature": {"sight_features": "", "sight_content": ""}}, {"title": "卜岔口", "address": "张家界市-桑植县-零二八县道", "image": "", "rank": 26, "time": 2, "location": {"lat": 29.405923219415055, "lng": 110.17041335212696}, "feature": {"sight_features": "", "sight_content": ""}}, {"title": "桑植澧源中学保卫股执勤室", "address": "张家界市-桑植县-北二路与和平西路交叉口东南150米", "image": "", "rank": 27, "time": 1.0, "location": {"lat": 29.40579987229291, "lng": 110.16745139542076}, "feature": {"sight_features": "", "sight_content": ""}}, {"title": "小城外水上乐园", "address": "张家界市-桑植县-凉水口镇人生坪村", "image": "", "rank": 28, "time": 2, "location": {"lat": 29.582361846920172, "lng": 110.11158904740235}, "feature": {"sight_features": "", "sight_content": ""}}, {"title": "红六军司令部旧址", "address": "湖南省新化县瑞塔铺镇 417600", "image": "", "rank": 29, "time": 2, "location": {"lat": 27.7326667510658, "lng": 111.33451533499847}, "feature": {"sight_features": "", "sight_content": ""}}]}