{"cityName": "三河", "days": "", "cityImage": "", "spots": [{"title": "梦东方-未来世界", "address": "廊坊市三河市东燕郊经济开发区迎宾路口往南3公里", "image": "", "rank": 1, "time": 2, "location": {"lat": 39.95800862923829, "lng": 116.81499587876026}, "feature": {"sight_features": "特色1 融休闲、看秀、游乐、航天文化为一体 特色2 身临其境亲身体验宇宙外太空的独特魅力 特色3 既是一个航天知识博物馆，又是一个航天体验主题乐园", "sight_content": "梦东方-未来世界总占地面积33700平方米，总建筑面积16000平方米，总投资达4亿元，位于北京东部潮白河东畔—燕郊开发区内。是集航天科技展览展示、课外科普教育、互动娱乐为一体的综合性高科技主题乐园。来到梦东方•未来世界，您能够身临其境亲身体验宇宙外太空的独特魅力，也可以学习到航天科技知识，真正做到寓教于乐，是合家同游，航天爱好者的最爱之一，年轻白领放松身心、释放激情的绝佳去处，是所有人都可以畅游的主题乐园！\n梦东方-未来世界深入挖掘并应用太空主题元素，设置了13项科普展览项目、18项互动游乐项目以及1个多媒体投影秀。精心打造的航天主题项目，将带你进入梦幻、神奇、惊险、刺激的太空世界。在这里您将接受航天员训练，乘坐未来世界航天器进入茫茫太空，来一次有惊无险的太空之旅；还可驾驶宇宙战舰与太空中的外星生物进行激战，保卫宇宙和平。当你顺利完成任务，平安返回基地时，可以去银河餐厅享受美食，也可以去陨石剧场观看精彩的太空脱口秀表演，或者驾驶战斗机在模拟航线上急速飞行，玩一玩太空单车、火星小摆锤或者干脆躺在太空沙发上遥望宁静的星空。\n梦东方-未来世界让您在酷暑夏日畅享清凉体验，在数九严寒享受温暖如春。冬暖夏凉、四季畅游，满足了北方游客四季出游的梦想，打造了一个融休闲、看秀、游乐、航天文化为一体的梦幻般的主题公园！一个圆梦的航天之旅，一次惊险、刺激的太空体验，玩转宇宙，悦动地球！您一定不虚此行！未来三年，梦东方涿州传奇世界项目、梦东方启东国际度假中心以及吴江太湖活力中心都将启动并陆续开业，在为游客奉献一场豪华的娱乐盛宴的同时，将划时代地改写世界主题乐园新格局，意义显著。我们追求的中国文化元素、休闲娱乐的高度体验、身临其境的视听触享受、纯生态的理念，都将达到淋漓尽致的发挥，这就是梦东方，这就是我们的主题乐园！"}}, {"title": "盛世丽都音乐会所", "address": "三河市燕郊102国道南侧福成建材城旁", "image": "", "rank": 2, "time": 2, "location": {"lat": 39.949257316908614, "lng": 116.83892305000197}, "feature": {"sight_features": "", "sight_content": ""}}, {"title": "家和游泳健身会所", "address": "廊坊三河市燕郊高新区102国道京榆路南侧", "image": "", "rank": 3, "time": 2, "location": {"lat": 39.95649372151026, "lng": 116.8917555482995}, "feature": {"sight_features": "", "sight_content": ""}}, {"title": "燕龙生态度假村", "address": "廊坊市三河市经济技术开发区思菩兰路南600米", "image": "", "rank": 4, "time": 2, "location": {"lat": 39.92042166559373, "lng": 116.80581989458611}, "feature": {"sight_features": "", "sight_content": ""}}, {"title": "博羽羽毛球馆", "address": "三河市燕郊开发区创意谷街773号", "image": "", "rank": 5, "time": 2, "location": {"lat": 39.98298356632563, "lng": 116.80808296870823}, "feature": {"sight_features": "", "sight_content": ""}}, {"title": "体美羽毛球俱乐部", "address": "三河市燕郊海油大街防灾科技学院北门对面", "image": "", "rank": 6, "time": 2, "location": {"lat": 39.95800862923829, "lng": 116.81499587876026}, "feature": {"sight_features": "", "sight_content": ""}}, {"title": "嘉文梦幻王国天洋广场店", "address": "燕郊经济开发区迎宾路天洋广场B座三层", "image": "", "rank": 7, "time": 2, "location": {"lat": 39.970669539409, "lng": 116.82800630695293}, "feature": {"sight_features": "", "sight_content": ""}}, {"title": "思菩兰天天羽毛球馆", "address": "三河市燕郊开发区思菩兰路思菩兰国际会议中心内", "image": "", "rank": 8, "time": 2, "location": {"lat": 39.964076090641505, "lng": 116.82398477284586}, "feature": {"sight_features": "", "sight_content": ""}}, {"title": "吾E贝佳游泳馆", "address": "廊坊市三河市燕郊燕顺路纳丹堡南门第二排商业街K3底商", "image": "", "rank": 9, "time": 2, "location": {"lat": 39.978099979643815, "lng": 116.77993988262338}, "feature": {"sight_features": "", "sight_content": ""}}, {"title": "英派斯游泳健身俱乐部", "address": "廊坊市三河市燕郊镇汉王路与学院大街交口金富仕购物中心四楼。", "image": "", "rank": 10, "time": 2, "location": {"lat": 39.95904611387181, "lng": 116.8328770290213}, "feature": {"sight_features": "", "sight_content": ""}}, {"title": "燕郊蓝天城", "address": "廊坊市三河市燕郊开发区天洋广场A馆2层", "image": "", "rank": 11, "time": 2, "location": {"lat": 39.97123199323946, "lng": 116.82766516914737}, "feature": {"sight_features": "特色1 互动式儿童体验乐园", "sight_content": "燕郊蓝天城儿童职业体验中心，以“互动式体验”为理念的儿童职业体验中心，占地4500平方米。\n模拟真实的城市街景，包含职业体验项目16个，让孩子以角色扮演的方式进行各种职业体验，在实践的过程中认知社会、品尝工作的快乐、培养克服困难的勇气、提高各方面的素质。父母也将参与其中，在互动中增进对孩子的了解。"}}, {"title": "劲博游泳健身俱乐部", "address": "廊坊市三河市亿丰大街74号劲博游泳健身（天洋城北门）", "image": "", "rank": 12, "time": 2, "location": {"lat": 39.97443286235823, "lng": 116.82751817133202}, "feature": {"sight_features": "", "sight_content": ""}}, {"title": "8号游泳健身会所", "address": "廊坊市三河市燕郊行宫大街行宫宾馆西", "image": "", "rank": 13, "time": 2, "location": {"lat": 39.95800862923829, "lng": 116.81499587876026}, "feature": {"sight_features": "特色1 水质清澈，水温适宜", "sight_content": "8号游泳健身俱乐部，属于燕郊市中心以贴心的价位，完善的设施，优质的服务，专业的指导，人性化理念管理模式，让每一位前来的消费者感到《家》的氛围，我们的宗旨就是，让您更佳健康，让您更佳有气质的心情满意而归。游泳水质清澈，水温适宜，是游泳爱好者畅游的不二选择。\n会所配备超大操课健身厅，多台跑步机、健身器械以及多部动感单车等，让您在畅游的同时获得肌体的锻炼。会所交通便利，环境优雅，设施先进，配套齐全，外部有超大停车场，25*12.5米的泳池，水深1.2-1.8米，水温常年恒温27℃，桑拿，淋浴设施一应俱全！真诚期待您的到来！"}}, {"title": "璞然生态园", "address": "廊坊市三河市黄土庄镇掘山头村", "image": "", "rank": 14, "time": 2, "location": {"lat": 40.073168596106726, "lng": 117.10211304223266}, "feature": {"sight_features": "", "sight_content": ""}}, {"title": "某某城3D互动体验馆", "address": "廊坊市三河市京东燕郊镇天洋广场B馆四层", "image": "", "rank": 15, "time": 2, "location": {"lat": 39.971212193281126, "lng": 116.82785507901694}, "feature": {"sight_features": "", "sight_content": ""}}, {"title": "体美汇游泳健身会所", "address": "廊坊市三河市燕郊海油大街防灾学院北门对面50米", "image": "", "rank": 16, "time": null, "location": {"lat": 39.95800862923829, "lng": 116.81499587876026}, "feature": {"sight_features": "特色1 有利于身体健康，增强体质", "sight_content": "体美汇游泳健身会所位于河北省廊坊市三河市燕郊海油大街防灾学院北门对面50米，总面积4000余平米，全新超奢华时尚修理概念。\n集阳光游泳池，四季恒温，通透式器械大厅，团体操课，小球类及多功能厅等项目于一身的综合性高端会所，周边高档楼盘密集，商业发达，交通便利。"}}, {"title": "大郎台", "address": "中国河北省廊坊市三河市外环路", "image": "", "rank": 17, "time": 2.0, "location": {"lat": 39.98349633638863, "lng": 117.08546443899574}, "feature": {"sight_features": "", "sight_content": ""}}, {"title": "燕郊植物园", "address": "迎宾路与北外环交叉口向东200米路南(化工大学)", "image": "", "rank": 18, "time": 2, "location": {"lat": 39.997813441223656, "lng": 116.81952259922511}, "feature": {"sight_features": "", "sight_content": ""}}, {"title": "jh高尔夫学院", "address": "创意谷街", "image": "", "rank": 19, "time": 2, "location": {"lat": 39.98303385161821, "lng": 116.80395981828187}, "feature": {"sight_features": "", "sight_content": ""}}, {"title": "琨博游乐动漫水乐园", "address": "廊坊市三河市齐心路京秦高速出口西北角", "image": "", "rank": 20, "time": 1.5, "location": {"lat": 39.99578106244231, "lng": 116.94997706399549}, "feature": {"sight_features": "", "sight_content": ""}}, {"title": "豪亭洗浴会所", "address": "廊坊市三河市燕郊开发区燕灵路燕京航城西门对面", "image": "", "rank": 21, "time": 2, "location": {"lat": 39.9805040149983, "lng": 116.80268093845615}, "feature": {"sight_features": "", "sight_content": "豪亭洗浴会馆位于河北廊坊市三河市燕郊开发区燕灵路燕京航城西门对面，是一个集洗浴、桑拿汗蒸、影视厅、休闲于一体的大型洗浴会所。"}}, {"title": "程峰游泳健身会所", "address": "廊坊市三河市燕郊开发区迎宾路东亿丰大街88号科研楼", "image": "", "rank": 22, "time": 2, "location": {"lat": 39.97405237275835, "lng": 116.82653796012227}, "feature": {"sight_features": "特色1 交通便捷，地理位置优越； 特色2 完善的设施，宽敞宜人的环境，专业的课程设置。", "sight_content": "程峰游泳健身会所坐落于河北省廊坊市三河市燕郊开发区迎宾路，交通便捷、闹中取静、独享优越的地理位置。\n程峰游泳健身会所一家独具特色的健身会所，以卓尔不群的全新理念，融金港完善的设施，宽敞宜人的环境，专业的课程设置正引导着休闲健身的新时尚。"}}, {"title": "体美汇游泳健身会所(潮白店)", "address": "廊坊市三河市燕郊潮白人家北区星光物业前50米", "image": "", "rank": 23, "time": 2, "location": {"lat": 39.95746842783992, "lng": 116.79684060428471}, "feature": {"sight_features": "特色1 一体全方面健身娱乐", "sight_content": "体美汇游泳健身会所是集游泳健身、操课、舞蹈、动感单车等项目，一体全方面健身娱乐。体美汇游泳健身俱乐部场馆宽敞明亮，水质干净卫生，24小时循环过滤，并提供淋浴。\n体美汇游泳健身俱乐部教练员队伍是一支专业、富有活力的团队，均受过专业训练的运动员。经过多年的理论培训和常年的教学经验，保持了的教学记录，通过丰富的教学内容和多种方法，让每位学员进一步提高对游泳的兴趣。"}}, {"title": "灵山寺", "address": "三河灵山医院附近", "image": "", "rank": 24, "time": 1.0, "location": {"lat": 40.0456999854242, "lng": 117.09602222365453}, "feature": {"sight_features": "", "sight_content": ""}}, {"title": "体美汇游泳健身会所(新法院店)", "address": "廊坊市三河市泃阳西大街街道新法院东100米", "image": "", "rank": 25, "time": 2, "location": {"lat": 40.0010034674422, "lng": 117.07537003535295}, "feature": {"sight_features": "特色1 一体全方面健身娱乐", "sight_content": "体美汇游泳健身会所是集游泳健身、操课、舞蹈、动感单车等项目，一体全方面健身娱乐。\n体美汇游泳健身俱乐部场馆宽敞明亮，水质干净卫生， 24小时循环过滤，并提供淋浴。体美汇游泳健身俱乐部教练员队伍是一支专业、富有活力的团队，均受过专业训练的运动员。经过多年的理论培训和常年的教学经验，保持了的教学记录，通过丰富的教学内容和多种方法，让每位学员进一步提高对游泳的兴趣。"}}, {"title": "大石采摘烧烤基地", "address": "三河大石各庄01", "image": "", "rank": 26, "time": 2, "location": {"lat": 39.91778904146758, "lng": 116.86156746163643}, "feature": {"sight_features": "", "sight_content": ""}}, {"title": "多边形实验美术馆", "address": "燕灵路理想新城底商S3-108", "image": "", "rank": 27, "time": 2, "location": {"lat": 22.595474398549833, "lng": 114.13265136668274}, "feature": {"sight_features": "", "sight_content": ""}}, {"title": "熊猫先生密室体验馆", "address": "燕灵路与海油大街交叉口方舟广场176号(方舟广场虾吃虾涮西行50米)", "image": "", "rank": 28, "time": 2, "location": {"lat": 39.963703685189486, "lng": 116.80186788932551}, "feature": {"sight_features": "", "sight_content": ""}}, {"title": "幸福农场", "address": "燕郊南外环小柳店幸福路幸福农场(小柳店村委会)", "image": "", "rank": 29, "time": 2, "location": {"lat": 39.90763958681545, "lng": 116.82148389030608}, "feature": {"sight_features": "", "sight_content": ""}}, {"title": "三河市文化馆", "address": "鼎盛东大街24", "image": "", "rank": 30, "time": 2.5, "location": {"lat": 39.987649492731066, "lng": 117.08405499765058}, "feature": {"sight_features": "", "sight_content": ""}}, {"title": "美瀚艺术馆", "address": "鼎盛东大街附近", "image": "", "rank": 31, "time": 2, "location": {"lat": 39.997911741941586, "lng": 117.08416638753383}, "feature": {"sight_features": "", "sight_content": ""}}, {"title": "顺达大戏楼", "address": "鼎盛西街", "image": "", "rank": 32, "time": 2, "location": {"lat": 30.360663119275696, "lng": 120.24287479501353}, "feature": {"sight_features": "", "sight_content": ""}}, {"title": "凯泰大舞台", "address": "京哈公路1508附近", "image": "", "rank": 33, "time": 2, "location": {"lat": 39.991062768257926, "lng": 117.07178198845108}, "feature": {"sight_features": "", "sight_content": ""}}, {"title": "尚霖画廊", "address": "燕郊经济技术开发区福成家居建材城", "image": "", "rank": 34, "time": 2, "location": {"lat": 39.95411015276397, "lng": 116.81947887240781}, "feature": {"sight_features": "", "sight_content": ""}}, {"title": "三河市影剧院", "address": "永安路", "image": "", "rank": 35, "time": 2, "location": {"lat": 22.584805941996752, "lng": 113.88184437495599}, "feature": {"sight_features": "", "sight_content": ""}}, {"title": "加州阳光DIY手工蛋糕房", "address": "迎宾路文化大厦A座1705室(比格披萨对面A座入口进去17楼1705室)", "image": "", "rank": 36, "time": 2, "location": {"lat": 39.959232220169774, "lng": 116.81968982777886}, "feature": {"sight_features": "", "sight_content": ""}}, {"title": "康家湾渔湘阁垂钓园", "address": "齐心庄镇康家湾村南", "image": "", "rank": 37, "time": 2, "location": {"lat": 40.01293317348562, "lng": 116.94207833101916}, "feature": {"sight_features": "", "sight_content": ""}}, {"title": "丛林大冒险儿童乐园", "address": "三河市中心城区冶金路燕新综合市场百姓天地商业广场一层", "image": "", "rank": 38, "time": 2, "location": {"lat": 39.9424151080562, "lng": 116.83463059144461}, "feature": {"sight_features": "", "sight_content": ""}}, {"title": "衣世界儿童乐园", "address": "学院大街步行街北头衣世界二层", "image": "", "rank": 39, "time": 2, "location": {"lat": 43.543012629985434, "lng": 125.6715979941043}, "feature": {"sight_features": "", "sight_content": ""}}, {"title": "世界华人收藏博物馆", "address": "河北省廊坊市三河市南外环", "image": "", "rank": 40, "time": 2, "location": {"lat": 39.908599345640766, "lng": 116.82784654870781}, "feature": {"sight_features": "", "sight_content": ""}}, {"title": "百奇儿童乐园", "address": "河北省廊坊市燕郊汉王路223号(金富仕购物中心三层)", "image": "", "rank": 41, "time": 2, "location": {"lat": 39.95904611387181, "lng": 116.8328770290213}, "feature": {"sight_features": "", "sight_content": ""}}, {"title": "滴水灵岩寺遗址", "address": "廊坊市三河市", "image": "", "rank": 42, "time": 2, "location": {"lat": 39.98809955244307, "lng": 117.0845878724791}, "feature": {"sight_features": "", "sight_content": ""}}, {"title": "快乐福娃儿童乐园", "address": "城建新村市场街63号", "image": "", "rank": 43, "time": 2, "location": {"lat": 39.73620840398785, "lng": 116.34949279569253}, "feature": {"sight_features": "", "sight_content": ""}}, {"title": "燕郊滨河森林公园东区", "address": "潮白大街附近", "image": "", "rank": 44, "time": 2, "location": {"lat": 39.99750136956119, "lng": 116.8106493556858}, "feature": {"sight_features": "", "sight_content": ""}}, {"title": "尚街啤酒广场", "address": "河北省廊坊市三河市学院大街与燕高路交叉口南100米", "image": "", "rank": 45, "time": 2, "location": {"lat": 39.95974193532165, "lng": 116.84529144588099}, "feature": {"sight_features": "", "sight_content": ""}}, {"title": "灵山宝塔陵园燕郊办事处", "address": "燕郊经济技术开发区福成五期西门对面农贸市场西侧", "image": "", "rank": 46, "time": 1.0, "location": {"lat": 39.95411015276397, "lng": 116.81947887240781}, "feature": {"sight_features": "", "sight_content": ""}}, {"title": "运河苑度假村垂钓", "address": "宋庄镇右堤路运河苑温泉度假村", "image": "", "rank": 47, "time": 2, "location": {"lat": 39.951118117803595, "lng": 116.78486663380302}, "feature": {"sight_features": "", "sight_content": ""}}, {"title": "福臻多儿童乐园", "address": "燕郊镇上上城青年社区(福成六期)北门东侧底商", "image": "", "rank": 48, "time": 2, "location": {"lat": 39.96937326078096, "lng": 116.84496904942328}, "feature": {"sight_features": "", "sight_content": ""}}, {"title": "欢乐童年儿童乐园", "address": "天洋城小区24号楼一单元202室附近", "image": "", "rank": 49, "time": 2, "location": {"lat": 39.97284016893042, "lng": 116.82925767168088}, "feature": {"sight_features": "", "sight_content": ""}}, {"title": "爱德乐儿童乐园", "address": "鑫乐汇购物广场G区3层", "image": "", "rank": 50, "time": 2, "location": {"lat": 39.9751845278926, "lng": 116.80553315816223}, "feature": {"sight_features": "", "sight_content": ""}}, {"title": "神采休闲广场", "address": "燕郊镇小张各庄北口", "image": "", "rank": 51, "time": 2, "location": {"lat": 39.641346199423026, "lng": 118.35711281553408}, "feature": {"sight_features": "", "sight_content": ""}}, {"title": "兰各庄村文化广场", "address": "河北省廊坊市三河市错化路", "image": "", "rank": 52, "time": 2, "location": {"lat": 39.95738029887978, "lng": 117.06276098443503}, "feature": {"sight_features": "", "sight_content": ""}}, {"title": "粮食院十排", "address": "粮食院十排", "image": "", "rank": 53, "time": null, "location": {"lat": 39.988871204754375, "lng": 117.07280372113811}, "feature": {"sight_features": "", "sight_content": ""}}, {"title": "公园新区", "address": "东燕郊开发区燕顺路西潮白河畔", "image": "", "rank": 54, "time": 2, "location": {"lat": 39.97218672869856, "lng": 116.77211114471409}, "feature": {"sight_features": "", "sight_content": ""}}, {"title": "燕达金色年华健康养护中心", "address": "燕郊经济技术开发区思菩兰南路燕达国际健康城", "image": "", "rank": 55, "time": 2, "location": {"lat": 39.95411015276397, "lng": 116.81947887240781}, "feature": {"sight_features": "", "sight_content": ""}}, {"title": "星期六儿童成长主题乐园", "address": "行宫东大街298", "image": "", "rank": 56, "time": 2, "location": {"lat": 39.95496602580876, "lng": 116.83579613565735}, "feature": {"sight_features": "", "sight_content": ""}}, {"title": "嘉文梦幻王国儿童主题乐园（福成...", "address": "燕郊燕高路福成五期奥特莱斯2层", "image": "", "rank": 57, "time": 2, "location": {"lat": 39.965179363301274, "lng": 116.84406699618272}, "feature": {"sight_features": "", "sight_content": ""}}, {"title": "峨眉啤酒广场", "address": "河北省廊坊市三河市迎宾路1039附近", "image": "", "rank": 58, "time": 2, "location": {"lat": 39.95953712484932, "lng": 116.82093502563949}, "feature": {"sight_features": "", "sight_content": ""}}, {"title": "小舵手水上世界(天洋城店)", "address": "河北省廊坊市三河市天洋广场B馆四层", "image": "", "rank": 59, "time": 2, "location": {"lat": 39.971212193281126, "lng": 116.82785507901694}, "feature": {"sight_features": "", "sight_content": ""}}, {"title": "六百户村中心文化广场", "address": "三河市段甲岭大街155号", "image": "", "rank": 60, "time": 2, "location": {"lat": 40.00677284032064, "lng": 117.17957900897063}, "feature": {"sight_features": "", "sight_content": ""}}]}