{"cityName": "三门峡", "days": "", "cityImage": "", "spots": [{"title": "天鹅湖国家城市湿地公园", "address": "三门峡市湖滨区", "image": "", "rank": 1, "time": 3.5, "location": {"lat": 34.77599679244391, "lng": 111.19557389665238}, "feature": {"sight_features": "", "sight_content": ""}}, {"title": "双龙湾景区", "address": "三门峡市卢氏县崤山中路28号", "image": "", "rank": 2, "time": 4.0, "location": {"lat": 34.059924845298816, "lng": 111.0545640061735}, "feature": {"sight_features": "特色1 崖险陡峭，壑幽谷深，瀑布飞泻，碧波映天 特色2 双龙湾景区灵山秀水、瀑潭成群的桃花谷，人称“小九寨”。", "sight_content": "双龙湾为aaaa级景区，距离卢氏县城约40公里，总面积约50平方公里，因屹立着大龙头、小龙头两座山峰而得名。景区是按照国家5a级景区的标准设计、建造的，景区里面资源类型丰富、全面，既有灵山秀水的自然风光，又有底蕰丰厚的历史文化，自然、人文相得益彰、相映成辉，被人们称为“秦岭罗敷 北国漓江 身边九寨 彩虹世界”。\n\n双龙湾的沙滩号称“北方第一内陆沙滩”，过去，我们内陆省份的游客想游泳都要到很远的海边去，现在有了“水一方内陆沙滩浴场”，玩沙、游泳、嬉水、晒太阳再也不用跑腿了。\n桃花谷游览区是双龙湾景区中的核心游览区，从谷口到谷底，一路上形成了无数大小不等的瀑布，形成了一个秀美的千层叠瀑。首先看到的是飞虹瀑，瀑宽30多米，高5米，又叫它迎宾瀑，因为它每天都在这里迎接着万千八方的游客。在半山中还有一个瀑布，那是悬泉飞瀑，它站在高处，眺望着远来的客人。双龙湾景区有多个彩虹的景点，会不停地带给大家惊喜。风景区还生长着一种国家一级保护植物——白皮松。"}}, {"title": "三门峡大坝", "address": "三门峡市湖滨区王大路", "image": "", "rank": 3, "time": 2.0, "location": {"lat": 34.806893222743305, "lng": 111.29705412265632}, "feature": {"sight_features": "", "sight_content": ""}}, {"title": "陕州地坑院", "address": "三门峡市陕州区张汴乡北营村", "image": "", "rank": 4, "time": 2, "location": {"lat": 34.69770984744666, "lng": 111.14713201026375}, "feature": {"sight_features": "特色1 神奇地下村落。 特色2 观看特色豫西婚俗仪式。 特色3 品尝特色河南味道小吃。", "sight_content": "【景区介绍】\n\n陕州地坑院位于河南省三门峡市陕州区张汴乡北营村。作为一种古老而神奇的民居样式，地坑院蕴藏着丰富的文化，是全国乃至世界唯一的地下古民居建筑，被誉为“地平线下古村落，民居史上活化石”，是我国特有的\n四大古民居建筑之一。“见树不见村，进村不见房，入户不见门，闻声不见人”便是它的真实写照。\n地坑院的建造过程共分为四个步骤，可以简单通俗地概括为“向下挖坑、四壁凿洞、穿靴戴帽、美化装饰”。营造技艺既与传统的阴阳八卦方位密切结合，又和宅主的命相息息相关，反映了古人卓越的智慧。如今，像这\n样的村庄现存200多个，有地坑院12000余座，保存最完整现存时间最久的地坑院已有300多年。这种神秘、奇特的民居，在中国乃至世界都是独一无二的。2011年，地坑院营造技艺被列入国家级非物质文化遗产保护名录。\n陕州地坑院景区是三门峡市陕州区政府精心打造的一个特色旅游项目。景区在地坑院原有的基础上，将22座地坑院相互打通，内设不同主题，全方位向世人展示地坑院的历史演变及陕州地区人们的生活风貌与民俗技艺，\n并于2016年5月23日正式营业。与此同时，景区还保留了许多未经开发的地坑院供游客参观，沿着陕塬的黄土寻找失落的地下古村落，使地坑院传统文化源远流长地传承下去。\n\n地坑院内展示的民俗表演与非遗展示如捶草印花、陕州剪纸、锣鼓书、澄泥砚、木偶戏、皮影戏、糖画、红歌表演、陕州特色婚俗表演等，蕴含着丰富的文化。\n为丰富游客的游玩体验，景区设立了旅游商品销售区——百艺苑。百艺苑仿古建筑雕梁画栋，气势宏伟，古韵悠悠，街道上家家户户门上黄底红字的长幡迎风飘扬，屋内摆放着工艺品、古董字画、金银玉器，一件件艺术\n品巧夺天工，意趣盎然。\n景区还引进了陕西马嵬驿小吃街，集秦、晋、豫三省名优小吃一百余种，供游客尽享美味，小吃街旁的五行院还设有陕州当地特色的“十碗席”，它就地取材，经济实惠、荤素搭配、汤菜兼有、独具风味，让游客在游玩\n之余还能享受一把舌尖上的狂欢。\n【特色项目】\n一、曲艺院\n走进戏曲院，映入眼帘的是一张张脸谱，生旦净末丑，演绎不同的戏曲人生，带你走进戏曲的世界，领略戏曲的魅力。每逢节假日，在戏曲院，你可以听到陕州地区特色戏曲——锣鼓书。\n\n二、巨型玉米温度计\n地坑院上矗立着一个巨型大玉米温度计，净高8米左右，加上底座有10米多高，它能测量出地坑院窑洞内和窑洞外的温度。巨型大玉米温度计有一吨多重，金灿灿的玉米寓意着金玉满堂，喜获丰收一本万利。\n三、剪纸院\n陕州剪纸以四奇“崇尚黑色、染色剪纸、传男不传女、边剪边唱”闻名于世。陕州剪纸艺人，在剪纸艺术天地里，尽可能凭借他们的想象描绘出理想中的一切，以形传神，表达出巧意、新意、美意，借此表达人们热爱生\n活的美好情趣。游客朋友们在剪纸院不仅可以跟着非遗传承人学习剪纸，还可以买一副漂亮的剪纸带回家馈赠亲友。\n四、婚俗表演院\n婚俗表演院，展示了豫西地区明清时期传统的的婚庆习俗。婚嫁是人生的大事，仪式非常隆重。周六周日和节假日，在这里您可以观赏富有特色的唢呐迎亲、新郎骑马、新娘坐轿、跨火盆、骑马鞍、亲朋贺喜、新人拜堂\n成亲等婚礼仪式；能欣赏到“洞房”的家具陈设，以及洞房内布置的黑色剪纸喜花。能体验到热闹的“打花脸”、“闹洞房”习俗。\n五、茶艺院\n品茶是我们中国人的习惯，以茶待客也是我们陕州人的风俗，在茶艺院你可以看到一个巨大的茶壶造型，源源不断的水从茶壶流到大碗里，一方面表达地坑院热情好客喜迎四海宾朋，一方面象征着财源滚滚来。在地坑院\n逛累了，就在茶艺院歇歇脚，品一品大碗茶\n六、人民公社院\n七、武财神关公\n关公集“忠、孝、仁、义”于一身，有“武财神”之美称，既可招财，又可镇宅保平安。\n八、马嵬驿·百味巷小吃街\n百味巷小吃街引进陕西马嵬驿小吃街，集秦、晋、豫三省名优小吃一百余种，供游客尽享美味，小吃街旁五行院还设有陕州当地特色的“陕州十碗席”，它就地取材，经济实惠、荤素搭配、汤菜兼有、独具风味，让游客\n在游玩之余还能享受一把舌尖上的狂欢。\n九、百艺苑\n百艺苑仿古建筑雕梁画栋，气势宏伟，古韵悠悠，主要为旅游商品销售区。街道上家家户户门上黄底红字的长幡迎风飘扬，屋内摆放着工艺品、古董字画、金银玉器，一件件艺术品巧夺天工，意趣盎然。\n十、中华百家姓\n中华百家姓展示了中文姓氏的图腾，上古时期，每个氏族都有自己的图腾，后来不少图腾演变为姓氏。在原始人眼里，图腾实际是一个被人格化的崇拜对象。图腾崇拜的意义，也就在于确认氏族成员在血脉上的统一性。\n十一、穿山灶\n穿山灶，是地坑院特有炉灶，灶呈斜坡状依次向上，灶心相通，根据热气往上走的原理，依次开九个灶孔，可以同时放置九个锅，往上炉温逐减，可根据火候烹饪地坑院的特色美食“十碗席”。穿山灶的第一个火最旺，\n适合蒸煮，随着火力的逐步减弱，依次为炖、闷、保温的功能。 穿山灶最大限度地利用了热能，非常节能，几个锅同时操作，非常高效。穿山灶虽然外观粗朴，但结构巧妙，功能强大，充满了地坑院人的生活智慧。\n十二、周召分陕\n西周时期（3100多年前），周武王姬发去世后，其子成王年幼，武王的弟弟周公旦和召公奭辅政。当时天下很不稳定，周、召二人决定分陕而治，“陕”即陕塬，也就是陕州地坑院景区所在的张汴塬。周公治理陕之东，\n召公治理陕之西（陕西之名，即渊源于此）。周公和召公在各自的辖区勤政爱民，为周王朝走向安定繁荣奠定了重要基础。周召分陕成就了中国历史上第一个太平盛世“成康之治”，“夜不闭户、路不拾遗、画地为牢”\n等典故均由此而来。"}}, {"title": "仰韶大峡谷", "address": "三门峡市渑池县段村乡247省道", "image": "", "rank": 5, "time": 3.5, "location": {"lat": 34.91805553262699, "lng": 111.84917873994856}, "feature": {"sight_features": "", "sight_content": ""}}, {"title": "函谷关历史文化旅游区", "address": "灵宝市函谷关历史文化旅游区", "image": "", "rank": 6, "time": 7.5, "location": {"lat": 34.63746014436914, "lng": 110.9331171624637}, "feature": {"sight_features": "特色1 中国历史上建置最早的雄关要塞之一 特色2 兵家必争的战略要塞 特色3 因关在谷中，深险如函，故称函谷关", "sight_content": "函谷关古文化旅游区位于河南省灵宝市境内，距市区10余公里，是一处融道家文化和战争文化于一体的国家4A级人文游览区。函谷关建于春秋战国时期，是我国建置最早的雄关要塞，从时间意义上说，堪称天下第一关。它因“关在谷中，深险如函得名，东自崤山，西至潼津，通名函谷，号称天险”（《辞海》），这一千古雄关见证了历史上许多著名战争，演绎了不少历史典故，诸如“合纵攻秦，楚汉争关，公孙白马，鸡鸣狗盗”等。\n道家始祖老子在太初宫著下洋洋五千言《道德经》，被视为我国哲学园林中的瑰宝，太初宫也因此被中国第六任道教协会会长闵智亭（道号玉溪道人）权威界定为“道家之源”。它是目前函谷关景区现存最为古老的一座建筑，伴随老子入关而生的紫气东来典故已为人们耳熟能详，颇具神秘和祥瑞之气。\n函谷关古文化旅游区现有景点：太初宫、鸡鸣台、瞻紫楼、大道院、函谷关城楼等二十余处，太初宫景区柏树荫蔽，香火袅绕，肃穆庄严，具有浓郁的道教氛围和文化气息。\n\n太初宫景区：\n现有景点：太极圣湖、老子圣像、道德天书、灵符遗址、太初圣宫、鸡鸣台等。百万平米的太极圣湖碧波荡漾；33米高老子圣像背负青天；长约一公里的道德天书宛若长龙；神秘的灵符遗址，让您得知灵宝地名来历；老子著经处——太初圣宫是目前函谷关景区最为古老的一座建筑，在古代修建时就融入了老子“万物负阴而抱阳”的哲学思想，体现了后人对《道德经》的深刻理解和对老子的无限敬仰，您可以在此拜谒先贤，了解道家文化。伴随着老子入关而生的成语——紫气东来，早已为人们耳熟能详。河南省目前最大的仿秦汉建筑道院——函谷关大道院，让您感受中国传统文化的多元与包容，了解三教合一的渊源。鸡鸣台，让您了解成语“鸡鸣狗盗”的来历。函谷碑林内，您可以欣赏到古今文人墨客为函谷关留下的墨宝。\n\n函谷关城：\n函谷关景点：函谷关城楼、古箭库遗址、古城墙遗址、函关古道等。函谷关始建于西周，是我国建置最早的雄关要塞，从时间意义上讲，堪称“天下第一关”。它因“关在谷中，深险如函而得名，东自崤山，西至潼津，通名函谷，号称天险”（《辞海》）。函谷关因战争而建，也因战争而毁，楚汉争关后，函谷关被霸王项羽所毁。今天展现在游客面前的函谷关关楼是灵宝市于1992年依据四川成都青羊山出土的汉像砖古函谷关关楼重新修建，双门双楼三层悬山顶四阿式，为仿秦汉建筑。在函谷关内依然保留有战国时期的兵器库和古城墙遗址。素有“车不方轨，马不并鞍”之说的函关古道，虽然由于几千年风云变幻，水土流失，但险峻陡立的夹壁仍在，通过蜿蜒沟壑间依稀可辨的路土层，依然可以感受到它的险要。"}}, {"title": "虢国博物馆", "address": "三门峡市湖滨区六峰北路", "image": "", "rank": 7, "time": 2, "location": {"lat": 34.792579300148375, "lng": 111.21266865859201}, "feature": {"sight_features": "", "sight_content": ""}}, {"title": "灵宝娘娘山", "address": "灵宝市焦村镇南上村", "image": "", "rank": 8, "time": 7.5, "location": {"lat": 34.50082650303238, "lng": 110.77046426887523}, "feature": {"sight_features": "", "sight_content": ""}}, {"title": "豫西大峡谷风景区", "address": "三门峡市卢氏县官道口镇东汉村", "image": "", "rank": 9, "time": 3.0, "location": {"lat": 34.25042027629989, "lng": 111.16638433495352}, "feature": {"sight_features": "特色1 飞瀑高悬，溪流淙淙，潭幽池清。 特色2 潭上飞珠溅玉，雾气腾腾，声响如雷，气势磅礴。 特色3 风和日丽时节，瀑布则如白练悬空，皎美绝伦。", "sight_content": "豫西大峡谷风景区位于豫秦晋三省交界处的三门峡卢氏县官道口镇境内，是集漂流、养生、观光于一体的国家aaaa级旅游景区。景区像一条由西向东延展的飘带，总长度30余公里，狭长而深邃的峡谷河流滩多水急，由大大小小99级瀑布及300多个潭池组成。每当汛期来临，潭上飞珠溅玉，雾气腾腾，声响如雷，气势磅礴；风和日丽时节，瀑布则如白练悬空，皎美绝伦。其中最为著名的当属有“豫西第一飞瀑”美誉的大淙潭瀑布。大淙潭瀑布落差30余米，宽10余米，自悬崖绝壁间飞流直下，声势惊人，远听如雷，近闻如鼓，堪称大自然的天工造化。漫步景区，但见青山如黛、幽谷叠翠、银练飞泻、野花丛生，宛如一幅绝妙的山水画卷，令人观之忘俗。\n豫西大峡谷最让人心驰神往的是大型水上娱乐项目——“中国最爽的漂流”。豫西大峡谷“中国最爽的漂流”是在驰誉八载的“中原勇士第一漂”基础上投资5000余万元重金升级建设而成。现拥有占地30000余平米的国内超大型漂流码头，可一次性容纳1000多人同时下水漂流；新建成的两层豪华漂流大厅占地4000多平米，设有待漂区、休息区、放映室、购物超市、更衣室、物品寄存处等，设施一流，尊贵享受。景区还引进了国内先进的电子操作系统，时尚美观的电子手带轻轻一戴，一站式满足游客漂流、购物的多种需求，不带现金，一身轻松。\n全新升级后的豫西大峡谷漂流全长6公里，3处穿山岩洞、1处回旋型漂流河道，纵横峡谷，飞越瀑布，最高落差达45米，形成了以“岩洞漂流、暗河漂流、瀑布漂流、峡谷漂流、回旋漂流”五大特色为主的“中国最爽的漂流”！每一段漂流都是一个里程碑，每一次颠簸都是一场历险记，有惊无险，激情飞扬。不到豫河漂一回，枉来豫西游一遭！\n不仅如此，豫西大峡谷还是一个“绿肺鲜氧”的养生胜地！每立方厘米空气中就有高达2.6万个负氧离子，远超世界空气清新标准。75%的地表水属国家一级饮用山泉水，还有百余种中草药生长在峡谷的每个角落。景区还依据中医养生法则研发了“四季精品养生菜”。喝一碗养生酒，品一杯养生茶，尝一尝养生糕点，吃一回养生菜，饱口腹之欲，养身强体健。被众多游客赞为：“日日尽享养生餐，不辞长做豫西人！"}}, {"title": "黄河丹峡旅游风景区", "address": "三门峡市渑池县坡头乡", "image": "", "rank": 10, "time": 2.5, "location": {"lat": 34.91667559163129, "lng": 111.71377216932552}, "feature": {"sight_features": "特色1 栩栩如生的天然壁画", "sight_content": "‍‍黄河丹峡，位于‍‍三门峡市渑池北21公里黄河岸边，地处豫晋两省五县交界处。省级地质公园，整条峡谷由红色石英砂岩构成，从谷底到崖壁全成红褐色。12亿年前这里曾是一片汪洋大海，丹峡正是沧海桑田的有力见证，峡谷还能看到当年海洋波浪冲刷留下的石印。\n它成 “v”字隐形峡谷，宽2—30米，海拨落差200—600米。现已保护性了开发了天然壁画、双龙戏珠、七星石、神猴望月、守谷雄狮、石人山、神女池、一线天、千层崖、钟乳石、擎天柱、骆驼峰、情人谷、仙女洞、水帘洞、官印台、地质天书、天坑地缝以及由龙凤潭、龙瀑组成的八潭八瀑等50多处自然景点；波纹石、树模石等罕见化石；石茶等珍贵中药材；野桑葚、五味子、山葡萄、八月炸等珍奇野果；国家一级保护树种红豆杉；滑索、高空飞车、黄河垂钓、纤夫绝唱、小浪底观光旅游休闲娱乐等项目。\n整个谷内怪石林立、峭壁千仞，古树参天、飞瀑湍急，汇集了奇山、怪石、险谷、清溪、深潭、密林等多种奇特的自然景观，堪称世界峡谷奇观、中国最美的峡谷之一。‍‍‍‍"}}, {"title": "陕州风景区", "address": "三门峡市湖滨区黄河路西段", "image": "", "rank": 11, "time": 3.5, "location": {"lat": 34.79737491026246, "lng": 111.18258574643636}, "feature": {"sight_features": "", "sight_content": ""}}, {"title": "翡翠丽池温泉养生中心", "address": "陕州区三门峡市陕县春天翡翠城", "image": "", "rank": 12, "time": 2, "location": {"lat": 34.7269148015266, "lng": 111.10945065249427}, "feature": {"sight_features": "特色1 中原首席温泉会馆，国内目前最具个性的温泉度假酒店。 特色2 集洗浴养生、休闲购物、餐饮娱乐、客房住宿为主要服务项目的综合性温泉度假酒店。 特色3 凝聚天地灵气、滋养温泉精华，传统养生理论。", "sight_content": "翡翠丽池温泉度假酒店坐落在“四面环山三面水，半城烟雨半城田”的历史文化名城——三门峡陕县，处于豫秦晋三省交界的黄河金三角的核心地带。极富创意地将中外现代建筑风格与传统文化完美结合，打造出强烈时代感的风格主题。\n翡翠丽池地理位置优越，坏境优美。距郑西高铁、连霍高速和陇海铁路线仅十分钟车程，交通十分便利。占地面积26000余平方米，建筑面积50亩，总投资3.7亿元，由：酒店区、露天泡池区、地域特色泡池区、vip别墅区、二次消费区五个区域组成，是集洗浴养生、休闲购物、餐饮娱乐、客房住宿为主要服务项目的综合性温泉中心。国内极具个性的温泉中心。\n酒店拥有各类精品客房客房120余间，温泉泡池20多个，另有风格各异、配套齐全、独体豪华远景别墅5栋。\n翡翠丽池康体娱乐项目齐全，足浴、桑拿、棋牌室、情侣房、影视厅、休息大厅和世界先进的水疗spa馆。酒店凝聚天地灵气、滋养温泉精华，传统养生理论，精心打造30多个室内外极富养生特色的温泉浴池。能最大程度满足休闲度假客人的需求。有富有情调的美容养颜池，又有结合中医与温泉疗理配置而成的功能药浴池和健身运动的室内恒温池，美轮美奂。\n翡翠丽池标志着三门峡市乃至全国具有时代气息和文化特征的靓丽风景。酒店以高端市场为目标，以优质的服务质量打造当地服务窗口，将会成为三门峡地区硬件设备最完善、服务最优温泉中心。"}}, {"title": "甘山国家森林公园", "address": "三门峡市陕州区西张村镇", "image": "", "rank": 13, "time": 3.5, "location": {"lat": 34.59338038552622, "lng": 111.2432368120282}, "feature": {"sight_features": "", "sight_content": ""}}, {"title": "仰韶文化遗址", "address": "三门峡市渑池县仰韶镇马韶线仰韶文化遗址", "image": "", "rank": 14, "time": 2.5, "location": {"lat": 34.81535176931356, "lng": 111.78966236896166}, "feature": {"sight_features": "", "sight_content": ""}}, {"title": "熊耳山景区", "address": "三门峡市卢氏县横涧乡，距县城30公里", "image": "", "rank": 15, "time": 3.0, "location": {"lat": 33.962649993148865, "lng": 111.06031487360767}, "feature": {"sight_features": "", "sight_content": ""}}, {"title": "秦赵会盟台", "address": "三门峡市渑池县城西南1公里处", "image": "", "rank": 16, "time": 2.0, "location": {"lat": 34.77319704298588, "lng": 111.76854234584539}, "feature": {"sight_features": "", "sight_content": ""}}, {"title": "阳光国际温泉山庄", "address": "三门峡市灵宝市焦村镇东村村（河南省灵宝市焦村镇310国道南1公里处）", "image": "", "rank": 17, "time": 2, "location": {"lat": 34.51964320584535, "lng": 110.85403080799259}, "feature": {"sight_features": "", "sight_content": ""}}, {"title": "三门峡荆山黄帝铸鼎原风景区", "address": "三门峡市灵宝市阳平镇铸鼎原风景区", "image": "", "rank": 18, "time": 2, "location": {"lat": 34.522757271644075, "lng": 110.68224585377617}, "feature": {"sight_features": "特色1 轩辕黄帝铸鼎祭天、奠定邦国、驭龙升天之地", "sight_content": "荆山黄帝铸鼎原风景区，位于河南省灵宝市西25公里处阳平镇境内，它是中华文明始祖轩辕黄帝铸鼎祭天、奠定邦国、驭龙升天的地方。《史记封禅书》载：“帝采首山之铜，铸鼎于荆山下．鼎成崩焉…。其臣左彻取衣冠几杖而庙祀之……”铸鼎原由此而名。荆山黄帝铸鼎原风景区的铸鼎原现存唐贞元十七年(公元801年) 《轩辕黄帝铸鼎碑铭》碑一通，它是全国迄今发现的关于记载黄帝功绩的最早的一通碑刻，是研究黄帝文化的稀世珍品，也是铸鼎原悠久历史的见证。\n在荆山黄帝铸鼎原风景区东西柏谷、鼎湖二水两侧散存着50余处黄帝时期的古文化遗址，其分布之密集、规模之庞大、包含之丰富、器物之精美全国罕见。为国家重点文物保护单位，属仰韶文化遗址。自1992年始，当地政府先后在荆山黄帝铸鼎原风景区投入2000余万元，恢复修建了始祖殿、献殿、阙楼等大型建筑，铸就了天、地、人三大铜鼎，保护加固了黄帝陵冢，新建了广场、功德柱、廊房、神道及配套工程。荆山黄帝铸鼎原风景区总占地面积120亩，绿化面积80余亩，培植草坪40余亩。2001年4月中日青年灵宝市生态绿化示范林在铸鼎原栽植柏树1800亩，39.6万株。荆山黄帝铸鼎原风景区2001年11月被国家旅游局评定为“AA”风景名胜区。\n\n荆山黄帝铸鼎原风景区还包括荆山、轩辕台、夸父山、蚩尤山、东常民俗村等景点。荆山黄帝铸鼎原风景区已成为海内外华夏炎黄子孙寻根祭祖、缅怀圣德、领略黄帝文化精髓、上溯华夏文明起源的旅游观光圣地。"}}, {"title": "豫州地坑院", "address": "三门峡市陕县西张村镇庙上村", "image": "", "rank": 19, "time": null, "location": {"lat": 34.62025819667841, "lng": 111.21858435071437}, "feature": {"sight_features": "", "sight_content": ""}}, {"title": "韶山峡", "address": "三门峡市渑池县坡头乡", "image": "", "rank": 20, "time": 1.5, "location": {"lat": 34.91667559163129, "lng": 111.71377216932552}, "feature": {"sight_features": "", "sight_content": ""}}, {"title": "神仙峡", "address": "三门峡市渑池县坡头乡", "image": "", "rank": 21, "time": 1.5, "location": {"lat": 34.91667559163129, "lng": 111.71377216932552}, "feature": {"sight_features": "", "sight_content": ""}}, {"title": "高阳山温泉国际度假区", "address": "三门峡市神泉路与陕州大道交叉口陕州人民医院东（温塘云泉路南段）", "image": "", "rank": 22, "time": 2, "location": {"lat": 34.72791730905677, "lng": 111.12151492513735}, "feature": {"sight_features": "特色1 这一泉，放得下心中的中原 特色2 雅致的修养之地，享受生活的美妙", "sight_content": "‍‍\n高阳山温泉国际度假区总占地4107亩。公司一期占地1800亩，项目规划为“一镇四区”，即温泉小镇、商务会议度假区、高阳山主题公园区、民俗文化广场区和温泉文化旅游区。\n先期开发的温泉养生中心建筑面积为26000平方米，功能区设有造浪池、温泉漂流河、无边泳池、矿泥浴、矿砂浴、石板房、木桶浴、美容太空舱、巨兽碗滑道、彩虹滑道、演艺舞台、自助餐厅、综合休闲，还有近68个特色温泉泡池及24个VIP套房;由史诗级水秀“天耀陕州”360°全立体实景演出、玩水殿堂梦幻水世界和饮浴皆宜的世界顶级文化养生温泉三大主题板块构成，是一处集水秀表演、水上乐园、温泉养生于一体的温泉休闲度假目的地。\n\n天耀陕州：大型3D水秀舞蹈实景演出，斥巨资打造，深挖陕州风貌精髓，运用最新全立体实景演出，最新声光科技，360°立体直观打造震撼级经典水秀演出。\n以神话故事为背景，水秀表演为载体，将音乐、舞蹈、杂技、体育、竞技、特技动作等多种表演形式有机结合，聘请国内外顶尖演员参演，呈现出美轮美奂叹为观止的舞台现场表演，从上古传说到现代科技文明，凭借尖端科技与创新文化形式，展现了波澜壮阔令人叹为观止的中华民族历史文化与最前沿声光电舞台技术相融合的水秀表演。“天耀陕州”穿梭时空将中华文明五千年的沧桑巨变和陕州文明发展史展现于世人，可谓一汤知天下。\n高阳山温泉水上乐园利用自身独特的水质环境，夏季开放梦幻水世界。梦幻水世界是殿堂级成人、儿童玩水区。所有水娱项目均采用恒温优质温泉水，无气候障碍，尽情展现水娱魅力，面积超过1000平米，浪高1.2米的人工造浪池；全长200米的循环温泉漂流河；勇士级有惊无险的巨兽碗滑道；“飞鸟千里不敢来”的火焰山；还有浪漫刺激的彩虹波浪滑道;孩童乐趣的宝贝水城；视野宽阔的无边泳池；惊险刺激的活力水寨，吸引着游客的光临。\n‍‍"}}, {"title": "浅水湾温泉宾馆", "address": "三门峡陕州区", "image": "", "rank": 23, "time": 2, "location": {"lat": 34.7269148015266, "lng": 111.10945065249427}, "feature": {"sight_features": "", "sight_content": ""}}, {"title": "陕州风景区马场沙滩车乐园", "address": "三门峡市湖滨区", "image": "", "rank": 24, "time": 2, "location": {"lat": 34.77599679244391, "lng": 111.19557389665238}, "feature": {"sight_features": "", "sight_content": ""}}, {"title": "汉山风景区", "address": "灵宝市故县镇河西村", "image": "", "rank": 25, "time": 3.0, "location": {"lat": 34.51122625689697, "lng": 110.56373282825176}, "feature": {"sight_features": "", "sight_content": ""}}, {"title": "雪花谷漂流", "address": "三门峡市陕县店子乡加河滩村", "image": "", "rank": 26, "time": 2, "location": {"lat": 34.54601444855322, "lng": 111.44824706605725}, "feature": {"sight_features": "", "sight_content": ""}}, {"title": "甘山滑雪场", "address": "三门峡市甘山国家森林公园内", "image": "", "rank": 27, "time": 2, "location": {"lat": 34.563715439896086, "lng": 111.2260067059906}, "feature": {"sight_features": "", "sight_content": ""}}, {"title": "钟鼓楼甘棠苑", "address": "三门峡市湖滨区陕州风景区内", "image": "", "rank": 28, "time": 2, "location": {"lat": 34.798874377651764, "lng": 111.16134923914632}, "feature": {"sight_features": "", "sight_content": ""}}, {"title": "亚武山风景名胜区", "address": "三门峡市灵宝市豫灵镇", "image": "", "rank": 29, "time": 3.0, "location": {"lat": 34.52516605904659, "lng": 110.40698057298192}, "feature": {"sight_features": "特色1 源远流长的道教文化圣地，", "sight_content": "位于灵宝豫灵镇境内，是道教名山之一。其主峰海拔2156米，是河南省内最高峰。亚武山以险峻、峭拔的五峰为主体，以山青水秀为特色，以道教文化为内涵，以塔、洞、庙、殿等人文景观为神韵，尤其是处于海拔1200米之上的玉锁天湖，水域面积达7.5万平方米，高山湖泊，中原罕见。\n\n\n‍‍它以险峻的五峰为主体，以山青水秀的自然景观为特色，以道教文化为内涵，是一处可供游览、避暑、科研的山岳型风景区。它以“雄、奇、险、秀、野”的自然景观，以“天下名山庙朝南，唯有亚武倒看山”的独特风姿，吸引着远近旅客，是我省名山、名景中绚丽多彩的奇葩。这里山青水秀、曲溪碧潭，五峰集中，山势雄伟；这里云海飘渺，景色碧翠；这里有美好动人的神话传说；这里是历史悠久、源远流长的道教文化圣地，内涵深远，令人神往。‍‍"}}, {"title": "天井窖院", "address": "三门峡市陕县西张村镇庙上村", "image": "", "rank": 30, "time": 1.0, "location": {"lat": 34.62025819667841, "lng": 111.21858435071437}, "feature": {"sight_features": "", "sight_content": ""}}, {"title": "燕子山", "address": "灵宝市东南部国有川口林场境内", "image": "", "rank": 31, "time": 3.5, "location": {"lat": 34.52314262416382, "lng": 110.90040831286163}, "feature": {"sight_features": "特色1 集生态观光、激情漂流、森林穿越等于一体", "sight_content": "河南燕子山原始生态旅游风景区是国家森林公园和自然保护区。景区占地71640亩，是由河南燕子山生态旅游开发有限公司投资近五亿元人民币，用AAAAA级景区设计理念，按照AAAA级景区建设标准精心打造的集生态观光、休闲度假、森林人家、激情漂流、森林穿越、拓展训练于一体的高品质原生态旅游风景区。\n景区就像一位婀娜多姿的少女亭亭玉立在河南、山西、陕西三省拱卫的黄河金三角灵宝市区，她东邻洛阳、郑州，西接渭南、西安，北通运城、太原，南达十堰、武汉，产品资源得天独厚，旅游交通十分发达，区位优势非常独特。\n河南燕子山原始生态旅游风景区围绕打造黄河金三角同类旅游区第一品牌的目标，以资源为平台、以市场为先导、以游客为主体、以服务为宗旨，在产品的原始性、差异性、丰富性、多样性、体验性和市场核心竞争力上科学规划、精心设计，在景区内开发建设了四条亮丽的旅游风景线：长寿峡观光漂流、清肺练胆；燕子峰登高揽胜、祈福求财；忘忧谷怀古励志、修性养生；槐树林饱览花海、赏心悦目。其中，核心景区长寿峡分别由圣水峡环保激情漂流、百寿峡听涛戏蝶找寿、天水峡观瀑抚藤探幽三大版块组成。特别是圣水峡环保激情漂流让你在“男人一路欢笑，女人一路尖叫”的惊险刺激中，真正感受到王母娘娘赐圣水沐浴净身的神圣。"}}, {"title": "黄帝陵", "address": "三门峡市灵宝市区西20公里阳平镇的黄帝铸鼎塬上", "image": "", "rank": 32, "time": 1.5, "location": {"lat": 34.54892112169043, "lng": 110.69252684535478}, "feature": {"sight_features": "", "sight_content": ""}}, {"title": "黄河森林公园", "address": "黄河泺口浮桥北岸路西", "image": "", "rank": 33, "time": 1.5, "location": {"lat": 22.894406159306474, "lng": 114.0083922949709}, "feature": {"sight_features": "", "sight_content": ""}}, {"title": "黄河天鹅号游轮", "address": "三门峡市陕州风景区一号码头", "image": "", "rank": 34, "time": 2, "location": {"lat": 34.800837051520105, "lng": 111.16009666799407}, "feature": {"sight_features": "", "sight_content": ""}}, {"title": "金浪温泉商务会馆", "address": "三门峡市陕县神泉路中段水利部疗养院内", "image": "", "rank": 35, "time": 2, "location": {"lat": 34.706672991895545, "lng": 111.10788811833088}, "feature": {"sight_features": "", "sight_content": ""}}, {"title": "宝轮寺塔", "address": "河南省三门峡市湖滨区陕州路", "image": "", "rank": 36, "time": 2, "location": {"lat": 34.79126808666777, "lng": 111.2044788845118}, "feature": {"sight_features": "", "sight_content": ""}}, {"title": "高阳山温泉滑雪场", "address": "三门峡市陕县云泉路南段，高阳山温泉度假区内", "image": "", "rank": 37, "time": 2, "location": {"lat": 34.722610824396746, "lng": 111.11603894008755}, "feature": {"sight_features": "", "sight_content": ""}}, {"title": "龙都温泉", "address": "三门峡市陕州区209国道与秦汉中路交叉口向南300米（金泉大酒店对面）", "image": "", "rank": 38, "time": null, "location": {"lat": 34.71133965298288, "lng": 111.10552231668554}, "feature": {"sight_features": "", "sight_content": "龙都温泉是三门峡地区成立较早的温泉之一，主营浴室，休闲娱乐场所，洗浴，采用高阳山天然矿物质温泉水，可以放松心情，疗养身心。"}}, {"title": "鼎湖湾", "address": "灵宝市西闫乡郑西高铁灵宝西站向北300米", "image": "", "rank": 39, "time": 2, "location": {"lat": 34.585622976041975, "lng": 110.69539326637268}, "feature": {"sight_features": "", "sight_content": ""}}, {"title": "虢国公园", "address": "河南省三门峡市湖滨区经一路", "image": "", "rank": 40, "time": 2, "location": {"lat": 34.778917857734555, "lng": 111.22622989987592}, "feature": {"sight_features": "", "sight_content": ""}}, {"title": "老鸦岔", "address": "河南省三门峡灵宝市故县镇", "image": "", "rank": 41, "time": 2, "location": {"lat": 34.549085714505885, "lng": 110.55878764204645}, "feature": {"sight_features": "", "sight_content": ""}}, {"title": "三门峡国际会展中心", "address": "五元路西段", "image": "", "rank": 42, "time": 2.5, "location": {"lat": 26.95976051231608, "lng": 100.22130988324945}, "feature": {"sight_features": "", "sight_content": ""}}, {"title": "三门峡西站-站前广场", "address": "河南省三门峡市陕州区陕州区", "image": "", "rank": 43, "time": 2, "location": {"lat": 34.7269148015266, "lng": 111.10945065249427}, "feature": {"sight_features": "", "sight_content": ""}}, {"title": "御海温泉", "address": "三门峡市陕州区神泉路中段温泉宾馆北100米，富达洗车往里50米处(金泉宾馆)", "image": "", "rank": 44, "time": 2, "location": {"lat": 34.72426616668076, "lng": 111.11475568551398}, "feature": {"sight_features": "", "sight_content": ""}}, {"title": "玫瑰谷漂流", "address": "三门峡市渑池县段村乡石门沟", "image": "", "rank": 45, "time": 2, "location": {"lat": 34.963514390505885, "lng": 111.86095131841967}, "feature": {"sight_features": "", "sight_content": ""}}, {"title": "茅津古都", "address": "河南省三门峡市湖滨区会兴镇", "image": "", "rank": 46, "time": 2, "location": {"lat": 34.79034951110308, "lng": 111.23292646023232}, "feature": {"sight_features": "", "sight_content": ""}}, {"title": "豫西百草园", "address": "三门峡市卢氏县官道口镇新坪村", "image": "", "rank": 47, "time": 2, "location": {"lat": 34.24914510553788, "lng": 111.15648460399608}, "feature": {"sight_features": "", "sight_content": ""}}, {"title": "灵宝窄口龙湖风景区", "address": "五亩乡长南桥", "image": "", "rank": 48, "time": 7.5, "location": {"lat": 25.194652801065672, "lng": 112.13481104597804}, "feature": {"sight_features": "", "sight_content": ""}}, {"title": "永芳葡萄采摘园", "address": "义马连银社区教堂西墙", "image": "", "rank": 49, "time": 2, "location": {"lat": 34.75302800947253, "lng": 111.88051478020587}, "feature": {"sight_features": "", "sight_content": ""}}, {"title": "生态公园", "address": "千秋路2号院2号楼", "image": "", "rank": 50, "time": 1.5, "location": {"lat": 37.603419988419255, "lng": 114.60755913034814}, "feature": {"sight_features": "", "sight_content": ""}}, {"title": "仰韶文化博物馆", "address": "仰韶镇仰韶村", "image": "", "rank": 51, "time": 2, "location": {"lat": 34.82347018164724, "lng": 111.79147641339664}, "feature": {"sight_features": "", "sight_content": ""}}, {"title": "玉皇山地质公园", "address": "河南卢氏县熊耳山系与伏牛山系间 472200", "image": "", "rank": 52, "time": 7.5, "location": {"lat": 34.059924845298816, "lng": 111.0545640061735}, "feature": {"sight_features": "", "sight_content": ""}}, {"title": "义马体育公园", "address": "河南省三门峡市义马市滨河路", "image": "", "rank": 53, "time": 1.0, "location": {"lat": 34.75619947181489, "lng": 111.86405755107651}, "feature": {"sight_features": "", "sight_content": ""}}, {"title": "清风寺", "address": "三门峡市义马市", "image": "", "rank": 54, "time": 1.0, "location": {"lat": 34.75302800947253, "lng": 111.88051478020587}, "feature": {"sight_features": "", "sight_content": ""}}, {"title": "尹庄镇基督教堂", "address": "长安路南150米", "image": "", "rank": 55, "time": 2, "location": {"lat": 31.22081799667241, "lng": 113.76258120447834}, "feature": {"sight_features": "", "sight_content": ""}}, {"title": "渑池生态园", "address": "310国道", "image": "", "rank": 56, "time": 7.5, "location": {"lat": 34.341272660809565, "lng": 117.25163434058804}, "feature": {"sight_features": "", "sight_content": ""}}, {"title": "卢氏豫西大峡谷农家乐a区42号院", "address": "豫西大峡谷风景区A区42号院", "image": "", "rank": 57, "time": 3.0, "location": {"lat": 34.24630237069826, "lng": 111.15337770210162}, "feature": {"sight_features": "", "sight_content": ""}}, {"title": "西华公园", "address": "城关镇西华村6组", "image": "", "rank": 58, "time": 3.0, "location": {"lat": 34.525837031765604, "lng": 110.87283517108047}, "feature": {"sight_features": "", "sight_content": ""}}, {"title": "小秦岭地质公园娘娘山风景区", "address": "河南省灵宝市焦村镇南上村", "image": "", "rank": 59, "time": 2, "location": {"lat": 34.50082650303238, "lng": 110.77046426887523}, "feature": {"sight_features": "特色1 一处融人文传说与自然景观于一体的旅游游览区，气候宜人，空气清新 ！ 特色2 景区属花岗岩地貌，完整保存着距今30—25亿年间的拆离断层构造的地质遗迹！", "sight_content": "娘娘山属小秦岭山脉，它是灵宝境内一座母亲山域。娘娘山风景区位于河南省灵宝市西南11公里处，交通十分便利。它南依小秦岭同陕西洛南与河南卢氏、洛宁接壤，北临黄河与山西芮城、平陆相望，东连郑州、洛阳、三门峡西接潼关、西安于一线。\n‍‍‍‍娘娘山风景区依其地形地貌特点，同时为便于游客的旅游将全区划分为：瀑布峪（百尺瀑）景区、娘娘庙景区和黄天墓景区。目前对游客开放的主要是瀑布峪景区和石瀑布景区。\n瀑布峪景区里芳草凄凄，溪流潺潺，突出景观便是磅礴壮观的百尺瀑和拆离断层地质学上的遗迹奇观。除此之外，还可以体验安全、惊险、刺激的北国第一漂滑。石瀑布景区水体景观多变，自然秀丽，大气恢宏、雄浑壮观。在这里可以欣赏到原生节理形成的千仞壁立，让人望而生畏。娘娘庙景区以三位娘娘的传说故事为主题，常年香火不断，紫烟缭绕。黄天墓景区位于武家山上，山体主要有青龙岭、凤凰岭和上天梯等，海拔为1555.9米。\n‍‍游娘娘山，看百尺瀑、观石瀑布、乘漂滑船心旷神怡。景区同时配套有长天苑别墅、农家餐饮、休闲垂钓、游泳划船等！"}}, {"title": "燕子山原始生态旅游风景区", "address": "河南三门峡灵宝市", "image": "", "rank": 60, "time": 4.5, "location": {"lat": 34.52314262416382, "lng": 110.90040831286163}, "feature": {"sight_features": "", "sight_content": ""}}]}