{"cityName": "三门", "days": 2, "cityImage": "", "spots": [{"title": "蛇蟠岛", "address": "台州市三门县蛇蟠乡", "image": "", "rank": 1, "time": 7.5, "location": {"lat": 29.15775215722143, "lng": 121.57869674798542}, "feature": {"sight_features": "特色1 岩洞纵横交错、连环套迭、怪石嶙峋、风光奇异。 特色2 炎炎夏日，清澈冰凉的水能为你洗涤夏日的炎热。 特色3 洞内四季似春，洞外波光帆影，是不可多得的旅游避暑胜地。", "sight_content": "蛇蟠岛是国家AAAA级旅游景区，地处浙东沿海三门湾畔，面积19.68平方公里，为台州市一大岛，是国内少有的海岛洞窟景区。千年开采，遗下1360余个洞窟，享有“千洞岛”之美誉。\n丨野人洞景区\n“野人家住神蛇顶”，这里的野人可不是神农架长着一双大脚，浑身毛绒绒的未知生物体，而是那些历代采石工。他们以石洞为栖身之所，在此铸就了“石屋洞居”的奇观，称得上是现实版的“山顶洞人”。野人洞不仅有千年斧凿后的“残山”奇迹，也有山野穴居的粗旷和写意。三门石窗上镂空的花鸟、钱币等吉祥图案，配合着的凹凸的洞壁、碧绿的潭水，有种别样的美感。洞内一扇石窗，一户人家，一段历史，在野人洞景区娓娓道来。\n丨海盗村景区\n蛇蟠岛自宋始，岛上因长期采石而留下姿态各异的1360多个奇洞异穴，故称“千洞岛”。岛上气候宜人，特别在盛夏季节，海风徐徐，凉气习习，俗尘尽消。自明清以来，即是旅游避署胜地，在30年代曾是电影《渔光曲》外景拍摄地。“千洞连环洞”堪称一绝。有大洞小洞、横洞竖洞、水洞旱洞、直洞弯洞、闭洞穿洞，且支洞旁出，洞中套洞。洞内有水，水中藏洞，杂以奇岩怪石，山岚烟霞，草木花树，清水游鱼，使其涧洞为景，千姿百态，妙趣无穷。有些岩洞，当地人还能说出一段历史典故，或一则优美的民间传说。\n丨滑泥主题公园景区\n滑泥公园区域资源优越独特，自然景色秀美。集旅游度假、运动疗养、美容保健于一体，项目有滩涂拾贝、海马竞赛、泥潭拔河、泥浆浴等等。滩涂海泥含有多种对人体有益的维生素、氨基酸、矿物质、微量元素，具有保健、护肤、杀菌等功效，是您崇尚自然、爱好运动、追求健康的不二选择。“我为泥狂、乐在泥中”，充分体验海泥赋予我们的健康和快乐。\n在滑泥海涂中，还寄生着各类小鱼、小虾、贝类等各种海洋小生物。抓到活蹦乱跑的鱼虾，横行霸道的海蟹，还有海瓜子、蛤蜊、蛏子、香螺等贝类时，心里便洋溢着一种莫名的欣喜。\n除了滑泥还有更多惊喜哦，滑泥公园内新建造的500多平方米水上乐园由充气水池、彩虹滑道、蓝鲸鱼造型水上滑梯这3个主题组合而成，让你这个夏天与众不同！\n丨清风洞星空营地\n在这里，吃货们完全不用担心观星时会委屈了自己的小舌头哦。在烧烤场，这里已经备下了最鲜美的海鲜等着你！当然也不会落下啤酒哦！一边撸串一边看着远方的星空，这是多么惬意、舒爽的生活呢？只有来清风洞亲自体验，你才会明白什么叫鲜掉你的小舌头。\n有山有水还有篝火晚会等着你，在美丽的星空下用欢笑声、歌声来吐露自己内心的自由自在、放荡不羁。熊熊燃起的火苗映红了夜空，也映红了石壁以及洞窟中的水，“半江瑟瑟半江红”的意境就在这个篝火晚会中。\n洞窟酒吧风格采用老船木与自然石壁相结合，营造出惬意的休闲空间。每至夜间，壁灯亮起，似那隐约朦胧的清风明月般晴朗，别有一番风味与文化氛围......为海岛抹上了别样的魅力。\n晚上你还可以选择一个洞洞相连的空间搭上帐篷，在嶙峋的石边，守一潭碧水观星，看着倒映在水中的繁星又是怎样和清风吹动的水波嬉戏打闹。你也可以躺在帐篷里，从帐篷顶端的透明空间遥看天上闪动的星星，感受星空的浩渺。"}}, {"title": "蛇蟠岛海盗村", "address": "台州市三门县蛇蟠乡海盗村", "image": "", "rank": 2, "time": 1.5, "location": {"lat": 29.146810025207937, "lng": 121.59526081078701}, "feature": {"sight_features": "", "sight_content": ""}}, {"title": "石笋山", "address": "台州市三门县浬浦镇仙岩村", "image": "", "rank": 3, "time": 3.0, "location": {"lat": 28.972778606104207, "lng": 121.56022034277073}, "feature": {"sight_features": "", "sight_content": ""}}, {"title": "蛇蟠岛野人洞", "address": "台州市三门县蛇蟠岛度假区内", "image": "", "rank": 4, "time": 2.0, "location": {"lat": 29.148509977071, "lng": 121.59311928189261}, "feature": {"sight_features": "", "sight_content": ""}}, {"title": "木杓沙滩", "address": "台州市三门县健跳镇木杓村", "image": "", "rank": 5, "time": 2, "location": {"lat": 29.012495400133595, "lng": 121.69191752962826}, "feature": {"sight_features": "", "sight_content": ""}}, {"title": "三特渔村", "address": "台州市三门县城关镇鲍家村(邻旗门塘)", "image": "", "rank": 6, "time": 7.5, "location": {"lat": 29.140184119727714, "lng": 121.43149890160902}, "feature": {"sight_features": "", "sight_content": ""}}, {"title": "滑泥公园", "address": "台州市三门县蛇蟠岛度假区内", "image": "", "rank": 7, "time": 2.0, "location": {"lat": 29.148509977071, "lng": 121.59311928189261}, "feature": {"sight_features": "", "sight_content": "“欢乐蛇蟠岛，激情滩涂城；滨海滑泥会，洞窟泥疗城；激情滩涂地，养生地下城。”蛇蟠岛激情夏季，乐在华东最具魅力的滑泥主题公园。\n\n\n滑泥乐园由入口服务区、康体休闲区、滩涂运动区三个主题曲域构成，以“康体”运动为主题，以泥文化和石文化为脉络，打造集“运动、休闲、娱乐”为一体的海滨游乐区。请您体验一天，还你整个童年。"}}, {"title": "三门出海捕鱼", "address": "台州市三门县健跳2号码头", "image": "", "rank": 8, "time": 7.5, "location": {"lat": 29.110355206288737, "lng": 121.40255379759475}, "feature": {"sight_features": "", "sight_content": ""}}, {"title": "亭旁红色景区", "address": "台州市三门县", "image": "", "rank": 9, "time": 3.0, "location": {"lat": 29.110355206288737, "lng": 121.40255379759475}, "feature": {"sight_features": "", "sight_content": ""}}, {"title": "三门农博园", "address": "台州市三门县六敖镇北塘现代农业园区", "image": "", "rank": 10, "time": 3.0, "location": {"lat": 29.08715881351718, "lng": 121.60611799797374}, "feature": {"sight_features": "", "sight_content": ""}}, {"title": "多宝讲寺", "address": "台州市三门县余庆街", "image": "", "rank": 11, "time": 1.5, "location": {"lat": 29.054316495380537, "lng": 121.27073403425553}, "feature": {"sight_features": "", "sight_content": ""}}, {"title": "东屏古村", "address": "台州市三门县东屏村", "image": "", "rank": 12, "time": 2.0, "location": {"lat": 29.023473017911396, "lng": 121.48307138358119}, "feature": {"sight_features": "", "sight_content": ""}}, {"title": "牛尾塘", "address": "三门县浦坝港镇沿赤乡牛头门", "image": "", "rank": 13, "time": 2, "location": {"lat": 28.922795480390278, "lng": 121.70742707877847}, "feature": {"sight_features": "", "sight_content": ""}}, {"title": "双龙溪漂流", "address": "台州市三门县横渡镇岩下潘村", "image": "", "rank": 14, "time": 2, "location": {"lat": 28.986853451558076, "lng": 121.46021413283657}, "feature": {"sight_features": "", "sight_content": ""}}, {"title": "浙江启明博物馆", "address": "海游镇", "image": "", "rank": 15, "time": 2, "location": {"lat": 29.12084014953984, "lng": 121.390481625257}, "feature": {"sight_features": "", "sight_content": ""}}, {"title": "翠微宫", "address": "浙江省台州市三门县淡月山景区", "image": "", "rank": 16, "time": 2, "location": {"lat": 29.110355206288737, "lng": 121.40255379759475}, "feature": {"sight_features": "", "sight_content": ""}}, {"title": "三门核电公众展厅", "address": "浙江省台州市三门县", "image": "", "rank": 17, "time": 7.5, "location": {"lat": 29.110355206288737, "lng": 121.40255379759475}, "feature": {"sight_features": "", "sight_content": ""}}, {"title": "潘家小镇水上乐园", "address": "横渡镇潘家小镇内岩下潘村内(岩下潘村内)", "image": "", "rank": 18, "time": 2, "location": {"lat": 28.986853451558076, "lng": 121.46021413283657}, "feature": {"sight_features": "", "sight_content": ""}}, {"title": "台州三门", "address": "浙江省三门县高枧乡", "image": "", "rank": 19, "time": 3.0, "location": {"lat": 29.054740955794973, "lng": 121.2692387921584}, "feature": {"sight_features": "", "sight_content": ""}}, {"title": "台州仙岩洞", "address": "浙江省三门县浬浦镇仙岩村", "image": "", "rank": 20, "time": 3.0, "location": {"lat": 28.972778606104207, "lng": 121.56022034277073}, "feature": {"sight_features": "", "sight_content": ""}}, {"title": "台州石城飞瀑", "address": "浙江省三门县北部", "image": "", "rank": 21, "time": 3.0, "location": {"lat": 29.110355206288737, "lng": 121.40255379759475}, "feature": {"sight_features": "", "sight_content": ""}}, {"title": "臸秦葡萄采摘园", "address": "六敖镇南洋厂", "image": "", "rank": 22, "time": 2, "location": {"lat": 29.082216275465235, "lng": 121.61580200355468}, "feature": {"sight_features": "", "sight_content": ""}}, {"title": "三门县逍遥家庭农场", "address": "横渡镇溪洋村千洋", "image": "", "rank": 23, "time": null, "location": {"lat": 28.990859717996944, "lng": 121.48400815722772}, "feature": {"sight_features": "", "sight_content": ""}}, {"title": "台州亭旁起义纪念馆", "address": "城南10公里的亭旁乡胜和村", "image": "", "rank": 24, "time": null, "location": {"lat": 33.47875545930031, "lng": 119.16196444307023}, "feature": {"sight_features": "", "sight_content": ""}}, {"title": "马湖农家乐", "address": "哈枫线和马胡线的交叉口附近", "image": "", "rank": 25, "time": 2, "location": {"lat": 29.088371131342548, "lng": 121.33418448389732}, "feature": {"sight_features": "", "sight_content": ""}}, {"title": "孟省农家乐", "address": "木杓村47号", "image": "", "rank": 26, "time": 2, "location": {"lat": 29.012495400133595, "lng": 121.69191752962826}, "feature": {"sight_features": "", "sight_content": ""}}, {"title": "三门县有为图书馆", "address": "文化路215号", "image": "", "rank": 27, "time": 2, "location": {"lat": 29.129068977753544, "lng": 121.39403246973332}, "feature": {"sight_features": "", "sight_content": ""}}, {"title": "君悦农家乐", "address": "木勺沙滩阿剑超市旁", "image": "", "rank": 28, "time": 2, "location": {"lat": 40.993709421940174, "lng": 122.08046797297939}, "feature": {"sight_features": "", "sight_content": ""}}, {"title": "三岛垂钓场", "address": "海游街道慈胜", "image": "", "rank": 29, "time": 2, "location": {"lat": 29.081715846751617, "lng": 121.40677131321692}, "feature": {"sight_features": "", "sight_content": ""}}, {"title": "华东仙人峡", "address": "浙江省台州市三门县珠岙镇高枧小桐岩村岩下徐村旁", "image": "", "rank": 31, "time": 2, "location": {"lat": 29.054729115566627, "lng": 121.27446872683576}, "feature": {"sight_features": "", "sight_content": ""}}, {"title": "镇洋庙", "address": "海游镇谢家村村委会附近", "image": "", "rank": 32, "time": 2, "location": {"lat": 38.388193705240475, "lng": 116.31793846719629}, "feature": {"sight_features": "", "sight_content": ""}}, {"title": "六境庙", "address": "浙江省台州市三门县海晏路", "image": "", "rank": 33, "time": 2, "location": {"lat": 29.110355206288737, "lng": 121.40255379759475}, "feature": {"sight_features": "", "sight_content": ""}}, {"title": "台州市泳洲越剧团", "address": "石岭线附近", "image": "", "rank": 34, "time": 3.0, "location": {"lat": 28.978381241253164, "lng": 121.35336343229179}, "feature": {"sight_features": "", "sight_content": ""}}, {"title": "三门县海马农庄度假村", "address": "沿海工业城", "image": "", "rank": 35, "time": 2, "location": {"lat": 28.925766933593586, "lng": 121.66607962394824}, "feature": {"sight_features": "", "sight_content": ""}}, {"title": "亭旁教会", "address": "亭流线附近", "image": "", "rank": 36, "time": 2, "location": {"lat": 28.97834166288765, "lng": 121.41911575566652}, "feature": {"sight_features": "", "sight_content": ""}}, {"title": "家宝贝儿童乐园", "address": "浙江省台州市三门县人民路55首府广场3层", "image": "", "rank": 37, "time": 2, "location": {"lat": 29.12235228661507, "lng": 121.38636255942716}, "feature": {"sight_features": "", "sight_content": ""}}, {"title": "健源山庄", "address": "224省道附近", "image": "", "rank": 38, "time": 2, "location": {"lat": 40.07033678730361, "lng": 116.8104973444274}, "feature": {"sight_features": "", "sight_content": ""}}, {"title": "奇乐儿儿童主题乐园", "address": "蟠龙路附近", "image": "", "rank": 39, "time": 2, "location": {"lat": 31.06709182459055, "lng": 121.30573516556503}, "feature": {"sight_features": "", "sight_content": ""}}, {"title": "蛇盘岛度假村", "address": "蛇盘乡山下村", "image": "", "rank": 40, "time": 2, "location": {"lat": 29.15402332288118, "lng": 121.60427322699938}, "feature": {"sight_features": "", "sight_content": ""}}, {"title": "下东溪庙", "address": "光明路下泉溪庙附近", "image": "", "rank": 41, "time": 2, "location": {"lat": 29.107914974575966, "lng": 121.35260693328988}, "feature": {"sight_features": "", "sight_content": ""}}, {"title": "图书馆电子阅览室", "address": "平海路", "image": "", "rank": 42, "time": 2, "location": {"lat": 29.296045653982205, "lng": 121.44496142540108}, "feature": {"sight_features": "", "sight_content": ""}}, {"title": "章一山纪念馆", "address": "朝晖路8号", "image": "", "rank": 43, "time": 2, "location": {"lat": 30.679653160904437, "lng": 120.63847779068747}, "feature": {"sight_features": "", "sight_content": ""}}, {"title": "龙吟阁书画会社", "address": "新兴街22号8楼", "image": "", "rank": 44, "time": 2, "location": {"lat": 41.78116480670321, "lng": 123.41050899241336}, "feature": {"sight_features": "", "sight_content": ""}}, {"title": "三门县图书馆", "address": "上洋路261号", "image": "", "rank": 45, "time": 2, "location": {"lat": 29.12874612390866, "lng": 121.37817088812844}, "feature": {"sight_features": "", "sight_content": ""}}, {"title": "新场社区图书阅览室", "address": "交通路509号", "image": "", "rank": 46, "time": 2, "location": {"lat": 29.103902077286563, "lng": 121.39625812943021}, "feature": {"sight_features": "", "sight_content": ""}}, {"title": "艺海画廊", "address": "新港路39号", "image": "", "rank": 47, "time": 2, "location": {"lat": 29.121392912987247, "lng": 121.39031495365273}, "feature": {"sight_features": "", "sight_content": ""}}, {"title": "海游章氏文化纪念馆", "address": "朝晖路8号", "image": "", "rank": 48, "time": 2, "location": {"lat": 30.679653160904437, "lng": 120.63847779068747}, "feature": {"sight_features": "", "sight_content": ""}}, {"title": "潘家小镇18号", "address": "横渡镇潘家小镇内(岩下潘村内)", "image": "", "rank": 49, "time": 2, "location": {"lat": 28.986853451558076, "lng": 121.46021413283657}, "feature": {"sight_features": "", "sight_content": ""}}, {"title": "三门县贤标农家乐园", "address": "横渡镇岩下潘村9号", "image": "", "rank": 50, "time": 2, "location": {"lat": 28.986853451558076, "lng": 121.46021413283657}, "feature": {"sight_features": "", "sight_content": ""}}, {"title": "潘家小镇13号农家乐", "address": "横渡镇岩下潘", "image": "", "rank": 51, "time": 2, "location": {"lat": 30.212881616149577, "lng": 117.52163492138168}, "feature": {"sight_features": "", "sight_content": ""}}, {"title": "红葡萄", "address": "健跳镇南大街", "image": "", "rank": 52, "time": 2, "location": {"lat": 29.092403894505527, "lng": 121.59806966030214}, "feature": {"sight_features": "", "sight_content": ""}}, {"title": "潘家小镇16号农家乐", "address": "岩下潘村(蛇盘岛跟东屏古村落)", "image": "", "rank": 53, "time": 2, "location": {"lat": 28.986853451558076, "lng": 121.46021413283657}, "feature": {"sight_features": "", "sight_content": ""}}, {"title": "赤坎人民剧院", "address": "赤坎村附近S224", "image": "", "rank": 54, "time": 2, "location": {"lat": 29.44781317452869, "lng": 121.94958469727813}, "feature": {"sight_features": "", "sight_content": ""}}, {"title": "三门湾海韵女子合唱队", "address": "平安路388号附近", "image": "", "rank": 55, "time": 2, "location": {"lat": 40.016294111709584, "lng": 113.23695179199936}, "feature": {"sight_features": "", "sight_content": ""}}, {"title": "三门县老年文化艺术团", "address": "朝晖路8S224", "image": "", "rank": 56, "time": 2, "location": {"lat": 29.48427149507159, "lng": 121.66980724057595}, "feature": {"sight_features": "", "sight_content": ""}}, {"title": "浙江省三门县平调剧团", "address": "石岭线附近", "image": "", "rank": 57, "time": 2, "location": {"lat": 28.978381241253164, "lng": 121.35336343229179}, "feature": {"sight_features": "", "sight_content": ""}}, {"title": "三门湾民俗博物馆", "address": "农博大道农博园内", "image": "", "rank": 58, "time": 2, "location": {"lat": 28.608598014204453, "lng": 121.4223867806715}, "feature": {"sight_features": "", "sight_content": ""}}, {"title": "石羊溪步行街", "address": "浙江省三门县南山路85号", "image": "", "rank": 59, "time": 2, "location": {"lat": 29.123305182895876, "lng": 121.3861164237175}, "feature": {"sight_features": "", "sight_content": ""}}, {"title": "白溪水上乐园霖越农家乐", "address": "台州市-三门县-亭流线", "image": "", "rank": 60, "time": 2, "location": {"lat": 28.97834166288765, "lng": 121.41911575566652}, "feature": {"sight_features": "", "sight_content": ""}}]}