{"cityName": "三穗", "days": 2, "cityImage": "", "spots": [{"title": "三穗县档案馆", "address": "东门南路16", "image": "", "rank": 1, "time": 2, "location": {"lat": 26.966344500878066, "lng": 108.68664293524253}, "feature": {"sight_features": "", "sight_content": ""}}, {"title": "杨至成将军纪念馆", "address": "林园西路", "image": "", "rank": 2, "time": 2, "location": {"lat": 26.963559678540356, "lng": 108.68418316724845}, "feature": {"sight_features": "", "sight_content": ""}}, {"title": "图书馆", "address": "东门北路57号附近", "image": "", "rank": 3, "time": null, "location": {"lat": 28.37350450928228, "lng": 121.37936103153888}, "feature": {"sight_features": "", "sight_content": ""}}, {"title": "瓦寨农场", "address": "310省道南100米", "image": "", "rank": 4, "time": 2, "location": {"lat": 40.60774614896141, "lng": 116.67471864625533}, "feature": {"sight_features": "", "sight_content": ""}}, {"title": "又麟农家乐", "address": "款场街附近", "image": "", "rank": 5, "time": 2, "location": {"lat": 26.9468239967865, "lng": 109.09001718342803}, "feature": {"sight_features": "", "sight_content": ""}}, {"title": "颇洞生态农庄", "address": "颇洞村", "image": "", "rank": 6, "time": 2, "location": {"lat": 26.914366284290207, "lng": 108.62790427137197}, "feature": {"sight_features": "", "sight_content": ""}}, {"title": "梦幻谷儿童乐园", "address": "贵州省黔东南苗族侗族自治州三穗县林园西路", "image": "", "rank": 7, "time": 2, "location": {"lat": 26.963559678540356, "lng": 108.68418316724845}, "feature": {"sight_features": "", "sight_content": ""}}, {"title": "大跃进遗存博物馆", "address": "新穗街13号附近", "image": "", "rank": 8, "time": 2, "location": {"lat": 26.968851731208304, "lng": 108.68857839627513}, "feature": {"sight_features": "", "sight_content": ""}}, {"title": "和平广场", "address": "金穗路南100米", "image": "", "rank": 9, "time": 0.25, "location": {"lat": 36.53887423914693, "lng": 113.06157005755493}, "feature": {"sight_features": "", "sight_content": ""}}, {"title": "同梦山庄", "address": "320国道附近", "image": "", "rank": 10, "time": 2, "location": {"lat": 27.256565251327487, "lng": 111.28158164529765}, "feature": {"sight_features": "", "sight_content": ""}}, {"title": "富发高山特色农林专业合作社", "address": "320国道南50米", "image": "", "rank": 11, "time": 2, "location": {"lat": 27.256163819362143, "lng": 111.28158164529765}, "feature": {"sight_features": "", "sight_content": ""}}, {"title": "穗府商业中心广场", "address": "贵州省三穗县东门南路", "image": "", "rank": 12, "time": 2, "location": {"lat": 26.965888728769617, "lng": 108.68692212769665}, "feature": {"sight_features": "", "sight_content": ""}}]}