{"cityName": "三沙", "days": "", "cityImage": "", "spots": [{"title": "全富岛", "address": "三沙市西沙群岛永乐群岛中，在珊瑚岛东北部4.5海里处", "image": "", "rank": 1, "time": 2.5, "location": {"lat": 16.5971053326904, "lng": 111.70066899866184}, "feature": {"sight_features": "", "sight_content": ""}}, {"title": "永兴岛", "address": "三沙市", "image": "", "rank": 2, "time": 3.0, "location": {"lat": 16.838953334409123, "lng": 112.34048204137058}, "feature": {"sight_features": "", "sight_content": ""}}, {"title": "永乐群岛", "address": "三沙市西沙群岛西部岛群，位于永兴岛西南约40海里处", "image": "", "rank": 3, "time": 1.0, "location": {"lat": 16.497085431044198, "lng": 111.67308686125843}, "feature": {"sight_features": "", "sight_content": ""}}, {"title": "银屿岛", "address": "三沙市西沙群岛永乐群岛中，鸭公岛东北约1海里，全富岛西南4.5海里", "image": "", "rank": 4, "time": 5.0, "location": {"lat": 16.5971053326904, "lng": 111.70066899866184}, "feature": {"sight_features": "", "sight_content": ""}}, {"title": "鸭公岛", "address": "三沙市海西沙群岛永乐群岛北部，全富岛东南1海里", "image": "", "rank": 5, "time": 1.5, "location": {"lat": 16.838953334409123, "lng": 112.34048204137058}, "feature": {"sight_features": "", "sight_content": ""}}, {"title": "石岛", "address": "三沙市西沙群岛东部的宣德群岛中部永兴岛东边", "image": "", "rank": 6, "time": 5.0, "location": {"lat": 16.497085431044198, "lng": 111.67308686125843}, "feature": {"sight_features": "", "sight_content": ""}}, {"title": "东岛", "address": "三沙市西沙群岛西沙群岛境内", "image": "", "rank": 7, "time": 1.5, "location": {"lat": 16.497085431044198, "lng": 111.67308686125843}, "feature": {"sight_features": "", "sight_content": ""}}, {"title": "七连屿", "address": "三沙市西沙群岛西沙永兴岛的西南方", "image": "", "rank": 8, "time": 5.0, "location": {"lat": 16.497085431044198, "lng": 111.67308686125843}, "feature": {"sight_features": "", "sight_content": ""}}, {"title": "立地暗沙", "address": "三沙市南沙群岛区域的一座暗沙", "image": "", "rank": 9, "time": 1.0, "location": {"lat": 4.974366192136791, "lng": 112.66030170907291}, "feature": {"sight_features": "", "sight_content": ""}}, {"title": "收复西沙纪念碑", "address": "中国西沙群岛的永兴岛上的港口300米远的树林里。", "image": "", "rank": 10, "time": 2, "location": {"lat": 21.649565586624067, "lng": 108.38648254384755}, "feature": {"sight_features": "", "sight_content": ""}}, {"title": "西沙海洋博物馆", "address": "三沙市西沙群岛永兴岛上", "image": "", "rank": 11, "time": 1.0, "location": {"lat": 16.497085431044198, "lng": 111.67308686125843}, "feature": {"sight_features": "", "sight_content": ""}}, {"title": "曾母暗沙", "address": "三沙市南沙群岛南端，中国最南端的领土", "image": "", "rank": 12, "time": 1.0, "location": {"lat": 4.974366192136791, "lng": 112.66030170907291}, "feature": {"sight_features": "", "sight_content": ""}}, {"title": "中建岛", "address": "位于西沙群岛最西南边", "image": "", "rank": 13, "time": 2, "location": {"lat": 16.497085431044198, "lng": 111.67308686125843}, "feature": {"sight_features": "", "sight_content": ""}}, {"title": "珊瑚岛", "address": "海南省三沙市西沙群岛珊瑚岛", "image": "", "rank": 14, "time": null, "location": {"lat": 16.497085431044198, "lng": 111.67308686125843}, "feature": {"sight_features": "", "sight_content": ""}}, {"title": "弹丸礁", "address": "中国海南省三沙市南沙群岛", "image": "", "rank": 15, "time": 2, "location": {"lat": 4.974366192136791, "lng": 112.66030170907291}, "feature": {"sight_features": "", "sight_content": ""}}, {"title": "甘泉岛", "address": "海南三沙市西沙永乐群岛", "image": "", "rank": 16, "time": 2, "location": {"lat": 16.838953334409123, "lng": 112.34048204137058}, "feature": {"sight_features": "", "sight_content": ""}}, {"title": "玉琢礁", "address": "中国西沙群岛永乐群岛", "image": "", "rank": 17, "time": 2, "location": {"lat": 16.5971053326904, "lng": 111.70066899866184}, "feature": {"sight_features": "", "sight_content": ""}}, {"title": "盘石屿", "address": "海南省三沙市西沙群岛", "image": "", "rank": 18, "time": 2, "location": {"lat": 16.497085431044198, "lng": 111.67308686125843}, "feature": {"sight_features": "", "sight_content": ""}}, {"title": "晋卿岛", "address": "海南省三沙市西沙群岛", "image": "", "rank": 19, "time": 2, "location": {"lat": 16.497085431044198, "lng": 111.67308686125843}, "feature": {"sight_features": "", "sight_content": ""}}]}