{"cityName": "三台", "days": 2, "cityImage": "", "spots": [{"title": "三台梓州杜甫草堂", "address": "四川省绵阳市三台县", "image": "", "rank": 1, "time": 2.5, "location": {"lat": 31.101585571237983, "lng": 105.10148979832758}, "feature": {"sight_features": "", "sight_content": ""}}, {"title": "绵阳盛世樱花悠乐谷", "address": "绵阳市三台县芦溪镇玉星村1组", "image": "", "rank": 2, "time": 1.5, "location": {"lat": 31.314256074620186, "lng": 104.86878220189925}, "feature": {"sight_features": "特色1 集户外体验、观光旅游、休闲度假、生态养生于一体的樱花主题旅游休闲度假区 特色2 一篇樱花盛宴", "sight_content": "盛世樱花悠乐谷景区以樱花自然生态山林景观为载体，以“国樱崛起之旅”户外穿越游线运动项目及樱花营地休闲空间为特色，精心打造集户外体验、观光旅游、休闲度假、生态养生于一体的樱花主题旅游休闲度假区，乐享樱花营地，还有儿童探索公园，让您享受大自然悠闲般的度假体验！\n一串红，又称爆仗红、象牙红，为唇形科鼠尾草属植物。花序修长，色红鲜艳，花期又长，适应性强，为中国城市和园林中最普遍栽培的草本花卉。原产巴西、南美洲。喜温暖和阳光充足环境。不耐寒，耐半阴，忌霜雪和高温，怕积水和碱性土壤。一串红的果实为小坚果，椭圆形，内含黑色种子，易脱落，能自播繁殖。\n一串紫，唇形科鼠尾草属，直立一年生草本，全株具长软毛，株高30～1250px。具长穗状花序，花小，长约300px，紫、堇、雪青等色。有多数变种，花色美丽。一串紫是喜光性花卉，栽培场所必须阳光充足，对一串紫的生长发育十分有利。若光照不足，植株易徒长，茎叶细长，叶色淡绿，如长时间光线差，叶片变黄脱落。\n“比哥海棠”比哥是别具一格的海棠，'比哥'可以长到60-80厘米高！花瓣直径可达8厘米的亮红或粉红花朵从绿色或铜色的，闪亮的椭圆形叶群上挺直地伸出。‘比哥’是市面上生长最旺盛，分枝性最强的景观海棠。花期比同类品种早2周，花径可达8厘米，艳丽的花朵在亮丽叶群上尽情绽放。‘比哥’能适应多种气候、土壤条件，在全日照或部分遮荫处种植均可。耐热性比常规四季海棠强，大量应用于全球露地园林景观。在种过，经过几年试种推广，水分充足时在北京、上海和广州等地均可安全越夏，是绿地景观和花园大面积种植的优良品种，亦可作大容器盆花栽培。"}}, {"title": "狂欢岛冒险水世界", "address": "绵阳市三台县S205", "image": "", "rank": 3, "time": 2, "location": {"lat": 31.101585571237983, "lng": 105.10148979832758}, "feature": {"sight_features": "特色1 体验畅快淋漓的水上世界", "sight_content": "绵阳狂欢岛冒险水世界位于大地飞歌文旅综合体狂欢小镇旁，拥有刺激海啸池、惬意海浪池、疯狂大喇叭、疾速尖峰滑道、竞赛六并列彩虹滑道、勇者无畏漂流河、花样繁多大水寨、欢乐天堂儿童戏水区等多个惊险刺激的游乐项目。\n超级大喇叭，惊险、刺激，体验高速离心及凌空飘拂之刺激与乐趣！\n彩虹滑道，既可个人单滑，还可多人同时竞赛滑行。与传统滑道相比带有惊悸的满足和超凡脱俗的感觉。从高台急速下滑，当速度达到极致这种失重的感觉犹如飘荡在太空。\n\n\n人体大回环，在高速落体式的滑行与前后回旋滑行中，体验落差、失重感。把疲惫和烦恼通通甩到脑后。\n疾速尖峰滑道，这个滑梯无疑是最刺激的显目之一，从最高滑到低部时达到最快速度，体验真正的“飞流直下三千尺”的失重感，追求冒险的你一定会爱上它！"}}, {"title": "三台县云台观风景名胜区管理处", "address": "云台观附近", "image": "", "rank": 4, "time": 2, "location": {"lat": 31.431181504542693, "lng": 110.40049649331932}, "feature": {"sight_features": "", "sight_content": ""}}, {"title": "三台县刘营农场", "address": "科鑫路附近", "image": "", "rank": 5, "time": 2, "location": {"lat": 31.100105311562196, "lng": 105.09301024526273}, "feature": {"sight_features": "", "sight_content": ""}}, {"title": "饰家如画家饰·画廊", "address": "解放上街2号58号附近", "image": "", "rank": 6, "time": 2, "location": {"lat": 30.87709799721503, "lng": 105.39392668930122}, "feature": {"sight_features": "", "sight_content": ""}}, {"title": "三台县富秀家庭农场", "address": "芦跃路", "image": "", "rank": 7, "time": 2, "location": {"lat": 31.126179145555344, "lng": 121.49130154832211}, "feature": {"sight_features": "", "sight_content": ""}}, {"title": "玥玥儿童游乐园", "address": "四川省绵阳市三台县X111(南街)", "image": "", "rank": 8, "time": 2, "location": {"lat": 31.101585571237983, "lng": 105.10148979832758}, "feature": {"sight_features": "", "sight_content": ""}}, {"title": "紫玉上院", "address": "永明镇黄家湾", "image": "", "rank": 9, "time": 2, "location": {"lat": 31.4463058344579, "lng": 104.92849569165745}, "feature": {"sight_features": "", "sight_content": ""}}, {"title": "梓州休闲美食广场", "address": "四川省绵阳市三台县东河路128-8号", "image": "", "rank": 10, "time": 2, "location": {"lat": 31.099117364209548, "lng": 105.09578439054205}, "feature": {"sight_features": "", "sight_content": ""}}, {"title": "神龙爪爪", "address": "四川省绵阳市三台县上升街5号", "image": "", "rank": 11, "time": 2, "location": {"lat": 31.094562035608124, "lng": 105.10069516356158}, "feature": {"sight_features": "", "sight_content": ""}}, {"title": "园祠堂", "address": "绵阳市三台县五三一乡道", "image": "", "rank": 12, "time": 2, "location": {"lat": 31.101585571237983, "lng": 105.10148979832758}, "feature": {"sight_features": "", "sight_content": ""}}, {"title": "火莲寺", "address": "三象路与书声街交叉口东200米", "image": "", "rank": 13, "time": 2, "location": {"lat": 30.86381381294445, "lng": 105.07916843352399}, "feature": {"sight_features": "", "sight_content": ""}}, {"title": "东岳庙", "address": "绵阳市三台县东岳巷13号", "image": "", "rank": 14, "time": 2.5, "location": {"lat": 31.095918257540706, "lng": 105.08879644143754}, "feature": {"sight_features": "", "sight_content": ""}}, {"title": "乐添添儿童成长乐园", "address": "四川省绵阳市三台县S205", "image": "", "rank": 15, "time": 2, "location": {"lat": 31.101585571237983, "lng": 105.10148979832758}, "feature": {"sight_features": "", "sight_content": ""}}, {"title": "赵家祠堂", "address": "绵阳市三台县建黄路", "image": "", "rank": 16, "time": 2, "location": {"lat": 31.15192992154009, "lng": 104.78383745821425}, "feature": {"sight_features": "", "sight_content": ""}}, {"title": "萌宝儿童乐园", "address": "刘营镇长兴街10号文英幼儿园对面", "image": "", "rank": 17, "time": 2, "location": {"lat": 31.214936976489, "lng": 104.98842340751703}, "feature": {"sight_features": "", "sight_content": ""}}, {"title": "零捌学糖儿童游乐园", "address": "四川省绵阳市三台县上南街1号东方时代广场3楼", "image": "", "rank": 18, "time": 2, "location": {"lat": 31.094066859418227, "lng": 105.09739350184613}, "feature": {"sight_features": "", "sight_content": ""}}, {"title": "·狂欢小镇", "address": "立新镇高棚村内", "image": "", "rank": 19, "time": 2, "location": {"lat": 31.327489784531043, "lng": 104.84085062364333}, "feature": {"sight_features": "", "sight_content": ""}}, {"title": "新生影剧院", "address": "四川省绵阳市三台县苏河建设街新生镇鸿兴乐幼儿园附近", "image": "", "rank": 20, "time": 2, "location": {"lat": 30.953676070781555, "lng": 105.0741942500168}, "feature": {"sight_features": "", "sight_content": ""}}, {"title": "和平湖度假村", "address": "四川省绵阳市三台县西平镇踏水桥四村八组8-5", "image": "", "rank": 21, "time": 2, "location": {"lat": 31.050658542170257, "lng": 104.89034658171738}, "feature": {"sight_features": "", "sight_content": ""}}, {"title": "兴福地度假村", "address": "凯江大桥一直向南", "image": "", "rank": 22, "time": 2, "location": {"lat": 31.034851046067082, "lng": 104.68120388698638}, "feature": {"sight_features": "", "sight_content": ""}}, {"title": "梓州大剧院", "address": "四川省绵阳市三台县琴泉路", "image": "", "rank": 23, "time": 2, "location": {"lat": 31.11081019212096, "lng": 105.1069796289602}, "feature": {"sight_features": "", "sight_content": ""}}, {"title": "虹宇山庄", "address": "四川省绵阳市三台县凤凰山内", "image": "", "rank": 24, "time": 2, "location": {"lat": 31.100651805402933, "lng": 105.08895950095541}, "feature": {"sight_features": "", "sight_content": ""}}, {"title": "大成儿童水上拓展乐园", "address": "四川省绵阳市三台县大成建材城广场", "image": "", "rank": 25, "time": 2, "location": {"lat": 31.08470014568025, "lng": 105.08268386230674}, "feature": {"sight_features": "", "sight_content": ""}}, {"title": "三台县新德会仙桥度假村", "address": "四川省绵阳市三台县G93(成渝环线高速)", "image": "", "rank": 26, "time": 2, "location": {"lat": 31.101585571237983, "lng": 105.10148979832758}, "feature": {"sight_features": "", "sight_content": ""}}, {"title": "天王庙", "address": "四川省绵阳市三台县", "image": "", "rank": 27, "time": 2.0, "location": {"lat": 31.101585571237983, "lng": 105.10148979832758}, "feature": {"sight_features": "", "sight_content": ""}}, {"title": "凤凰山庄", "address": "绵阳市三台县东岳巷38号", "image": "", "rank": 28, "time": 2, "location": {"lat": 31.095918257540706, "lng": 105.08879644143754}, "feature": {"sight_features": "", "sight_content": ""}}, {"title": "郪海度假村", "address": "新太路附近", "image": "", "rank": 29, "time": 2, "location": {"lat": 21.27852454961941, "lng": 110.36499585295215}, "feature": {"sight_features": "", "sight_content": ""}}, {"title": "江林度假村", "address": "梓州干道附近", "image": "", "rank": 30, "time": 2, "location": {"lat": 31.109510774980286, "lng": 105.10174262282013}, "feature": {"sight_features": "", "sight_content": ""}}, {"title": "迎宾广场", "address": "西顺城街1号", "image": "", "rank": 31, "time": 0.35, "location": {"lat": 40.46404270791068, "lng": 115.97354852620582}, "feature": {"sight_features": "", "sight_content": ""}}, {"title": "羌寨山庄(潼府花园西)", "address": "桃花源附近", "image": "", "rank": 32, "time": 2, "location": {"lat": 40.21065576121963, "lng": 116.07124185190867}, "feature": {"sight_features": "", "sight_content": ""}}, {"title": "三台游乐园", "address": "205省道附近", "image": "", "rank": 33, "time": 2, "location": {"lat": 40.38230240600069, "lng": 116.84666042934258}, "feature": {"sight_features": "", "sight_content": ""}}, {"title": "曙光乡影剧院", "address": "新方路曙光乡附近", "image": "", "rank": 34, "time": 2, "location": {"lat": 30.89010640274139, "lng": 105.12085575417282}, "feature": {"sight_features": "", "sight_content": ""}}, {"title": "黄金山庄", "address": "绵阳市三台县黄金山庄s101", "image": "", "rank": 35, "time": 2, "location": {"lat": 31.105527966428934, "lng": 105.04657251978892}, "feature": {"sight_features": "", "sight_content": ""}}, {"title": "财神庙", "address": "德阳市中江县", "image": "", "rank": 36, "time": 1.5, "location": {"lat": 31.038953695301622, "lng": 104.6855301505767}, "feature": {"sight_features": "", "sight_content": ""}}, {"title": "爱玩游乐园", "address": "绵阳市三台县", "image": "", "rank": 37, "time": 2, "location": {"lat": 31.101585571237983, "lng": 105.10148979832758}, "feature": {"sight_features": "", "sight_content": ""}}, {"title": "汉陶博物馆", "address": "正北街", "image": "", "rank": 38, "time": null, "location": {"lat": 32.19357570972352, "lng": 112.39287073165582}, "feature": {"sight_features": "", "sight_content": ""}}, {"title": "三台县档案馆", "address": "樟树路", "image": "", "rank": 39, "time": 2, "location": {"lat": 38.43386950281934, "lng": 115.3518511128442}, "feature": {"sight_features": "", "sight_content": ""}}, {"title": "苏易简纪念馆", "address": "兴蝉街", "image": "", "rank": 40, "time": 2, "location": {"lat": 31.383504366852893, "lng": 105.07132325392895}, "feature": {"sight_features": "", "sight_content": ""}}, {"title": "百花溪", "address": "建设街", "image": "", "rank": 41, "time": 2, "location": {"lat": 38.093296108711115, "lng": 114.62444471286672}, "feature": {"sight_features": "", "sight_content": ""}}, {"title": "欧兰特农业水产1部", "address": "马脊村", "image": "", "rank": 42, "time": 2, "location": {"lat": 31.143989482787774, "lng": 105.0817372576044}, "feature": {"sight_features": "", "sight_content": ""}}, {"title": "乐斯尼欢乐水世界", "address": "东河路北坝车站旁", "image": "", "rank": 43, "time": 2, "location": {"lat": 31.0971922429941, "lng": 105.10637119046878}, "feature": {"sight_features": "", "sight_content": ""}}, {"title": "乐斯尼欢乐王国", "address": "滨江半岛汇龙港乐斯尼游乐广场", "image": "", "rank": 44, "time": 2, "location": {"lat": 30.214332950144062, "lng": 120.21847118139375}, "feature": {"sight_features": "", "sight_content": ""}}, {"title": "绵阳市种畜场(灵峰村)", "address": "灵兴大道附近", "image": "", "rank": 45, "time": 2.0, "location": {"lat": 31.161327261217945, "lng": 105.01582172557136}, "feature": {"sight_features": "", "sight_content": ""}}, {"title": "绿洲植物园", "address": "小学下街30号附近", "image": "", "rank": 46, "time": 2, "location": {"lat": 31.095475272175687, "lng": 105.09951988200537}, "feature": {"sight_features": "", "sight_content": ""}}, {"title": "艺美家画廊", "address": "建设街东段附近", "image": "", "rank": 47, "time": 2, "location": {"lat": 35.893101780519515, "lng": 114.19351791911555}, "feature": {"sight_features": "", "sight_content": ""}}, {"title": "悠然休闲庄", "address": "花园镇绵遂高速公路花园出口处", "image": "", "rank": 48, "time": 2, "location": {"lat": 31.30697053033755, "lng": 104.94586792489791}, "feature": {"sight_features": "", "sight_content": ""}}, {"title": "三台县图书馆", "address": "琴泉路东段", "image": "", "rank": 49, "time": 2, "location": {"lat": 31.11081019212096, "lng": 105.1069796289602}, "feature": {"sight_features": "", "sight_content": ""}}, {"title": "老年玩友茶园川剧院", "address": "下南街85附近", "image": "", "rank": 50, "time": 2, "location": {"lat": 30.827874825405484, "lng": 104.16897261225648}, "feature": {"sight_features": "", "sight_content": ""}}, {"title": "琴泉寺", "address": "四川省三台县潼川镇北泉路", "image": "", "rank": 51, "time": null, "location": {"lat": 31.11784732072358, "lng": 105.09662855068741}, "feature": {"sight_features": "", "sight_content": ""}}, {"title": "三台县大佛寺", "address": "四川省三台县安居镇", "image": "", "rank": 52, "time": null, "location": {"lat": 30.82044517124014, "lng": 105.10035082150029}, "feature": {"sight_features": "", "sight_content": ""}}, {"title": "云台观", "address": "四川省三台县安居镇", "image": "", "rank": 53, "time": 2, "location": {"lat": 30.82044517124014, "lng": 105.10035082150029}, "feature": {"sight_features": "", "sight_content": ""}}, {"title": "三台鲁班湖 Santai Luban Lake", "address": "四川省三台县鲁班镇", "image": "", "rank": 54, "time": 2, "location": {"lat": 30.91815633623173, "lng": 105.02378655766371}, "feature": {"sight_features": "", "sight_content": ""}}, {"title": "绵阳凤凰山森林公园", "address": "四川省三台县潼川镇", "image": "", "rank": 55, "time": 2.0, "location": {"lat": 31.088692191122643, "lng": 105.0763883414622}, "feature": {"sight_features": "", "sight_content": ""}}, {"title": "梓锦新城装饰建材商业街", "address": "四川省三台县205省道附近", "image": "", "rank": 56, "time": 2, "location": {"lat": 31.053183714522326, "lng": 105.12379086142663}, "feature": {"sight_features": "", "sight_content": ""}}, {"title": "潼乐湾水上乐园", "address": "绵阳市三台县乐安镇梨园村", "image": "", "rank": 57, "time": 2, "location": {"lat": 31.09288765897154, "lng": 105.04562958825782}, "feature": {"sight_features": "", "sight_content": "潼乐湾水乐园包括多个主题游玩项目，如造浪池、水趣主题园、 彩虹滑梯、海啸池、泡泡池、高速滑梯等，此外还有各种不同的水滑道和玩水活动，提供不同年龄层的游客无穷的欢乐。"}}, {"title": "梓州公园", "address": "西顺城街迎宾广场旁", "image": "", "rank": 58, "time": 2, "location": {"lat": 37.70322005086842, "lng": 112.74926709171962}, "feature": {"sight_features": "", "sight_content": ""}}]}