{"cityName": "三原", "days": 2, "cityImage": "", "spots": [{"title": "三原城隍庙", "address": "咸阳市三原县东大街33号", "image": "", "rank": 1, "time": 1.0, "location": {"lat": 34.75831277812061, "lng": 109.00654054457901}, "feature": {"sight_features": "", "sight_content": ""}}, {"title": "唐端陵", "address": "咸阳市三原县徐木乡桃沟村东北", "image": "", "rank": 2, "time": 1.0, "location": {"lat": 34.69971286352795, "lng": 109.09441722719426}, "feature": {"sight_features": "", "sight_content": ""}}, {"title": "唐献陵", "address": "咸阳市三原县徐木乡永合村西", "image": "", "rank": 3, "time": 1.0, "location": {"lat": 34.699261683145025, "lng": 109.12714707828087}, "feature": {"sight_features": "", "sight_content": ""}}, {"title": "于右任纪念馆", "address": "咸阳市三原县城西关斗口巷", "image": "", "rank": 4, "time": 1.0, "location": {"lat": 34.623078955251955, "lng": 108.94744650024964}, "feature": {"sight_features": "", "sight_content": ""}}, {"title": "周家大院", "address": "咸阳市三原县鲁桥镇孟店村", "image": "", "rank": 5, "time": 2, "location": {"lat": 34.66367175477043, "lng": 108.90958528285263}, "feature": {"sight_features": "", "sight_content": ""}}, {"title": "于右任故居", "address": "咸阳市三原县城", "image": "", "rank": 6, "time": 1.5, "location": {"lat": 34.623078955251955, "lng": 108.94744650024964}, "feature": {"sight_features": "", "sight_content": ""}}, {"title": "三原古龙桥", "address": "咸阳市三原县城北清峪河上", "image": "", "rank": 7, "time": 1.0, "location": {"lat": 34.66483347571572, "lng": 108.89090328873795}, "feature": {"sight_features": "", "sight_content": ""}}, {"title": "滨港温泉", "address": "咸阳市三原县独三路滨港温泉（滨港院内101总站）", "image": "", "rank": 8, "time": 2, "location": {"lat": 34.625403514613495, "lng": 108.9725466833178}, "feature": {"sight_features": "", "sight_content": ""}}, {"title": "天齐滑雪场", "address": "咸阳市三原县西北10公里外嵯峨山上", "image": "", "rank": 9, "time": 2, "location": {"lat": 34.623078955251955, "lng": 108.85761594925185}, "feature": {"sight_features": "", "sight_content": ""}}, {"title": "三原县图书馆(政府街店)", "address": "政府街107号", "image": "", "rank": 10, "time": 4.5, "location": {"lat": 37.33190050905017, "lng": 116.5811304833093}, "feature": {"sight_features": "", "sight_content": ""}}, {"title": "长安石刻", "address": "陕西省咸阳市三原县油坊道43号", "image": "", "rank": 11, "time": 2, "location": {"lat": 34.61977580243803, "lng": 108.94584095881166}, "feature": {"sight_features": "", "sight_content": ""}}, {"title": "唐高祖陵(献陵)", "address": "陕西省西安市三原县", "image": "", "rank": 12, "time": 2, "location": {"lat": 34.34726881662395, "lng": 108.94646555063274}, "feature": {"sight_features": "", "sight_content": ""}}, {"title": "耘豪窑洞农家院", "address": "陕西省咸阳市三原县小李村西郊水库东100米", "image": "", "rank": 13, "time": 2, "location": {"lat": 34.62940570735543, "lng": 108.90943902524104}, "feature": {"sight_features": "", "sight_content": ""}}, {"title": "卡乐奇", "address": "咸阳市三原县政府街中段（女人天下三楼）", "image": "", "rank": 14, "time": 2, "location": {"lat": 34.623016948650815, "lng": 108.94800405871698}, "feature": {"sight_features": "", "sight_content": ""}}, {"title": "海贝尔儿童游乐园", "address": "咸阳市三原县", "image": "", "rank": 15, "time": 2, "location": {"lat": 34.623078955251955, "lng": 108.94744650024964}, "feature": {"sight_features": "", "sight_content": ""}}, {"title": "仓南路水族馆", "address": "陕西省咸阳市三原县仓南路3号", "image": "", "rank": 16, "time": 2, "location": {"lat": 34.61624547525075, "lng": 108.94250815553909}, "feature": {"sight_features": "", "sight_content": ""}}, {"title": "全都超市奇乐宝游乐园", "address": "三原县其他池阳大街全都购物广场2楼", "image": "", "rank": 17, "time": 2, "location": {"lat": 34.616909123194816, "lng": 108.932192063571}, "feature": {"sight_features": "", "sight_content": ""}}, {"title": "梦幻岛儿童游乐城", "address": "健康路3号附近", "image": "", "rank": 18, "time": 2, "location": {"lat": 38.05637500489933, "lng": 114.51382035300877}, "feature": {"sight_features": "", "sight_content": ""}}, {"title": "清凉寺", "address": "陕西省咸阳市三原县鲁桥镇峪口村", "image": "", "rank": 19, "time": 1.0, "location": {"lat": 34.69616143641314, "lng": 108.92863170873309}, "feature": {"sight_features": "", "sight_content": ""}}, {"title": "悟空塔", "address": "陕西省三原县嵯峨山", "image": "", "rank": 20, "time": 2, "location": {"lat": 34.623078955251955, "lng": 108.94744650024964}, "feature": {"sight_features": "", "sight_content": ""}}, {"title": "三原县人口文化园", "address": "东三路与丰原街交叉口东南50米", "image": "", "rank": 21, "time": 2, "location": {"lat": 34.62404422755686, "lng": 108.95959496298343}, "feature": {"sight_features": "", "sight_content": ""}}, {"title": "三原县清峪河国家湿地公园", "address": "陕西省咸阳市三原县人民银行大街", "image": "", "rank": 22, "time": 2, "location": {"lat": 34.62914487712527, "lng": 108.94870483313343}, "feature": {"sight_features": "", "sight_content": ""}}, {"title": "白鹿书画院", "address": "城隍庙步行街", "image": "", "rank": 23, "time": 2, "location": {"lat": 29.873830574354702, "lng": 121.55724869155146}, "feature": {"sight_features": "", "sight_content": ""}}, {"title": "三原县图书馆(宴友思街店)", "address": "宴友思街", "image": "", "rank": 24, "time": 2, "location": {"lat": 34.61963098290877, "lng": 108.95802198152695}, "feature": {"sight_features": "", "sight_content": ""}}, {"title": "安乐西毛村葡萄产业园", "address": "安乐镇西毛村", "image": "", "rank": 25, "time": 2, "location": {"lat": 34.61518925382358, "lng": 109.0421811121282}, "feature": {"sight_features": "", "sight_content": ""}}, {"title": "张家窑民俗村游乐场", "address": "新兴镇张家窑村", "image": "", "rank": 26, "time": 2, "location": {"lat": 40.18826706658453, "lng": 117.9596614664428}, "feature": {"sight_features": "", "sight_content": ""}}, {"title": "赵家堡农场", "address": "新兴镇五爱村", "image": "", "rank": 27, "time": 2, "location": {"lat": 34.7147675380064, "lng": 108.95232205789657}, "feature": {"sight_features": "", "sight_content": ""}}, {"title": "红森艺品画廊", "address": "城关镇油坊道", "image": "", "rank": 28, "time": 2, "location": {"lat": 34.62071645477239, "lng": 108.94413768173419}, "feature": {"sight_features": "", "sight_content": ""}}, {"title": "三原县城隍庙步行街", "address": "陕西省三原县城东大街", "image": "", "rank": 29, "time": 2, "location": {"lat": 34.623078955251955, "lng": 108.94744650024964}, "feature": {"sight_features": "", "sight_content": ""}}]}