{"cityName": "山阴", "days": 2, "cityImage": "", "spots": [{"title": "山阴湿地公园", "address": "山西省朔州市山阴县", "image": "", "rank": 1, "time": 2.0, "location": {"lat": 39.53403049801094, "lng": 112.82243194472665}, "feature": {"sight_features": "", "sight_content": ""}}, {"title": "水世界花鸟鱼虫", "address": "中商街与山水巷交叉口东北150米", "image": "", "rank": 2, "time": 2, "location": {"lat": 42.85646580255288, "lng": 124.414086267546}, "feature": {"sight_features": "", "sight_content": ""}}, {"title": "明光寺", "address": "中商街与忠州路交叉口东50米", "image": "", "rank": 3, "time": 2, "location": {"lat": 39.525235307697606, "lng": 112.83899373392246}, "feature": {"sight_features": "", "sight_content": ""}}, {"title": "贝儿健儿童乐园", "address": "山西省朔州市山阴县南环路小宝贝幼儿园旁", "image": "", "rank": 4, "time": 2, "location": {"lat": 39.52401611280886, "lng": 112.8250707809419}, "feature": {"sight_features": "", "sight_content": ""}}, {"title": "人民舞台", "address": "朔州市山阴县", "image": "", "rank": 5, "time": 2, "location": {"lat": 39.53403049801094, "lng": 112.82243194472665}, "feature": {"sight_features": "", "sight_content": ""}}, {"title": "汉武广场", "address": "朔州市山阴县旧广武古城内", "image": "", "rank": 6, "time": 2, "location": {"lat": 39.2213111899604, "lng": 112.77954594137479}, "feature": {"sight_features": "", "sight_content": ""}}, {"title": "伽蓝殿", "address": "中商街附近", "image": "", "rank": 7, "time": 2, "location": {"lat": 28.98761322443418, "lng": 105.94153568877864}, "feature": {"sight_features": "", "sight_content": ""}}, {"title": "洪涛度假山庄", "address": "西山森林公园", "image": "", "rank": 8, "time": 2, "location": {"lat": 24.967797164642505, "lng": 102.63430352445741}, "feature": {"sight_features": "", "sight_content": ""}}, {"title": "成长快乐幼教乐园", "address": "南环街附近", "image": "", "rank": 9, "time": 2, "location": {"lat": 39.23055138130545, "lng": 116.37874270645386}, "feature": {"sight_features": "", "sight_content": ""}}, {"title": "林氏大宗祠", "address": "太和镇樟坊村坝头上.", "image": "", "rank": 10, "time": 2, "location": {"lat": 27.02710700268005, "lng": 116.69593632559484}, "feature": {"sight_features": "", "sight_content": ""}}, {"title": "旺升采摘园", "address": "马营庄乡", "image": "", "rank": 11, "time": 2, "location": {"lat": 39.37353918989641, "lng": 112.9900447414596}, "feature": {"sight_features": "", "sight_content": ""}}, {"title": "朔州王家屏墓", "address": "山西省山阴县安荣乡河阳堡村", "image": "", "rank": 12, "time": 1.5, "location": {"lat": 39.458995395608845, "lng": 112.78932722356429}, "feature": {"sight_features": "", "sight_content": ""}}, {"title": "广武屯兵", "address": "山西省山阴县城南雁门关长城脚下", "image": "", "rank": 13, "time": 1.0, "location": {"lat": 39.53403049801094, "lng": 112.82243194472665}, "feature": {"sight_features": "", "sight_content": ""}}]}