{"cityName": "色达", "days": 2, "cityImage": "", "spots": [{"title": "色达喇荣五明佛学院", "address": "甘孜藏族自治州色达县洛若乡(距县城约20公里)", "image": "", "rank": 1, "time": 3.0, "location": {"lat": 32.13954321616832, "lng": 100.46426393262092}, "feature": {"sight_features": "特色1 走进全世界最大的佛学院，观赏数万僧房密布山坡的奇观。", "sight_content": "色达喇荣五明佛学院是一座规模极大的佛学院，上千座的小木屋分布在山坡之上。佛学院中有很多小路，你可以散步其中。在转经塔西南方向满是经幡的山坡上可以俯视整片佛学院，还能拍摄出整个佛学院的全貌。如果你对天葬仪式好奇，也可在学院乘车去看天葬仪式，场面非常震撼。不过请注意尊重当地民族习惯，不要拍摄。\n\n\n在重重的群山环绕之中，沟里的僧舍，以佛学院的大经堂为中心，密密麻麻搭满了四面的山坡，为数众多的绛红色小木屋，延绵起伏，蔚为壮观。这些红色小木屋，是五千名僧俗的住所（出家男子称扎巴，出家女子称觉姆即女尊者）。"}}, {"title": "色达天葬台", "address": "甘孜藏族自治州色达县城外五公里", "image": "", "rank": 2, "time": 0.5, "location": {"lat": 32.27433041322677, "lng": 100.33941364918138}, "feature": {"sight_features": "", "sight_content": ""}}, {"title": "东嘎寺", "address": "甘孜藏族自治州色达县西郊约6公里处", "image": "", "rank": 3, "time": 2.0, "location": {"lat": 32.27433041322677, "lng": 100.33941364918138}, "feature": {"sight_features": "", "sight_content": ""}}, {"title": "邓登曲登佛塔", "address": "甘孜藏族自治州色达县色柯镇", "image": "", "rank": 4, "time": 0.5, "location": {"lat": 32.26852214680177, "lng": 100.35412300934776}, "feature": {"sight_features": "", "sight_content": ""}}, {"title": "色达金马草原", "address": "甘孜藏族自治州色达县", "image": "", "rank": 5, "time": 1.0, "location": {"lat": 32.27433041322677, "lng": 100.33941364918138}, "feature": {"sight_features": "", "sight_content": ""}}, {"title": "格萨尔文化博物馆", "address": "甘孜藏族自治州色达县金马大道东段", "image": "", "rank": 6, "time": 1.5, "location": {"lat": 32.272781753210346, "lng": 100.34276819144729}, "feature": {"sight_features": "", "sight_content": ""}}, {"title": "歌乐沱勒穷", "address": "四川省甘孜州色达县金马草原上", "image": "", "rank": 7, "time": 2, "location": {"lat": 32.27433041322677, "lng": 100.33941364918138}, "feature": {"sight_features": "", "sight_content": ""}}, {"title": "格萨尔文化艺术中心", "address": "甘孜色达县格萨尔文化艺术中心", "image": "", "rank": 8, "time": 2, "location": {"lat": 32.27433041322677, "lng": 100.33941364918138}, "feature": {"sight_features": "", "sight_content": ""}}, {"title": "色尔坝藏寨", "address": "四川省甘孜藏族自治州色达县翁达镇，317国道与色达县道的路口", "image": "", "rank": 9, "time": 2.5, "location": {"lat": 31.869313891530656, "lng": 100.79970027215268}, "feature": {"sight_features": "", "sight_content": ""}}, {"title": "珠日神山", "address": "四川省甘孜藏族自治州色达县西北部色柯镇境内", "image": "", "rank": 10, "time": 2, "location": {"lat": 32.26852214680177, "lng": 100.35412300934776}, "feature": {"sight_features": "", "sight_content": ""}}, {"title": "如意法王蜡像馆", "address": "喇荣五明佛学院内", "image": "", "rank": 11, "time": 2, "location": {"lat": 32.156494556866356, "lng": 100.47914929329434}, "feature": {"sight_features": "", "sight_content": ""}}, {"title": "居士林经堂", "address": "甘孜藏族自治州色达县色达喇荣五明佛学院内", "image": "", "rank": 12, "time": null, "location": {"lat": 32.15642357323071, "lng": 100.47813206920264}, "feature": {"sight_features": "", "sight_content": ""}}, {"title": "嘎多拉经堂", "address": "四川省甘孜藏族自治州色达县喇荣五明佛学院内", "image": "", "rank": 13, "time": 2, "location": {"lat": 32.156494556866356, "lng": 100.47914929329434}, "feature": {"sight_features": "", "sight_content": ""}}, {"title": "色达草原", "address": "色柯镇", "image": "", "rank": 14, "time": 2, "location": {"lat": 32.26852214680177, "lng": 100.35412300934776}, "feature": {"sight_features": "", "sight_content": ""}}, {"title": "色达县城", "address": "甘孜藏族自治州色达县", "image": "", "rank": 15, "time": 7.5, "location": {"lat": 32.27433041322677, "lng": 100.33941364918138}, "feature": {"sight_features": "", "sight_content": ""}}, {"title": "金马广场", "address": "色达县金马广场", "image": "", "rank": 16, "time": 2, "location": {"lat": 32.27433041322677, "lng": 100.33941364918138}, "feature": {"sight_features": "", "sight_content": ""}}, {"title": "药王神山", "address": "甘孜藏族自治州色达县V18县道东50米", "image": "", "rank": 17, "time": 2, "location": {"lat": 31.9983567996028, "lng": 100.54598106730347}, "feature": {"sight_features": "", "sight_content": ""}}]}