{"cityName": "莎车", "days": null, "cityImage": "", "spots": [{"title": "叶尔羌汗国王陵", "address": "喀什地区莎车县老城和新城之间的阿勒屯德尔瓦兹以北", "image": "", "rank": 1, "time": 2, "location": {"lat": 38.42015675241895, "lng": 77.25243671368574}, "feature": {"sight_features": "", "sight_content": ""}}, {"title": "叶河垂钓乐园", "address": "315国道", "image": "", "rank": 2, "time": 2, "location": {"lat": 37.09130242955409, "lng": 80.01089741457416}, "feature": {"sight_features": "", "sight_content": ""}}, {"title": "东方红游乐园", "address": "乌达力克乡", "image": "", "rank": 3, "time": 2, "location": {"lat": 38.3692448115621, "lng": 77.13591663076744}, "feature": {"sight_features": "", "sight_content": ""}}, {"title": "葡萄风情园", "address": "建设路附近(蔬菜大队小学东250米)", "image": "", "rank": 4, "time": 2, "location": {"lat": 38.41183459039113, "lng": 77.26303532031129}, "feature": {"sight_features": "", "sight_content": ""}}, {"title": "默拉纳额什丁墓", "address": "新疆维吾尔自治区库车县新老城之间 842000", "image": "", "rank": 5, "time": 2, "location": {"lat": 41.723447514832976, "lng": 82.96845878728406}, "feature": {"sight_features": "", "sight_content": ""}}, {"title": "阿曼尼沙罕纪念陵墓", "address": "新疆维吾尔自治区喀什地区莎车县阿勒屯路", "image": "", "rank": 6, "time": 2, "location": {"lat": 38.424888966691476, "lng": 77.26333440151896}, "feature": {"sight_features": "", "sight_content": ""}}, {"title": "卡奇乐儿童成长乐园", "address": "新疆维吾尔自治区喀什地区莎车县团结路13号", "image": "", "rank": 7, "time": 2, "location": {"lat": 38.23018976738202, "lng": 77.11519915029767}, "feature": {"sight_features": "", "sight_content": ""}}, {"title": "姆卡木故乡那扎尔巴格度假村", "address": "新疆维吾尔自治区喀什地区莎车县米夏乡政府(莎车县米夏乡委旁)", "image": "", "rank": 8, "time": 2, "location": {"lat": 38.459954677396695, "lng": 77.25665467127563}, "feature": {"sight_features": "", "sight_content": ""}}, {"title": "十二木卡姆民俗风情园", "address": "罕力木日克路", "image": "", "rank": 9, "time": 2, "location": {"lat": 38.423688907158066, "lng": 77.23313305389031}, "feature": {"sight_features": "", "sight_content": ""}}, {"title": "艺美画廊", "address": "莎车镇新城路2号五一市场", "image": "", "rank": 10, "time": 2, "location": {"lat": 38.42048029905032, "lng": 77.25581173731727}, "feature": {"sight_features": "", "sight_content": ""}}, {"title": "故宫葡萄休闲园", "address": "葡萄风情园附近", "image": "", "rank": 11, "time": 2, "location": {"lat": 40.14001062160437, "lng": 116.02730755117922}, "feature": {"sight_features": "", "sight_content": ""}}, {"title": "金湖杨水上游乐场", "address": "新疆维吾尔自治区喀什地区泽普县金湖杨景区", "image": "", "rank": 12, "time": 2, "location": {"lat": 38.19072551633278, "lng": 77.26655942376085}, "feature": {"sight_features": "", "sight_content": ""}}, {"title": "丝绸之路莎车国家湿地公园", "address": "喀什地区伊什库力乡与吾达力克乡相交处，距莎车县城9公里", "image": "", "rank": 13, "time": 2, "location": {"lat": 38.49419614067552, "lng": 77.20843949797397}, "feature": {"sight_features": "", "sight_content": ""}}, {"title": "莎车第一街", "address": "新疆维吾尔自治区莎车县莎车镇", "image": "", "rank": 14, "time": 2, "location": {"lat": 38.42075210154457, "lng": 77.25750936306494}, "feature": {"sight_features": "", "sight_content": ""}}, {"title": "吉格代买里", "address": "喀什地区-莎车县-塔斯克玛村二组--铁热克阿恰勒村五组", "image": "", "rank": 15, "time": 2, "location": {"lat": 38.43124345562103, "lng": 77.43446506503581}, "feature": {"sight_features": "", "sight_content": ""}}, {"title": "莎车王墓", "address": "新疆维吾尔自治区莎车县县城中汉城、回城之间", "image": "", "rank": 16, "time": 2.5, "location": {"lat": 38.42015675241895, "lng": 77.25243671368574}, "feature": {"sight_features": "", "sight_content": ""}}, {"title": "阿曼尼莎汗纪念陵", "address": "新疆喀什莎车县戈尔巴格路(莎车政府对面)", "image": "", "rank": 17, "time": null, "location": {"lat": 38.42181983263594, "lng": 77.27016679842441}, "feature": {"sight_features": "", "sight_content": ""}}]}