{"cityName": "商都", "days": 2, "cityImage": "", "spots": [{"title": "水漩公园", "address": "府左街北侧尽头(县中医院)", "image": "", "rank": 1, "time": 0.75, "location": {"lat": 38.37962530410294, "lng": 117.33814107496158}, "feature": {"sight_features": "", "sight_content": ""}}, {"title": "笆·笆·莎时尚内衣艺术馆(加盟...", "address": "新风路商都汽车站附近", "image": "", "rank": 2, "time": 2, "location": {"lat": 41.56554251338812, "lng": 113.56244428389178}, "feature": {"sight_features": "", "sight_content": ""}}, {"title": "内蒙古商都县图书馆", "address": "府左街南50米", "image": "", "rank": 3, "time": 2, "location": {"lat": 38.37927173143924, "lng": 117.33814107496158}, "feature": {"sight_features": "", "sight_content": ""}}, {"title": "草原兴都首届冰雪嘉年华", "address": "七台镇工业园区紫鑫炼铁厂隔壁佳鹏镁业有限公司大院内", "image": "", "rank": 4, "time": 2, "location": {"lat": 36.60523526473538, "lng": 114.46302214658945}, "feature": {"sight_features": "", "sight_content": ""}}, {"title": "农家乐莜面馆", "address": "红旗南街附近", "image": "", "rank": 5, "time": 2, "location": {"lat": 40.08171971284873, "lng": 113.30134025497054}, "feature": {"sight_features": "", "sight_content": ""}}, {"title": "易达·泰和城商业街", "address": "内蒙古自治区商都县红旗街", "image": "", "rank": 6, "time": 2, "location": {"lat": 41.57271052546151, "lng": 113.56310348652586}, "feature": {"sight_features": "", "sight_content": ""}}, {"title": "商都县温州商业步行街", "address": "内蒙古自治区商都县新风路", "image": "", "rank": 7, "time": 2, "location": {"lat": 41.56567793793888, "lng": 113.55983753065782}, "feature": {"sight_features": "", "sight_content": ""}}, {"title": "玉石梁", "address": "乌兰察布市-商都县", "image": "", "rank": 8, "time": null, "location": {"lat": 41.56756663722376, "lng": 113.58463922926263}, "feature": {"sight_features": "", "sight_content": ""}}]}