{"cityName": "商河", "days": 2, "cityImage": "", "spots": [{"title": "商河温泉基地", "address": "济南市商河县商西路8号（商西路与新城街交叉口）", "image": "", "rank": 1, "time": 2, "location": {"lat": 37.269661444265196, "lng": 117.14186944171323}, "feature": {"sight_features": "特色1 集康体、温泉度假、休闲疗养等为一体", "sight_content": "商河温泉基地是由济南商河石油天然气开发总公司投资兴建，委托济南舜耕山庄酒店管理公司经营管理的，集餐饮、客房、会议、康体、温泉度假、休闲疗养为一体的，吃、住、娱、购配套的全新含温泉的国家星级旅游饭店。酒店整体占地11.7万平方米，为园林式景观建筑群，景色宜人、环境优美。基地距离县城中心乘车约十分钟左右，靠近316省道，位置优越，交通出行便利。\n\n商河温泉基地客房中心配有四栋风格迥异的度假式温泉别墅、85间温馨舒适的客房供客人度假休息；温泉为酒店特色项目，含有大型室内SPA池、标准泳池、亲亲鱼池、太极八卦泉、宝石泉、死海漂浮等功能各异的室内外汤池60余个，同时还设有南洋SPA、保健按摩、奇石理疗等休闲保健项目；康体中心为宾客提供室内网球、羽毛球、3D高尔夫、KTV等多种健身娱乐项目；酒店还配有设备先进，功能齐全，可同时容纳300人的会议中心；餐饮中心设有布局合理的中餐厅、风格各异的宴会厅、格调优雅的多功能厅及茶社等，可同时容纳300人就餐，菜品以鲁菜为主，兼具各菜系精华，并结合商河特色产品，推出商河温泉文化宴，以绿色健康为出品理念，采用酒店自己的绿色蔬菜基地及无公害果园盛产的无公害蔬菜及瓜果，为八方宾客提供营养、美味的各色菜肴。\n\n商河温泉以其独特的温泉特色魅力,丰富的文化内涵,全新的经营理念,完善的配套设施,周到的特色服务, 赢得了社会各界以及广大消费者的一致好评，成为广大宾客休闲度假、商务会议的理想选择。酒店开业时间2009年10月，新近装修时间2012年12月，局部装修，主楼高3层，附楼高3层，客房总数85间（套）。"}}, {"title": "滨河公园", "address": "济南市商河县南部滨河路", "image": "", "rank": 2, "time": 2.0, "location": {"lat": 37.31465626420279, "lng": 117.15153069142217}, "feature": {"sight_features": "", "sight_content": ""}}, {"title": "商河城市展馆", "address": "济南市商河县商中路（人民公园南侧）", "image": "", "rank": 3, "time": 1.0, "location": {"lat": 37.312540892391986, "lng": 117.16638500036903}, "feature": {"sight_features": "", "sight_content": ""}}, {"title": "商河花卉苗木大世界", "address": "济南市商河县现代农业示范园省道248西侧", "image": "", "rank": 4, "time": 2, "location": {"lat": 37.31497071555638, "lng": 117.16352979289881}, "feature": {"sight_features": "", "sight_content": ""}}, {"title": "瑞阳温泉", "address": "济南市商河县农业科技示范园内（近商中路）", "image": "", "rank": 5, "time": 2, "location": {"lat": 37.28451022907576, "lng": 117.16287072231565}, "feature": {"sight_features": "特色1 有中药养生、美容养颜、SPA水疗等", "sight_content": "商河瑞阳温泉酒店是集养生温泉、温馨客房、美食餐饮、商务会议、婚宴婚庆，精品洗浴等功能于一体的别具风情的温泉度假酒店。\n温泉水质含丰富的锶、偏硅酸、氟、碘等40多种对人体健康有益的微量元素。\n温泉中心室内、室外设有中药养生、美容养颜、SPA水疗等特色泡池十余个！"}}, {"title": "秧歌古村", "address": "济南市商河县牛铺袁窦村（东酒厂向东三公里路北）", "image": "", "rank": 6, "time": 2, "location": {"lat": 37.34756745887519, "lng": 117.20643402376777}, "feature": {"sight_features": "特色1 淋漓尽致的展现鼓子秧歌从起源、发展，到兴盛的不同阶段 特色2 能看到诸如老粗布纺织、豆腐皮生产、商河烧鸡加工之类的“非遗”技艺 特色3 感受辘轳井、石这类农耕文明时代的乡村生活方式", "sight_content": "鼓子秧歌——首批国家级非物质文化遗产，他的起源位于孙集镇袁窦村、杨庙一带。坐落其中的秧歌古村，把鼓子秧歌聪起源、发展，到兴盛的不同阶段，淋漓尽致的展现出来。带你穿越时空，领略厚重的秧歌文化，体验伞的大气、鼓的浑厚、棒的灵巧、花的优美、丑的诙谐。\n在秧歌古村，游客能看到诸如老粗布纺织、豆腐皮生产、商河烧鸡加工之类的“非遗”技艺；也能感受辘轳井、石这类农耕文明时代的乡村生活方式。另外，“村子”里还种植了大量的桃、珍珠油杏等水果，以及苜蓿、扫帚菜等野菜，还有大虾等水产品，既能采摘，又能垂钓。"}}, {"title": "鹤鸣湖七彩庄园", "address": "济南市商河县张坊镇", "image": "", "rank": 7, "time": 1.0, "location": {"lat": 37.354685435725266, "lng": 117.0997732869556}, "feature": {"sight_features": "", "sight_content": ""}}, {"title": "田园牧歌", "address": "商河县现代农业科技示范园北园", "image": "", "rank": 8, "time": 2, "location": {"lat": 37.31497071555638, "lng": 117.16352979289881}, "feature": {"sight_features": "", "sight_content": ""}}, {"title": "正和葡萄园", "address": "新湖路中段", "image": "", "rank": 9, "time": 2, "location": {"lat": 31.41468430336341, "lng": 119.32482026656832}, "feature": {"sight_features": "", "sight_content": ""}}, {"title": "滨河葡萄采摘苗木基地", "address": "滨河路延长线路东", "image": "", "rank": 10, "time": 2, "location": {"lat": 36.58532880170461, "lng": 110.01847172588649}, "feature": {"sight_features": "", "sight_content": ""}}, {"title": "商河县温泉农庄", "address": "商中路现代农业科技示范园内", "image": "", "rank": 11, "time": 2, "location": {"lat": 33.48880430148035, "lng": 119.03227843554498}, "feature": {"sight_features": "", "sight_content": ""}}, {"title": "殷巷镇社区公共电子阅览室", "address": "迎宾路西50米", "image": "", "rank": 12, "time": 2, "location": {"lat": 30.55450522000038, "lng": 117.06884500823028}, "feature": {"sight_features": "", "sight_content": ""}}, {"title": "第三届中国（济南）花卉园艺博览...", "address": "农业示范园花卉大世界省道248西侧", "image": "", "rank": 13, "time": 2, "location": {"lat": 37.93705983571889, "lng": 115.22126905275921}, "feature": {"sight_features": "", "sight_content": ""}}, {"title": "兴鲁斋", "address": "兴隆街财政局斜对过", "image": "", "rank": 14, "time": 2, "location": {"lat": 36.24907917899044, "lng": 115.67330869486051}, "feature": {"sight_features": "", "sight_content": ""}}, {"title": "大沙河度假村", "address": "二五七县道", "image": "", "rank": 15, "time": 2, "location": {"lat": 29.29743600672004, "lng": 107.30148965602501}, "feature": {"sight_features": "", "sight_content": ""}}, {"title": "农家乐", "address": "济南市商河县", "image": "", "rank": 16, "time": 2, "location": {"lat": 37.31497071555638, "lng": 117.16352979289881}, "feature": {"sight_features": "", "sight_content": ""}}, {"title": "星都财富广场", "address": "银桥市场东门对面", "image": "", "rank": 17, "time": 2, "location": {"lat": 32.01954233147191, "lng": 118.77256051897483}, "feature": {"sight_features": "", "sight_content": ""}}, {"title": "黄海水族馆", "address": "山东省济南市商河县X255(民生路)", "image": "", "rank": 18, "time": 2, "location": {"lat": 37.31497071555638, "lng": 117.16352979289881}, "feature": {"sight_features": "", "sight_content": ""}}, {"title": "晨斐梦想儿童乐园", "address": "力诺路与玉皇路交叉口东150米", "image": "", "rank": 19, "time": 2, "location": {"lat": 39.122203031166094, "lng": 117.1722522423837}, "feature": {"sight_features": "", "sight_content": ""}}, {"title": "快乐岛儿童乐园", "address": "文化街", "image": "", "rank": 20, "time": 2, "location": {"lat": 24.173503201107945, "lng": 110.81563259681678}, "feature": {"sight_features": "", "sight_content": ""}}, {"title": "贾庄开元公园", "address": "山东省济南市商河县316省道贾庄镇中心小学东侧230米", "image": "", "rank": 21, "time": 2, "location": {"lat": 37.27266453561772, "lng": 117.08749093088724}, "feature": {"sight_features": "", "sight_content": ""}}, {"title": "迪士尼儿童乐园", "address": "山东省济南市商河县龙桑寺镇龙兴街龙桑广场东南400米", "image": "", "rank": 22, "time": 2, "location": {"lat": 37.40245906611075, "lng": 117.3067589192926}, "feature": {"sight_features": "", "sight_content": ""}}, {"title": "轩彤儿童乐园", "address": "迎宾路西50米", "image": "", "rank": 23, "time": 2, "location": {"lat": 30.55450522000038, "lng": 117.06884500823028}, "feature": {"sight_features": "", "sight_content": ""}}, {"title": "法治文化公园", "address": "山东省济南市商河县振业街与长青路交叉口西北50米", "image": "", "rank": 24, "time": 2, "location": {"lat": 37.31096467987703, "lng": 117.16840469568103}, "feature": {"sight_features": "", "sight_content": ""}}, {"title": "商中河湿地公园", "address": "创新路与新兴街交叉口东150米", "image": "", "rank": 25, "time": 2, "location": {"lat": 37.26414895530699, "lng": 117.15408762193763}, "feature": {"sight_features": "", "sight_content": ""}}, {"title": "明辉文体广场", "address": "明辉路与福胜北街交叉口西50米", "image": "", "rank": 26, "time": 2, "location": {"lat": 37.314593069157276, "lng": 117.15953040920901}, "feature": {"sight_features": "", "sight_content": ""}}, {"title": "济南施恩堂", "address": "老城街6号附近", "image": "", "rank": 27, "time": 3.0, "location": {"lat": 36.980806838176235, "lng": 117.22695330597254}, "feature": {"sight_features": "", "sight_content": ""}}, {"title": "爱弥儿亲子乐园", "address": "济南市商河县G340国道北纬37度康旅示范小镇内", "image": "", "rank": 28, "time": 2, "location": {"lat": 37.31497071555638, "lng": 117.16352979289881}, "feature": {"sight_features": "", "sight_content": "爱弥儿亲子乐园位于济南北纬37°康旅示范小镇内，占地66000平方米，是一个无动力亲子乐园。\n爱弥儿亲子乐园包含九大主题园区，奇幻平原、迷谷传音、轮滑天地、梦幻山谷、露营圣地、丛林探险、魔力挑战、绿野迷踪、魔法磁场，适合全家一起探索。"}}, {"title": "齐鲁水郡温泉岛", "address": "商河城区西南部", "image": "", "rank": 29, "time": 2, "location": {"lat": 37.31497071555638, "lng": 117.16352979289881}, "feature": {"sight_features": "", "sight_content": ""}}, {"title": "水上乐园", "address": "育才路中央华府售楼处北临", "image": "", "rank": 30, "time": 2, "location": {"lat": 30.423251254002757, "lng": 112.89769081255544}, "feature": {"sight_features": "", "sight_content": ""}}, {"title": "济南张坊湿地庄园", "address": "张坊乡张坊林场", "image": "", "rank": 31, "time": 3.0, "location": {"lat": 37.3443245536908, "lng": 117.12453392042234}, "feature": {"sight_features": "", "sight_content": ""}}, {"title": "蓝湖温泉", "address": "温泉国际(产业园区568号)", "image": "", "rank": 32, "time": 2, "location": {"lat": 40.916324641606316, "lng": 115.83214326092961}, "feature": {"sight_features": "", "sight_content": ""}}, {"title": "温泉中心", "address": "瑞阳温泉度假酒店内", "image": "", "rank": 33, "time": 2, "location": {"lat": 37.28451022907576, "lng": 117.16287072231565}, "feature": {"sight_features": "", "sight_content": ""}}, {"title": "新惠葡萄园", "address": "新湖街", "image": "", "rank": 34, "time": 2, "location": {"lat": 28.164535094250358, "lng": 117.55807335245501}, "feature": {"sight_features": "", "sight_content": ""}}, {"title": "新兴商业街", "address": "山东省商河县兴隆街", "image": "", "rank": 35, "time": 1.5, "location": {"lat": 37.32470199277344, "lng": 117.16547922455044}, "feature": {"sight_features": "", "sight_content": ""}}, {"title": "东郅家村", "address": "济南市-商河县", "image": "", "rank": 36, "time": 2, "location": {"lat": 37.31497071555638, "lng": 117.16352979289881}, "feature": {"sight_features": "", "sight_content": ""}}, {"title": "后郅家村", "address": "济南市-商河县", "image": "", "rank": 37, "time": 2, "location": {"lat": 37.31497071555638, "lng": 117.16352979289881}, "feature": {"sight_features": "", "sight_content": ""}}, {"title": "郅韩庄村", "address": "济南市-商河县", "image": "", "rank": 38, "time": 2, "location": {"lat": 37.31497071555638, "lng": 117.16352979289881}, "feature": {"sight_features": "", "sight_content": ""}}, {"title": "北纬37度温泉悠养小镇", "address": "济南市-商河县-S248", "image": "", "rank": 39, "time": 2, "location": {"lat": 37.31497071555638, "lng": 117.16352979289881}, "feature": {"sight_features": "", "sight_content": ""}}, {"title": "梁王冢", "address": "商河县郑路镇梁王冢村西北五百米，距县城东二十公里", "image": "", "rank": 40, "time": 2, "location": {"lat": 37.34023336680016, "lng": 117.35953999498955}, "feature": {"sight_features": "", "sight_content": ""}}]}