{"cityName": "山南", "days": "4", "cityImage": "", "spots": [{"title": "羊卓雍措", "address": "山南市浪卡子县浪卡孜乡318国道旁", "image": "", "rank": 1, "time": 1.0, "location": {"lat": 28.97399201780357, "lng": 90.4046468834624}, "feature": {"sight_features": "特色1 西藏三大圣湖之一。不同时刻阳光的照射，湖水会显现出不一样的蓝色。 特色2 与纳木错、玛旁雍错并称西藏三大圣湖。 特色3 是喜马拉雅山北麓最大的内陆湖泊。", "sight_content": "羊卓雍措，通常简称为“羊湖”，藏语意为“天鹅池”，位于西藏山南地区的浪卡子县，拉萨西南约120公里处，与玛旁雍错、纳木错并称西藏三大神湖。湖面海拔4441米，湖岸线总长250千米，总面积638平方千米，湖水均深20－40米，是喜马拉雅山北麓超大的内陆湖。羊湖岔口较多，像珊瑚枝一样，因此它在藏语中又被称为“上面的珊瑚湖”。羊卓雍措是寻找转世灵童的圣湖，大活佛可以从湖中看出显影，指示灵童所在的大方位。不同时刻阳光的照射，羊湖会显现出不同层次、极其丰富的蓝色，如梦似幻，初见羊湖，她的艳丽让人几乎不敢相信。羊卓雍措的水源来自四周念青唐古拉山脉的雪水，没有出水口，雪水的流入与自然的蒸发达到一种奇特的动态平衡，湖水随着光线变幻，演化成干变万化的蓝色。"}}, {"title": "桑耶寺", "address": "山南市扎囊县桑耶镇", "image": "", "rank": 2, "time": 2.5, "location": {"lat": 29.423162431510832, "lng": 91.52267273219901}, "feature": {"sight_features": "", "sight_content": ""}}, {"title": "雍布拉康", "address": "山南市乃东区泽当镇东南11km处的扎西次日山上", "image": "", "rank": 3, "time": 3.0, "location": {"lat": 29.231789199277788, "lng": 91.71132611213476}, "feature": {"sight_features": "", "sight_content": ""}}, {"title": "拉姆拉错", "address": "山南市加查县曲科杰丛山之中", "image": "", "rank": 4, "time": 2.0, "location": {"lat": 29.14608747478364, "lng": 92.6004488814891}, "feature": {"sight_features": "", "sight_content": ""}}, {"title": "昌珠寺", "address": "山南市乃东区贡布日山南麓", "image": "", "rank": 5, "time": 1.5, "location": {"lat": 29.234229154984693, "lng": 91.77868196564091}, "feature": {"sight_features": "", "sight_content": ""}}, {"title": "岗巴拉山口", "address": "山南市浪卡子县与贡嘎县界山", "image": "", "rank": 6, "time": 0.3, "location": {"lat": 28.97399201780357, "lng": 90.4046468834624}, "feature": {"sight_features": "", "sight_content": ""}}, {"title": "青朴修行地", "address": "山南市扎囊县桑耶寺东北15华里的纳瑞山腰", "image": "", "rank": 7, "time": 1.5, "location": {"lat": 29.329361165325057, "lng": 91.51043232520541}, "feature": {"sight_features": "", "sight_content": ""}}, {"title": "普莫雍错", "address": "西藏自治区山南市浪卡子县", "image": "", "rank": 8, "time": 2.0, "location": {"lat": 28.97399201780357, "lng": 90.4046468834624}, "feature": {"sight_features": "", "sight_content": ""}}, {"title": "藏王墓", "address": "山南市琼结县", "image": "", "rank": 9, "time": 1.5, "location": {"lat": 29.03086558193296, "lng": 91.69010077797564}, "feature": {"sight_features": "", "sight_content": ""}}, {"title": "敏珠林寺", "address": "山南市扎囊县扎期乡敏竹林村", "image": "", "rank": 10, "time": 2.0, "location": {"lat": 29.25116431579497, "lng": 91.34362712763867}, "feature": {"sight_features": "", "sight_content": ""}}, {"title": "姜桑拉姆峰", "address": "日喀则地区江孜县和山南市浪卡子县交界处", "image": "", "rank": 11, "time": 1.0, "location": {"lat": 28.97399201780357, "lng": 90.4046468834624}, "feature": {"sight_features": "", "sight_content": ""}}, {"title": "桑丁寺", "address": "山南市浪卡子县羊卓雍错湖西南", "image": "", "rank": 12, "time": 1.5, "location": {"lat": 28.97399201780357, "lng": 90.4046468834624}, "feature": {"sight_features": "", "sight_content": ""}}, {"title": "贡布日神山", "address": "山南市乃东区雅鲁藏布江南侧", "image": "", "rank": 13, "time": 2.5, "location": {"lat": 29.234229154984693, "lng": 91.77868196564091}, "feature": {"sight_features": "", "sight_content": ""}}, {"title": "雅砻风景名胜区", "address": "山南市南部", "image": "", "rank": 14, "time": 1.0, "location": {"lat": 29.243026939249226, "lng": 91.77867513851903}, "feature": {"sight_features": "", "sight_content": ""}}, {"title": "琼果杰寺", "address": "山南市加查县崔久乡", "image": "", "rank": 15, "time": 1.0, "location": {"lat": 29.455504118313087, "lng": 92.71450153805085}, "feature": {"sight_features": "", "sight_content": ""}}, {"title": "拉加里王宫", "address": "山南市曲松县县城南侧", "image": "", "rank": 16, "time": 1.5, "location": {"lat": 29.06842481562376, "lng": 92.21017466297504}, "feature": {"sight_features": "", "sight_content": ""}}, {"title": "多吉扎寺", "address": "山南市贡嘎县", "image": "", "rank": 17, "time": 1.0, "location": {"lat": 29.295585920340546, "lng": 90.9905823724984}, "feature": {"sight_features": "", "sight_content": ""}}, {"title": "那玉河谷", "address": "山南市加查县", "image": "", "rank": 18, "time": 2, "location": {"lat": 29.14608747478364, "lng": 92.6004488814891}, "feature": {"sight_features": "", "sight_content": ""}}, {"title": "思金拉措", "address": "山南市距川藏公路（318国道）约5公里，距桑日县城约93公里", "image": "", "rank": 19, "time": 2, "location": {"lat": 29.265175836421495, "lng": 92.0221572536961}, "feature": {"sight_features": "", "sight_content": ""}}, {"title": "赛卡古托寺", "address": "山南市洛扎县色乡乡政府以南约600米处", "image": "", "rank": 20, "time": 1.0, "location": {"lat": 28.391634617397948, "lng": 90.86645200191522}, "feature": {"sight_features": "", "sight_content": ""}}, {"title": "哲古错", "address": "山南市措美县", "image": "", "rank": 21, "time": 2, "location": {"lat": 28.44425799016076, "lng": 91.43991757318803}, "feature": {"sight_features": "", "sight_content": ""}}, {"title": "哲古景区", "address": "山南市措美县哲古村", "image": "", "rank": 22, "time": 3.5, "location": {"lat": 28.44425799016076, "lng": 91.43991757318803}, "feature": {"sight_features": "", "sight_content": ""}}, {"title": "海不日神山", "address": "山南市扎囊县", "image": "", "rank": 23, "time": 1.0, "location": {"lat": 29.25116431579497, "lng": 91.34362712763867}, "feature": {"sight_features": "", "sight_content": ""}}, {"title": "康格多山", "address": "山南市错那县", "image": "", "rank": 24, "time": 1.0, "location": {"lat": 27.997004265923422, "lng": 91.96375005827048}, "feature": {"sight_features": "", "sight_content": ""}}, {"title": "恰嘎曲德寺", "address": "山南市桑日县绒乡境内", "image": "", "rank": 25, "time": 1.0, "location": {"lat": 29.14908211007847, "lng": 91.98965084623448}, "feature": {"sight_features": "", "sight_content": ""}}, {"title": "朗赛岭庄园", "address": "山南市扎囊县101省道南100米", "image": "", "rank": 26, "time": 1.0, "location": {"lat": 29.25116431579497, "lng": 91.34362712763867}, "feature": {"sight_features": "", "sight_content": ""}}, {"title": "拿日雍错", "address": "山南市错那县", "image": "", "rank": 27, "time": 2, "location": {"lat": 27.997004265923422, "lng": 91.96375005827048}, "feature": {"sight_features": "", "sight_content": ""}}, {"title": "卡玛当寺", "address": "山南市桑日县城东约2.5公里的一处山腰上", "image": "", "rank": 28, "time": 1.0, "location": {"lat": 29.265175836421495, "lng": 92.0221572536961}, "feature": {"sight_features": "", "sight_content": ""}}, {"title": "扎塘寺", "address": "山南市扎囊县扎塘镇", "image": "", "rank": 29, "time": 1.0, "location": {"lat": 29.23787596291345, "lng": 91.3044897208539}, "feature": {"sight_features": "", "sight_content": ""}}, {"title": "曲卓木乡千年沙棘林景区", "address": "山南市错那县城驻地西北方向的曲卓木乡乡政府所在地（距离错那县城63公里）", "image": "", "rank": 30, "time": 2.5, "location": {"lat": 28.264643287924596, "lng": 91.65401046749668}, "feature": {"sight_features": "", "sight_content": ""}}, {"title": "拉姆拉措", "address": "加查县城东北部", "image": "", "rank": 31, "time": 1.5, "location": {"lat": 36.605707645661155, "lng": 101.8095690383313}, "feature": {"sight_features": "", "sight_content": ""}}, {"title": "夏珠林寺", "address": "山南市贡嘎县", "image": "", "rank": 32, "time": 2, "location": {"lat": 29.295585920340546, "lng": 90.9905823724984}, "feature": {"sight_features": "", "sight_content": ""}}, {"title": "吉堆吐蕃墓群", "address": "山南市洛扎县吉堆乡政府所在地南侧土坡上", "image": "", "rank": 33, "time": 1.0, "location": {"lat": 28.391634617397948, "lng": 90.86645200191522}, "feature": {"sight_features": "", "sight_content": ""}}, {"title": "吉如拉康寺", "address": "山南市乃东区结巴乡吉如村", "image": "", "rank": 34, "time": 1.0, "location": {"lat": 29.337576383437334, "lng": 91.82206904648682}, "feature": {"sight_features": "", "sight_content": ""}}, {"title": "达古景区", "address": "山南市桑日县与加查县交界处（属桑日县增期乡达古村，距桑日县县城40公里）", "image": "", "rank": 35, "time": 2, "location": {"lat": 29.6114594551692, "lng": 92.39905621879835}, "feature": {"sight_features": "", "sight_content": ""}}, {"title": "聂玛隆圣洞", "address": "山南市扎囊县", "image": "", "rank": 36, "time": 1.0, "location": {"lat": 29.25116431579497, "lng": 91.34362712763867}, "feature": {"sight_features": "", "sight_content": ""}}, {"title": "扎羊宗溶洞", "address": "山南市扎囊县", "image": "", "rank": 37, "time": 1.0, "location": {"lat": 29.25116431579497, "lng": 91.34362712763867}, "feature": {"sight_features": "", "sight_content": ""}}, {"title": "巴郎却康", "address": "山南市桑日县绒乡巴郎村", "image": "", "rank": 38, "time": 1.0, "location": {"lat": 29.14908211007847, "lng": 91.98965084623448}, "feature": {"sight_features": "", "sight_content": ""}}, {"title": "泽当寺", "address": "山南市乃东区", "image": "", "rank": 39, "time": 2, "location": {"lat": 29.234229154984693, "lng": 91.77868196564091}, "feature": {"sight_features": "", "sight_content": ""}}, {"title": "雅鲁藏布江水葬台", "address": "山南市贡嘎县307省道旁", "image": "", "rank": 40, "time": 0.35, "location": {"lat": 29.295585920340546, "lng": 90.9905823724984}, "feature": {"sight_features": "", "sight_content": ""}}, {"title": "土旦热麦寺", "address": "山南市贡嘎县", "image": "", "rank": 41, "time": 2, "location": {"lat": 29.295585920340546, "lng": 90.9905823724984}, "feature": {"sight_features": "", "sight_content": ""}}, {"title": "赞塘玉益拉康", "address": "山南市乃东区", "image": "", "rank": 42, "time": 2, "location": {"lat": 29.234229154984693, "lng": 91.77868196564091}, "feature": {"sight_features": "", "sight_content": ""}}, {"title": "扎日神山", "address": "山南市隆子县", "image": "", "rank": 43, "time": 1.0, "location": {"lat": 28.41401899841851, "lng": 92.46896552098697}, "feature": {"sight_features": "", "sight_content": ""}}, {"title": "扎热寺", "address": "山南市浪卡子县", "image": "", "rank": 44, "time": 2, "location": {"lat": 28.97399201780357, "lng": 90.4046468834624}, "feature": {"sight_features": "", "sight_content": ""}}, {"title": "烈士陵园", "address": "山南市乃东区安徽大道11号", "image": "", "rank": 45, "time": 2, "location": {"lat": 29.234229154984693, "lng": 91.77868196564091}, "feature": {"sight_features": "", "sight_content": ""}}, {"title": "打隆寺", "address": "山南市浪卡子县", "image": "", "rank": 46, "time": 2, "location": {"lat": 28.97399201780357, "lng": 90.4046468834624}, "feature": {"sight_features": "", "sight_content": ""}}, {"title": "沃卡温泉", "address": "山南市桑日县沃卡景区", "image": "", "rank": 47, "time": 2, "location": {"lat": 29.265175836421495, "lng": 92.0221572536961}, "feature": {"sight_features": "", "sight_content": ""}}, {"title": "拉隆寺", "address": "山南市洛扎县扎日乡洛扎努曲河北岸", "image": "", "rank": 48, "time": 2, "location": {"lat": 28.246462775619317, "lng": 90.48070632383147}, "feature": {"sight_features": "", "sight_content": ""}}, {"title": "日当寺", "address": "山南市隆子县", "image": "", "rank": 49, "time": 2, "location": {"lat": 28.41401899841851, "lng": 92.46896552098697}, "feature": {"sight_features": "", "sight_content": ""}}, {"title": "日乌德钦寺", "address": "山南市琼结县", "image": "", "rank": 50, "time": 2, "location": {"lat": 29.03086558193296, "lng": 91.69010077797564}, "feature": {"sight_features": "", "sight_content": ""}}, {"title": "40号冰川", "address": "山南市洛扎县与不丹边境40号界碑位置附近", "image": "", "rank": 51, "time": 2, "location": {"lat": 28.391634617397948, "lng": 90.86645200191522}, "feature": {"sight_features": "", "sight_content": ""}}, {"title": "昌果沟文化遗址", "address": "山南市贡嘎县昌果乡", "image": "", "rank": 52, "time": 1.0, "location": {"lat": 29.402371965604754, "lng": 91.11895534568173}, "feature": {"sight_features": "", "sight_content": ""}}, {"title": "曲龙寺", "address": "山南市沃卡沃德页杰神山以北", "image": "", "rank": 53, "time": 1.0, "location": {"lat": 29.243026939249226, "lng": 91.77867513851903}, "feature": {"sight_features": "", "sight_content": ""}}, {"title": "札玛止桑宫", "address": "山南市扎囊县", "image": "", "rank": 54, "time": 1.0, "location": {"lat": 29.25116431579497, "lng": 91.34362712763867}, "feature": {"sight_features": "", "sight_content": ""}}, {"title": "桑噶方托寺", "address": "山南市洛扎县色乡", "image": "", "rank": 55, "time": 1.0, "location": {"lat": 28.16752796302118, "lng": 90.71148713301724}, "feature": {"sight_features": "", "sight_content": ""}}, {"title": "贡嘎曲德寺", "address": "山南市贡嘎县", "image": "", "rank": 56, "time": 2, "location": {"lat": 29.295585920340546, "lng": 90.9905823724984}, "feature": {"sight_features": "", "sight_content": ""}}, {"title": "亚桑寺", "address": "山南市乃东区", "image": "", "rank": 57, "time": 2, "location": {"lat": 29.234229154984693, "lng": 91.77868196564091}, "feature": {"sight_features": "", "sight_content": ""}}, {"title": "加若拉山口", "address": "西藏自治区山南市贡嘎县", "image": "", "rank": 58, "time": 0.25, "location": {"lat": 29.295585920340546, "lng": 90.9905823724984}, "feature": {"sight_features": "", "sight_content": ""}}, {"title": "桑日马鹿自然保护区", "address": "山南市桑日县增期乡", "image": "", "rank": 59, "time": 1.0, "location": {"lat": 29.6114594551692, "lng": 92.39905621879835}, "feature": {"sight_features": "", "sight_content": ""}}, {"title": "贡德林草原", "address": "山南市桑日县增期乡", "image": "", "rank": 60, "time": 4.0, "location": {"lat": 29.6114594551692, "lng": 92.39905621879835}, "feature": {"sight_features": "", "sight_content": ""}}]}