{"cityName": "上栗", "days": 2, "cityImage": "", "spots": [{"title": "孽龙洞水上乐园", "address": "萍乡市上栗县杨岐乡清溪村", "image": "", "rank": 1, "time": 1.0, "location": {"lat": 27.83342511212099, "lng": 113.8518782218655}, "feature": {"sight_features": "", "sight_content": "江西省萍乡市孽龙洞水上乐园位于上栗县杨岐乡，距萍乡市中心13公里。占地6万平方米，可同时接待10000名游客参与体验，是萍乡首家大型水上乐园。\n\n\n园区内有娱乐区、美食区以及各类精彩热辣的活动。娱乐区有海啸池、大型水寨、大喇叭、冲天回旋、儿童戏水池等十多种惊险刺激、新颖好玩的水上游乐设施；全国美食、中西餐点、各式风味小食品种丰富；更有千人比基尼大会、俄罗斯足球世界杯狂欢节、非洲风情泼水狂欢节等众多精彩刺激的活动。"}}, {"title": "毛家湾文化村", "address": "迎宾大道（高速入口）与319国道交叉路口左侧", "image": "", "rank": 2, "time": 2, "location": {"lat": 29.723846606462008, "lng": 107.36733566907118}, "feature": {"sight_features": "", "sight_content": ""}}, {"title": "山水美生态主题公园", "address": "萍乡市上栗县", "image": "", "rank": 3, "time": 2, "location": {"lat": 27.886415692068386, "lng": 113.80153822403567}, "feature": {"sight_features": "", "sight_content": ""}}, {"title": "金水湾", "address": "李畋大道西50米", "image": "", "rank": 4, "time": 2, "location": {"lat": 27.890879315954926, "lng": 113.80999639922317}, "feature": {"sight_features": "", "sight_content": ""}}, {"title": "孽龙洞农场 鲜果采摘园", "address": "孽龙洞出口前200m", "image": "", "rank": 5, "time": 2, "location": {"lat": 27.776471078359545, "lng": 113.87467156266464}, "feature": {"sight_features": "", "sight_content": ""}}, {"title": "栗都休闲广场", "address": "建设西路附近", "image": "", "rank": 6, "time": 2, "location": {"lat": 40.81103539442299, "lng": 114.88582245368022}, "feature": {"sight_features": "", "sight_content": ""}}, {"title": "上栗县彭高乐维松果园", "address": "彭高镇东山村中国石化加油站旁319国道边(高速桥)", "image": "", "rank": 7, "time": 2, "location": {"lat": 28.941021965251572, "lng": 118.87014828101871}, "feature": {"sight_features": "", "sight_content": ""}}, {"title": "均享葡萄主题公园", "address": "312省道西50米", "image": "", "rank": 8, "time": 2, "location": {"lat": 36.622905905946894, "lng": 114.42276087515805}, "feature": {"sight_features": "", "sight_content": ""}}, {"title": "中国红鱼文化村", "address": "江西省萍乡市上栗县S231", "image": "", "rank": 9, "time": 2, "location": {"lat": 27.886415692068386, "lng": 113.80153822403567}, "feature": {"sight_features": "", "sight_content": ""}}, {"title": "儿童乐园", "address": "萍乡市上栗县319国道旁毛家湾文化村内", "image": "", "rank": 10, "time": 2, "location": {"lat": 27.687280201081723, "lng": 113.87291811432671}, "feature": {"sight_features": "", "sight_content": ""}}, {"title": "白马庙", "address": "萍乡市上栗县", "image": "", "rank": 11, "time": 2, "location": {"lat": 27.886415692068386, "lng": 113.80153822403567}, "feature": {"sight_features": "", "sight_content": ""}}, {"title": "葛天师", "address": "萍乡市上栗县福田镇清溪村319国道旁孽龙洞内", "image": "", "rank": 12, "time": 2, "location": {"lat": 27.776471078359545, "lng": 113.87467156266464}, "feature": {"sight_features": "", "sight_content": ""}}, {"title": "开心玩国儿童乐园", "address": "栗都购物广场二楼", "image": "", "rank": 13, "time": 2, "location": {"lat": 39.02148006155678, "lng": 117.67265620848099}, "feature": {"sight_features": "", "sight_content": ""}}, {"title": "福主庙", "address": "江西省萍乡市上栗县", "image": "", "rank": 14, "time": 2, "location": {"lat": 27.886415692068386, "lng": 113.80153822403567}, "feature": {"sight_features": "", "sight_content": ""}}, {"title": "和天下农庄种养基地", "address": "江西省萍乡市上栗县金山镇高山村双峰寺", "image": "", "rank": 15, "time": 2, "location": {"lat": 27.943138210617057, "lng": 113.77672994265626}, "feature": {"sight_features": "", "sight_content": ""}}, {"title": "缪氏宗祠", "address": "江西省萍乡市上栗县金山镇金山村缪家湾", "image": "", "rank": 16, "time": 2, "location": {"lat": 27.908291904626772, "lng": 113.79799054608627}, "feature": {"sight_features": "", "sight_content": ""}}, {"title": "人口文化广场", "address": "滨河路与319国道交叉口东100米", "image": "", "rank": 17, "time": 2.5, "location": {"lat": 25.10698190969527, "lng": 117.0087724060029}, "feature": {"sight_features": "", "sight_content": ""}}, {"title": "地质博物馆", "address": "萍乡市上栗县杨岐山游客中心内", "image": "", "rank": 18, "time": 2, "location": {"lat": 27.845930262163098, "lng": 113.87387355386342}, "feature": {"sight_features": "", "sight_content": ""}}, {"title": "凤鸣度假村", "address": "319国道附近", "image": "", "rank": 19, "time": 2, "location": {"lat": 25.761668573925817, "lng": 116.38626783390552}, "feature": {"sight_features": "", "sight_content": ""}}, {"title": "枫林避暑山庄", "address": "北山下附近", "image": "", "rank": 20, "time": 7.5, "location": {"lat": 40.393397396762786, "lng": 117.06814331125406}, "feature": {"sight_features": "", "sight_content": ""}}, {"title": "法治文化广场", "address": "江西省萍乡市上栗县杨岐乡孽龙洞风景区西南300米", "image": "", "rank": 21, "time": 2, "location": {"lat": 27.754270486296395, "lng": 113.85893885735801}, "feature": {"sight_features": "", "sight_content": ""}}, {"title": "图书馆", "address": "滨河路", "image": "", "rank": 22, "time": 1.0, "location": {"lat": 39.008473205380874, "lng": 117.67714324450333}, "feature": {"sight_features": "", "sight_content": ""}}, {"title": "朱述萍书画艺术馆", "address": "浏万东路182号", "image": "", "rank": 23, "time": 2, "location": {"lat": 27.882552129103413, "lng": 113.80732289560255}, "feature": {"sight_features": "", "sight_content": ""}}, {"title": "石板滩水上乐园", "address": "上栗镇胜利路36号", "image": "", "rank": 24, "time": 2, "location": {"lat": 27.877461780893032, "lng": 113.81016395296345}, "feature": {"sight_features": "", "sight_content": "全市唯一一家冬夏设施齐备的大型水上乐园，经过全面的升级改造，石板滩水上乐园新增了大型水寨，漂流河，室内恒温游泳馆，本园地理位置优越，交通便利，院内设施功能完善、池水24小时循环过滤、水质清洁、环境怡人、安全管理到位，室温、水温可控，常年保持在28℃恒温，提供免费淋浴，全园WiFi覆盖，这个夏天将带给您前所未有、与众不同的运动享受！\n室内恒温游泳馆\n全市设备最先进的室内恒温游泳馆，馆内室温、恒温同步调控，池水24小时循环过滤，水质清洁，馆内配备有SPA功能按摩池，沙滩休闲躺椅，热水淋浴间，WiFi覆盖。室内恒温游泳馆将全年开放！冬天也可以游泳啦！！！！！\n大型水寨全新改造的大型水寨，有惊险刺激的大小滑滑梯，大水桶，魔法帽，跷跷板，彩虹圈，这个夏天将给您带来无限欢乐的美好时光。这个夏天我要在这里——石板滩水上乐园！\n漂流河\n整个漂流河环绕大型水寨，水流时急时缓，您可以悠闲惬意的躺在浮圈看着蓝天白云随波逐流。\n露天泳池\n看着蓝天白云倒映在碧蓝的池水中，而您在水中畅游，这何尝不是一种享受！"}}, {"title": "绿之源休闲农庄", "address": "151县道附近", "image": "", "rank": 25, "time": 2, "location": {"lat": 36.678165536866835, "lng": 114.78534114340337}, "feature": {"sight_features": "", "sight_content": ""}}, {"title": "老虎园", "address": "老虎园", "image": "", "rank": 26, "time": 1.5, "location": {"lat": 31.32037632153993, "lng": 116.81270492213342}, "feature": {"sight_features": "", "sight_content": ""}}, {"title": "经典画廊", "address": "朝阳东路52号附近", "image": "", "rank": 27, "time": 2, "location": {"lat": 27.828934872206624, "lng": 120.6995125074002}, "feature": {"sight_features": "", "sight_content": ""}}, {"title": "上栗县运德轩艺术家画廊", "address": "浏万东路178号附近", "image": "", "rank": 28, "time": 2, "location": {"lat": 27.882545527599373, "lng": 113.80776451247247}, "feature": {"sight_features": "", "sight_content": ""}}, {"title": "府前路步行街", "address": "江西省上栗县府前路", "image": "", "rank": 29, "time": 2, "location": {"lat": 27.887098668027534, "lng": 113.80959885861138}, "feature": {"sight_features": "", "sight_content": ""}}, {"title": "幕冲金丝皇菊基地", "address": "萍乡市赤山镇幕冲绿色生态旅游基地", "image": "", "rank": 30, "time": 2, "location": {"lat": 27.702800123908595, "lng": 113.93649372128193}, "feature": {"sight_features": "", "sight_content": ""}}]}