{"cityName": "上蔡", "days": 2, "cityImage": "", "spots": [{"title": "东方水岸温泉", "address": "驻马店市上蔡县化肥厂东800米路南东方水岸温泉酒店", "image": "", "rank": 1, "time": 1.5, "location": {"lat": 33.274240433880706, "lng": 114.30765026799}, "feature": {"sight_features": "", "sight_content": ""}}, {"title": "大王庄温泉水上游乐园", "address": "城石像往北7公里石桥乡大王庄", "image": "", "rank": 2, "time": 2, "location": {"lat": 33.28735016511132, "lng": 114.35624011158427}, "feature": {"sight_features": "", "sight_content": ""}}, {"title": "8090真人密室逃脱", "address": "二高手机卖场东300米路南3楼(英雄广场东边斜对面)", "image": "", "rank": 3, "time": 2, "location": {"lat": 39.77973510488937, "lng": 116.8001368096925}, "feature": {"sight_features": "", "sight_content": ""}}, {"title": "华鑫温泉", "address": "重阳街道秦相路中国福利彩票南20米", "image": "", "rank": 4, "time": 2, "location": {"lat": 33.27679200002793, "lng": 114.26115328848815}, "feature": {"sight_features": "", "sight_content": ""}}, {"title": "东岸衬元花木基地", "address": "012县道附近", "image": "", "rank": 5, "time": 2, "location": {"lat": 40.15507522393554, "lng": 116.62437778513727}, "feature": {"sight_features": "", "sight_content": ""}}, {"title": "永茂葡萄园", "address": "小张庄壳牌加油站北50米", "image": "", "rank": 6, "time": 2, "location": {"lat": 39.657049492931115, "lng": 116.42146322845619}, "feature": {"sight_features": "", "sight_content": ""}}, {"title": "上蔡吕彦伟种植专业合作社", "address": "腾飞路附近", "image": "", "rank": 7, "time": 2, "location": {"lat": 39.42058251676725, "lng": 117.1419649253008}, "feature": {"sight_features": "", "sight_content": ""}}, {"title": "豫合草莓园", "address": "206省道东50米", "image": "", "rank": 8, "time": 2, "location": {"lat": 40.08163878542396, "lng": 117.10479938713142}, "feature": {"sight_features": "", "sight_content": ""}}, {"title": "蔡国故城", "address": "河南上蔡县蔡都镇 463800", "image": "", "rank": 9, "time": 2, "location": {"lat": 33.28143062528702, "lng": 114.27881127989777}, "feature": {"sight_features": "", "sight_content": ""}}, {"title": "三合温泉度假村", "address": "驻马店市上蔡县", "image": "", "rank": 10, "time": 2, "location": {"lat": 33.268511215884224, "lng": 114.27048686239792}, "feature": {"sight_features": "", "sight_content": ""}}, {"title": "花千树中央公园", "address": "河南省驻马店市上蔡县通明路", "image": "", "rank": 11, "time": 2, "location": {"lat": 33.291536886807165, "lng": 114.27522614260745}, "feature": {"sight_features": "", "sight_content": ""}}, {"title": "糖果小镇儿童乐园", "address": "重阳大道上蔡嘉福百货3楼", "image": "", "rank": 12, "time": 2, "location": {"lat": 33.25818970701718, "lng": 114.28129601180278}, "feature": {"sight_features": "", "sight_content": ""}}, {"title": "洙湖镇教堂", "address": "012县道附近", "image": "", "rank": 13, "time": 2, "location": {"lat": 40.15507522393554, "lng": 116.62437778513727}, "feature": {"sight_features": "", "sight_content": ""}}, {"title": "蔡仲陵园", "address": "206省道附近", "image": "", "rank": 14, "time": 2, "location": {"lat": 40.08163878542396, "lng": 117.10435023437643}, "feature": {"sight_features": "", "sight_content": ""}}, {"title": "恒顺广场", "address": "重阳大道与012乡道交叉口南50米", "image": "", "rank": 15, "time": 2, "location": {"lat": 33.255266984625834, "lng": 114.28345731599538}, "feature": {"sight_features": "", "sight_content": ""}}, {"title": "上蔡县蔡都第一沙场", "address": "河南省驻马店市上蔡县中医院北", "image": "", "rank": 16, "time": 2, "location": {"lat": 33.268511215884224, "lng": 114.27048686239792}, "feature": {"sight_features": "", "sight_content": ""}}, {"title": "状元红生态温泉", "address": "驻马店市上蔡县331省道西(西上公路西段南侧)状元红酒文化产业园内", "image": "", "rank": 17, "time": 2, "location": {"lat": 33.27199940814815, "lng": 114.61523630525348}, "feature": {"sight_features": "特色1 状元红生态温泉位于上蔡县状元红生态温泉酒店，包含搓背、洗浴、桑拿、泡池、汗蒸房、儿童乐园、游泳、休息大厅等项目设施，环境优雅、设施完善，是您休闲的绝佳场所", "sight_content": "状元红生态温泉位于上蔡县状元红生态温泉酒店，包含多种娱乐设施\n搓背、洗浴、桑拿、泡池、汗蒸房、儿童乐园、游泳、休息大厅等项目设施，环境优雅。"}}, {"title": "诚鑫温泉", "address": "秦相路与昌盛路交汇处向西500米", "image": "", "rank": 18, "time": 2, "location": {"lat": 21.61293072722965, "lng": 110.28371057597545}, "feature": {"sight_features": "", "sight_content": ""}}, {"title": "上蔡正大二种鸡场(西南门)", "address": "331省道附近", "image": "", "rank": 19, "time": 2, "location": {"lat": 38.76243571351783, "lng": 115.64385441420583}, "feature": {"sight_features": "", "sight_content": ""}}, {"title": "多味草莓园", "address": "李斯楼南s206路西", "image": "", "rank": 20, "time": 2, "location": {"lat": 40.03579615738393, "lng": 123.16180335458151}, "feature": {"sight_features": "", "sight_content": ""}}, {"title": "李斯墓", "address": "河南省上蔡县芦岗乡李斯楼村", "image": "", "rank": 21, "time": 2, "location": {"lat": 33.23040104973657, "lng": 114.24362411408863}, "feature": {"sight_features": "", "sight_content": ""}}]}