{"cityName": "商水", "days": 2, "cityImage": "", "spots": [{"title": "叶氏庄园", "address": "河南省商水县邓城镇", "image": "", "rank": 1, "time": 1.0, "location": {"lat": 33.64286086018472, "lng": 114.45580632252964}, "feature": {"sight_features": "", "sight_content": ""}}, {"title": "白塔寺遗址", "address": "周口市商水县", "image": "", "rank": 2, "time": 2, "location": {"lat": 33.54887747535332, "lng": 114.61841594743659}, "feature": {"sight_features": "", "sight_content": ""}}, {"title": "双河生态温泉", "address": "周口市商水县206省道东", "image": "", "rank": 3, "time": 2, "location": {"lat": 33.473789745891565, "lng": 114.50009357108718}, "feature": {"sight_features": "", "sight_content": ""}}, {"title": "指南针水上乐园", "address": "城巴路大西环交叉口向西两公里路北", "image": "", "rank": 4, "time": 2, "location": {"lat": 39.63066079909864, "lng": 118.20639924927531}, "feature": {"sight_features": "", "sight_content": ""}}, {"title": "商水灯光广场", "address": "备战路与章华台路交叉口西南50米", "image": "", "rank": 5, "time": 1.0, "location": {"lat": 33.560659951119526, "lng": 114.62312998526131}, "feature": {"sight_features": "", "sight_content": ""}}, {"title": "金色港湾温泉", "address": "周口市商水县谭庄镇邮政局向东1000米路北", "image": "", "rank": 6, "time": 2, "location": {"lat": 33.59685993409697, "lng": 114.30934262077417}, "feature": {"sight_features": "", "sight_content": ""}}, {"title": "商水县睿智家庭农场", "address": "马营村(谭庄火车站)", "image": "", "rank": 7, "time": null, "location": {"lat": 33.070156586477694, "lng": 115.67609108029625}, "feature": {"sight_features": "", "sight_content": ""}}, {"title": "甜宝草莓采摘园", "address": "融辉城向南200米到韦八路向西3.9公里路北", "image": "", "rank": 8, "time": 2, "location": {"lat": 33.58885847141013, "lng": 114.62632864457207}, "feature": {"sight_features": "", "sight_content": ""}}, {"title": "商水县三合苗木种植基地", "address": "238省道附近", "image": "", "rank": 9, "time": 2, "location": {"lat": 32.02406130021086, "lng": 119.88529029655679}, "feature": {"sight_features": "", "sight_content": ""}}, {"title": "宏丰源蓝莓种植农民专业合作社", "address": "213省道附近", "image": "", "rank": 10, "time": 2, "location": {"lat": 39.999164912284996, "lng": 116.42332353742155}, "feature": {"sight_features": "", "sight_content": ""}}, {"title": "商水县东岳庙", "address": "河南省周口市商水县", "image": "", "rank": 11, "time": 2, "location": {"lat": 33.54887747535332, "lng": 114.61841594743659}, "feature": {"sight_features": "", "sight_content": ""}}, {"title": "周口市平店村基督教教堂", "address": "河南省周口市商水县Y004", "image": "", "rank": 12, "time": 1.0, "location": {"lat": 33.54887747535332, "lng": 114.61841594743659}, "feature": {"sight_features": "", "sight_content": ""}}, {"title": "常来家家惠", "address": "备战路与章华台路交叉口西南100米附近", "image": "", "rank": 13, "time": 2, "location": {"lat": 33.560659951119526, "lng": 114.62312998526131}, "feature": {"sight_features": "", "sight_content": ""}}, {"title": "周口圣寿寺塔", "address": "河南省周口市西华县滨河路", "image": "", "rank": 14, "time": 1.0, "location": {"lat": 33.746869732674, "lng": 114.27172197049106}, "feature": {"sight_features": "", "sight_content": ""}}, {"title": "儿童乐园(练集分店)", "address": "周口市商水县", "image": "", "rank": 15, "time": 2, "location": {"lat": 33.54887747535332, "lng": 114.61841594743659}, "feature": {"sight_features": "", "sight_content": ""}}, {"title": "基督教会", "address": "马口村附近", "image": "", "rank": 16, "time": 2, "location": {"lat": 31.914477142776008, "lng": 120.02939434197492}, "feature": {"sight_features": "", "sight_content": ""}}, {"title": "阳城公园", "address": "周口市商水县公园路133号", "image": "", "rank": 17, "time": 3.0, "location": {"lat": 33.56037114450187, "lng": 114.61707191512664}, "feature": {"sight_features": "", "sight_content": ""}}, {"title": "基督教会", "address": "漯河市召陵区", "image": "", "rank": 18, "time": 2, "location": {"lat": 33.592467538560506, "lng": 114.1004665547965}, "feature": {"sight_features": "", "sight_content": ""}}, {"title": "唯雅温泉", "address": "周漯路谭庄镇西段", "image": "", "rank": 19, "time": 2, "location": {"lat": 33.616476213789326, "lng": 114.63506217735033}, "feature": {"sight_features": "", "sight_content": ""}}, {"title": "绿苑葡萄采摘园", "address": "纬一路东段商水三中东666米路北", "image": "", "rank": 20, "time": 2, "location": {"lat": 33.56314406712424, "lng": 114.61633783711389}, "feature": {"sight_features": "", "sight_content": ""}}, {"title": "鼎盛草莓采摘园", "address": "周口西环城路与周漯路交叉口西一公里(周漯路238省道-交通路西段)", "image": "", "rank": 21, "time": 2, "location": {"lat": 33.616476213789326, "lng": 114.63506217735033}, "feature": {"sight_features": "", "sight_content": ""}}, {"title": "商水县团结家庭农场", "address": "城巴路舒庄路口西2公里", "image": "", "rank": 22, "time": 2, "location": {"lat": 37.59104037378743, "lng": 108.72425614078415}, "feature": {"sight_features": "", "sight_content": ""}}, {"title": "化河草莓采摘园", "address": "化河集西500米", "image": "", "rank": 23, "time": 2, "location": {"lat": 33.42715542257638, "lng": 119.26564259718242}, "feature": {"sight_features": "", "sight_content": ""}}, {"title": "指南针集团弘亿葡萄研究所", "address": "汤庄乡大赵村西580米路北", "image": "", "rank": 24, "time": 2, "location": {"lat": 39.63066079909864, "lng": 118.20639924927531}, "feature": {"sight_features": "", "sight_content": ""}}, {"title": "指南针生态园", "address": "章华台路一直向西电厂向南1公里", "image": "", "rank": 25, "time": 2, "location": {"lat": 24.562548073801292, "lng": 118.04362088495253}, "feature": {"sight_features": "", "sight_content": ""}}, {"title": "谭庄镇步行街", "address": "河南省商水县026县道附近", "image": "", "rank": 26, "time": 2, "location": {"lat": 33.41962654970996, "lng": 114.59250315720412}, "feature": {"sight_features": "", "sight_content": ""}}]}