{"cityName": "上思", "days": 2, "cityImage": "", "spots": [{"title": "十万大山国家森林公园", "address": "防城港市上思县红旗林场", "image": "", "rank": 1, "time": 3.0, "location": {"lat": 21.911689965763593, "lng": 107.91464795487072}, "feature": {"sight_features": "", "sight_content": ""}}, {"title": "百鸟乐园", "address": "防城港市上思县红旗林场十万大山森林公园", "image": "", "rank": 2, "time": 1.25, "location": {"lat": 21.911689965763593, "lng": 107.91464795487072}, "feature": {"sight_features": "特色1 五千多只珍稀鸟类", "sight_content": "圆百鸟之美、圆上思之美！上思百鸟乐园2016年已升为国家AAAA级旅游景区，位于防城港市上思县十万大山森林公园旁，是利用十万大山优越的自然生态环境，建立以各种珍稀鸟类（国家二类保护的野生动物）观赏为中心主题，以休闲度假、科普教育、康体培训、绿色环保为主要内容，并集“吃、住、玩、乐”为一体，具有参与性、趣味性、娱乐性特色的大型生态旅游度假景区。\n十万大山百鸟乐园景区，体现了人与动物和谐相处，景区分为鸟类观赏区、人类娱乐康体避暑养生休闲度假区、弘扬历史文化区三个主题，共分五个区域，是目前广西唯一的保护鸟类驯养、观赏基地。景区内环境幽雅，青山绿水，清早鸟鸣啾啾，让人感觉到了世外桃源，大自然的清新，让人心旷神怡，是都市人假日度假，解压，放松的好地方！\n\n\n公园各种珍稀鸟类数量达到五千多只、一百五十余个品种，百鸟乐园将成为国内、乃至亚洲最大的、以鸟类文化为主题的旅游生态景区。目前园区利用十万大山优越的自然生态环境，宣传和推广鸟类文化，其中包括珍稀鸟类的驯养、繁殖、展示、救护、科普教育等，已初步完成六十个品种、约八百多只鸟类的园区建设。目的是培养人们识鸟、爱鸟、护鸟的环保意识，在山秀林茂水清的十万大山更加富有灵气和活力，营造一个“人与自然”亲密相处、高度和谐的美好环境，让百鸟乐园旅游风景区成为名符其实的“小鸟天堂、人类乐园”。"}}, {"title": "十万大山温泉", "address": "团结路", "image": "", "rank": 3, "time": 2, "location": {"lat": 39.09559418426625, "lng": 117.10726754529976}, "feature": {"sight_features": "特色1 三面环山，一面临水，层林叠翠，云蒸雾绕，地下温泉资源丰富。", "sight_content": "布透温泉位于上思县城北郊，距县城中心不足5公里，交通便利，三面环山，一面临水，层林叠翠，云蒸雾绕，地下温泉资源丰富。\n温泉流量为800吨/日，水温42℃，含硫量为1.5毫克/升，水中富含锌、锰、铁等对人体有益矿物质。布透温泉度假山庄规划占地面积250亩，计划开发建设温泉展示区、温泉中心区，宾馆酒店、水上休闲娱乐、购物中心、停车场、会议中心等设施，打造一个集温泉度假、商务会议、养生保健、休闲娱乐为一体的度假山庄。"}}, {"title": "十万大山百鸟乐园", "address": "016乡道十万大山百鸟乐园景区(十万大山森林公园)", "image": "", "rank": 4, "time": 2, "location": {"lat": 21.915710647716363, "lng": 107.92111609948974}, "feature": {"sight_features": "", "sight_content": ""}}, {"title": "红树林", "address": "江滨路南50米", "image": "", "rank": 5, "time": null, "location": {"lat": 31.197081967246522, "lng": 121.47964700270349}, "feature": {"sight_features": "", "sight_content": ""}}, {"title": "广西昌菱农场林工商公司", "address": "016乡道东50米", "image": "", "rank": 6, "time": 2, "location": {"lat": 35.37720857982394, "lng": 113.08436330673442}, "feature": {"sight_features": "", "sight_content": ""}}, {"title": "黄南泽库和日石经墙", "address": "青海省泽库县和日寺 811500", "image": "", "rank": 7, "time": 3.5, "location": {"lat": 35.23434847488863, "lng": 101.00966499188296}, "feature": {"sight_features": "", "sight_content": ""}}, {"title": "豪饮天下啤酒广场", "address": "防城港市上思县", "image": "", "rank": 8, "time": 2, "location": {"lat": 22.159914083110326, "lng": 107.99044264125014}, "feature": {"sight_features": "", "sight_content": ""}}, {"title": "圣公关帝庙", "address": "广西壮族自治区防城港市上思县思阳镇江滨路百货大楼附近", "image": "", "rank": 9, "time": 2, "location": {"lat": 22.15611073323108, "lng": 107.98862074023576}, "feature": {"sight_features": "", "sight_content": ""}}, {"title": "城隍庙", "address": "广西壮族自治区防城港市上思县思阳镇朝阳路城市便捷商务宾馆", "image": "", "rank": 10, "time": 1.5, "location": {"lat": 22.160919760293357, "lng": 107.98718092179196}, "feature": {"sight_features": "", "sight_content": ""}}, {"title": "街心公园", "address": "防城港市上思县永泰街1号", "image": "", "rank": 11, "time": 2, "location": {"lat": 22.155581576964803, "lng": 107.98795310520809}, "feature": {"sight_features": "", "sight_content": ""}}, {"title": "三界庙", "address": "环城东路附近", "image": "", "rank": 12, "time": 2, "location": {"lat": 39.747552383033195, "lng": 117.33256211265966}, "feature": {"sight_features": "", "sight_content": ""}}, {"title": "上思县思阳天主堂", "address": "东靖路与朝阳路交叉口西南150米", "image": "", "rank": 13, "time": 2, "location": {"lat": 22.152423861347458, "lng": 107.98921135993888}, "feature": {"sight_features": "", "sight_content": ""}}, {"title": "驮康庙", "address": "江滨路东50米", "image": "", "rank": 14, "time": 2, "location": {"lat": 31.197468083274327, "lng": 121.48009615545847}, "feature": {"sight_features": "", "sight_content": ""}}, {"title": "明江公园", "address": "团结路与江滨路交叉口处", "image": "", "rank": 15, "time": 2, "location": {"lat": 22.166691391261832, "lng": 107.99827231159797}, "feature": {"sight_features": "", "sight_content": ""}}, {"title": "那琴乡图书馆", "address": "311省道", "image": "", "rank": 16, "time": 2, "location": {"lat": 40.42605053578163, "lng": 117.19514906888342}, "feature": {"sight_features": "", "sight_content": ""}}, {"title": "斯贝斯(上思县店)", "address": "江滨路西50米", "image": "", "rank": 17, "time": 2, "location": {"lat": 31.197468083274327, "lng": 121.47919784994849}, "feature": {"sight_features": "", "sight_content": ""}}, {"title": "上思县图书馆", "address": "思阳镇更生路50号", "image": "", "rank": 18, "time": 2, "location": {"lat": 22.155000524383187, "lng": 107.99009774852767}, "feature": {"sight_features": "", "sight_content": ""}}, {"title": "龙囚", "address": "防城港市-上思县", "image": "", "rank": 19, "time": 2, "location": {"lat": 22.159914083110326, "lng": 107.99044264125014}, "feature": {"sight_features": "", "sight_content": ""}}, {"title": "在妙镇", "address": "防城港市-上思县-在妙镇政府(551县道西)", "image": "", "rank": 20, "time": 2, "location": {"lat": 22.133690623636383, "lng": 107.67483599800606}, "feature": {"sight_features": "", "sight_content": ""}}, {"title": "在妙村果场", "address": "防城港市-上思县-在妙镇六桥", "image": "", "rank": 21, "time": 2, "location": {"lat": 22.157788616738017, "lng": 107.68001075516581}, "feature": {"sight_features": "", "sight_content": ""}}, {"title": "在妙村", "address": "防城港市-上思县", "image": "", "rank": 22, "time": 2, "location": {"lat": 22.159914083110326, "lng": 107.99044264125014}, "feature": {"sight_features": "", "sight_content": ""}}]}