{"cityName": "山丹", "days": 2, "cityImage": "", "spots": [{"title": "山丹军马场", "address": "大马营草原", "image": "", "rank": 1, "time": 4.5, "location": {"lat": 32.60007036810312, "lng": 118.74708452440674}, "feature": {"sight_features": "", "sight_content": ""}}, {"title": "山丹大佛寺", "address": "张掖市山丹县清泉镇清泉村", "image": "", "rank": 2, "time": 2.5, "location": {"lat": 38.799045461517146, "lng": 101.04040779477471}, "feature": {"sight_features": "特色1 被佛教界誉为“天下第一佛”", "sight_content": "山丹大佛寺又名土佛寺，始建于北魏（公元425年），距今近1600年的历史。明英宗朱祁镇曾为该寺题写 “土佛” 匾额，土佛寺由此得名。该寺在历史上屡遭战火，又屡次重建，现为1992-1998年重建，占地面积10000平方米。\n寺院分前庭后院，主体建筑大雄宝殿重楼七层，通高39米，全木质楼阁。内设高35米、讲经说法状、泥胎贴金坐佛1尊, 是世界上最大的室内泥胎贴金坐佛，被佛教界誉为“天下第一佛”。每年农历四月初四为传统庙会。"}}, {"title": "焉支山森林公园", "address": "张掖市山丹县城东南45公里处的大黄山林区", "image": "", "rank": 3, "time": 3.0, "location": {"lat": 38.507663384945374, "lng": 101.29687602738284}, "feature": {"sight_features": "", "sight_content": "焉支山森林公园位于山丹县城南50公里处的大黄山林区，是以自然风光为依托的游览区，被评为省级森林公园。"}}, {"title": "艾黎博物馆", "address": "甘肃省张掖市山丹县文化路文化街3号", "image": "", "rank": 4, "time": 1.0, "location": {"lat": 38.78754962389843, "lng": 101.09861324786988}, "feature": {"sight_features": "", "sight_content": ""}}, {"title": "汉明长城遗址", "address": "山丹县", "image": "", "rank": 5, "time": 2, "location": {"lat": 38.79045266330607, "lng": 101.09561558172206}, "feature": {"sight_features": "", "sight_content": ""}}, {"title": "南湖公园", "address": "甘肃省张掖市山丹县", "image": "", "rank": 6, "time": 2.5, "location": {"lat": 38.79045266330607, "lng": 101.09561558172206}, "feature": {"sight_features": "", "sight_content": ""}}, {"title": "山丹县博物馆", "address": "甘肃省张掖市山丹县文化路", "image": "", "rank": 7, "time": 2, "location": {"lat": 38.785020529619096, "lng": 101.09854169334449}, "feature": {"sight_features": "", "sight_content": ""}}, {"title": "新河驿遗址", "address": "甘肃省张掖市山丹县", "image": "", "rank": 8, "time": 1.0, "location": {"lat": 38.79045266330607, "lng": 101.09561558172206}, "feature": {"sight_features": "", "sight_content": ""}}, {"title": "龙首山自然保护区", "address": "甘肃省张掖市山丹县", "image": "", "rank": 9, "time": 1.0, "location": {"lat": 38.79045266330607, "lng": 101.09561558172206}, "feature": {"sight_features": "", "sight_content": ""}}, {"title": "艾黎何克陵园", "address": "甘肃省张掖市山丹县", "image": "", "rank": 10, "time": 2, "location": {"lat": 38.79045266330607, "lng": 101.09561558172206}, "feature": {"sight_features": "", "sight_content": ""}}, {"title": "南湖生态示范园", "address": "甘肃省张掖市山丹县", "image": "", "rank": 11, "time": 2, "location": {"lat": 38.79045266330607, "lng": 101.09561558172206}, "feature": {"sight_features": "", "sight_content": ""}}, {"title": "万航温泉水世界", "address": "张掖市山丹县南大街南湖公园内东南角", "image": "", "rank": 12, "time": 2, "location": {"lat": 38.780358390151925, "lng": 101.09713522359397}, "feature": {"sight_features": "", "sight_content": ""}}, {"title": "焉支湖农家乐", "address": "李桥乡史家庄", "image": "", "rank": 13, "time": 2, "location": {"lat": 38.52371046215879, "lng": 101.1384558370692}, "feature": {"sight_features": "", "sight_content": ""}}, {"title": "大马营草原", "address": "甘肃省山丹县大马营乡 734100", "image": "", "rank": 14, "time": 2, "location": {"lat": 38.347208987454316, "lng": 101.20021247869286}, "feature": {"sight_features": "", "sight_content": ""}}, {"title": "天主堂", "address": "双拥路南段", "image": "", "rank": 15, "time": 0.4, "location": {"lat": 34.292170230463334, "lng": 108.83807809186759}, "feature": {"sight_features": "", "sight_content": ""}}, {"title": "龙首广场", "address": "北环路3号", "image": "", "rank": 16, "time": 2, "location": {"lat": 40.235666144688395, "lng": 116.2444762813536}, "feature": {"sight_features": "", "sight_content": ""}}, {"title": "金海源文化购物广场", "address": "南大街与隍庙步行街交叉口东100米", "image": "", "rank": 17, "time": 2, "location": {"lat": 38.785155540695534, "lng": 101.09609032809934}, "feature": {"sight_features": "", "sight_content": ""}}, {"title": "龙王庙滩", "address": "甘肃省张掖市山丹县", "image": "", "rank": 18, "time": 2, "location": {"lat": 38.79045266330607, "lng": 101.09561558172206}, "feature": {"sight_features": "", "sight_content": ""}}, {"title": "天府怡乐园", "address": "青年街1号", "image": "", "rank": 19, "time": 2, "location": {"lat": 39.65961234306827, "lng": 122.01051999961378}, "feature": {"sight_features": "", "sight_content": ""}}, {"title": "十里林海休闲生态园", "address": "西大地十里铺林场", "image": "", "rank": 20, "time": 2, "location": {"lat": 39.81274645532653, "lng": 115.86749059371289}, "feature": {"sight_features": "", "sight_content": ""}}, {"title": "国玺农庄", "address": "红寺湖四社马莲湖村(山阿路26公里处)", "image": "", "rank": 21, "time": 2, "location": {"lat": 38.97158578621864, "lng": 101.15408840736752}, "feature": {"sight_features": "", "sight_content": ""}}, {"title": "高兴书吧", "address": "北大街城关小学对面", "image": "", "rank": 22, "time": 2, "location": {"lat": 39.70606101664048, "lng": 115.99551929045361}, "feature": {"sight_features": "", "sight_content": ""}}, {"title": "马场人家", "address": "X211刘庄村西南侧", "image": "", "rank": 23, "time": 2, "location": {"lat": 39.94723424617327, "lng": 116.68323556523615}, "feature": {"sight_features": "", "sight_content": ""}}, {"title": "佛山滑雪场", "address": "清泉镇大佛寺景区内", "image": "", "rank": 24, "time": 2, "location": {"lat": 29.22604360962734, "lng": 119.75679252755657}, "feature": {"sight_features": "", "sight_content": ""}}, {"title": "军马一场农站", "address": "张掖市-山丹县-军马一场农站", "image": "", "rank": 25, "time": 2, "location": {"lat": 38.12435753046331, "lng": 101.32158972259008}, "feature": {"sight_features": "", "sight_content": ""}}, {"title": "山丹军马总场", "address": "张掖市-山丹县-中牧公司山丹马场", "image": "", "rank": 26, "time": 2, "location": {"lat": 38.13874749663826, "lng": 101.18395926193126}, "feature": {"sight_features": "", "sight_content": ""}}]}