{"cityName": "汕尾", "days": "", "cityImage": "", "spots": [{"title": "凤山祖庙旅游区", "address": "汕尾市城区凤山路", "image": "", "rank": 1, "time": 2.5, "location": {"lat": 22.770227658597346, "lng": 115.37892390032262}, "feature": {"sight_features": "", "sight_content": ""}}, {"title": "红海湾遮浪角", "address": "汕尾市城区遮浪半岛的东南端", "image": "", "rank": 2, "time": 1.0, "location": {"lat": 22.67238305004813, "lng": 115.57457501999228}, "feature": {"sight_features": "", "sight_content": ""}}, {"title": "汕尾莲花山温泉度假区", "address": "汕尾市海丰县莲花镇莲花山度假村", "image": "", "rank": 3, "time": 4.5, "location": {"lat": 23.04539798665135, "lng": 115.26816666404854}, "feature": {"sight_features": "", "sight_content": ""}}, {"title": "玄武山（元山寺）", "address": "汕尾市陆丰市碣石镇玄武山", "image": "", "rank": 4, "time": 1.5, "location": {"lat": 22.82345492674826, "lng": 115.84020166223783}, "feature": {"sight_features": "", "sight_content": ""}}, {"title": "红海湾旅游区", "address": "汕尾市遮浪镇红海湾旅游区", "image": "", "rank": 5, "time": 4.5, "location": {"lat": 22.676574848810272, "lng": 115.57101434446048}, "feature": {"sight_features": "", "sight_content": ""}}, {"title": "红宫红场", "address": "汕尾市海丰县海丰红宫红场旧址", "image": "", "rank": 6, "time": 2, "location": {"lat": 22.97360704173767, "lng": 115.34260728692301}, "feature": {"sight_features": "", "sight_content": ""}}, {"title": "龟龄岛", "address": "汕尾市城区", "image": "", "rank": 7, "time": 1.0, "location": {"lat": 22.784551839489296, "lng": 115.37153074806264}, "feature": {"sight_features": "", "sight_content": ""}}, {"title": "风车岛", "address": "汕尾市城区遮浪半岛红海湾附近", "image": "", "rank": 8, "time": 3.0, "location": {"lat": 22.67238305004813, "lng": 115.57457501999228}, "feature": {"sight_features": "", "sight_content": ""}}, {"title": "彭湃故居", "address": "汕尾市海丰县龙津东二路城东镇桥东 ‎", "image": "", "rank": 9, "time": 1.0, "location": {"lat": 22.976339770480593, "lng": 115.35385001695316}, "feature": {"sight_features": "", "sight_content": ""}}, {"title": "水底山温泉", "address": "汕尾市海丰县赤石镇明热公路88号", "image": "", "rank": 10, "time": 2, "location": {"lat": 22.903677311267238, "lng": 115.01333232438276}, "feature": {"sight_features": "特色1 68个风格迥异的温泉池，五行养生健康池、女神安神静泡池等。 特色2 配备有独树一帜的沙滩冲浪、无边际泳池、热带雨林漂流等大型特色项目。", "sight_content": "水底山温泉全新打造项目：摩洛哥网红清吧，百米无边泳池\n摩洛哥网红清吧主打西餐和下午茶。整体装修摩洛哥风格，在这里用餐别有一番异域风味。菜品出品都非常不错，味道和卖相不输很多知名的西餐厅。虽说是清吧，但酒类仅限于啤酒哦，喝啤酒，吃小吃，吹吹晚风聊聊天，泡完温泉就应该招辆小车车来这里吃个宵夜。店里有一位常客大熊先生，不定期出现，还会陪小姐姐和小朋友们吃饭、喝下午茶！庭院里巴厘岛同款的鸟巢，出片率非常高。小仙女随便凹造型，一拍就是大片了。在鸟巢里仰望星空，或者聆听早起的鸟鸣，不用去巴厘岛打卡了，深圳周边就可以！\n108m长的无边泳池，全是温泉水。早晚人少的时候，相当于“包场”了，整个泳池都是你的。四舍五入坐拥整个温泉庄园，蓝天白云温泉泳池，外面是热闹繁华，此处拥有的便是静谧舒心。海浪池：海浪、沙滩、躺椅、天气好的时候还能日光浴一下。最高有1.8米高的人造浪，层层浪叠之间让您感受到有种乘风破浪的冲动，并能享受无限的动感和刺激。\n水底山温泉简介\n水底山温泉庄园坐落于广东东南沿海地区——美丽的海丰，地处深汕特别合作区核心。总占地三千余亩，立于百万亩原生态森林环抱之中，集温泉养生、旅游度假、休闲娱乐于一体。\n\n\n这里拥有广东最大的天然温泉，日涌泉量约数千立方米，出水口温度高达73℃，医疗级复合型偏硅酸温泉水，具有软化角质、预防疾病、增强免疫力等功效。68个风格迥异的温泉池，既有五行养生健康池、女神安神静泡池、私享VIP泡池……还有儿童戏水池、鱼疗池等特色项目，是完美度假的最佳体验。\n\n\n园区还配备有独树一帜的沙滩冲浪、无边际泳池、热带雨林漂流等大型特色项目。数百米外，还拥有九龙潭、大峡谷、瀑布、河流等珍贵自然资源。上百栋东南亚风情别墅群，配套完善，拥有独立泳池、温泉池、浴池……尽享奢华。数十套豪华客房时尚简约，让您尽享度假轻松体验。\n现代化庄园餐厅，提供精雕细琢的潮汕美食。以独特的地理位置，取材新鲜。用星级大厨的精湛技艺，将海鲜美食、创意潮汕菜与潮汕小吃构成庄园美食品牌，带给您非凡的味蕾享受。庄园提供中西式婚礼服务。传统豪华中式婚宴厅、西式浪漫草坪或无边际泳池，皆是举行婚礼的最佳场所。个性化婚宴菜单和专业的贴心服务，为婚礼的每个细节尽善尽美。度假与商务兼备。会议设备高端完善，有国际宴会厅、多功能厅、中小型会议室等。多媒体功能配备齐全，可灵活规划场地组合，满足不同的会议需求。依山傍水，交通便利。水底山距深圳、东莞120公里，广州200公里，深汕高速、潮莞高速、广汕高速等多条路线无缝衔接，是珠三角未来的度假枢纽中心，也将成为广东未来最具综合性的温泉旅游度假目的地。"}}, {"title": "海丽国际高尔夫会所", "address": "汕尾市海丰县鱼后门镇", "image": "", "rank": 11, "time": 2, "location": {"lat": 22.81782611482477, "lng": 115.16632642956883}, "feature": {"sight_features": "", "sight_content": ""}}, {"title": "汕尾港", "address": "汕尾市城区", "image": "", "rank": 12, "time": 1.0, "location": {"lat": 22.784551839489296, "lng": 115.37153074806264}, "feature": {"sight_features": "", "sight_content": ""}}, {"title": "南方澳渔港度假村", "address": "汕尾市海丰县小漠镇南方澳天然海湾", "image": "", "rank": 13, "time": 2, "location": {"lat": 22.758728117259565, "lng": 115.0286924323267}, "feature": {"sight_features": "", "sight_content": ""}}, {"title": "海丰烈士陵园", "address": "海丰县城西郊", "image": "", "rank": 14, "time": 1.0, "location": {"lat": 22.972744260965804, "lng": 115.32944477561186}, "feature": {"sight_features": "", "sight_content": ""}}, {"title": "莲花山养生温泉", "address": "汕尾市海丰县莲花镇莲花山度假村", "image": "", "rank": 15, "time": 2, "location": {"lat": 23.04539798665135, "lng": 115.26816666404854}, "feature": {"sight_features": "特色1 风景俊秀，泉水宗宗", "sight_content": "这里风景俊秀，泉水宗宗。奇花异草，珍禽走兽，古木参天，怪石林立，气候宜人，自古以来就为广东省旅游胜地之一，有“世外桃源”之美称。摄秀峰灵气，同山水相携；沐日月光辉，与自然共荣。莲花山度假村充分显示“天人合一”，人与自然和谐的旅游、度假、养生的文化理念和文化品位。莲花山度假村是一家集饮食、娱乐、住房、运动、旅游、度假、会议等多功能于一体的标准四星级度假型酒店。\n\n\n莲花山度假村投资开发的“龙须胜景”景区，修建游览步行道、悬崖栈道、铁索桥，贯通了两道大峡谷，沿途可观赏粤东第一瀑布群“莲花十八瀑”和“雄、奇、险、秀、幽”的峡谷风光。莲花山龙喷须是宋代著名道教大师白玉蟾晚年隐居之所，现建有玉蟾宫、龙泉仙馆、仙人洞等景点，将历史人文与自然生态和谐融合，逐渐打造为中国传统养生文化为主题的休闲度假与养生胜地。莲花山度假村位于广东省汕尾市海丰莲花山省级森林公园，莲花山度假村是由美籍华人、知名书画家蔡阳山先生满怀“报效祖国，建设家乡”的赤子之情，呕心沥血数年，亲自规划、设计，独自建造的一处与森林公园景区同时开发并融为一体的度假胜地。"}}, {"title": "马宫南湖海", "address": "汕尾市城区马宫新环海公路1号马宫南湖度假村内", "image": "", "rank": 16, "time": 2, "location": {"lat": 22.79113230267311, "lng": 115.25219270262778}, "feature": {"sight_features": "", "sight_content": ""}}, {"title": "清云山定光寺", "address": "汕尾市陆丰市河西镇清云山", "image": "", "rank": 17, "time": 1.0, "location": {"lat": 23.00949349560557, "lng": 115.56892690793066}, "feature": {"sight_features": "", "sight_content": ""}}, {"title": "元升樱花生态园", "address": "汕尾市陆河县新田镇联新新寨村元升樱花生态园", "image": "", "rank": 18, "time": 2.0, "location": {"lat": 23.191660497244346, "lng": 115.56629946672167}, "feature": {"sight_features": "", "sight_content": ""}}, {"title": "华帝山", "address": "汕尾市海丰县梅陇镇", "image": "", "rank": 19, "time": 1.0, "location": {"lat": 22.894530222937345, "lng": 115.2081908475419}, "feature": {"sight_features": "", "sight_content": ""}}, {"title": "凤山公园(凤山妈祖)", "address": "广东汕尾市城区东南面", "image": "", "rank": 20, "time": 7.5, "location": {"lat": 22.784551839489296, "lng": 115.37153074806264}, "feature": {"sight_features": "", "sight_content": ""}}, {"title": "金厢滩", "address": "汕尾市陆丰县金厢镇", "image": "", "rank": 21, "time": 1.0, "location": {"lat": 22.87583824539219, "lng": 115.74511710200468}, "feature": {"sight_features": "", "sight_content": ""}}, {"title": "方饭亭", "address": "", "image": "", "rank": 22, "time": 1.0, "location": {"lat": 22.98253498164263, "lng": 115.33692442660768}, "feature": {"sight_features": "", "sight_content": ""}}, {"title": "甲子镇", "address": "汕尾市陆丰市甲子镇", "image": "", "rank": 23, "time": 1.0, "location": {"lat": 22.876286182256507, "lng": 116.08998744858323}, "feature": {"sight_features": "", "sight_content": ""}}, {"title": "羊蹄岭", "address": "汕尾市海丰县赤石镇和梅陇镇的交界处", "image": "", "rank": 24, "time": 1.0, "location": {"lat": 22.880782261496332, "lng": 115.07984193547165}, "feature": {"sight_features": "", "sight_content": ""}}, {"title": "清峰寺", "address": "", "image": "", "rank": 25, "time": 1.0, "location": {"lat": 28.66515424308329, "lng": 105.14705222285359}, "feature": {"sight_features": "", "sight_content": ""}}, {"title": "宋溪", "address": "", "image": "", "rank": 26, "time": 1.0, "location": {"lat": 28.834860245304657, "lng": 105.24510295643901}, "feature": {"sight_features": "", "sight_content": ""}}, {"title": "青铜时代遗址", "address": "广东省汕尾(海丰县后门镇东南两公里处)", "image": "", "rank": 27, "time": 1.0, "location": {"lat": 22.81782611482477, "lng": 115.16632642956883}, "feature": {"sight_features": "", "sight_content": ""}}, {"title": "观音岭", "address": "汕尾市陆丰市碣石镇北", "image": "", "rank": 28, "time": 7.5, "location": {"lat": 22.82706424186192, "lng": 115.87271487166876}, "feature": {"sight_features": "", "sight_content": ""}}, {"title": "张威纪念亭", "address": "汕尾市陆丰市龙山中学内", "image": "", "rank": 29, "time": 1.0, "location": {"lat": 22.950417558688642, "lng": 115.65618001198463}, "feature": {"sight_features": "", "sight_content": ""}}, {"title": "安美祖庙", "address": "广东省汕尾市三马路 ‎ 北 109 米", "image": "", "rank": 31, "time": 2, "location": {"lat": 22.774003575407374, "lng": 115.37330452685086}, "feature": {"sight_features": "", "sight_content": ""}}, {"title": "南海观音庙", "address": "广东省汕尾市241省道北 0.1 米红海湾遮浪旅游区内", "image": "", "rank": 32, "time": 2, "location": {"lat": 22.664844091332522, "lng": 115.57699737086698}, "feature": {"sight_features": "", "sight_content": ""}}, {"title": "待渡山（甲秀楼）", "address": "汕尾市陆丰市甲子镇东隅嬴江岸边 ‎", "image": "", "rank": 33, "time": 1.0, "location": {"lat": 22.876286182256507, "lng": 116.08998744858323}, "feature": {"sight_features": "", "sight_content": ""}}, {"title": "召贡峡漂流", "address": "汕尾市海丰县莲花森林公园召贡山召贡休闲山庄", "image": "", "rank": 34, "time": 2, "location": {"lat": 22.972744260965804, "lng": 115.32944477561186}, "feature": {"sight_features": "", "sight_content": ""}}, {"title": "陈炯明将军府", "address": "广东省汕尾市城区海城镇博约街东侧", "image": "", "rank": 35, "time": 2, "location": {"lat": 22.784551839489296, "lng": 115.37153074806264}, "feature": {"sight_features": "", "sight_content": ""}}, {"title": "汕尾仙桥夜月", "address": "广东省汕尾市东海镇陆丰县城", "image": "", "rank": 36, "time": 4.5, "location": {"lat": 22.9472928958685, "lng": 115.64673153761682}, "feature": {"sight_features": "", "sight_content": ""}}, {"title": "黎明洞", "address": "广东省汕尾市城区捷胜镇", "image": "", "rank": 37, "time": 2, "location": {"lat": 22.716765996010427, "lng": 115.44581342547258}, "feature": {"sight_features": "", "sight_content": ""}}, {"title": "深汕特别合作区小漠大围黄金沙滩", "address": "广东省汕尾市海丰县小漠镇大围村", "image": "", "rank": 38, "time": 2, "location": {"lat": 22.758728117259565, "lng": 115.0286924323267}, "feature": {"sight_features": "", "sight_content": ""}}, {"title": "红场红宫", "address": "汕尾市海丰县人民南路1号", "image": "", "rank": 39, "time": 2, "location": {"lat": 22.973338359159772, "lng": 115.34309785156186}, "feature": {"sight_features": "", "sight_content": ""}}, {"title": "大湖镇", "address": "广东省汕尾市东南部(濒临碣石湾)", "image": "", "rank": 40, "time": 2, "location": {"lat": 22.77873050016389, "lng": 115.3729242893998}, "feature": {"sight_features": "", "sight_content": ""}}, {"title": "汕尾御水湾温泉度假村（陆河县）", "address": "陆河县河田镇黄金坑温泉度假区（陆五公路旁）", "image": "", "rank": 41, "time": 2, "location": {"lat": 23.349895278027486, "lng": 115.63495908042083}, "feature": {"sight_features": "", "sight_content": ""}}, {"title": "商贤家庙", "address": "广东省汕尾市城区海陆丰地区", "image": "", "rank": 42, "time": 2, "location": {"lat": 22.784551839489296, "lng": 115.37153074806264}, "feature": {"sight_features": "", "sight_content": ""}}, {"title": "云台禅寺", "address": "深汕区鹅埠镇圆墩乡", "image": "", "rank": 43, "time": 2, "location": {"lat": 22.838412856126464, "lng": 115.05978776352758}, "feature": {"sight_features": "", "sight_content": ""}}, {"title": "白水石祭瀑布", "address": "广东省陆河县螺溪镇南和村 510000", "image": "", "rank": 44, "time": 3.0, "location": {"lat": 23.424688578071898, "lng": 115.61973223070943}, "feature": {"sight_features": "", "sight_content": ""}}, {"title": "福山妈祖", "address": "陆丰市城东镇霞湖附近", "image": "", "rank": 45, "time": 2, "location": {"lat": 22.95248898175495, "lng": 115.66723251684003}, "feature": {"sight_features": "", "sight_content": ""}}, {"title": "华山寺", "address": "陆丰市南塘镇", "image": "", "rank": 46, "time": 2, "location": {"lat": 22.915632655620698, "lng": 115.91943540615932}, "feature": {"sight_features": "", "sight_content": ""}}, {"title": "新街", "address": "梅陇镇新街", "image": "", "rank": 47, "time": 1.5, "location": {"lat": 45.622691380487936, "lng": 122.84417736821842}, "feature": {"sight_features": "", "sight_content": ""}}, {"title": "红二师四师纪念亭", "address": "广东省海丰县境内 516400", "image": "", "rank": 48, "time": 2, "location": {"lat": 22.972744260965804, "lng": 115.32944477561186}, "feature": {"sight_features": "", "sight_content": ""}}, {"title": "渔家渡假俱乐部", "address": "红海湾遮浪镇绿之岛码头(妈祖路)", "image": "", "rank": 49, "time": 2, "location": {"lat": 22.66874222563191, "lng": 115.57360106907393}, "feature": {"sight_features": "", "sight_content": ""}}, {"title": "金屿岛", "address": "金屿岛", "image": "", "rank": 50, "time": 2, "location": {"lat": 22.709206842830827, "lng": 115.62695661382178}, "feature": {"sight_features": "", "sight_content": ""}}, {"title": "宇宙城", "address": "汕尾大道中段英豪酒店3楼(市政府对面)", "image": "", "rank": 51, "time": 2, "location": {"lat": 22.783930582059646, "lng": 115.37129000218604}, "feature": {"sight_features": "", "sight_content": ""}}, {"title": "寮湾海滨温泉", "address": "寮湾海滨温泉度假区", "image": "", "rank": 52, "time": 2, "location": {"lat": 34.61201118507224, "lng": 118.68457877054712}, "feature": {"sight_features": "", "sight_content": ""}}, {"title": "园林西区", "address": "四马路372号附近", "image": "", "rank": 53, "time": 2, "location": {"lat": 22.779700222518223, "lng": 115.37085738094748}, "feature": {"sight_features": "", "sight_content": ""}}, {"title": "施公寮海滩", "address": "013乡道施公寮", "image": "", "rank": 54, "time": 2, "location": {"lat": 40.115696897150926, "lng": 116.62995365726826}, "feature": {"sight_features": "", "sight_content": ""}}, {"title": "一号农场", "address": "125县道西100米", "image": "", "rank": 55, "time": 2, "location": {"lat": 22.526267027237505, "lng": 113.3829636090835}, "feature": {"sight_features": "", "sight_content": ""}}, {"title": "宝山楼遗址", "address": "广东省汕尾市城区东冲镇山楼村 510000", "image": "", "rank": 56, "time": 2, "location": {"lat": 22.784551839489296, "lng": 115.37153074806264}, "feature": {"sight_features": "", "sight_content": ""}}, {"title": "汕尾渔家风情馆", "address": "广东省汕尾市城区凤仪台东北侧 516600", "image": "", "rank": 57, "time": 4.5, "location": {"lat": 27.072976120672745, "lng": 115.25321762429904}, "feature": {"sight_features": "", "sight_content": ""}}, {"title": "埔边影剧院", "address": "西河路与242省道交叉口西北150米", "image": "", "rank": 58, "time": 2, "location": {"lat": 22.841494601605532, "lng": 115.36110896686152}, "feature": {"sight_features": "", "sight_content": ""}}, {"title": "汕尾小漠黄金沙滩度假村", "address": "汕尾汕尾海丰小漠大围通海中心路（海丰华城能源有限公司左侧）", "image": "", "rank": 59, "time": 4.5, "location": {"lat": 22.779570445589368, "lng": 115.04383159304746}, "feature": {"sight_features": "", "sight_content": ""}}, {"title": "鲘门镇", "address": "汕尾市海丰县", "image": "", "rank": 60, "time": 2, "location": {"lat": 22.972744260965804, "lng": 115.32944477561186}, "feature": {"sight_features": "", "sight_content": ""}}]}