{"cityName": "单县", "days": 2, "cityImage": "", "spots": [{"title": "浮龙湖", "address": "菏泽市单县浮龙湖生态旅游经济开发区", "image": "", "rank": 1, "time": 2, "location": {"lat": 34.62355416522682, "lng": 115.99030605617226}, "feature": {"sight_features": "", "sight_content": ""}}, {"title": "百寿坊", "address": "菏泽市单县城内胜利北街", "image": "", "rank": 2, "time": 2, "location": {"lat": 34.78465843369218, "lng": 116.11158367798839}, "feature": {"sight_features": "", "sight_content": ""}}, {"title": "百狮坊", "address": "菏泽市单县成武县牌坊街", "image": "", "rank": 3, "time": 2, "location": {"lat": 35.08689552743187, "lng": 116.07878106415549}, "feature": {"sight_features": "", "sight_content": ""}}, {"title": "湖西革命烈士陵园", "address": "单县县城东南部", "image": "", "rank": 4, "time": 2, "location": {"lat": 36.605707645661155, "lng": 101.8095690383313}, "feature": {"sight_features": "", "sight_content": ""}}, {"title": "栖霞晚照", "address": "古单城护城堤西南角(近银行家属院)", "image": "", "rank": 5, "time": 2.5, "location": {"lat": 34.774234238066754, "lng": 113.6218317785804}, "feature": {"sight_features": "", "sight_content": ""}}, {"title": "老君寨农家乐院", "address": "浮岗镇浮龙湖旅游度假区老君庙西侧", "image": "", "rank": 6, "time": null, "location": {"lat": 34.62355416522682, "lng": 115.99030605617226}, "feature": {"sight_features": "", "sight_content": ""}}, {"title": "阳光农场采摘园", "address": "105收费站北3公里路西", "image": "", "rank": 7, "time": 2, "location": {"lat": 41.839673289957126, "lng": 126.94625589082995}, "feature": {"sight_features": "", "sight_content": ""}}, {"title": "雅波水上乐园", "address": "白云北路", "image": "", "rank": 8, "time": 2, "location": {"lat": 29.87840905996291, "lng": 121.92326333794568}, "feature": {"sight_features": "", "sight_content": ""}}, {"title": "赛江北生态园", "address": "阳光水岸.太和园旁", "image": "", "rank": 9, "time": 2, "location": {"lat": 37.654255801267745, "lng": 114.37749345132296}, "feature": {"sight_features": "", "sight_content": ""}}, {"title": "湖西水上会务中心", "address": "菏泽市单县盟诸岛附近", "image": "", "rank": 10, "time": 2, "location": {"lat": 34.64079198130791, "lng": 115.98207218786779}, "feature": {"sight_features": "", "sight_content": ""}}, {"title": "佛光普照", "address": "湖西南路与舜师路交叉口南200米", "image": "", "rank": 11, "time": 2, "location": {"lat": 34.78577657595802, "lng": 116.08798301924026}, "feature": {"sight_features": "", "sight_content": ""}}, {"title": "三元广场", "address": "湖西路与胜利西路交叉口东南200米", "image": "", "rank": 12, "time": 2, "location": {"lat": 34.80031626059028, "lng": 116.09304379041554}, "feature": {"sight_features": "", "sight_content": ""}}, {"title": "爱乐宝儿童乐园", "address": "菏泽市单县", "image": "", "rank": 13, "time": 2, "location": {"lat": 34.78465843369218, "lng": 116.11158367798839}, "feature": {"sight_features": "", "sight_content": ""}}, {"title": "基督教百年堂", "address": "菏泽市单县浮岗镇浮龙湖旅游度假区内", "image": "", "rank": 14, "time": 1.0, "location": {"lat": 34.62355416522682, "lng": 115.99030605617226}, "feature": {"sight_features": "", "sight_content": ""}}, {"title": "财神殿", "address": "菏泽市单县浮岗镇浮龙湖旅游度假区老君庙内", "image": "", "rank": 15, "time": 2, "location": {"lat": 34.62355416522682, "lng": 115.99030605617226}, "feature": {"sight_features": "", "sight_content": ""}}, {"title": "童梦王国儿童乐园", "address": "菏泽市单县万德福购物广场3楼", "image": "", "rank": 16, "time": 2, "location": {"lat": 34.795732937219654, "lng": 116.09200572294108}, "feature": {"sight_features": "", "sight_content": ""}}, {"title": "青青水族馆", "address": "舜师步行街11号楼附近", "image": "", "rank": 17, "time": 2, "location": {"lat": 34.798209294138815, "lng": 116.09619241576}, "feature": {"sight_features": "", "sight_content": ""}}, {"title": "儿童乐园", "address": "白云南路与舜师西路交叉口西南100米", "image": "", "rank": 18, "time": 2, "location": {"lat": 34.78807356813902, "lng": 116.0781842389577}, "feature": {"sight_features": "", "sight_content": ""}}, {"title": "单县滨河湿地公园", "address": "山东省菏泽市单县滨河路东100米", "image": "", "rank": 19, "time": 2, "location": {"lat": 34.80318697596225, "lng": 116.13564523214116}, "feature": {"sight_features": "", "sight_content": ""}}, {"title": "儿童乐园", "address": "终兴镇永嘉乐购物广场", "image": "", "rank": 20, "time": 2, "location": {"lat": 28.15645033220569, "lng": 120.68852407508358}, "feature": {"sight_features": "", "sight_content": ""}}, {"title": "可米多肉植物园", "address": "山东省菏泽市单县S349(北环路)", "image": "", "rank": 21, "time": 2, "location": {"lat": 34.82306702819704, "lng": 116.10530934906915}, "feature": {"sight_features": "", "sight_content": ""}}, {"title": "单县莱河公园", "address": "山东省菏泽市单县G105(北环路)", "image": "", "rank": 22, "time": 2, "location": {"lat": 34.82306702819704, "lng": 116.10530934906915}, "feature": {"sight_features": "", "sight_content": ""}}, {"title": "小神童儿童乐园", "address": "山东省菏泽市单县园艺街道舜师东路财富广场义乌商贸城", "image": "", "rank": 23, "time": 2, "location": {"lat": 34.78314407887548, "lng": 116.11061431381766}, "feature": {"sight_features": "", "sight_content": ""}}, {"title": "单县观音禅寺", "address": "山东省菏泽市单县龙锦路西龙王庙供销社西北200米", "image": "", "rank": 24, "time": 2, "location": {"lat": 34.709839656968164, "lng": 116.19518092118807}, "feature": {"sight_features": "", "sight_content": ""}}, {"title": "高韦庄镇张庄社区基督教堂", "address": "高韦庄镇张庄社区基督教堂(东门)附近", "image": "", "rank": 25, "time": 2, "location": {"lat": 32.01985166161399, "lng": 120.88989290658158}, "feature": {"sight_features": "", "sight_content": ""}}, {"title": "单县展览馆", "address": "园艺路与向阳东路交叉口", "image": "", "rank": 26, "time": 2.5, "location": {"lat": 34.78743037261881, "lng": 116.13180964188483}, "feature": {"sight_features": "", "sight_content": ""}}, {"title": "鲁西南画社", "address": "北关街", "image": "", "rank": 27, "time": 2, "location": {"lat": 36.62937160117866, "lng": 114.49410671879555}, "feature": {"sight_features": "", "sight_content": ""}}, {"title": "花样年华游乐园", "address": "舜师东路东大医院东临100米", "image": "", "rank": 28, "time": 2, "location": {"lat": 34.78167042435929, "lng": 116.11664904399636}, "feature": {"sight_features": "", "sight_content": ""}}, {"title": "果味多", "address": "文化路单州路交叉口南一百米", "image": "", "rank": 29, "time": 2, "location": {"lat": 34.77873547798435, "lng": 116.09330138041882}, "feature": {"sight_features": "", "sight_content": ""}}, {"title": "湖西魔窟真人密室逃脱", "address": "舜师路中段中心医院南门西80米路北", "image": "", "rank": 30, "time": 2, "location": {"lat": 34.78816988737785, "lng": 116.09401375734926}, "feature": {"sight_features": "", "sight_content": ""}}, {"title": "小蜜蜂租书馆", "address": "舜师路49号", "image": "", "rank": 31, "time": 2, "location": {"lat": 34.78604519998968, "lng": 116.09475660265414}, "feature": {"sight_features": "", "sight_content": ""}}, {"title": "单县徐寨镇绿园农场特色水果采摘...", "address": "徐寨镇彭庄村中国石油西南侧", "image": "", "rank": 32, "time": 2, "location": {"lat": 39.899462055537235, "lng": 116.2374255838126}, "feature": {"sight_features": "", "sight_content": ""}}, {"title": "绿源山水生态农业开发有限公司", "address": "湖西南路190号附近", "image": "", "rank": 33, "time": 2, "location": {"lat": 31.652332334581054, "lng": 118.50486922768293}, "feature": {"sight_features": "", "sight_content": ""}}]}