{"cityName": "商南", "days": 2, "cityImage": "", "spots": [{"title": "金丝峡景区", "address": "商洛市商南县太吉河镇金丝峡景区", "image": "", "rank": 1, "time": 3.0, "location": {"lat": 33.45626263838216, "lng": 110.58623120056288}, "feature": {"sight_features": "特色1 生物孤岛，生态王国 特色2 山峰溶洞别有洞天 特色3 园内风光秀丽，风格独特，风景如画 特色4 兰科植物随处可见，林间的苔藓、蕨类等低等植物十分丰富", "sight_content": "金丝大峡谷国家森林公园位于陕西省东南部商南县境内，辖属商洛市。地处秦岭南麓连接巴山北坡，居长江流域汉江水系丹江中游地区。金丝大峡谷由白龙峡、青龙峡、黑龙峡和石燕寨组成。金丝大峡谷以窄、幽、秀、奇而闻名，河流密布、森林茂密、野生动物、植物繁多，原始生态保存完好。“一日历三季，十里兰花香”，是休闲度假，寻觅探幽的旅游胜地。\n丹江源位于南门服务区的金丝大峡谷景区入口处，它既是太子河发源地，也是丹江的另一源头。它既是河流发源地，也是景区山寨文化发源地。丹江源处有一龙头泉眼，泉眼周围是山寨文化演艺场。周围山清水秀，秀色可餐。南山门形如舟船，船梆四周的山上布满烽火台。船中有山寨城墙、聚义厅。船头便是丹江源。无疑这是一处宝地，任何人到此都会扬帆起航，一帆风顺的。由碳酸盐钙化而形成的似菠萝状的岩体，水流由上倾力喷洒而出，形成上窄下宽、晶莹剔透的连线金丝，似白发魔女凌空飘动的丝丝银发，如太白金星怀中拂尘抖落的颗颗珍珠，又像三国功臣诸葛亮手中羽扇轻轻一摆，仙风迎面给您送来了智慧。\n被两块巨石压住的地方就是马刨泉了。这股泉水大雨不浊，大旱不涸，常年不断，日均流量约0.039立方米/秒，汛期流量可达1立方米/秒。泉眼有拳头那么大,大泉眼四周有数处小泉眼,泉水争先恐后地垂直往上冒,泛出一个又一个大大小小的水泡。立在泉边,不由的让人感叹大自然的神奇造化。以前每年盛夏时节，雨量充沛，泉水喷涌而出，水柱达1米多高，非常壮观。现在泉眼已被山上滚落的巨石压住，无法看到当时的壮观景象了。\n金丝大峡谷国家森林公园内森林资源多彩多姿，处于秦岭独特的南北植物交汇区，既有温带、暖温带落叶阔叶树种，又有亚热带常绿、落叶阔叶树种。古树参天，森林茂密，森林覆盖率达89%。兰科植物随处可见，林间的苔藓、蕨类等低等植物十分丰富，形成独具特色的峡谷生态系统。"}}, {"title": "闯王寨景区", "address": "商洛市商南县富水镇", "image": "", "rank": 2, "time": 2, "location": {"lat": 33.52867107652706, "lng": 110.98840230339682}, "feature": {"sight_features": "特色1 被誉为“茶祖园”。 特色2 “中国最北第一茶园”。", "sight_content": "知青茶园是商南县高级农艺师，商南县茶叶站站长，十三大、十四大党代表，南茶北移创始人张淑珍1976年在此开始种植培育的第一块茶园。茶园面积约150余亩，地处秦岭东段南麓，座标介于东经104°20′～109°11′之间，北纬35°11′～35°86′之间。此地属于北亚热带向暖温带的过渡地带，年日照时数为1768．5小时，年平均气温为14．5℃，年降水量735．8mm。\n茶园长年云雾缭绕，四季花香，土质肥沃，所产茶叶，香气独特，回味甘醇。茶园是中国最北端移植茶叶成功的试验基地，它见证了商南茶从无到有、从小到大的发展过程，被誉为“茶祖园”“中国最北第一茶园”，行至园中，观景区盎然气象，赏茶园自然风光，感南茶北移之壮举，品闯王驿站之遗韵。\n莲花禅寺前身为石佛寺，始建于北魏年间，扩建于盛唐，修复于明成化年间，因寺院内的佛像均系石雕，从而誉名。在解放初破除“迷信”曾被破坏，在文革中破“四旧”彻底被毁（残破石佛现存商南县文化馆）。上世纪八十年代末，佛教徒释性明和地方人士共同努力修复了吊脚仿古楼阁式佛殿和禅房。因此峰坐南朝北，绵延突兀，对面有九条山脉与此山俯仰相望，富水河环绕其间，加之周围群山怀抱，一眼观百里之遥，山形似莲花瓣，所以被称为“九龙朝圣，莲花结穴”之地，相传汉刘邦和闯王李自成在这里筑城屯兵、安营扎寨，后来正是得此宝地龙脉气象才登基称帝的。\n闯王议事厅建在金钟山三面悬崖、地势险要的山脊平台上，占地面积约600平方米，主建筑采用仿明清庙宇风格，雕梁画栋、飞檐翘脊，一片恢宏气派，厅前广场四周采用仿古城墙砖浆砌而成，展现出闯王当年据险屯兵，一夫当关，万夫莫开的情景。厅内设有闯王李自成及其17员大将的塑像，周围布置有一套介绍闯王李自成和他领导农民起义军斗争的展览。并陈列有部分李自成在此屯兵习武遗留下的文物。它们以历史的真实、立体的感觉向人们展示着闯王李自成在此安营扎寨、养兵蓄锐时的议事情景和领导起义军不屈不挠、转战南北的奋斗历程。\n大型史诗实景剧《风云闯王寨》\n商南县闯王寨景区占地10多亩，距金丝大峡谷40公里，是全国首个闯王文化情景人文景区。县上累计投资2000多万元，开发的闯王文化生态综合景区，可与金丝峡交相辉映，形成以县城为枢纽，辐射东西的“两日游”精品线路。《风云闯王寨》马战实景剧是陕西首创、国内罕见的情景交融、蔚为壮观的马战实景演出，于每天上、下午各开演一场。\n炮声隆，战马嘶，铁刃枪戈的碰撞声，看到这样的场景，仿佛把大家穿越般带入到金戈铁马，遍地狼烟的烽火连天的古战场，其实这里是位于商洛商南县东寨沟闯王寨景区，大型历史实景剧“风云闯王寨”马术，特技，特效，表演艺术都给大家留下震撼人心的试听盛宴！"}}, {"title": "金丝峡漂流", "address": "商洛市商南县金丝峡镇金丝峡景区", "image": "", "rank": 3, "time": 2, "location": {"lat": 33.456313582041155, "lng": 110.5851009184346}, "feature": {"sight_features": "", "sight_content": "金丝峡漂流位于商南县金丝峡国家森林公园入口处，邻近沪陕高速金丝峡出口，距西安180公里，南北长13.8 公里，漂越过八道险湾，河道全长12公里。\n漂流全过程共计1.5小时。乘着橡皮艇顺流而下，天高水长，阳光普照，四面青山环绕，漂流其间，迎面而来的是一种期待-期待刺激!期待惊险!期待与自然的搏斗!期待\"有惊无险\"后的轻松。金丝大峡谷以窄、幽、秀、奇而闻名，河流密布、森林茂密、野生动物、植物繁多，原始生态保存完好！\n这里原始状态保持完好，有良好的植被覆盖山地，土壤很少裸露，色彩葱绿，生机盎然，山体形态别致，不仅轮廓线条柔和优美，更有陡峭险峻的突出特殊性征！\n景区分水上漂流区、拓展娱乐区和游客服务区三部分，常设旅游项目涉及集体探险、观光、户外运动、餐饮住宿及娱乐等内容。该景区2002年建成运营，2010年迁建上下码头，重新修建了气势宏大的游客服务中心。\n这里景色植被保持完好，有良好的绿色覆盖着山坡，山区，土壤等很少裸露，绿意浓重，生机盎然，山体形态别致，丰满，不仅轮廓线条柔和优美，更有陡峭险峻的突出特殊性征。"}}, {"title": "金丝峡丹江漂流", "address": "商洛市商南县金丝峡镇小河口", "image": "", "rank": 4, "time": 2, "location": {"lat": 33.456313582041155, "lng": 110.5851009184346}, "feature": {"sight_features": "", "sight_content": ""}}, {"title": "马刨泉", "address": "陕西省商南县境内的东南部新开岭腹地，距县城60公里，距金丝峡镇18公里", "image": "", "rank": 5, "time": 2, "location": {"lat": 33.326837071174985, "lng": 110.62552727955435}, "feature": {"sight_features": "", "sight_content": ""}}, {"title": "月牙峡", "address": "陕西省商南县东南部新开岭", "image": "", "rank": 6, "time": 2, "location": {"lat": 33.326837071174985, "lng": 110.62552727955435}, "feature": {"sight_features": "", "sight_content": ""}}, {"title": "锁龙瀑布", "address": "位于陕西省商南县境内的东南部新开岭腹地，距县城60公里，距金丝峡镇18公里", "image": "", "rank": 7, "time": 2, "location": {"lat": 33.326837071174985, "lng": 110.62552727955435}, "feature": {"sight_features": "", "sight_content": ""}}, {"title": "《风云闯王寨》马战实景剧", "address": "商洛市陕西省商南县富水镇茶坊村", "image": "", "rank": 8, "time": 2, "location": {"lat": 33.51566708337566, "lng": 110.96363220628153}, "feature": {"sight_features": "", "sight_content": ""}}, {"title": "商南博物馆", "address": "文化路140号", "image": "", "rank": 9, "time": 2.5, "location": {"lat": 33.535608684301785, "lng": 110.88697666921533}, "feature": {"sight_features": "", "sight_content": ""}}, {"title": "吉祥居农家乐", "address": "试马镇富民大道", "image": "", "rank": 10, "time": 2, "location": {"lat": 34.00794242996295, "lng": 118.16749213297643}, "feature": {"sight_features": "", "sight_content": ""}}, {"title": "太吉河漂流", "address": "太吉河镇", "image": "", "rank": 11, "time": 2, "location": {"lat": 33.45626263838216, "lng": 110.58623120056288}, "feature": {"sight_features": "", "sight_content": ""}}, {"title": "凤凰山庄", "address": "城北2公里", "image": "", "rank": 12, "time": 2, "location": {"lat": 36.656293630836586, "lng": 101.77240488175582}, "feature": {"sight_features": "", "sight_content": ""}}, {"title": "金丝峡溶洞漂流", "address": "太子坪村", "image": "", "rank": 13, "time": 2, "location": {"lat": 29.670317226723146, "lng": 109.88201002007321}, "feature": {"sight_features": "", "sight_content": ""}}, {"title": "关圣瀑布", "address": "商洛市商南县金丝峡镇金丝大峡谷黑龙峡内", "image": "", "rank": 14, "time": 2, "location": {"lat": 33.360313625641176, "lng": 110.57242848846974}, "feature": {"sight_features": "", "sight_content": ""}}, {"title": "财神殿", "address": "商洛市商南县金丝峡镇金丝大峡谷石燕寨内", "image": "", "rank": 15, "time": 2, "location": {"lat": 33.360313625641176, "lng": 110.57242848846974}, "feature": {"sight_features": "", "sight_content": ""}}, {"title": "灵官殿", "address": "商洛市商南县金丝峡镇金丝大峡谷白龙峡内", "image": "", "rank": 16, "time": 2, "location": {"lat": 33.360313625641176, "lng": 110.57242848846974}, "feature": {"sight_features": "", "sight_content": ""}}, {"title": "周家祠堂", "address": "商洛市商南县", "image": "", "rank": 17, "time": 2, "location": {"lat": 33.5375334767074, "lng": 110.88840847836768}, "feature": {"sight_features": "", "sight_content": ""}}, {"title": "复兴庵", "address": "长新东路186号", "image": "", "rank": 18, "time": 2, "location": {"lat": 43.93738487514596, "lng": 125.37198180057962}, "feature": {"sight_features": "", "sight_content": ""}}, {"title": "快乐小孩儿童乐园", "address": "陕西省商洛市商南县凤仪2号", "image": "", "rank": 19, "time": 2, "location": {"lat": 33.528217109552045, "lng": 110.89355999097575}, "feature": {"sight_features": "", "sight_content": ""}}, {"title": "淘气堡", "address": "中润亿家超市三楼淘气堡儿童游乐场", "image": "", "rank": 20, "time": 1.0, "location": {"lat": 30.641575136261405, "lng": 114.40159249625619}, "feature": {"sight_features": "", "sight_content": ""}}, {"title": "商南文化广场", "address": "312国道北150米", "image": "", "rank": 21, "time": 1.0, "location": {"lat": 31.33356970098652, "lng": 120.99854638594724}, "feature": {"sight_features": "", "sight_content": ""}}, {"title": "商南县图书馆", "address": "文化路140号附近", "image": "", "rank": 22, "time": 2, "location": {"lat": 39.937216400222944, "lng": 119.60959359645662}, "feature": {"sight_features": "", "sight_content": ""}}, {"title": "吧啦吧啦儿童乐园", "address": "百司院内商贸城二楼", "image": "", "rank": 23, "time": 2, "location": {"lat": 28.73552411828649, "lng": 105.0776639396572}, "feature": {"sight_features": "", "sight_content": ""}}, {"title": "歪歪农庄", "address": "幸福宜家城", "image": "", "rank": 24, "time": 2, "location": {"lat": 34.266564602553125, "lng": 109.02672583769346}, "feature": {"sight_features": "", "sight_content": ""}}, {"title": "商南茶艺文化街", "address": "陕西省商南县长新路茶艺街", "image": "", "rank": 25, "time": 3.0, "location": {"lat": 33.531826696237076, "lng": 110.89584496848113}, "feature": {"sight_features": "", "sight_content": ""}}, {"title": "白龙峡漂流景区", "address": "重庆渝北区大湾镇与广安邻水御临镇交界（重庆统景风景区上游）", "image": "", "rank": 26, "time": 2, "location": {"lat": 29.86515820083476, "lng": 106.84169602326946}, "feature": {"sight_features": "", "sight_content": ""}}]}