{"cityName": "上杭", "days": 2, "cityImage": "", "spots": [{"title": "古田会议旧址", "address": "龙岩市上杭县古田镇", "image": "", "rank": 1, "time": null, "location": {"lat": 25.25308951110138, "lng": 116.82551097283813}, "feature": {"sight_features": "", "sight_content": ""}}, {"title": "梅花山（中国虎园）", "address": "龙岩市上杭县古田镇步云乡马坊村", "image": "", "rank": 2, "time": 3.0, "location": {"lat": 25.29482200768893, "lng": 116.88944560735304}, "feature": {"sight_features": "", "sight_content": ""}}, {"title": "红豆杉生态园", "address": "龙岩市上杭县步云乡崇头村", "image": "", "rank": 3, "time": 2, "location": {"lat": 25.279135099558992, "lng": 116.88837942830632}, "feature": {"sight_features": "", "sight_content": ""}}, {"title": "云谷农庄", "address": "龙岩市上杭县溪口乡大丰村", "image": "", "rank": 4, "time": 2, "location": {"lat": 25.05686402348087, "lng": 116.67767514629554}, "feature": {"sight_features": "", "sight_content": ""}}, {"title": "存耕堂", "address": "龙岩市上杭县970县道", "image": "", "rank": 5, "time": 2, "location": {"lat": 24.87145032059486, "lng": 116.4272472305108}, "feature": {"sight_features": "", "sight_content": ""}}, {"title": "中国虎园", "address": "古田镇步云乡马坊村", "image": "", "rank": 6, "time": 3.0, "location": {"lat": 25.29482200768893, "lng": 116.88944560735304}, "feature": {"sight_features": "", "sight_content": ""}}, {"title": "上杭文庙", "address": "福建省龙岩市上杭县", "image": "", "rank": 7, "time": 2, "location": {"lat": 25.055570401525458, "lng": 116.42644288775742}, "feature": {"sight_features": "", "sight_content": ""}}, {"title": "天彩书画社", "address": "振兴路", "image": "", "rank": 8, "time": 2, "location": {"lat": 38.935292139358445, "lng": 116.91891946161574}, "feature": {"sight_features": "", "sight_content": ""}}, {"title": "野生动物观赏园", "address": "北环路", "image": "", "rank": 9, "time": 2, "location": {"lat": 38.0818836383811, "lng": 114.69308879219136}, "feature": {"sight_features": "", "sight_content": ""}}, {"title": "一中艺术馆", "address": "建设路", "image": "", "rank": 10, "time": 2, "location": {"lat": 39.08959553212996, "lng": 117.0126917080218}, "feature": {"sight_features": "", "sight_content": ""}}, {"title": "李火德墓园", "address": "福建省龙岩市上杭县稔田镇丰朗村岗头", "image": "", "rank": 11, "time": 2, "location": {"lat": 24.860859259312505, "lng": 116.63476248933507}, "feature": {"sight_features": "", "sight_content": ""}}, {"title": "磊髻仙山", "address": "福建省龙岩市上杭县稳田镇官田村", "image": "", "rank": 12, "time": 2, "location": {"lat": 24.867718798047004, "lng": 116.59929651106668}, "feature": {"sight_features": "", "sight_content": ""}}, {"title": "华润爱家儿童乐园", "address": "北环西路西门新发地农贸市场超市二楼", "image": "", "rank": 13, "time": 0.5, "location": {"lat": 30.548298944766497, "lng": 119.97221804696015}, "feature": {"sight_features": "", "sight_content": ""}}, {"title": "烈士陵园", "address": "紫金南路与二零五国道交叉口", "image": "", "rank": 14, "time": 2, "location": {"lat": 31.292101233492, "lng": 120.53150262448916}, "feature": {"sight_features": "", "sight_content": ""}}, {"title": "古中峰寺", "address": "福建省龙岩市上杭县旧县镇(近205国道)", "image": "", "rank": 15, "time": 2.0, "location": {"lat": 25.230829150302668, "lng": 116.4949460489758}, "feature": {"sight_features": "", "sight_content": ""}}, {"title": "佛灵寺夫人宫", "address": "319国道附近", "image": "", "rank": 16, "time": 2.5, "location": {"lat": 25.761668573925817, "lng": 116.38626783390552}, "feature": {"sight_features": "", "sight_content": ""}}, {"title": "红四军阅兵场", "address": "龙岩市上杭县古田镇古田路76号古田会议会址内", "image": "", "rank": 17, "time": 2, "location": {"lat": 25.229165062259234, "lng": 116.8339971518016}, "feature": {"sight_features": "", "sight_content": ""}}, {"title": "人民影剧院", "address": "解放路426-1号", "image": "", "rank": 18, "time": 2, "location": {"lat": 37.893305553396, "lng": 112.56852423046618}, "feature": {"sight_features": "", "sight_content": ""}}, {"title": "龙岩摩陀寨", "address": "福建省上杭县庐丰乡 364215", "image": "", "rank": 19, "time": 2.0, "location": {"lat": 24.950223658367058, "lng": 116.5240011469065}, "feature": {"sight_features": "", "sight_content": ""}}, {"title": "福建工商史料馆", "address": "福建省上杭县634县道附近", "image": "", "rank": 20, "time": 2, "location": {"lat": 25.246070562177195, "lng": 116.83788693323484}, "feature": {"sight_features": "", "sight_content": ""}}, {"title": "益智儿童乐园", "address": "江滨路99", "image": "", "rank": 21, "time": 2, "location": {"lat": 23.96069026605231, "lng": 117.35098694468107}, "feature": {"sight_features": "", "sight_content": ""}}, {"title": "鸿旺生态园", "address": "福建省龙岩市上杭县双拥路", "image": "", "rank": 22, "time": 2, "location": {"lat": 25.05927847202409, "lng": 116.45156401031872}, "feature": {"sight_features": "", "sight_content": ""}}, {"title": "太忠庙", "address": "龙岩市上杭县瓦子街109号", "image": "", "rank": 23, "time": 2, "location": {"lat": 25.056970450215264, "lng": 116.43013450386309}, "feature": {"sight_features": "", "sight_content": ""}}, {"title": "纪念碑公园", "address": "才溪大道与205国道交叉口东北200米", "image": "", "rank": 24, "time": 2, "location": {"lat": 42.85646580255288, "lng": 124.414086267546}, "feature": {"sight_features": "", "sight_content": ""}}, {"title": "陈丕显纪念馆", "address": "福建省龙岩市上杭县", "image": "", "rank": 25, "time": 2, "location": {"lat": 25.055570401525458, "lng": 116.42644288775742}, "feature": {"sight_features": "", "sight_content": ""}}, {"title": "欢乐岛儿童主题乐园", "address": "福建省龙岩市上杭县建设路26号", "image": "", "rank": 26, "time": 2, "location": {"lat": 25.057737548950435, "lng": 116.42286448775961}, "feature": {"sight_features": "", "sight_content": ""}}, {"title": "紫金公园", "address": "福建省龙岩市上杭县工业园区对面", "image": "", "rank": 27, "time": 3.0, "location": {"lat": 25.055570401525458, "lng": 116.42644288775742}, "feature": {"sight_features": "", "sight_content": ""}}, {"title": "高镇宫", "address": "309省道附近", "image": "", "rank": 28, "time": 2, "location": {"lat": 40.709016096764906, "lng": 116.52743651721413}, "feature": {"sight_features": "", "sight_content": ""}}, {"title": "金龙庵", "address": "651县道附近", "image": "", "rank": 29, "time": 2, "location": {"lat": 24.172103561213664, "lng": 108.62050038166625}, "feature": {"sight_features": "", "sight_content": ""}}, {"title": "天主堂", "address": "解放路574", "image": "", "rank": 30, "time": 0.4, "location": {"lat": 42.54507400486745, "lng": 124.07181402071052}, "feature": {"sight_features": "", "sight_content": ""}}, {"title": "成翘书院", "address": "龙岩市上杭县古田中心小学", "image": "", "rank": 31, "time": 2, "location": {"lat": 25.218696661356987, "lng": 116.82963701131534}, "feature": {"sight_features": "", "sight_content": ""}}, {"title": "张化孙纪念馆", "address": "和平北路30号", "image": "", "rank": 32, "time": 2, "location": {"lat": 39.03015411863789, "lng": 117.6760313381126}, "feature": {"sight_features": "", "sight_content": ""}}, {"title": "闽西畬族纪念馆主席洞", "address": "319国道", "image": "", "rank": 33, "time": 2, "location": {"lat": 25.761668573925817, "lng": 116.38626783390552}, "feature": {"sight_features": "", "sight_content": ""}}, {"title": "红豆村生态园", "address": "634县道", "image": "", "rank": 34, "time": 2, "location": {"lat": 39.73929385019091, "lng": 119.10907564437316}, "feature": {"sight_features": "", "sight_content": ""}}, {"title": "客家族谱博物馆", "address": "紫金南路文庙后侧", "image": "", "rank": 35, "time": 2, "location": {"lat": 25.054796188758992, "lng": 116.42973459534844}, "feature": {"sight_features": "", "sight_content": ""}}, {"title": "文联华岩书画院", "address": "紫金南路", "image": "", "rank": 36, "time": 2, "location": {"lat": 31.292101233492, "lng": 120.53150262448916}, "feature": {"sight_features": "", "sight_content": ""}}, {"title": "上杭县图书馆", "address": "北大路90号", "image": "", "rank": 37, "time": 2, "location": {"lat": 26.190092027196577, "lng": 116.83088302483696}, "feature": {"sight_features": "", "sight_content": ""}}, {"title": "通贤镇礤头村大斜里黄屋组", "address": "通贤镇大斜里", "image": "", "rank": 38, "time": 2, "location": {"lat": 25.36386193999785, "lng": 116.45766570737457}, "feature": {"sight_features": "", "sight_content": ""}}, {"title": "上杭县观音井宏泉生态家庭农场", "address": "湖洋镇文光村观音井8号", "image": "", "rank": 39, "time": 2, "location": {"lat": 25.067339984649003, "lng": 116.35607001051902}, "feature": {"sight_features": "", "sight_content": ""}}, {"title": "龙岩市古田会议会址", "address": "福建省上杭县古田镇溪背村", "image": "", "rank": 40, "time": 2.0, "location": {"lat": 25.233615815694755, "lng": 116.83162251083084}, "feature": {"sight_features": "", "sight_content": ""}}, {"title": "龙岩上杭紫金矿业 Longyan Shang...", "address": "福建省上杭县北环路", "image": "", "rank": 41, "time": 2.0, "location": {"lat": 25.06811686467952, "lng": 116.42916601107947}, "feature": {"sight_features": "", "sight_content": ""}}, {"title": "上杭国家森林公园", "address": "福建省上杭县临城镇", "image": "", "rank": 42, "time": 2, "location": {"lat": 25.080262169978226, "lng": 116.39957355038611}, "feature": {"sight_features": "", "sight_content": ""}}, {"title": "福建省龙岩市瓦子街", "address": "福建省上杭县紫金南路10号", "image": "", "rank": 43, "time": 2, "location": {"lat": 25.058973516747802, "lng": 116.4306607914476}, "feature": {"sight_features": "", "sight_content": ""}}, {"title": "福建省上杭县古田国有林场", "address": "龙岩市-上杭县-上杭县国税局古田税务分局(八甲桥)", "image": "", "rank": 44, "time": 2, "location": {"lat": 25.054108179006878, "lng": 116.43077853324904}, "feature": {"sight_features": "", "sight_content": ""}}, {"title": "毛泽东同志《星星之火可以燎原》...", "address": "福建龙岩上杭县毛泽东同志《星星之火可以燎原》写作旧址", "image": "", "rank": 45, "time": 2, "location": {"lat": 25.055570401525458, "lng": 116.42644288775742}, "feature": {"sight_features": "", "sight_content": ""}}, {"title": "梅花山国家级自然保护区", "address": "福建省龙岩市上杭县古田镇", "image": "", "rank": 46, "time": 2, "location": {"lat": 25.25308951110138, "lng": 116.82551097283813}, "feature": {"sight_features": "", "sight_content": ""}}]}