{"cityName": "上饶", "days": "3", "cityImage": "", "spots": [{"title": "婺源风景区", "address": "上饶市婺源县婺源风景区", "image": "", "rank": 1, "time": 3.0, "location": {"lat": 29.27818152877319, "lng": 117.8630193469782}, "feature": {"sight_features": "特色1 春观油菜花海、秋赏晨雾红叶，于明清徽派建筑间漫步", "sight_content": "“古树高低屋，斜阳远近山，林梢烟似带，村外水如环。”走进江西婺源，犹如来到如诗如画的世外桃源。婺源之美，美在人与自然和谐相处，美在文化与生态珠联璧合。走进婺源，但见蓝天、青山、碧水，小桥、流水、人家，粉墙、青砖、黛瓦，天人合一，相映成趣，被外界誉为“中国醉美乡村”。\n【江岭：“四大花海”之一】\n江岭位于婺源县东北部，距县城45公里，总面积38平方公里，每当春暖花开时，置身于江岭万亩梯田中，黄灿灿的油菜花与远山、近水、粉墙、黛瓦相映成趣，构成一幅天人合一的画卷，在这里您可以尽情的释放，让心灵自由飞翔。 黄灿灿的十万亩梯田油菜花，使江岭成为婺源春天的宠儿，同时这里也是全国富有视觉冲击力的油菜花观赏地。 这里是婺源田园风光的代表。从江岭开始，公路始终在山间盘旋，从江岭向下看，只见层层梯田，曲折的线条，山谷盆地中的小河，河边聚集的三两个村庄，四周围绕着青山，构成了一幅极美的婺源农村风光画卷。\n【李坑：小桥流水人家】\n李坑是一个以李姓聚居为主的古村落，距婺源县城12公里，自古文风鼎盛、人才辈出。自宋至清，仕官富贾达百人，村里的文人留下传世著作达29部，南宋年间更是出了一位武状元。 李坑的建筑风格独特，是著名的徽派建筑，给人一种安静、祥和的气氛。村落群山环抱，山清水秀，风光旖旎。村中明清古建遍布、民居宅院沿溪而建，依山而立，粉墙黛瓦、参差错落；村内街巷溪水贯通、九曲十弯；青石板道纵横交错，石、木、砖各种溪桥数十座沟通两岸，更有两涧清流、柳碣飞琼、双桥叠锁、焦泉浸月、道院钟鸣、仙桥毓秀等景点点缀其中，构筑了一幅小桥、流水、人家的美丽画卷，是婺源精品旅游线路上的一颗璀璨明珠。\n\n\n【汪口：徽州古商埠】\n\n汪口是国家AAAA级景区，古称永川，因地处双河汇合口，碧水汪汪而得名，位于江湾镇西部，距县城23公里，是一个以俞姓为主聚族而居的徽州古村落，距今已有1100余年历史。 汪口村山环水绕，风景秀丽，得山水之灵气，是古徽州一方“徽秀钟灵”之地，历史上这里文风鼎盛，人文蔚起，还走出了一大批商贾四方的徽商富贾和精杏林，工篆刻、善书画的名士贤达。 明清时期，作为徽州与饶州重要水上商业交通的物资集散地。汪口商业十分繁荣，店铺林立、商贾云集、船运如梭，是当时徽州东南部与婺源东北乡的区域商业中心和重要的水运商埠。 光阴荏苒，虽然曾经的繁华已远去，但留下的是秀美和古朴。古山林、古埠头、古商业街、古巷、古祠堂和散落在十八条古巷中的众多官第、商宅、民居和书屋等各类古建筑保存完好，至今仍保留着明清时期的历史风貌，丰富的历史文化遗存和深厚的徽文化渊源。汪口曾作为皖南古民居项目申报世界文化遗产，2007年荣膺“中国历史文化名村”。被国内古建专家誉为“建筑艺术宝库”的俞氏宗祠是国家级的文物保护单位。 古老的汪口村正以其生态与文化的魅力吸引着来自四面八方的游客。\n【晓起：生态家园】\n\n古树高低屋，斜阳远近山，林梢烟似带，村外水如环”。如果说，婺源是一个绿色大公园，那么晓起村就是一处绝妙的景致。古朴典雅的明清民居，曲折宁静的街巷，青石铺就的驿道，野碧风清的自然环境，遮天蔽地的古树，天人合一的晓起堪称中国别具韵味的古文化生态村。 晓起村始建于公元787年，村中保持 600余年的房屋有几十幢，风格鲜明，气势非凡。进士第、大夫第、荣禄第等商宅官邸无不折射出这方钟灵毓秀土地曾经有过的辉煌。一门四进士和四代一品更是先贤留予后人宝贵的精神财富。 晓起名贵古树观赏园内荟萃了千余株古樟树群及全国罕见的大叶红楠树和国家一级保护树种江南红豆杉，这不仅是晓起先人崇尚绿色，重视和保护环境的有力佐证，更为今天的晓起增添了几分灵气，让游客感受到大自然的亲近、可爱。\n\n\n【彩虹桥：漫步古老廊桥】\n\n彩虹桥坐落于婺源县清华镇，因唐诗“两水夹明镜，双桥落彩虹”而得名，其始建于南宋1137年，桥身宛若一道跨越时空的彩虹，全长一百四十米，是迄今为止保存最为完整，设计最为科学的一座古廊桥。廊桥与周边的古村落、青山、碧水、古驿道共同构成一幅绝美的水墨山水画，尤其是在晨雾、细雨、月色的衬托下更显诗情画意，因此被众多媒体誉为中国最美的廊桥，也是最美乡村——婺源的标志性建筑之一。 彩虹桥的防洪体系设计体现了古代婺源人的智慧。彩虹桥的美学，是婺源人运用山水文化的集中表现。彩虹桥是影视人最钟情的地方，曾拍摄过电影《闪闪的红星》、《魂牵柳桥镇》、《乡村女教师》、《丁香》、《我心永远》、《星火》、《来的都是客》、《梦回青河》....，上海《风调雨顺中国》、于文华的《你的生命如此美丽》两部MTV主拍摄地，是画家、摄影家最具灵感的地方，是大师们创作的源泉。 彩虹桥是座浪漫的古桥，是您怡梦的地方，踏上吉祥美丽的彩虹桥，留下一段难忘的故事。\n【思溪延村：儒商村】\n思溪延村是国家AAAA级景区，位于婺源县思口镇南侧，距县城紫阳镇16公里。始建于南宋庆元五年（1199年），至今已有800余年历史。思溪村以建村者俞氏（鱼儿）思念溪水而得名，延村因村落面临川流不息的溪水，乡民期望后世子孙绵延百世而寓名。 村落中现保留着136幢以商宅和官邸为主的明清古建筑群，村落以青石板铺地，背靠青山，面临清溪和稻田，四周都是绿地，村庄与秀水青山的优雅自然风光融为一体，一代徽商贾而好儒的风范在这里表现的淋漓尽致。这里遗留的商宅大门不惜用圆雕、透雕、浮雕装饰门罩、从整体上呈现一个“商”字。而那些古民居、古私塾无处不渗透着儒商“诚”、“信”、“义”、“仁”的文化精髓和儒商读书穷理的治学思维。思溪百寿花厅96个不同字体的寿字组成的“百寿图”，堪称木雕精品，不仅将徽派建筑艺术发挥到了极致，更是儒商思想的升华与提炼。\n【江湾：钟灵毓秀】\n\n江湾位于婺源东部，距县城28公里，是国家AAAAA级旅游区，国家级文化与生态旅游区、江西省爱国主义教育基地。江湾始建于隋末唐初，最初有滕、叶、鲍、戴等姓人家在江湾河湾处聚居，始称“云湾”。北宋神宗元丰二年（1079年），萧江第八世祖江敌始迁江湾，子孙逐渐繁衍成巨族，后改称江湾。自唐以来，江湾便是婺源通往皖、浙、赣三省的交通要塞，为婺源东大门。这里山水环绕、风光旖旎、文风鼎盛、群贤辈出，自宋至清蕴育状元、进士与仕宦38人；传世著作92部，其中15部161卷选入《四库全书》，是当之无愧的婺源“书乡”代表。 村中既有保存尚好的御史府，中宪第等明清官邸，又有滕家老屋、三省堂、敦崇堂、培心堂等徽派商宅，其中“仙人桥”是古人实践风水理论的杰出典范，“北斗七星井”体现了“天、地、人合一”的中国风水学最高原则，南侧梨园河呈太极图“S”形，古村古风古韵，极具历史价值和观赏价值。\n【大鄣山卧龙谷：森林水世界】\n国家AAAA级景区，地处皖赣边界，是婺源的北部屏障，属黄山余脉。 这里也是“吴楚分源”的屋脊，是鄱阳湖水系乐安江与钱塘江水系新安江的分水岭。卧龙谷内群山环抱，山峰林立，森林覆盖率高达 90.7% ，主峰海拔1629.8 米，巍峨雄伟，俯瞰平川，是一处金庸笔下的人间美景世外桃源。 春季山花烂漫，夏季郁郁葱葱，秋季红枫尽染，冬季冰雕玉砌，卧龙谷景区四季变换着不同的色彩，而山体以呈绛紫色的花岗岩构成，高山峡谷里更是瀑布成群，飞龙吐玉；彩池连环、相映交辉，就这样，紫色的山、绿色的树、白色的瀑布、彩色的深潭构成一幅天然泼墨山水画；轻松休闲的游步栈道，朴拙的茅舍、古雅的茶亭、精巧的石屋点缀其间，堪称都市人魂牵梦萦的乐土圣境。这里山峰岩石雄奇险秀、飞泉瀑流倾泻雷鸣，到处是彩珠的碰撞、野性的张扬，俨然一部雄浑跌宕而又充满野性的交响曲…… 卧龙谷荟萃了九寨的水、雁荡的瀑、黄山的岩、版纳的树，是夏季戏水纳凉的绝佳去处。\n\n\n【灵岩洞：华夏洞天】\n灵岩风景区位于婺源北线古坦乡，距县城51公里，先后被评为国家森林公园、国家AAAA级景区，面积约30平方公里，是一个集自然与人文景观为一体的风景名胜区。灵岩洞群由卿云、莲华、涵虚、凌虚、琼芝、萃灵等36个溶洞组成，体大者雄浑奇伟，小者玲珑秀丽。涵虚洞内泉流澄清皎洁，水石相映成趣，石笋、石花、石柱、石幔琳琅满目，千姿百态。有蓬来仙阁、金阙瑶池、云谷游龙、天池荷香、龙门泻玉等景观数百处。更为称绝的是洞群间保留有“岳飞游此”、“吴徽朱熹”、唐代大中十一年兼御史中丞卢潘和明代戴铣的摩崖石刻等唐代以来的游人题墨2000多处。\n【严田风景区：乡居人家经典】\n严田古樟风景区位于江西省婺源县西北部的赋春镇，是一处展现古村落水口文化的精品景点，也是婺源唯一保存完好的水口文化遗址，水口是村落的花园，是风水的代表。这座意境清新恬适的水口园林，不愧是古人实践风水理论的杰出典范。严田风景区内佳木葱茏，清溪潺绕，桥拱高架，水车悠悠，石亭伟立，曲径通幽；又有纸伞坊、豆腐坊、油榨坊和“如来佛柱”、“四灵庵”、鱼塘人家等，民俗风情与宗教遗址并存。更有被乡民尊之为“树神”的巨樟一棵，巨樟距今已历经1500多年的沧桑，胸围近15米，冠幅达3亩。景区内名胜古迹与周边田园风光交相辉映，处处充满了诗情画意。旅游观光与休闲度假于此，心灵得到了净化，心智获得了升华。\n【石城：醉佳赏枫地】\n石城位于婺源县西北的大鄣山乡境内，村头有石壁，岩如古城，危耸的城“墙”内外有许多古树名木，其中最让人惊叹的就是这里的百来棵枫树，每棵树高都在35米以上，远远超过村里的高矮屋顶，和巨大且笔直向上的树冠相比，粉墙黛瓦简直就是玩具魔方搭建起的屋子。 每到11月中下旬，这里就是摄影爱好者的天堂，枫树环抱，晨雾悬挂树腰，红枫在晨雾中若隐若现，加上早晨村民的炊烟，在这个小山洼里汇聚，构成了如梦幻般的仙境，枫树也似仙境之圣物。 深秋的石城，一树树红枫装点着千山万壑，映红了碧水蓝天、粉墙黛瓦，像是一幅色彩斑斓的油画，令人陶醉。尤其是晨雾如纱，晚烟似缕时，恍若仙境的景象让无数游人摄友流连忘返。 石城的红枫便是秋天的号角，炊烟袅袅，蓝天、青山、粉墙、青砖、黛瓦天人合一的乡村美景，挺立于古村落前后千年高大的红枫与白墙黑瓦马头墙掩映一体，犹如一幅意境深远的山水画，呈现出梦境般的世外桃园，有着归真返朴和超凡脱俗的感觉,令人陶醉其中。清晨雨后放晴，粉墙黛瓦的古徽州民居在烟雾中若隐若现，与傲霜红枫交相辉映，美不胜收。婺源石城的秋色曾一度被国内众多媒体评选“中国最具人气的赏枫地”，“摄影爱好者的天堂”。"}}, {"title": "三清山风景区", "address": "上饶市玉山县三清乡（近金沙服务区）", "image": "", "rank": 2, "time": 3.0, "location": {"lat": 28.929582642871896, "lng": 118.10087519508701}, "feature": {"sight_features": "特色1 可于高空栈道之上赏奇石、看云海日出。", "sight_content": "国家级风景名胜区、世界自然遗产、世界地质公园、国家5A级旅游景区、国家绿色旅游示范基地——三清山位于江西省上饶市东北部，因玉京、玉虚、玉华三峰峻拔，宛如道教玉清、上清、太清三位最高尊神列坐山巅而得名。\n景区总面积229.5平方公里，主峰玉京峰海拔1819.9米。景区内千峰竞秀、万壑奔流、古树茂盛、珍禽栖息，终年云缠雾绕，充满仙风神韵。同时，她又是一座经历了千年人文浸润的道教名山，三清福地景区承载着三清山厚重的道教文化，平均海拔约1500 多米， 迄今1600 余年，道教历史源远流长，共有宫、观、殿、府、坊、泉 、池、桥、墓、台、塔等古建筑遗存及石雕、石刻230 余处。这些古建筑依“八卦”精巧布局、藏巧于拙，是研究我国道教古建筑设计布局的独特典范，被誉为“中国古代道教建筑的露天博物馆”，现为国家级文物保护单位。\n从形制看，这些石构建筑群小巧玲珑，简洁明快，古朴野趣，充分体现了人与自然、建筑与环境协调一致的原始质 朴风貌。玉京峰景区是三清山最高峰所在地，海拔1819.9 米，是观赏日出、日落的好位置。玉京、玉虚、玉华三峰凌立，峻峭挺拔，高耸云天，所谓“地到无边天作界，山登绝顶我为峰” 。登临玉京峰顶，云海、雾涛、日出、佛光……不可不谓之壮丽绝伦。\n三清山风景区地处赣浙闽皖四省结合部，东临浙江千岛湖、南接福建武夷山、西引江西庐山、北连安徽黄山；在航 空交通上，东有衢州、杭州机场，北有景德镇、黄山机场，西有昌北机场，南有武夷山机场，在陆路交通上，有浙赣铁路、沪昆高速、德上高速、德昌高速、德婺高速、杭瑞高速、九景高速 以及三清山环山公路组成的陆路交通网，特别是京福高铁、沪昆高铁建成后，北京、上海、福州、合肥、长沙等城市来三清山时间大大缩短，三清山、婺源、景德镇、千岛湖等景区组成精品 旅游线路，成为国内国际旅游重要客源市场。"}}, {"title": "龟峰风景名胜区", "address": "上饶市弋阳县弋江镇杨桥路22号", "image": "", "rank": 3, "time": 4.0, "location": {"lat": 28.40564598502716, "lng": 117.44195807235822}, "feature": {"sight_features": "", "sight_content": ""}}, {"title": "鄱阳湖国家湿地公园", "address": "上饶市鄱阳县", "image": "", "rank": 4, "time": 7.5, "location": {"lat": 29.011452830922217, "lng": 116.71056614080348}, "feature": {"sight_features": "特色1 观鸟胜境，生态湿地和候鸟保护区", "sight_content": "鄱阳湖国家湿地公园是世界六大湿地之一、中国第一大淡水湖。湿地公园总面积为36285.0公顷，其中湿地总面积为35116.1公顷，占土地总面积的96.8%。\n公园内丰水季节烟波浩淼，气势磅礴 ；枯水季节水落滩出、河流众多、溪水蜿蜒、芦花飞舞。景区内处处湖光山色，景色幽然，环境优雅，空气清新，其溶山水之灵气于一方，汇自然与人文为一体，是休闲养生的理想之所。\n这里拥有江南最珍贵的“鸟”；这里是观鸟胜境，是生态湿地和候鸟保护区。这里夏季有夏候鸟——鹭鸟，冬季有冬候鸟——天鹅、白鹤、东方白鹳等。世界上现存的白鹤有4000多只，一到冬天98%的天鹅、白鹤会选择到鄱阳湖越冬，场面非常壮观。\n龟脑山因山型像一只趴在湖岸边的乌龟而命名，当地的渔民称它为神龟守渔。山上有取中国最大淡水湖之意的“天下第一湖”石碑和我国古代十二大烈女之一的鄱阳湖女神——饶娥铜像。其中饶娥神像高38米，是今日景区的标识之一。\n在湖中央有一个小岛，形状像倒扣在鄱阳湖中的小水瓢，当地的渔民称他是“瓢里山”，也称鸟岛。山的北面白茫茫一片，主要是白鹭，而南面则栖息着以池鹭、苍鹭为主的灰暗色鹭鸟，形成一山灰白的世界奇观。香油洲是中国最大的草洲，这里的草，翠绿丰茂，成为绿的海洋，堪称惊艳。\n科学园是鄱阳湖湿地公园的会客厅，浓缩了鄱阳湖湿地文化的精华，用声、光、电等高科技手段形象生动地集中展示了湿地生态资源和湿地人文资源，形成了丰富多彩的旅游景点。"}}, {"title": "李坑景区", "address": "上饶市婺源县秋口镇李坑村", "image": "", "rank": 5, "time": 2, "location": {"lat": 29.328447384564768, "lng": 117.93724207956318}, "feature": {"sight_features": "", "sight_content": ""}}, {"title": "江岭景区", "address": "上饶市婺源县江岭风景区内", "image": "", "rank": 6, "time": 4.0, "location": {"lat": 29.455827620727955, "lng": 118.04180068532878}, "feature": {"sight_features": "", "sight_content": ""}}, {"title": "婺源篁岭", "address": "上饶市婺源县江湾镇篁岭村", "image": "", "rank": 7, "time": 2, "location": {"lat": 29.404850817423323, "lng": 118.02881905591676}, "feature": {"sight_features": "特色1 鲜花小镇，梯田花海寻芳 特色2 色彩绚烂的篁岭“晒秋”大片。", "sight_content": "婺源篁岭景区，地处石耳山脉，面积15平方公里，由索道空中揽胜、村落晒秋访古、梯田花海寻芳及乡风民俗拾趣等游览区域组合而成。\n‍\n【古村民居】\n篁岭属典型山居村落，全村如同“太师椅”般稳坐山间，民居围绕水口呈扇形梯状排布，建筑鳞次栉比、错落有序，被世人成为“江南布达拉宫”。\n数百栋明清时期流传下来的民居雕刻精美，步入其间仿似步入徽州古建博物馆中。民居上的小青砖、马头墙，古朴雅致；护栏、天井，结构严谨；石雕、木雕、砖雕，雕镂精湛。书院、酒肆、客栈、古戏台、茶坊、酒吧、书吧、甜品屋、字画馆、木艺馆等等各式各样的商铺，一应俱全，好不热闹。村落“天街”似玉带将精典古建串接，徽式商铺林立，前店后坊，一幅流动的缩写版“清明上河图”。\n【晒秋民俗】\n挂在山崖上的篁岭古村，“地无三尺平”，数百栋徽派民居在百米落差的坡面错落排布，每当日出山头，晨曦映照，整个山间房屋晒架上五彩缤纷的丰收果实，绘就出少见的“晒秋”农俗景观。春晒茶叶、夏晒山蕨、秋晒果蔬、冬晒乡俗……一年四季延绵有续。\n“晒秋”是篁岭古村500年来延续至今的晒谷物特色民俗景象。它反映了以篁岭为代表的山居民众原生态的晒物农俗，是劳动人民对丰收喜庆和未来生活所赋予的质朴美好的期待，并逐渐沉积为一种民俗和文化。\n【油菜花海】\n每到春天，万物复苏，嫩黄的油菜花漫山遍野，铺满了山间的每一寸角落。满眼揉碎的金黄，在阳光的照射下，刺眼、明亮。山间里充满了春天泥土特有的芳香。千亩油菜花海，万亩良田美景，婺源油菜花海，果然名不虚传。也许是老牌油菜花海的名气太大了，慕名而来的外国友人络绎不绝，以致于这里也被人称为“全球十大油菜花海”。\n在花海中有一座爱心田，它夹于两山之间，未经人工雕琢，而充满了原始的野趣风味。除了春季，漫山遍野金黄色的油菜花点缀其中，夏天雨后，山间弥漫的咧咧清新与风儿吹过紫薇园一抹淡淡的香味，又为爱心田笼罩了爱的独特味道。痴男怨女的纷至沓来，爱心田成为了情侣眼中公认的爱情地标。\n【观光园】\n篁岭四季皆可游，除了说它的民居古建，四季轮番种植不同花卉的观光园，也别有风味。如果说春天油菜花是婺源旅游的代名词，那么四季千亩观光园，打破了季节对婺源旅游的限制。春赏油菜花，夏赏紫薇、薰衣草和荷花、秋看菊花和串串红，每个不同季节下的不同景象都给客人不一样的感受。离自然近，离泥土近，离鸟语花香近。\n而在四季观光园不远处，还有一片百余株国家保护树种组成古树林，枫树、红豆杉、樟树等等散落水口各处而古老的树木已有一千五百多年历史。这片四季常青的古树林净化空气，吸收二氧化碳、释放大量的负氧离子，其平均负氧离子浓度高达1330个/立方厘米，可谓天然氧吧！\n【艺术创作】\n景区在未开发前，就已是国内摄影基地，几幅早期的晒秋图，都曾获得国际摄影大奖。在保留原有的建筑格局与本土的乡间气息外，景区创意性地开发与建设，使得国内文人骚客趋之若鹜。既有摄影发烧友每年春、秋季来这里摄影创作，又有全国大量期刊主编齐聚篁岭、挥墨提笔，还有全国美术家协会的大家写生篁岭，同时北京电影学院还在景区建有北影驿站，进行影视作品的创作。可以说，篁岭是艺术家的天堂，是激发天赋、发挥潜能的灵感之泉！\n【篁岭冰雪馆】\n\n是由上海申沪冰雕团队设计，室内面积约为1200平方米，馆内一年365天平均室温保持在零下8摄氏度，给游客呈现一个国内一流的室内冰雪游乐园。冰雪馆有“冰雪城堡”、“ 雪乡童话”、“惊险冰道”、“冰室酒吧”等主题。室内可同时容纳400人入场玩雪、观赏冰雕。冰雪乐园既有真雪飘舞浪漫唯美的特色雪乡，也有互动好玩的迷宫、滑道；还有西方与东方相碰撞的童话主题的冰雕艺术作品。作为婺源首个唯一的反季节、跨时空冰雪乐园，它的建成对婺源乡村旅游具有特殊的意义。春赏梯田花海，秋观晒秋红枫，冬享民俗，冰雪馆通过“古村+冰雪”的组合正好弥补篁岭夏季旅游产品短板，通过乡村游乐园和主题酒店的二期开发打造一个婺源美丽的“乡村童话世界”。\n景区导览图"}}, {"title": "思溪延村", "address": "上饶市婺源县思口镇", "image": "", "rank": 8, "time": 2.5, "location": {"lat": 29.376620358719602, "lng": 117.80762690436852}, "feature": {"sight_features": "", "sight_content": ""}}, {"title": "彩虹桥", "address": "上饶市婺源县清华镇内", "image": "", "rank": 9, "time": null, "location": {"lat": 29.420604136589052, "lng": 117.79077258737878}, "feature": {"sight_features": "特色1 婺源的标志性建筑之一，醉美廊桥", "sight_content": "彩虹桥坐落于婺源县清华镇，因唐诗“两水夹明镜，双桥落彩虹”而得名，其始建于南宋1137年，桥身宛若一道跨越时空的彩虹，全长一百四十米，是迄今为止保存最为完整，设计最为科学的一座古廊桥。廊桥与周边的古村落、青山、碧水、古驿道共同构成一幅绝美的水墨山水画，尤其是在晨雾、细雨、月色的衬托下更显诗情画意，因此被众多媒体誉为中国最美的廊桥，也是最美乡村——婺源的标志性建筑之一。\n彩虹桥的防洪体系设计体现了古代婺源人的智慧。彩虹桥的美学，是婺源人运用山水文化的集中表现。彩虹桥是影视人最钟情的地方，曾拍摄过电影《闪闪的红星》、《魂牵柳桥镇》、《乡村女教师》、《丁香》、《我心永远》、《星火》、《来的都是客》、《梦回青河》....，上海《风调雨顺中国》、于文华的《你的生命如此美丽》两部MTV主拍摄地，是画家、摄影家最具灵感的地方，是大师们创作的源泉。"}}, {"title": "汪口", "address": "上饶市婺源县江湾镇汪口村", "image": "", "rank": 10, "time": 1.5, "location": {"lat": 29.355472905889574, "lng": 117.99783691121007}, "feature": {"sight_features": "", "sight_content": ""}}, {"title": "上下晓起", "address": "上饶市婺源县江湾镇晓起村", "image": "", "rank": 11, "time": 2.0, "location": {"lat": 29.398637923872762, "lng": 118.03722778387748}, "feature": {"sight_features": "", "sight_content": ""}}, {"title": "月亮湾", "address": "上饶市婺源县秋口镇金盘村附近", "image": "", "rank": 12, "time": 1.5, "location": {"lat": 29.30638963434658, "lng": 117.89454816358753}, "feature": {"sight_features": "", "sight_content": ""}}, {"title": "江湾景区", "address": "上饶市婺源县江湾镇", "image": "", "rank": 13, "time": 3.0, "location": {"lat": 29.404850817423323, "lng": 118.02881905591676}, "feature": {"sight_features": "", "sight_content": ""}}, {"title": "大鄣山卧龙谷", "address": "上饶市婺源县大鄣山乡", "image": "", "rank": 14, "time": 3.5, "location": {"lat": 29.457351299833764, "lng": 117.74367388243813}, "feature": {"sight_features": "特色1 国家AAAA级景区，是夏季戏水纳凉的好去处", "sight_content": "大鄣山卧龙谷是国家AAAA级景区，地处皖赣边界，是婺源的北部屏障，属黄山余脉。清代诗人汪循《登大鄣山》诗云：“清风岭上豁双眸，擂鼓峰前数九州，蟠踞徽饶三百里，平分吴楚两源头”。这里也是“吴楚分源”的屋脊，是鄱阳湖水系乐安江与钱塘江水系新安江的分水岭。卧龙谷内群山环抱，山峰林立，森林覆盖率高达 90.7% ，主峰海拔1629.8 米，巍峨雄伟，俯瞰平川，是一处金庸笔下的人间美景世外桃源。春季山花烂漫，夏季郁郁葱葱，秋季红枫尽染，冬季冰雕玉砌，卧龙谷景区四季变换着不同的色彩，而山体以呈绛紫色的花岗岩构成，高山峡谷里更是瀑布成群，飞龙吐玉；彩池连环、相映交辉，就这样，紫色的山、绿色的树、白色的瀑布、彩色的深潭构成一幅天然泼墨山水画；轻松休闲的游步栈道，朴拙的茅舍、古雅的茶亭、精巧的石屋点缀其间，堪称都市人魂牵梦萦的乐土圣境。这里山峰岩石雄奇险秀、飞泉瀑流倾泻雷鸣，到处是彩珠的碰撞、野性的张扬，俨然一部雄浑跌宕而又充满野性的交响曲……卧龙谷荟萃了九寨的水、雁荡的瀑、黄山的岩、版纳的树，是夏季戏水纳凉的绝佳去处。"}}, {"title": "理坑", "address": "上饶市婺源县婺源风景区内（沱川乡理坑村）", "image": "", "rank": 15, "time": 2.0, "location": {"lat": 29.27818152877319, "lng": 117.8630193469782}, "feature": {"sight_features": "", "sight_content": ""}}, {"title": "灵山风景名胜区", "address": "上饶市上饶县北部", "image": "", "rank": 16, "time": 4.5, "location": {"lat": 28.454186874770276, "lng": 117.91558441252161}, "feature": {"sight_features": "特色1 犹如一位侧躺着入睡的江南美女 特色2 道家书列天下第三十三福地 特色3 山岳型风景名胜区", "sight_content": "灵山坐落在上饶县境北部，遇上天气晴朗、能见度高的时候，在上饶市区就能目睹其俊俏挺拔的风采。灵山很古老，灵山很神奇，灵山不仅有优美的山水，灵山更有众多美丽的传说。属怀玉山支脉，山势骤起，逶迤西去，至白云峰山分二脉，一脉向北，一脉向西，似一弯偃月镶嵌在赣东北大地上。这里一山一水，一草一石，都具有灵、峻、秀、奇、险、幻的特色。雾霭烟岚，奇峰怪石，飞瀑流泉，幽洞险谷，无处不显灵山的自然美；茂林修竹、石树佳木、琼花瑶草，无论冬夏时时都展示它的生态美；群猴腾跃，异兽嬉戏，百鸟和鸣，以及独具的桂花鱼等小动物，赋予灵山一种生命动感和无穷的野趣。遍布灵山的寺庙、亭塔等古建筑，使人文景观和自然景观相互辉映，使之更具灵气，更加妩媚。\n\n\n【地质地貌】\n\n灵山有世界罕见的环状花岗岩峰林地貌，七十二峰，峰峰挺秀，绵延百余里，犹如一条中华大地上的巨龙盘踞在上饶城北；有国内罕见的造型石（倒石）地貌，被誉为石的海洋、石的世界；有中国最具特色的高山灵石梯田，山高坡陡，落差大，四季景色各异，梯田间遍布各类造型的花岗岩滚石；有江南最高的花岗岩瀑布；灵山还是江南颇具影响的民间宗教名山。\n\n\n【特色看点】\n\n景区内有72峰、36瀑布、99座宫（观、殿）、108处景点、400多处景观景物。灵山地处三清山、龙虎山和武夷山三个世界遗产地中间，是三山辐射交接点，均有铁路、高等级公路相通，景区距离上饶县城和上饶市区18公里，区位交通条件优越。"}}, {"title": "上饶集中营", "address": "上饶市信州区陵园路66号", "image": "", "rank": 17, "time": null, "location": {"lat": 28.420701106974217, "lng": 117.96767667023117}, "feature": {"sight_features": "", "sight_content": ""}}, {"title": "河口古镇", "address": "上饶市铅山县河口镇", "image": "", "rank": 18, "time": 3.5, "location": {"lat": 28.30254532796491, "lng": 117.71941230979192}, "feature": {"sight_features": "", "sight_content": ""}}, {"title": "信江书院", "address": "上饶市信州区书院路48号", "image": "", "rank": 19, "time": 1.0, "location": {"lat": 28.443129643921456, "lng": 117.98064406060259}, "feature": {"sight_features": "", "sight_content": ""}}, {"title": "鹅湖书院", "address": "上饶市铅山县鹅湖镇鹅湖山", "image": "", "rank": 20, "time": 1.0, "location": {"lat": 28.23521695003973, "lng": 117.81175045453946}, "feature": {"sight_features": "特色1 古代江西四大书院之一", "sight_content": "据《广信府志》介绍：“大义寺左为四贤词。”此实为大义寺的附属寺左，即仁寿寺左，为“四贤祠”。祠为当时的信州刺史杨汝砺所建，这是鹅湖书院之始。以后屡有修举，明代宸濠之乱，兵燹之余，鹅湖书院的学舍全部毁坏。清康熙二十二年(1683)，地方官潘士瑞曾予修理。康熙五十四年(1715)，令尹施德大加修建，当时李光地所作《重修鹅湖书院记》说：“书院之建，实为国家学校，相为表里，李渤高士尔。朱子犹倦焉。今使先贤遗址，焕然重修，江有故理学地，必有游于斯，而奋乎兴起，以绍前贤者。”鹅湖书院绝有官方的支持得以重修，昔日的辉煌已不复再现，以致成为历史的陈迹。\n鹅湖书院在鹅湖寺，即仁寿寺的左边，而鹅湖塔则在鹅湖书院的左边。鹅湖书院的大门，不在正中，而在左面，所以正对着鹅湖塔。书院四周有山有溪，环境幽雅。鹅湖书院比鹅湖寺大得多，建筑规模颇似孔庙。由大门进去，经过两排桃树，有一个大圆门，圆门内有一个大院子，对面又是一个大圆门，上面是三排殿宇，由此登石阶而入，又是一个院子，里面是半月池，池周围是石栏杆。渡过古桥是第一排殿宇，再过一个院子，是第二排殿宇，其最后一排殿宇，是四贤祠。祠前也是一个院子，祠后则是一个相当高的坪台，其下有一小池，其后是一座高墙，正对那两大圆门的北端高墙。这三排殿宇是主屋。在主屋两旁，又是一排一排的房屋，错落有致。在鹅湖书院后面的四贤词内，设有朱、吕、二陆四个牌位，又有一个题着“顿渐同归”字样的匾额，这和书院前排建筑中所悬“道学之宗”的御匾，正遥遥相对，由此可见宋代朱陆鹅湖之会的盛况。抗日战争期间，鹅湖书院成为东南训练团的驻扎营地。\n这所书院，自南宋至清代，八百多年来，几遭兵毁，又几次重建。其中尤以清代康熙五十六年(公元1717年)整修和扩建工程规模最大：新筑山门、牌坊、大堂、浮池、拱桥、碑亭、御书楼；两侧更修建厢房数十间，作为士子读书之所。康熙皇帝还为御书楼题字作对，门额题为“穷理居敬”，联语为“章岩月朗中天镜，石井波分太极泉”。至今牌坊、泮池、后殿、厢房等建筑保留尚完好；泮池两侧的厢房内，尚存明、清两代古碑13块，是研究这座书院历史的珍贵资料。"}}, {"title": "思溪", "address": "上饶市婺源县 思口镇思溪村", "image": "", "rank": 21, "time": 3.0, "location": {"lat": 29.343840641125063, "lng": 117.79820409099588}, "feature": {"sight_features": "", "sight_content": ""}}, {"title": "庆源", "address": "上饶市婺源县段莘乡庆源村", "image": "", "rank": 22, "time": 3.0, "location": {"lat": 29.467853437085054, "lng": 118.01049681609703}, "feature": {"sight_features": "", "sight_content": ""}}, {"title": "清华镇", "address": "上饶市婺源县清华镇", "image": "", "rank": 23, "time": 2.5, "location": {"lat": 29.420604136589052, "lng": 117.79077258737878}, "feature": {"sight_features": "", "sight_content": ""}}, {"title": "鸳鸯湖", "address": "上饶市婺源县西部赋春镇", "image": "", "rank": 24, "time": 3.5, "location": {"lat": 29.349675398455474, "lng": 117.57191241357773}, "feature": {"sight_features": "特色1 亚洲最大的野生鸳鸯越冬栖息地", "sight_content": "鸳鸯湖风景区位于婺源县赋春镇，是亚洲较大的野生鸳鸯越冬栖息地。省道景白线横穿景区大门前，距举世闻名的瓷都景德镇41公里；距天下奇山黄山118公里；距世界自然文化遗产三清山118公里；距历史悠久、文风鼎盛的婺源县城43公里，交通十分便利。风景区地处亚热带，属东南季风温暖湿润气候，年平均气温16.6摄氏度，年平均降水量1830毫米，无霜期约251天，全年日照数1868.4小时，是婺源县较早开发的休闲度假、疗养避暑旅游风景区，国家AAAA级旅游景区，江西省自然保护区。\n为使野生鸳鸯栖息环境免遭破坏和干扰，景区在鸳鸯集中的水域建立了核心保护区，水面上竖起了分界线。核心保护区内禁止捕鱼、钓鱼和游船进入，周围的山林禁止砍伐和垦荒。在鸳鸯栖息越冬期间，每天定时巡查保护区水域和山林的情况，定时定点投放饲料喂养鸳鸯。多年来，由于环境一直得到较好的保护，湖面烟波浩淼、水质清澈、山林茂密、植被丰厚、环境清新，来此栖息越冬的野生鸳鸯呈逐年上升趋势，吸引了越来越多的中外游客。\n鸳鸯湖是婺源生态旅游的一颗璀璨明珠，这里环境幽雅恬静、空气清新甘美、山林青翠欲滴、湖水澄碧如玉，群鸟飞翔、麂鹿穿行、松鼠跳跃、鱼翔浅底，人称是一个“静谧的绿色世界”，是一块“超尘静地”。尤其是每年秋末冬初，都有2000多对野生鸳鸯固定从遥远的西伯利亚迁徙到这里栖息过冬，它们双宿双飞双浴、行影不离，给大自然增添了无限的诗情画意，令人遐思无限、感慨万千。"}}, {"title": "文公山", "address": "上饶市婺源县南部，东距县城29公里，晓林乡境内", "image": "", "rank": 25, "time": 2.5, "location": {"lat": 29.19610955543686, "lng": 117.74596361736874}, "feature": {"sight_features": "", "sight_content": ""}}, {"title": "灵岩洞国家森林公园", "address": "上饶市婺源县古坦村西侧", "image": "", "rank": 26, "time": 1.5, "location": {"lat": 29.45340774860757, "lng": 117.69075813279663}, "feature": {"sight_features": "", "sight_content": ""}}, {"title": "官坑", "address": "上饶市婺源县段莘乡", "image": "", "rank": 27, "time": 2.5, "location": {"lat": 29.504629401454338, "lng": 117.99850343952538}, "feature": {"sight_features": "", "sight_content": ""}}, {"title": "俞氏宗祠", "address": "上饶市婺源县江湾镇汪口村", "image": "", "rank": 28, "time": 0.5, "location": {"lat": 29.355472905889574, "lng": 117.99783691121007}, "feature": {"sight_features": "", "sight_content": ""}}, {"title": "虹关", "address": "上饶市婺源县浙源乡虹关", "image": "", "rank": 29, "time": 2.0, "location": {"lat": 29.524520022645042, "lng": 117.90777538433608}, "feature": {"sight_features": "", "sight_content": ""}}, {"title": "岭脚", "address": "上饶市婺源县浙源乡岭脚村", "image": "", "rank": 30, "time": 2.5, "location": {"lat": 29.54456594056668, "lng": 117.92830320852117}, "feature": {"sight_features": "", "sight_content": ""}}, {"title": "长溪村", "address": "上饶市婺源县赋春镇长溪村", "image": "", "rank": 31, "time": 2.5, "location": {"lat": 29.325901688087804, "lng": 117.55119211486092}, "feature": {"sight_features": "", "sight_content": ""}}, {"title": "洪村", "address": "上饶市婺源县清华镇洪村", "image": "", "rank": 32, "time": 4.0, "location": {"lat": 29.382249527746957, "lng": 117.72108352814179}, "feature": {"sight_features": "特色1 婺源著名的长寿村，历史上最长寿者达119岁，清朝赐名“长寿故里”。", "sight_content": "半月溪水半月村的洪村，是集“国家重点文物保护单位”、“中国民俗文化村”、“中国传统古村落”于一身的典型徽派古村落。也是香港影帝周润发钟情之地，更有不少明星影星在此拍摄电影、电视剧。2008年至今，周润发先生已经几次来到洪村品长寿美食，探长寿奥秘。\n洪村，顾名思义，是一个以洪姓为主的乡间古村，现有130余户人家，近600人口。洪村的始迁祖叫洪济，北宋仁宗天圣年间（1023—1031），从本县大鄣山下的洪源村迁居到此，距今已有约千年历史。而车田洪源则是宋徽宗大学士洪皓、金石家洪适、钱币学家洪尊、太平天国天王洪秀全的祖籍地。\n洪村自古就是“长寿古里”。而且村口拱门上的“长寿古里”石碑就是嘉庆皇帝的亲笔赐书。人们常说：“人生七十古来稀”。但是在洪村，活到七十岁太平常了。历史上，洪村就曾有人活到119岁。洪村人，时授儒林郎的洪锦文曾在他80岁时，受康熙皇帝邀请，参加了在乾清宫举办的“千叟宴”。能够参加皇帝“千叟宴”的人，全国不过千人。即便今天，在这个长寿古地依然随处可见八、九十岁的老寿星。洪村为什么被称为“长寿古里”？洪村人为什么会长寿？有人说是这里的山水好，有人说是这里的空气好，也有人说这里的生活习惯好，还有人说是……。到底是什么原因呢，不妨您亲自去探个究竟吧！说不定真就让您找到长寿秘诀，破解洪村的长寿密码，找到不老仙丹。"}}, {"title": "百柱宗祠", "address": "上饶市婺源县古坦乡黄村", "image": "", "rank": 33, "time": null, "location": {"lat": 29.463109192519745, "lng": 117.71134101592303}, "feature": {"sight_features": "", "sight_content": ""}}, {"title": "漳村", "address": "上饶市婺源县漳村", "image": "", "rank": 34, "time": 1.5, "location": {"lat": 29.36484301846454, "lng": 117.82347223113518}, "feature": {"sight_features": "", "sight_content": ""}}, {"title": "段莘水库", "address": "上饶市婺源县段莘乡庆源村", "image": "", "rank": 35, "time": 1.5, "location": {"lat": 29.467853437085054, "lng": 118.01049681609703}, "feature": {"sight_features": "", "sight_content": ""}}, {"title": "婺源博物馆", "address": "上饶市婺源县蚺城街道", "image": "", "rank": 36, "time": 1.0, "location": {"lat": 29.261256505396027, "lng": 117.89228903302734}, "feature": {"sight_features": "", "sight_content": ""}}, {"title": "源头古村", "address": "上饶市婺源县赋春镇源头村", "image": "", "rank": 37, "time": 2.0, "location": {"lat": 29.403579760364746, "lng": 117.61325461960888}, "feature": {"sight_features": "特色1 典型徽派建筑，大片千年红豆杉群，养生休闲的度假胜地。", "sight_content": "源头风景区座落在婺源县赋春镇源头村。始于明代洪武年间，距今700多年。是婺源旅游又一个新的亮点。这是一个原生态的景区，空气好、环境好，景区内保存着大片的阔叶林和竹林。源头也可以说是一个浓缩版的婺源，这里有金黄的油菜花田、婺源村落特有的水口、秀水环绕的溪水人家、文化底蕴深厚的探源书屋、古朴典雅的窥月茶楼和如天然氧吧一样的龙泉溪谷，有上千年树龄的红豆杉群，使这个村庄成为一个地道的生态村。整个景区溶自然生态与文化于一身。是您寻访三十年前婺源那副小桥、流水、人家的美丽画卷。绵延40里长的山脉有青山、绿树，更有清泉，村中这条蜿蜒小溪，就是从40里长的山脉中流出的天然好水。依托这里的生态环境，源头古村已经逐步成为旅游观光、商务会议、休闲养生、度假聚会的一个精品景区。"}}, {"title": "石城程村", "address": "上饶市婺源县大鄣山乡石城程村", "image": "", "rank": 38, "time": 2.5, "location": {"lat": 29.46025059426718, "lng": 117.74224617584751}, "feature": {"sight_features": "", "sight_content": ""}}, {"title": "查平坦", "address": "上饶市婺源县沱川乡查平坦村", "image": "", "rank": 39, "time": 2.5, "location": {"lat": 29.508157017364848, "lng": 117.85736199853932}, "feature": {"sight_features": "", "sight_content": ""}}, {"title": "菊径村", "address": "上饶市婺源县大鄣山乡菊径村", "image": "", "rank": 40, "time": 1.0, "location": {"lat": 29.46897445300693, "lng": 117.65647299957836}, "feature": {"sight_features": "", "sight_content": ""}}, {"title": "清风仙境", "address": "上饶市婺源县西北部赋春镇严田王村", "image": "", "rank": 41, "time": 3.5, "location": {"lat": 29.373398545101413, "lng": 117.67018725462509}, "feature": {"sight_features": "特色1 感受让岳飞发出感叹的清风，观赏二亿年前形成的“喀斯特”溶洞。", "sight_content": "清风仙境：今二亿多年前古生代时期形成的“喀斯特”溶洞。洞中钟乳、石笋千姿百态，晶莹绚丽。大自然的鬼斧神工，造就“仙女潭”、“龙宫”、“定海神针”、“青螺水帘”、“蟠桃瑶池”、“凤凰池”、“仙人桥”、“石门关”、“千佛山”、“擎天柱”等众多景观，令人目不暇接，留连忘返。婺源地处中亚热带，四季分明，而洞内则另一个世界。隆冬时节，雾气腾腾，洞内温暖如春；盛夏之时，洞外知了声不断，而洞府之内，凉爽如龙宫。龙宫内有“龙井”，相传昔日乡人祷雨辙应。洞府之上，坡石林立，曲径通幽。实为旅游好去处。\n岩洞之美：洞是由于具有侵蚀性的流水沿石灰岩层面裂隙溶蚀、侵蚀、塌陷而形成的岩石空洞，洞内常有各类滴水石沉积物。岩溶洞穴由于它的物象和空间环境引起人们的美感，而成为风景区或风景点中国《易经》、《山海经》、《神农本草经》都有关于岩洞的记载和描述。晋代以来的方志对岩洞都有记述，隋代有记述岩洞的专著《穴篇》。从唐宋起，岩洞逐渐成为研究对象和游览场所，岩洞题记和洞口摩崖造像日渐增多岩洞美是指自然造就的洞穴景观之美。主要是因地下水对石灰岩、白云岩、石膏岩等易溶岩石，通过千百万年的浸蚀或加人工雕凿而成。是自然美的类型之一。岩洞美的特征集中表现为“奇美”，可谓是变化莫测、奥妙无穷。\n岩洞美的内容主要包括：\n‍‍‍‍‍   一、多变的空间美：于岩溶的作用，一些大型的洞穴都呈现出富于变化的空间美。不同色彩、不同形状的空间，既有宽敞的大厅，又有迂回的长廊，上下、左右、前后相互套叠、巧妙衔接，结构复杂。\n二、洞壁的造型美：水中碳酸钙的沉积作用，洞壁构造千百态。石柱、石笋、石钟乳如立体的圆雕；石花、石屏、石幔似浅刻的浮雕。\n三、水石交融之美：由于地层结构上的特点，溶洞内往往多水流、瀑布、洞泉。动水和奇石相映生辉，使溶洞更富动态美。\n朋友，清风洞窟欢迎您来探奇！清风仙境欢迎您来当一回“神仙”！‍‍‍‍‍"}}, {"title": "严田古樟民俗园", "address": "上饶市婺源县赋春镇严田风景区内", "image": "", "rank": 42, "time": 2.0, "location": {"lat": 29.367974845956482, "lng": 117.65902673212537}, "feature": {"sight_features": "", "sight_content": ""}}, {"title": "巨蟒出山", "address": "上饶市三清山景区内", "image": "", "rank": 43, "time": 2, "location": {"lat": 28.88498948272772, "lng": 118.07089430888787}, "feature": {"sight_features": "", "sight_content": ""}}, {"title": "浙源龙天塔", "address": "上饶市婺源县浙源乡", "image": "", "rank": 44, "time": 1.5, "location": {"lat": 29.501332568542377, "lng": 117.89676066580364}, "feature": {"sight_features": "", "sight_content": ""}}, {"title": "汪槎村", "address": "上饶市婺源县段莘乡", "image": "", "rank": 45, "time": 2.0, "location": {"lat": 29.504629401454338, "lng": 117.99850343952538}, "feature": {"sight_features": "", "sight_content": ""}}, {"title": "篁村", "address": "江西省上饶市婺源县篁村", "image": "", "rank": 46, "time": 2.0, "location": {"lat": 29.516892424765725, "lng": 117.81185256223182}, "feature": {"sight_features": "", "sight_content": ""}}, {"title": "察关村", "address": "上饶市婺源县浙源乡", "image": "", "rank": 47, "time": 1.0, "location": {"lat": 29.501332568542377, "lng": 117.89676066580364}, "feature": {"sight_features": "", "sight_content": ""}}, {"title": "双井映月", "address": "上饶市婺源县江湾镇晓起村", "image": "", "rank": 48, "time": 0.25, "location": {"lat": 29.398637923872762, "lng": 118.03722778387748}, "feature": {"sight_features": "", "sight_content": ""}}, {"title": "龙尾村", "address": "上饶市婺源县溪头乡", "image": "", "rank": 49, "time": 1.0, "location": {"lat": 29.478798673731028, "lng": 118.07474391809873}, "feature": {"sight_features": "", "sight_content": ""}}, {"title": "大夫第", "address": "上饶市婺源县秋口镇李坑村", "image": "", "rank": 50, "time": 1.5, "location": {"lat": 29.328447384564768, "lng": 117.93724207956318}, "feature": {"sight_features": "", "sight_content": ""}}, {"title": "百寿花厅", "address": "上饶市婺源县思口镇思溪村", "image": "", "rank": 51, "time": 0.5, "location": {"lat": 29.343840641125063, "lng": 117.79820409099588}, "feature": {"sight_features": "", "sight_content": ""}}, {"title": "沱川", "address": "上饶市婺源县沱川乡", "image": "", "rank": 52, "time": 1.5, "location": {"lat": 29.530841318841848, "lng": 117.82911511595705}, "feature": {"sight_features": "", "sight_content": ""}}, {"title": "延村", "address": "上饶市婺源县思口镇思溪延村内", "image": "", "rank": 53, "time": 0.75, "location": {"lat": 29.344900857875214, "lng": 117.81014963818899}, "feature": {"sight_features": "", "sight_content": ""}}, {"title": "双河村", "address": "上饶市婺源县清华镇", "image": "", "rank": 54, "time": 1.0, "location": {"lat": 29.420604136589052, "lng": 117.79077258737878}, "feature": {"sight_features": "", "sight_content": ""}}, {"title": "下晓起", "address": "上饶市婺源县江湾镇晓起村内", "image": "", "rank": 55, "time": 0.75, "location": {"lat": 29.398637923872762, "lng": 118.03722778387748}, "feature": {"sight_features": "", "sight_content": ""}}, {"title": "茶坑", "address": "上饶市婺源县思口镇", "image": "", "rank": 56, "time": 1.5, "location": {"lat": 29.376620358719602, "lng": 117.80762690436852}, "feature": {"sight_features": "", "sight_content": ""}}, {"title": "东方女神", "address": "上饶市玉山县三清山景区内", "image": "", "rank": 57, "time": 3.0, "location": {"lat": 28.88498948272772, "lng": 118.07089430888787}, "feature": {"sight_features": "", "sight_content": ""}}, {"title": "上晓起", "address": "上饶市婺源县江湾镇晓起村内", "image": "", "rank": 58, "time": 0.75, "location": {"lat": 29.398637923872762, "lng": 118.03722778387748}, "feature": {"sight_features": "", "sight_content": ""}}, {"title": "徽饶驿道", "address": "上饶市婺源县江湾镇晓起村", "image": "", "rank": 59, "time": 1.0, "location": {"lat": 29.398637923872762, "lng": 118.03722778387748}, "feature": {"sight_features": "", "sight_content": ""}}, {"title": "西海岸景区", "address": "上饶市玉山县三清山景区西部", "image": "", "rank": 60, "time": 3.0, "location": {"lat": 28.88498948272772, "lng": 118.07089430888787}, "feature": {"sight_features": "", "sight_content": ""}}]}