{"cityName": "上高", "days": 2, "cityImage": "", "spots": [{"title": "上高县博物馆", "address": "宜春市上高县敖阳街道和平路29号", "image": "", "rank": 1, "time": 1.0, "location": {"lat": 28.2418606794631, "lng": 114.93355201545694}, "feature": {"sight_features": "", "sight_content": ""}}, {"title": "九峰山森林公园", "address": "宜春市上高县366乡道北100米", "image": "", "rank": 2, "time": 3.5, "location": {"lat": 28.23881549025242, "lng": 114.93154115857352}, "feature": {"sight_features": "", "sight_content": ""}}, {"title": "夏威夷水上乐园", "address": "宜春市上高县野市大道西50米", "image": "", "rank": 3, "time": 2.0, "location": {"lat": 28.312506148129835, "lng": 114.94522639386078}, "feature": {"sight_features": "", "sight_content": "上高县夏威夷水上乐园位于昌栗高速上高东出口路段300米处（野市乡红绿旁），集合国内先进的戏水，玩水和水上休闲设施，以健康，休闲，娱乐，合家欢为主题，以“海啸风暴”为主体打造的一处旅游休闲集散地。"}}, {"title": "考拉大冒险", "address": "沿江东路滨江豪园二楼(青阳桥头旁)", "image": "", "rank": 4, "time": 2, "location": {"lat": 30.645634346235052, "lng": 117.85343129913953}, "feature": {"sight_features": "", "sight_content": ""}}, {"title": "芙蓉广场", "address": "江西省宜春市上高县G320(上高大道)", "image": "", "rank": 5, "time": 2, "location": {"lat": 28.26169358912284, "lng": 114.97456056027941}, "feature": {"sight_features": "", "sight_content": ""}}, {"title": "佛光普照", "address": "宜春市上高县", "image": "", "rank": 6, "time": 2, "location": {"lat": 28.23881549025242, "lng": 114.93154115857352}, "feature": {"sight_features": "", "sight_content": ""}}, {"title": "镜湖公园", "address": "江西省宜春市上高县敖阳街道镜山大道世纪豪庭东200米", "image": "", "rank": 7, "time": 2.0, "location": {"lat": 28.240736867214505, "lng": 114.95257451855707}, "feature": {"sight_features": "", "sight_content": ""}}, {"title": "锦绣广场", "address": "芙蓉路与锦绣路交叉口西150米", "image": "", "rank": 8, "time": 2, "location": {"lat": 28.26026272310579, "lng": 114.95537454042397}, "feature": {"sight_features": "", "sight_content": ""}}, {"title": "宜春神山湖生态园度假村", "address": "宜春上高县野市乡稍溪村上神山前", "image": "", "rank": 9, "time": 1.0, "location": {"lat": 28.342819993937518, "lng": 114.9301230872078}, "feature": {"sight_features": "", "sight_content": "宜春神山湖生态园度假村位于上高县野市乡稍溪村，目前建有游客服务中心、生态停车场、旅游公厕、旅游超市，还有：烧烤园、野炊体验场、环湖山地自行车赛道、水上休闲中心、CS、九子娘娘庙、拓展训练基地、树熊森林探险、鳄鱼谷、骑马场、餐饮、樱花谷、桂花园、游乐区、稻虾共养区、休闲采摘区等十多个项目。"}}, {"title": "星期六儿童成长主题乐园", "address": "交通路与商城北路交叉口东150米", "image": "", "rank": 10, "time": 2, "location": {"lat": 28.243872232024042, "lng": 114.9427637090687}, "feature": {"sight_features": "", "sight_content": ""}}, {"title": "街心花园广场", "address": "江西省宜春市上高县和平路23号", "image": "", "rank": 11, "time": 2, "location": {"lat": 28.24326747104576, "lng": 114.93558219579019}, "feature": {"sight_features": "", "sight_content": ""}}, {"title": "凤凰山庄", "address": "557县道附近", "image": "", "rank": 12, "time": 2, "location": {"lat": 41.38641568535809, "lng": 113.9448837235209}, "feature": {"sight_features": "", "sight_content": ""}}, {"title": "九峰寺", "address": "宜春市上高县366乡道西100米", "image": "", "rank": 13, "time": 2, "location": {"lat": 28.23881549025242, "lng": 114.93154115857352}, "feature": {"sight_features": "", "sight_content": ""}}, {"title": "石湖休闲农庄", "address": "320国道", "image": "", "rank": 14, "time": 2, "location": {"lat": 27.256565251327487, "lng": 111.28158164529765}, "feature": {"sight_features": "", "sight_content": ""}}, {"title": "上高县鑫河牧业专业合作社", "address": "明星路11号", "image": "", "rank": 15, "time": 2, "location": {"lat": 41.22132113833603, "lng": 123.085242002022}, "feature": {"sight_features": "", "sight_content": ""}}]}