{"cityName": "上林", "days": 2, "cityImage": "", "spots": [{"title": "大龙湖景区", "address": "南宁市上林县西燕镇", "image": "", "rank": 1, "time": 3.5, "location": {"lat": 23.538713340883515, "lng": 108.52122933148662}, "feature": {"sight_features": "", "sight_content": ""}}, {"title": "三里洋渡风景区", "address": "南宁市上林县澄泰乡洋渡小学附近", "image": "", "rank": 2, "time": 3.5, "location": {"lat": 23.470224881767287, "lng": 108.71462861843007}, "feature": {"sight_features": "", "sight_content": ""}}, {"title": "霞客桃源景区", "address": "南宁市上林县澄泰乡下金庄", "image": "", "rank": 3, "time": 2, "location": {"lat": 23.43252646871156, "lng": 108.67710914251231}, "feature": {"sight_features": "特色1 霞客桃源景区以明代本土文化为主题。 特色2 景区有近千亩花田，四季风景秀丽。 特色3 清水河两岸有全国著名的唐碑、智城大庙等多处文化古迹。", "sight_content": "霞客桃源壮乡旅游度假区位于广西南宁上林县澄泰乡下金庄，有历史记载当年明代旅行家徐霞客在此驻足了54天，留下了一万多字的游记，这里的田间乡野、高山河流都留下的徐霞客走过的足迹，是他整个旅行人生中眷恋的地方。\n2015年霞客桃源景区被评为国家3AAA级景区，于同年5月18日列入首批徐霞客游线标志地。霞客桃源壮乡旅游度假区是由五大主题田园观光，水上娱乐，竹林烧烤，古村风情，霞客栈道组成的，将休闲养生，田园体验等多项目为一体的\n旅游观光度假基地。\n1.田园观光：景区有近千亩花田，四季风景秀丽，冬春季看油菜花、桃花，夏秋季看葵花、荷花。后期我们还增加了近一百亩的澳洲坚果采摘园。\n2.水上娱乐：游客可以在霞客古渡码头乘坐游船顺清水河而下，沿途近观葵花园及沿河两岸的茂密竹林和各壮乡村庄的风土人情、远观情侣山、簪（zan）笔山等景点。徐霞客在《徐霞客游记》中称赞：“其山千百为群，或离或合，山虽小而变态特甚。”\n3.竹林烧烤：游客可在竹林区里进行自助烧烤，在秋冬到来的季节可在这重拾童年的乐趣—搭红薯窑，景区可提供一些食材与辅助材料工具，让游客自行动手体验乡土乐趣。\n4.古村风情：下金庄民风淳朴，村落建筑古典别致，闲庭信步，放松心灵，感受纯真与自然。村内建设了一座明代生活体验馆，一座壮族生活体验馆，让游客对明代旅行家徐霞客的旅行人生和壮族文化有一种更深入的认识。\n5.霞客栈道：当年徐霞客为了更好的浏览整个洋渡风光特地沿着山体披荆斩棘，攀上顶峰（就是现在所谓的半山观景台），最终感受到了让他最眷恋的地方。同时游客可以体验到徐霞客坚韧不拔的古风侠情。金秋时节整个霞客桃源景区不管是清晨还是夕阳，都是最美的时候！再加上扑面而来的稻花香，无疑是摄影爱好者和思乡者的好去处。"}}, {"title": "下水源", "address": "南宁市上林县大丰镇郊区9公里处下水源村", "image": "", "rank": 4, "time": null, "location": {"lat": 23.441124056119957, "lng": 108.5974163527974}, "feature": {"sight_features": "", "sight_content": ""}}, {"title": "鼓鸣寨", "address": "南宁市上林县巷贤镇长联村古民庄", "image": "", "rank": 5, "time": 0.75, "location": {"lat": 23.210214561152927, "lng": 108.67809153031601}, "feature": {"sight_features": "", "sight_content": ""}}, {"title": "莲音寺", "address": "南宁市上林县001乡道东100米", "image": "", "rank": 6, "time": 0.75, "location": {"lat": 23.438518877662855, "lng": 108.61145148077557}, "feature": {"sight_features": "", "sight_content": ""}}, {"title": "木棉王", "address": "南宁市上林县大丰镇里丹村云阳庄", "image": "", "rank": 7, "time": 0.25, "location": {"lat": 23.47849789589451, "lng": 108.56537676865831}, "feature": {"sight_features": "", "sight_content": ""}}, {"title": "毛塘湿地公园", "address": "南宁市上林县白圩镇覃排村毛塘湿地公园", "image": "", "rank": 8, "time": 2.0, "location": {"lat": 23.43829523643416, "lng": 108.80717953492231}, "feature": {"sight_features": "", "sight_content": ""}}, {"title": "东红湿地", "address": "南宁市上林县澄泰乡", "image": "", "rank": 9, "time": 1.5, "location": {"lat": 23.43252646871156, "lng": 108.67710914251231}, "feature": {"sight_features": "", "sight_content": ""}}, {"title": "耀军村百亩油葵", "address": "南宁市上林县白圩镇清水河畔耀军村", "image": "", "rank": 10, "time": 2.0, "location": {"lat": 23.456446042604814, "lng": 108.83784630432726}, "feature": {"sight_features": "", "sight_content": ""}}, {"title": "不孤村", "address": "南宁市上林县白圩镇不孤村", "image": "", "rank": 11, "time": 1.5, "location": {"lat": 23.440355650849384, "lng": 108.7836274520524}, "feature": {"sight_features": "", "sight_content": ""}}, {"title": "上林油菜花田", "address": "南宁市上林县，位于上林至西燕镇的路上", "image": "", "rank": 12, "time": 2.5, "location": {"lat": 23.538713340883515, "lng": 108.52122933148662}, "feature": {"sight_features": "", "sight_content": ""}}, {"title": "金莲湖风景区", "address": "南宁市上林县城的北面，距县城8公里。", "image": "", "rank": 13, "time": 0.75, "location": {"lat": 23.438518877662855, "lng": 108.61145148077557}, "feature": {"sight_features": "", "sight_content": ""}}, {"title": "智城城址", "address": "南宁市上林县白圩镇爱长村智城城址", "image": "", "rank": 14, "time": 2, "location": {"lat": 23.45027798800437, "lng": 108.76807410781367}, "feature": {"sight_features": "", "sight_content": ""}}, {"title": "大明山万古茶园", "address": "南宁市上林县488县道", "image": "", "rank": 15, "time": 1.5, "location": {"lat": 23.45760077878808, "lng": 108.58688498101901}, "feature": {"sight_features": "", "sight_content": ""}}, {"title": "犬猎主题休闲山庄", "address": "澄泰乡安宁村上韦庄", "image": "", "rank": 16, "time": 2, "location": {"lat": 36.10975375497273, "lng": 103.72553503682038}, "feature": {"sight_features": "", "sight_content": ""}}, {"title": "广西农垦国有大明山农场", "address": "新明路北50米", "image": "", "rank": 17, "time": 1.0, "location": {"lat": 22.98980352699119, "lng": 113.1421937926471}, "feature": {"sight_features": "", "sight_content": ""}}, {"title": "热气球主题乐园", "address": "南宁市上林县巷贤镇高贤社区鹅庄（巷贤派出所对面）", "image": "", "rank": 18, "time": 2, "location": {"lat": 23.26958758355844, "lng": 108.68684150118392}, "feature": {"sight_features": "", "sight_content": ""}}, {"title": "桃园农家乐", "address": "大明山东春村排干庄路口处(排干庄)", "image": "", "rank": 19, "time": 2, "location": {"lat": 23.424853134493326, "lng": 108.55282195473632}, "feature": {"sight_features": "", "sight_content": ""}}, {"title": "野生动物宣传教育展馆", "address": "两江镇大明山", "image": "", "rank": 20, "time": 2, "location": {"lat": 23.53049793968487, "lng": 108.37070542721482}, "feature": {"sight_features": "", "sight_content": ""}}, {"title": "上林影剧院", "address": "大丰街96号星洲购物中心对面", "image": "", "rank": 21, "time": 2, "location": {"lat": 23.43868756860578, "lng": 108.60116178192507}, "feature": {"sight_features": "", "sight_content": ""}}, {"title": "天书草坪", "address": "两江镇大明山", "image": "", "rank": 22, "time": 2, "location": {"lat": 23.53049793968487, "lng": 108.37070542721482}, "feature": {"sight_features": "", "sight_content": ""}}, {"title": "开心豆儿童游乐园", "address": "澄州路30号", "image": "", "rank": 23, "time": 2, "location": {"lat": 23.437264879732318, "lng": 108.60790431216542}, "feature": {"sight_features": "", "sight_content": ""}}, {"title": "大明山瀑布山庄", "address": "龙尾瀑布附近", "image": "", "rank": 24, "time": 3.0, "location": {"lat": 23.511085024606434, "lng": 108.44446800998891}, "feature": {"sight_features": "", "sight_content": ""}}, {"title": "望兵山", "address": "广西壮族自治区武鸣县两江镇明山路1号 530100", "image": "", "rank": 25, "time": 2, "location": {"lat": 23.50388923987235, "lng": 108.44542854291787}, "feature": {"sight_features": "", "sight_content": ""}}, {"title": "外滩18号水立方", "address": "广西壮族自治区南宁市上林县大丰镇法性寺附近", "image": "", "rank": 26, "time": 2, "location": {"lat": 23.427322928816427, "lng": 108.5660045108366}, "feature": {"sight_features": "", "sight_content": ""}}, {"title": "龙榜会议革命遗址", "address": "上林县龙榜村", "image": "", "rank": 27, "time": 2, "location": {"lat": 23.438518877662855, "lng": 108.61145148077557}, "feature": {"sight_features": "", "sight_content": ""}}, {"title": "儿童乐园", "address": "南宁市上林县霞客路264号", "image": "", "rank": 28, "time": 2, "location": {"lat": 23.437474858830605, "lng": 108.61338547235145}, "feature": {"sight_features": "", "sight_content": ""}}, {"title": "上林县壮族老家博物馆", "address": "广西壮族自治区南宁市上林县明山路116", "image": "", "rank": 29, "time": 1.5, "location": {"lat": 23.43834211205971, "lng": 108.6116327696071}, "feature": {"sight_features": "", "sight_content": ""}}, {"title": "法性寺", "address": "南宁市上林县", "image": "", "rank": 30, "time": 2.0, "location": {"lat": 23.438518877662855, "lng": 108.61145148077557}, "feature": {"sight_features": "", "sight_content": ""}}, {"title": "三教寺", "address": "延东街与正街交叉口东南100米", "image": "", "rank": 31, "time": 7.5, "location": {"lat": 23.439991021388753, "lng": 108.6028691193429}, "feature": {"sight_features": "", "sight_content": ""}}, {"title": "上林县图书馆", "address": "丰岭路150号", "image": "", "rank": 32, "time": 2, "location": {"lat": 30.25120094157361, "lng": 120.04030144479421}, "feature": {"sight_features": "", "sight_content": ""}}, {"title": "肉肉", "address": "广西上林", "image": "", "rank": 33, "time": 2, "location": {"lat": 23.438518877662855, "lng": 108.61145148077557}, "feature": {"sight_features": "", "sight_content": ""}}, {"title": "龙湖新城游乐园", "address": "大丰龙湖新城游乐园", "image": "", "rank": 34, "time": 2, "location": {"lat": 33.20475984971028, "lng": 120.50743881648788}, "feature": {"sight_features": "", "sight_content": ""}}, {"title": "上林·半岛机车音乐节", "address": "澄泰乡霞客半岛景区", "image": "", "rank": 35, "time": 2, "location": {"lat": 30.215078819349156, "lng": 120.02918700767339}, "feature": {"sight_features": "", "sight_content": ""}}, {"title": "上林县大丰镇社区艺术团", "address": "那桂路", "image": "", "rank": 36, "time": 2, "location": {"lat": 23.435736653165616, "lng": 108.60092207808287}, "feature": {"sight_features": "", "sight_content": ""}}, {"title": "内韦农家乐餐厅", "address": "内韦村", "image": "", "rank": 37, "time": 2, "location": {"lat": 24.693463672894076, "lng": 107.83852060530002}, "feature": {"sight_features": "", "sight_content": ""}}, {"title": "鱼王生态农庄", "address": "南宁市-上林县-白圩镇覃排派出所西南", "image": "", "rank": 38, "time": 2, "location": {"lat": 23.460659312907442, "lng": 108.80174375892724}, "feature": {"sight_features": "", "sight_content": ""}}, {"title": "源和园山庄水上乐园", "address": "南宁市-上林县-大丰镇大明山茶场", "image": "", "rank": 39, "time": 2, "location": {"lat": 23.43138979367585, "lng": 108.58736103443064}, "feature": {"sight_features": "", "sight_content": ""}}, {"title": "望山雲阁避暑山庄", "address": "南宁市-上林县-新明路", "image": "", "rank": 40, "time": 2, "location": {"lat": 23.434253593457314, "lng": 108.58978423510236}, "feature": {"sight_features": "", "sight_content": ""}}, {"title": "大明山林场天平分场", "address": "南宁市-上林县-大明山宾馆南(50245专用道南)", "image": "", "rank": 41, "time": 3.0, "location": {"lat": 23.502289687874338, "lng": 108.44626760158596}, "feature": {"sight_features": "", "sight_content": ""}}, {"title": "蔡氏古院", "address": "南宁市宾阳县古辣镇的蔡村", "image": "", "rank": 42, "time": 2, "location": {"lat": 23.09999283178841, "lng": 109.01862918053992}, "feature": {"sight_features": "", "sight_content": ""}}]}