{"cityName": "邵阳", "days": "", "cityImage": "", "spots": [{"title": "崀山国家级风景区", "address": "邵阳市新宁县崀山镇S218省道附近崀山国家级风景名胜区", "image": "", "rank": 1, "time": 4.5, "location": {"lat": 26.359976519639954, "lng": 110.80219231956066}, "feature": {"sight_features": "特色1 自然景观独具特色，多奇异的石头山峰、幽深的溶洞。 特色2 风光如画，有桂林的美丽；有青城山的幽静；有泰山的雄奇。 特色3 古今文人墨客在这里写下了不少脍炙人口的华章诗赋，著名诗人艾青也发出了“桂林山水甲天下，崀山山水赛桂林”的咏叹。", "sight_content": "崀山风景名胜区属典型的丹霞地貌和环保型山水自然风景区，总面积108平方公里，含天一巷、八角寨、夫夷江、辣椒峰、紫霞峒、天生桥六大景区，是世界自然遗产、国家5A级旅游景区。崀山，自然景观独具特色，多奇异的石头山峰、幽深的溶洞。资江上游的扶夷江（夫夷水）蜿蜒贯穿南北，风光如画，有桂林的美丽；有青城山的幽静；有泰山的雄奇。崀山气候属于亚热带湿润季风气候，四季分明，气候宜人，年平均气温17℃。夫夷水常年水流不断，清澈见底。植被茂盛，生长着许多珍稀名贵物种，有“植物熊猫”银杉、珙桐、国家一级保护动物华南虎、云豹、锦鸡、灵猫、大鲵等。森林覆盖率超过70%，生态环境非常优越。崀山，人文景观同样非常丰富。有出土的10万年前的猕猴头骨化石，4500年前的新石器文化遗址，历代农民起义的古战城堡，晚清重臣的宗祠墓葬。汉、瑶、苗、壮民族杂居，民族风情异彩纷呈。古今文人墨客在这里写下了不少脍炙人口的华章诗赋，著名诗人艾青也发出了“桂林山水甲天下，崀山山水赛桂林”的咏叹。\n\n\n崀山是现今全国乃至世界稀有的大面积丹霞地貌景区。崀山被誉为“丹霞之魂，国之瑰宝”，被列入世界自然遗产，景区总面积108平方千米，有八角寨、天下第一巷、辣椒峰、天生桥、紫霞峒、夫夷江6大景区，而六绝则是指天下第一巷、鲸鱼闹海、辣椒峰、骆驼峰、天生桥、将军山。\n第一绝是【天下第一巷】：位于天一巷景区，全长238.8米，两侧石壁高120—180余米，最宽处0.8米，最窄处0.33米，可谓世界一线天绝景。2009年，崀山天一巷入选世界纪录协会世界第一巷，创造了世界之最。\n第二绝是【鲸鱼闹海】：位于八角寨景区，俯视峡谷，浮云飘渺，奇峰异石，时而露出头尾，恰似千万条鲸鱼在海中嬉戏；\n第三绝是【将军石】：何家湾对面山上有块大石头，远看貌似披着披风的大将军临水立于扶夷江畔。位于芙夷江景区，海拔399.5米，石柱净高75米，周长40米，沿夫夷江漂流而下，只见将军石背负青天，下临夫夷江，昂首挺胸，披坚执锐，虎虎声威。\n第四绝是【骆驼峰】：位于辣椒峰景区，峰高187.8米，长273米，有两处凹陷，分成骆驼头，骆驼背峰和骆驼尾，形象逼真，惟妙惟肖；\n第五绝是【天生桥】：桥墩长64米，宽14米，高20米，桥面厚度5米，全桥呈圆拱形，划天而过，气势磅礴，被誉为亚洲第一桥；\n第六绝是【辣椒峰】：位于辣椒峰景区，高达180米，头大脚小，恰似一只硕大无比的辣椒。\n【夫夷江】\n夫夷江江水清澈，两岸树木葱茏、奇峰叠翠，景色如画。夫夷江古称夫彝水，是资江的南源，发源于广西资源县桐木江。夫夷江自南而北流经湖南新宁、邵阳县境，在邵阳县城西北的双江口与资江另一支流赧水汇合，全长248公里。夫夷江流入湖南境内后，河床变得开阔，江面如翠绿锦缎，水波清澈，漫江碧透，水中的沙石、游鱼历历可数。江的两岸，远处青山延绵，如绿色屏障，近处绿树盈岸，农舍的隐隐其中，炊烟袅袅，构成了一幅大自然的美丽画卷。\n【情满崀山，浪漫瑶乡】瑶族婚俗大典\n崀山的瑶族同胞祖祖辈辈生活在大山深处，逐步形成了瑶家独特的婚俗文化。瑶族的恋爱、婚姻一般比较自由，传统的瑶家婚俗一般包括说媒、订婚、择日、接亲、送亲、拜堂、洞房、回门等多个环节。本次活动以表演的形式真实还原了瑶家婚俗的核心环节。活动现场，身着瑶妆的“新郎”骑着高头大马，带着接亲队伍一路吹吹打打来到“新娘”家，通过山歌对唱闯入姑娘的闺房，“抢”出“新娘”，哭哭啼啼的“新娘”拜别父母，一身红妆被扶进花轿里。队伍到“家”，新娘下轿，“跨火盆”“踩瓦片”“三拜成亲”，精彩的民俗文化表演不时引来围观游客热烈的掌声、欢呼声。具体活动时间以景区公布为准，如有游客需要在此举行瑶族婚俗仪式或希望体验观看瑶族婚俗大典，请您提前咨询景区哦~"}}, {"title": "南山牧场", "address": "邵阳市城步苗族自治县南山镇", "image": "", "rank": 2, "time": null, "location": {"lat": 26.180671723194955, "lng": 110.13177294633999}, "feature": {"sight_features": "", "sight_content": ""}}, {"title": "魏源温泉", "address": "邵阳市隆回县", "image": "", "rank": 3, "time": 2, "location": {"lat": 27.119946440018886, "lng": 111.03950668527776}, "feature": {"sight_features": "", "sight_content": ""}}, {"title": "资江风光带", "address": "邵阳市新邵县", "image": "", "rank": 4, "time": 3.5, "location": {"lat": 27.327131739160276, "lng": 111.46444938798804}, "feature": {"sight_features": "", "sight_content": ""}}, {"title": "白水洞风景区", "address": "湘中新邵县境内", "image": "", "rank": 5, "time": 1.0, "location": {"lat": 27.327131739160276, "lng": 111.46444938798804}, "feature": {"sight_features": "", "sight_content": ""}}, {"title": "邵阳南山风景名胜", "address": "邵阳市城步苗族自治县南山牧场", "image": "", "rank": 6, "time": 2, "location": {"lat": 26.396203220077773, "lng": 110.32853713031585}, "feature": {"sight_features": "", "sight_content": ""}}, {"title": "魏源故居", "address": "邵阳市隆回县司门前镇学堂弯村之沙洲上", "image": "", "rank": 7, "time": 1.0, "location": {"lat": 27.476544748835945, "lng": 110.87109021059288}, "feature": {"sight_features": "", "sight_content": ""}}, {"title": "高洲温泉", "address": "邵阳市隆回县北部高州乡热水井村高洲温泉度假村", "image": "", "rank": 8, "time": 2, "location": {"lat": 27.614310746546426, "lng": 110.9508936571737}, "feature": {"sight_features": "", "sight_content": ""}}, {"title": "云山国家森林公园", "address": "邵阳市武冈市城南5公里处", "image": "", "rank": 9, "time": 13.5, "location": {"lat": 26.732898572991598, "lng": 110.6384076158804}, "feature": {"sight_features": "", "sight_content": ""}}, {"title": "崀山玉女岩", "address": "邵阳市新宁县水庙镇中山村五组", "image": "", "rank": 10, "time": 0.5, "location": {"lat": 26.80594046479217, "lng": 111.18666709926357}, "feature": {"sight_features": "", "sight_content": ""}}, {"title": "黄桑国家级自然保护区", "address": "邵阳市绥宁县黄桑坪苗族乡黄桑", "image": "", "rank": 11, "time": 2, "location": {"lat": 26.430212203074564, "lng": 110.0662982263169}, "feature": {"sight_features": "", "sight_content": ""}}, {"title": "白云洞", "address": "城步苗族自治县环城东路", "image": "", "rank": 12, "time": 2.5, "location": {"lat": 26.360991543061065, "lng": 110.32505341171876}, "feature": {"sight_features": "", "sight_content": ""}}, {"title": "夫夷侯国古都", "address": "新宁县金石镇中兴街犁头湾", "image": "", "rank": 13, "time": 2, "location": {"lat": 26.435055563728856, "lng": 110.85829205019984}, "feature": {"sight_features": "", "sight_content": ""}}, {"title": "辣椒峰景区", "address": "邵阳市新宁县崀山镇石田村", "image": "", "rank": 14, "time": 2.5, "location": {"lat": 26.355065899240486, "lng": 110.77204575707977}, "feature": {"sight_features": "", "sight_content": ""}}, {"title": "骆驼峰景区", "address": "邵阳市新宁县崀山镇石田村", "image": "", "rank": 15, "time": 2.5, "location": {"lat": 26.355065899240486, "lng": 110.77204575707977}, "feature": {"sight_features": "", "sight_content": ""}}, {"title": "玉女溪国家森林公园", "address": "邵阳市城步苗族自治县五团镇卜落水村", "image": "", "rank": 16, "time": 2, "location": {"lat": 26.617288030054112, "lng": 110.46956947119945}, "feature": {"sight_features": "", "sight_content": ""}}, {"title": "崀山油菜花", "address": "邵阳市新宁县崀山镇黄背村", "image": "", "rank": 17, "time": 0.5, "location": {"lat": 26.28910709192498, "lng": 110.77001536294982}, "feature": {"sight_features": "", "sight_content": ""}}, {"title": "昭阳公园", "address": "邵阳市邵东县", "image": "", "rank": 18, "time": 1.5, "location": {"lat": 27.264507471565526, "lng": 111.75049070295837}, "feature": {"sight_features": "", "sight_content": ""}}, {"title": "夫夷江漂流", "address": "邵阳市新宁县崀山镇水溪村", "image": "", "rank": 19, "time": 2, "location": {"lat": 26.317504783821104, "lng": 110.82465689042462}, "feature": {"sight_features": "", "sight_content": ""}}, {"title": "紫霞峒风景区", "address": "邵阳市新宁县崀山镇黄背村", "image": "", "rank": 20, "time": 1.0, "location": {"lat": 26.28910709192498, "lng": 110.77001536294982}, "feature": {"sight_features": "", "sight_content": ""}}, {"title": "玉女岩风景区", "address": "邵阳市新宁县水庙镇中山村五组", "image": "", "rank": 21, "time": 0.7, "location": {"lat": 26.80594046479217, "lng": 111.18666709926357}, "feature": {"sight_features": "", "sight_content": ""}}, {"title": "桃花洞", "address": "湖南省邵阳市大祥区桃花村", "image": "", "rank": 22, "time": 2, "location": {"lat": 27.20052808019752, "lng": 111.46416465209063}, "feature": {"sight_features": "", "sight_content": ""}}, {"title": "天一巷风景区", "address": "邵阳市新宁县崀山镇半山村", "image": "", "rank": 23, "time": 2.5, "location": {"lat": 26.327549636331927, "lng": 110.827294715147}, "feature": {"sight_features": "", "sight_content": ""}}, {"title": "八角寨索道", "address": "邵阳市新宁县崀山镇八角寨景区内", "image": "", "rank": 24, "time": 2, "location": {"lat": 26.283278254248664, "lng": 110.74308716770321}, "feature": {"sight_features": "", "sight_content": ""}}, {"title": "怡卉园", "address": "邵阳市邵东县周官桥乡干塘王家", "image": "", "rank": 25, "time": 2, "location": {"lat": 27.23604002421202, "lng": 111.81087418218326}, "feature": {"sight_features": "", "sight_content": ""}}, {"title": "王城公园", "address": "都梁路41号", "image": "", "rank": 26, "time": 2.0, "location": {"lat": 26.732305199948044, "lng": 110.6406373898165}, "feature": {"sight_features": "", "sight_content": ""}}, {"title": "佘湖雪霁景区", "address": "湖南省邵阳市双清区城东乡", "image": "", "rank": 27, "time": 2, "location": {"lat": 27.254723720395717, "lng": 111.51469080217804}, "feature": {"sight_features": "", "sight_content": ""}}, {"title": "崀山脐橙果园", "address": "邵阳市新宁县崀山镇黄背村", "image": "", "rank": 28, "time": 1.0, "location": {"lat": 26.28910709192498, "lng": 110.77001536294982}, "feature": {"sight_features": "", "sight_content": ""}}, {"title": "鲤溪皮筏漂流", "address": "邵阳市新宁县", "image": "", "rank": 29, "time": 2, "location": {"lat": 26.439723697953905, "lng": 110.86349072743869}, "feature": {"sight_features": "", "sight_content": ""}}, {"title": "潭府玫瑰园", "address": "邵阳市新邵县潭府乡下潭村", "image": "", "rank": 30, "time": 2, "location": {"lat": 27.382341191067795, "lng": 111.6613539330981}, "feature": {"sight_features": "", "sight_content": ""}}, {"title": "山门镇", "address": "邵阳市洞口县", "image": "", "rank": 31, "time": 2, "location": {"lat": 27.06597543779858, "lng": 110.58257909625085}, "feature": {"sight_features": "", "sight_content": ""}}, {"title": "黄桑地质公园", "address": "湖南省邵阳市绥宁县", "image": "", "rank": 32, "time": 2, "location": {"lat": 26.588422719333217, "lng": 110.16241987037962}, "feature": {"sight_features": "", "sight_content": ""}}, {"title": "邵阳市博物馆", "address": "邵阳市双清区文化艺术中心", "image": "", "rank": 33, "time": 2.5, "location": {"lat": 27.239108783296654, "lng": 111.50344150643294}, "feature": {"sight_features": "", "sight_content": ""}}, {"title": "邵东兴和广场", "address": "邵阳市邵东县兴禾大道323号", "image": "", "rank": 34, "time": 2, "location": {"lat": 27.26428037646164, "lng": 111.74120219634808}, "feature": {"sight_features": "", "sight_content": ""}}, {"title": "罗溪国家森林公园", "address": "邵阳市洞口县", "image": "", "rank": 35, "time": 2, "location": {"lat": 27.06597543779858, "lng": 110.58257909625085}, "feature": {"sight_features": "", "sight_content": ""}}, {"title": "湖南中品水上乐园", "address": "邵阳市邵东县生态产业园北岭东路9号（黄陂桥乡政府旁）", "image": "", "rank": 36, "time": 2, "location": {"lat": 27.270120481837832, "lng": 111.80182566037752}, "feature": {"sight_features": "", "sight_content": ""}}, {"title": "绥宁黄桑", "address": "湖南省邵阳市绥宁县黄桑苗族乡", "image": "", "rank": 37, "time": 2, "location": {"lat": 26.588422719333217, "lng": 110.16241987037962}, "feature": {"sight_features": "", "sight_content": ""}}, {"title": "城步蒙古包草原度假村", "address": "城步南山镇南山牧场内（天湖旁）", "image": "", "rank": 38, "time": 2.5, "location": {"lat": 26.180671723194955, "lng": 110.13177294633999}, "feature": {"sight_features": "", "sight_content": ""}}, {"title": "绥宁县城", "address": "邵阳市绥宁县长铺镇", "image": "", "rank": 39, "time": 3.5, "location": {"lat": 26.58959975645623, "lng": 110.16359609993602}, "feature": {"sight_features": "", "sight_content": ""}}, {"title": "ibook阅读吧", "address": "沿江北路一桥路口水木年华隔壁(牙博士楼上)", "image": "", "rank": 40, "time": 0.75, "location": {"lat": 27.241720075153538, "lng": 112.87252746423638}, "feature": {"sight_features": "", "sight_content": ""}}, {"title": "白马山", "address": "邵阳市隆回县麻塘山乡白马山", "image": "", "rank": 41, "time": 2.5, "location": {"lat": 27.39181247306108, "lng": 110.7069770927064}, "feature": {"sight_features": "", "sight_content": ""}}, {"title": "半江生态旅游温泉度假村温泉", "address": "邵阳市洞口县毓兰镇半江风景区东南350米", "image": "", "rank": 42, "time": 2, "location": {"lat": 26.98739026374102, "lng": 110.5347757065701}, "feature": {"sight_features": "", "sight_content": ""}}, {"title": "音乐家贺绿汀故居", "address": "邵阳市邵东县", "image": "", "rank": 43, "time": 2, "location": {"lat": 27.264507471565526, "lng": 111.75049070295837}, "feature": {"sight_features": "", "sight_content": ""}}, {"title": "佘湖山", "address": "邵阳市邵东县", "image": "", "rank": 44, "time": 2, "location": {"lat": 27.264507471565526, "lng": 111.75049070295837}, "feature": {"sight_features": "", "sight_content": ""}}, {"title": "邵东洪桥古村", "address": "邵阳市新邵县", "image": "", "rank": 45, "time": 2, "location": {"lat": 27.327131739160276, "lng": 111.46444938798804}, "feature": {"sight_features": "", "sight_content": ""}}, {"title": "寨市古镇", "address": "湖南省邵阳市绥宁县西南部", "image": "", "rank": 46, "time": 2, "location": {"lat": 26.588422719333217, "lng": 110.16241987037962}, "feature": {"sight_features": "", "sight_content": ""}}, {"title": "蔡锷故居", "address": "邵阳市大祥区蔡锷乡(乡道M04北400米)", "image": "", "rank": 47, "time": null, "location": {"lat": 27.119349081744687, "lng": 111.57324403243544}, "feature": {"sight_features": "", "sight_content": ""}}, {"title": "十万古田", "address": "邵阳市城步苗族自治县", "image": "", "rank": 48, "time": 2, "location": {"lat": 26.396203220077773, "lng": 110.32853713031585}, "feature": {"sight_features": "", "sight_content": ""}}, {"title": "月溪乡", "address": "湖南省邵阳市洞口县月溪乡", "image": "", "rank": 49, "time": 2, "location": {"lat": 27.128272661775114, "lng": 110.46054563482909}, "feature": {"sight_features": "", "sight_content": ""}}, {"title": "白云岩风景区", "address": "湖南省，邵阳", "image": "", "rank": 50, "time": 2, "location": {"lat": 27.245270272808565, "lng": 111.474432885931}, "feature": {"sight_features": "", "sight_content": ""}}, {"title": "邵东大云山林场", "address": "邵阳市邵东县002县道", "image": "", "rank": 51, "time": 2, "location": {"lat": 27.027051103585094, "lng": 112.02672755227384}, "feature": {"sight_features": "", "sight_content": ""}}, {"title": "莨山将军石", "address": "湖南省新宁县莨山镇 422702", "image": "", "rank": 52, "time": 2, "location": {"lat": 26.439723697953905, "lng": 110.86349072743869}, "feature": {"sight_features": "", "sight_content": ""}}, {"title": "林家寨一线天", "address": "湖南省新宁县崀山镇 422702", "image": "", "rank": 53, "time": 2, "location": {"lat": 26.377811570808923, "lng": 110.81868303931061}, "feature": {"sight_features": "", "sight_content": ""}}, {"title": "回家呷饭农家乐", "address": "崀山大道江口桥二桥北行200米左侧", "image": "", "rank": 54, "time": 2, "location": {"lat": 31.57478851967725, "lng": 114.13828985831115}, "feature": {"sight_features": "", "sight_content": ""}}, {"title": "六鹅洞瀑布", "address": "湖南省绥宁县黄桑苗族乡 422624", "image": "", "rank": 55, "time": 2, "location": {"lat": 26.588422719333217, "lng": 110.16241987037962}, "feature": {"sight_features": "", "sight_content": ""}}, {"title": "白云湖", "address": "219省道", "image": "", "rank": 56, "time": 3.0, "location": {"lat": 40.151047949015684, "lng": 115.89871895858025}, "feature": {"sight_features": "", "sight_content": ""}}, {"title": "乐满池水上乐园", "address": "大禾塘大田社区平房组(百富路与桃园路交叉口)", "image": "", "rank": 57, "time": 2, "location": {"lat": 27.260551735522032, "lng": 111.75197418264317}, "feature": {"sight_features": "", "sight_content": ""}}, {"title": "帝士尼游乐园", "address": "邵东体育馆", "image": "", "rank": 58, "time": 2, "location": {"lat": 27.26740905001402, "lng": 111.746182374039}, "feature": {"sight_features": "", "sight_content": ""}}, {"title": "昭阳侯城遗址", "address": "邵阳市邵东县", "image": "", "rank": 59, "time": 2, "location": {"lat": 27.264507471565526, "lng": 111.75049070295837}, "feature": {"sight_features": "", "sight_content": ""}}, {"title": "虎形山", "address": "隆回县虎形山瑶族乡地处雪峰山脉东麓，距县城110公里", "image": "", "rank": 60, "time": 1.0, "location": {"lat": 27.563512538532407, "lng": 110.71020399743625}, "feature": {"sight_features": "", "sight_content": ""}}]}