{"cityName": "韶关", "days": "2", "cityImage": "", "spots": [{"title": "丹霞山", "address": "韶关市仁化县", "image": "", "rank": 1, "time": 3.5, "location": {"lat": 25.092287524427956, "lng": 113.75544293443409}, "feature": {"sight_features": "特色1 丹霞山有着悠久丰厚的历史文化。 特色2 被《中国国家地理杂志》评为中国最美的地方", "sight_content": "﻿\n中国红石公园、“丹霞地貌”命名地—丹霞山位于广东省韶关市东北郊，总面积292km2。是世界地质公园、世界自然遗产，国家级风景名胜区、国家级自然保护区，国家5A级旅游景区、中国生物圈网络成员。\n“色如渥丹，灿若明霞”。丹霞地貌是指有陡崖的陆相红层地貌。丹霞山以赤壁丹崖为特征，集“雄、险、奇、秀、幽”于一身，是发育典型、造型丰富、景色优美、研究充分的丹霞地貌集中分布区。全山有680多座山峰、石墙、岩堡、岩柱、穿洞、天生桥，最高峰巴寨海拔619.2米，是中国低海拔山岳景区的典型代表。\n“曲江山水闻来久”（唐•韩愈），“绝境方知在岭南”（唐•胡曾）。丹霞山古称曲红山、韶石山，因4000多年前舜帝南巡至此奏韶乐而得名，自古就是岭南名胜和宗教名山。现有别传禅寺、锦石岩寺、仙居岩道观以及数十处寺庙遗址，108座古山寨遍布全境。历代文人在这里留下了许多诗文、传说，存有300多处摩崖石刻、碑刻、壁画。\n丹霞山由丹霞、巴寨、韶石、飞花水、仙人迹五大园区和锦江、浈江两条风光带组成。目前，已开发长老峰游览区、阳元石游览区、翔龙湖游览区、锦江画廊游览区、竹筏漂流景区，是以自然观光为主，集科普、考察、攀岩、探险、休闲度假为一体的旅游景区。\n群峰如林、疏密相生、造型奇绝、别具一格、超凡脱俗。这里丹崖碧水、绝壑层峦、云雾飘渺，晨钟暮鼓、竹影婆裟、松涛阵阵，山间民居古树错落、阡陌纵横、炊烟袅袅，山水田园风光优美迷人。"}}, {"title": "南华寺", "address": "韶关市曲江区南华禅寺", "image": "", "rank": 2, "time": 2.5, "location": {"lat": 24.652386753668136, "lng": 113.64000187753759}, "feature": {"sight_features": "", "sight_content": ""}}, {"title": "韶关中山公园", "address": "韶关市浈江区园前路2号", "image": "", "rank": 3, "time": 1.0, "location": {"lat": 24.804768379647527, "lng": 113.60427407106059}, "feature": {"sight_features": "", "sight_content": ""}}, {"title": "广东大峡谷", "address": "韶关市乳源县西南68公里的大布镇", "image": "", "rank": 4, "time": 12.0, "location": {"lat": 24.54774384207764, "lng": 113.12485862619262}, "feature": {"sight_features": "特色1 华南少数的地陷峡谷，美誉为峡谷之母 特色2 自然风光秀丽，有高空杂技的表演，还有徒步线路，适合边攀爬边欣赏山中的壮观景色。 特色3 广东大峡谷历经亿万年的风风雨雨", "sight_content": "广东大峡谷旅游风景区于1998年开始对游人开放，岭南派关山月国画大师于2000年被其鬼斧神工的独特景观所震撼，亲笔题名“广东大峡谷”；2005年在“寻找广东最美的地方“活动中被评为“广东最美的峡谷”和最受外国人欢迎的广东十大景观之一，2007年又被评为“广东自驾游十大最优景点”之一。2008年被评为4A级景区，2009年被网络媒体评为“广东十大新潮景区”之一，荣获2010年度韶关市“十佳旅游景区”，2011年被评为“广东人最喜爱的旅游目的地（线路）”。\n大峡谷旅游区目前主要由谷口瀑布景区、水卷寨景区和一线天景区三部分构成，其核心区地势险要，空气清新，飞瀑流泉星罗棋布，象形景观惟妙惟肖，动植物种类丰富；拥有苏铁蹶、桫椤、短尾猴和桃花水母等国家珍稀动植物，腾龙大瀑布飞流直下200多米，气势磅礴，让人叹为观止！\n\n大峡谷景区一带为平均海拔620米的山间盆地，夏季气候清凉怡人，平均常温22℃，房间不需要空调，是华南地区少有的避暑胜地。清晨或雨过天晴时，会有团团云雾自谷底腾空而起，又渐渐向上飘散，谷内宛若仙境。据地质学家考证，大峡谷属石英砂岩地貌，形成于距今一亿三千万年前的喜马拉雅造山运动。由于地壳曾几度升沉，地层断裂并经流水冲刷、风化侵蚀等作用，使大峡谷一带呈现出丰富的岩石层理，构成了现在大峡谷雄、奇、险、秀独特的自然景观。数亿年间的地壳运动，广东大峡谷却并未“与时俱进” 谷内古树老藤遮天蔽日，珍稀动植物种类繁多，依然保留着中古时代的自然情境，是一座认识动植物活化石的知识宝库。"}}, {"title": "南岭国家森林公园", "address": "韶关市乳源瑶族自治县五指山", "image": "", "rank": 5, "time": 3.0, "location": {"lat": 24.782333322942147, "lng": 113.28243136491744}, "feature": {"sight_features": "", "sight_content": ""}}, {"title": "梅关古道", "address": "韶关市南雄市珠玑镇梅岭村", "image": "", "rank": 6, "time": null, "location": {"lat": 25.32191295257072, "lng": 114.35721826428501}, "feature": {"sight_features": "特色1 梅关古道是全国保存得最完整的古驿道，南北遍植梅树，景色蔚为壮丽雄奇。", "sight_content": "梅关，古称秦关，又称横浦关。坐落在南雄县城约30公里梅岭顶部，两峰夹峙，虎踞梅岭，如同一道城门将广东、江西隔开。梅关的隘口合岭路，为唐朝开元四年（公元716年）丞相张九龄主持开建，路基宽约5米。宋时，人们以砖砌路面，立关于岭上，署有“梅关”二字，遂得名。\n【将军祠】\n庾将军祠在憩云亭与梅关关口中间，梅关古道梅关古道相距古驿道西侧数十米的一个较开阔的山坡上。庾将军祠是纪念汉时庾胜驻守梅岭有功而建造的祀祠。庾将军姓庾，名胜。汉元鼎五年(前112年)他随楼船将军杨朴在乎抚南越后，为巩固南疆，他和兄弟两人，统兵驻岭北，筑城大余，因他排行老大，所以称大庾。他死后，这里的人民为纪念他的功德，筑祠祭祀。大余县原名大庾，梅岭称庾岭都是为了纪念庾胜将军。\n【历史溯源】\n\n战国时期，中原战乱不堪，大批越人迁往岭南，其中一支以梅绢为领的越人，翻山越岭来到大庾岭上，被岭南风光吸引，在梅岭一带安营扎寨，他们发扬了越人勇敢顽强、刻苦坚韧的民族传统，艰苦创业，使这带迅速兴盛起来。因为梅绢是率队的拓荒者，后来又因破秦有功而受项王封为十万户侯，因此人们就把这一带称之为梅岭。\n【梅岭三章】\n\n梅岭是古战场，也是革命战争年代红军多次战斗过的地方，特别是陈毅同志带领部队在这一带坚持了三年游击战，并在临危之中写下了壮志凌云的《梅岭三章》，使梅岭的知名度更高。\n【关楼】\n\n梅关关楼地处梅岭山巅，以“关隔断南北天”的气势，耸立于梅岭分水界上，故有“一步跨二省”之说。古时这里原没有关，先秦时梅岭为楚之“枥门”，又叫“南戒门”。\n【憩云亭】\n云亭，初名半山亭。始建于宋，清光绪十三年（1887年）南安知府周浩重建时更今名。憩云亭是梅岭景区景点之一，今亭建于1991年，由江西省旅游局拨款兴建。面积27平方米，六角形，边长1.85米，亭高7.44米，周围有栏杆、水泥坐凳供游客休息和观赏风光。亭棚顶及地面均嵌有梅花图案，轻巧秀美。亭柱对联，照录了清代亭联：过来共饮虔南水，归去咸携岭北云。 在今亭的原址上还建过“介梅亭”。\n【接岭桥】\n接岭桥是古驿道上重要的桥梁。它坐落在地形险峻、溪深水急的梅山水上，为单孔石拱桥。桥长8.5米，宽3.65米，拱高1.3米,麻条石砌成。传说，过去桥上盖有瓦棚，可避风雨。今桥两边的条石上仍有柱洞可见。始建于唐开元年间，明代弘治年间朱华捐资重建，当时郡守为它作记，并命名为接岭桥口。"}}, {"title": "九峰镇", "address": "韶关乐昌市九峰镇", "image": "", "rank": 7, "time": 3.0, "location": {"lat": 25.360756730844322, "lng": 113.4025762530899}, "feature": {"sight_features": "", "sight_content": ""}}, {"title": "云门寺", "address": "韶关市乳源县县城东北6公里慈雪峰下", "image": "", "rank": 8, "time": 2.5, "location": {"lat": 24.782333322942147, "lng": 113.28243136491744}, "feature": {"sight_features": "", "sight_content": ""}}, {"title": "珠玑巷", "address": "韶关市南雄市珠玑镇珠玑村", "image": "", "rank": 9, "time": 1.5, "location": {"lat": 25.19835526886474, "lng": 114.36634745392553}, "feature": {"sight_features": "特色1 珠玑巷基本保持着古驿道的原貌，巷内分为北门、中街和南门，有3座城门式门楼。", "sight_content": "‍‍‍‍‍‍‍‍‍‍‍‍‍‍‍‍‍‍‍‍\n‍‍珠玑巷，位于中国广东省北部韶关的南雄市。这里与江西省大余县接壤，是广东与江西交界古驿道——梅关古道的一段，史称“枕楚跨粤，南北咽喉”。从秦代开始至20世纪初粤汉铁路开通之前的一千多年里，珠玑巷一直是岭南与中原地区联系的最主要通道，是广东省仅存的宋代古巷道，有“广东第一巷”之誊。这条古巷呈南北走向，古朴清幽，全长1500米，宽4米，全由鹅卵石铺砌。\n自然条件优厚的珠玑巷自战国开始便成了中原人几次南迁的中转站，唐开元年间，张九龄奉诏拓宽梅关古道驿道，南来北往的达官将相、文人学士上、富商贵贾，大都在此中转、落户，广府民系便是从这条古老小巷走出，走到珠三角及海外繁衍生息。于是珠玑巷成为中原与岭南的政治、商贾、文化交流的一个繁荣古镇。珠玑古巷也是广府人文化的发祥地，由此南迁至珠三角、港澳以及世界各地的后裔达到5000多万人，遍布海内外。据不完全统计，从珠玑巷迁出的姓氏有170多个。"}}, {"title": "丹霞山性文化博物馆", "address": "韶关市丹霞山景区门口性文化博物馆", "image": "", "rank": 10, "time": 1.5, "location": {"lat": 25.050885107407932, "lng": 113.7657650639101}, "feature": {"sight_features": "", "sight_content": ""}}, {"title": "坪田银杏之乡", "address": "南雄市坪田镇坪田村", "image": "", "rank": 11, "time": 5.5, "location": {"lat": 25.13897768094753, "lng": 114.66596205465555}, "feature": {"sight_features": "", "sight_content": ""}}, {"title": "帽子峰林场", "address": "韶关市南雄市", "image": "", "rank": 12, "time": 3.0, "location": {"lat": 25.123526537362086, "lng": 114.31857889065107}, "feature": {"sight_features": "", "sight_content": ""}}, {"title": "龙王潭", "address": "韶关市乐昌市廊田镇龙山村（乐昌市东北22公里处）", "image": "", "rank": 13, "time": 1.5, "location": {"lat": 25.21393072010277, "lng": 113.46824055959249}, "feature": {"sight_features": "特色1 龙王潭是集林泉飞瀑、温泉云海、湖光山色于一体的风景区，景区内有10个石潭。", "sight_content": "龙王潭生态旅游区位于乐昌市东北22公里处，集温泉、碧湖、奇山于一体，即由龙泉、龙湖、龙谷三大分区组成，故又称三龙谷生态旅游区。是广东省优势资源组合、国家AAA级旅游景区、省森林生态示范基地、省国民旅游休闲示范基地。\n这里山高林茂、峡谷幽深、溪流湍急、飞瀑回潭；长年青山绿山，鸟唱蝉歌、蝶舞蜂蹈。\n\n这里原始生态环境没有受过任何污染，空气甜润，空气中负离子含量为粤北山林之*（103988个/cm3），氧分子含量高达21.3%，水温常年保持在18—21度，被誉为“高山峡谷的避暑胜地，山水养生的天然氧吧”。"}}, {"title": "新丰樱花峪", "address": "韶关市新丰县黄礤镇杰荣樱花峪", "image": "", "rank": 14, "time": 5.5, "location": {"lat": 24.185517276366863, "lng": 114.23661018913074}, "feature": {"sight_features": "", "sight_content": ""}}, {"title": "水上丹霞", "address": "韶关市仁化县丹霞山阳元码头博士生态园", "image": "", "rank": 15, "time": 2, "location": {"lat": 25.05426928579558, "lng": 113.76995173351769}, "feature": {"sight_features": "特色1 国家风景名胜区、国家AAAA级旅游区 特色2 “水上丹霞、梦幻锦江” 特色3 船行江上，领悟“一江贯丹霞”的感触", "sight_content": "水上丹霞位于丹霞山风景区内阳元桥南侧的广东丹霞山博士生态园实业有限公司。配备各种观光游船共十九艘，办公及游客休闲场所近3500平方米，码头总面积13000余平方米。水上丹霞阳元码头，目前主要经营游船观光配套服务，凭借着得天独厚的地理优势、便捷快速的交通网络和丰富的自然资源，重新诠释了生态休闲度假之旅的新内涵。\n“丹山碧水”，“碧水”指的就是锦江（水上丹霞）。锦江（水上丹霞）似一条玉带自北而南缠绕于丹霞山群峰之中，江水清澈，两岸奇峰倒映，景色千姿百态。来到丹霞山，您务必真正地游山玩水。乘坐水上丹霞游船，即可跟着船长近距离观赏丹霞山群象过江、赤壁丹霞、金龟朝圣、鲤鱼跳龙门、仙人插掌、茶壶峰、观音送子、姐妹峰等二十多处大自然鬼斧神工的杰作，登山后乘船游览水上丹霞，是最佳的选择，既可对比远眺与近观的差别，也能让您更加放松心情和体能。\n故有“一江贯丹霞”的美称。江面蜿蜒曲折，水流平缓，沿江两岸层峦叠嶂，千姿百态，让游客身临其境，感受大自然的美好。聆听动人的传说，无不使您充满奇幻的遐想与美丽的憧憬。码头园区内景色秀丽、植被茂密葱郁，一年四季如春，平均气温比四周低3-5度，空气清新。游人置身其中，仿佛人间仙境、世外桃源。"}}, {"title": "阳元山", "address": "丹霞山内", "image": "", "rank": 16, "time": 2, "location": {"lat": 25.051376170790327, "lng": 113.76784620062337}, "feature": {"sight_features": "", "sight_content": ""}}, {"title": "曹溪温泉度假村", "address": "韶关市曲江区转溪桥（近华南寺）", "image": "", "rank": 17, "time": 2, "location": {"lat": 24.66637392728183, "lng": 113.62801772117368}, "feature": {"sight_features": "特色1 103个温泉池，130多栋豪华别墅。 特色2 广东省十佳温泉景区；广东最佳人居温泉。 特色3 韶关新十景。", "sight_content": "曹溪温泉位于韶关市曲江马坝，经京珠高速公路沙溪出口，南华寺向北2公里，是广东最大的温泉别墅度假村，占地50万平方米，毗邻南华寺、马坝遗址、丹霞山等风景名胜，距离广州仅2小时的车程；依山傍水，是度假旅游之圣地。\n微风轻佛，发出清脆悦耳的铃声，能安慰心灵，催生雅趣，对人生产生平和的心态。韶关属中亚热带湿润型季风气候区，一年四季均受季风影响。光照充足，雨量充沛，气候宜人。年平均气温18-21℃，最佳出游时间在春秋两季。最具特色的是数百个风铃悬挂园内，是广东境内，也是全国唯一以百铃为特色的场所。"}}, {"title": "韶关新丰云天海温泉", "address": "韶关市新丰县梅坑镇利坑角", "image": "", "rank": 18, "time": 2.5, "location": {"lat": 23.97328258430445, "lng": 114.14470054060284}, "feature": {"sight_features": "特色1 集豪华客房、温泉养生、餐饮娱乐为一体", "sight_content": "新丰云天海温泉度假村占地面积4000多亩，是按五星级标准投资建造，集豪华客房、中西餐厅、大型露天温泉、康体娱乐、大中小型会议室为一体的度假型温泉酒店，选址全国生态建设示范县——新丰县梅坑镇利坑角“脉坑”，以高山密林为主，距县城中心约12公里、云髻山风景区20多公里，紧靠105国道，距广州市区140公里，深圳市区180公里，交通便利。\n\n新丰云天海温泉度假村“空气维生素”的负离子浓度高达10万个单位/立方厘米，可促进新陈代谢，提高免疫能力，增强人体肌能，调节肌体功能平衡。度假村春季可观看森林新绿，夏季可徜徉璀璨花海，秋季可欣赏满山红叶，冬季可体验雪花漫舞，景区属独特的山地气候，引进巴西野生牡丹达到三万株，花期均达到200天以上，被专家誉为高山地区的“红颜知己”。‍‍‍‍‍‍\n度假村占地100多亩大型露天温泉区，地处原始森林中，两山怀抱，地势狭长，被专家誉为峡谷里的避暑胜地。氡温泉无色无嗅，对各种关节炎、皮肤病、痛风、高血压、血栓性脉、气管炎、神经官能症、胃及十二指肠炎等10多种慢性病疗效显著。\n\n\n新丰云天海现拥有各式客房242间，房间宽敞明亮，可饱览绝美园景和山景。装修设计按照国际五星级标准，豪华大气，尽显尊贵风范，配备中央空调。\n\n‍‍‍"}}, {"title": "阴元石", "address": "韶关市仁化县丹霞山风景名胜区翔龙湖游览区内", "image": "", "rank": 19, "time": 2, "location": {"lat": 25.0400872328024, "lng": 113.74453613473234}, "feature": {"sight_features": "", "sight_content": ""}}, {"title": "云门山水上乐园", "address": "韶关市乳源县云门山风景区（云门寺往前2公里）", "image": "", "rank": 20, "time": 3.0, "location": {"lat": 24.81328487352808, "lng": 113.31943183494562}, "feature": {"sight_features": "特色1 离韶关市区仅50公里，由广州驱车前往3小时可达。 特色2 紧邻千年古刹云门寺，休闲观景，感悟禅宗禅意。 特色3 景区还有刺激机动游戏，一动一静不同体验，释放压力、烦恼。", "sight_content": "‍‍‍‍‍‍‍‍‍‍‍‍\n‍‍云门山自然风景区坐落于云门寺佛教文化生态保护区东北面，紧邻千年古刹云门寺，山受云门禅宗千年熏陶。景区还拥有惊险刺激的机动游戏项目，给您一动一静的不同度假体验。‍‍‍‍‍‍‍‍\n‍‍\n‍‍韶关云门山，感受禅宗文化休闲之行‍‍‍‍\n‍‍\n‍‍‍‍云门山景区位于云门寺佛教文化生态保护区东北面，山受禅宗熏陶，可谓山水皆有佛性、草木都具禅心，漫步云门山间，听着丛林中的鸟语蝉鸣、看着山水间的水流潺潺，压力、烦恼得以释放，享“心安”的宁静与幸福，感悟禅宗禅意。\n环寺苍松挺劲，竹影婆娑。从寺后向东北山径而行二十多分钟，即见桂花潭形如盆，石壁环拱，潭内水清见底，潭深六尺有余，瀑布从几十尺高的崖顶飞流而下，置身潭畔，神清气爽，令人流连忘返。\n‍\n‍‍根据地形及雨水丰沛的气候特点，山中筑有人工水库，是桂花潭的源头，滋养一片山林及附近居民，造福百姓，以保持云门山一年四季流水潺潺的景象。‍‍\n‍‍‍‍这里四季花开花谢，年年循环反复，美丽的花衣随季节更换，来这里赏花赏景，更是体会大自然的禅意。‍‍‍‍‍‍‍‍‍‍‍‍\n‍‍玩刺激机动游戏，一动一静不同体验‍‍‍‍‍‍\n‍‍充满惊险刺激，飙升肾上腺的机动游戏项目全面开放，包括海盗船、火箭蹦极、大摆锤、飓风飞椅、冲浪旋艇、章鱼、神州飞碟、双人飞天、咖啡杯等17组机动游乐项目。‍‍‍‍\n‍‍摩天轮与过山车，更是烂漫与刺激的代表，适合不同人群的体验，例如：托马斯大火车、转马、快乐干线、海豹戏水、青蛙跳、丛林飞鼠等项目，更多好玩的项目等你来挑战。‍‍\n‍‍其中，颇具魅力的儿童嘉年华板块，深受3-12岁左右的小朋友喜爱！碰碰车、蛇形步道、时光隧道、沙坑淘宝、抓鱼子、跷跷板、通话剧场等，让小朋友可以在欢乐的同时锻炼动手动脑的能力哦！‍‍‍‍‍‍‍‍‍‍‍‍\n\n\n‍‍‍‍‍‍‍‍‍‍‍‍"}}, {"title": "丽宫云瑶谷温泉", "address": "韶关市乳源县候公渡乳城镇青岗", "image": "", "rank": 21, "time": 2, "location": {"lat": 24.748256277719562, "lng": 113.30284930298275}, "feature": {"sight_features": "特色1 综合型度假胜地", "sight_content": "紫藤挂云木，花蔓宜阳春。\n密叶隐歌鸟，香风留美人。\n三月时分，正是紫藤吐艳之时，\n但见一串串硕大的花穗垂挂枝头，\n紫中带蓝，灿若云霞。\n【冰雪谷】\n\n韶关丽宫“冰雪谷”是粤北地区最大的主题冰雪馆，上千平米的真冰真雪展馆将完美展现零下15℃的北国风光，展馆包括冰封王国、爱斯基摩人小屋等主题的静态彩色艺术冰雕，以及冰雪滑道、浪漫飘雪岛等互动区域。灯光与音乐交迭呈现，冰雪与艺术完美融合，冰雪谷将带您走进梦幻般的冰雪童话世界。\n★亮点一：冰火两重天\n一边是冰天雪地，一边是温泉氤氲，来一场酷爽的“冰火”之旅，绝对让你这个夏天不留遗憾！\n是酷暑难耐，\n还是冰雪成功逆袭？\n温泉+冰雪，夏日新风尚！\n★亮点二：彩色冰雕\n童真梦幻的城堡，憨态可掬的熊猫，四蹄翻腾的骏马……五颜六色的彩冰被雕刻、组合成各种形象，走进冰雪谷，仿佛走进了七彩乐园，更仿佛走入童话梦乡。除了传统的白冰和透冰，冰雪谷采用大量色彩缤纷的彩冰，将给观众带来不一样的视觉感受。\n★亮点三：观赏性与互动性相融合\n冰雪谷除静态艺术冰雕外，还设有冰雪滑道、儿童小滑梯、浪漫飘雪岛等互动区域，集观赏性、娱乐性、互动性于一体，好看又好玩。\n★亮点四：亲子乐翻天\n全新打造的冰雪谷、亲子楼层，与梦幻水屋、儿童乐园、亲子拓展等系列儿童游乐设施与活动，为游客营造亲子欢乐时光。\n【云瑶谷温泉】\n丽宫云瑶谷温泉是集温泉养生、动感游乐、商务会议、休闲旅游为一体的大型综合性度假胜地。与其他温泉不同的是,这里拥有弱碱性“低矿物化氯化物硫酸盐钙镁型高热偏硅酸锶泉”。\n梦幻水屋以小屋为主体，童话色彩为主题，特色与温馨兼具。梦幻水屋不单只是小朋友的水上乐园，先进的设备和童话般的装修风格，让大人们也会情不自禁地想要找回那颗失落已久的童心……并且该建筑设计也独具特色，色彩搭配，童话般的装修风格以及与水的巧妙融合都值得体味与观赏。\n在这里，绿色群山环绕，银沙铺设着快乐与度假的悠闲，蓝色大型冲浪池把温泉度假带到了梦幻般的海边，这里的天空和海水都是最最澄澈的颜色，棉花糖一般洁白松软的云朵总在天上不紧不慢地悠着，习习的山风把度假怡人请回了翠绿的山谷。\n云瑶谷温泉区主要分为SPA室内养神区、禅境养心岛、五道养生谷、森林养性坡。"}}, {"title": "经律论文化旅游小镇", "address": "韶关市曲江区小坑国家森林公园内", "image": "", "rank": 22, "time": 4.5, "location": {"lat": 24.77912129194124, "lng": 113.26858317701074}, "feature": {"sight_features": "特色1 纯天然森林氡温泉 特色2 律论文化旅游小镇，森林温泉世界 特色3 天然森林温泉", "sight_content": "【经律论文化旅游小镇】\n占地16.8公顷，按照以“禅佛”为主题的国家级大型禅文化主题园区的标准打造；在传承佛禅经典文化的同时，更形成了独树一帜的主题特色。小镇将“禅文化”精神融入设计理念，并呈现“闲寂、自然、幽雅、朴素”的精神内涵。园区内集禅修、温泉、度假、养生为一体，充分利用已有的天然氡温泉资源、优美清幽山景，完整诠释自然之美，突出以“禅文化”为特色的核心理念。小镇分三期建设，项目一期投资十七个亿，主要由自在楼、自在天、温泉馆、温泉中心、经律论国际酒店、禅宗文化国际交流中心、青年公寓、祈福广场、环山道森林观光游步道、许愿台登山道组成。\n【纯天然森林氡温泉】\n氡（Rn）是自然界非常稀有的无味、无嗅、无色的气体元素。氡温泉是一种保健神泉，对人体的功效很大，痛风、血栓、胃病、等十几种慢性疾病有显著辅助疗效。小镇温泉区奢藏60余泓特色温泉池，园区以现有自然环境为中心，按照禅文化仪轨和内涵依山而建、别有洞天的自然环境和人文景观，处处体现人与自然，人与佛法的完美和谐，让人们尽享温泉、竹林、绿荫、禅意的佛化风光，不知不觉体悟到佛法的慈悲与禅泉的温润滋养。\n【自在天】\n自在天为虔诚供奉翡翠大观音的法界圣地，从立意著手,通过现代建筑的风格，以钢和玻璃幕墙相结合，形成中国佛禅文化中含苞待放的莲花造型，充分展现观自在菩萨怀著一颗纯洁的慈悲心，全力导引信众离苦得乐，到达莲花盛开的佛国净土。\n【自在楼】\n为广大成功人士创造了一种全新的生活方式，并致力于为会员搭建一个洁净心灵，体悟禅理，扩大精英人脉的高端平台。在这里不仅可以参加自在楼举办的一流的禅修活动高水准的收藏鉴赏研讨会，结识世界范围内的各界精英人物，还可以欣赏到世人羡慕拜会的佛家法宝，私人珍藏的绝世古董珍宝，品味悉心烹制的顶级禅茶和名贵素斋。法喜充盈成就了自在楼的尊崇气质，追求低调奢华的名流雅士纷至还来，使自在楼成为一个高端人士在快乐和优雅中创富并持续快乐的自在地。\n【经律论国际酒店】\n承袭传统的东南亚建筑风格，酒店楼高六层，建筑面积30284平方米，拥有各类房型448间。在选材与室内装饰上，突显禅宗的朴素美学和谦虚性格；酒店精心打造独有中国特色的禅堂，其具备谈禅、论道、打坐、静修等多种功能，供大众短期修心、敬佛、悟禅之用。"}}, {"title": "云髻山温泉度假山庄", "address": "韶关市新丰县城西北9公里处", "image": "", "rank": 23, "time": 2, "location": {"lat": 24.065546505163553, "lng": 114.21351173078048}, "feature": {"sight_features": "", "sight_content": ""}}, {"title": "韶关国家森林公园", "address": "韶关市浈江区生态路15号", "image": "", "rank": 24, "time": 2.5, "location": {"lat": 24.786456067693898, "lng": 113.60821075751602}, "feature": {"sight_features": "", "sight_content": ""}}, {"title": "马坝人遗址", "address": "韶关市曲江区狮沿路3号", "image": "", "rank": 25, "time": 1.0, "location": {"lat": 24.688407846380294, "lng": 113.61150106464875}, "feature": {"sight_features": "", "sight_content": ""}}, {"title": "长老峰", "address": "韶关市仁化县丹霞山长老峰", "image": "", "rank": 26, "time": 2, "location": {"lat": 25.05426928579558, "lng": 113.76995173351769}, "feature": {"sight_features": "", "sight_content": ""}}, {"title": "云髻山自然保护区", "address": "韶关市新丰县云髻山自然保护区", "image": "", "rank": 27, "time": 1.0, "location": {"lat": 24.089258647039163, "lng": 114.17849245828272}, "feature": {"sight_features": "", "sight_content": ""}}, {"title": "金鸡岭", "address": "韶关市乐昌市坪石镇火车站侧（近原火车站）", "image": "", "rank": 28, "time": 2.5, "location": {"lat": 25.324344718615173, "lng": 113.05138938867594}, "feature": {"sight_features": "", "sight_content": ""}}, {"title": "狮子岩", "address": "曲江县岩头镇下日川村", "image": "", "rank": 29, "time": 4.0, "location": {"lat": 28.30987808374246, "lng": 120.74452572064246}, "feature": {"sight_features": "", "sight_content": ""}}, {"title": "云门山自然风景区", "address": "韶关市乳源县云门山风景区内（云门寺往前2公里）", "image": "", "rank": 30, "time": 4.5, "location": {"lat": 24.81328487352808, "lng": 113.31943183494562}, "feature": {"sight_features": "特色1 休闲观景，感悟禅宗禅意", "sight_content": "‍‍‍‍‍‍‍‍‍‍‍‍‍‍‍‍‍‍‍‍﻿‍‍‍‍‍‍‍‍‍‍‍‍‍‍‍‍‍‍‍‍‍\n云门山旅游度假区位于世界过山瑶之乡——广东省韶关乳源县境内，距离乳源县城6公里，京港澳高速乳源出口7公里、广乐高速乳源东出口约10公里、武广高铁韶关站30公里。\n云门山旅游度假区总投资11.3亿元人民币，区内面积5平方公里，依托云门山得天独厚的自然风景资源，发挥云门寺佛教文化胜地和“世界过山瑶之乡”的优势，突出体现“云门禅宗文化”及“过山瑶民俗风情文化”的特色主题。云门山旅游度假区是按照国家5A标准打造的综合性旅游景区。\n【自然风景区】\n云门山自然风景区坐落于云门寺佛教文化生态保护区东北面，紧邻千年古刹云门寺，山受云门禅宗千年熏陶，水是与云门同本同源的圣水，可谓山水皆有佛性、草木都具禅心，只要漫步云门山间，听着丛林中的鸟语蝉鸣、看着山水间的水流潺潺，压力、烦恼得以释放，心中欢喜的同时，得以享受“心安”的无限宁静与幸福，实在是感悟云门禅宗悠悠禅意的理想之地。\n【机动游戏区】\n充满惊险刺激，童趣童乐，飙升肾上腺的机动游戏项目已全面开放，该项目占地约50亩，包括摩天轮、海盗船、火箭蹦极、大摆锤、飓风飞椅、托马斯大火车、碰碰车、豪华转马、快乐干线、海豹戏水、青蛙跳、丛林飞鼠、冲浪旋艇、章鱼、神州飞碟、双人飞天、咖啡杯等17组机动游乐项目。\n【百亩花海】\n以玫瑰为主题，以波斯菊、四季海棠、金鱼草等为辅的云门山花海，种植面积约100亩。在喧嚣的都市，寻找一片让心神为之愉悦的美景，这片花海一定是你不能错过的风景。这里，将打造成为至美婚纱摄影的拍摄基地。充满欧式风情的风车、洋溢浪漫爱情芬芳的玫瑰同心圆，四季如春的花草，让我们驻足，流连忘返。\n【水上乐园】（冬季闭园中）\n云门山水上乐园全新升级，占地25000多平方米，充分利用永不枯涸的山中泉水，新增儿童水寨、“大喇叭”、海啸池、彩虹滑道、造浪池、冲天回旋、儿童戏水池、滑梯等水上活动项目。"}}, {"title": "风采楼", "address": "韶关市浈江区风采路34号", "image": "", "rank": 31, "time": 1.0, "location": {"lat": 24.813019426945804, "lng": 113.60606690021376}, "feature": {"sight_features": "", "sight_content": ""}}, {"title": "韶关新丰江源温泉", "address": "韶关市新丰县梅坑镇沙塘下", "image": "", "rank": 32, "time": 2.5, "location": {"lat": 24.004622249740777, "lng": 114.13573465392092}, "feature": {"sight_features": "特色1 含数种对人体有益的矿物质及微量元素", "sight_content": "新丰江源温泉旅游度假山庄，座落于广东省级自然保护区云髻山麓，地处新丰梅坑镇新丰源头，首期占地面积30000平方米，跟新丰县城8公里，距广州市区150公里，距深圳市区170公里，距韶关市区160公里。是集名木森林氧吧与天然温泉为一体配套齐全的综合度假区，粤港澳后花园中的一颗璀璨明珠。\n到新丰江源温泉，望林海，迎山岚。夜间驻足小桥上，虽不见水色,但闻水声。时不时忍不住的将耳朵侧靠在护栏的隙缝间，去倾听那山中永久不息的歌者,歌声余音袅袅。阵阵清风袭来,吹晃一树的叶子，发出沙沙的声音，伴着几声清脆的黑暗精灵的声音。此景、此心、淳朴、向往。\n江源温泉来自新丰源头水资源，浸泡三十分钟后明显感到饥饿感，可再饮上江源温泉特制山楂茶。"}}, {"title": "龙华山温泉", "address": "广东省韶关市南雄市全安镇龙华山温泉", "image": "", "rank": 33, "time": 2, "location": {"lat": 25.130961104907442, "lng": 114.26067959716062}, "feature": {"sight_features": "特色1 含多种对人体有益的微量元素", "sight_content": "粤北古镇南雄市西北6公里的龙华山麓脚下有一隆起坡墚蜿蜒起伏，曲折百丈远迂回三千尺深，依山傍水，行气流水，是龙华山温矿泉度假村所在地。北连百顺君子岭，浩然气魄，西合苍石奇峰朗朗精神，东眺日出皇恩珠玑，南邻湛凌西北交汇聚合，山览层层拱迎侍候。丰富的天然温泉蕴藏其内：地层下200米处千百年形成的南雄大断裂构成罗佛寨群多条裂隙地热带交汇处，大自然赐予四口日夜不停流,人们可闻可饮的自涌重碳酸温泉口.含多种人体所需的微量元素，被地矿部斟评为“珍稀温矿泉水”。\n度假村经名山高人斟点依大风水格局,合温泉自涌地点,北建天池面积200平方,分高、中、低温池、水疗台静动有谐，体会到一览众山小“百泉尽沐身，心静涤尘埃，洗弃烦心事,又是好一天”的境界.南建八卦温泉,把人的十二生肖镶入八个卦位池,在泡温泉中体会 “沐八卦,转乾坤”的作用.龙华池（南天池）在村内最高点，有隔山湛凌两水之能。\n南北之中：人工垒起一座山依圆润四周来风，南北之中建有长50米，面积1000平方的温泉游泳馆，让人们在运动中体验温泉水的作用。南北之中建一地下温泉迷宫,在泡温泉中体会“下地入宫寻往事,死去活来又一回”脱俗之感。建有风格各异的宾馆区和别墅区：有采用天然杉木按风水五行建成的水木龙华、金木龙华、土木龙华、火木龙华、杉木坊、杉木居、怡然阁和宾馆A区、B区等居住区。以营造家庭氛围,乡土风情,风水与人体相合为主题,体会“日沐温泉浴,夜闻鸟虫鸣,春梦一觉醒,仿如在仙境”清心正本作用。"}}, {"title": "古佛岩", "address": "韶关市乐昌市市南郊5公里处", "image": "", "rank": 34, "time": 2.5, "location": {"lat": 25.135591561194918, "lng": 113.35457868209694}, "feature": {"sight_features": "特色1 洞内的石笋和钟乳石，形状如仙似佛", "sight_content": "古佛洞天位于韶关乐昌，因洞内的石笋和钟乳石，形状如仙似佛，洞口又建有佛寺而得名。古佛洞天属大型石灰岩溶洞，洞内上下重叠三层，最高处达30米，总面积12000多平方米，常年气温保持在19~20摄氏度。岩洞内的景区主要分为古佛殿、观音殿、王母殿、玉皇宫、西游宫、逍遥宫和金龙殿等七个宫殿，整个游程570米。古佛洞天内石笋、石花、石柱、石幔，千姿百态，或插其中，或悬其上，色彩斑谰，景象纷呈，最妙处是钟乳石群，其状如仙人佛众，形神各异。\n进入洞口的第一景就是古佛殿，由石幔、钟乳石组成的独具一格的佛殿内，三座小石笋交错有致，恰似三尊佛像。它们相貌庄严而又安祥。离佛像10米处有一石柱如巨大的古榕，挺拔耸立，枝叶繁茂，被称为“古榕叠翠”。古榕底下是三五成群的“牧童”牵着“牛群”，踏着斜辉欢乐而归。古榕的旁边还有一个通天幽洞，大洞叠着小洞，给这美妙的景色又增添了一层神秘的色彩。\n\n\n\n高空玻璃森林滑道\n滑道集高空挑战、悠闲娱乐和代步等特色，全程约380米，仿佛悬空在树林中穿梭同时采用坚固的建筑材料。"}}, {"title": "挑战者汽车特技表演", "address": "韶关市翁源县官渡开发区上榕角工业园（考场路口）", "image": "", "rank": 35, "time": 2, "location": {"lat": 24.274449007949467, "lng": 113.8926647603626}, "feature": {"sight_features": "", "sight_content": ""}}, {"title": "恐龙博物馆", "address": "韶关市南雄市南雄县城内三影塔脚下", "image": "", "rank": 36, "time": 2.5, "location": {"lat": 25.12236558603613, "lng": 114.32024754523702}, "feature": {"sight_features": "", "sight_content": ""}}, {"title": "小坑国家森林公园", "address": "韶关市曲江区小坑镇251省道旁", "image": "", "rank": 37, "time": 4.0, "location": {"lat": 24.65853362240686, "lng": 113.82424145850405}, "feature": {"sight_features": "", "sight_content": ""}}, {"title": "铜钟寨景区", "address": "韶关市始兴县沈所镇八一村", "image": "", "rank": 38, "time": 2, "location": {"lat": 24.954022818058313, "lng": 113.9960130126404}, "feature": {"sight_features": "", "sight_content": ""}}, {"title": "百年东街", "address": "韶关市浈江区东堤路", "image": "", "rank": 39, "time": 2, "location": {"lat": 24.814187708075004, "lng": 113.60589833318485}, "feature": {"sight_features": "", "sight_content": ""}}, {"title": "通天箩", "address": "韶关市乳源瑶族自治县", "image": "", "rank": 40, "time": 1.0, "location": {"lat": 24.782333322942147, "lng": 113.28243136491744}, "feature": {"sight_features": "", "sight_content": ""}}, {"title": "大鉴禅寺", "address": "韶关市浈江区兴隆街29号", "image": "", "rank": 41, "time": 1.0, "location": {"lat": 24.80613127415214, "lng": 113.60556330745011}, "feature": {"sight_features": "", "sight_content": ""}}, {"title": "必背瑶寨", "address": "韶关市乳源县必背镇", "image": "", "rank": 42, "time": 3.0, "location": {"lat": 25.019556498953072, "lng": 113.29210502112059}, "feature": {"sight_features": "", "sight_content": ""}}, {"title": "银山高尔夫俱乐部", "address": "韶关市浈江区新韶镇韶塘路（大学路）", "image": "", "rank": 43, "time": null, "location": {"lat": 24.809891180948668, "lng": 113.62012988823902}, "feature": {"sight_features": "特色1 岭南地区唯一全松林高尔夫球场。 特色2 松山、湖草，谐和成一幅风景油画，衍生出一种出尘不染的意境。", "sight_content": "银山高尔夫俱乐部，毗邻风景优美的粤北最高学府——韶关学院。松山、湖草，谐和成一幅风景油画，衍生出一种意境——出尘不染；鸟儿细语，看得出的声音；氧离子弥散，呼吸间，轻松自然而然。感悟高尔夫、品鉴与自然共生的坡地建筑，写意人生。韶关首个18洞高尔夫球场——银山高尔夫俱乐部，是岭南地区极具挑战性的唯一全松林高尔夫球场，是“韶关银山片区”的主题项目之一。该项目是韶关市的重点项目，整个项目设计占地近6000亩，集休闲、度假、商住于一体，包括18洞全松林高尔夫球场、温泉、五星级酒店、景观别墅、高档小区、学校、自然公园以及其他基础配套设施；是粤北首席高尔夫豪宅社区，具有浓烈自然风光特色的世外桃源，集高雅、尊贵、休闲、体育的度假及居家之所。"}}, {"title": "韶石山", "address": "韶关市曲江、仁化两县一带", "image": "", "rank": 44, "time": 1.0, "location": {"lat": 24.688407846380294, "lng": 113.61150106464875}, "feature": {"sight_features": "", "sight_content": ""}}, {"title": "百丈崖漂流", "address": "韶关市曲江区大宝山百丈崖风景区", "image": "", "rank": 45, "time": 2, "location": {"lat": 24.567454360434997, "lng": 113.72301018982088}, "feature": {"sight_features": "特色1 被称为内心洗礼之后外部净化的理想地", "sight_content": "韶关百丈崖峡谷漂流位于韶关市南郊大宝山，紧临京珠高速公路，从沙溪高速路出口到漂流起点仅需15分钟，北依佛教圣地南华寺，车程亦只需10分钟，地理位置极为方便，被誉为“京珠第一漂”。景点特色：在50分钟的漂流过程中，可尽享原始森林峡谷漂流之刺激，更可欣赏融山之雄、水之秀、林之幽、花之美、石之奇、瀑之壮、鱼之乐于一身的原始森林山谷风光。\n2005年5月，经过3年时间的准备工作,百丈崖峡谷漂流风景区终于横空出世，在大宝山这里植被茂盛，树木参天，古藤缠绕，翠竹成林，彩蝶成群，溪流清澈，山幽鸟鸣，百雀飞舞，是一个难得的漂流探险.享受大自然，反朴归真，重拾童趣的首选之地。漂流河道全长约3公里，落差达百米。\n沿漂流河道有十多个回旋处，可在60分钟的漂流过程中。尽情享受原始森林峡谷漂流之刺激，更可欣赏融山之雄，水之秀，林之幽，花之美，石之奇，潭之壮，鸟之鸣，鱼之乐于一身的原始森林山谷风光。到了漂流起点走一段崎岖林中路径就可到达码头，沿途经过一片热带雨林，可尽享大自然的森林浴，正是一个天然氧吧，坐上橡皮艇后，那是兴奋的感觉已难以用语言表达。"}}, {"title": "天井山国家森林公园", "address": "韶关市乳源县天井山林场", "image": "", "rank": 46, "time": 1.0, "location": {"lat": 24.688465136794264, "lng": 113.04596806911142}, "feature": {"sight_features": "", "sight_content": ""}}, {"title": "三影塔", "address": "韶关市南雄市青云东路三影文化广场", "image": "", "rank": 47, "time": 2.0, "location": {"lat": 25.122346923498498, "lng": 114.32038487369181}, "feature": {"sight_features": "", "sight_content": ""}}, {"title": "双峰寨", "address": "广东省韶关市仁化县石塘镇文昌路双峰寨", "image": "", "rank": 48, "time": 1.0, "location": {"lat": 25.081848290990877, "lng": 113.59009457460735}, "feature": {"sight_features": "", "sight_content": ""}}, {"title": "仙门奇峡", "address": "韶关市乳源县大布镇", "image": "", "rank": 49, "time": 2.5, "location": {"lat": 24.54774384207764, "lng": 113.12485862619262}, "feature": {"sight_features": "特色1 仙门奇峡有雅玛秀水、同心鹊桥、悬崖栈道、仙桥神游等12个景点。", "sight_content": "‍‍‍‍\n仙门奇峡风景区地处广东省乳源瑶族自治县洛阳镇境内，距县城38公里，东西方向有国道323线贯穿全境，东连京珠高速公路乳源县城出口，西出阳山县与107国道相接，南经波罗与英德市相连，北通广东省乳阳林业局京珠高速大桥出口，交通便利。项目周边拥有良好的对外交通网络，已形成“一条高铁、两大高速”的主要格局，促使项目积极融入粤、湘、赣三小时生活圈。\n仙门奇峡风景区以石灰岩为主，景区内多较多的喀斯特地形，而且石灰岩中多含有一些白云石或黏土矿物，其中以钾长石和硅铁矿居多。\n仙门奇峡旅游区地处粤北地区，属于典型的喀斯特岩溶地貌。景区内有许多石钟乳、石华，形成多姿多彩的造型。景区位于县城西南40余公里处的洛阳镇半星雷屋村，高山斜坡上、绿树掩映间，有大、小拱天然仙人桥两座，属石灰岩溶蚀地貌景观。小拱桥高70米，宽50米，长150米，仙人桥更为壮观，高约138米，内拱高106米，宽53米，长约156米，在仙人桥的入口处，有峰峦延绵，势如雄狮回首南望，狮身高约88米，长约99米，狮头、狮眼因石灰岩溶蚀脱落而成，形成了“雄狮回头”的独特景观。此外，景区内还有独特的阳元石、地质奇石、仙人溶洞、仙人瀑布等，具有较大的观赏和科研价值。\n仙门\n\n仙门连接峡谷的两边，中间为巨大的天坑高138米，内拱106米，宽53米，长156米，因貌状神仙（仙人像）故也称为仙门，门后有十里峡谷，也称为仙人谷，生命之门，生命之谷，生命谷泉水流淌，经过仙门自然形成了三叠瀑布，仙门悬崖峻壁上有一天然石屋。\n仙人桥\n\n仙门架起了天然的桥梁，连接了西京古道。\n仙人洞\n仙人古洞洞外葛藤攀挂，奇突怪异；洞前古松绰约，修竹摇弋；洞内迂迥曲折，起伏有致。宽处若厅堂宫殿，狭处仅能只身通行。洞中钟乳石，石幔、石笋、石花琳琅满目，千姿百态，有的似仙山琼阁；有的象神仙聚会；有的如龙虎虫蛇；有的宛若村寨庄田，形态各异，惟妙惟俏。\n仙门奇瀑\n\n仙门奇瀑总高137米，宽约16米。受到燕山造山运动的影响，仙门奇瀑所在地块被抬升，上游溶洞流水从此倾泻而下，与周围山水林洞融为一体，大自然的壮观魅力一览无遗。\n滑道\n\n滑道全长400多米，滑梯从凌霄宝殿开始一直滑到山脚，沿路奇峰险峻，山水相依，将景区的秀丽河山收于脚下，惊险刺激。"}}, {"title": "东湖坪民俗文化村", "address": "韶关市始兴县太平镇", "image": "", "rank": 50, "time": 1.0, "location": {"lat": 25.033218746389743, "lng": 114.01030095612799}, "feature": {"sight_features": "", "sight_content": ""}}, {"title": "乳源南水水库", "address": "韶关市乳源瑶族自治县", "image": "", "rank": 51, "time": 1.0, "location": {"lat": 24.782333322942147, "lng": 113.28243136491744}, "feature": {"sight_features": "", "sight_content": ""}}, {"title": "九泷十八滩", "address": "韶关市乐昌市", "image": "", "rank": 52, "time": 4.0, "location": {"lat": 25.135591561194918, "lng": 113.35457868209694}, "feature": {"sight_features": "", "sight_content": ""}}, {"title": "宝贝健康农场", "address": "韶关市曲江区大塘镇G106国道旁红新村", "image": "", "rank": 53, "time": 2, "location": {"lat": 24.744158580402946, "lng": 113.71867587741464}, "feature": {"sight_features": "", "sight_content": ""}}, {"title": "张九龄墓", "address": "韶关市北郊罗源洞山麓", "image": "", "rank": 54, "time": 1.0, "location": {"lat": 24.815881278583017, "lng": 113.60352734562261}, "feature": {"sight_features": "", "sight_content": ""}}, {"title": "钟鼓岩", "address": "韶关市南雄市钟鼓岩", "image": "", "rank": 55, "time": 2.0, "location": {"lat": 25.32366614469802, "lng": 114.35023719171149}, "feature": {"sight_features": "", "sight_content": ""}}, {"title": "广东韶关芙蓉山国家矿山公园", "address": "广东韶关", "image": "", "rank": 56, "time": 2, "location": {"lat": 23.13794855653905, "lng": 113.27242891272826}, "feature": {"sight_features": "", "sight_content": ""}}, {"title": "芙蓉仙洞", "address": "韶关市武江区芙蓉乡石脚下村", "image": "", "rank": 57, "time": 1.0, "location": {"lat": 24.951808705880268, "lng": 113.51502467974026}, "feature": {"sight_features": "", "sight_content": ""}}, {"title": "鸵鸟寨", "address": "韶关市乳源瑶族自治县南岭南麓丘陵山区", "image": "", "rank": 58, "time": 2, "location": {"lat": 24.930583010340417, "lng": 113.02246723007931}, "feature": {"sight_features": "", "sight_content": ""}}, {"title": "迷城真人密室逃脱俱乐部", "address": "韶关市浈江区仁爱路1号", "image": "", "rank": 59, "time": 2, "location": {"lat": 24.8105942342767, "lng": 113.6070764931998}, "feature": {"sight_features": "", "sight_content": ""}}, {"title": "蓉山古刹", "address": "韶关市武江区芙蓉山上", "image": "", "rank": 60, "time": 1.0, "location": {"lat": 24.766794507933223, "lng": 113.53634711892833}, "feature": {"sight_features": "", "sight_content": ""}}]}