{"cityName": "邵东", "days": 2, "cityImage": "", "spots": [{"title": "昭阳公园", "address": "邵阳市邵东县", "image": "", "rank": 1, "time": 1.5, "location": {"lat": 27.264507471565526, "lng": 111.75049070295837}, "feature": {"sight_features": "", "sight_content": ""}}, {"title": "怡卉园", "address": "邵阳市邵东县周官桥乡干塘王家", "image": "", "rank": 2, "time": 2, "location": {"lat": 27.23604002421202, "lng": 111.81087418218326}, "feature": {"sight_features": "", "sight_content": ""}}, {"title": "邵东兴和广场", "address": "邵阳市邵东县兴禾大道323号", "image": "", "rank": 3, "time": 2, "location": {"lat": 27.26428037646164, "lng": 111.74120219634808}, "feature": {"sight_features": "", "sight_content": ""}}, {"title": "湖南中品水上乐园", "address": "邵阳市邵东县生态产业园北岭东路9号（黄陂桥乡政府旁）", "image": "", "rank": 4, "time": 2, "location": {"lat": 27.270120481837832, "lng": 111.80182566037752}, "feature": {"sight_features": "", "sight_content": ""}}, {"title": "音乐家贺绿汀故居", "address": "邵阳市邵东县", "image": "", "rank": 5, "time": 2, "location": {"lat": 27.264507471565526, "lng": 111.75049070295837}, "feature": {"sight_features": "", "sight_content": ""}}, {"title": "佘湖山", "address": "邵阳市邵东县", "image": "", "rank": 6, "time": 2, "location": {"lat": 27.264507471565526, "lng": 111.75049070295837}, "feature": {"sight_features": "", "sight_content": ""}}, {"title": "邵东洪桥古村", "address": "邵阳市新邵县", "image": "", "rank": 7, "time": 2, "location": {"lat": 27.327131739160276, "lng": 111.46444938798804}, "feature": {"sight_features": "", "sight_content": ""}}, {"title": "蔡锷故居", "address": "邵阳市大祥区蔡锷乡(乡道M04北400米)", "image": "", "rank": 8, "time": 0.25, "location": {"lat": 27.119349081744687, "lng": 111.57324403243544}, "feature": {"sight_features": "", "sight_content": ""}}, {"title": "邵东大云山林场", "address": "邵阳市邵东县002县道", "image": "", "rank": 9, "time": 2, "location": {"lat": 27.027051103585094, "lng": 112.02672755227384}, "feature": {"sight_features": "", "sight_content": ""}}, {"title": "乐满池水上乐园", "address": "大禾塘大田社区平房组(百富路与桃园路交叉口)", "image": "", "rank": 10, "time": 2, "location": {"lat": 27.260551735522032, "lng": 111.75197418264317}, "feature": {"sight_features": "", "sight_content": ""}}, {"title": "帝士尼游乐园", "address": "邵东体育馆", "image": "", "rank": 11, "time": 2, "location": {"lat": 27.26740905001402, "lng": 111.746182374039}, "feature": {"sight_features": "", "sight_content": ""}}, {"title": "昭阳侯城遗址", "address": "邵阳市邵东县", "image": "", "rank": 12, "time": 2, "location": {"lat": 27.264507471565526, "lng": 111.75049070295837}, "feature": {"sight_features": "", "sight_content": ""}}, {"title": "流光湖度假区", "address": "邵阳市邵东县015县道", "image": "", "rank": 13, "time": 2, "location": {"lat": 27.222029472191192, "lng": 111.93202549052671}, "feature": {"sight_features": "", "sight_content": ""}}, {"title": "翰林农庄", "address": "魏家桥镇大头山翰林农庄", "image": "", "rank": 14, "time": 2, "location": {"lat": 27.17510979923855, "lng": 111.61971809974162}, "feature": {"sight_features": "", "sight_content": ""}}, {"title": "七号迷城真人密室逃脱", "address": "百富广场荷花路488号(广场南路口豪仔大排档旁)", "image": "", "rank": 15, "time": 2, "location": {"lat": 27.260985435774863, "lng": 111.74661324448009}, "feature": {"sight_features": "", "sight_content": ""}}, {"title": "邵东县图书馆", "address": "文化路10号", "image": "", "rank": 16, "time": 2, "location": {"lat": 27.264507471565526, "lng": 111.75049070295837}, "feature": {"sight_features": "", "sight_content": ""}}, {"title": "百兴休闲山庄", "address": "001县道", "image": "", "rank": 17, "time": 2, "location": {"lat": 38.094880367227645, "lng": 115.43311409749823}, "feature": {"sight_features": "", "sight_content": ""}}, {"title": "湘东现代绿色生态有机农产品果桑...", "address": "火厂坪镇伟华村", "image": "", "rank": 18, "time": 2, "location": {"lat": 27.159482422428344, "lng": 111.86964054081267}, "feature": {"sight_features": "", "sight_content": ""}}, {"title": "荫家堂", "address": "湖南省邵东县杨桥镇清水村 422827", "image": "", "rank": 19, "time": 2, "location": {"lat": 27.1482274397587, "lng": 111.97618666278964}, "feature": {"sight_features": "", "sight_content": ""}}, {"title": "罗公庙遗址", "address": "湖南省邵阳县霞塘云乡双江村大罗江畔 422100", "image": "", "rank": 20, "time": 2, "location": {"lat": 27.028482286512464, "lng": 111.24998814530177}, "feature": {"sight_features": "", "sight_content": ""}}, {"title": "黄家祠堂", "address": "邵阳市邵东县", "image": "", "rank": 21, "time": 2, "location": {"lat": 27.264507471565526, "lng": 111.75049070295837}, "feature": {"sight_features": "", "sight_content": ""}}, {"title": "杨塘书院", "address": "湖南省邵阳市邵东县杨桥镇书院村", "image": "", "rank": 22, "time": 2, "location": {"lat": 27.179052389614018, "lng": 111.99932882100802}, "feature": {"sight_features": "", "sight_content": ""}}, {"title": "陈家祠堂", "address": "邵阳市邵东县零二零县道", "image": "", "rank": 23, "time": 1.5, "location": {"lat": 27.264507471565526, "lng": 111.75049070295837}, "feature": {"sight_features": "", "sight_content": ""}}, {"title": "贺家祠堂", "address": "湖南省邵阳市邵东县019县道", "image": "", "rank": 24, "time": 2, "location": {"lat": 27.129584506815725, "lng": 111.58407286999861}, "feature": {"sight_features": "", "sight_content": ""}}, {"title": "左岳公祠", "address": "湖南省邵阳市邵东县X020", "image": "", "rank": 25, "time": 2, "location": {"lat": 27.264507471565526, "lng": 111.75049070295837}, "feature": {"sight_features": "", "sight_content": ""}}, {"title": "干子堂", "address": "湖南省邵阳市邵东县", "image": "", "rank": 26, "time": 7.5, "location": {"lat": 27.264507471565526, "lng": 111.75049070295837}, "feature": {"sight_features": "", "sight_content": ""}}, {"title": "公园帝景", "address": "湖南省邵阳市邵东县竹岭路", "image": "", "rank": 27, "time": null, "location": {"lat": 27.266772453593227, "lng": 111.73542415317026}, "feature": {"sight_features": "", "sight_content": ""}}, {"title": "旺旺游乐园", "address": "湖南省邵阳市邵东县宋家塘办事处东方家居广场后坪", "image": "", "rank": 28, "time": 2, "location": {"lat": 27.26906914452602, "lng": 111.73464368558072}, "feature": {"sight_features": "", "sight_content": ""}}, {"title": "颜家祠堂", "address": "邵阳市邵东县零零四县道", "image": "", "rank": 29, "time": 2, "location": {"lat": 27.264507471565526, "lng": 111.75049070295837}, "feature": {"sight_features": "", "sight_content": ""}}, {"title": "星期六儿童主题乐园", "address": "湖南省邵阳市邵东县宋家塘北岭路1168号", "image": "", "rank": 30, "time": 2, "location": {"lat": 27.275424709771304, "lng": 111.75138289999059}, "feature": {"sight_features": "", "sight_content": ""}}, {"title": "海之岛儿童主题乐园", "address": "湖南省邵阳市邵东县荷花路1号", "image": "", "rank": 31, "time": 2, "location": {"lat": 27.261567199610774, "lng": 111.74606162291408}, "feature": {"sight_features": "", "sight_content": ""}}, {"title": "邵东向天岩梅溪洞度假村", "address": "014县道附近", "image": "", "rank": 32, "time": 2, "location": {"lat": 44.35476392867931, "lng": 125.77068023846462}, "feature": {"sight_features": "", "sight_content": ""}}, {"title": "神域密室", "address": "公园路昭阳公园动感鬼屋正对面", "image": "", "rank": 33, "time": 2, "location": {"lat": 27.270446908048182, "lng": 111.7273958611861}, "feature": {"sight_features": "", "sight_content": ""}}, {"title": "新屋欢乐谷水上乐园", "address": "绿汀大道与民旺路交汇处华美佳工业园区旁", "image": "", "rank": 34, "time": 2, "location": {"lat": 27.250661590423004, "lng": 111.78071291354286}, "feature": {"sight_features": "", "sight_content": ""}}, {"title": "邵东九贝生态农场", "address": "曹家坝大水田塘云山村地段", "image": "", "rank": 35, "time": 2, "location": {"lat": 27.239905196136135, "lng": 111.75381247503817}, "feature": {"sight_features": "", "sight_content": ""}}, {"title": "邵东县家有仙田生态农业专业合作...", "address": "流泽镇邵东中兴生态农庄东南70米", "image": "", "rank": 36, "time": 2, "location": {"lat": 27.293841402828342, "lng": 111.90442350506306}, "feature": {"sight_features": "", "sight_content": ""}}, {"title": "流泽杨梅基地", "address": "流泽镇中心村", "image": "", "rank": 37, "time": null, "location": {"lat": 27.293841402828342, "lng": 111.90442350506306}, "feature": {"sight_features": "", "sight_content": ""}}, {"title": "贺金声祠", "address": "湖南省邵东县西南", "image": "", "rank": 38, "time": 2, "location": {"lat": 27.264507471565526, "lng": 111.75049070295837}, "feature": {"sight_features": "", "sight_content": ""}}, {"title": "东华烈士墓 Donghua Martyrs Cem...", "address": "湖南省邵东县界岭乡东部", "image": "", "rank": 39, "time": 2, "location": {"lat": 27.363200520133002, "lng": 111.94413494972954}, "feature": {"sight_features": "", "sight_content": ""}}, {"title": "红岭步行街", "address": "湖南省邵东县育才一路15号", "image": "", "rank": 40, "time": 2, "location": {"lat": 27.264507471565526, "lng": 111.75049070295837}, "feature": {"sight_features": "", "sight_content": ""}}, {"title": "金苑步行街", "address": "湖南省邵东县两市镇", "image": "", "rank": 41, "time": 2, "location": {"lat": 27.24436824085473, "lng": 111.75177995102587}, "feature": {"sight_features": "", "sight_content": ""}}, {"title": "鸡婆坳", "address": "邵阳市-邵东县-零一五县道", "image": "", "rank": 42, "time": 2, "location": {"lat": 27.264507471565526, "lng": 111.75049070295837}, "feature": {"sight_features": "", "sight_content": ""}}, {"title": "云霖寺", "address": "邵阳市-邵东县-315省道佘湖山", "image": "", "rank": 43, "time": 2, "location": {"lat": 27.218999199948193, "lng": 111.8556635035569}, "feature": {"sight_features": "", "sight_content": ""}}, {"title": "南山草原(华电店)", "address": "邵阳市-邵东县-宋家塘办事处兴禾大道811-813号", "image": "", "rank": 44, "time": 2, "location": {"lat": 27.264696061904075, "lng": 111.74337423957505}, "feature": {"sight_features": "", "sight_content": ""}}]}