{"cityName": "沙湾", "days": 2, "cityImage": "", "spots": [{"title": "沙湾温泉旅游区", "address": "塔城地区沙湾县", "image": "", "rank": 1, "time": 2, "location": {"lat": 44.33194946174084, "lng": 85.62614468603468}, "feature": {"sight_features": "", "sight_content": ""}}, {"title": "海乐湾水上乐园", "address": "新疆维吾尔自治区塔城地区沙湾县乌鲁木齐西路", "image": "", "rank": 2, "time": 2.0, "location": {"lat": 44.33389292995544, "lng": 85.61536029428899}, "feature": {"sight_features": "", "sight_content": "新疆海乐湾水上乐园位于塔城地区沙湾县乌鲁木齐西路，园区内有多种游玩设施，如大喇叭，螺旋组合滑梯，彩虹高速滑梯，海啸海浪池，漂流河，游泳池，水寨等，属于室外水上乐园。"}}, {"title": "花果山金家桃园", "address": "天果段", "image": "", "rank": 3, "time": 2, "location": {"lat": 29.620662195732876, "lng": 86.2003293574422}, "feature": {"sight_features": "", "sight_content": ""}}, {"title": "大自然滑雪场", "address": "塔城地区沙湾县石河子143团石南公路向南9公里处", "image": "", "rank": 4, "time": 2, "location": {"lat": 44.29538699449788, "lng": 85.86678146054018}, "feature": {"sight_features": "", "sight_content": ""}}, {"title": "碧月谭", "address": "204省道", "image": "", "rank": 5, "time": 2, "location": {"lat": 38.05803661623474, "lng": 114.77437992974008}, "feature": {"sight_features": "", "sight_content": ""}}, {"title": "屯垦人家", "address": "桃源旅游区", "image": "", "rank": 6, "time": 1.0, "location": {"lat": 44.24796694432949, "lng": 85.84293745154802}, "feature": {"sight_features": "", "sight_content": ""}}, {"title": "新安镇文化中心图书馆", "address": "新安路与虹桥路交叉口东100米", "image": "", "rank": 7, "time": 2, "location": {"lat": 34.24169773718116, "lng": 109.00759582268871}, "feature": {"sight_features": "", "sight_content": ""}}, {"title": "钱雨桃园", "address": "904县道", "image": "", "rank": 8, "time": 2, "location": {"lat": 31.402836733646584, "lng": 119.0033758078972}, "feature": {"sight_features": "", "sight_content": ""}}, {"title": "大周农家乐", "address": "904县道附近", "image": "", "rank": 9, "time": 2, "location": {"lat": 31.402836733646584, "lng": 119.0033758078972}, "feature": {"sight_features": "", "sight_content": ""}}, {"title": "三道河子林场森林公园", "address": "新疆维吾尔自治区沙湾县城西 832100", "image": "", "rank": 10, "time": 2, "location": {"lat": 44.33194946174084, "lng": 85.62614468603468}, "feature": {"sight_features": "", "sight_content": ""}}, {"title": "欢乐堡儿童乐园", "address": "人民路与滨河东路交叉口南50米", "image": "", "rank": 11, "time": 2, "location": {"lat": 36.79678729918012, "lng": 119.97923360728112}, "feature": {"sight_features": "", "sight_content": ""}}, {"title": "奥乐奥儿童乐园", "address": "新疆维吾尔自治区塔城地区沙湾县人民路3-50", "image": "", "rank": 12, "time": 2, "location": {"lat": 44.33113416929236, "lng": 85.63355175394776}, "feature": {"sight_features": "", "sight_content": ""}}, {"title": "石河子市143团万福寺", "address": "新疆维吾尔自治区塔城地区沙湾县S223", "image": "", "rank": 13, "time": 1.0, "location": {"lat": 44.33194946174084, "lng": 85.62614468603468}, "feature": {"sight_features": "", "sight_content": ""}}, {"title": "沙湾和平广场", "address": "老沙湾路与219省道交叉口西南100米", "image": "", "rank": 14, "time": 1.5, "location": {"lat": 31.909199228140412, "lng": 121.30903625505988}, "feature": {"sight_features": "", "sight_content": ""}}, {"title": "东方生活广场", "address": "新疆维吾尔自治区塔城地区沙湾县友谊路7小区6", "image": "", "rank": 15, "time": 2, "location": {"lat": 44.611862926254766, "lng": 85.37024046379352}, "feature": {"sight_features": "", "sight_content": ""}}, {"title": "天山度假村", "address": "S101沙湾大鹿角湾旅游区东北侧600米", "image": "", "rank": 16, "time": 2, "location": {"lat": 43.982927553566164, "lng": 85.16433783055561}, "feature": {"sight_features": "", "sight_content": ""}}, {"title": "诺亚回民度假村", "address": "S101鹿角湾风景旅游区服务区内", "image": "", "rank": 17, "time": 2, "location": {"lat": 31.212113194916512, "lng": 121.44419275808994}, "feature": {"sight_features": "", "sight_content": ""}}, {"title": "牛圈子森林度假村", "address": "塔城地区沙湾县", "image": "", "rank": 18, "time": 2, "location": {"lat": 44.33194946174084, "lng": 85.62614468603468}, "feature": {"sight_features": "", "sight_content": ""}}, {"title": "食为天渡假村", "address": "新疆维吾尔自治区塔城地区沙湾县育才路", "image": "", "rank": 19, "time": 2, "location": {"lat": 44.67507597235249, "lng": 85.27467430101456}, "feature": {"sight_features": "", "sight_content": ""}}, {"title": "巴音山庄", "address": "北坡巴音沟河出山口", "image": "", "rank": 20, "time": 2, "location": {"lat": 44.192655706199425, "lng": 85.27776816023164}, "feature": {"sight_features": "", "sight_content": ""}}, {"title": "桂花蟠桃园", "address": "312国道", "image": "", "rank": 21, "time": 2, "location": {"lat": 31.33241303413939, "lng": 120.99854638594724}, "feature": {"sight_features": "", "sight_content": ""}}, {"title": "双龙生态园", "address": "224省道", "image": "", "rank": 22, "time": 2, "location": {"lat": 40.07033678730361, "lng": 116.8104973444274}, "feature": {"sight_features": "", "sight_content": ""}}, {"title": "黑山头植物园", "address": "团结路", "image": "", "rank": 23, "time": 2, "location": {"lat": 39.09559418426625, "lng": 117.10726754529976}, "feature": {"sight_features": "", "sight_content": ""}}, {"title": "沙湾县图书馆", "address": "火车站路", "image": "", "rank": 24, "time": 2, "location": {"lat": 39.642455775199885, "lng": 115.59251830334546}, "feature": {"sight_features": "", "sight_content": ""}}, {"title": "潘家蟠桃园", "address": "花东段附近", "image": "", "rank": 25, "time": 2, "location": {"lat": 23.442202295145538, "lng": 113.3300279026868}, "feature": {"sight_features": "", "sight_content": ""}}, {"title": "天苹采摘园", "address": "204省道南50米", "image": "", "rank": 26, "time": 2, "location": {"lat": 38.0576814642369, "lng": 114.77437992974008}, "feature": {"sight_features": "", "sight_content": ""}}, {"title": "军燕沙漠生态旅游景区", "address": "石河子市古尔班通古特沙漠南缘（玛纳斯河中下游的石河子121团场7连向西800米）", "image": "", "rank": 27, "time": 2, "location": {"lat": 44.31197647806301, "lng": 86.08688567193293}, "feature": {"sight_features": "", "sight_content": "新疆军燕沙漠生态旅游景区是“国家AAAA级旅游景区”，位于古尔班通古特沙漠南缘，玛纳斯河中下游的石河子121团场7连，是集次生胡杨、荒漠植被、沙生植物、人造绿地、人文景观为一体的沙漠绿色生态园。景区内主要项目有餐饮、住宿、垂钓、娱乐、健身、沙海越野、露营、摸鱼、葡萄酒品鉴、农副产品种植、采摘、演艺等项目。"}}, {"title": "鑫沙湾商业街", "address": "新疆维吾尔自治区沙湾县世纪大道", "image": "", "rank": 28, "time": 2, "location": {"lat": 44.33497324334058, "lng": 85.62913837897725}, "feature": {"sight_features": "", "sight_content": ""}}, {"title": "华录国际影城(沙湾店)", "address": "塔城地区-沙湾县-乌鲁木齐西路170号沙湾影剧院三层", "image": "", "rank": 29, "time": 2, "location": {"lat": 44.334641122496706, "lng": 85.62192974675132}, "feature": {"sight_features": "", "sight_content": ""}}, {"title": "东大塘", "address": "新疆维吾尔自治区沙湾县依连哈比尔尕山北簏 832100", "image": "", "rank": 30, "time": 2, "location": {"lat": 44.33194946174084, "lng": 85.62614468603468}, "feature": {"sight_features": "", "sight_content": ""}}, {"title": "紫泥泉镇", "address": "新疆维吾尔自治区塔城地区沙湾县101省道上", "image": "", "rank": 31, "time": 2, "location": {"lat": 44.00205368761884, "lng": 85.25332598073938}, "feature": {"sight_features": "", "sight_content": ""}}, {"title": "宁家河", "address": "新疆维吾尔自治区塔城地区沙湾县", "image": "", "rank": 32, "time": 2, "location": {"lat": 44.33194946174084, "lng": 85.62614468603468}, "feature": {"sight_features": "", "sight_content": ""}}, {"title": "玛河观音沟", "address": "新疆维吾尔自治区塔城地区沙湾县312国道 ‎", "image": "", "rank": 33, "time": 2, "location": {"lat": 44.33642421073506, "lng": 85.25465700001352}, "feature": {"sight_features": "", "sight_content": ""}}, {"title": "北湖风景区", "address": "新疆维吾尔自治区石河子市市北约16千米处", "image": "", "rank": 34, "time": 3.0, "location": {"lat": 44.31197647806301, "lng": 86.08688567193293}, "feature": {"sight_features": "", "sight_content": ""}}, {"title": "大泉沟水库", "address": "新疆维吾尔自治区石河子市市北13公里处", "image": "", "rank": 35, "time": 2, "location": {"lat": 44.31197647806301, "lng": 86.08688567193293}, "feature": {"sight_features": "", "sight_content": ""}}, {"title": "鹿角湾旅游区", "address": "塔城地区沙湾县101省道附近", "image": "", "rank": 36, "time": 2, "location": {"lat": 44.00205368761884, "lng": 85.25332598073938}, "feature": {"sight_features": "", "sight_content": ""}}]}