{"cityName": "沙县", "days": 2, "cityImage": "", "spots": [{"title": "沙县小吃文化城", "address": "三明市沙县新城西路", "image": "", "rank": 1, "time": 2, "location": {"lat": 26.396825433277783, "lng": 117.77619906628152}, "feature": {"sight_features": "", "sight_content": ""}}, {"title": "沙县城隍庙", "address": "三明市沙县城东文庙路2号", "image": "", "rank": 2, "time": 1.0, "location": {"lat": 26.40431558964616, "lng": 117.80671571356461}, "feature": {"sight_features": "", "sight_content": ""}}, {"title": "三明水上乐园", "address": "三明市沙县如意湿地公园西北侧", "image": "", "rank": 3, "time": 2.5, "location": {"lat": 26.40281344434632, "lng": 117.79856107580882}, "feature": {"sight_features": "", "sight_content": "三明水上乐园是闽西北最大的“水上乐园”，拥有能容纳4000人的“无边际海浪池”和超级大喇叭滑梯等游乐设施。超级大喇叭滑梯是前来水上乐园必玩的项目，每次可坐4个人，从20多米高的平台开始滑行，飞一般冲入巨大的喇叭型滑道，就如同坐过山车一般，请自行想象一下大脑缺氧般的新奇感觉吧!\n无边际海浪池是超大海浪池，能够容纳4000人。在这里你能够感受到不一样的体验。还有许多好玩的游乐设施，期待您的光临！"}}, {"title": "三明欢乐大世界", "address": "三明市沙县海西三明生态工贸区湿地公园西侧", "image": "", "rank": 4, "time": 2, "location": {"lat": 26.40281344434632, "lng": 117.79856107580882}, "feature": {"sight_features": "特色1 文化娱乐主题公园", "sight_content": "三明欢乐大世界占地80.2亩，属于文化娱乐主题公园。包含省内独有的火箭蹦极，以及碰碰车、激流勇进、疯狂老鼠、大摆锤、高空飞翔、摩天轮、环游世界、自控飞机等近30个游乐项目。"}}, {"title": "佛祖舍利塔", "address": "新城西路A3-1号附近", "image": "", "rank": 5, "time": 2, "location": {"lat": 26.400987795059645, "lng": 117.7828636361799}, "feature": {"sight_features": "", "sight_content": ""}}, {"title": "大洲古渡", "address": "三明市沙县李纲西路", "image": "", "rank": 6, "time": 2, "location": {"lat": 26.393014401394677, "lng": 117.78572739911084}, "feature": {"sight_features": "特色1 乘游船驰骋在壮美的虬江河段感受沿江两岸的风光", "sight_content": "大洲古渡位于风景秀丽的淘金山风景区脚下大洲村虬江河段，是以游船娱乐项目为主的水上游玩俱乐部。主营游船有：豪华画舫船、快艇、竹筏、家庭组合式电动船和脚踏船等。\n\n\n\n\n游玩大洲古渡，你可以朝拜淘金山、烧香拜佛、十里漂流、七峰叠翠、品沙县小吃，欣赏沙县小吃街文化。乘游船驰骋在壮美的虬江河段感受沿江两岸的风光，更能欣赏大洲村虬江河段两岸美丽夜景风光，了解沙县人文地理文化、沙县特产等。你可以在游船上面举办宴会、party、商务会议、婚礼仪式等，你还可以乘坐豪华画舫船、快艇、竹筏游览虬江……"}}, {"title": "福建田字一号农业科技有限公司", "address": "205国道东锦庙北50米", "image": "", "rank": 7, "time": 2, "location": {"lat": 26.389293704462983, "lng": 117.85873131617012}, "feature": {"sight_features": "", "sight_content": ""}}, {"title": "天上人间娱乐城", "address": "凤岗镇新城路莲花新村45幢鸿鑫大楼(莲花园环岛对面)", "image": "", "rank": 8, "time": 2, "location": {"lat": 26.40484758987313, "lng": 117.7913858713299}, "feature": {"sight_features": "", "sight_content": ""}}, {"title": "官庄农场", "address": "304省道附近", "image": "", "rank": 9, "time": 2, "location": {"lat": 38.007414201086036, "lng": 114.44892402313616}, "feature": {"sight_features": "", "sight_content": ""}}, {"title": "鳄鱼漆", "address": "鸿图花园鸿辉园12栋E66号", "image": "", "rank": 10, "time": 2, "location": {"lat": 26.40198656025971, "lng": 117.79058573983276}, "feature": {"sight_features": "", "sight_content": ""}}, {"title": "天主堂", "address": "文庙路与李纲东路交叉口西50米", "image": "", "rank": 11, "time": 0.4, "location": {"lat": 26.409489912089995, "lng": 117.81211175481207}, "feature": {"sight_features": "", "sight_content": ""}}, {"title": "公园一号", "address": "福建省三明市沙县长泰南路", "image": "", "rank": 12, "time": 2, "location": {"lat": 26.41495213802255, "lng": 117.80078731311616}, "feature": {"sight_features": "", "sight_content": ""}}, {"title": "白马庙", "address": "三官堂东路与新城中路交叉口北150米", "image": "", "rank": 13, "time": 2, "location": {"lat": 26.407371083922687, "lng": 117.79585051439102}, "feature": {"sight_features": "", "sight_content": ""}}, {"title": "黄酒博物馆", "address": "金明东路与长泰南路交叉口西南200米", "image": "", "rank": 14, "time": 1.5, "location": {"lat": 26.43329481511128, "lng": 117.80307084075568}, "feature": {"sight_features": "", "sight_content": ""}}, {"title": "青州农民公园", "address": "青州镇", "image": "", "rank": 15, "time": 3.5, "location": {"lat": 26.508084597934193, "lng": 117.99146633963721}, "feature": {"sight_features": "", "sight_content": ""}}, {"title": "三明生态新城文化广场", "address": "福建省三明市海西生态新城文化广场", "image": "", "rank": 16, "time": 2.5, "location": {"lat": 25.686916547550098, "lng": 117.85395947238743}, "feature": {"sight_features": "", "sight_content": ""}}, {"title": "沙县吉祥寺", "address": "琅口镇头村", "image": "", "rank": 17, "time": 2.5, "location": {"lat": 26.388144622987763, "lng": 117.84972613850353}, "feature": {"sight_features": "", "sight_content": ""}}, {"title": "沙县性天寺", "address": "福建省三明市沙县", "image": "", "rank": 18, "time": 2, "location": {"lat": 26.40281344434632, "lng": 117.79856107580882}, "feature": {"sight_features": "", "sight_content": ""}}, {"title": "夫人宫", "address": "东大路与文庙路交叉口东北100米", "image": "", "rank": 19, "time": 2.0, "location": {"lat": 42.85646580255288, "lng": 124.414086267546}, "feature": {"sight_features": "", "sight_content": ""}}, {"title": "莲花山庙", "address": "三明市沙县", "image": "", "rank": 20, "time": 2, "location": {"lat": 26.40281344434632, "lng": 117.79856107580882}, "feature": {"sight_features": "", "sight_content": ""}}, {"title": "沙县夏茂镇革命烈士陵园", "address": "304省道附近", "image": "", "rank": 21, "time": 2, "location": {"lat": 38.007414201086036, "lng": 114.44892402313616}, "feature": {"sight_features": "", "sight_content": ""}}, {"title": "府前广场", "address": "福建省三明市沙县滨河路13幢", "image": "", "rank": 22, "time": 2, "location": {"lat": 26.400999353862037, "lng": 117.80053437274226}, "feature": {"sight_features": "", "sight_content": ""}}, {"title": "富群休闲山庄", "address": "后洋附近", "image": "", "rank": 23, "time": 2, "location": {"lat": 23.99641354666239, "lng": 117.05556122249186}, "feature": {"sight_features": "", "sight_content": ""}}, {"title": "龙湖", "address": "福建省永定县城西南部", "image": "", "rank": 24, "time": 2.0, "location": {"lat": 24.76182690305354, "lng": 116.82555248898036}, "feature": {"sight_features": "", "sight_content": ""}}, {"title": "沙县档案馆", "address": "文化街2号", "image": "", "rank": 25, "time": 1.0, "location": {"lat": 39.33163478873587, "lng": 115.88727550846833}, "feature": {"sight_features": "", "sight_content": ""}}, {"title": "多维互动影像触觉艺术展", "address": "海西物流园区", "image": "", "rank": 26, "time": 2, "location": {"lat": 37.38275046252745, "lng": 97.37629911601906}, "feature": {"sight_features": "", "sight_content": ""}}, {"title": "3D互动魔幻艺术展", "address": "三明生态工贸区生态新城金港路与港区路交汇处(三明进口商品直销中心3F、4F)", "image": "", "rank": 27, "time": 2, "location": {"lat": 26.37737960980613, "lng": 117.7904550363811}, "feature": {"sight_features": "", "sight_content": ""}}, {"title": "农家乐美食店", "address": "华山K栋5号店", "image": "", "rank": 28, "time": 2, "location": {"lat": 24.09252279857813, "lng": 116.95053137014742}, "feature": {"sight_features": "", "sight_content": ""}}, {"title": "沙县图书馆", "address": "府前中路与文化街交叉口北100米", "image": "", "rank": 29, "time": 1.5, "location": {"lat": 26.4029187305875, "lng": 117.7999967000642}, "feature": {"sight_features": "", "sight_content": ""}}, {"title": "柱源阳光", "address": "205国道东南加油站东南侧200米", "image": "", "rank": 30, "time": 2, "location": {"lat": 31.266471920483863, "lng": 118.5400176825567}, "feature": {"sight_features": "", "sight_content": ""}}, {"title": "沙县肩膀戏艺术团", "address": "李纲中路", "image": "", "rank": 31, "time": null, "location": {"lat": 27.34274465723208, "lng": 117.49797428394093}, "feature": {"sight_features": "", "sight_content": ""}}, {"title": "龙峰溪漂流", "address": "三明市沙县夏茂镇松林村", "image": "", "rank": 32, "time": 2, "location": {"lat": 26.599890438565946, "lng": 117.65780834239648}, "feature": {"sight_features": "", "sight_content": "龙峰溪漂流位于三明市沙县夏茂镇松林村，全程河段约3公里，总落差68米，水量大，落差大，漂流河道时窄时宽，整个漂流既有急流险滩，又有平湖深潭，是漂流的理想河段。人在舟中，船行浪上，悠哉游哉，让人乐而忘返。在蜿蜒曲折的河道中，或搏浪闯滩，或戏水嬉闹，可纵情放怀，挑战自然。"}}, {"title": "宝严寺", "address": "福建省沙县东大路", "image": "", "rank": 33, "time": 1.0, "location": {"lat": 26.534628468677145, "lng": 117.99007217487602}, "feature": {"sight_features": "", "sight_content": ""}}, {"title": "沙县步行街", "address": "福建省沙县三官堂路", "image": "", "rank": 34, "time": 3.0, "location": {"lat": 26.399969674974116, "lng": 117.79369798933888}, "feature": {"sight_features": "", "sight_content": ""}}, {"title": "仙舟大酒店-棋牌室", "address": "三明市-沙县-文庙路仙舟大酒店1楼", "image": "", "rank": 35, "time": 2, "location": {"lat": 26.409489912089995, "lng": 117.81211175481207}, "feature": {"sight_features": "", "sight_content": ""}}, {"title": "悬索桥", "address": "三明市沙县", "image": "", "rank": 36, "time": 0.6, "location": {"lat": 26.40281344434632, "lng": 117.79856107580882}, "feature": {"sight_features": "", "sight_content": ""}}]}