{"cityName": "沙洋", "days": 2, "cityImage": "", "spots": [{"title": "荆门沙洋油菜花节", "address": "湖北省荆门市沙洋县张池村（020县道北）", "image": "", "rank": 1, "time": 4.5, "location": {"lat": 30.710903398357868, "lng": 112.45865522337259}, "feature": {"sight_features": "", "sight_content": ""}}, {"title": "爱乐城堡儿童乐园", "address": "五一路", "image": "", "rank": 2, "time": 2, "location": {"lat": 34.2750334597168, "lng": 109.0498016758203}, "feature": {"sight_features": "", "sight_content": ""}}, {"title": "楚天野战军友俱乐部", "address": "荆州市沙市区沙洋县纪山镇金桥村四组", "image": "", "rank": 3, "time": 2, "location": {"lat": 30.316571904872184, "lng": 112.26157741482734}, "feature": {"sight_features": "", "sight_content": ""}}, {"title": "张池农庄采摘园", "address": "020县道花海农庄西北侧", "image": "", "rank": 4, "time": 2, "location": {"lat": 29.86586448623279, "lng": 119.83417585824681}, "feature": {"sight_features": "", "sight_content": ""}}, {"title": "五里影剧院", "address": "国道街123号附近", "image": "", "rank": 5, "time": 2, "location": {"lat": 38.973534140531505, "lng": 115.59607272128225}, "feature": {"sight_features": "", "sight_content": ""}}, {"title": "三峡垂钓园", "address": "219省道", "image": "", "rank": 6, "time": 2, "location": {"lat": 40.151047949015684, "lng": 115.89871895858025}, "feature": {"sight_features": "", "sight_content": ""}}, {"title": "长龙·时代广场", "address": "荆门市沙洋县汉津大道89号", "image": "", "rank": 7, "time": 2, "location": {"lat": 30.704100811901128, "lng": 112.57774403398312}, "feature": {"sight_features": "", "sight_content": ""}}, {"title": "孔家湾生态公园", "address": "荷花大道附近", "image": "", "rank": 8, "time": 2, "location": {"lat": 23.20009800145732, "lng": 112.91768683268336}, "feature": {"sight_features": "", "sight_content": ""}}, {"title": "中国油菜博物馆", "address": "020县道", "image": "", "rank": 9, "time": 2, "location": {"lat": 31.238861031662534, "lng": 118.51347169293973}, "feature": {"sight_features": "", "sight_content": ""}}, {"title": "沙洋县", "address": "湖北省，荆门", "image": "", "rank": 10, "time": 2, "location": {"lat": 31.041732575569622, "lng": 112.20639298023002}, "feature": {"sight_features": "", "sight_content": ""}}, {"title": "黄土坡农场", "address": "汉宜大道附近", "image": "", "rank": 11, "time": 2, "location": {"lat": 30.6823307967189, "lng": 111.44861239253528}, "feature": {"sight_features": "", "sight_content": ""}}, {"title": "马家垸遗址", "address": "湖北省沙洋县五里铺镇显灵村 448268", "image": "", "rank": 12, "time": 2, "location": {"lat": 30.69677280952757, "lng": 112.25778325262452}, "feature": {"sight_features": "", "sight_content": ""}}, {"title": "十里影剧院", "address": "向东路26号附近", "image": "", "rank": 13, "time": 2, "location": {"lat": 22.7388752665127, "lng": 114.29098859500938}, "feature": {"sight_features": "", "sight_content": ""}}, {"title": "张家祠堂", "address": "荆门市沙洋县二零七国道", "image": "", "rank": 14, "time": 2, "location": {"lat": 30.715314748830732, "lng": 112.59548493899133}, "feature": {"sight_features": "", "sight_content": ""}}, {"title": "侯家祠堂", "address": "荆门市沙洋县", "image": "", "rank": 15, "time": 2, "location": {"lat": 30.715314748830732, "lng": 112.59548493899133}, "feature": {"sight_features": "", "sight_content": ""}}, {"title": "淘气宝儿童乐园", "address": "荆潜路78号附近", "image": "", "rank": 16, "time": 2, "location": {"lat": 30.9184864793451, "lng": 112.29015849671275}, "feature": {"sight_features": "", "sight_content": ""}}, {"title": "森林山庄", "address": "洪岭大道附近", "image": "", "rank": 17, "time": 2, "location": {"lat": 30.709298894330715, "lng": 112.57360937446657}, "feature": {"sight_features": "", "sight_content": ""}}, {"title": "烈士陵园", "address": "020县道附近", "image": "", "rank": 18, "time": 2, "location": {"lat": 31.238861031662534, "lng": 118.51347169293973}, "feature": {"sight_features": "", "sight_content": ""}}, {"title": "沙洋县图书馆", "address": "荷花大道14号", "image": "", "rank": 19, "time": 2, "location": {"lat": 23.20009800145732, "lng": 112.91768683268336}, "feature": {"sight_features": "", "sight_content": ""}}, {"title": "红军烈士纪念碑", "address": "平湖大道45号", "image": "", "rank": 20, "time": 0.4, "location": {"lat": 30.72121599786881, "lng": 112.58679536030165}, "feature": {"sight_features": "", "sight_content": ""}}, {"title": "樱花部落", "address": "张池村88号", "image": "", "rank": 21, "time": 2, "location": {"lat": 38.28138674648743, "lng": 115.72458251991173}, "feature": {"sight_features": "", "sight_content": ""}}, {"title": "旺旺生态农庄", "address": "020县道附近", "image": "", "rank": 22, "time": 2, "location": {"lat": 31.238861031662534, "lng": 118.51347169293973}, "feature": {"sight_features": "", "sight_content": ""}}, {"title": "纪山楚墓群", "address": "湖北省沙洋县纪山镇", "image": "", "rank": 23, "time": 2, "location": {"lat": 30.522165079196668, "lng": 112.23855317357238}, "feature": {"sight_features": "", "sight_content": ""}}, {"title": "海新广场步行街", "address": "湖北省沙洋县汉津大道17号", "image": "", "rank": 24, "time": 2, "location": {"lat": 30.704385832183075, "lng": 112.59185048742341}, "feature": {"sight_features": "", "sight_content": ""}}, {"title": "花蛟湾", "address": "荆门市-沙洋县", "image": "", "rank": 25, "time": 2, "location": {"lat": 30.715314748830732, "lng": 112.59548493899133}, "feature": {"sight_features": "", "sight_content": ""}}, {"title": "洪山庙湾", "address": "荆门市-沙洋县", "image": "", "rank": 26, "time": 2, "location": {"lat": 30.715314748830732, "lng": 112.59548493899133}, "feature": {"sight_features": "", "sight_content": ""}}, {"title": "吴家巷子", "address": "荆门市-沙洋县", "image": "", "rank": 27, "time": 2, "location": {"lat": 30.715314748830732, "lng": 112.59548493899133}, "feature": {"sight_features": "", "sight_content": ""}}]}