{"cityName": "射洪", "days": null, "cityImage": "", "spots": [{"title": "中华侏罗纪公园", "address": "遂宁市射洪县明星镇东南4公里处", "image": "", "rank": 1, "time": 2, "location": {"lat": 30.68744684601945, "lng": 105.37768451540926}, "feature": {"sight_features": "特色1 展有各种恐龙化石，了解恐龙的好景点。", "sight_content": "四川射洪硅化木国家地质公园位于射洪县明星镇境内，西近成都，南邻重庆，北抵绵阳。该公园2005年被中国古生物学会命名为“全国科普教育基地”，并且是2010年第八届国际侏罗纪大会确定的重要科研科考基地之一。\n有西南地区规模最大、保存最完整的硅化木化石群和恐龙化石点，有古人类化石、乌木、湖湘沉积波痕群，类岩溶景观、峡谷地貌景观、龙洞河水体景观、古山寨、古洞穴等人文景观。\n是一处集地质遗址、科学研究、科普教育、旅游观光、休闲度假为一体的综合型地质公园。"}}, {"title": "子昂故里", "address": "遂宁市射洪县金华镇", "image": "", "rank": 2, "time": 0.75, "location": {"lat": 31.00435995395571, "lng": 105.2670601366869}, "feature": {"sight_features": "特色1 集历史文化、自然生态、宗教文化为一体", "sight_content": "子昂故里文化旅游区位于距离射洪县城北20公里的千年古镇—金华镇，是一个“半城山水半城诗” 的千年古镇，集历史文化、自然生态、宗教文化为一体，海内文宗陈子昂从这里走向了长安庙堂，完成了唐诗革新的里程，奏响了大唐盛世的音符。\n素有川中小蓬莱美誉的金华山座落在小镇以北，前山崇道，后峰尚儒，形成了儒释道并育共生的独特风景。前山有1500年历史的蜀中四大名观之一的“金华山道观”，被宋神宗御赐“玉京观“，殿阁之上有历代名流雅士的楹联，玉皇殿前更有前代高道吟咏金华山美景的回文诗碑，正读反诵皆成妙笔。\n后山是陈子昂学成之地（国家级重点文物保护单位）——读书台，台内匾对甚多，多数为古今名家手迹，镌刻着陈子昂开启盛唐诗风的《三十八首感遇诗》及幽州台绝唱。山上古松苍柏窥云表、下瞰长河。林间亭台楼阁依山而建，随物赋形。诗圣杜甫曾杖策前来，挥毫写下留存于世的唯一手迹，诗碑立韵于纯阳阁楼前。"}}, {"title": "螺湖水世界", "address": "遂宁市射洪县螺湖半岛生态旅游度假区", "image": "", "rank": 3, "time": 4.0, "location": {"lat": 30.914363309900764, "lng": 105.37033711294814}, "feature": {"sight_features": "", "sight_content": ""}}, {"title": "龙凤峡漂流", "address": "遂宁市射洪县明星镇蔡家坝龙凤峡景区", "image": "", "rank": 4, "time": 2, "location": {"lat": 30.68744684601945, "lng": 105.34175229501014}, "feature": {"sight_features": "特色1 挑战者的乐园", "sight_content": "四川龙凤峡（国家级硅化木地质公园）旅游区位于射洪县明星镇东南4公里处，距成南高速公路大英段隆盛出入口4公里，距中国死海15公里，景区规划面积12平方公里。\n龙凤峡漂流总长约4.8公里，全程落差高达90米，漂流水源取自都江堰，由专业团队精心设计打造。起点从寨子山顶漂出后经过一段人工航道，穿过森林隧道、悬空漂道，从山顶速降冲入漂流最惊险的峡谷河段。\n\n\n经廊桥观瀑、闯凤潭响塘，穿行在古寺栈道间，挑战急流险滩静观流水动观山，积淀的激情、脱缰的极限，华丽丽一气呵成，保证刷爆你的朋友圈。\n来吧，让我们穿过九曲直下龙潭，尽享曲折跌宕起伏之惊险!"}}, {"title": "狮子山", "address": "遂宁市蓬溪县天福镇", "image": "", "rank": 5, "time": 1.5, "location": {"lat": 30.734785168799426, "lng": 105.50988838165179}, "feature": {"sight_features": "", "sight_content": ""}}, {"title": "彭州市蜀水荷乡", "address": "成都市彭州市红岩镇", "image": "", "rank": 6, "time": 7.5, "location": {"lat": 31.146156997078954, "lng": 104.01264858012155}, "feature": {"sight_features": "", "sight_content": ""}}, {"title": "万象农庄", "address": "万林乡夏团路", "image": "", "rank": 7, "time": 2.0, "location": {"lat": 31.47853273580597, "lng": 102.11062517246982}, "feature": {"sight_features": "", "sight_content": ""}}, {"title": "射洪县德利源莲藕种植基地", "address": "金华镇金华山后大门前行200米", "image": "", "rank": 8, "time": 2, "location": {"lat": 30.998999097569815, "lng": 105.28938671076413}, "feature": {"sight_features": "", "sight_content": ""}}, {"title": "时间走廊", "address": "洪达家鑫路下段179号", "image": "", "rank": 9, "time": 2, "location": {"lat": 30.861873274322054, "lng": 105.38252979746557}, "feature": {"sight_features": "", "sight_content": ""}}, {"title": "四方园啤酒广场", "address": "富源路城南加油站耙嘴巴对面", "image": "", "rank": 10, "time": 2, "location": {"lat": 30.85951115393786, "lng": 105.385060308816}, "feature": {"sight_features": "", "sight_content": ""}}, {"title": "雪花啤酒广场", "address": "四川省遂宁市射洪县新华上街金城丽景附近(南方名城附近)", "image": "", "rank": 11, "time": 2, "location": {"lat": 30.863135570453814, "lng": 105.39289150718409}, "feature": {"sight_features": "", "sight_content": ""}}, {"title": "金三角美食休闲广场", "address": "四川省遂宁市射洪县黄保路1", "image": "", "rank": 12, "time": 2, "location": {"lat": 30.86730482264222, "lng": 105.39528097468806}, "feature": {"sight_features": "", "sight_content": ""}}, {"title": "月亮岛雪花啤酒广场", "address": "紫薇街南50米", "image": "", "rank": 13, "time": 2, "location": {"lat": 30.2467565169835, "lng": 120.16959672856308}, "feature": {"sight_features": "", "sight_content": ""}}, {"title": "龙泉山庄", "address": "遂宁遂宁射洪县原龙泉天景度假村", "image": "", "rank": 14, "time": 2, "location": {"lat": 30.88468863355867, "lng": 105.35147176839071}, "feature": {"sight_features": "", "sight_content": ""}}, {"title": "蓝色港湾度假村", "address": "四川省遂宁市射洪县明珠街翰林花苑度假村南150米", "image": "", "rank": 15, "time": 2, "location": {"lat": 30.890896471235706, "lng": 105.38526165591131}, "feature": {"sight_features": "", "sight_content": ""}}, {"title": "射洪县王者泰拳搏击俱乐部", "address": "明珠小区2层2号", "image": "", "rank": 16, "time": 2, "location": {"lat": 36.361856637951796, "lng": 114.9299121936019}, "feature": {"sight_features": "", "sight_content": ""}}, {"title": "四川烹专高尔夫教育学院招生办", "address": "星光巷53号附近", "image": "", "rank": 17, "time": 2, "location": {"lat": 30.874845876393408, "lng": 105.3876880168226}, "feature": {"sight_features": "", "sight_content": ""}}, {"title": "漂流瓶", "address": "滨江路中段590", "image": "", "rank": 18, "time": 2, "location": {"lat": 29.58259296964336, "lng": 103.77717429465856}, "feature": {"sight_features": "", "sight_content": ""}}, {"title": "竹茵台休闲莊", "address": "广场路与武古渡街交叉口旁(伊斯兰牛肉馆旁、城南工商所斜对面)", "image": "", "rank": 19, "time": 2, "location": {"lat": 30.86924091065355, "lng": 105.3945223556849}, "feature": {"sight_features": "", "sight_content": ""}}, {"title": "射洪县逸乐堡儿童乐园", "address": "沱牌大道永逸广场五楼", "image": "", "rank": 20, "time": 2, "location": {"lat": 30.86287910709554, "lng": 105.37852001049967}, "feature": {"sight_features": "", "sight_content": ""}}, {"title": "群英会休闲广场", "address": "四川省遂宁市射洪县太和大道南段310号", "image": "", "rank": 21, "time": 2, "location": {"lat": 30.85884784588166, "lng": 105.38605798218657}, "feature": {"sight_features": "", "sight_content": ""}}, {"title": "翰林花苑度假村", "address": "遂宁市射洪县", "image": "", "rank": 22, "time": 2, "location": {"lat": 30.877138522336935, "lng": 105.39450950991609}, "feature": {"sight_features": "", "sight_content": ""}}, {"title": "诚信花园射中小区-休闲广场", "address": "武安河街23号附近", "image": "", "rank": 23, "time": 2, "location": {"lat": 30.87074241464205, "lng": 105.38359232019886}, "feature": {"sight_features": "", "sight_content": ""}}, {"title": "白鹤寺治安室", "address": "玉佛殿附近", "image": "", "rank": 24, "time": 2, "location": {"lat": 29.154184787336916, "lng": 120.31656472040268}, "feature": {"sight_features": "", "sight_content": ""}}, {"title": "翰雅生态园", "address": "古坟坝附近", "image": "", "rank": 25, "time": 2, "location": {"lat": 30.082998093997695, "lng": 108.72946615733515}, "feature": {"sight_features": "", "sight_content": ""}}, {"title": "天主堂", "address": "太和大道北段美丰馨苑附近", "image": "", "rank": 26, "time": 0.4, "location": {"lat": 30.88759475049703, "lng": 105.39345106258455}, "feature": {"sight_features": "", "sight_content": ""}}, {"title": "石牛庙", "address": "四川省遂宁市射洪县", "image": "", "rank": 27, "time": 2, "location": {"lat": 30.877138522336935, "lng": 105.39450950991609}, "feature": {"sight_features": "", "sight_content": ""}}, {"title": "洞天山庄", "address": "天凤街42号", "image": "", "rank": 28, "time": 2, "location": {"lat": 30.615158096402197, "lng": 103.9759270977217}, "feature": {"sight_features": "", "sight_content": ""}}, {"title": "板硚铺山王庙", "address": "三香路板硚铺山王庙(东北门)附近", "image": "", "rank": 29, "time": 2, "location": {"lat": 31.05759363678923, "lng": 105.1892674517434}, "feature": {"sight_features": "", "sight_content": ""}}, {"title": "武安河生态园", "address": "沱牌大道", "image": "", "rank": 30, "time": 2, "location": {"lat": 30.872075338982885, "lng": 105.3779224666575}, "feature": {"sight_features": "", "sight_content": ""}}, {"title": "长岭岗生态园", "address": "太和大道南段", "image": "", "rank": 31, "time": 2, "location": {"lat": 30.859655145453836, "lng": 105.38616492366093}, "feature": {"sight_features": "", "sight_content": ""}}, {"title": "贺诚纪念馆", "address": "文化路537号", "image": "", "rank": 32, "time": 2, "location": {"lat": 30.889242516163517, "lng": 105.38389791675728}, "feature": {"sight_features": "", "sight_content": ""}}, {"title": "射洪县档案馆", "address": "伯玉路246号", "image": "", "rank": 33, "time": 2, "location": {"lat": 30.876860270147485, "lng": 105.39195302226524}, "feature": {"sight_features": "", "sight_content": ""}}, {"title": "汉唐博物馆", "address": "兴建巷27号", "image": "", "rank": 34, "time": 2, "location": {"lat": 36.60395602645797, "lng": 109.50087327425997}, "feature": {"sight_features": "", "sight_content": ""}}, {"title": "硅化木国家地质公园博物馆", "address": "明星镇中华侏罗纪探秘旅游区", "image": "", "rank": 35, "time": 2, "location": {"lat": 30.672022596536642, "lng": 105.37504155058187}, "feature": {"sight_features": "", "sight_content": ""}}, {"title": "虹桥欢乐谷", "address": "城北二小区11栋", "image": "", "rank": 36, "time": 2, "location": {"lat": 30.898081387156708, "lng": 105.40021547195612}, "feature": {"sight_features": "", "sight_content": ""}}, {"title": "开心哈乐室内儿童乐园", "address": "新世纪广场1楼(近公园)", "image": "", "rank": 37, "time": 2, "location": {"lat": 40.00895359221029, "lng": 119.7676452434602}, "feature": {"sight_features": "", "sight_content": ""}}, {"title": "柳树植物生态园", "address": "沱牌镇原柳树镇滨江路(沱牌运输公司)", "image": "", "rank": 38, "time": 2, "location": {"lat": 35.68323058631626, "lng": 107.20757586986487}, "feature": {"sight_features": "", "sight_content": ""}}, {"title": "嘟嘟乐儿童乐园", "address": "七中兴文小区菜市场斜对面", "image": "", "rank": 39, "time": 2, "location": {"lat": 30.491601733051333, "lng": 105.61088689581754}, "feature": {"sight_features": "", "sight_content": ""}}, {"title": "mars", "address": "兴旺街与和平街交叉口东北50米", "image": "", "rank": 40, "time": 0.75, "location": {"lat": 30.874415560533723, "lng": 105.39391359739672}, "feature": {"sight_features": "", "sight_content": ""}}, {"title": "双人高尔夫(新阳街)", "address": "新阳街380号", "image": "", "rank": 41, "time": 2, "location": {"lat": 30.876271690337187, "lng": 105.39037115866334}, "feature": {"sight_features": "", "sight_content": ""}}, {"title": "四季田园", "address": "万林乡牵牛山村射大路古家湾东南侧", "image": "", "rank": 42, "time": 2, "location": {"lat": 30.79118697075984, "lng": 105.3277258204043}, "feature": {"sight_features": "", "sight_content": ""}}, {"title": "楞严阁", "address": "四川省射洪县洋溪镇", "image": "", "rank": 43, "time": 2, "location": {"lat": 30.80927279164907, "lng": 105.45011427783103}, "feature": {"sight_features": "", "sight_content": ""}}, {"title": "硅化木国家地质公园", "address": "四川省射洪县明星镇", "image": "", "rank": 44, "time": 2.5, "location": {"lat": 30.68744684601945, "lng": 105.34175229501014}, "feature": {"sight_features": "", "sight_content": ""}}, {"title": "兜率寺", "address": "四川省射洪县金华镇水洞街", "image": "", "rank": 45, "time": 0.75, "location": {"lat": 31.00435995395571, "lng": 105.2670601366869}, "feature": {"sight_features": "", "sight_content": ""}}, {"title": "恒业·旺街", "address": "四川省射洪县大河大道中段", "image": "", "rank": 46, "time": 2, "location": {"lat": 30.877138522336935, "lng": 105.39450950991609}, "feature": {"sight_features": "", "sight_content": ""}}, {"title": "君临跆拳道城南旗舰馆", "address": "遂宁市-射洪县-太和大道南段南方鸭肠王二楼", "image": "", "rank": 47, "time": 2, "location": {"lat": 30.859655145453836, "lng": 105.38616492366093}, "feature": {"sight_features": "", "sight_content": ""}}, {"title": "饶益寺", "address": "四川省射洪县柳树镇西南二里", "image": "", "rank": 48, "time": 2, "location": {"lat": 30.723057515013803, "lng": 105.42385632358769}, "feature": {"sight_features": "", "sight_content": ""}}, {"title": "螺湖", "address": "四川省射洪县太和镇", "image": "", "rank": 49, "time": 2, "location": {"lat": 30.87391439942172, "lng": 105.35342567989191}, "feature": {"sight_features": "", "sight_content": ""}}]}