{"cityName": "嵊州", "days": 2, "cityImage": "", "spots": [{"title": "崇仁古镇", "address": "绍兴市嵊州市崇仁镇", "image": "", "rank": 1, "time": 5.0, "location": {"lat": 29.629935790385012, "lng": 120.72247922924744}, "feature": {"sight_features": "", "sight_content": ""}}, {"title": "百丈飞瀑漂流", "address": "绍兴市嵊州市王院乡王院村南1里处", "image": "", "rank": 2, "time": 2, "location": {"lat": 29.63453997261267, "lng": 120.61499215470673}, "feature": {"sight_features": "", "sight_content": ""}}, {"title": "中翔绍兴温泉城", "address": "绍兴市嵊州市崇仁境内（距嵊州市区仅13公里）", "image": "", "rank": 3, "time": 2, "location": {"lat": 29.567326991294273, "lng": 120.83743725739004}, "feature": {"sight_features": "特色1 含游离二氧化碳温泉的湖底火山型温泉。 特色2 进入温泉池里，让你一日的疲惫去无踪影。", "sight_content": "中翔绍兴温泉城拥有稀有的湖底火山型温泉，温泉水蕴藏充沛的游离二氧化碳，又称“心脏泉”，其温 泉水含锶、锂、氟等矿物质和多种人体必 需的微量元素，对治疗心血管病、关节性疾病、代谢性疾病、呼 吸道疾病有明显疗效，还可使皮肤光滑细腻，有美容养颜的特殊功效。温泉城拥有稀有的湖底火山型温泉，蕴藏充沛的游离二氧化碳，又称“心脏泉”，其温泉水含锶、锂、氟等矿物质和多种人体必需的微量元素，对治疗心血管病、关节性疾病、代谢性疾病、呼吸道疾病有明显疗效，还可使皮肤光滑细腻，有美容美颜的特殊功效。坐落于湖畔的溶洞、飘雪、无边界等75个风格迥异的特色温泉汤池，群山环抱，山水一色，带您领略到春的活力、夏的激情、秋的温馨、冬的浪漫。\n\n\n中翔绍兴温泉城位于浙江省嵊州市，由中翔集团投资建设。占地面积5.9平方公里，总投资22亿元。距嵊州市区约11公里，交通便利，景色宜人，空气清新。旅游区内建设有温泉中心、会议中心、娱乐中心、康疗中心、企业会所等项目。是一家集温泉度假、特色观光、商务会议、文化体验、户外运动、生态休闲、健康养生为一体的国际性度假旅游区，也是长三角地区龙头旅游品牌之一。\n温泉城内火山石随处可见，据县志记载，该区域有1-6个火山喷发旋回，岩性以紫红色厚层砾岩和玄武岩为主，是进行地质勘察与休闲旅游的好去处。\n二十一幢坐落于特色景观中的花园式别墅，为您提供二十四小时贴身管家服务。精心设计的私家花园和风格各异的独立温泉泡池，尊贵优雅，空间私密，浪漫温馨（入住别墅您将不定期的享受到法国红酒、巴厘岛SPA等）。\n接待中心设有大堂吧、温泉总台、室内温泉区、中西式自助餐厅、客房和休闲健身区等，为您提供五星级的服务。简约而风情十足的迷你客房温馨浪漫，为您提供完美的休憩空间。以粤菜、杭帮菜为主的中西式自助餐厅，集各菜系之长为一体，为您演绎一场味蕾之间的激情芭蕾！巨蟒滑道、亲子戏水池、海浪池、鱼疗池等特色泡池带您尽享天伦之乐，释放浓浓亲情！\n旅游区内蕴藏着国内首屈一指的含游离二氧化碳温泉的湖底火山型温泉 。观湖、临湖温泉池共有75个泡池，进入伴着花的香气或溶合着名贵中草药汤汁的温泉池里，让您一日的疲  惫去无踪影。\n于崇仁沸水温泉的记载，最早可见于嵊州第一部县志《剡录》的石门山：“县西，山有龙潭，下有沸水  在溪穴间，周二三尺如汤沸，滚滚四时不休。”在沸水水库，山如屏,水如镜,温泉为湖底火山温泉，有两处  温泉出水口，水温常年保持在32-35℃，水质纯净，无臭无味，呈弱碱性，富含游离二氧化碳、锶、锂、氟  等多种微量元素。\n绍兴温泉城，无限美景等你来享！近在身边的绍兴温泉城的美景和优质服务，都让人流连忘返。 全新老姜池、腊梅池、黄酒池、龙井池等二十几个温补养生温泉池配合周边心醉美景惊艳亮相。青山碧水间，功能各异的特色养生温泉池，如天上降落的珍珠般散落，呵护身体。 同时还提供正宗SPA松骨服务，正宗的技术和手法，细心布置的优雅环境，轻柔美好的音乐，让每一寸肌肉都远离疲惫。\n温泉城位于浙江省嵊州市崇仁镇西北部的会稽山丘陵地带，即下坂水库与沸水水库大坝以上库区及两侧山体与民胜水库及五龙潭峡谷区，总面积约28平方公里。这里是当年山水诗人谢灵运游憩的石门山。\n溶洞温泉区：温泉池与生态溶洞景观融为一体，浑然天成。浸浴在溶洞中，赏洞内奇石多姿，冬暖夏凉，令您忘却烦恼，静静享受这一份舒适与安宁。"}}, {"title": "百丈飞瀑", "address": "绍兴市嵊州王院乡王院村南1里处", "image": "", "rank": 4, "time": 2.0, "location": {"lat": 29.63453997261267, "lng": 120.61499215470673}, "feature": {"sight_features": "特色1 素有“江南第一瀑布群”之称 特色2 山高峰险，植被茂密，气势磅礴，蔚为壮观", "sight_content": "百丈飞瀑漂流（隶属于嵊州市百丈飞瀑漂流有限公司）位于浙江嵊州市石璜镇境内，是国家AAA级旅游区江南第一瀑布群——百丈飞瀑景点之一，距嵊州市区约26公里，核心辐射沪杭甬金温衢地区、交通便捷，是长三角户外休闲运动的理想选择。\n百丈飞瀑漂流，全程约3公里，总体落差80余米，落差区位60余个，惊险刺激河段达10余处，漂流游程约90分钟。水质清，流量大，游客可 随到随漂。\n漂流河道四面群山，峰峦起伏，卵石河床，原生原态，青山飞流，风光无限。乘坐皮划艇随清澈见底的溪水顺流而下，任意东西，天高 水长，阳光灿烂，漂流其间，迎面而来的是一种期待——期待刺激！期待惊险！期待与自然的搏斗！期待“有惊无险”后的轻松！\n\n\n\n\n漂流是一种体能与胆量的挑战，在你寻求刺激、享受快乐的同时，要注意安全，并掌握一些技巧。漂流过程中，由于全程跌水区及大落差区很多，不要携带怕沾水的东西，以避免掉落或损坏。戴眼镜的朋友事先用皮筋系上。必须全程穿着救生衣，防止不注意的时候翻艇。在漂流 的过程中需注意沿途的箭头及标语，可以帮助你提早警觉跌水区。在下急流时，要抓住艇身内侧的扶手带，坐在后面的人身子略向后倾，双 人保证艇身平衡并与河道平行，顺流而下。当艇受卡时不能着急站起，应稳住艇身，找好落脚点后才能站起。\n\n\n\n\n‍‍特色饮食有石板鲈鱼、墩鸭、卤肉、茶菇、凉拌人工螺肉、春饼、芋饺、榨面、羊尾笋干等，干果类有香榧、小京生花生、板栗、烤薯片 等，此外还有黄酒、米海茶、大佛龙井名茶、苦丁茶等。 嵊州市区有小吃街一条，位于越秀路上，夜色初上，在嵊州市内散散步，漫步到小街上大吃一顿。各色美食摆在你面前，就怕你眼大肚小吃不过来呢。秘诀是：多几 个人分享美食，每样少吃一点儿，就不会望而兴叹了。\n嵊 州 豆 腐 年 糕 原料：鸡蛋丝、豆腐块或豆腐皮、大蒜、上等猪肉；主角当然少不了有嵊州特色年糕，这种长条形的年糕，在外乡很难再找到……\n“糟肉”——是选用上等的里脊肉配优质糟经过密封若干长时间密封糟制面成，开糟后芳香四溢；是春节期节饭桌上少不了的常备菜之一；不必再加调料，稍微切削一下，就可直接上桌，方便又好吃；想吃，就来嵊州作客！哈哈！\n“陈氏炖鸭”-是嵊州新推出的特产之一，那个鸭肉可真嫩，真脆，一碰口就掉；吃了保证让你有了想吃第二只的冲动!‍‍"}}, {"title": "王羲之故居旅游区", "address": "绍兴市嵊州市金庭镇羲之村", "image": "", "rank": 5, "time": 4.5, "location": {"lat": 29.55226999541401, "lng": 121.0737093632412}, "feature": {"sight_features": "", "sight_content": ""}}, {"title": "嵊州城隍庙", "address": "绍兴市嵊州市百步街9号", "image": "", "rank": 6, "time": 1.5, "location": {"lat": 29.595936948326663, "lng": 120.82572903442784}, "feature": {"sight_features": "", "sight_content": ""}}, {"title": "马寅初故居", "address": "嵊州市浦口街道名人街74号", "image": "", "rank": 7, "time": 2, "location": {"lat": 29.632849498236297, "lng": 120.90109492635018}, "feature": {"sight_features": "", "sight_content": ""}}, {"title": "越剧博物馆", "address": "绍兴市嵊州市百步街8号", "image": "", "rank": 8, "time": 2, "location": {"lat": 29.595754328747947, "lng": 120.82616740661824}, "feature": {"sight_features": "", "sight_content": ""}}, {"title": "覆卮山度假村滑草场", "address": "嵊州市下王镇前岗覆卮山顶", "image": "", "rank": 9, "time": 2, "location": {"lat": 29.701768732141993, "lng": 120.96141073711934}, "feature": {"sight_features": "", "sight_content": ""}}, {"title": "浙东大龙谷", "address": "绍兴嵊州南山风景区", "image": "", "rank": 10, "time": 2, "location": {"lat": 29.567326991294273, "lng": 120.83743725739004}, "feature": {"sight_features": "", "sight_content": ""}}, {"title": "溪山第一楼（城隍庙）", "address": "绍兴市嵊州市百步街9号", "image": "", "rank": 11, "time": 2, "location": {"lat": 29.595936948326663, "lng": 120.82572903442784}, "feature": {"sight_features": "", "sight_content": ""}}, {"title": "贵门更楼", "address": "绍兴市嵊州市西南35公里处的贵门山", "image": "", "rank": 12, "time": 1.0, "location": {"lat": 29.415983407806692, "lng": 120.61558111793448}, "feature": {"sight_features": "", "sight_content": ""}}, {"title": "天兴潭", "address": "绍兴市嵊州市南山湖南侧", "image": "", "rank": 13, "time": 1.0, "location": {"lat": 29.567326991294273, "lng": 120.83743725739004}, "feature": {"sight_features": "", "sight_content": ""}}, {"title": "玉成桥", "address": "绍兴市嵊州市谷来镇砩头村", "image": "", "rank": 14, "time": 0.4, "location": {"lat": 29.682260484321212, "lng": 120.64614113900079}, "feature": {"sight_features": "", "sight_content": ""}}, {"title": "瞻山风景区", "address": "绍兴市嵊州市崇仁镇廿八都村东侧", "image": "", "rank": 15, "time": 3.0, "location": {"lat": 29.636233120901185, "lng": 120.7004819030113}, "feature": {"sight_features": "", "sight_content": ""}}, {"title": "鹿山公园", "address": "绍兴市嵊州市城西北鹿胎山麓", "image": "", "rank": 16, "time": 1.0, "location": {"lat": 29.567326991294273, "lng": 120.83743725739004}, "feature": {"sight_features": "", "sight_content": ""}}, {"title": "剡溪漂流", "address": "绍兴嵊州市甘霖镇施家岙村", "image": "", "rank": 17, "time": 2, "location": {"lat": 29.522046608365162, "lng": 120.79293004886172}, "feature": {"sight_features": "", "sight_content": ""}}, {"title": "华堂古村", "address": "绍兴市嵊州市华堂村", "image": "", "rank": 18, "time": 1.5, "location": {"lat": 29.566554606745534, "lng": 121.05339102210436}, "feature": {"sight_features": "", "sight_content": ""}}, {"title": "嵊州市十八都江风景旅游区", "address": "绍兴市嵊州市", "image": "", "rank": 19, "time": 3.5, "location": {"lat": 29.567326991294273, "lng": 120.83743725739004}, "feature": {"sight_features": "", "sight_content": ""}}, {"title": "罗星公园", "address": "绍兴市嵊州市医院路", "image": "", "rank": 20, "time": 0.75, "location": {"lat": 29.591430606895234, "lng": 120.83246773339518}, "feature": {"sight_features": "", "sight_content": ""}}, {"title": "天竺寺", "address": "绍兴市嵊州市仙岩镇天竺山南麓", "image": "", "rank": 21, "time": 1.0, "location": {"lat": 29.683080815684622, "lng": 120.84365980618101}, "feature": {"sight_features": "", "sight_content": ""}}, {"title": "清隐寺", "address": "绍兴市嵊州市北漳镇塘坞村", "image": "", "rank": 22, "time": 1.0, "location": {"lat": 29.609608626746304, "lng": 121.08582300225959}, "feature": {"sight_features": "", "sight_content": ""}}, {"title": "南山湖风景名胜区", "address": "嵊州市长乐镇", "image": "", "rank": 23, "time": 3.5, "location": {"lat": 29.467539363496755, "lng": 120.62037284121811}, "feature": {"sight_features": "", "sight_content": ""}}, {"title": "嵊州施家岙村", "address": "嵊州市甘霖镇境内", "image": "", "rank": 24, "time": 3.5, "location": {"lat": 29.487229733361826, "lng": 120.72064315746366}, "feature": {"sight_features": "", "sight_content": ""}}, {"title": "吾悦广场", "address": "嵊州市富豪路", "image": "", "rank": 25, "time": 2, "location": {"lat": 29.58613272836102, "lng": 120.82251238116046}, "feature": {"sight_features": "", "sight_content": ""}}, {"title": "山海天", "address": "相公殿北路37号", "image": "", "rank": 26, "time": 2, "location": {"lat": 29.60153100113233, "lng": 120.83883421857628}, "feature": {"sight_features": "", "sight_content": ""}}, {"title": "嵊州市档案馆", "address": "剡湖街道龙会二路20号", "image": "", "rank": 27, "time": 1.0, "location": {"lat": 29.591234755716666, "lng": 120.83217363625606}, "feature": {"sight_features": "", "sight_content": ""}}, {"title": "近水园", "address": "剡湖街道近水园", "image": "", "rank": 28, "time": 2, "location": {"lat": 29.640293679278816, "lng": 120.80630983961463}, "feature": {"sight_features": "", "sight_content": ""}}, {"title": "天章塔", "address": "浙江省嵊州市城关镇", "image": "", "rank": 29, "time": 2, "location": {"lat": 29.50488012692904, "lng": 120.91398469234589}, "feature": {"sight_features": "", "sight_content": ""}}, {"title": "崇仁村建筑群", "address": "浙江省嵊州市崇仁村", "image": "", "rank": 30, "time": 2, "location": {"lat": 29.567326991294273, "lng": 120.83743725739004}, "feature": {"sight_features": "", "sight_content": ""}}, {"title": "清风景区", "address": "浙江省嵊州市三界镇姚岙村", "image": "", "rank": 31, "time": 3.0, "location": {"lat": 29.724157474476904, "lng": 120.84795555163682}, "feature": {"sight_features": "", "sight_content": ""}}, {"title": "贵门山", "address": "浙江省嵊州市贵门乡", "image": "", "rank": 32, "time": 2, "location": {"lat": 29.376862566597516, "lng": 120.6267115615725}, "feature": {"sight_features": "", "sight_content": ""}}, {"title": "瞻山庙古戏台", "address": "浙江省嵊州市崇仁镇廿八都村", "image": "", "rank": 33, "time": 2, "location": {"lat": 29.636233120901185, "lng": 120.7004819030113}, "feature": {"sight_features": "", "sight_content": ""}}, {"title": "当代阳光水上乐园", "address": "惠民街18号", "image": "", "rank": 34, "time": 2, "location": {"lat": 32.45680011078235, "lng": 120.5436508186296}, "feature": {"sight_features": "", "sight_content": ""}}, {"title": "五彩小麦", "address": "吾悦广场4楼", "image": "", "rank": 35, "time": 2, "location": {"lat": 31.14921010661117, "lng": 121.10111989197718}, "feature": {"sight_features": "", "sight_content": ""}}, {"title": "信源国际游乐城", "address": "嵊州大道南1699号信源国际商业城3楼儿童用品区(锦绣家园,市政府,西港)", "image": "", "rank": 36, "time": 2, "location": {"lat": 29.565178938942317, "lng": 120.84066124981341}, "feature": {"sight_features": "", "sight_content": ""}}, {"title": "浙东大龙谷风景区", "address": "长宅线", "image": "", "rank": 37, "time": 2, "location": {"lat": 29.39972257808523, "lng": 120.61821144000923}, "feature": {"sight_features": "", "sight_content": ""}}, {"title": "十王殿", "address": "高村54号", "image": "", "rank": 38, "time": 2, "location": {"lat": 29.57292886452776, "lng": 120.82863964309281}, "feature": {"sight_features": "", "sight_content": ""}}, {"title": "吕如远美术馆", "address": "官河路671-673号", "image": "", "rank": 39, "time": 2, "location": {"lat": 29.608149734081024, "lng": 120.8365251350433}, "feature": {"sight_features": "", "sight_content": ""}}, {"title": "玫瑰休闲山庄", "address": "明心岭路6号", "image": "", "rank": 40, "time": 2, "location": {"lat": 29.607757975171744, "lng": 120.82824992762032}, "feature": {"sight_features": "", "sight_content": ""}}, {"title": "书圣殿", "address": "嵊张线", "image": "", "rank": 41, "time": 2, "location": {"lat": 29.572065403813813, "lng": 121.03911301836723}, "feature": {"sight_features": "", "sight_content": ""}}, {"title": "温泉休闲", "address": "崇仁镇董郎岗村6号", "image": "", "rank": 42, "time": 2, "location": {"lat": 29.653941294346808, "lng": 120.75338278120508}, "feature": {"sight_features": "", "sight_content": ""}}, {"title": "温泉宾馆", "address": "崇仁董郎岗村21号(中翔绍兴温泉城旁)", "image": "", "rank": 43, "time": 2, "location": {"lat": 27.759079756014405, "lng": 116.08354898487654}, "feature": {"sight_features": "", "sight_content": ""}}, {"title": "嵊州市图书馆(长乐分馆)", "address": "环镇东路67号附近", "image": "", "rank": 44, "time": 3.5, "location": {"lat": 31.030407831834385, "lng": 121.61032676878389}, "feature": {"sight_features": "", "sight_content": ""}}, {"title": "嵊州市生生蔬菜专业合作社", "address": "嵊松线与S212交口西南50米", "image": "", "rank": 45, "time": 3.5, "location": {"lat": 29.56747948208694, "lng": 120.72924828375457}, "feature": {"sight_features": "", "sight_content": ""}}, {"title": "嵊州市后枣园休闲烧烤场", "address": "黄泽镇后枣园眠牛弄水库南侧", "image": "", "rank": 46, "time": 3.5, "location": {"lat": 29.618041708460787, "lng": 120.92577811150093}, "feature": {"sight_features": "", "sight_content": ""}}, {"title": "和悦时代广场", "address": "双塔路1888号", "image": "", "rank": 47, "time": 2, "location": {"lat": 29.607822387293993, "lng": 120.84723875863672}, "feature": {"sight_features": "", "sight_content": ""}}, {"title": "绍兴嵊州大唐度假村", "address": "浙江省绍兴嵊州市渔溪村", "image": "", "rank": 48, "time": 2.0, "location": {"lat": 29.603348349941484, "lng": 120.99372197153947}, "feature": {"sight_features": "", "sight_content": ""}}, {"title": "上谷峰香榧", "address": "官河路288号", "image": "", "rank": 49, "time": 2, "location": {"lat": 29.599694570312582, "lng": 120.83228588581763}, "feature": {"sight_features": "", "sight_content": ""}}, {"title": "嵊州市富泉水上乐园", "address": "嵊州市长乐镇福全村嵊州市超力电器厂东北100米", "image": "", "rank": 50, "time": 3.5, "location": {"lat": 29.46751517936134, "lng": 120.63674457770837}, "feature": {"sight_features": "", "sight_content": ""}}, {"title": "常乐寺", "address": "绍兴市嵊州市", "image": "", "rank": 51, "time": 1.0, "location": {"lat": 29.567326991294273, "lng": 120.83743725739004}, "feature": {"sight_features": "", "sight_content": ""}}, {"title": "百荟庙", "address": "浙江省绍兴市嵊州市甘霖镇甬金高速公路百荟庙", "image": "", "rank": 52, "time": 2, "location": {"lat": 29.480147764895158, "lng": 120.67478699948367}, "feature": {"sight_features": "", "sight_content": ""}}, {"title": "葛仙观", "address": "浙江省绍兴市嵊州市葛英村", "image": "", "rank": 53, "time": 2, "location": {"lat": 29.523346219258332, "lng": 120.58939153463048}, "feature": {"sight_features": "", "sight_content": ""}}, {"title": "仙姑庙", "address": "蛟澄线与806县道交叉口西北150米", "image": "", "rank": 54, "time": 0.3, "location": {"lat": 29.469769792153343, "lng": 120.79118665076582}, "feature": {"sight_features": "", "sight_content": ""}}, {"title": "樱花园", "address": "浙江省绍兴市嵊州市崇仁镇淡竹村212省道附近", "image": "", "rank": 55, "time": 2.5, "location": {"lat": 29.615899243749677, "lng": 120.66900542347757}, "feature": {"sight_features": "", "sight_content": ""}}, {"title": "虎山乐园", "address": "工农村", "image": "", "rank": 56, "time": 2, "location": {"lat": 38.81218638417054, "lng": 117.50478598074484}, "feature": {"sight_features": "", "sight_content": ""}}, {"title": "太公庙", "address": "浙江省绍兴市嵊州市高杨路阮肇故里(如家快捷酒店附近)", "image": "", "rank": 57, "time": 2, "location": {"lat": 29.57199031046983, "lng": 120.82938761358221}, "feature": {"sight_features": "", "sight_content": ""}}, {"title": "警钟公园", "address": "官河南路399号", "image": "", "rank": 58, "time": 2, "location": {"lat": 29.5726513078022, "lng": 120.83398192524704}, "feature": {"sight_features": "", "sight_content": ""}}, {"title": "明心禅寺", "address": "浙江省绍兴市嵊州市明心岭横路102号", "image": "", "rank": 59, "time": 2, "location": {"lat": 29.567326991294273, "lng": 120.83743725739004}, "feature": {"sight_features": "", "sight_content": ""}}, {"title": "东郭祠堂", "address": "802县道北50米", "image": "", "rank": 60, "time": 2, "location": {"lat": 40.67330783344608, "lng": 122.31633398463163}, "feature": {"sight_features": "", "sight_content": ""}}]}