{"cityName": "深州", "days": 2, "cityImage": "", "spots": [{"title": "深州蜜桃观光园", "address": "衡水市深州市穆村乡杜家庄村内", "image": "", "rank": 1, "time": 2, "location": {"lat": 38.00838721523185, "lng": 115.51107324743576}, "feature": {"sight_features": "", "sight_content": ""}}, {"title": "野狼户外旅游俱乐部", "address": "广场东北角星梦缘楼下忠义堂刺青", "image": "", "rank": 2, "time": 2, "location": {"lat": 31.494003341479456, "lng": 120.2455872913823}, "feature": {"sight_features": "", "sight_content": ""}}, {"title": "喜洋洋儿童乐园", "address": "衡水市深州市", "image": "", "rank": 3, "time": 2, "location": {"lat": 38.00694123492171, "lng": 115.56636927583166}, "feature": {"sight_features": "", "sight_content": ""}}, {"title": "闽江水族馆", "address": "河北省衡水市深州市永安大街34号", "image": "", "rank": 4, "time": 2, "location": {"lat": 38.01689151656987, "lng": 115.55643209805086}, "feature": {"sight_features": "", "sight_content": ""}}, {"title": "观花台蜜桃园", "address": "深穆路深州蜜桃果中之王西北侧700米", "image": "", "rank": 5, "time": 2, "location": {"lat": 38.03085427576666, "lng": 115.51533949613324}, "feature": {"sight_features": "", "sight_content": ""}}, {"title": "穆村天主堂", "address": "河北省衡水市深州市深穆路", "image": "", "rank": 6, "time": 0.75, "location": {"lat": 38.03085427576666, "lng": 115.51533949613324}, "feature": {"sight_features": "", "sight_content": ""}}, {"title": "深州市法尊寺", "address": "辰时镇南周堡村", "image": "", "rank": 7, "time": 2, "location": {"lat": 40.38981546019089, "lng": 115.24349931321457}, "feature": {"sight_features": "", "sight_content": ""}}, {"title": "深州市兴隆寺", "address": "保清路清辉头村东", "image": "", "rank": 8, "time": 1.0, "location": {"lat": 37.9734872608168, "lng": 115.50651490482034}, "feature": {"sight_features": "", "sight_content": ""}}, {"title": "西郎人民纪念馆", "address": "长城东路北50米", "image": "", "rank": 9, "time": 2, "location": {"lat": 43.368152010370906, "lng": 128.23735341798172}, "feature": {"sight_features": "", "sight_content": ""}}, {"title": "深州东山植物公园", "address": "河北省衡水市深州市深州镇博陵路东山植物园", "image": "", "rank": 10, "time": 2, "location": {"lat": 38.01785860340906, "lng": 115.58143056155447}, "feature": {"sight_features": "", "sight_content": ""}}, {"title": "金戈水上乐园", "address": "深穆路与西外环路交叉口西行100米路北", "image": "", "rank": 11, "time": 2, "location": {"lat": 38.026310948322966, "lng": 115.54838411616545}, "feature": {"sight_features": "", "sight_content": ""}}, {"title": "北土路口村天主堂", "address": "大屯镇北土路口村", "image": "", "rank": 12, "time": 2, "location": {"lat": 37.75161961067477, "lng": 115.40279902008014}, "feature": {"sight_features": "", "sight_content": ""}}, {"title": "深州市图书馆", "address": "永盛大街", "image": "", "rank": 13, "time": 1.5, "location": {"lat": 22.748298923582656, "lng": 114.13915425147074}, "feature": {"sight_features": "", "sight_content": ""}}, {"title": "御桃轩", "address": "西外环路中段东侧", "image": "", "rank": 14, "time": 2, "location": {"lat": 36.64008617919563, "lng": 117.93841180885839}, "feature": {"sight_features": "", "sight_content": ""}}, {"title": "金色年华水上乐园", "address": "G307(南外环路)泰和医院东行50米", "image": "", "rank": 15, "time": 2, "location": {"lat": 37.99664268946676, "lng": 115.54825703737649}, "feature": {"sight_features": "", "sight_content": ""}}, {"title": "乐童游乐场", "address": "黄河西路90号附近", "image": "", "rank": 16, "time": 2, "location": {"lat": 34.190756233800144, "lng": 117.18186896937667}, "feature": {"sight_features": "", "sight_content": ""}}, {"title": "墨艺轩画廊", "address": "博陵路与向阳街交叉口西北50米", "image": "", "rank": 17, "time": 2, "location": {"lat": 38.01698330257116, "lng": 115.55295320520969}, "feature": {"sight_features": "", "sight_content": ""}}, {"title": "河北兴泰林业开发有限公司", "address": "大冯营乡西牛村内", "image": "", "rank": 18, "time": 2, "location": {"lat": 38.011622830331326, "lng": 115.75537357887717}, "feature": {"sight_features": "", "sight_content": ""}}, {"title": "旧州蜜桃园", "address": "衡水深州市深州镇旧州村", "image": "", "rank": 19, "time": 2, "location": {"lat": 38.017082843547655, "lng": 115.54028831382466}, "feature": {"sight_features": "", "sight_content": ""}}]}