{"cityName": "什邡", "days": 2, "cityImage": "", "spots": [{"title": "什邡蓥华山风景区", "address": "德阳市什邡市方亭镇西北", "image": "", "rank": 1, "time": 3.5, "location": {"lat": 31.131627196237922, "lng": 104.17543904470733}, "feature": {"sight_features": "特色1 原始的自然美景，珍稀动植物遍布。", "sight_content": "什邡蓥华山风景区位于什邡市西北部，它的海拔比峨眉山还要高一些。这里没有什么人为的开发痕迹，夏天游客可以来此休闲避暑，行走在山间小路上，可以观赏珙桐、银杏、红杉、楠木、连香树等珍稀植物，有时还能发现金丝猴、野驴、山羊等野生动物，探险性十足。"}}, {"title": "川西第一漂", "address": "德阳市什邡市红白镇红峡谷旅游度假区内", "image": "", "rank": 2, "time": 2, "location": {"lat": 31.381728283880758, "lng": 104.03199598955126}, "feature": {"sight_features": "特色1 让你体验仁者乐山、智者乐水的无限乐趣。 特色2 谷水飞瀑流泉，峰峦怪岩，荗林修竹、诡谷险滩、青鸟唱柳、漂流赏景、人间仙境。 特色3 川西第一漂以其参与度高、体验性强、落差大、水量足、船行急而成为川西地区最具刺激性的动感、时尚、新潮水上运动娱乐项目，被誉为：“川西第一品牌”。", "sight_content": "川西第一漂位于四川省什邡市红白镇红峡谷旅游度假区内，漂流峡谷20公里，垂直落差196米。漂流河道属国内首家原生态峡谷漂流，位处世界奇观川西深大断裂的核心地段，谷水飞瀑流泉、峰峦耸峙、峭崖怪岩、茂林修竹、诡谷险滩、青鸟唱柳、漂流赏景，人间仙境。川西第一漂以其参与度高、体验性强、落差大、水量足、船行急而成为川西地区最具刺激性的动感、时尚、新潮水上运动娱乐项目，被誉为“川西漂流第一品牌”。\n漂流河道紧邻什邡市北京大道。距成都、绵阳、德阳等城市均在90公里交通圈内。外围大交通有北京大道与成绵高速、成渝环线高速、映汶高速、京昆高速、厦蓉高速、成赤高速相连，实现高速全覆盖的优越位置。漂流上下码头停车、咨询、票务、餐饮、购物、更衣、洗浴，各项设施齐全、服务热情周到、方便快捷。漂流上下码头有区间通勤车，接送客人。\n川西第一漂是川西大地夏季旅游避暑最佳圣地，是旅行社周边景区配线最好选择、更让游客真正体验到“仁者乐山、智者乐水”的限乐趣。"}}, {"title": "什邡穿心店地震遗址", "address": "德阳市什邡市穿心店镇广青公路附近", "image": "", "rank": 3, "time": 2.0, "location": {"lat": 31.442280683563546, "lng": 104.00572747662495}, "feature": {"sight_features": "", "sight_content": ""}}, {"title": "红峡谷", "address": "德阳市什邡市红白镇广青公路", "image": "", "rank": 4, "time": 2.5, "location": {"lat": 31.442280683563546, "lng": 104.00572747662495}, "feature": {"sight_features": "", "sight_content": ""}}, {"title": "红豆村", "address": "德阳市什邡市师古镇东面", "image": "", "rank": 5, "time": 2, "location": {"lat": 31.1658201521179, "lng": 104.0581842532531}, "feature": {"sight_features": "", "sight_content": ""}}, {"title": "蓥华山水世界", "address": "德阳市什邡市蓥华山蓥钟路118号", "image": "", "rank": 6, "time": 2, "location": {"lat": 31.33500097868479, "lng": 103.97173580363597}, "feature": {"sight_features": "", "sight_content": "蓥华山·水世界是什邡首创山林生态水乐园，直接把水上世界搬进了蓥华山森林景区。满目的绿是真正的“森呼吸”，负氧离子含量让你倍感畅爽，刺激的体验项目更有海洋般的凉爽。"}}, {"title": "龙居寺", "address": "四川什邡县湔底乡", "image": "", "rank": 7, "time": 1.0, "location": {"lat": 31.198007991667218, "lng": 104.02690629473516}, "feature": {"sight_features": "", "sight_content": ""}}, {"title": "神瀑沟风景区", "address": "德阳市什邡市蓥华镇石门村6组", "image": "", "rank": 8, "time": 1.5, "location": {"lat": 31.318933377022617, "lng": 103.9464660474367}, "feature": {"sight_features": "特色1 避暑戏水的好地方", "sight_content": "神瀑沟景区位于什邡市蓥华镇石门村，这里植被丰茂，古藤吊涧，松林成阵。现在的神瀑沟是由以前的五龙沟改名而来，沟口海拔1280米，沟尾1580米，一条溪流贯穿峡谷。其中分布着大小不一的五个瀑布。"}}, {"title": "德阳花样年华", "address": "德阳市什邡市京什东路北段", "image": "", "rank": 9, "time": 2.5, "location": {"lat": 31.14949765326638, "lng": 104.17198773517528}, "feature": {"sight_features": "", "sight_content": ""}}, {"title": "四季东城", "address": "德阳市什邡市皂角街道城东村（四季东城农庄）", "image": "", "rank": 10, "time": 2, "location": {"lat": 31.143174990827784, "lng": 104.19746750262651}, "feature": {"sight_features": "", "sight_content": ""}}, {"title": "万兴花园酒店温泉", "address": "德阳市什邡市什邡湔氐镇双流村内", "image": "", "rank": 11, "time": 2, "location": {"lat": 31.21609406270112, "lng": 103.99400657766984}, "feature": {"sight_features": "", "sight_content": ""}}, {"title": "什邡罗汉寺", "address": "四川省什邡市北部", "image": "", "rank": 12, "time": 1.5, "location": {"lat": 31.13288904823836, "lng": 104.17442710355034}, "feature": {"sight_features": "", "sight_content": ""}}, {"title": "雍湖公园", "address": "银杏下街", "image": "", "rank": 13, "time": 0.3, "location": {"lat": 31.129554273685493, "lng": 104.18824582344767}, "feature": {"sight_features": "", "sight_content": ""}}, {"title": "什邡博物馆", "address": "五十米大街", "image": "", "rank": 14, "time": null, "location": {"lat": 24.496811769995364, "lng": 110.4052077750588}, "feature": {"sight_features": "", "sight_content": ""}}, {"title": "云水瑶", "address": "蓥华山石门村松麻公路", "image": "", "rank": 15, "time": 2, "location": {"lat": 31.492507228220774, "lng": 104.77562992373582}, "feature": {"sight_features": "", "sight_content": ""}}, {"title": "民族村", "address": "雍城东路247号附近", "image": "", "rank": 16, "time": 1.0, "location": {"lat": 31.14053461394786, "lng": 104.18784462763064}, "feature": {"sight_features": "", "sight_content": ""}}, {"title": "海会堂", "address": "四川省什邡市蓥华镇北凤翅山上", "image": "", "rank": 17, "time": 2, "location": {"lat": 31.31502974374593, "lng": 103.96201547866177}, "feature": {"sight_features": "", "sight_content": ""}}, {"title": "花坞御景园", "address": "德阳市什邡市元石镇箭台村八组御景园", "image": "", "rank": 18, "time": 2.5, "location": {"lat": 31.10152997023271, "lng": 104.16754161247738}, "feature": {"sight_features": "特色1 休闲娱乐的好去处", "sight_content": "花坞御景园内有荷塘月色，郁金花海，五彩花田，萌宠乐园，3D魔画，紫薇长廊，十二生肖广场，花蕊夫人等众多景点。坐于岸边凉亭，如同走入了人间仙境，一座彩色的风车，矗立在花海之中，犹如梦幻世界。一大片花海，一座座形态各异的雕塑，都在等待着你与它们合影各种颜色的花，竞相开放，还有小朋友最喜欢的变形金刚大黄蜂，也在这里期待着你们的光临。"}}, {"title": "皂角山水上乐园", "address": "元石镇花桥村长运驾校前行100米", "image": "", "rank": 19, "time": 2, "location": {"lat": 31.120386084724725, "lng": 104.15925190190922}, "feature": {"sight_features": "", "sight_content": ""}}, {"title": "西部惊奇欢乐谷", "address": "蓥华山内，红白镇木瓜坪青牛沱", "image": "", "rank": 20, "time": 2, "location": {"lat": 31.39668940368574, "lng": 103.91249978391735}, "feature": {"sight_features": "", "sight_content": ""}}, {"title": "游乐园文化艺术中心", "address": "西顺城街74", "image": "", "rank": 21, "time": 2, "location": {"lat": 31.132808139992974, "lng": 104.17299376727863}, "feature": {"sight_features": "", "sight_content": ""}}, {"title": "什邡市职业中专学校图书阅览中心", "address": "利民路47", "image": "", "rank": 22, "time": 3.5, "location": {"lat": 31.64234670508996, "lng": 121.41063207950837}, "feature": {"sight_features": "", "sight_content": ""}}, {"title": "箭台村", "address": "元石镇北京大道", "image": "", "rank": 23, "time": 2, "location": {"lat": 31.06130183872237, "lng": 104.22039519131033}, "feature": {"sight_features": "", "sight_content": ""}}, {"title": "好运草莓园", "address": "什邡马祖镇复兴村(银四娘冷锅鱼旁,马祖曾羊肉对面)", "image": "", "rank": 24, "time": null, "location": {"lat": 31.16983700556895, "lng": 104.1329689909422}, "feature": {"sight_features": "", "sight_content": ""}}, {"title": "碧泳港水上乐园", "address": "元石镇箭台村(原碧泳港水上乐园)", "image": "", "rank": 25, "time": 2, "location": {"lat": 31.112624008080214, "lng": 104.17215965827361}, "feature": {"sight_features": "", "sight_content": ""}}, {"title": "富桂源农家乐", "address": "106省道西50米", "image": "", "rank": 26, "time": 2, "location": {"lat": 41.7055623287482, "lng": 122.68579078155582}, "feature": {"sight_features": "", "sight_content": ""}}, {"title": "山水人家", "address": "红峡路", "image": "", "rank": 27, "time": 2, "location": {"lat": 31.371345396367094, "lng": 104.01662285437574}, "feature": {"sight_features": "", "sight_content": ""}}, {"title": "松林苑农家乐", "address": "红白镇松林村二组", "image": "", "rank": 28, "time": 2, "location": {"lat": 31.385171102149318, "lng": 104.0282564398319}, "feature": {"sight_features": "", "sight_content": ""}}, {"title": "糖果盒儿童乐园", "address": "成青公路西100米", "image": "", "rank": 29, "time": 2, "location": {"lat": 31.284133557123262, "lng": 104.20181500126075}, "feature": {"sight_features": "", "sight_content": ""}}, {"title": "白衣观", "address": "旌彭路南50米", "image": "", "rank": 30, "time": 2, "location": {"lat": 31.110997466728023, "lng": 104.13888699709955}, "feature": {"sight_features": "", "sight_content": ""}}, {"title": "朱家祠堂", "address": "德阳市什邡市洛小路", "image": "", "rank": 31, "time": 2, "location": {"lat": 31.05596868442126, "lng": 104.1974054189361}, "feature": {"sight_features": "", "sight_content": ""}}, {"title": "基督教堂", "address": "德阳市什邡市新建路88号", "image": "", "rank": 32, "time": 2.0, "location": {"lat": 31.136995339941315, "lng": 104.16075148012754}, "feature": {"sight_features": "", "sight_content": ""}}, {"title": "BABY嘉年华儿童乐园", "address": "德阳市什邡市", "image": "", "rank": 33, "time": 2, "location": {"lat": 31.13288904823836, "lng": 104.17442710355034}, "feature": {"sight_features": "", "sight_content": ""}}, {"title": "3D乐园", "address": "蓥华山路38号太平洋电影城旁智慧城2楼", "image": "", "rank": 34, "time": 2, "location": {"lat": 30.02131439492858, "lng": 122.11032255024729}, "feature": {"sight_features": "", "sight_content": ""}}, {"title": "黄氏水族馆", "address": "四川省德阳市什邡市通站东路329号", "image": "", "rank": 35, "time": 2, "location": {"lat": 31.132357553718922, "lng": 104.18557929696505}, "feature": {"sight_features": "", "sight_content": ""}}, {"title": "微雪儿童乐园", "address": "什邡蓥华山路北段昌禾城市中心三楼", "image": "", "rank": 36, "time": 2, "location": {"lat": 31.130256829101945, "lng": 104.18851513633787}, "feature": {"sight_features": "", "sight_content": ""}}, {"title": "杨家祠堂", "address": "松林路南150米", "image": "", "rank": 37, "time": 2.0, "location": {"lat": 39.04076304633143, "lng": 121.77901283938083}, "feature": {"sight_features": "", "sight_content": ""}}, {"title": "苏承松博物馆", "address": "四川省德阳市什邡市双流路81号附近", "image": "", "rank": 38, "time": 2, "location": {"lat": 31.214721254363212, "lng": 104.00071826638934}, "feature": {"sight_features": "", "sight_content": ""}}, {"title": "圣观音寺", "address": "德阳市什邡市师古镇金龙村洛小路", "image": "", "rank": 39, "time": 2, "location": {"lat": 31.21823889237592, "lng": 104.059057324463}, "feature": {"sight_features": "", "sight_content": ""}}, {"title": "宣家祠堂", "address": "德阳市什邡市龙灵路", "image": "", "rank": 40, "time": 2, "location": {"lat": 31.223951793798577, "lng": 104.07916829627109}, "feature": {"sight_features": "", "sight_content": ""}}, {"title": "曾家祠堂", "address": "德阳市什邡市马高桥路", "image": "", "rank": 41, "time": 2, "location": {"lat": 31.183474026824996, "lng": 104.12622042767984}, "feature": {"sight_features": "", "sight_content": ""}}, {"title": "蓝家祠堂", "address": "德阳市什邡市人民渠路", "image": "", "rank": 42, "time": 2, "location": {"lat": 31.172424590511266, "lng": 104.11927761303737}, "feature": {"sight_features": "", "sight_content": ""}}, {"title": "莲花池度假村", "address": "四川省德阳市什邡市回龙魇路", "image": "", "rank": 43, "time": 2, "location": {"lat": 31.13288904823836, "lng": 104.17442710355034}, "feature": {"sight_features": "", "sight_content": ""}}, {"title": "爱家水族精品馆", "address": "四川省德阳市什邡市通站东路180号", "image": "", "rank": 44, "time": 2, "location": {"lat": 31.130883322329854, "lng": 104.18156090692729}, "feature": {"sight_features": "", "sight_content": ""}}, {"title": "四川·什邡地震遗址纪念园", "address": "广青路", "image": "", "rank": 45, "time": 2, "location": {"lat": 31.01367981566942, "lng": 104.27389984041756}, "feature": {"sight_features": "", "sight_content": ""}}, {"title": "洛水影剧院", "address": "导洛路与杨春路交叉口北50米", "image": "", "rank": 46, "time": 2, "location": {"lat": 31.250063245896108, "lng": 104.06210060746292}, "feature": {"sight_features": "", "sight_content": ""}}, {"title": "通溪河景区", "address": "四川省什邡市红白镇", "image": "", "rank": 47, "time": 2, "location": {"lat": 31.381728283880758, "lng": 104.03199598955126}, "feature": {"sight_features": "", "sight_content": ""}}, {"title": "鑫时代啤酒广场", "address": "德阳什邡市物华北苑对面", "image": "", "rank": 48, "time": 2, "location": {"lat": 31.14316381690398, "lng": 104.17413815998982}, "feature": {"sight_features": "", "sight_content": ""}}, {"title": "同乐湾休闲美食广场", "address": "五十米大街蒲源居隔壁", "image": "", "rank": 49, "time": 2, "location": {"lat": 24.496811769995364, "lng": 110.4052077750588}, "feature": {"sight_features": "", "sight_content": ""}}, {"title": "红叶休闲美食广场", "address": "五十米大街与雍城南路交汇处", "image": "", "rank": 50, "time": 2, "location": {"lat": 31.135570726888215, "lng": 104.18423156920845}, "feature": {"sight_features": "", "sight_content": ""}}, {"title": "雪花啤酒广场", "address": "德阳什邡市金河南路139号", "image": "", "rank": 51, "time": 2, "location": {"lat": 31.127177065245764, "lng": 104.18530456819094}, "feature": {"sight_features": "", "sight_content": ""}}, {"title": "金满冠啤酒广场", "address": "五十米大街附近", "image": "", "rank": 52, "time": 2, "location": {"lat": 24.496811769995364, "lng": 110.4052077750588}, "feature": {"sight_features": "", "sight_content": ""}}, {"title": "万象国际啤酒广场", "address": "四川省德阳市什邡市其他北京小学前500米(万象国际)", "image": "", "rank": 53, "time": 2.5, "location": {"lat": 31.136287536134525, "lng": 104.19008890740487}, "feature": {"sight_features": "", "sight_content": ""}}, {"title": "药王庙", "address": "四川省德阳市什邡市S106(北大街东段)", "image": "", "rank": 54, "time": 0.75, "location": {"lat": 31.170267437175777, "lng": 104.07688375174898}, "feature": {"sight_features": "", "sight_content": ""}}, {"title": "什邡市灵泉水上乐园", "address": "四川省德阳市什邡市旌彭路", "image": "", "rank": 55, "time": 3.5, "location": {"lat": 31.11138393710099, "lng": 104.13888699709955}, "feature": {"sight_features": "", "sight_content": ""}}, {"title": "严家祠堂", "address": "德阳市什邡市长江路西段", "image": "", "rank": 56, "time": null, "location": {"lat": 31.102842853653385, "lng": 104.20417111018963}, "feature": {"sight_features": "", "sight_content": ""}}, {"title": "什邡市湿地公园", "address": "四川省德阳市什邡市雍城东路", "image": "", "rank": 57, "time": 3.0, "location": {"lat": 31.133846652072055, "lng": 104.19445141313098}, "feature": {"sight_features": "", "sight_content": ""}}, {"title": "刘家祠堂", "address": "德阳市什邡市青雀路", "image": "", "rank": 58, "time": 2, "location": {"lat": 31.11659498856489, "lng": 104.19471037215187}, "feature": {"sight_features": "", "sight_content": ""}}, {"title": "肖家祠堂", "address": "德阳市什邡市慧禾路", "image": "", "rank": 59, "time": 2, "location": {"lat": 31.142058584149748, "lng": 104.23576142749953}, "feature": {"sight_features": "", "sight_content": ""}}, {"title": "什邡佛爷坪塔园", "address": "沿山路西50米", "image": "", "rank": 60, "time": 3.5, "location": {"lat": 31.832788080669424, "lng": 120.36187645741332}, "feature": {"sight_features": "", "sight_content": ""}}]}