{"cityName": "沈阳", "days": "2", "cityImage": "", "spots": [{"title": "沈阳故宫", "address": "沈阳市沈河区沈阳路171号", "image": "", "rank": 1, "time": 3.5, "location": {"lat": 41.80324815539848, "lng": 123.4619343247736}, "feature": {"sight_features": "特色1 中国较完整的古代宫殿建筑群之一。 特色2 共有建筑100余座500余间，中国现存较完整的两大宫殿之一。 特色3 始建于1625年，其占地面积为6.7万平方米。", "sight_content": "沈阳故宫位于沈阳市沈河区，是中国现存完整的两座宫殿建筑群之一。后金入关前的皇宫，也是清朝迁都北京后的盛京行宫（也称奉天行宫）。沈阳故宫博物院不仅有精美的古代宫殿建筑，还以丰富的珍贵收藏而著称海内外，宫内收藏有大量旧皇宫遗留下来的宫廷文物，在宫中的各陈列馆可以观赏到这些珍贵的宝物。沈阳故宫虽为故宫，但规模建制包括宫内藏品都与北京故宫差距很大，如果事先游览过北京故宫，到这里可能会小小失望一下。沈阳故宫按照建筑布局和建造先后，分为三部分：东路为努尔哈赤时期建造的大政殿与十王亭；中路为清太宗时期续建的大中阙，包括大清门、崇政殿、凤凰楼以及清宁宫、关雎宫、衍庆宫、永福宫等；西路则是乾隆时期增建的文溯阁等。整座皇宫楼阁林立，殿宇巍峨，雕梁画栋，富丽堂皇。\n大清门是盛京皇宫的正门，俗称午门，是一座面阔五间的硬山式建筑，房顶满铺琉璃瓦，饰以绿剪边，纹饰为凸出的海水云龙及象征吉祥的各种动物，做工精巧，栩栩如生。大清门庄严富丽，与整个宫殿建筑俨然一体，显得十分协调。\n\n\n崇政殿俗称“金銮殿”，是清太宗皇太极日常处理政务接见外国使臣的重要场所。殿内陈列有金漆云龙屏风、透雕金龙宝座、鎏金铜甪端炉等珍贵文物，崇政殿宝座上方高悬的“正大光明”牌匾是乾隆皇帝御笔亲书。\n\n\n大政殿俗称“八角殿”，清入关前也称“大殿”或“笃恭殿”，是清太祖努尔哈赤营建的重要宫殿，也是东路的主要建筑。清入关前，这里是举行皇帝登基、元旦、万寿节朝贺、筵宴典礼等重要庆典的地方，平时则用以举行议政王大臣会议或颁布重要诏令等。殿内陈设有金龙宝座、金漆屏风、嵌珐琅象驮瓶等珍贵文物，和康、乾、嘉、道东巡盛京时留下的墨迹，再现了当年大政殿的原貌。"}}, {"title": "张氏帅府博物馆", "address": "沈阳市沈河区朝阳街少帅府巷46号", "image": "", "rank": 2, "time": 2.0, "location": {"lat": 41.80024068743751, "lng": 123.4646861992627}, "feature": {"sight_features": "特色1 参观大青楼、赵一荻故居等著名建筑", "sight_content": "张氏帅府（金融）博物馆是全国重点文物保护单位，国家AAAA级旅游景区，是沈阳的著名景区之一，在东北乃至全国有着很高的知名度。张氏帅府，坐落于沈阳市，是北洋政府末代的国家元首张作霖及其子张学良将军的官邸和私宅。\n府邸始建于1914年，总占地3．6万平方米，总建筑面积为2．76万平方米，2002年更名为张氏帅府博物馆暨辽宁近现代史博物馆。帅府内主要建筑有大、小青楼、西院红楼群及赵四小姐楼等。"}}, {"title": "清昭陵（北陵公园）", "address": "沈阳市皇姑区泰山路12号", "image": "", "rank": 3, "time": 2.5, "location": {"lat": 41.85811036259132, "lng": 123.43408726628651}, "feature": {"sight_features": "特色1 清代皇家陵寝和现代园林合一的游览胜地。 特色2 清朝第二代君主皇太极的陵墓，可见到满汉文化交融的经典建筑群。 特色3 园内古松参天，草木葱茏，湖水荡漾，楼殿威严，金瓦夺目。", "sight_content": "清昭陵在辽宁省沈阳市旧城之北，又称北陵。是清第二代君主皇太极与孝端文皇后的陵墓，是清代皇陵和现代园林完美结合的游览胜地，面积3.32公顷。北陵建于1643年，内有隆恩殿、宝城、宝顶、月牙城、大明楼、大碑楼、方城、隆恩门、大红门、石牌坊等建筑，规模宏大，建筑雄伟。北陵公园以其古老历史、神秘皇陵和园林景观，成为镶嵌在沈城大地上的璀璨明珠。\n北陵又称清昭陵是清朝第二代开国君主太宗皇太极以及孝端文皇后博乐济吉特氏的陵墓，是清初“关外三陵”中规模较大、气势宏伟的一座。位于沈阳（盛京）古城北约十华里，因此也称“北陵”，是清代皇家陵寝和现代园林合一的游览胜地。园内古松参天，草木葱茏，湖水荡漾，楼殿威严，金瓦夺目，充分显示出皇家陵园的雄伟、壮丽和现代园林的清雅、秀美。昭陵除了葬有帝后外，还葬有关睢宫宸妃、麟趾宫贵妃、洐庆宫淑妃等一批后妃佳丽，是清初关外陵寝中具有代表性的一座帝陵，是我国现存较完整的古代帝王陵墓建筑之一。\n昭陵现为国家重点文物保护单位，并于2004年7月1日与沈阳故宫、沈阳福陵和抚顺永陵，经第28届世界遗产委员会会议表决通过，正式列入世界遗产名录。\n昭陵始建于清崇德八年（1643年）至顺治八年（1651年）基本建成，后历经多次改建和增修而呈现现在的规模。陵寝建筑的平面布局遵循“前朝后寝”的陵寝原则自南向北由前、中、后三个部分组成，其主体建筑都建在中轴线上，两侧对称排列，系仿自明朝皇陵而又具有满族陵寝的特点。\n\n昭陵全陵占地18万平方米，共分三大部分。由南至北依次为：前部，从下马碑到正红门，包括华表、石狮、石牌坊、更衣厅、宰牲厅。中部，从正红门到方城，包括华表、石象生、碑楼和祭祀用房。后部，是方城、月牙城和宝城，这是陵寝的主体。\n昭陵的另一特色是漫漫数里的古松群。现存古松二千余棵，松龄达三百多年，摇曳挺拔，参天敝日。这些苍翠的陵松在金瓦红墙中构成昭陵又一壮丽景观，其中的“神树”、“凤凰树”、“夫妻树”、“姐妹树”、“龟树”等更是别具特色。"}}, {"title": "沈阳世博园", "address": "沈阳市浑南区双园路301号", "image": "", "rank": 4, "time": 3.0, "location": {"lat": 41.86196287078976, "lng": 123.65823021137243}, "feature": {"sight_features": "特色1 观赏国内外的各种特色植物。", "sight_content": "沈阳世博园是2006中国沈阳世界园艺博览会的会址，占地2.46平方公里，被誉为“森林中的世博园”。园区地处沈阳市东部风景秀丽的棋盘山旅游开发区中心地带，距市区仅十公里，交通十分便利。荣获国家首批5a级旅游景区称号，并通过iso9001质量管理、iso14001环境管理体系和ohs18001职业安全健康体系整合认证，是集绿色生态观赏、精品园林艺术、人文景观建筑、科研科普教育、娱乐休闲活动于一体的多功能综合性旅游景区。沈阳世博园汇集有东北、西北、华北及内蒙古等地区的多种植物资源，栽植露地木本植物、露地草本植物和温室植物2000余种，是东北地区收集植物种类较多的植物展园。 园内百合塔、凤凰广场、玫瑰园为标志性主题建筑，荟萃了世界五大洲及国内重点城市的园林和建筑精品，共有100个展园分布于南北两区，这些代表国际、国内各地区及不同风格的百余个风情展园如繁星般点缀在整个园区中间，散发出人文艺术与自然景观和谐统一的独特魅力。园内设有游艺桥区、攀岩、旱喷音乐广场、彩弹射击场、越野卡丁车乐园、森林游乐场等娱乐区域，南北区设有多处休闲场所，可供游客娱乐休憩之用。寓教于乐的智慧体验馆、标本馆、科普馆、农艺园和鸟语林让游客更加贴近自然，领略自然科学的奥妙与神奇。\n百合塔\n走过一片莲花池，远远望见的就是世博会的主题建筑——百合塔 。形状如百合花盛开的黛青色高塔笔直地冲上蓝天，顶端弯开呈喇叭状，玻璃幕墙从底座一通到顶，气势恢弘，格外壮观雄伟。百合塔高125米，是世界上较高的雕塑建筑，寓意沈阳百业兴盛，和谐发展。乘电梯上去观光，可总览世博会全貌，视野坦荡、开阔，将全部美景尽收眼底。塔周围是起伏平缓的山坡，种植着嫩绿的草坪，色彩斑斓的百合花编织出精美的造型，如绣在绿色绒毯上的精美图案。\n凤之翼\n凤之翼位于世园会主入口广场，是园区的大门。建筑面积4168平方米，主塔高72米，“凤翼”长210米，中间贯穿10根斜拉钢索，建筑整体造型如凤凰展翅，象征着沈阳振兴腾飞之势。又象热情的主人张开双臂拥抱着来自世界各地的高朋良友。主塔下方是1000平方米的大型音乐喷泉，凤翼下部是功能型建筑，用于售票、服务、销售等，斜坡式屋顶铺设草坪，与周围环境的草坪相连接。凤之翼建筑使世博园景观充满了时代的动感与蓬勃的朝气。\n玫瑰园\n玫瑰园因沈阳的市花是玫瑰而建，占地面积10000平方米，荟萃全球3000多个玫瑰品种。她由八万片金箔拼接而成，价值两百万，是本 次世博会较大的亮点。随着人流进入神秘的玫瑰园，这里果然是玫瑰的天堂。红的、白的、粉的、蓝的、黄的、紫的……所有的玫瑰竞相开放，争奇斗艳，尽情地展示着各自的风韵。看惯了精美包装的温室里的玫瑰，这些生长在真实泥土中的玫瑰更充满着生机勃勃的生命力。玫瑰园在国内率先采用了地源热泵采暖技术，既节能又环保，即使室外是冰天雪地，玫瑰园内依然温暖如春，因此玫瑰园内一年四季都会盛开着玫瑰花。玫瑰是爱情的象征，因此园中提供举行玫瑰婚礼的场所，气氛浪漫温馨。而轻啜玫瑰茶、共进情侣餐的“玫瑰之约”，则更令爱侣们神往。\n百花馆\n百花馆建筑面积12000平方米，是国内较大的花卉室内展馆。馆内有国内较大的马赛克镶嵌壁画《和平鸽》。百花馆将通过各种展览和活动，突出科学性、知识性、趣味性、互动性，体现现代园艺、科技与生活的完美结合。综合馆每月推出一个或几个主题展览，花鸟鱼石、花卉园艺、电子产品以及服装、食品等将融汇于此，这里将成为花的天堂，也是游客参观购物的好去处。"}}, {"title": "沈阳森林动物园", "address": "沈阳市浑南区棋盘山国际风景旅游区内", "image": "", "rank": 5, "time": 3.0, "location": {"lat": 41.9546025834378, "lng": 123.68068458737457}, "feature": {"sight_features": "特色1 可以近距离与小动物接触。 特色2 拥有多种珍稀野生动物的综合性动物园。 特色3 是集动物保护、科普教育、科学研究、旅游休闲为一体的景区。", "sight_content": "沈阳森林动物园是辽宁省暨沈阳市青少年科普基地;是中国丹顶鹤人工繁育科研基地。沈阳森林动物园占地面积217公顷，是沈阳市一家展出珍稀野生动物的综合性国有动物园。\n沈阳森林动物园可以在动物园免费观赏到海狮自然行为展示、丹顶鹤飞翔及巡走展示。海狮自然行为展示（天气冷的时候无法表演）周一至周五每天三场，时间为：10：30；12：10；13：30。周六和周日每天四场，时间为：10：30；11：30；13：30；14：30。丹顶鹤飞翔及巡走展示时间为11：00；14：00。请您在游玩时，千万不要错过这精彩的时刻！沈阳森林动物园在园林场景设计上具有两大特色。一是园林景观设计充分利用原始地形地貌，追求自然和谐，隐蔽建造动物笼舍场馆。动物园内各种动物的房舍大多都建在小山后面，或人工建一座环舍小山遮挡视线，或隐在山上灌木丛中。二是将动物隔离电网、隔离沟隐藏在草丛树林中。即使是一只凶猛的狮子和一只温驯的斑马仅相隔5米，它们也能相安无事。"}}, {"title": "“九•一八”历史博物馆", "address": "沈阳市大东区望花南街46号", "image": "", "rank": 6, "time": 1.5, "location": {"lat": 41.842911766380595, "lng": 123.47413495390497}, "feature": {"sight_features": "", "sight_content": ""}}, {"title": "沈阳方特欢乐世界", "address": "沈阳市沈北新区盛京大街55号", "image": "", "rank": 7, "time": 1.0, "location": {"lat": 41.9303862310401, "lng": 123.43244556984837}, "feature": {"sight_features": "特色1 大型主题公园，以科幻及动漫为特色。 特色2 适合全家亲子活动。 特色3 东方梦幻乐园 亚洲科幻神奇", "sight_content": "沈阳方特欢乐世界位于沈阳市沈北新区盛京大街，占地约60万平方米，由深圳华强集团投资20亿元精心打造，是东北地区规模较大的第四代主题公园。方特欢乐世界以科幻和互动体验为较大特色，采用国际理念和技术精心打造，可与西方主题公园相媲美，被誉为“东方梦幻乐园”、“亚洲科幻神奇”。这个头部尖尖、五颜六色的哥特式建筑就是卡通城堡啦。在这儿，您不但能现场观看生动有趣的手偶表演，还能学习到国际先进的动漫创作技巧。说不定，这个卡通大百科书，能让您成为动画专家呢。快来，与电视里才能见到的卡通人物亲密互动吧。\n飞越极限项目是一个大型悬挂式球幕剧场，将球幕电影机播放画面、悬挂式座椅系统和各种特效结合在一起，巨大的半球银幕将观众包围，雄伟的悬挂式座椅凌空飞起，配合场面宏大的电影画面，让您在飞翔天际的同时，或坠落深渊峡谷，或穿越汹涌滔天的巨浪，或盘旋在金字塔的尖顶，或呼啸在珠穆朗玛峰顶，或穿越布鲁克林大桥的钢索俯瞰……体会到前所未有的凌空飞行的真实感受。星际航班项目是一个大型球幕剧场，巨大的半球银幕将观众包围，将球幕电影机播放画面、模拟太空飞船和各种特效结合在一起，使游客在观看球幕影片的过程中体会到前所未有的太空遨游的真实感受。各位旅客请注意，请记好安全带，星际航班即将起飞！我们将带您火速来往于天涯宇宙和恒星之间，与流星、彗星同行，一起探寻太空的奥秘。在华丽舒适的太空舱里，您可悠闲地观赏宇宙星空，也可全情投入刺激的星球大战中，在音乐和声效的衬托下，这些奇遇将会让您永生难忘，航班已经起飞，太空旅行即将开始！\n\n该项目充分利用了现场实景、立体电影、现场特技、动感平台等技术，综合了巨幕、环幕4D电影、多自由度动感游览车、现场特技等多项高科技游乐技术。讲述了在地球已经进入高度发达的年代，地球上某城市博物馆中保存的恐龙蛋经过放射物质照射以后，已经变成化石的恐龙复活，破壳而出，逃离博物馆。经过放射物质照射后的恐龙以惊人的速度成长、繁殖，并大批的出现在城市的各个角落……游客乘坐游览车在一个恐龙横行、一片混乱的城市中穿行，经历一场恐龙破坏、毁灭城市的浩劫，体验惊险刺激的生死之旅。\n\n生命，是浩渺宇宙的一个奇迹，而人类更是蒙造物主的垂青，成为万物的宠儿。生命诞生之初，地球上是一片汪洋还是陆地已成型，人类本身到底是怎么出现的，它又给地球万物带来什么影响？生命之光，以宏大的场面和恢宏的气势，展现从生命起源到人类出现的历史长卷，带您一起探寻生命的奥秘，见证大自然的孕育过程，感受生命演化的神奇；在叹服大自然壮美和神奇同时，体验巨幕立体电影带来的震撼！我是欢乐的探险家！我是无所畏惧的地球战士！我就是小恐龙—嘟噜嘟比！嗨，小朋友们，马上要到世界各地去探险了，怎么样，想不想和我一起周游世界，消灭破坏环境的坏家伙？危险？不会，看！我拥有世界上最先进的武器，天下无敌—瞄准目标，开火！嘟比历险是一个将立体射击和游览车相结合的项目，项目主要针对儿童及家庭游客，由110块大屏幕组成模拟森林，游客乘坐游览车穿梭其中，享受射击、狩猎所带来的乐趣。带小朋友去享受天真的童趣，这里有儿童爬山、果虫滑车、飓风飞椅、旋转小蜜蜂、转转杯、双层转马、波浪翻滚、空中飞舞、欢乐天地 、童梦天地等十余个儿童项目。"}}, {"title": "棋盘山", "address": "沈阳市浑南区棋盘山国际旅游风景区内(近关东影视城，棋盘山动物园)", "image": "", "rank": 8, "time": 2.5, "location": {"lat": 41.953861107254376, "lng": 123.70691689948713}, "feature": {"sight_features": "特色1 原始秀丽的生态风光，虎口脱险的惊心动魄。 特色2 植被覆盖的山峦与湖水相映，自然环境优美，夏天可以赏荷，秋天可以拍枫叶。 特色3 棋盘山风景区以春天的绿、夏天的景、秋天的枫、冬天的雪和举办了国际女子世界象棋冠军争夺赛而闻名国内外。", "sight_content": "★ 关东影视城------------08:30--19:00\n★ 恐龙欢乐谷------------08:30--20:30\n★ 太阳花海灯光秀---- 08:30--21:00\n★ 航空航天展------------08:30--20:30\n★ 音乐美食节------------08:30--20:30\n★ 儿童乐园  水世界---10:00--19:00\n★ 全媒体水舞秀--------19:30--20:10"}}, {"title": "清福陵", "address": "沈阳市浑南区东陵路210号", "image": "", "rank": 9, "time": 3.0, "location": {"lat": 41.83779738683302, "lng": 123.59637558887188}, "feature": {"sight_features": "特色1 感受古代皇家气势。", "sight_content": "?清福陵即东陵，是清太祖努尔哈赤及其皇后叶赫那拉氏陵寝，因坐落在沈阳市东北11公里处，故又称东陵。清福陵始建于后金天聪三年（1629年），竣工于清顺治八年（1651年），经康熙、乾隆两帝增建，方具今日规模，整个陵园占地19.4万多平方米。\n\n福陵面傍浑河，背依天柱山，由前向后地势逐渐升高，水绕山环，草深林密，景色十分清幽。其布局虽与清昭陵如出一辙，但因它 建在北高南低的山坡上，故形成两大特点。第一，晋谒此陵时，由正红门到碑楼，须登108级石台阶。第二，建筑物随坡势起伏，显得更 加错落有致、高大雄伟。走入正红门，脚下是砖铺的甬路，两旁整齐地排列着成对的石雕，有华表、驼、马、狮、虎等。沿“一百零八磴 ”台阶拾级而上，是一个平整的台地，正中立着一座重檐歇山式牌楼，内立“大清福陵神功圣德碑”，碑文是康熙帝撰写的，内容是歌颂 他曾祖创业开国的功德。牌的两侧是祭祀用的茶膳房、果房、涤器房，均为回廊式硬山造、灰瓦顶建筑。\n\n楼的北面是方城，这是清福陵的主体建筑。方城为砖筑长方形，周长约370米，墙高约5米，墙上有马道、垛口，墙城的四隅各有一 座角楼，俱为二层重檐歇山式南面正中辟门，上有三滴水歇山式门楼。方城的正殿叫隆恩殿，是供奉神牌和祭祀的地方，殿前有焚帛亭， 两侧有东西配殿，均为歇山式建筑，带回廊。殿后有石柱门、石五供和券门。方城的北面就是月牙形的宝城，宝城前壁的正中有一座琉璃 照壁。宝城的正中是宝顶，系用三合土筑成，下面的地宫埋葬着清太祖努尔哈赤和孝慈皇后叶赫那拉氏。清福陵规模尽管比清昭陵小，然而由于它有上述两大特点，再加之环境优美，仍独具魅力。 所以，人们游罢清昭陵，依然能兴致勃勃地续游清福陵，而不会产生雷同感。"}}, {"title": "刘老根大舞台", "address": "沈阳市沈河区正阳街110号", "image": "", "rank": 10, "time": 2, "location": {"lat": 41.8060467500064, "lng": 123.46019227862693}, "feature": {"sight_features": "", "sight_content": ""}}, {"title": "中街商业圈", "address": "沈阳市沈河区中街路", "image": "", "rank": 11, "time": 2.5, "location": {"lat": 41.80741273000243, "lng": 123.45742973406497}, "feature": {"sight_features": "", "sight_content": ""}}, {"title": "辽宁省博物馆", "address": "沈阳市浑南区中心广场东北侧（浑南区智慧三街157号）", "image": "", "rank": 12, "time": 2.5, "location": {"lat": 41.68341530368033, "lng": 123.46731226337022}, "feature": {"sight_features": "", "sight_content": ""}}, {"title": "怪坡", "address": "沈阳市沈北新区怪坡风景区内", "image": "", "rank": 13, "time": 1.5, "location": {"lat": 42.074547986077754, "lng": 123.64387899752812}, "feature": {"sight_features": "特色1 体验自行车自动向披上滑行之怪。", "sight_content": "怪坡，国家AAAA景区，位于沈阳市沈北新区清水台镇境内的帽山西麓，面对旷野，背依群山，西距贯穿南北的102线国道1.32公里，东向煤都抚顺30公里。怪坡是长80米，宽约15米，呈东高西低走势的斜坡，发现于1990年4月。当时，有一名青年交警驾驶一辆北京牌吉普车，顺着进山路驶向坡下，当摘档熄火停车后，突然感到车自动向坡上滑行，他们感到惊愕，壮胆子试了几次，仍然如此，百思不得其解，带着迷惘惶然而走。怪坡面世，神秘加身。专家、名人、学者纷至沓来，探秘揭谜，有的说是磁场作用，有的说是重力位移，还有的说是视觉差，但各种说法相互矛盾，不能自圆其说。 怪坡发现后，经过连年开发建设，这里初具景区规模，形成总分一体，山水相间，动静结合，天工人造，各具情趣的群体景观。有各类景点20余处。继怪坡之谜的发现，人们又发现了\"响山\"、\"嗡顶\"自然景观，连同怪坡一起被人们称为\"三谜\"。\n\n阳怪坡东北虎园座落在辽宁省沈阳市沈北新区怪坡风景区（中国著名的AAAA级景区）内，距离沈阳市区30公里。 该园占地面积258亩，始建于1999年，2011年6月9日被黑龙江东北虎林园整体收购，进行了全面扩建升级改造，于2011年9月28日正式对游人开放,是目前世界第三大东北虎饲养繁育基地。园内共建6个园区，有成年虎散养区、育成虎散养区、种虎散养区、熊园区、小动物区、虎文化休闲区，可观赏到100余只纯种东北虎及白虎、孟加拉虎、美洲虎、狮虎兽、非洲狮、金钱豹、黑熊等10余种珍稀野生大型猫科动物，能体验到人与野生动物的最佳融合点，亲眼看到大型猫科野生动物在密林、绿草、白雪中的威风与凶猛捕杀猎物的场面，闻听虎啸、狮吼；能与小型野生动物（幼虎、幼熊、松鼠猴、小鹿、荷兰猪、孔雀等）零距离接触，是您旅游休闲好去处，沈阳怪坡东北虎园诚挚邀请社会各界朋友的到来，我们以热情周到的服务，让您高兴而来，满意而归。到此一游，就是您对保护野生动物做出的贡献。 保护环境、保护野生动物，就是保护我们人类自己。雪场拥有高级滑雪道两条，中级滑雪道三条，初级滑雪道三条，雪上飞碟道一条，同时配有单板U型槽、猫跳、空中技巧训练场等，还特别为喜欢冰上运动的游客开辟了5万平米的冰雪娱乐区。宽阔的雪场能满足4000人同时滑雪娱乐，最高日接待能力可达8000人。雪场的VIP贵宾厅、中西式餐厅、咖啡厅、会议室、雪具专卖店、超市等服务设施随时为滑雪者提供一流的服务。\n?"}}, {"title": "沈飞航空博览园", "address": "沈阳市皇姑区陵北街1号", "image": "", "rank": 14, "time": 2.5, "location": {"lat": 41.86955136200138, "lng": 123.44015682287153}, "feature": {"sight_features": "特色1 国家AAAA级旅游景区", "sight_content": "沈飞航空博览园是集科技、教育、旅游于一体，系统介绍我国歼击机发展历程和航空科普知识的大型专业性展馆，占地2.5万平方米，外展区设有休闲广场，游客服务部及歼击机展示区，主展馆4600多平方米，共分为序馆、蓝天梦圆、航空报国、振翮高飞、创新超越、功炳天疆、展翅翱翔7个展馆，精选1000多幅珍贵的历史图片，500多件实物，10余种航空科普体验项目，及声光电等演示设备，展示爱国主义教育、航空科普知识，国防教育等内容。\n\n沈飞航空博览园是全国首批工业旅游示范点，国家AAAA级旅游景区，国防科技工业军工文化教育基地，全国科学技术普及基地，辽宁省国防教育基地。"}}, {"title": "沈阳鸟岛", "address": "沈阳市东陵区东陵路195号", "image": "", "rank": 15, "time": 2.5, "location": {"lat": 41.83873235410022, "lng": 123.61509834719233}, "feature": {"sight_features": "特色1 鸟岛，是一座自然生态的鸟类观赏中心！ 特色2 鸟岛上一年四季鸟鸣啾啾，足以满足游人亲近自然、亲近鸟类的愿望！ 特色3 自然生态的鸟类观赏中心，感受生命的魅力。", "sight_content": "鸟岛，是沈阳唯一一座自然生态的鸟类观赏中心。鸟岛又名干河子岛，位于棋盘山开发区境内，在东陵公园东侧，世博园南侧，是浑河水系中的一个岛屿，占地面积49.26公顷。历史上的鸟岛就因其形恰似一条巨龙卧于（浑河）水中而得名“龙滩垂钓”，成为著名的“辉山八景”之一。\n在沈阳鸟岛一年不同的季节里，在一天里不同的时间内，岛上的森林、灌丛、湿地、水塘都将带给人们不同的景观：春季万物复苏，百花齐放，鸟岛上的鸟儿开始孕育生命；夏季草木茂盛，郁郁葱葱，鸭、雀在树荫上下小憩，白鹤在苇塘觅食；秋季层林尽染，刚刚长大的鸿雁跟在母亲的后面，在铺满金黄色树叶的地面蹒跚摇摆;冬季白雪皑皑，大地一片肃杀，只有雁鸭们还在浑河里未冻结冰的水面上嬉戏。\n\n湿地面积约10万平方米，是野生动物，特别是游禽、涉禽及滨岸鸟类和雀形目鸟类的主要栖息地。营造湿地景观既可以丰富鸟岛的生境类型，让更多的鸟类来此安家落户，而且还能丰富该岛的观赏内容，使“鸟岛”名副其实。种植了油松、落叶松、辽东桦、蒙古桦、白蜡、白桦等高大乔木，忍冬、黄刺枚、红瑞木、柳叶绣线菊、山梅花等灌木，以及菱角、铺草、荷花、菖蒲等水生植物，共同形成了森林、蔬林草地和湿地生态景观。"}}, {"title": "太原街商圈", "address": "沈阳市和平区太原南街16号", "image": "", "rank": 16, "time": 3.5, "location": {"lat": 41.796119488758734, "lng": 123.40608881996503}, "feature": {"sight_features": "", "sight_content": ""}}, {"title": "沈阳金融博物馆", "address": "沈阳市沈河区朝阳街少帅府巷48号", "image": "", "rank": 17, "time": 1.5, "location": {"lat": 41.80011560637514, "lng": 123.46600046783398}, "feature": {"sight_features": "", "sight_content": ""}}, {"title": "关东影视城", "address": "沈阳市东陵区棋盘山378号", "image": "", "rank": 18, "time": 2.5, "location": {"lat": 41.94072061706721, "lng": 123.66703059335184}, "feature": {"sight_features": "特色1 集影视拍摄、休闲娱乐和文化教育一体，再现上世纪二三十年代沈阳城独特关东风情。", "sight_content": "关东影视城坐落于国家级文化产业示范区、国家4a级旅游风景区——沈阳棋盘山国际风景旅游开发区内，占地28万平方米，总建筑面积3.8万平方米，内有清末民初各式风格建筑177栋，集影视拍摄、旅游观光、文化教育、实体经营为一体，是国内一座展现20世纪初期关东风貌的大型影视城。棋盘山开发区地处沈阳东北部，是“沈抚同城化”战略核心区，“一小时经济圈”辐射人口达2400万。作为辽沈地区著名的旅游黄金线，拥有人文景观36个，自然景观57个，拥有世博园、清福陵、沈阳国际冰雪节等知名旅游品牌。棋盘山开发区拥有完整复合、良性循环的生态系统，空气质量年、日平均值均达到国家二级标准；地形以丘陵为主，植被丰富，种类约800种，森林面积97平方公里，水域面积10平方公里；属温带季风大陆性气候，四季分明，全年平均气温7.41℃，夏季气温比市区低2-3度。目前，国家文化部正式授予棋盘山开发区“国家级文化产业示范区”称号，辽宁省文化厅授予沈阳棋盘山开发区文化产业发展有限公司“省级文化产业示范基地”称号。关东影视城是沈阳独有的旅游项目,是关东文化和上个世纪老沈阳的载体和缩影,是每年冰雪节关东庙会盛京灯会的主会场,是游客了解历史不能错过的景区。"}}, {"title": "南湖公园", "address": "沈阳市和平区文化路1号", "image": "", "rank": 19, "time": 2.5, "location": {"lat": 41.77680118207526, "lng": 123.42630668294238}, "feature": {"sight_features": "", "sight_content": ""}}, {"title": "南关天主教堂", "address": "沈阳市沈河区小南街南乐郊路40号", "image": "", "rank": 20, "time": 1.5, "location": {"lat": 41.79632356440687, "lng": 123.45880590936048}, "feature": {"sight_features": "", "sight_content": ""}}, {"title": "太清宫", "address": "沈阳市沈河区西顺城街16号", "image": "", "rank": 21, "time": 1.0, "location": {"lat": 41.81026166734334, "lng": 123.4548250316625}, "feature": {"sight_features": "", "sight_content": ""}}, {"title": "沈阳科学宫", "address": "沈阳市沈河区青年大街201号", "image": "", "rank": 22, "time": 3.5, "location": {"lat": 41.767166110476055, "lng": 123.44289569079515}, "feature": {"sight_features": "", "sight_content": ""}}, {"title": "长安寺", "address": "沈阳市沈河区朝阳街长安寺巷6号", "image": "", "rank": 23, "time": 1.5, "location": {"lat": 41.80895599158528, "lng": 123.46802341860514}, "feature": {"sight_features": "", "sight_content": ""}}, {"title": "紫烟薰衣草庄园", "address": "沈阳市沈北新区马刚乡马泉沟（沈阳森林公园西南侧，距沈北高速公路清水台出口10分钟车程）", "image": "", "rank": 24, "time": 2.5, "location": {"lat": 42.03095865773462, "lng": 123.61836314334796}, "feature": {"sight_features": "", "sight_content": ""}}, {"title": "实胜寺", "address": "沈阳市和平区皇寺路206号", "image": "", "rank": 25, "time": 0.75, "location": {"lat": 41.8124842302639, "lng": 123.43445691900386}, "feature": {"sight_features": "", "sight_content": ""}}, {"title": "南风大剧院", "address": "沈阳市皇姑区泰山路18号北陵公园西行100米或（地铁二号线北凌公园站B出口）", "image": "", "rank": 26, "time": 2.0, "location": {"lat": 41.844909694064725, "lng": 123.42990761334188}, "feature": {"sight_features": "", "sight_content": ""}}, {"title": "盛京大剧院", "address": "沈阳市沈河区沈水路518号", "image": "", "rank": 27, "time": 2, "location": {"lat": 41.758391912216, "lng": 123.45132619817575}, "feature": {"sight_features": "", "sight_content": ""}}, {"title": "沈阳棋盘山滑雪场", "address": "沈阳市东陵区棋盘山风景区内", "image": "", "rank": 28, "time": 2.5, "location": {"lat": 41.940566841579376, "lng": 123.6738518852249}, "feature": {"sight_features": "", "sight_content": ""}}, {"title": "沈阳动物园", "address": "沈阳市东陵区秀湖南路（棋盘山风景区内）", "image": "", "rank": 29, "time": 2.5, "location": {"lat": 41.940566841579376, "lng": 123.6738518852249}, "feature": {"sight_features": "", "sight_content": ""}}, {"title": "赵一荻故居", "address": "沈阳市沈河区朝阳街少帅府北巷内", "image": "", "rank": 30, "time": 1.5, "location": {"lat": 41.80038298611962, "lng": 123.4653520080355}, "feature": {"sight_features": "", "sight_content": ""}}, {"title": "青年公园", "address": "沈阳市沈河区青年大街111号", "image": "", "rank": 31, "time": 0.75, "location": {"lat": 41.78644226621595, "lng": 123.44290908003877}, "feature": {"sight_features": "", "sight_content": ""}}, {"title": "中山广场", "address": "沈阳和平区太原街商圈中山路", "image": "", "rank": 32, "time": 1.0, "location": {"lat": 41.805445748281215, "lng": 123.43137816012273}, "feature": {"sight_features": "", "sight_content": ""}}, {"title": "中山公园", "address": "沈阳市和平区十三纬路2号", "image": "", "rank": 33, "time": 1.5, "location": {"lat": 41.78776706595486, "lng": 123.41545184571928}, "feature": {"sight_features": "", "sight_content": ""}}, {"title": "五爱市场", "address": "沈阳市沈河区热闹路", "image": "", "rank": 34, "time": 2, "location": {"lat": 41.79419246204662, "lng": 123.45482026974499}, "feature": {"sight_features": "", "sight_content": ""}}, {"title": "中国工业博物馆", "address": "沈阳市铁西区卫工北街14号", "image": "", "rank": 35, "time": 1.5, "location": {"lat": 41.82744093315874, "lng": 123.3618406171548}, "feature": {"sight_features": "", "sight_content": ""}}, {"title": "新乐遗址博物馆", "address": "沈阳市皇姑区黄河北大街龙山路一号", "image": "", "rank": 36, "time": 2.5, "location": {"lat": 41.852188955464584, "lng": 123.42135795831167}, "feature": {"sight_features": "", "sight_content": ""}}, {"title": "辽宁彩电塔", "address": "沈阳市沈河区彩塔街1号（近沈阳九中）", "image": "", "rank": 37, "time": 1.5, "location": {"lat": 41.78812060256927, "lng": 123.439824003375}, "feature": {"sight_features": "", "sight_content": ""}}, {"title": "五里河公园", "address": "沈阳市沈河区和平区汶水路", "image": "", "rank": 38, "time": 1.5, "location": {"lat": 41.80227413880463, "lng": 123.46546103537524}, "feature": {"sight_features": "", "sight_content": ""}}, {"title": "稻梦空间", "address": "沈阳市沈北新区兴隆台锡伯族镇盘古台古村101国道旁", "image": "", "rank": 39, "time": 4.5, "location": {"lat": 42.070135523745975, "lng": 123.36387117567533}, "feature": {"sight_features": "特色1 稻米主题创意农业产业园 特色2 \"以稻米为主题的创意农业产业园 \" 特色3 集稻田画观光，原始水稻种植，立体养殖，生产加工，休闲体验，会员加盟，科普教育七位于一体的生产·生活·生态的现代化农业产业园", "sight_content": "位于沈阳市沈北新区兴隆台锡伯族镇，项目投资1.5亿元，占地面积三万亩。园区以“公司＋农户＋会员”的独特经营模式，将创意农业，稻米文化，锡伯文化与旅游服务相结合，打造集稻田画观光，原始水稻种植，立体养殖，生产加工，休闲体验，会员加盟，科普教育七位于一体的“生产.生活.生态”稻米主题创意农业产业园。\n\n\n稻田画参观区\n稻田画参观区作为的锡伯龙地创意农业产业园的重要区域，以其独特而神秘的特点吸引着大量游客，“锡伯龙地”在建设中也将其作为重点区域，引进彩色水稻，重点结合锡伯文化特色，利用色彩及三维等方式打造更加神奇美丽的稻田画，让水稻以艺术的姿态呈现在大家面前。\n高空看台及滑索\n配合稻田画观光，“锡伯龙地”内设有高达27米的高空看台，从高处俯看稻田画，让游客能够更加真切的感受到稻田画的壮观及奇妙。而且从高空看台外延出长百米长的高空滑索，让游客身临稻田画的海洋，体验探险的快乐。\n文化展示区\n文化展厅内划分出不同的文化展示区域，包括稻米文化展示区、农耕文化展示区、锡伯族民族文化展示区等，让游客们在游玩的同时更能够感觉到文化的韵味。另外，文化展示区贯穿整个锡伯龙地创意农业产业园，除在区内道路设有锡伯族文化牌、水稻展示柜等设施宣扬锡伯族及水稻文化外，还设有农耕体验及农事拓展活动区。\n植物长廊区\n园区内的植物长廊全部以原有道路为基础，架设可供植物攀爬的木制长廊，并预种植葫芦、丝瓜、葡萄等藤类植物，不仅起到为来客遮阳的目地，更展示了农业文化，给人以美的享受。\n植物迷宫娱乐区\n该区以植物迷宫为主要娱乐区域，除了让游客体验迷宫的乐趣，还以山楂树节点的形式让游客领略爱情的纯洁。娱乐区更为孩子提供了嬉戏的水上乐园等多项设施，让孩子体验童年的快乐。\n水上餐厅区\n水上餐厅设立在原有较宽沟渠之上，且设有一系列节能减排方案及污水处理办法，在为来客提供方便的同时，不忘保护环境。另外，餐厅内提供的食物均为园区所产，来客可以自已到田间捡鸡、鸭蛋，到菜地摘取蔬菜，也可以到田里抓螃蟹、泥鳅、鱼等拿来烹调，更可以品尝锡伯特色食物，不仅让来客品尝到乡村、民族美食，更让他们体会到劳动的快乐。\n鲜果乐园摘菜区\n果园区预计占地约为10亩，不占用原有稻田区域，全部利用园区周边的稻田埂进行种植，既美化了园区，又节省了空间。另外，园区内养殖的鸡、鸭等家禽也可以在果树间活动，为会员及其他游客营造出一种原生态氛围的同时，又可以食用到无污染的水果，充分的满足了会员及游客的需求。\n沟渠漂流体验区\n仍然利用园区内原有沟渠，为会员及游客提供船支，沿着水流方向进行漂流，让会员及游客不仅能体会到水的乐趣，还能够摘取沿途的有机水果食用，使会员及游客真正的乐在其中。\n休闲垂钓区为了满足广大会员及游客的需求，利用自身内原有的水池，园区将打造出环境优美的垂钓园，供为会员及游客休闲娱乐。\n其他区域\n除了上述比较明显的功能区，园区借助自身面积优势，利用原有部分道路作为射箭场地，且园区内提供专业的射箭设备并有专业人员进行指导，注重娱乐，宣扬锡伯族文化。而且为了配合园区建设，园区内还将设有秋千、仿木坐凳、循环水喷泉、凉亭等设施，更为了满足部分来客过夜需要准备有可移动木屋及帐篷等设备，使来客带着期望而来，带着满意而归。此外园区还为游客提供遮阳竹伞，让来客在体验出游乐趣的同时，也免受日晒之苦。"}}, {"title": "棋盘山冰雪大世界", "address": "沈阳市东陵区棋盘山国际旅游风景区内(近关东影视城，棋盘山动物园)", "image": "", "rank": 40, "time": 2.5, "location": {"lat": 41.953861107254376, "lng": 123.70691689948713}, "feature": {"sight_features": "", "sight_content": ""}}, {"title": "白清寨滑雪场", "address": "沈阳市苏家屯区白清寨风景旅游区内", "image": "", "rank": 41, "time": 2, "location": {"lat": 41.5820511378407, "lng": 123.69397109269792}, "feature": {"sight_features": "", "sight_content": ""}}, {"title": "周恩来少年读书处", "address": "沈阳市大东区东顺城街育才巷10号", "image": "", "rank": 42, "time": 1.5, "location": {"lat": 41.800714533871435, "lng": 123.47266454725975}, "feature": {"sight_features": "", "sight_content": ""}}, {"title": "中共满洲省委旧址", "address": "沈阳市和平区皇寺路福安巷3号（原北市场福安里4号）", "image": "", "rank": 43, "time": 1.5, "location": {"lat": 41.81366491551296, "lng": 123.43141263439328}, "feature": {"sight_features": "", "sight_content": ""}}, {"title": "东北解放纪念碑", "address": "沈阳市和平区和平南大街和平广场", "image": "", "rank": 44, "time": 1.5, "location": {"lat": 41.78417032026113, "lng": 123.41093464010638}, "feature": {"sight_features": "", "sight_content": ""}}, {"title": "辛巴达欢乐城堡", "address": "沈阳市大东区滂江街22号沈阳龙之梦购物中心八层", "image": "", "rank": 45, "time": 2, "location": {"lat": 41.813133971602106, "lng": 123.49253332961422}, "feature": {"sight_features": "特色1 阿拉伯风情主题公园，风格独特，不拘一格。 特色2 通过游戏项目挑战自我，更能在与亲人朋友的互动中得到快乐。 特色3 22项大型顶级娱乐设施。", "sight_content": "辛巴达欢乐城堡主题公园以阿拉伯的民间故事《一千零一夜》中《辛巴达航海记》作为承载背景。为游客勾勒出了神奇魔幻的阿拉伯世界。在《辛巴达航海记》故事中，主人公辛巴达是乐观、勇敢、智慧的代言。这也正是辛巴达欢乐城堡要带给游客的理念。在欢乐城堡中，游客不仅可以通过游戏项目挑战自我，更能在与亲人朋友的互动中得到快乐。阿拉伯风情主题公园，建筑风格独特、不拘一格。仰望辛巴达欢乐城堡中那雄伟恢宏的巴比伦石柱，美轮美奂的雕刻壁画，每一处景致似乎都在向游客诉说着一段古老而又神秘的故事。\n35项游乐活动一票通完:辛巴达欢乐城堡”在原22个游乐项目基础上，新增13个游乐项目，园区环境全面提升！项目包括探索类：（镜子迷宫、时空穿越、科幻世界、恐怖城、）亲子类：（海洋贝贝、迷你穿梭、太空飞车、小蜜蜂、章鱼水战船、极速赛车、欢乐飞船、童话火车、欢乐喷球车）梦幻飞椅、欢乐旅行、时空穿梭（跳楼机）、童梦仙境、飞龙出海、冲击云霄、阿拉伯之旅、丛林探险、芝蔴开门4D影院、能源风暴、穿越火线、星际快车、旋风骑士、魔术风侠、奇纪转杯、森林天使、阿拉丁4D影院、星球大战、乘风破浪（海盗船）、魔幻森林、冒险岛35项大型娱乐项目。"}}, {"title": "辽宁古生物博物馆", "address": "沈阳市皇姑区黄河北大街253号（沈阳师范大学院内）", "image": "", "rank": 46, "time": 1.5, "location": {"lat": 41.91567717063677, "lng": 123.42516428985923}, "feature": {"sight_features": "", "sight_content": ""}}, {"title": "无垢净光舍利塔", "address": "沈阳市皇姑区塔湾街45巷15号", "image": "", "rank": 47, "time": 1.5, "location": {"lat": 41.840830795010625, "lng": 123.38455385246593}, "feature": {"sight_features": "", "sight_content": ""}}, {"title": "沈阳站", "address": "沈阳市和平区胜利南大街2号", "image": "", "rank": 48, "time": 0.5, "location": {"lat": 41.79894667321644, "lng": 123.40116216849732}, "feature": {"sight_features": "", "sight_content": ""}}, {"title": "太平寺", "address": "沈阳市和平区皇寺路178巷2号", "image": "", "rank": 49, "time": 1.0, "location": {"lat": 41.813260465673125, "lng": 123.43290374877711}, "feature": {"sight_features": "", "sight_content": ""}}, {"title": "市府广场", "address": "沈阳市沈河区市府大路", "image": "", "rank": 50, "time": 0.75, "location": {"lat": 41.81052872107665, "lng": 123.43378031349714}, "feature": {"sight_features": "", "sight_content": ""}}, {"title": "劳动公园", "address": "沈阳市铁西区肇工街南12号", "image": "", "rank": 51, "time": 1.5, "location": {"lat": 41.81623272119666, "lng": 123.34534653953342}, "feature": {"sight_features": "", "sight_content": ""}}, {"title": "惠工广场", "address": "沈阳市沈河区惠工街120号", "image": "", "rank": 52, "time": 2, "location": {"lat": 41.82189716432167, "lng": 123.44892269464816}, "feature": {"sight_features": "", "sight_content": ""}}, {"title": "东北亚滑雪场", "address": "沈阳市沈北新区马刚乡老寺沟沈阳国家森林公园内", "image": "", "rank": 53, "time": 2, "location": {"lat": 42.03698020893813, "lng": 123.73979248806643}, "feature": {"sight_features": "", "sight_content": ""}}, {"title": "沈阳三农博览园", "address": "新民市区北13公里（新民客运站北行直达）", "image": "", "rank": 54, "time": 3.0, "location": {"lat": 42.01309293005882, "lng": 122.82165667914205}, "feature": {"sight_features": "特色1 民俗文化，非物质文化遗产的主题创意。 特色2 国家AAAA级旅游景区，景观美，展馆多，文化内涵丰富，科技含量高为最大特色。 特色3 省现代农业园区，省、市科普基地，沈阳市大学生社会实践基地，中、小学生农业实践基地。", "sight_content": "沈阳三农博览园（新民文化博览园）是在建设新新民，繁荣大文化的时代背景下创建和发展起来的。以景观美，展馆多，文化内涵丰富，科技含量高为特色，是国家AAAA级旅游景区，全国农业旅游示范点，沈阳市大学生社会实践基地及中、小学生农业实践基地，辽宁省现代农业园区，省、市科普基地，辽宁最美的地方，沈阳市最具人气景区，生机勃勃，趣味无穷。\n园区位于新民市大柳屯镇长岗子村，距沈阳75公里，新民市区15公里，304国道从园区南缘通过，沈通高速公路从“新民北站口”下道，可直接到达，从沈阳南站乘火车只需50分钟到达新民站。\n园区占地40万平方米，建有十大景观，34个展览馆。境内理石板铺路，曲径通幽，廊亭相接，景馆相连，风天不扬尘，无处不着花。\n十大景观是：\n龙泉塔景区：九级龙泉塔、曲桥观鱼、醒桥赏荷、观鱼长廊。\n水上乐园景区：得月楼（设计独特，功能齐全，系餐厅、休闲、娱乐、会议等多功能高品位的服务中心）、玉雕三面滴水观音、12米长玉雕龙舟、水面泛舟、丽山瀑布。\n八仙过海景区：迟浩田题词碑、八仙过海影壁、定鼎、八骏朝阳大型玉雕、梨园。\n国粹园露天剧场景区：二十亩银白杨、京东大戏楼、天香阁、名人碑廊及京剧生旦净丑人物铜像、巨型岫岩玉整体雕琢的仙人居、名人书法碑林及彩绘长廊。\n王家屯一条街景区：仿照上个世纪七十年代人民公社时期乡土建筑群，生产大队、生产队、农户之家、五七战士之家、小学、草亭广场。\n畅馨园景区：苏南风格建筑群，喷泉、垂钓与龙泉塔、荷花池相辉映。\n新安门景区：新安门坐落在园区中轴线上，为二层宫殿式楼房，高大雄伟，与定远门遥相呼应。从科技园登天梯，可徒步走上城台，饮茶休息，俯瞰园区全景。南北两门之间，为万米停车场，60尊姿态各异的农民石雕像以及都乐苑、生态园等。\n一门三杰景区：努尔哈赤铜像、中小学生形象浮雕、一门三杰牌坊，邓世昌塑像，仿北京四合院建筑群，满族风格建筑八角楼，牡丹园。\n农业百科园景区：葡萄园、灵芝园、观赏长廊，200多个品种农作物。\n三圣寺景区：四进三重古典建筑，儒圣、道圣、佛圣三层大殿。\n园区各个角落设有16个亭榭，二十余尊（幅）精美雕塑及浮雕。\n34个展览馆，按内容分为五大类：\n民俗文化类：书法摄影绘画馆（新民获奖作品）；五谷艺术馆（种子粘贴画百余幅）；二人转馆（民粹馆）；百年服饰馆（建国前后至清末各种服饰）；农史资料馆（藏有3000余件农民百年用过的生产工具、生活用品）；民俗风情馆（寻根觅祖、关东风情、人生礼仪、节日习俗）；农村匠人馆；手工艺馆（从全国搜集的民间手工艺精品）；民间剪纸馆（全国搜集千余件真品）；灯会艺术馆；油雕工艺品馆（高浓缩油雕塑，世界唯一）。\n历史文化类：帝王兴衰馆、西藏文化艺术馆、古旧钟表馆（千余件中外古旧钟表）、辽金陶瓷艺术馆、冮官屯窑址出土文物馆、蒋绍武历史照片展（走进文革、回眸往事）、抗日战争资料馆、知青馆。\n京剧艺术类：京剧一馆（京剧普及教育）、京剧二馆（名家名段）。\n科技文化类：科技智慧馆（A、B）、珍稀动物标本馆、太岁馆（子母太岁）、飞碟馆、化石馆（朝阳出土真品）、锁文化馆（700余件形态各异的锁。古今大全，启迪智慧）。\n现代人物类：马加馆、杨大群馆、花淑兰冯玉萍师徒馆、李素文馆、歌仙刘三姐馆、王三哥王三嫂馆。\n馆馆展现一种文化，再现一段历史。丰富多彩，翔实可信，深入浅出，耐人寻味。\n沈阳三农博览园（新民文化博览园）未来的发展空间和潜力很大。紧紧围绕弘扬民俗文化，保护非物质文化遗产的主题创意，不断完善和深化。在近二、三年内，展馆数量将在现有34个基础上增加到50个。\n\n沈阳三农博览园（新民文化博览园）将建成非物质文化遗产的收藏中心、展览中心、教育中心，独领民族文化风骚，展示华夏文明魅力。"}}, {"title": "南清真寺", "address": "沈河区小西路南清真路23号（近清真南寺）", "image": "", "rank": 55, "time": 1.5, "location": {"lat": 41.808366999854556, "lng": 123.44670800954894}, "feature": {"sight_features": "", "sight_content": ""}}, {"title": "沈水湾公园", "address": "沈阳市和平区浑河北岸", "image": "", "rank": 56, "time": 1.5, "location": {"lat": 41.79523605290212, "lng": 123.42664426615303}, "feature": {"sight_features": "", "sight_content": ""}}, {"title": "般若寺", "address": "沈阳市沈河区大南街般若寺巷8号", "image": "", "rank": 57, "time": 1.5, "location": {"lat": 41.78840719887562, "lng": 123.46564938398983}, "feature": {"sight_features": "", "sight_content": ""}}, {"title": "北塔碑林", "address": "沈阳市皇姑区北塔街27号", "image": "", "rank": 58, "time": 1.5, "location": {"lat": 41.83683479151796, "lng": 123.45897347837202}, "feature": {"sight_features": "", "sight_content": ""}}, {"title": "一二一少儿职业体验城", "address": "沈阳市铁西区重工北街66-1号，铁西体育场东区", "image": "", "rank": 59, "time": 2, "location": {"lat": 41.81866859989437, "lng": 123.33426186455743}, "feature": {"sight_features": "", "sight_content": ""}}, {"title": "大政殿", "address": "沈阳市沈河区沈阳路171号沈阳故宫博物院内", "image": "", "rank": 60, "time": 0.4, "location": {"lat": 41.804305301059706, "lng": 123.46207049082109}, "feature": {"sight_features": "", "sight_content": ""}}]}