{"cityName": "申扎", "days": 2, "cityImage": "", "spots": [{"title": "申扎自然保护区", "address": "西藏自治区申扎县境内", "image": "", "rank": 1, "time": 1.0, "location": {"lat": 30.936393285832022, "lng": 88.7164811082338}, "feature": {"sight_features": "", "sight_content": ""}}, {"title": "错鄂", "address": "那曲申扎县色林错", "image": "", "rank": 2, "time": 1.0, "location": {"lat": 31.729767645540775, "lng": 89.01884254567491}, "feature": {"sight_features": "", "sight_content": ""}}, {"title": "吴如错", "address": "那曲地区色尼区申扎县", "image": "", "rank": 3, "time": 2, "location": {"lat": 31.03523425938085, "lng": 88.73536212773197}, "feature": {"sight_features": "", "sight_content": ""}}, {"title": "永珠藏布江沼泽", "address": "西藏自治区申扎县永珠藏布江中游 853100", "image": "", "rank": 4, "time": 2, "location": {"lat": 30.936393285832022, "lng": 88.7164811082338}, "feature": {"sight_features": "", "sight_content": ""}}, {"title": "折日木坡错", "address": "那曲地区申扎县", "image": "", "rank": 5, "time": null, "location": {"lat": 31.03523425938085, "lng": 88.73536212773197}, "feature": {"sight_features": "", "sight_content": ""}}, {"title": "色林错国家级自然保护区", "address": "西藏自治区申扎县和班戈县境内", "image": "", "rank": 6, "time": 2, "location": {"lat": 30.936393285832022, "lng": 88.7164811082338}, "feature": {"sight_features": "", "sight_content": ""}}, {"title": "日玛波", "address": "那曲市-申扎县", "image": "", "rank": 7, "time": 2, "location": {"lat": 30.936393285832022, "lng": 88.7164811082338}, "feature": {"sight_features": "", "sight_content": ""}}, {"title": "洛玛我定", "address": "那曲市-申扎县", "image": "", "rank": 8, "time": 2, "location": {"lat": 30.936393285832022, "lng": 88.7164811082338}, "feature": {"sight_features": "", "sight_content": ""}}, {"title": "宗巴拉山", "address": "西藏芒康", "image": "", "rank": 9, "time": 4.0, "location": {"lat": 29.652893647472517, "lng": 91.12434212899261}, "feature": {"sight_features": "", "sight_content": ""}}]}