{"cityName": "沈丘", "days": 2, "cityImage": "", "spots": [{"title": "中华槐园", "address": "中国河南省周口市沈丘县东环路", "image": "", "rank": 1, "time": 2.0, "location": {"lat": 33.39762159888183, "lng": 115.09965200800272}, "feature": {"sight_features": "", "sight_content": ""}}, {"title": "欧洲花园温泉会馆", "address": "兆丰大道6附近", "image": "", "rank": 2, "time": 2, "location": {"lat": 33.39647591654729, "lng": 115.10032372780287}, "feature": {"sight_features": "", "sight_content": ""}}, {"title": "真人密室逃脱", "address": "新华大道南段49号", "image": "", "rank": 3, "time": 2, "location": {"lat": 33.39796162257346, "lng": 115.07900153726128}, "feature": {"sight_features": "", "sight_content": ""}}, {"title": "沈丘县常胜源生态种植专业合作社", "address": "G36宁洛高速", "image": "", "rank": 4, "time": 2, "location": {"lat": 32.076268198916935, "lng": 118.89567939759476}, "feature": {"sight_features": "", "sight_content": ""}}, {"title": "沈丘县友情种植专业合作社(西南...", "address": "238省道附近", "image": "", "rank": 5, "time": 2, "location": {"lat": 32.02406130021086, "lng": 119.88529029655679}, "feature": {"sight_features": "", "sight_content": ""}}, {"title": "刘家面馆", "address": "217省道附近", "image": "", "rank": 6, "time": 2, "location": {"lat": 39.08362397662689, "lng": 117.74948306857745}, "feature": {"sight_features": "", "sight_content": ""}}, {"title": "神奇世界亲子图书馆", "address": "长安西路北100米", "image": "", "rank": 7, "time": 2, "location": {"lat": 38.01145142221955, "lng": 114.69010925025552}, "feature": {"sight_features": "", "sight_content": ""}}, {"title": "聚龙湾温泉", "address": "238省道附近", "image": "", "rank": 8, "time": 4.0, "location": {"lat": 32.02406130021086, "lng": 119.88529029655679}, "feature": {"sight_features": "", "sight_content": ""}}, {"title": "颍河湾农家乐", "address": "纸店沙河大桥", "image": "", "rank": 9, "time": 2, "location": {"lat": 33.30719140262212, "lng": 115.28989272168437}, "feature": {"sight_features": "", "sight_content": ""}}, {"title": "宽安温泉度假村", "address": "河南省周口市沈丘县健康北路31号", "image": "", "rank": 10, "time": 2, "location": {"lat": 33.41569109405895, "lng": 115.10545545595329}, "feature": {"sight_features": "", "sight_content": ""}}, {"title": "卜楼温泉度假村", "address": "238省道附近", "image": "", "rank": 11, "time": 2, "location": {"lat": 32.02406130021086, "lng": 119.88529029655679}, "feature": {"sight_features": "", "sight_content": ""}}, {"title": "长城度假村", "address": "长安西路附近", "image": "", "rank": 12, "time": 2, "location": {"lat": 38.010740660763304, "lng": 114.69010925025552}, "feature": {"sight_features": "", "sight_content": ""}}, {"title": "以马内利", "address": "河南省周口市沈丘县赵德营镇华联购物广场东100米", "image": "", "rank": 13, "time": 2, "location": {"lat": 33.24526995485519, "lng": 115.21722067818179}, "feature": {"sight_features": "", "sight_content": ""}}, {"title": "儿童乐园", "address": "周口市沈丘县", "image": "", "rank": 14, "time": 2, "location": {"lat": 33.41569109405895, "lng": 115.10545545595329}, "feature": {"sight_features": "", "sight_content": ""}}, {"title": "卡奇乐儿童乐园", "address": "槐店回族镇建行路口向东200米卫校医院对面三楼", "image": "", "rank": 15, "time": 2, "location": {"lat": 33.40562235165654, "lng": 115.09092796941539}, "feature": {"sight_features": "", "sight_content": ""}}, {"title": "上亿游乐园", "address": "河南省周口市沈丘县东环路", "image": "", "rank": 16, "time": 2, "location": {"lat": 33.39762159888183, "lng": 115.09965200800272}, "feature": {"sight_features": "", "sight_content": ""}}, {"title": "松鼠酋长儿童乐园", "address": "周口市沈丘县颍河大道全家福购物广场3层", "image": "", "rank": 17, "time": 2, "location": {"lat": 33.407490447759166, "lng": 115.09059867217475}, "feature": {"sight_features": "", "sight_content": ""}}, {"title": "开心一乐儿童主题乐园", "address": "马庄转盘向西100米路南", "image": "", "rank": 18, "time": 2, "location": {"lat": 31.641803695526015, "lng": 118.4800794205904}, "feature": {"sight_features": "", "sight_content": ""}}, {"title": "儿童益智游乐园", "address": "河南省周口市沈丘县长安东路", "image": "", "rank": 19, "time": 2, "location": {"lat": 33.39842047254546, "lng": 115.09496866348067}, "feature": {"sight_features": "", "sight_content": ""}}, {"title": "李鸣钟故居", "address": "长安东路", "image": "", "rank": 20, "time": 2, "location": {"lat": 38.01106006026571, "lng": 114.69792300353059}, "feature": {"sight_features": "", "sight_content": ""}}, {"title": "俪景温泉会馆", "address": "兆丰大道南段西侧二高操场对面", "image": "", "rank": 21, "time": 2, "location": {"lat": 33.382703530605426, "lng": 115.09657202293457}, "feature": {"sight_features": "", "sight_content": ""}}, {"title": "泰安温泉", "address": "泰安路与迎宾大道交叉口西200米路北", "image": "", "rank": 22, "time": 1.5, "location": {"lat": 21.869477773643936, "lng": 112.02590415735891}, "feature": {"sight_features": "", "sight_content": ""}}, {"title": "家家富中药材种植专业合作社(西...", "address": "238省道附近", "image": "", "rank": 23, "time": 2, "location": {"lat": 32.02406130021086, "lng": 119.88529029655679}, "feature": {"sight_features": "", "sight_content": ""}}, {"title": "沈丘恒丰游乐园", "address": "富都大道北段恒丰国际影城内", "image": "", "rank": 24, "time": 2, "location": {"lat": 33.399270033088925, "lng": 115.08509904372393}, "feature": {"sight_features": "", "sight_content": ""}}, {"title": "农场农夫(百集示范店)", "address": "019县道与210省道交叉口东南100米", "image": "", "rank": 25, "time": 2, "location": {"lat": 23.494386671660774, "lng": 116.51093198121578}, "feature": {"sight_features": "", "sight_content": ""}}, {"title": "红飘带舞蹈艺术中心", "address": "惊天市场东头咚密呐时装皮具城", "image": "", "rank": 26, "time": 2, "location": {"lat": 33.40402951983348, "lng": 115.08101157489074}, "feature": {"sight_features": "", "sight_content": ""}}, {"title": "沙河湾温泉", "address": "238省道附近", "image": "", "rank": 27, "time": 2, "location": {"lat": 32.02406130021086, "lng": 119.88529029655679}, "feature": {"sight_features": "", "sight_content": ""}}, {"title": "卡帝乐鳄鱼", "address": "淮河路南50米", "image": "", "rank": 28, "time": 2, "location": {"lat": 38.239762128762, "lng": 115.27158927351157}, "feature": {"sight_features": "", "sight_content": ""}}, {"title": "鸿儒图书馆", "address": "长安东路1号", "image": "", "rank": 29, "time": 2, "location": {"lat": 29.47848110786213, "lng": 113.47813408684883}, "feature": {"sight_features": "", "sight_content": ""}}, {"title": "苗圃生态园", "address": "59省道附近S102", "image": "", "rank": 30, "time": 2, "location": {"lat": 29.928504942612914, "lng": 121.41626454475848}, "feature": {"sight_features": "", "sight_content": ""}}, {"title": "裕博园", "address": "冯营乡李庙学校东南300米", "image": "", "rank": 31, "time": 2, "location": {"lat": 33.18570289455011, "lng": 115.2965887807863}, "feature": {"sight_features": "", "sight_content": ""}}, {"title": "豫东商业街", "address": "河南省沈丘县新安大道", "image": "", "rank": 32, "time": 2, "location": {"lat": 33.35908053036604, "lng": 115.20997950034726}, "feature": {"sight_features": "", "sight_content": ""}}, {"title": "恒瑞步行商业街", "address": "河南省沈丘县长安中路", "image": "", "rank": 33, "time": 2, "location": {"lat": 33.40102678667383, "lng": 115.08337971572361}, "feature": {"sight_features": "", "sight_content": ""}}]}