{"cityName": "神木", "days": 2, "cityImage": "", "spots": [{"title": "高家堡古城", "address": "榆林市神木市神王路附近", "image": "", "rank": 1, "time": 2.0, "location": {"lat": 38.36652358749791, "lng": 110.38102594686524}, "feature": {"sight_features": "", "sight_content": ""}}, {"title": "红碱淖", "address": "榆林市神木市尔林兔镇", "image": "", "rank": 2, "time": 4.5, "location": {"lat": 38.98345434203646, "lng": 109.82447459679953}, "feature": {"sight_features": "特色1 国家AAAA级风景名胜区 特色2 全球最大沙漠淡水湖 特色3 全球最大遗鸥繁殖与栖息地 特色4 一颗大漠明珠", "sight_content": "红碱淖位于榆林神木县尔林兔镇东北角，在榆林以北140公里处，是陕西省非常大的内陆淡水湖泊，有“沙海明珠”之称。湖面面积54平方公里，景观别致。在这里可以尽情享受阳光、沙滩和湖水，还可观赏沙鸥、天鹅和湖中自在的鱼群，十分惬意。湖西南岸有一个半岛，名为红石岛，岛上有许多野生的沙生植物，值得一去。\n\n\n红碱淖景区位于陕西省神木县境内，处于黄土高原与内蒙古高原过渡地带、毛乌素沙漠与鄂尔多斯盆地交汇处，海拔高度1100米，大陆性季风气候。湖面41.8平方公里，大致呈三角形状，沿岸有七条季节性河流注入，平均水深8.2米，最深水位12米。红碱淖是全国最大的沙漠淡水湖，具有独特的自然景观。1995年被陕西省人民政府评定为省级风景名胜区，2012年被国家评为“AAAA”级景区，2013年10月年被评为国家级水利风景名胜区，2017年5月被评为国家级自然保护区，是陕西省十大自然风景名胜区和十大诚信单位，年接待游客25万人次。\n\n\n红碱淖水域辽阔，烟波浩渺，蓝天白云，碧水黄沙，交相辉映，景色壮观。环湖四周自然生态良好，环境优雅，红碱淖湿地是全球最大的珍稀濒危鸟类——遗鸥繁殖与栖息地，每年四月至八月份，有占全球总量90%、多达20000多只的遗鸥在这里繁衍生息，规模壮观，另外还有白天鹅、鸬鹚、白鹭、金雕、鱼鹰、鸳鸯等53种受国家保护的各类珍禽，百鸟戏水，和乐齐鸣，构成非常完美的乐章。红碱淖还有非常丰富的渔业资源，有鲤鱼、草鱼、鲫鱼、鲢鱼等17种淡水野生鱼类，是纯天然、无污染的绿色美味，以本土之水炖大淖之鱼，被誉为“神湖水煮鱼”，以其独特的鲜嫩、可口而驰名。\n\n\n\n景区规划面积112平方公里。湖东区为综合游览服务区，设施完备，功能齐全，拥有大型生态停车场、游客服务中心、三星级宾馆、特色集装箱酒店、3D影院、餐饮、娱乐、购物一条街，晚间有“大漠之夜篝火晚会”和特色“湖滨舞会”等大型娱乐活动；湖南区为红碱淖水产品繁殖与养殖基地；湖西区为为自然湿地保护区，可观赏美丽的草原湿地风光；湖北区是大漠娱乐中心有滑沙、沙地摩托、沙地越野车、水陆两用娱乐车、太空球、弹跳飞人、沙漠骆驼、风味野餐、海滨浴场等游乐项目；湖区为水上娱乐区，有快艇、摩托艇、牵引升降伞、游湖画舫、水上滑翔机等游乐项目。红碱淖景区交通便利，通往景区的旅游专线有锦大路、麻瑶路和环湖观光路，包茂高速、210国道在景区西侧横穿而过并与环湖公路相连；即将建成通车的西包铁路红碱淖站距景区只有八公里；榆林市机场距离景区90公里，内蒙古鄂尔多斯机场距离景区60公里。红碱淖美丽而神奇、自然而朴实，是避暑、休闲、度假、旅游、会议、商务、庆典、聚会的极好去处。塞外神湖红碱淖欢迎您！"}}, {"title": "二郎山", "address": "榆林市神木县城西1公里处", "image": "", "rank": 3, "time": 1.0, "location": {"lat": 38.82903586595584, "lng": 110.33126976909105}, "feature": {"sight_features": "", "sight_content": ""}}, {"title": "神湖", "address": "榆林市神木市", "image": "", "rank": 4, "time": 1.5, "location": {"lat": 38.848544495220935, "lng": 110.50542966826288}, "feature": {"sight_features": "", "sight_content": ""}}, {"title": "杏花滩公园", "address": "榆林市神木市东兴街", "image": "", "rank": 5, "time": 2, "location": {"lat": 38.835055366017045, "lng": 110.50718912896016}, "feature": {"sight_features": "", "sight_content": ""}}, {"title": "龙眼山", "address": "神木县东侧", "image": "", "rank": 6, "time": 1.0, "location": {"lat": 38.82903586595584, "lng": 110.33126976909105}, "feature": {"sight_features": "", "sight_content": ""}}, {"title": "阳崖沟滑雪场", "address": "榆林市神木市崖阳沟路阳崖沟朝阳小区往东800米", "image": "", "rank": 7, "time": 2, "location": {"lat": 38.84681873617789, "lng": 110.51859882524255}, "feature": {"sight_features": "", "sight_content": ""}}, {"title": "河津寺", "address": "神木县", "image": "", "rank": 8, "time": 2, "location": {"lat": 38.82903586595584, "lng": 110.33126976909105}, "feature": {"sight_features": "", "sight_content": ""}}, {"title": "九龙山", "address": "榆林市神木市万佛路与九龙大道交叉口东北100米", "image": "", "rank": 9, "time": 3.5, "location": {"lat": 38.82916819923715, "lng": 110.51107722517355}, "feature": {"sight_features": "", "sight_content": ""}}, {"title": "韵河宫水上主题乐园", "address": "榆林市神木县杏花滩公园红绿灯东侧50米", "image": "", "rank": 10, "time": 2.5, "location": {"lat": 38.79407394805683, "lng": 110.53626229901072}, "feature": {"sight_features": "", "sight_content": ""}}, {"title": "神府革命烈士纪念馆", "address": "东兴街", "image": "", "rank": 11, "time": 2, "location": {"lat": 40.126631747524634, "lng": 116.61915099452746}, "feature": {"sight_features": "", "sight_content": ""}}, {"title": "杀虎淖农场", "address": "榆西路附近", "image": "", "rank": 12, "time": 2, "location": {"lat": 38.38240299547031, "lng": 109.81298397307208}, "feature": {"sight_features": "", "sight_content": ""}}, {"title": "神木县图书馆", "address": "神华路与麟州街交汇向南170米", "image": "", "rank": 13, "time": 2, "location": {"lat": 38.85328628874788, "lng": 110.5042347575447}, "feature": {"sight_features": "", "sight_content": ""}}, {"title": "垂钓池", "address": "尔林兔镇红碱淖内", "image": "", "rank": 14, "time": 2, "location": {"lat": 39.09385482650276, "lng": 109.95193808330662}, "feature": {"sight_features": "", "sight_content": ""}}, {"title": "神木石峁遗址", "address": "陕西省神木县高家堡镇石峁村 719301", "image": "", "rank": 15, "time": 3.5, "location": {"lat": 38.568874582581635, "lng": 110.32005591724105}, "feature": {"sight_features": "", "sight_content": ""}}, {"title": "财神庙", "address": "榆林市神木市204省道二郎山风景区内", "image": "", "rank": 16, "time": 1.5, "location": {"lat": 38.816220842452395, "lng": 110.50636264836554}, "feature": {"sight_features": "", "sight_content": ""}}, {"title": "新世纪儿童乐园", "address": "\"榆林市神木县\"", "image": "", "rank": 17, "time": 2, "location": {"lat": 38.82903586595584, "lng": 110.33126976909105}, "feature": {"sight_features": "", "sight_content": ""}}, {"title": "地藏菩萨", "address": "榆林市神木市204省道二郎山风景区诸神殿内", "image": "", "rank": 18, "time": 2, "location": {"lat": 38.816220842452395, "lng": 110.50636264836554}, "feature": {"sight_features": "", "sight_content": ""}}, {"title": "神木市博物馆", "address": "陕西省榆林市神木县麟州街第六小学北侧", "image": "", "rank": 19, "time": 2.5, "location": {"lat": 38.8505421650501, "lng": 110.49926488500567}, "feature": {"sight_features": "", "sight_content": ""}}, {"title": "真耶稣教会", "address": "滨河大道与神华路交叉口南150米", "image": "", "rank": 20, "time": 2, "location": {"lat": 34.857783276081186, "lng": 112.58762142228592}, "feature": {"sight_features": "", "sight_content": ""}}, {"title": "神赋博物馆", "address": "神华路西段", "image": "", "rank": 21, "time": 2, "location": {"lat": 39.033473735235624, "lng": 111.10210463342365}, "feature": {"sight_features": "", "sight_content": ""}}, {"title": "沙地越野", "address": "榆林市神木市尔林兔镇贾家梁村红碱淖景区", "image": "", "rank": 22, "time": 2, "location": {"lat": 39.09385482650276, "lng": 109.95193808330662}, "feature": {"sight_features": "", "sight_content": ""}}, {"title": "陵园广场", "address": "东兴街与古城北路交叉口东100米", "image": "", "rank": 23, "time": 2, "location": {"lat": 38.83227386198364, "lng": 110.50939359044438}, "feature": {"sight_features": "", "sight_content": ""}}, {"title": "北入口广场", "address": "神府路附近", "image": "", "rank": 24, "time": 2, "location": {"lat": 38.95387559558701, "lng": 110.58660868201274}, "feature": {"sight_features": "", "sight_content": ""}}, {"title": "白天鹅广场", "address": "榆林市神木市尔林兔镇红碱淖内", "image": "", "rank": 25, "time": 2, "location": {"lat": 39.09385482650276, "lng": 109.95193808330662}, "feature": {"sight_features": "", "sight_content": ""}}, {"title": "榆林杨家城", "address": "陕西省神木县城东北约20公里 719300", "image": "", "rank": 26, "time": 2.5, "location": {"lat": 38.82903586595584, "lng": 110.33126976909105}, "feature": {"sight_features": "", "sight_content": ""}}, {"title": "东山大殿庙", "address": "陕西省榆林市神木市", "image": "", "rank": 27, "time": 1.5, "location": {"lat": 38.848544495220935, "lng": 110.50542966826288}, "feature": {"sight_features": "", "sight_content": ""}}, {"title": "淘气宝儿童乐园", "address": "神木市其他东兴街", "image": "", "rank": 28, "time": 2, "location": {"lat": 38.848544495220935, "lng": 110.50542966826288}, "feature": {"sight_features": "", "sight_content": ""}}, {"title": "神木新村和谐广场", "address": "陕西省榆林市神木市神木市", "image": "", "rank": 29, "time": 2, "location": {"lat": 38.848544495220935, "lng": 110.50542966826288}, "feature": {"sight_features": "", "sight_content": ""}}, {"title": "继业广场", "address": "陕西省榆林市神木市东兴街", "image": "", "rank": 30, "time": 2, "location": {"lat": 38.835055366017045, "lng": 110.50718912896016}, "feature": {"sight_features": "", "sight_content": ""}}, {"title": "欢乐牧场", "address": "陕西省榆林市神木县其他麟州街北关商住楼南段苏曼音乐吧斜对面", "image": "", "rank": 31, "time": 2, "location": {"lat": 38.83836540494199, "lng": 110.50154602405159}, "feature": {"sight_features": "", "sight_content": ""}}, {"title": "金色童年放飞梦想", "address": "麻家塔乡水磨河学校附近", "image": "", "rank": 32, "time": 2, "location": {"lat": 38.870685784470574, "lng": 110.49188448868149}, "feature": {"sight_features": "", "sight_content": ""}}, {"title": "乐之翼儿童乐园", "address": "人民路开源生活馆3楼", "image": "", "rank": 33, "time": 2, "location": {"lat": 30.645757685438323, "lng": 104.08258527795641}, "feature": {"sight_features": "", "sight_content": ""}}, {"title": "铧山水上乐园", "address": "陕西省榆林市神木市铧山路", "image": "", "rank": 34, "time": 2, "location": {"lat": 38.83974547065305, "lng": 110.49873373492373}, "feature": {"sight_features": "", "sight_content": ""}}, {"title": "陕西神木石峁遗址", "address": "陕西榆林神木县高家堡镇", "image": "", "rank": 35, "time": 2, "location": {"lat": 38.556888061948996, "lng": 110.30537547263073}, "feature": {"sight_features": "", "sight_content": ""}}, {"title": "吕祖洞", "address": "九龙大道附近", "image": "", "rank": 36, "time": 0.3, "location": {"lat": 31.634673759835362, "lng": 104.68495166698081}, "feature": {"sight_features": "", "sight_content": ""}}, {"title": "叨唠窑则欢乐岛", "address": "鄂尔多斯市伊金霍洛旗尔林兔镇红碱淖内", "image": "", "rank": 37, "time": 2, "location": {"lat": 39.570092815192666, "lng": 109.75459043995566}, "feature": {"sight_features": "", "sight_content": ""}}, {"title": "开心哈乐游乐园", "address": "精煤路与麟州街交叉口北100米", "image": "", "rank": 38, "time": 2, "location": {"lat": 38.84484107563343, "lng": 110.50016225717621}, "feature": {"sight_features": "", "sight_content": ""}}, {"title": "东南海休闲山庄", "address": "神马路附近", "image": "", "rank": 39, "time": 2, "location": {"lat": 32.068034418022116, "lng": 118.90651906872596}, "feature": {"sight_features": "", "sight_content": ""}}, {"title": "迎宾广场", "address": "陕西省榆林市神木市神木镇迎宾路迎宾广场", "image": "", "rank": 40, "time": 0.35, "location": {"lat": 38.81883743441819, "lng": 110.51075219847733}, "feature": {"sight_features": "", "sight_content": ""}}, {"title": "欣怡山庄", "address": "滨河大道附近", "image": "", "rank": 41, "time": 2, "location": {"lat": 35.577103347384345, "lng": 110.70954352208794}, "feature": {"sight_features": "", "sight_content": ""}}, {"title": "九龙山度假村", "address": "麟宝塔附近", "image": "", "rank": 42, "time": 2, "location": {"lat": 38.83005696689668, "lng": 110.51462750731179}, "feature": {"sight_features": "", "sight_content": ""}}, {"title": "神木市广场公园", "address": "东兴街附近", "image": "", "rank": 43, "time": 0.75, "location": {"lat": 40.126631747524634, "lng": 116.61915099452746}, "feature": {"sight_features": "", "sight_content": ""}}, {"title": "大兴游乐园", "address": "铧山路", "image": "", "rank": 44, "time": 4.5, "location": {"lat": 38.83974547065305, "lng": 110.49873373492373}, "feature": {"sight_features": "", "sight_content": ""}}, {"title": "韵河宫生态园", "address": "东兴街", "image": "", "rank": 45, "time": 2, "location": {"lat": 40.126631747524634, "lng": 116.61915099452746}, "feature": {"sight_features": "", "sight_content": ""}}, {"title": "神沐生态园", "address": "四中路", "image": "", "rank": 46, "time": 2, "location": {"lat": 40.96010773844941, "lng": 117.74595510304302}, "feature": {"sight_features": "", "sight_content": ""}}, {"title": "古麟州博物馆", "address": "迎宾路", "image": "", "rank": 47, "time": 2, "location": {"lat": 40.19033466276813, "lng": 117.30191343601585}, "feature": {"sight_features": "", "sight_content": ""}}, {"title": "科普画廊", "address": "东兴街", "image": "", "rank": 48, "time": 2, "location": {"lat": 40.126631747524634, "lng": 116.61915099452746}, "feature": {"sight_features": "", "sight_content": ""}}, {"title": "动漫水世界", "address": "东兴街南段前坡小区对面", "image": "", "rank": 49, "time": 2, "location": {"lat": 40.70919485507138, "lng": 118.00152922882113}, "feature": {"sight_features": "", "sight_content": ""}}, {"title": "杏花滩公园滑雪场", "address": "东兴街杏花滩公园对面", "image": "", "rank": 50, "time": 2, "location": {"lat": 38.79407394805683, "lng": 110.53626229901072}, "feature": {"sight_features": "", "sight_content": ""}}, {"title": "华测工程技术", "address": "东兴街与农科路交叉口东南200米", "image": "", "rank": 51, "time": 2, "location": {"lat": 38.818490931437836, "lng": 110.52098588528777}, "feature": {"sight_features": "", "sight_content": ""}}, {"title": "锦界镇长城街便民阅览室", "address": "清明路与长城街交叉口西50米", "image": "", "rank": 52, "time": 2, "location": {"lat": 38.764312533078204, "lng": 110.19056635924947}, "feature": {"sight_features": "", "sight_content": ""}}, {"title": "神木县博物馆(东门)", "address": "神木镇麟州街第六小学北侧神木县博物馆附近", "image": "", "rank": 53, "time": 2, "location": {"lat": 38.85148881441623, "lng": 110.4990757890009}, "feature": {"sight_features": "", "sight_content": ""}}, {"title": "武园则村", "address": "榆林市-神木市", "image": "", "rank": 54, "time": 2, "location": {"lat": 38.848544495220935, "lng": 110.50542966826288}, "feature": {"sight_features": "", "sight_content": ""}}, {"title": "碧麟湾景区", "address": "榆林市-神木市-解家堡", "image": "", "rank": 55, "time": 2, "location": {"lat": 38.848544495220935, "lng": 110.50542966826288}, "feature": {"sight_features": "", "sight_content": ""}}]}