{"cityName": "涉县", "days": 2, "cityImage": "", "spots": [{"title": "太行五指山景区", "address": "邯郸市涉县河南店镇南庄村", "image": "", "rank": 1, "time": 3.5, "location": {"lat": 36.54844435557593, "lng": 113.66805103525589}, "feature": {"sight_features": "特色1 唯美丹霞地貌 特色2 以“雄、奇、险、秀”著称。 特色3 弥漫着悠远宁静，佛瑞吉祥的信息。", "sight_content": "太行五指山景区 位于太行山东麓涉县境内，占地面积20平方公里，主峰海拔1283米，山势巍峨峻秀，植被郁郁葱葱，以“雄、奇、险、秀”著称。更为神奇的是，这里一列3公里长的山脉，大自然巧夺天工形成一座仰卧大佛的形状，惟妙惟肖，弥漫着悠远宁静，佛瑞吉祥的信息。一个远离城市的地方，没有大都市的嘈杂，就是太行五指山，她位于太行山东麓，主峰海拔1283米，森林覆盖率达98.6%。这里完全远离了都市的尘嚣和喧闹，也没有一些热门旅游景区熙攘的游人，在树林间穿行，你可以尽情地呼吸着那没有任何污染的富含负氧离子的空气，你会犹如置身世外，忘掉一切烦恼，你能体会到的只有一个字——“幽”，的的确确是一处告别雾霾的好去处。在这里她所拥有的青山绿水，以及扑面而来的清新空气，吸引着游客前来“自我流放”。而被誉为“大自然的天然氧吧”，蓝天白云依然令人迷恋，植被的茂密更是这里独特的风景，打开车窗，空气中飘着的阳离子让人心情变得愉悦。迎面吹来的不再是尾气、甲醛和尘埃。\n\n\n五指山的传说很多，据说在远古时期，南海观音菩萨要到五台山参加文殊菩萨的法会，乘南海巨寿龟从普陀山往北走。由于路途遥远，就让紫微星引路（又称北极星），到了太行紫微山。菩萨悠然前行，忽见群峰耸翠，瑞气升腾。禁不住放缓脚步，待慧眼望去，只见祥云缠绕，佛光呈现。原来是如来佛祖伫立山头，正为美景陶醉。观音菩萨按下云头，急忙近前见礼。只听佛祖说道：“此处山川蕴秀、草木含灵，实是天设佳境，地呈灵宫。我等从南到北，路途遥远，我意在此设一驿宫，你看如何？”观音菩萨应道：“如此甚好，这样众佛家弟子南北往来也有个歇息” 佛祖点点头，慢慢挥起左手：“我看这山六峰竞秀，各有姿态，如熊耳耸天，就叫熊耳寺如何？”观音听后道：“佛祖英明，此名因应地形，因形取名，甚为妥当。”说罢，唤来座下灵寿龟，吩咐道：“我与佛祖前往五台山参加文殊菩萨法会。此建寺之事，着你驻此办理吧。”灵寿龟应喏。观音菩萨说完，便与佛祖驾云而去。\n\n灵寿龟建寺之后，也留恋此地，便化形为山，驻扎在此。寺庙建起来后，香火甚旺，百姓祈福求安，灵验异常，僧众越来越多。鼎盛时期，佛家弟子逾千，寺庵24座院落。晨钟暮鼓，诵经礼佛之人络绎不绝，成为晋冀豫交界地区闻名遐迩的开山祖寺。在五指山从北向南望去，山峰呈一座大佛之像，传说是佛祖五台山归来歇息所化。民间传说：考官、考学、考职，如果准备不足的话，不妨去临时抱一下佛脚，保你顺利过关，心想事成。这便是临时抱佛脚的来历。"}}, {"title": "九峰山", "address": "邯郸市涉县九峰山", "image": "", "rank": 2, "time": 2.5, "location": {"lat": 36.590691663211175, "lng": 113.69758434882932}, "feature": {"sight_features": "", "sight_content": ""}}, {"title": "九龙槐风景区", "address": "邯郸市涉县北原村槐树岭", "image": "", "rank": 3, "time": 2, "location": {"lat": 36.60486927669119, "lng": 113.65297719212036}, "feature": {"sight_features": "", "sight_content": ""}}, {"title": "将军岭", "address": "邯郸市涉县赤岸村北", "image": "", "rank": 4, "time": 2, "location": {"lat": 36.5940927601197, "lng": 113.64331026871379}, "feature": {"sight_features": "", "sight_content": ""}}, {"title": "韩王山", "address": "河北省邯郸市涉县", "image": "", "rank": 5, "time": 2, "location": {"lat": 36.590691663211175, "lng": 113.69758434882932}, "feature": {"sight_features": "", "sight_content": ""}}, {"title": "涉县薯乡粉条专业合作社", "address": "城中街169号附近", "image": "", "rank": 6, "time": 2, "location": {"lat": 30.23673025852917, "lng": 119.72942000751802}, "feature": {"sight_features": "", "sight_content": ""}}, {"title": "涂氏先茔", "address": "合漳乡白芟村", "image": "", "rank": 7, "time": 2, "location": {"lat": 36.34537950236594, "lng": 113.8302903409028}, "feature": {"sight_features": "", "sight_content": ""}}, {"title": "蓝精灵欢乐岛", "address": "邯郸市涉县将军路与刘张公路交叉口东行1000米", "image": "", "rank": 8, "time": 2, "location": {"lat": 36.69413260244568, "lng": 113.54565654301273}, "feature": {"sight_features": "", "sight_content": ""}}, {"title": "八路军一二九师纪念馆红色记忆小...", "address": "邯郸市涉县河南店镇赤岸村", "image": "", "rank": 9, "time": 2, "location": {"lat": 36.5940927601197, "lng": 113.64331026871379}, "feature": {"sight_features": "", "sight_content": "红色记忆小镇从分散在在涉县境内的110多处革命旧址中，筛选出38处做出突出历史贡献且具有地方特色的危建筑，采用1:1等比复原、以旧修旧方式，集中复建了晋冀鲁豫边区高等法院、冀南银行造币厂、战舰牌香烟卷烟厂、太行第五军分区被服厂、晋冀鲁豫边区政府交通总局、太行区学联、一二九师政治部礼堂、朝鲜义勇军总部等21处革命旧址。"}}, {"title": "八路军一二九师纪念馆太行颂文化...", "address": "邯郸市涉县河南店镇赤岸村", "image": "", "rank": 10, "time": 2, "location": {"lat": 36.5940927601197, "lng": 113.64331026871379}, "feature": {"sight_features": "", "sight_content": "八路军一二九师纪念馆太行颂文化园位于将军岭后延山脉，以弘扬红色文化、革命文化和励志文化为主题，镌刻了一二九师将帅、当代将军及书法名家的诗词、手迹，是一处以红色文化石刻为主的生态园林。"}}, {"title": "赤岸水乐园", "address": "将军路1号", "image": "", "rank": 11, "time": 2, "location": {"lat": 36.59195491571046, "lng": 113.65328099904383}, "feature": {"sight_features": "", "sight_content": ""}}, {"title": "涉县城市规划展览馆", "address": "清泉路", "image": "", "rank": 12, "time": 1.5, "location": {"lat": 35.81027310585153, "lng": 112.92606701880149}, "feature": {"sight_features": "", "sight_content": ""}}, {"title": "莲华谷景区", "address": "河北省涉县关防乡古台村", "image": "", "rank": 13, "time": 2, "location": {"lat": 36.50801547612342, "lng": 113.86641282869708}, "feature": {"sight_features": "", "sight_content": ""}}, {"title": "林州太行黄花山", "address": "河南林州市林县城西10公里 456500", "image": "", "rank": 14, "time": 4.5, "location": {"lat": 36.08885320844752, "lng": 113.82559018908465}, "feature": {"sight_features": "", "sight_content": ""}}, {"title": "涉县原曲静因寺", "address": "河北省邯郸市涉县S202", "image": "", "rank": 15, "time": 2, "location": {"lat": 36.590691663211175, "lng": 113.69758434882932}, "feature": {"sight_features": "", "sight_content": ""}}, {"title": "南山寺", "address": "202省道西200米", "image": "", "rank": 16, "time": 1.0, "location": {"lat": 37.77792504283699, "lng": 114.12437010509481}, "feature": {"sight_features": "", "sight_content": ""}}, {"title": "涉县海炜德儿童成长主题乐园", "address": "龙山大街龙山购物广场三层", "image": "", "rank": 17, "time": 2, "location": {"lat": 36.570613803073904, "lng": 113.68340034467434}, "feature": {"sight_features": "", "sight_content": ""}}, {"title": "朝鲜义勇军旧址", "address": "邯郸市涉县", "image": "", "rank": 18, "time": 2, "location": {"lat": 36.590691663211175, "lng": 113.69758434882932}, "feature": {"sight_features": "", "sight_content": ""}}, {"title": "莲花谷景区", "address": "河北省邯郸市涉县", "image": "", "rank": 19, "time": 2.5, "location": {"lat": 36.590691663211175, "lng": 113.69758434882932}, "feature": {"sight_features": "", "sight_content": ""}}, {"title": "基督教会", "address": "309国道附近", "image": "", "rank": 20, "time": 2, "location": {"lat": 36.73046791589426, "lng": 118.90798977630351}, "feature": {"sight_features": "", "sight_content": ""}}, {"title": "来恩阁", "address": "小海路与迎春街交叉口北50米", "image": "", "rank": 21, "time": 2, "location": {"lat": 36.56902308521029, "lng": 113.66918169557076}, "feature": {"sight_features": "", "sight_content": ""}}, {"title": "娲皇宫广场", "address": "213省道娲皇宫广场附近", "image": "", "rank": 22, "time": 2, "location": {"lat": 36.63918339186894, "lng": 113.61408766015184}, "feature": {"sight_features": "", "sight_content": ""}}, {"title": "八路军一二九师政治部旧址礼堂", "address": "涉县王堡村", "image": "", "rank": 23, "time": 2, "location": {"lat": 36.6103972361004, "lng": 113.63649869740465}, "feature": {"sight_features": "", "sight_content": ""}}, {"title": "毛泽东怀念馆", "address": "228省道附近", "image": "", "rank": 24, "time": 2, "location": {"lat": 39.03858546081583, "lng": 117.03749267899916}, "feature": {"sight_features": "", "sight_content": ""}}, {"title": "石岗村玉泉湖生态园", "address": "202省道", "image": "", "rank": 25, "time": 2, "location": {"lat": 37.77792504283699, "lng": 114.12616671611477}, "feature": {"sight_features": "", "sight_content": ""}}, {"title": "朝鲜义勇军烈士纪念馆", "address": "213省道", "image": "", "rank": 26, "time": 2, "location": {"lat": 39.999164912284996, "lng": 116.42332353742155}, "feature": {"sight_features": "", "sight_content": ""}}, {"title": "新城国际游泳池水上乐园", "address": "清泉路城管局对面(新城国际楼下)", "image": "", "rank": 27, "time": 2, "location": {"lat": 36.585823724383545, "lng": 113.68115204138972}, "feature": {"sight_features": "", "sight_content": ""}}, {"title": "草莓采摘", "address": "河南店镇129师", "image": "", "rank": 28, "time": 2, "location": {"lat": 36.53964846983015, "lng": 113.6695265308018}, "feature": {"sight_features": "", "sight_content": ""}}, {"title": "博艺书画苑", "address": "步行街", "image": "", "rank": 29, "time": 2, "location": {"lat": 31.4707878758284, "lng": 104.75488769018823}, "feature": {"sight_features": "", "sight_content": ""}}, {"title": "樱桃采摘", "address": "岩头村口", "image": "", "rank": 30, "time": 2, "location": {"lat": 28.344343993156418, "lng": 120.74427648488047}, "feature": {"sight_features": "", "sight_content": ""}}, {"title": "涉县道地中药材种植专业合作社", "address": "平安街东50米", "image": "", "rank": 31, "time": 2, "location": {"lat": 40.15024588112798, "lng": 117.13750371556186}, "feature": {"sight_features": "", "sight_content": ""}}, {"title": "博艺画廊", "address": "平安街道四中广场对面", "image": "", "rank": 32, "time": 2, "location": {"lat": 41.06003872884029, "lng": 121.67955728440312}, "feature": {"sight_features": "", "sight_content": ""}}, {"title": "佛趾山滑雪场", "address": "河南店镇南庄村", "image": "", "rank": 33, "time": 2, "location": {"lat": 36.54844435557593, "lng": 113.66805103525589}, "feature": {"sight_features": "", "sight_content": ""}}, {"title": "河北省邯郸市涉县贸易街步行街", "address": "河北省涉县贸易街", "image": "", "rank": 34, "time": 2, "location": {"lat": 36.56683647044382, "lng": 113.67577919528705}, "feature": {"sight_features": "", "sight_content": ""}}, {"title": "一二九师陈列馆", "address": "河北省邯郸市涉县", "image": "", "rank": 35, "time": 2, "location": {"lat": 36.590691663211175, "lng": 113.69758434882932}, "feature": {"sight_features": "", "sight_content": ""}}]}