{"cityName": "射阳", "days": 2, "cityImage": "", "spots": [{"title": "后羿公园", "address": "盐城市射阳县", "image": "", "rank": 1, "time": 1.5, "location": {"lat": 33.78101359213001, "lng": 120.26444564891948}, "feature": {"sight_features": "", "sight_content": ""}}, {"title": "息心寺", "address": "射阳县射阳河闸南首", "image": "", "rank": 2, "time": 1.0, "location": {"lat": 33.804094033121615, "lng": 120.34355016263648}, "feature": {"sight_features": "特色1 由射阳境内的信众在合德镇重建", "sight_content": "射阳县息心寺始建于明末，原名息心庵，几经迁徙，几经盛衰，终毁于清末。1929年由江易元、仇盖庵二位居士恭请 印光大师来射阳主持寺院，射阳境内的信众在合德镇重建了息心庵，建成大殿、厢房三十余间，直至1992年兴建建行大楼时被拆除。1993年3月25日，经县政府批准，同意在射阳河风景区内复建 息心寺，并礼请原中国佛教协会副会长、江苏省佛教协会会长茗山长老为住持，2001年6月份茗山长老圆寂，2003年茗山长老弟子了尘法师继任主持。\n2007年成功创建国家3a级旅游景区，2010年被国家宗教局评为首届全国创建和谐寺观教堂“先进集体”，是苏北地区 规模大、影响力深、辐射力强的一座佛教寺院。息心寺以独特的魅力、丰富的内涵、浓厚的佛教氛围、优美的环境、丰富的文化艺术而成为黄海之滨的一颗明珠，被誉为“黄海福地，江淮名刹 ”。\n寺内景观：\n大雄宝殿\n寺内的大雄宝殿，是寺院最雄伟也是最重要的建筑，大雄宝殿为一层两阶，高19.8米，建筑面积500平方米，殿内金碧辉煌，佛像清静庄严、巧夺天工，均采用台湾鎏金工艺，避开传统浑然一色的装金效果，把衣服、皮肤分色，装金后更栩栩如生，活灵活现表现佛的慈悲圆融之相，此装金工艺在江苏是首家。殿内还设有海岛观音全堂佛像及文殊、普贤、二十诸天佛像，屋顶的千龙朝拜藻井的雕刻、构思精美绝伦，让人叹为观止。\n观自在园\n位于寺院西北的观自在园，虽是寺内园中园，却也独成一体，园内四周以长廊围之，廊内皆石刻临摹历代高僧书法，独特精辟。园内绿树成荫，花草茂盛，竹林掩映，一片生机盎然的景象，供养于园内的露天大佛为观音菩萨圣像，佛像雕刻精细，栩栩如生，并配以石雕龙柱、落地宫灯，更显庄严、典雅，使人顿生清静 、悠然之心。\n寺内山门背面的佛教文物展览馆内，藏有各类文物百余件，其中国家级文物数拾件，这里展出的皆为汉传和藏传佛教的佛像、供器、经典、法器及明、清期间的佛教文物，代表了各民族佛教文化的特色，为研究佛教文化知识、查证佛教历史提供了广阔的空间。\n大悲楼\n大悲楼是佛教寺院传统建筑之一，这是众僧集会演说佛法之处，为仅次于大雄宝殿的主要建筑，殿内供奉的是千手观音。观音圣像清静庄严，慈悲圆融，化身千万，救苦救难。\n玉佛殿\n玉佛殿里供奉的释迦牟尼佛，色泽洁白，雕工精湛，造型逼真，为玉质材料，重达五吨，高2.2米，价值数百万，是我国佛教寺院中极少佛身整玉雕成通体透明的庄严佛像。这尊佛像的价值更在于其来历不凡，是以泰国陈梦中先生为首的诸信众从缅甸请来，赠与寺院。\n寺内景点甚多，天王殿、财神殿、龙王殿、山门、韦驮殿、地藏殿、太子园、准提殿、法华宝坛、念佛堂等都是那么令人目不睱接，流连忘返。院内设有法物流通处和香游客服务中心，虔诚为十方信众服务。"}}, {"title": "洋马十里菊香园", "address": "射阳县洋马镇境内", "image": "", "rank": 3, "time": 1.0, "location": {"lat": 33.61485743438055, "lng": 120.35020176998856}, "feature": {"sight_features": "", "sight_content": ""}}, {"title": "中华后羿坛", "address": "江苏省盐城市射阳县后裔公园南面", "image": "", "rank": 4, "time": 2, "location": {"lat": 33.78101359213001, "lng": 120.26444564891948}, "feature": {"sight_features": "", "sight_content": ""}}, {"title": "发阳渔村", "address": "江苏省盐城市射阳县黄沙港镇", "image": "", "rank": 5, "time": 2, "location": {"lat": 33.73142857687549, "lng": 120.39666624969537}, "feature": {"sight_features": "", "sight_content": ""}}, {"title": "射阳法制广场", "address": "江苏省盐城市射阳县", "image": "", "rank": 6, "time": 1.0, "location": {"lat": 33.78101359213001, "lng": 120.26444564891948}, "feature": {"sight_features": "", "sight_content": ""}}, {"title": "射阳岛公园", "address": "江苏省盐城市射阳县", "image": "", "rank": 7, "time": 2, "location": {"lat": 33.78101359213001, "lng": 120.26444564891948}, "feature": {"sight_features": "", "sight_content": ""}}, {"title": "幸福公园", "address": "江苏省盐城市射阳县", "image": "", "rank": 8, "time": 1.5, "location": {"lat": 33.78101359213001, "lng": 120.26444564891948}, "feature": {"sight_features": "", "sight_content": ""}}, {"title": "射阳岛秋和水上乐园", "address": "江苏省盐城市射阳县", "image": "", "rank": 9, "time": 2, "location": {"lat": 33.78101359213001, "lng": 120.26444564891948}, "feature": {"sight_features": "", "sight_content": ""}}, {"title": "江苏盐城悦达射阳岛高尔夫球会", "address": "海通镇射阳河口", "image": "", "rank": 10, "time": 2, "location": {"lat": 33.81223368655204, "lng": 120.48411048713983}, "feature": {"sight_features": "", "sight_content": ""}}, {"title": "大丰市施耐庵名家画廊", "address": "南京江宁金箔路180室大丰市黄海路21号吴熙明工作室", "image": "", "rank": 11, "time": 3.5, "location": {"lat": 31.952486134794512, "lng": 118.85904747445765}, "feature": {"sight_features": "", "sight_content": ""}}, {"title": "射阳县定海农场", "address": "黄沙港镇洋河社区北边", "image": "", "rank": 12, "time": 2, "location": {"lat": 33.636852939193034, "lng": 120.4465769114064}, "feature": {"sight_features": "", "sight_content": ""}}, {"title": "文一小主播梦想剧场", "address": "江苏省盐城市射阳县红旗西路19号", "image": "", "rank": 13, "time": 2, "location": {"lat": 33.77956749902532, "lng": 120.24376737472419}, "feature": {"sight_features": "", "sight_content": ""}}, {"title": "通洋影剧院", "address": "建设路附近", "image": "", "rank": 14, "time": 2, "location": {"lat": 39.08959553212996, "lng": 117.0126917080218}, "feature": {"sight_features": "", "sight_content": ""}}, {"title": "欢乐牧场", "address": "幸福华城美食街D幢2层", "image": "", "rank": 15, "time": 2, "location": {"lat": 33.76681390195761, "lng": 120.24889490257515}, "feature": {"sight_features": "", "sight_content": ""}}, {"title": "基督教会", "address": "厚朴东路与339乡道交叉口东北200米", "image": "", "rank": 16, "time": 2, "location": {"lat": 42.85646580255288, "lng": 124.414086267546}, "feature": {"sight_features": "", "sight_content": ""}}, {"title": "盐城沿海森林公园", "address": "盐城市亭湖区", "image": "", "rank": 17, "time": null, "location": {"lat": 33.39589348690703, "lng": 120.20457816803754}, "feature": {"sight_features": "", "sight_content": ""}}, {"title": "基督教会", "address": "江苏省盐城市射阳县淮海农场六淮路中国邮政东北150米", "image": "", "rank": 18, "time": 2, "location": {"lat": 33.778472991880044, "lng": 120.30423591182284}, "feature": {"sight_features": "", "sight_content": ""}}, {"title": "基督教会", "address": "临头线附近", "image": "", "rank": 19, "time": 2, "location": {"lat": 34.04216644448846, "lng": 120.27167530149433}, "feature": {"sight_features": "", "sight_content": ""}}, {"title": "爱孩乐主题乐园", "address": "文峰千家惠购物中心1楼", "image": "", "rank": 20, "time": 2, "location": {"lat": 36.09683274813585, "lng": 114.36337398772396}, "feature": {"sight_features": "", "sight_content": ""}}, {"title": "滨湖公园", "address": "江苏省盐城市射阳县射阳县实验小学新校区东南1.2公里", "image": "", "rank": 21, "time": 1.5, "location": {"lat": 33.77559455547921, "lng": 120.43568093358755}, "feature": {"sight_features": "", "sight_content": ""}}, {"title": "射阳县三里寺", "address": "江苏省盐城市射阳县海河镇海关居委会5组", "image": "", "rank": 22, "time": 2, "location": {"lat": 33.78869402834089, "lng": 120.03597388815729}, "feature": {"sight_features": "", "sight_content": ""}}, {"title": "基督教会", "address": "四新线东50米", "image": "", "rank": 23, "time": 2, "location": {"lat": 33.916180273771396, "lng": 120.0493504764555}, "feature": {"sight_features": "", "sight_content": ""}}, {"title": "基督教会", "address": "陈华线附近", "image": "", "rank": 24, "time": 2, "location": {"lat": 33.6955153060738, "lng": 119.97862934591033}, "feature": {"sight_features": "", "sight_content": ""}}, {"title": "长荡教会", "address": "江苏省盐城市射阳县新长线", "image": "", "rank": 25, "time": 2, "location": {"lat": 33.54770229492754, "lng": 120.21452866044274}, "feature": {"sight_features": "", "sight_content": ""}}, {"title": "基督教会", "address": "江苏省盐城市射阳县特庸镇特长线星亚棉业有限公司西", "image": "", "rank": 26, "time": 2, "location": {"lat": 33.529204094947126, "lng": 120.267107614705}, "feature": {"sight_features": "", "sight_content": ""}}, {"title": "法治广场", "address": "人民东路与飞洋南路交叉口西南50米", "image": "", "rank": 27, "time": 2, "location": {"lat": 33.54665703745385, "lng": 120.21296748721221}, "feature": {"sight_features": "", "sight_content": ""}}, {"title": "后羿公园-射日广场", "address": "华中工委纪念馆东100米", "image": "", "rank": 28, "time": 2, "location": {"lat": 33.772213607692294, "lng": 120.23054663434722}, "feature": {"sight_features": "", "sight_content": ""}}, {"title": "兴桥镇人口文化园", "address": "兴园路与冈合西路交叉口东南50米", "image": "", "rank": 29, "time": 2, "location": {"lat": 33.675848536295, "lng": 120.23347009866332}, "feature": {"sight_features": "", "sight_content": ""}}, {"title": "临海镇法治广场", "address": "华成路与联合路交叉口南50米", "image": "", "rank": 30, "time": 2, "location": {"lat": 33.98956118316759, "lng": 120.24533637758555}, "feature": {"sight_features": "", "sight_content": ""}}, {"title": "职工广场", "address": "创业路附近", "image": "", "rank": 31, "time": 2, "location": {"lat": 38.049793198095635, "lng": 114.45225952042694}, "feature": {"sight_features": "", "sight_content": ""}}, {"title": "基督教会", "address": "江苏省盐城市射阳县", "image": "", "rank": 32, "time": 2, "location": {"lat": 33.78101359213001, "lng": 120.26444564891948}, "feature": {"sight_features": "", "sight_content": ""}}, {"title": "基督教会(兴盐路)", "address": "兴盐路与海城路交叉口西200米", "image": "", "rank": 33, "time": 2.5, "location": {"lat": 33.68144178325733, "lng": 120.43065551073407}, "feature": {"sight_features": "", "sight_content": ""}}, {"title": "儿童乐园", "address": "盐城市射阳县", "image": "", "rank": 34, "time": 2, "location": {"lat": 33.78101359213001, "lng": 120.26444564891948}, "feature": {"sight_features": "", "sight_content": ""}}, {"title": "基督教会(海堤线)", "address": "海堤线附近", "image": "", "rank": 35, "time": 2, "location": {"lat": 33.75303550478616, "lng": 120.40307273821954}, "feature": {"sight_features": "", "sight_content": ""}}, {"title": "特来电充电站（射阳华中工委纪念...", "address": "江苏省盐城市射阳县盐城市射阳县人民西路100号后羿公园西侧", "image": "", "rank": 36, "time": 2, "location": {"lat": 33.77379548391182, "lng": 120.22296486487687}, "feature": {"sight_features": "", "sight_content": ""}}, {"title": "江苏奇幻谷儿童主题乐园", "address": "临海镇八大家联合街小精灵百货", "image": "", "rank": 37, "time": 2, "location": {"lat": 33.999306187472534, "lng": 120.23973416264549}, "feature": {"sight_features": "", "sight_content": ""}}, {"title": "射阳县晨光路文化园", "address": "合德镇晨光路", "image": "", "rank": 38, "time": 2, "location": {"lat": 33.77651031669678, "lng": 120.25880867314939}, "feature": {"sight_features": "", "sight_content": ""}}, {"title": "阜余影剧院", "address": "建业路80", "image": "", "rank": 39, "time": 2, "location": {"lat": 33.8226336559322, "lng": 120.02829712018435}, "feature": {"sight_features": "", "sight_content": ""}}, {"title": "射阳县基督教临港教会", "address": "人民路附近", "image": "", "rank": 40, "time": 2, "location": {"lat": 23.37490057686854, "lng": 103.40661159663834}, "feature": {"sight_features": "", "sight_content": ""}}, {"title": "水上世界", "address": "329省道", "image": "", "rank": 41, "time": 2, "location": {"lat": 37.006006509118556, "lng": 114.74389772886998}, "feature": {"sight_features": "", "sight_content": ""}}, {"title": "沿海经济区规划展示馆", "address": "华锐大道", "image": "", "rank": 42, "time": 2, "location": {"lat": 33.821186547946276, "lng": 120.45597318704077}, "feature": {"sight_features": "", "sight_content": ""}}, {"title": "中共华中工委纪念馆", "address": "后羿公园西侧嫦娥路附近", "image": "", "rank": 43, "time": 2, "location": {"lat": 33.77140443349987, "lng": 120.23244992902785}, "feature": {"sight_features": "", "sight_content": ""}}, {"title": "洋马镇社区教育中心图书馆", "address": "金钱路", "image": "", "rank": 44, "time": 2, "location": {"lat": 30.963911943775603, "lng": 121.5126324414704}, "feature": {"sight_features": "", "sight_content": ""}}, {"title": "云晖书画社", "address": "兴旺大道", "image": "", "rank": 45, "time": 2, "location": {"lat": 23.060205726400934, "lng": 113.09702428502582}, "feature": {"sight_features": "", "sight_content": ""}}, {"title": "天池温泉会馆", "address": "盐城市射阳县人民路117号", "image": "", "rank": 46, "time": 2, "location": {"lat": 33.574064530800484, "lng": 120.40155152555437}, "feature": {"sight_features": "", "sight_content": "天池温泉会馆坐落于射阳县人民路117号，以日韩的沐浴文化为主题打造的汗蒸品牌，会馆内环境典雅、功能齐全，集沐浴、汗蒸、娱乐休闲、养生保健、儿童电竞、VR体验、商务棋牌、贵宾客房、餐饮等于娱乐项目为一体。\n本会馆以日、韩式沐浴文化为主，打造高端沐浴汗蒸品牌，营业面积4500平，总耗资1500余万，环境典雅、功能齐全，是集沐浴、汗蒸、娱乐休闲、养生保健、儿童电竞、VR体验、商务棋牌、贵宾客房、时令果饮小吃于一体的综合性沐浴会馆，我们本着绿色休闲健康养生的服务宗旨给您带来全新感受。"}}, {"title": "黄沙港生态园", "address": "海星路与228省道交口", "image": "", "rank": 47, "time": 2, "location": {"lat": 39.03858546081583, "lng": 117.03749267899916}, "feature": {"sight_features": "", "sight_content": ""}}, {"title": "后羿公园水上乐园", "address": "后羿公园内东边", "image": "", "rank": 48, "time": 2, "location": {"lat": 33.77140443349987, "lng": 120.23244992902785}, "feature": {"sight_features": "", "sight_content": ""}}, {"title": "射阳县书画家协会", "address": "红旗路53号", "image": "", "rank": 49, "time": 2, "location": {"lat": 39.93722709271738, "lng": 119.59473017060714}, "feature": {"sight_features": "", "sight_content": ""}}, {"title": "新纪元迪斯科广场", "address": "爱民巷与红旗路交叉口", "image": "", "rank": 50, "time": 2, "location": {"lat": 33.780987821326704, "lng": 120.26670565892151}, "feature": {"sight_features": "", "sight_content": ""}}, {"title": "东都天润水上乐园", "address": "解放东路11号", "image": "", "rank": 51, "time": 2, "location": {"lat": 38.30261083453697, "lng": 116.89844980809548}, "feature": {"sight_features": "", "sight_content": ""}}, {"title": "鹤乐园", "address": "新洋港镇", "image": "", "rank": 52, "time": 2, "location": {"lat": 33.6193797847695, "lng": 120.48088248018806}, "feature": {"sight_features": "", "sight_content": ""}}, {"title": "新时代电子游戏总汇", "address": "达阳路与解放路交叉口", "image": "", "rank": 53, "time": 2, "location": {"lat": 33.77094198143072, "lng": 120.26268700029037}, "feature": {"sight_features": "", "sight_content": ""}}, {"title": "江苏省射阳盐场中心图书阅览室", "address": "兴盐路11", "image": "", "rank": 54, "time": 2, "location": {"lat": 33.68194637219927, "lng": 120.43322047569401}, "feature": {"sight_features": "", "sight_content": ""}}, {"title": "人民剧场(陈中南街)", "address": "陈中街", "image": "", "rank": 55, "time": 2, "location": {"lat": 33.76948905289519, "lng": 120.12293546694954}, "feature": {"sight_features": "", "sight_content": ""}}, {"title": "朝阳街步行街", "address": "江苏省射阳县朝阳街", "image": "", "rank": 56, "time": 2, "location": {"lat": 33.76930658634571, "lng": 120.26508809905411}, "feature": {"sight_features": "", "sight_content": ""}}, {"title": "夏大口子", "address": "盐城市-射阳县", "image": "", "rank": 57, "time": 2, "location": {"lat": 33.78101359213001, "lng": 120.26444564891948}, "feature": {"sight_features": "", "sight_content": ""}}, {"title": "星河湾国际大酒店-健身房", "address": "盐城市-射阳县-幸福大道888号星河湾酒店", "image": "", "rank": 58, "time": 2, "location": {"lat": 33.76457932508985, "lng": 120.26430727034548}, "feature": {"sight_features": "", "sight_content": ""}}, {"title": "小宝贝儿童主题乐园", "address": "盐城市-射阳县-人民路25号附近", "image": "", "rank": 59, "time": 2, "location": {"lat": 33.574156394614654, "lng": 120.39895773632247}, "feature": {"sight_features": "", "sight_content": ""}}]}