{"cityName": "施秉", "days": 2, "cityImage": "", "spots": [{"title": "杉木河漂流", "address": "黔东南苗族侗族自治州施秉县", "image": "", "rank": 1, "time": 2.5, "location": {"lat": 27.03982205173296, "lng": 108.13043978205083}, "feature": {"sight_features": "", "sight_content": ""}}, {"title": "云台山", "address": "黔东南州施秉县云台山管理站", "image": "", "rank": 2, "time": 4.5, "location": {"lat": 27.109202087985203, "lng": 108.11993817203228}, "feature": {"sight_features": "特色1 新晋世界遗产地。 特色2 云台山是施秉喀斯特世界自然遗产地的重要组成部分。 特色3 景区山势独特，白云岩塔状群峰鼎立，层峦叠嶂、沟壑纵横。", "sight_content": "云台山景区距施秉县城北13公里，是600年前的佛教胜地。现保存有周公庙、徐公殿及诸多摩崖石刻景点。景区由云台山、外营台、轿顶山及大田垴等群峰组成。面积约210平方公里，主要有云台山主峰、拜经石、道庵井、印头阁、野牛洞、盘藤道、笔架山、老虎背、徐公殿、周公殿、渡云桥等24个景点。主峰团仑岩海拔1066米，突起于群山之间，因山形“四面削成，独出于云霄之半”，山巅如台，加之云雾缭绕，故名云台山。\n据清康熙《贵州通志》卷6“山川”所载，云台山“独立于万山中”，“不连岗，不属岭，屹然天柱”，山顶“平行可数百亩”，“群峦拱代如儿孙”。明代曾建大刹，僧众多达200余人，朝山拜佛者来自四面八方，是黔东南盛极一时的佛教和旅游胜地。今仅存山门一座，明清石碑各一通。云台山以原始自然生态、天象奇观、奇峰丽水、佛教遗址、道教古刹等自然和人文景观为特色。面积47平方公里。分为云台山、排云关两大旅游片区，规划景点24处，山间珍稀等植物近400种，珍贵等动物近百种，被称为“植物宝盆、动物宝库”，是贵州东线探险寻幽的旅游宝地。"}}, {"title": "上舞阳河风景区", "address": "黔东南自治州施秉县西北部", "image": "", "rank": 3, "time": 3.0, "location": {"lat": 27.03982205173296, "lng": 108.13043978205083}, "feature": {"sight_features": "", "sight_content": ""}}, {"title": "太阳洞", "address": "黔东南苗族侗族自治州施秉县城的西门坡背后悬崖上", "image": "", "rank": 4, "time": 0.25, "location": {"lat": 27.03982205173296, "lng": 108.13043978205083}, "feature": {"sight_features": "", "sight_content": ""}}, {"title": "佛顶山", "address": "黔东南苗族侗族自治州施秉县", "image": "", "rank": 5, "time": 3.5, "location": {"lat": 27.03982205173296, "lng": 108.13043978205083}, "feature": {"sight_features": "", "sight_content": ""}}, {"title": "高碑湖", "address": "黔东南苗族侗族自治州施秉县", "image": "", "rank": 6, "time": 2, "location": {"lat": 27.03982205173296, "lng": 108.13043978205083}, "feature": {"sight_features": "", "sight_content": ""}}, {"title": "施秉县城镇规划建设展厅", "address": "贵州省施秉县306省道附近", "image": "", "rank": 7, "time": 2, "location": {"lat": 26.98754010224094, "lng": 108.08550725910098}, "feature": {"sight_features": "", "sight_content": ""}}, {"title": "梦幻黑冲", "address": "贵州省施秉县县城北部 556200", "image": "", "rank": 8, "time": 2, "location": {"lat": 27.03982205173296, "lng": 108.13043978205083}, "feature": {"sight_features": "", "sight_content": ""}}, {"title": "坐井观天", "address": "黔东南苗族侗族自治州镇远县舞阳河国家级风景名胜区下舞阳景区内", "image": "", "rank": 9, "time": 0.25, "location": {"lat": 27.064590915164437, "lng": 108.32572978290558}, "feature": {"sight_features": "", "sight_content": ""}}, {"title": "锦园", "address": "贵州省黔东南苗族侗族自治州施秉县306省道北100米", "image": "", "rank": 10, "time": 2, "location": {"lat": 26.988344915815638, "lng": 108.08550725910098}, "feature": {"sight_features": "", "sight_content": ""}}, {"title": "施秉县基督教聚会场所", "address": "云台路附近", "image": "", "rank": 11, "time": 2, "location": {"lat": 31.320650543345902, "lng": 121.32822071187006}, "feature": {"sight_features": "", "sight_content": ""}}, {"title": "施秉县图书馆", "address": "县府路1号", "image": "", "rank": 12, "time": 2, "location": {"lat": 31.327135544290357, "lng": 118.87518024551817}, "feature": {"sight_features": "", "sight_content": ""}}, {"title": "施秉广西滑皮金桔园", "address": "城关镇新红村深冲组", "image": "", "rank": 13, "time": 3.0, "location": {"lat": 26.982393819848483, "lng": 108.06897207053338}, "feature": {"sight_features": "", "sight_content": ""}}, {"title": "施秉深冲金桔种植基地", "address": "新红村深冲组", "image": "", "rank": 14, "time": 3.0, "location": {"lat": 26.982393819848483, "lng": 108.06897207053338}, "feature": {"sight_features": "", "sight_content": ""}}, {"title": "都匀桥农家乐", "address": "城关镇云台山", "image": "", "rank": 15, "time": 2, "location": {"lat": 31.2622638981042, "lng": 114.60504056376608}, "feature": {"sight_features": "", "sight_content": ""}}, {"title": "迎仙桥农家乐", "address": "城关镇云台山", "image": "", "rank": 16, "time": 2, "location": {"lat": 31.2622638981042, "lng": 114.60504056376608}, "feature": {"sight_features": "", "sight_content": ""}}, {"title": "都市森林康养基地", "address": "黔东南苗族侗族自治州施秉县城关镇新桥村大营垴", "image": "", "rank": 17, "time": 2, "location": {"lat": 26.96894682790271, "lng": 108.03580906911711}, "feature": {"sight_features": "", "sight_content": "都市森林康养基地山清水秀，空气清新，环境优美，是休闲游玩的好去处，带给你休闲的美妙时光。园内有动物园、彩虹滑道等娱乐项目，是放松身心的好去处。"}}, {"title": "杉木河", "address": "贵州省施秉县西北部", "image": "", "rank": 18, "time": 2, "location": {"lat": 27.03982205173296, "lng": 108.13043978205083}, "feature": {"sight_features": "", "sight_content": ""}}, {"title": "施秉县中国漂城步行街", "address": "贵州省施秉县环城东路", "image": "", "rank": 19, "time": 2, "location": {"lat": 27.041780117334, "lng": 108.13514178258015}, "feature": {"sight_features": "", "sight_content": ""}}, {"title": "白沙井林场", "address": "黔东南苗族侗族自治州-施秉县-杉木河路与818县道交叉口西北150米", "image": "", "rank": 20, "time": 2, "location": {"lat": 27.0476321197833, "lng": 108.12268653324762}, "feature": {"sight_features": "", "sight_content": ""}}, {"title": "杉木河白沙井浅滩游泳", "address": "黔东南苗族侗族自治州-施秉县-杉木河路与818县道交叉口东北150米", "image": "", "rank": 21, "time": 2, "location": {"lat": 27.0476321197833, "lng": 108.12268653324762}, "feature": {"sight_features": "", "sight_content": ""}}]}