{"cityName": "石城", "days": 2, "cityImage": "", "spots": [{"title": "石城通天寨", "address": "赣州市石城县琴江镇钱江村", "image": "", "rank": 1, "time": 2.5, "location": {"lat": 26.33855634409673, "lng": 116.34165295986864}, "feature": {"sight_features": "特色1 江西省省级森林公园，国家级地质公园", "sight_content": "有着“千佛丹霞，通天胜境”之称的江西省通天寨森林公园位于赣州市石城县城东南5公里处的琴江镇大畲村、前江村境内，是省级重点森林公园，赣州市首个省级地质公园，国家AAAA级景区。通天寨因寨上主岩“外如两指相箝，内若两掌半，仰视苍穹似可通天”而得名，素有“石怪、洞泉美、茶香、佛盛”之美益。园区内山石险峻，峰峦璀巍，主峰海拔601.7米。\n寨上环峦叠翠，生态宜人；寨中清泉四季流淌，竹木青翠如海；寨下碧水环绕，土地肥沃，自然资源得天独厚。\n在方圆2公里的核心区内，集中分布有通天岩石笋干霄、仙人犁田、生命之门、玉盂寺、净土岩、试剑石、钟鼓石、菩萨坐禅及荷花观光园等自然和人文景观100余处，是一处心观光、健身、科普、客家民俗展示和宗教朝圣的丹霞地貌风景旅游区。"}}, {"title": "九寨温泉度假庄园", "address": "赣州市石城县九寨温泉", "image": "", "rank": 2, "time": 2, "location": {"lat": 26.255647861829036, "lng": 116.37551449083568}, "feature": {"sight_features": "特色1 江西乃至全国少有的“双料”温泉", "sight_content": "九寨温泉度假庄园坐落于江西赣州石城境内，景区项目规模庞大，规划面积8000亩，坐拥20平方公里的通天寨省级森林公园。\n九寨温泉地质奇特，属著名地质学家李四光所称的新华夏构造体系，丹霞盆地群和南武夷山绿色山脉相接，既雄奇又秀美，在这里，温泉与飞瀑交融，丛林的绿海和丹霞岩的猩红相衬色；悬崖之上，云雾蒸腾，红砂映日，恍若仙境；峰峦回处，溪流蜿蜒，山花烂漫，一派田园牧歌的景象，在这“世外桃源”，你可以远离尘世喧闹，全身心地沐浴在温泉的脉脉柔情之中，领略温泉的万种风情；这种大自然的巧妙布局与造化之美，试问何处可与之相比！正所谓：世外桃源此处寻，温泉涓涓奏清音。有缘相约在九寨，宾至如归喜满心。\n九寨温泉区位于景区核心地带的天然峡谷之中，庄园依据峡谷自然的地理环境，结合九寨温泉特有的疗养、美容等功效，科学设计了大小共四十多个富有特色的温泉泡池，如：微波spa、水疗spa、牛奶池、香薰玫瑰池、五行spa、东巴水台、峡谷spa、亲亲鱼疗池、干蒸房等。酒店温泉区设有理疗中心,兵乓球、斯诺克台球、自动麻将室、3d影院等。\n九寨温泉-水上游乐园项目位于景区入口处左侧，与温泉相连接，同时是通票，属于景区中又一个亮点。\n内容：\n1） 巨兽碗：精彩、刺激给游客清凉的水世界探险增添活泼与动感。\n\n2）三彩滑道： 小小的挑战带来清凉之旅。\n\n3）巨蟒滑道： 挑战性的玩酷让游客脱离沉闷的游泳，全身心体验惊险的乐趣。\n4）海浪池：最高可形成1.5米高的浪潮，适合家庭玩乐，情侣踏浪，年轻人冲浪。\n5）儿童翻斗乐：亲子乐园的世界。\n\n6）儿童乐园：适合小朋友，大朋友，全身心投入童话般的玩水区。"}}, {"title": "赛石城花乐园", "address": "赣州市石城县大畲村", "image": "", "rank": 3, "time": 2, "location": {"lat": 26.30064156040174, "lng": 116.3879596593838}, "feature": {"sight_features": "特色1 四季百万主题花海 特色2 99座豪华双层旋转木马 特色3 30万方无动力儿童主题乐园", "sight_content": "赛石城·花乐园位于石城县城东南6公里处的大畲村境内、国家4A级景区通天寨景区旁，主要由花海游乐园和花朝园两部分构成，共有23个区域,总占地面积约450亩。花乐园于2017年2月始建，2017年10月即建成并对外营业，这里因花海、温泉、游乐设施而得名，以幸福、欢乐、养生而著称。\n小火车：小火车为无轨设计，整个乐园共配备有 3 台，其中花海乐园 2 台，花朝园 1 台，每台小火车有 4 节车厢，共长 11.6m、宽 1.15m、高 1.92m，荷载人数为24 人。三辆小火车车身颜色各不一样，外观造型逼真，分别是根据小朋友们喜欢的小黄人、小猪佩奇、卡通涂鸦造型设计。\n露天剧场：整个露天剧场建设面积为 3500 平方米，剧场气势恢宏，可容纳 350 人，是典型的客家风情大舞台。这里每天都有采茶戏、客家灯彩等地方戏表演，露天剧场还是婚俗表演“选新郎”的主场景，也是花海乐园的代表景点之一。\n旋转木马：这是国内目前可定制的最大双层豪华旋转木马，也是全球最大双层旋转木马，上下两层共99座。旋转木马顶棚为彩色锥形，周圈装有五彩缤纷的玻璃钢装饰板，非常的豪华气派，就像华丽的跑马厅，厅中央有起伏奔跑的大小马群，设备启动后，金光银光，闪闪相映，马群、马车竞相赛跑，形成一个万马奔腾的场面，乘客如同在参加一场跑马赛。\n奇幻森林乐园：奇幻森 林乐园为无动力游乐区，规划面积 3000 平方米，配备有全套进口、 专业设计的无动力游乐设备设施。无动力游乐设备是特指不借助任何 非自然外力及能源而具备游乐设备特质的主动体验型设备、设施。例 如:攀、爬、钻、跑、跳等等各种对协调能力、力量的训练。除了独 具特色的专业游乐设施外，乐园在该区域更建设有面积达 1400 平方 米的绿化草坪，设施场地和自然有机结合，将各种材料进行创意设计。 让孩子们减少对电动设备的依赖，鼓励孩子们寻找趣味，提高他们的 注意力、洞察力和创造力，回归真切的大自然。\n攀岩墙：攀岩运动有“岩壁芭蕾”的美称，由登山运动衍生而来，富有很强的技巧性与冒险性，是极限运动中的一个重要项目，能训练攀爬者体能，锻炼攀爬者的意志，花乐园的攀岩墙高度10米，彩色岩壁。\n戏水乐园：朋友们，现在我们来到的是戏水乐园，花乐园戏水乐园总规划面积为5000平方米，采用百余套进口戏水游乐设备精心打造而成，戏水乐园背倚月亮溪，以水景为特色、水上活动为内容，所有游玩项目既刺激又安全。依不同主题，在戏水乐园内我们建造了植物喷水乐园、海盗船乐园、动物戏水乐园戏水区、金色沙滩游憩区、水岸休闲广场区等，海洋水屋、企鹅滑梯、大象滑梯、跷跷板、苹果屋、蜗牛喷水、花蕾喷水设备众多，这些设备设施色彩鲜亮，设计风格活泼，活动难度不大，好玩又符合戏水安全要求。在这里，朋友们可以领略浪花冲击的无限快感、可以享受海滨风情的休闲浪漫、可以随时感受徜徉溪流的美妙乐趣，超大的戏水空间、顶尖的配套设施、清新宜人的环境、 贴心优质的服务让您尽情体验水上乐趣。\n原始部落群：在这里，我们可以一起回归原始，感受一下沙与土的温度。原始部落乐园为沙坑无动力游乐区，规划面积为1700平方米，整个原始部落乐园采用全套进口无动力游乐专业设备设计。乐园内设有灯塔瞭望、沙坑平衡木、沙坑穿越、沙坑滑梯等游乐设施，通过在不同的设施中玩乐，小朋友们可以获得不同的感官体验，既能锻炼平衡能力和肢体协调功能，又能增强自信心和成就感。\n海洋探险乐园：这里虽然不是真 正的大海，却有着和大海一样的乐趣哦。海洋探险乐园是仿海洋生态 的塑胶无动力游乐区，规划面积为3000平方米。整个乐园采用的是 进口 EPDDM 安全地垫全套铺设，顶级无动力游乐专业设备设计让小朋 友们的探险更具安全性，而且也更加有趣!乐园地垫采用蓝色色调， 营造出的是海洋的主题。游乐区内装备的游乐设施各式各样，有帆船 滑梯组合、帆影冲绳、大鲸鱼探险、蜘蛛侠攀爬架等。在蔚蓝的海洋 中开心滑梯、勇敢探险、攀爬，孩子们的视觉识别能力、探索能力、儿童具象思维能力以及视觉发育都能得到很好的开发与提高，通过与小朋友们共同玩乐，也更容易让他们形成乐观向上、富于观察、乐于思考的个性。\n亲子卡丁车：花乐园亲子卡丁车区域规划面积达4000平方米，铺设了500米硬质铺装专业赛道。乐园共配备有15台亲子双人型卡丁车及多台单人卡丁车投入使用。驾驶卡丁车可以锻炼人的灵敏度，并能对大脑、眼睛、手脚及身体其他部位进行很好的协调，是锻炼勇敢精神的最佳选择，也是一项有益健康的体育娱乐活动。\n动物乐园：动物乐园为混合无动力游乐区，面积达600平方米，整个乐园内采用全套进口无动力游乐专业设备设计，同时将各种动物造型引入游乐区，为了孩子们提供了更多的娱乐空间，增加了乐园的趣味性及互动性。动物乐园不仅能让小朋友与动物有更多的接触，增强孩子们的爱心，更能陪养孩子们的耐心和耐力，激发潜能。\n风雨廊桥：这座风雨廊桥是仿照客家村落廊桥建成，充满了客家风情。大家 看!顺着我手指的方向是廊屋，古人把拱桥和高低梁式桥相结合，产 生了“混血儿”，您看，它像廊又像桥，还特别像亭子。生动地体现了我国古代精湛高超的建筑艺术。现在交通越来越发达，虽然它已经不像从前那么喧嚣与繁华，但是仍然给过往的行人在桥上纳凉休息，躲避风雨日晒，闲聊提供了方便。客家先辈避暑乘凉、遮风避雨的农耕生活犹在眼前。\n望月台：走过风雨廊桥，我们现在来到的是望月台。如果说廊桥是西方人见证爱情的地方，那么此处的望月台就是我们东方人互诉衷肠的去处。明月当空，酒醉无眠，舞长剑情思斩不断，为爱苦苦等了千年！站在这望月台上观花赏月，淡淡的离别忧伤让现今的有情人更懂珍惜了！\n仙姑亭：这座灵美秀俊的两层八角亭叫仙姑亭，是为纪念石城县仙姑刘瑶英而建造的，整个仙姑亭灵美秀俊，主体色调以客家建筑的青砖黛瓦为主，和四处秀丽的风景融合在一起，散发着浓郁的客家气息，体现了客家“大气如山、淳朴崇文”的人文精神。\n观花台：这里是花朝园内地势较高的地方，在此，我们建造了这座观花台，可以一览花朝园的全景。观花赏景，观花台就是最佳之处了！让我们一起登上观花台欣赏一下花朝园内的花海美景吧！\n映山红林：映山红是我们江西省的省花，学名杜鹃。杜鹃花属双子叶植物纲杜鹃花科，是我国中南及西南典型的酸性土指示植物。这里种植的是江西本土杜鹃，树干虽短小精干，但花期较长，一簇簇花朵紧密连接而成的花冠非常大，每簇花都有2-6朵，花冠呈漏斗形，花的颜有红、淡红、杏红、雪青、白色等，花色繁茂艳丽，每当春天来临时，杜鹃花便漫山遍野怒放开来，远远望去犹如山林染了涂了胭脂。\n爱情长廊：爱情长廊上挂满紫色藤蔓，充满了浪漫气息。人们对于爱情的追求，自古以来就从未停息。爱情需要勇敢的追逐与时间的考验，在爱情的长廊里，我们既要体验爱的浪漫，同时，相爱的两个人更应该知道：“让人心动的，不只是青春的脸庞，还有你脸上时光的痕迹；让我深爱的，不只是你可爱的笑颜，还有你发脾气时微怒的表情。因为爱，你是我眼中这世界最美的风景！”\n久留园：由于日本就留米杜鹃的发展与流传上发挥的重要作用，我们园区内也引进种植了大量的久留米杜鹃品种，因此，我们把花朝园进口杜鹃区命名为久留园，寓意我们园区的杜鹃花永久流传，吸引五湖四海的朋友们来到花朝园并久留此地！久留园内载种的进口杜鹃品种主要有：久留米杜鹃、满山红、鹿儿岛、石岩杜鹃等。\n驸马亭：驸马亭是石城县内著名景点。关于这座亭，当地流传着这样一个故事。巫双瑞是南宋时石城县城廓头街人，自小便勤奋好学。年纪轻轻就中进士第三名，探花及第。后来迎娶理宗公主，成为内宫监院驸马。曾统理诸军都督府大都督、光禄上卿。晚年因为年迈体衰回家乡石城，夫妇俩天天诵经奉佛请求国泰民安。南宋灭亡，夫妇悲痛欲绝，双双上吊自尽，以死殉国。他弟弟巫必超是宋朝进士，官授吏部宣读，率家人改姓黄，称“巫府黄”，繁衍发展至今，发展成石城黄姓重要一支。人们为纪念他是忠臣，修建驸马亭。后来巫氏宗亲遍布全球各地，还时常回到此地拜访看望先辈，以表示不忘先辈生养之恩。您可以在亭子中多坐一会儿，相信您一定会沾上好运，事业有成，前程似锦。"}}, {"title": "石城3D艺术体验馆", "address": "赣州市石城县宝塔旁旅游集散中心二楼", "image": "", "rank": 4, "time": 1.5, "location": {"lat": 26.31897234678407, "lng": 116.35259426977315}, "feature": {"sight_features": "", "sight_content": ""}}, {"title": "八卦脑景区", "address": "赣州市石城县高田镇新坪村", "image": "", "rank": 5, "time": 0.25, "location": {"lat": 26.512176407397344, "lng": 116.49093006819473}, "feature": {"sight_features": "", "sight_content": ""}}, {"title": "九寨温泉", "address": "屏山镇长江村的迳口陂处石城琴江镇九寨温泉度假庄园", "image": "", "rank": 6, "time": 2, "location": {"lat": 26.247513824239334, "lng": 116.37683791852953}, "feature": {"sight_features": "", "sight_content": ""}}, {"title": "鳄鱼漆", "address": "东城北大道38附近", "image": "", "rank": 7, "time": 2, "location": {"lat": 26.330028489598135, "lng": 116.35631321236286}, "feature": {"sight_features": "", "sight_content": ""}}, {"title": "回兰寺", "address": "赣州市石城县", "image": "", "rank": 8, "time": 2, "location": {"lat": 26.31897234678407, "lng": 116.35259426977315}, "feature": {"sight_features": "", "sight_content": ""}}, {"title": "龚氏祠堂", "address": "江西省赣州市石城县", "image": "", "rank": 9, "time": 1.5, "location": {"lat": 26.31897234678407, "lng": 116.35259426977315}, "feature": {"sight_features": "", "sight_content": ""}}, {"title": "石城县博物馆", "address": "琴江东路153号", "image": "", "rank": 10, "time": 2, "location": {"lat": 26.329161273708547, "lng": 116.35256997060911}, "feature": {"sight_features": "", "sight_content": ""}}, {"title": "华鑫画廊", "address": "琴江镇西华中路73号", "image": "", "rank": 11, "time": 2, "location": {"lat": 26.330784480052216, "lng": 116.34566258064672}, "feature": {"sight_features": "", "sight_content": ""}}, {"title": "石城县兴隆步行街", "address": "江西省石城县兴隆东路", "image": "", "rank": 12, "time": 2, "location": {"lat": 26.34012860180326, "lng": 116.35413872643595}, "feature": {"sight_features": "", "sight_content": ""}}, {"title": "章田背", "address": "赣州市-石城县", "image": "", "rank": 13, "time": 2, "location": {"lat": 26.31897234678407, "lng": 116.35259426977315}, "feature": {"sight_features": "", "sight_content": ""}}, {"title": "章西坑", "address": "赣州市-石城县", "image": "", "rank": 14, "time": 2, "location": {"lat": 26.31897234678407, "lng": 116.35259426977315}, "feature": {"sight_features": "", "sight_content": ""}}, {"title": "石陀上", "address": "赣州市-石城县-通天寨风景区", "image": "", "rank": 15, "time": 2, "location": {"lat": 26.27555858054214, "lng": 116.37343936198967}, "feature": {"sight_features": "", "sight_content": ""}}, {"title": "云海阁洗浴中心", "address": "赣州市石城县琴江镇仙姑岭赣源中学东侧", "image": "", "rank": 16, "time": 2, "location": {"lat": 26.325640745997823, "lng": 116.36788162575047}, "feature": {"sight_features": "", "sight_content": "雲海阁投资600万余元打造的3000平米石城首家精品韩式汗蒸养生洗浴，是一家集汗蒸、洗浴、儿童乐园、足浴、按摩、大厅休息、简餐为一体的综合性场所，为丰富石城群众休闲生活增添一份色彩！"}}]}