{"cityName": "施甸", "days": 2, "cityImage": "", "spots": [{"title": "石瓢温泉", "address": "太平镇境内", "image": "", "rank": 1, "time": 2, "location": {"lat": 45.64015256119406, "lng": 126.2051753893417}, "feature": {"sight_features": "", "sight_content": ""}}, {"title": "施甸县承德果蔬有限公司", "address": "229省道施甸县承德果蔬协会附近", "image": "", "rank": 2, "time": null, "location": {"lat": 24.814372507381123, "lng": 99.16606701441515}, "feature": {"sight_features": "", "sight_content": ""}}, {"title": "好运来农家乐", "address": "文化路附近", "image": "", "rank": 3, "time": 2, "location": {"lat": 39.74005789896059, "lng": 116.15120920962735}, "feature": {"sight_features": "", "sight_content": ""}}, {"title": "南方丝路", "address": "云南省施甸县境内 678200", "image": "", "rank": 4, "time": 2, "location": {"lat": 24.728835000146223, "lng": 99.19546936222197}, "feature": {"sight_features": "", "sight_content": ""}}, {"title": "戒月庵", "address": "山脚村附近", "image": "", "rank": 5, "time": 2, "location": {"lat": 29.840328286913643, "lng": 118.77389888353964}, "feature": {"sight_features": "", "sight_content": ""}}, {"title": "水泊山庄", "address": "197县道附近", "image": "", "rank": 6, "time": 2, "location": {"lat": 23.25633487517183, "lng": 111.05954051509356}, "feature": {"sight_features": "", "sight_content": ""}}, {"title": "旧城清水河温泉农家乐", "address": "旧城清水河", "image": "", "rank": 7, "time": 2, "location": {"lat": 39.92633385438891, "lng": 111.653576488034}, "feature": {"sight_features": "", "sight_content": ""}}, {"title": "老麦农场", "address": "140乡道附近", "image": "", "rank": 8, "time": 2, "location": {"lat": 33.86234936517664, "lng": 118.84982251826031}, "feature": {"sight_features": "", "sight_content": ""}}, {"title": "施甸县图书馆", "address": "甸阳北路", "image": "", "rank": 9, "time": 2, "location": {"lat": 24.741672045085632, "lng": 99.18933079152157}, "feature": {"sight_features": "", "sight_content": ""}}, {"title": "小磊有机农庄", "address": "仁和镇中和村(沙墩桥向西直走500米)", "image": "", "rank": 10, "time": 2, "location": {"lat": 24.782446247558138, "lng": 99.16774455953073}, "feature": {"sight_features": "", "sight_content": ""}}, {"title": "云南省保山市施甸县步行街", "address": "云南省施甸县交通路利民旅社附近", "image": "", "rank": 11, "time": 2, "location": {"lat": 24.734509901949863, "lng": 99.19272899233246}, "feature": {"sight_features": "", "sight_content": ""}}, {"title": "冷法寺", "address": "保山市-施甸县-酒房小寨大岔路--黑山门", "image": "", "rank": 12, "time": 2, "location": {"lat": 24.49918601204415, "lng": 99.11850694784948}, "feature": {"sight_features": "", "sight_content": ""}}, {"title": "施甸县城乡规划展示馆", "address": "保山市-施甸县-S229(甸阳路", "image": "", "rank": 13, "time": 2, "location": {"lat": 24.73186837792151, "lng": 99.18985923770376}, "feature": {"sight_features": "", "sight_content": ""}}]}