{"cityName": "石河子", "days": "", "cityImage": "", "spots": [{"title": "新疆兵团军垦博物馆", "address": "石河子市北三路59号", "image": "", "rank": 1, "time": 1.0, "location": {"lat": 44.30790654452696, "lng": 86.0463731995165}, "feature": {"sight_features": "", "sight_content": ""}}, {"title": "驼铃梦坡沙漠生态旅游景区", "address": "石河子市生产建设兵团农八师150团", "image": "", "rank": 2, "time": 2, "location": {"lat": 44.31197647806301, "lng": 86.08688567193293}, "feature": {"sight_features": "", "sight_content": ""}}, {"title": "音乐文化广场", "address": "新疆维吾尔自治区石河子市二号小区", "image": "", "rank": 3, "time": 1.0, "location": {"lat": 44.31197647806301, "lng": 86.08688567193293}, "feature": {"sight_features": "", "sight_content": ""}}, {"title": "周恩来总理纪念碑", "address": "石河子市北泉路360号", "image": "", "rank": 4, "time": null, "location": {"lat": 44.34414069954144, "lng": 86.02482532184007}, "feature": {"sight_features": "", "sight_content": ""}}, {"title": "人民公园", "address": "石河子市北三路与西一路交汇处的西南端。", "image": "", "rank": 5, "time": 2.5, "location": {"lat": 44.307217563118165, "lng": 86.03436798803526}, "feature": {"sight_features": "", "sight_content": ""}}, {"title": "音乐喷泉", "address": "位于石河子游憩广场内", "image": "", "rank": 6, "time": 0.75, "location": {"lat": 44.3044909343406, "lng": 86.04305481584397}, "feature": {"sight_features": "", "sight_content": ""}}, {"title": "桃源旅游区", "address": "新疆石河子143团卡子湾水库", "image": "", "rank": 7, "time": 1.5, "location": {"lat": 44.31197647806301, "lng": 86.08688567193293}, "feature": {"sight_features": "", "sight_content": "石河子桃源旅游区成立于2004年5月，由2万亩蟠桃园、蓝湾莲花湖和三百多年的佛教寺庙组成，近几年已陆续对景区完善了水、电、路、停车场、餐饮区、厕所及标识标牌等基础设施，建成了以军垦文化、佛教文化、哈萨克风情文化为特色文化的旅游风景区。"}}, {"title": "石河子大学", "address": "石河子市向阳街道北四路221号石大派出所附近", "image": "", "rank": 8, "time": 1.0, "location": {"lat": 44.313917672147056, "lng": 86.06381607864634}, "feature": {"sight_features": "", "sight_content": ""}}, {"title": "艾青诗歌馆", "address": "新疆维吾尔自治区石河子市中心2号小区", "image": "", "rank": 9, "time": 1.0, "location": {"lat": 44.31197647806301, "lng": 86.08688567193293}, "feature": {"sight_features": "", "sight_content": ""}}, {"title": "巴音山庄", "address": "位于巴管处渠首，地处天山北坡巴音沟河出山口。", "image": "", "rank": 10, "time": 2, "location": {"lat": 43.80027135831345, "lng": 87.63840777756565}, "feature": {"sight_features": "", "sight_content": ""}}, {"title": "王震将军雕像", "address": "石河子市游憩广场的南端正中", "image": "", "rank": 11, "time": null, "location": {"lat": 44.3044909343406, "lng": 86.04305481584397}, "feature": {"sight_features": "", "sight_content": ""}}, {"title": "西城蟠桃园", "address": "在距石河子15公里的一四三团团部", "image": "", "rank": 12, "time": 2, "location": {"lat": 44.31197647806301, "lng": 86.08688567193293}, "feature": {"sight_features": "", "sight_content": ""}}, {"title": "西部民俗风情园", "address": "石河子市北泉镇，周恩来总理纪念碑2公里处", "image": "", "rank": 13, "time": null, "location": {"lat": 44.33519387853273, "lng": 85.99330790543587}, "feature": {"sight_features": "", "sight_content": ""}}, {"title": "军垦第一犁", "address": "石河子市中心游憩广场内", "image": "", "rank": 14, "time": 1.0, "location": {"lat": 44.3044909343406, "lng": 86.04305481584397}, "feature": {"sight_features": "", "sight_content": ""}}, {"title": "北湖公园", "address": "塔城地区沙湾县大泉沟派出所东侧", "image": "", "rank": 15, "time": 1.5, "location": {"lat": 44.453129576894455, "lng": 85.98889332143598}, "feature": {"sight_features": "", "sight_content": ""}}, {"title": "军垦博物馆", "address": "新疆维吾尔自治区石河子市街心花园正南", "image": "", "rank": 16, "time": 1.0, "location": {"lat": 44.31197647806301, "lng": 86.08688567193293}, "feature": {"sight_features": "", "sight_content": ""}}, {"title": "新疆张裕巴保男爵酒庄", "address": "石河子市高新区科教路81号", "image": "", "rank": 17, "time": 2, "location": {"lat": 44.31197647806301, "lng": 86.08688567193293}, "feature": {"sight_features": "特色1 以”浪漫法兰西，梦幻酒城堡”为主题", "sight_content": "‍‍    新疆张裕巴保男爵酒庄已成为集葡萄种植、原酒加工、成品酒生产与销售、餐饮接待、会议服务、参观旅游、婚纱摄影、葡萄酒文化普及为一体的综合性企业。酒庄的整体建筑风格以19世纪法国古典建筑风格为主，以主城堡为中心分为三个环线，建筑分布如 “谷”字。预示企业蓬勃发展，结出累累硕果。\n巴保酒庄占地1000亩，拥有亚洲最大的地下环形酒窖以及是北疆最大的婚纱摄影基地。\n\n\n‍‍ 酒庄集合的参观项目有葡萄长廊、球幕影院、浪漫欧式风情城堡、巴保圆梦星工场——游客灌装体验站、个性化定制酒标、讲述张裕百年历史的酒文化博物馆、各式各样奇幻3D壁画、非常好玩的醉酒小屋、传递军垦兵团文化的剪纸区、动感4D传梦影院以及6000平米古朴大气的地下大酒窖，创造了一个葡萄酒桶储与瓶储区的宁静摇篮。在这里，游客朋友还可以品一品红酒，感受游览的乐趣。"}}, {"title": "迷途石河子旗舰店", "address": "石河子市北四路天富名城东北角恒和大厦2单元9楼901室", "image": "", "rank": 18, "time": 2, "location": {"lat": 44.310395680837225, "lng": 86.07670847416618}, "feature": {"sight_features": "", "sight_content": ""}}, {"title": "军垦第一井", "address": "石河子市游憩广场东南方", "image": "", "rank": 19, "time": 1.0, "location": {"lat": 44.3044909343406, "lng": 86.04305481584397}, "feature": {"sight_features": "", "sight_content": ""}}, {"title": "石河子垦区沙漠公园", "address": "石河子市150团境内，市区以北110公里处", "image": "", "rank": 20, "time": 1.0, "location": {"lat": 44.31197647806301, "lng": 86.08688567193293}, "feature": {"sight_features": "", "sight_content": ""}}, {"title": "军垦第一连", "address": "石河子市红山脚下新疆生产建设兵团农八师一五二团境内（军垦路的尽头）。", "image": "", "rank": 21, "time": 1.0, "location": {"lat": 44.20956850781133, "lng": 86.087494502894}, "feature": {"sight_features": "", "sight_content": ""}}, {"title": "边塞新乐章", "address": "位于石河子市游憩广场内", "image": "", "rank": 22, "time": 1.0, "location": {"lat": 44.3044909343406, "lng": 86.04305481584397}, "feature": {"sight_features": "", "sight_content": ""}}, {"title": "石河子图书馆", "address": "北环路46-33号", "image": "", "rank": 23, "time": 1.5, "location": {"lat": 39.14099475376826, "lng": 116.03023558966697}, "feature": {"sight_features": "", "sight_content": ""}}, {"title": "大风车儿童乐园", "address": "夕阳红街五星广场月牙楼西侧大风车儿童乐园(军垦博物馆后面)", "image": "", "rank": 24, "time": 2, "location": {"lat": 34.76851144996914, "lng": 113.66730440773296}, "feature": {"sight_features": "", "sight_content": ""}}, {"title": "石河子南山风景区", "address": "新疆维吾尔自治区石河子市市区南约80公里处", "image": "", "rank": 25, "time": 4.0, "location": {"lat": 44.31197647806301, "lng": 86.08688567193293}, "feature": {"sight_features": "", "sight_content": ""}}, {"title": "石河子市政广场", "address": "新疆维吾尔自治区，石河子", "image": "", "rank": 26, "time": 1.0, "location": {"lat": 44.31197647806301, "lng": 86.08688567193293}, "feature": {"sight_features": "", "sight_content": ""}}, {"title": "二号小区广场", "address": "二号小区", "image": "", "rank": 27, "time": 2, "location": {"lat": 40.70912656813438, "lng": 120.85171844556173}, "feature": {"sight_features": "", "sight_content": ""}}, {"title": "世纪广场", "address": "东四路北三东路口", "image": "", "rank": 28, "time": 2.5, "location": {"lat": 39.934867106131556, "lng": 116.42933050636678}, "feature": {"sight_features": "", "sight_content": ""}}, {"title": "勺子农家乐", "address": "515乡道东200米附近", "image": "", "rank": 29, "time": 2, "location": {"lat": 35.37720857982394, "lng": 113.08436330673442}, "feature": {"sight_features": "", "sight_content": ""}}, {"title": "朱科学桃园", "address": "石南农场花果山", "image": "", "rank": 30, "time": 2, "location": {"lat": 39.83808249650614, "lng": 118.17461420628003}, "feature": {"sight_features": "", "sight_content": ""}}, {"title": "世纪公园", "address": "东三路与北四路交界处(近师市政府)", "image": "", "rank": 31, "time": 1.5, "location": {"lat": 30.20093181038491, "lng": 120.69306250844159}, "feature": {"sight_features": "", "sight_content": ""}}, {"title": "石河子高新农业技术园", "address": "新疆维吾尔自治区石河子市北泉镇", "image": "", "rank": 32, "time": 1.0, "location": {"lat": 44.33519387853273, "lng": 85.99330790543587}, "feature": {"sight_features": "", "sight_content": ""}}, {"title": "鱼米水乡欢乐谷", "address": "西一路西公园鱼米水乡生态园内", "image": "", "rank": 33, "time": 2, "location": {"lat": 23.757135491786862, "lng": 114.6867991294954}, "feature": {"sight_features": "", "sight_content": ""}}, {"title": "绿茵铁路渡假村", "address": "东三路火车站东200米", "image": "", "rank": 34, "time": 2, "location": {"lat": 22.537380684816554, "lng": 114.12617784031542}, "feature": {"sight_features": "", "sight_content": ""}}, {"title": "天润葡萄庄园", "address": "312国道", "image": "", "rank": 35, "time": 2, "location": {"lat": 31.33241303413939, "lng": 120.99854638594724}, "feature": {"sight_features": "", "sight_content": ""}}, {"title": "博爱垂钓园", "address": "204省道", "image": "", "rank": 36, "time": 2, "location": {"lat": 38.05803661623474, "lng": 114.77437992974008}, "feature": {"sight_features": "", "sight_content": ""}}, {"title": "高新农业技术示范园区", "address": "总场北泉镇", "image": "", "rank": 37, "time": 2, "location": {"lat": 44.33519387853273, "lng": 85.99330790543587}, "feature": {"sight_features": "", "sight_content": ""}}, {"title": "石河子群众艺术馆", "address": "新疆维吾尔自治区石河子市西环路与北二路交叉口", "image": "", "rank": 38, "time": 1.0, "location": {"lat": 44.30312843391133, "lng": 86.04196439431593}, "feature": {"sight_features": "", "sight_content": ""}}, {"title": "石河子起瓶器博物馆", "address": "东五路12-4号(近金波港洗浴)", "image": "", "rank": 39, "time": 1.0, "location": {"lat": 44.316588625763266, "lng": 86.0924759011419}, "feature": {"sight_features": "", "sight_content": ""}}, {"title": "麒麟乐园", "address": "温州商业街天宏商贸城4楼", "image": "", "rank": 40, "time": 2, "location": {"lat": 44.31678390133855, "lng": 86.04014540012776}, "feature": {"sight_features": "", "sight_content": ""}}, {"title": "趋势传媒", "address": "兵团一四三团石南农场香多里", "image": "", "rank": 41, "time": 2, "location": {"lat": 44.25268942778366, "lng": 85.95568876241958}, "feature": {"sight_features": "", "sight_content": ""}}, {"title": "儿童探索乐园", "address": "新城永家超市", "image": "", "rank": 42, "time": 2, "location": {"lat": 34.272724469532555, "lng": 108.96739103850439}, "feature": {"sight_features": "", "sight_content": ""}}, {"title": "形道馆", "address": "北四路青年文化宫大院内(近民航售票处)", "image": "", "rank": 43, "time": null, "location": {"lat": 44.31330705680538, "lng": 86.04721477173352}, "feature": {"sight_features": "", "sight_content": ""}}, {"title": "华美轩餐厅(石河子店)", "address": "北泉花园友谊路188号", "image": "", "rank": 44, "time": 2, "location": {"lat": 44.338934626476274, "lng": 86.02705956933838}, "feature": {"sight_features": "", "sight_content": ""}}, {"title": "石子画廊", "address": "东六路66-3", "image": "", "rank": 45, "time": 2, "location": {"lat": 44.310000772745326, "lng": 86.09903950491672}, "feature": {"sight_features": "", "sight_content": ""}}, {"title": "艺新画廊", "address": "北一路171-2号", "image": "", "rank": 46, "time": 2, "location": {"lat": 44.29938387860857, "lng": 86.04566848926426}, "feature": {"sight_features": "", "sight_content": ""}}, {"title": "金家桃园", "address": "老二连附近", "image": "", "rank": 47, "time": 2, "location": {"lat": 23.100931760317003, "lng": 113.27528273950196}, "feature": {"sight_features": "", "sight_content": ""}}, {"title": "一名水上乐园", "address": "南子午路187号", "image": "", "rank": 48, "time": 2, "location": {"lat": 44.29857369470772, "lng": 86.04641754769172}, "feature": {"sight_features": "", "sight_content": ""}}, {"title": "艾青故居诗歌馆", "address": "新疆石河子市北二路21号", "image": "", "rank": 49, "time": 2, "location": {"lat": 44.303667159239076, "lng": 86.04446274507146}, "feature": {"sight_features": "", "sight_content": ""}}, {"title": "周恩来纪念碑馆", "address": "新疆维吾尔自治区石河子市北泉镇", "image": "", "rank": 50, "time": 2, "location": {"lat": 44.33519387853273, "lng": 85.99330790543587}, "feature": {"sight_features": "", "sight_content": ""}}, {"title": "石河子温州商业街", "address": "新疆维吾尔自治区石河子市协和医院西侧", "image": "", "rank": 51, "time": 1.0, "location": {"lat": 44.31197647806301, "lng": 86.08688567193293}, "feature": {"sight_features": "", "sight_content": ""}}, {"title": "石河子新世纪步行街", "address": "新疆维吾尔自治区石河子市东五路", "image": "", "rank": 52, "time": 1.0, "location": {"lat": 44.3125321848856, "lng": 86.09220386423006}, "feature": {"sight_features": "", "sight_content": ""}}, {"title": "碧野渔村水上乐园", "address": "石河子市-石河子市-八一路口北1.5km", "image": "", "rank": 53, "time": 2, "location": {"lat": 44.31197647806301, "lng": 86.08688567193293}, "feature": {"sight_features": "", "sight_content": ""}}]}