{"cityName": "石楼", "days": null, "cityImage": "", "spots": [{"title": "荣林生态园", "address": "新建路", "image": "", "rank": 1, "time": 2, "location": {"lat": 39.164365704750224, "lng": 117.21108062489954}, "feature": {"sight_features": "", "sight_content": ""}}, {"title": "未来之星儿童乐园", "address": "吕梁市石楼县", "image": "", "rank": 2, "time": 2, "location": {"lat": 37.00447050301227, "lng": 110.84159553247896}, "feature": {"sight_features": "", "sight_content": ""}}, {"title": "沁园山庄", "address": "山西省吕梁市石楼县灵泉镇后王村", "image": "", "rank": 3, "time": 2, "location": {"lat": 36.988426597266624, "lng": 110.81368410860547}, "feature": {"sight_features": "", "sight_content": ""}}, {"title": "沁园春广场", "address": "沁园春大道与瑞金街交叉口西50米", "image": "", "rank": 4, "time": null, "location": {"lat": 37.00851027822465, "lng": 110.8281099006715}, "feature": {"sight_features": "", "sight_content": ""}}, {"title": "龙殿岔文化广场", "address": "458县道附近", "image": "", "rank": 5, "time": 2, "location": {"lat": 40.726147274468815, "lng": 114.97938025390002}, "feature": {"sight_features": "", "sight_content": ""}}, {"title": "黄河陶艺美术馆", "address": "沁园春大道西侧(好迪家私北侧)", "image": "", "rank": 6, "time": 2, "location": {"lat": 37.00862699195139, "lng": 110.8283254939939}, "feature": {"sight_features": "", "sight_content": ""}}, {"title": "兴东垣东岳庙", "address": "山西省石楼县龙交乡兴东垣村", "image": "", "rank": 7, "time": 2, "location": {"lat": 37.05298185375104, "lng": 110.9626252965337}, "feature": {"sight_features": "", "sight_content": ""}}, {"title": "黄河太极湾", "address": "黄河陕晋段清涧县玉家河镇赵家畔村", "image": "", "rank": 8, "time": 3.0, "location": {"lat": 37.03510334873299, "lng": 110.37915580145453}, "feature": {"sight_features": "", "sight_content": ""}}]}