{"cityName": "石林", "days": "", "cityImage": "", "spots": [{"title": "石林", "address": "昆明市石林彝族自治县石林风景区", "image": "", "rank": 1, "time": 1.5, "location": {"lat": 24.818151741130887, "lng": 103.32969620945758}, "feature": {"sight_features": "", "sight_content": ""}}, {"title": "石林冰雪海洋世界", "address": "昆明市石林县石林大道988号", "image": "", "rank": 2, "time": 1.5, "location": {"lat": 24.818656999521405, "lng": 103.31648700063282}, "feature": {"sight_features": "特色1 这里是以冰雪、海洋为主题的游乐王国。 特色2 室内滑雪场、雪景公园、海洋世界、皇家大马戏、五大配套项目和亲子酒店 特色3 大型高标准海洋公园,超全动物明星阵容,水准海豚、白鲸表演秀。", "sight_content": "石林冰雪海洋世界紧邻石林风景区核心区，总占地300亩，总投资超10亿元；\n入选2016年全国优选旅行项目，云南省“四个一百”工程、云南省重点项目，是以海洋、冰雪为主题的复合型游乐王国。\n项目包括：室内滑雪场、雪景公园、海洋世界、皇家大马戏、五大配套项目和亲子酒店；\n1、室内滑雪场： 大型室内滑雪场，面积1万2千平方米，长近200米，宽近60米，训练级标准建造滑雪道。\n\n雪景公园：\n室内戏雪乐园，使用5000吨冰雪打造，多达十余项娱雪互动游乐项目，适合各个年龄层。包括：超级滑道、极寒体验、浪漫飘雪秀、冰冻龙卷风、大师冰雕、极地探险、七彩迷宫以及冰上碰碰车、雪地自行车、雪山小火车、雪地漂移等十余项互动娱乐。\n海洋世界：\n云南大型高标准海洋公园【300多种、2万余尾海洋生物】超全动物明星阵容【海豚、白鲸、企鹅、海狮、海豹若干......】海豚、白鲸表演秀，看过的都说好！\n皇家大马戏：专注马戏行业近百年 外国公演近30个国家 合作外籍演员超5000名 这样的马戏 值得一看！\n科普馆：展示上百种海洋动植物标本，丰富孩子海洋科普知识，颜色各异的珊瑚、护士鲨、海狮、海龟标本等。\nVR体验馆：VR设备十几种，7D影院、8D模拟赛车、VR骑行、9DVR6人座飞船、震动VR设备、2人蛋壳座椅、VR赛车等。【带你玩“真”的！】\n贝壳馆： 中国首创情景化，贝壳主题馆，首创荧光贝壳展示；主题包含：贝壳迷宫、失重小屋、包罗万象、时光隧道等；\n游乐场：包含飓风飞椅、碰碰车、豪华旋转木马，带你感受童年的欢乐时光；\n机器人公园： 领先全国的大型机器人公园【总面积约1500㎡，各种机器人约200个】\n亲子酒店： 亲子主题酒店；酒店主体以西式卡通城堡风格为主，8种各具特色的亲子房，充分融入家庭亲子元素，童趣帐篷，给孩子别样惊喜，尽享亲子时光。"}}, {"title": "月湖", "address": "昆明市石林彝族自治县", "image": "", "rank": 3, "time": 1.5, "location": {"lat": 24.77770196131961, "lng": 103.2965081767583}, "feature": {"sight_features": "", "sight_content": ""}}, {"title": "阿诗玛化身石", "address": "昆明市石林彝族自治县石林风景区小石林景区内", "image": "", "rank": 4, "time": 0.2, "location": {"lat": 24.823479554660814, "lng": 103.33572614268287}, "feature": {"sight_features": "", "sight_content": ""}}, {"title": "长湖", "address": "昆明市石林彝族自治县维则乡维则村", "image": "", "rank": 5, "time": 1.0, "location": {"lat": 24.711637980471505, "lng": 103.41159561838582}, "feature": {"sight_features": "", "sight_content": ""}}, {"title": "奇风洞", "address": "昆明市石林西北5公里，北大村、水塘铺三村交界处马鞍山东侧", "image": "", "rank": 6, "time": 1.0, "location": {"lat": 24.86936831816641, "lng": 103.36387625260922}, "feature": {"sight_features": "", "sight_content": ""}}, {"title": "李子箐石林", "address": "昆明市石林彝族自治县境内", "image": "", "rank": 7, "time": 1.0, "location": {"lat": 24.77770196131961, "lng": 103.2965081767583}, "feature": {"sight_features": "", "sight_content": ""}}, {"title": "圭山国家森林公园", "address": "明市石林彝族自治县圭山寺公路", "image": "", "rank": 8, "time": 2.0, "location": {"lat": 24.649536090707745, "lng": 103.6033201988591}, "feature": {"sight_features": "", "sight_content": ""}}, {"title": "芝云洞地下石林公园", "address": "昆明市石林彝族自治县", "image": "", "rank": 9, "time": 1.0, "location": {"lat": 24.77770196131961, "lng": 103.2965081767583}, "feature": {"sight_features": "", "sight_content": ""}}, {"title": "石海温泉", "address": "昆明市石林彝族自治县黑龙潭路1号", "image": "", "rank": 10, "time": 2, "location": {"lat": 24.88305053426522, "lng": 103.3777697357746}, "feature": {"sight_features": "特色1 人、泉、自然的和谐交流 特色2 集温泉养生、休闲度假于一体的旅游度假区。", "sight_content": "石海温泉位于昆明市石林县台湾农民创业园核心区，与杏林大观园国家AAA级风景区毗邻。这里风景秀丽，交通便利，紧邻汕昆高速、南昆铁路石林站和九石阿旅游专线公路旁，距昆明市区78公里，是集温泉养生、休闲度假、观光旅游、娱乐健身、特色餐饮于一体的综合性生态温泉旅游度假区。\n石海温泉的开发，始终坚持生态保护与资源开发利用的原则，由温泉设计大师精心规划，注重人、泉、自然的交流与和谐。在保留石林独特自然景观的基础上，利用石林间隙，建设有水疗会所、VIP独栋汤屋别墅、特色理疗室、露天游泳池、造浪海滩、儿童水舞戏水以及众多大小不等的露天汤池、中医SPA等休闲娱乐设施。分别设置了迎宾区、中药区、花卉区、特殊功能区等六大功能区，并配套有儿童游乐园、CS真人野战、户外露营等功能设施，足以让游客“乘兴而来，满意而归”。\n云南知名企业家、昆明圣火药业（集团）有限公司创始人、昆明杏林大观园旅游开发有限公司董事长蓝桂华先生，为石海温泉题写了楹联：“饮深井硅酸盐水防止血管硬化健康更有益，泡地心氟温泉浴促进新陈代谢鹤发变童颜”。"}}, {"title": "杏林大观园", "address": "昆明市石林县台湾农民创业园黑龙潭路1号", "image": "", "rank": 11, "time": 2, "location": {"lat": 24.88305053426522, "lng": 103.3777697357746}, "feature": {"sight_features": "特色1 石头各异，千姿百态", "sight_content": "石林杏林大观园旅游度假风景区，座落在阿诗玛的故乡——石林，景区以黑石林为旅游主体，其景观石头各异，千姿百态、山、石、水相影，绿树山花遍地，身临其境，让人流连忘返。"}}, {"title": "石林红杉湖温泉", "address": "昆明市石林彝族自治县阿诗玛旅游小镇红杉湖温泉度假酒店", "image": "", "rank": 12, "time": 2, "location": {"lat": 24.78024140738711, "lng": 103.29619996813791}, "feature": {"sight_features": "特色1 中国唯一以红豆杉为主题的天然养生温泉", "sight_content": "红杉湖温泉度假酒店位于云南省昆明市石林彝族自治县万城阿诗玛小镇内，距离昆明市区40分钟车程，交通便利，环境清静幽雅。红杉湖温泉度假酒店总占地45亩，是集5星级度假酒店、精装古镇客栈、天然温泉森林SPA会所为一体的休闲娱乐温泉休憩地，能够同时容纳1500人休息与娱乐。全面满足都市人对于自然、对于健康、对于休闲的向往，为渴望释放的心灵提供一处禅意境界。\n“红杉湖”森林SPA分布了20个特色泡池，是中国唯一以红豆杉为主题的天然养生温泉，林中密布1000棵树龄20年以上珍稀物种红豆杉，将第四纪冰川时代的神秘生命力，引入温泉养生文化。\n“红杉湖” 森林SPA适合春、夏、秋、东全年疗养，亦有延年益寿、抗艾养生、排浊养颜的独特疗效，老少皆宜。5星级度假酒店拥有320间客房，酒店配套有男女分区洗浴部、棋牌室、会议室、自助餐、儿童娱乐区、网吧、按摩去、壁球馆、室内高尔夫球、挑空羽毛球馆、台球室等。室外场地建有游泳池、书吧、女性外场按摩精油区，烧烤、水吧、氧吧、喷泉广场等。"}}, {"title": "糯黑村", "address": "昆明市石林彝族自治县圭山镇", "image": "", "rank": 13, "time": 1.0, "location": {"lat": 24.65069037228472, "lng": 103.560753513486}, "feature": {"sight_features": "", "sight_content": ""}}, {"title": "石林水上温泉度假村", "address": "昆明市石林彝族自治县石林大道1434号（彝族第一村附近）", "image": "", "rank": 14, "time": 2.5, "location": {"lat": 24.83452017495926, "lng": 103.31826055484467}, "feature": {"sight_features": "", "sight_content": ""}}, {"title": "剑峰池", "address": "云南省石林彝族自治县石林镇", "image": "", "rank": 15, "time": 2, "location": {"lat": 24.867210289466083, "lng": 103.36507969543273}, "feature": {"sight_features": "", "sight_content": ""}}, {"title": "台湾农民创业园", "address": "云南省昆明市石林彝族自治县326国道", "image": "", "rank": 16, "time": null, "location": {"lat": 24.888727935995746, "lng": 103.40571329112866}, "feature": {"sight_features": "", "sight_content": ""}}, {"title": "黑龙潭水库", "address": "云南省昆明市石林彝族自治县", "image": "", "rank": 17, "time": 2, "location": {"lat": 24.77770196131961, "lng": 103.2965081767583}, "feature": {"sight_features": "", "sight_content": ""}}, {"title": "莲花慈度假温泉", "address": "莲花路莲花慈度假温泉", "image": "", "rank": 18, "time": 2, "location": {"lat": 27.133462711027768, "lng": 113.96854067422115}, "feature": {"sight_features": "", "sight_content": ""}}, {"title": "耀奇香草谷", "address": "石林耀奇香草谷安山路一號", "image": "", "rank": 19, "time": 2, "location": {"lat": 24.911539927529173, "lng": 103.37149691870563}, "feature": {"sight_features": "", "sight_content": ""}}, {"title": "临江温泉", "address": "双龙北巷", "image": "", "rank": 20, "time": 0.7, "location": {"lat": 24.764370689226038, "lng": 103.28085789816862}, "feature": {"sight_features": "", "sight_content": ""}}, {"title": "石林方圆生态园", "address": "九石阿公路", "image": "", "rank": 21, "time": 2.5, "location": {"lat": 25.010890750600634, "lng": 103.33770193780396}, "feature": {"sight_features": "", "sight_content": ""}}, {"title": "云南石林高尔夫俱乐部", "address": "石林县石林镇石林国际乡村俱乐部", "image": "", "rank": 22, "time": 2, "location": {"lat": 24.83844669494689, "lng": 103.35720528947053}, "feature": {"sight_features": "", "sight_content": ""}}, {"title": "中国石林喀斯特地质博物馆", "address": "石林风景区北侧", "image": "", "rank": 23, "time": 2, "location": {"lat": 28.853497130450894, "lng": 106.92002727557761}, "feature": {"sight_features": "", "sight_content": ""}}, {"title": "石林海鑫温泉宾馆", "address": "石林莲花路客运站旁", "image": "", "rank": 24, "time": 2, "location": {"lat": 24.767292966894814, "lng": 103.2774585520182}, "feature": {"sight_features": "", "sight_content": ""}}, {"title": "万宝生态园农家乐", "address": "维山段", "image": "", "rank": 25, "time": 2, "location": {"lat": 24.671934398848922, "lng": 103.4539289410553}, "feature": {"sight_features": "", "sight_content": ""}}, {"title": "坤霖园艺苗木基地", "address": "324国道附近", "image": "", "rank": 26, "time": 2, "location": {"lat": 23.154734358898722, "lng": 114.20469410313481}, "feature": {"sight_features": "", "sight_content": ""}}, {"title": "化剪(成蝶技术店)", "address": "双龙小街116号", "image": "", "rank": 27, "time": 2, "location": {"lat": 24.763015486980784, "lng": 103.27925591145438}, "feature": {"sight_features": "", "sight_content": ""}}, {"title": "爱博欣葡萄庄园", "address": "江河路", "image": "", "rank": 28, "time": 2, "location": {"lat": 30.163577720007808, "lng": 120.39721397081905}, "feature": {"sight_features": "", "sight_content": ""}}, {"title": "方圆农家生态园", "address": "九石阿公路", "image": "", "rank": 29, "time": 2, "location": {"lat": 25.010890750600634, "lng": 103.33770193780396}, "feature": {"sight_features": "", "sight_content": ""}}, {"title": "大小芝云洞", "address": "云南省石林彝族自治县大小石林西北 652200", "image": "", "rank": 30, "time": 2, "location": {"lat": 24.77770196131961, "lng": 103.2965081767583}, "feature": {"sight_features": "", "sight_content": ""}}, {"title": "昌乐公园", "address": "云南省昆明市石林彝族自治县石林大道", "image": "", "rank": 31, "time": 3.0, "location": {"lat": 24.807536687571588, "lng": 103.31435240665697}, "feature": {"sight_features": "", "sight_content": ""}}, {"title": "堂海玉皇", "address": "石林中路158附近", "image": "", "rank": 32, "time": 2, "location": {"lat": 24.76464701632542, "lng": 103.28182121764127}, "feature": {"sight_features": "", "sight_content": ""}}, {"title": "大砂石桥", "address": "昆明市石林彝族自治县", "image": "", "rank": 33, "time": 2, "location": {"lat": 24.77770196131961, "lng": 103.2965081767583}, "feature": {"sight_features": "", "sight_content": ""}}, {"title": "海邑天主教堂", "address": "海邑公路西150米", "image": "", "rank": 34, "time": 2, "location": {"lat": 24.652840784858004, "lng": 103.5602744794967}, "feature": {"sight_features": "", "sight_content": ""}}, {"title": "桃源湖公园", "address": "鹿小段附近", "image": "", "rank": 35, "time": 2, "location": {"lat": 24.77211346943053, "lng": 103.28869462560452}, "feature": {"sight_features": "", "sight_content": ""}}, {"title": "石林历史博物馆", "address": "天奇路附近", "image": "", "rank": 36, "time": 3.0, "location": {"lat": 31.641734723909014, "lng": 120.1964500302916}, "feature": {"sight_features": "", "sight_content": ""}}, {"title": "云石文化广场", "address": "石林大道与G80广昆高速交叉口西南200米", "image": "", "rank": 37, "time": 2, "location": {"lat": 24.776188291308074, "lng": 103.30508331132316}, "feature": {"sight_features": "", "sight_content": ""}}, {"title": "阿尼绕儿童乐园", "address": "云南省昆明市石林彝族自治县昌乐路万城阿诗玛旅游小镇西北150米", "image": "", "rank": 38, "time": null, "location": {"lat": 24.780249615022587, "lng": 103.29504873662724}, "feature": {"sight_features": "", "sight_content": ""}}, {"title": "阿诗玛小镇待客处", "address": "云南省昆明市石林彝族自治县鹿阜街道大道红杉湖温泉酒店北50米", "image": "", "rank": 39, "time": 2, "location": {"lat": 24.781188925951916, "lng": 103.2963558331269}, "feature": {"sight_features": "", "sight_content": ""}}, {"title": "西北子观音寺", "address": "西北街70", "image": "", "rank": 40, "time": 2, "location": {"lat": 24.76582626581043, "lng": 103.27083361715553}, "feature": {"sight_features": "", "sight_content": ""}}, {"title": "大石林景区-电动车终点站(内环线...", "address": "云南省昆明市石林彝族自治县石林风景区大石林景区内", "image": "", "rank": 41, "time": 2, "location": {"lat": 24.82090589962952, "lng": 103.33268365827756}, "feature": {"sight_features": "", "sight_content": ""}}, {"title": "石林风景区电动车起点站-外环线", "address": "云南省昆明市石林彝族自治县石林风景区内", "image": "", "rank": 42, "time": 2.5, "location": {"lat": 24.82368402795741, "lng": 103.33166033379348}, "feature": {"sight_features": "", "sight_content": ""}}, {"title": "国药博览园", "address": "云南省昆明市石林彝族自治县和西路", "image": "", "rank": 43, "time": 2, "location": {"lat": 24.900566116931607, "lng": 103.36518770589059}, "feature": {"sight_features": "", "sight_content": ""}}, {"title": "古林瑶池", "address": "乃古石林分景区内", "image": "", "rank": 44, "time": 2, "location": {"lat": 24.904699279104225, "lng": 103.36157076319658}, "feature": {"sight_features": "", "sight_content": ""}}, {"title": "石林会议中心-前绿化广场", "address": "东山路与石林大道交叉口东南100米", "image": "", "rank": 45, "time": 2.5, "location": {"lat": 24.765599633547005, "lng": 103.28286665661037}, "feature": {"sight_features": "", "sight_content": ""}}, {"title": "九龙山庄", "address": "石林镇", "image": "", "rank": 46, "time": 4.5, "location": {"lat": 35.92355849411073, "lng": 114.2534944866254}, "feature": {"sight_features": "", "sight_content": ""}}, {"title": "圭山草庵寺", "address": "矣圭段", "image": "", "rank": 47, "time": 1.5, "location": {"lat": 24.644187481036592, "lng": 103.60431246982002}, "feature": {"sight_features": "", "sight_content": ""}}, {"title": "石林避暑园", "address": "石林彝族自治县石林风景区内", "image": "", "rank": 48, "time": 2, "location": {"lat": 24.82368402795741, "lng": 103.33166033379348}, "feature": {"sight_features": "", "sight_content": ""}}, {"title": "石林圭山国家森林公园", "address": "圭山寺公路附近", "image": "", "rank": 49, "time": 2.5, "location": {"lat": 24.649536090707745, "lng": 103.6033201988591}, "feature": {"sight_features": "", "sight_content": ""}}, {"title": "巴江河滨公园", "address": "东山路与莲花路交叉口北150米", "image": "", "rank": 50, "time": 2, "location": {"lat": 24.76970034955582, "lng": 103.27928373454262}, "feature": {"sight_features": "", "sight_content": ""}}, {"title": "生态草莓基地", "address": "乃古石林附近", "image": "", "rank": 51, "time": 2, "location": {"lat": 24.904929943509476, "lng": 103.36185981275705}, "feature": {"sight_features": "", "sight_content": ""}}, {"title": "金太阳山庄", "address": "三二四国道", "image": "", "rank": 52, "time": 2, "location": {"lat": 23.154734358898722, "lng": 114.20469410313481}, "feature": {"sight_features": "", "sight_content": ""}}, {"title": "石林尼米人家", "address": "阿诗玛北路101号附近", "image": "", "rank": 53, "time": 2, "location": {"lat": 24.765696525829696, "lng": 103.27558490716044}, "feature": {"sight_features": "", "sight_content": ""}}, {"title": "石林两亩地生态农庄", "address": "大黑潭公路与阿大段交叉口东200米", "image": "", "rank": 54, "time": 2.5, "location": {"lat": 24.73328843545336, "lng": 103.27550839902791}, "feature": {"sight_features": "", "sight_content": ""}}, {"title": "密枝生态茶庄", "address": "云南省昆明市石林彝族自治县X021", "image": "", "rank": 55, "time": 2, "location": {"lat": 24.77770196131961, "lng": 103.2965081767583}, "feature": {"sight_features": "", "sight_content": ""}}, {"title": "尼米人家", "address": "九石阿公路", "image": "", "rank": 56, "time": 7.5, "location": {"lat": 25.010890750600634, "lng": 103.33770193780396}, "feature": {"sight_features": "", "sight_content": ""}}, {"title": "石林县好宜家农庄", "address": "云南省昆明市石林彝族自治县雨白路", "image": "", "rank": 57, "time": 2, "location": {"lat": 24.77770196131961, "lng": 103.2965081767583}, "feature": {"sight_features": "", "sight_content": ""}}, {"title": "永祥山庄", "address": "云南省昆明市石林彝族自治县九石阿公路小箐村委会阿玉林村", "image": "", "rank": 58, "time": 2, "location": {"lat": 24.860749515414923, "lng": 103.32075206895546}, "feature": {"sight_features": "", "sight_content": ""}}, {"title": "青泽农庄", "address": "和西路", "image": "", "rank": 59, "time": 2, "location": {"lat": 30.83701030047132, "lng": 119.90918683378399}, "feature": {"sight_features": "", "sight_content": ""}}, {"title": "石龙山庄", "address": "小五段附近", "image": "", "rank": 60, "time": 2, "location": {"lat": 24.802592613846127, "lng": 103.31167507715318}, "feature": {"sight_features": "", "sight_content": ""}}]}