{"cityName": "石门", "days": 2, "cityImage": "", "spots": [{"title": "夹山国家森林公园", "address": "常德市石门县常德石门夹山国家森林公园", "image": "", "rank": 1, "time": 4.5, "location": {"lat": 29.56937479906385, "lng": 111.48572833391827}, "feature": {"sight_features": "特色1 拥有国家重点保护的珙桐、香果树等名贵树种", "sight_content": "夹山国家森林公园位距石门县城东南8公里，是集闯王陵园、佛教圣地、茶道源头、森林风光于一体的旅游胜地。1993年建立国家森林公园，1994年推选为全国森林公园示范园，2001年评定为中国AAA级旅游景区。\n境内气候温暖湿润，土壤深厚肥沃，地势波状起伏，山沟纵横，植被丰富，森林覆盖率高达93.6％。夹山国家森林公园有木本植物204种，其中有属国家重点保护的珙桐、香果树、鹅掌楸等名贵树种，以及被列为石门县古木大树保护名录的古树18株。公园现有闯王墓（陵）、灵泉禅院、洗墨池、玉玺井、碧岩泉、佛光阁、名人墓等10余处景点。"}}, {"title": "龙王洞", "address": "常德市石门县白云镇望羊桥村", "image": "", "rank": 2, "time": 2.5, "location": {"lat": 29.658061030181866, "lng": 111.08264086707182}, "feature": {"sight_features": "", "sight_content": ""}}, {"title": "石门文庙", "address": "常德市石门县楚江镇文庙路6号", "image": "", "rank": 3, "time": 1.0, "location": {"lat": 29.591020249846952, "lng": 111.38181370450813}, "feature": {"sight_features": "", "sight_content": ""}}, {"title": "石门壶瓶山", "address": "常德市石门县壶瓶山镇江坪河村一组", "image": "", "rank": 4, "time": 4.0, "location": {"lat": 30.11792379540584, "lng": 110.80918778679907}, "feature": {"sight_features": "特色1 壶瓶山住深山木楼，吃金包银饭，过农家赶年，跳土家舞蹈，夏鉴江南景，冬赏北国春！ 特色2 壶瓶山游原始森林，观壶瓶飞瀑！被中外专家学者称为“华中地区弥足珍贵的物种基因库”。 特色3 峡谷内空气中含有大量的植物精气“芬多精”，每立方米含有10000个负氧离子，被誉为“大自然天然氧吧”。", "sight_content": "壶瓶山自然保护区的旅游是以原始次生林和峡谷、峰林等独特地貌为特色的生态旅游。区内自然景观有绝壁、奇峰怪石、湖潭瀑布、溶洞，还有大量的古生物化石和植物“活化石”；人文景观有土家族的民俗民情文化和寺庙及革命纪念地等。壶瓶山自然保护区的生态旅游有四绝：一绝是峡谷生态休闲观光；二绝是峡谷生态漂流；三绝是屋脊观景；四绝是东山峰滑雪滑草。\n壶瓶山没有受到第四纪冰川的侵袭，保存了良好的生态环境和大量的孑遗动植物及其群落，是我国华中地区珍贵生物物种的基因库，是华南虎野外繁殖种群的存在地之一。在已初步查明的2836种植物中，属国家一、二级保护植物共有33种。区内丰富的植被和温暖湿润的气候，为野生动植物的繁衍提供了良好的生境，据调查，区内有华南虎、金钱豹等54国家重点保护动物。在壶瓶山游览观光，熊豹时有出没，珍禽异兽时而跃入游客的眼帘，既神秘又神奇，猿猴啼鸣、百鸟歌唱、猕猴成群的嬉戏，黑熊的憩息痴呆，游人犹入梦幻仙境，趣味顿生。\n湖南屋脊漂位于湖南最长的一条峡谷——龙文峡（龙门出水—张家渡）中，全长58公里，目前开通的漂流线长22公里，即神景寨至文峰一段，河流湍急。湖南屋脊峡谷漂流有20多处急湾、50多个险滩，落差近90米，漂流途经龙洞飞瀑、蛟龙潭、蛇湾、凉风岩、思儿潭、雄狮卧波、三碗酒等十多处景观，漂完全程大约需要近2个小时时间。湖南屋脊漂流，在激流险滩可让人惊心动魄，水流舒缓的地方，又能让您悠然自得，既可以尽情享受沿途的刺激和惊险，又可以细细品味远古传说的神奇，会让您尽情领略到一种全新的人生境界。"}}, {"title": "蒙泉湖", "address": "常德市石门县蒙泉镇", "image": "", "rank": 5, "time": 4.0, "location": {"lat": 29.418222576772592, "lng": 111.39647676600369}, "feature": {"sight_features": "", "sight_content": ""}}, {"title": "秀坪园艺场", "address": "湖南省常德市石门县", "image": "", "rank": 6, "time": 2, "location": {"lat": 29.590365966649998, "lng": 111.386451407024}, "feature": {"sight_features": "", "sight_content": ""}}, {"title": "万仞洞", "address": "湖南省常德市石门县皂市镇万仞洞村", "image": "", "rank": 7, "time": 2, "location": {"lat": 29.73179376943607, "lng": 111.20689419322164}, "feature": {"sight_features": "", "sight_content": ""}}, {"title": "鱼洞", "address": "常德市石门县壶瓶山镇江坪河村", "image": "", "rank": 8, "time": 0.25, "location": {"lat": 30.11792379540584, "lng": 110.80918778679907}, "feature": {"sight_features": "", "sight_content": ""}}, {"title": "闯王陵", "address": "湖南省常德市石门县", "image": "", "rank": 9, "time": 2, "location": {"lat": 29.590365966649998, "lng": 111.386451407024}, "feature": {"sight_features": "", "sight_content": ""}}, {"title": "湖南屋脊峡谷漂流", "address": "常德市石门县壶瓶山镇江坪河村", "image": "", "rank": 10, "time": 2, "location": {"lat": 30.11792379540584, "lng": 110.80918778679907}, "feature": {"sight_features": "", "sight_content": ""}}, {"title": "东山峰", "address": "湖南省常德市石门县", "image": "", "rank": 11, "time": 2, "location": {"lat": 29.590365966649998, "lng": 111.386451407024}, "feature": {"sight_features": "", "sight_content": ""}}, {"title": "热水溪温泉", "address": "常德市石门县303省道边上", "image": "", "rank": 12, "time": 2, "location": {"lat": 29.8818854799272, "lng": 110.6043106336494}, "feature": {"sight_features": "", "sight_content": ""}}, {"title": "夹山寺", "address": "湖南省常德市石门县", "image": "", "rank": 13, "time": 2, "location": {"lat": 29.590365966649998, "lng": 111.386451407024}, "feature": {"sight_features": "", "sight_content": ""}}, {"title": "青少年游乐中心", "address": "梯云西路", "image": "", "rank": 14, "time": 2, "location": {"lat": 29.588499014506315, "lng": 111.39709020805658}, "feature": {"sight_features": "", "sight_content": ""}}, {"title": "月亮湾农家乐", "address": "304省道南50米", "image": "", "rank": 15, "time": 2, "location": {"lat": 38.007058801490366, "lng": 114.44892402313616}, "feature": {"sight_features": "", "sight_content": ""}}, {"title": "垂钓者", "address": "宝峰南路与市场路交叉口东北150米", "image": "", "rank": 16, "time": 2, "location": {"lat": 29.59059170335203, "lng": 111.39975108958649}, "feature": {"sight_features": "", "sight_content": ""}}, {"title": "燕子石", "address": "湖南省石门县壶瓶山镇 415319", "image": "", "rank": 17, "time": 2, "location": {"lat": 29.941269739479182, "lng": 110.79012552897123}, "feature": {"sight_features": "", "sight_content": ""}}, {"title": "碧岩泉", "address": "湖南省石门县夹山寺庙西南山麓处 415300", "image": "", "rank": 18, "time": 2, "location": {"lat": 29.57002906109589, "lng": 111.4944836254497}, "feature": {"sight_features": "", "sight_content": ""}}, {"title": "黄虎岗大桥", "address": "湖南省石门县常德市人民东路738号 415300", "image": "", "rank": 19, "time": 2, "location": {"lat": 29.590365966649998, "lng": 111.386451407024}, "feature": {"sight_features": "", "sight_content": ""}}, {"title": "刘家峪革命根据地", "address": "湖南省石门县杜家岗乡 415325", "image": "", "rank": 20, "time": 2, "location": {"lat": 29.590365966649998, "lng": 111.386451407024}, "feature": {"sight_features": "", "sight_content": ""}}, {"title": "神景洞", "address": "湖南省石门县境内 415300", "image": "", "rank": 21, "time": 2, "location": {"lat": 29.590365966649998, "lng": 111.386451407024}, "feature": {"sight_features": "", "sight_content": ""}}, {"title": "常德玉玺井", "address": "湖南省石门县夹山灵泉禅院内 415300", "image": "", "rank": 22, "time": 2, "location": {"lat": 30.015342674605897, "lng": 110.67709181064149}, "feature": {"sight_features": "", "sight_content": ""}}, {"title": "西周遗址", "address": "湖南省石门县夹山镇西周村 415309", "image": "", "rank": 23, "time": 2, "location": {"lat": 29.508365957850614, "lng": 111.3930186446221}, "feature": {"sight_features": "", "sight_content": ""}}, {"title": "皂市新石器遗址", "address": "湖南省石门县皂市乡石坪村 415300", "image": "", "rank": 24, "time": 2, "location": {"lat": 29.658981871919902, "lng": 111.24109335860264}, "feature": {"sight_features": "", "sight_content": ""}}, {"title": "石门禾田十九峰森林康养度假村", "address": "石门县二都街道南峰社区六组", "image": "", "rank": 25, "time": 4.0, "location": {"lat": 29.563310688767736, "lng": 111.42524081564417}, "feature": {"sight_features": "", "sight_content": ""}}, {"title": "龙泉山庄", "address": "303省道附近", "image": "", "rank": 26, "time": 2, "location": {"lat": 38.25466494631471, "lng": 114.66726867564682}, "feature": {"sight_features": "", "sight_content": ""}}, {"title": "玉月荃度假村", "address": "常德市石门县壶瓶山镇", "image": "", "rank": 27, "time": 2, "location": {"lat": 29.941269739479182, "lng": 110.79012552897123}, "feature": {"sight_features": "", "sight_content": ""}}, {"title": "唐家祠堂", "address": "常德市石门县三一三县道", "image": "", "rank": 28, "time": 2.5, "location": {"lat": 29.590365966649998, "lng": 111.386451407024}, "feature": {"sight_features": "", "sight_content": ""}}, {"title": "傅家祠堂", "address": "常德市石门县J一三县道", "image": "", "rank": 29, "time": 2, "location": {"lat": 29.63358653082251, "lng": 111.43866209104382}, "feature": {"sight_features": "", "sight_content": ""}}, {"title": "毛竹河峡谷", "address": "常德市石门县壶瓶山生态旅游景区内", "image": "", "rank": 30, "time": 2, "location": {"lat": 30.11792379540584, "lng": 110.80918778679907}, "feature": {"sight_features": "", "sight_content": ""}}, {"title": "石门县考拉大冒险儿童游乐园", "address": "楚江镇步行街八号楼2楼(中国银行往南)", "image": "", "rank": 31, "time": 2, "location": {"lat": 29.58698181789187, "lng": 111.38209166089386}, "feature": {"sight_features": "", "sight_content": ""}}, {"title": "二天门", "address": "常德市石门县", "image": "", "rank": 32, "time": 2, "location": {"lat": 29.590365966649998, "lng": 111.386451407024}, "feature": {"sight_features": "", "sight_content": ""}}, {"title": "善会禅师塔", "address": "常德市石门县夹门镇夹山国家森林公园内", "image": "", "rank": 33, "time": 2, "location": {"lat": 29.56937479906385, "lng": 111.48572833391827}, "feature": {"sight_features": "", "sight_content": ""}}, {"title": "大悲殿", "address": "常德市石门县夹山镇夹山国家森林公园夹山灵泉禅院内", "image": "", "rank": 34, "time": 2, "location": {"lat": 29.56937479906385, "lng": 111.48572833391827}, "feature": {"sight_features": "", "sight_content": ""}}, {"title": "金堂梨园", "address": "湖南省常德市石门县X021", "image": "", "rank": 35, "time": 1.0, "location": {"lat": 29.590365966649998, "lng": 111.386451407024}, "feature": {"sight_features": "", "sight_content": ""}}, {"title": "公园壹号", "address": "常德市石门县电厂路12号", "image": "", "rank": 36, "time": 2, "location": {"lat": 29.590332459428218, "lng": 111.40705642439814}, "feature": {"sight_features": "", "sight_content": ""}}, {"title": "石门县北站-站前广场", "address": "湖南省常德市石门县永兴大道", "image": "", "rank": 37, "time": 2, "location": {"lat": 29.599433628451656, "lng": 111.43497747450424}, "feature": {"sight_features": "", "sight_content": ""}}, {"title": "水上碰碰船", "address": "常德市石门县夹山国家森林公园夹山国家森林公园内", "image": "", "rank": 38, "time": 2, "location": {"lat": 29.56937479906385, "lng": 111.48572833391827}, "feature": {"sight_features": "", "sight_content": ""}}, {"title": "石门图书馆", "address": "零阳路5号", "image": "", "rank": 39, "time": 1.5, "location": {"lat": 29.589132857600777, "lng": 111.38375729896991}, "feature": {"sight_features": "", "sight_content": ""}}, {"title": "金乐园电游", "address": "澧阳中路47号附近", "image": "", "rank": 40, "time": 2, "location": {"lat": 29.59815613962419, "lng": 111.39351550189105}, "feature": {"sight_features": "", "sight_content": ""}}, {"title": "湖南省石门县博物馆", "address": "楚江镇文庙路6号", "image": "", "rank": 41, "time": 2, "location": {"lat": 29.591020249846952, "lng": 111.38181370450813}, "feature": {"sight_features": "", "sight_content": ""}}, {"title": "新天地水上乐园", "address": "东城广播电视台斜对面", "image": "", "rank": 42, "time": 2, "location": {"lat": 39.93482727239599, "lng": 116.4224009776628}, "feature": {"sight_features": "", "sight_content": ""}}, {"title": "七彩花田游乐园", "address": "国家森林公园七彩花田", "image": "", "rank": 43, "time": 2, "location": {"lat": 40.84911586971793, "lng": 111.59617656255745}, "feature": {"sight_features": "", "sight_content": ""}}, {"title": "石门县老湘食生态农家乐", "address": "御龙湾后门中胜楼对面", "image": "", "rank": 44, "time": 2, "location": {"lat": 39.41170320348037, "lng": 115.37132511058807}, "feature": {"sight_features": "", "sight_content": ""}}, {"title": "壶瓶山国家级自然保护区", "address": "湖南省石门县境内", "image": "", "rank": 45, "time": 2, "location": {"lat": 29.590365966649998, "lng": 111.386451407024}, "feature": {"sight_features": "", "sight_content": ""}}, {"title": "洛浦寺", "address": "湖南省石门县洛浦寺村", "image": "", "rank": 46, "time": 2, "location": {"lat": 29.667157637451584, "lng": 111.44095833958768}, "feature": {"sight_features": "", "sight_content": ""}}, {"title": "峡峪河", "address": "湖南省石门县渡水乡", "image": "", "rank": 47, "time": 2, "location": {"lat": 29.590365966649998, "lng": 111.386451407024}, "feature": {"sight_features": "", "sight_content": ""}}, {"title": "渫水漂流", "address": "湖南省石门县壶瓶山镇", "image": "", "rank": 48, "time": 2, "location": {"lat": 29.941269739479182, "lng": 110.79012552897123}, "feature": {"sight_features": "", "sight_content": ""}}, {"title": "十禁碑", "address": "湖南省石门县夹山寺前", "image": "", "rank": 49, "time": null, "location": {"lat": 29.57002906109589, "lng": 111.4944836254497}, "feature": {"sight_features": "", "sight_content": ""}}, {"title": "梯云塔", "address": "湖南省石门县二都乡宝塔村", "image": "", "rank": 50, "time": 2, "location": {"lat": 29.58921305359528, "lng": 111.3974210198402}, "feature": {"sight_features": "", "sight_content": ""}}, {"title": "灵泉禅院", "address": "湖南省石门县夹山风景区", "image": "", "rank": 51, "time": 2, "location": {"lat": 30.015342674605897, "lng": 110.67709181064149}, "feature": {"sight_features": "", "sight_content": ""}}, {"title": "柘刺岭", "address": "常德市-石门县", "image": "", "rank": 52, "time": 2, "location": {"lat": 29.590365966649998, "lng": 111.386451407024}, "feature": {"sight_features": "", "sight_content": ""}}, {"title": "长塌垭", "address": "常德市-石门县-J一三县道", "image": "", "rank": 53, "time": 2, "location": {"lat": 29.63358653082251, "lng": 111.43866209104382}, "feature": {"sight_features": "", "sight_content": ""}}, {"title": "四十八寨城门寨萍泉农家乐", "address": "常德市-石门县-两河口村", "image": "", "rank": 54, "time": 2, "location": {"lat": 29.590365966649998, "lng": 111.386451407024}, "feature": {"sight_features": "", "sight_content": ""}}, {"title": "罗坪村", "address": "常德市-石门县-三零三省道", "image": "", "rank": 55, "time": 2, "location": {"lat": 29.590365966649998, "lng": 111.386451407024}, "feature": {"sight_features": "", "sight_content": ""}}, {"title": "湖南省石门县夹山国有林场", "address": "常德市-石门县-夹山国家森林公园夹山国家森林公园内", "image": "", "rank": 56, "time": 2, "location": {"lat": 29.56937479906385, "lng": 111.48572833391827}, "feature": {"sight_features": "", "sight_content": ""}}, {"title": "剩头吊桥", "address": "常德市-石门县-壶瓶山生态旅游景区内", "image": "", "rank": 57, "time": 2, "location": {"lat": 30.11792379540584, "lng": 110.80918778679907}, "feature": {"sight_features": "", "sight_content": ""}}]}