{"cityName": "石棉", "days": 2, "cityImage": "", "spots": [{"title": "孟获城", "address": "雅安市石棉县栗子坪彝族乡的孟获村境内", "image": "", "rank": 1, "time": 2, "location": {"lat": 28.90971921835342, "lng": 102.35109512550513}, "feature": {"sight_features": "", "sight_content": ""}}, {"title": "神龙温泉度假村", "address": "草科藏族乡草科乡卫生院西南侧150米", "image": "", "rank": 2, "time": 2, "location": {"lat": 29.40167531500626, "lng": 102.12690838720134}, "feature": {"sight_features": "", "sight_content": ""}}, {"title": "兴悦温泉", "address": "草科乡和坪村一组", "image": "", "rank": 3, "time": 2, "location": {"lat": 29.39212759059667, "lng": 102.09237716139208}, "feature": {"sight_features": "", "sight_content": ""}}, {"title": "田湾河风景区", "address": "草科藏族乡", "image": "", "rank": 4, "time": 2, "location": {"lat": 29.403065238660567, "lng": 102.12711862572452}, "feature": {"sight_features": "", "sight_content": ""}}, {"title": "田湾河温泉度假村", "address": "田湾乡两河口", "image": "", "rank": 5, "time": 2, "location": {"lat": 25.673570233087943, "lng": 105.3690116881038}, "feature": {"sight_features": "", "sight_content": ""}}, {"title": "祝君农家乐", "address": "211省道西50米", "image": "", "rank": 6, "time": 2, "location": {"lat": 36.51043423729015, "lng": 114.2212047441539}, "feature": {"sight_features": "", "sight_content": ""}}, {"title": "龙客天然温泉", "address": "草科藏族乡", "image": "", "rank": 7, "time": 2, "location": {"lat": 29.403065238660567, "lng": 102.12711862572452}, "feature": {"sight_features": "", "sight_content": ""}}, {"title": "安顺场景区", "address": "石棉县安顺场彝族乡", "image": "", "rank": 8, "time": 2, "location": {"lat": 29.274666551722348, "lng": 102.29057652136886}, "feature": {"sight_features": "", "sight_content": ""}}, {"title": "玉泉山庄", "address": "滨河路三段", "image": "", "rank": 9, "time": 2, "location": {"lat": 30.527522174024902, "lng": 104.0656067971735}, "feature": {"sight_features": "", "sight_content": ""}}, {"title": "泗海钓具", "address": "四川省雅安市石棉县大渡河酒店附近", "image": "", "rank": 10, "time": 2, "location": {"lat": 29.244972544569123, "lng": 102.36625634052447}, "feature": {"sight_features": "", "sight_content": ""}}, {"title": "天然居度假村", "address": "211省道附近", "image": "", "rank": 11, "time": 2, "location": {"lat": 36.51043423729015, "lng": 114.22165389690889}, "feature": {"sight_features": "", "sight_content": ""}}, {"title": "中国工农红军强渡大渡河纪念地", "address": "安顺彝族乡", "image": "", "rank": 12, "time": 2, "location": {"lat": 29.273508667336973, "lng": 102.28994513566342}, "feature": {"sight_features": "", "sight_content": ""}}, {"title": "荣珠农家乐", "address": "211省道东50米", "image": "", "rank": 13, "time": 2, "location": {"lat": 36.51043423729015, "lng": 114.22210304966387}, "feature": {"sight_features": "", "sight_content": ""}}, {"title": "栗子坪自然保护区", "address": "四川省石棉县新棉镇人民路5号", "image": "", "rank": 14, "time": 2, "location": {"lat": 29.240920970941968, "lng": 102.36726403718758}, "feature": {"sight_features": "", "sight_content": ""}}, {"title": "四川雅安市石棉县步行街", "address": "四川省石棉县近解放路一段", "image": "", "rank": 15, "time": 2, "location": {"lat": 29.2436226989362, "lng": 102.3659571652643}, "feature": {"sight_features": "", "sight_content": ""}}, {"title": "月亮湖旅游景区", "address": "108国道", "image": "", "rank": 16, "time": 2, "location": {"lat": 36.13357010619177, "lng": 111.55186297208911}, "feature": {"sight_features": "", "sight_content": ""}}]}