{"cityName": "石屏", "days": 2, "cityImage": "", "spots": [{"title": "异龙湖", "address": "红河哈尼族彝族自治州石屏县城以东两公里处", "image": "", "rank": 1, "time": 2.0, "location": {"lat": 23.712004452448983, "lng": 102.50244661977858}, "feature": {"sight_features": "", "sight_content": ""}}, {"title": "郑营村", "address": "红河哈尼族彝族自治州石屏县零六八乡道", "image": "", "rank": 2, "time": 2.5, "location": {"lat": 23.712004452448983, "lng": 102.50244661977858}, "feature": {"sight_features": "", "sight_content": ""}}, {"title": "石屏古城", "address": "红河哈尼族彝族自治州石屏县西山路4号", "image": "", "rank": 3, "time": 2.5, "location": {"lat": 23.720248816771516, "lng": 102.49434192780913}, "feature": {"sight_features": "", "sight_content": ""}}, {"title": "石屏坝心芦子沟古民居", "address": "红河哈尼族彝族自治州石屏县芦子沟村", "image": "", "rank": 4, "time": 3.5, "location": {"lat": 23.674283767371175, "lng": 102.6804026174845}, "feature": {"sight_features": "", "sight_content": ""}}, {"title": "石屏秀山", "address": "云南省红河哈尼族彝族自治州石屏县宝秀镇农贸市场段", "image": "", "rank": 5, "time": 2.0, "location": {"lat": 23.768572203134326, "lng": 102.39613916949078}, "feature": {"sight_features": "", "sight_content": ""}}, {"title": "焕文公园", "address": "异龙镇", "image": "", "rank": 6, "time": 2, "location": {"lat": 23.71161721897, "lng": 102.5038509461717}, "feature": {"sight_features": "", "sight_content": ""}}, {"title": "宝秀镇", "address": "云南红河石屏县郑营", "image": "", "rank": 7, "time": 2, "location": {"lat": 23.749880104148566, "lng": 102.4097628708506}, "feature": {"sight_features": "", "sight_content": ""}}, {"title": "龙韵养生谷", "address": "红河市石屏县龙朋镇竹园林区216省道旁", "image": "", "rank": 8, "time": 2, "location": {"lat": 23.58134081989212, "lng": 102.38875994905096}, "feature": {"sight_features": "", "sight_content": "龙韵养生谷拥有天然森林氧吧浴池、万亩竹海、浪漫樱花谷、魅力野营、真人cs、野生三七、天麻、石斛等中药材采挖和美丽邂逅野生菌等休闲度假项目，住森林别墅木屋，享森林富氧、吃养生药膳，亲近自然，远离城市喧嚣，天人合一。"}}, {"title": "龙韵养生谷温泉", "address": "龙朋镇竹园林区216省道旁", "image": "", "rank": 9, "time": 2, "location": {"lat": 23.970731814998317, "lng": 102.68551840807397}, "feature": {"sight_features": "", "sight_content": ""}}, {"title": "长春阁", "address": "云南省石屏县宝秀镇郑营村西山腰 662203", "image": "", "rank": 10, "time": 2, "location": {"lat": 23.750279270096623, "lng": 102.41069396630799}, "feature": {"sight_features": "", "sight_content": ""}}, {"title": "万德寺", "address": "云南省石屏县异龙镇西南的小西山 662200", "image": "", "rank": 11, "time": null, "location": {"lat": 23.717734644907935, "lng": 102.48722795183375}, "feature": {"sight_features": "", "sight_content": ""}}, {"title": "陈虚白墓", "address": "云南省石屏县县城西1公里的黑龙坡西南 662200", "image": "", "rank": 12, "time": 2, "location": {"lat": 18.143333455927813, "lng": 102.48407160091695}, "feature": {"sight_features": "", "sight_content": ""}}, {"title": "龙在田故居", "address": "云南省石屏县龙朋镇旧寨村 662201", "image": "", "rank": 13, "time": 2.0, "location": {"lat": 23.91174572263938, "lng": 102.5772163656223}, "feature": {"sight_features": "", "sight_content": ""}}, {"title": "石屏县城区清真寺", "address": "云南省红河哈尼族彝族自治州石屏县回民巷40号", "image": "", "rank": 14, "time": 2, "location": {"lat": 23.712004452448983, "lng": 102.50244661977858}, "feature": {"sight_features": "", "sight_content": ""}}, {"title": "阳光生态园", "address": "词干路与035乡道交叉口北150米", "image": "", "rank": 15, "time": 2, "location": {"lat": 31.512281132721064, "lng": 118.42566700052805}, "feature": {"sight_features": "", "sight_content": ""}}, {"title": "文化公园", "address": "红河哈尼族彝族自治州石屏县汇源路45号", "image": "", "rank": 16, "time": 2, "location": {"lat": 23.713200703610237, "lng": 102.49192296324678}, "feature": {"sight_features": "", "sight_content": ""}}, {"title": "工会广场", "address": "红河哈尼族彝族自治州石屏县焕文路16号附近", "image": "", "rank": 17, "time": 2, "location": {"lat": 23.720035374121295, "lng": 102.49242840831639}, "feature": {"sight_features": "", "sight_content": ""}}, {"title": "龙朋基督教会", "address": "116乡道附近", "image": "", "rank": 18, "time": 2, "location": {"lat": 43.43835633260247, "lng": 123.68063053723033}, "feature": {"sight_features": "", "sight_content": ""}}, {"title": "大桥休闲山庄", "address": "323国道附近", "image": "", "rank": 19, "time": 2, "location": {"lat": 24.97631276438632, "lng": 113.87824165692972}, "feature": {"sight_features": "", "sight_content": ""}}, {"title": "龙苑山庄", "address": "216省道附近", "image": "", "rank": 20, "time": 2, "location": {"lat": 40.32216149734673, "lng": 116.0541317406228}, "feature": {"sight_features": "", "sight_content": ""}}, {"title": "多白者易居生态钓鱼", "address": "哨冲镇多白者村", "image": "", "rank": 21, "time": 2, "location": {"lat": 23.912651760398848, "lng": 102.4428065287867}, "feature": {"sight_features": "", "sight_content": ""}}, {"title": "蔡营水库葡萄园", "address": "在徐杨寨附近", "image": "", "rank": 22, "time": 2, "location": {"lat": 37.47869648144914, "lng": 105.34262314830373}, "feature": {"sight_features": "", "sight_content": ""}}, {"title": "陈氏宗祠 Chen ancestral house", "address": "云南省石屏县宝秀镇郑营村", "image": "", "rank": 23, "time": 2, "location": {"lat": 23.750279270096623, "lng": 102.41069396630799}, "feature": {"sight_features": "", "sight_content": ""}}, {"title": "惠远桥", "address": "云南省石屏县大桥乡杨家田村", "image": "", "rank": 24, "time": 2, "location": {"lat": 23.859852256245766, "lng": 102.3654593845373}, "feature": {"sight_features": "", "sight_content": ""}}, {"title": "石屏峰", "address": "云南省石屏县西正街127号", "image": "", "rank": 25, "time": 2, "location": {"lat": 23.7199770991895, "lng": 102.49775170091189}, "feature": {"sight_features": "", "sight_content": ""}}, {"title": "元都木元帅墓", "address": "云南省石屏县黑龙坡", "image": "", "rank": 26, "time": 2, "location": {"lat": 23.72931119447435, "lng": 102.48407160091695}, "feature": {"sight_features": "", "sight_content": ""}}, {"title": "赤瑞湖", "address": "云南省石屏县宝秀镇南", "image": "", "rank": 27, "time": 2, "location": {"lat": 23.762504131666024, "lng": 102.42118521167758}, "feature": {"sight_features": "", "sight_content": ""}}, {"title": "洄澜阁", "address": "云南省石屏县异龙湖东出水口处", "image": "", "rank": 28, "time": 2, "location": {"lat": 23.68144887237292, "lng": 102.55786759975769}, "feature": {"sight_features": "", "sight_content": ""}}, {"title": "石屏文庙及玉屏书院", "address": "云南省红河哈尼族彝族自治州石屏县环城东路", "image": "", "rank": 29, "time": 2.5, "location": {"lat": 23.72046674114056, "lng": 102.50209822815616}, "feature": {"sight_features": "", "sight_content": ""}}, {"title": "石屏老街", "address": "红河哈尼族彝族自治州石屏县内", "image": "", "rank": 30, "time": 3.0, "location": {"lat": 23.712004452448983, "lng": 102.50244661977858}, "feature": {"sight_features": "", "sight_content": ""}}]}