{"cityName": "石泉", "days": 2, "cityImage": "", "spots": [{"title": "燕翔洞", "address": "安康市石泉县熨斗镇汉江燕翔洞生态旅游区", "image": "", "rank": 1, "time": 1.5, "location": {"lat": 32.81947938624952, "lng": 108.2872585588711}, "feature": {"sight_features": "", "sight_content": ""}}, {"title": "中坝大峡谷", "address": "安康市石泉县中坝乡", "image": "", "rank": 2, "time": 3.0, "location": {"lat": 32.93201669767227, "lng": 108.18034608271942}, "feature": {"sight_features": "特色1 窄、长、秀、奇、清、灵、野、神、险、幽", "sight_content": "石泉北依秦岭，南接巴山，汉水横贯全境，呈“两山夹一川”之势。因县城南石隙多泉于西魏废帝元年得名石泉，属梁州，自古兴桑养蚕。石泉旅游以一江两湖、水乡古镇、喀斯特溶洞、中坝大峡谷而享誉陕西。游山水江河，品腊味烤鱼，逛水乡古镇，听小城故事，享快乐时光，这里是石泉。\n一个秦巴山间，汉江水畔的小城。\n一个历史悠久，人杰地灵的小城。\n一个民风淳朴、热情好客的小城。\n石泉，非去不可.....\n\n大峡谷七公里，整个峡谷为一线天，最宽处仅有十米，千曲百折，曲径如走蛇。两侧岩壁层层叠叠，垂直高度千米，森林密布，许多地方抬头不见天。有壁立千韧的舍身崖，高耸入云千余米；有栩栩如生的鹞子岩；有刀削剑劈的鹰嘴峰，还有的腰峡等景点 。\n\n小峡谷宽不盈米，峡内地势高峻，水流湍急，山石奇趣，奇峰秀瀑，危岩多峭，在一公里内河流几次瀑跌。牛心峡别有洞天。有形状似兽、似物，姿态万千。有的似龟、有的似兔、有的似瓜，在峡谷里横卧有不少大小不等、重重叠叠、妙趣天成的玩石，如牛心石、连心石、仙人石、等都是美妙绝伦、惟妙惟肖。"}}, {"title": "中坝河谷漂流", "address": "安康市石泉县后柳镇中坝乡", "image": "", "rank": 3, "time": 2, "location": {"lat": 32.93201669767227, "lng": 108.18034608271942}, "feature": {"sight_features": "", "sight_content": ""}}, {"title": "鬼谷岭国家森林公园", "address": "安康市石泉县城关镇境内，距石泉县县城30公里", "image": "", "rank": 4, "time": 4.5, "location": {"lat": 33.04329771000421, "lng": 108.25856178601568}, "feature": {"sight_features": "", "sight_content": ""}}, {"title": "子午银滩景区", "address": "安康市石泉县两河镇", "image": "", "rank": 5, "time": 3.0, "location": {"lat": 33.27193525348521, "lng": 108.1269481073915}, "feature": {"sight_features": "", "sight_content": ""}}, {"title": "后柳镇", "address": "安康市石泉县", "image": "", "rank": 6, "time": 2, "location": {"lat": 33.04460211026271, "lng": 108.2544267959227}, "feature": {"sight_features": "", "sight_content": ""}}, {"title": "熨斗古镇", "address": "川楚古道", "image": "", "rank": 7, "time": 2, "location": {"lat": 32.80223578702345, "lng": 108.16910942163759}, "feature": {"sight_features": "", "sight_content": ""}}, {"title": "两河水乡", "address": "安康市石泉县两河镇童关村两河水乡", "image": "", "rank": 8, "time": 2, "location": {"lat": 33.278222700110305, "lng": 108.09278845217044}, "feature": {"sight_features": "", "sight_content": ""}}, {"title": "绿布厂农家乐", "address": "石蒿路西50米", "image": "", "rank": 9, "time": 2, "location": {"lat": 32.84202999770442, "lng": 108.24479848797512}, "feature": {"sight_features": "", "sight_content": ""}}, {"title": "儿童乐园", "address": "陕西省安康市石泉县人民路", "image": "", "rank": 10, "time": 2, "location": {"lat": 33.04517551466259, "lng": 108.2538556928049}, "feature": {"sight_features": "", "sight_content": ""}}, {"title": "北辰公园", "address": "金山路附近", "image": "", "rank": 11, "time": 1.0, "location": {"lat": 38.83072747913637, "lng": 115.41979725460119}, "feature": {"sight_features": "", "sight_content": ""}}, {"title": "红岩山庄", "address": "泉水路附近", "image": "", "rank": 12, "time": 2, "location": {"lat": 42.54131966132232, "lng": 129.01226396053107}, "feature": {"sight_features": "", "sight_content": ""}}, {"title": "云门寺", "address": "安康市石泉县二一零国道", "image": "", "rank": 13, "time": 2.5, "location": {"lat": 33.248115950769346, "lng": 108.13503040550556}, "feature": {"sight_features": "", "sight_content": ""}}, {"title": "千佛洞石窟", "address": "陕西省石泉县长阳乡", "image": "", "rank": 14, "time": 2, "location": {"lat": 32.86235228909047, "lng": 108.27123527777766}, "feature": {"sight_features": "", "sight_content": ""}}, {"title": "黄家祠堂", "address": "安康市石泉县关池路", "image": "", "rank": 15, "time": 2, "location": {"lat": 33.32091426430099, "lng": 108.53920892112028}, "feature": {"sight_features": "", "sight_content": ""}}, {"title": "滨江公园", "address": "文化南路与滨江大道交叉口东南150米", "image": "", "rank": 16, "time": 3.5, "location": {"lat": 33.040978013860894, "lng": 108.25983598387309}, "feature": {"sight_features": "", "sight_content": ""}}, {"title": "儿童主题乐园", "address": "安康市石泉县", "image": "", "rank": 17, "time": 2, "location": {"lat": 33.04460211026271, "lng": 108.2544267959227}, "feature": {"sight_features": "", "sight_content": ""}}, {"title": "红花广场", "address": "安康市石泉县北环路", "image": "", "rank": 18, "time": 2, "location": {"lat": 33.04774472488906, "lng": 108.25660038713806}, "feature": {"sight_features": "", "sight_content": ""}}, {"title": "春潮广场", "address": "滨江大道附近", "image": "", "rank": 19, "time": 2, "location": {"lat": 25.620828885734245, "lng": 110.6831510068933}, "feature": {"sight_features": "", "sight_content": ""}}, {"title": "欢乐熊儿童主题乐园(石泉店)", "address": "城关镇向阳路家友购物中心", "image": "", "rank": 20, "time": 2, "location": {"lat": 33.04547628963759, "lng": 108.25466996722425}, "feature": {"sight_features": "", "sight_content": ""}}, {"title": "中坝大峡谷民俗博物馆", "address": "陕西省安康市石泉县群英石蒿路后柳镇政府西南150米", "image": "", "rank": 21, "time": 2, "location": {"lat": 32.92681278377054, "lng": 108.2318443637752}, "feature": {"sight_features": "", "sight_content": ""}}, {"title": "雁山瀑布", "address": "安康市石泉县喜河镇境内的541国道旁", "image": "", "rank": 22, "time": 2, "location": {"lat": 32.81449459615444, "lng": 108.28498278091246}, "feature": {"sight_features": "", "sight_content": "雁山瀑布位于陕西省安康市石泉县喜河镇境内，毗邻汉江，北依后柳，南靠喜河，距石泉县城约20公里，从县城出发，国道、汉江水运航道直达景区，交通十分便利。巴山山脉的青龙山、大雁山合抱景区，形成了独特的小气候环境，在峡谷中造就了瀑布、碧潭、溪涧、悬崖、奇石、古藤等自然景观，构成了一幅幅绚丽的山水画卷，被众多专家誉为“生态立体水景”。"}}, {"title": "樱花广场", "address": "向阳路29号", "image": "", "rank": 23, "time": 1.0, "location": {"lat": 38.69132625963613, "lng": 115.79113060095607}, "feature": {"sight_features": "", "sight_content": ""}}, {"title": "石泉图书馆", "address": "人民路", "image": "", "rank": 24, "time": 1.5, "location": {"lat": 23.37490057686854, "lng": 103.40661159663834}, "feature": {"sight_features": "", "sight_content": ""}}, {"title": "志娃子农家乐", "address": "向阳路中段", "image": "", "rank": 25, "time": 2, "location": {"lat": 34.161750069332285, "lng": 109.3213802299541}, "feature": {"sight_features": "", "sight_content": ""}}, {"title": "陈家河坝", "address": "安康市-石泉县", "image": "", "rank": 26, "time": 2, "location": {"lat": 33.04460211026271, "lng": 108.2544267959227}, "feature": {"sight_features": "", "sight_content": ""}}, {"title": "陈水荡", "address": "安康市-石泉县", "image": "", "rank": 27, "time": 2, "location": {"lat": 33.04460211026271, "lng": 108.2544267959227}, "feature": {"sight_features": "", "sight_content": ""}}]}