{"cityName": "石阡", "days": 2, "cityImage": "", "spots": [{"title": "石阡古温泉", "address": "铜仁市石阡县汤山镇", "image": "", "rank": 1, "time": 2.5, "location": {"lat": 27.524416991229277, "lng": 108.2393407463451}, "feature": {"sight_features": "特色1 贵州一家冬天能玩水上乐园的温泉", "sight_content": "【石阡古温泉水上乐园】\n‍‍   ‍‍石阡古温泉占地面积8万平方米，由古城楼、温泉广场、温泉接待大厅、钟乳石景观泡池区、太极八卦泡池、 森林景观泡池区、石林景观泡池区、名贵药池区、连廊泡池区、温泉别墅区、空中‍‍餐厅、美食广场、人工造浪池、儿童水上乐园、大喇叭、七彩滑道、漂流河等。园区内设计独特，功能多样的泡池合计有100多个。\n石阡古温泉有着美丽的传说：乃天赐露天泉眼自然流出天然优质矿热温泉水，无须人工打造，日自涌量可达1000吨，水中富含人体所需的硒、锶、锌、锂、氡、碘、偏硅酸等20多种元素，符合国家《饮用矿泉水标准》，是世界少有、全国唯有既可洗浴，又能直接饮用的天然矿热温泉。素有“天下第一神汤”美誉。\n神奇温泉，风情万种，浩浩如大江。休闲之乐园，疗养之天堂。热矿泉，多元素，浴与饮，皆是福。春浴回阳敛气，夏浴解暑清心，秋浴除愁涤虑，冬浴祛寒健身，素有“天下第一神汤”美称！四时如一，千古不息，神泉雅韵，天下无双！‍‍‍‍‍‍‍‍\n\n\n温泉矿泉水矿化度00.3—0.5g/L.，其中阴离子主要是SO42-、HCO3- ，阳离子主要是C22+、Mg2+。饮用或洗浴这种矿泉水能中和胃酸因汤内食物发酵产生多余的酸，具有增加食欲、缓解肠痉挛的作用，对糖尿病、痛心、风湿病有显著疗效。温泉矿泉水中放射性元素氡量大于6.13ME.氡浴可使心动过速者变慢，心动过缓变快，能使高血压降低、低血压上升；对中枢神经有镇静，止痛和催眠效应，并可治疗关节炎，神经炎、调节妇女内分泌等。此外水中还含有微量的锂、溴、碘、锌等有益人体健康的元素。"}}, {"title": "万寿宫", "address": "铜仁市石阡县汤山镇长征路北端", "image": "", "rank": 2, "time": 1.0, "location": {"lat": 27.524416991229277, "lng": 108.2393407463451}, "feature": {"sight_features": "", "sight_content": ""}}, {"title": "石阡县", "address": "贵州省铜仁石阡县", "image": "", "rank": 3, "time": 2, "location": {"lat": 27.51972205975809, "lng": 108.23046385479006}, "feature": {"sight_features": "", "sight_content": ""}}, {"title": "楼上古寨", "address": "铜仁市石阡县375乡道南50米", "image": "", "rank": 4, "time": 2.5, "location": {"lat": 27.51972205975809, "lng": 108.23046385479006}, "feature": {"sight_features": "", "sight_content": ""}}, {"title": "尧上仡佬族文化村", "address": "铜仁市石阡县佛顶山东麓，坪山乡境内", "image": "", "rank": 5, "time": 4.5, "location": {"lat": 27.32966687543036, "lng": 108.15639127846254}, "feature": {"sight_features": "", "sight_content": ""}}, {"title": "五峰山森林公园", "address": "铜仁市石阡县城东面，距城2.5公里。", "image": "", "rank": 6, "time": 2.5, "location": {"lat": 27.51972205975809, "lng": 108.23046385479006}, "feature": {"sight_features": "", "sight_content": ""}}, {"title": "石阡温泉群", "address": "铜仁市石阡县", "image": "", "rank": 7, "time": 2.5, "location": {"lat": 27.51972205975809, "lng": 108.23046385479006}, "feature": {"sight_features": "", "sight_content": ""}}, {"title": "城南古温泉", "address": "长寿街554号", "image": "", "rank": 8, "time": 2, "location": {"lat": 27.519394180789554, "lng": 108.2341231957075}, "feature": {"sight_features": "", "sight_content": ""}}, {"title": "石阡县万安卡塘坳仔猪繁殖基地", "address": "305省道附近", "image": "", "rank": 9, "time": 2, "location": {"lat": 38.97180225572126, "lng": 112.6319987223776}, "feature": {"sight_features": "", "sight_content": ""}}, {"title": "佛顶山", "address": "贵州省石阡县石阡县、施秉县、镇远县三县交界处 555100", "image": "", "rank": 10, "time": 3.5, "location": {"lat": 27.054820913900503, "lng": 108.43658077263082}, "feature": {"sight_features": "", "sight_content": ""}}, {"title": "红二红六军团总指挥部旧址陈列馆", "address": "贵州省石阡县越城路石阡县公安局附近", "image": "", "rank": 11, "time": 2, "location": {"lat": 27.525058973433687, "lng": 108.23967994560725}, "feature": {"sight_features": "", "sight_content": ""}}, {"title": "成氏墓群", "address": "贵州省石阡县城北 555100", "image": "", "rank": 12, "time": 2, "location": {"lat": 27.51972205975809, "lng": 108.23046385479006}, "feature": {"sight_features": "", "sight_content": ""}}, {"title": "佛教石阡县硐沟泰平寺", "address": "文笔山附近", "image": "", "rank": 13, "time": 2, "location": {"lat": 25.100263080895115, "lng": 112.96860781948295}, "feature": {"sight_features": "", "sight_content": ""}}, {"title": "石阡县观音寺", "address": "305省道附近", "image": "", "rank": 14, "time": 2, "location": {"lat": 38.97180225572126, "lng": 112.6319987223776}, "feature": {"sight_features": "", "sight_content": ""}}, {"title": "石阡县天主教会", "address": "长征路附近", "image": "", "rank": 15, "time": 2, "location": {"lat": 39.141346527814115, "lng": 117.23987241332537}, "feature": {"sight_features": "", "sight_content": ""}}, {"title": "红二、红六军团总指挥部旧址陈列...", "address": "越城路石阡县公安局附近", "image": "", "rank": 16, "time": 2, "location": {"lat": 27.525058973433687, "lng": 108.23967994560725}, "feature": {"sight_features": "", "sight_content": ""}}, {"title": "佛顶山温泉小镇", "address": "铜仁市石阡县中坝镇", "image": "", "rank": 17, "time": 2, "location": {"lat": 27.51972205975809, "lng": 108.23046385479006}, "feature": {"sight_features": "", "sight_content": "佛顶山温泉小镇栖息在石阡佛顶山脚下，温泉小镇分三期推进，拟建成以温泉疗养为核心，集集观光旅游、度假养生等休闲旅游项目为一体的温泉主题小镇。目前已开放的温泉区环境清幽，温泉泡池掩映在植物中，使人在泡温泉时，可以享受自然风光。"}}, {"title": "夜郎文化遗产展馆", "address": "长征路", "image": "", "rank": 18, "time": 2, "location": {"lat": 39.141346527814115, "lng": 117.23987241332537}, "feature": {"sight_features": "", "sight_content": ""}}, {"title": "温泉时光客栈", "address": "汤山镇北塔大道城北小区", "image": "", "rank": 19, "time": 2, "location": {"lat": 27.537371153590684, "lng": 108.24038046041322}, "feature": {"sight_features": "", "sight_content": ""}}, {"title": "石阡画廊", "address": "市石阡县福天领秀城对面三排街唐朝养生馆旁", "image": "", "rank": 20, "time": 2.0, "location": {"lat": 27.512919367595106, "lng": 108.22464491466457}, "feature": {"sight_features": "", "sight_content": ""}}, {"title": "石阡县图书馆", "address": "佛顶山北路100", "image": "", "rank": 21, "time": 2, "location": {"lat": 27.52855202252839, "lng": 108.23306240829045}, "feature": {"sight_features": "", "sight_content": ""}}, {"title": "鸳鸯街步行街", "address": "贵州省石阡县长征路", "image": "", "rank": 22, "time": 2, "location": {"lat": 27.52723135694065, "lng": 108.23782169555875}, "feature": {"sight_features": "", "sight_content": ""}}, {"title": "荣华步行街", "address": "贵州省石阡县长征路", "image": "", "rank": 23, "time": 2, "location": {"lat": 27.52723135694065, "lng": 108.23782169555875}, "feature": {"sight_features": "", "sight_content": ""}}, {"title": "花门坳", "address": "铜仁市-石阡县", "image": "", "rank": 24, "time": 2, "location": {"lat": 27.51972205975809, "lng": 108.23046385479006}, "feature": {"sight_features": "", "sight_content": ""}}, {"title": "玉屏晴雪", "address": "贵州省玉屏侗族自治县县境内 554001", "image": "", "rank": 25, "time": 2, "location": {"lat": 27.248557881455984, "lng": 108.92056352699828}, "feature": {"sight_features": "", "sight_content": ""}}, {"title": "石阡知青农场养生基地", "address": "铜仁市石阡县白沙镇铁矿山村", "image": "", "rank": 26, "time": 2.5, "location": {"lat": 27.45419826090444, "lng": 108.0809008248033}, "feature": {"sight_features": "", "sight_content": "石阡知青农场养生基地以“知青农场”为基础，现茶园观光、餐饮住宿、知青博物馆、溶洞探险、丛林穿越，亲子游乐园、七彩滑道等已经投入使用。"}}, {"title": "禹王宫", "address": "贵州省铜仁市石阡县", "image": "", "rank": 27, "time": 0.35, "location": {"lat": 27.51972205975809, "lng": 108.23046385479006}, "feature": {"sight_features": "", "sight_content": ""}}]}