{"cityName": "石首", "days": 2, "cityImage": "", "spots": [{"title": "东岳寺", "address": "荆州市石首市三义寺汽渡口附近", "image": "", "rank": 1, "time": 1.5, "location": {"lat": 29.766000807912476, "lng": 112.40676288458855}, "feature": {"sight_features": "", "sight_content": ""}}, {"title": "南岳山森林公园", "address": "荆州市石首市南岳山大道", "image": "", "rank": 2, "time": 2.5, "location": {"lat": 29.715374827801856, "lng": 112.44582209926855}, "feature": {"sight_features": "", "sight_content": ""}}, {"title": "龙泉农业生态园", "address": "荆州石首市久合垸殷家洲村", "image": "", "rank": 3, "time": 2.0, "location": {"lat": 29.575942225839075, "lng": 112.38273633740944}, "feature": {"sight_features": "", "sight_content": ""}}, {"title": "麋鹿国家级自然保护区", "address": "大垸镇新码头", "image": "", "rank": 4, "time": 3.5, "location": {"lat": 29.814457285325098, "lng": 112.54224118935333}, "feature": {"sight_features": "", "sight_content": ""}}, {"title": "走马岭遗址", "address": "湖北省石首市焦山河镇走马岭村 477108", "image": "", "rank": 5, "time": 0.4, "location": {"lat": 29.66609110778636, "lng": 112.5311914396009}, "feature": {"sight_features": "", "sight_content": ""}}, {"title": "喜乐葡萄采摘园", "address": "明珠大道南岳社区育才驾校正后方", "image": "", "rank": 6, "time": 2, "location": {"lat": 29.724121909697814, "lng": 112.43958094118062}, "feature": {"sight_features": "", "sight_content": ""}}, {"title": "石首市科技馆", "address": "中山路", "image": "", "rank": 7, "time": 2.5, "location": {"lat": 38.66222906049726, "lng": 114.96165161435523}, "feature": {"sight_features": "", "sight_content": ""}}, {"title": "惠之家草莓采摘乐园", "address": "肖家岭高基庙镇忠义庙村", "image": "", "rank": 8, "time": 2, "location": {"lat": 29.688752001606108, "lng": 112.41583834927144}, "feature": {"sight_features": "", "sight_content": ""}}, {"title": "建丰葡萄园", "address": "陈家铺童人桥附近", "image": "", "rank": 9, "time": 2, "location": {"lat": 29.692513382927288, "lng": 112.49257814018269}, "feature": {"sight_features": "", "sight_content": ""}}, {"title": "石首市休干所", "address": "南岳山大道3", "image": "", "rank": 10, "time": 2, "location": {"lat": 29.72651705280551, "lng": 112.42534300905568}, "feature": {"sight_features": "", "sight_content": ""}}, {"title": "皇茶苑", "address": "文源巷与笔架山路交叉口西北50米", "image": "", "rank": 11, "time": 2, "location": {"lat": 29.723407289187293, "lng": 112.42008675133197}, "feature": {"sight_features": "", "sight_content": ""}}, {"title": "陶然居休闲山庄", "address": "笔架山路7-6号", "image": "", "rank": 12, "time": 2, "location": {"lat": 29.725245701287264, "lng": 112.41365682961238}, "feature": {"sight_features": "", "sight_content": ""}}, {"title": "皇林寺", "address": "东山路西150米", "image": "", "rank": 13, "time": 2, "location": {"lat": 49.59462222100006, "lng": 117.47039340760917}, "feature": {"sight_features": "", "sight_content": ""}}, {"title": "龙泉寺", "address": "桃花山镇鹿角头村五组", "image": "", "rank": 14, "time": 3.0, "location": {"lat": 29.690552344881958, "lng": 112.75048098457118}, "feature": {"sight_features": "", "sight_content": ""}}, {"title": "白果寺", "address": "新狮线西50米", "image": "", "rank": 15, "time": 2, "location": {"lat": 29.64325761916633, "lng": 112.30867268574717}, "feature": {"sight_features": "", "sight_content": ""}}, {"title": "蹇家祠堂", "address": "岳阳市华容县", "image": "", "rank": 16, "time": 2, "location": {"lat": 29.536286434381537, "lng": 112.54746151216173}, "feature": {"sight_features": "", "sight_content": ""}}, {"title": "仙人洞度假村", "address": "荆州市石首市桃花山生态园内", "image": "", "rank": 17, "time": 2, "location": {"lat": 29.68087660856966, "lng": 112.7340892733596}, "feature": {"sight_features": "", "sight_content": ""}}, {"title": "文善庙", "address": "湖北省荆州市石首市幸福路", "image": "", "rank": 18, "time": 2, "location": {"lat": 29.778156294386505, "lng": 112.63055450231559}, "feature": {"sight_features": "", "sight_content": ""}}, {"title": "陈家湖公园", "address": "湖北省荆州市石首市解放大道", "image": "", "rank": 19, "time": 2, "location": {"lat": 29.717411516520574, "lng": 112.41391113181741}, "feature": {"sight_features": "", "sight_content": ""}}, {"title": "石首市图书馆(南岳山大道店)", "address": "南岳山大道176号", "image": "", "rank": 20, "time": 2, "location": {"lat": 29.7270838156717, "lng": 112.4384313625521}, "feature": {"sight_features": "", "sight_content": ""}}, {"title": "石首市图书馆(笔架山路店)", "address": "笔架山路88号", "image": "", "rank": 21, "time": 2, "location": {"lat": 29.725048992880883, "lng": 112.41284000041242}, "feature": {"sight_features": "", "sight_content": ""}}, {"title": "天鹅洲白暨豚保护区", "address": "220省道", "image": "", "rank": 22, "time": null, "location": {"lat": 40.38775563397051, "lng": 115.90384459998963}, "feature": {"sight_features": "", "sight_content": ""}}, {"title": "黑鱼湖鱼场", "address": "幸福路", "image": "", "rank": 23, "time": 2, "location": {"lat": 39.711873989517485, "lng": 116.72200968560766}, "feature": {"sight_features": "", "sight_content": ""}}, {"title": "飞天游乐园", "address": "东方大道与碧玉街交叉口北50米", "image": "", "rank": 24, "time": 2, "location": {"lat": 29.733979302926432, "lng": 112.42059169155388}, "feature": {"sight_features": "", "sight_content": ""}}, {"title": "刻字大王", "address": "建设路83号", "image": "", "rank": 25, "time": 2, "location": {"lat": 36.08770621176314, "lng": 111.5316796570434}, "feature": {"sight_features": "", "sight_content": ""}}, {"title": "绿色无公害牛奶草莓园", "address": "东方街精神病医院旁边", "image": "", "rank": 26, "time": 2, "location": {"lat": 30.449490762505864, "lng": 106.64181650205055}, "feature": {"sight_features": "", "sight_content": ""}}, {"title": "天鹅洲糜鹿保护区", "address": "湖北省石首市天鹅洲", "image": "", "rank": 27, "time": 2, "location": {"lat": 29.72703397740694, "lng": 112.43141984370993}, "feature": {"sight_features": "", "sight_content": ""}}, {"title": "九溪关庙", "address": "湖南省慈利县江垭镇境内", "image": "", "rank": 28, "time": 2, "location": {"lat": 29.499825273328437, "lng": 110.7763719802449}, "feature": {"sight_features": "", "sight_content": ""}}, {"title": "横沟市商业城", "address": "湖北省石首市220省道附近", "image": "", "rank": 29, "time": 2, "location": {"lat": 29.895332157609595, "lng": 112.45645813352016}, "feature": {"sight_features": "", "sight_content": ""}}, {"title": "三菱湖鱼场", "address": "荆州市-石首市-桃花山镇", "image": "", "rank": 30, "time": 2, "location": {"lat": 29.669599081818575, "lng": 112.71530639954231}, "feature": {"sight_features": "", "sight_content": ""}}, {"title": "科技馆(沙发家私城)", "address": "荆州市-石首市-中山街与新建路交叉口东北50米石首科技馆", "image": "", "rank": 31, "time": 2, "location": {"lat": 29.720380755333267, "lng": 112.40982728136015}, "feature": {"sight_features": "", "sight_content": ""}}, {"title": "桃花山三菱湖水上乐园", "address": "荆州市-石首市", "image": "", "rank": 32, "time": 2, "location": {"lat": 29.72703397740694, "lng": 112.43141984370993}, "feature": {"sight_features": "", "sight_content": ""}}]}