{"cityName": "石台", "days": 2, "cityImage": "", "spots": [{"title": "蓬莱仙洞", "address": "池州市石台县仁里镇杜村", "image": "", "rank": 1, "time": 1.5, "location": {"lat": 30.232724845486683, "lng": 117.54555842484196}, "feature": {"sight_features": "特色1 黄山归来不看岳，蓬莱归来不看洞。 特色2 以“山水壁画、千佛山、罗纱帐、天丝”而闻名于世。", "sight_content": "石台县蓬莱仙境风景区，位于石台县城东向6公里处的杜村前山，仁里镇境内，晚唐著名诗人杜荀鹤故里所在地。蓬莱仙洞风景区是国家4a级风景区，安徽省第一批省级名胜风景区，全省首批地质公园。石台县素有溶洞之乡的美名，见诸地方典籍记载的、有名称的溶洞，有一百多个。可以这样说，到目前为止，蓬莱仙洞是已被发现的溶洞景观中，最为优秀的代表作。\n蓬莱仙洞作为蓬莱仙洞风景区的主体作品，具有体量大、层次丰富、景观别致的显著特色。就已开发开放的部分而言，洞体全长3千多米，近七华里路长；洞体呈鹿角状朝西、南、东三个方向，在石灰岩层中曲折延伸，匍匐前进，形成天洞、中洞、地洞、地下河四层结构；洞内可供游览面积达到2万多个平方米。溶洞开发之后，依据其自然形态，被分为迎宾厅、探海长廊、东海龙宫、通明宫、迷仙宫、玉蟾宫、银河长廊、瑶池、南海、朝音殿、送客厅10个景点。每个景点都有自己的镇点之宝，探海长廊中的“落地金钟”、通明宫中的“凌霄宝殿”、玉蟾宫入口处的“石花”、银河长廊中的“天马行空”，等等，无不各具特色，各有千秋。但在大大小小的近百处景点中，最为游客所称道的是“蓬莱四绝”：山水浮雕、罗纱帐、千佛山、天丝（天女散花）。\n“四绝”依次分布于通明宫前端迷仙宫的入口、瑶池和南海。一绝“山水浮雕”，又被叫着“天然壁画”。这是一个巨大的岩体溶蚀景，景中楼台亭阁，山环水绕，起伏跌宕，仿佛人工就地精心雕琢而成，令人称奇。二绝是“罗纱帐”。罗纱帐是由高纯度碳酸钙凝结而成的巨大的结晶体，浑如帐幔，从洞顶直垂到溶洞的底部，因其颜色洁白如玉，晶莹剔透，故名“罗纱帐”。这种高纯度的碳酸钙结晶体在地质学上被称为“石盾”。类似的结晶体在在其他的一些溶洞景观中，也有可能见到；但是，像这样大体量的“石盾”，从目前已经掌握的信息看，当是国内仅有，华东唯一。三绝“千佛山”和四绝“天丝”，同在南海景点中。千佛山是由无数个莲花瓣状、黄褐色的钟乳石自然垒砌而成的洞中山，高约20米，围度约50米。雄伟壮观。四绝“天丝”，又被叫着“天女散花”。南海西南侧溶洞穹顶上，悬挂着无以数计的玻璃管状结晶体，晶明透亮，仿佛一场急雨从天而降，却又因为某种神力的不期而至，使“雨丝”僵持在了半空中，从而被游客们因物象形的叫着“天丝”；也有的游客，将天丝叫着“天女散花”。理由是：那些玻璃管状的、密密匝匝的碳酸钙结晶体，是“天女”散花时，飘散在空中的花絮所形成的。从某种意义上说，蓬莱仙洞从一般的观赏层面而跃进到旅游经济的新天地，四绝的被发现，是起到了至关重要的引发和引爆作用的。\n蓬莱仙洞，是石台县历史上的一大名洞。明万历三十二年和康熙十四年的《石埭县志》上都有关于蓬莱仙洞的具体记载。在万历三十二年的《石埭县志》上，蓬莱仙洞被写着“蓬莱第一洞”：“入其中，宽广可容数百人。中有‘积翠台’、‘莲花柱’、‘华盖岩’、‘夕照光明’，五彩烂然，苍碧错列，奇不可尽述”。同一志书中，还收录了时人沈懋学的《蓬莱洞》诗：“天开玉洞欲为题，此地桃园路不迷。千叠岚光浮碧落，百盘石凳接丹梯。晓看真气双龙合，晚眺仙台万象低。他日山灵终不负，吾将从尔结幽栖。”但是，相对于现在开发开放的实际深度而言，当时志书中的记载包括诗歌所描述的内容，尚只是局限于蓬莱仙洞——地洞中的景物。真正使蓬莱仙洞“名扬天下”，登上县域经济发展、特别是旅游经济建设的殿堂，是天洞的被发现——亦即洞中的“四绝”被发现之后，才真正揭开了蓬莱仙洞新的历史篇章。"}}, {"title": "秋浦河景区", "address": "池州市石台县矶滩乡杨坑村秋浦河景区", "image": "", "rank": 2, "time": 2, "location": {"lat": 30.237713055985918, "lng": 117.44534222877536}, "feature": {"sight_features": "特色1 河水澄碧如秋，两岸风景如画 特色2 曲折回环，滩险水急，被称为流淌着诗的河", "sight_content": "秋浦河漂流发源于皖南深山区（森林覆盖率87%）石台县境内的秋浦河，河水澄碧如秋，两岸风景如画。唐代著名诗人李白数游秋浦，留下脍炙人口的《秋浦河十七首》，如“山鸡羞绿水，不敢照毛衣”、“千千石楠树，万万女贞林”成为秋浦河秀色的真实写照。秋浦河漂流将带给你全新的漂流体验。秋浦河漂流段最具特色：两岸古树依依、河道滩险水急，李白笔下的“水车岭、驼鸟湾、鱼梁坝”等悉数再现。秋浦河漂流，全长5公里，途经多个险滩，礁石林立形态各异，乘坐皮筏可戏水中流激情冲浪。\n\n秋浦河皮筏漂流，全长15公里，途经14个险滩，礁石林立形态各异，乘坐皮筏可戏水中流激情冲浪。游客进入景区可在河岸推石磨、踩水车，在水上餐厅品尝秋浦渔人竹筒饭，在沙滩上自助烘烤，在河湾里嬉水捉鱼，在古柳林中弯弓狩猎，是漂流休闲的好去处。\n\n百丈崖户外旅游区位于石台县十四公里处，矶滩乡洪岩村境内。与秋浦河漂流相依，百丈崖景区内自然生态环境优美，植被覆盖率高达90%以上，绿视率达95%以上，空气清新，气候宜人，空气中的含氧量及氯子浓度高，是一座天然的大氧吧！百丈崖不仅是优美的生态游区，而且是开展户外拓展运动的理想佳境。开发者坚持从本地实际出发，依山就势兴建了名目繁多，异彩纷呈的户外拓展设施，相继开展了走钢丝、渡索桥、攀石崖、过天梯、学狞猎、爬软梯、溯溪源……等多项户外拓展运动。"}}, {"title": "鱼龙洞", "address": "池州市石台县七都镇", "image": "", "rank": 3, "time": 1.5, "location": {"lat": 30.260214624482582, "lng": 117.76654376856875}, "feature": {"sight_features": "特色1 鱼龙洞洞口如张开的鳄鱼嘴", "sight_content": "明代何尹诗曰：“清泉出幽壑，红日映苍岩。绝妙鱼龙洞，尘壤别一天”。鱼龙洞位于皖南石台县六都乡境内，洞境深幽,奇石林立,千姿百态,冬暖夏凉。进洞不久，便可看到一像龙、一像鱼的两座石头,分立两侧，顾盼有情。“鱼龙洞”的名字便是由此而来。\n鱼龙洞是省级风景名胜区，坐落于石台县东部六都乡鱼龙村境内，与太平湖衣袂相连，距举世闻名的黄山50公里，距佛教胜地九华山25公里。鱼龙洞洞口如张开的鳄鱼嘴，一泓碧水淙淙而出，终年不涸。该洞全长5000余米，有清澈的地下河贯穿始终，初极窄，复开阔，气势磅礴，宏伟观。\n鱼龙宫如此雄伟壮观、钟乳交错、溪水甘碧，真乃仙人之境。古往今来，不知陶醉了多少过往游客。人们不禁要问：鱼龙宫是不是自古以来就是这样呢？不是的，它是随着漫长的地壳运动，历尽沧桑以后的产物。在距今6－4亿年前的古代早期——寒武纪、奥陶纪和志留纪的时期，鱼龙宫及其邻近地区、是浅海或海滩地带。\n经过印支运动的影响，从茫茫的海洋变成陆地，中生代末期，燕山运动强烈的岩浆，沿着地壳深处的断裂缝隙侵入伸展，经过冷凝作用，鱼龙宫的雏型基本上奠定下来。"}}, {"title": "醉山野度假区", "address": "池州市石台县黄崖大峡谷（大瀑布）", "image": "", "rank": 4, "time": 2, "location": {"lat": 30.216530337189035, "lng": 117.49239440959089}, "feature": {"sight_features": "特色1 拥有奇异的峡谷、壮丽的山岳、秀美的水景", "sight_content": "安徽首座5D高空玻璃桥对外开放---石台县醉山野·醉仙谷玻璃桥全长218米，离地面最大悬空高度108米。游人站在桥上可欣赏景区美景，看山峦起伏，绿野葱葱，秀美景色尽收眼底。\n除了观景效果绝佳外，游客踩在桥上还可以体验到玻璃突然碎裂的感觉，以及5D技术的“鱼在水中游，人在田间走”的感觉。\n醉山野——黄崖大峡谷景区坐落于池州市石台县仁里镇缘溪度假村，距离石台县城5公里。峡谷背靠绵山，面朝绿野，花香树绿。\n她不同于九寨沟的“童话世界”，也异于牯牛降的“华东最后片原始森林”。这里浓缩了皖南自然山水的精华。水坝、翠潭、叠瀑、彩林、山峰、比比皆是。\n另外黄崖大峡谷及周边区域，生态条件十分优越，不仅有仙人尖、观音尖、杉山尖等多座海拔1000米以上的山峰，且保存有近13平方公里茂密的原始天然林，山势险峻，树木蓊郁，清溪回流，静谧清幽。"}}, {"title": "古徽道", "address": "池州市石台县仙寓镇", "image": "", "rank": 5, "time": 3.0, "location": {"lat": 30.08325604590206, "lng": 117.3788660570871}, "feature": {"sight_features": "", "sight_content": ""}}, {"title": "中国富硒第一村", "address": "池州市石台县仙寓镇中国富硒第一村古徽道景区", "image": "", "rank": 6, "time": 2, "location": {"lat": 30.08325604590206, "lng": 117.3788660570871}, "feature": {"sight_features": "特色1 傩戏、坐唱的发祥地之一", "sight_content": "中国三大富硒村之一的大山村，地处皖南石台县仙寓山镇境内的崇山峻岭之中，东面与牯牛降相接，西面与著名生态旅游区仙寓山相连，他们都是黄山山脉向西延伸的主体，海拔高度1000余米，是一片古老而神奇的山中福地。\n\n大山村现有人口480余人，其中80岁以上的老人占12%，而且近50年来未发现一个村民患癌症，也未曾发现一例肥胖症患者，是个名副其实的“长寿村”、“瘦子村”。大山村有三个村民组，王村，李村，洪村，自然风景十分优美，崇山峻岭的山脉绵延起伏，古树苍翠，山谷沟涧纵横，流泉飞瀑，山腰上茶园翠绿，梯田层层，还有那明清时期的古村落、富硒神泉、富硒茶园、神龙谷、将军岩、老虎岩、青蛙石、观音洞、天方湖等，美丽的景观与神奇的富硒村构建成了一个充满神韵和魅力的人间天堂。2004年2月，中国科技大学绿色科技中心的专家来到大山村，对这里的土壤进行了化验分析，发现大山村竟是全国罕见爱你的富硒村。根据安徽省科技咨询中心微量元素咨询部和安徽省微量元素科学研究会的检测报告得知：土壤中的硒含量主要取决于土壤母质的硒含量。石台大山村茶山上的土属于含石煤和腐殖质较高的黄棕壤，他的土壤性质与全国另外两个富硒村陕西的紫阳，湖北恩施的富含石煤的富硒土壤类似，经分析检测，石台大山村茶山土壤每克平均含硒4.4微克。\n\n陕西紫阳每克土壤含硒3.98微克，湖北恩施每克土壤含硒9.7微克，所以，石台大山村土壤平均含硒量在紫阳和恩施之间，高于普通土壤20倍。据有关资料证实，硒是人体必需的微量元素，但也不是越多越好，凡是都有一个度，硒含量过高，对人体不但无益，反而有害。影响人体对其他微量元素的吸收；若硒含量过低了，就打不到人体营养保健的效果；大山村土壤平均含硒量比紫阳高，比恩施低，介乎二者之间，对人体更有益。而且大山村富硒土壤面积约200公顷，这样大面积的富硒区域，在全国实属罕见。安徽的大山村不愧为中国富硒第一村。大山茶叶均为富硒有机茶，一个曾经下放到大山村的铜陵市退休职工王剑三，97年2月到医院检查时，发现得了胃癌，多方治疗均不见好转，心灰意冷之下想起了他当年下放过的大山村，那里空气好，环境幽静，是个疗养的好地方，老王怀着“死马当作活马医”的心态，来到了久别的大山，依山结棚而居，种一洼菜地，没事爬山，摘野果，生活自己自足，过着与世隔绝的日子。5年后，老王清瘦了，但却变得更加精神了，胃口也增大而胃部的疼痛也逐年减轻之后，老王又到医院复查，令人惊讶的是他的癌细胞竟然奇迹般的消失了，这件事很快引起了媒体和科技界的关注。2004年2月，中国科技大学绿色科技中心的专家来到大山村，对这里土壤进毯子化验分析，发现大山村竟是全国罕见的富硒村。据安徽省科技咨询中心微量元素咨询部和安徽省微量元素研究会的检测报告得知，土壤中的硒含量主要取决于土壤母质的硒含量，石台大山茶山上的土属于含石煤和腐殖质较高的黄棕壤，其土壤性质与全国别外两个富硒村，陕西紫阳、湖北恩施的富含石煤的富硒土壤类似。经分析检测，石台大山村茶山土壤每克含硒9。7微克，所以石台山平均含硒量在紫阳和恩施之间，高于普通土壤20倍，正好是人体所需的含量。可以说咱们富硒大山村就是一幅药，这就是神秘的地方之一，正是因为这种神秘的硒挽救了一位患癌晚期老人。"}}, {"title": "秋浦河水上乐园", "address": "池州市石台县矶滩乡杨坑村秋浦河风景区秋浦渔村对岸", "image": "", "rank": 7, "time": 2, "location": {"lat": 30.236297249299316, "lng": 117.44869685278707}, "feature": {"sight_features": "特色1 动感、奇妙、惊险”为游乐个性。 特色2 冒险、卡通、戏水为设计元素。 特色3 刺激的水上乐园。", "sight_content": "浦河水上乐园座落在风景秀丽的秋浦河畔，和秋浦渔村毗邻是秋浦河风景区的核心景区之一，秋浦河水上乐园总投资6000万元，一期已完成水世界10多个项目建设，分别是：山洪暴发、水上闯关、高速滑梯、高速变坡滑梯、皮筏滑梯、敞开滑梯、高空浪摆、七彩滑梯、造浪池、多功能水寨、儿童乐园等。\n石台最值得期待的秋浦河水上乐园位于秋浦河风景区。水上乐园包含山洪暴发、水上闯关、滑梯、水寨等众多戏水、玩水活动。\n乐园以“动感、奇妙、惊险”为游乐个性、冒险、卡通、戏水为设计元素，独具一格的山洪暴发项目，利用声光电最新技术，模仿雷电、暴雨，在大型LED显示屏演示自然洪灾的效果，通过矩阵音响模拟出仿真效果，气势宏大，场面逼真，让游客在快速冲浪前有种空前的自然灾害视觉冲击感受，体验惊险刺激！这一大旅游项目的开发将打造石台一流的水上休闲园区！已吸引许多年轻人、家长儿童的前期够套票期待开业体验。为广大市民需求提供了最有趣的欢乐水世界。"}}, {"title": "秋浦河怪潭漂流", "address": "池州市石台县横渡镇钓鱼台村", "image": "", "rank": 8, "time": 2, "location": {"lat": 30.171169542020618, "lng": 117.60263510855536}, "feature": {"sight_features": "", "sight_content": "怪潭景区位于石台县横渡镇钓鱼台村，地处安徽“两山一湖”黄金旅游线上，风光秀美，交通便利，省道S325、S221线呈“Y”字形交叉于此，是通往上海、南京、合肥、芜湖、九华山、黄山、太平湖等地必经之路。\n怪潭旅游发展有限公司由横渡镇钓鱼台村49户农民入股兴办的企业，公司注册资金560万元，是国家AAAA级景区、2015年中国体育旅游精品景区。 下设诗之河旅行社、怪潭景区、钓鱼台酒店、新桥水电站。\n怪潭景区是国家4A级旅游景区、中国体育体育旅游精品景区。怪潭景区有冠定石台县名的气势雄伟的“三埭石”；春秋战国时楚国金币始祖发掘地周文王庙遗址；大自然鬼斧神工造就的奇石园；神秘莫测五颜六色的怪潭水、姜子牙钓鱼台上的“人间瑶池”；唐朝诗仙李白为秋浦河源头所作的著名诗篇；叹为观止的“树藤恋”；天然古董奇石滩；开心刺激、有惊无险的怪潭漂流；有“高浓度的森林大氧吧”和国家湿地公园，景区内每立方厘米负氧离子含量达18300个，使人感到特别神清气爽，返老还童；来此观景的诗人这样评价：“一步观景，三步称奇，七步喊怪，十步之外目瞪口呆。” 怪潭景区以漂流、古钓台、三埭石、怪潭、水上乐园而得名，周边山清水秀，环境清幽，山水相依。\n怪潭漂流全程约4公里，有冲浪滑道两处，激流险滩五道，水绕山转，山贯水行。时而水平如镜，可以停下双桨，随波漂荡，静养其心，时而波涛汹涌，挺起双桨，劈波斩浪，运动其身。既能享受静中的悠闲，又能感受动中的惊险，愉悦身心，实现动静平衡。极目远眺，只见一缕碧绿的秋水绕山而逝，近观河岸，千姿百态的枫杨古林象一条巨龙蛰伏于水边，苍翠欲滴。沿途经过姜子牙钓台、冠定县名的“三埭石”这一切构成了“一水贯群山，两岸风景秀”的巨幅山水画卷。\n人类来自森林，生命源于海洋。人们亲水的特性，源远流长，寻求涉水之乐，乃人之本能。来到水上乐园，各种游乐设施展现眼前，饱览周围的美景、秀色；抬头只见两岸峰峦叠嶂，峻峭峥嵘；俯首可见水中鱼虾游弋，水草漂荡；侧视岸边嶙峋怪石似龙、似虎、似龟、似蛇……勾起人们无限遐想。惊险刺激，淋漓酣畅。兴趣浓时，驾起“战舰”冲向对方，挑起一场水上激战，以桨做枪，以水为弹，一排排、一串串射向对方，直至每人都变成“落汤鸡”之后，才相视狂笑，前仰后翻！回到岸边，仍不想上岸，登车远去，还不停地回眸张望。真想回来重新登艇，再享受一次水上美感。"}}, {"title": "剡溪漂流", "address": "池州市石台县大演乡陈田村", "image": "", "rank": 9, "time": 2, "location": {"lat": 30.138995619424197, "lng": 117.4866915161625}, "feature": {"sight_features": "", "sight_content": ""}}, {"title": "严家古村", "address": "安徽省池州市石台县牯牛降", "image": "", "rank": 10, "time": 2, "location": {"lat": 30.216530337189035, "lng": 117.49239440959089}, "feature": {"sight_features": "", "sight_content": ""}}, {"title": "秋浦渔村温泉度假村", "address": "池州市石台县秋浦渔村", "image": "", "rank": 11, "time": 2, "location": {"lat": 30.236297249299316, "lng": 117.44869685278707}, "feature": {"sight_features": "", "sight_content": ""}}, {"title": "慈云古洞", "address": "池州市石台县仁里镇缘溪度假村", "image": "", "rank": 12, "time": 3.0, "location": {"lat": 30.233036509468242, "lng": 117.52388635615928}, "feature": {"sight_features": "", "sight_content": "慈云古洞位于石台县仁里镇缘溪度假村，因“慈云山”、“慈云寺”而得名，与醉山野一期项目——黄崖大峡谷景区毗邻，相距仅300 米，距离石台县城仅4公里。\n慈云古洞全长3公里，洞内景观集中，钟乳累累，景水相连，步步有景，清秀俊美，并有地下河从洞内蜿蜒而出。\n最为突出的是冰清玉洁、地心探险、凤凰饮水、雪拥天门、达摩影石、佛手佛影、倒挂石林、梦笔生莲等八大景点。这些景点钟乳石变化万千，形态各异。被誉为我们慈云八宝。\n整个溶洞是以佛教慈孝文化为主题，选用佛教佛陀孝母、西风和尚、目连救母、地藏菩萨等慈孝故事，利用洞内自然景观、人文塑景和洞外的生态旅游区为背景，结合现代LED灯效、电子、舞美等科技打造成为华东第一个集观光、艺术教育、溶洞探险、地质科普为一体的慈孝主题幻境溶洞。"}}, {"title": "金水岸冲浪漂流", "address": "池州市石台县矶滩乡太胜村", "image": "", "rank": 13, "time": 2, "location": {"lat": 30.30753703407432, "lng": 117.47129488670467}, "feature": {"sight_features": "", "sight_content": ""}}, {"title": "目连山", "address": "安徽省石台县矶滩乡境内", "image": "", "rank": 14, "time": 4.5, "location": {"lat": 30.281879272991315, "lng": 117.46062616221371}, "feature": {"sight_features": "特色1 奇特地貌，大自然的鬼斧神工", "sight_content": "目连山，位于安徽省石台县矶滩乡境内，距石台县城16公里。相传梁太子萧统遍访名山大川，来到太胜的“太子岭”，惊叹大自然的鬼斧神工，为弘扬孝悌为先的佛教文化，他给群山命名为“目连山”。古代人对此地形描述为：“目连佛光天下奇，山下一座好阳基，狮象把水口，东水流向西。”\n\n\n目连山属亚热带湿润气候，山地局部气候和垂直气候明显。自然植被保存完整，人为干扰很少，森林植被显示中亚热带较典型的地带性特征，保存有安徽少见的森林植被群落，如白杜鹃、甜槠、青冈、米槠、栲树、苦槠、乌楣栲、绵槠、小叶青冈等组成的各种常绿阔叶林，小叶青冈、鹅掌楸、青钱柳林，南酸枣林、亮叶水青冈林等珍稀落叶阔叶林。动植物资源丰富，已知的有国家重点保护的野生植物18种，国家保护的野生动物29种。这里珍稀名贵动、植物很多，不少属目连山及其邻近地区的特有种类。"}}, {"title": "秋浦第一漂流", "address": "221省道", "image": "", "rank": 15, "time": 2, "location": {"lat": 40.48669646295935, "lng": 116.04420851897628}, "feature": {"sight_features": "", "sight_content": ""}}, {"title": "池州秋浦第一漂", "address": "安徽省石台县石台县", "image": "", "rank": 16, "time": 4.5, "location": {"lat": 30.216530337189035, "lng": 117.49239440959089}, "feature": {"sight_features": "", "sight_content": ""}}, {"title": "矮人部落", "address": "池州市石台县贡溪乡杜村", "image": "", "rank": 17, "time": 2, "location": {"lat": 30.232724845486683, "lng": 117.54555842484196}, "feature": {"sight_features": "", "sight_content": ""}}, {"title": "大山村古树林农家乐", "address": "仙寓镇大山村", "image": "", "rank": 18, "time": 2, "location": {"lat": 30.030591091640535, "lng": 117.38647351540011}, "feature": {"sight_features": "", "sight_content": ""}}, {"title": "富硒农产品专业合作社", "address": "仙寓山风景区大山村", "image": "", "rank": 19, "time": null, "location": {"lat": 30.075900693359653, "lng": 117.35897960236832}, "feature": {"sight_features": "", "sight_content": ""}}, {"title": "仙寓镇硒相农家乐", "address": "仙寓镇大山村", "image": "", "rank": 20, "time": 2, "location": {"lat": 30.030591091640535, "lng": 117.38647351540011}, "feature": {"sight_features": "", "sight_content": ""}}, {"title": "牯牛降剡溪漂流", "address": "025县道附近", "image": "", "rank": 21, "time": 2, "location": {"lat": 44.334060244970765, "lng": 126.1681052384587}, "feature": {"sight_features": "", "sight_content": ""}}, {"title": "怪潭野生动物标本馆", "address": "安徽省石台县钓鱼台村怪潭风景区", "image": "", "rank": 22, "time": 2, "location": {"lat": 30.172573960286613, "lng": 117.60312763150037}, "feature": {"sight_features": "", "sight_content": ""}}, {"title": "儿童乐园", "address": "池州市石台县", "image": "", "rank": 23, "time": 2, "location": {"lat": 30.216530337189035, "lng": 117.49239440959089}, "feature": {"sight_features": "", "sight_content": ""}}, {"title": "悠然雅居农家乐", "address": "矶滩乡矶滩村杨坑队秋浦河水上乐园对面(近221省道)", "image": "", "rank": 24, "time": 2, "location": {"lat": 30.218710354552602, "lng": 117.44921169592908}, "feature": {"sight_features": "", "sight_content": ""}}, {"title": "池州仙寓山度假村", "address": "池州池州市石台县仙寓山度假村", "image": "", "rank": 25, "time": 4.5, "location": {"lat": 30.051153958339334, "lng": 117.36144674814638}, "feature": {"sight_features": "", "sight_content": ""}}, {"title": "世外桃园风景区", "address": "013乡道", "image": "", "rank": 26, "time": null, "location": {"lat": 40.115696897150926, "lng": 116.62995365726826}, "feature": {"sight_features": "", "sight_content": ""}}, {"title": "石台县图书馆电子阅览室", "address": "曙光西路12号", "image": "", "rank": 27, "time": 2, "location": {"lat": 32.54575026469997, "lng": 120.46418280109647}, "feature": {"sight_features": "", "sight_content": ""}}, {"title": "大山村硒露缘农家乐", "address": "仙寓镇大山村", "image": "", "rank": 28, "time": 2, "location": {"lat": 30.030591091640535, "lng": 117.38647351540011}, "feature": {"sight_features": "", "sight_content": ""}}, {"title": "观景台山庄", "address": "枯牛降小学", "image": "", "rank": 29, "time": 2, "location": {"lat": 43.0709336084018, "lng": 122.41733790479995}, "feature": {"sight_features": "", "sight_content": ""}}, {"title": "硒泉山庄农家乐", "address": "安徽省池州市石台县仙寓山风景区", "image": "", "rank": 30, "time": 2, "location": {"lat": 30.075900693359653, "lng": 117.35897960236832}, "feature": {"sight_features": "", "sight_content": ""}}, {"title": "大山村富硒农产品专业合作社", "address": "石台县石台县仙寓山风景区", "image": "", "rank": 31, "time": 2, "location": {"lat": 30.075900693359653, "lng": 117.35897960236832}, "feature": {"sight_features": "", "sight_content": ""}}, {"title": "宜家家居农家乐", "address": "005乡道附近", "image": "", "rank": 32, "time": null, "location": {"lat": 42.08321631584341, "lng": 117.86149951990792}, "feature": {"sight_features": "", "sight_content": ""}}, {"title": "养乐居农家乐", "address": "仁里镇鱼塘", "image": "", "rank": 33, "time": null, "location": {"lat": 30.253681635891247, "lng": 117.52681418534186}, "feature": {"sight_features": "", "sight_content": ""}}, {"title": "黄崖农家乐", "address": "仁里镇鱼塘", "image": "", "rank": 34, "time": 2, "location": {"lat": 30.253681635891247, "lng": 117.52681418534186}, "feature": {"sight_features": "", "sight_content": ""}}, {"title": "池州慈云禅寺", "address": "安徽省石台县慈云山", "image": "", "rank": 35, "time": 4.5, "location": {"lat": 30.216530337189035, "lng": 117.49239440959089}, "feature": {"sight_features": "", "sight_content": ""}}, {"title": "醉山野黄崖大峡谷", "address": "池州市石台县仁里镇缘溪村", "image": "", "rank": 36, "time": null, "location": {"lat": 30.256543066647865, "lng": 117.52355878366525}, "feature": {"sight_features": "特色1 拥有奇异的峡谷、壮丽的山岳、秀美的水景", "sight_content": "醉山野黄崖大峡谷是醉山野度假区一期景区，景区并不算太大，却浓缩了皖南自然山水的精华。\n水坝、翠潭、叠瀑、彩林、山峰、比比皆是。为增强黄崖大峡谷内景点的多样性和娱乐性，先后投入使用了高空滑索和颇具趣味的呐喊喷泉。\n景区内还新建了一座5D高空玻璃桥—醉仙谷玻璃天桥，玻璃天桥全长218米，地面悬空高度108米，非常的惊险刺激"}}]}