{"cityName": "始兴", "days": 2, "cityImage": "", "spots": [{"title": "花果山温泉度假村", "address": "韶关市始兴县罗坝镇上营村", "image": "", "rank": 1, "time": 2, "location": {"lat": 24.862692981258878, "lng": 114.16157431129669}, "feature": {"sight_features": "", "sight_content": ""}}, {"title": "车八岭自然保护区", "address": "韶关市始兴县罗坝镇大水村", "image": "", "rank": 2, "time": 2.5, "location": {"lat": 24.731209455023713, "lng": 114.2673008471741}, "feature": {"sight_features": "", "sight_content": ""}}, {"title": "南岭红沙湾", "address": "韶关市始兴县马市镇", "image": "", "rank": 3, "time": 1.5, "location": {"lat": 25.039358124634937, "lng": 114.17793772857964}, "feature": {"sight_features": "", "sight_content": ""}}, {"title": "黄金汤温泉度假村", "address": "罗坝镇刘张家山秧脚背", "image": "", "rank": 4, "time": 2, "location": {"lat": 24.8598044379613, "lng": 114.1600816868618}, "feature": {"sight_features": "", "sight_content": ""}}, {"title": "金华生态园", "address": "沿江路", "image": "", "rank": 5, "time": 2.0, "location": {"lat": 23.121864282887806, "lng": 113.28399612328477}, "feature": {"sight_features": "", "sight_content": ""}}, {"title": "龙泉湾天然温泉", "address": "深渡水下湾村", "image": "", "rank": 6, "time": 2, "location": {"lat": 25.252360279816614, "lng": 112.15753616945676}, "feature": {"sight_features": "", "sight_content": ""}}, {"title": "亚历河漂流", "address": "车八岭自然保护区内", "image": "", "rank": 7, "time": 2, "location": {"lat": 24.70696170419266, "lng": 114.15478806232382}, "feature": {"sight_features": "", "sight_content": ""}}, {"title": "广东流动图书馆(始兴分馆)", "address": "永安大道附近", "image": "", "rank": 8, "time": 2.0, "location": {"lat": 22.847663910830452, "lng": 113.08049002710275}, "feature": {"sight_features": "", "sight_content": ""}}, {"title": "樱花谷", "address": "深度水", "image": "", "rank": 9, "time": 1.5, "location": {"lat": 24.882557466185474, "lng": 114.48661389361311}, "feature": {"sight_features": "", "sight_content": ""}}, {"title": "CLASSIC’S CAR", "address": "红旗路82号附近", "image": "", "rank": 10, "time": 2, "location": {"lat": 39.941646522770995, "lng": 119.59459342335597}, "feature": {"sight_features": "", "sight_content": ""}}, {"title": "古塘星级农家乐", "address": "316乡道东50米", "image": "", "rank": 11, "time": 2, "location": {"lat": 35.37720857982394, "lng": 113.08436330673442}, "feature": {"sight_features": "", "sight_content": ""}}, {"title": "车八岭博物馆", "address": "罗坝镇车八岭国家级自然保护区", "image": "", "rank": 12, "time": 2, "location": {"lat": 24.731209455023713, "lng": 114.2673008471741}, "feature": {"sight_features": "", "sight_content": ""}}, {"title": "始兴县司前贵洞杨梅种植基地(采...", "address": "司前镇月武村贵洞", "image": "", "rank": 13, "time": 2, "location": {"lat": 24.68122680896197, "lng": 114.06147720092969}, "feature": {"sight_features": "", "sight_content": ""}}, {"title": "广东维特农业科技有限公司", "address": "马市镇马成路7号", "image": "", "rank": 14, "time": 2, "location": {"lat": 26.746108677392414, "lng": 114.80102166371378}, "feature": {"sight_features": "", "sight_content": ""}}, {"title": "二叔家农家乐", "address": "太平镇罗围村", "image": "", "rank": 15, "time": 2, "location": {"lat": 24.99783442488653, "lng": 114.03707160475773}, "feature": {"sight_features": "", "sight_content": ""}}, {"title": "湘南果国", "address": "广东省韶关市始兴县太平镇水南村", "image": "", "rank": 16, "time": 2.0, "location": {"lat": 24.988472531903906, "lng": 113.9599454580366}, "feature": {"sight_features": "", "sight_content": ""}}, {"title": "儿童游乐园", "address": "红旗路52号附近", "image": "", "rank": 17, "time": 2, "location": {"lat": 42.742360011217876, "lng": 124.7246621314451}, "feature": {"sight_features": "", "sight_content": ""}}, {"title": "雷氏宗祠", "address": "在始兴县澄江镇暖田村", "image": "", "rank": 18, "time": 0.5, "location": {"lat": 24.93445997710041, "lng": 114.3523651265486}, "feature": {"sight_features": "", "sight_content": ""}}, {"title": "始兴将军栋农家乐", "address": "广东省韶关市始兴县S244", "image": "", "rank": 19, "time": 2.5, "location": {"lat": 24.958558154345624, "lng": 114.06856735204634}, "feature": {"sight_features": "", "sight_content": ""}}, {"title": "始兴县火龙果农家乐", "address": "城南镇胆源村（原敬老院）", "image": "", "rank": 20, "time": 2, "location": {"lat": 24.904845958558973, "lng": 114.08137424486723}, "feature": {"sight_features": "", "sight_content": ""}}, {"title": "农家小院（南雄乡村鱼南雄特色牛...", "address": "广东省韶关市始兴县城北路12", "image": "", "rank": 21, "time": 2, "location": {"lat": 24.95662234193632, "lng": 114.07545793740756}, "feature": {"sight_features": "", "sight_content": ""}}, {"title": "吉山杨梅园", "address": "广东省韶关市始兴县Y351", "image": "", "rank": 22, "time": 2, "location": {"lat": 24.958558154345624, "lng": 114.06856735204634}, "feature": {"sight_features": "", "sight_content": ""}}, {"title": "绿健体育公园", "address": "永安大道北50米", "image": "", "rank": 23, "time": 1.5, "location": {"lat": 23.6448879401951, "lng": 115.19626705910485}, "feature": {"sight_features": "", "sight_content": ""}}, {"title": "金冠商务温泉会馆", "address": "刘张家山乡", "image": "", "rank": 24, "time": 2, "location": {"lat": 24.861027526600584, "lng": 114.16135251697145}, "feature": {"sight_features": "", "sight_content": ""}}, {"title": "始兴县美术少年宫", "address": "公教路76号", "image": "", "rank": 25, "time": 2, "location": {"lat": 24.95197634190152, "lng": 114.07333732825188}, "feature": {"sight_features": "", "sight_content": ""}}, {"title": "康泰温泉", "address": "刘家山田心村", "image": "", "rank": 26, "time": 2, "location": {"lat": 26.846143583729937, "lng": 116.5456299612734}, "feature": {"sight_features": "", "sight_content": ""}}, {"title": "天云轩画廊", "address": "九龄步行街与九龄步行西街交叉口西南50米", "image": "", "rank": 27, "time": 2, "location": {"lat": 24.9543995130105, "lng": 114.07367917661698}, "feature": {"sight_features": "", "sight_content": ""}}, {"title": "玄妙观", "address": "永安大道北200米", "image": "", "rank": 28, "time": 1.5, "location": {"lat": 23.6448879401951, "lng": 115.19626705910485}, "feature": {"sight_features": "", "sight_content": ""}}, {"title": "红石山庄", "address": "韶关市始兴县马市镇候陂村流源水五龟洞(坪山电站斜对面)", "image": "", "rank": 29, "time": 2, "location": {"lat": 25.086053283737943, "lng": 114.16823348687049}, "feature": {"sight_features": "", "sight_content": ""}}, {"title": "蓝月湾温泉度假村", "address": "韶关始兴县海滨三路32号", "image": "", "rank": 30, "time": 2, "location": {"lat": 24.868588400131166, "lng": 114.1462700168707}, "feature": {"sight_features": "", "sight_content": ""}}, {"title": "九龄步行街", "address": "广东省始兴县太平镇红旗路", "image": "", "rank": 31, "time": 2, "location": {"lat": 24.952958117710693, "lng": 114.07500555524442}, "feature": {"sight_features": "", "sight_content": ""}}, {"title": "红沙漠", "address": "韶关市始兴县马市镇黄田村和联俄村之间", "image": "", "rank": 32, "time": null, "location": {"lat": 25.02515813558905, "lng": 114.13508368605368}, "feature": {"sight_features": "", "sight_content": ""}}]}