{"cityName": "师宗", "days": 2, "cityImage": "", "spots": [{"title": "菌子山", "address": "曲靖市师宗县", "image": "", "rank": 1, "time": 2, "location": {"lat": 24.82799496950119, "lng": 103.99155634452771}, "feature": {"sight_features": "", "sight_content": ""}}, {"title": "凤凰谷漂流", "address": "曲靖市师宗县五龙镇", "image": "", "rank": 2, "time": 2, "location": {"lat": 24.82799496950119, "lng": 103.99155634452771}, "feature": {"sight_features": "", "sight_content": ""}}, {"title": "南丹山", "address": "云南省曲靖市师宗县", "image": "", "rank": 3, "time": 5.0, "location": {"lat": 24.82799496950119, "lng": 103.99155634452771}, "feature": {"sight_features": "", "sight_content": ""}}, {"title": "黑尔瀑布", "address": "云南省曲靖市师宗县", "image": "", "rank": 4, "time": 7.5, "location": {"lat": 24.82799496950119, "lng": 103.99155634452771}, "feature": {"sight_features": "", "sight_content": ""}}, {"title": "温泉休闲山庄", "address": "葵山镇温泉村", "image": "", "rank": 5, "time": 2, "location": {"lat": 24.77906596747096, "lng": 103.82996212829039}, "feature": {"sight_features": "", "sight_content": ""}}, {"title": "师宗福兴石斛种植专业合作社", "address": "大同镇司法所附近", "image": "", "rank": 6, "time": 2, "location": {"lat": 24.78408164358133, "lng": 104.07703406631812}, "feature": {"sight_features": "", "sight_content": ""}}, {"title": "大响水", "address": "云南省师宗县龙庆纯壮族村 655700", "image": "", "rank": 7, "time": 2, "location": {"lat": 24.82799496950119, "lng": 103.99155634452771}, "feature": {"sight_features": "", "sight_content": ""}}, {"title": "师宗神秘谷", "address": "云南省师宗县五龙壮族乡 655707", "image": "", "rank": 8, "time": 2, "location": {"lat": 24.623358921848926, "lng": 104.29822492520472}, "feature": {"sight_features": "", "sight_content": ""}}, {"title": "烈士陵园", "address": "安居路东50米", "image": "", "rank": 9, "time": 2, "location": {"lat": 37.34455659551999, "lng": 113.57870646574239}, "feature": {"sight_features": "", "sight_content": ""}}, {"title": "师宗县喜德盛自行车行", "address": "通玄公园商铺84-87号商铺", "image": "", "rank": 10, "time": 2, "location": {"lat": 24.830839941492044, "lng": 103.99226203896322}, "feature": {"sight_features": "", "sight_content": ""}}, {"title": "师宗县丹凤镇基督教会", "address": "凤竹路27号附近", "image": "", "rank": 11, "time": 2, "location": {"lat": 24.83753546221365, "lng": 104.00407455513103}, "feature": {"sight_features": "", "sight_content": ""}}, {"title": "海之岛儿童主题乐园", "address": "云南省曲靖市师宗县凤山街86", "image": "", "rank": 12, "time": 2, "location": {"lat": 24.82951718234449, "lng": 103.9977344029417}, "feature": {"sight_features": "", "sight_content": ""}}, {"title": "南箐山庄", "address": "Z093附近", "image": "", "rank": 13, "time": 2, "location": {"lat": 23.100931760317003, "lng": 113.27528273950196}, "feature": {"sight_features": "", "sight_content": ""}}, {"title": "凤凰度假山庄", "address": "007乡道附近", "image": "", "rank": 14, "time": 2, "location": {"lat": 42.90705169386021, "lng": 129.6381359064959}, "feature": {"sight_features": "", "sight_content": ""}}, {"title": "老少同乐园", "address": "大龙线", "image": "", "rank": 15, "time": 2, "location": {"lat": 33.23724569384965, "lng": 120.41851129339213}, "feature": {"sight_features": "", "sight_content": ""}}, {"title": "堵西万顺草莓采摘园", "address": "彩云镇石山水库", "image": "", "rank": 16, "time": 2, "location": {"lat": 24.81537710713605, "lng": 103.98362410296187}, "feature": {"sight_features": "", "sight_content": ""}}, {"title": "曲靖翠云山", "address": "云南省师宗县葵山镇马厂村", "image": "", "rank": 17, "time": 2, "location": {"lat": 24.826511602804203, "lng": 103.85853156902526}, "feature": {"sight_features": "", "sight_content": ""}}, {"title": "润森新天地商业街", "address": "云南省师宗县漾月路", "image": "", "rank": 18, "time": 2, "location": {"lat": 24.82717728653682, "lng": 103.99394290960579}, "feature": {"sight_features": "", "sight_content": ""}}, {"title": "腾达商业步行街", "address": "云南省师宗县漾月东路10号", "image": "", "rank": 19, "time": 2, "location": {"lat": 24.83069160249344, "lng": 103.99966660599132}, "feature": {"sight_features": "", "sight_content": ""}}, {"title": "师宗县博物馆", "address": "曲靖市-师宗县-文化中心", "image": "", "rank": 20, "time": 2, "location": {"lat": 24.82799496950119, "lng": 103.99155634452771}, "feature": {"sight_features": "", "sight_content": ""}}, {"title": "师宗基督教堂", "address": "曲靖市-师宗县-丹溪大道与梧桐路交叉口西北150米", "image": "", "rank": 21, "time": 1.0, "location": {"lat": 24.82998072424829, "lng": 104.00723820125096}, "feature": {"sight_features": "", "sight_content": ""}}, {"title": "挖银子山", "address": "曲靖市-师宗县", "image": "", "rank": 22, "time": 2, "location": {"lat": 24.82799496950119, "lng": 103.99155634452771}, "feature": {"sight_features": "", "sight_content": ""}}]}