{"cityName": "石嘴山", "days": "", "cityImage": "", "spots": [{"title": "沙湖生态旅游区", "address": "石嘴山市平罗县下沙公路(前进农场境内)", "image": "", "rank": 1, "time": 3.0, "location": {"lat": 38.82682715895897, "lng": 106.34211007733062}, "feature": {"sight_features": "特色1 中国十大魅力湿地 罕见荒漠湿地特色景观。 特色2 融江南水乡之秀色与塞北大漠之雄浑为一体的\"旅游明珠\"。 特色3 既能坐游船畅游湖面，又能够骑骆驼、玩滑沙，体验大漠风光。", "sight_content": "景区项目这么多推荐怎么玩？\n\n摇橹船 ：沙湖湖水丽色呈奇观，清黄绿白又泛蓝，簇簇芦苇湖中立，影随白云伴蓝天。如果说迁徒的候鸟是这里的过客，那么沙湖的芦苇的芦苇就是就是这里原始居民。沙湖的芦苇一簇簇，一敦敦地生长着，他们联袂接踵，形成了迂回的风景，摇橹船滑行其间，便有了曲径通幽的意境，而船出芦苇，却又是一番豁然开朗的天地。\n自驾摩托艇是自己把控油门，摩托艇虽外形小巧，速度却飞快，穿梭在芦苇丛中，尾部喷出浪花，当浪花打来，整个摩托艇都在飘荡，那种感觉极为刺激，身边的教练给予了十足的安全感。\n雾海云天作黛，月色空明水亦悠，镜湖碧水充满着盎然绿色，山绿水绿，构成一幅绿色的水彩画，在这里游泳、荡舟都会时时感到清新舒畅，心旷神怡。沙湖东北面，芦苇成片成丛，芦苇幽深，游艇在芦苇中穿行，如同迷宫，不时惊起一串鸥鹭，令人兴趣盎然。\n沙湖是鸟的天堂，它水产丰富，无污染，更得到人类的格外关照，位于湖中心的“百鸟乐园”，又称“观鸟台”，是候鸟繁衍，栖息的理想之地，在此可观赏到天鹅、大鸨、中华秋水鸭、海鸥、白鹤、灰鹤等11目24科，百万只鸟类在这里流连，成为沙湖景色一绝。\n位于沙湖南端一望无际的沙漠给人以豪放、博大的感觉训练有素的沙漠之舟----骆驼载人进入大漠深处，阵阵悠扬的驼铃声清脆地在空中回荡，使人心神荡漾，如醉如痴。在这里，可以领略大自然的神奇，寻找前所未有的刺激和新奇。\n一般说到沙漠，脑子里就蹦出“缺水”，神奇的沙湖景区可是将沙与水作了最佳组合，来这里看沙，玩水，矛盾和谐统一！可以坐上快艇激情戏水，也可以骑着骆驼畅游沙漠。"}}, {"title": "玉皇阁", "address": "石嘴山平罗县城北大街", "image": "", "rank": 2, "time": 1.0, "location": {"lat": 38.91960682591035, "lng": 106.53651847762919}, "feature": {"sight_features": "", "sight_content": ""}}, {"title": "大武口森林公园", "address": "大武口城区西北部", "image": "", "rank": 3, "time": 1.0, "location": {"lat": 39.04319583974729, "lng": 106.36881736399003}, "feature": {"sight_features": "", "sight_content": ""}}, {"title": "韭菜沟", "address": "石嘴山市大武口区武当庙北侧", "image": "", "rank": 4, "time": 1.0, "location": {"lat": 39.0626999633429, "lng": 106.35815021692355}, "feature": {"sight_features": "", "sight_content": ""}}, {"title": "青山公园", "address": "石嘴山市大武口区贺兰山北路121号(步行街对面)青山公园内(步行街对面)", "image": "", "rank": 5, "time": 1.5, "location": {"lat": 39.02375363877086, "lng": 106.38359533673126}, "feature": {"sight_features": "", "sight_content": ""}}, {"title": "马兰花大草原", "address": "石嘴山市平罗县陶乐镇月牙湖一带", "image": "", "rank": 6, "time": 1.0, "location": {"lat": 38.81238900698237, "lng": 106.7398414695714}, "feature": {"sight_features": "", "sight_content": ""}}, {"title": "汉代墓群", "address": "石嘴山市陶乐镇西南、明长城以北，经水洞沟、哨墩子", "image": "", "rank": 7, "time": 1.0, "location": {"lat": 38.81238900698237, "lng": 106.7398414695714}, "feature": {"sight_features": "", "sight_content": ""}}, {"title": "北武当地质公园", "address": "石嘴山市大武口区铁弹公路", "image": "", "rank": 8, "time": 1.0, "location": {"lat": 39.060190263716535, "lng": 106.35964463168182}, "feature": {"sight_features": "", "sight_content": ""}}, {"title": "田州古塔", "address": "嘴山市平罗县姚伏镇东一公里外", "image": "", "rank": 9, "time": null, "location": {"lat": 38.77275122675747, "lng": 106.48233222304675}, "feature": {"sight_features": "", "sight_content": ""}}, {"title": "北武当庙", "address": "石嘴山市大武口区西北贺兰山东麓 ‎", "image": "", "rank": 10, "time": 1.0, "location": {"lat": 38.9199033130274, "lng": 106.55064937396241}, "feature": {"sight_features": "", "sight_content": ""}}, {"title": "归德沟", "address": "石嘴山市贺兰山国家级自然保护区", "image": "", "rank": 11, "time": 1.0, "location": {"lat": 38.9199033130274, "lng": 106.55064937396241}, "feature": {"sight_features": "", "sight_content": ""}}, {"title": "三湖风景区", "address": "石嘴山市大武口区", "image": "", "rank": 12, "time": 1.0, "location": {"lat": 39.02484775662651, "lng": 106.37461049759675}, "feature": {"sight_features": "", "sight_content": ""}}, {"title": "小渠子沟古树化石", "address": "石嘴山市大武口区小渠子沟", "image": "", "rank": 13, "time": 1.0, "location": {"lat": 39.0647547780943, "lng": 106.36995656090217}, "feature": {"sight_features": "", "sight_content": ""}}, {"title": "黄河红柳园", "address": "石嘴山市惠农区园艺镇", "image": "", "rank": 14, "time": 1.0, "location": {"lat": 39.19922221250555, "lng": 106.7960558096393}, "feature": {"sight_features": "", "sight_content": ""}}, {"title": "石嘴子", "address": "石嘴山市惠农区", "image": "", "rank": 15, "time": 1.0, "location": {"lat": 39.24538810836003, "lng": 106.78843002230066}, "feature": {"sight_features": "", "sight_content": ""}}, {"title": "罗家园", "address": "石嘴山市惠农县燕子墩汪家村以东贺兰山脚下的王泉沟口", "image": "", "rank": 16, "time": 1.0, "location": {"lat": 39.13813824533371, "lng": 106.71803413135014}, "feature": {"sight_features": "", "sight_content": ""}}, {"title": "北武当", "address": "石嘴山市大武口区西北贺兰山东麓", "image": "", "rank": 17, "time": 1.0, "location": {"lat": 38.9199033130274, "lng": 106.55064937396241}, "feature": {"sight_features": "", "sight_content": ""}}, {"title": "燕子湖", "address": "", "image": "", "rank": 18, "time": 1.0, "location": {"lat": 38.494291998314075, "lng": 106.57139980993762}, "feature": {"sight_features": "", "sight_content": ""}}, {"title": "浑怀障遗址", "address": "石嘴山市平罗县黄沙古渡原生态旅游区内", "image": "", "rank": 19, "time": 1.0, "location": {"lat": 38.91960682591035, "lng": 106.53651847762919}, "feature": {"sight_features": "", "sight_content": ""}}, {"title": "大武口明长城", "address": "西起贺兰山枣儿沟，东到黄河岸，长约五十里，在今大武口村附近", "image": "", "rank": 20, "time": 1.0, "location": {"lat": 39.046484764658615, "lng": 106.40646508111648}, "feature": {"sight_features": "", "sight_content": ""}}, {"title": "省嵬城西夏遗址", "address": "石嘴山市惠农区庙台乡境内", "image": "", "rank": 21, "time": 1.0, "location": {"lat": 39.092913369211125, "lng": 106.67488468912781}, "feature": {"sight_features": "", "sight_content": ""}}, {"title": "大川生态旅游区", "address": "石嘴山市惠农县贺兰山麓北端，惠农区境内", "image": "", "rank": 22, "time": 1.0, "location": {"lat": 39.13813824533371, "lng": 106.71803413135014}, "feature": {"sight_features": "", "sight_content": ""}}, {"title": "西夏离宫遗址", "address": "石嘴山市平罗县大水沟镇", "image": "", "rank": 23, "time": 1.0, "location": {"lat": 38.882304239067494, "lng": 106.19635524282597}, "feature": {"sight_features": "", "sight_content": ""}}, {"title": "星海湖", "address": "石嘴山市大武口区山水大道(近星海湖展览馆)", "image": "", "rank": 24, "time": 1.0, "location": {"lat": 38.96517094021708, "lng": 106.4585703876291}, "feature": {"sight_features": "", "sight_content": ""}}, {"title": "星海湖水上主题乐园", "address": "石嘴山市大武口区星海湖山水大道大北公路以北110国道（星海湖历史展示馆旁）", "image": "", "rank": 25, "time": 2, "location": {"lat": 38.96517094021708, "lng": 106.4585703876291}, "feature": {"sight_features": "", "sight_content": ""}}, {"title": "大水沟", "address": "", "image": "", "rank": 26, "time": 1.0, "location": {"lat": 40.20895090098427, "lng": 114.67742495277655}, "feature": {"sight_features": "", "sight_content": ""}}, {"title": "国务院直属口五七干校博物馆", "address": "星海镇隆湖一站学校旁", "image": "", "rank": 27, "time": 2, "location": {"lat": 38.93539099246362, "lng": 106.36609566717624}, "feature": {"sight_features": "", "sight_content": ""}}, {"title": "银川大漠沙湖滑雪场", "address": "宁夏回族自治区平罗县西大滩镇 753400", "image": "", "rank": 28, "time": 3.5, "location": {"lat": 38.864919212776336, "lng": 106.37327277247198}, "feature": {"sight_features": "", "sight_content": ""}}, {"title": "万亩荷花精品园景区", "address": "位于沙湖东侧", "image": "", "rank": 29, "time": 2, "location": {"lat": 22.683886914087726, "lng": 114.33158876727984}, "feature": {"sight_features": "", "sight_content": ""}}, {"title": "大漠丝路奇观景区", "address": "银川市平罗县境内的西大滩", "image": "", "rank": 30, "time": 2, "location": {"lat": 38.492460055509596, "lng": 106.23849358740017}, "feature": {"sight_features": "", "sight_content": ""}}, {"title": "尼罗河风景区", "address": "银川市平罗县境内的西大滩", "image": "", "rank": 31, "time": 2, "location": {"lat": 38.492460055509596, "lng": 106.23849358740017}, "feature": {"sight_features": "", "sight_content": ""}}, {"title": "奇石山文化旅游区", "address": "石嘴山市大武口区环湖路附近", "image": "", "rank": 32, "time": 2.0, "location": {"lat": 38.992603602014626, "lng": 106.40186944624611}, "feature": {"sight_features": "", "sight_content": ""}}, {"title": "奇石山滑雪场", "address": "石嘴山市大武口区山水大道中华奇石山北门", "image": "", "rank": 33, "time": 2, "location": {"lat": 38.99686496326007, "lng": 106.40070771893348}, "feature": {"sight_features": "", "sight_content": ""}}, {"title": "西河桥古生物化石", "address": "石嘴山市惠农区尾闸乡西河桥以西的贺兰山下", "image": "", "rank": 34, "time": 1.0, "location": {"lat": 39.2087093029301, "lng": 106.75128688607408}, "feature": {"sight_features": "", "sight_content": ""}}, {"title": "6度机械密室", "address": "贺春巷机建公司家属院停车场旁(贺兰山大楼对面)", "image": "", "rank": 35, "time": 2, "location": {"lat": 39.0212793912142, "lng": 106.38383948089769}, "feature": {"sight_features": "", "sight_content": ""}}, {"title": "雅园", "address": "澳门街67号附近", "image": "", "rank": 36, "time": 2, "location": {"lat": 39.02149016789719, "lng": 106.36839158783933}, "feature": {"sight_features": "", "sight_content": ""}}, {"title": "农场·农夫烤鸡(惠农店)", "address": "新南路188院2栋附近", "image": "", "rank": 37, "time": 2, "location": {"lat": 39.056170932017785, "lng": 115.85686068051149}, "feature": {"sight_features": "", "sight_content": ""}}, {"title": "星期天垂钓俱乐部", "address": "建设西街36-5", "image": "", "rank": 38, "time": 2, "location": {"lat": 39.02530692180028, "lng": 106.386263107367}, "feature": {"sight_features": "", "sight_content": ""}}, {"title": "小王奶油草莓采摘园", "address": "龙兴路长胜街道办龙泉村村委会东北", "image": "", "rank": 39, "time": 2, "location": {"lat": 38.970031384981276, "lng": 106.29214856164637}, "feature": {"sight_features": "", "sight_content": ""}}, {"title": "避暑山庄罗家园", "address": "宁夏回族自治区石嘴山市惠农区汪家村 753200", "image": "", "rank": 40, "time": 2, "location": {"lat": 39.24538810836003, "lng": 106.78843002230066}, "feature": {"sight_features": "", "sight_content": ""}}, {"title": "百鸟乐园景区", "address": "西大滩百鸟乐园景区", "image": "", "rank": 41, "time": 2, "location": {"lat": 21.915710647716363, "lng": 107.92111609948974}, "feature": {"sight_features": "", "sight_content": ""}}, {"title": "天河湾生态旅游区", "address": "陶乐黄河大桥北侧沙树林1680米处", "image": "", "rank": 42, "time": 2, "location": {"lat": 40.56933398984486, "lng": 110.21188083227135}, "feature": {"sight_features": "", "sight_content": ""}}, {"title": "平罗影剧院", "address": "鼓楼北街附近", "image": "", "rank": 43, "time": 3.0, "location": {"lat": 40.2333082074263, "lng": 116.23984161331221}, "feature": {"sight_features": "", "sight_content": ""}}, {"title": "沙湖垂钓中心", "address": "姚沙公路", "image": "", "rank": 44, "time": 2, "location": {"lat": 38.777822748549795, "lng": 106.46202105756764}, "feature": {"sight_features": "", "sight_content": ""}}, {"title": "石嘴山", "address": "宁夏石嘴山", "image": "", "rank": 45, "time": 3.0, "location": {"lat": 38.98968283991508, "lng": 106.3906004255049}, "feature": {"sight_features": "", "sight_content": ""}}, {"title": "惠农区科技中心", "address": "宁夏回族自治区石嘴山市延安路", "image": "", "rank": 46, "time": 2, "location": {"lat": 39.22041397420227, "lng": 106.78186846917765}, "feature": {"sight_features": "", "sight_content": ""}}, {"title": "石嘴山市展览中心", "address": "宁夏回族自治区石嘴山市大武口区中心广场北侧", "image": "", "rank": 47, "time": 2.5, "location": {"lat": 39.02484775662651, "lng": 106.37461049759675}, "feature": {"sight_features": "", "sight_content": ""}}, {"title": "星海湖历史文化展示馆", "address": "宁夏回族自治区石嘴山市环湖路与山水大道交汇处", "image": "", "rank": 48, "time": 2, "location": {"lat": 38.992603602014626, "lng": 106.40186944624611}, "feature": {"sight_features": "", "sight_content": ""}}, {"title": "市政广场", "address": "石嘴山市大武口区裕民南路37号", "image": "", "rank": 49, "time": 0.75, "location": {"lat": 39.02323757876718, "lng": 106.37387011419543}, "feature": {"sight_features": "", "sight_content": ""}}, {"title": "欢乐牧场(大武口店)", "address": "大武口区世纪朝阳购物广场四楼", "image": "", "rank": 50, "time": 2, "location": {"lat": 39.01973788882058, "lng": 106.38332538424754}, "feature": {"sight_features": "", "sight_content": ""}}, {"title": "平罗城关清真寺", "address": "宁夏回族自治区石嘴山市平罗县新民巷59", "image": "", "rank": 51, "time": 3.0, "location": {"lat": 38.91262009524749, "lng": 106.55039058022975}, "feature": {"sight_features": "", "sight_content": ""}}, {"title": "前进农场清真寺", "address": "宁夏回族自治区石嘴山市平罗县文化路", "image": "", "rank": 52, "time": 2, "location": {"lat": 38.84681571732866, "lng": 106.38159575537794}, "feature": {"sight_features": "", "sight_content": ""}}, {"title": "海洋之星儿童乐园", "address": "步行街富民商厦一号店三楼", "image": "", "rank": 53, "time": 2, "location": {"lat": 38.910225711569, "lng": 106.55447325390814}, "feature": {"sight_features": "", "sight_content": ""}}, {"title": "古生物化石点", "address": "宁夏石嘴山市大武口区贺兰山", "image": "", "rank": 54, "time": 2, "location": {"lat": 38.9199033130274, "lng": 106.55064937396241}, "feature": {"sight_features": "", "sight_content": ""}}, {"title": "宁夏农业博物馆", "address": "沙湖旅游专用大道106", "image": "", "rank": 55, "time": 2, "location": {"lat": 38.828702018372006, "lng": 106.38132909698052}, "feature": {"sight_features": "", "sight_content": ""}}, {"title": "石嘴山市科技信息中心", "address": "山海路与长庆街交叉口西北200米", "image": "", "rank": 56, "time": 3.0, "location": {"lat": 38.99610467872158, "lng": 106.38993990146342}, "feature": {"sight_features": "", "sight_content": ""}}, {"title": "沙湖景区缆车-北站", "address": "石嘴山市平罗县境内西大滩(沙湖生态旅游区)沙湖景区缆车内", "image": "", "rank": 57, "time": 2, "location": {"lat": 38.80492547933307, "lng": 106.3834084110326}, "feature": {"sight_features": "", "sight_content": ""}}, {"title": "海狮表演馆", "address": "石嘴山市平罗县境内西大滩(沙湖生态旅游区)沙湖景区内", "image": "", "rank": 58, "time": 2, "location": {"lat": 38.80492547933307, "lng": 106.3834084110326}, "feature": {"sight_features": "", "sight_content": ""}}, {"title": "接引寺", "address": "石嘴山市平罗县", "image": "", "rank": 59, "time": 1.5, "location": {"lat": 38.91960682591035, "lng": 106.53651847762919}, "feature": {"sight_features": "", "sight_content": ""}}, {"title": "淘气堡乐园", "address": "鼓楼南街33", "image": "", "rank": 60, "time": 2, "location": {"lat": 40.22091136264545, "lng": 116.2400049845421}, "feature": {"sight_features": "", "sight_content": ""}}]}