{"cityName": "寿光", "days": 2, "cityImage": "", "spots": [{"title": "寿光蔬菜高科技示范园", "address": "潍坊市寿光市洛城街道108号", "image": "", "rank": 1, "time": 2.5, "location": {"lat": 36.861116152278505, "lng": 118.82392993990182}, "feature": {"sight_features": "", "sight_content": "寿光蔬菜高科技示范园位于山东省寿光市洛城街道，占地1万亩，建于1999年8月，是一处集科技开发、科普教育、技术培训、试验示范、种苗繁育等于一体的多能功蔬菜科技示范基地。2001年，寿光蔬菜高科技示范园建设了寿光国际会展中心，成为第二届蔬菜博览会的主会场。截至目前，蔬菜博览会已连续在蔬菜高科技示范园举办九届，展览展示先进农业技术和品种，提供丰富多样的经济交流平台，吸引了国内外大量宾客参会参展。寿光蔬菜高科技示范园成为国家4A级旅游景区后，将和周边的弥河生态农业观光园、中华牡丹园、三元朱村等衔接，形成我市城区周边农业观光旅游“圣地”，并与寿北的林海生态博览园、巨淀湖景区、羊口小清河北部湿地等景观互映，共同构建起我市极具特色的生态旅游线路，“中国优秀旅游城市”这块牌子将更显厚重。"}}, {"title": "寿光林海生态博览园", "address": "寿光市双王城经济开发区林海生态博览园", "image": "", "rank": 2, "time": 2, "location": {"lat": 36.86192174647094, "lng": 118.7974153748082}, "feature": {"sight_features": "特色1 国家AAAA级旅游景区。", "sight_content": "山东寿光滨海国家湿地公园·林海生态博览园，位于寿光市西北部，现为国家AAAA级景区、滨海国家湿地公园、国家级休闲渔业园区、全国农业旅游示范点，总面积945公顷，湿地面积为644.47公顷，湿地率68.20%，由全国十佳林场--寿光市国有机械林场于1998年投资开发建设。\n景区分为生态保育区、科普宣教区、合理利用区和管理服务区四大功能区，是滨海盐田湿地、芦苇沼泽湿地和人工水塘湿地等多种湿地类型组成的复合人工湿地。是建立在滨海重度盐碱地上的自然奇观。它承载着海水侵浸盐碱地改造成林海绿洲的历史记忆，创造了“盐碱变绿洲”的奇迹，湿地公园对有效遏制海水入侵、改良盐碱地、调节气候、涵养水源和净化水质、保护生物多样性等起到了重要的作用，也是候鸟特别是多种珍惜保护鸟类的重要迁徙停歇地、繁殖地和越冬地，具有较高的保护价值、科普价值和深厚的文化底蕴。是全国同类地区改造自然、保护生态环境的典范。\n景区内不仅有大片的沿海防护林、风景林、经济林形成的盐碱地森林景观和湿地景观，还建有东方不沉湖游乐区、休闲垂钓区、霜雪湖水上游乐区、水上高尔夫练球区、素质拓展培训及商务会议服务区、荷香园及槐香园服务区、动物互动区、天然湿地保护区、森林度假区、农林渔盐业观光体验区、寿光宁国寺及三面观音礼佛祈福区…游览景区可以分为水路、陆路两种方式。其中东方不沉湖、山东寿光荷花节、林海果蔬采摘节、二十里黄金湿地水道、农林渔盐业观光体验游及宁国寺祈福是景区的六大旅游品牌，年接待游客已突破55万人次。"}}, {"title": "寿光极地海洋世界", "address": "潍坊市寿光市金海南路音乐厅南行2公里", "image": "", "rank": 3, "time": 1.0, "location": {"lat": 36.841479905633456, "lng": 118.78309775399674}, "feature": {"sight_features": "", "sight_content": "寿光极地海洋世界位于山东省寿光市金海南路音乐厅南行2公里，总建筑面积4.5万平方米，外形如同一个巨大的水母，身姿舒展，遨游在寿光弥河之滨，寓意着“人与海洋和谐发展”。\n寿光极地海洋世界是集海洋生物旅游观光、科普教育、科技体验、儿童游乐、餐饮休闲为一体的大型服务综合体。\n一、二楼为海洋馆，拥有海豚、企鹅、鲨鱼、水母、鳄鱼、北极狐、北极狼、海洋特色鱼类等几百种珍奇极地、海洋生物。可容纳1500名观众的海豚剧场表演、美人鱼表演以及海底隧道参观、魔幻水母宫体验、儿童触摸池体验、儿童互动投影体验、雨林景观体验、鱼类喂养体验等服务项目。\n三楼作为全国首创的科技+萌宠模式，分为六大区域：萌趣森林、爬宠王国、VR社区、奇幻海洋、科学探秘、儿童乐园。拥有安格鲁貂、北美浣熊、袋鼠、羊驼、细尾獴、金刚鹦鹉和绿鬣蜥等上百种可爱小动物围绕身边。可以在表演场观看各类动物的精彩表演并能享受到独角仙们的决战，可以给名贵小鸟喂食互动，调皮的小刺猬、可爱的小松鼠，不仅让您带孩子在闹市之中亲近大自然，而且让您带孩子见识到前所未有的科技体验，寓教于乐中学习科技、生物知识。\n四楼为海洋主题餐厅，海鲜大餐、美酒美食，应有尽有，让您在游玩之后享受一场饕餮盛宴。"}}, {"title": "弥河风景区", "address": "潍坊市寿光市圣城东街", "image": "", "rank": 4, "time": 2, "location": {"lat": 36.86011550862766, "lng": 118.8274324959666}, "feature": {"sight_features": "", "sight_content": ""}}, {"title": "巨淀湖", "address": "潍坊市寿光市双王城生态经济园区牛头镇村西900米", "image": "", "rank": 5, "time": 2, "location": {"lat": 37.034789213608015, "lng": 118.722412074897}, "feature": {"sight_features": "特色1 水光潋滟，芦苇轻摇，鱼儿相逐，飞鸟翩跹。 特色2 在做好生态修复的同时，新建精彩世界游乐场、动物园、水世界，将党性教育、爱国主义教育、革命传统教育、国防教育和生态旅游开发融为一体，让“静”的湿地“动”起来，集中再现以生态休闲、汉武文化、湿地文化为主体的湿地大氧吧。 特色3 淳朴善良的双王城人欢迎您到巨淀湖赏水景、观水鸟、探水岛、忆峥嵘、坐游船、看风车、玩沙滩、吃农饭，畅游湿地乐园，感受垂钓乐趣，体验水上激情。", "sight_content": "巨淀湖风景区位于寿光市双王城生态经济区西南部，总面积2.5万亩，核心区占地面积1.5万亩，2012年入选全省首批湖泊保护名录，为国家AAAA级景区、国家水利风景区、全国休闲渔业示范基地、山东省首批生态旅游示范单位和休闲农业与乡村旅游示范点、山东省爱国主义教育基地、山东省国防教育基地、山东省党史教育基地。\n整个景区突出原生态特色，水光潋滟，芦苇轻摇，鱼儿相逐，飞鸟翩跹。巨淀湖历史悠久，《汉书·武帝纪》中有“征和四年（公元前89年）三月，上耕于钜定。还幸泰山，修封”的记载。作为山东三大革命老区之一，巨淀湖不仅是“牛头镇抗日武装起义”的革命摇篮，还走出了马保三等一大批爱国将领，涌现出了“八支队”、“寿光独立团”、“马家连”、“陈毅担架连”等革命队伍。\n景区突出“水生态”，做足“水经济”，在做好生态修复的同时，新建精彩世界游乐场、动物园、水世界，将党性教育、爱国主义教育、革命传统教育、国防教育和生态旅游开发融为一体，让“静”的湿地“动”起来，集中再现以生态休闲、汉武文化、湿地文化为主体的湿地大氧吧。淳朴善良的双王城人欢迎您到巨淀湖赏水景、观水鸟、探水岛、忆峥嵘、坐游船、看风车、玩沙滩、吃农饭，畅游湿地乐园，感受垂钓乐趣，体验水上激情。"}}, {"title": "寿光市博物馆", "address": "迎宾路", "image": "", "rank": 6, "time": 2.5, "location": {"lat": 40.19033466276813, "lng": 117.30191343601585}, "feature": {"sight_features": "", "sight_content": ""}}, {"title": "幸福汤泉", "address": "潍坊市寿光市农产品物流园东门往西150米路北", "image": "", "rank": 7, "time": 2, "location": {"lat": 36.719057759128326, "lng": 119.12657975604895}, "feature": {"sight_features": "", "sight_content": "幸福汤泉坐落于寿光市文圣街与菜都北路交汇处，位于寿光农产品物流园内，交通便利，店内设有健康洗浴，养生按摩，休闲观影、汗蒸等，设施齐全，休息环境优雅清净，是放松休闲的休闲场所。"}}, {"title": "全福元游乐园", "address": "潍坊市寿光市圣城东街与尧河路交汇处东100米", "image": "", "rank": 8, "time": 2, "location": {"lat": 36.86011550862766, "lng": 118.8274324959666}, "feature": {"sight_features": "", "sight_content": ""}}, {"title": "东泰游乐园", "address": "潍坊市寿光市寿光生态观光园北300米（弥河东坝爱情主题公园内）", "image": "", "rank": 9, "time": 2, "location": {"lat": 36.88457065941705, "lng": 118.81862891601958}, "feature": {"sight_features": "", "sight_content": ""}}, {"title": "仓圣公园", "address": "公园街渤海路路口", "image": "", "rank": 10, "time": 2, "location": {"lat": 36.8729902536044, "lng": 118.74545930917978}, "feature": {"sight_features": "", "sight_content": ""}}, {"title": "山东(寿光)晨鸣歌舞剧院", "address": "圣城街595号", "image": "", "rank": 11, "time": 0.5, "location": {"lat": 36.87876868465979, "lng": 118.73546391497366}, "feature": {"sight_features": "", "sight_content": ""}}, {"title": "寿光渤海森林公园", "address": "羊口镇寿光林场", "image": "", "rank": 12, "time": 2, "location": {"lat": 37.24677579000187, "lng": 118.89280777448965}, "feature": {"sight_features": "", "sight_content": ""}}, {"title": "寿光市蔬菜高科技示范园采摘园", "address": "农展馆东路", "image": "", "rank": 13, "time": 2, "location": {"lat": 36.862196168444065, "lng": 118.82746401840525}, "feature": {"sight_features": "", "sight_content": ""}}, {"title": "水韵水族", "address": "圣地花卉城336号(科技学院北门对过)", "image": "", "rank": 14, "time": 2, "location": {"lat": 43.54311199076434, "lng": 125.67105294723612}, "feature": {"sight_features": "", "sight_content": ""}}, {"title": "第九区密室工厂", "address": "东城全福元B座东50米加油站后", "image": "", "rank": 15, "time": 2, "location": {"lat": 39.93482727239599, "lng": 116.4224009776628}, "feature": {"sight_features": "", "sight_content": ""}}, {"title": "绿林源家庭农场", "address": "光明路南头与农圣街交叉口南2000米路东", "image": "", "rank": 16, "time": 2, "location": {"lat": 36.861045818301534, "lng": 118.73773258643742}, "feature": {"sight_features": "", "sight_content": ""}}, {"title": "红火菜果专业合作社有机蔬菜基地", "address": "323省道附近", "image": "", "rank": 17, "time": 2, "location": {"lat": 34.446399847459865, "lng": 118.679905964047}, "feature": {"sight_features": "", "sight_content": ""}}, {"title": "山东寿光蔬菜集团示范基地", "address": "外国专家培训楼附近", "image": "", "rank": 18, "time": 2, "location": {"lat": 36.840779280736534, "lng": 118.68522797593917}, "feature": {"sight_features": "", "sight_content": ""}}, {"title": "北京中农中科农业科技研究院", "address": "金光街368号", "image": "", "rank": 19, "time": 1.0, "location": {"lat": 36.88515048740873, "lng": 118.79168781930032}, "feature": {"sight_features": "", "sight_content": ""}}, {"title": "小文斋美术馆", "address": "文圣街", "image": "", "rank": 20, "time": 2, "location": {"lat": 39.631736886759725, "lng": 122.02233257873094}, "feature": {"sight_features": "", "sight_content": ""}}, {"title": "上口镇图书馆", "address": "060县道附近", "image": "", "rank": 21, "time": 2, "location": {"lat": 44.00857238349083, "lng": 124.59743808647511}, "feature": {"sight_features": "", "sight_content": ""}}, {"title": "中华牡丹园", "address": "圣城东街张建桥大桥东首南侧", "image": "", "rank": 22, "time": null, "location": {"lat": 36.86829872960337, "lng": 118.8038876004313}, "feature": {"sight_features": "", "sight_content": ""}}, {"title": "百兴富果蔬专业合作社", "address": "古城街道俺头村", "image": "", "rank": 23, "time": 2, "location": {"lat": 31.009262067705787, "lng": 119.90893919790406}, "feature": {"sight_features": "", "sight_content": ""}}, {"title": "寿光林海博览园", "address": "山东省寿光市西北部 262700", "image": "", "rank": 24, "time": 2, "location": {"lat": 36.86192174647094, "lng": 118.7974153748082}, "feature": {"sight_features": "", "sight_content": ""}}, {"title": "寿光高科技蔬菜示范园", "address": "山东省寿光市洛城街道 262705", "image": "", "rank": 25, "time": 2, "location": {"lat": 36.85966270442046, "lng": 118.84075529193424}, "feature": {"sight_features": "", "sight_content": ""}}, {"title": "寿光音乐厅", "address": "寿光市其他金海南路181号文化中心三楼", "image": "", "rank": 26, "time": 2.5, "location": {"lat": 36.85531158447261, "lng": 118.79447905124873}, "feature": {"sight_features": "", "sight_content": ""}}, {"title": "泰山之颠音乐厅", "address": "新兴街2209号", "image": "", "rank": 27, "time": 1.5, "location": {"lat": 36.87898799320946, "lng": 118.77123921397647}, "feature": {"sight_features": "", "sight_content": ""}}, {"title": "科迪食文化广场(寿光002店)", "address": "山东省潍坊市寿光市文庙街272号", "image": "", "rank": 28, "time": 2, "location": {"lat": 36.890476066869084, "lng": 118.75382515742807}, "feature": {"sight_features": "", "sight_content": ""}}, {"title": "另肋芝士肋排", "address": "山东省潍坊市寿光市全福元·商业步行街A-S10", "image": "", "rank": 29, "time": 2, "location": {"lat": 36.88487108488625, "lng": 118.75043148138093}, "feature": {"sight_features": "", "sight_content": ""}}, {"title": "欢乐牧场", "address": "潍坊市寿光市乐淘商城3楼", "image": "", "rank": 30, "time": 2, "location": {"lat": 36.87366063027752, "lng": 118.7794519343726}, "feature": {"sight_features": "", "sight_content": ""}}, {"title": "建桥商场-青岛啤酒广场", "address": "新兴街东首建桥商场", "image": "", "rank": 31, "time": 2, "location": {"lat": 36.8785846886436, "lng": 118.8008895839443}, "feature": {"sight_features": "", "sight_content": ""}}, {"title": "海化牡丹园", "address": "山东省潍坊市寿光市圣城街", "image": "", "rank": 32, "time": 2, "location": {"lat": 36.87614040203555, "lng": 118.76290216450451}, "feature": {"sight_features": "", "sight_content": ""}}, {"title": "EXHIBITION HALL", "address": "山东省潍坊市寿光市圣城街道金海南路展览馆(左岸绿洲北)", "image": "", "rank": 33, "time": 1.5, "location": {"lat": 36.85002871264992, "lng": 118.79449033576255}, "feature": {"sight_features": "", "sight_content": ""}}, {"title": "乐童儿童乐园", "address": "山东省潍坊市寿光市顺府街", "image": "", "rank": 34, "time": 2, "location": {"lat": 36.86192174647094, "lng": 118.7974153748082}, "feature": {"sight_features": "", "sight_content": ""}}, {"title": "游乐设施", "address": "潍坊市寿光市银海路4717号中百大厦F3", "image": "", "rank": 35, "time": 2, "location": {"lat": 36.885447020410865, "lng": 118.7551694141322}, "feature": {"sight_features": "", "sight_content": ""}}, {"title": "陈少敏纪念馆", "address": "山东省潍坊市寿光市", "image": "", "rank": 36, "time": 2, "location": {"lat": 36.86192174647094, "lng": 118.7974153748082}, "feature": {"sight_features": "", "sight_content": ""}}, {"title": "胡营游园", "address": "南环路与寿尧路交叉口西南100米", "image": "", "rank": 37, "time": 2, "location": {"lat": 36.82358683686372, "lng": 118.74542308051856}, "feature": {"sight_features": "", "sight_content": ""}}, {"title": "念佛堂", "address": "山东省潍坊市寿光市圣城街道东升路城市金典东南250米", "image": "", "rank": 38, "time": 2, "location": {"lat": 36.86052268468647, "lng": 118.78408823014358}, "feature": {"sight_features": "", "sight_content": ""}}, {"title": "游园", "address": "文圣街与金海路交叉口西南100米", "image": "", "rank": 39, "time": 0.75, "location": {"lat": 36.89618232609319, "lng": 118.79668241680022}, "feature": {"sight_features": "", "sight_content": ""}}, {"title": "农圣公园", "address": "金航大酒店(圣城东街与尧河路口)路南300米路西", "image": "", "rank": 40, "time": 2, "location": {"lat": 39.6129869967351, "lng": 118.20604028639353}, "feature": {"sight_features": "", "sight_content": ""}}, {"title": "开心岛儿童乐园", "address": "中百大厦4楼西", "image": "", "rank": 41, "time": 2, "location": {"lat": 29.876593739800047, "lng": 121.56356736981164}, "feature": {"sight_features": "", "sight_content": ""}}, {"title": "人口文化主题公园", "address": "文庙街附近", "image": "", "rank": 42, "time": 2, "location": {"lat": 37.13084408685483, "lng": 114.6920894264132}, "feature": {"sight_features": "", "sight_content": ""}}, {"title": "沁园", "address": "庆寿街南50米", "image": "", "rank": 43, "time": 2, "location": {"lat": 36.86963148478542, "lng": 118.74936878596262}, "feature": {"sight_features": "", "sight_content": ""}}, {"title": "小游园", "address": "圣城东街与金海路交叉口东南150米", "image": "", "rank": 44, "time": 2, "location": {"lat": 36.87066728841972, "lng": 118.79705210814471}, "feature": {"sight_features": "", "sight_content": ""}}, {"title": "公园街2416", "address": "山东省潍坊市寿光市公园街", "image": "", "rank": 45, "time": 2, "location": {"lat": 36.872218677175674, "lng": 118.75882790076233}, "feature": {"sight_features": "", "sight_content": ""}}, {"title": "快乐童年主题乐园（全福元购物中...", "address": "渤海路全福元购物中心三楼西北角", "image": "", "rank": 46, "time": 2, "location": {"lat": 36.88566778289117, "lng": 118.74569068123846}, "feature": {"sight_features": "", "sight_content": ""}}, {"title": "建桥游园", "address": "山东省潍坊市寿光市圣城东街潍坊市寿光商务小区小游园", "image": "", "rank": 47, "time": 2, "location": {"lat": 36.859602391633096, "lng": 118.79729697814199}, "feature": {"sight_features": "", "sight_content": ""}}, {"title": "滨海国家湿地公园", "address": "潍坊市寿光市S226", "image": "", "rank": 48, "time": 4.5, "location": {"lat": 36.86192174647094, "lng": 118.7974153748082}, "feature": {"sight_features": "", "sight_content": ""}}, {"title": "德润绿城奥体公园", "address": "山东省潍坊市寿光市圣城东街中国石化加油站旁", "image": "", "rank": 49, "time": 2, "location": {"lat": 36.86011550862766, "lng": 118.8274324959666}, "feature": {"sight_features": "", "sight_content": ""}}, {"title": "萌宝乐园", "address": "潍坊市寿光市万兴苑西门", "image": "", "rank": 50, "time": 2, "location": {"lat": 36.89500659039406, "lng": 118.7181712248895}, "feature": {"sight_features": "", "sight_content": ""}}, {"title": "儿童主题乐园", "address": "山东省潍坊市寿光市银海路5226号银座商城寿光店3层", "image": "", "rank": 51, "time": 2, "location": {"lat": 36.881686770568656, "lng": 118.75658406115778}, "feature": {"sight_features": "", "sight_content": ""}}, {"title": "小神童儿童乐园里", "address": "山东省潍坊市寿光市东环路附近", "image": "", "rank": 52, "time": 2, "location": {"lat": 36.88778423436832, "lng": 118.86086103470596}, "feature": {"sight_features": "", "sight_content": ""}}, {"title": "寿光天主教堂", "address": "山东省潍坊市寿光市S323", "image": "", "rank": 53, "time": 1.0, "location": {"lat": 36.86192174647094, "lng": 118.7974153748082}, "feature": {"sight_features": "", "sight_content": ""}}, {"title": "快乐童年主题乐园", "address": "迎宾路与圣城街交叉口全福元百货4楼西", "image": "", "rank": 54, "time": 2, "location": {"lat": 36.879011376607636, "lng": 118.74751460613575}, "feature": {"sight_features": "", "sight_content": ""}}, {"title": "亲亲宝贝游乐园", "address": "寿光市南环路与东环路交叉路口(文化中心205室)", "image": "", "rank": 55, "time": 2, "location": {"lat": 36.83049894930162, "lng": 118.8621038206163}, "feature": {"sight_features": "", "sight_content": ""}}, {"title": "吕家农村淘宝服务站", "address": "山东省潍坊市寿光市青吕路", "image": "", "rank": 56, "time": 2, "location": {"lat": 36.7722597141006, "lng": 118.77629386050478}, "feature": {"sight_features": "", "sight_content": ""}}, {"title": "东宇游园", "address": "正阳路与金光街交叉口南100米", "image": "", "rank": 57, "time": 2, "location": {"lat": 36.88495433010286, "lng": 118.77280814048186}, "feature": {"sight_features": "", "sight_content": ""}}, {"title": "明珠公园", "address": "山东省潍坊市寿光市正阳路与公园街交叉口处路西海情大酒店南30米", "image": "", "rank": 58, "time": 0.75, "location": {"lat": 36.871729953829046, "lng": 118.76966769136814}, "feature": {"sight_features": "", "sight_content": ""}}, {"title": "哈皮小孩运动探索乐园", "address": "潍高路22901号寿光蔬菜高科技示范园2号厅", "image": "", "rank": 59, "time": 2, "location": {"lat": 36.86469615915255, "lng": 118.82377859159287}, "feature": {"sight_features": "", "sight_content": ""}}, {"title": "贝贝城", "address": "潍坊市寿光市圣城东街198号全福元商厦F3", "image": "", "rank": 60, "time": 2, "location": {"lat": 36.87524832284086, "lng": 118.7790553576425}, "feature": {"sight_features": "", "sight_content": ""}}]}