{"cityName": "寿阳", "days": 2, "cityImage": "", "spots": [{"title": "寿阳县图书馆", "address": "府东街4号", "image": "", "rank": 1, "time": null, "location": {"lat": 37.89428878135374, "lng": 113.1825657848139}, "feature": {"sight_features": "", "sight_content": ""}}, {"title": "终极密室逃脱游戏主题馆", "address": "福田路与金融路交叉口西150米", "image": "", "rank": 2, "time": 2, "location": {"lat": 37.89694648317184, "lng": 113.18552909167427}, "feature": {"sight_features": "", "sight_content": ""}}, {"title": "滨河休闲垂钓园", "address": "朝阳镇京昆高速公路滨河休闲垂钓园", "image": "", "rank": 3, "time": 2, "location": {"lat": 38.741193218447826, "lng": 114.99988221946946}, "feature": {"sight_features": "", "sight_content": ""}}, {"title": "快乐城堡儿童乐园", "address": "东讲街与福田路交叉口东南200米", "image": "", "rank": 4, "time": 2, "location": {"lat": 37.89375677129439, "lng": 113.1892965634238}, "feature": {"sight_features": "", "sight_content": ""}}, {"title": "快乐城宝儿童乐园", "address": "山西省晋中市寿阳县朝阳镇博大路梅林花园锦都小区附近", "image": "", "rank": 5, "time": 2, "location": {"lat": 37.8961786565624, "lng": 113.17427070327707}, "feature": {"sight_features": "", "sight_content": ""}}, {"title": "冷泉寺", "address": "山西省晋中市寿阳县S317", "image": "", "rank": 6, "time": 2, "location": {"lat": 37.9013076069566, "lng": 113.18341017492547}, "feature": {"sight_features": "", "sight_content": ""}}, {"title": "寿阳朝阳阁", "address": "山西省晋中市寿阳县朝阳镇道北东街乐迪文化广场东50米", "image": "", "rank": 7, "time": 2, "location": {"lat": 37.891143426654956, "lng": 113.18623074732845}, "feature": {"sight_features": "", "sight_content": ""}}, {"title": "生态植物园", "address": "307国道", "image": "", "rank": 8, "time": 2, "location": {"lat": 38.073000928506836, "lng": 114.40128804973918}, "feature": {"sight_features": "", "sight_content": ""}}, {"title": "尹灵芝烈士纪念馆", "address": "桥东街", "image": "", "rank": 9, "time": 2, "location": {"lat": 37.18934696022826, "lng": 114.85587728409824}, "feature": {"sight_features": "", "sight_content": ""}}, {"title": "寿阳县图书馆第二阅览点", "address": "宾阳路", "image": "", "rank": 10, "time": 2, "location": {"lat": 39.38317000445637, "lng": 111.16094157373301}, "feature": {"sight_features": "", "sight_content": ""}}, {"title": "寿阳县生云博物馆", "address": "荣家垴村76号", "image": "", "rank": 11, "time": 2, "location": {"lat": 37.88972353731121, "lng": 113.16634850835744}, "feature": {"sight_features": "", "sight_content": ""}}, {"title": "龙栖湖度假区", "address": "晋中市寿阳县境内南燕竹镇东蔡庄北龙栖湖度假村", "image": "", "rank": 12, "time": 2, "location": {"lat": 37.90770514469939, "lng": 112.97780556064897}, "feature": {"sight_features": "", "sight_content": "龙栖湖度假区位于山西省寿阳县西部，景区附近有一个中型的人工水库，有游船、烧烤等休闲游玩项目。"}}]}