{"cityName": "寿宁", "days": 2, "cityImage": "", "spots": [{"title": "超人联盟(胜利街店)", "address": "鳌阳镇胜利街179号", "image": "", "rank": 1, "time": 2, "location": {"lat": 27.46687973772155, "lng": 119.51061604702507}, "feature": {"sight_features": "", "sight_content": ""}}, {"title": "真人cs", "address": "南阳镇洋边村高速路口旁", "image": "", "rank": 2, "time": 2, "location": {"lat": 27.40755732067158, "lng": 119.59164517975711}, "feature": {"sight_features": "", "sight_content": ""}}, {"title": "杨梅州犀溪漂流", "address": "二零二省道", "image": "", "rank": 3, "time": 2, "location": {"lat": 29.478159211095747, "lng": 120.36210347830031}, "feature": {"sight_features": "", "sight_content": ""}}, {"title": "福建省寿宁县普应寺", "address": "福建省宁德市寿宁县", "image": "", "rank": 4, "time": 2, "location": {"lat": 27.46664965996927, "lng": 119.51142504877579}, "feature": {"sight_features": "", "sight_content": ""}}, {"title": "忠平候王宫", "address": "944县道东50米", "image": "", "rank": 5, "time": 2, "location": {"lat": 25.957602874837097, "lng": 106.96104794752445}, "feature": {"sight_features": "", "sight_content": ""}}, {"title": "林四帝宫", "address": "944县道附近", "image": "", "rank": 6, "time": 2, "location": {"lat": 25.957602874837097, "lng": 106.96059879476961}, "feature": {"sight_features": "", "sight_content": ""}}, {"title": "金山乐园分部", "address": "胜利街323号", "image": "", "rank": 7, "time": 2, "location": {"lat": 37.89983653976988, "lng": 112.55369889187202}, "feature": {"sight_features": "", "sight_content": ""}}, {"title": "图书馆", "address": "茗溪新区图书馆大楼", "image": "", "rank": 8, "time": 1.0, "location": {"lat": 27.47456939720765, "lng": 119.50309088196899}, "feature": {"sight_features": "", "sight_content": ""}}, {"title": "中兴桥农家乐", "address": "胜利街西凤酒旁", "image": "", "rank": 9, "time": 2, "location": {"lat": 34.27664213049763, "lng": 108.09006096218441}, "feature": {"sight_features": "", "sight_content": ""}}, {"title": "杨梅洲", "address": "福建省宁德寿宁县坑底乡杨梅州村", "image": "", "rank": 10, "time": 2, "location": {"lat": 27.55284689540507, "lng": 119.64178327084737}, "feature": {"sight_features": "", "sight_content": ""}}]}