{"cityName": "寿县", "days": 2, "cityImage": "", "spots": [{"title": "寿县博物馆", "address": "淮南市寿县寿春镇西大街中段（与孔庙相邻）", "image": "", "rank": 1, "time": 1.5, "location": {"lat": 32.56154615120071, "lng": 116.80556277259998}, "feature": {"sight_features": "", "sight_content": ""}}, {"title": "寿县八公山风景区", "address": "淮南市淮南市寿县八公山乡", "image": "", "rank": 2, "time": 12.0, "location": {"lat": 32.63177314082924, "lng": 116.7750784193899}, "feature": {"sight_features": "特色1 在保留着诸多明清建筑静谧的街巷里穿行", "sight_content": "八公山,得名汉初,刘安继父职,封淮南王,都寿春,当时,门下宾客数千,其中著名的有苏菲,李春,左吴,田由,雷被,毛被,晋昌八人,号称八公,刘安常与此八人在山上练丹悟道,公元前122年刘安谋反事泄,武帝下诏捕逮,刘安闻讯自杀,八公中除雷被外,余皆遭屠.也许刘安注重德政,死后百姓感念,留下传说:刘安与八公服丹后升天,余下丹药被鸡犬所食,也成仙上天,这便是一人得道,鸡犬升天典故的由来。\n公园由涌泉庵景区、四顶山景区、八公山景区、狮子山景区组成，“峻极之山”的八公山“含阳藏雾”，如人间仙境。八公山的林相整齐，层次分明，空气清新，环境幽静，身临其境，有回归大自然之感觉，是理想的森林旅游佳境。阳春三月，梨花怒放，飘香十里，举目环顾，茫茫雪原，一望无际。金秋时节，四周连片的黄连木林，叶红似火，可与“香山红叶，岳麓红枫”媲美。以侧柏为主的针叶林，一年四季常青常绿。八公山自然景观优美，人文景观荟萃，是著名的“淝水之战”古战场和中国豆腐文化的发祥地，有淮南王刘安墓、赵大将军廉颇墓、四顶山奶奶庙、淮王丹井、珍珠泉、玛瑙泉、大泉等大批名胜古迹和“风声鹤唳，草木皆兵”、“投鞭断流”、“一人得道，鸡犬升天”、“赵匡胤困南塘”等众多历史传说。\n\n古老的八公山蕴藏着丰富的奇石资源，有数十种之多，其中不少为国内所独有。最近开发的历史名砚——紫金砚，就是失传千年的文化瑰宝。八公山刘老碑一带分布着目前世界上已发现的最早的无脊椎动物淮南虫化石。恐龙化石、古象化石、孔虫化石、藻类、叶类、根茎类化石，其中淮南虫化石最为珍贵，距今约8．4亿年，考古品位极高。"}}, {"title": "寿县古城", "address": "淮南市寿县古城村街道", "image": "", "rank": 3, "time": 3.0, "location": {"lat": 32.56154615120071, "lng": 116.80556277259998}, "feature": {"sight_features": "", "sight_content": ""}}, {"title": "宾阳门", "address": "淮南市寿县古城东侧（内环路东大街路口）", "image": "", "rank": 4, "time": 1.0, "location": {"lat": 32.56154615120071, "lng": 116.80556277259998}, "feature": {"sight_features": "", "sight_content": ""}}, {"title": "报恩禅寺", "address": "淮南市寿县古城东侧", "image": "", "rank": 5, "time": 1.0, "location": {"lat": 32.56154615120071, "lng": 116.80556277259998}, "feature": {"sight_features": "", "sight_content": ""}}, {"title": "通淝门", "address": "淮南市寿县古城南侧（内环路寿春路路口处）", "image": "", "rank": 6, "time": 1.0, "location": {"lat": 32.56154615120071, "lng": 116.80556277259998}, "feature": {"sight_features": "", "sight_content": ""}}, {"title": "珍珠泉", "address": "淮南市寿县县城北侧约2公里（八公山脚下，近八南路）", "image": "", "rank": 7, "time": 0.5, "location": {"lat": 32.637137318436714, "lng": 116.84056434849077}, "feature": {"sight_features": "", "sight_content": ""}}, {"title": "寿县孔庙", "address": "城内西大街", "image": "", "rank": 8, "time": 1.0, "location": {"lat": 35.46620500725071, "lng": 113.81074137866584}, "feature": {"sight_features": "", "sight_content": ""}}, {"title": "靖淮门", "address": "淮南市寿县古城北侧（内环路北大街路口）", "image": "", "rank": 9, "time": 1.0, "location": {"lat": 32.56154615120071, "lng": 116.80556277259998}, "feature": {"sight_features": "", "sight_content": ""}}, {"title": "淮南王刘安墓", "address": "淮南市寿县城北八公山下（S102公路旁）", "image": "", "rank": 10, "time": 1.0, "location": {"lat": 32.56154615120071, "lng": 116.80556277259998}, "feature": {"sight_features": "", "sight_content": ""}}, {"title": "寿县清真寺", "address": "南大街留犊祠巷西清真寺巷内", "image": "", "rank": 11, "time": 1.0, "location": {"lat": 43.8489595222746, "lng": 126.5486586829747}, "feature": {"sight_features": "", "sight_content": ""}}, {"title": "春申广场", "address": "淮南市寿县古城", "image": "", "rank": 12, "time": 0.3, "location": {"lat": 32.56154615120071, "lng": 116.80556277259998}, "feature": {"sight_features": "", "sight_content": ""}}, {"title": "廉颇墓", "address": "安徽省淮南市寿县035乡道", "image": "", "rank": 13, "time": 1.0, "location": {"lat": 32.56154615120071, "lng": 116.80556277259998}, "feature": {"sight_features": "", "sight_content": ""}}, {"title": "寿县基督教堂", "address": "淮南市寿县东大街和南照璧巷交汇处", "image": "", "rank": 14, "time": 0.4, "location": {"lat": 32.56154615120071, "lng": 116.80556277259998}, "feature": {"sight_features": "", "sight_content": ""}}, {"title": "寿县中国豆腐主题文化园", "address": "安徽省淮南市寿县S102", "image": "", "rank": 15, "time": 1.0, "location": {"lat": 32.56154615120071, "lng": 116.80556277259998}, "feature": {"sight_features": "", "sight_content": ""}}, {"title": "孙家鼐纪念馆", "address": "安徽省淮南市寿县S310", "image": "", "rank": 16, "time": 2, "location": {"lat": 32.56154615120071, "lng": 116.80556277259998}, "feature": {"sight_features": "", "sight_content": ""}}, {"title": "安徽半岛水上世界游乐园", "address": "安徽省淮南市寿县X020", "image": "", "rank": 17, "time": 2, "location": {"lat": 32.56154615120071, "lng": 116.80556277259998}, "feature": {"sight_features": "", "sight_content": ""}}, {"title": "六安淮南王墓", "address": "安徽省寿县八公山 232252", "image": "", "rank": 18, "time": 2, "location": {"lat": 32.637137318436714, "lng": 116.84056434849077}, "feature": {"sight_features": "", "sight_content": ""}}, {"title": "戚氏宗祠", "address": "安徽省淮南市寿县X006", "image": "", "rank": 19, "time": 2, "location": {"lat": 32.56154615120071, "lng": 116.80556277259998}, "feature": {"sight_features": "", "sight_content": ""}}, {"title": "陶渊明故居", "address": "安徽省淮南市寿县Y265", "image": "", "rank": 20, "time": 2, "location": {"lat": 32.56154615120071, "lng": 116.80556277259998}, "feature": {"sight_features": "", "sight_content": ""}}, {"title": "瓦埠青花瓷博物馆", "address": "020县道附近", "image": "", "rank": 21, "time": null, "location": {"lat": 31.238861031662534, "lng": 118.51347169293973}, "feature": {"sight_features": "", "sight_content": ""}}, {"title": "陶氏集团瓦埠湖水上乐园", "address": "土咀", "image": "", "rank": 22, "time": 2, "location": {"lat": 38.75514546523283, "lng": 113.9677913530427}, "feature": {"sight_features": "", "sight_content": ""}}, {"title": "陈祠堂", "address": "淮南市寿县", "image": "", "rank": 23, "time": 2, "location": {"lat": 32.56154615120071, "lng": 116.80556277259998}, "feature": {"sight_features": "", "sight_content": ""}}, {"title": "大寺巷", "address": "安徽省淮南市寿县", "image": "", "rank": 24, "time": 2, "location": {"lat": 32.56154615120071, "lng": 116.80556277259998}, "feature": {"sight_features": "", "sight_content": ""}}]}