{"cityName": "双辽", "days": 2, "cityImage": "", "spots": [{"title": "一马树森林公园", "address": "四平市双辽市红旗街", "image": "", "rank": 1, "time": 2.5, "location": {"lat": 43.59768039001605, "lng": 123.63972332125587}, "feature": {"sight_features": "", "sight_content": ""}}, {"title": "双辽市图书馆", "address": "郑园街738号", "image": "", "rank": 2, "time": 1.5, "location": {"lat": 43.51862275650482, "lng": 123.49563960898296}, "feature": {"sight_features": "", "sight_content": ""}}, {"title": "郑家屯博物馆", "address": "辽河大街1799号", "image": "", "rank": 3, "time": 2, "location": {"lat": 43.674744390195364, "lng": 124.25016506539104}, "feature": {"sight_features": "", "sight_content": ""}}, {"title": "农家乐", "address": "东春路339号(老客运站后面 双辽货场旁边)", "image": "", "rank": 4, "time": 2, "location": {"lat": 43.51427400159264, "lng": 123.52412240456759}, "feature": {"sight_features": "", "sight_content": ""}}, {"title": "双山鸭场文化大舞台", "address": "105省道附近", "image": "", "rank": 5, "time": 2, "location": {"lat": 40.96089319814357, "lng": 112.03171953991749}, "feature": {"sight_features": "", "sight_content": ""}}, {"title": "天桥山", "address": "辽宁省昌图县昌图镇东明村 112500", "image": "", "rank": 6, "time": 1.0, "location": {"lat": 42.787994027668056, "lng": 124.17878265353286}, "feature": {"sight_features": "", "sight_content": ""}}, {"title": "物华儿童城", "address": "吉林省四平市双辽市北兴路与新市街交汇处物华商厦5层", "image": "", "rank": 7, "time": 2, "location": {"lat": 43.52088207361303, "lng": 123.51141275780543}, "feature": {"sight_features": "", "sight_content": ""}}, {"title": "茂林烈士陵园", "address": "站前路与062县道交叉口西北50米", "image": "", "rank": 8, "time": 2, "location": {"lat": 43.987516915729735, "lng": 123.44399602521433}, "feature": {"sight_features": "", "sight_content": ""}}, {"title": "海底世界主题餐厅海鲜加工坊", "address": "北兴路附近", "image": "", "rank": 9, "time": 2, "location": {"lat": 38.711661427963456, "lng": 117.51412038019738}, "feature": {"sight_features": "", "sight_content": ""}}, {"title": "科富花生原原种研发良种繁育基地...", "address": "105省道附近", "image": "", "rank": 10, "time": null, "location": {"lat": 40.96089319814357, "lng": 112.03171953991749}, "feature": {"sight_features": "", "sight_content": ""}}, {"title": "二人转大舞台", "address": "中兴路与温州街交叉口西南100米", "image": "", "rank": 11, "time": 2, "location": {"lat": 43.517293540081226, "lng": 123.50897936316201}, "feature": {"sight_features": "", "sight_content": ""}}, {"title": "大众剧场", "address": "新市街与北安路交汇处", "image": "", "rank": 12, "time": 2, "location": {"lat": 43.52300923850895, "lng": 123.50929824185533}, "feature": {"sight_features": "", "sight_content": ""}}, {"title": "田源农业科技", "address": "东升街与东春路交叉口西北50米", "image": "", "rank": 13, "time": 2, "location": {"lat": 43.51448974437224, "lng": 123.52440356520916}, "feature": {"sight_features": "", "sight_content": ""}}, {"title": "茂林商业街", "address": "吉林省双辽市207省道附近", "image": "", "rank": 14, "time": 2, "location": {"lat": 43.77777169635599, "lng": 123.53014091853522}, "feature": {"sight_features": "", "sight_content": ""}}, {"title": "双辽卧虎大草原", "address": "四平市-双辽市-孤店村", "image": "", "rank": 15, "time": null, "location": {"lat": 43.766226531651085, "lng": 123.58450973484814}, "feature": {"sight_features": "", "sight_content": ""}}, {"title": "红久久生态农家院", "address": "四平市-双辽市-玻璃山镇加油站旁", "image": "", "rank": 16, "time": 2, "location": {"lat": 43.841402160700355, "lng": 123.56259447599952}, "feature": {"sight_features": "", "sight_content": ""}}]}