{"cityName": "双湖", "days": 2, "cityImage": "", "spots": [{"title": "普若岗日冰川", "address": "那曲地区羌塘西北部的双湖特别区东北部90公里", "image": "", "rank": 1, "time": 1.0, "location": {"lat": 33.19415091997964, "lng": 88.8426412899883}, "feature": {"sight_features": "", "sight_content": ""}}, {"title": "日拱错纳", "address": "西藏自治区那曲地区双湖县", "image": "", "rank": 2, "time": 2, "location": {"lat": 34.1025791506508, "lng": 88.22141706156933}, "feature": {"sight_features": "", "sight_content": ""}}, {"title": "洛曲珍", "address": "那曲地区双湖县", "image": "", "rank": 3, "time": 2, "location": {"lat": 34.1025791506508, "lng": 88.22141706156933}, "feature": {"sight_features": "", "sight_content": ""}}, {"title": "孝登寺", "address": "西藏自治区那曲县那曲镇", "image": "", "rank": 4, "time": 1.0, "location": {"lat": 31.475741826209184, "lng": 92.05175816146553}, "feature": {"sight_features": "", "sight_content": ""}}, {"title": "那曲活火山", "address": "西藏自治区那曲县境内", "image": "", "rank": 5, "time": 3.0, "location": {"lat": 31.252314725152477, "lng": 92.03462645364408}, "feature": {"sight_features": "", "sight_content": ""}}, {"title": "那曲高寒草原", "address": "西藏自治区那曲县那曲镇", "image": "", "rank": 6, "time": 3.0, "location": {"lat": 31.475741826209184, "lng": 92.05175816146553}, "feature": {"sight_features": "", "sight_content": ""}}, {"title": "铎木日", "address": "那曲市-双湖县", "image": "", "rank": 7, "time": 2, "location": {"lat": 33.193503165808735, "lng": 88.84342793612339}, "feature": {"sight_features": "", "sight_content": ""}}, {"title": "我托托", "address": "那曲市-双湖县", "image": "", "rank": 8, "time": 2, "location": {"lat": 33.193503165808735, "lng": 88.84342793612339}, "feature": {"sight_features": "", "sight_content": ""}}, {"title": "我阿绒曲香", "address": "那曲市-双湖县", "image": "", "rank": 9, "time": 2, "location": {"lat": 33.193503165808735, "lng": 88.84342793612339}, "feature": {"sight_features": "", "sight_content": ""}}]}