{"cityName": "双鸭山", "days": "", "cityImage": "", "spots": [{"title": "青山国家森林公园", "address": "双鸭山市岭东区307省道青山村", "image": "", "rank": 1, "time": 2, "location": {"lat": 46.452257863453916, "lng": 131.12978351479575}, "feature": {"sight_features": "", "sight_content": ""}}, {"title": "北大荒农机博览园", "address": "双鸭山市友谊县友谊镇西2公里处", "image": "", "rank": 2, "time": 2.0, "location": {"lat": 46.785253515826106, "lng": 131.8078463003349}, "feature": {"sight_features": "", "sight_content": ""}}, {"title": "八五三农场燕窝岛旅游度假区", "address": "双鸭山市宝清县境内", "image": "", "rank": 3, "time": 3.5, "location": {"lat": 46.33265182357228, "lng": 132.20359411633407}, "feature": {"sight_features": "", "sight_content": ""}}, {"title": "安邦河国家湿地公园", "address": "双鸭山市集贤县福利镇东北45公里", "image": "", "rank": 4, "time": 2.5, "location": {"lat": 46.74174990915534, "lng": 131.53630406738606}, "feature": {"sight_features": "", "sight_content": ""}}, {"title": "北秀公园", "address": "双鸭山市区南端的马鞍山脚下", "image": "", "rank": 5, "time": 2, "location": {"lat": 46.65318589588607, "lng": 131.16534168078073}, "feature": {"sight_features": "", "sight_content": ""}}, {"title": "七星河湿地国家级自然保护区", "address": "双鸭山市宝清县", "image": "", "rank": 6, "time": 2, "location": {"lat": 46.33265182357228, "lng": 132.20359411633407}, "feature": {"sight_features": "", "sight_content": ""}}, {"title": "云峰山滑雪场", "address": "双鸭山市向阳小区四路车终点（建设大厦上端）", "image": "", "rank": 7, "time": 2, "location": {"lat": 46.65565490810347, "lng": 131.1849521985046}, "feature": {"sight_features": "", "sight_content": ""}}, {"title": "罗玛洗浴", "address": "双鸭山市尖山市双福路尖山公安分局南侧", "image": "", "rank": 8, "time": 2, "location": {"lat": 46.662635422883206, "lng": 131.15881594040346}, "feature": {"sight_features": "", "sight_content": ""}}, {"title": "益寿山公园", "address": "黑龙江省双鸭山市尖山区", "image": "", "rank": 9, "time": 2, "location": {"lat": 46.65258592381225, "lng": 131.16534177061126}, "feature": {"sight_features": "", "sight_content": ""}}, {"title": "农家院地锅羊肉", "address": "二十六中加油站往双富村方向1000米", "image": "", "rank": 10, "time": 2, "location": {"lat": 46.63898392278757, "lng": 131.18631771989675}, "feature": {"sight_features": "", "sight_content": ""}}, {"title": "动植物标本展览馆", "address": "建设路248号建设路黄楼对面", "image": "", "rank": 11, "time": 2, "location": {"lat": 32.47386416301308, "lng": 114.04943292046914}, "feature": {"sight_features": "", "sight_content": ""}}, {"title": "翠博园果蔬王国", "address": "双鸭山农场", "image": "", "rank": 12, "time": 2, "location": {"lat": 46.5480087716322, "lng": 131.50794657104697}, "feature": {"sight_features": "", "sight_content": ""}}, {"title": "云峰汤泉", "address": "文化路云峰居北", "image": "", "rank": 13, "time": 2, "location": {"lat": 46.65557265307064, "lng": 131.18624011528374}, "feature": {"sight_features": "", "sight_content": ""}}, {"title": "岭东区清真寺", "address": "黑龙江省双鸭山市岭东区中山街道东明社区东矿路中山小学", "image": "", "rank": 14, "time": 2, "location": {"lat": 46.57038994696047, "lng": 131.153654247299}, "feature": {"sight_features": "", "sight_content": ""}}, {"title": "双鸭山市城市建设档案馆", "address": "文化路75号", "image": "", "rank": 15, "time": 2, "location": {"lat": 46.65566626683974, "lng": 131.1848717148224}, "feature": {"sight_features": "", "sight_content": ""}}, {"title": "红旗岭千鸟湖景区", "address": "双鸭山市饶河县红旗岭农场内", "image": "", "rank": 16, "time": 2, "location": {"lat": 46.843784316145005, "lng": 133.25369672419197}, "feature": {"sight_features": "", "sight_content": ""}}, {"title": "三八水库", "address": "黑龙江省集贤县贤镇南方 155921", "image": "", "rank": 17, "time": 2, "location": {"lat": 46.73451778855666, "lng": 131.1474344994225}, "feature": {"sight_features": "", "sight_content": ""}}, {"title": "鑫盛源啤酒广场", "address": "双鸭山市集贤县建工路49号", "image": "", "rank": 18, "time": 2, "location": {"lat": 46.74163432747163, "lng": 131.14789860896423}, "feature": {"sight_features": "", "sight_content": ""}}, {"title": "集贤县开心儿童欢乐堡", "address": "景苑山水步行街20号", "image": "", "rank": 19, "time": 2, "location": {"lat": 31.4707878758284, "lng": 104.75488769018823}, "feature": {"sight_features": "", "sight_content": ""}}, {"title": "沿江公园", "address": "饶河镇乌苏里江江畔", "image": "", "rank": 20, "time": 2, "location": {"lat": 45.78952685481713, "lng": 131.03624838241657}, "feature": {"sight_features": "", "sight_content": ""}}, {"title": "御绿公园", "address": "中央大街", "image": "", "rank": 21, "time": 2, "location": {"lat": 22.540723318225652, "lng": 114.07211691104746}, "feature": {"sight_features": "", "sight_content": ""}}, {"title": "友谊县图书馆", "address": "友谊路103号", "image": "", "rank": 22, "time": 2, "location": {"lat": 40.081608198482705, "lng": 116.27569295567304}, "feature": {"sight_features": "", "sight_content": ""}}, {"title": "黑龙江省农村信用社(集贤分馆)", "address": "保卫路中国移动旁", "image": "", "rank": 23, "time": null, "location": {"lat": 47.580852597651344, "lng": 130.8437805573744}, "feature": {"sight_features": "", "sight_content": ""}}, {"title": "珍宝岛烈士陵园", "address": "双鸭山市宝清县", "image": "", "rank": 24, "time": 2, "location": {"lat": 46.33265182357228, "lng": 132.20359411633407}, "feature": {"sight_features": "", "sight_content": ""}}, {"title": "友谊博物馆", "address": "北五道街与西二路交叉口", "image": "", "rank": 25, "time": 2.5, "location": {"lat": 46.784250831509134, "lng": 131.81848147131848}, "feature": {"sight_features": "", "sight_content": ""}}, {"title": "鳄鱼漆", "address": "利民街232号", "image": "", "rank": 26, "time": 2, "location": {"lat": 36.71082455574457, "lng": 118.85727180653235}, "feature": {"sight_features": "", "sight_content": ""}}, {"title": "天赐良缘", "address": "双鸭山金巴黎5501号", "image": "", "rank": 27, "time": 2, "location": {"lat": 46.65318589588607, "lng": 131.16534168078073}, "feature": {"sight_features": "", "sight_content": ""}}, {"title": "鱼乐圈四季垂钓园", "address": "友谊农场八分场", "image": "", "rank": 28, "time": 2, "location": {"lat": 46.57039878631843, "lng": 131.70056027820908}, "feature": {"sight_features": "", "sight_content": ""}}, {"title": "东方艺象·画廊", "address": "建设路82号", "image": "", "rank": 29, "time": 1.5, "location": {"lat": 30.596608766604614, "lng": 114.29397288029519}, "feature": {"sight_features": "", "sight_content": ""}}, {"title": "童梦之旅儿童剧巡演", "address": "四马路奇特超市对面(售票点)", "image": "", "rank": 30, "time": 2, "location": {"lat": 46.64560549041714, "lng": 131.16278357617995}, "feature": {"sight_features": "", "sight_content": ""}}, {"title": "双鸭山市图书馆(铁西分馆)", "address": "银苑街南150米", "image": "", "rank": 31, "time": 2, "location": {"lat": 22.52807268684575, "lng": 113.4165854451914}, "feature": {"sight_features": "", "sight_content": ""}}, {"title": "德艺美术馆", "address": "七马路186号", "image": "", "rank": 32, "time": 2, "location": {"lat": 46.65373239737463, "lng": 131.1743534888433}, "feature": {"sight_features": "", "sight_content": ""}}, {"title": "珍宝岛", "address": "黑龙江省饶河县饶河镇 155700", "image": "", "rank": 33, "time": 1.0, "location": {"lat": 46.808653735866876, "lng": 134.0334429593912}, "feature": {"sight_features": "", "sight_content": ""}}, {"title": "佳贝爱儿童乐园", "address": "福利新四海南门", "image": "", "rank": 34, "time": 2, "location": {"lat": 18.818610367272836, "lng": 109.47509639517955}, "feature": {"sight_features": "", "sight_content": ""}}, {"title": "孟紫少儿美术馆", "address": "新华路，孕产妇急救中心北行500米百盟国际广场3楼", "image": "", "rank": 35, "time": 2, "location": {"lat": 46.34049221086728, "lng": 132.19934509354303}, "feature": {"sight_features": "", "sight_content": ""}}, {"title": "中共黑龙江省友谊农场委员会组织...", "address": "北七道街北50米", "image": "", "rank": 36, "time": 2, "location": {"lat": 45.79366295118505, "lng": 126.65013149005875}, "feature": {"sight_features": "", "sight_content": ""}}, {"title": "二九一有机果蔬种植基地", "address": "G1011哈同高速附近", "image": "", "rank": 37, "time": 2, "location": {"lat": 45.793111091324825, "lng": 126.85415866369152}, "feature": {"sight_features": "", "sight_content": ""}}, {"title": "晟达彩印图书馆", "address": "保卫路177号", "image": "", "rank": 38, "time": 2, "location": {"lat": 46.734630139162824, "lng": 131.14221909214007}, "feature": {"sight_features": "", "sight_content": ""}}, {"title": "黑龙江省图书馆", "address": "福利镇保卫路163号", "image": "", "rank": 39, "time": 2, "location": {"lat": 46.735176818524664, "lng": 131.14211760877}, "feature": {"sight_features": "", "sight_content": ""}}, {"title": "宝清县社区居民阅览室", "address": "人民路与胜利街交叉口东50米", "image": "", "rank": 40, "time": 2, "location": {"lat": 42.97956673386958, "lng": 126.75429363033336}, "feature": {"sight_features": "", "sight_content": ""}}, {"title": "宝清县图书馆阅读站", "address": "文体路与新民街交叉口东南50米", "image": "", "rank": 41, "time": 2, "location": {"lat": 22.620331278931918, "lng": 113.30729744956149}, "feature": {"sight_features": "", "sight_content": ""}}, {"title": "xroom真人密室逃脱俱乐部", "address": "建设街与文体路交叉口西北200米", "image": "", "rank": 42, "time": 2, "location": {"lat": 46.33726242807141, "lng": 132.19981239566255}, "feature": {"sight_features": "", "sight_content": ""}}, {"title": "三江平原汉魏时期遗址", "address": "黑龙江省宝清县七星泡镇平安村 155607", "image": "", "rank": 43, "time": 2, "location": {"lat": 46.57741499403902, "lng": 131.83229456153526}, "feature": {"sight_features": "", "sight_content": ""}}, {"title": "十二烈士山", "address": "黑龙江省七台河市茄子河区红卫乡钟山村 154622", "image": "", "rank": 44, "time": 2.0, "location": {"lat": 46.017687809190754, "lng": 131.64045684121507}, "feature": {"sight_features": "", "sight_content": ""}}, {"title": "漫铖进口啤酒体验馆", "address": "净水路老自来水公司旁", "image": "", "rank": 45, "time": 2, "location": {"lat": 43.848497459780205, "lng": 125.35078320807024}, "feature": {"sight_features": "", "sight_content": ""}}, {"title": "龙湖森林公园", "address": "黑龙江省宝清县龙头镇 155600", "image": "", "rank": 46, "time": 3.5, "location": {"lat": 46.137543229478936, "lng": 132.10394533224732}, "feature": {"sight_features": "", "sight_content": ""}}, {"title": "雁窝岛湿地生态旅游区", "address": "双鸭山市宝清县八五三农场四分场机关西200米", "image": "", "rank": 47, "time": 0.4, "location": {"lat": 46.75019361692355, "lng": 132.9038642699111}, "feature": {"sight_features": "", "sight_content": ""}}, {"title": "完达山森林公园", "address": "黑龙江省宝清县县西南 155600", "image": "", "rank": 48, "time": 2, "location": {"lat": 45.35577060463225, "lng": 132.20359411633407}, "feature": {"sight_features": "", "sight_content": ""}}, {"title": "乌苏里江国家森林公园", "address": "黑龙江省虎林市虎头镇月牙村 158405", "image": "", "rank": 49, "time": 1.0, "location": {"lat": 45.92869654808078, "lng": 133.50149008157658}, "feature": {"sight_features": "", "sight_content": ""}}, {"title": "十二星座啤酒广场", "address": "黑鱼泡路80号", "image": "", "rank": 50, "time": 2, "location": {"lat": 46.66139922286838, "lng": 131.16050583272883}, "feature": {"sight_features": "", "sight_content": ""}}, {"title": "双鸭山市宝山区基督教会", "address": "黑龙江省双鸭山市宝山区X132(宝一路)", "image": "", "rank": 51, "time": 2, "location": {"lat": 46.57055183207884, "lng": 131.41624273416184}, "feature": {"sight_features": "", "sight_content": ""}}, {"title": "新安基督教堂", "address": "黑龙江省双鸭山市宝山区", "image": "", "rank": 52, "time": 1.0, "location": {"lat": 46.58359834024085, "lng": 131.40737518857432}, "feature": {"sight_features": "", "sight_content": ""}}, {"title": "童得利淘气堡儿童乐园", "address": "中央大街469", "image": "", "rank": 53, "time": 2, "location": {"lat": 45.84215307589925, "lng": 128.83492329235833}, "feature": {"sight_features": "", "sight_content": ""}}, {"title": "佛母山中道寺", "address": "双鸭山市尖山区", "image": "", "rank": 54, "time": 2, "location": {"lat": 46.65258592381225, "lng": 131.16534177061126}, "feature": {"sight_features": "", "sight_content": ""}}, {"title": "马维华儿童游乐园", "address": "四马路兴亚商厦三楼", "image": "", "rank": 55, "time": 2, "location": {"lat": 46.646193051419, "lng": 131.16355534547748}, "feature": {"sight_features": "", "sight_content": ""}}, {"title": "富锦湿地公园", "address": "黑龙江省双鸭山市集贤县G1011(哈同高速公路)", "image": "", "rank": 56, "time": 3.0, "location": {"lat": 46.76592935451436, "lng": 131.11968216994617}, "feature": {"sight_features": "", "sight_content": ""}}, {"title": "东湖水上乐园", "address": "二站路水库西侧", "image": "", "rank": 57, "time": 2.5, "location": {"lat": 46.578528845860625, "lng": 131.14472233901998}, "feature": {"sight_features": "", "sight_content": ""}}, {"title": "嗨科阳光儿童主题乐园", "address": "九阳路大润发二楼", "image": "", "rank": 58, "time": 2, "location": {"lat": 46.65823622885752, "lng": 131.16903591368202}, "feature": {"sight_features": "", "sight_content": ""}}, {"title": "福霆公园", "address": "双鸭山市集贤县", "image": "", "rank": 59, "time": 2, "location": {"lat": 46.73451778855666, "lng": 131.1474344994225}, "feature": {"sight_features": "", "sight_content": ""}}, {"title": "吉百旺啤酒广场", "address": "净水路三十六中西门对面", "image": "", "rank": 60, "time": 2, "location": {"lat": 46.66531702474918, "lng": 131.16662321689583}, "feature": {"sight_features": "", "sight_content": ""}}]}