{"cityName": "双峰", "days": 2, "cityImage": "", "spots": [{"title": "蔡和森纪念馆", "address": "湖南省娄底市双峰县书院路300号", "image": "", "rank": 1, "time": 2, "location": {"lat": 27.468306705728224, "lng": 112.2064049135398}, "feature": {"sight_features": "", "sight_content": ""}}, {"title": "猪婆山森林公园", "address": "甘棠镇", "image": "", "rank": 2, "time": 2, "location": {"lat": 39.861417686381884, "lng": 116.82134892619135}, "feature": {"sight_features": "", "sight_content": ""}}, {"title": "4维空间密室逃脱", "address": "汇丰步行街一栋二楼214/232号(步步高)", "image": "", "rank": 3, "time": 2, "location": {"lat": 34.91441577655979, "lng": 112.79141486401015}, "feature": {"sight_features": "", "sight_content": ""}}, {"title": "文正书画院", "address": "蔡和森大道", "image": "", "rank": 4, "time": 2, "location": {"lat": 27.468964746479497, "lng": 112.19405898349628}, "feature": {"sight_features": "", "sight_content": ""}}, {"title": "罗生农家乐", "address": "320国道", "image": "", "rank": 5, "time": 2, "location": {"lat": 27.256565251327487, "lng": 111.28158164529765}, "feature": {"sight_features": "", "sight_content": ""}}, {"title": "蔡和森、蔡畅故居", "address": "娄底市双峰县", "image": "", "rank": 6, "time": 2, "location": {"lat": 27.4629826585733, "lng": 112.18146049665532}, "feature": {"sight_features": "", "sight_content": ""}}, {"title": "双峰黄巢山", "address": "湖南省双峰县双峰县境内 417700", "image": "", "rank": 7, "time": 2, "location": {"lat": 27.4629826585733, "lng": 112.18146049665532}, "feature": {"sight_features": "", "sight_content": ""}}, {"title": "华天洞", "address": "湖南省双峰县甘棠镇 417700", "image": "", "rank": 8, "time": 2, "location": {"lat": 27.435209825225105, "lng": 111.9818743685649}, "feature": {"sight_features": "", "sight_content": ""}}, {"title": "水府庙郊野威尼斯乐园", "address": "湖南省双峰县溪口弯风景区 417700", "image": "", "rank": 9, "time": 2, "location": {"lat": 27.4629826585733, "lng": 112.18146049665532}, "feature": {"sight_features": "", "sight_content": ""}}, {"title": "水府庙水库", "address": "湖南省双峰县涟水河上 417700", "image": "", "rank": 10, "time": 2, "location": {"lat": 27.4629826585733, "lng": 112.18146049665532}, "feature": {"sight_features": "", "sight_content": ""}}, {"title": "宝贝儿童游乐园", "address": "娄底市双峰县", "image": "", "rank": 11, "time": 2, "location": {"lat": 27.4629826585733, "lng": 112.18146049665532}, "feature": {"sight_features": "", "sight_content": ""}}, {"title": "曾昭燏生平事迹陈列室", "address": "娄底市双峰县荷叶镇富托村曾国藩故居富厚堂内", "image": "", "rank": 12, "time": 2, "location": {"lat": 27.41547408471878, "lng": 112.4662785054707}, "feature": {"sight_features": "", "sight_content": ""}}, {"title": "八角庙", "address": "娄底市双峰县荷叶镇富托村曾国藩故居内", "image": "", "rank": 13, "time": 2, "location": {"lat": 27.41641169312811, "lng": 112.46564458564539}, "feature": {"sight_features": "", "sight_content": ""}}, {"title": "倍亲儿童游乐园", "address": "湖南省娄底市双峰县Y216", "image": "", "rank": 14, "time": 2, "location": {"lat": 27.4629826585733, "lng": 112.18146049665532}, "feature": {"sight_features": "", "sight_content": ""}}, {"title": "左家祠堂", "address": "娄底市双峰县零五四县道", "image": "", "rank": 15, "time": 2, "location": {"lat": 27.4629826585733, "lng": 112.18146049665532}, "feature": {"sight_features": "", "sight_content": ""}}, {"title": "刘家祠堂", "address": "娄底市双峰县K一四县道", "image": "", "rank": 16, "time": 2, "location": {"lat": 27.342461913861015, "lng": 112.11908979765988}, "feature": {"sight_features": "", "sight_content": ""}}, {"title": "宝贝", "address": "湖南省娄底市双峰县永丰镇蔡和森大道东湄水湾巨龙家园", "image": "", "rank": 17, "time": 2, "location": {"lat": 27.468713491027113, "lng": 112.19437543496801}, "feature": {"sight_features": "", "sight_content": ""}}, {"title": "桃石洞", "address": "湖南省娄底市双峰县XK09", "image": "", "rank": 18, "time": 2, "location": {"lat": 27.4629826585733, "lng": 112.18146049665532}, "feature": {"sight_features": "", "sight_content": ""}}, {"title": "曹家祠堂", "address": "娄底市双峰县K零四县道", "image": "", "rank": 19, "time": 1.5, "location": {"lat": 27.4629826585733, "lng": 112.18146049665532}, "feature": {"sight_features": "", "sight_content": ""}}, {"title": "女杰广场", "address": "娄底市双峰县城北建材市场a栋8110号", "image": "", "rank": 20, "time": 2, "location": {"lat": 27.47141168277746, "lng": 112.20457430345351}, "feature": {"sight_features": "", "sight_content": ""}}, {"title": "曾国藩广场", "address": "蔡和森大道东100米", "image": "", "rank": 21, "time": 2, "location": {"lat": 27.468713491027113, "lng": 112.19437543496801}, "feature": {"sight_features": "", "sight_content": ""}}, {"title": "文塔山公园", "address": "蔡和森大道附近", "image": "", "rank": 22, "time": 2, "location": {"lat": 27.468964746479497, "lng": 112.19405898349628}, "feature": {"sight_features": "", "sight_content": ""}}, {"title": "双峰县烈士公园", "address": "永丰镇书院路衡宝战役烈士纪念塔", "image": "", "rank": 23, "time": 2, "location": {"lat": 27.46042183347244, "lng": 112.21100103349362}, "feature": {"sight_features": "", "sight_content": ""}}, {"title": "白马祠堂", "address": "娄底市双峰县零一零县道", "image": "", "rank": 24, "time": 2, "location": {"lat": 27.4629826585733, "lng": 112.18146049665532}, "feature": {"sight_features": "", "sight_content": ""}}, {"title": "东升水上乐园", "address": "永丰镇茅坪村内", "image": "", "rank": 25, "time": 2, "location": {"lat": 27.48095447521788, "lng": 112.20511236599617}, "feature": {"sight_features": "", "sight_content": ""}}, {"title": "启智游乐园", "address": "320国道与K15县道交叉口东北200米", "image": "", "rank": 26, "time": 2, "location": {"lat": 42.85646580255288, "lng": 124.414086267546}, "feature": {"sight_features": "", "sight_content": ""}}, {"title": "淘气堡儿童游乐中心", "address": "永丰镇工农路", "image": "", "rank": 27, "time": 2, "location": {"lat": 27.46304158567449, "lng": 112.20532951877685}, "feature": {"sight_features": "", "sight_content": ""}}, {"title": "双峰县九峰山森林公园", "address": "湖南省双峰县甘棠镇", "image": "", "rank": 28, "time": 2, "location": {"lat": 27.435209825225105, "lng": 111.9818743685649}, "feature": {"sight_features": "", "sight_content": ""}}, {"title": "中共湖南省委旧址", "address": "湖南省双峰县永丰镇", "image": "", "rank": 29, "time": 2, "location": {"lat": 27.446391631005735, "lng": 112.23942860843256}, "feature": {"sight_features": "", "sight_content": ""}}, {"title": "观音阁佛寺", "address": "湖南省双峰县回龙山麓", "image": "", "rank": 30, "time": 2, "location": {"lat": 27.4629826585733, "lng": 112.18146049665532}, "feature": {"sight_features": "", "sight_content": ""}}, {"title": "四角大坵", "address": "娄底市-双峰县", "image": "", "rank": 31, "time": 2, "location": {"lat": 27.4629826585733, "lng": 112.18146049665532}, "feature": {"sight_features": "", "sight_content": ""}}, {"title": "甘堂镇林场", "address": "娄底市-双峰县", "image": "", "rank": 32, "time": 2, "location": {"lat": 27.4629826585733, "lng": 112.18146049665532}, "feature": {"sight_features": "", "sight_content": ""}}, {"title": "双峰火车北站站前广场", "address": "娄底市-双峰县", "image": "", "rank": 33, "time": 2, "location": {"lat": 27.4629826585733, "lng": 112.18146049665532}, "feature": {"sight_features": "", "sight_content": ""}}, {"title": "甘棠镇凤凰村组织活动中心", "address": "娄底市-双峰县-X018", "image": "", "rank": 34, "time": 2, "location": {"lat": 27.4629826585733, "lng": 112.18146049665532}, "feature": {"sight_features": "", "sight_content": ""}}]}