{"cityName": "舒城", "days": 2, "cityImage": "", "spots": [{"title": "万佛湖风景区", "address": "六安市舒城县万佛湖风景区", "image": "", "rank": 1, "time": 3.0, "location": {"lat": 31.293086880541455, "lng": 116.77683070172785}, "feature": {"sight_features": "特色1 被誉为“安徽的北戴河、合肥的后花园” 特色2 60多个大小不一的岛屿，有安徽千岛湖之誉 特色3 生态美景，纵情玩乐", "sight_content": "万佛湖风景区位于安徽省中部的舒城县境内。万佛湖是国家AAAA级旅游区、国  家级水利风景区、国家地质公园、省级风景名胜区、省级旅游度假 区。安徽旅游十大度假基地之一  。被誉为“安徽的北戴河、合肥的后花园”。这里可谓“湖光山色、百里画廊；山水醉地、休闲天堂”。万佛湖风景区是以万佛湖为中心的湖泊型观光风景区。景区面积299平方公里，湖面50平方公里，容  水8.2亿立方米。万佛湖即龙河口水库，是举世闻名的淠史杭灌区的重要 组成部分，安徽十大水库 之一 。  龙河口水库1958年动工兴建，1960年建成受益，以后陆续兴建配套设施，1969年最后竣工，历时十一个春秋。“修水库实现千年理想，锁蛟龙造福万代子孙”。水库大坝为“粘土心墙沙壳坝” ，全长 600米， 高程75.4米，总计完成土方160万立方米，巍然耸立在龙河寨和栲栳山之间。令人惊叹的是， 它完全是以人工肩挑手推的土法而筑成，堪列“世界之最”。原联合国大坝委员会主席兰希 先生称赞龙 河口水库大坝是一项“非常了不起的工程”。\n\n\n原来龙河口水库纳晓天河、龙河和滑水河之水，库区流域面积达1111平方公里。诸河流自千山万壑 ，最高峰便是万佛山的“老佛顶”，海拔1359米，系舒城、桐城、庐江、潜山等县境内的众山之祖。老佛顶下丹峰上有一座高2米、宽1米的“自生石碑”，系舒城县级保护文物。碑上有刻于清光绪年间的 “万佛名山”四个大字，历百年雨雪风霜而未湮灭，至今仍以苍劲、秀逸的面容昭示游人。湖面是枫叶状，周边长250km。环湖皆山，碧波万顷，绿岛浮动，波光粼粼，鸥鸟翔集，舟揖点点。 自然景观有万佛石林、环柏山道、左慈钓鱼台和观音洞、人头马、翠竹岭、白骛洲以及雄伟壮观的 水利工程设施等几十处景点。集山、水、岛、石崖、壁滩、池、洞、林、花、文化遗址及森林探险于一体， 形成了妖娆多姿、绚丽迷人的湖光山色。60多个大小不一的岛屿，如鲸似龟，情态各异，令人遐想万千 。"}}, {"title": "万佛山", "address": "六安市舒城县048县道", "image": "", "rank": 2, "time": 3.0, "location": {"lat": 31.551929584390503, "lng": 117.13772605695526}, "feature": {"sight_features": "", "sight_content": ""}}, {"title": "博爱水上乐园", "address": "六安市舒城县龙舒路6号慈母宫内", "image": "", "rank": 3, "time": 1.5, "location": {"lat": 31.462877857232606, "lng": 116.94546608962116}, "feature": {"sight_features": "", "sight_content": ""}}, {"title": "周瑜城", "address": "六安市舒城县干汊河镇瑜城村485乡道", "image": "", "rank": 4, "time": 1.0, "location": {"lat": 31.402556602431613, "lng": 116.88667132596056}, "feature": {"sight_features": "", "sight_content": ""}}, {"title": "兰花谷漂流", "address": "六安市舒城县G105（京珠线）", "image": "", "rank": 5, "time": null, "location": {"lat": 31.467692010555787, "lng": 116.95560171142074}, "feature": {"sight_features": "", "sight_content": ""}}, {"title": "慈母宫", "address": "六安市舒城县乌龙井南大门", "image": "", "rank": 6, "time": 1.0, "location": {"lat": 31.463242875457073, "lng": 116.94922562874147}, "feature": {"sight_features": "", "sight_content": ""}}, {"title": "九龙寨庄园", "address": "安徽省六安市舒城县S317", "image": "", "rank": 7, "time": 2, "location": {"lat": 31.467692010555787, "lng": 116.95560171142074}, "feature": {"sight_features": "", "sight_content": ""}}, {"title": "平常人家农家乐", "address": "044县道梅岭村南280米", "image": "", "rank": 8, "time": 2, "location": {"lat": 31.188589111639626, "lng": 119.41881142373902}, "feature": {"sight_features": "", "sight_content": ""}}, {"title": "舒城剧院", "address": "城关镇龙舒路", "image": "", "rank": 9, "time": 2.0, "location": {"lat": 31.463107280977784, "lng": 116.949528562512}, "feature": {"sight_features": "", "sight_content": ""}}, {"title": "渔乐圈钓友俱乐部", "address": "206国道惠万家超市西南侧", "image": "", "rank": 10, "time": 2, "location": {"lat": 30.518744865774313, "lng": 117.04566213879853}, "feature": {"sight_features": "", "sight_content": ""}}, {"title": "江家祠堂", "address": "六安市舒城县一零五国道", "image": "", "rank": 11, "time": 2, "location": {"lat": 31.467692010555787, "lng": 116.95560171142074}, "feature": {"sight_features": "", "sight_content": ""}}, {"title": "儿童乐园", "address": "六安市舒城县万佛湖镇上万佛湖风景区内", "image": "", "rank": 12, "time": 2, "location": {"lat": 31.345791940004265, "lng": 116.76093545252554}, "feature": {"sight_features": "", "sight_content": ""}}, {"title": "藏仙岛-休息处", "address": "六安市舒城县万佛湖镇上万佛湖风景区藏仙岛内", "image": "", "rank": 13, "time": 2, "location": {"lat": 31.345791940004265, "lng": 116.76093545252554}, "feature": {"sight_features": "", "sight_content": ""}}, {"title": "观音寺", "address": "安徽省六安市舒城县Y468", "image": "", "rank": 14, "time": 2.0, "location": {"lat": 31.467692010555787, "lng": 116.95560171142074}, "feature": {"sight_features": "", "sight_content": ""}}, {"title": "欢乐堡儿童乐园(古城北路店)", "address": "安徽省六安市舒城县古城北路", "image": "", "rank": 15, "time": 2, "location": {"lat": 31.483286766665536, "lng": 116.96377649907011}, "feature": {"sight_features": "", "sight_content": ""}}, {"title": "普渡寺", "address": "安徽省六安市舒城县三沟村33号", "image": "", "rank": 16, "time": 0.6, "location": {"lat": 31.494042059967242, "lng": 116.98606594977385}, "feature": {"sight_features": "", "sight_content": ""}}, {"title": "舒城水上乐园", "address": "龙舒路6号慈母宫内", "image": "", "rank": 17, "time": 2.5, "location": {"lat": 31.462877857232606, "lng": 116.94546608962116}, "feature": {"sight_features": "", "sight_content": ""}}, {"title": "丰乐影剧院", "address": "神丰路肥西县房产管理局丰乐房管所附近", "image": "", "rank": 18, "time": 2, "location": {"lat": 31.559667357947525, "lng": 117.18453316385816}, "feature": {"sight_features": "", "sight_content": ""}}, {"title": "舒怡广场", "address": "桃溪路276号", "image": "", "rank": 19, "time": 2, "location": {"lat": 31.471954612764087, "lng": 116.9456732355853}, "feature": {"sight_features": "", "sight_content": ""}}, {"title": "徽翠山林博物馆", "address": "六安市舒城县044县道", "image": "", "rank": 20, "time": 2, "location": {"lat": 31.299617355024083, "lng": 116.81393093757819}, "feature": {"sight_features": "", "sight_content": ""}}, {"title": "城隍庙", "address": "合肥市肥西县三河镇", "image": "", "rank": 21, "time": 1.5, "location": {"lat": 31.51774312312457, "lng": 117.25090331214031}, "feature": {"sight_features": "", "sight_content": ""}}, {"title": "新四军皖西革命纪念馆", "address": "万佛湖南岸", "image": "", "rank": 22, "time": 2, "location": {"lat": 29.50268309883491, "lng": 106.66842977859555}, "feature": {"sight_features": "", "sight_content": ""}}, {"title": "潘祠堂", "address": "合肥市肥西县", "image": "", "rank": 23, "time": 2, "location": {"lat": 31.712962132716886, "lng": 117.16455781372443}, "feature": {"sight_features": "", "sight_content": ""}}, {"title": "大雄宝殿", "address": "六安市舒城县万佛湖镇上万佛湖风景区万佛岛内", "image": "", "rank": 24, "time": 2, "location": {"lat": 31.345791940004265, "lng": 116.76093545252554}, "feature": {"sight_features": "", "sight_content": ""}}, {"title": "王家祠堂", "address": "六安市舒城县零四六县道", "image": "", "rank": 25, "time": 2, "location": {"lat": 31.467692010555787, "lng": 116.95560171142074}, "feature": {"sight_features": "", "sight_content": ""}}, {"title": "柏林基督教堂", "address": "安徽省六安市舒城县X043", "image": "", "rank": 26, "time": 1.0, "location": {"lat": 31.467692010555787, "lng": 116.95560171142074}, "feature": {"sight_features": "", "sight_content": ""}}, {"title": "蔡家祠堂", "address": "六安市舒城县", "image": "", "rank": 27, "time": 2, "location": {"lat": 31.467692010555787, "lng": 116.95560171142074}, "feature": {"sight_features": "", "sight_content": ""}}, {"title": "舒城县春秋乡古月山庄度假村", "address": "春秋乡胜利村糙米洼中国石油向东200米路北", "image": "", "rank": 28, "time": 2, "location": {"lat": 39.77730187403151, "lng": 116.53883088750622}, "feature": {"sight_features": "", "sight_content": ""}}, {"title": "飞翔鸟儿童主题乐园", "address": "大黉水巷与梅河路交叉口东南50米", "image": "", "rank": 29, "time": 2, "location": {"lat": 31.467602800256675, "lng": 116.95487334644884}, "feature": {"sight_features": "", "sight_content": ""}}, {"title": "徽萃山林度假村", "address": "六安市舒城县万佛湖景区大坝码头徽萃山林", "image": "", "rank": 30, "time": 2, "location": {"lat": 31.309519611991842, "lng": 116.78389790024276}, "feature": {"sight_features": "", "sight_content": ""}}, {"title": "万佛湖在水一方民俗艺术旅游度假...", "address": "舒城万佛湖风景区三江码头", "image": "", "rank": 31, "time": 2, "location": {"lat": 31.293086880541455, "lng": 116.77683070172785}, "feature": {"sight_features": "", "sight_content": ""}}, {"title": "开国茶园", "address": "六安市舒城县石塘村", "image": "", "rank": 32, "time": 2, "location": {"lat": 31.315168662883625, "lng": 117.0582750928539}, "feature": {"sight_features": "特色1 是春节家庭亲子游玩的好去处。 特色2 适合自驾和团队出行。", "sight_content": "开国茶园是一个以茶叶种植、生产加工和旅游观光于一体的生态茶业观光园，位于舒城县石塘村。这里气候温和，四季分明，雨水充沛，季风显著，土壤肥沃是茶叶生产的理想之地，所产舒茶小兰花、舒茶早等茶系列深得人们的喜爱。茶园内大片的茶树景像绵延不断，清新的茶香弥漫于空气中。游客可以在这亲身体验茶园生活，探寻别人不知道的茶园美景。在游览茶园的同时还可以亲自采摘，参与从采茶到制茶的全过程。"}}, {"title": "汤泉宫韩式洗浴", "address": "六安市舒城县合安路与桃溪路交叉口久富广场三楼", "image": "", "rank": 33, "time": 2, "location": {"lat": 31.47840971461496, "lng": 116.97027831667332}, "feature": {"sight_features": "", "sight_content": "汤泉宫韩式洗浴位于舒城县久富广场，集汤泉、汗蒸、水吧、养生、美食等为一体，主打特色儿童戏水区。"}}, {"title": "文化会展中心", "address": "大黉水巷", "image": "", "rank": 34, "time": 1.5, "location": {"lat": 31.463175329657684, "lng": 116.9548410406878}, "feature": {"sight_features": "", "sight_content": ""}}, {"title": "阳光雨露生态园", "address": "317省道", "image": "", "rank": 35, "time": 2, "location": {"lat": 36.10879203258049, "lng": 114.98930841622683}, "feature": {"sight_features": "", "sight_content": ""}}, {"title": "毛主席视察舒茶纪念馆", "address": "206国道", "image": "", "rank": 36, "time": null, "location": {"lat": 24.027693425509675, "lng": 115.9917729736661}, "feature": {"sight_features": "", "sight_content": ""}}, {"title": "欢乐谷游戏城", "address": "东门路", "image": "", "rank": 37, "time": 2, "location": {"lat": 37.99070987718111, "lng": 114.70660897282872}, "feature": {"sight_features": "", "sight_content": ""}}, {"title": "龙泉荷花苑", "address": "棠树乡351省道三拐村", "image": "", "rank": 38, "time": 2, "location": {"lat": 31.485558643950657, "lng": 116.83517187890422}, "feature": {"sight_features": "", "sight_content": ""}}, {"title": "聪慧儿童乐园(克拉国际广场店)", "address": "梅河西路克拉广场二楼(大转盘向西100米)", "image": "", "rank": 39, "time": 2, "location": {"lat": 29.185798206497626, "lng": 104.98628003880174}, "feature": {"sight_features": "", "sight_content": ""}}, {"title": "迎佛农家乐", "address": "X044金凌大酒店西侧", "image": "", "rank": 40, "time": 2, "location": {"lat": 30.711987141050493, "lng": 120.41532890508905}, "feature": {"sight_features": "", "sight_content": ""}}, {"title": "浩美渔具", "address": "晓天镇G105杏林药房东侧(京珠线)", "image": "", "rank": 41, "time": 2, "location": {"lat": 31.19764723624627, "lng": 116.6028136927769}, "feature": {"sight_features": "", "sight_content": ""}}, {"title": "赏心园", "address": "晓天镇驮岭村村部打鼓岭西北300米", "image": "", "rank": 42, "time": 2, "location": {"lat": 31.072533469961336, "lng": 116.40876235724058}, "feature": {"sight_features": "", "sight_content": ""}}, {"title": "乌龙井商业街", "address": "安徽省舒城县龙舒路", "image": "", "rank": 43, "time": 2, "location": {"lat": 31.463107280977784, "lng": 116.949528562512}, "feature": {"sight_features": "", "sight_content": ""}}, {"title": "舒城水立方", "address": "六安市舒城县花桥路与梅山北路交叉口", "image": "", "rank": 44, "time": 2.0, "location": {"lat": 31.338521715473213, "lng": 116.77703558365535}, "feature": {"sight_features": "", "sight_content": "舒城水立方是集水疗、韩式汗蒸、餐厅、SPA、儿童乐园、养生足道、高清影院、家庭房、凉亭、窑洞等于一体的大型洗浴场所。\n以韩国洗浴汗蒸文化为主题元素，引进韩国最先进的汗蒸理念，是舒城县首家最具有韩国特色的韩式洗浴场所，多功能休闲服务体系，特色的建筑装修风格，身心愉悦的极致体验，使您不出舒城就能体验浓郁的韩国异域风情。"}}, {"title": "鹏翔生态园", "address": "六安市舒城县千人桥镇康居路", "image": "", "rank": 45, "time": 2, "location": {"lat": 31.49981922832468, "lng": 117.10786318563257}, "feature": {"sight_features": "", "sight_content": "安徽鹏翔生态园位于有着“鱼米之乡”之称的六安舒城县千人桥镇，以生态特色种植采摘、生态酒店和观光旅游为主。"}}]}