{"cityName": "水城", "days": 2, "cityImage": "", "spots": [{"title": "玉舍国家森林公园滑雪场", "address": "六盘水市水城县勺米乡范家寨村玉舍国家森林公园内", "image": "", "rank": 1, "time": 2, "location": {"lat": 26.473756999023912, "lng": 104.80142049857591}, "feature": {"sight_features": "", "sight_content": ""}}, {"title": "玉舍森林公园", "address": "六盘水市水城县勺米乡范家寨村玉舍国家森林公园", "image": "", "rank": 2, "time": 1.0, "location": {"lat": 26.473756999023912, "lng": 104.80142049857591}, "feature": {"sight_features": "", "sight_content": ""}}, {"title": "野钟自然保护区", "address": "六盘水市水城县", "image": "", "rank": 3, "time": 1.0, "location": {"lat": 26.553719763691845, "lng": 104.96456610819116}, "feature": {"sight_features": "", "sight_content": ""}}, {"title": "花嘎溶斗", "address": "贵州省六盘水市水城县", "image": "", "rank": 4, "time": 2, "location": {"lat": 26.553719763691845, "lng": 104.96456610819116}, "feature": {"sight_features": "", "sight_content": ""}}, {"title": "百车河温泉", "address": "六盘水市水城县双水水黄公路百车河旅游度假景区", "image": "", "rank": 5, "time": 2, "location": {"lat": 26.553719763691845, "lng": 104.96456610819116}, "feature": {"sight_features": "", "sight_content": ""}}, {"title": "海坪彝族文化园火把广场", "address": "六盘水市S212", "image": "", "rank": 6, "time": 2, "location": {"lat": 26.598833108257494, "lng": 104.8375546023468}, "feature": {"sight_features": "", "sight_content": ""}}, {"title": "贵州饭店土司庄园", "address": "贵州省六盘水市水城县S212", "image": "", "rank": 7, "time": 2, "location": {"lat": 26.553719763691845, "lng": 104.96456610819116}, "feature": {"sight_features": "", "sight_content": ""}}, {"title": "水城县图书馆", "address": "诚信路附近", "image": "", "rank": 8, "time": 2, "location": {"lat": 39.0188851135942, "lng": 117.35159816400976}, "feature": {"sight_features": "", "sight_content": ""}}, {"title": "以朵森林休闲山庄", "address": "以朵大道", "image": "", "rank": 9, "time": 2, "location": {"lat": 26.53507865084962, "lng": 104.98055202066843}, "feature": {"sight_features": "", "sight_content": ""}}, {"title": "旅游园林艺术馆", "address": "102省道", "image": "", "rank": 10, "time": 2, "location": {"lat": 36.224418920426714, "lng": 113.13112600949766}, "feature": {"sight_features": "", "sight_content": ""}}, {"title": "可渡河峡谷", "address": "贵州省水城县都格乡 553017", "image": "", "rank": 11, "time": 2, "location": {"lat": 26.368438382508153, "lng": 104.70619197410518}, "feature": {"sight_features": "", "sight_content": ""}}, {"title": "天生桥景区", "address": "贵州省水城县金盆乡 553026", "image": "", "rank": 12, "time": 4.0, "location": {"lat": 26.853434060184863, "lng": 104.96275692089466}, "feature": {"sight_features": "", "sight_content": ""}}, {"title": "坡上草原景区", "address": "贵州省盘县四格乡 553527", "image": "", "rank": 13, "time": 1.5, "location": {"lat": 26.202204452864635, "lng": 104.5854297102}, "feature": {"sight_features": "", "sight_content": ""}}, {"title": "花嘎天坑", "address": "贵州省水城县花嘎乡 553018", "image": "", "rank": 14, "time": 2, "location": {"lat": 26.0796607362516, "lng": 104.93177984352938}, "feature": {"sight_features": "", "sight_content": ""}}, {"title": "教堂", "address": "六盘水市水城县", "image": "", "rank": 15, "time": 2, "location": {"lat": 26.553719763691845, "lng": 104.96456610819116}, "feature": {"sight_features": "", "sight_content": ""}}, {"title": "碧天园公墓", "address": "212省道西", "image": "", "rank": 16, "time": 2, "location": {"lat": 40.390563512510504, "lng": 116.26044547726889}, "feature": {"sight_features": "", "sight_content": ""}}, {"title": "双水广场", "address": "金山路53附近", "image": "", "rank": 17, "time": 2, "location": {"lat": 22.93599369477917, "lng": 112.03438318042068}, "feature": {"sight_features": "", "sight_content": ""}}, {"title": "双水小广场", "address": "六盘水市水城县双水新区", "image": "", "rank": 18, "time": 2, "location": {"lat": 26.546412044012392, "lng": 104.96140326432213}, "feature": {"sight_features": "", "sight_content": ""}}, {"title": "红石榴度假山庄", "address": "施家河边附近", "image": "", "rank": 19, "time": 2, "location": {"lat": 26.53414474919874, "lng": 105.03694985938081}, "feature": {"sight_features": "", "sight_content": ""}}, {"title": "米箩半方塘水上乐园", "address": "六盘水市水城县米箩镇倮么村半方塘休闲度假中心", "image": "", "rank": 20, "time": 2, "location": {"lat": 26.403658686658193, "lng": 104.9910653122518}, "feature": {"sight_features": "特色1 六盘水富有激情、充满动感的水上狂欢乐园", "sight_content": "米箩半方塘水上乐园拥有大喇叭冲浪池、惊险的环形漂流河、刺激的尖峰急速滑道、魅力海浪池、欢乐水寨、儿童戏水池等项目，是六盘水富有激情、充满动感的水上狂欢乐园。"}}, {"title": "高家渡码头", "address": "六盘水市水城县246县道南50米", "image": "", "rank": 21, "time": 2, "location": {"lat": 26.553719763691845, "lng": 104.96456610819116}, "feature": {"sight_features": "", "sight_content": "高家渡码头位于水城县营盘乡高家渡，码头上目前投入使用的有一艘能够容纳200多人人的客船以及大大小小的游艇10余艘，游客通过乘坐游船不仅可以享受惬意的休闲生活，更重要的可以近距离的观赏到大气的千年北盘江和豪迈的远古大峡谷。"}}, {"title": "双宝乐园", "address": "金山西巷", "image": "", "rank": 22, "time": 2, "location": {"lat": 24.90592690980723, "lng": 118.58713479459932}, "feature": {"sight_features": "", "sight_content": ""}}, {"title": "富康果园", "address": "猴场镇穿洞村", "image": "", "rank": 23, "time": 2, "location": {"lat": 26.729105185705645, "lng": 104.69759327788509}, "feature": {"sight_features": "", "sight_content": ""}}, {"title": "王云", "address": "滥坝镇仁活洞村", "image": "", "rank": 24, "time": 2, "location": {"lat": 26.470004576185634, "lng": 105.09531546326134}, "feature": {"sight_features": "", "sight_content": ""}}, {"title": "水车人家休闲山庄", "address": "百车河村(温泉酒店旁)", "image": "", "rank": 25, "time": 2, "location": {"lat": 40.103788844363415, "lng": 116.771338682823}, "feature": {"sight_features": "", "sight_content": ""}}, {"title": "阿勒河", "address": "贵州省水城县保华乡境内", "image": "", "rank": 26, "time": 2.0, "location": {"lat": 26.67735527949503, "lng": 104.98925666393862}, "feature": {"sight_features": "", "sight_content": ""}}, {"title": "猴儿关", "address": "六盘水市-水城县-一零二省道", "image": "", "rank": 27, "time": 2, "location": {"lat": 26.553719763691845, "lng": 104.96456610819116}, "feature": {"sight_features": "", "sight_content": ""}}, {"title": "缘杨和农家乐", "address": "六盘水市-水城县-月照乡双洞村自来组", "image": "", "rank": 28, "time": 2, "location": {"lat": 26.622062267348383, "lng": 104.94858108773128}, "feature": {"sight_features": "", "sight_content": ""}}, {"title": "麻窝头", "address": "六盘水市-水城县", "image": "", "rank": 29, "time": 2, "location": {"lat": 26.553719763691845, "lng": 104.96456610819116}, "feature": {"sight_features": "", "sight_content": ""}}, {"title": "野鸡坪村", "address": "六盘水市水城县坪寨彝族乡野鸡坪村", "image": "", "rank": 30, "time": 2, "location": {"lat": 26.46585262271962, "lng": 104.69863247632584}, "feature": {"sight_features": "", "sight_content": ""}}, {"title": "海坪彝族文化小镇", "address": "六盘水市水城县海坪村", "image": "", "rank": 31, "time": 2, "location": {"lat": 26.453128691130132, "lng": 104.79494565080117}, "feature": {"sight_features": "", "sight_content": ""}}]}