{"cityName": "顺平", "days": 2, "cityImage": "", "spots": [{"title": "白银坨旅游风景区", "address": "保定市顺平县永兴村", "image": "", "rank": 1, "time": 7.5, "location": {"lat": 39.118308016736776, "lng": 114.94153171428869}, "feature": {"sight_features": "", "sight_content": ""}}, {"title": "伊祁山", "address": "保定市顺平县西北10公里处的伊祁山", "image": "", "rank": 2, "time": 2.5, "location": {"lat": 38.870504629032574, "lng": 115.02688664133733}, "feature": {"sight_features": "", "sight_content": ""}}, {"title": "龙潭湖景区", "address": "保定市顺平县神南乡龙潭村（顺平县城西北45公里处）", "image": "", "rank": 3, "time": 3.0, "location": {"lat": 39.00651776619551, "lng": 114.89495672863123}, "feature": {"sight_features": "", "sight_content": ""}}, {"title": "盘古村", "address": "保定市顺平县大悲乡富有村", "image": "", "rank": 4, "time": 1.5, "location": {"lat": 38.97314712866669, "lng": 114.95331354620484}, "feature": {"sight_features": "", "sight_content": ""}}, {"title": "河湾漂流", "address": "神南镇神北村", "image": "", "rank": 5, "time": 2, "location": {"lat": 39.018615281084436, "lng": 114.90081353592912}, "feature": {"sight_features": "", "sight_content": ""}}, {"title": "龙聚和生态农庄", "address": "东韩童村附近", "image": "", "rank": 6, "time": 2, "location": {"lat": 38.859711943379914, "lng": 115.23435854800624}, "feature": {"sight_features": "", "sight_content": ""}}, {"title": "顺平突袭狼真人cs野战", "address": "东外环中段花木兰植物园内", "image": "", "rank": 7, "time": 3.0, "location": {"lat": 36.09338710269552, "lng": 111.59278926717433}, "feature": {"sight_features": "", "sight_content": ""}}, {"title": "顺平县顺神玖号文化旅游有限公司", "address": "X311兔坡西北侧", "image": "", "rank": 8, "time": 2, "location": {"lat": 38.86673375756123, "lng": 115.07534617763262}, "feature": {"sight_features": "", "sight_content": ""}}, {"title": "百福台垂钓园", "address": "125乡道附近", "image": "", "rank": 9, "time": 2, "location": {"lat": 31.346007380916223, "lng": 118.66039261333538}, "feature": {"sight_features": "", "sight_content": ""}}, {"title": "奶奶庙", "address": "河北省保定市顺平县", "image": "", "rank": 10, "time": 1.0, "location": {"lat": 38.84326137036368, "lng": 115.141597430689}, "feature": {"sight_features": "", "sight_content": ""}}, {"title": "顺平公园", "address": "保定市顺平县依林雅筑北门", "image": "", "rank": 11, "time": 3.0, "location": {"lat": 38.841727905596564, "lng": 115.16234549693426}, "feature": {"sight_features": "", "sight_content": ""}}, {"title": "万顷桃源文化园", "address": "河北省顺平县河口乡、白云乡 072250", "image": "", "rank": 12, "time": 2, "location": {"lat": 38.89139526394722, "lng": 115.01335213272709}, "feature": {"sight_features": "", "sight_content": ""}}, {"title": "灵云香纸箔", "address": "仙洲路与平安东大街交叉口北150米", "image": "", "rank": 13, "time": 2, "location": {"lat": 38.84404378471356, "lng": 115.15702462589009}, "feature": {"sight_features": "", "sight_content": ""}}, {"title": "伊祁山万顷桃林农庄民俗文化园", "address": "保定市顺平县马各庄村东", "image": "", "rank": 14, "time": 2, "location": {"lat": 38.885027096636236, "lng": 115.04005810696215}, "feature": {"sight_features": "", "sight_content": ""}}, {"title": "花木兰植物园", "address": "东环城路与桃源东大街交叉口南200米", "image": "", "rank": 15, "time": 2, "location": {"lat": 38.85634717295202, "lng": 115.16395258794925}, "feature": {"sight_features": "", "sight_content": ""}}, {"title": "方通广场", "address": "河北省保定市顺平县蒲阳镇仙洲路植物园(天泽·依林雅筑北)", "image": "", "rank": 16, "time": 2, "location": {"lat": 38.841727905596564, "lng": 115.16234549693426}, "feature": {"sight_features": "", "sight_content": ""}}, {"title": "顺平县基督教会", "address": "河北省保定市顺平县蒲阳镇顺兴花园(南院)", "image": "", "rank": 17, "time": 2, "location": {"lat": 38.85933413766452, "lng": 115.13947195541168}, "feature": {"sight_features": "", "sight_content": ""}}, {"title": "佛光寺山门", "address": "河北省保定市顺平县S241", "image": "", "rank": 18, "time": 2, "location": {"lat": 38.84326137036368, "lng": 115.141597430689}, "feature": {"sight_features": "", "sight_content": ""}}, {"title": "顺平盘古小江南度假村", "address": "大悲乡富有村", "image": "", "rank": 19, "time": 3.0, "location": {"lat": 38.97314712866669, "lng": 114.95331354620484}, "feature": {"sight_features": "", "sight_content": ""}}, {"title": "杏林山水公园", "address": "铺上乡西于家庄村", "image": "", "rank": 20, "time": 2, "location": {"lat": 38.91469800387159, "lng": 115.17770163347461}, "feature": {"sight_features": "", "sight_content": ""}}, {"title": "享水溪旅游度假区", "address": "保定市顺平县享水溪旅游度假区", "image": "", "rank": 21, "time": 2, "location": {"lat": 38.84326137036368, "lng": 115.141597430689}, "feature": {"sight_features": "", "sight_content": "享水溪旅游度假区位于保定市顺平县西部太行山区，景区内野趣天成，溪流四季长流，清澈见底，形成了极其优美雅致的山溪环境；奇特的山石造型和地貌景观，使得山峰形态万千，变化多端。千年古村庄散落其间，时隐时现，炊烟袅袅，雨后云雾飘渺，恍若人间仙境。"}}, {"title": "九九草莓采摘园", "address": "李千户村村北汇通家具城对面", "image": "", "rank": 22, "time": 2, "location": {"lat": 38.236295545373096, "lng": 114.60069090201216}, "feature": {"sight_features": "", "sight_content": ""}}, {"title": "顺平县腰山镇西新兴草莓基地", "address": "中国河北省保定市顺平县腰山镇", "image": "", "rank": 23, "time": 2, "location": {"lat": 38.87847621516123, "lng": 115.23366133447281}, "feature": {"sight_features": "", "sight_content": ""}}, {"title": "华北第一洞漂", "address": "神南乡西北部唐河湾景区内", "image": "", "rank": 24, "time": 2, "location": {"lat": 32.687720660005475, "lng": 112.81342436588645}, "feature": {"sight_features": "", "sight_content": ""}}, {"title": "喜龙草莓采摘", "address": "六四庄村西500米(汇通家具城)", "image": "", "rank": 25, "time": 2, "location": {"lat": 38.84845326635517, "lng": 115.19814679918667}, "feature": {"sight_features": "", "sight_content": ""}}, {"title": "顺平县图书馆", "address": "顺兴南路26附近", "image": "", "rank": 26, "time": 2, "location": {"lat": 22.53428014262449, "lng": 113.25951972087591}, "feature": {"sight_features": "", "sight_content": ""}}, {"title": "顺平李存草莓园", "address": "六四庄村", "image": "", "rank": 27, "time": 3.0, "location": {"lat": 38.84845326635517, "lng": 115.20263832673656}, "feature": {"sight_features": "", "sight_content": ""}}, {"title": "新兴樱桃采摘园", "address": "北新兴村", "image": "", "rank": 28, "time": 1.5, "location": {"lat": 38.84643662317885, "lng": 115.22234524431948}, "feature": {"sight_features": "", "sight_content": ""}}, {"title": "草莓采摘李千户草莓采摘园", "address": "李千户庄村", "image": "", "rank": 29, "time": 2, "location": {"lat": 39.54118051027843, "lng": 117.1568437948186}, "feature": {"sight_features": "", "sight_content": ""}}, {"title": "保定盘古村自然公园", "address": "河北省保定市顺平县大悲乡", "image": "", "rank": 30, "time": 7.5, "location": {"lat": 38.97314712866669, "lng": 114.95331354620484}, "feature": {"sight_features": "", "sight_content": ""}}]}