{"cityName": "朔州", "days": "", "cityImage": "", "spots": [{"title": "应县木塔", "address": "朔州市应县城内西北角", "image": "", "rank": 1, "time": 1.0, "location": {"lat": 39.56007785237528, "lng": 113.19749353921925}, "feature": {"sight_features": "特色1 恒岳如屏，桑干似带，尽收眼底，心旷神怡 特色2 塔内各层均塑佛像 特色3 它的建筑结构国内现存仅此 一例\"", "sight_content": "应县木塔全名为佛宫寺释迦塔，位于山西省朔州市应县县城内西北角的佛宫寺院内，是佛宫寺的主体建筑。建于辽清宁二年（公元1056年），金明昌六年（公元1195年）增修完毕。它是我国现存最古老最高大的纯木结构楼阁式建筑，是我国古建筑中的瑰宝，世界木结构建筑的典范。\n木塔位于寺南北中轴线上的山门与大殿之间，属于“前塔后殿”的布局。塔建造在四米高的台基上，塔高67.31米，底层直径30.27米，呈平面八角形。第一层立面重檐，以上各层均为单檐，共五层六檐，各层间夹设暗层，实为九层。因底层为重檐并有回廊，故塔的外观为六层屋檐。\n该塔身底层南北各开一门，二层以上周设平座栏杆，每层装有木质楼梯，游人逐级攀登，可达顶端。二至五层每层有四门，均设木隔扇，光线充足，出门凭栏远眺，恒岳如屏，桑干似带，尽收眼底，心旷神怡。塔内各层均塑佛像。一层为释迦牟尼，高11米，面目端庄，神态怡然，顶部有精美华丽的藻井，内槽墙壁上画有六幅如来佛像，门洞两侧壁上也绘有金刚、天王、弟子等，壁画色泽鲜艳，人物栩栩如生。二层坛座方形，上塑一佛二菩萨和二胁侍。三层坛座八角形，上塑四方佛。四层塑佛和阿傩、迦叶、文殊、普贤像。五层塑毗卢舍那如来佛和人大菩萨。各佛像雕塑精细，各具情态，有较高的艺术价值。"}}, {"title": "崇福寺", "address": "朔州市朔城区东街94号", "image": "", "rank": 2, "time": 1.5, "location": {"lat": 39.325302712534004, "lng": 112.43837642563759}, "feature": {"sight_features": "", "sight_content": ""}}, {"title": "南山森林公园", "address": "朔州市右玉县（距县城南6公里）", "image": "", "rank": 3, "time": 2.5, "location": {"lat": 39.99485955543098, "lng": 112.47350008124718}, "feature": {"sight_features": "", "sight_content": ""}}, {"title": "旧广武城", "address": "朔州市山阴县旧广武村", "image": "", "rank": 4, "time": 1.0, "location": {"lat": 39.21957935250561, "lng": 112.78076510454514}, "feature": {"sight_features": "", "sight_content": ""}}, {"title": "苍头河生态走廊", "address": "朔州市右玉县（距县城北10公里）", "image": "", "rank": 5, "time": 2, "location": {"lat": 39.99485955543098, "lng": 112.47350008124718}, "feature": {"sight_features": "", "sight_content": ""}}, {"title": "广武长城", "address": "朔州市山阴县新广武村", "image": "", "rank": 6, "time": 3.0, "location": {"lat": 39.22148208843324, "lng": 112.80680417676959}, "feature": {"sight_features": "", "sight_content": ""}}, {"title": "朔州古城遗址", "address": "朔州市朔城区", "image": "", "rank": 7, "time": 1.0, "location": {"lat": 39.325302712534004, "lng": 112.43837642563759}, "feature": {"sight_features": "", "sight_content": ""}}, {"title": "清凉山", "address": "朔州市怀仁市", "image": "", "rank": 8, "time": 2.0, "location": {"lat": 39.83375688952166, "lng": 113.1066084673833}, "feature": {"sight_features": "", "sight_content": ""}}, {"title": "右玉县生态旅游区", "address": "朔州市右玉县", "image": "", "rank": 9, "time": 2, "location": {"lat": 39.99485955543098, "lng": 112.47350008124718}, "feature": {"sight_features": "", "sight_content": ""}}, {"title": "唐代名将尉迟恭雕像", "address": "朔州市朔城区七里河公园内", "image": "", "rank": 10, "time": 1.0, "location": {"lat": 39.34413045396514, "lng": 112.44496497733269}, "feature": {"sight_features": "", "sight_content": ""}}, {"title": "朔州净土寺", "address": "朔州市应县城内东北隅，", "image": "", "rank": 11, "time": 1.0, "location": {"lat": 39.56007785237528, "lng": 113.19749353921925}, "feature": {"sight_features": "", "sight_content": ""}}, {"title": "广武汉墓群", "address": "", "image": "", "rank": 12, "time": 1.0, "location": {"lat": 39.235193391170675, "lng": 112.78828123662848}, "feature": {"sight_features": "", "sight_content": ""}}, {"title": "金沙滩生态旅游区", "address": "朔州市怀仁县206省道", "image": "", "rank": 13, "time": 2, "location": {"lat": 39.83667046923241, "lng": 113.06273846017581}, "feature": {"sight_features": "特色1 金沙滩古战场影视基地位于怀仁县何家堡乡。 特色2 旅游区内林木苍翠，清流映带，鸟语花香。 特色3 整个景区以林海为躯， 古战场为魂，集生态景观与人文景观于一体。", "sight_content": "金沙滩古战场影视基地位于怀仁县何家堡乡，占地1万5千余亩，规划投资5.5亿元。旅游区内林木苍翠，清流映带，鸟语花香。以宋辽交战和崇国寺佛教文化为主题的园林建筑群，掩映于林海之中，气势恢宏。整个景区以林海为躯， 古战场为魂，集生态景观与人文景观于一体。置身其中，既能领悟到自然风光的清幽旖旎，又能感受到历史文化的浑厚凝重。"}}, {"title": "大安寺", "address": "朔州市应县东崔庄村南", "image": "", "rank": 14, "time": 2.0, "location": {"lat": 39.464465144553586, "lng": 113.26850282640929}, "feature": {"sight_features": "", "sight_content": ""}}, {"title": "右玉杀虎口", "address": "朔州市右玉县杀虎口村", "image": "", "rank": 15, "time": 1.5, "location": {"lat": 40.25029079399698, "lng": 112.32803373755705}, "feature": {"sight_features": "", "sight_content": ""}}, {"title": "神头泉", "address": "", "image": "", "rank": 16, "time": 1.0, "location": {"lat": 39.396277283660545, "lng": 112.6178147478667}, "feature": {"sight_features": "", "sight_content": ""}}, {"title": "宝宁寺", "address": "", "image": "", "rank": 17, "time": 1.0, "location": {"lat": 28.632703138051728, "lng": 104.32505029321626}, "feature": {"sight_features": "", "sight_content": ""}}, {"title": "右玉南山滑雪场", "address": "朔州市右玉县南山游乐场", "image": "", "rank": 18, "time": 2, "location": {"lat": 39.98177004112816, "lng": 112.5072863396135}, "feature": {"sight_features": "", "sight_content": ""}}, {"title": "广武屯兵堡", "address": "朔州市山阴县南的雁门关长城脚下", "image": "", "rank": 19, "time": 1.0, "location": {"lat": 39.53403049801094, "lng": 112.82243194472665}, "feature": {"sight_features": "", "sight_content": ""}}, {"title": "化悲岩寺", "address": "朔州市山阴县后所乡辛立庄村西南3千米处翠微山东麓西部", "image": "", "rank": 20, "time": 1.0, "location": {"lat": 39.28653288705085, "lng": 112.90945441156468}, "feature": {"sight_features": "", "sight_content": ""}}, {"title": "朔州汉墓", "address": "山西省朔州市朔城区城北5公里", "image": "", "rank": 21, "time": 0.75, "location": {"lat": 39.325302712534004, "lng": 112.43837642563759}, "feature": {"sight_features": "", "sight_content": ""}}, {"title": "狼儿村", "address": "山西省朔州市朔城区张蔡庄乡狼儿村村", "image": "", "rank": 22, "time": 1.0, "location": {"lat": 39.237627212608, "lng": 112.33079805267917}, "feature": {"sight_features": "", "sight_content": ""}}, {"title": "应县佛宫寺", "address": "山西省朔州市应县", "image": "", "rank": 23, "time": 1.5, "location": {"lat": 39.56007785237528, "lng": 113.19749353921925}, "feature": {"sight_features": "", "sight_content": ""}}, {"title": "壬山滑雪场", "address": "大同市朔州市怀仁县玉东街北坛公园东300米", "image": "", "rank": 24, "time": 2, "location": {"lat": 39.79357083603243, "lng": 113.11230462343235}, "feature": {"sight_features": "", "sight_content": ""}}, {"title": "朔州平鲁烈士陵园", "address": "山西省朔州市平鲁区井坪镇", "image": "", "rank": 25, "time": 1.5, "location": {"lat": 39.54387610323944, "lng": 112.27630281603521}, "feature": {"sight_features": "", "sight_content": ""}}, {"title": "南山公园", "address": "公交地铁接驳专线8路;公交地铁接驳专线8路", "image": "", "rank": 26, "time": 2.5, "location": {"lat": 28.902622265507468, "lng": 105.45063014659402}, "feature": {"sight_features": "", "sight_content": ""}}, {"title": "金沙植物园", "address": "鄯阳西街", "image": "", "rank": 27, "time": 3.5, "location": {"lat": 35.788837754773816, "lng": 118.63261961205282}, "feature": {"sight_features": "", "sight_content": ""}}, {"title": "马邑博物馆", "address": "中国山西省朔州市朔城区县左街", "image": "", "rank": 28, "time": 2.5, "location": {"lat": 39.3196231294481, "lng": 112.43811071944401}, "feature": {"sight_features": "", "sight_content": ""}}, {"title": "牛心山滑雪场", "address": "朔州市右玉县牛心山公园", "image": "", "rank": 29, "time": 2, "location": {"lat": 39.99485955543098, "lng": 112.47350008124718}, "feature": {"sight_features": "", "sight_content": ""}}, {"title": "桃花源农庄", "address": "朔州市右玉县新城镇邓村东", "image": "", "rank": 30, "time": 2, "location": {"lat": 40.000616993148896, "lng": 112.49873501642998}, "feature": {"sight_features": "", "sight_content": ""}}, {"title": "右玉县邓家村冰上乐园", "address": "中国山西省朔州市右玉县新城镇", "image": "", "rank": 31, "time": 2, "location": {"lat": 40.000616993148896, "lng": 112.49873501642998}, "feature": {"sight_features": "", "sight_content": ""}}, {"title": "山阴湿地公园", "address": "山西省朔州市山阴县", "image": "", "rank": 32, "time": 2.0, "location": {"lat": 39.53403049801094, "lng": 112.82243194472665}, "feature": {"sight_features": "", "sight_content": ""}}, {"title": "卧羊场", "address": "应县南部恒山山脉", "image": "", "rank": 33, "time": 2, "location": {"lat": 39.56007785237528, "lng": 113.19749353921925}, "feature": {"sight_features": "", "sight_content": ""}}, {"title": "大同永镇寺", "address": "山西省应县南河种镇小石口村", "image": "", "rank": 34, "time": 2.5, "location": {"lat": 39.476370187690954, "lng": 113.33475753075544}, "feature": {"sight_features": "", "sight_content": ""}}, {"title": "龙潭湖", "address": "山西省朔州市应县县城东8公里", "image": "", "rank": 35, "time": 0.5, "location": {"lat": 39.56007785237528, "lng": 113.19749353921925}, "feature": {"sight_features": "", "sight_content": ""}}, {"title": "宝林采摘园", "address": "南榆林乡青钟村北", "image": "", "rank": 36, "time": 2, "location": {"lat": 39.212401109975126, "lng": 112.60240712853928}, "feature": {"sight_features": "", "sight_content": ""}}, {"title": "潮流恐怖体验馆", "address": "建设路b区", "image": "", "rank": 37, "time": 2, "location": {"lat": 39.08959553212996, "lng": 117.0126917080218}, "feature": {"sight_features": "", "sight_content": ""}}, {"title": "南山滑雪场", "address": "郝家沟以北", "image": "", "rank": 38, "time": 2, "location": {"lat": 39.51915918965016, "lng": 115.11244372215964}, "feature": {"sight_features": "", "sight_content": ""}}, {"title": "海斯特垂钓基地", "address": "新磨村西", "image": "", "rank": 39, "time": 2, "location": {"lat": 39.37874832613779, "lng": 112.58927816174813}, "feature": {"sight_features": "", "sight_content": ""}}, {"title": "大众剧场", "address": "滨河西街3号附近", "image": "", "rank": 40, "time": 2, "location": {"lat": 39.728877006558896, "lng": 116.13958601666764}, "feature": {"sight_features": "", "sight_content": ""}}, {"title": "小二郎文化广场", "address": "山西省朔州市朔城区怡东路", "image": "", "rank": 41, "time": 2, "location": {"lat": 39.32876494057755, "lng": 112.41314308404878}, "feature": {"sight_features": "", "sight_content": ""}}, {"title": "应县图书馆", "address": "金城镇金城西街", "image": "", "rank": 42, "time": 2, "location": {"lat": 39.56000908398714, "lng": 113.18478007735361}, "feature": {"sight_features": "", "sight_content": ""}}, {"title": "水世界花鸟鱼虫", "address": "中商街与山水巷交叉口东北150米", "image": "", "rank": 43, "time": 2, "location": {"lat": 42.85646580255288, "lng": 124.414086267546}, "feature": {"sight_features": "", "sight_content": ""}}, {"title": "道德图书馆", "address": "仁里南路与怀善西街交叉口东150米", "image": "", "rank": 44, "time": 2, "location": {"lat": 39.81637984025354, "lng": 113.10444603851221}, "feature": {"sight_features": "", "sight_content": ""}}, {"title": "大同镇子梁水库游乐场", "address": "山西省大同县境内 037300", "image": "", "rank": 45, "time": 2.5, "location": {"lat": 40.00162748889317, "lng": 113.58386582098244}, "feature": {"sight_features": "", "sight_content": ""}}, {"title": "祇园", "address": "山西省朔州市应县金城镇佛宫寺释迦塔只园", "image": "", "rank": 46, "time": 2.0, "location": {"lat": 39.571184471894384, "lng": 113.1953416807091}, "feature": {"sight_features": "", "sight_content": ""}}, {"title": "光明剧场", "address": "朔州市怀仁县", "image": "", "rank": 47, "time": 2, "location": {"lat": 39.79357083603243, "lng": 113.11230462343235}, "feature": {"sight_features": "", "sight_content": ""}}, {"title": "右卫古城墙遗址", "address": "山西省朔州市右玉县", "image": "", "rank": 48, "time": 2, "location": {"lat": 39.99485955543098, "lng": 112.47350008124718}, "feature": {"sight_features": "", "sight_content": ""}}, {"title": "神龙剧场", "address": "神头镇附近", "image": "", "rank": 49, "time": 2, "location": {"lat": 37.39726186636452, "lng": 116.73033633719332}, "feature": {"sight_features": "", "sight_content": ""}}, {"title": "朔州市歌舞团", "address": "开发南路七里河公园旁开发北路", "image": "", "rank": 50, "time": 1.5, "location": {"lat": 39.34413045396514, "lng": 112.44496497733269}, "feature": {"sight_features": "", "sight_content": ""}}, {"title": "国益茶吧", "address": "国益酒店二楼", "image": "", "rank": 51, "time": 2, "location": {"lat": 39.82175502283928, "lng": 113.13235627841904}, "feature": {"sight_features": "", "sight_content": ""}}, {"title": "血染狼村", "address": "山西省朔州市朔城区张蔡庄乡 036010", "image": "", "rank": 52, "time": 2, "location": {"lat": 39.29482681509481, "lng": 112.34104564256398}, "feature": {"sight_features": "", "sight_content": ""}}, {"title": "朔州鹅毛口遗址", "address": "山西省怀仁县西北 038300", "image": "", "rank": 53, "time": 1.5, "location": {"lat": 39.79357083603243, "lng": 112.76825361311079}, "feature": {"sight_features": "", "sight_content": ""}}, {"title": "大同跑马梁", "address": "山西省大同市城区境内 037000", "image": "", "rank": 54, "time": 2.5, "location": {"lat": 40.10254286655904, "lng": 113.2969658727473}, "feature": {"sight_features": "", "sight_content": ""}}, {"title": "朔州市群众艺术馆", "address": "山西省朔州市开发南路七里河公园旁", "image": "", "rank": 55, "time": 1.5, "location": {"lat": 39.34413045396514, "lng": 112.44496497733269}, "feature": {"sight_features": "", "sight_content": ""}}, {"title": "大同文殊寺", "address": "山西省大同县境内 037305", "image": "", "rank": 56, "time": 1.0, "location": {"lat": 40.00162748889317, "lng": 113.58386582098244}, "feature": {"sight_features": "", "sight_content": ""}}, {"title": "华兴文化广场", "address": "山西省朔州市平鲁区万家寨引黄工程管理局平鲁分局", "image": "", "rank": 57, "time": 2, "location": {"lat": 39.52086105801025, "lng": 112.29621018240795}, "feature": {"sight_features": "", "sight_content": ""}}, {"title": "圣泉寺", "address": "山西省朔州市朔城区党家沟村圣泉寺", "image": "", "rank": 58, "time": 2.0, "location": {"lat": 39.40736816748828, "lng": 112.31738593549973}, "feature": {"sight_features": "", "sight_content": ""}}, {"title": "文昌阁", "address": "东街与大营街交叉口西150米", "image": "", "rank": 59, "time": 0.75, "location": {"lat": 39.31889022380712, "lng": 112.43539927588931}, "feature": {"sight_features": "", "sight_content": ""}}, {"title": "米豆王国", "address": "山西省朔州市朔城区张辽南路", "image": "", "rank": 60, "time": 2, "location": {"lat": 39.33022702708918, "lng": 112.42173944467737}, "feature": {"sight_features": "", "sight_content": ""}}]}