{"cityName": "沭阳", "days": 2, "cityImage": "", "spots": [{"title": "虞姬公园", "address": "宿迁市沭阳县公园西路80号", "image": "", "rank": 1, "time": 1.0, "location": {"lat": 34.1412479795514, "lng": 118.78397562934451}, "feature": {"sight_features": "", "sight_content": ""}}, {"title": "虞姫生态园", "address": "沭城镇阳光天地小区行政中心(近沭阳县政府)", "image": "", "rank": 2, "time": 2, "location": {"lat": 34.113030539138265, "lng": 118.80791674588093}, "feature": {"sight_features": "", "sight_content": ""}}, {"title": "苏北花卉示范园", "address": "江苏省宿迁市沭阳县庙头镇境内", "image": "", "rank": 3, "time": 1.0, "location": {"lat": 34.231275388058656, "lng": 118.71942900262049}, "feature": {"sight_features": "", "sight_content": ""}}, {"title": "周圈生态花卉苗圃盆景市场", "address": "江苏省宿迁市沭阳县新河镇周圈村", "image": "", "rank": 4, "time": 2, "location": {"lat": 34.16823840985013, "lng": 118.67079236359729}, "feature": {"sight_features": "", "sight_content": ""}}, {"title": "S Time真人密室逃脱（沭阳店）", "address": "宿迁市沭阳县三匹马商业街如家宾馆向西10米巷内", "image": "", "rank": 5, "time": 2, "location": {"lat": 34.140011116059846, "lng": 118.89810230721628}, "feature": {"sight_features": "", "sight_content": ""}}, {"title": "官墩山滑雪场", "address": "宿迁市沭阳县官墩乡官墩街红绿灯向北100米处（桃花山庄内）", "image": "", "rank": 6, "time": 2, "location": {"lat": 34.210226951906876, "lng": 118.91717307178621}, "feature": {"sight_features": "", "sight_content": ""}}, {"title": "沭阳县虞美人水果采摘园", "address": "杭州西路大润发向南过火车隧道向西200米", "image": "", "rank": 7, "time": 2, "location": {"lat": 36.298267759964006, "lng": 120.01601242313183}, "feature": {"sight_features": "", "sight_content": ""}}, {"title": "金隆游乐园", "address": "永嘉路1号", "image": "", "rank": 8, "time": 2, "location": {"lat": 31.2175373689582, "lng": 121.47200916639304}, "feature": {"sight_features": "", "sight_content": ""}}, {"title": "沭阳民洲生态园", "address": "华冲镇经堂村(经堂小学向南300米)", "image": "", "rank": 9, "time": 2, "location": {"lat": 34.30432614551184, "lng": 118.87178536933486}, "feature": {"sight_features": "", "sight_content": ""}}, {"title": "team密室逃脱", "address": "人民中路108号(新视界国际影城二楼)", "image": "", "rank": 10, "time": 2, "location": {"lat": 32.65323857298659, "lng": 110.79352486904571}, "feature": {"sight_features": "", "sight_content": ""}}, {"title": "欢乐水上乐园", "address": "青岛路277号", "image": "", "rank": 11, "time": 2, "location": {"lat": 36.78429722398373, "lng": 119.96039088295474}, "feature": {"sight_features": "", "sight_content": ""}}, {"title": "宿迁县植物园", "address": "528乡道", "image": "", "rank": 12, "time": 2, "location": {"lat": 41.10650505227298, "lng": 124.05742460372949}, "feature": {"sight_features": "", "sight_content": ""}}, {"title": "卫岗乳业沭阳奶源基地", "address": "刘北路与816乡道交叉口西北150米", "image": "", "rank": 13, "time": 2, "location": {"lat": 39.754319199493544, "lng": 118.4675874287618}, "feature": {"sight_features": "", "sight_content": ""}}, {"title": "胡道立盆景园", "address": "周圈路附近", "image": "", "rank": 14, "time": 2, "location": {"lat": 34.17248442383796, "lng": 118.67057930798795}, "feature": {"sight_features": "", "sight_content": ""}}, {"title": "雨花石模板", "address": "924乡道江苏和其盛木业公司北隔壁", "image": "", "rank": 15, "time": 2, "location": {"lat": 32.066776944293416, "lng": 118.76955164466914}, "feature": {"sight_features": "", "sight_content": ""}}, {"title": "虞姬庄园", "address": "宿迁沭阳县迎宾大道东首仁马大桥北", "image": "", "rank": 16, "time": 2, "location": {"lat": 34.108923776221, "lng": 118.83605545092982}, "feature": {"sight_features": "", "sight_content": ""}}, {"title": "高墟步行街", "address": "富士路农村合作银行隔壁", "image": "", "rank": 17, "time": 2, "location": {"lat": 36.26869709711889, "lng": 120.36702593985093}, "feature": {"sight_features": "", "sight_content": ""}}, {"title": "柴米河湾生态公园", "address": "宿迁市沭阳县", "image": "", "rank": 18, "time": 2, "location": {"lat": 34.11745420947911, "lng": 118.81041906570952}, "feature": {"sight_features": "", "sight_content": ""}}, {"title": "滨水生态公园", "address": "新城路西100米", "image": "", "rank": 19, "time": 2, "location": {"lat": 27.863042188077184, "lng": 109.80149401151125}, "feature": {"sight_features": "", "sight_content": ""}}, {"title": "钱集荷花池公园", "address": "江苏省宿迁市沭阳县钱集镇李庄线荷花池公园", "image": "", "rank": 20, "time": 2, "location": {"lat": 33.915729523668425, "lng": 118.94359750000663}, "feature": {"sight_features": "", "sight_content": ""}}, {"title": "熊出没儿童乐园", "address": "南京北路与富民东路交叉口东南50米", "image": "", "rank": 21, "time": 2, "location": {"lat": 33.99005771104428, "lng": 118.87332408313104}, "feature": {"sight_features": "", "sight_content": ""}}, {"title": "儿童游乐园", "address": "江苏省宿迁市沭阳县龙王路", "image": "", "rank": 22, "time": 2, "location": {"lat": 34.11745420947911, "lng": 118.81041906570952}, "feature": {"sight_features": "", "sight_content": ""}}, {"title": "童星游乐园", "address": "宿迁市沭阳县万顺广场2层", "image": "", "rank": 23, "time": null, "location": {"lat": 34.11712028812557, "lng": 118.79574857252766}, "feature": {"sight_features": "", "sight_content": ""}}, {"title": "东方名都基督教会", "address": "江苏省宿迁市沭阳县迎宾大道329号", "image": "", "rank": 24, "time": 1.5, "location": {"lat": 34.12450088660464, "lng": 118.80751531830109}, "feature": {"sight_features": "", "sight_content": ""}}, {"title": "七雄真耶稣教堂", "address": "江苏省宿迁市沭阳县沭李线，七雄社区乡政府东1500米", "image": "", "rank": 25, "time": 2, "location": {"lat": 34.13969524058854, "lng": 119.03075667996022}, "feature": {"sight_features": "", "sight_content": ""}}, {"title": "昭德寺", "address": "深圳西路与017乡道交叉口东150米", "image": "", "rank": 26, "time": 2, "location": {"lat": 34.1389323347417, "lng": 118.75655343343142}, "feature": {"sight_features": "", "sight_content": ""}}, {"title": "沭阳县招德禅寺", "address": "政园路与青岛路交叉口东南50米", "image": "", "rank": 27, "time": 2, "location": {"lat": 34.143201204718245, "lng": 118.78829459599916}, "feature": {"sight_features": "", "sight_content": ""}}, {"title": "体能乐园", "address": "南湖路南100米", "image": "", "rank": 28, "time": 2, "location": {"lat": 32.699833125504284, "lng": 119.45448415871022}, "feature": {"sight_features": "", "sight_content": ""}}, {"title": "沭河公园", "address": "常州路与杭州西路交叉口西北200米", "image": "", "rank": 29, "time": 2, "location": {"lat": 34.10108838170748, "lng": 118.79789080389766}, "feature": {"sight_features": "", "sight_content": ""}}, {"title": "沭阳法治文化公园", "address": "常州路55", "image": "", "rank": 30, "time": 2, "location": {"lat": 34.10396635118335, "lng": 118.79795293879147}, "feature": {"sight_features": "", "sight_content": ""}}, {"title": "沭阳工商局廉政文化公园", "address": "江苏省宿迁市沭阳县北京北路中华小区中阳大厦西南", "image": "", "rank": 31, "time": 2, "location": {"lat": 34.132456816200865, "lng": 118.77668161048496}, "feature": {"sight_features": "", "sight_content": ""}}, {"title": "智多星儿童乐园", "address": "江苏省宿迁市沭阳县人民中路29号", "image": "", "rank": 32, "time": 2, "location": {"lat": 34.13535517174591, "lng": 118.77871066883529}, "feature": {"sight_features": "", "sight_content": ""}}, {"title": "中国基督教沭阳宣义教会", "address": "南京东路18号附近", "image": "", "rank": 33, "time": 2, "location": {"lat": 31.244722779461107, "lng": 121.49601477767186}, "feature": {"sight_features": "", "sight_content": ""}}, {"title": "柴沂北路与公园西路交叉口", "address": "江苏省宿迁市沭阳县", "image": "", "rank": 34, "time": 2, "location": {"lat": 34.11745420947911, "lng": 118.81041906570952}, "feature": {"sight_features": "", "sight_content": ""}}, {"title": "万福园", "address": "绍兴路附近", "image": "", "rank": 35, "time": 2, "location": {"lat": 31.215956602338554, "lng": 121.471465234322}, "feature": {"sight_features": "", "sight_content": ""}}, {"title": "城关教堂", "address": "珠江南路13", "image": "", "rank": 36, "time": null, "location": {"lat": 34.1236799340683, "lng": 118.80152880826384}, "feature": {"sight_features": "", "sight_content": ""}}, {"title": "长庄教会", "address": "江苏省宿迁市沭阳县珠江北路豪园·明月居附近", "image": "", "rank": 37, "time": 2, "location": {"lat": 34.13750861210014, "lng": 118.80330030266174}, "feature": {"sight_features": "", "sight_content": ""}}, {"title": "沭阳县地方工业品展销馆", "address": "宁波路16", "image": "", "rank": 38, "time": 2, "location": {"lat": 34.136493295862756, "lng": 118.8343175540563}, "feature": {"sight_features": "", "sight_content": ""}}, {"title": "怀文广场", "address": "沭城镇学府路怀文中学门口", "image": "", "rank": 39, "time": 2, "location": {"lat": 34.13638593000256, "lng": 118.79473067380852}, "feature": {"sight_features": "", "sight_content": ""}}, {"title": "环保广场", "address": "广州路455号附近", "image": "", "rank": 40, "time": 2, "location": {"lat": 34.124497411920935, "lng": 118.7733697409497}, "feature": {"sight_features": "", "sight_content": ""}}, {"title": "沭阳县人口文化园", "address": "苏州东路11号附近", "image": "", "rank": 41, "time": 2, "location": {"lat": 43.86342758917963, "lng": 87.61128137658919}, "feature": {"sight_features": "", "sight_content": ""}}, {"title": "建陵中学公园", "address": "江苏省宿迁市沭阳县天津北路建陵公园(建陵嘉园西100米)", "image": "", "rank": 42, "time": 2, "location": {"lat": 34.13733560994528, "lng": 118.77346471108079}, "feature": {"sight_features": "", "sight_content": ""}}, {"title": "潼阳镇烈士陵园", "address": "潼阳镇潼悦线潼阳烈士陵园", "image": "", "rank": 43, "time": 2, "location": {"lat": 34.26721774462676, "lng": 118.62948003968529}, "feature": {"sight_features": "", "sight_content": ""}}, {"title": "沭阳虞姬度假村", "address": "重庆南路附近", "image": "", "rank": 44, "time": 2, "location": {"lat": 31.22754641753693, "lng": 121.47773820051178}, "feature": {"sight_features": "", "sight_content": ""}}, {"title": "中国·沭阳花木博物馆", "address": "江苏省宿迁市沭阳县南湖公园中国·沭阳花木博物馆", "image": "", "rank": 45, "time": 2, "location": {"lat": 34.098765694289845, "lng": 118.76264048990608}, "feature": {"sight_features": "", "sight_content": ""}}, {"title": "革命烈士纪念馆", "address": "324省道", "image": "", "rank": 46, "time": 2, "location": {"lat": 34.101022772229115, "lng": 117.56430801824291}, "feature": {"sight_features": "", "sight_content": ""}}, {"title": "沭阳县会展中心", "address": "台州南路(沭阳县人民政府西)", "image": "", "rank": 47, "time": 2.5, "location": {"lat": 34.11744987588486, "lng": 118.81075045061216}, "feature": {"sight_features": "", "sight_content": ""}}, {"title": "沭阳县城建档案馆", "address": "金禾路第一实验幼儿园北侧", "image": "", "rank": 48, "time": 2, "location": {"lat": 38.058416809210215, "lng": 114.47486589600952}, "feature": {"sight_features": "", "sight_content": ""}}, {"title": "中国·花木博物馆", "address": "南湖路", "image": "", "rank": 49, "time": 2, "location": {"lat": 32.70059270546331, "lng": 119.45448415871022}, "feature": {"sight_features": "", "sight_content": ""}}, {"title": "新概念温泉", "address": "沭城镇珠江北路1号", "image": "", "rank": 50, "time": 2, "location": {"lat": 34.13375485747605, "lng": 118.8065173655575}, "feature": {"sight_features": "", "sight_content": ""}}, {"title": "广场游乐园", "address": "广州路", "image": "", "rank": 51, "time": 2, "location": {"lat": 31.26253219052464, "lng": 121.5429325037119}, "feature": {"sight_features": "", "sight_content": ""}}, {"title": "中国沭阳图书城", "address": "府园路", "image": "", "rank": 52, "time": 2, "location": {"lat": 24.46172702534153, "lng": 118.09755670451723}, "feature": {"sight_features": "", "sight_content": ""}}, {"title": "晓虹多肉植物美术馆", "address": "南京东路(联通营业厅旁边)", "image": "", "rank": 53, "time": 2, "location": {"lat": 31.23444163074896, "lng": 121.49060608019629}, "feature": {"sight_features": "", "sight_content": ""}}, {"title": "沭阳新河生态滑雪场", "address": "新河镇堰头村", "image": "", "rank": 54, "time": 2, "location": {"lat": 34.172634030968425, "lng": 118.7186727443642}, "feature": {"sight_features": "", "sight_content": ""}}, {"title": "沭阳体育中心水上乐园", "address": "上海南路学院路交汇处体育场", "image": "", "rank": 55, "time": 2, "location": {"lat": 34.089164247323666, "lng": 118.77614510380725}, "feature": {"sight_features": "", "sight_content": ""}}, {"title": "金阳光葡萄圆", "address": "新城路红绿灯西侧", "image": "", "rank": 56, "time": 2, "location": {"lat": 30.384425537034524, "lng": 120.0549678107756}, "feature": {"sight_features": "", "sight_content": ""}}, {"title": "多肉植物园", "address": "国际花木城电商区", "image": "", "rank": 57, "time": 2, "location": {"lat": 30.185074903338144, "lng": 120.34032924241689}, "feature": {"sight_features": "", "sight_content": ""}}, {"title": "沭阳书画院", "address": "公园西路9号", "image": "", "rank": 58, "time": 2, "location": {"lat": 38.03654433442554, "lng": 114.85327295179763}, "feature": {"sight_features": "", "sight_content": ""}}, {"title": "康乐餐厅", "address": "珠江南路与迎宾大道交叉口西南150米", "image": "", "rank": 59, "time": 2, "location": {"lat": 34.12722404311205, "lng": 118.8028349840008}, "feature": {"sight_features": "", "sight_content": ""}}, {"title": "农家乐饭庄", "address": "永安路3", "image": "", "rank": 60, "time": 2, "location": {"lat": 40.8605312735972, "lng": 122.75878272243017}, "feature": {"sight_features": "", "sight_content": ""}}]}