{"cityName": "泗洪", "days": 2, "cityImage": "", "spots": [{"title": "泗洪洪泽湖湿地", "address": "宿迁市泗洪县洪泽湖湿地景区", "image": "", "rank": 1, "time": 5.0, "location": {"lat": 33.35644784463542, "lng": 118.48194892281437}, "feature": {"sight_features": "特色1 国家4A级旅游景区、长三角世博之旅示范点", "sight_content": "洪泽湖湿地景区位于中国五大淡水湖之一的洪泽湖西北岸泗洪县境内，总面积约1万亩，是江苏省面积较大的淡水湿地景区。景区内空气质量优，负氧离子含量每立方厘米2—5万个，水质国家二类，是中国南水北调东线工程水源地，拥有淡水鱼类67种5万斤、鸟类194种10万只、水生植物300种6000亩，已建成以湿地元素为主题的特色景点36处，是华东具代表性的生态旅游景区。\n\n洪泽湖万亩芦苇迷宫是景区特色景点，迷宫总面积3000亩，由60条总长15公里的河道贯通组成，其体量与规模在全国各大芦苇迷宫中位居前列，坐船畅游其中，水路九曲十八弯、芦苇恍若青纱帐。29世纪40年代，彭雪枫与张爱萍曾在此领导了艰苦卓绝的抗日战争和33天反扫荡斗争。2013年，经过部分改造提升后，增加了抗日将领群雕、下草湾古人遗址、新四军工委岛、洪泽湖巨龙等特色景点。\n畅游全长10公里的绝美画廊，两岸花团锦簇、鸢飞鱼跃。沿途可游览如诗如画的爱情公园、惊险刺激的快艇冲浪、孔雀园、全国科普教育基地湿地博物馆、人间仙境深呼吸通道、万鸟云集的美丽天鹅湖、洁白如雪的万亩芦花，可轻松惬意的乘坐观光小火车，也可悠闲自得的骑行自行车，或者闲庭信步休闲养生，三种玩法任您选择。\n洪泽湖是中国南水北调东线工程水源地，水体清澈，味道甘甜，这里出产中国最优质的螃蟹。泗洪县是中国螃蟹之乡，螃蟹养殖面积80万亩，年产量4万吨。泗洪洪泽湖大闸蟹“白肚、青背、黄毛、金爪、螯强”，雌蟹肉美黄多、雄蟹味美膏丰。“秋风响、蟹脚痒”，秋季是品尝洪泽湖大闸蟹的最佳季节，到泗洪，游大湖湿地、泡杉林温泉、品美味螃蟹、观万只候鸟。\n洪泽湖湿地景区位于洪泽湖湿地自然保护区试验区，该保护区总面积75万亩，是华东面积较大的淡水湿地自然保护区，常年生活着194种珍稀鸟类。其中，珍贵鸟类四种，分别是丹顶鹤、东方白鹳、黑鹳、大鸨，国家二级保护鸟类26种，近年来还发现了世界濒危鸟类震旦雅雀。秋天的湿地、是北方候鸟南迁的季节，50万只候鸟云集湿地，万顷芦荡、万鸟争鸣，丹顶鹤、白天鹅，城市看不到的风景。\n洪泽湖湿地优越的原生态自然环境成为都市人外出旅游度假休闲的首先之地，洪泽湖湿地培训中心造型别致，整体建筑漂浮于湖面之上，与湿地景观完美融合，打开房间窗户，即可欣赏到湿地最美丽的风景。湿地度假村精致小巧，最适合家庭度假，别墅外就是垂钓的选择。入住大湿地，早随鸟鸣起，有氧运动深呼吸；夜枕蛙声眠，世外桃源入梦乡..."}}, {"title": "泗洪白鹭保护区", "address": "江苏省宿迁市泗洪县", "image": "", "rank": 2, "time": 2, "location": {"lat": 33.46573259459488, "lng": 118.22241594668768}, "feature": {"sight_features": "", "sight_content": ""}}, {"title": "旭泰足道", "address": "宿迁市泗洪县学府文苑北门向西100米", "image": "", "rank": 3, "time": 2, "location": {"lat": 33.463538501205214, "lng": 118.2403184685351}, "feature": {"sight_features": "", "sight_content": ""}}, {"title": "双沟酒业文化旅游区", "address": "宿迁市泗洪县双沟镇双沟酒业游客接待中心", "image": "", "rank": 4, "time": 2, "location": {"lat": 33.224922223273246, "lng": 118.19039609920836}, "feature": {"sight_features": "特色1 有“鸡鸣听两省，酒熟香三县”的美誉", "sight_content": "双沟酒文化旅游景区位于苏皖两省三县交汇处的洪泽湖畔、淮河岸边，区位优势明显，水路交通便捷，南临淮河，北依宁宿徐高速公路，东濒75万亩洪泽湖湿地，与法国白兰地产区和苏格兰威士忌产区并称为世界三大湿地名酒产区。\n景区占地面积约2.8平方公里，分为科技双沟旅游休闲区和岁月双沟文化体验区两大片区，由醴泉广场、醉猿洲、雅苑、地下酒海、珍宝洞、明代老街、朱家槽坊、百年老窖池、淮上客栈、明清酿酒遗址、双沟1955广场、现代化包装物流中心等18个景点组成，形成了以酒文化为核心，通过旅游与酒产业、文化产业的融合互动，开创创意旅游综合体开发模式和“购物+ 餐饮+ 娱乐+ 休闲”产品组合，构建体验独特、优势鲜明的旅游产业服务链、消费链，并形成组团式、开放式、一体化的旅游服务产业新格局，是一个融酿酒历史文化、科普教育、休闲购物为一体的综合型文化旅游景区。\n2006年，景区被评为“全国工业旅游示范点”，近年来依托双沟酒业这一全国知名白酒企业，以国家工业旅游示范点为平台，在展现中国白酒传统文化内涵的同时，着力打造以白酒酿造、品鉴体验为核心的特色工业旅游景区，吸引了全国各地游客纷纷慕名而来。尤其是近两年来，公司接待的游客量呈现出放量增长的态势，2016年已突破56万人次，带动了宿迁、泗洪及周边整体旅游业的快速发展，形成了以双沟酒文化旅游区为中心，泗洪生态旅游为辐射拉动的旅游消费热点。"}}, {"title": "陈毅纪念馆", "address": "宿迁市泗洪县双沟镇", "image": "", "rank": 5, "time": 1.0, "location": {"lat": 33.24334523078833, "lng": 118.2016646366612}, "feature": {"sight_features": "", "sight_content": ""}}, {"title": "洪泽湖乡土植物园", "address": "宿迁市泗洪县城头乡林业四分场", "image": "", "rank": 6, "time": 4.0, "location": {"lat": 33.279575053752566, "lng": 118.30543492457971}, "feature": {"sight_features": "", "sight_content": ""}}, {"title": "雪枫墓园", "address": "宿迁市泗洪县半城镇", "image": "", "rank": 7, "time": 1.5, "location": {"lat": 33.35338084053102, "lng": 118.40663789577445}, "feature": {"sight_features": "", "sight_content": ""}}, {"title": "淮北解放区抗日阵亡将士纪念塔", "address": "宿迁市泗洪县453乡道（雪枫墓园内）", "image": "", "rank": 8, "time": 1.0, "location": {"lat": 33.355220954775206, "lng": 118.40921628950346}, "feature": {"sight_features": "", "sight_content": ""}}, {"title": "穆墩岛旅游风景区", "address": "宿迁市洪泗县半城镇穆墩岛村", "image": "", "rank": 9, "time": 2, "location": {"lat": 33.328846836682295, "lng": 118.47530596794097}, "feature": {"sight_features": "", "sight_content": ""}}, {"title": "欢乐谷欢乐园", "address": "宿迁市泗洪县衡山大桥桥北东侧", "image": "", "rank": 10, "time": 2, "location": {"lat": 33.471358710415316, "lng": 118.20428661078374}, "feature": {"sight_features": "", "sight_content": ""}}, {"title": "李应土产门市", "address": "李彪蔬菜批发零售旁边", "image": "", "rank": 11, "time": 2, "location": {"lat": 27.84037726529043, "lng": 113.16259417602613}, "feature": {"sight_features": "", "sight_content": ""}}, {"title": "万亩湖滨生态林", "address": "城头乡东南", "image": "", "rank": 12, "time": 2, "location": {"lat": 33.279575053752566, "lng": 118.30543492457971}, "feature": {"sight_features": "", "sight_content": ""}}, {"title": "永益温泉", "address": "水岸城邦苏果超市三四楼", "image": "", "rank": 13, "time": 2, "location": {"lat": 33.464695722130315, "lng": 118.22332808610251}, "feature": {"sight_features": "", "sight_content": ""}}, {"title": "家庭读书吧", "address": "青阳南路28-23号附近", "image": "", "rank": 14, "time": 2, "location": {"lat": 31.853773372442394, "lng": 117.2482066897282}, "feature": {"sight_features": "", "sight_content": ""}}, {"title": "中国休闲垂钓之乡(金水集团)", "address": "湿地博物馆附近", "image": "", "rank": 15, "time": 2, "location": {"lat": 26.029625499746604, "lng": 119.6349712656589}, "feature": {"sight_features": "", "sight_content": ""}}, {"title": "欢乐水魔方", "address": "衡山南路81-58号", "image": "", "rank": 16, "time": 2, "location": {"lat": 34.82789297933587, "lng": 117.53038680384658}, "feature": {"sight_features": "", "sight_content": ""}}, {"title": "泗洪县城东生态亲子马术园", "address": "洪泽湖东大街51号", "image": "", "rank": 17, "time": 5.0, "location": {"lat": 33.47549019040657, "lng": 118.25128010350369}, "feature": {"sight_features": "", "sight_content": ""}}, {"title": "新丝路碧水豪庭温泉度假村", "address": "江苏省宿迁市泗洪县青临线", "image": "", "rank": 18, "time": 2, "location": {"lat": 33.35878618727073, "lng": 118.37088131835678}, "feature": {"sight_features": "", "sight_content": ""}}, {"title": "金锁镇影剧院", "address": "金镇街1号中共泗洪县金锁镇委员会附近", "image": "", "rank": 19, "time": 2, "location": {"lat": 33.627974135316315, "lng": 118.3061155850375}, "feature": {"sight_features": "", "sight_content": ""}}, {"title": "陈圩祖姚黄桃水蜜桃无公害采摘园", "address": "祖姚村宿迁市飞龙种猪场西北300米", "image": "", "rank": 20, "time": 2, "location": {"lat": 33.36159509737213, "lng": 118.3882655116368}, "feature": {"sight_features": "", "sight_content": ""}}, {"title": "泗洪县世外桃园", "address": "界重线与245省道交汇处", "image": "", "rank": 21, "time": 5.0, "location": {"lat": 33.51851311013541, "lng": 118.29418301116863}, "feature": {"sight_features": "", "sight_content": ""}}, {"title": "嘟嘟乐儿童乐园", "address": "江苏省宿迁市泗洪县双沟镇新街双沟集团职工医院附近", "image": "", "rank": 22, "time": 2, "location": {"lat": 33.22658946536198, "lng": 118.1935326397948}, "feature": {"sight_features": "", "sight_content": ""}}, {"title": "儿童乐园", "address": "江苏省宿迁市泗洪县S121(宁徐路)", "image": "", "rank": 23, "time": 2, "location": {"lat": 33.60546450755056, "lng": 118.20178075163143}, "feature": {"sight_features": "", "sight_content": ""}}, {"title": "洪恩堂", "address": "山河东路50", "image": "", "rank": 24, "time": 2, "location": {"lat": 23.411787778274444, "lng": 113.26081988605026}, "feature": {"sight_features": "", "sight_content": ""}}, {"title": "乡土植物园", "address": "青临线", "image": "", "rank": 25, "time": 4.0, "location": {"lat": 33.35878618727073, "lng": 118.37088131835678}, "feature": {"sight_features": "", "sight_content": ""}}, {"title": "旌程多肉植物园", "address": "江苏省宿迁市泗洪县双沟东路", "image": "", "rank": 26, "time": 2, "location": {"lat": 33.4929166939726, "lng": 118.23626554943013}, "feature": {"sight_features": "", "sight_content": ""}}, {"title": "开心哈乐儿童乐园", "address": "江苏省宿迁市泗洪县界集镇贸兴路育红幼儿园附近", "image": "", "rank": 27, "time": 2, "location": {"lat": 33.557019546885115, "lng": 118.41661881738048}, "feature": {"sight_features": "", "sight_content": ""}}, {"title": "奇幻玩国童乐园", "address": "花园口国际广场3楼", "image": "", "rank": 28, "time": 2, "location": {"lat": 33.46549307470411, "lng": 118.22294073856321}, "feature": {"sight_features": "", "sight_content": ""}}, {"title": "宇宙英雄游乐公园", "address": "泗洪县其他人民南路", "image": "", "rank": 29, "time": 2, "location": {"lat": 33.45158362145847, "lng": 118.22156093591006}, "feature": {"sight_features": "", "sight_content": ""}}, {"title": "牡丹园", "address": "江苏省宿迁市泗洪县洪泽湖湿地公园芍药园", "image": "", "rank": 30, "time": 2.5, "location": {"lat": 33.25293799845256, "lng": 118.33544774285471}, "feature": {"sight_features": "", "sight_content": ""}}, {"title": "洪泽湖", "address": "汴河路与青临线交叉口西50米", "image": "", "rank": 31, "time": 3.0, "location": {"lat": 33.23721066219844, "lng": 118.42893951941613}, "feature": {"sight_features": "", "sight_content": ""}}, {"title": "开心哈乐", "address": "乐天玛特二店对面二楼", "image": "", "rank": 32, "time": 2, "location": {"lat": 33.58608245645747, "lng": 119.04685253695241}, "feature": {"sight_features": "", "sight_content": ""}}, {"title": "金水度假村", "address": "洪泽湖湿地公园内(青戚线附近)", "image": "", "rank": 33, "time": 2, "location": {"lat": 33.25293799845256, "lng": 118.33544774285471}, "feature": {"sight_features": "", "sight_content": ""}}, {"title": "慈佑寺", "address": "宿迁市泗洪县", "image": "", "rank": 34, "time": 2, "location": {"lat": 33.46573259459488, "lng": 118.22241594668768}, "feature": {"sight_features": "", "sight_content": ""}}, {"title": "野猪林度假村", "address": "陈圩乡顾北村", "image": "", "rank": 35, "time": 2, "location": {"lat": 33.31494271992672, "lng": 118.32641170389934}, "feature": {"sight_features": "", "sight_content": ""}}, {"title": "喜乐汇演艺大舞台", "address": "宿迁市泗洪县泗洲中大街30号", "image": "", "rank": 36, "time": 2, "location": {"lat": 33.464134159847866, "lng": 118.22548590576802}, "feature": {"sight_features": "", "sight_content": ""}}, {"title": "开心哈乐(苏果店)", "address": "泗州西大街33号2楼", "image": "", "rank": 37, "time": 2, "location": {"lat": 33.46591905201431, "lng": 118.2129786687966}, "feature": {"sight_features": "", "sight_content": ""}}, {"title": "草根文化广场", "address": "唐雪线附近", "image": "", "rank": 38, "time": 2, "location": {"lat": 33.352071959580414, "lng": 118.41729282319106}, "feature": {"sight_features": "", "sight_content": ""}}, {"title": "泗洪贡枣园", "address": "江苏省宿迁市泗洪县仁和路", "image": "", "rank": 39, "time": 2, "location": {"lat": 33.48394756254548, "lng": 118.2270201693587}, "feature": {"sight_features": "", "sight_content": ""}}, {"title": "泗洪木化石博物馆", "address": "戚黄路与纬二路交叉口东南50米", "image": "", "rank": 40, "time": 2, "location": {"lat": 33.45187865199918, "lng": 118.28706012040702}, "feature": {"sight_features": "", "sight_content": ""}}, {"title": "宝贝游乐场", "address": "江苏省宿迁市泗洪县魏营镇前营路江南阳光商贸小区附近", "image": "", "rank": 41, "time": 2, "location": {"lat": 33.34190226724402, "lng": 118.12384915362219}, "feature": {"sight_features": "", "sight_content": ""}}, {"title": "泗洪县博物馆", "address": "宿迁市泗洪县山河路67号", "image": "", "rank": 42, "time": 2.5, "location": {"lat": 33.45758916360507, "lng": 118.21862029778923}, "feature": {"sight_features": "", "sight_content": ""}}, {"title": "世纪广场", "address": "江苏省宿迁市泗洪县建设南路与泗州西大街交叉口东南50米", "image": "", "rank": 43, "time": 2.5, "location": {"lat": 33.465495685813195, "lng": 118.21648423328655}, "feature": {"sight_features": "", "sight_content": ""}}, {"title": "朱家岗烈士陵园", "address": "江苏省宿迁市泗洪县曹庙乡朱岗线朱家岗烈士陵园", "image": "", "rank": 44, "time": 2, "location": {"lat": 33.58118124829075, "lng": 118.37061922874118}, "feature": {"sight_features": "", "sight_content": ""}}, {"title": "濉河", "address": "江苏省宿迁市泗洪县", "image": "", "rank": 45, "time": 2, "location": {"lat": 33.46573259459488, "lng": 118.22241594668768}, "feature": {"sight_features": "", "sight_content": ""}}, {"title": "雪枫墓园-慈佑寺", "address": "雪张线与雪枫大道交叉口西北100米", "image": "", "rank": 46, "time": 2, "location": {"lat": 33.35187917809479, "lng": 118.4011299337434}, "feature": {"sight_features": "", "sight_content": ""}}, {"title": "泗洪烈士陵园", "address": "建设南路与山河路交叉口南50米", "image": "", "rank": 47, "time": 2, "location": {"lat": 33.457159023978924, "lng": 118.21598282969326}, "feature": {"sight_features": "", "sight_content": ""}}, {"title": "观鸟园", "address": "188乡道", "image": "", "rank": 48, "time": 2, "location": {"lat": 41.53058907618653, "lng": 122.87586719695632}, "feature": {"sight_features": "", "sight_content": ""}}, {"title": "湿地博物馆", "address": "青戚线", "image": "", "rank": 49, "time": 1.5, "location": {"lat": 33.24020782784572, "lng": 118.32072858487014}, "feature": {"sight_features": "", "sight_content": ""}}, {"title": "淮北抗日民主根据地纪念馆", "address": "烈士陵园东大门向南500米", "image": "", "rank": 50, "time": 2, "location": {"lat": 40.41509928539106, "lng": 116.35428286070578}, "feature": {"sight_features": "", "sight_content": ""}}, {"title": "图书馆(梅花镇分馆)", "address": "454乡道", "image": "", "rank": 51, "time": 2, "location": {"lat": 26.088625591705977, "lng": 112.81364802960432}, "feature": {"sight_features": "", "sight_content": ""}}, {"title": "墨海轩画廊", "address": "青阳南路13号", "image": "", "rank": 52, "time": 2, "location": {"lat": 31.853257156308842, "lng": 117.24810965194375}, "feature": {"sight_features": "", "sight_content": ""}}, {"title": "科教图书馆", "address": "人民南路", "image": "", "rank": 53, "time": 2, "location": {"lat": 31.00852796492261, "lng": 121.23549181138162}, "feature": {"sight_features": "", "sight_content": ""}}, {"title": "湿地古今文化展", "address": "青戚线", "image": "", "rank": 54, "time": 2, "location": {"lat": 33.24020782784572, "lng": 118.32072858487014}, "feature": {"sight_features": "", "sight_content": ""}}, {"title": "泗洪县城建档案档案馆", "address": "和谐路", "image": "", "rank": 55, "time": 5.0, "location": {"lat": 39.73993638282692, "lng": 116.58168810196308}, "feature": {"sight_features": "", "sight_content": ""}}, {"title": "泗洪水上乐园", "address": "桥南派出所西行100米路北", "image": "", "rank": 56, "time": 2, "location": {"lat": 28.24054813030942, "lng": 112.95802549581606}, "feature": {"sight_features": "", "sight_content": ""}}, {"title": "春到上塘纪念馆", "address": "上塘镇垫湖村", "image": "", "rank": 57, "time": 2, "location": {"lat": 33.429145574732814, "lng": 118.05306479494539}, "feature": {"sight_features": "", "sight_content": ""}}, {"title": "老孙丁庄葡萄园", "address": "好声音ktv", "image": "", "rank": 58, "time": 2, "location": {"lat": 39.07194514215715, "lng": 117.47281568110255}, "feature": {"sight_features": "", "sight_content": ""}}, {"title": "高尔夫陶瓷", "address": "香江路附近", "image": "", "rank": 59, "time": 2, "location": {"lat": 30.900768004020915, "lng": 121.18144435757677}, "feature": {"sight_features": "", "sight_content": ""}}, {"title": "天岗湖高效农业生态园", "address": "天恩街西50米", "image": "", "rank": 60, "time": 2, "location": {"lat": 33.2376187720499, "lng": 118.00503784395657}, "feature": {"sight_features": "", "sight_content": ""}}]}