{"cityName": "四会", "days": 2, "cityImage": "", "spots": [{"title": "奇石河", "address": "肇庆市四会威整镇红星村四会瀑布奇石景区", "image": "", "rank": 1, "time": 2.5, "location": {"lat": 23.682503138684368, "lng": 112.73883360384114}, "feature": {"sight_features": "特色1 蔚为壮观的银龙大瀑布", "sight_content": "四会瀑布奇石景区生态旅游度假区，位于广佛肇一小时经济生活圈内的四会市威整镇，与清远市、广宁县交界，全景区总面积约8平方公里。景区以独特的自然景观和优雅的生态环境而著称。景区内森林繁茂、瀑布飞流、奇石遍布。集休闲度假、观光旅游、乡村风情体验、乡村风味美食于一体，被誉为省内最具特色的生态旅游度假区。\n【银龙大瀑布】宽120米，高60米，蔚为壮观，是省内最大最具特色的天然瀑布，瀑布终年飞泻不断，宛如一幅巨大的天沙帐。在此一边观赏瀑布的宏伟壮观，感叹于大自然的鬼斧神工。一边品尝山村美食，品裳山泉茗茶，完全被大自然的人间仙境所陶醉。\n\n【栈道】位于银龙大瀑布的正前方，横穿天壤氧吧区，全长三公里，迈步其中，欣赏着美丽的景色，聆听着鸟语花香，吸纳着清新的空气犹如步入人间仙境。\n【神仙岛】位于观光栈道的终点，是景区内最具人气娱乐设施较为齐全的综合性游乐区域，集吃、喝、玩、乐于一体。占地面积12000多平米，建有儿童乐园，奇石文化休闲公园和山村美食、山村茗香茶座等设施，岛内古木参天，环境优雅，奇花异草，让人留恋往返，乐也融融。\n【水车】是山村农民借助水力用作舂米、面粉和加工农幅产品或香粉的一种生产工具。在科学尚未发达，生产力落后的时代，山村农民利用丰富的水资源，通过水的冲击力和惯性的原理，设计制造了这种水车。古朴风情水车群就是让游人回味古朴而纯真的山村特色。\n【高空杂技表演】“吉尼斯世界纪录”的河南高空飞车艺术团为奇石河景区策划编排的专题性大型高空综合艺术节目。以银帘瀑布为屏幕，以高空钢丝作舞台，全部在距地面20余米的高空钢丝上进行，可谓惊险奇绝，惊心动魄。\n【天然泳场】位于十里奇石河的上游，面积约500平方米，可供300多人同时游泳，纯天然山水，清澈见底。炎炎夏日，浸泡其中，清爽凉快，与家人小孩享乐其中，其乐无穷。\n【奇石河酒店】酒店位于景区的中心区内，高三层，采用四星级标准设计装修，总建筑面积3000多平方米，40多套标准豪华客房，富丽堂皇，金碧辉煌，酒店配套设施齐全服务一流，令您有宾至如归的感觉。\n【奇石河餐厅】选用原生态天然材料建筑，格局别致，环境优雅，可容纳500多人同时就餐，餐厅采以绿色健康乡村原料制作菜肴，农家风味，丰俭由人。"}}, {"title": "贞山", "address": "肇庆市贞山区天音路", "image": "", "rank": 2, "time": 4.0, "location": {"lat": 23.329900127196343, "lng": 112.67480745984227}, "feature": {"sight_features": "", "sight_content": ""}}, {"title": "四会山湖水上乐园", "address": "肇庆市四会市贞山风景区大坑村（原山中湖水上乐园）", "image": "", "rank": 3, "time": 2, "location": {"lat": 23.329228880483303, "lng": 112.67470531981093}, "feature": {"sight_features": "特色1 致力打造成具有独特景观的水上娱乐目的地 特色2 园区整体环境以朴素淡雅的山村野趣为格调，取自然山水之本色 特色3 穿行万千画卷之中，感受中国真正风水宝地", "sight_content": "作为采用纯天然山泉水的水上乐园，山湖水上乐园综合引进了先进的设备、刺激的玩法，会让每一位游客体验到一种与众不同、欢畅淋漓的激情感觉。海盗船，适合亲子游玩项目，看着小朋友们攀上滑下的可爱身姿，家长们也会会心微笑。海啸冲浪，采用目前先进电脑自动控制系统，有十多种海浪及海啸高仿真效果，让游客真切体验到在大海中冲浪及海啸发生时的乐趣与震憾。\n加勒比海水寨，具有大翻斗、水炮、风水盘等多项功能，刺激的是顶端的两个大铁桶，当水注满铁桶后会自动一倾而下，这时会引来无数的欢呼声，身处其下的游客也可体验一下“中头彩”的美妙感觉。冲天回旋滑梯，设备平台高12米，双人滑圈滑行，能让游客在高速落体式滑行与前后回旋滑行中瞬间体验“心体分离”的快感。\n大喇叭，游客在封闭的管道中自由垂落约60度、摆高约10米，同时由于落体惯性会在大喇叭中左右摇摆滑行，游客滑落时喊出的悦耳尖叫声，感受到其中的惊心与惊险。彩虹滑道，是一项可以竞赛的项目，可四人竞赛滑行，体验失重感及飘逸感。另配双管急速滑道。相对目前滑道类它是最刺激的一款，垂直滑下的落差高达25米、角度最大为70度，绝对权威地挑战一个人的胆量与勇气。"}}, {"title": "六祖寺", "address": "肇庆市四会市六祖大道（近贞山风景区）", "image": "", "rank": 4, "time": 1.0, "location": {"lat": 23.329228880483303, "lng": 112.67470531981093}, "feature": {"sight_features": "", "sight_content": ""}}, {"title": "宝林古寺", "address": "肇庆市四会市贞山街道柑榄村委会上寨村西", "image": "", "rank": 5, "time": 0.35, "location": {"lat": 23.346985867790472, "lng": 112.64114928009006}, "feature": {"sight_features": "", "sight_content": ""}}, {"title": "山湖温矿泉", "address": "肇庆市四会市贞山大道六祖寺旁", "image": "", "rank": 6, "time": 2, "location": {"lat": 23.34926705326563, "lng": 112.68733745717627}, "feature": {"sight_features": "", "sight_content": ""}}, {"title": "绿海生态园", "address": "四会市下茆镇下茆交警中队旁", "image": "", "rank": 7, "time": 2, "location": {"lat": 23.42718533563699, "lng": 112.67074262471606}, "feature": {"sight_features": "", "sight_content": ""}}, {"title": "抓娃娃机电玩机", "address": "肇庆市四会市四会大道南168号四会广场F2", "image": "", "rank": 8, "time": 2, "location": {"lat": 23.32491487000001, "lng": 112.73644567783019}, "feature": {"sight_features": "", "sight_content": ""}}, {"title": "山楂树土窑鸡农庄", "address": "石龙村口(石罗小学)", "image": "", "rank": 9, "time": 2, "location": {"lat": 23.44326555599789, "lng": 112.65166288518208}, "feature": {"sight_features": "", "sight_content": ""}}, {"title": "鸿宾山庄水上乐园", "address": "天音路1号", "image": "", "rank": 10, "time": 2, "location": {"lat": 23.32792752046729, "lng": 112.67778329087709}, "feature": {"sight_features": "", "sight_content": ""}}, {"title": "大兴农场", "address": "大沙镇(大兴立交桥东南350米)", "image": "", "rank": 11, "time": 3.5, "location": {"lat": 23.245048868101605, "lng": 112.791128111443}, "feature": {"sight_features": "", "sight_content": ""}}, {"title": "百年荔园", "address": "大旺一村社区", "image": "", "rank": 12, "time": 2, "location": {"lat": 40.18853278680115, "lng": 116.50858317671324}, "feature": {"sight_features": "", "sight_content": ""}}, {"title": "润丰生态园林", "address": "城中街道铁场", "image": "", "rank": 13, "time": 2, "location": {"lat": 24.320671784276353, "lng": 109.41749627155944}, "feature": {"sight_features": "", "sight_content": ""}}, {"title": "古玉皇", "address": "广东省肇庆市四会市东城街道沙田园一路智慧网吧旁", "image": "", "rank": 14, "time": 2, "location": {"lat": 23.3503828104448, "lng": 112.71628477820853}, "feature": {"sight_features": "", "sight_content": ""}}, {"title": "涞馨影剧院", "address": "建设路附近", "image": "", "rank": 15, "time": 2, "location": {"lat": 39.08959553212996, "lng": 117.0126917080218}, "feature": {"sight_features": "", "sight_content": ""}}, {"title": "山湖生态旅游度假村", "address": "大坑村六祖寺前100米", "image": "", "rank": 16, "time": 2, "location": {"lat": 23.326111394086105, "lng": 112.66148901976246}, "feature": {"sight_features": "", "sight_content": ""}}, {"title": "四会市贞山水富度假村", "address": "贞山四莲公路原收费站侧", "image": "", "rank": 17, "time": 2, "location": {"lat": 23.329228880483303, "lng": 112.67470531981093}, "feature": {"sight_features": "", "sight_content": ""}}, {"title": "大旺经济开发区", "address": "肇庆市四会市大旺高新区", "image": "", "rank": 18, "time": 2, "location": {"lat": 23.305342416781993, "lng": 112.81815303173538}, "feature": {"sight_features": "", "sight_content": ""}}, {"title": "臻湖畔岛高尔夫球场", "address": "臻湖畔岛万丽湖内", "image": "", "rank": 19, "time": 2, "location": {"lat": 23.347667073131138, "lng": 112.7485240682387}, "feature": {"sight_features": "", "sight_content": ""}}, {"title": "槎山公园-游乐场", "address": "体育路8号附近", "image": "", "rank": 20, "time": 2, "location": {"lat": 41.308555015424, "lng": 123.7722180157039}, "feature": {"sight_features": "", "sight_content": ""}}, {"title": "水上乐园(四会市体育局西北)", "address": "广东省肇庆市四会市其他体育路34号", "image": "", "rank": 21, "time": 2.5, "location": {"lat": 23.352425871338554, "lng": 112.69858946670232}, "feature": {"sight_features": "", "sight_content": ""}}, {"title": "莲花寺", "address": "广东省肇庆市四会市陶塘路与468乡道交叉口西南150米", "image": "", "rank": 22, "time": null, "location": {"lat": 23.344685148441602, "lng": 112.73849129913685}, "feature": {"sight_features": "", "sight_content": ""}}, {"title": "基督教四会市地豆堂", "address": "260省道附近", "image": "", "rank": 23, "time": 2, "location": {"lat": 36.10888534051102, "lng": 115.51603658929373}, "feature": {"sight_features": "", "sight_content": ""}}, {"title": "文宝斋翡翠博物馆", "address": "肇庆市四会市水岸名都首层", "image": "", "rank": 24, "time": 2, "location": {"lat": 23.319354565235628, "lng": 112.73776546828502}, "feature": {"sight_features": "", "sight_content": ""}}, {"title": "黎氏宗祠", "address": "商业大道69号附近", "image": "", "rank": 25, "time": 1.0, "location": {"lat": 23.385308181548364, "lng": 113.22484271804854}, "feature": {"sight_features": "", "sight_content": ""}}, {"title": "罗氏宗祠", "address": "肇庆市四会市", "image": "", "rank": 26, "time": 2, "location": {"lat": 23.33238100517465, "lng": 112.74057914080245}, "feature": {"sight_features": "", "sight_content": ""}}, {"title": "迪乐尼欢乐儿童乐园", "address": "高新技术产业开发区大旺高新区旺都花园二楼", "image": "", "rank": 27, "time": 2, "location": {"lat": 47.314397517727755, "lng": 123.96153121294546}, "feature": {"sight_features": "", "sight_content": ""}}, {"title": "紫霞渡假村", "address": "肇庆四会市六祖寺附近", "image": "", "rank": 28, "time": 2, "location": {"lat": 23.326111394086105, "lng": 112.66148901976246}, "feature": {"sight_features": "", "sight_content": ""}}, {"title": "水富度假村", "address": "广东省肇庆市四会市四莲公路", "image": "", "rank": 29, "time": 2, "location": {"lat": 23.297789502068834, "lng": 112.68510104835565}, "feature": {"sight_features": "", "sight_content": ""}}, {"title": "市府广场", "address": "广东省肇庆市四会市商业大道附近", "image": "", "rank": 30, "time": 0.75, "location": {"lat": 23.341420296063326, "lng": 112.72802375196494}, "feature": {"sight_features": "", "sight_content": ""}}, {"title": "怡翠广场", "address": "高新技术产业开发区天成路", "image": "", "rank": 31, "time": 2, "location": {"lat": 25.474875202788446, "lng": 119.16281446976696}, "feature": {"sight_features": "", "sight_content": ""}}, {"title": "紫金广场", "address": "肇庆市四会市水闸路83号", "image": "", "rank": 32, "time": 2, "location": {"lat": 23.348560304216715, "lng": 112.70405412860936}, "feature": {"sight_features": "", "sight_content": ""}}, {"title": "金凤凰广场", "address": "政德大街111号附近", "image": "", "rank": 33, "time": 2, "location": {"lat": 23.304564919433016, "lng": 112.81866992750533}, "feature": {"sight_features": "", "sight_content": ""}}, {"title": "快乐多星光儿童游乐场", "address": "肇庆市四会市四会大道南168号四会广场F3", "image": "", "rank": 34, "time": 2, "location": {"lat": 23.324926235944528, "lng": 112.73640857781265}, "feature": {"sight_features": "", "sight_content": ""}}, {"title": "四会市马田公园", "address": "玉器街", "image": "", "rank": 35, "time": 1.5, "location": {"lat": 23.12380846043079, "lng": 113.25358282245733}, "feature": {"sight_features": "", "sight_content": ""}}, {"title": "龙泉渡假村", "address": "四莲公路与三一六乡道交叉口以南", "image": "", "rank": 36, "time": 2.0, "location": {"lat": 23.337552031448734, "lng": 112.67664565971184}, "feature": {"sight_features": "", "sight_content": ""}}, {"title": "荔枝湾度假村", "address": "四会大道南", "image": "", "rank": 37, "time": 2, "location": {"lat": 23.32496373525815, "lng": 112.73668615421515}, "feature": {"sight_features": "", "sight_content": ""}}, {"title": "中山公园", "address": "城中区朝阳街2号首层天堡机室一楼", "image": "", "rank": 38, "time": 1.5, "location": {"lat": 24.32131406989099, "lng": 109.41748215019682}, "feature": {"sight_features": "", "sight_content": ""}}, {"title": "宝胜古寺", "address": "安平村东", "image": "", "rank": 39, "time": 2, "location": {"lat": 39.94222995593063, "lng": 118.4239361580477}, "feature": {"sight_features": "", "sight_content": ""}}, {"title": "袁氏宗祠", "address": "广东省佛山市三水区大沙镇南江工业园袁村", "image": "", "rank": 40, "time": 2, "location": {"lat": 23.226205690254957, "lng": 112.83383924254542}, "feature": {"sight_features": "", "sight_content": ""}}, {"title": "荷塘山庄", "address": "广东省肇庆市四会市四莲公路与三一六乡道交叉口以南", "image": "", "rank": 41, "time": 2, "location": {"lat": 23.337552031448734, "lng": 112.67664565971184}, "feature": {"sight_features": "", "sight_content": ""}}, {"title": "天堡游乐", "address": "中山路48号", "image": "", "rank": 42, "time": 2, "location": {"lat": 41.80154488945265, "lng": 123.4100295218474}, "feature": {"sight_features": "", "sight_content": ""}}, {"title": "逗逗乐儿童乐园", "address": "龙凤路3号", "image": "", "rank": 43, "time": 2.0, "location": {"lat": 32.49116099834186, "lng": 119.8546805363043}, "feature": {"sight_features": "", "sight_content": ""}}, {"title": "国喜玉器抛光艺术馆", "address": "江丽路38附近", "image": "", "rank": 44, "time": 2, "location": {"lat": 23.112034657711725, "lng": 113.32426411028516}, "feature": {"sight_features": "", "sight_content": ""}}, {"title": "小顺溜亲子儿童乐园", "address": "时代广场附近", "image": "", "rank": 45, "time": 2, "location": {"lat": 39.14190468254587, "lng": 117.1929901712513}, "feature": {"sight_features": "", "sight_content": ""}}, {"title": "贝碧乐美术创意空间", "address": "时代广场肯德基后门对面", "image": "", "rank": 46, "time": 2, "location": {"lat": 35.598047948757774, "lng": 110.72128517729017}, "feature": {"sight_features": "", "sight_content": ""}}, {"title": "龙甫足球场", "address": "政府径口方向（近龙浦钱派出所）", "image": "", "rank": 47, "time": 2, "location": {"lat": 22.5629420086216, "lng": 114.2436974090765}, "feature": {"sight_features": "", "sight_content": ""}}, {"title": "广东流动图书馆(四会分馆)", "address": "朝阳街8号附近", "image": "", "rank": 48, "time": 2, "location": {"lat": 38.751104045750466, "lng": 114.99202084522268}, "feature": {"sight_features": "", "sight_content": ""}}, {"title": "玉统九洲翡翠艺术馆", "address": "景丽路2巷3号", "image": "", "rank": 49, "time": 2, "location": {"lat": 39.23143805994336, "lng": 117.2625388936313}, "feature": {"sight_features": "", "sight_content": ""}}, {"title": "薰衣草", "address": "城中新路与步行街交叉口西南50米", "image": "", "rank": 50, "time": 2, "location": {"lat": 23.349340959328714, "lng": 112.69796074267609}, "feature": {"sight_features": "", "sight_content": ""}}, {"title": "LAI XIN影剧院", "address": "建设路附近", "image": "", "rank": 51, "time": 2, "location": {"lat": 39.08959553212996, "lng": 117.0126917080218}, "feature": {"sight_features": "", "sight_content": ""}}, {"title": "深巷钓虾场", "address": "清塘恒晖苑对面", "image": "", "rank": 52, "time": 2, "location": {"lat": 23.35021609588693, "lng": 112.71881568750744}, "feature": {"sight_features": "", "sight_content": ""}}, {"title": "高尔夫教练联谊会指定训练基地", "address": "臻湖高尔夫球会", "image": "", "rank": 53, "time": null, "location": {"lat": 23.345686049032622, "lng": 112.75752881382034}, "feature": {"sight_features": "", "sight_content": ""}}, {"title": "安顺达水上用品有限公司", "address": "肇庆高新技术产业开发区肇庆高新区城中工业园正隆一街3号", "image": "", "rank": 54, "time": 7.5, "location": {"lat": 23.287186963677392, "lng": 112.82991274916262}, "feature": {"sight_features": "", "sight_content": ""}}, {"title": "济广塘农场", "address": "济广监狱广北路1号", "image": "", "rank": 55, "time": 2, "location": {"lat": 31.047372504229994, "lng": 121.75876000580719}, "feature": {"sight_features": "", "sight_content": ""}}, {"title": "加拿大风情街", "address": "广东省四会市四会大道与广场南路交叉口西南方向", "image": "", "rank": 56, "time": 2, "location": {"lat": 23.354277870303864, "lng": 112.71292390738141}, "feature": {"sight_features": "", "sight_content": ""}}]}