{"cityName": "四平", "days": "", "cityImage": "", "spots": [{"title": "四平战役纪念馆", "address": "四平市铁西区南新华大街英雄大街60号", "image": "", "rank": 1, "time": 1.0, "location": {"lat": 43.17593792176076, "lng": 124.37104820981708}, "feature": {"sight_features": "", "sight_content": ""}}, {"title": "一马树森林公园", "address": "四平市双辽市红旗街", "image": "", "rank": 2, "time": 2.5, "location": {"lat": 43.59768039001605, "lng": 123.63972332125587}, "feature": {"sight_features": "", "sight_content": ""}}, {"title": "北方巴厘岛", "address": "四平市梨树县霍家店经济园区", "image": "", "rank": 3, "time": 2, "location": {"lat": 43.338180151095926, "lng": 124.34970896242756}, "feature": {"sight_features": "", "sight_content": ""}}, {"title": "叶赫那拉古城", "address": "四平市梨树县东南部", "image": "", "rank": 4, "time": 2.5, "location": {"lat": 43.313345515552975, "lng": 124.34240124710388}, "feature": {"sight_features": "", "sight_content": ""}}, {"title": "伊通满族自治县博物馆", "address": "中国吉林省伊通满族自治县伊通镇人民大路1129号", "image": "", "rank": 5, "time": 2.0, "location": {"lat": 43.3485630314981, "lng": 125.32458064424297}, "feature": {"sight_features": "", "sight_content": ""}}, {"title": "牧情谷旅游风景区", "address": "四平市伊通满族自治县085乡道", "image": "", "rank": 6, "time": 3.0, "location": {"lat": 43.35110366682136, "lng": 125.31148460753519}, "feature": {"sight_features": "", "sight_content": ""}}, {"title": "叶赫皇家山滑雪滑草场", "address": "四平市铁东区叶赫经济开发区叶赫影视城北侧", "image": "", "rank": 7, "time": 2, "location": {"lat": 43.16799399318514, "lng": 124.41648270590073}, "feature": {"sight_features": "", "sight_content": ""}}, {"title": "二龙湖风景区", "address": "四平市公主岭市二龙湖风景区", "image": "", "rank": 8, "time": 1.0, "location": {"lat": 43.19829668495547, "lng": 124.80093788380611}, "feature": {"sight_features": "", "sight_content": ""}}, {"title": "山门风景区", "address": "四平市铁东区山门镇", "image": "", "rank": 9, "time": 2.0, "location": {"lat": 43.08984678793448, "lng": 124.43663072562468}, "feature": {"sight_features": "", "sight_content": ""}}, {"title": "大孤山", "address": "四平市伊通满族自治县城西15公里处", "image": "", "rank": 10, "time": 3.5, "location": {"lat": 43.35110366682136, "lng": 125.31148460753519}, "feature": {"sight_features": "", "sight_content": ""}}, {"title": "龙湖古城遗址", "address": "四平市梨树县石岭乡", "image": "", "rank": 11, "time": 1.0, "location": {"lat": 43.313345515552975, "lng": 124.34240124710388}, "feature": {"sight_features": "", "sight_content": ""}}, {"title": "吉林伊通火山群国家级自然保护区", "address": "四平市伊通满族自治县环山路", "image": "", "rank": 12, "time": 2.0, "location": {"lat": 43.310265493901944, "lng": 125.12706212701453}, "feature": {"sight_features": "", "sight_content": ""}}, {"title": "四平市图书馆", "address": "南新华大街619号", "image": "", "rank": 13, "time": 1.5, "location": {"lat": 43.17660393413588, "lng": 124.37125122686233}, "feature": {"sight_features": "", "sight_content": ""}}, {"title": "香格里拉啤酒广场", "address": "四平市骨质增生病医院西侧", "image": "", "rank": 14, "time": 1.0, "location": {"lat": 43.188684330408336, "lng": 124.34741614900321}, "feature": {"sight_features": "", "sight_content": ""}}, {"title": "南湖公园动物园", "address": "南湖公园内", "image": "", "rank": 15, "time": 2, "location": {"lat": 43.86429928440166, "lng": 125.32017660176838}, "feature": {"sight_features": "", "sight_content": ""}}, {"title": "公主岭谷家渔村餐饮垂钓", "address": "南崴子村五组", "image": "", "rank": 16, "time": 2, "location": {"lat": 43.69323252506722, "lng": 126.02638092201451}, "feature": {"sight_features": "", "sight_content": ""}}, {"title": "双辽市图书馆", "address": "郑园街738号", "image": "", "rank": 17, "time": 1.5, "location": {"lat": 43.51862275650482, "lng": 123.49563960898296}, "feature": {"sight_features": "", "sight_content": ""}}, {"title": "郑家屯博物馆", "address": "辽河大街1799号", "image": "", "rank": 18, "time": 2, "location": {"lat": 43.674744390195364, "lng": 124.25016506539104}, "feature": {"sight_features": "", "sight_content": ""}}, {"title": "农家乐", "address": "东春路339号(老客运站后面 双辽货场旁边)", "image": "", "rank": 19, "time": 2, "location": {"lat": 43.51427400159264, "lng": 123.52412240456759}, "feature": {"sight_features": "", "sight_content": ""}}, {"title": "梨树啤酒广场", "address": "欧亚广场内", "image": "", "rank": 20, "time": 2, "location": {"lat": 43.90658165738739, "lng": 125.32309827216838}, "feature": {"sight_features": "", "sight_content": ""}}, {"title": "都市森林大酒店-儿童淘气堡", "address": "岭西市委路口北行200米", "image": "", "rank": 21, "time": 2, "location": {"lat": 36.3896655353265, "lng": 113.23798744482859}, "feature": {"sight_features": "", "sight_content": ""}}, {"title": "梨树影刷院", "address": "向阳街和梨树南大路的交叉口附近", "image": "", "rank": 22, "time": 2, "location": {"lat": 46.08799957490147, "lng": 122.08520223900432}, "feature": {"sight_features": "", "sight_content": ""}}, {"title": "双山鸭场文化大舞台", "address": "105省道附近", "image": "", "rank": 23, "time": 2, "location": {"lat": 40.96089319814357, "lng": 112.03171953991749}, "feature": {"sight_features": "", "sight_content": ""}}, {"title": "第9街区真人密室逃脱游戏四平店", "address": "万达广场东街8号门楼上", "image": "", "rank": 24, "time": 2, "location": {"lat": 30.741377165280273, "lng": 120.80709790410064}, "feature": {"sight_features": "", "sight_content": ""}}, {"title": "千古迷城真人密室逃脱", "address": "平东大路69号", "image": "", "rank": 25, "time": 2, "location": {"lat": 43.15490293993775, "lng": 124.39270789370735}, "feature": {"sight_features": "", "sight_content": ""}}, {"title": "hello baby儿童乐园", "address": "地直街美食城米氏孕婴三楼", "image": "", "rank": 26, "time": 2, "location": {"lat": 43.18297611263611, "lng": 124.35858754459652}, "feature": {"sight_features": "", "sight_content": ""}}, {"title": "天工艺术画廊", "address": "南体育街", "image": "", "rank": 27, "time": 2, "location": {"lat": 43.17311517115981, "lng": 124.37190442162915}, "feature": {"sight_features": "", "sight_content": ""}}, {"title": "润慧幼儿艺术乐园", "address": "西农园街296号", "image": "", "rank": 28, "time": 2, "location": {"lat": 43.18009950249339, "lng": 124.35286984237722}, "feature": {"sight_features": "", "sight_content": ""}}, {"title": "梦幻儿童乐园", "address": "北方生活广场5楼美食城内", "image": "", "rank": 29, "time": 2, "location": {"lat": 43.173649847697334, "lng": 124.37462871364758}, "feature": {"sight_features": "", "sight_content": ""}}, {"title": "挖掘机乐园", "address": "南仁兴街肛肠医院对面", "image": "", "rank": 30, "time": 2, "location": {"lat": 25.030430199161422, "lng": 102.72300092410984}, "feature": {"sight_features": "", "sight_content": ""}}, {"title": "南湖水上乐园", "address": "南仁兴街1381号", "image": "", "rank": 31, "time": 2, "location": {"lat": 43.16822795083068, "lng": 124.37175517625343}, "feature": {"sight_features": "", "sight_content": ""}}, {"title": "南湖垂钓园", "address": "南湖公园内", "image": "", "rank": 32, "time": 2, "location": {"lat": 43.86429928440166, "lng": 125.32017660176838}, "feature": {"sight_features": "", "sight_content": ""}}, {"title": "老干部文化艺术中心", "address": "南新华大街", "image": "", "rank": 33, "time": 2, "location": {"lat": 43.17458736124679, "lng": 124.37108998281991}, "feature": {"sight_features": "", "sight_content": ""}}, {"title": "四平市朝鲜族艺术馆", "address": "南新华大街743号", "image": "", "rank": 34, "time": 2.0, "location": {"lat": 43.17547223472409, "lng": 124.37138175065293}, "feature": {"sight_features": "", "sight_content": ""}}, {"title": "兴城鼓浪屿温泉", "address": "南迎宾街1558号", "image": "", "rank": 35, "time": 2.5, "location": {"lat": 43.17181723093784, "lng": 124.3588776415813}, "feature": {"sight_features": "", "sight_content": ""}}, {"title": "皇家马戏嘉年华中国巡演", "address": "紫气大路海银9号展示中心(万达广场斜对面)", "image": "", "rank": 36, "time": 2, "location": {"lat": 43.161286348676505, "lng": 124.39801716838002}, "feature": {"sight_features": "", "sight_content": ""}}, {"title": "农泉山庄", "address": "三道林子村五组", "image": "", "rank": 37, "time": 2, "location": {"lat": 43.20063598576862, "lng": 124.37147611495185}, "feature": {"sight_features": "", "sight_content": ""}}, {"title": "海丰广场", "address": "四平市铁西区海丰大路2068号", "image": "", "rank": 38, "time": 0.75, "location": {"lat": 43.152875559259435, "lng": 124.35386800027571}, "feature": {"sight_features": "", "sight_content": ""}}, {"title": "叶赫古城-财神殿", "address": "叶赫那拉城内", "image": "", "rank": 39, "time": 2, "location": {"lat": 42.93855680298193, "lng": 124.53654842375337}, "feature": {"sight_features": "", "sight_content": ""}}, {"title": "华宇水上嘉年华", "address": "华宇城北门西300米处", "image": "", "rank": 40, "time": 2, "location": {"lat": 43.17442982521419, "lng": 124.34873037265923}, "feature": {"sight_features": "", "sight_content": ""}}, {"title": "东南生态新城植物园", "address": "紫气大路与植物园街交叉口", "image": "", "rank": 41, "time": 2, "location": {"lat": 43.16154322985033, "lng": 124.39447466107598}, "feature": {"sight_features": "", "sight_content": ""}}, {"title": "飞跃丛林户外冒险乐园", "address": "城东乡下三台村", "image": "", "rank": 42, "time": 2, "location": {"lat": 43.159467238981925, "lng": 124.50346517748255}, "feature": {"sight_features": "", "sight_content": ""}}, {"title": "青春牛奶草莓园采摘园", "address": "南道村", "image": "", "rank": 43, "time": 2, "location": {"lat": 39.80612670058616, "lng": 115.9337430936173}, "feature": {"sight_features": "", "sight_content": ""}}, {"title": "启明星密室逃脱", "address": "振兴南路30号", "image": "", "rank": 44, "time": 2, "location": {"lat": 31.52380766334663, "lng": 120.50734219744214}, "feature": {"sight_features": "", "sight_content": ""}}, {"title": "温泉会馆", "address": "歌乐王朝西行200米", "image": "", "rank": 45, "time": null, "location": {"lat": 43.314881696767245, "lng": 124.33045891943377}, "feature": {"sight_features": "", "sight_content": ""}}, {"title": "田园温泉小镇", "address": "大岭镇西侧5公里", "image": "", "rank": 46, "time": 2, "location": {"lat": 45.05282396097464, "lng": 126.60926396301807}, "feature": {"sight_features": "", "sight_content": ""}}, {"title": "公主岭市图书馆", "address": "公主岭大街公主岭实验中学对面", "image": "", "rank": 47, "time": 1.5, "location": {"lat": 43.49648976796959, "lng": 124.7902097076599}, "feature": {"sight_features": "", "sight_content": ""}}, {"title": "志广鹿业发展基地", "address": "001省道附近", "image": "", "rank": 48, "time": 2, "location": {"lat": 31.952255473806265, "lng": 118.61276777892672}, "feature": {"sight_features": "", "sight_content": ""}}, {"title": "公主岭市国家农业科技园区宏图种...", "address": "058县道附近", "image": "", "rank": 49, "time": 2, "location": {"lat": 47.26894780666635, "lng": 123.08299317172614}, "feature": {"sight_features": "", "sight_content": ""}}, {"title": "草莓采摘园7号棚", "address": "范家屯", "image": "", "rank": 50, "time": 2, "location": {"lat": 43.75183720076505, "lng": 119.76179717577664}, "feature": {"sight_features": "", "sight_content": ""}}, {"title": "诚辉农业", "address": "梨树镇奉化东大街269号供电局东侧", "image": "", "rank": 51, "time": null, "location": {"lat": 43.31709771132367, "lng": 124.3611337162795}, "feature": {"sight_features": "", "sight_content": ""}}, {"title": "嘉悦生态园", "address": "206省道东50米", "image": "", "rank": 52, "time": 2, "location": {"lat": 40.08163878542396, "lng": 117.10479938713142}, "feature": {"sight_features": "", "sight_content": ""}}, {"title": "华生水上乐园", "address": "怀德大路华生水上乐园", "image": "", "rank": 53, "time": 2, "location": {"lat": 23.09772902383317, "lng": 113.30005602379701}, "feature": {"sight_features": "", "sight_content": ""}}, {"title": "天桥山", "address": "辽宁省昌图县昌图镇东明村 112500", "image": "", "rank": 54, "time": 1.0, "location": {"lat": 42.787994027668056, "lng": 124.17878265353286}, "feature": {"sight_features": "", "sight_content": ""}}, {"title": "欢乐二人转大舞台", "address": "公主岭吉剧团附近", "image": "", "rank": 55, "time": 2, "location": {"lat": 43.508635890502546, "lng": 124.82586905428577}, "feature": {"sight_features": "", "sight_content": ""}}, {"title": "四平市科技馆", "address": "吉林省四平市铁东区中央东路", "image": "", "rank": 56, "time": 2.5, "location": {"lat": 43.17301164421718, "lng": 124.39951253085059}, "feature": {"sight_features": "", "sight_content": ""}}, {"title": "清真古教羊蝎子", "address": "沈长公路附近", "image": "", "rank": 57, "time": 2, "location": {"lat": 43.21398619421931, "lng": 124.41801791001728}, "feature": {"sight_features": "", "sight_content": ""}}, {"title": "绿色植物生态园", "address": "四平公主岭市131乡道", "image": "", "rank": 58, "time": 2, "location": {"lat": 43.5168831261268, "lng": 124.91252431359403}, "feature": {"sight_features": "", "sight_content": ""}}, {"title": "基督教会", "address": "吉林省四平市公主岭市河南大街", "image": "", "rank": 59, "time": 2, "location": {"lat": 43.51026662391953, "lng": 124.84129768228416}, "feature": {"sight_features": "", "sight_content": ""}}, {"title": "四平市博物馆", "address": "英雄大街60号", "image": "", "rank": 60, "time": 2.5, "location": {"lat": 43.17593792176076, "lng": 124.37104820981708}, "feature": {"sight_features": "", "sight_content": ""}}]}