{"cityName": "泗水", "days": "1", "cityImage": "", "spots": [{"title": "万紫千红生态养生旅游度假区", "address": "济宁市泗水县泗张镇", "image": "", "rank": 1, "time": 2, "location": {"lat": 35.53326497843576, "lng": 117.43699806292716}, "feature": {"sight_features": "", "sight_content": ""}}, {"title": "龙门山", "address": "济宁市泗水县", "image": "", "rank": 2, "time": 1.0, "location": {"lat": 35.67060048122767, "lng": 117.2574285898902}, "feature": {"sight_features": "", "sight_content": ""}}, {"title": "西侯幽谷", "address": "济宁市泗水县中册镇西侯村北", "image": "", "rank": 3, "time": 2, "location": {"lat": 35.730369024057914, "lng": 117.24805548874137}, "feature": {"sight_features": "", "sight_content": ""}}, {"title": "泉林", "address": "济宁市泗水县东部", "image": "", "rank": 4, "time": 1.0, "location": {"lat": 35.67060048122767, "lng": 117.2574285898902}, "feature": {"sight_features": "", "sight_content": ""}}, {"title": "凤仙山", "address": "济宁市泗水县城西北16公里，柘沟镇北", "image": "", "rank": 5, "time": 1.0, "location": {"lat": 35.7436839520798, "lng": 117.15846833272322}, "feature": {"sight_features": "", "sight_content": ""}}, {"title": "安山寺", "address": "济宁市泗水县泗张镇（圣源度假村内）", "image": "", "rank": 6, "time": 0.75, "location": {"lat": 35.56709509865957, "lng": 117.39978403781957}, "feature": {"sight_features": "", "sight_content": ""}}, {"title": "万紫千红青界湖御温泉", "address": "济宁市泗水县张镇万紫千红度假区内", "image": "", "rank": 7, "time": 2, "location": {"lat": 35.67060048122767, "lng": 117.2574285898902}, "feature": {"sight_features": "特色1 休闲养生度假会议首选", "sight_content": "万紫千红御温泉酒店位于山东泗水“泉源胜地”的青界湖畔，康熙和乾隆十次驻跸。酒店由140年历史的国际知名建筑师事务所--伍兹贝格设计，东方儒家酒店集团管理。配有欧美田园风格养生别墅15栋。湖景客房及别墅总床位160余个，是一处集养生、休闲、度假、会议、住宿、餐饮、温泉为一体的主题酒店。\n酒店外观简约时尚，依山傍水，面向一幅大美自然的山水画，优雅的休闲环境，洁净的新鲜空气，甘甜的矿泉水，独特美丽的湖光山色让您足不出户拥抱自然。在这里休闲度假，亲朋团聚让您远离都市尘嚣，体会“城市体系外”的美丽人生。酒店面山观水，心旷神怡，空气清新，昼日山野清新，夜空月朗星繁，昆虫鸣曲催人入眠。形成山水对话，达到人与自然互通的致美体验，感受返璞归真的自然。\n酒店设有成人与儿童游泳池、温泉、SPA男女水疗、篮球中心、兵乓球中心、亲子俱乐部、天然有机农场，休闲垂钓，户外美食广场等，亦歌亦舞，尽情娱乐。酒店餐饮采用万紫千红有机农场和生态果园的新鲜果蔬、茶园的优质绿茶、中草药园的天然药材、青界湖水域的野生鱼类以及园区里漫山遍野的野生半野生食材，施以孔府养生宴的精湛技艺，为您的度假生活提供独具风味的养生美食。"}}, {"title": "王家庄民俗村", "address": "济宁市泗水县泗张镇东北部", "image": "", "rank": 8, "time": 2, "location": {"lat": 35.53326497843576, "lng": 117.43699806292716}, "feature": {"sight_features": "", "sight_content": ""}}, {"title": "圣源度假村", "address": "济宁市泗水县泗张镇安山景区", "image": "", "rank": 9, "time": 2, "location": {"lat": 35.564966243979114, "lng": 117.40364335232444}, "feature": {"sight_features": "", "sight_content": ""}}, {"title": "儒陶陈设艺术馆", "address": "泗河路", "image": "", "rank": 10, "time": 2, "location": {"lat": 35.670148413492775, "lng": 117.27964560483082}, "feature": {"sight_features": "", "sight_content": ""}}, {"title": "海岱国际会展中心", "address": "滕北公路", "image": "", "rank": 11, "time": 2, "location": {"lat": 35.753476294872655, "lng": 117.2230615653337}, "feature": {"sight_features": "", "sight_content": ""}}, {"title": "圣水人家农家乐", "address": "中兴路东50米", "image": "", "rank": 12, "time": 2, "location": {"lat": 38.05362274668037, "lng": 114.49375028464377}, "feature": {"sight_features": "", "sight_content": ""}}, {"title": "金源泉度假村", "address": "泗水汽车站西侧（水泉村村委会）", "image": "", "rank": 13, "time": 2, "location": {"lat": 35.661030519511264, "lng": 117.24313987295685}, "feature": {"sight_features": "", "sight_content": ""}}, {"title": "年年有鱼海洋水族馆", "address": "健康路83号", "image": "", "rank": 14, "time": 2, "location": {"lat": 41.13497700303901, "lng": 119.75235653193484}, "feature": {"sight_features": "", "sight_content": ""}}, {"title": "蝶泉谷", "address": "济宁市泗水县", "image": "", "rank": 15, "time": 2, "location": {"lat": 35.67060048122767, "lng": 117.2574285898902}, "feature": {"sight_features": "", "sight_content": ""}}, {"title": "欢乐童年亲子游乐园", "address": "泗水县苏果超市一楼", "image": "", "rank": 16, "time": 2, "location": {"lat": 35.661800091559556, "lng": 117.2992604317261}, "feature": {"sight_features": "", "sight_content": ""}}, {"title": "泗水仲庙遗址公园", "address": "文化路附近", "image": "", "rank": 17, "time": 2, "location": {"lat": 39.74005789896059, "lng": 116.15120920962735}, "feature": {"sight_features": "", "sight_content": ""}}, {"title": "三发蓝鲸灵儿童游乐园", "address": "三发购物广场四楼（邮局对过）", "image": "", "rank": 18, "time": 2, "location": {"lat": 32.21090512377202, "lng": 119.45827017238376}, "feature": {"sight_features": "", "sight_content": ""}}, {"title": "济河植物园", "address": "山东省济宁市泗水县青年路", "image": "", "rank": 19, "time": 2, "location": {"lat": 35.65607221018727, "lng": 117.27930508416117}, "feature": {"sight_features": "", "sight_content": ""}}, {"title": "民俗游乐园", "address": "山东省济宁市泗水县古城路东首", "image": "", "rank": 20, "time": 4.5, "location": {"lat": 35.666381285003794, "lng": 117.28982492798842}, "feature": {"sight_features": "", "sight_content": ""}}, {"title": "星辰谷户外主题乐园", "address": "济宁市泗水县泗张镇小山庄村", "image": "", "rank": 21, "time": 2, "location": {"lat": 35.53672371001781, "lng": 117.3981090780267}, "feature": {"sight_features": "", "sight_content": "星辰谷户外主题乐园位于山东省济宁市泗水县，是集生态旅游、休闲养生、餐饮、游乐等为一体的综合户外主题乐园。\n\n\n以“户外体验为主题”，分为“汽车影院、蒙古包餐饮区、跑马场、户外拓展区、卡丁车竞技、真人绝地求生战场、户外篝火烧烤”等10个功能区。"}}, {"title": "百鸟园", "address": "244省道", "image": "", "rank": 22, "time": 2.0, "location": {"lat": 41.647500974269505, "lng": 115.6109952071258}, "feature": {"sight_features": "", "sight_content": ""}}, {"title": "龙峰工艺美术社", "address": "泉源大道", "image": "", "rank": 23, "time": 2, "location": {"lat": 35.66245969792491, "lng": 117.26010362871581}, "feature": {"sight_features": "", "sight_content": ""}}, {"title": "龙门山庄果园采摘区", "address": "中册镇", "image": "", "rank": 24, "time": 2, "location": {"lat": 35.730369024057914, "lng": 117.24805548874137}, "feature": {"sight_features": "", "sight_content": ""}}, {"title": "宏祥书画社", "address": "光明路", "image": "", "rank": 25, "time": 2, "location": {"lat": 39.91629389090759, "lng": 116.48112671224156}, "feature": {"sight_features": "", "sight_content": ""}}, {"title": "泗水钓鱼", "address": "北尧湾村附近", "image": "", "rank": 26, "time": 2.5, "location": {"lat": 35.59141130575657, "lng": 117.2980004827907}, "feature": {"sight_features": "", "sight_content": ""}}, {"title": "明珠水上乐园", "address": "济河植物园内", "image": "", "rank": 27, "time": 2, "location": {"lat": 35.6578298417215, "lng": 117.29562169344429}, "feature": {"sight_features": "", "sight_content": ""}}, {"title": "泗水金庄必捷滑雪场", "address": "金庄镇西峪村", "image": "", "rank": 28, "time": 2, "location": {"lat": 35.586058757113356, "lng": 117.23481258087935}, "feature": {"sight_features": "", "sight_content": ""}}, {"title": "振伟种植专业合作社", "address": "泗张镇太平村", "image": "", "rank": 29, "time": 2, "location": {"lat": 35.57735617829683, "lng": 117.50540322083364}, "feature": {"sight_features": "", "sight_content": ""}}, {"title": "泗水县科技文化中心", "address": "山东省泗水县泉兴路", "image": "", "rank": 30, "time": 2, "location": {"lat": 35.669245754358926, "lng": 117.25577341617449}, "feature": {"sight_features": "", "sight_content": ""}}, {"title": "长峰峪", "address": "济宁市-泗水县", "image": "", "rank": 31, "time": 2, "location": {"lat": 35.67060048122767, "lng": 117.2574285898902}, "feature": {"sight_features": "", "sight_content": ""}}]}