{"cityName": "泗县", "days": 2, "cityImage": "", "spots": [{"title": "运河人家", "address": "宿州市泗县经济开发区北部新城东区（花园路东段通济路1号）", "image": "", "rank": 1, "time": 2, "location": {"lat": 33.48700984621381, "lng": 117.90948466465663}, "feature": {"sight_features": "", "sight_content": ""}}, {"title": "碧云天生态园", "address": "荣辉国际花园对面加油站西北200米", "image": "", "rank": 2, "time": 2, "location": {"lat": 33.48437676687365, "lng": 117.87636322872365}, "feature": {"sight_features": "", "sight_content": ""}}, {"title": "鲁卡奇儿童乐园", "address": "宿州市泗县", "image": "", "rank": 3, "time": 2, "location": {"lat": 33.48869463013435, "lng": 117.9165899917489}, "feature": {"sight_features": "", "sight_content": ""}}, {"title": "泗水御都", "address": "宿州市泗县泗城镇玉兰路附近", "image": "", "rank": 4, "time": 2, "location": {"lat": 33.4796520318252, "lng": 117.91664132362065}, "feature": {"sight_features": "", "sight_content": ""}}, {"title": "新兴儿童乐园", "address": "刘圩镇中国电信对面(清华宝贝幼儿园南80米)", "image": "", "rank": 5, "time": 1.5, "location": {"lat": 33.65325487649807, "lng": 118.09579264083256}, "feature": {"sight_features": "", "sight_content": ""}}, {"title": "安徽泗县清水湾休闲垂钓中心", "address": "070乡道附近", "image": "", "rank": 6, "time": 2, "location": {"lat": 40.976995121181375, "lng": 116.34609791950922}, "feature": {"sight_features": "", "sight_content": ""}}, {"title": "泗州水上乐园", "address": "汴河大道东段北侧泗州学校向东200米(泗州学校向东200米)", "image": "", "rank": 7, "time": 2, "location": {"lat": 33.491320285384624, "lng": 117.93056724729755}, "feature": {"sight_features": "", "sight_content": ""}}, {"title": "大风车儿童乐园", "address": "泗城镇春港花苑北门", "image": "", "rank": 8, "time": 2, "location": {"lat": 33.4868572258289, "lng": 117.9075915262181}, "feature": {"sight_features": "", "sight_content": ""}}, {"title": "中心教会", "address": "安徽省宿州市泗县草沟镇", "image": "", "rank": 9, "time": 2, "location": {"lat": 33.397721003466444, "lng": 117.73415901052687}, "feature": {"sight_features": "", "sight_content": ""}}, {"title": "魔幻儿童乐园", "address": "安徽省宿州市泗县泗城镇南一环路登达雅苑", "image": "", "rank": 10, "time": 2, "location": {"lat": 33.478844966131824, "lng": 117.89484767288043}, "feature": {"sight_features": "", "sight_content": ""}}, {"title": "李月华墓", "address": "安徽省宿州市泗县丁湖镇沱河大道欢乐佳购物中心南350米", "image": "", "rank": 11, "time": 2, "location": {"lat": 33.36362635787165, "lng": 117.8288992916115}, "feature": {"sight_features": "", "sight_content": ""}}, {"title": "123游乐园", "address": "安徽省宿州市泗县开发区东二环路东方明珠汴光小学", "image": "", "rank": 12, "time": 2, "location": {"lat": 33.48907889955635, "lng": 117.90886294741318}, "feature": {"sight_features": "", "sight_content": ""}}, {"title": "惠祠堂", "address": "宿州市泗县零四八县道", "image": "", "rank": 13, "time": 2, "location": {"lat": 33.48869463013435, "lng": 117.9165899917489}, "feature": {"sight_features": "", "sight_content": ""}}, {"title": "梨园厅", "address": "宿州市泗县虞姬文化园内", "image": "", "rank": 14, "time": 2, "location": {"lat": 33.48869463013435, "lng": 117.9165899917489}, "feature": {"sight_features": "", "sight_content": ""}}, {"title": "新河园林休闲度假村", "address": "安徽省宿州市泗县泗州大道与北二环路交叉口西边3公里", "image": "", "rank": 15, "time": 2, "location": {"lat": 33.49236400127891, "lng": 117.85967784257103}, "feature": {"sight_features": "", "sight_content": ""}}, {"title": "泗州广场", "address": "泗城镇", "image": "", "rank": 16, "time": 2, "location": {"lat": 33.492045014444, "lng": 117.87692343809054}, "feature": {"sight_features": "", "sight_content": ""}}, {"title": "刘圩基督教堂", "address": "048县道附近", "image": "", "rank": 17, "time": 2, "location": {"lat": 46.932226821495014, "lng": 122.8326251854109}, "feature": {"sight_features": "", "sight_content": ""}}, {"title": "前固教会堂", "address": "056县道附近", "image": "", "rank": 18, "time": 2, "location": {"lat": 43.68586399031891, "lng": 124.27527896109282}, "feature": {"sight_features": "", "sight_content": ""}}, {"title": "吉姆考拉儿童主题乐园（文化广场...", "address": "大庄镇文化站南500米", "image": "", "rank": 19, "time": null, "location": {"lat": 31.237828028037463, "lng": 121.48449631904985}, "feature": {"sight_features": "", "sight_content": ""}}, {"title": "亲子园妞仔乐园", "address": "006乡道上海华联东100米", "image": "", "rank": 20, "time": 2, "location": {"lat": 31.318429593256838, "lng": 121.41215292780456}, "feature": {"sight_features": "", "sight_content": ""}}, {"title": "咿咿呀呀儿童乐园", "address": "中国安徽省宿州市泗县人民路10号", "image": "", "rank": 21, "time": 2, "location": {"lat": 33.483795326425685, "lng": 117.89235748197284}, "feature": {"sight_features": "", "sight_content": ""}}, {"title": "欢乐海洋儿童乐园", "address": "花园井购物中心二楼", "image": "", "rank": 22, "time": 2, "location": {"lat": 32.157082803972116, "lng": 117.85054682218086}, "feature": {"sight_features": "", "sight_content": ""}}, {"title": "欢乐城水上乐园", "address": "东二环路108号(泗州学校南门对面马路南侧)", "image": "", "rank": 23, "time": 2, "location": {"lat": 33.4901535066702, "lng": 117.92389622307186}, "feature": {"sight_features": "", "sight_content": ""}}, {"title": "乐读少儿图书馆", "address": "泗城镇东门旁边", "image": "", "rank": 24, "time": 2, "location": {"lat": 33.492045014444, "lng": 117.87692343809054}, "feature": {"sight_features": "", "sight_content": ""}}, {"title": "泗州步行街", "address": "安徽省泗县泗州步行街", "image": "", "rank": 25, "time": 2, "location": {"lat": 33.483808123619305, "lng": 117.8996005192998}, "feature": {"sight_features": "", "sight_content": ""}}]}