{"cityName": "泗阳", "days": 2, "cityImage": "", "spots": [{"title": "妈祖文化园", "address": "泗阳船闸西南侧的情人岛上", "image": "", "rank": 1, "time": 2.0, "location": {"lat": 33.728328313046696, "lng": 118.70946596537884}, "feature": {"sight_features": "", "sight_content": ""}}, {"title": "中国杨树博物馆", "address": "宿迁市泗阳县农场境内", "image": "", "rank": 2, "time": 1.0, "location": {"lat": 33.728328313046696, "lng": 118.70946596537884}, "feature": {"sight_features": "", "sight_content": ""}}, {"title": "天后宫", "address": "宿迁市泗阳县众兴镇骡马街西首", "image": "", "rank": 3, "time": 1.5, "location": {"lat": 33.71360704108522, "lng": 118.68059121125273}, "feature": {"sight_features": "", "sight_content": ""}}, {"title": "梵音寺", "address": "江苏省宿迁市泗阳县佛缘路梵音寺念佛堂", "image": "", "rank": 4, "time": 1.0, "location": {"lat": 33.70270248634457, "lng": 118.67529734237388}, "feature": {"sight_features": "", "sight_content": ""}}, {"title": "洋河酒厂（泗阳基地）工业旅游区", "address": "宿迁市泗阳县来安中大街118号", "image": "", "rank": 5, "time": 1.5, "location": {"lat": 33.728328313046696, "lng": 118.70946596537884}, "feature": {"sight_features": "特色1 洋河酒厂（泗阳基地）工业旅游区位于泗阳县来安古镇，地域酿酒历史悠久，源于秦汉，被誉为“天然粮仓，大汉酒国”。 特色2 是一个融酿酒历史文化、科普教育、休闲购物为一体的综合型文化旅游区。 特色3 景区占地面积2.8平方公里，展现中国白酒传统文化内涵，着力打造以白酒酿造、品鉴体验为核心的特色工业旅游景区。", "sight_content": "洋河酒厂（泗阳基地）工业旅游区位于泗阳县来安古镇，地域酿酒历史悠久，源于秦汉，被誉为“天然粮仓，大汉酒国”。\n景区占地面积2.8平方公里，在展现中国白酒传统文化内涵的同时，着力打造以白酒酿造、品鉴体验为核心的特色工业旅游景区。\n景点有雄伟壮观的泗水古国酒文化广场、美轮美奂的五里井酒文化园、规模宏大的酿酒厂房、领跑行业的现代化包装物流园等，是一个融酿酒历史文化、科普教育、休闲购物为一体的综合型文化旅游区。"}}, {"title": "姿云阁家庭农厂", "address": "245省道钓鱼岛斜对面", "image": "", "rank": 6, "time": 2, "location": {"lat": 25.75094076877098, "lng": 123.47652822133098}, "feature": {"sight_features": "", "sight_content": ""}}, {"title": "葡提人家", "address": "城乡街道办建南居委会", "image": "", "rank": 7, "time": 2, "location": {"lat": 40.14284175991241, "lng": 117.1235733434761}, "feature": {"sight_features": "", "sight_content": ""}}, {"title": "泗阳县润达花卉专业合作社", "address": "泗水大道附近", "image": "", "rank": 8, "time": 1.0, "location": {"lat": 33.731081567952955, "lng": 118.65053642863582}, "feature": {"sight_features": "", "sight_content": ""}}, {"title": "宿迁骆马湖快艇", "address": "骆马湖中国水城欢乐岛", "image": "", "rank": 9, "time": 2.5, "location": {"lat": 34.05365109339023, "lng": 118.27759939314893}, "feature": {"sight_features": "", "sight_content": ""}}, {"title": "公益图书馆", "address": "解放中路46号附近", "image": "", "rank": 10, "time": 2, "location": {"lat": 30.92297153687129, "lng": 121.4738259623378}, "feature": {"sight_features": "", "sight_content": ""}}, {"title": "泗阳县乐观赏水产种植家庭农场", "address": "高渡镇周岗嘴村16组", "image": "", "rank": 11, "time": 1.0, "location": {"lat": 33.510238501091685, "lng": 118.62230644137425}, "feature": {"sight_features": "", "sight_content": ""}}, {"title": "幻走", "address": "振兴路与人民路交汇处海欣·哥伦布广场F2", "image": "", "rank": 12, "time": 2, "location": {"lat": 39.79090370924785, "lng": 116.35633906854353}, "feature": {"sight_features": "", "sight_content": ""}}, {"title": "开心哈乐儿童主题乐园", "address": "人民路锦都银座二楼", "image": "", "rank": 13, "time": 2, "location": {"lat": 33.72235173232971, "lng": 118.68898578012478}, "feature": {"sight_features": "", "sight_content": ""}}, {"title": "江苏泗阳经济开发区产品展示厅", "address": "江苏省泗阳县北京东路", "image": "", "rank": 14, "time": 2, "location": {"lat": 33.724760446419964, "lng": 118.73379837481237}, "feature": {"sight_features": "", "sight_content": ""}}, {"title": "啤酒广场", "address": "卢集镇中心小学斜对面", "image": "", "rank": 15, "time": null, "location": {"lat": 33.60469060424185, "lng": 118.6499578067009}, "feature": {"sight_features": "", "sight_content": ""}}, {"title": "青年广场", "address": "江苏省宿迁市泗阳县骡马古街", "image": "", "rank": 16, "time": 2, "location": {"lat": 33.71244302339034, "lng": 118.68312492326567}, "feature": {"sight_features": "", "sight_content": ""}}, {"title": "千琪儿童乐园", "address": "嘉宾大酒店附近", "image": "", "rank": 17, "time": 2, "location": {"lat": 32.35574502062742, "lng": 117.01900411341668}, "feature": {"sight_features": "", "sight_content": ""}}, {"title": "桃运人文纪念馆", "address": "建凌中路18-26号附近", "image": "", "rank": 18, "time": 2, "location": {"lat": 33.73128928477715, "lng": 118.69933606160059}, "feature": {"sight_features": "", "sight_content": ""}}, {"title": "淘气堡儿童乐园（佳源广场店）", "address": "淮海西路老众中西200米佳源广场好又多购物中心一楼", "image": "", "rank": 19, "time": 2, "location": {"lat": 30.43506796136828, "lng": 120.45007127223002}, "feature": {"sight_features": "", "sight_content": ""}}, {"title": "城南植物园", "address": "运河南路南100米", "image": "", "rank": 20, "time": null, "location": {"lat": 31.703943406306763, "lng": 120.56113541282156}, "feature": {"sight_features": "", "sight_content": ""}}, {"title": "南园景区-张相文故居", "address": "武南路与要梁线交叉口西100米", "image": "", "rank": 21, "time": 2, "location": {"lat": 33.67488870497625, "lng": 118.67579510782986}, "feature": {"sight_features": "", "sight_content": ""}}, {"title": "香堡乐派儿童乐园", "address": "江苏省宿迁市泗阳县三庄乡团结光大路三庄医院北200米", "image": "", "rank": 22, "time": 2, "location": {"lat": 33.846813058409104, "lng": 118.62333919896483}, "feature": {"sight_features": "", "sight_content": ""}}, {"title": "张祠堂", "address": "宿迁市泗阳县新区大道", "image": "", "rank": 23, "time": 2, "location": {"lat": 33.89025582981669, "lng": 118.71150807790484}, "feature": {"sight_features": "", "sight_content": ""}}, {"title": "悦来寺", "address": "江苏省宿迁市泗阳县众兴镇洋河北路福华·金色家园幼儿园", "image": "", "rank": 24, "time": 2, "location": {"lat": 33.73590048584101, "lng": 118.6822903803791}, "feature": {"sight_features": "", "sight_content": ""}}, {"title": "儿童主题乐园", "address": "江苏省宿迁市泗阳县黄河路", "image": "", "rank": 25, "time": 2, "location": {"lat": 33.72434521764539, "lng": 118.74847975725363}, "feature": {"sight_features": "", "sight_content": ""}}, {"title": "白鹭湾湿地", "address": "宿迁市泗阳县", "image": "", "rank": 26, "time": 2, "location": {"lat": 33.728328313046696, "lng": 118.70946596537884}, "feature": {"sight_features": "", "sight_content": ""}}, {"title": "福音堂", "address": "江苏省宿迁市泗阳县林科所84号", "image": "", "rank": 27, "time": 1.0, "location": {"lat": 33.728328313046696, "lng": 118.70946596537884}, "feature": {"sight_features": "", "sight_content": ""}}, {"title": "游乐设施", "address": "宿迁市泗阳县振兴路与人民路交汇处海欣·哥伦布广场F1", "image": "", "rank": 28, "time": null, "location": {"lat": 33.71616181551515, "lng": 118.68653505537145}, "feature": {"sight_features": "", "sight_content": ""}}, {"title": "旋转木马", "address": "爱园北路与运河大道交叉口西150米", "image": "", "rank": 29, "time": 0.15000000000000002, "location": {"lat": 33.708731391897366, "lng": 118.68592620725273}, "feature": {"sight_features": "", "sight_content": ""}}, {"title": "宝贝游乐场", "address": "宿迁市泗阳县振兴路与人民路交汇处海欣·哥伦布广场F3", "image": "", "rank": 30, "time": 2, "location": {"lat": 33.71616181551515, "lng": 118.68653505537145}, "feature": {"sight_features": "", "sight_content": ""}}, {"title": "忠魂园", "address": "爱园北路4号附近", "image": "", "rank": 31, "time": 2, "location": {"lat": 33.71248952782035, "lng": 118.68877670311055}, "feature": {"sight_features": "", "sight_content": ""}}, {"title": "泗水河公园", "address": "众兴镇文成路厚地和美小区三期49栋", "image": "", "rank": 32, "time": 2, "location": {"lat": 33.73499216752017, "lng": 118.69004591806731}, "feature": {"sight_features": "", "sight_content": ""}}, {"title": "东园区基督教堂", "address": "天津路与黄河路交叉口西南50米", "image": "", "rank": 33, "time": 2, "location": {"lat": 33.72689134759759, "lng": 118.74879212952014}, "feature": {"sight_features": "", "sight_content": ""}}, {"title": "大觉寺", "address": "城五线北150米", "image": "", "rank": 34, "time": 1.0, "location": {"lat": 33.6969098481582, "lng": 118.66774430610357}, "feature": {"sight_features": "", "sight_content": ""}}, {"title": "桃园广场", "address": "江苏省宿迁市泗阳县众兴镇解放中路金地如意里南50米", "image": "", "rank": 35, "time": 0.75, "location": {"lat": 33.71445504791428, "lng": 118.69297262706289}, "feature": {"sight_features": "", "sight_content": ""}}, {"title": "众兴绿地", "address": "北京西路29号附近", "image": "", "rank": 36, "time": 2, "location": {"lat": 31.709652207529782, "lng": 119.98650345633263}, "feature": {"sight_features": "", "sight_content": ""}}, {"title": "农场基督教会", "address": "徐一线附近", "image": "", "rank": 37, "time": null, "location": {"lat": 33.68710550326887, "lng": 118.69503207508863}, "feature": {"sight_features": "", "sight_content": ""}}, {"title": "城南石刻服务部", "address": "江苏省宿迁市泗阳县泗青路", "image": "", "rank": 38, "time": 2, "location": {"lat": 33.728328313046696, "lng": 118.70946596537884}, "feature": {"sight_features": "", "sight_content": ""}}, {"title": "其虎基督教会", "address": "其虎线附近", "image": "", "rank": 39, "time": 2, "location": {"lat": 33.29310570760415, "lng": 119.09641780648302}, "feature": {"sight_features": "", "sight_content": ""}}, {"title": "泗阳县博物院", "address": "府东路与文城东路交叉口西南150米", "image": "", "rank": 40, "time": 3.5, "location": {"lat": 33.729430747486916, "lng": 118.711771107148}, "feature": {"sight_features": "", "sight_content": ""}}, {"title": "平原林海自驾游", "address": "泗水大道附近", "image": "", "rank": 41, "time": 2, "location": {"lat": 33.731081567952955, "lng": 118.65053642863582}, "feature": {"sight_features": "", "sight_content": ""}}, {"title": "泗阳县市民商业广场", "address": "众兴镇北京路南侧", "image": "", "rank": 42, "time": 2, "location": {"lat": 41.2399607436899, "lng": 121.99147669085346}, "feature": {"sight_features": "", "sight_content": ""}}, {"title": "阿宝庄园", "address": "118乡道附近", "image": "", "rank": 43, "time": 2, "location": {"lat": 39.710263289214275, "lng": 119.00594792606393}, "feature": {"sight_features": "", "sight_content": ""}}, {"title": "林海渔村", "address": "江苏省宿迁市泗阳县众兴镇众临线白鹭湾湿地东南200米", "image": "", "rank": 44, "time": 2, "location": {"lat": 33.73176268940697, "lng": 118.60205202724401}, "feature": {"sight_features": "", "sight_content": ""}}, {"title": "王梅英书画工作中心", "address": "运河大道东道", "image": "", "rank": 45, "time": 2, "location": {"lat": 33.70801353371419, "lng": 118.70644383388046}, "feature": {"sight_features": "", "sight_content": ""}}, {"title": "烈士公园", "address": "爱园北路", "image": "", "rank": 46, "time": 2.0, "location": {"lat": 33.71248952782035, "lng": 118.68877670311055}, "feature": {"sight_features": "", "sight_content": ""}}, {"title": "中国棉花博物馆", "address": "迎宾大道", "image": "", "rank": 47, "time": 2, "location": {"lat": 40.09022363082665, "lng": 114.15469279026227}, "feature": {"sight_features": "", "sight_content": ""}}, {"title": "吉风画廊", "address": "桃源北路65号", "image": "", "rank": 48, "time": 2, "location": {"lat": 33.726748760120806, "lng": 118.70052701707961}, "feature": {"sight_features": "", "sight_content": ""}}, {"title": "泗阳图书馆", "address": "运河大道北首", "image": "", "rank": 49, "time": 2, "location": {"lat": 22.899028036641752, "lng": 113.04240332335736}, "feature": {"sight_features": "", "sight_content": ""}}, {"title": "欢乐世界主题乐园", "address": "桃源绿岛(泗阳大桥向东500米桥南)", "image": "", "rank": 50, "time": 2, "location": {"lat": 33.70961802386211, "lng": 118.68804674634129}, "feature": {"sight_features": "", "sight_content": ""}}, {"title": "泗阳妈祖庙水上游船", "address": "迎宾大道妈祖庙内", "image": "", "rank": 51, "time": 2, "location": {"lat": 40.09022363082665, "lng": 114.15469279026227}, "feature": {"sight_features": "", "sight_content": ""}}, {"title": "奶油草莓采摘园", "address": "红星美凯龙南门往东100米", "image": "", "rank": 52, "time": 2, "location": {"lat": 40.031080880467705, "lng": 116.44656135350643}, "feature": {"sight_features": "", "sight_content": ""}}, {"title": "月季园", "address": "国营农场", "image": "", "rank": 53, "time": 2, "location": {"lat": 32.20055692502535, "lng": 115.70659099844592}, "feature": {"sight_features": "", "sight_content": ""}}, {"title": "裴圩镇历史民俗展示馆", "address": "101县道与152乡道交叉口西", "image": "", "rank": 54, "time": 2, "location": {"lat": 48.196887921623045, "lng": 134.66380237077237}, "feature": {"sight_features": "", "sight_content": ""}}, {"title": "热带风暴水上乐园", "address": "众兴镇界湖社区南245省道西侧(泗阳西高速路口500米)", "image": "", "rank": 55, "time": 7.5, "location": {"lat": 33.8892787837599, "lng": 118.6833496191178}, "feature": {"sight_features": "", "sight_content": ""}}, {"title": "荷塘垂钓", "address": "庄卢线附近", "image": "", "rank": 56, "time": 2, "location": {"lat": 33.727994383081715, "lng": 118.79149945631286}, "feature": {"sight_features": "", "sight_content": ""}}, {"title": "德旺桃业(桃园采摘)", "address": "南刘集乡庄滩村红星组(B)", "image": "", "rank": 57, "time": 2, "location": {"lat": 33.782673901972224, "lng": 118.69940862671969}, "feature": {"sight_features": "", "sight_content": ""}}, {"title": "大成图书馆", "address": "沭泗路", "image": "", "rank": 58, "time": 2, "location": {"lat": 24.855002479223526, "lng": 109.5550336542474}, "feature": {"sight_features": "", "sight_content": ""}}, {"title": "清凉地采摘乐园", "address": "众兴镇西康北路", "image": "", "rank": 59, "time": 2, "location": {"lat": 33.213861627415625, "lng": 120.44248790647079}, "feature": {"sight_features": "", "sight_content": ""}}, {"title": "泗阳采摘园", "address": "农李线迎宾大道", "image": "", "rank": 60, "time": 2, "location": {"lat": 33.67390250517221, "lng": 118.71188835038993}, "feature": {"sight_features": "", "sight_content": ""}}]}