{"cityName": "四子王旗", "days": 2, "cityImage": "", "spots": [{"title": "乌兰察布岩画", "address": "分布于乌兰察布盟各地", "image": "", "rank": 1, "time": 2, "location": {"lat": 41.03931079414194, "lng": 113.12423196386135}, "feature": {"sight_features": "", "sight_content": ""}}, {"title": "唐代单于大都护府遗址", "address": "乌兰察布盟和林格尔县土城子", "image": "", "rank": 2, "time": 2, "location": {"lat": 40.384797744251024, "lng": 111.8284302182624}, "feature": {"sight_features": "", "sight_content": ""}}, {"title": "回忆", "address": "关井路祥瑞花园二期(原武装部巷)", "image": "", "rank": 3, "time": 2, "location": {"lat": 40.3356076210155, "lng": 106.99562703760215}, "feature": {"sight_features": "", "sight_content": ""}}, {"title": "乌兰陶勒盖", "address": "内蒙古自治区乌兰察布市四子王旗", "image": "", "rank": 4, "time": 2, "location": {"lat": 41.53935334991468, "lng": 111.71241927182069}, "feature": {"sight_features": "", "sight_content": ""}}, {"title": "童爱岛游乐园", "address": "新华街甲第广场北口三楼", "image": "", "rank": 5, "time": 2, "location": {"lat": 36.452429740205304, "lng": 115.9764506818169}, "feature": {"sight_features": "", "sight_content": ""}}, {"title": "天主堂", "address": "310省道天主堂(南门)附近", "image": "", "rank": 6, "time": 0.4, "location": {"lat": 28.733812618125114, "lng": 118.63114727304615}, "feature": {"sight_features": "", "sight_content": ""}}, {"title": "成吉思汗边墙遗迹", "address": "乌兰察布市四子王旗", "image": "", "rank": 7, "time": 2, "location": {"lat": 41.53935334991468, "lng": 111.71241927182069}, "feature": {"sight_features": "", "sight_content": ""}}, {"title": "淖干塔拉蒙古营", "address": "内蒙古自治区乌兰察布市四子王旗格根塔拉草原旅游区北850米", "image": "", "rank": 8, "time": 2, "location": {"lat": 41.78974809112173, "lng": 111.85327591137957}, "feature": {"sight_features": "", "sight_content": ""}}, {"title": "百老汇休闲广场", "address": "新华街68号", "image": "", "rank": 9, "time": 2, "location": {"lat": 38.04095723602939, "lng": 114.85065846774646}, "feature": {"sight_features": "", "sight_content": ""}}, {"title": "青海云阁度假村", "address": "101省道附近", "image": "", "rank": 10, "time": 2, "location": {"lat": 41.03241923348195, "lng": 111.82384508727836}, "feature": {"sight_features": "", "sight_content": ""}}, {"title": "四子王旗规划展览馆", "address": "乌王路", "image": "", "rank": 11, "time": 2, "location": {"lat": 41.54384281999315, "lng": 111.72752841117634}, "feature": {"sight_features": "", "sight_content": ""}}, {"title": "乌兰花公园", "address": "团结路", "image": "", "rank": 12, "time": 2, "location": {"lat": 39.09559418426625, "lng": 117.10726754529976}, "feature": {"sight_features": "", "sight_content": ""}}, {"title": "四子王旗博物馆", "address": "新华街", "image": "", "rank": 13, "time": 2, "location": {"lat": 39.02127929745047, "lng": 117.67844309976273}, "feature": {"sight_features": "", "sight_content": ""}}, {"title": "乌兰花生态公园", "address": "乌兰花镇东梁", "image": "", "rank": 14, "time": 2, "location": {"lat": 41.700846740611865, "lng": 111.56326512799504}, "feature": {"sight_features": "", "sight_content": ""}}, {"title": "乌兰花清真寺", "address": "和平路", "image": "", "rank": 15, "time": 2, "location": {"lat": 39.14914859962243, "lng": 117.01253630655839}, "feature": {"sight_features": "", "sight_content": ""}}, {"title": "男人代码", "address": "四子王旗乌兰花镇新华街华丰购物广场", "image": "", "rank": 16, "time": 2, "location": {"lat": 41.52845379602524, "lng": 111.71110553324966}, "feature": {"sight_features": "", "sight_content": ""}}, {"title": "四子王旗温州商业街", "address": "内蒙古自治区四子王旗迎宾路", "image": "", "rank": 17, "time": 2, "location": {"lat": 41.273968184604854, "lng": 112.64977224306226}, "feature": {"sight_features": "", "sight_content": ""}}, {"title": "准恩格日哈布其拉", "address": "乌兰察布市-四子王旗", "image": "", "rank": 18, "time": 2, "location": {"lat": 41.53935334991468, "lng": 111.71241927182069}, "feature": {"sight_features": "", "sight_content": ""}}, {"title": "格根塔拉草原旅游中心", "address": "内蒙古自治区乌兰察布市四子王旗", "image": "", "rank": 19, "time": 2, "location": {"lat": 41.53935334991468, "lng": 111.71241927182069}, "feature": {"sight_features": "", "sight_content": ""}}]}