{"cityName": "松桃", "days": 2, "cityImage": "", "spots": [{"title": "南长城", "address": "铜仁市松桃苗族自治县", "image": "", "rank": 1, "time": null, "location": {"lat": 28.16042017901075, "lng": 109.20940351278404}, "feature": {"sight_features": "", "sight_content": ""}}, {"title": "垂钓部落", "address": "市松桃苗族自治县德才路与麻阳街交叉口南50米", "image": "", "rank": 2, "time": 2, "location": {"lat": 28.170501911585596, "lng": 109.21177022890357}, "feature": {"sight_features": "", "sight_content": ""}}, {"title": "南长城演艺公司", "address": "304省道洞老壳附近", "image": "", "rank": 3, "time": 2, "location": {"lat": 28.15399650219339, "lng": 109.20681396749126}, "feature": {"sight_features": "", "sight_content": ""}}, {"title": "虎渡口", "address": "贵州省松桃苗族自治县长兴堡 554108", "image": "", "rank": 4, "time": 2, "location": {"lat": 28.16042017901075, "lng": 109.20940351278404}, "feature": {"sight_features": "", "sight_content": ""}}, {"title": "月亮湾生态园", "address": "婆洞村南", "image": "", "rank": 5, "time": 2, "location": {"lat": 27.872628000487694, "lng": 109.2351631688677}, "feature": {"sight_features": "", "sight_content": ""}}, {"title": "大兴森林公园", "address": "松桃苗族自治县凤凰机场旁", "image": "", "rank": 6, "time": 4.0, "location": {"lat": 28.16042017901075, "lng": 109.20940351278404}, "feature": {"sight_features": "", "sight_content": ""}}, {"title": "公园中路", "address": "贵州省铜仁市松桃苗族自治县", "image": "", "rank": 7, "time": 2, "location": {"lat": 28.16042017901075, "lng": 109.20940351278404}, "feature": {"sight_features": "", "sight_content": ""}}, {"title": "观音阁", "address": "铜仁市松桃苗族自治县", "image": "", "rank": 8, "time": 1.0, "location": {"lat": 28.16042017901075, "lng": 109.20940351278404}, "feature": {"sight_features": "", "sight_content": ""}}, {"title": "麻兔村平安寺", "address": "326国道附近", "image": "", "rank": 9, "time": 2, "location": {"lat": 28.504838334466942, "lng": 108.62811511625138}, "feature": {"sight_features": "", "sight_content": ""}}, {"title": "镇江寺", "address": "304省道附近", "image": "", "rank": 10, "time": 1.0, "location": {"lat": 38.007414201086036, "lng": 114.44892402313616}, "feature": {"sight_features": "", "sight_content": ""}}, {"title": "新村文化广场", "address": "201省道附近", "image": "", "rank": 11, "time": 2, "location": {"lat": 38.686331107748025, "lng": 113.87626234527481}, "feature": {"sight_features": "", "sight_content": ""}}, {"title": "松桃牛角河度假村", "address": "松桃县蓼皋镇牛角河", "image": "", "rank": 12, "time": 2, "location": {"lat": 28.149116930682425, "lng": 109.18286919396101}, "feature": {"sight_features": "", "sight_content": ""}}, {"title": "恒丰农业观光园", "address": "迓大路附近", "image": "", "rank": 13, "time": 2, "location": {"lat": 27.907026789377852, "lng": 109.31179900606877}, "feature": {"sight_features": "", "sight_content": ""}}, {"title": "杨芳路商业休闲步行街", "address": "贵州省松桃苗族自治县杨芳路", "image": "", "rank": 14, "time": 2, "location": {"lat": 28.1703210157566, "lng": 109.20836763807367}, "feature": {"sight_features": "", "sight_content": ""}}, {"title": "河滨休闲街", "address": "贵州省松桃苗族自治县河滨北路", "image": "", "rank": 15, "time": 2, "location": {"lat": 28.16042017901075, "lng": 109.20940351278404}, "feature": {"sight_features": "", "sight_content": ""}}, {"title": "中午郎", "address": "铜仁市-松桃苗族自治县", "image": "", "rank": 16, "time": 2, "location": {"lat": 28.16042017901075, "lng": 109.20940351278404}, "feature": {"sight_features": "", "sight_content": ""}}, {"title": "下午郎村", "address": "铜仁市-松桃苗族自治县", "image": "", "rank": 17, "time": 2, "location": {"lat": 28.16042017901075, "lng": 109.20940351278404}, "feature": {"sight_features": "", "sight_content": ""}}, {"title": "松桃县大兴镇良种猪繁殖基地", "address": "铜仁市-松桃苗族自治县-201省道西50米", "image": "", "rank": 18, "time": 2, "location": {"lat": 28.16042017901075, "lng": 109.20940351278404}, "feature": {"sight_features": "", "sight_content": ""}}, {"title": "石家坉", "address": "铜仁市-松桃苗族自治县", "image": "", "rank": 19, "time": 2, "location": {"lat": 28.16042017901075, "lng": 109.20940351278404}, "feature": {"sight_features": "", "sight_content": ""}}, {"title": "石家哨", "address": "铜仁市-松桃苗族自治县", "image": "", "rank": 20, "time": 2, "location": {"lat": 28.16042017901075, "lng": 109.20940351278404}, "feature": {"sight_features": "", "sight_content": ""}}]}