{"cityName": "松潘", "days": 2, "cityImage": "", "spots": [{"title": "黄龙风景名胜区", "address": "阿坝藏族羌族自治州松潘县平松路附近", "image": "", "rank": 1, "time": 2.0, "location": {"lat": 32.78153275076328, "lng": 103.90525013236693}, "feature": {"sight_features": "特色1 此景只应天上有，人间何来黄龙池！ 特色2 景观奇特、资源丰富、生态原始 特色3 彩池、滩流、雪山、峡谷、古寺、民俗", "sight_content": "黄龙风景区位于四川省阿坝藏族羌族自治州松潘县境内，西距松潘县城56公里，东离平武县122公里，总面积4万公顷。主景区黄龙沟位于岷山主峰雪宝顶下。获得世界生物圈保护区和“绿色环球21”认证、国家地质公园、国家AAAAA级旅游景区等殊荣。1992年12月，联合国教科文组织将四川黄龙国家级风景名胜区作为“世界自然遗产”列入《世界遗产名录》。\n\n黄龙面积700平方公里，由黄龙本部和牟尼沟两部份组成。黄龙本部主要由黄龙沟、丹云峡、雪宝顶等景区构成，牟尼沟部分主要是扎嘎瀑布和二道海两个景区。主要因佛门名刹黄龙寺而得名，以彩池、雪山、峡谷、森林“四绝”著称于世，是中国保护完好的高原湿地，它是一条长约7公里，宽约300米的钙化山峡，这里山势如龙，又称“藏龙山”。这一地区还生存着许多濒临灭绝的动物，如大熊猫和四川疣鼻金丝猴。\n黄龙沟背倚终年积雪的岷山主峰雪宝顶，面临碧澄的涪江源流。沟谷顶端的玉翠峰麓，高山雪水和涌出地表的岩溶水交融流淌。随着流速缓急、地势起伏和枯枝乱石的阻隔，水中富含的碳酸钙开始凝聚，发育成固体的钙化埂，使流水潴留成层叠相连的大片彩池群，绘出了黄龙奇观的第一幅天然图画。碳酸钙沉积过程中，又与各种有机物、无机物结成不同质的钙化体，还有光线照射的种种变化，形成池水同源而色泽不一，人们便称它为“五彩池”。黄龙风景区是一个景观奇特、资源丰富、生态原始、保存完好、具有重要科学和美学价值的风景名胜区，这里有似加拿大的雪山，怀俄明州的峡谷，科罗拉多的原始森林，黄石公园的钙化彩池。多类景观，集中一地，堪称世界奇观。"}}, {"title": "松潘古城", "address": "阿坝藏族羌族自治州松潘县进安镇", "image": "", "rank": 2, "time": 1.0, "location": {"lat": 32.64000189837969, "lng": 103.61158360487902}, "feature": {"sight_features": "特色1 松潘古城规模宏伟，气势非凡。 特色2 松潘古城城墙厚重坚实，石雕精美，城墙厚度位居前列。 特色3 一座兼具军事戍边和汉唐文化的高原古城。", "sight_content": "汉唐边城.古松州，位于四川阿坝松潘县境内，是松潘县城所在地，是镶嵌在九环旅游带上一颗熠熠生辉的古老的明珠，是整个川西北高原兼具军事戍边和汉唐文化的高原古城。松州古城以其独有浓郁的军事防御，军事要塞雄居川西高原一千余载。\n松州古城始建于唐代，现存的松州古城，为明代遗存，明世宗嘉靖五年，总兵何卿增修外城1.35公里。松州具备了内城外廓的规模，城墙全长6.212公里，有城门七道：东门名为“觐阳门”、南门名为“延薰门”、西门名为“威远门”、北门名为“镇羌门”、外城南城门称“埠清门”（至今仍保留有完整的瓮城门）、西南山麓开小西门、外城临江开“临江门”。  1991年，松州古城墙被四川省人民政府列为四川省重点文物保护单位。2001年，松州古城墙被国务院列为全国重点文物保护单位。目前，正在积极申报国家级历史文化名城。\n松州古城景区由游人中心、文成公主塑像、汉唐乐府、古城墙、琴鹤楼等部分组成。目前已经完成了古城墙上有关项目的开发与打造，游客们在城墙上能免费体验到射箭、品藏马茶、“穿越唐朝”、“边关巡防”等娱乐性、参与性的节目，更能感受到汉唐时期古松州悠久的历史和灿烂的文化带来的不一样的震撼。在这里能实现“畅游松州，悠享美食；宿茶马古道，感边城风情；行丝绸之路，悟岁月沧桑；观《汉唐松州梦，展高原古风》”的一次心灵之旅。"}}, {"title": "争艳池", "address": "阿坝藏族羌族自治州松潘县黄龙风景区黄龙主沟内", "image": "", "rank": 3, "time": 1.0, "location": {"lat": 32.745594869860035, "lng": 103.84180551001204}, "feature": {"sight_features": "", "sight_content": ""}}, {"title": "迎宾池", "address": "阿坝藏族羌族自治州松潘县黄龙风景区黄龙主沟内", "image": "", "rank": 4, "time": 1.0, "location": {"lat": 32.745594869860035, "lng": 103.84180551001204}, "feature": {"sight_features": "特色1 穿过原始森林，一片彩池映入眼帘，色彩艳丽，豁然开朗。", "sight_content": "进入黄龙景区，首先看到的是一组精巧别致、水质明丽的池群--迎宾池。池子大小不一，形状奇特，色彩艳丽，错落有效，四周山岳环峙，林木葱茏，山间野花竞放，彩蝶飞舞。山间石径曲折盘旋，点缀着观景亭阁，倍添情趣。"}}, {"title": "黄龙寺", "address": "阿坝藏族羌族自治州松潘县黄龙风景区内", "image": "", "rank": 5, "time": 1.5, "location": {"lat": 32.745594869860035, "lng": 103.84180551001204}, "feature": {"sight_features": "", "sight_content": ""}}, {"title": "川主寺", "address": "松潘县川主寺镇(九寨沟景区、黄龙景区、若尔盖大草原的中心位置上)", "image": "", "rank": 6, "time": 3.0, "location": {"lat": 32.82810228104763, "lng": 103.51422599930116}, "feature": {"sight_features": "", "sight_content": ""}}, {"title": "二道海", "address": "阿坝藏族羌族自治州松潘县牟尼沟景区北部，与扎嘎瀑布仅一山之隔", "image": "", "rank": 7, "time": 2.0, "location": {"lat": 32.51422116666011, "lng": 103.64544139890633}, "feature": {"sight_features": "", "sight_content": ""}}, {"title": "黄龙五彩池", "address": "阿坝藏族羌族自治州松潘县黄龙风景区黄龙主沟内", "image": "", "rank": 8, "time": 1.5, "location": {"lat": 32.745594869860035, "lng": 103.84180551001204}, "feature": {"sight_features": "", "sight_content": ""}}, {"title": "丹云峡", "address": "阿坝藏族羌族自治州松潘县，黄龙主沟东行18公里（平松路）", "image": "", "rank": 9, "time": 3.0, "location": {"lat": 32.78153275076328, "lng": 103.90525013236693}, "feature": {"sight_features": "", "sight_content": ""}}, {"title": "牟尼沟扎嘎瀑布", "address": "阿坝藏族羌族自治州松潘县西南牟尼乡镜内", "image": "", "rank": 10, "time": 1.0, "location": {"lat": 32.62787445195105, "lng": 103.55526266379455}, "feature": {"sight_features": "", "sight_content": ""}}, {"title": "雪宝鼎", "address": "阿坝藏族羌族自治州松潘县黄龙风景名胜区城东25公里（黄龙本部内）", "image": "", "rank": 11, "time": 3.5, "location": {"lat": 32.66179655985326, "lng": 103.61057968918345}, "feature": {"sight_features": "", "sight_content": ""}}, {"title": "牟尼沟风景区", "address": "阿坝藏族羌族自治州松潘县牟尼乡（近2093县道）", "image": "", "rank": 12, "time": 3.0, "location": {"lat": 32.62787445195105, "lng": 103.55526266379455}, "feature": {"sight_features": "", "sight_content": ""}}, {"title": "红星岩", "address": "阿坝藏族羌族自治州松潘县黄龙风景名胜区内", "image": "", "rank": 13, "time": 1.0, "location": {"lat": 32.66179655985326, "lng": 103.61057968918345}, "feature": {"sight_features": "", "sight_content": ""}}, {"title": "黄龙主沟", "address": "阿坝藏族羌族自治州松潘县黄龙乡，岷山主峰雪宝顶脚下", "image": "", "rank": 14, "time": 2.5, "location": {"lat": 32.78865998947629, "lng": 103.91576418481857}, "feature": {"sight_features": "", "sight_content": ""}}, {"title": "七藏沟", "address": "阿坝藏族羌族自治州松潘县川主寺镇北部，毗邻黄龙机场", "image": "", "rank": 15, "time": 2.5, "location": {"lat": 32.85605758297771, "lng": 103.69488772739754}, "feature": {"sight_features": "", "sight_content": ""}}, {"title": "飞瀑流辉", "address": "松潘县黄龙风景区黄龙主沟内", "image": "", "rank": 16, "time": 2, "location": {"lat": 32.745594869860035, "lng": 103.84180551001204}, "feature": {"sight_features": "", "sight_content": ""}}, {"title": "盆景池", "address": "松潘县黄龙风景区黄龙主沟内", "image": "", "rank": 17, "time": 2, "location": {"lat": 32.745594869860035, "lng": 103.84180551001204}, "feature": {"sight_features": "", "sight_content": ""}}, {"title": "红军长征纪念碑碑园", "address": "阿坝藏族羌族自治州松潘县120县道川主寺镇元宝山内", "image": "", "rank": 18, "time": 1.0, "location": {"lat": 32.74637685265355, "lng": 103.70916898839518}, "feature": {"sight_features": "", "sight_content": ""}}, {"title": "黄龙洞", "address": "松潘县黄龙风景区，黄龙主沟内", "image": "", "rank": 19, "time": 2.0, "location": {"lat": 32.745594869860035, "lng": 103.84180551001204}, "feature": {"sight_features": "", "sight_content": "黄龙洞内遍布着千姿百态的钟乳石。洞内左侧有一石阶，上有建于明朝的三尊坐佛，身上披满钙华结晶，是自然与人工结合的产物。每年冬季，洞内冰林、冰笋、冰幔、冰瀑构成一幅冰晶画面，景象绚丽。"}}, {"title": "七藏沟长海子", "address": "位于松潘和九寨沟景区之间的七藏沟", "image": "", "rank": 20, "time": 2, "location": {"lat": 33.257591509496066, "lng": 104.24954673402509}, "feature": {"sight_features": "", "sight_content": ""}}, {"title": "四沟景区", "address": "阿坝藏族羌族自治州松潘县黄龙乡黄龙风景名胜区内", "image": "", "rank": 21, "time": 2.5, "location": {"lat": 32.78865998947629, "lng": 103.91576418481857}, "feature": {"sight_features": "", "sight_content": ""}}, {"title": "松潘骑马游", "address": "阿坝藏族羌族自治州松潘县城", "image": "", "rank": 22, "time": 1.0, "location": {"lat": 32.66179655985326, "lng": 103.61057968918345}, "feature": {"sight_features": "", "sight_content": ""}}, {"title": "鱼海子", "address": "位于松潘和九寨沟景区之间的七藏沟景区内", "image": "", "rank": 23, "time": 2, "location": {"lat": 33.257591509496066, "lng": 104.24954673402509}, "feature": {"sight_features": "", "sight_content": ""}}, {"title": "金沙铺地", "address": "阿坝藏族羌族自治州松潘县黄龙乡黄龙风景名胜区内", "image": "", "rank": 24, "time": 0.75, "location": {"lat": 32.78865998947629, "lng": 103.91576418481857}, "feature": {"sight_features": "", "sight_content": ""}}, {"title": "德勒达格景区", "address": "阿坝州松潘县川主寺镇山巴乡", "image": "", "rank": 25, "time": 2, "location": {"lat": 32.78326405176829, "lng": 103.62667350253061}, "feature": {"sight_features": "", "sight_content": ""}}, {"title": "岷江源歌舞大剧院", "address": "阿坝州松潘县川主寺（岷江源国际大酒店旁）", "image": "", "rank": 26, "time": 2, "location": {"lat": 32.78326405176829, "lng": 103.62667350253061}, "feature": {"sight_features": "", "sight_content": ""}}, {"title": "松潘清真北寺", "address": "阿坝藏族羌族自治州松潘县顺城北路清真古寺(进安回族乡顺江二村村委会南)附近", "image": "", "rank": 27, "time": 0.75, "location": {"lat": 32.65043008600089, "lng": 103.60646841435593}, "feature": {"sight_features": "", "sight_content": ""}}, {"title": "热舞狂吧", "address": "阿坝藏族羌族自治州松潘县顺城南路", "image": "", "rank": 28, "time": 2, "location": {"lat": 32.63184940612189, "lng": 103.60127132621781}, "feature": {"sight_features": "", "sight_content": ""}}, {"title": "洗身洞", "address": "阿坝藏族羌族自治州松潘县黄龙乡黄龙风景名胜区内", "image": "", "rank": 29, "time": null, "location": {"lat": 32.78865998947629, "lng": 103.91576418481857}, "feature": {"sight_features": "", "sight_content": ""}}, {"title": "薰衣草基地", "address": "阿坝藏族羌族自治州松潘县川主寺镇山巴乡上磨村", "image": "", "rank": 30, "time": 2, "location": {"lat": 32.78326405176829, "lng": 103.62667350253061}, "feature": {"sight_features": "", "sight_content": ""}}, {"title": "岷江", "address": "四川省松潘县境内", "image": "", "rank": 31, "time": 2, "location": {"lat": 32.66179655985326, "lng": 103.61057968918345}, "feature": {"sight_features": "", "sight_content": ""}}, {"title": "镰刀坝草原", "address": "阿坝藏族羌族自治州松潘县境内，川主寺往若尔盖方向行车45公里处。", "image": "", "rank": 32, "time": 2, "location": {"lat": 32.78326405176829, "lng": 103.62667350253061}, "feature": {"sight_features": "", "sight_content": ""}}, {"title": "珍珠湖", "address": "阿坝藏族羌族自治州松潘县牟尼沟景区内", "image": "", "rank": 33, "time": 2.0, "location": {"lat": 32.51422116666011, "lng": 103.64544139890633}, "feature": {"sight_features": "", "sight_content": ""}}, {"title": "石林群", "address": "阿坝藏族羌族自治州松潘县牟尼沟景区内", "image": "", "rank": 34, "time": 0.5, "location": {"lat": 32.51422116666011, "lng": 103.64544139890633}, "feature": {"sight_features": "", "sight_content": ""}}, {"title": "五座海", "address": "阿坝藏族羌族自治州松潘县牟尼沟景区内", "image": "", "rank": 35, "time": 0.6, "location": {"lat": 32.51422116666011, "lng": 103.64544139890633}, "feature": {"sight_features": "", "sight_content": ""}}, {"title": "翡翠泉", "address": "阿坝藏族羌族自治州松潘县牟尼沟景区内", "image": "", "rank": 36, "time": 0.4, "location": {"lat": 32.51422116666011, "lng": 103.64544139890633}, "feature": {"sight_features": "", "sight_content": ""}}, {"title": "人参湖", "address": "阿坝藏族羌族自治州松潘县牟尼沟景区内", "image": "", "rank": 37, "time": 0.6, "location": {"lat": 32.51422116666011, "lng": 103.64544139890633}, "feature": {"sight_features": "", "sight_content": ""}}, {"title": "溅玉台", "address": "阿坝藏族羌族自治州松潘县牟尼沟景区内", "image": "", "rank": 38, "time": 0.3, "location": {"lat": 32.51422116666011, "lng": 103.64544139890633}, "feature": {"sight_features": "", "sight_content": ""}}, {"title": "头道海", "address": "阿坝藏族羌族自治州松潘县牟尼沟景区内", "image": "", "rank": 39, "time": 0.6, "location": {"lat": 32.51422116666011, "lng": 103.64544139890633}, "feature": {"sight_features": "", "sight_content": ""}}, {"title": "野鸭湖", "address": "阿坝藏族羌族自治州松潘县牟尼沟景区内", "image": "", "rank": 40, "time": 1.0, "location": {"lat": 32.51422116666011, "lng": 103.64544139890633}, "feature": {"sight_features": "", "sight_content": ""}}, {"title": "尕里台草原", "address": "位于四川省西北松潘县境内", "image": "", "rank": 41, "time": 3.0, "location": {"lat": 32.66179655985326, "lng": 103.61057968918345}, "feature": {"sight_features": "", "sight_content": ""}}, {"title": "德吉梅朵风情街", "address": "四川省阿坝藏族羌族自治州松潘县川主寺镇", "image": "", "rank": 42, "time": 2, "location": {"lat": 32.78375664813863, "lng": 103.62904300070312}, "feature": {"sight_features": "", "sight_content": ""}}, {"title": "古松桥", "address": "松潘古城内", "image": "", "rank": 43, "time": 2, "location": {"lat": 32.66179655985326, "lng": 103.61057968918345}, "feature": {"sight_features": "", "sight_content": ""}}, {"title": "寒盼村", "address": "四川省阿坝藏族羌族自治州松潘县301省道 附近", "image": "", "rank": 44, "time": 2, "location": {"lat": 32.92440432836563, "lng": 103.69871720378659}, "feature": {"sight_features": "", "sight_content": ""}}, {"title": "毛尔盖会议会址", "address": "阿坝藏族羌族自治州松潘县上八寨乡索花喇嘛庙", "image": "", "rank": 45, "time": 1.0, "location": {"lat": 32.60462936894255, "lng": 103.07019972833214}, "feature": {"sight_features": "", "sight_content": ""}}, {"title": "奇峡沟冰雪欢乐谷", "address": "阿坝藏族羌族自治州松潘县", "image": "", "rank": 46, "time": 2.5, "location": {"lat": 32.66179655985326, "lng": 103.61057968918345}, "feature": {"sight_features": "", "sight_content": ""}}, {"title": "大九寨岷江漂流", "address": "藏族羌族自治州汶川县威州镇", "image": "", "rank": 47, "time": 2, "location": {"lat": 31.438059968960822, "lng": 103.57064785063677}, "feature": {"sight_features": "", "sight_content": ""}}, {"title": "松潘县香坝头", "address": "进安镇", "image": "", "rank": 48, "time": 2, "location": {"lat": 32.64000189837969, "lng": 103.61158360487902}, "feature": {"sight_features": "", "sight_content": ""}}, {"title": "松潘历史文化展览馆", "address": "松潘人大常委会南200米", "image": "", "rank": 49, "time": 1.0, "location": {"lat": 32.66030362829044, "lng": 103.61092400968542}, "feature": {"sight_features": "", "sight_content": ""}}, {"title": "觐阳门", "address": "滨江路与顺城南路交叉口北200米", "image": "", "rank": 50, "time": 2, "location": {"lat": 32.641615268303376, "lng": 103.60501784768623}, "feature": {"sight_features": "", "sight_content": ""}}, {"title": "外城农家乐", "address": "外城村", "image": "", "rank": 51, "time": 2, "location": {"lat": 26.653918684584248, "lng": 120.09153860183743}, "feature": {"sight_features": "", "sight_content": ""}}, {"title": "黄龙国家地质公园-入口广场", "address": "阿坝藏族羌族自治州松潘县平松路附近黄龙国家地质公园内", "image": "", "rank": 52, "time": 2, "location": {"lat": 32.74931073003647, "lng": 103.83922701297787}, "feature": {"sight_features": "", "sight_content": ""}}, {"title": "藏文化博览馆", "address": "金星路21号(近310省道)", "image": "", "rank": 53, "time": 2, "location": {"lat": 39.76861656463651, "lng": 116.36074982136026}, "feature": {"sight_features": "", "sight_content": ""}}, {"title": "雪山梁", "address": "四川省松潘县黄龙乡", "image": "", "rank": 54, "time": 1.5, "location": {"lat": 32.78865998947629, "lng": 103.91576418481857}, "feature": {"sight_features": "", "sight_content": ""}}, {"title": "湿地花乡生态园", "address": "阿坝藏族羌族自治州-松潘县-151乡道", "image": "", "rank": 55, "time": 2, "location": {"lat": 32.558349949856975, "lng": 103.56129981670321}, "feature": {"sight_features": "", "sight_content": ""}}, {"title": "小姓乡党员群众活动中心", "address": "阿坝藏族羌族自治州-松潘县-松黑路", "image": "", "rank": 56, "time": 2, "location": {"lat": 32.703567076408824, "lng": 103.27464855219714}, "feature": {"sight_features": "", "sight_content": ""}}, {"title": "牛棚子牧点", "address": "阿坝藏族羌族自治州-松潘县", "image": "", "rank": 57, "time": 2, "location": {"lat": 32.66179655985326, "lng": 103.61057968918345}, "feature": {"sight_features": "", "sight_content": ""}}]}