{"cityName": "嵩明", "days": 2, "cityImage": "", "spots": [{"title": "海潮寺森林公园", "address": "昆明市嵩明县101省道", "image": "", "rank": 1, "time": 2.5, "location": {"lat": 25.253284421272944, "lng": 103.12136483289133}, "feature": {"sight_features": "", "sight_content": ""}}, {"title": "丰泽源植物园", "address": "昆明市嵩明县061乡道", "image": "", "rank": 2, "time": 2.0, "location": {"lat": 25.27542951033108, "lng": 102.88741436798584}, "feature": {"sight_features": "", "sight_content": ""}}, {"title": "法界寺森林公园", "address": "昆明市嵩明县", "image": "", "rank": 3, "time": 2.5, "location": {"lat": 25.344409459134855, "lng": 103.04356394015612}, "feature": {"sight_features": "", "sight_content": ""}}, {"title": "香炉山", "address": "昆明市嵩明县", "image": "", "rank": 4, "time": 4.5, "location": {"lat": 25.344409459134855, "lng": 103.04356394015612}, "feature": {"sight_features": "", "sight_content": ""}}, {"title": "地藏寺经幢", "address": "昆明市嵩明县黄龙街", "image": "", "rank": 5, "time": 2, "location": {"lat": 25.347097472796367, "lng": 103.0555015130912}, "feature": {"sight_features": "", "sight_content": ""}}, {"title": "花仙子花园", "address": "小街镇云南花卉示范园区", "image": "", "rank": 6, "time": 2, "location": {"lat": 22.56498220838064, "lng": 113.90216267387247}, "feature": {"sight_features": "", "sight_content": ""}}, {"title": "嵩明乔华绿山源花卉", "address": "西山大村子", "image": "", "rank": 7, "time": 2, "location": {"lat": 25.043198760946844, "lng": 102.67155712350362}, "feature": {"sight_features": "", "sight_content": ""}}, {"title": "桃李多肉花园餐厅", "address": "嵩阳镇小山脚村委会67号(法界寺二天门与三天门中间)", "image": "", "rank": 8, "time": 2, "location": {"lat": 30.43789567544116, "lng": 120.94561562560318}, "feature": {"sight_features": "", "sight_content": ""}}, {"title": "707club 酒吧 密室逃脱", "address": "杨林镇职教园区龙保安置房二期三排19-20号", "image": "", "rank": 9, "time": 2, "location": {"lat": 25.24581699568066, "lng": 103.0212900058908}, "feature": {"sight_features": "", "sight_content": ""}}, {"title": "黑龙宫（云南丰泽源植物园）", "address": "白邑乡", "image": "", "rank": 10, "time": 2, "location": {"lat": 25.297784419181646, "lng": 102.88556530131456}, "feature": {"sight_features": "", "sight_content": ""}}, {"title": "嵩明嘉丽泽葡萄基地", "address": "021乡道附近", "image": "", "rank": 11, "time": 2, "location": {"lat": 43.34350294480735, "lng": 128.2356115137673}, "feature": {"sight_features": "", "sight_content": ""}}, {"title": "国营马场", "address": "016乡道附近", "image": "", "rank": 12, "time": 2, "location": {"lat": 40.09290812128219, "lng": 116.66926323689323}, "feature": {"sight_features": "", "sight_content": ""}}, {"title": "五彩农家乐", "address": "嵩阳街道长松园林场", "image": "", "rank": 13, "time": 2, "location": {"lat": 25.297911802760158, "lng": 102.97653517944873}, "feature": {"sight_features": "", "sight_content": ""}}, {"title": "杨林广场", "address": "杨林镇汽车客运站北100米", "image": "", "rank": 14, "time": 2, "location": {"lat": 38.09837992324252, "lng": 114.35179588610761}, "feature": {"sight_features": "", "sight_content": ""}}, {"title": "昆明康乐竞技垂钓园", "address": "龙源路", "image": "", "rank": 15, "time": 2.0, "location": {"lat": 39.64250619159323, "lng": 118.1369337045957}, "feature": {"sight_features": "", "sight_content": ""}}, {"title": "星耀水乡垂钓中心", "address": "杨林镇嘉丽泽", "image": "", "rank": 16, "time": 2, "location": {"lat": 25.2736926254346, "lng": 103.11246664520755}, "feature": {"sight_features": "", "sight_content": ""}}, {"title": "国际垂钓俱乐部", "address": "2号路", "image": "", "rank": 17, "time": 2, "location": {"lat": 39.150463745310965, "lng": 117.3111627183264}, "feature": {"sight_features": "", "sight_content": ""}}, {"title": "福郎里会议休闲度假庄园", "address": "昆曲高速公路41公里处军马场出口官军路3公里处", "image": "", "rank": 18, "time": 2, "location": {"lat": 25.25164404217338, "lng": 103.03143635135146}, "feature": {"sight_features": "", "sight_content": ""}}, {"title": "生命纪念馆", "address": "云南省昆明市嵩明县063乡道", "image": "", "rank": 19, "time": 2, "location": {"lat": 25.344409459134855, "lng": 103.04356394015612}, "feature": {"sight_features": "", "sight_content": ""}}, {"title": "青春纪念馆", "address": "云南省昆明市嵩明县嵩明县东街政府东南100米", "image": "", "rank": 20, "time": 2, "location": {"lat": 25.343933518367656, "lng": 103.0439314818554}, "feature": {"sight_features": "", "sight_content": ""}}, {"title": "观音庵", "address": "杨桥乡下矣铎村31号", "image": "", "rank": 21, "time": 2, "location": {"lat": 25.30036557773062, "lng": 103.0248066923001}, "feature": {"sight_features": "", "sight_content": ""}}, {"title": "石龙庵寺", "address": "嘉玲北路与007乡道交叉口西北150米", "image": "", "rank": 22, "time": 2, "location": {"lat": 25.322404566998607, "lng": 103.14098445403663}, "feature": {"sight_features": "", "sight_content": ""}}, {"title": "崧康生态园", "address": "云南沣滢崧康生态园", "image": "", "rank": 23, "time": 2, "location": {"lat": 25.051562267344867, "lng": 102.71641607523223}, "feature": {"sight_features": "", "sight_content": ""}}, {"title": "兰公祠", "address": "南街141", "image": "", "rank": 24, "time": 2, "location": {"lat": 27.791235095426213, "lng": 113.13685317595129}, "feature": {"sight_features": "", "sight_content": ""}}, {"title": "和园嵩明园博园", "address": "云南省昆明市嵩明县G213(旧)和园嵩明圆博园", "image": "", "rank": 25, "time": 2, "location": {"lat": 25.32868053175814, "lng": 103.03043971282916}, "feature": {"sight_features": "", "sight_content": ""}}, {"title": "春华园", "address": "昆明市嵩明县文轩路", "image": "", "rank": 26, "time": 2, "location": {"lat": 25.235808869948436, "lng": 103.00393778690284}, "feature": {"sight_features": "", "sight_content": ""}}, {"title": "园博园", "address": "文林路与文轩路交叉口东100米", "image": "", "rank": 27, "time": 2.5, "location": {"lat": 25.240324554019022, "lng": 103.00374173442026}, "feature": {"sight_features": "", "sight_content": ""}}, {"title": "牛栏江休闲文化广场", "address": "牛栏江镇新四线", "image": "", "rank": 28, "time": 2, "location": {"lat": 25.335984048054943, "lng": 103.23327097226822}, "feature": {"sight_features": "", "sight_content": ""}}, {"title": "吴官营村公益园", "address": "杨嵩段附近", "image": "", "rank": 29, "time": 2, "location": {"lat": 25.24903798983264, "lng": 103.0627905526409}, "feature": {"sight_features": "", "sight_content": ""}}, {"title": "兰茂广场", "address": "嵩阳镇黄龙街307号", "image": "", "rank": 30, "time": 2, "location": {"lat": 25.34030112023739, "lng": 103.05152398427747}, "feature": {"sight_features": "", "sight_content": ""}}, {"title": "清逸水乡", "address": "青年水库旁", "image": "", "rank": 31, "time": 2, "location": {"lat": 48.96834773492146, "lng": 125.02521694750449}, "feature": {"sight_features": "", "sight_content": ""}}, {"title": "嵩明县玛可特啤酒广场", "address": "嵩明县杨林职教园区文博路28号（云大滇池学院对面）", "image": "", "rank": 32, "time": 2, "location": {"lat": 25.23877174283729, "lng": 103.00703385253688}, "feature": {"sight_features": "", "sight_content": ""}}, {"title": "福朗里休闲度假园", "address": "岭秀园(嵩明)附近", "image": "", "rank": 33, "time": 2, "location": {"lat": 25.2521102351653, "lng": 103.03279446262103}, "feature": {"sight_features": "", "sight_content": ""}}, {"title": "翰林苑休闲山庄", "address": "320国道附近", "image": "", "rank": 34, "time": 2, "location": {"lat": 27.256565251327487, "lng": 111.28158164529765}, "feature": {"sight_features": "", "sight_content": ""}}, {"title": "紫龙茶道艺术馆", "address": "玉明路523", "image": "", "rank": 35, "time": 2, "location": {"lat": 25.337964253977848, "lng": 103.05288582890472}, "feature": {"sight_features": "", "sight_content": ""}}, {"title": "普慧寺", "address": "大阿段与060乡道交叉口", "image": "", "rank": 36, "time": 2, "location": {"lat": 25.31087402610359, "lng": 102.78846511778895}, "feature": {"sight_features": "", "sight_content": ""}}, {"title": "兰茂纪念馆", "address": "068乡道", "image": "", "rank": 37, "time": 2, "location": {"lat": 37.12126641260988, "lng": 114.56024859956285}, "feature": {"sight_features": "", "sight_content": ""}}, {"title": "昆明春喜农业科技开发有限公司", "address": "崧灵路865号附近", "image": "", "rank": 38, "time": 2.0, "location": {"lat": 25.306345964143116, "lng": 103.0508654975931}, "feature": {"sight_features": "", "sight_content": ""}}, {"title": "金宏农家乐", "address": "118乡道附近", "image": "", "rank": 39, "time": 2, "location": {"lat": 39.710263289214275, "lng": 119.00594792606393}, "feature": {"sight_features": "", "sight_content": ""}}, {"title": "嵩明县图书馆(南门)", "address": "北街嵩明县图书馆附近", "image": "", "rank": 40, "time": 2, "location": {"lat": 25.344409459134855, "lng": 103.04356394015612}, "feature": {"sight_features": "", "sight_content": ""}}, {"title": "水乡薰衣草芳香植物园", "address": "杨林中信嘉丽泽", "image": "", "rank": 41, "time": 2, "location": {"lat": 28.78504437251926, "lng": 117.81964837544498}, "feature": {"sight_features": "", "sight_content": ""}}, {"title": "中信嘉丽泽艺术馆", "address": "杨林镇中信嘉丽泽旅游度假区", "image": "", "rank": 42, "time": 2, "location": {"lat": 25.271447751281862, "lng": 103.10824303368418}, "feature": {"sight_features": "", "sight_content": ""}}, {"title": "海贝水上乐园", "address": "嵩阳街道秀嵩街贸易大楼二楼", "image": "", "rank": 43, "time": 2, "location": {"lat": 25.340140343933808, "lng": 103.04211235929996}, "feature": {"sight_features": "", "sight_content": ""}}, {"title": "青石山庄", "address": "花箐村", "image": "", "rank": 44, "time": 2, "location": {"lat": 25.126693117626974, "lng": 102.92303538929369}, "feature": {"sight_features": "", "sight_content": ""}}, {"title": "星耀水乡马术俱乐部", "address": "杨林镇2号路星耀水乡马术俱乐部", "image": "", "rank": 45, "time": 2, "location": {"lat": 25.265626573059134, "lng": 103.11171172722332}, "feature": {"sight_features": "", "sight_content": ""}}, {"title": "高山蓝莓庄园", "address": "阿子营镇牧羊村石房子水库脚(石房子水库)", "image": "", "rank": 46, "time": 2, "location": {"lat": 25.40413331108773, "lng": 102.85928752417222}, "feature": {"sight_features": "", "sight_content": ""}}, {"title": "白邑黑龙潭", "address": "云南省嵩明县白邑乡龙潭营村", "image": "", "rank": 47, "time": 2, "location": {"lat": 25.279808100731856, "lng": 102.89158070714315}, "feature": {"sight_features": "", "sight_content": ""}}, {"title": "阿古龙村", "address": "昆明市-嵩明县-阿古龙--四营", "image": "", "rank": 48, "time": 2, "location": {"lat": 25.344409459134855, "lng": 103.04356394015612}, "feature": {"sight_features": "", "sight_content": ""}}, {"title": "爱奇艺一起看微影院(杨林职教园...", "address": "昆明市-嵩明县", "image": "", "rank": 49, "time": 2, "location": {"lat": 25.344409459134855, "lng": 103.04356394015612}, "feature": {"sight_features": "", "sight_content": ""}}]}