{"cityName": "松阳", "days": 2, "cityImage": "", "spots": [{"title": "箬寮原始林", "address": "丽水市松阳县安民乡李坑村", "image": "", "rank": 1, "time": 2.0, "location": {"lat": 28.307145914162614, "lng": 119.3191857104997}, "feature": {"sight_features": "特色1 国内罕见的数千亩猴头杜鹃", "sight_content": "箬寮原始林主峰箬寮岘海拔1502米，旧志云：陟其巅可览七邑之胜。这里花艳、树奇、山险、岩怪、潭幽、泉清；飞瀑、云海、佛光著称于世；自然资源之富饶令人叹为观止，是华东地区屈指可数的一座天然宝库。 景区生长着数百上千年树龄的各类原始树木千余种，野生名贵中草药700余种，野生动物百余种，其中国家一、二级保护动植物30余种。尤其是延绵数千亩年代古远有“十里花海”美誉的猴头杜鹃叠锦，实属国内罕见，堪称“天下奇观”，名扬江南。\n古木参天的密林深处，数不尽的奇岩异石、溪流瀑布错落其间，有耸出云海的石人矶、栩栩如生的小熊望松以及双龟探月、姑嫂岩、观音望海、隐泉、龙瀑等30多处主要景点，其中龙瀑落差70余米，分三级泻下，蔚为壮观。景区气候凉爽，月平均最高气温23.6度，具有独特的高山小气候环境；交通便捷，5米宽柏油路直通景区；服务设施完善，山庄、小木屋、停车场一应俱全。是集避暑休闲、旅游观光、会议接待、艺术创作、科考文教为一体的纯自然生态旅游观光胜地。\n位于景区南麓的安岱后村，层峦叠嶂，风光旖旎，地势险要，当年粟裕、刘英率红军挺进师在此创建了浙西南游击根据地，现今仍保留着10多处革命遗址，为爱国主义教育基地。"}}, {"title": "延庆寺塔", "address": "丽水市松阳县西屏街道塔寺下村", "image": "", "rank": 2, "time": 1.0, "location": {"lat": 28.457346685784984, "lng": 119.47338118701677}, "feature": {"sight_features": "特色1 全国重点文物保护单位", "sight_content": "延庆寺塔位于县城西郊二公里塔寺下村，南邻上方山，北倚云龙山，是全国重点文物保护单位。该塔始建于北宋咸平二年（999年），作为砖木结构的古塔，在江南是唯一保存最完整的北宋原物。该塔自始建造，历经千年，由于微微的地壳运动，令塔基左部下沉，使塔身倾斜，固有“东方的比萨斜塔”之称。\n延庆寺塔为六角七层，高38.32米，鹤立于山涧，塔体全为古砖垒砌，底层四周挑角飞檐，阁檐外伸最宽，似亭翼然。各层南北东西，均设有拱券式远眺门窗。塔身中空，有一粗直木与塔刹对合，直木上装置有伞骨式木架。游人可通过圈孔，经一层层直登塔巅。塔巅安置有七个互相串锁住的铁铸圆盘轮，缠住铁质心柱，矗向空中。据说，它有镇风作用，兼有避雷之功。"}}, {"title": "松阳大木山骑行茶园景区", "address": "丽水市松阳县新兴镇横溪村", "image": "", "rank": 3, "time": 2.0, "location": {"lat": 28.543553803154598, "lng": 119.3840089865536}, "feature": {"sight_features": "特色1 景色宜人，茶香四溢", "sight_content": "大木山骑行茶园，位于松阳县新兴镇横溪村，是松阳生态茶园的典范，也是中国最大的骑行茶园，浙江省优秀休闲运动旅游基地景区。核心区面积有2300余亩，区内丘陵连绵，水库密布，骑行车道贯穿其中，景色宜人，茶香四溢，骑行车道贯穿其中。\n松阳大木山骑行茶园，现建有休闲健身骑行环线8.3公里，专业骑行赛道7公里。景区基础设施较为完善，配有高档山地自行车，男女轻便自行车和观光电瓶车等，为游客提供自行车租赁和观光电瓶车游览服务。\n骑行茶园景区秉承“古韵茶香，健康骑行”的理念，结合了茶园观光、茶园品茶、采摘制茶体验、养生度假等功能。建有多种路况骑行道路20余公里，其中休闲健身骑行环线8.3公里。景区内茶文化长廊、游憩平台、骑行观光台、游客中心等服务设施齐全。是集茶园观光、茶文化体验和运动休闲为一体的旅游景区。\n大木山骑行茶园风光秀美，可以在体验休闲观光的同时让孩子们学习到茶的相关知识，而且茶园游览对亲子游来说具有很好的安全性。"}}, {"title": "杨家堂村", "address": "丽水市松阳县杨家堂村", "image": "", "rank": 4, "time": 2.0, "location": {"lat": 28.4660673000066, "lng": 119.55419655768644}, "feature": {"sight_features": "", "sight_content": ""}}, {"title": "松阳老街", "address": "丽水市松阳县西屏街道（近官塘路）", "image": "", "rank": 5, "time": 2.5, "location": {"lat": 28.454770346378137, "lng": 119.49181737509377}, "feature": {"sight_features": "", "sight_content": ""}}, {"title": "石仓清代民居群", "address": "丽水市松阳县", "image": "", "rank": 6, "time": 1.0, "location": {"lat": 28.45505640427278, "lng": 119.48854377015539}, "feature": {"sight_features": "", "sight_content": ""}}, {"title": "平田村", "address": "丽水市松阳县平田村", "image": "", "rank": 7, "time": 4.5, "location": {"lat": 28.53353193697171, "lng": 119.54404906598795}, "feature": {"sight_features": "", "sight_content": ""}}, {"title": "寨头摄影休闲园", "address": "丽水市松阳县四都乡庄河村寨头", "image": "", "rank": 8, "time": 7.5, "location": {"lat": 28.529148570448946, "lng": 119.5365625285821}, "feature": {"sight_features": "", "sight_content": ""}}, {"title": "界首村", "address": "丽水市松阳县界首村", "image": "", "rank": 9, "time": 2.0, "location": {"lat": 28.581825012862637, "lng": 119.35293561083766}, "feature": {"sight_features": "", "sight_content": ""}}, {"title": "詹宝兄弟进士牌坊", "address": "丽水市松阳县城西屏镇下马街", "image": "", "rank": 10, "time": 0.4, "location": {"lat": 28.45505640427278, "lng": 119.48854377015539}, "feature": {"sight_features": "", "sight_content": ""}}, {"title": "松阳博物馆", "address": "丽水市松阳县西屏镇中弄12号", "image": "", "rank": 11, "time": 1.0, "location": {"lat": 28.45260444274145, "lng": 119.48691891514947}, "feature": {"sight_features": "", "sight_content": ""}}, {"title": "象溪一村", "address": "丽水市松阳县222省道", "image": "", "rank": 12, "time": 12.0, "location": {"lat": 28.45505640427278, "lng": 119.48854377015539}, "feature": {"sight_features": "", "sight_content": ""}}, {"title": "张玉娘与兰雪井", "address": "丽水市松阳县城西", "image": "", "rank": 13, "time": null, "location": {"lat": 28.45505640427278, "lng": 119.48854377015539}, "feature": {"sight_features": "", "sight_content": ""}}, {"title": "小港漂流", "address": "丽水市松阳县大东坝镇内大阴村", "image": "", "rank": 14, "time": 2, "location": {"lat": 28.279467736295846, "lng": 119.47432504470054}, "feature": {"sight_features": "", "sight_content": ""}}, {"title": "塘后村", "address": "丽水市松阳县四都乡塘后村", "image": "", "rank": 15, "time": 2, "location": {"lat": 28.529148570448946, "lng": 119.5365625285821}, "feature": {"sight_features": "", "sight_content": ""}}, {"title": "山下阳村", "address": "浙江省丽水市松阳县古市镇", "image": "", "rank": 16, "time": 2, "location": {"lat": 28.51967008434899, "lng": 119.43328681896574}, "feature": {"sight_features": "", "sight_content": ""}}, {"title": "酉田村", "address": "浙江省丽水市松阳县", "image": "", "rank": 17, "time": 2, "location": {"lat": 28.45505640427278, "lng": 119.48854377015539}, "feature": {"sight_features": "", "sight_content": ""}}, {"title": "堰头景区", "address": "莲都区碧湖镇堰头村", "image": "", "rank": 18, "time": 2, "location": {"lat": 28.343095912702456, "lng": 119.79245085459391}, "feature": {"sight_features": "", "sight_content": ""}}, {"title": "浙南茶叶市场", "address": "中国浙江省丽水市松阳县长虹中路", "image": "", "rank": 19, "time": 2, "location": {"lat": 28.46169688786144, "lng": 119.4932090838877}, "feature": {"sight_features": "", "sight_content": ""}}, {"title": "卯山生态休闲山庄", "address": "松阳县古市镇湖溪卯山国家森林公园", "image": "", "rank": 20, "time": 2, "location": {"lat": 28.54999957256798, "lng": 119.43032845368495}, "feature": {"sight_features": "", "sight_content": ""}}, {"title": "猴头杜鹃林", "address": "丽水市松阳县安民乡李坑村", "image": "", "rank": 21, "time": 1.5, "location": {"lat": 28.307145914162614, "lng": 119.3191857104997}, "feature": {"sight_features": "", "sight_content": ""}}, {"title": "包杰进士牌坊", "address": "丽水市松阳县西屏镇市口村村口", "image": "", "rank": 22, "time": 0.25, "location": {"lat": 28.418368525367594, "lng": 119.4648356291608}, "feature": {"sight_features": "", "sight_content": ""}}, {"title": "新处峡绿谷漂流景区", "address": "丽水市松阳县新兴镇外石塘村", "image": "", "rank": 23, "time": 2, "location": {"lat": 28.49022718864203, "lng": 119.34853906741893}, "feature": {"sight_features": "", "sight_content": ""}}, {"title": "有颖农家乐", "address": "安民乡李坑村47号", "image": "", "rank": 24, "time": 2, "location": {"lat": 28.306493504689914, "lng": 119.32241299072125}, "feature": {"sight_features": "", "sight_content": ""}}, {"title": "南山大院", "address": "松阳南山大院", "image": "", "rank": 25, "time": 2, "location": {"lat": 28.45505640427278, "lng": 119.48854377015539}, "feature": {"sight_features": "", "sight_content": ""}}, {"title": "马鞭草花海", "address": "街子镇王家灰窑", "image": "", "rank": 26, "time": 1.5, "location": {"lat": 30.777543430814482, "lng": 103.57118903838449}, "feature": {"sight_features": "", "sight_content": ""}}, {"title": "大基背瀑布", "address": "浙江省松阳县箬寮原始林区内 323400", "image": "", "rank": 27, "time": 2, "location": {"lat": 28.45505640427278, "lng": 119.48854377015539}, "feature": {"sight_features": "", "sight_content": ""}}, {"title": "松阳周帮有民宿客栈(原松阳箬寮...", "address": "松阳县安民乡李坑村23号", "image": "", "rank": 28, "time": 2, "location": {"lat": 28.30793668754941, "lng": 119.31911331965189}, "feature": {"sight_features": "", "sight_content": ""}}, {"title": "灵鹫寺单檐塔", "address": "浙江省丽水市松阳县项桥乡桐桥村", "image": "", "rank": 29, "time": 2, "location": {"lat": 28.45505640427278, "lng": 119.48854377015539}, "feature": {"sight_features": "", "sight_content": ""}}, {"title": "故人故居", "address": "浙江省丽水市松阳县新华路72号", "image": "", "rank": 30, "time": 2, "location": {"lat": 28.453621069344184, "lng": 119.4905340342833}, "feature": {"sight_features": "", "sight_content": ""}}, {"title": "蟾峰阁", "address": "浙江省丽水市松阳县江南公路", "image": "", "rank": 31, "time": 2, "location": {"lat": 28.483833349687504, "lng": 119.43033040660112}, "feature": {"sight_features": "", "sight_content": ""}}, {"title": "新处峡景区漂流", "address": "外石塘村内", "image": "", "rank": 32, "time": 2, "location": {"lat": 28.49022718864203, "lng": 119.34853906741893}, "feature": {"sight_features": "", "sight_content": ""}}, {"title": "西屏镇天主教堂", "address": "人民大街92号附近", "image": "", "rank": 33, "time": 2, "location": {"lat": 38.98583658512461, "lng": 116.10678650198872}, "feature": {"sight_features": "", "sight_content": ""}}, {"title": "松阳县星期六儿童乐园", "address": "松阳县西屏街道要津路155号", "image": "", "rank": 34, "time": 2, "location": {"lat": 28.446719763539406, "lng": 119.4978033434508}, "feature": {"sight_features": "", "sight_content": ""}}, {"title": "秀丽谷农场观光园", "address": "浙江省丽水市松阳县安民乡大毛岘背", "image": "", "rank": 35, "time": 2, "location": {"lat": 28.27221714722035, "lng": 119.38581402278034}, "feature": {"sight_features": "", "sight_content": ""}}, {"title": "天元现代广场", "address": "丽水市松阳县长松路123号", "image": "", "rank": 36, "time": 2, "location": {"lat": 28.450105475241646, "lng": 119.49833590656715}, "feature": {"sight_features": "", "sight_content": ""}}, {"title": "双童山景区", "address": "丽水市松阳县水南街道", "image": "", "rank": 37, "time": 2, "location": {"lat": 28.439994510588104, "lng": 119.49574734581721}, "feature": {"sight_features": "特色1 重岩叠嶂、谷深潭幽。仪态万千的奇峰异石与绿色森林、飞瀑流泉，相映成趣。 特色2 有全长520米、落差180余米的时空穿越玻璃滑道", "sight_content": "双童山景区位于丽水市松阳县城以南2公里，景区占地面积4.38平方公里，主要为火山岩地貌景观，仪态万千的奇峰异石与绿色森林、飞瀑流泉，相映成趣。景区将叶法善与八仙为代表的道教文化、和尚背老婆的民间传说融合在一起，让游客在山水游览的同时，充分领略本土宗教文化的魅力与内涵。"}}, {"title": "卯山仙人谷温泉", "address": "古市镇", "image": "", "rank": 38, "time": 2, "location": {"lat": 28.51967008434899, "lng": 119.43328681896574}, "feature": {"sight_features": "", "sight_content": ""}}, {"title": "老年门球场", "address": "705县道", "image": "", "rank": 39, "time": 2, "location": {"lat": 32.29522192977278, "lng": 118.67484607949925}, "feature": {"sight_features": "", "sight_content": ""}}, {"title": "阿燕农家乐", "address": "222省道北50米(雅溪口村)", "image": "", "rank": 40, "time": 2, "location": {"lat": 36.772383320664474, "lng": 114.17537319703483}, "feature": {"sight_features": "", "sight_content": ""}}, {"title": "陈落山口", "address": "丽水市-松阳县", "image": "", "rank": 41, "time": 2, "location": {"lat": 28.45505640427278, "lng": 119.48854377015539}, "feature": {"sight_features": "", "sight_content": ""}}]}