{"cityName": "松溪", "days": 2, "cityImage": "", "spots": [{"title": "湛卢山风景区", "address": "302省道", "image": "", "rank": 1, "time": 2, "location": {"lat": 40.09862711264105, "lng": 117.61062300284506}, "feature": {"sight_features": "", "sight_content": ""}}, {"title": "印象葡萄园", "address": "河东乡长深高速公路印象葡萄园", "image": "", "rank": 2, "time": 2, "location": {"lat": 27.04924410448717, "lng": 118.35918622770248}, "feature": {"sight_features": "", "sight_content": ""}}, {"title": "荐元塔", "address": "浙江省庆元县县城东南 323800", "image": "", "rank": 3, "time": 2, "location": {"lat": 27.625431778353544, "lng": 119.06948685497508}, "feature": {"sight_features": "", "sight_content": ""}}, {"title": "南平湛庐山", "address": "福建省松溪县茶平乡 353500", "image": "", "rank": 4, "time": 6.0, "location": {"lat": 27.47378900129727, "lng": 118.84766686962138}, "feature": {"sight_features": "", "sight_content": ""}}, {"title": "文秀湖公园", "address": "福建省南平市松溪县S302", "image": "", "rank": 5, "time": 2.5, "location": {"lat": 27.532554907166524, "lng": 118.79145438277632}, "feature": {"sight_features": "", "sight_content": ""}}, {"title": "光明寺", "address": "福建省南平市松溪县G25(长深高速)", "image": "", "rank": 6, "time": 2, "location": {"lat": 27.532554907166524, "lng": 118.79145438277632}, "feature": {"sight_features": "", "sight_content": ""}}, {"title": "烈士陵园", "address": "福建省南平市松溪县解放街与工农西路交叉口", "image": "", "rank": 7, "time": 2, "location": {"lat": 27.531098766079943, "lng": 118.78631314768329}, "feature": {"sight_features": "", "sight_content": ""}}, {"title": "中国移动福建有限公司松溪县分公...", "address": "福建省南平市松溪县大街186号附近", "image": "", "rank": 8, "time": 2, "location": {"lat": 27.529841249799418, "lng": 118.79201262874662}, "feature": {"sight_features": "", "sight_content": ""}}, {"title": "中峰寺", "address": "南平市松溪县", "image": "", "rank": 9, "time": 0.25, "location": {"lat": 27.532554907166524, "lng": 118.79145438277632}, "feature": {"sight_features": "", "sight_content": ""}}, {"title": "林屯度假村", "address": "林屯小学附近", "image": "", "rank": 10, "time": 2, "location": {"lat": 27.51075042923934, "lng": 118.7561464847183}, "feature": {"sight_features": "", "sight_content": ""}}, {"title": "松溪白马山自然保护区", "address": "福建省松溪县中西部", "image": "", "rank": 11, "time": 2, "location": {"lat": 27.532554907166524, "lng": 118.79145438277632}, "feature": {"sight_features": "", "sight_content": ""}}]}