{"cityName": "松原", "days": "", "cityImage": "", "spots": [{"title": "查干湖", "address": "松原市前郭尔罗斯蒙古族自治县查干湖景区", "image": "", "rank": 1, "time": 3.0, "location": {"lat": 45.2067383897589, "lng": 124.37034277156944}, "feature": {"sight_features": "特色1 查干湖冬捕场面壮观，几十万斤鲜鱼破冰而出，堪称全国之最。", "sight_content": "查干湖，蒙古语为“查干淖尔”，意为白色圣洁的湖，位于吉林省西北部的前郭尔罗斯蒙古族自治县境内。查干湖又名查干泡、圣水湖，包括辛甸泡、新庙泡和库里泡三个姊妹湖泊，南北长37公里，是全国十大淡水湖之一，也是吉林省最大的内陆湖泊。查干湖景色优美，夏日的湖区碧波万顷、烟波浩淼，坐着快艇在宽广的湖面上乘风破浪，或是乘竹筏穿行在蒲苇长廊赏荷戏水，令人心旷神怡。你也可以团坐于浓密的野草丛中倾听悠扬的马头琴声，或是坐在小舟上悠然垂钓、赏鸥鸟齐飞，享受各种惬意。"}}, {"title": "查干湖冬捕", "address": "松原市前郭尔罗斯蒙古族自治县查干湖自然保护区", "image": "", "rank": 2, "time": 2, "location": {"lat": 45.36588655738669, "lng": 124.23408278735512}, "feature": {"sight_features": "", "sight_content": ""}}, {"title": "乾安泥林", "address": "松原市乾安县所字镇119县道", "image": "", "rank": 3, "time": 2.5, "location": {"lat": 44.79501306130494, "lng": 123.76811597186379}, "feature": {"sight_features": "", "sight_content": ""}}, {"title": "长山明珠园", "address": "松原市前郭县长山镇境内长山热电厂东侧", "image": "", "rank": 4, "time": 2, "location": {"lat": 45.32136211905502, "lng": 124.48715598388316}, "feature": {"sight_features": "", "sight_content": ""}}, {"title": "宁江森林公园", "address": "松原市宁江区第二松花江右岸", "image": "", "rank": 5, "time": 2.5, "location": {"lat": 45.195305199142574, "lng": 124.78529068118296}, "feature": {"sight_features": "", "sight_content": ""}}, {"title": "慈云寺", "address": "吉林省松原市", "image": "", "rank": 6, "time": 1.5, "location": {"lat": 45.14740419341382, "lng": 124.83148187569292}, "feature": {"sight_features": "", "sight_content": ""}}, {"title": "龙华寺", "address": "松原市宁江区森林公园内", "image": "", "rank": 7, "time": 2.0, "location": {"lat": 45.17803943866726, "lng": 124.823422548149}, "feature": {"sight_features": "", "sight_content": ""}}, {"title": "加勒比动漫水世界", "address": "鲜丰村鲜丰小区西行440米", "image": "", "rank": 8, "time": 2, "location": {"lat": 45.08610396413597, "lng": 124.89947820128765}, "feature": {"sight_features": "", "sight_content": ""}}, {"title": "成吉思汗召", "address": "松原市前郭尔罗斯蒙古族自治县查干湖景区内", "image": "", "rank": 9, "time": 2, "location": {"lat": 45.2067383897589, "lng": 124.37034277156944}, "feature": {"sight_features": "", "sight_content": ""}}, {"title": "扶余公园", "address": "扶余大街", "image": "", "rank": 10, "time": 4.5, "location": {"lat": 45.17282717079426, "lng": 124.84488908542941}, "feature": {"sight_features": "", "sight_content": ""}}, {"title": "渔猎文化博物馆", "address": "松原市前郭尔罗斯蒙古族自治县", "image": "", "rank": 11, "time": 2, "location": {"lat": 45.12341609292575, "lng": 124.83045556164775}, "feature": {"sight_features": "", "sight_content": ""}}, {"title": "君瑞易禾温泉水乐园", "address": "松原市前郭县经济技术开发区阿拉坦大路宝骏4S店前300米", "image": "", "rank": 12, "time": 2, "location": {"lat": 45.1018077208324, "lng": 124.88959415743928}, "feature": {"sight_features": "", "sight_content": ""}}, {"title": "长山镇", "address": "松原市前郭尔罗斯蒙古族自治县", "image": "", "rank": 13, "time": 2, "location": {"lat": 45.12341609292575, "lng": 124.83045556164775}, "feature": {"sight_features": "", "sight_content": ""}}, {"title": "黑骏马山庄", "address": "松原大路高速收费站前500米", "image": "", "rank": 14, "time": 2, "location": {"lat": 33.07291536884964, "lng": 112.61451301698173}, "feature": {"sight_features": "", "sight_content": ""}}, {"title": "黑骏马山庄", "address": "兴原乡后屯村", "image": "", "rank": 15, "time": 2, "location": {"lat": 45.16838093617294, "lng": 124.74898616884468}, "feature": {"sight_features": "", "sight_content": ""}}, {"title": "松粮集团中国北方粳稻种子硅谷", "address": "松原市红光农场一分场十八号地", "image": "", "rank": 16, "time": 2.0, "location": {"lat": 44.98829043354851, "lng": 124.80937699515687}, "feature": {"sight_features": "", "sight_content": ""}}, {"title": "松韵古筝艺术中心", "address": "文艺路219号", "image": "", "rank": 17, "time": 2, "location": {"lat": 43.80453877989008, "lng": 87.62397379650167}, "feature": {"sight_features": "", "sight_content": ""}}, {"title": "巴特尔", "address": "鄂尔多斯大路230号", "image": "", "rank": 18, "time": 2, "location": {"lat": 39.61448231394889, "lng": 109.78744317923602}, "feature": {"sight_features": "", "sight_content": ""}}, {"title": "鸿雁剧场", "address": "惠民药店附近", "image": "", "rank": 19, "time": 2, "location": {"lat": 40.053342217974006, "lng": 117.44863946723447}, "feature": {"sight_features": "", "sight_content": ""}}, {"title": "铭秋画廊", "address": "兴原路168号", "image": "", "rank": 20, "time": 2, "location": {"lat": 45.14567550475374, "lng": 124.83032320531392}, "feature": {"sight_features": "", "sight_content": ""}}, {"title": "LOST CLUB密室逃脱", "address": "东镇南路186号", "image": "", "rank": 21, "time": 2, "location": {"lat": 45.14212309176692, "lng": 124.85595245954885}, "feature": {"sight_features": "", "sight_content": ""}}, {"title": "桃园大戏院", "address": "吉林省松原市宁江区建华路688", "image": "", "rank": 22, "time": 1.5, "location": {"lat": 45.1174992123216, "lng": 124.8216773202042}, "feature": {"sight_features": "", "sight_content": ""}}, {"title": "财源旅游度假村", "address": "吉林省松原市前郭尔罗斯蒙古族自治县", "image": "", "rank": 23, "time": 2, "location": {"lat": 45.12341609292575, "lng": 124.83045556164775}, "feature": {"sight_features": "", "sight_content": ""}}, {"title": "乐多多儿童乐园", "address": "乌兰大街与哈萨尔路交汇处新玛特休闲购物广场松原店2层", "image": "", "rank": 24, "time": 2, "location": {"lat": 45.12216699286878, "lng": 124.82984021339036}, "feature": {"sight_features": "", "sight_content": ""}}, {"title": "松原水塔", "address": "松原市建华路", "image": "", "rank": 25, "time": 3.0, "location": {"lat": 45.11767665871727, "lng": 124.82185876893416}, "feature": {"sight_features": "", "sight_content": ""}}, {"title": "儿童乐园", "address": "巴特尔购物公园地下1层", "image": "", "rank": 26, "time": 2, "location": {"lat": 45.12092109778201, "lng": 124.82734288185225}, "feature": {"sight_features": "", "sight_content": ""}}, {"title": "倪窑基督教会", "address": "吉林省松原市前郭尔罗斯蒙古族自治县前郭尔罗斯镇乌兰大街前郭全民健身中心附近", "image": "", "rank": 27, "time": 2, "location": {"lat": 45.12904082843979, "lng": 124.83561672744688}, "feature": {"sight_features": "", "sight_content": ""}}, {"title": "和谐之音音乐教堂", "address": "查干淖尔大街西200米", "image": "", "rank": 28, "time": 2, "location": {"lat": 45.11722479936367, "lng": 124.8457488185991}, "feature": {"sight_features": "", "sight_content": ""}}, {"title": "引松工程纪念碑", "address": "南湖大路与新水线交叉口东南200米", "image": "", "rank": 29, "time": 2, "location": {"lat": 23.494386671660774, "lng": 116.51093198121578}, "feature": {"sight_features": "", "sight_content": ""}}, {"title": "大型游乐场", "address": "团心胡同与团结街交叉口西南150米", "image": "", "rank": 30, "time": 2, "location": {"lat": 45.179049752868494, "lng": 124.81951125499239}, "feature": {"sight_features": "", "sight_content": ""}}, {"title": "创客中心游乐园", "address": "吉林省松原市宁江区青年大街3766号", "image": "", "rank": 31, "time": 2, "location": {"lat": 45.14691519968539, "lng": 124.81205705388746}, "feature": {"sight_features": "", "sight_content": ""}}, {"title": "激战鲨鱼岛", "address": "团结街儿童公园", "image": "", "rank": 32, "time": 0.3, "location": {"lat": 45.17834519215332, "lng": 124.81936210932857}, "feature": {"sight_features": "", "sight_content": ""}}, {"title": "大型海洋球蹦蹦床儿童乐园", "address": "临江西路江滨公园", "image": "", "rank": 33, "time": 2, "location": {"lat": 43.82280976056164, "lng": 126.54705613019915}, "feature": {"sight_features": "", "sight_content": ""}}, {"title": "游乐园火星沙", "address": "团结街西200米", "image": "", "rank": 34, "time": 2, "location": {"lat": 39.18042757405059, "lng": 117.11462729676671}, "feature": {"sight_features": "", "sight_content": ""}}, {"title": "地网碰碰车", "address": "吉林省松原市宁江区滨江西路儿童公园内", "image": "", "rank": 35, "time": 2, "location": {"lat": 45.17834519215332, "lng": 124.81936210932857}, "feature": {"sight_features": "", "sight_content": ""}}, {"title": "地藏殿", "address": "吉林省松原市宁江区新区街道龙华寺景区北750米", "image": "", "rank": 36, "time": 2.5, "location": {"lat": 45.16209491775544, "lng": 124.90843915986855}, "feature": {"sight_features": "", "sight_content": ""}}, {"title": "永善寺", "address": "吉林省松原市宁江区X144", "image": "", "rank": 37, "time": 2, "location": {"lat": 45.17803943866726, "lng": 124.823422548149}, "feature": {"sight_features": "", "sight_content": ""}}, {"title": "王爷府", "address": "松原市前郭尔罗斯蒙古族自治县王府站镇", "image": "", "rank": 38, "time": 2, "location": {"lat": 44.880737036591285, "lng": 125.03242442972422}, "feature": {"sight_features": "", "sight_content": ""}}, {"title": "赵家红提葡萄采摘园", "address": "大布苏镇兰字村", "image": "", "rank": 39, "time": 2, "location": {"lat": 44.83916036018758, "lng": 123.54993025295379}, "feature": {"sight_features": "", "sight_content": ""}}, {"title": "宝华采摘观光园", "address": "新水线", "image": "", "rank": 40, "time": 2, "location": {"lat": 23.93408306523124, "lng": 99.13063153631374}, "feature": {"sight_features": "", "sight_content": ""}}, {"title": "天宇汤姆熊儿童大型游乐场", "address": "岭城东路天宇商场三楼", "image": "", "rank": 41, "time": 2, "location": {"lat": 44.2837446906389, "lng": 123.99503162673682}, "feature": {"sight_features": "", "sight_content": ""}}, {"title": "郭尔罗斯博物馆", "address": "乌兰大街东侧(县民族体育场北侧)", "image": "", "rank": 42, "time": 2, "location": {"lat": 26.5730707838352, "lng": 107.98498045507309}, "feature": {"sight_features": "", "sight_content": ""}}, {"title": "黑泉眼垂钓园", "address": "黑泉眼村", "image": "", "rank": 43, "time": 2, "location": {"lat": 44.09327625758163, "lng": 124.47692448696979}, "feature": {"sight_features": "", "sight_content": ""}}, {"title": "山湾村马场", "address": "106省道附近", "image": "", "rank": 44, "time": 2, "location": {"lat": 41.7055623287482, "lng": 122.68623993431082}, "feature": {"sight_features": "", "sight_content": ""}}, {"title": "前郭县圣湖渔业有限公司", "address": "前郭县乌兰图嘎镇乌兰村", "image": "", "rank": 45, "time": 2, "location": {"lat": 36.9357478590324, "lng": 98.48673569929515}, "feature": {"sight_features": "", "sight_content": ""}}, {"title": "盛和骑士运营中心", "address": "苏雅乐胡同与青格勒大街交叉口南100米", "image": "", "rank": 46, "time": 2, "location": {"lat": 45.11847217002298, "lng": 124.83653364405042}, "feature": {"sight_features": "", "sight_content": ""}}, {"title": "鼎诚合作社", "address": "农前线附近", "image": "", "rank": 47, "time": 2, "location": {"lat": 45.086401446244054, "lng": 124.81169939175206}, "feature": {"sight_features": "", "sight_content": ""}}, {"title": "繁荣村葡萄采摘园", "address": "长山镇302国道繁荣村葡萄采摘园", "image": "", "rank": 48, "time": 2, "location": {"lat": 45.29199749443068, "lng": 124.55358641295696}, "feature": {"sight_features": "", "sight_content": ""}}, {"title": "第九街区真人密室逃脱", "address": "振瀛大路174号", "image": "", "rank": 49, "time": 2, "location": {"lat": 44.98936443402108, "lng": 126.03372549695757}, "feature": {"sight_features": "", "sight_content": ""}}, {"title": "长岭县二人转演艺大舞台", "address": "吉林省松原市长岭县永久东路572号", "image": "", "rank": 50, "time": 2, "location": {"lat": 44.28146132261116, "lng": 123.9952151505525}, "feature": {"sight_features": "", "sight_content": ""}}, {"title": "开心岛儿童乐园", "address": "三岔河镇中海1号楼商服天天手机楼上", "image": "", "rank": 51, "time": 2, "location": {"lat": 44.992015787796255, "lng": 126.03224147075483}, "feature": {"sight_features": "", "sight_content": ""}}, {"title": "丽水文化公园", "address": "安定大路南150米", "image": "", "rank": 52, "time": 2.5, "location": {"lat": 45.001215800686346, "lng": 124.02741189162342}, "feature": {"sight_features": "", "sight_content": ""}}, {"title": "鑫鑫水族馆", "address": "吉林省松原市乾安县丽水路", "image": "", "rank": 53, "time": null, "location": {"lat": 45.01456287545559, "lng": 124.0194139426001}, "feature": {"sight_features": "", "sight_content": ""}}, {"title": "天赋云溪温泉", "address": "永久西路", "image": "", "rank": 54, "time": 2, "location": {"lat": 44.280149428984295, "lng": 123.98067687446711}, "feature": {"sight_features": "", "sight_content": ""}}, {"title": "松江大剧院", "address": "文化路185号", "image": "", "rank": 55, "time": 2.0, "location": {"lat": 31.037135176464492, "lng": 121.23447959624146}, "feature": {"sight_features": "", "sight_content": ""}}, {"title": "万新大型乐队", "address": "149县道附近", "image": "", "rank": 56, "time": 2, "location": {"lat": 45.12145012203545, "lng": 126.11264645165922}, "feature": {"sight_features": "", "sight_content": ""}}, {"title": "世纪年华洗浴会馆", "address": "松原市宁江区康宁街（飞宇超市对面）", "image": "", "rank": 57, "time": 2, "location": {"lat": 45.12349457764449, "lng": 124.81993452397244}, "feature": {"sight_features": "", "sight_content": "世纪年华洗浴会馆以洗浴为主，另有餐饮、客房等服务，拥有大小房间70间，二楼为大堂和男女浴区。"}}, {"title": "乾安县科学技术馆", "address": "吉林省乾安县鸣凤大街878", "image": "", "rank": 58, "time": 2, "location": {"lat": 45.008847014668966, "lng": 124.0327024179075}, "feature": {"sight_features": "", "sight_content": ""}}, {"title": "双军水上乐园", "address": "鸣凤大街2", "image": "", "rank": 59, "time": 2, "location": {"lat": 44.998833561793866, "lng": 124.03817391665066}, "feature": {"sight_features": "", "sight_content": ""}}, {"title": "锦江公园", "address": "吉林省松原市宁江区镜湖街道镜湖路镜湖花园北", "image": "", "rank": 60, "time": 2, "location": {"lat": 45.13217639058177, "lng": 124.81620539639358}, "feature": {"sight_features": "", "sight_content": ""}}]}