{"cityName": "松滋", "days": 2, "cityImage": "", "spots": [{"title": "松滋颜将军洞", "address": "荆州市松滋市洈水风景区严家湾", "image": "", "rank": 1, "time": 2, "location": {"lat": 29.989862599719483, "lng": 111.52373884069542}, "feature": {"sight_features": "", "sight_content": ""}}, {"title": "曲尺河温泉度假村", "address": "荆州市松滋市卸甲坪土家族乡曲尺河村", "image": "", "rank": 2, "time": 2, "location": {"lat": 30.028379762404864, "lng": 111.32082405719648}, "feature": {"sight_features": "特色1 享受健康养生，舒畅的身心 特色2 中高端养生温泉 特色3 热带风情洋溢的世外桃源泡池", "sight_content": "酒店内会议、餐饮、休闲等配套设施齐全，可同时接待600人住宿、600人就餐、500人会务。酒店区、温泉中心，别墅区三部分是曲尺河温泉小镇的主要构成。\n温泉区设置室内和室外区，有温泉中心、室内泡池、室外泡池等，温泉中心建筑面积1万平方米，可同时接待1200多人。温泉酒店大堂往东依次是：娱乐康体楼层、客房楼层。大堂往西依次是宴会厅、客房楼层。330间客房均拥有良好的观景视线，酒店客房端头还设有豪华的全景式客房，可为客人提供更多选择。"}}, {"title": "滨湖公园", "address": "荆州市松滋市洈水镇响水洞村", "image": "", "rank": 3, "time": 1.5, "location": {"lat": 29.981003879890125, "lng": 111.46790048102734}, "feature": {"sight_features": "", "sight_content": ""}}, {"title": "梵高画廊", "address": "五一路64", "image": "", "rank": 4, "time": 2, "location": {"lat": 22.770894733891893, "lng": 113.85360136496875}, "feature": {"sight_features": "", "sight_content": ""}}, {"title": "松滋市图书馆", "address": "幸福路17号", "image": "", "rank": 5, "time": 1.5, "location": {"lat": 30.18155025703338, "lng": 111.78351348571195}, "feature": {"sight_features": "", "sight_content": ""}}, {"title": "松滋市王家大湖农场", "address": "汪杨线附近", "image": "", "rank": 6, "time": 2, "location": {"lat": 30.0264031373187, "lng": 111.91857994619095}, "feature": {"sight_features": "", "sight_content": ""}}, {"title": "黄家湖垂钓园", "address": "老城镇木马口村", "image": "", "rank": 7, "time": 2, "location": {"lat": 30.259923487243768, "lng": 111.75189114740387}, "feature": {"sight_features": "", "sight_content": ""}}, {"title": "乔家祠堂", "address": "荆州市松滋市S254", "image": "", "rank": 8, "time": 2, "location": {"lat": 30.17534223514285, "lng": 111.773580312637}, "feature": {"sight_features": "", "sight_content": ""}}, {"title": "龙发农庄", "address": "332省道附近", "image": "", "rank": 9, "time": 2, "location": {"lat": 38.92440220517007, "lng": 115.4502308598381}, "feature": {"sight_features": "", "sight_content": ""}}, {"title": "洈水风景区", "address": "荆州市松滋市洈水镇洈水风景区", "image": "", "rank": 10, "time": 2, "location": {"lat": 29.99431851965199, "lng": 111.68059584911556}, "feature": {"sight_features": "特色1 融山、水、林、泉、洞、坝于一体", "sight_content": "洈水旅游风景区总面积286平方公里，核心景区52.8平方公里。这里旅游资源和自然景观得天独厚，融山、水、林、泉、洞、坝于一体，属山水型风景区。景区主要由“湖面泛舟水上游、溶洞观光地下游、旅游度假休闲游、登山科考生态游、传统教育红色游”五大板块组成。\n景区主要由“湖面泛舟水上游、溶洞观光地下游、旅游度假休闲游、登山科考生态游、传统教育红色游”五大板块组成。景区内森林覆盖率达90%以上，湖水碧波浩淼，水质甘冽,属国家地表一级直接饮用水。洈水大坝巍峨壮观，似绿色巨龙伸臂，守望湖光山色；新神洞内， 溶洞奇观――“乾坤神柱”、“天宫大幕”让你惊叹大自然的鬼斧神工；漫步洈水，颜将军洞里泛舟水府洞天，依稀可闻远古巴国将士金戈铁马、刀劈剑击的拼杀与呐喊。"}}, {"title": "俞家渡生态农庄", "address": "湖北省荆州市松滋市新老线", "image": "", "rank": 11, "time": 2, "location": {"lat": 30.17534223514285, "lng": 111.773580312637}, "feature": {"sight_features": "", "sight_content": ""}}, {"title": "被小孩儿童乐园", "address": "荆州市松滋市", "image": "", "rank": 12, "time": 2, "location": {"lat": 30.17534223514285, "lng": 111.773580312637}, "feature": {"sight_features": "", "sight_content": ""}}, {"title": "胡家祠堂", "address": "荆州市松滋市三二二省道", "image": "", "rank": 13, "time": 2, "location": {"lat": 30.071003918578086, "lng": 111.47847976616517}, "feature": {"sight_features": "", "sight_content": ""}}, {"title": "宝贝儿童欢乐谷", "address": "才知广场2楼才知影院对面", "image": "", "rank": 14, "time": 2, "location": {"lat": 30.17835668206469, "lng": 111.76103167366293}, "feature": {"sight_features": "", "sight_content": ""}}, {"title": "金松广场", "address": "荆州市松滋市德化路40号", "image": "", "rank": 15, "time": 2, "location": {"lat": 30.18892678890777, "lng": 111.77279658588914}, "feature": {"sight_features": "", "sight_content": ""}}, {"title": "言程公园", "address": "贺炳炎大道与金松大道交叉口东南200米", "image": "", "rank": 16, "time": 2, "location": {"lat": 30.17452205093318, "lng": 111.76005730143898}, "feature": {"sight_features": "", "sight_content": ""}}, {"title": "大悲寺", "address": "大悲寺路52", "image": "", "rank": 17, "time": null, "location": {"lat": 30.164530508984484, "lng": 111.77980207900595}, "feature": {"sight_features": "", "sight_content": ""}}, {"title": "海豚湾水上乐园", "address": "贺炳炎大道才知广场106号", "image": "", "rank": 18, "time": 2, "location": {"lat": 30.17835668206469, "lng": 111.76103167366293}, "feature": {"sight_features": "", "sight_content": ""}}, {"title": "北湖游乐园", "address": "湖北省荆州市松滋市共青路与体育路交叉口路北", "image": "", "rank": 19, "time": 4.5, "location": {"lat": 30.182093399960344, "lng": 111.79068205890196}, "feature": {"sight_features": "", "sight_content": ""}}, {"title": "灵鹫寺", "address": "湖北省荆州市松滋市危水镇洈水国家森林公园", "image": "", "rank": 20, "time": 0.5, "location": {"lat": 29.977435742162314, "lng": 111.56574885333059}, "feature": {"sight_features": "", "sight_content": ""}}, {"title": "清真古寺", "address": "湖北省荆州市松滋市危水镇回族街西斋回族社区", "image": "", "rank": 21, "time": 1.0, "location": {"lat": 29.98965194931752, "lng": 111.62056898190684}, "feature": {"sight_features": "", "sight_content": ""}}, {"title": "松滋剧场", "address": "湖北省荆州市松滋市堰西路117号", "image": "", "rank": 22, "time": 1.5, "location": {"lat": 30.181042812496923, "lng": 111.78918457553209}, "feature": {"sight_features": "", "sight_content": ""}}, {"title": "庆寿寺湖", "address": "湖北省荆州市松滋市", "image": "", "rank": 23, "time": 2, "location": {"lat": 30.17534223514285, "lng": 111.773580312637}, "feature": {"sight_features": "", "sight_content": ""}}, {"title": "书法美术培训展览中心", "address": "松滋剧场附近", "image": "", "rank": 24, "time": 2, "location": {"lat": 30.18098024671907, "lng": 111.78924334717009}, "feature": {"sight_features": "", "sight_content": ""}}, {"title": "锦源农庄", "address": "中国湖北省荆州市松滋市", "image": "", "rank": 25, "time": 2, "location": {"lat": 30.17534223514285, "lng": 111.773580312637}, "feature": {"sight_features": "", "sight_content": ""}}, {"title": "松滋柏祥永乐家庭农场", "address": "南海镇断山口村九组(桂花屏墙东北200米处)", "image": "", "rank": 26, "time": 2, "location": {"lat": 30.123708473815412, "lng": 111.76857058767231}, "feature": {"sight_features": "", "sight_content": ""}}, {"title": "金凤凰农庄", "address": "街河市镇交警中队前1000米处", "image": "", "rank": 27, "time": 2, "location": {"lat": 30.299003264625252, "lng": 120.20384856430235}, "feature": {"sight_features": "", "sight_content": ""}}, {"title": "名扬画廊", "address": "高成大道69号附近", "image": "", "rank": 28, "time": 2, "location": {"lat": 30.169824939159298, "lng": 111.77596679014773}, "feature": {"sight_features": "", "sight_content": ""}}, {"title": "龙鼎画廊", "address": "中心街与民主街交叉口东50米", "image": "", "rank": 29, "time": 2, "location": {"lat": 30.012486646479086, "lng": 111.72587536734297}, "feature": {"sight_features": "", "sight_content": ""}}, {"title": "李桥生态农庄", "address": "李桥村1号", "image": "", "rank": 30, "time": 2, "location": {"lat": 34.625313623441734, "lng": 109.26490380655878}, "feature": {"sight_features": "", "sight_content": ""}}, {"title": "后坪生态旅游观光采摘园", "address": "洈水镇后坪村街杨路松滋市光明水泥制品厂东北500米", "image": "", "rank": 31, "time": 2, "location": {"lat": 29.989533269088827, "lng": 111.63434530177952}, "feature": {"sight_features": "", "sight_content": ""}}, {"title": "松滋市昌海珍稀名优果树观光采摘...", "address": "S332香味居农家饭庄西北侧", "image": "", "rank": 32, "time": 2, "location": {"lat": 30.185709568303825, "lng": 111.74356397030948}, "feature": {"sight_features": "", "sight_content": ""}}, {"title": "松滋市诚鑫家庭农场有限公司", "address": "新江口镇西流村六组", "image": "", "rank": 33, "time": 2, "location": {"lat": 30.18375236852067, "lng": 111.7292230456565}, "feature": {"sight_features": "", "sight_content": ""}}, {"title": "松滋市望月葡萄", "address": "新江口镇望月村二组", "image": "", "rank": 34, "time": 2, "location": {"lat": 30.163358138862666, "lng": 111.7417650560342}, "feature": {"sight_features": "", "sight_content": ""}}, {"title": "松滋市群众艺术馆老年艺术团", "address": "幸福路", "image": "", "rank": 35, "time": 2, "location": {"lat": 39.711873989517485, "lng": 116.72200968560766}, "feature": {"sight_features": "", "sight_content": ""}}, {"title": "洈水生态岛农家乐", "address": "洈水镇李家河村", "image": "", "rank": 36, "time": 2, "location": {"lat": 29.955695573122323, "lng": 111.55367404536447}, "feature": {"sight_features": "", "sight_content": ""}}, {"title": "亚西亚商业步行街", "address": "湖北省松滋市民主路", "image": "", "rank": 37, "time": 2, "location": {"lat": 30.183785448677018, "lng": 111.78624211654599}, "feature": {"sight_features": "", "sight_content": ""}}, {"title": "文化商业街", "address": "湖北省松滋市飞利浦路23号", "image": "", "rank": 38, "time": 2, "location": {"lat": 30.17976014042831, "lng": 111.78946538224129}, "feature": {"sight_features": "", "sight_content": ""}}]}