{"cityName": "遂川", "days": 2, "cityImage": "", "spots": [{"title": "白水仙", "address": "吉安市遂川县", "image": "", "rank": 1, "time": 1.0, "location": {"lat": 26.319517284145913, "lng": 114.52756212171211}, "feature": {"sight_features": "", "sight_content": ""}}, {"title": "东江源生态山庄", "address": "吉安市遂川县枚江乡东江村东江源山庄内儿童游乐园检票处", "image": "", "rank": 2, "time": 2, "location": {"lat": 26.366825511093325, "lng": 114.6246169300298}, "feature": {"sight_features": "", "sight_content": ""}}, {"title": "江西省遂川县图书馆", "address": "工农兵大道17号", "image": "", "rank": 3, "time": 2, "location": {"lat": 28.25233167719639, "lng": 113.0197476999793}, "feature": {"sight_features": "", "sight_content": ""}}, {"title": "革命烈士纪念馆", "address": "井冈山大道", "image": "", "rank": 4, "time": 2, "location": {"lat": 26.836320753196258, "lng": 114.94055297741275}, "feature": {"sight_features": "", "sight_content": ""}}, {"title": "遂川县紫藤谷家庭农场", "address": "泉江镇新溪村下鳌村路口垇背", "image": "", "rank": 5, "time": 2, "location": {"lat": 26.365594075319002, "lng": 114.53830498245495}, "feature": {"sight_features": "", "sight_content": ""}}, {"title": "大井红军烈士墓", "address": "江西省遂川县大井村 343911", "image": "", "rank": 6, "time": 1.5, "location": {"lat": 26.56853986321956, "lng": 114.1364766659499}, "feature": {"sight_features": "", "sight_content": ""}}, {"title": "梦想星剧场", "address": "江西省吉安市遂川县东路大道107", "image": "", "rank": 7, "time": 2, "location": {"lat": 26.33183325144515, "lng": 114.53211038354159}, "feature": {"sight_features": "", "sight_content": ""}}, {"title": "遂川县源头湖公园", "address": "吉安市遂川县", "image": "", "rank": 8, "time": 2, "location": {"lat": 26.319517284145913, "lng": 114.52756212171211}, "feature": {"sight_features": "", "sight_content": ""}}, {"title": "仙鹅堂", "address": "江西省吉安市遂川县", "image": "", "rank": 9, "time": 2, "location": {"lat": 26.319517284145913, "lng": 114.52756212171211}, "feature": {"sight_features": "", "sight_content": ""}}, {"title": "体育公园", "address": "云芳大道与学府路交叉口东南150米", "image": "", "rank": 10, "time": 1.0, "location": {"lat": 26.336200050824193, "lng": 114.54169588094034}, "feature": {"sight_features": "", "sight_content": ""}}, {"title": "锦秀山庄", "address": "338省道附近", "image": "", "rank": 11, "time": 2, "location": {"lat": 32.00468464714224, "lng": 119.86284990627314}, "feature": {"sight_features": "", "sight_content": ""}}, {"title": "五斗江影剧院", "address": "庄黄段附近", "image": "", "rank": 12, "time": 2, "location": {"lat": 26.533687229578756, "lng": 114.3155465705726}, "feature": {"sight_features": "", "sight_content": ""}}, {"title": "遂川县博物馆", "address": "泉江镇名邦街8号", "image": "", "rank": 13, "time": 2, "location": {"lat": 26.32865712709452, "lng": 114.5202407521471}, "feature": {"sight_features": "", "sight_content": ""}}, {"title": "遂川县城市规划展示馆", "address": "遂川公安局交通警察大队旁边", "image": "", "rank": 14, "time": 2, "location": {"lat": 26.150613154177233, "lng": 119.14404170009004}, "feature": {"sight_features": "", "sight_content": ""}}, {"title": "龙仙洞休闲山庄", "address": "西七段", "image": "", "rank": 15, "time": 2, "location": {"lat": 26.468714970776812, "lng": 114.63661173939876}, "feature": {"sight_features": "", "sight_content": ""}}, {"title": "湖溪漂流", "address": "816县道", "image": "", "rank": 16, "time": 2, "location": {"lat": 23.51737688309572, "lng": 112.72621882892469}, "feature": {"sight_features": "", "sight_content": ""}}, {"title": "世界和平密室逃脱桌游吧", "address": "银云路143号伟业小区大门口", "image": "", "rank": 17, "time": 2, "location": {"lat": 30.486511386830085, "lng": 108.91919346875682}, "feature": {"sight_features": "", "sight_content": ""}}, {"title": "步行街批发城", "address": "江西省遂川县东路大道", "image": "", "rank": 18, "time": 2, "location": {"lat": 26.329186162502417, "lng": 114.52563107298509}, "feature": {"sight_features": "", "sight_content": ""}}]}