{"cityName": "绥德", "days": 2, "cityImage": "", "spots": [{"title": "扶苏墓-蒙恬墓", "address": "扶苏墓：榆林市绥德县进士巷13号 蒙恬墓：榆林市绥德县文化大街175号第一中学校内", "image": "", "rank": 1, "time": 1.0, "location": {"lat": 37.51187829872766, "lng": 110.27103831493582}, "feature": {"sight_features": "", "sight_content": ""}}, {"title": "双水村", "address": "榆林市绥德县满堂川乡郭家沟村", "image": "", "rank": 2, "time": 2, "location": {"lat": 37.53647240330112, "lng": 110.42817387626846}, "feature": {"sight_features": "", "sight_content": ""}}, {"title": "绥德县博物馆", "address": "榆林市绥德县名州镇进士巷13号", "image": "", "rank": 3, "time": 2, "location": {"lat": 37.51187829872766, "lng": 110.27103831493582}, "feature": {"sight_features": "", "sight_content": ""}}, {"title": "佛庙", "address": "绥德县", "image": "", "rank": 4, "time": 2.0, "location": {"lat": 37.50890728893263, "lng": 110.26942648535928}, "feature": {"sight_features": "", "sight_content": ""}}, {"title": "宏源水世界", "address": "榆林市绥德县裴家峁现代农业园区", "image": "", "rank": 5, "time": 2, "location": {"lat": 37.49744149090945, "lng": 110.2911935956632}, "feature": {"sight_features": "", "sight_content": ""}}, {"title": "高佛寺", "address": "陕西省榆林市绥德县", "image": "", "rank": 6, "time": 2, "location": {"lat": 37.50890728893263, "lng": 110.26942648535928}, "feature": {"sight_features": "", "sight_content": ""}}, {"title": "岱王庙", "address": "绥德县", "image": "", "rank": 7, "time": 2, "location": {"lat": 37.50890728893263, "lng": 110.26942648535928}, "feature": {"sight_features": "", "sight_content": ""}}, {"title": "绥德石狮博物馆", "address": "龙凤桥西(天下第一狮)", "image": "", "rank": 8, "time": 1.5, "location": {"lat": 46.54444488092519, "lng": 125.12000037061014}, "feature": {"sight_features": "", "sight_content": ""}}, {"title": "草莓采摘园", "address": "陕西省榆林市绥德县裴家卯农业园区", "image": "", "rank": 9, "time": 2, "location": {"lat": 37.50890728893263, "lng": 110.26942648535928}, "feature": {"sight_features": "", "sight_content": ""}}, {"title": "习仲勋旧居", "address": "陕西省绥德县郝家桥村", "image": "", "rank": 10, "time": 2, "location": {"lat": 37.4848949828243, "lng": 110.19126660995384}, "feature": {"sight_features": "", "sight_content": ""}}, {"title": "万顺广场", "address": "榆林市绥德县人民路17号", "image": "", "rank": 11, "time": 2, "location": {"lat": 37.50790895915436, "lng": 110.2695162130407}, "feature": {"sight_features": "", "sight_content": ""}}, {"title": "绥德革命历史纪念馆", "address": "陕西省绥德县城疏属山顶", "image": "", "rank": 12, "time": 2.5, "location": {"lat": 37.50890728893263, "lng": 110.26942648535928}, "feature": {"sight_features": "", "sight_content": ""}}, {"title": "扶苏墓汉画像石博物馆", "address": "北门湾居委进士巷13号", "image": "", "rank": 13, "time": 2, "location": {"lat": 23.001846447528195, "lng": 113.13504772830062}, "feature": {"sight_features": "", "sight_content": ""}}, {"title": "绥德剧场", "address": "陕西省榆林市绥德县名州镇西山大街绥德剧院", "image": "", "rank": 14, "time": 1.5, "location": {"lat": 37.51034972779587, "lng": 110.26520561725954}, "feature": {"sight_features": "", "sight_content": ""}}, {"title": "东丰现摘草莓园", "address": "四十铺赵家砭村口", "image": "", "rank": 15, "time": 2, "location": {"lat": 33.07440055234558, "lng": 106.83691403742108}, "feature": {"sight_features": "", "sight_content": ""}}, {"title": "水果采摘", "address": "满堂川乡常家沟村", "image": "", "rank": 16, "time": 2, "location": {"lat": 37.54688018367045, "lng": 110.44579663164447}, "feature": {"sight_features": "", "sight_content": ""}}, {"title": "林家硷1号中桥", "address": "榆林市-绥德县-林家硷1号中桥(青银高速公路", "image": "", "rank": 17, "time": 2, "location": {"lat": 37.574611894853334, "lng": 110.33504258252175}, "feature": {"sight_features": "", "sight_content": ""}}, {"title": "闫家沟1号大桥", "address": "榆林市-绥德县-闫家沟1号大桥(青银高速公路", "image": "", "rank": 18, "time": 2, "location": {"lat": 37.56885942613988, "lng": 110.44289583696623}, "feature": {"sight_features": "", "sight_content": ""}}, {"title": "千狮桥", "address": "陕西省榆林市绥德县", "image": "", "rank": 19, "time": 2, "location": {"lat": 37.50890728893263, "lng": 110.26942648535928}, "feature": {"sight_features": "", "sight_content": ""}}]}