{"cityName": "绥芬河", "days": 2, "cityImage": "", "spots": [{"title": "绥芬河国门景区", "address": "牡丹江市绥芬河市乌苏里大街北侧", "image": "", "rank": 1, "time": 1.5, "location": {"lat": 44.416507443273204, "lng": 131.15327667580505}, "feature": {"sight_features": "特色1 中俄边界大门，往北是俄罗斯，往南是中国。", "sight_content": "绥芬河国门景区位于黑龙江的对俄陆路口岸——绥芬河市公路口岸，G10绥满高速零起点上，是我国境内纵跨国境通道的景区，也是我国国门景区中集三代国门于一体的景区。景区内建筑绥芬河第三代国门，高52米，为我国北方国门。"}}, {"title": "绥芬河边贸市场", "address": "牡丹江绥芬河市境内", "image": "", "rank": 2, "time": 1.5, "location": {"lat": 44.41815437238761, "lng": 131.15739222566847}, "feature": {"sight_features": "", "sight_content": ""}}, {"title": "北海公园", "address": "牡丹江市绥芬河市通天路与嘎丽娅路交叉口西行300米", "image": "", "rank": 3, "time": 2.5, "location": {"lat": 44.411468604961044, "lng": 131.16976365591458}, "feature": {"sight_features": "", "sight_content": ""}}, {"title": "绥芬河博物馆", "address": "牡丹江市绥芬河市绥芬河镇长江路17号", "image": "", "rank": 4, "time": 1.0, "location": {"lat": 44.4125669767864, "lng": 131.16236573005668}, "feature": {"sight_features": "", "sight_content": ""}}, {"title": "绥芬河市基督教堂", "address": "牡丹江市绥芬河市大直路137号", "image": "", "rank": 5, "time": 1.0, "location": {"lat": 44.39948094625829, "lng": 131.16720024322657}, "feature": {"sight_features": "", "sight_content": ""}}, {"title": "绥芬河国家森林公园滑雪场", "address": "牡丹江绥芬河市区以西10公里,301国道18公里处", "image": "", "rank": 6, "time": 1.5, "location": {"lat": 44.39614888554006, "lng": 131.09536800308763}, "feature": {"sight_features": "", "sight_content": ""}}, {"title": "绥芬河中心广场", "address": "牡丹江绥芬河市通天路", "image": "", "rank": 7, "time": 1.5, "location": {"lat": 44.411468604961044, "lng": 131.16976365591458}, "feature": {"sight_features": "", "sight_content": ""}}, {"title": "绥芬河中俄界河景区", "address": "黑龙江省牡丹江市东宁县三岔口朝鲜族镇", "image": "", "rank": 8, "time": 1.5, "location": {"lat": 44.02972668196319, "lng": 131.25016898877277}, "feature": {"sight_features": "", "sight_content": ""}}, {"title": "大光明寺", "address": "牡丹江市绥芬河市乌苏里大街123号", "image": "", "rank": 9, "time": 2, "location": {"lat": 44.41596110111291, "lng": 131.16866223185082}, "feature": {"sight_features": "", "sight_content": ""}}, {"title": "绥芬河市", "address": "黑龙江省东南部", "image": "", "rank": 10, "time": 1.5, "location": {"lat": 45.74792983743469, "lng": 126.66965282041836}, "feature": {"sight_features": "", "sight_content": ""}}, {"title": "迎宾公园", "address": "北京市延庆县城", "image": "", "rank": 11, "time": 0.75, "location": {"lat": 40.545156469742075, "lng": 116.16973528629558}, "feature": {"sight_features": "", "sight_content": ""}}, {"title": "计划免疫", "address": "东城社区卫生服务中心", "image": "", "rank": 12, "time": 2, "location": {"lat": 35.022145779595675, "lng": 111.00814720852316}, "feature": {"sight_features": "", "sight_content": ""}}, {"title": "蓝洋生态园采摘园", "address": "站前路2号", "image": "", "rank": 13, "time": 2, "location": {"lat": 42.53981953326596, "lng": 125.69523137902048}, "feature": {"sight_features": "", "sight_content": ""}}, {"title": "日本领事馆旧址", "address": "迎新街88", "image": "", "rank": 14, "time": 2, "location": {"lat": 44.40039638583441, "lng": 131.16948274590027}, "feature": {"sight_features": "", "sight_content": ""}}, {"title": "苏俄领事馆旧址", "address": "光华路111", "image": "", "rank": 15, "time": 2, "location": {"lat": 38.064748334225, "lng": 114.52000040656135}, "feature": {"sight_features": "", "sight_content": ""}}, {"title": "环湖公园", "address": "环湖路与同福街交叉口处", "image": "", "rank": 16, "time": 2, "location": {"lat": 44.413876997499024, "lng": 131.1622770753876}, "feature": {"sight_features": "", "sight_content": ""}}, {"title": "绥芬河森林公园", "address": "黑龙江省绥芬河市市西部", "image": "", "rank": 17, "time": 4.0, "location": {"lat": 44.41815437238761, "lng": 131.15739222566847}, "feature": {"sight_features": "", "sight_content": ""}}, {"title": "友谊公园", "address": "上海市宝山区密山路98号(近宝林路)", "image": "", "rank": 18, "time": 0.75, "location": {"lat": 31.407145462760916, "lng": 121.48700168862567}, "feature": {"sight_features": "", "sight_content": ""}}, {"title": "革命烈士纪念碑", "address": "牡丹江市绥芬河市黄河路2号", "image": "", "rank": 19, "time": 0.4, "location": {"lat": 44.42020775473684, "lng": 131.152432860609}, "feature": {"sight_features": "", "sight_content": ""}}, {"title": "阳光广场", "address": "通天路与金华街交叉口西50米", "image": "", "rank": 20, "time": 2, "location": {"lat": 44.39924916225519, "lng": 131.17066485666322}, "feature": {"sight_features": "", "sight_content": ""}}, {"title": "山顶公园", "address": "牡丹江市绥芬河市新华街", "image": "", "rank": 21, "time": 0.75, "location": {"lat": 44.401199932445955, "lng": 131.16826238888189}, "feature": {"sight_features": "", "sight_content": ""}}, {"title": "绥芬河游乐园", "address": "长江路25号", "image": "", "rank": 22, "time": 4.5, "location": {"lat": 38.9330750654958, "lng": 121.66410453690177}, "feature": {"sight_features": "", "sight_content": ""}}, {"title": "金家沟水库度假村", "address": "金家沟附近", "image": "", "rank": 23, "time": 2, "location": {"lat": 40.64675514732036, "lng": 117.12538167648465}, "feature": {"sight_features": "", "sight_content": ""}}, {"title": "昊林山庄", "address": "黑龙江省牡丹江市绥芬河市", "image": "", "rank": 24, "time": 2, "location": {"lat": 44.41815437238761, "lng": 131.15739222566847}, "feature": {"sight_features": "", "sight_content": ""}}, {"title": "金刚芭比儿童乐园", "address": "黑龙江省牡丹江市绥芬河市旗苑街27", "image": "", "rank": 25, "time": 2, "location": {"lat": 44.40259651414485, "lng": 131.14843540108959}, "feature": {"sight_features": "", "sight_content": ""}}, {"title": "中共六大暨红色国际通道纪念馆", "address": "站前路", "image": "", "rank": 26, "time": 2, "location": {"lat": 40.131500583359475, "lng": 116.27284120218751}, "feature": {"sight_features": "", "sight_content": ""}}, {"title": "暗战心理游戏工场", "address": "花园路116号", "image": "", "rank": 27, "time": 2, "location": {"lat": 37.68211198960581, "lng": 112.75343235291166}, "feature": {"sight_features": "", "sight_content": ""}}, {"title": "大千画廊", "address": "花园路118", "image": "", "rank": 28, "time": 2, "location": {"lat": 30.997668948318562, "lng": 103.95445913572888}, "feature": {"sight_features": "", "sight_content": ""}}, {"title": "富邦电能置业展厅", "address": "电力街70号", "image": "", "rank": 29, "time": 2, "location": {"lat": 30.246655082244107, "lng": 115.44274026837702}, "feature": {"sight_features": "", "sight_content": ""}}, {"title": "绥芬河市图书馆", "address": "青云路243号", "image": "", "rank": 30, "time": 1.5, "location": {"lat": 44.402257115315635, "lng": 131.1744745829073}, "feature": {"sight_features": "", "sight_content": ""}}, {"title": "欢乐谷雪上梦幻乐园", "address": "天佑国际环形桥下", "image": "", "rank": 31, "time": 2, "location": {"lat": 44.41111796932913, "lng": 131.17204726619897}, "feature": {"sight_features": "", "sight_content": ""}}, {"title": "军马场友福骨头锅", "address": "迎新街114号", "image": "", "rank": 32, "time": 2, "location": {"lat": 38.840763239664334, "lng": 117.45743095688765}, "feature": {"sight_features": "", "sight_content": ""}}, {"title": "莫斯科画廊", "address": "旭升大厦823", "image": "", "rank": 33, "time": 2.0, "location": {"lat": 34.68587460459502, "lng": 112.50555612954025}, "feature": {"sight_features": "", "sight_content": ""}}, {"title": "佳龙书画苑", "address": "迎新街88号人头楼1楼", "image": "", "rank": 34, "time": 2, "location": {"lat": 38.84325982475185, "lng": 117.4573288743478}, "feature": {"sight_features": "", "sight_content": ""}}, {"title": "叶瑞财超级记忆学", "address": "体育场路与旗苑街交叉口东南50米", "image": "", "rank": 35, "time": 2, "location": {"lat": 44.40225133579366, "lng": 131.14777329962362}, "feature": {"sight_features": "", "sight_content": ""}}, {"title": "牡丹江绥芬河市龙须沟步行街", "address": "黑龙江省绥芬河市龙须沟步行街", "image": "", "rank": 36, "time": 2.5, "location": {"lat": 44.40542038989858, "lng": 131.16855641505498}, "feature": {"sight_features": "", "sight_content": ""}}, {"title": "绥芬河旗镇街", "address": "黑龙江省绥芬河市通亚街19号", "image": "", "rank": 37, "time": 1.5, "location": {"lat": 44.40416210243201, "lng": 131.16939556355388}, "feature": {"sight_features": "", "sight_content": ""}}, {"title": "青年联合点", "address": "牡丹江市-绥芬河市-三零一国道", "image": "", "rank": 38, "time": 2, "location": {"lat": 44.40414413479259, "lng": 130.98161036618717}, "feature": {"sight_features": "", "sight_content": ""}}, {"title": "人头楼", "address": "牡丹江市绥芬河兴隆路", "image": "", "rank": 39, "time": 2, "location": {"lat": 44.398451431684485, "lng": 131.17045212264725}, "feature": {"sight_features": "", "sight_content": ""}}, {"title": "绥芬河中东铁路建筑群", "address": "绥芬河市通天路以西、梨树街以南的老城区内(绥芬河老火车站周边)", "image": "", "rank": 40, "time": 1.5, "location": {"lat": 44.40339119496546, "lng": 131.16459391668772}, "feature": {"sight_features": "", "sight_content": ""}}, {"title": "绥芬河铁路大白楼", "address": "牡丹江市绥芬河市花园路164号", "image": "", "rank": 41, "time": 1.5, "location": {"lat": 44.40281483606303, "lng": 131.16338679799765}, "feature": {"sight_features": "", "sight_content": ""}}, {"title": "三套车俄罗斯风情园", "address": "黑龙江省牡丹江绥芬河市永安街三套车俄罗斯风情园", "image": "", "rank": 42, "time": 2, "location": {"lat": 44.39635250313629, "lng": 131.16903336497566}, "feature": {"sight_features": "", "sight_content": ""}}]}