{"cityName": "绥化", "days": "", "cityImage": "", "spots": [{"title": "金龟山庄", "address": "绥化市东津镇福兴村", "image": "", "rank": 1, "time": 2, "location": {"lat": 46.71416536444219, "lng": 127.30632937216279}, "feature": {"sight_features": "", "sight_content": ""}}, {"title": "林枫故居纪念馆", "address": "绥化市望奎县城东南域文明路12号", "image": "", "rank": 2, "time": 2, "location": {"lat": 46.833057674445875, "lng": 126.49493203940436}, "feature": {"sight_features": "", "sight_content": ""}}, {"title": "凤凰城引龙池温泉体验馆", "address": "绥化市北林区康庄路一中北500米路东", "image": "", "rank": 3, "time": 2.0, "location": {"lat": 46.6441466338256, "lng": 126.99604961221547}, "feature": {"sight_features": "", "sight_content": ""}}, {"title": "八里城遗址", "address": "黑龙江绥化", "image": "", "rank": 4, "time": 2, "location": {"lat": 45.74792983743469, "lng": 126.66965282041836}, "feature": {"sight_features": "", "sight_content": ""}}, {"title": "东方红水库", "address": "绥化市海伦县", "image": "", "rank": 5, "time": 4.0, "location": {"lat": 47.456903841096434, "lng": 126.9365085755555}, "feature": {"sight_features": "", "sight_content": ""}}, {"title": "王子洋度假村", "address": "黑龙江省绥化市北林区辖区", "image": "", "rank": 6, "time": 2, "location": {"lat": 46.643492672111265, "lng": 126.99144894054609}, "feature": {"sight_features": "", "sight_content": ""}}, {"title": "悦庄生态园烤肉店", "address": "文化路", "image": "", "rank": 7, "time": 2, "location": {"lat": 39.74005789896059, "lng": 116.15120920962735}, "feature": {"sight_features": "", "sight_content": ""}}, {"title": "绥化博物馆", "address": "黑龙江省绥化市北林区新兴西街", "image": "", "rank": 8, "time": 2.5, "location": {"lat": 46.65615587370719, "lng": 126.97601880069944}, "feature": {"sight_features": "", "sight_content": ""}}, {"title": "北林区人民公园", "address": "黑龙江省绥化北林区人民公园", "image": "", "rank": 9, "time": 2, "location": {"lat": 46.622318996426465, "lng": 126.99825781334552}, "feature": {"sight_features": "", "sight_content": ""}}, {"title": "北横街人民公园", "address": "黑龙江省绥化市安达市北横街456号", "image": "", "rank": 10, "time": 2, "location": {"lat": 46.42609969918328, "lng": 125.34445236153866}, "feature": {"sight_features": "", "sight_content": ""}}, {"title": "妙象山温泉水上游乐城", "address": "绥化市望奎县S304省道候柱中学东南1500米路西", "image": "", "rank": 11, "time": 2, "location": {"lat": 46.718964058414606, "lng": 126.68644457582482}, "feature": {"sight_features": "", "sight_content": ""}}, {"title": "世纪华晨游乐厅", "address": "中兴东大街世纪华晨5楼(近正大鞋城)", "image": "", "rank": 12, "time": 2, "location": {"lat": 46.64192353500284, "lng": 126.99804741672051}, "feature": {"sight_features": "", "sight_content": ""}}, {"title": "国家水利风景区", "address": "黑龙江省绥化安达市红湖广场国家水利风景区", "image": "", "rank": 13, "time": 4.0, "location": {"lat": 46.5991872775273, "lng": 125.2572301789276}, "feature": {"sight_features": "", "sight_content": ""}}, {"title": "千鹤岛湿地公园", "address": "绥化市肇东市黎明镇", "image": "", "rank": 14, "time": 2, "location": {"lat": 45.87067663944851, "lng": 126.08660679104447}, "feature": {"sight_features": "", "sight_content": ""}}, {"title": "鑫鼎水族", "address": "南横十道街融府上城西门南侧11号楼15号商服鑫鼎水族", "image": "", "rank": 15, "time": 2, "location": {"lat": 46.42148304339668, "lng": 125.35235890887466}, "feature": {"sight_features": "", "sight_content": ""}}, {"title": "米稻乡农业", "address": "五方天雅4栋1号(近五方天雅商务会馆)", "image": "", "rank": 16, "time": 2, "location": {"lat": 39.870436386987855, "lng": 116.54495166187819}, "feature": {"sight_features": "", "sight_content": ""}}, {"title": "肇东植物园", "address": "民权北路", "image": "", "rank": 17, "time": 3.5, "location": {"lat": 30.36698132111171, "lng": 113.45406359745186}, "feature": {"sight_features": "", "sight_content": ""}}, {"title": "儿童乐园", "address": "绥化市青冈县兴隆大家庭2楼", "image": "", "rank": 18, "time": 2, "location": {"lat": 46.694401767456085, "lng": 126.11728584029608}, "feature": {"sight_features": "", "sight_content": ""}}, {"title": "庆安县图书馆", "address": "中央东大街71附近", "image": "", "rank": 19, "time": 2, "location": {"lat": 50.24868322538141, "lng": 127.52302089909567}, "feature": {"sight_features": "", "sight_content": ""}}, {"title": "肇东市人民公园", "address": "绥化市肇东市九道街", "image": "", "rank": 20, "time": 2.5, "location": {"lat": 46.07605507059629, "lng": 126.00474073617227}, "feature": {"sight_features": "", "sight_content": ""}}, {"title": "肇东市国画院", "address": "正阳大街", "image": "", "rank": 21, "time": 0.75, "location": {"lat": 39.85467294655798, "lng": 116.2941080740004}, "feature": {"sight_features": "", "sight_content": ""}}, {"title": "海伦市图书馆", "address": "光华路", "image": "", "rank": 22, "time": 1.5, "location": {"lat": 40.00562777397108, "lng": 116.3419423977455}, "feature": {"sight_features": "", "sight_content": ""}}, {"title": "艺美美术社", "address": "汗牛路212号", "image": "", "rank": 23, "time": 2, "location": {"lat": 46.41145772836907, "lng": 125.3388856108018}, "feature": {"sight_features": "", "sight_content": ""}}, {"title": "东阳美术社", "address": "正阳一道街100米", "image": "", "rank": 24, "time": null, "location": {"lat": 32.6116410772727, "lng": 114.39949655906064}, "feature": {"sight_features": "", "sight_content": ""}}, {"title": "延峻美术社", "address": "麻城大道", "image": "", "rank": 25, "time": 2, "location": {"lat": 46.26634807002973, "lng": 126.31274154175264}, "feature": {"sight_features": "", "sight_content": ""}}, {"title": "中国亚麻展览馆", "address": "哈黑公路", "image": "", "rank": 26, "time": 2, "location": {"lat": 46.672043544458894, "lng": 126.11746147159954}, "feature": {"sight_features": "", "sight_content": ""}}, {"title": "凌禹美术社", "address": "政府街", "image": "", "rank": 27, "time": 2, "location": {"lat": 40.10568856307779, "lng": 116.6699454253687}, "feature": {"sight_features": "", "sight_content": ""}}, {"title": "青冈县图书馆", "address": "哈黑路", "image": "", "rank": 28, "time": 2, "location": {"lat": 50.23253201168867, "lng": 127.47793931490759}, "feature": {"sight_features": "", "sight_content": ""}}, {"title": "东北民俗文化博览馆", "address": "绥化市兰西县乔家大院西北700米", "image": "", "rank": 29, "time": 2, "location": {"lat": 46.22770625453152, "lng": 126.33800356533825}, "feature": {"sight_features": "", "sight_content": ""}}, {"title": "皮影展厅", "address": "中央大街86号", "image": "", "rank": 30, "time": 2, "location": {"lat": 46.321705766014, "lng": 129.5667673206614}, "feature": {"sight_features": "", "sight_content": ""}}, {"title": "雅君美术社", "address": "前进路", "image": "", "rank": 31, "time": 2, "location": {"lat": 40.194442644733925, "lng": 116.22980840942719}, "feature": {"sight_features": "", "sight_content": ""}}, {"title": "东联工艺美术社", "address": "中央东大街", "image": "", "rank": 32, "time": 2, "location": {"lat": 50.24237078030019, "lng": 127.53131646751413}, "feature": {"sight_features": "", "sight_content": ""}}, {"title": "意达美术社", "address": "中兴路43号", "image": "", "rank": 33, "time": 2, "location": {"lat": 47.18821835924895, "lng": 125.91021157574632}, "feature": {"sight_features": "", "sight_content": ""}}, {"title": "文宝斋画廊", "address": "供水小区一楼", "image": "", "rank": 34, "time": 2, "location": {"lat": 46.84300343498215, "lng": 126.4772828001852}, "feature": {"sight_features": "", "sight_content": ""}}, {"title": "聚星书画苑", "address": "和文明路七星语言学校附近", "image": "", "rank": 35, "time": 2, "location": {"lat": 46.84315695579812, "lng": 126.49116247999281}, "feature": {"sight_features": "", "sight_content": ""}}, {"title": "温泉", "address": "哈尔滨美晨家园", "image": "", "rank": 36, "time": 0.7, "location": {"lat": 45.74005321002381, "lng": 126.58630296426747}, "feature": {"sight_features": "", "sight_content": ""}}, {"title": "肇东清真寺", "address": "黑龙江省绥化肇东市二合南路肇东清真寺", "image": "", "rank": 37, "time": 1.0, "location": {"lat": 46.07922924791114, "lng": 126.00587098416493}, "feature": {"sight_features": "", "sight_content": ""}}, {"title": "妙音图书馆", "address": "北横街138号", "image": "", "rank": 38, "time": 2, "location": {"lat": 41.95698390453326, "lng": 117.76556936699527}, "feature": {"sight_features": "", "sight_content": ""}}, {"title": "庙山公园", "address": "黑龙江省绥化望奎县庙山公园", "image": "", "rank": 39, "time": 2, "location": {"lat": 46.72025679164927, "lng": 126.68028714070665}, "feature": {"sight_features": "", "sight_content": ""}}, {"title": "OMG剧情密室逃吧", "address": "一中对面冬梅文具二楼(一中，三中，九中)", "image": "", "rank": 40, "time": 2, "location": {"lat": 30.710004772131434, "lng": 111.28541001714434}, "feature": {"sight_features": "", "sight_content": ""}}, {"title": "第四街区密室逃脱", "address": "北四东路二中对面胡同内", "image": "", "rank": 41, "time": 2, "location": {"lat": 46.64552815592581, "lng": 126.9870369130338}, "feature": {"sight_features": "", "sight_content": ""}}, {"title": "私人庄园", "address": "绥兰路2号", "image": "", "rank": 42, "time": 2, "location": {"lat": 46.43946565063486, "lng": 126.4569601687344}, "feature": {"sight_features": "", "sight_content": ""}}, {"title": "顶级逃吧真人密室逃脱旗舰店", "address": "中直南四路欢乐大世界5楼(老华联商厦)", "image": "", "rank": 43, "time": 2, "location": {"lat": 46.63323317435827, "lng": 126.99789548990283}, "feature": {"sight_features": "", "sight_content": ""}}, {"title": "H堡主题乐园", "address": "西直人民法院对过", "image": "", "rank": 44, "time": 2, "location": {"lat": 38.037901442879864, "lng": 114.52498813202409}, "feature": {"sight_features": "", "sight_content": ""}}, {"title": "王大鹏秘方专治", "address": "北四路嘉兴宾馆西侧胡同，银多小区商服", "image": "", "rank": 45, "time": 2, "location": {"lat": 46.647671686757036, "lng": 126.99955717813012}, "feature": {"sight_features": "", "sight_content": ""}}, {"title": "工农果菜采摘园", "address": "第九中学东300米路南", "image": "", "rank": 46, "time": 2, "location": {"lat": 39.07280088846132, "lng": 117.16570719831937}, "feature": {"sight_features": "", "sight_content": ""}}, {"title": "鑫泉浴池", "address": "中兴东大街与黄河北路交叉口东20米(南胜网吧东侧)", "image": "", "rank": 47, "time": 2, "location": {"lat": 46.63959477734961, "lng": 126.98466721453916}, "feature": {"sight_features": "", "sight_content": ""}}, {"title": "LIFE", "address": "中兴东大街正大现代广场3层", "image": "", "rank": 48, "time": 2, "location": {"lat": 46.642146118540836, "lng": 126.99620660457792}, "feature": {"sight_features": "", "sight_content": ""}}, {"title": "勇者真人密室逃脱室", "address": "中直南五路口南130米路东", "image": "", "rank": 49, "time": 2, "location": {"lat": 23.979695197722812, "lng": 108.09998764747623}, "feature": {"sight_features": "", "sight_content": ""}}, {"title": "北方书局-图书文化广场", "address": "绥化市北林区", "image": "", "rank": 50, "time": 2, "location": {"lat": 46.643492672111265, "lng": 126.99144894054609}, "feature": {"sight_features": "", "sight_content": ""}}, {"title": "欢乐谷儿童主题乐园", "address": "黄河北路华辰超市二楼", "image": "", "rank": 51, "time": 2, "location": {"lat": 31.389303599861062, "lng": 120.98224372285715}, "feature": {"sight_features": "", "sight_content": ""}}, {"title": "新世纪大戏院", "address": "中直北路57号附近", "image": "", "rank": 52, "time": 2, "location": {"lat": 46.65305997058899, "lng": 126.99327829383448}, "feature": {"sight_features": "", "sight_content": ""}}, {"title": "影子蜡像馆", "address": "华联欢乐大世界4楼", "image": "", "rank": 53, "time": 2, "location": {"lat": 38.48922351045835, "lng": 112.96935388559734}, "feature": {"sight_features": "", "sight_content": ""}}, {"title": "绿海山庄", "address": "202省道", "image": "", "rank": 54, "time": 2, "location": {"lat": 37.77792504283699, "lng": 114.12616671611477}, "feature": {"sight_features": "", "sight_content": ""}}, {"title": "东林寺", "address": "绥化市兰西县麻城大道", "image": "", "rank": 55, "time": 1.5, "location": {"lat": 46.26634807002973, "lng": 126.31274154175264}, "feature": {"sight_features": "", "sight_content": ""}}, {"title": "肇东水田农场", "address": "涝洲镇三星村", "image": "", "rank": 56, "time": 2, "location": {"lat": 45.75142624835666, "lng": 126.01369084412092}, "feature": {"sight_features": "", "sight_content": ""}}, {"title": "绥棱县图书馆", "address": "步行街210-212号附近", "image": "", "rank": 57, "time": 2, "location": {"lat": 31.4707878758284, "lng": 104.75488769018823}, "feature": {"sight_features": "", "sight_content": ""}}, {"title": "爱国马场", "address": "802乡道附近", "image": "", "rank": 58, "time": 2, "location": {"lat": 39.935397252199444, "lng": 115.593211003792}, "feature": {"sight_features": "", "sight_content": ""}}, {"title": "绥棱县振同种猪繁育基地", "address": "175县道北50米", "image": "", "rank": 59, "time": 2, "location": {"lat": 24.0134713404049, "lng": 115.35637956801415}, "feature": {"sight_features": "", "sight_content": ""}}, {"title": "自主创业者创业孵化基地", "address": "人民路125附近", "image": "", "rank": 60, "time": 2, "location": {"lat": 37.076985219346355, "lng": 115.03361541942085}, "feature": {"sight_features": "", "sight_content": ""}}]}