{"cityName": "绥宁", "days": 2, "cityImage": "", "spots": [{"title": "黄桑国家级自然保护区", "address": "邵阳市绥宁县黄桑坪苗族乡黄桑", "image": "", "rank": 1, "time": 2, "location": {"lat": 26.430212203074564, "lng": 110.0662982263169}, "feature": {"sight_features": "", "sight_content": ""}}, {"title": "六鹅洞瀑布", "address": "湖南省绥宁县黄桑苗族乡 422624", "image": "", "rank": 2, "time": 2, "location": {"lat": 26.588422719333217, "lng": 110.16241987037962}, "feature": {"sight_features": "", "sight_content": ""}}, {"title": "绥宁水上世界", "address": "沙湾路16号", "image": "", "rank": 3, "time": 7.5, "location": {"lat": 22.61497686676542, "lng": 114.17071232409393}, "feature": {"sight_features": "", "sight_content": ""}}, {"title": "邵阳关峡", "address": "湖南省绥宁县关峡苗族乡 422601", "image": "", "rank": 4, "time": 1.5, "location": {"lat": 26.57351851148913, "lng": 110.29414168158775}, "feature": {"sight_features": "", "sight_content": ""}}, {"title": "穗花杉", "address": "湖南省绥宁县神坡山 422600", "image": "", "rank": 5, "time": 2, "location": {"lat": 26.686582769037432, "lng": 110.15459157623584}, "feature": {"sight_features": "", "sight_content": ""}}, {"title": "流莺谷", "address": "湖南省绥宁县黄桑苗族乡上堡村 422624", "image": "", "rank": 6, "time": 2, "location": {"lat": 26.37542499311281, "lng": 110.142081020928}, "feature": {"sight_features": "", "sight_content": ""}}, {"title": "磅子岩崖墓", "address": "湖南省绥宁县黄桑坪苗族乡黄桑坪村 422624", "image": "", "rank": 7, "time": 2, "location": {"lat": 26.54101136359906, "lng": 110.30193372281607}, "feature": {"sight_features": "", "sight_content": ""}}, {"title": "洛口山景区", "address": "湖南省绥宁县李熙镇 422600", "image": "", "rank": 8, "time": 1.5, "location": {"lat": 26.79642018028274, "lng": 110.42906898821053}, "feature": {"sight_features": "", "sight_content": ""}}, {"title": "最峰寺", "address": "湖南省邵阳市绥宁县S221", "image": "", "rank": 9, "time": 2, "location": {"lat": 26.588422719333217, "lng": 110.16241987037962}, "feature": {"sight_features": "", "sight_content": ""}}, {"title": "白石寺", "address": "邵阳市绥宁县", "image": "", "rank": 10, "time": 2, "location": {"lat": 26.588422719333217, "lng": 110.16241987037962}, "feature": {"sight_features": "", "sight_content": ""}}, {"title": "绥宁县图书馆", "address": "中心路37号", "image": "", "rank": 11, "time": null, "location": {"lat": 37.89006304413075, "lng": 114.66408445210561}, "feature": {"sight_features": "", "sight_content": ""}}, {"title": "绥宁县佘家无花果种植专业合作社", "address": "佘家村无花果采摘园A区", "image": "", "rank": 12, "time": 2, "location": {"lat": 34.46708665482938, "lng": 117.48515381655324}, "feature": {"sight_features": "", "sight_content": ""}}, {"title": "绥宁县百灵艺术团", "address": "中心路", "image": "", "rank": 13, "time": 2, "location": {"lat": 39.02339741954867, "lng": 117.07202799480481}, "feature": {"sight_features": "", "sight_content": ""}}, {"title": "鸡公坡红军烈士纪念亭", "address": "湖南省绥宁县瓦屋塘乡", "image": "", "rank": 14, "time": 2, "location": {"lat": 26.903383854993812, "lng": 110.35493862927942}, "feature": {"sight_features": "", "sight_content": ""}}, {"title": "巫水", "address": "湖南省绥宁县境内", "image": "", "rank": 15, "time": 2, "location": {"lat": 26.588422719333217, "lng": 110.16241987037962}, "feature": {"sight_features": "", "sight_content": ""}}, {"title": "定远桥", "address": "湖南省绥宁县关峡乡", "image": "", "rank": 16, "time": 0.5, "location": {"lat": 26.588422719333217, "lng": 110.16241987037962}, "feature": {"sight_features": "", "sight_content": ""}}]}