{"cityName": "遂宁", "days": "", "cityImage": "", "spots": [{"title": "中国死海", "address": "遂宁市大英县蓬莱镇胡家坝", "image": "", "rank": 1, "time": 4.0, "location": {"lat": 30.606066692871988, "lng": 105.25719221293095}, "feature": {"sight_features": "特色1 集新颖性、时尚性、趣味性为一体的旅游度假地。 特色2 不出国门就能体验自然漂浮于水面的神奇。", "sight_content": "温馨提示\n1、泡汤方式：男女混浴\n\n2、洗浴设施：提供洗浴用品毛巾拖鞋\n3、必备用品：需要自备泳衣泳裤，或者购买。\n4、综合设施：室内室外数个休闲场馆\n5、免费提供：不泡温泉可以到休息区休息\n6、不宜人群：饮酒宾客，心、脑、血管疾病、高血压、低血压、孕妇\n7、其他：在不沉湖浸泡时间不宜过长，以40分钟为宜，上岸后可到淡水游泳场、竹楼戏水等处用淡水冲洗，这样既可以冲掉身上残留的卤水，还可体验另外一种娱乐活动。\n\n\n温泉实用信息\n温泉水温：室内恒温漂浮池，温度在40度左右，室外常温\n特色泡池：不沉湖\n餐饮信息：酒店、餐厅可用餐，需付费\n特色项目：黑泥体验项目、需付费\n娱乐设施：多个休闲场馆\n安全提示：饮酒宾客，心、脑、血管疾病、高血压、低血压、孕妇不能泡温泉。如果眼、鼻、口等部位进水会感到不适，应立即上岸用淡水清洗；有心脏病、体质弱、醉酒、晕水者不宜下水，老年人、儿童应在他人陪护下在浅水区游泳。\n周边交通及商圈：可自行导航周围交通、自驾等信息\n\n\n“中国死海”位于四川省大英县蓬莱镇，是四川旅游产业的又一大新亮点，是国内以漂浮为注册商标的大型旅游度假区。以享誉中外的“卓筒井”古老的采盐技术为基础，有效利用千年地下盐卤水资源，深度挖掘盐文化内涵，为游客创造了死海漂浮，结晶盐体验，黑泥养身等新 , 奇 , 特的项目，横空出世即广受市场认可，填补了旅游业健康度假的空白，在旅游行业被称为“死海神话”。\n为了更加满足都市人对旅游方式在精神上的追求：休闲，养生，快乐度假已成为现代人们所追崇的。为此，中国死海在传统旅游单一的观光模式基础上 ，以“休闲”为核心，以“体验”互动为标志的旅游模式，一年四季均可漂浮畅游。\n漂浮，神奇得不可描述\n来自地下3000米的天然古盐湖海水，含盐量超过22%，因而浮而不沉。死海海水中蕴含钠，钾，钙等40多种矿物质微量元素，具有良好的康体美肤功效。常年恒温，冬季热漂，可充分舒缓疲劳，缓解精神压力。室外漂浮，静静躺在水面，可赏死海美景，蓝天，白云，不时掠过飞鸟，仿佛置身生态园。夜晚更加静谧，清爽，让人无法安放的烦恼抛之远去，独赏夜空中最亮的星。\n黑泥·释放野性的青春。\n源自中国死海深度开发的神奇的盐卤资源，黑泥体验馆有我们独有的特色。”一抹一泡“让人流连忘返。黑泥有让肌肤美白光滑。明媚夏日可到死海体验黑泥大战，黑泥劲舞等。\n健康盐世界·像玩沙一样\n中国死海以“盐”为元素，让孩子们“像玩沙子一样耍盐，爱美之人将盐粒抹在身上按摩，可以祛除老化的角质层，达到美白肌肤的作用，可促进新陈代谢，燃烧皮下脂肪。同时死海盐中所含的硅酸盐释放的大量空气负离子，对呼吸道疾病具有良好的理疗作用。\n\n\n\n\n激情冲浪·快乐得像个孩子\n中国死海冲浪区位于室内水上世界，可同时容纳10000人冲浪。冲浪池采用美国最新造浪设备，是中国第一台真空造浪机组，巨浪可达3米。大排浪，V型浪，卷浪，涌浪···最激情的水上娱乐只有这里。\n休闲度假·亲子娱乐\n留下一段充满回味的亲子时光,带着孩子一起疯耍娱乐,亲密互动，寓教 于乐！,心与心的距离就此拉近,一起感受爱的亲昵。\n健康俱乐部：\n位于太阳城酒店内，运动环境优良，高端健身器材，为入住酒店游客提供免费慢跑，器械锻炼，有氧健身 ，运动恢复健康娱乐等服务。引领进入中国死海景区的游客朋友参与健康运动，享受中国死海旅游度假区独有的健康休闲度假方式。"}}, {"title": "灵泉寺风景区", "address": "遂宁市船山区仁里镇灵泉风景区", "image": "", "rank": 2, "time": 2.5, "location": {"lat": 30.524654950828186, "lng": 105.62901150124468}, "feature": {"sight_features": "特色1 以千年古刹灵泉寺为依托。 特色2 中国十分古老的观音道场。", "sight_content": "灵泉风景区是以千年古刹---灵泉寺为依托，新建成的一个融自然和文化为一体的大型景区。整个景区分为灵泉佛教文化区和灵泉文化休闲区。\n灵泉风景区佛教文化区由上庙、下庙中的观音阁、地藏殿、五佛殿、大雄宝殿、天王殿、及梵音亭、观音柏、关刀柏、梅山书屋、阴险坟等景点构成，新增了万佛广场、庄王阁、和巨型三面佛等重要景观，其中，三面观音立佛像是景区的标志之一。\n灵泉寺风景区位于遂宁市河东新区，占地约230公顷，分为观音文化城和休闲文化旅游区两大板块。观音文化城以千年古刹灵泉寺的上庙、下庙、梅山书屋、千龙壁、梵音亭、圣水井、观音柏、阴阳坟及文物古迹和庄王阁、万佛广场、观音壁，以及屹立于木鱼坡顶的观音三姐妹等景点组成，充分展示了民间传说的观音诞生地的特点，是人们探寻观音文化历史渊源的旅游仙境。文化旅游休闲区包括农耕文化、植树园、灵泉新村、养生健身中心，那里有水景、石景、园林花景等，是人们休闲娱乐的最佳去处。"}}, {"title": "龙凤古镇", "address": "遂宁市船山区龙凤古镇", "image": "", "rank": 3, "time": 3.0, "location": {"lat": 30.444252085375282, "lng": 105.6434695361904}, "feature": {"sight_features": "特色1 领略川中少见的水乡风景，感受观音文化的深厚洗礼 特色2 古镇鬼屋是人鬼情未了的爱情故事，整个鬼屋是殷家的老宅，殷家小姐爱上了一个穷书生。 特色3 书生却天天守在殷家老宅子里，后来他是人是鬼要靠每位每位游客进去了解他了。", "sight_content": "龙凤古镇距今已有两千多年的历史，此地既是川中古代水路重镇，也是遂宁观音文化的发源地，是西汉兴宁国国都 、妙善公主（观音姐妹）出生地，是古德阳郡郡府所在。在这里不仅能领略川中少见的水乡风景，更能充分感受观音文化的深厚洗礼。\n古镇鬼屋是人鬼情未了的爱情故事，整个鬼屋是殷家的老宅，殷家小姐爱上了一个穷书生。老父反对，囚禁在绣楼 中，小姐上吊死去，相继父母双亡，从此殷家鬼魂四处游荡，哀哭，悲叹，低吟等声音在空气中弥漫。书生却天天守在殷家老宅子里，后来他是人是鬼要靠每位每位游客进去了解他了。"}}, {"title": "广德寺风景区", "address": "遂宁市广德寺", "image": "", "rank": 4, "time": 2.5, "location": {"lat": 30.498913597974646, "lng": 105.5747206542568}, "feature": {"sight_features": "特色1 中国最古老的观音道场", "sight_content": "遂宁广德寺始建于汉，兴盛于唐，由克幽禅师开山阐教，后克幽于唐贞元三年(787）圆寂。宋安岳县知事赵嗣业作《克幽禅师记》称其肉身塔使“五色圆光现谷中，人以为观音化身。”北宋谢瑾在《遂州广利禅寺善济塔记》中也说：克幽肉身塔“遭会昌毁灭，塔圮成池，白莲化生，……山谷之间，光相环绕……观音圣像仿佛其中，相国琅琊公掘寻灵迹，得钩锁骨如紫金，此皆观音大士化身，复为建塔，立殿其侧。川县僚属，僧道士女，无贵贱老幼，倾心崇敬。”\n广德寺是中国最古老的观音道场。清寺僧源性在现存广德寺的《西来玉佛》碑中称：“本寺历朝敕建，为观音大士道场，四众归崇、功德壮龙天敬仰，六和僧集。”更具权威性、史据性的是：宋真宗大中祥符四年(1011)正月，敕赐广德寺寺名为“广利禅寺”，并“敕赐广利禅寺观音珠宝印”一颗，现存寺内。比峨眉山受赐普贤铜印早600年。\n民间对观音的朝山进香活动就更为火热，形成了历史上经济活动、文化活动、民俗佛教活动的传统节日。这种口头承传的历史文化遗产代代相传，明席书撰《广利寺记》言：“克幽塔在观音殿后，殿塑观音，即克幽化像。”“其徒僧会净本……主领三百余山”（《广德寺志》自编版）。据释义观《广德寺历史沿革》记：“广德寺自唐迄今，千余年来，几经兴替，均由僧侣募化扩修，结好于东亚邻邦，明清以来，香烟旺盛，每年春季，香会期间，全国各地，海外侨胞、友邦，前来礼佛进香者络绎不绝，每日不下万人。盛况为全川寺庙之冠。”遂宁县城有句口头禅：“生意做了二月香会节，关上门也可以吃一年。” 丰富多彩的民间音乐艺术，吹、打、弹、唱、拉都在香会中比赛，真是“百花齐放”。书法绘画艺术的交流，灵泉、广德的壁画和许多名人高手书写的匾额都引人注目。"}}, {"title": "中华侏罗纪公园", "address": "遂宁市射洪县明星镇东南4公里处", "image": "", "rank": 5, "time": 2, "location": {"lat": 30.68744684601945, "lng": 105.37768451540926}, "feature": {"sight_features": "特色1 展有各种恐龙化石，了解恐龙的好景点。", "sight_content": "四川射洪硅化木国家地质公园位于射洪县明星镇境内，西近成都，南邻重庆，北抵绵阳。该公园2005年被中国古生物学会命名为“全国科普教育基地”，并且是2010年第八届国际侏罗纪大会确定的重要科研科考基地之一。\n有西南地区规模最大、保存最完整的硅化木化石群和恐龙化石点，有古人类化石、乌木、湖湘沉积波痕群，类岩溶景观、峡谷地貌景观、龙洞河水体景观、古山寨、古洞穴等人文景观。\n是一处集地质遗址、科学研究、科普教育、旅游观光、休闲度假为一体的综合型地质公园。"}}, {"title": "观音湖景区", "address": "遂宁市船山区犀牛提码头", "image": "", "rank": 6, "time": 3.5, "location": {"lat": 30.531470607828908, "lng": 105.57452283750214}, "feature": {"sight_features": "特色1 观音湖景区是遂宁市的重点旅游景区，自然、人文景观十分丰富。 特色2 以“亲水、戏水、乐水”为主题，突出自然、生态、现代、体验、参与性的亲水休闲娱乐，依托圣莲岛、圣露岛和圣平岛。", "sight_content": "观音湖位于遂宁市船山区，面积达14.8平方公里，自然、人文景观十分丰富。市委、市政府以“亲水、戏水、乐水”为主题，突出自然、生态、现代、体验、参与性的亲水休闲娱乐，依托圣莲岛、圣露岛、圣平岛及涪江20公里水岸线的独特资源进行整体开发，打造的优美中央生态区、环保产业发展区、城市亲水度假中心、综合水岛开发区。\n观音湖景区地处遂宁市广德与灵泉两寺之间，湖泊水面面积达14.8平方公里，传说是因观音菩萨在此显圣而得名。其中，圣露岛将打造为“中国观音文化城暨中央新影影视基地”，着力打造西部文化产业高地。\n观音湖景区是遂宁市的重点旅游景区，自然、人文景观十分丰富，两倍于西湖的巨大“观音湖”和数个河心岛,呈现出城中有水,水中有城,“落霞与孤鹜齐飞,秋水共长天一色”西部水都的美丽景观。"}}, {"title": "碧海玉都城市温泉", "address": "遂宁市船山区明月路787号（明月景商用楼1-5F）", "image": "", "rank": 7, "time": 2, "location": {"lat": 30.544325097487135, "lng": 105.55646103440984}, "feature": {"sight_features": "", "sight_content": ""}}, {"title": "子昂故里", "address": "遂宁市射洪县金华镇", "image": "", "rank": 8, "time": 0.75, "location": {"lat": 31.00435995395571, "lng": 105.2670601366869}, "feature": {"sight_features": "特色1 集历史文化、自然生态、宗教文化为一体", "sight_content": "子昂故里文化旅游区位于距离射洪县城北20公里的千年古镇—金华镇，是一个“半城山水半城诗” 的千年古镇，集历史文化、自然生态、宗教文化为一体，海内文宗陈子昂从这里走向了长安庙堂，完成了唐诗革新的里程，奏响了大唐盛世的音符。\n素有川中小蓬莱美誉的金华山座落在小镇以北，前山崇道，后峰尚儒，形成了儒释道并育共生的独特风景。前山有1500年历史的蜀中四大名观之一的“金华山道观”，被宋神宗御赐“玉京观“，殿阁之上有历代名流雅士的楹联，玉皇殿前更有前代高道吟咏金华山美景的回文诗碑，正读反诵皆成妙笔。\n后山是陈子昂学成之地（国家级重点文物保护单位）——读书台，台内匾对甚多，多数为古今名家手迹，镌刻着陈子昂开启盛唐诗风的《三十八首感遇诗》及幽州台绝唱。山上古松苍柏窥云表、下瞰长河。林间亭台楼阁依山而建，随物赋形。诗圣杜甫曾杖策前来，挥毫写下留存于世的唯一手迹，诗碑立韵于纯阳阁楼前。"}}, {"title": "观音湖湿地公园", "address": "中国四川省遂宁市河东新区灵云路1号", "image": "", "rank": 9, "time": 2, "location": {"lat": 30.52315527730942, "lng": 105.61804280020496}, "feature": {"sight_features": "", "sight_content": ""}}, {"title": "螺湖水世界", "address": "遂宁市射洪县螺湖半岛生态旅游度假区", "image": "", "rank": 10, "time": 4.0, "location": {"lat": 30.914363309900764, "lng": 105.37033711294814}, "feature": {"sight_features": "", "sight_content": ""}}, {"title": "中国红海生态旅游景区", "address": "遂宁市蓬溪县318国道附近", "image": "", "rank": 11, "time": 2, "location": {"lat": 30.67431362114653, "lng": 105.67629294669415}, "feature": {"sight_features": "", "sight_content": ""}}, {"title": "十里荷画", "address": "遂宁市船山区河沙镇凤凰咀村十里荷画旅游区", "image": "", "rank": 12, "time": 2, "location": {"lat": 30.624437156818676, "lng": 105.6873285607147}, "feature": {"sight_features": "", "sight_content": ""}}, {"title": "永不沉没的泰坦尼克", "address": "遂宁市大英县浪漫地中海七星国际文化旅游度假区内", "image": "", "rank": 13, "time": 2, "location": {"lat": 30.600810129920717, "lng": 105.24340392313277}, "feature": {"sight_features": "", "sight_content": ""}}, {"title": "中国宋瓷博物馆", "address": "西山路613号", "image": "", "rank": 14, "time": 2, "location": {"lat": 30.53557617723048, "lng": 120.69199006012035}, "feature": {"sight_features": "", "sight_content": ""}}, {"title": "龙凤峡漂流", "address": "遂宁市射洪县明星镇蔡家坝龙凤峡景区", "image": "", "rank": 15, "time": 2, "location": {"lat": 30.68744684601945, "lng": 105.34175229501014}, "feature": {"sight_features": "特色1 挑战者的乐园", "sight_content": "四川龙凤峡（国家级硅化木地质公园）旅游区位于射洪县明星镇东南4公里处，距成南高速公路大英段隆盛出入口4公里，距中国死海15公里，景区规划面积12平方公里。\n龙凤峡漂流总长约4.8公里，全程落差高达90米，漂流水源取自都江堰，由专业团队精心设计打造。起点从寨子山顶漂出后经过一段人工航道，穿过森林隧道、悬空漂道，从山顶速降冲入漂流最惊险的峡谷河段。\n\n\n经廊桥观瀑、闯凤潭响塘，穿行在古寺栈道间，挑战急流险滩静观流水动观山，积淀的激情、脱缰的极限，华丽丽一气呵成，保证刷爆你的朋友圈。\n来吧，让我们穿过九曲直下龙潭，尽享曲折跌宕起伏之惊险!"}}, {"title": "高峰山道观", "address": "四川省蓬溪县", "image": "", "rank": 16, "time": 2, "location": {"lat": 30.76375144179148, "lng": 105.71344605411188}, "feature": {"sight_features": "", "sight_content": ""}}, {"title": "白鹤公园", "address": "安徽省池州市贵池区", "image": "", "rank": 17, "time": 1.0, "location": {"lat": 30.693857943819243, "lng": 117.57449037048667}, "feature": {"sight_features": "", "sight_content": ""}}, {"title": "狮子山", "address": "遂宁市蓬溪县天福镇", "image": "", "rank": 18, "time": 1.5, "location": {"lat": 30.734785168799426, "lng": 105.50988838165179}, "feature": {"sight_features": "", "sight_content": ""}}, {"title": "中国红海佳和游乐园", "address": "进大门左转100米处", "image": "", "rank": 19, "time": 2, "location": {"lat": 40.67471635617735, "lng": 122.24904617864392}, "feature": {"sight_features": "", "sight_content": ""}}, {"title": "彭州市蜀水荷乡", "address": "成都市彭州市红岩镇", "image": "", "rank": 20, "time": 7.5, "location": {"lat": 31.146156997078954, "lng": 104.01264858012155}, "feature": {"sight_features": "", "sight_content": ""}}, {"title": "养心园农家乐", "address": "龙凤古镇", "image": "", "rank": 21, "time": 2, "location": {"lat": 30.444252085375282, "lng": 105.6434695361904}, "feature": {"sight_features": "", "sight_content": ""}}, {"title": "鑫琪军事培训基地", "address": "明星大道496号(龙凤古镇)", "image": "", "rank": 22, "time": 2, "location": {"lat": 30.473961407027403, "lng": 105.60685284437551}, "feature": {"sight_features": "", "sight_content": ""}}, {"title": "兴吉山庄", "address": "318国道", "image": "", "rank": 23, "time": 2, "location": {"lat": 31.023348267795328, "lng": 120.88254137011852}, "feature": {"sight_features": "", "sight_content": ""}}, {"title": "天上宫", "address": "西山北路611号", "image": "", "rank": 24, "time": 2, "location": {"lat": 30.529303296912545, "lng": 105.56459503898904}, "feature": {"sight_features": "", "sight_content": ""}}, {"title": "大佛岩", "address": "步云乡黄盐进村", "image": "", "rank": 25, "time": 2.0, "location": {"lat": 30.458685208942185, "lng": 105.22221299855924}, "feature": {"sight_features": "", "sight_content": ""}}, {"title": "贺氏生态农业开发有限公司", "address": "石洞镇尖山子村10社", "image": "", "rank": 26, "time": 2, "location": {"lat": 30.381684111609513, "lng": 105.35388177026034}, "feature": {"sight_features": "", "sight_content": ""}}, {"title": "金色阳光啤酒广场", "address": "船山区金色海岸露天停车场2楼(近渔道)", "image": "", "rank": 27, "time": 2, "location": {"lat": 30.531786001528772, "lng": 105.56898990347624}, "feature": {"sight_features": "", "sight_content": ""}}, {"title": "沿河广场", "address": "金色海岸附近", "image": "", "rank": 28, "time": 0.75, "location": {"lat": 37.028095061692895, "lng": 114.508596552858}, "feature": {"sight_features": "", "sight_content": ""}}, {"title": "安逸啤酒广场", "address": "遂宁船山区碧水逸景小区附近", "image": "", "rank": 29, "time": 2, "location": {"lat": 30.520791386918457, "lng": 105.58010720939986}, "feature": {"sight_features": "", "sight_content": ""}}, {"title": "王子啤酒广场", "address": "四川省遂宁市船山区鸿发东街172", "image": "", "rank": 30, "time": 2, "location": {"lat": 30.54388702114812, "lng": 105.57591516484358}, "feature": {"sight_features": "", "sight_content": ""}}, {"title": "玻璃塔夜啤酒广场", "address": "滨江路玻璃塔", "image": "", "rank": 31, "time": 2, "location": {"lat": 30.498683603127034, "lng": 105.59354921769513}, "feature": {"sight_features": "", "sight_content": ""}}, {"title": "九莲社区文艺广场", "address": "北固东路与滨江北路交叉口北100米", "image": "", "rank": 32, "time": 2, "location": {"lat": 30.546729905032574, "lng": 105.57724646297788}, "feature": {"sight_features": "", "sight_content": ""}}, {"title": "卡丁车", "address": "凯东路与滨江中路交叉口北100米", "image": "", "rank": 33, "time": 0.1, "location": {"lat": 30.50863384259695, "lng": 105.60278751193268}, "feature": {"sight_features": "", "sight_content": ""}}, {"title": "骑乐无穷车行", "address": "圣莲岛黄莲渡夏威夷", "image": "", "rank": 34, "time": 2, "location": {"lat": 39.83582563660772, "lng": 116.40564069438999}, "feature": {"sight_features": "", "sight_content": ""}}, {"title": "万象农庄", "address": "万林乡夏团路", "image": "", "rank": 35, "time": 2.0, "location": {"lat": 31.47853273580597, "lng": 102.11062517246982}, "feature": {"sight_features": "", "sight_content": ""}}, {"title": "安踏体育", "address": "学宛路蓬溪中学对面", "image": "", "rank": 36, "time": 2, "location": {"lat": 30.76013678712549, "lng": 105.70339701938886}, "feature": {"sight_features": "", "sight_content": ""}}, {"title": "高峰山", "address": "文井镇", "image": "", "rank": 37, "time": 2, "location": {"lat": 24.305889190063464, "lng": 100.93682800187149}, "feature": {"sight_features": "", "sight_content": ""}}, {"title": "蓬溪县尹耀九叶青花椒专业合作社", "address": "建兴林业开发有限公司附近", "image": "", "rank": 38, "time": 2, "location": {"lat": 29.14998391816187, "lng": 118.41693644290207}, "feature": {"sight_features": "", "sight_content": ""}}, {"title": "蓬溪县红江恭平蔬菜专业合作社(...", "address": "常回路附近", "image": "", "rank": 39, "time": 2, "location": {"lat": 30.68314473614748, "lng": 105.44635164704991}, "feature": {"sight_features": "", "sight_content": ""}}, {"title": "射洪县德利源莲藕种植基地", "address": "金华镇金华山后大门前行200米", "image": "", "rank": 40, "time": 2, "location": {"lat": 30.998999097569815, "lng": 105.28938671076413}, "feature": {"sight_features": "", "sight_content": ""}}, {"title": "大英隆跃农业有限公司", "address": "郪江中路10", "image": "", "rank": 41, "time": 2, "location": {"lat": 30.599954237233224, "lng": 105.2531676488394}, "feature": {"sight_features": "", "sight_content": ""}}, {"title": "郭子仪后裔墓群", "address": "四川省大英县隆盛镇崇英村 629308", "image": "", "rank": 42, "time": 2, "location": {"lat": 30.583906539155848, "lng": 105.33172516995849}, "feature": {"sight_features": "", "sight_content": ""}}, {"title": "教孝台", "address": "四川省蓬溪县宝梵镇长海村 629124", "image": "", "rank": 43, "time": 2, "location": {"lat": 30.69785519981091, "lng": 105.67463489301097}, "feature": {"sight_features": "", "sight_content": ""}}, {"title": "1000度啤酒广场", "address": "蜀北上路89号附近", "image": "", "rank": 44, "time": 2, "location": {"lat": 30.779583651228656, "lng": 105.72149517879635}, "feature": {"sight_features": "", "sight_content": ""}}, {"title": "时间走廊", "address": "洪达家鑫路下段179号", "image": "", "rank": 45, "time": 2, "location": {"lat": 30.861873274322054, "lng": 105.38252979746557}, "feature": {"sight_features": "", "sight_content": ""}}, {"title": "四方园啤酒广场", "address": "富源路城南加油站耙嘴巴对面", "image": "", "rank": 46, "time": 2, "location": {"lat": 30.85951115393786, "lng": 105.385060308816}, "feature": {"sight_features": "", "sight_content": ""}}, {"title": "雪花啤酒广场", "address": "四川省遂宁市射洪县新华上街金城丽景附近(南方名城附近)", "image": "", "rank": 47, "time": 2, "location": {"lat": 30.863135570453814, "lng": 105.39289150718409}, "feature": {"sight_features": "", "sight_content": ""}}, {"title": "金三角美食休闲广场", "address": "四川省遂宁市射洪县黄保路1", "image": "", "rank": 48, "time": 2, "location": {"lat": 30.86730482264222, "lng": 105.39528097468806}, "feature": {"sight_features": "", "sight_content": ""}}, {"title": "月亮岛雪花啤酒广场", "address": "紫薇街南50米", "image": "", "rank": 49, "time": 2, "location": {"lat": 30.2467565169835, "lng": 120.16959672856308}, "feature": {"sight_features": "", "sight_content": ""}}, {"title": "龙泉山庄", "address": "遂宁遂宁射洪县原龙泉天景度假村", "image": "", "rank": 50, "time": 2, "location": {"lat": 30.88468863355867, "lng": 105.35147176839071}, "feature": {"sight_features": "", "sight_content": ""}}, {"title": "蓝色港湾度假村", "address": "四川省遂宁市射洪县明珠街翰林花苑度假村南150米", "image": "", "rank": 51, "time": 2, "location": {"lat": 30.890896471235706, "lng": 105.38526165591131}, "feature": {"sight_features": "", "sight_content": ""}}, {"title": "射洪县王者泰拳搏击俱乐部", "address": "明珠小区2层2号", "image": "", "rank": 52, "time": 2, "location": {"lat": 36.361856637951796, "lng": 114.9299121936019}, "feature": {"sight_features": "", "sight_content": ""}}, {"title": "四川烹专高尔夫教育学院招生办", "address": "星光巷53号附近", "image": "", "rank": 53, "time": 2, "location": {"lat": 30.874845876393408, "lng": 105.3876880168226}, "feature": {"sight_features": "", "sight_content": ""}}, {"title": "漂流瓶", "address": "滨江路中段590", "image": "", "rank": 54, "time": 2, "location": {"lat": 29.58259296964336, "lng": 103.77717429465856}, "feature": {"sight_features": "", "sight_content": ""}}, {"title": "竹茵台休闲莊", "address": "广场路与武古渡街交叉口旁(伊斯兰牛肉馆旁、城南工商所斜对面)", "image": "", "rank": 55, "time": 2, "location": {"lat": 30.86924091065355, "lng": 105.3945223556849}, "feature": {"sight_features": "", "sight_content": ""}}, {"title": "华尔街清吧", "address": "金帝花园107号", "image": "", "rank": 56, "time": 2, "location": {"lat": 37.94256506296807, "lng": 115.22883528783237}, "feature": {"sight_features": "", "sight_content": ""}}, {"title": "天上宫观音民俗文化博览苑", "address": "四川省遂宁市西山北路611号", "image": "", "rank": 57, "time": 2, "location": {"lat": 30.529303296912545, "lng": 105.56459503898904}, "feature": {"sight_features": "", "sight_content": ""}}, {"title": "安居区城市规划建设展示厅", "address": "四川省遂宁市正东街113号", "image": "", "rank": 58, "time": 2, "location": {"lat": 30.36032229550658, "lng": 105.46438878536783}, "feature": {"sight_features": "", "sight_content": ""}}, {"title": "遂宁恬源乡村休闲庄", "address": "遂宁大英县回马镇光明村", "image": "", "rank": 59, "time": 2.5, "location": {"lat": 30.648567781827865, "lng": 105.44377217715089}, "feature": {"sight_features": "", "sight_content": ""}}, {"title": "观音故居利民店", "address": "龙凤村附近", "image": "", "rank": 60, "time": 2, "location": {"lat": 31.137192837313417, "lng": 120.84176241150983}, "feature": {"sight_features": "", "sight_content": ""}}]}