{"cityName": "遂溪", "days": 2, "cityImage": "", "spots": [{"title": "乐儿乐儿童乐园（遂溪店）", "address": "湛江市遂溪县遂城镇府前路兴华广场二楼", "image": "", "rank": 1, "time": 2, "location": {"lat": 21.379860263532244, "lng": 110.25582545359819}, "feature": {"sight_features": "", "sight_content": ""}}, {"title": "螺岗岭", "address": "广东省湛江市遂溪县374省道", "image": "", "rank": 2, "time": 4.0, "location": {"lat": 21.340891424233387, "lng": 110.10273896757182}, "feature": {"sight_features": "", "sight_content": ""}}, {"title": "孔圣庙", "address": "遂城镇第四中学", "image": "", "rank": 3, "time": 1.5, "location": {"lat": 21.367567872943557, "lng": 110.2511096155708}, "feature": {"sight_features": "", "sight_content": ""}}, {"title": "庐山村", "address": "广东省湛江市麻章区太平镇", "image": "", "rank": 4, "time": 4.0, "location": {"lat": 21.061900087161746, "lng": 110.1782498208509}, "feature": {"sight_features": "", "sight_content": ""}}, {"title": "苏二村", "address": "广东省湛江市遂溪县建新镇687县道", "image": "", "rank": 5, "time": 4.0, "location": {"lat": 21.198863090024197, "lng": 110.17551878166068}, "feature": {"sight_features": "", "sight_content": ""}}, {"title": "灵动真人密室逃脱", "address": "河滨路1号二楼", "image": "", "rank": 6, "time": 2, "location": {"lat": 39.89810937676715, "lng": 119.54660881220074}, "feature": {"sight_features": "", "sight_content": ""}}, {"title": "欢乐草莓园", "address": "遂城镇西溪桥南(湛川路西)", "image": "", "rank": 7, "time": 2, "location": {"lat": 21.36767796721341, "lng": 110.25751828338203}, "feature": {"sight_features": "", "sight_content": ""}}, {"title": "前进农场新田队", "address": "686乡道北150米", "image": "", "rank": 8, "time": 2, "location": {"lat": 41.20783012676974, "lng": 118.51884433602535}, "feature": {"sight_features": "", "sight_content": ""}}, {"title": "前进农场水利队", "address": "677乡道附近", "image": "", "rank": 9, "time": 2, "location": {"lat": 40.999248372390554, "lng": 124.44188319250088}, "feature": {"sight_features": "", "sight_content": ""}}, {"title": "前进农场竹山队", "address": "686乡道北100米", "image": "", "rank": 10, "time": 2, "location": {"lat": 41.20783012676974, "lng": 118.51884433602535}, "feature": {"sight_features": "", "sight_content": ""}}, {"title": "湛江南药试验场", "address": "637乡道附近", "image": "", "rank": 11, "time": 1.5, "location": {"lat": 32.06522012722433, "lng": 119.81607603667409}, "feature": {"sight_features": "", "sight_content": ""}}, {"title": "调丰农场", "address": "G15沈海高速附近", "image": "", "rank": 12, "time": 2, "location": {"lat": 24.684208635520125, "lng": 118.28177739591544}, "feature": {"sight_features": "", "sight_content": ""}}, {"title": "前进农场车塘队", "address": "612乡道附近", "image": "", "rank": 13, "time": 2, "location": {"lat": 40.07133760411847, "lng": 116.65672837163756}, "feature": {"sight_features": "", "sight_content": ""}}, {"title": "湖光农场高岭队", "address": "374省道北100米", "image": "", "rank": 14, "time": 2, "location": {"lat": 21.263783653355954, "lng": 110.25672748617744}, "feature": {"sight_features": "", "sight_content": ""}}, {"title": "前进农场(平原分场)", "address": "逸民路", "image": "", "rank": 15, "time": 2, "location": {"lat": 21.224867915758203, "lng": 109.89596418018259}, "feature": {"sight_features": "", "sight_content": ""}}, {"title": "御唐府草莓园", "address": "岭北镇374省道御唐府草莓园", "image": "", "rank": 16, "time": 2, "location": {"lat": 21.2745131797697, "lng": 110.16794687468904}, "feature": {"sight_features": "", "sight_content": ""}}, {"title": "界炮影剧院", "address": "界炮镇府前街68号附近", "image": "", "rank": 17, "time": 2, "location": {"lat": 21.406401884644087, "lng": 109.96983780968715}, "feature": {"sight_features": "", "sight_content": ""}}, {"title": "河头影剧院", "address": "375省道附近", "image": "", "rank": 18, "time": 2, "location": {"lat": 21.070812660639838, "lng": 109.83890690887011}, "feature": {"sight_features": "", "sight_content": ""}}, {"title": "遂溪影剧院", "address": "人民路", "image": "", "rank": 19, "time": 2, "location": {"lat": 23.37490057686854, "lng": 103.40661159663834}, "feature": {"sight_features": "", "sight_content": ""}}, {"title": "坡仔林队旧址", "address": "湛江市遂溪县", "image": "", "rank": 20, "time": 2, "location": {"lat": 21.3831029620292, "lng": 110.25651530641605}, "feature": {"sight_features": "", "sight_content": ""}}, {"title": "庐陵周公墓", "address": "广东省湛江市遂溪县G15(沈海高速公路)", "image": "", "rank": 21, "time": 0.4, "location": {"lat": 21.123677683193495, "lng": 110.11093004868384}, "feature": {"sight_features": "", "sight_content": ""}}, {"title": "甘露寺", "address": "广东省湛江市遂溪县振兴路", "image": "", "rank": 22, "time": 2.5, "location": {"lat": 21.332145460125318, "lng": 109.93126890632385}, "feature": {"sight_features": "", "sight_content": ""}}, {"title": "多功能电影音乐厅", "address": "广东省湛江市遂溪县人民路3号", "image": "", "rank": 23, "time": 2, "location": {"lat": 21.382554192228536, "lng": 110.25805239697368}, "feature": {"sight_features": "", "sight_content": ""}}, {"title": "山家新村山家抗日夜校旧址", "address": "广东省湛江市遂溪县界炮镇山家新村山家抗日夜校旧址", "image": "", "rank": 24, "time": 2, "location": {"lat": 21.362552873446653, "lng": 110.00901115408217}, "feature": {"sight_features": "", "sight_content": ""}}, {"title": "必端公祠(郑氏)", "address": "湛江市遂溪县建新镇建新圩", "image": "", "rank": 25, "time": 2, "location": {"lat": 21.127564811715725, "lng": 110.21767854811247}, "feature": {"sight_features": "", "sight_content": ""}}, {"title": "螺岗小镇", "address": "湛江市遂溪县茶亭", "image": "", "rank": 26, "time": 2, "location": {"lat": 21.26729621689811, "lng": 110.13022837199918}, "feature": {"sight_features": "", "sight_content": ""}}, {"title": "03水上加油船", "address": "江洪镇江洪港码头", "image": "", "rank": 27, "time": 2, "location": {"lat": 21.03067458839601, "lng": 109.71294717594698}, "feature": {"sight_features": "", "sight_content": ""}}, {"title": "前进农场湖西队", "address": "683乡道东100米", "image": "", "rank": 28, "time": 2, "location": {"lat": 35.37720857982394, "lng": 113.08436330673442}, "feature": {"sight_features": "", "sight_content": ""}}, {"title": "遂溪县尚威种植专业合作社", "address": "573乡道", "image": "", "rank": 29, "time": 2, "location": {"lat": 41.50924004510988, "lng": 123.65929380509625}, "feature": {"sight_features": "", "sight_content": ""}}, {"title": "商业农场", "address": "684县道西200米(东风村)", "image": "", "rank": 30, "time": 2, "location": {"lat": 25.796113081201977, "lng": 113.02931473180999}, "feature": {"sight_features": "", "sight_content": ""}}, {"title": "遂溪县博物馆", "address": "遂城镇城西", "image": "", "rank": 31, "time": 2, "location": {"lat": 36.63449697952408, "lng": 101.77241422413312}, "feature": {"sight_features": "", "sight_content": ""}}, {"title": "遂溪县杨柑满地红火龙果种植场", "address": "374省道布政小学东侧500米", "image": "", "rank": 32, "time": 2, "location": {"lat": 29.843997714613657, "lng": 121.47909706261642}, "feature": {"sight_features": "", "sight_content": ""}}, {"title": "乐民剧场", "address": "乐民中心小学附近Y668", "image": "", "rank": 33, "time": 2, "location": {"lat": 21.14511866902195, "lng": 109.7631196128501}, "feature": {"sight_features": "", "sight_content": ""}}, {"title": "双桥红香蜜园火龙果", "address": "207国道西50米", "image": "", "rank": 34, "time": 2, "location": {"lat": 38.67484937592033, "lng": 114.04792987568985}, "feature": {"sight_features": "", "sight_content": ""}}, {"title": "遂溪县春风曲艺团", "address": "人民路30号附近", "image": "", "rank": 35, "time": 2, "location": {"lat": 37.7609431705858, "lng": 114.54191925863202}, "feature": {"sight_features": "", "sight_content": ""}}, {"title": "黄学增故居", "address": "湛江市-遂溪县-乐民镇墩文村", "image": "", "rank": 36, "time": 2, "location": {"lat": 21.150236450256248, "lng": 109.71868591984808}, "feature": {"sight_features": "", "sight_content": ""}}, {"title": "遂溪孔子文化城", "address": "湛江市遂溪县农林路第二中学(黄学增纪念中学)附近", "image": "", "rank": 37, "time": 2, "location": {"lat": 21.206353704695797, "lng": 110.41652448863239}, "feature": {"sight_features": "", "sight_content": ""}}]}