{"cityName": "濉溪", "days": 2, "cityImage": "", "spots": [{"title": "化家湖", "address": "淮北市烈山区", "image": "", "rank": 1, "time": 2, "location": {"lat": 33.84405351093967, "lng": 116.90818178049892}, "feature": {"sight_features": "", "sight_content": ""}}, {"title": "赵庄农场", "address": "长山南路与009县道交叉口西150米", "image": "", "rank": 2, "time": 2, "location": {"lat": 28.04150874345655, "lng": 120.92491378709205}, "feature": {"sight_features": "", "sight_content": ""}}, {"title": "金鸡鳝丝汤", "address": "岱河路109院1号附近", "image": "", "rank": 3, "time": 2, "location": {"lat": 31.914453139980786, "lng": 117.38372988645729}, "feature": {"sight_features": "", "sight_content": ""}}, {"title": "农家乐美食村", "address": "濉河路110号附近", "image": "", "rank": 4, "time": 2, "location": {"lat": 33.93135022160093, "lng": 116.77464108923374}, "feature": {"sight_features": "", "sight_content": ""}}, {"title": "泰康图书馆", "address": "南坪镇半铺村半铺街附近", "image": "", "rank": 5, "time": 2, "location": {"lat": 33.55476251662051, "lng": 116.91677295520981}, "feature": {"sight_features": "", "sight_content": ""}}, {"title": "新村广场", "address": "安徽省淮北市濉溪县", "image": "", "rank": 6, "time": 2, "location": {"lat": 33.92162919482287, "lng": 116.7723894280831}, "feature": {"sight_features": "", "sight_content": ""}}, {"title": "淮北凤凰山公墓", "address": "后大街264号附近", "image": "", "rank": 7, "time": 2, "location": {"lat": 29.962919627514978, "lng": 121.72382577162045}, "feature": {"sight_features": "", "sight_content": ""}}, {"title": "濉溪县梦缘文化艺术团", "address": "虎山路", "image": "", "rank": 8, "time": 2, "location": {"lat": 30.070441332776486, "lng": 119.96205736903173}, "feature": {"sight_features": "", "sight_content": ""}}, {"title": "濉溪园林", "address": "岱河路55号附近", "image": "", "rank": 9, "time": 1.5, "location": {"lat": 31.921340088813576, "lng": 117.36730779275133}, "feature": {"sight_features": "", "sight_content": ""}}, {"title": "烈士陵园", "address": "城隍庙街城隍庙 附近", "image": "", "rank": 10, "time": 2, "location": {"lat": 37.208723604843975, "lng": 112.19546862583842}, "feature": {"sight_features": "", "sight_content": ""}}, {"title": "笑咪咪儿童乐园", "address": "安徽省淮北市濉溪县经济开发区上阳北路濉溪凤凰城北50米", "image": "", "rank": 11, "time": 2, "location": {"lat": 33.90970414275717, "lng": 116.7452245589698}, "feature": {"sight_features": "", "sight_content": ""}}, {"title": "小虫游乐场", "address": "影剧院北侧", "image": "", "rank": 12, "time": 2, "location": {"lat": 40.229542478919804, "lng": 116.24038586607831}, "feature": {"sight_features": "", "sight_content": ""}}, {"title": "七色童年儿童乐园", "address": "淮北市濉溪县", "image": "", "rank": 13, "time": 2, "location": {"lat": 33.92162919482287, "lng": 116.7723894280831}, "feature": {"sight_features": "", "sight_content": ""}}, {"title": "法制公园", "address": "安徽省淮北市濉溪县濉溪镇溪河路国利·溪岸名苑西400米", "image": "", "rank": 14, "time": 1.5, "location": {"lat": 33.914562677928394, "lng": 116.76966253187703}, "feature": {"sight_features": "", "sight_content": ""}}, {"title": "濉溪县基督教会", "address": "安徽省淮北市濉溪县濉溪镇北环路幸福家园西300米", "image": "", "rank": 15, "time": 2, "location": {"lat": 33.926527233492, "lng": 116.7847753632683}, "feature": {"sight_features": "", "sight_content": ""}}, {"title": "龙圣寺", "address": "长山南路附近", "image": "", "rank": 16, "time": 2, "location": {"lat": 28.04150874345655, "lng": 120.92491378709205}, "feature": {"sight_features": "", "sight_content": ""}}, {"title": "九韵广场", "address": "濉河路与龙脊山路交叉口南200米", "image": "", "rank": 17, "time": 2, "location": {"lat": 33.93117333193338, "lng": 116.77447900617396}, "feature": {"sight_features": "", "sight_content": ""}}, {"title": "水生养性阁", "address": "安徽省淮北市濉溪县濉溪镇北环路光华茗苑附近", "image": "", "rank": 18, "time": 2, "location": {"lat": 33.92672632290981, "lng": 116.78121057978422}, "feature": {"sight_features": "", "sight_content": ""}}, {"title": "明珠广场", "address": "安徽省淮北市濉溪县濉溪镇闸河路九点阳光", "image": "", "rank": 19, "time": 1.5, "location": {"lat": 33.92950155802739, "lng": 116.79113802616155}, "feature": {"sight_features": "", "sight_content": ""}}, {"title": "尤沟教会", "address": "016县道附近", "image": "", "rank": 20, "time": 2, "location": {"lat": 44.498645148434456, "lng": 126.31562919134316}, "feature": {"sight_features": "", "sight_content": ""}}, {"title": "宋运河码头遗址", "address": "安徽省淮北市濉溪县303省道", "image": "", "rank": 21, "time": 2, "location": {"lat": 33.86189422976158, "lng": 116.54427651162639}, "feature": {"sight_features": "", "sight_content": ""}}, {"title": "濉河公园(濉河路)", "address": "濉河路濉河公园(北门)附近", "image": "", "rank": 22, "time": 2, "location": {"lat": 33.91937674295988, "lng": 116.76595617544457}, "feature": {"sight_features": "", "sight_content": ""}}, {"title": "墨海书画社", "address": "虎山路", "image": "", "rank": 23, "time": 2, "location": {"lat": 30.070441332776486, "lng": 119.96205736903173}, "feature": {"sight_features": "", "sight_content": ""}}, {"title": "文志画苑", "address": "淮海南路52号", "image": "", "rank": 24, "time": 2, "location": {"lat": 33.63951888454636, "lng": 116.98764291172436}, "feature": {"sight_features": "", "sight_content": ""}}, {"title": "博航书画苑", "address": "虎山路", "image": "", "rank": 25, "time": 2, "location": {"lat": 30.070441332776486, "lng": 119.96205736903173}, "feature": {"sight_features": "", "sight_content": ""}}, {"title": "向日葵美术馆", "address": "小七西50米路南科委三楼", "image": "", "rank": 26, "time": 2, "location": {"lat": 30.010454206087754, "lng": 120.5861296551277}, "feature": {"sight_features": "", "sight_content": ""}}, {"title": "汉风画廊", "address": "闸河路5号", "image": "", "rank": 27, "time": 2, "location": {"lat": 33.97846561542226, "lng": 116.8087022910692}, "feature": {"sight_features": "", "sight_content": ""}}, {"title": "康田濉溪县农业生产资料有限公司", "address": "濉永公路与202省道交叉口西200米", "image": "", "rank": 28, "time": 2, "location": {"lat": 33.91557760911951, "lng": 116.75961489491738}, "feature": {"sight_features": "", "sight_content": ""}}, {"title": "欢乐谷水上乐园", "address": "淮海路125号", "image": "", "rank": 29, "time": 1.5, "location": {"lat": 32.402078011506475, "lng": 119.43759921937837}, "feature": {"sight_features": "", "sight_content": ""}}, {"title": "淮北古茶镇", "address": "安徽省濉溪县临涣镇", "image": "", "rank": 30, "time": 2, "location": {"lat": 33.69077085117846, "lng": 116.55163918258626}, "feature": {"sight_features": "", "sight_content": ""}}, {"title": "淮北淮海战役双堆集烈士陵园 Hua...", "address": "安徽省濉溪县双堆集镇", "image": "", "rank": 31, "time": 2, "location": {"lat": 33.42965290284489, "lng": 116.90778252412349}, "feature": {"sight_features": "", "sight_content": ""}}, {"title": "柳孜运河码头", "address": "安徽省濉溪县百善镇柳孜村", "image": "", "rank": 32, "time": 2, "location": {"lat": 33.829712956819456, "lng": 116.61414895995625}, "feature": {"sight_features": "", "sight_content": ""}}, {"title": "濉溪县众帮再就业一条街", "address": "安徽省濉溪县淮海路", "image": "", "rank": 33, "time": 2, "location": {"lat": 33.918274656255164, "lng": 116.77589932779544}, "feature": {"sight_features": "", "sight_content": ""}}, {"title": "淮北文昌宫", "address": "安徽省濉溪县临涣镇", "image": "", "rank": 34, "time": 0.4, "location": {"lat": 33.69077085117846, "lng": 116.55163918258626}, "feature": {"sight_features": "", "sight_content": ""}}, {"title": "南凌果园场", "address": "淮北市-濉溪县-四铺镇010县道西(濉溪县五铺中心学校西北300米)", "image": "", "rank": 35, "time": 2, "location": {"lat": 33.73245857952128, "lng": 116.74514444179627}, "feature": {"sight_features": "", "sight_content": ""}}, {"title": "刘公山", "address": "淮北市-濉溪县", "image": "", "rank": 36, "time": 2, "location": {"lat": 33.92162919482287, "lng": 116.7723894280831}, "feature": {"sight_features": "", "sight_content": ""}}, {"title": "濉溪影剧院", "address": "安徽省淮北市濉溪县海通财富广场4楼", "image": "", "rank": 37, "time": 2, "location": {"lat": 33.92066735482176, "lng": 116.77505249968272}, "feature": {"sight_features": "", "sight_content": ""}}, {"title": "临涣镇", "address": "安徽省淮北市濉溪县临涣镇", "image": "", "rank": 38, "time": 2, "location": {"lat": 33.69077085117846, "lng": 116.55163918258626}, "feature": {"sight_features": "", "sight_content": ""}}]}