{"cityName": "随县", "days": 2, "cityImage": "", "spots": [{"title": "炎帝神农故里", "address": "随州市随县神农大道83号", "image": "", "rank": 1, "time": 7.5, "location": {"lat": 31.861000196722266, "lng": 113.3063887706825}, "feature": {"sight_features": "特色1 世界华人寻根谒祖圣地！", "sight_content": "华夏悠悠文明史，烈山脚下是源头！据《礼记》《左传》等140多部典籍记载：湖北省随州市厉山是华夏人文始祖炎帝神农的诞生地。\n随州炎帝故里风景名胜区位于湖北省随州市随县厉山镇，距武汉市约180公里，紧靠随县县城，是武汉至襄阳古隆中、十堰武当山的中转站，是鄂西生态文化旅游圈上的一颗璀璨明珠，是世界华人寻根谒祖的圣地。核心景区面积1.71平方公里，有60多处人文和自然景观，现为国家4A级旅游景区，先后获得“灵秀湖北”十大旅游名片、湖北省爱国主义教育基地、海峡两岸交流基地等荣誉，“炎帝神农传说”、“随州神农祭典”先后被列入国家非物质文化遗产名录。\n千百年来，厉山谒祖祈福活动绵延不断。自2009年开始，湖北省人民政府和国台办、国侨办、国家旅游局等国家部委连续多年在景区成功举办“世界华人炎帝故里寻根节”，在海内外产生了强烈的影响，炎帝故里风景名胜区已成为炎黄子孙寻根谒祖、抒发民族情感的旅游观光圣地。\n百草园：以炎帝神农“植五谷，尝百草”为人文主题，展示炎帝神农农耕文化与医药文化。\n【人杰地灵 圣地烈山】\n烈山湖：相传炎帝神农带领上古先民在此湖饮水漂药，至今仍养育烈山脚下一方居民。\n文化雕塑壁：展现人类在蒙昧时代的混沌之状的文化墙，墙壁上雕刻几何抽象图案的浮雕以及中国最早的象形文字。\n【人文始祖 功昭日月】\n八大功绩永流传\n五千多年前，炎帝从神农洞走出，火焚山泽，点燃创造激情。他带领部落制耒耜、植五谷、尝百草、创集市、建居所、作琴弦、制陶器，八大功绩，开创文明先河，烛照华夏千古。\n炎帝神农八大功绩：\n首创农耕，发明种植；始作耒耜，教民耕耘；遍尝百草，发明医药；搭木为架，建屋而居；治麻为布，纺织制衣；削桐为琴，练丝为弦；日中为市，首倡交易；作陶为器，冶制斤斧。\n华夏始祖门：采用汉代早期门阙合一的建筑形式，上端刻有“华祖”、“农宗”四个大字，反映炎帝在中华民族中的地位。\n圣火台：古载神农以火德王，故曰炎帝。圣火台正方形，四面皆呈“火”字，四周雕刻原始火文化的图腾，历届世界华人炎帝故里寻根节火种便在此处点燃。\n神农洞：坐落在烈山东麓，为始祖炎帝神农诞生之地，洞门牌匾上古文“神农洞”三字。\n炎帝神农站立像：这尊巨像是由中国美院于小平教授设计而成，于2010年寻根节揭幕。巨像高度是以中国传统的计量单位——“尺寸”设计而成的，，立像高为95尺（约31.67米），寓意炎帝神农在中华民族历史上的九五之尊地位； 底座为正方形，周长56丈（约186.7米），意为中华56个民族；底座高度为42.6尺（14.2米），寓意炎帝神农的诞生之日为农历4月26日。"}}, {"title": "神农牡丹谷", "address": "随州市随县尚市镇龙脉村", "image": "", "rank": 2, "time": 1.5, "location": {"lat": 31.970642640182458, "lng": 113.24647208320091}, "feature": {"sight_features": "", "sight_content": "随县尚市镇龙脉村的神农牡丹谷以牡丹为主，神农牡丹谷内有牡丹品种数以百计，尤其以洁白如暇的油用牡丹居多，站在高处，徜徉在牡丹丛里，除了欣赏高雅的牡丹仙子，不管你置身何处，你都可以闻到牡丹醉人的清香。"}}, {"title": "随州葡萄采摘", "address": "尚市镇星雨王爱兵葡萄园", "image": "", "rank": 3, "time": 7.5, "location": {"lat": 39.93666554977325, "lng": 116.35014184657604}, "feature": {"sight_features": "", "sight_content": ""}}, {"title": "随县图书馆", "address": "烈山湖西路东50米", "image": "", "rank": 4, "time": 1.5, "location": {"lat": 33.84405351093967, "lng": 116.90818178049892}, "feature": {"sight_features": "", "sight_content": ""}}, {"title": "福泰农场", "address": "淮河镇福泰农场", "image": "", "rank": 5, "time": 2, "location": {"lat": 32.42208466280443, "lng": 114.11579161176282}, "feature": {"sight_features": "", "sight_content": ""}}, {"title": "玉龙温泉省委大院", "address": "佛光塔植物园北侧", "image": "", "rank": 6, "time": 2.5, "location": {"lat": 31.623726288503562, "lng": 112.87218278261626}, "feature": {"sight_features": "", "sight_content": ""}}, {"title": "大洪山新农村垂钓中心", "address": "096乡道西50米", "image": "", "rank": 7, "time": 2, "location": {"lat": 22.60919886263197, "lng": 114.24644262262933}, "feature": {"sight_features": "", "sight_content": ""}}, {"title": "大洪山玉龙温泉欢乐谷", "address": "湖北省随州市随县", "image": "", "rank": 8, "time": 2, "location": {"lat": 31.85997167825831, "lng": 113.30645835690179}, "feature": {"sight_features": "", "sight_content": ""}}, {"title": "邓家祠堂", "address": "随州市随县", "image": "", "rank": 9, "time": 2, "location": {"lat": 31.85997167825831, "lng": 113.30645835690179}, "feature": {"sight_features": "", "sight_content": ""}}, {"title": "西游记公园-军事拓展园", "address": "玉龙温泉欢乐谷军事拓展园附近", "image": "", "rank": 10, "time": 2, "location": {"lat": 31.624603714953746, "lng": 112.87319734502873}, "feature": {"sight_features": "", "sight_content": ""}}, {"title": "佛山禅寺", "address": "湖北省随州市随县佛山寨附近", "image": "", "rank": 11, "time": 2, "location": {"lat": 32.16170931106083, "lng": 113.36163391264743}, "feature": {"sight_features": "", "sight_content": ""}}, {"title": "欢乐岛游乐园", "address": "长庆街99号附近", "image": "", "rank": 12, "time": 1.0, "location": {"lat": 30.350909845931202, "lng": 103.34008750351305}, "feature": {"sight_features": "", "sight_content": ""}}, {"title": "淮河镇文化广场", "address": "湖北省随州市随县淮河镇百合商务宾馆(随县淮河镇政府东北)", "image": "", "rank": 13, "time": 2, "location": {"lat": 32.3489895958572, "lng": 113.60318929373862}, "feature": {"sight_features": "", "sight_content": ""}}, {"title": "随县封江度假村", "address": "随县厉山镇快乐蓝莓家庭农场东南侧", "image": "", "rank": 14, "time": 7.5, "location": {"lat": 31.953614150501927, "lng": 113.34752540478244}, "feature": {"sight_features": "", "sight_content": ""}}, {"title": "随州筱泉湾度假村", "address": "随州大洪山风景名胜区内筱泉洞旁", "image": "", "rank": 15, "time": 7.5, "location": {"lat": 31.532408494210927, "lng": 112.9841148102966}, "feature": {"sight_features": "", "sight_content": ""}}, {"title": "大洪山火山地质公园", "address": "湖北省随州市随县洪山镇大洪山琵琶湖风景区·地质公园", "image": "", "rank": 16, "time": 2, "location": {"lat": 31.62534294162812, "lng": 112.94797820832616}, "feature": {"sight_features": "", "sight_content": ""}}, {"title": "玉龙温泉欢乐谷水上高尔夫", "address": "0722-4828999", "image": "", "rank": 17, "time": 2.5, "location": {"lat": 31.624603714953746, "lng": 112.87319734502873}, "feature": {"sight_features": "", "sight_content": ""}}, {"title": "张体学在随县纪念馆", "address": "216省道", "image": "", "rank": 18, "time": 2, "location": {"lat": 40.32216149734673, "lng": 116.0541317406228}, "feature": {"sight_features": "", "sight_content": ""}}, {"title": "随县城建档案馆", "address": "316国道", "image": "", "rank": 19, "time": 7.5, "location": {"lat": 26.297698208697987, "lng": 118.8318521786658}, "feature": {"sight_features": "", "sight_content": ""}}, {"title": "龙华寺林场", "address": "328省道西50米", "image": "", "rank": 20, "time": 2, "location": {"lat": 39.81070544583611, "lng": 116.14991194867427}, "feature": {"sight_features": "", "sight_content": ""}}, {"title": "鳄鱼漆", "address": "新街西街020号", "image": "", "rank": 21, "time": 2, "location": {"lat": 22.54161858835587, "lng": 113.98847101924221}, "feature": {"sight_features": "", "sight_content": ""}}, {"title": "鳄鱼漆", "address": "306省道北50米", "image": "", "rank": 22, "time": 2, "location": {"lat": 44.29301741368919, "lng": 120.43504383645545}, "feature": {"sight_features": "", "sight_content": ""}}, {"title": "天夏农业", "address": "新街镇河源东路88号", "image": "", "rank": 23, "time": 2, "location": {"lat": 34.64486299750256, "lng": 113.61745860817128}, "feature": {"sight_features": "", "sight_content": ""}}, {"title": "四江艺术团", "address": "交通大道", "image": "", "rank": 24, "time": 2, "location": {"lat": 37.908340946653645, "lng": 114.64008607038951}, "feature": {"sight_features": "", "sight_content": ""}}, {"title": "柘刺园", "address": "随州市-随县", "image": "", "rank": 25, "time": 2, "location": {"lat": 31.85997167825831, "lng": 113.30645835690179}, "feature": {"sight_features": "", "sight_content": ""}}, {"title": "抱朴谷风景区", "address": "随州市随县淮河镇 西二道河村老塆", "image": "", "rank": 26, "time": 2, "location": {"lat": 32.28471613673015, "lng": 113.4767125347495}, "feature": {"sight_features": "", "sight_content": ""}}, {"title": "塘家塆", "address": "随州市-随县", "image": "", "rank": 27, "time": 2, "location": {"lat": 31.85997167825831, "lng": 113.30645835690179}, "feature": {"sight_features": "", "sight_content": ""}}, {"title": "瓷瓦子沟", "address": "随州市-随县-琵琶湖风景区", "image": "", "rank": 28, "time": 2, "location": {"lat": 31.62534294162812, "lng": 112.94797820832616}, "feature": {"sight_features": "", "sight_content": ""}}, {"title": "洪山畜牧场", "address": "随州市-随县-洪山镇琵琶湖风景区琵琶咀水库附近", "image": "", "rank": 29, "time": 2, "location": {"lat": 31.65607655860006, "lng": 112.94818094510009}, "feature": {"sight_features": "", "sight_content": ""}}, {"title": "从家塆", "address": "随州市-随县", "image": "", "rank": 30, "time": 2, "location": {"lat": 31.85997167825831, "lng": 113.30645835690179}, "feature": {"sight_features": "", "sight_content": ""}}, {"title": "烈山", "address": "湖北省随州市曾都区厉山镇", "image": "", "rank": 31, "time": 2, "location": {"lat": 31.953614150501927, "lng": 113.34752540478244}, "feature": {"sight_features": "", "sight_content": ""}}]}