{"cityName": "绥阳", "days": 2, "cityImage": "", "spots": [{"title": "红果树", "address": "遵义市绥阳县大路槽乡", "image": "", "rank": 1, "time": 2, "location": {"lat": 28.01656026789073, "lng": 107.3126753786892}, "feature": {"sight_features": "特色1 一座古老而神奇的喀斯特博物馆 特色2 养生游、探险游、避暑游的理想之地。 特色3 奇石林立，流水潺潺，有上千年经水冲刷而形成的天然水缸。", "sight_content": "红果树景区位于绥阳县城北郊，距遵义市中心40余公里。在数平方公里土地上，集河流、瀑布、溶洞、天生桥、古树和古文化遗址于一体，是一座古老而神奇的喀斯特博物馆。\n红果树瀑布，高35米，宽28米。丰水季节，水势浩大，涛声如雷，阳光之下，水雾折射的彩虹斜跨山谷，蔚为壮观；枯水时则银丝垂挂，涓流细水，飘飘洒洒，溶入孔雀潭中，化作微漪柔澜。孔雀潭深10米，宽40米，潭水清澈见底，常见金色鲤鱼游来游去。"}}, {"title": "十二背后·地下裂缝景区", "address": "遵义市绥阳县温泉镇双河村", "image": "", "rank": 2, "time": 2, "location": {"lat": 28.24627591651896, "lng": 107.3034555078024}, "feature": {"sight_features": "特色1 被中央电视台喻为“喀斯特天然洞穴博物馆”", "sight_content": "十二背后·双河洞国家地质公园，地处贵州省遵义市绥阳县温泉镇，距重庆江北机场320公里，距贵阳龙洞堡机场235公里，距遵义机场60公里，规划建设中的绥阳至正安高速公路在景区有开口。景区建设将依托“国家地质公园”高禀赋的洞穴资源、气候资源和生态环境，与金钟山—让水—温泉联动发展，融入诗乡、长寿、古镇、民俗、宗教等多元区域文化元素，聚合溶洞观光、溶洞娱乐、溶洞探险、溶洞科教、溶洞文化体验、温泉养生度假、慢生活休闲于一体。\n大风洞是旱洞，实实在在的路，引我们向着溶洞深处而去，彩灯做着最实在却又梦幻的向导。溶洞于我，有时是光影并行向死而生的虚幻世界，在镜头下，分离独立或集合聚群的钟乳石闪耀着不同光线经自身折射而成的特有光芒，或斑斓，或神秘，或耀眼，或温柔……光影交织让人产生错觉以为这时空生生镌刻在山体内石壁上，早已在时光之外，然而生长的钟乳石又清醒的向我们解释：生命在继续，从未停留。\n旅游达人 黎丽\n我们上洞下穴地走了一个来小时的时候碰到了这样壮观绮丽的景色，踩着脚下潮湿的木地板，在真真实实的地缝中穿梭着，狭窄的通道只容一人通过。若不是两边石壁上的彩灯照着，抬头是看不见顶的，就算若此，能真切的看到顶部慢慢变得越来越窄直至被石壁全部封死，我才缓过神来，我现在正处在大自然的身体里，我融入了它，并且正在里面探寻着它，试图了解它。\n旅游达人 甘静\n坑底溪水涓涓、巨大的原生芭蕉林和成片的刺竹林交互生长，风景如画。旱洞内巨大的“地下梯田奇观”规模之大令人称奇。晶花洞内的卷曲石，通体透明，玲珑别致，如琼楼玉宇，雪树银花，仿佛置身于冰雪世界。还有众多柱状石膏单晶聚合成放射状晶花，洞壁上沉积的纤维状、絮状石膏，似雪白轻柔的棉花石膏晶花洞，被专家誉为世界级奇观，成为双河溶洞压卷之作！\n旅游达人 赵家琪\n顺洞道徐行，步移景易，最妙者，道路蜿蜒，有青石障眼，藏景于豁然开朗之中。欲醉一景，别景又至，心赏于无穷，目悦于不尽。奇景叠出者，有怪石临身，有危崖在侧。凭栏望山谷之深，波澜险峻，有不知而不畏者，专于险处取景，有知而畏者，稍去险地而立，有知而不畏者，从容闲定，千仞于足下，如平地。\n旅游达人 杨诗荷\n溶洞再往里面走，就到了该洞最令人惊奇的裂缝了。明明在山中，大自然却在夹缝中硬生生的造就了一条路，路极其狭窄，有些地方甚至要弯腰或侧身才能通过，耳畔挂着暗河的声音却始终不得见，这便是地下裂缝。远远不同于见过的任何一个溶洞，其中探险的乐趣也非任何一个溶洞可比，这就是自然鬼斧神工的造就。\n旅游达人 朱孟洋"}}, {"title": "双门峡中国诗歌谷", "address": "遵义市绥阳县风华镇连丰村", "image": "", "rank": 3, "time": 2, "location": {"lat": 27.988431066338116, "lng": 107.12901018504529}, "feature": {"sight_features": "", "sight_content": ""}}, {"title": "十二背后·双河谷景区", "address": "遵义市绥阳县温泉镇双河村", "image": "", "rank": 4, "time": 2, "location": {"lat": 28.24627591651896, "lng": 107.3034555078024}, "feature": {"sight_features": "", "sight_content": "‍‍‍‍双河谷由地下河谷、天坑、石膏洞组成，拥有丰富的地下岩溶地貌。“国内唯一地下河谷”、“中国天坑第一瀑”、“地下梯田奇观”、“高端度假客栈群”，并称为“双河谷四绝”。地下河谷，石壁造型多样、纹路美艳，河水碧绿深幽，仿佛世间最伟大的艺术臻品。洞内还有盲鱼、野生娃娃鱼等罕见的洞穴生物。天坑四周直矗的悬崖峭壁上植被茂盛，天坑天瀑从坑顶直泻而下，气势恢宏。坑底溪水涓涓、巨大的原生芭蕉林和成片的刺竹林交互生长，风景如画。"}}, {"title": "绥阳宽阔水原始森林", "address": "遵义市绥阳县", "image": "", "rank": 5, "time": 1.0, "location": {"lat": 27.953080005876046, "lng": 107.19749228818591}, "feature": {"sight_features": "", "sight_content": ""}}, {"title": "十二背后·贵州清溪峡景区", "address": "遵义市绥阳县青杠塘镇清溪湖景区", "image": "", "rank": 6, "time": 2, "location": {"lat": 28.353271685331215, "lng": 107.18804359912308}, "feature": {"sight_features": "特色1 原始生态，爱情圣地", "sight_content": "悠然山水情，翡翠清溪峡。十二背后·清溪峡景区位于贵州省遵义市绥阳县青杠塘镇，介于遵义会议会址与赤水世界自然遗产地之间，规划范围264平方公里。距绥阳县城50公里，距遵义机场80公里 ，距贵阳龙洞堡机场254公里，距重庆江北国际机场273公里。现有322县道和303省道进入景区，附近正在规划建设4条高速公路，即将有高速路网与外界快速连接。\n这里峡谷绵延，天坑幽深，地缝神秘，温泉滋润，是喀斯特地貌的经典呈现，并且汇聚了洞、林、山、水密布齐全的生态组合，各种优质旅游资源高度密集。\n没办法，这里是横跨七亿年时光的中国最长溶洞，这里是我住过的最好的客栈。\n旅游达人 石灿\n天公与我们有缘，刚开船不久便下起了小雨 欢迎我们\n坐在船厢，打开窗，迎面扑来的是夹着清溪河水味道的柔风\n湖水绿如翡翠，波澜不惊，一碧万顷 所言不虚\n两岸又有奇石峰峦叠嶂，千变万化，时有水瀑垂帘，叮咚如琴，又见野鸟飞舞，鸳鸯嬉戏\n舟行湖上，满目秀美\n旅游达人 甘静\n景区自成一幅令人惊艳的峡谷山水画，这里冬无严寒，夏无酷暑，是天然的大氧吧，是不可多得的养生天堂。湖水绿如翡翠，波澜不惊，一碧万顷，奇石峰峦叠嶂，千变万化，时有水瀑垂帘，叮咚如琴，时有野鸟飞舞，鸳鸯翔集。舟行湖上，满目秀美，中国山水之秀，皆尽如此。\n旅游达人 赵家琪\n身在清溪人不知，微波轻浮谁不识\n纵然十里无春风，只须一心有远志\n旅游达人 朱孟洋\n民宿风情和现代高端度假的融合，古朴中彰显奢华，优雅中凸显高端。客栈内每个房间的设计都风格迥异，室内空间与室外美景的天然融合，是休闲、度假、艺术创作的理想胜地。当真切投身于此，更是感同身受，角角落落都美好精致得犹如艺术品般耐人寻味，让人顿足不前，静息品味，古典美和现代化相得益彰，使我迫不及待地打电话给父母，告知他们我想带他们前来度假。\n旅游达人 杨诗荷"}}, {"title": "绥阳烈士陵园", "address": "贵州省遵义市绥阳县平安东路", "image": "", "rank": 7, "time": 3.0, "location": {"lat": 27.967784984862643, "lng": 107.19742586029008}, "feature": {"sight_features": "", "sight_content": ""}}, {"title": "观音岩", "address": "遵义市绥阳县枧坝镇耿家寨", "image": "", "rank": 8, "time": 1.0, "location": {"lat": 28.072799160047488, "lng": 107.09159284826062}, "feature": {"sight_features": "特色1 有丰富的天然中药材资源", "sight_content": "﻿\n‍‍观音岩生态旅游景区--拥十里峡谷，植被茂密，山形奇特，溪流清澈，四季鸟语花香，气候宜人，有“露营者天堂”的美誉。沿途有饮马岩、将军岩、贵妃池、长生潭等自然景观，有古老而神奇的传说，有丰富的天然中药材资源，是游览观光、养生度假、户外运动及露营的好去处。‍‍\n【观音岩生态水上乐园】\n观音岩水上乐园始建于2014年7月,是目前全省，乃至全国为数不多的依托生态旅游景区而建成的大型水上娱乐会所;总涉水面积5000多个平方米，游玩项目有：各类水上游船、大型水上城堡、水上闯关竞技、水上自行车、水上弹跳床、水上滑梯、及水上皮划艇等多种水上娱乐项目，是广大儿童、学生以及中、青年夏季玩水的理想之地。同时，为满足广大儿童的游玩需求，公司还专门打造了一个开放式陆地儿童游乐园，游玩设施有：大型儿童蹦蹦床、儿童彩球体验池、人造沙滩池等游乐项目。\n‍‍‍‍\n【五宝之一 —— 观音赐宝（观音岩由来）】\n观音岩因观音云游至此并赐宝而得名。传说很久以前，播大旱，江河断泉水枯，庄稼颗粒无收。恰逢观音云游至此，见百姓纷纷朝拜，顿生悲悯感念之情，取柳枝沾圣水，播洒甘霖。顷刻间，山泉喷发，河水充盈，枯树生枝，百鸟翔集，大地重现勃勃生机。至今宛然留于石壁：观音微笑离去，她曾经落脚过的岩石因感受灵气而幻化观音身形，每到清晨，朝霞明灭间或，有幸目睹。峡谷内共有33个观音化身，或凸显高处悬崖、或屹立于谷底溪畔，惟妙惟肖、栩栩如生，有佛缘、慧眼之人随处可觅观音行迹。很多游客慕名而来，请求观音赐福，非常灵验。从那时起，寨里人为了感念观音慈悲，把这33面观音身形当做护寨之宝，并立下规矩代代相传：从寨中推选人品忠厚的青年守护峡谷，不得让外姓人进入。守谷属终身事业，守谷人不得婚娶，但其家人可享受族人最高待遇，俸禄来源于各户供奉。\n【五宝之二 ——李白弃宝（饮马岩）】\n诗仙李白云游至黔，途经观音岩。当时黔北乃蛮荒之地，土匪横行，绿林人并不认得什么诗人，只见来人穿着文雅，以为遇见了财神，于丛林之中一哄而上，大呼留下买路钱。李白文弱书生，哪里见过这种场面，惊恐之中摔下马来。其马狂奔，消失在峡谷深处。幸得官兵及时赶到，大诗人得救，却丢了坐骑和盘缠。金银财宝在其次，最可惜是诗人一路即兴所作诗稿都在马背上，竟然无一觅处。李白无奈弃宝返乡，藏宝谷那时候就因而得名。观音岩峡谷岔沟众多，诗文和金银其实散落在茂密的河谷丛林。当地百姓不时会捡到一些，金银不多，诗文却派了用场，各家各户识字的不多，见纸张皮实，纷纷用来裱墙。从此以后，这些诗文在当地老百姓中起到了潜移默化的作用，诗礼传家，亦成民俗。绥阳民间诗人颇多，幼童也能吟诵，从如今耿家寨墙上的七言八句，可以看出这种端倪。绥阳成为“中国诗乡”大概也与李白留下的诗文不无关系吧。只可惜唐代建筑均毁于山洪，现在所存房屋多是明代所建。（景区内有李白驿马为证，当年李白爱骑受惊后一路狂奔，口渴难耐，忽见清凉的溪水，狂饮不止。山神见它体型剽悍，毛发茂密，顿生怜爱据有之心，遂把它化作一尊山石，一直陪护到现在。）\n【五宝之三——耿直藏宝（神秘宝藏）】\n本地乡绅耿洪科膝下一子，名耿直，文武出众，于1938年（民国27年）出任国民党保安六团团长。皖南事变前夕，耿直回乡探亲，高头大马将数十箱宝贝运送回家，秘密安放在峡谷深处，并加派健壮青年轮番守候在山谷入口处。后耿直因通共嫌疑，被国民党暗杀于安徽广德县耿村堡，藏宝处便成了一个不解之秘，再次引来各路英雄探洞寻宝。寨人为守护从未谋面的宝贝，更加重视守护山谷的人选，除原定的守谷人外，另加派1户人家任监护员。\n【五宝之四——贵妃遗宝（贵妃池）】\n杨贵妃喜于游山玩水，一日慕名来到观音岩，嗅野花、亲小草、扑蝴蝶，观参天古树、环小溪云绕....不觉已香汗淋漓，赖在地上嚷着“要洗浴”，任随宫女怎么扶也不起来。玄宗左右为难，急命人安排“御浴”，可蛮荒野地怎么准备呢？几个太监吓得不知所措，心想：“这下完了，脑袋要搬家了”！正在此时，一名机灵的小太监与总管耳语一番，总管立即计上心来，原来在峡谷半腰一隐秘处，有一汪池水清澈见底，池体光滑如玉，宛若一个天然浴池，只是泉水冰凉，哪是贵妃千金之躯吃得消的？遂命当地百姓火速将家中热水送来应急。贵妃喜笑颜开，尽情享用天然御浴，池里不时传出贵妃嬉水的阵阵欢笑声。无奈水温渐凉，贵妃只得依依不舍穿衣离开，一时忘情竟将凤冠遗落在此。有贵妃池和凤冠山为证。\n【五宝之最——绿色宝藏】\n正由于千百年的世代守护，观音岩峡谷生态保持十分完好，植被茂密，得到旅游爱好者的亲睐。其实回顾历史，寨人守护的宝贝，正是这一片难得的净土。“青山不墨千秋画，流水无弦万古琴”。这片灵秀山水留下了许多感人故事，铭刻在历史的深处，时时被岁月翻启。如今耿氏后裔依托生态资源开办旅游公司，打造贵州省首家养生休闲度假村，可算是应验了先辈赋予“藏宝谷”的丰富内涵。"}}, {"title": "诗乡花海", "address": "遵义市绥阳县风华镇溪源村", "image": "", "rank": 9, "time": 2, "location": {"lat": 27.91107215366044, "lng": 107.12613812356805}, "feature": {"sight_features": "", "sight_content": ""}}, {"title": "怡情苑山庄生态鱼基地", "address": "青杠塘镇黄杨方向两公里处", "image": "", "rank": 10, "time": 2, "location": {"lat": 28.353271685331215, "lng": 107.18804359912308}, "feature": {"sight_features": "", "sight_content": ""}}, {"title": "双河洞国家地质公园", "address": "绥阳县其他尹何寨附近", "image": "", "rank": 11, "time": 2, "location": {"lat": 27.953080005876046, "lng": 107.19749228818591}, "feature": {"sight_features": "", "sight_content": ""}}, {"title": "汇善谷养生温泉", "address": "遵义市绥阳县温泉镇191号", "image": "", "rank": 12, "time": 2, "location": {"lat": 28.19885863136492, "lng": 107.35357915863159}, "feature": {"sight_features": "", "sight_content": ""}}, {"title": "圣母堂", "address": "广播路与解放中路交叉口南50米", "image": "", "rank": 13, "time": 1.5, "location": {"lat": 27.95719991216494, "lng": 107.1970341397997}, "feature": {"sight_features": "", "sight_content": ""}}, {"title": "卡奇乐儿童乐园", "address": "绥阳县其他诗乡大道诗乡广场B1楼16-3", "image": "", "rank": 14, "time": 2, "location": {"lat": 27.955231657370867, "lng": 107.1956421076158}, "feature": {"sight_features": "", "sight_content": ""}}, {"title": "苦教堂", "address": "遵义市绥阳县", "image": "", "rank": 15, "time": 2, "location": {"lat": 27.953080005876046, "lng": 107.19749228818591}, "feature": {"sight_features": "", "sight_content": ""}}, {"title": "小笨熊儿童乐园", "address": "广播路与新西路交叉口东南100米", "image": "", "rank": 16, "time": 2, "location": {"lat": 27.958559103806486, "lng": 107.19613545251016}, "feature": {"sight_features": "", "sight_content": ""}}, {"title": "鸣泉谷度假村", "address": "贵州省遵义市绥阳县蒲金路", "image": "", "rank": 17, "time": 2, "location": {"lat": 27.938968339691744, "lng": 107.11414829889637}, "feature": {"sight_features": "", "sight_content": ""}}, {"title": "风华度假村", "address": "风华幼儿园附近", "image": "", "rank": 18, "time": 2, "location": {"lat": 43.50715359546126, "lng": 124.83162623321445}, "feature": {"sight_features": "", "sight_content": ""}}, {"title": "幸福绥阳广场", "address": "解放中路218号附近", "image": "", "rank": 19, "time": 2, "location": {"lat": 43.83699592089234, "lng": 126.53712822568602}, "feature": {"sight_features": "", "sight_content": ""}}, {"title": "雅泉生态园", "address": "207省道", "image": "", "rank": 20, "time": 2, "location": {"lat": 41.663861161619536, "lng": 118.91663300242887}, "feature": {"sight_features": "", "sight_content": ""}}, {"title": "双河山庄", "address": "207省道", "image": "", "rank": 21, "time": null, "location": {"lat": 41.663861161619536, "lng": 118.91663300242887}, "feature": {"sight_features": "", "sight_content": ""}}, {"title": "天香贵州", "address": "蒲场镇高坊子村凤裕村寨", "image": "", "rank": 22, "time": 2, "location": {"lat": 27.884994016070998, "lng": 107.07294177742094}, "feature": {"sight_features": "", "sight_content": ""}}, {"title": "洋川镇计生协会西街社区金秋艺术...", "address": "西环路附近", "image": "", "rank": 23, "time": 2, "location": {"lat": 39.04489408100302, "lng": 117.25170447040091}, "feature": {"sight_features": "", "sight_content": ""}}, {"title": "绥阳双河洞", "address": "贵州省绥阳县洋川镇", "image": "", "rank": 24, "time": 2, "location": {"lat": 27.990347040182755, "lng": 107.22127834191227}, "feature": {"sight_features": "", "sight_content": ""}}, {"title": "神山欢乐水世界", "address": "遵义市绥阳县茅垭镇中坪村", "image": "", "rank": 25, "time": 2, "location": {"lat": 28.13111362416383, "lng": 107.16826984492182}, "feature": {"sight_features": "", "sight_content": "神山欢乐水世界以“海洋风格”为主题，位于遵义市绥阳县茅垭镇中坪村，交通便利，环境宜人，占地面积80亩。内设大型海浪池、儿童水寨、彩虹滑道、蟒蛇滑道，漂流河、游泳池六个单体。"}}, {"title": "石墙岗", "address": "遵义市-绥阳县", "image": "", "rank": 26, "time": 2, "location": {"lat": 27.953080005876046, "lng": 107.19749228818591}, "feature": {"sight_features": "", "sight_content": ""}}, {"title": "绥阳薰衣草基地", "address": "遵义市-绥阳县-S81(绥遵高速公路)", "image": "", "rank": 27, "time": 2, "location": {"lat": 27.86779981559246, "lng": 107.05238790417269}, "feature": {"sight_features": "", "sight_content": ""}}, {"title": "李黄扁", "address": "遵义市-绥阳县", "image": "", "rank": 28, "time": 2, "location": {"lat": 27.953080005876046, "lng": 107.19749228818591}, "feature": {"sight_features": "", "sight_content": ""}}, {"title": "李思坝", "address": "遵义市-绥阳县", "image": "", "rank": 29, "time": 2, "location": {"lat": 27.953080005876046, "lng": 107.19749228818591}, "feature": {"sight_features": "", "sight_content": ""}}, {"title": "李干溪", "address": "遵义市-绥阳县", "image": "", "rank": 30, "time": null, "location": {"lat": 27.953080005876046, "lng": 107.19749228818591}, "feature": {"sight_features": "", "sight_content": ""}}]}