{"cityName": "绥中", "days": 2, "cityImage": "", "spots": [{"title": "东戴河", "address": "葫芦岛市绥中县东戴河止锚湾", "image": "", "rank": 1, "time": 2.5, "location": {"lat": 40.02182004953817, "lng": 119.91545434725933}, "feature": {"sight_features": "", "sight_content": ""}}, {"title": "九门口水上长城", "address": "葫芦岛市绥中县李家堡乡", "image": "", "rank": 2, "time": 3.0, "location": {"lat": 40.11599955349402, "lng": 119.82156507769618}, "feature": {"sight_features": "特色1 参观万里长城中最独特的一段城墙。 特色2 在长城隧道中探秘古代军事设施，爬上长城饱览山河风光。", "sight_content": "九门口长城是蓟镇长城上的一个关隘，原称“一片石关”，自明末万历年间修了九座水门之后又称为九门口关，山海关以东的第一个重要关隘，因此古称“京东首关”它始建于明洪武十四年（公元1381年），明景泰和万历年间都复修过。1985年辽宁省人民响应邓小平 “爱我中华，修我长城”的号召，集资500多万元修复九门口，根据清理城墙基础时发现的九门口建筑档案石碑的记载，按照石碑上的数据进行了修复，使这段长城基本上恢复了它原有的风貌。\n东边第一个敌楼以上都是未加修复的600多年前的古长城原貌，敌楼以西是重新修复过的新墙体，全长1980米，西边还有200米的野长城。2002年10月10日九门口长城被联合国教科文组织确定为世界文化遗产地。九门口长城除聚集了万里长城的建筑精华之外，还独有四个奇绝景观。"}}, {"title": "止锚湾", "address": "葫芦岛市绥中县万家镇", "image": "", "rank": 3, "time": 1.5, "location": {"lat": 40.059647138880344, "lng": 119.86725674427446}, "feature": {"sight_features": "", "sight_content": ""}}, {"title": "银泰水星海洋乐园", "address": "葫芦岛市绥中县东戴河新区滨海大道28号", "image": "", "rank": 4, "time": 1.0, "location": {"lat": 40.06084074771846, "lng": 119.95369033232525}, "feature": {"sight_features": "", "sight_content": ""}}, {"title": "绥中斜塔", "address": "葫芦岛绥中县前卫镇", "image": "", "rank": 5, "time": 1.0, "location": {"lat": 40.197045933063144, "lng": 120.10319154546774}, "feature": {"sight_features": "", "sight_content": ""}}, {"title": "前所古城", "address": "葫芦岛市绥中县城西42公里处", "image": "", "rank": 6, "time": 1.5, "location": {"lat": 40.33184347539701, "lng": 120.35042453538213}, "feature": {"sight_features": "", "sight_content": ""}}, {"title": "锥子山长城", "address": "葫芦岛市绥中县永安堡乡", "image": "", "rank": 7, "time": 1.0, "location": {"lat": 40.23801416811894, "lng": 119.82069372224981}, "feature": {"sight_features": "", "sight_content": ""}}, {"title": "绥中电厂海滨", "address": "葫芦岛市绥中县前所镇", "image": "", "rank": 8, "time": 2.5, "location": {"lat": 40.13256917568054, "lng": 119.96677912958891}, "feature": {"sight_features": "", "sight_content": ""}}, {"title": "小河口长城", "address": "葫芦岛市绥中县永安堡乡西沟村", "image": "", "rank": 9, "time": 1.0, "location": {"lat": 40.23801416811894, "lng": 119.82069372224981}, "feature": {"sight_features": "", "sight_content": ""}}, {"title": "妙峰寺双塔", "address": "葫芦岛市绥中县永安堡乡塔子沟村", "image": "", "rank": 10, "time": 1.0, "location": {"lat": 40.30421530332635, "lng": 119.8459763960823}, "feature": {"sight_features": "", "sight_content": ""}}, {"title": "朱梅墓园", "address": "葫芦岛市绥中县李家堡乡石牌坊村", "image": "", "rank": 11, "time": 1.0, "location": {"lat": 40.070331334912936, "lng": 119.82764980486465}, "feature": {"sight_features": "", "sight_content": ""}}, {"title": "天龙寺海滨度假区", "address": "葫芦岛市绥中县塔山屯镇东白村南面", "image": "", "rank": 12, "time": 1.5, "location": {"lat": 40.216442893580414, "lng": 120.38031956334714}, "feature": {"sight_features": "", "sight_content": ""}}, {"title": "碣石宫遗址", "address": "葫芦岛市绥中县万家镇止锚湾海滨", "image": "", "rank": 13, "time": 1.0, "location": {"lat": 40.0108272171925, "lng": 119.92346593166195}, "feature": {"sight_features": "", "sight_content": ""}}, {"title": "永安峡谷漂流", "address": "葫芦岛市绥中县永安堡乡", "image": "", "rank": 14, "time": 2.5, "location": {"lat": 40.23801416811894, "lng": 119.82069372224981}, "feature": {"sight_features": "", "sight_content": ""}}, {"title": "跳石沟", "address": "葫芦岛市绥中县范家乡境内", "image": "", "rank": 15, "time": 1.0, "location": {"lat": 40.30243303582888, "lng": 120.0491763749663}, "feature": {"sight_features": "", "sight_content": ""}}, {"title": "三山妙峰森林公园", "address": "葫芦岛市绥中县范家乡境内三山脚下", "image": "", "rank": 16, "time": 1.5, "location": {"lat": 40.30243303582888, "lng": 120.0491763749663}, "feature": {"sight_features": "", "sight_content": ""}}, {"title": "和诚欢乐海洋牧场", "address": "葫芦岛市绥中县东戴河新区滨海大道西侧时间海售楼处旁", "image": "", "rank": 17, "time": 2, "location": {"lat": 40.00171219676567, "lng": 119.85952070430736}, "feature": {"sight_features": "", "sight_content": ""}}, {"title": "碧云寺", "address": "葫芦岛市绥中县九门口水上长城南端的老牛山半山腰上", "image": "", "rank": 18, "time": 1.0, "location": {"lat": 40.12370938645445, "lng": 119.75780921044817}, "feature": {"sight_features": "", "sight_content": ""}}, {"title": "姜女石遗址", "address": "葫芦岛市绥中县城西56公里处止锚湾海滨碣石宫遗址附近", "image": "", "rank": 19, "time": 1.0, "location": {"lat": 40.00672033761608, "lng": 119.90784692757343}, "feature": {"sight_features": "", "sight_content": ""}}, {"title": "绥中县博物馆", "address": "葫芦岛市绥中县城郊乡文化路5号", "image": "", "rank": 20, "time": 1.0, "location": {"lat": 40.33246036451474, "lng": 120.33620220322597}, "feature": {"sight_features": "", "sight_content": ""}}, {"title": "龙达海洋沐场", "address": "小蛎蝗村龙王庙西50米(36-1油田旁)", "image": "", "rank": 21, "time": 0.75, "location": {"lat": 40.104905428195785, "lng": 120.06725628250786}, "feature": {"sight_features": "", "sight_content": ""}}, {"title": "东戴河海湾渔家002", "address": "滨海公路", "image": "", "rank": 22, "time": 2, "location": {"lat": 39.1052907391223, "lng": 122.02339772562499}, "feature": {"sight_features": "", "sight_content": ""}}, {"title": "东戴河丰太度假村", "address": "葫芦岛绥中东戴河海港路海湾别墅对面", "image": "", "rank": 23, "time": 2.5, "location": {"lat": 40.078461959729204, "lng": 120.0038707506894}, "feature": {"sight_features": "", "sight_content": ""}}, {"title": "绥中东戴河振兴农家院", "address": "东戴河洪家村(近滨海大道)", "image": "", "rank": 24, "time": 3.0, "location": {"lat": 21.74878113030611, "lng": 112.23379900505765}, "feature": {"sight_features": "", "sight_content": ""}}, {"title": "夏怡东戴河农家院", "address": "辽宁省葫芦岛市绥中县西甸子镇小李屯村78号(近滨海公路)", "image": "", "rank": 25, "time": 2, "location": {"lat": 40.278234540018865, "lng": 120.47402254231363}, "feature": {"sight_features": "", "sight_content": ""}}, {"title": "万佛禅寺", "address": "葫芦岛市绥中县万家镇止锚湾村", "image": "", "rank": 26, "time": 1.0, "location": {"lat": 40.01606450626114, "lng": 119.91102573163752}, "feature": {"sight_features": "", "sight_content": ""}}, {"title": "绥中将军湖", "address": "辽宁省绥中县西北", "image": "", "rank": 27, "time": 3.0, "location": {"lat": 40.33184347539701, "lng": 120.35042453538213}, "feature": {"sight_features": "", "sight_content": ""}}, {"title": "吾名口", "address": "葫芦岛市绥中县锥子山下", "image": "", "rank": 28, "time": 1.0, "location": {"lat": 40.35306657286658, "lng": 119.86903455914994}, "feature": {"sight_features": "", "sight_content": ""}}, {"title": "九龙洞", "address": "葫芦岛市绥中县锥子山顶峰西南侧", "image": "", "rank": 29, "time": 2.5, "location": {"lat": 40.35306657286658, "lng": 119.86903455914994}, "feature": {"sight_features": "", "sight_content": ""}}, {"title": "葫芦岛后海度假村", "address": "绥中葫芦岛绥中县荒地乡尚家村", "image": "", "rank": 31, "time": 2.5, "location": {"lat": 40.20585944708867, "lng": 120.32833032778778}, "feature": {"sight_features": "", "sight_content": ""}}, {"title": "军海度假村", "address": "山海同湾二期对面碣石附近", "image": "", "rank": 32, "time": 2, "location": {"lat": 40.005823002280565, "lng": 119.88020906916843}, "feature": {"sight_features": "", "sight_content": ""}}, {"title": "秀红农家院", "address": "止锚湾秀红农家院", "image": "", "rank": 33, "time": 2, "location": {"lat": 40.02904433888754, "lng": 119.91562760074811}, "feature": {"sight_features": "", "sight_content": ""}}, {"title": "东戴河蓝莓休闲观光园", "address": "小李村附近", "image": "", "rank": 34, "time": 2.5, "location": {"lat": 37.85725469521337, "lng": 117.20238506439348}, "feature": {"sight_features": "", "sight_content": ""}}, {"title": "东戴河爱民渔家院", "address": "小李东庄旅游度假村", "image": "", "rank": 35, "time": 2, "location": {"lat": 31.57202108846684, "lng": 118.08949218379925}, "feature": {"sight_features": "", "sight_content": ""}}, {"title": "东戴河止锚弯爱乐渔家院", "address": "万家镇墙子里", "image": "", "rank": 36, "time": 2, "location": {"lat": 40.009596029867915, "lng": 119.91431066241286}, "feature": {"sight_features": "", "sight_content": ""}}, {"title": "东戴河潮来顺宾馆", "address": "东戴河大街01号", "image": "", "rank": 37, "time": 2, "location": {"lat": 40.028622854346956, "lng": 119.91214469062484}, "feature": {"sight_features": "", "sight_content": ""}}, {"title": "洪家村001号", "address": "滨海大道25号", "image": "", "rank": 38, "time": 2, "location": {"lat": 25.613496083667336, "lng": 100.26961916355936}, "feature": {"sight_features": "", "sight_content": ""}}, {"title": "东戴河华宸度假山庄", "address": "东戴单宝村", "image": "", "rank": 39, "time": 2.5, "location": {"lat": 40.0928314151075, "lng": 119.96944050428941}, "feature": {"sight_features": "", "sight_content": ""}}, {"title": "阳阳农家院", "address": "小李屯村东南方150米", "image": "", "rank": 40, "time": 2, "location": {"lat": 39.27802787874711, "lng": 121.99054424614087}, "feature": {"sight_features": "", "sight_content": ""}}, {"title": "汤上温泉", "address": "西南", "image": "", "rank": 41, "time": 2, "location": {"lat": 31.909199228140412, "lng": 121.30903625505988}, "feature": {"sight_features": "", "sight_content": ""}}, {"title": "首钢疗养院海滨大型游乐场", "address": "东戴河首钢疗养院南门", "image": "", "rank": 42, "time": 2, "location": {"lat": 39.949585039732234, "lng": 116.17593639828165}, "feature": {"sight_features": "", "sight_content": ""}}, {"title": "新浪海滨浴场度假村", "address": "绥中县", "image": "", "rank": 43, "time": 2, "location": {"lat": 40.33184347539701, "lng": 120.35042453538213}, "feature": {"sight_features": "", "sight_content": ""}}, {"title": "王宝镇星光葡萄采摘园", "address": "前吕线路附近", "image": "", "rank": 44, "time": 2, "location": {"lat": 34.336676681119755, "lng": 117.82330402416626}, "feature": {"sight_features": "", "sight_content": ""}}, {"title": "天龙寺海滨", "address": "辽宁省绥中县绥中镇 125200", "image": "", "rank": 45, "time": 1.5, "location": {"lat": 40.341315796067434, "lng": 120.35667173727158}, "feature": {"sight_features": "", "sight_content": ""}}, {"title": "绥中东戴河隆源农家院", "address": "辽宁省葫芦岛市绥中县东戴河止锚湾村95号(止锚湾村委会斜对面)", "image": "", "rank": 46, "time": 3.0, "location": {"lat": 40.01607468409794, "lng": 119.91101566253107}, "feature": {"sight_features": "", "sight_content": ""}}, {"title": "喜洋洋农家院", "address": "洪家村268号", "image": "", "rank": 47, "time": 2, "location": {"lat": 40.08397021829941, "lng": 119.98762512550765}, "feature": {"sight_features": "", "sight_content": ""}}, {"title": "雨晴渔家院", "address": "葫芦岛绥中县东戴河杨家旅游度假村近滨海公路（杨家浴场）", "image": "", "rank": 48, "time": 2, "location": {"lat": 40.079402572661586, "lng": 119.98474798770503}, "feature": {"sight_features": "", "sight_content": ""}}, {"title": "媛媛农家院", "address": "葫芦岛前所杨家村", "image": "", "rank": 49, "time": 2, "location": {"lat": 40.078262928398956, "lng": 119.98049727789625}, "feature": {"sight_features": "", "sight_content": ""}}, {"title": "市政广场-南区", "address": "兴隆路与新兴街交叉口东50米", "image": "", "rank": 50, "time": 2, "location": {"lat": 40.33551261660902, "lng": 120.35378425907423}, "feature": {"sight_features": "", "sight_content": ""}}, {"title": "碣石旅游度假村", "address": "万家旅游开发区", "image": "", "rank": 51, "time": 2, "location": {"lat": 21.99978652122676, "lng": 100.80648022260146}, "feature": {"sight_features": "", "sight_content": ""}}, {"title": "腰古村文化体育广场", "address": "西门北路184号", "image": "", "rank": 52, "time": 2, "location": {"lat": 30.005377694797374, "lng": 102.99976716893966}, "feature": {"sight_features": "", "sight_content": ""}}, {"title": "葫芦岛碧海度假村", "address": "二河口海滨浴场内", "image": "", "rank": 53, "time": 2.5, "location": {"lat": 40.61561839177692, "lng": 120.80446185173417}, "feature": {"sight_features": "", "sight_content": ""}}, {"title": "辽宁水上长城", "address": "辽宁省绥中县李家乡新台子村 125219", "image": "", "rank": 54, "time": 2, "location": {"lat": 40.11431556128457, "lng": 119.81401833315766}, "feature": {"sight_features": "", "sight_content": ""}}, {"title": "葫芦岛海艺旅游度假山庄", "address": "绥中县小庄子镇二河口", "image": "", "rank": 55, "time": 2.5, "location": {"lat": 40.230055082754255, "lng": 120.47600477469265}, "feature": {"sight_features": "", "sight_content": ""}}, {"title": "滨河公园", "address": "葫芦岛市绥中县", "image": "", "rank": 56, "time": 2.0, "location": {"lat": 40.33184347539701, "lng": 120.35042453538213}, "feature": {"sight_features": "", "sight_content": ""}}, {"title": "文殊禅院", "address": "北环路东段南50米", "image": "", "rank": 57, "time": 2, "location": {"lat": 34.167299182195535, "lng": 109.32684057999651}, "feature": {"sight_features": "", "sight_content": ""}}, {"title": "碣石宫出土文物展厅", "address": "葫芦岛市绥中县曲家沟", "image": "", "rank": 58, "time": 2, "location": {"lat": 40.00818166176391, "lng": 119.90845646289587}, "feature": {"sight_features": "", "sight_content": ""}}, {"title": "地藏殿", "address": "葫芦岛市绥中县东戴河新区万佛禅寺内", "image": "", "rank": 59, "time": 2.5, "location": {"lat": 40.01123861070522, "lng": 119.92571845608416}, "feature": {"sight_features": "", "sight_content": ""}}, {"title": "小星星儿童乐园", "address": "辽宁省葫芦岛市绥中县万家镇址九线王家市场", "image": "", "rank": 60, "time": 2, "location": {"lat": 40.06245920878535, "lng": 119.86675017362789}, "feature": {"sight_features": "", "sight_content": ""}}]}