{"cityName": "肃南", "days": 2, "cityImage": "", "spots": [{"title": "中华裕固风情走廊", "address": "张掖市肃南裕固族自治县康乐乡", "image": "", "rank": 1, "time": 3.0, "location": {"lat": 38.972168127558746, "lng": 99.92036938380082}, "feature": {"sight_features": "", "sight_content": "中华裕固风情走廊旅游景区是集冰川雪山、原始森林、天然草原、湿地湖泊、瀑布河流、峡谷深涧、丹霞地貌于一域的地貌景观大观园，为张掖国家地质公园的重要组成部分。"}}, {"title": "文殊寺石窟群", "address": "张掖市肃南裕固族自治县祁丰藏族乡", "image": "", "rank": 2, "time": 2.5, "location": {"lat": 39.65829962606019, "lng": 98.35555320551913}, "feature": {"sight_features": "特色1 体验宗教朝拜、民俗风情", "sight_content": "文殊寺石窟群始建于东晋明帝太宁时期，经过魏、晋时期的建设修缮，到唐、宋时期达到鼎盛，声名远扬。文殊寺院，藏语称“嘉木样贡巴”，汉语意即“文殊大寺”，属藏传佛教格鲁派寺院，据传说和《安多政教史》载，文殊菩萨曾显灵于此，故名为“文殊寺”，很多中外佛教著作中都有记载。随着中外游客的逐年增加和旅游基础设施的逐步完善，这个千年古刹又呈现出勃勃生机。文殊寺石窟群全境分为前山和后山两个区域，是藏、汉传佛教、道教等多种宗教活动处所，由文殊寺、百子楼、普化寺、千佛洞，万佛塔、五百罗汉堂、观音洞，等七部分组成，有魏、晋、隋、唐、（西夏）、元、明、清不同时期的洞窟三十余个，保存有珍贵佛像500余身，壁画1200多平方米。分布绵延在数十里蜿蜒的文殊山间，极为恢宏壮观。\n文殊寺景区前山石窟群是中国早期佛教遗存，位于凉州模式石窟的范围内，尤其是千佛洞、万佛洞洞窟中的壁画是研究十六国时期佛教艺术的珍贵资料，对研究河西地区与西域的佛教建筑、艺术关系有重要价值。其壁画具有河西地区早期洞窟壁画的布局特点，有些壁画内容可弥补莫高窟之不足，有些则是敦煌艺术的延续和发展。现存的西夏时期的壁画是研究西夏佛教及其绘画艺术的重要资料。\n文殊寺后山昔日寺庙庵观齐全，木阁石窟同建，佛教道教共存，规模宏大。山底到顶，建筑林立，石窟密布，现存有古佛洞、红钧洞、文殊洞等多处风格独特的石窟群，特别是古佛塔，除阿富汗等一些阿拉伯国家外，在我国实属罕见。2001年被国务院公布为国家级重点文物保护单位，2006年评审为国家AAA级旅游景区。\n近年来，睡佛殿、五百罗汉堂等部分古建筑得到了修复，已成为新的景观，尤其是五百罗汉堂形象逼真，在河西独此一家，游客络绎不绝，使您在寻古览胜的同时，还能领略到藏、裕固、蒙古族民族风情，更使您留恋忘返。"}}, {"title": "祁连山国际滑雪场", "address": "张掖市肃南县康乐草原祁连山滑雪场入口处", "image": "", "rank": 3, "time": 2, "location": {"lat": 39.20937876019614, "lng": 98.55083849662265}, "feature": {"sight_features": "", "sight_content": ""}}, {"title": "马蹄寺千佛洞", "address": "甘肃省张掖市民乐县大都麻乡马蹄寺风光旅游区", "image": "", "rank": 4, "time": 1.5, "location": {"lat": 38.509369733525446, "lng": 100.4351046554957}, "feature": {"sight_features": "", "sight_content": ""}}, {"title": "肃南县民族博物馆", "address": "祁丰路35号", "image": "", "rank": 5, "time": 2, "location": {"lat": 38.84228321410027, "lng": 99.62165480155042}, "feature": {"sight_features": "", "sight_content": ""}}, {"title": "夏日塔拉草原", "address": "甘肃省肃南裕固族自治县皇城镇 734031", "image": "", "rank": 6, "time": 2, "location": {"lat": 37.91496090126573, "lng": 101.81805253585564}, "feature": {"sight_features": "", "sight_content": ""}}, {"title": "肃南裕固族自治县影剧院管理中心", "address": "祁丰路6", "image": "", "rank": 7, "time": 2, "location": {"lat": 38.84203811341242, "lng": 99.62080337680838}, "feature": {"sight_features": "", "sight_content": ""}}, {"title": "肃南影剧院", "address": "甘肃省张掖市肃南裕固族自治县祁丰路6", "image": "", "rank": 8, "time": 1.5, "location": {"lat": 38.84203811341242, "lng": 99.62080337680838}, "feature": {"sight_features": "", "sight_content": ""}}, {"title": "灵观峡", "address": "甘肃省张掖市肃南裕固族自治县", "image": "", "rank": 9, "time": 2, "location": {"lat": 38.84310020502293, "lng": 99.62190541800803}, "feature": {"sight_features": "", "sight_content": ""}}, {"title": "鸽子墩", "address": "张掖市肃南裕固族自治县", "image": "", "rank": 10, "time": 2, "location": {"lat": 38.84310020502293, "lng": 99.62190541800803}, "feature": {"sight_features": "", "sight_content": ""}}, {"title": "贺家山庄", "address": "迎宾路北200米", "image": "", "rank": 11, "time": 2, "location": {"lat": 23.757197158179075, "lng": 109.22081909835356}, "feature": {"sight_features": "", "sight_content": ""}}, {"title": "柳鼓墩", "address": "张掖市高台县", "image": "", "rank": 12, "time": 2, "location": {"lat": 39.38364604680699, "lng": 99.82575950433726}, "feature": {"sight_features": "", "sight_content": ""}}, {"title": "槐溪小镇度假村", "address": "张掖市肃南裕固族自治县肃南裕固族自治县皇家马场景区平羌口景区内", "image": "", "rank": 13, "time": 2, "location": {"lat": 38.84310020502293, "lng": 99.62190541800803}, "feature": {"sight_features": "", "sight_content": ""}}, {"title": "佛洞庙", "address": "解放路353号", "image": "", "rank": 14, "time": 2, "location": {"lat": 39.02112567964418, "lng": 117.67658581629033}, "feature": {"sight_features": "", "sight_content": ""}}, {"title": "文殊山东峰", "address": "甘肃省嘉峪关市", "image": "", "rank": 15, "time": 2, "location": {"lat": 39.77796014739059, "lng": 98.29620384300111}, "feature": {"sight_features": "", "sight_content": ""}}, {"title": "九排松", "address": "张掖市裕固族自治县", "image": "", "rank": 16, "time": 2, "location": {"lat": 38.932066007004934, "lng": 100.45641147405634}, "feature": {"sight_features": "", "sight_content": ""}}, {"title": "民族文物展厅", "address": "卧龙山庄附近", "image": "", "rank": 17, "time": 2, "location": {"lat": 40.339841143982405, "lng": 116.21295410680477}, "feature": {"sight_features": "", "sight_content": ""}}, {"title": "宣传文化中心图书馆成人借阅览室", "address": "祁丰路35号", "image": "", "rank": 18, "time": 2, "location": {"lat": 38.84228321410027, "lng": 99.62165480155042}, "feature": {"sight_features": "", "sight_content": ""}}, {"title": "马蹄寺风景名胜区", "address": "甘肃省肃南裕固族自治县马蹄乡", "image": "", "rank": 19, "time": 2, "location": {"lat": 38.48803146239349, "lng": 100.42770865201162}, "feature": {"sight_features": "", "sight_content": ""}}, {"title": "西大河水库", "address": "甘肃省肃南裕固族自治县新城子镇", "image": "", "rank": 20, "time": 1.0, "location": {"lat": 38.84310020502293, "lng": 99.62190541800803}, "feature": {"sight_features": "", "sight_content": ""}}, {"title": "文殊寺石窟群旅游景区", "address": "甘肃省张掖市祁丰藏族乡", "image": "", "rank": 21, "time": 2, "location": {"lat": 39.65829962606019, "lng": 98.35555320551913}, "feature": {"sight_features": "", "sight_content": ""}}, {"title": "南达坂沟", "address": "张掖市-肃南裕固族自治县", "image": "", "rank": 22, "time": 2, "location": {"lat": 38.84310020502293, "lng": 99.62190541800803}, "feature": {"sight_features": "", "sight_content": ""}}, {"title": "南井房沟", "address": "张掖市-肃南裕固族自治县-皇城镇南井房沟", "image": "", "rank": 23, "time": 2, "location": {"lat": 38.84310020502293, "lng": 99.62190541800803}, "feature": {"sight_features": "", "sight_content": ""}}, {"title": "玉石梁", "address": "张掖市-肃南裕固族自治县", "image": "", "rank": 24, "time": 2, "location": {"lat": 38.84310020502293, "lng": 99.62190541800803}, "feature": {"sight_features": "", "sight_content": ""}}, {"title": "高尔湾啥娄", "address": "张掖市-临泽县", "image": "", "rank": 25, "time": 2, "location": {"lat": 39.15851444472609, "lng": 100.17055476077383}, "feature": {"sight_features": "", "sight_content": ""}}, {"title": "军马一场草原队", "address": "张掖市-山丹县", "image": "", "rank": 26, "time": 2, "location": {"lat": 38.79045266330607, "lng": 101.09561558172206}, "feature": {"sight_features": "", "sight_content": ""}}, {"title": "镜铁山", "address": "甘肃省兰州市七里河区皋兰路", "image": "", "rank": 27, "time": 2, "location": {"lat": 36.053562379026225, "lng": 103.84770083575187}, "feature": {"sight_features": "", "sight_content": ""}}, {"title": "格萨尔王殿", "address": "甘肃省张掖市肃南裕固族自治县马蹄乡", "image": "", "rank": 28, "time": 2, "location": {"lat": 38.48803146239349, "lng": 100.42770865201162}, "feature": {"sight_features": "", "sight_content": ""}}, {"title": "鸾鸟湖", "address": "张掖市肃南裕固族自治县", "image": "", "rank": 29, "time": 2, "location": {"lat": 38.84310020502293, "lng": 99.62190541800803}, "feature": {"sight_features": "", "sight_content": ""}}, {"title": "祈连山大峡谷", "address": "甘肃省张掖市肃南裕固族自治县", "image": "", "rank": 31, "time": 2, "location": {"lat": 38.84310020502293, "lng": 99.62190541800803}, "feature": {"sight_features": "", "sight_content": ""}}, {"title": "七彩月色街", "address": "张掖市临泽县七彩镇", "image": "", "rank": 32, "time": 2, "location": {"lat": 38.98309234699592, "lng": 100.03129615102226}, "feature": {"sight_features": "", "sight_content": ""}}]}