{"cityName": "苏尼特右旗", "days": 2, "cityImage": "", "spots": [{"title": "赛汉塔拉温泉", "address": "锡林郭勒盟苏尼特右旗赛汉塔拉镇西南15公里赛汉塔拉温泉旁", "image": "", "rank": 1, "time": 2, "location": {"lat": 42.666525996581406, "lng": 112.65864686550056}, "feature": {"sight_features": "", "sight_content": ""}}, {"title": "苏尼特右旗档案馆", "address": "阿其图街", "image": "", "rank": 2, "time": 1.0, "location": {"lat": 42.76395334082069, "lng": 112.65300091655673}, "feature": {"sight_features": "", "sight_content": ""}}, {"title": "萨音乌苏", "address": "锡林郭勒盟镶黄旗", "image": "", "rank": 3, "time": 2, "location": {"lat": 42.237661285279046, "lng": 113.85450538582315}, "feature": {"sight_features": "", "sight_content": ""}}, {"title": "温都尔庙", "address": "锡林郭勒盟苏尼特右旗王府附近", "image": "", "rank": 4, "time": 2, "location": {"lat": 42.454513801164005, "lng": 112.93255225278666}, "feature": {"sight_features": "", "sight_content": ""}}, {"title": "苏尼特生态旅游娱乐园", "address": "内蒙古自治区锡林郭勒盟苏尼特右旗", "image": "", "rank": 5, "time": 2, "location": {"lat": 42.74736892246295, "lng": 112.64856904547575}, "feature": {"sight_features": "", "sight_content": ""}}, {"title": "乌兰推饶木", "address": "锡林郭勒盟苏尼特右旗", "image": "", "rank": 6, "time": 2, "location": {"lat": 42.74736892246295, "lng": 112.64856904547575}, "feature": {"sight_features": "", "sight_content": ""}}, {"title": "鲁卡奇儿童乐园", "address": "赛汉塔拉镇汽车站对面", "image": "", "rank": 7, "time": 2, "location": {"lat": 42.75839277409032, "lng": 112.66080979832104}, "feature": {"sight_features": "", "sight_content": ""}}, {"title": "乌兰布统敖包吐", "address": "内蒙古乌兰布统敖包吐", "image": "", "rank": 8, "time": 2, "location": {"lat": 40.823156232446166, "lng": 111.77260583081977}, "feature": {"sight_features": "", "sight_content": ""}}, {"title": "阿其图马拉包", "address": "锡林郭勒盟-苏尼特右旗-赛汉塔拉镇西南15公里(101省道3公里处)赛汉塔拉温泉内", "image": "", "rank": 9, "time": 2, "location": {"lat": 42.7827238137985, "lng": 112.64473516738973}, "feature": {"sight_features": "", "sight_content": ""}}]}