{"cityName": "孙吴", "days": 2, "cityImage": "", "spots": [{"title": "胜山要塞国家森林公园", "address": "黑河市孙吴县满达乡境内", "image": "", "rank": 1, "time": 2, "location": {"lat": 49.535186145006186, "lng": 127.74307738594347}, "feature": {"sight_features": "", "sight_content": ""}}, {"title": "抗战纪念馆", "address": "黑龙江省黑河市孙吴县火车站门前", "image": "", "rank": 2, "time": 0.5, "location": {"lat": 49.43249664309131, "lng": 127.33085345483974}, "feature": {"sight_features": "", "sight_content": ""}}, {"title": "孙吴县日本侵华罪证陈列馆", "address": "黑龙江省孙吴县城东3公里处", "image": "", "rank": 3, "time": 2, "location": {"lat": 49.43145060685943, "lng": 127.3423877083676}, "feature": {"sight_features": "", "sight_content": ""}}, {"title": "东光绿色白瓜籽种植专业合作社", "address": "311省道附近", "image": "", "rank": 4, "time": 1.5, "location": {"lat": 40.42605053578163, "lng": 117.19514906888342}, "feature": {"sight_features": "", "sight_content": ""}}, {"title": "孙吴县北方寒地现代农业示范基地", "address": "311省道西100米", "image": "", "rank": 5, "time": 2, "location": {"lat": 40.42605053578163, "lng": 117.19425076337345}, "feature": {"sight_features": "", "sight_content": ""}}, {"title": "北极游乐园", "address": "黑龙江省黑河市孙吴县", "image": "", "rank": 6, "time": 4.5, "location": {"lat": 49.43145060685943, "lng": 127.3423877083676}, "feature": {"sight_features": "", "sight_content": ""}}, {"title": "逊别拉雪花啤酒广场", "address": "黑龙江省黑河市孙吴县x185", "image": "", "rank": 7, "time": 2, "location": {"lat": 49.43145060685943, "lng": 127.3423877083676}, "feature": {"sight_features": "", "sight_content": ""}}, {"title": "滨江公园", "address": "185县道附近", "image": "", "rank": 8, "time": 3.5, "location": {"lat": 49.38261713655554, "lng": 127.98852924982982}, "feature": {"sight_features": "", "sight_content": ""}}, {"title": "孙吴站南广场", "address": "黑龙江省黑河市孙吴县交通大街与解放路交叉口北100米", "image": "", "rank": 9, "time": 2, "location": {"lat": 49.43208313700935, "lng": 127.33066240771541}, "feature": {"sight_features": "", "sight_content": ""}}, {"title": "黑马美术社", "address": "185县道孙吴抗战纪念馆附近", "image": "", "rank": 10, "time": 2, "location": {"lat": 49.43249664309131, "lng": 127.33085345483974}, "feature": {"sight_features": "", "sight_content": ""}}, {"title": "点石成金玉石根雕艺术馆", "address": "解放路与东风大街交叉口东270米", "image": "", "rank": 11, "time": 2, "location": {"lat": 34.506133150016964, "lng": 109.51102789940586}, "feature": {"sight_features": "", "sight_content": ""}}, {"title": "鳄鱼·漆", "address": "交通大街332附近", "image": "", "rank": 12, "time": 2, "location": {"lat": 38.06885456554417, "lng": 116.59982673622737}, "feature": {"sight_features": "", "sight_content": ""}}, {"title": "胜山要塞", "address": "黑龙江省孙吴县孙吴镇", "image": "", "rank": 13, "time": 2, "location": {"lat": 49.43201449351012, "lng": 127.3354655673281}, "feature": {"sight_features": "", "sight_content": ""}}, {"title": "鑫农农副产品种植专业合作社", "address": "黑河市-孙吴县-185县道与Z953交叉口西100米", "image": "", "rank": 14, "time": 2, "location": {"lat": 49.41021471637034, "lng": 127.73794728714212}, "feature": {"sight_features": "", "sight_content": ""}}]}