{"cityName": "宿迁", "days": "", "cityImage": "", "spots": [{"title": "项王故里", "address": "宿迁市宿城区黄河南路288号", "image": "", "rank": 1, "time": 2.5, "location": {"lat": 33.94384828458841, "lng": 118.30742684967517}, "feature": {"sight_features": "特色1 西楚霸王项羽的出生地。 特色2 游项王故里，叹霸王威武，领略楚汉传奇。", "sight_content": "项王故里景区位于宿迁市区，为国家4A级景区，是西楚霸王项羽的出生地，占地面积65公顷，是一座集文化、商业、休闲、娱乐为一体的城市旅游综合体。在中国几千年历史长河中，有一位“不以成败论英雄”的特例，他以他那独特的人格魅力，一直被后人所怀念、称颂、敬仰，他就是被誉为“盖世英雄”，更被尊为“英雄盖世”的项羽。项羽，出生于公元前232年，在历次战斗中，“力拔山兮气盖世”的他，力敌万夫、胆气过人，鏖战巨鹿、激战彭城，他的出现，为中国历史掀起了一场别样的风云，写下了一段不朽的神话！作为项羽出生地的项王故里，以全国最磅礴浩大的西楚建筑群、最逼真震撼的经典战例实景、最精彩荟萃的名家楹联诗碑、最贴近史实的西楚生活场景，构筑成了“一人、一家、一社会”的西楚古城。这座古城，再现了西楚霸王充满传奇色彩的英雄人生，那生生不息的千年梧桐树、经历风雨的项王手植槐，无不寄托了后人对项羽的无限敬慕与追忆！这座古城，是一首诗，是一首歌，在等你走进，等你聆听，等你细细品味……\n\n项王手植槐：江苏省第一古树，距今2200多年历史，相传此树是项羽小时候和虞姬共同种下的。\n项里桐：项里桐距今2200多年历史，相传项羽的衣胞就埋在这棵树的下面\n项王故里石碑：康熙四十二年，知县胡三俊根据文献考证及历史传说，正式在此立碑，定名为“项王故里”。\n将署\n虞家铺子\n项羽雕像、西楚古城门：高达9.9米的项羽雕像雄伟地屹立在西楚古城门前，注视着来往的游客，期待着与各位英雄游客相会！信步登上24.5米的古城楼最高处，楚风建筑群尽收眼底，穿越千年的历史厚重感扑面而来。\n开门迎宾典：项羽、虞姬在西楚古城前恭迎众嘉宾，穿越2000多年的历史，让游客感受到西楚战士的勇猛、楚腰卫鬓的柔美，以及项王故里景区诚邀天下来客的热情。时间：周一至周五9:00；周末及节假日8:40 地点：主城门口\n鸿门演义：秦朝末年，天下大乱。项羽设宴，宴请刘邦，宴会上歌舞升平，觥筹交错，看似祥和的宴会，实则暗藏杀机，各怀心事……时间： 10:40-15:00； 地点：项府剧场\n“嘻”游“嘻”楚：热闹繁华的西楚集市，带您穿越千年，感受古楚人民的日常生活。时间：周一至周五9:10； 地点：盖世阁\n楚舞秀：从西楚霸王传奇的一生中选取江东起义、鸿门宴、乌江自刎三个代表篇章，通过酷炫的街舞特技串联，古典与现代的完美结合，呈现全新的视觉冲击。时间：周一至周五9:30 16:00；周末及节假日16:00 地点：盖世阁舞台\n楚服秀：婀娜多姿的古典美人展示华美的西楚服饰，带领大家身临其境地感受西楚宫廷盛宴。时间：10:00 14:00 17:00； 地点：项府剧场\n\n5D影院：楚汉争霸的爱恨情仇将在游客身边完美重现，让游客亲身感受那段传奇的历史。"}}, {"title": "乾隆行宫", "address": "宿迁市宿豫区102县道", "image": "", "rank": 2, "time": 2.5, "location": {"lat": 34.03284639410744, "lng": 118.15224984228661}, "feature": {"sight_features": "", "sight_content": ""}}, {"title": "三台山国家森林公园", "address": "宿迁市宿豫区三台大山道", "image": "", "rank": 3, "time": 3.5, "location": {"lat": 33.95480439632684, "lng": 118.33640094471272}, "feature": {"sight_features": "特色1 苏北的西双版纳。 特色2 春有衲田花海，夏有曲水风荷，秋有红叶迎宾，冬有梅村煮雪。 特色3 景区八大系列各有特色，竞展风华。", "sight_content": "三台山国家森林公园，国家AAAA级旅游景区，位于美丽的骆马湖畔，总占地面积约12.7平方公里。景区以“最美的生态，永远的时尚”为设计理念，以“那山、那水、衲田”为核心产品。创造性打造了八大最美景观系列：最美的林、最美的红叶、最美的建筑、最美的溪涧、最美的衲田、最美的路、最美的桥、最美的紫石。可谓“想不到的美景，忘不了的原乡”\n\n自然山林：12.7平方公里的公园内，树木古朴葱茏，蓬勃参天，森林覆盖率达98%，负氧离子含量高达2万每立方厘米，远超一般的公园和城区，是一座天然的生态氧吧。天和塔：宿迁第一佛塔。采用中国古塔中最成熟的楼阁式设计，取宋代建筑风格，八角九层，高60米。天和塔寓意“天人合一，和谐共生”。\n\n梨兰会：梨园一共230亩，这些梨树有着近50多年的历史了。3月中旬到4月初，梨花树下铺满了紫色的二月兰花毯。置身于梨园，仿佛置身于一片冰清玉洁的人间仙境。\n\n衲田：位于整个景区东侧，总面积约2220亩，由612块花田缝补拼接而成，融合了北方旱梯田的雄浑和南方水梯田的俊秀，与僧人袈裟异曲同工。这里栽植着50多种花卉，自南向北形成黄、红、紫三大色区。站在全长2.3公里的彩虹桥俯瞰花海，听花开花落，嗅浓郁芬芳，感受浓浓的原乡情怀。主要看点：花海秀场\n白马溪涧\n\n\n镜湖\n雾森\n衲田村\n\n果林谧境\n紫薇园\n百合堂\n\n景区特色住宿推荐:景区内有海棠湾轻奢度假酒店、隐花间精品民宿、村上·花房里精品民宿、花仙子客栈、紫菱里酒店五大特色住宿组团，拥有房车、树屋、精品民宿、客栈等各类主题客房170多间，依托景区独有的生态资源，是您休闲、度假、亲子体验、团建活动的最佳场所之房车\n树屋\n民宿"}}, {"title": "雪枫公园", "address": "宿迁市宿城区黄河北路288号", "image": "", "rank": 4, "time": 2.0, "location": {"lat": 33.982029733150384, "lng": 118.30543877920866}, "feature": {"sight_features": "", "sight_content": ""}}, {"title": "湖滨公园", "address": "宿迁市宿豫区湖滨新城迎春大道", "image": "", "rank": 5, "time": 1.5, "location": {"lat": 34.05899388492857, "lng": 118.27822477008903}, "feature": {"sight_features": "", "sight_content": ""}}, {"title": "泗洪洪泽湖湿地", "address": "宿迁市泗洪县洪泽湖湿地景区", "image": "", "rank": 6, "time": 5.0, "location": {"lat": 33.35644784463542, "lng": 118.48194892281437}, "feature": {"sight_features": "特色1 国家4A级旅游景区、长三角世博之旅示范点", "sight_content": "洪泽湖湿地景区位于中国五大淡水湖之一的洪泽湖西北岸泗洪县境内，总面积约1万亩，是江苏省面积较大的淡水湿地景区。景区内空气质量优，负氧离子含量每立方厘米2—5万个，水质国家二类，是中国南水北调东线工程水源地，拥有淡水鱼类67种5万斤、鸟类194种10万只、水生植物300种6000亩，已建成以湿地元素为主题的特色景点36处，是华东具代表性的生态旅游景区。\n\n洪泽湖万亩芦苇迷宫是景区特色景点，迷宫总面积3000亩，由60条总长15公里的河道贯通组成，其体量与规模在全国各大芦苇迷宫中位居前列，坐船畅游其中，水路九曲十八弯、芦苇恍若青纱帐。29世纪40年代，彭雪枫与张爱萍曾在此领导了艰苦卓绝的抗日战争和33天反扫荡斗争。2013年，经过部分改造提升后，增加了抗日将领群雕、下草湾古人遗址、新四军工委岛、洪泽湖巨龙等特色景点。\n畅游全长10公里的绝美画廊，两岸花团锦簇、鸢飞鱼跃。沿途可游览如诗如画的爱情公园、惊险刺激的快艇冲浪、孔雀园、全国科普教育基地湿地博物馆、人间仙境深呼吸通道、万鸟云集的美丽天鹅湖、洁白如雪的万亩芦花，可轻松惬意的乘坐观光小火车，也可悠闲自得的骑行自行车，或者闲庭信步休闲养生，三种玩法任您选择。\n洪泽湖是中国南水北调东线工程水源地，水体清澈，味道甘甜，这里出产中国最优质的螃蟹。泗洪县是中国螃蟹之乡，螃蟹养殖面积80万亩，年产量4万吨。泗洪洪泽湖大闸蟹“白肚、青背、黄毛、金爪、螯强”，雌蟹肉美黄多、雄蟹味美膏丰。“秋风响、蟹脚痒”，秋季是品尝洪泽湖大闸蟹的最佳季节，到泗洪，游大湖湿地、泡杉林温泉、品美味螃蟹、观万只候鸟。\n洪泽湖湿地景区位于洪泽湖湿地自然保护区试验区，该保护区总面积75万亩，是华东面积较大的淡水湿地自然保护区，常年生活着194种珍稀鸟类。其中，珍贵鸟类四种，分别是丹顶鹤、东方白鹳、黑鹳、大鸨，国家二级保护鸟类26种，近年来还发现了世界濒危鸟类震旦雅雀。秋天的湿地、是北方候鸟南迁的季节，50万只候鸟云集湿地，万顷芦荡、万鸟争鸣，丹顶鹤、白天鹅，城市看不到的风景。\n洪泽湖湿地优越的原生态自然环境成为都市人外出旅游度假休闲的首先之地，洪泽湖湿地培训中心造型别致，整体建筑漂浮于湖面之上，与湿地景观完美融合，打开房间窗户，即可欣赏到湿地最美丽的风景。湿地度假村精致小巧，最适合家庭度假，别墅外就是垂钓的选择。入住大湿地，早随鸟鸣起，有氧运动深呼吸；夜枕蛙声眠，世外桃源入梦乡..."}}, {"title": "洋河酒厂文化旅游区", "address": "宿迁市宿城区洋河镇中大街118号", "image": "", "rank": 7, "time": 1.0, "location": {"lat": 33.78860276587917, "lng": 118.39156461857138}, "feature": {"sight_features": "特色1 品鉴醇香的绵柔原浆、体验传统的古法技艺", "sight_content": "洋河酒厂文化旅游区位于中国“白酒之都——江苏•宿迁”，地处千年酿酒古镇洋河。\n幽静神秘的百年地下酒窖、穿越时空的绵柔酒道演绎馆、规模宏大的酿酒生产车间、闻名遐迩的美人泉景观园、别具一格的陶坛储酒基地、尊贵高雅的白酒银行、领跑行业的包装物流中心等众多景点坐落于园内，是融工艺传承、文化展示、科普教育、休闲购物于一体的综合型文化旅游园区。\n自古以来，“名酒产地，必有佳泉”。洋河所处地带地势低洼，水源富集，泉眼众多，水质清澈透明，绵软甘甜，百姓家中多有“自流井”，其中又以厂区内的美人泉水源较为丰富。"}}, {"title": "克拉嗨谷", "address": "宿迁市湖滨新城郁金香路1号", "image": "", "rank": 8, "time": 0.5, "location": {"lat": 33.99820359830988, "lng": 118.2856544986569}, "feature": {"sight_features": "", "sight_content": ""}}, {"title": "骆马湖风景区", "address": "宿迁市湖滨新区环湖大道附近", "image": "", "rank": 9, "time": 3.0, "location": {"lat": 34.114768704954066, "lng": 118.31499464420669}, "feature": {"sight_features": "", "sight_content": ""}}, {"title": "宿迁欢乐岛", "address": "宿迁市新城开发区滨湖新城环湖大道8号", "image": "", "rank": 10, "time": 3.0, "location": {"lat": 34.05161134893171, "lng": 118.27698852653772}, "feature": {"sight_features": "特色1 长三角的摩天轮、中国水城威尼斯", "sight_content": "宿迁欢乐岛位于宿迁市湖滨新城核心区域，西临骆马湖，东为嶂山森林公园，距离宿迁市中心仅8公里，距徐州市约100公里。被清代乾隆盛赞为“第一江山春好处”的江苏宿迁。欢乐岛是江苏亿泰集团投资建设的一座大型综合性游乐公园，位于宿迁市湖滨新城风光秀美的骆马湖畔，占地面积350亩，投资约3.2亿人民币，拥有世界排名第四的摩天巨轮及30多项配套齐全的游乐设施，是一座融观赏性、娱乐性、趣味性、刺激性于一体的现代化主题乐园。\n\n\n骆马湖水城摩天轮是目前长三角地区最高的摩天轮，位于江苏省宿迁市。从地面上看就像一个巨型大风车。吊舱壳体晶莹剔透，这座摩天轮高122.5米，共架设48个吊舱，每个舱核定乘客6人，可同时容纳288余人观光，运转一周需20分钟左右。舱内配有空调、风扇、应急专用对讲机等等。虽然吊舱在高空运转，但舱内却非常平稳，即使端杯水也不会溢出来。骆马湖摩天轮将成为长三角地区最高的摩天轮和苏北地区的新地标。\n\n“疯狂飞碟”又名“大摆锤”，是目前国际上流行的新型游乐项目。该设备造型美观，结构科学，气势磅礴。游客乘坐在高速旋转的摆锤上往复摆荡，令人目眩神迷，惊心动魄；游客往往情不自禁的发出惊呼与欢笑，极大的提高了整个游乐场欢乐气氛，使许多游客留连忘返，不愿离开。摆锤整体摆动，连带锤体旋转360°。最高摆起角度90°！并同时旋转！\n“迷你穿梭”又叫“立环跑车”，是由童趣园游乐推出的一种新型游乐设施！它是在立交式轨道上行驶的一种新型游乐设备，它是由造型精美、风格各异的跑车组成的浩荡车队，各自驱动同步行驶，沿轨道方向穿梭于具有现代化标志的立式轨道上，配有五彩缤纷的彩灯、音响及儿童卡通画装饰。让孩子们体会翻山越岭和飞跃时空的感觉，够刺激又无恐慌感，使人身临其境，赏心悦目，深受儿童喜爱。\n\n摇头飞椅”游艺机是飞行塔类游艺机中的一个品种。造型取意新、气势雄伟、壮观、趣味性强，融惊险性与趣味性为一体。游人在悬挂的座椅中随着回转盘倾斜回转和中心转体的相对转动，飞上旋下，好不惊险刺激，亲身一试方能体验它的无穷乐趣。\n“海盗船”游艺机是一种利用外力的综合作用使船体进行往复摆动的大型游艺机机械。乘客乘坐此起彼伏的海盗船上，搏击于惊涛骇浪之间，交替而至的失重和超重感受，给您带来惊险、刺激的同时，也带来一份轻松的感受，让人回味无穷。"}}, {"title": "真如禅寺", "address": "宿迁市宿城区幸福南路", "image": "", "rank": 11, "time": 1.0, "location": {"lat": 33.95050556857043, "lng": 118.30719154663159}, "feature": {"sight_features": "", "sight_content": ""}}, {"title": "洪泽湖湿地温泉度假村", "address": "宿迁市泗洪县临淮镇通湖大道温泉路1号", "image": "", "rank": 12, "time": 2, "location": {"lat": 33.27062441197237, "lng": 118.37952158187055}, "feature": {"sight_features": "特色1 含多种有用矿物质及微量元素", "sight_content": "洪泽湖湿地温泉度假村地处泗洪县临淮镇境内，位于国家4a级景区“洪泽湖湿地公园”之滨，坐落在万亩水杉林中，占地面积300余亩，总投资约3亿元。\n温泉水经国土资源部南京矿产资源监督检测中心鉴定分析，富含锶、溴、锂、碘、偏硅酸等多种对人体有益的矿物质，尤其是锶含量极高，为江苏地区罕见，因此也被命名锶型医疗热矿泉。\n\n洪泽湖湿地温泉度假村共包括四个部分：湿地森林温泉浴场、别墅度假区、旅游接待中心和新丝路五星级度假酒店。度假村温泉井底温度70摄氏度，井口出水温度达52摄氏度，日出水量达3500立方米。\n\n洪泽湖湿地温泉所出水的水温、水量、水质经权威机权构检测、化验、分析，多种有用矿物质及微量元素含量。 洪泽湖湿地温泉达到了国家医疗热矿水浓度，可以用于医疗、洗浴等。"}}, {"title": "宿迁动物园", "address": "宿迁市宿豫区金沙江路8号", "image": "", "rank": 13, "time": 4.5, "location": {"lat": 33.99930395589633, "lng": 118.33008889145358}, "feature": {"sight_features": "特色1 有湖有岛的大型综合主题公园 特色2 风景优雅，动物种类繁多。", "sight_content": "宿迁运河湾森林动物园位于宿迁市运河二号桥东首，宿豫现代农业产业园核心区，是一座集动物野趣观赏、休闲娱乐、科普教育为一体的大型综合性主题公园。\n作为全市第一家大型动物园，也是苏北最大动物园。动物园占地496亩，建成后的动物园风景优美，动物种类繁多，计划引进狮子、老虎、金猫、熊、梅花鹿、斑马、海豹、鳄鱼等动物40余种。\n宿迁运河湾森林动物园是一个集动物野趣观赏、休闲娱乐、科普教育和人性化服务为一体的大型综合主题公园，占地面积500亩，绿化面积180000平方米，绿化覆盖率在55%以上。\n\n该园位于风景秀丽的宿豫现代产业园内，陆塘河风光带顺河南侧蜿蜒而过。动物园大门内侧的入口喷泉广场，伴随着悦耳的音乐声，腾空而起的喷泉预示着动物园的生意红红火火。步入动物园内，首先映入眼帘的便是一个占地100多亩的人工湖，湖中还有3个人工开挖的小岛屿，木质栈桥与岸边曲折相连。"}}, {"title": "马陵公园", "address": "宿迁市宿城区幸福中路185号", "image": "", "rank": 14, "time": 2, "location": {"lat": 33.967877624187295, "lng": 118.30461952009202}, "feature": {"sight_features": "", "sight_content": ""}}, {"title": "宿迁陈家大院", "address": "宿迁市宿豫区皂河镇通圣街陈家大院", "image": "", "rank": 15, "time": 2.5, "location": {"lat": 34.0462825153978, "lng": 118.1238513886063}, "feature": {"sight_features": "", "sight_content": ""}}, {"title": "妈祖文化园", "address": "泗阳船闸西南侧的情人岛上", "image": "", "rank": 16, "time": 2.0, "location": {"lat": 33.728328313046696, "lng": 118.70946596537884}, "feature": {"sight_features": "", "sight_content": ""}}, {"title": "宿迁柳山湖", "address": "江苏省宿迁市泗洪县石集乡柳山村", "image": "", "rank": 17, "time": 2.5, "location": {"lat": 33.36717877156293, "lng": 118.25088963614937}, "feature": {"sight_features": "", "sight_content": ""}}, {"title": "晓店温泉", "address": "宿迁市宿豫区湖滨新城紫薇大道(近青桐路)", "image": "", "rank": 18, "time": 2, "location": {"lat": 34.02609503305344, "lng": 118.3095454466272}, "feature": {"sight_features": "", "sight_content": ""}}, {"title": "项王蜡像馆", "address": "宿迁市区幸福南路项王故里附近", "image": "", "rank": 19, "time": 2, "location": {"lat": 33.95050556857043, "lng": 118.30719154663159}, "feature": {"sight_features": "", "sight_content": ""}}, {"title": "合善堂", "address": "宿迁市宿豫区皂河镇", "image": "", "rank": 20, "time": 2, "location": {"lat": 34.063118181172, "lng": 118.142134262888}, "feature": {"sight_features": "", "sight_content": ""}}, {"title": "骆马湖动漫王国", "address": "宿迁市湖滨新区迎春大道与金桂路交界处（湖滨公园内）", "image": "", "rank": 21, "time": 3.0, "location": {"lat": 34.05901545248441, "lng": 118.27940628258052}, "feature": {"sight_features": "", "sight_content": ""}}, {"title": "宿北大战纪念馆", "address": "江苏省宿迁市城区幸福路中心广场北端", "image": "", "rank": 22, "time": 1.0, "location": {"lat": 33.81486172116603, "lng": 118.24823109111121}, "feature": {"sight_features": "", "sight_content": ""}}, {"title": "泗洪白鹭保护区", "address": "江苏省宿迁市泗洪县", "image": "", "rank": 23, "time": 2, "location": {"lat": 33.46573259459488, "lng": 118.22241594668768}, "feature": {"sight_features": "", "sight_content": ""}}, {"title": "颠九宫真人密室逃脱", "address": "宿迁市宿城区金水名都小区2-07号门面房", "image": "", "rank": 24, "time": 2, "location": {"lat": 33.95167744076965, "lng": 118.29402409912731}, "feature": {"sight_features": "", "sight_content": ""}}, {"title": "中国杨树博物馆", "address": "宿迁市泗阳县农场境内", "image": "", "rank": 25, "time": 1.0, "location": {"lat": 33.728328313046696, "lng": 118.70946596537884}, "feature": {"sight_features": "", "sight_content": ""}}, {"title": "虞姬公园", "address": "宿迁市沭阳县公园西路80号", "image": "", "rank": 26, "time": 1.0, "location": {"lat": 34.1412479795514, "lng": 118.78397562934451}, "feature": {"sight_features": "", "sight_content": ""}}, {"title": "天后宫", "address": "宿迁市泗阳县众兴镇骡马街西首", "image": "", "rank": 27, "time": 1.5, "location": {"lat": 33.71360704108522, "lng": 118.68059121125273}, "feature": {"sight_features": "", "sight_content": ""}}, {"title": "洪泽湖湿地观鸟园", "address": "宿迁泗洪县城头乡四分场", "image": "", "rank": 28, "time": 2, "location": {"lat": 33.279575053752566, "lng": 118.30543492457971}, "feature": {"sight_features": "", "sight_content": ""}}, {"title": "洋河农业嘉年华", "address": "宿迁市洋河新区洋河镇", "image": "", "rank": 29, "time": 1.5, "location": {"lat": 33.7792061770713, "lng": 118.37273227416516}, "feature": {"sight_features": "", "sight_content": "洋河农业嘉年华位于宿迁市洋河新区国家农业公园内\n园区分为主题场馆区、田园乐活区、科研创新区、科技推广区、综合服务区五个功能区，兼具科技引领、人才培育、社会服务、品牌孵化、精品展销、休闲体验功能。\n园区内建有八大主题场馆（蔬菜馆、谷食馆、纤维馆、花卉馆、果树馆、中药馆、生态馆、沙漠馆）、萌宠乐园、商业街、生态餐厅、精品店、草坪婚礼等。"}}, {"title": "黄河谷水上乐园", "address": "宿迁市宿城新区印象黄河公园双塔下方（树人学校北）", "image": "", "rank": 30, "time": 2, "location": {"lat": 33.461507398276055, "lng": 118.20182292168529}, "feature": {"sight_features": "特色1 是宿迁唯一的大型水上乐园。 特色2 有大型海啸池、欢乐水寨、游泳池、真沙海滩、沙滩排球等水上游乐项目。 特色3 苏北地区首所大型露天原生态水上乐园。", "sight_content": "宿迁黄河谷水上乐园位于宿城区通湖大道与爱琴路交叉口，是宿迁唯一的大型水上乐园，拥有大型海啸池、欢乐水寨、游泳池、真沙海滩、沙滩排球等水上游乐项目。\n是一个集互动体验、观光游览、休闲娱乐、人文教育等为一体的科技文化体验园区，乐园与黄河文化为主题，依托黄河之水、双塔之巅、畅游炮兵之父朱瑞将军革命之足迹，打造奇思妙想的梦幻之旅，通过景观打造真实再现世界黄河沿线的特色建筑、人文风情等异域文化。\n乐园由国际顶尖的设计公司精心规划，将古黄河与高科技水上游乐项目相融合，将美国式的现代惊险水上娱乐项目与欧洲的古典水疗理念相结合，建成苏北地区首所大型露天原生态水上乐园。"}}, {"title": "黄河水上乐园", "address": "宿迁市金鹰对面河滨公园岸边", "image": "", "rank": 31, "time": 1.5, "location": {"lat": 33.96138119468788, "lng": 118.30038219773026}, "feature": {"sight_features": "", "sight_content": ""}}, {"title": "旭泰足道", "address": "宿迁市泗洪县学府文苑北门向西100米", "image": "", "rank": 32, "time": 2, "location": {"lat": 33.463538501205214, "lng": 118.2403184685351}, "feature": {"sight_features": "", "sight_content": ""}}, {"title": "运河湾生态滑雪场", "address": "宿迁市宿豫区江山大道（红星美凯龙向北两公里）", "image": "", "rank": 33, "time": 2, "location": {"lat": 33.97124942218348, "lng": 118.33926537149237}, "feature": {"sight_features": "", "sight_content": ""}}, {"title": "虞姫生态园", "address": "沭城镇阳光天地小区行政中心(近沭阳县政府)", "image": "", "rank": 34, "time": 2, "location": {"lat": 34.113030539138265, "lng": 118.80791674588093}, "feature": {"sight_features": "", "sight_content": ""}}, {"title": "嶂山森林公园", "address": "江苏省宿迁市宿豫区249省道", "image": "", "rank": 35, "time": 1.0, "location": {"lat": 34.07508800327191, "lng": 118.33973401747693}, "feature": {"sight_features": "", "sight_content": ""}}, {"title": "双沟酒业文化旅游区", "address": "宿迁市泗洪县双沟镇双沟酒业游客接待中心", "image": "", "rank": 36, "time": 2, "location": {"lat": 33.224922223273246, "lng": 118.19039609920836}, "feature": {"sight_features": "特色1 有“鸡鸣听两省，酒熟香三县”的美誉", "sight_content": "双沟酒文化旅游景区位于苏皖两省三县交汇处的洪泽湖畔、淮河岸边，区位优势明显，水路交通便捷，南临淮河，北依宁宿徐高速公路，东濒75万亩洪泽湖湿地，与法国白兰地产区和苏格兰威士忌产区并称为世界三大湿地名酒产区。\n景区占地面积约2.8平方公里，分为科技双沟旅游休闲区和岁月双沟文化体验区两大片区，由醴泉广场、醉猿洲、雅苑、地下酒海、珍宝洞、明代老街、朱家槽坊、百年老窖池、淮上客栈、明清酿酒遗址、双沟1955广场、现代化包装物流中心等18个景点组成，形成了以酒文化为核心，通过旅游与酒产业、文化产业的融合互动，开创创意旅游综合体开发模式和“购物+ 餐饮+ 娱乐+ 休闲”产品组合，构建体验独特、优势鲜明的旅游产业服务链、消费链，并形成组团式、开放式、一体化的旅游服务产业新格局，是一个融酿酒历史文化、科普教育、休闲购物为一体的综合型文化旅游景区。\n2006年，景区被评为“全国工业旅游示范点”，近年来依托双沟酒业这一全国知名白酒企业，以国家工业旅游示范点为平台，在展现中国白酒传统文化内涵的同时，着力打造以白酒酿造、品鉴体验为核心的特色工业旅游景区，吸引了全国各地游客纷纷慕名而来。尤其是近两年来，公司接待的游客量呈现出放量增长的态势，2016年已突破56万人次，带动了宿迁、泗洪及周边整体旅游业的快速发展，形成了以双沟酒文化旅游区为中心，泗洪生态旅游为辐射拉动的旅游消费热点。"}}, {"title": "楚风水韵温泉度假广场", "address": "宿迁市宿城区项王故里西楚大街9号楼", "image": "", "rank": 37, "time": 2, "location": {"lat": 33.947028922508885, "lng": 118.30711706842118}, "feature": {"sight_features": "", "sight_content": ""}}, {"title": "苏北花卉示范园", "address": "江苏省宿迁市沭阳县庙头镇境内", "image": "", "rank": 38, "time": 1.0, "location": {"lat": 34.231275388058656, "lng": 118.71942900262049}, "feature": {"sight_features": "", "sight_content": ""}}, {"title": "洪泽湖湿地自然保护区", "address": "宿迁市泗洪县湿地大道西南侧", "image": "", "rank": 39, "time": 2, "location": {"lat": 33.45840307351609, "lng": 118.23440004736061}, "feature": {"sight_features": "", "sight_content": ""}}, {"title": "奇幻岛水上乐园", "address": "宿迁市泗阳县众兴镇界湖社区南245省道西侧 （泗阳西高速路口500米）", "image": "", "rank": 40, "time": 2, "location": {"lat": 33.8892787837599, "lng": 118.6833496191178}, "feature": {"sight_features": "", "sight_content": ""}}, {"title": "梵音寺", "address": "江苏省宿迁市泗阳县佛缘路梵音寺念佛堂", "image": "", "rank": 41, "time": 1.0, "location": {"lat": 33.70270248634457, "lng": 118.67529734237388}, "feature": {"sight_features": "", "sight_content": ""}}, {"title": "烈士陵园", "address": "宿迁市泗洪县城南郊", "image": "", "rank": 42, "time": 2, "location": {"lat": 33.46573259459488, "lng": 118.22241594668768}, "feature": {"sight_features": "", "sight_content": ""}}, {"title": "陈毅纪念馆", "address": "宿迁市泗洪县双沟镇", "image": "", "rank": 43, "time": 1.0, "location": {"lat": 33.24334523078833, "lng": 118.2016646366612}, "feature": {"sight_features": "", "sight_content": ""}}, {"title": "洪泽湖乡土植物园", "address": "宿迁市泗洪县城头乡林业四分场", "image": "", "rank": 44, "time": 4.0, "location": {"lat": 33.279575053752566, "lng": 118.30543492457971}, "feature": {"sight_features": "", "sight_content": ""}}, {"title": "周圈生态花卉苗圃盆景市场", "address": "江苏省宿迁市沭阳县新河镇周圈村", "image": "", "rank": 45, "time": 2, "location": {"lat": 34.16823840985013, "lng": 118.67079236359729}, "feature": {"sight_features": "", "sight_content": ""}}, {"title": "S Time真人密室逃脱（沭阳店）", "address": "宿迁市沭阳县三匹马商业街如家宾馆向西10米巷内", "image": "", "rank": 46, "time": 2, "location": {"lat": 34.140011116059846, "lng": 118.89810230721628}, "feature": {"sight_features": "", "sight_content": ""}}, {"title": "彭雪枫纪念馆", "address": "河南省南阳市镇平县建设东路378号", "image": "", "rank": 47, "time": 1.0, "location": {"lat": 33.04922207843038, "lng": 112.24749833904406}, "feature": {"sight_features": "", "sight_content": ""}}, {"title": "官墩山滑雪场", "address": "宿迁市沭阳县官墩乡官墩街红绿灯向北100米处（桃花山庄内）", "image": "", "rank": 48, "time": 2, "location": {"lat": 34.210226951906876, "lng": 118.91717307178621}, "feature": {"sight_features": "", "sight_content": ""}}, {"title": "雪枫墓园", "address": "宿迁市泗洪县半城镇", "image": "", "rank": 49, "time": 1.5, "location": {"lat": 33.35338084053102, "lng": 118.40663789577445}, "feature": {"sight_features": "", "sight_content": ""}}, {"title": "淮北解放区抗日阵亡将士纪念塔", "address": "宿迁市泗洪县453乡道（雪枫墓园内）", "image": "", "rank": 50, "time": 1.0, "location": {"lat": 33.355220954775206, "lng": 118.40921628950346}, "feature": {"sight_features": "", "sight_content": ""}}, {"title": "穆墩岛旅游风景区", "address": "宿迁市洪泗县半城镇穆墩岛村", "image": "", "rank": 51, "time": 2, "location": {"lat": 33.328846836682295, "lng": 118.47530596794097}, "feature": {"sight_features": "", "sight_content": ""}}, {"title": "黄河生态园", "address": "江苏省宿迁市宿城区人民大道", "image": "", "rank": 52, "time": 2, "location": {"lat": 33.92693774778099, "lng": 118.27853518854106}, "feature": {"sight_features": "", "sight_content": ""}}, {"title": "骆马湖湿地", "address": "江苏省宿迁市宿豫区区境内", "image": "", "rank": 53, "time": 2, "location": {"lat": 33.95480439632684, "lng": 118.33640094471272}, "feature": {"sight_features": "", "sight_content": ""}}, {"title": "骆马湖乡村俱乐部", "address": "宿迁市宿豫区彩塑路北1号", "image": "", "rank": 54, "time": 2, "location": {"lat": 33.95480439632684, "lng": 118.33640094471272}, "feature": {"sight_features": "", "sight_content": ""}}, {"title": "宿迁动物园", "address": "金沙江路8号", "image": "", "rank": 55, "time": 4.5, "location": {"lat": 31.84497804135477, "lng": 119.96217254437438}, "feature": {"sight_features": "", "sight_content": ""}}, {"title": "欢乐谷欢乐园", "address": "宿迁市泗洪县衡山大桥桥北东侧", "image": "", "rank": 56, "time": 2, "location": {"lat": 33.471358710415316, "lng": 118.20428661078374}, "feature": {"sight_features": "", "sight_content": ""}}, {"title": "古梨树森林公园", "address": "江苏丰县联合国绿色产业示范区中国国家级生态示范区大沙河百里风光带宋楼镇万亩梨园内", "image": "", "rank": 57, "time": 2, "location": {"lat": 34.581988247176035, "lng": 116.68127977717474}, "feature": {"sight_features": "", "sight_content": ""}}, {"title": "柳山湖旅游风景区", "address": "江苏省宿迁市泗洪县石集乡柳孙线南柳山村", "image": "", "rank": 58, "time": 2, "location": {"lat": 33.36717877156293, "lng": 118.25088963614937}, "feature": {"sight_features": "", "sight_content": ""}}, {"title": "雪枫公园九月湖游乐园", "address": "宿迁市宿城区黄河北路288号", "image": "", "rank": 59, "time": 2, "location": {"lat": 33.982029733150384, "lng": 118.30543877920866}, "feature": {"sight_features": "", "sight_content": ""}}, {"title": "楚汉园生态农庄", "address": "宿迁市宿豫区克拉嗨谷西门南100米", "image": "", "rank": 60, "time": 2, "location": {"lat": 33.99845724896897, "lng": 118.28591321064377}, "feature": {"sight_features": "", "sight_content": ""}}]}