{"cityName": "宿松", "days": 2, "cityImage": "", "spots": [{"title": "小孤山", "address": "安庆市宿松县复兴镇", "image": "", "rank": 1, "time": 1.0, "location": {"lat": 29.957464719863562, "lng": 116.56028744069853}, "feature": {"sight_features": "", "sight_content": ""}}, {"title": "白崖寨", "address": "安庆市宿松县城西北趾凤乡境内", "image": "", "rank": 2, "time": 1.0, "location": {"lat": 30.375213165892088, "lng": 116.14295544205923}, "feature": {"sight_features": "", "sight_content": ""}}, {"title": "北浴青山家庭农场", "address": "北浴乡国家电网东10米", "image": "", "rank": 3, "time": 2, "location": {"lat": 39.90769835512468, "lng": 116.3978636234204}, "feature": {"sight_features": "", "sight_content": ""}}, {"title": "田本农业", "address": "105国道西50米", "image": "", "rank": 4, "time": 2, "location": {"lat": 23.06304361021549, "lng": 113.30875620787864}, "feature": {"sight_features": "", "sight_content": ""}}, {"title": "莲洞", "address": "安徽省宿松县宿松县城郊 246500", "image": "", "rank": 5, "time": 2.0, "location": {"lat": 30.159786861375334, "lng": 116.1355236994904}, "feature": {"sight_features": "", "sight_content": ""}}, {"title": "白牙寨", "address": "安徽省宿松县趾凤乡白崖山 246740", "image": "", "rank": 6, "time": 2, "location": {"lat": 30.375213165892088, "lng": 116.14295544205923}, "feature": {"sight_features": "", "sight_content": ""}}, {"title": "安庆石莲洞", "address": "安徽省宿松县宿松县 246502", "image": "", "rank": 7, "time": 1.5, "location": {"lat": 30.159786861375334, "lng": 116.1355236994904}, "feature": {"sight_features": "", "sight_content": ""}}, {"title": "西来庵", "address": "孚玉镇光明社区", "image": "", "rank": 8, "time": 1.0, "location": {"lat": 39.92621922595579, "lng": 116.38785877814202}, "feature": {"sight_features": "", "sight_content": ""}}, {"title": "绿润花卉植物园", "address": "宿松路250号附近", "image": "", "rank": 9, "time": null, "location": {"lat": 31.847577145454018, "lng": 117.27926874994905}, "feature": {"sight_features": "", "sight_content": ""}}, {"title": "淘气堡儿童游乐园(园林路店)", "address": "安徽省安庆市宿松县园林路29号", "image": "", "rank": 10, "time": 2, "location": {"lat": 30.16334244480204, "lng": 116.13112273101729}, "feature": {"sight_features": "", "sight_content": ""}}, {"title": "孩子王儿童游乐场(孩子王店)", "address": "宿松县其他人民路157号", "image": "", "rank": 11, "time": 2, "location": {"lat": 30.159016199941806, "lng": 116.13673508459267}, "feature": {"sight_features": "", "sight_content": ""}}, {"title": "金龙村龙王庵", "address": "五里乡金龙村徐屋", "image": "", "rank": 12, "time": 2, "location": {"lat": 30.139114394925997, "lng": 116.14888733601977}, "feature": {"sight_features": "", "sight_content": ""}}, {"title": "蔡祠堂", "address": "安庆市宿松县", "image": "", "rank": 13, "time": 2, "location": {"lat": 30.159786861375334, "lng": 116.1355236994904}, "feature": {"sight_features": "", "sight_content": ""}}, {"title": "丁氏祠堂", "address": "安徽省安庆市宿松县x063", "image": "", "rank": 14, "time": 2, "location": {"lat": 30.159786861375334, "lng": 116.1355236994904}, "feature": {"sight_features": "", "sight_content": ""}}, {"title": "九成公园", "address": "安徽省安庆市宿松县", "image": "", "rank": 15, "time": 2, "location": {"lat": 30.159786861375334, "lng": 116.1355236994904}, "feature": {"sight_features": "", "sight_content": ""}}, {"title": "考拉大冒险儿童乐园(宿松店)", "address": "安徽省安庆市宿松县经二路", "image": "", "rank": 16, "time": 2, "location": {"lat": 30.17978037074906, "lng": 116.122755871277}, "feature": {"sight_features": "", "sight_content": ""}}, {"title": "宿松县四仙庵", "address": "安徽省安庆市宿松县凉亭镇柳溪村叶屋", "image": "", "rank": 17, "time": 2, "location": {"lat": 30.32849528867908, "lng": 116.2547891169642}, "feature": {"sight_features": "", "sight_content": ""}}, {"title": "三帝殿", "address": "安徽省安庆市宿松县高塘乡社坛村三帝殿组1号", "image": "", "rank": 18, "time": 0.5, "location": {"lat": 30.275620675612515, "lng": 116.32991775025675}, "feature": {"sight_features": "", "sight_content": ""}}, {"title": "宿松公墓", "address": "宿松县一天门河西山", "image": "", "rank": 19, "time": 2.5, "location": {"lat": 30.14841866770881, "lng": 116.11297443457894}, "feature": {"sight_features": "", "sight_content": ""}}, {"title": "深圳湾休闲广场", "address": "安庆市宿松县孚玉中路319号", "image": "", "rank": 20, "time": 2.5, "location": {"lat": 30.16369021857994, "lng": 116.13654269324397}, "feature": {"sight_features": "", "sight_content": ""}}, {"title": "净土莲社", "address": "宿松县复兴镇复兴社区黄湖南路与同马大堤", "image": "", "rank": 21, "time": 2, "location": {"lat": 29.916735569224276, "lng": 116.46682906676006}, "feature": {"sight_features": "", "sight_content": ""}}, {"title": "麒麟庵", "address": "龙井路附近", "image": "", "rank": 22, "time": 2, "location": {"lat": 43.373394241782, "lng": 128.23213607305433}, "feature": {"sight_features": "", "sight_content": ""}}, {"title": "启秀寺", "address": "安庆市宿松县复兴镇套口北行6公里小孤山附近", "image": "", "rank": 23, "time": 2, "location": {"lat": 29.959898137855642, "lng": 116.54296081802775}, "feature": {"sight_features": "", "sight_content": ""}}, {"title": "民众乐园", "address": "孚玉镇宿松路", "image": "", "rank": 24, "time": 2, "location": {"lat": 30.1638462172368, "lng": 116.12504919044733}, "feature": {"sight_features": "", "sight_content": ""}}, {"title": "宿松县档案馆", "address": "孚玉东路5号", "image": "", "rank": 25, "time": 2, "location": {"lat": 30.160784301282945, "lng": 116.14475971742179}, "feature": {"sight_features": "", "sight_content": ""}}, {"title": "龙潮水族", "address": "宿松路212号(有意思和农贸市场大门斜对面)", "image": "", "rank": 26, "time": 2, "location": {"lat": 30.162311667497363, "lng": 116.12413403901412}, "feature": {"sight_features": "", "sight_content": ""}}, {"title": "乐翻天儿童乐园(世纪华联店)", "address": "人民中路200号(世纪华联3楼)", "image": "", "rank": 27, "time": 2, "location": {"lat": 22.358751236897277, "lng": 110.93953866680233}, "feature": {"sight_features": "", "sight_content": ""}}, {"title": "城门冲林场", "address": "孚玉西路701号附近", "image": "", "rank": 28, "time": 2, "location": {"lat": 30.172625731400114, "lng": 116.11985178790229}, "feature": {"sight_features": "", "sight_content": ""}}, {"title": "天和园农家乐", "address": "佐坝乡碧岭村叶垄天和农业生态园内", "image": "", "rank": 29, "time": 2, "location": {"lat": 30.11926693818126, "lng": 116.09119621223586}, "feature": {"sight_features": "", "sight_content": ""}}, {"title": "民众合作社·资金互助部", "address": "072县道与213省道交叉口南150米", "image": "", "rank": 30, "time": 2, "location": {"lat": 44.32202538256775, "lng": 129.32792110032702}, "feature": {"sight_features": "", "sight_content": ""}}, {"title": "金坝有机葡萄", "address": "洲头乡金坝村吴墩附近", "image": "", "rank": 31, "time": 2, "location": {"lat": 29.871068241845688, "lng": 116.30723468699416}, "feature": {"sight_features": "", "sight_content": ""}}, {"title": "绿蒂农业", "address": "佐坝乡碧岭村统筹城乡发展区", "image": "", "rank": 32, "time": 2, "location": {"lat": 30.095730240814575, "lng": 116.10562979889882}, "feature": {"sight_features": "", "sight_content": ""}}, {"title": "林园步行街", "address": "安徽省宿松县人民路", "image": "", "rank": 33, "time": 2, "location": {"lat": 30.160442458689133, "lng": 116.13197025891}, "feature": {"sight_features": "", "sight_content": ""}}, {"title": "但家屋", "address": "安庆市-宿松县", "image": "", "rank": 34, "time": 2, "location": {"lat": 30.159786861375334, "lng": 116.1355236994904}, "feature": {"sight_features": "", "sight_content": ""}}, {"title": "但屋", "address": "安庆市-宿松县", "image": "", "rank": 35, "time": 2, "location": {"lat": 30.159786861375334, "lng": 116.1355236994904}, "feature": {"sight_features": "", "sight_content": ""}}, {"title": "但家湾", "address": "安庆市-宿松县", "image": "", "rank": 36, "time": null, "location": {"lat": 30.159786861375334, "lng": 116.1355236994904}, "feature": {"sight_features": "", "sight_content": ""}}, {"title": "但家岭", "address": "安庆市-宿松县", "image": "", "rank": 37, "time": 2, "location": {"lat": 30.159786861375334, "lng": 116.1355236994904}, "feature": {"sight_features": "", "sight_content": ""}}, {"title": "开心时光游乐园", "address": "安庆市-宿松县-G105(京珠线)", "image": "", "rank": 38, "time": 2, "location": {"lat": 30.159786861375334, "lng": 116.1355236994904}, "feature": {"sight_features": "", "sight_content": ""}}, {"title": "虎猫电竞(龙门北路店)", "address": "安庆市-宿松县-孚玉镇龙门北路", "image": "", "rank": 39, "time": 2, "location": {"lat": 30.1775078758094, "lng": 116.12514081491442}, "feature": {"sight_features": "", "sight_content": ""}}]}