{"cityName": "宿州", "days": "", "cityImage": "", "spots": [{"title": "皇藏峪国家森林公园", "address": "宿州市萧县皇藏峪国家森林公园", "image": "", "rank": 1, "time": 3.5, "location": {"lat": 34.05552826156894, "lng": 117.07224893035009}, "feature": {"sight_features": "特色1 以植物景观为特色，以汉佛教文化为载体。 特色2 中国古树群落，中国历史文化遗产，国家森林公园。 特色3 有天然氧吧之称。", "sight_content": "黄藏峪原名黄桑峪，因峪内长满黄桑树而得名。汉高祖刘帮称帝前曾因避秦兵追捕而藏身于此，故改名皇藏峪。《汉书地理志》记载：“汉高祖微时常隐芒、砀山间，即此山有皇藏峪，汉高祖避难处”。这里冈峦起伏，林木参天，岭上坡下，繁衍着松柏、黄桑、青檀等146种木本植物、700余种草本植物，并有58种鸟类在此栖息，还生存有珍奇的皮毛兽水獭、黄鼬、狐狸等，是淮北地区*能反映历史上生物群落面貌的区域，具有重要的科研价值，为难得的风景、资源宝地！\n\n\n皇藏峪为陶墟山系南部的剥蚀低山丘陵，山岩为石灰岩体，有许多天然洞穴及井泉、山石景观，四周峰峦层叠，涧水淙淙。皇藏峪绿荫如盖，古木参天；山间清泉四溢，有薄雾流云，林中夏季鸟语虫鸣，花草芬芳。皇藏洞、三仙洞、拔剑泉、马扒泉、仙人床、瑞云寺等72处景点遍布其中。"}}, {"title": "奇石文化园", "address": "宿州市灵璧县凤山南路", "image": "", "rank": 2, "time": 1.5, "location": {"lat": 33.548779688684604, "lng": 117.55202365985157}, "feature": {"sight_features": "", "sight_content": ""}}, {"title": "宿州野生动物园", "address": "宿州市埇桥区朱仙庄洪河路（宿州植物园东2公里）", "image": "", "rank": 3, "time": 1.0, "location": {"lat": 33.61839723257503, "lng": 117.15630247591828}, "feature": {"sight_features": "特色1 有世界各地的珍惜濒危野生动物数百余种。 特色2 实现人造景观与生态景观的完美结合。 特色3 给予游客寓教于乐的一站式娱乐休闲体验。", "sight_content": "宿州野生动物园坐落于安徽省宿州市埇桥区宿州大道，“埇桥区”被国家誉为中国马戏之乡，是中国非物质文化遗产，在此浓厚文化背景之下宿州森林动物世界有限公司以传承和保护为目的投资建设宿州野生动物园。\n园区占地约1200亩， 展出来自世界各地的珍惜濒危野生动物数百余种，是以大规模野生动物散养、自驾车观赏、马戏表演、儿童儿园为特色集野生动物展示、野生动物保护、科普教育和文化演艺于一体的大型综合性野生动物园，更设有儿童乐园，美食主题商店，给予游客寓教于乐的一站式娱乐休闲体验。宿州野生动物园分为车行区、步行区、国际大马戏（筹建中）、散养区四大区域。\n车行区的动物种类繁多，包括熊区、猎豹区、狼区、狮区、虎区等凶狠猛兽区，羚羊区、野驴区、梅花鹿区、斑马区、长颈鹿区、羊驼区、骆驼区、牦牛区等温顺食草区，可以在安全距离仔细欣赏这些草原丛林霸主，投喂食物。\n\n\n步行区的动物更是花样百出，包括萌宠乐园、科技馆、鹦鹉乐园、长颈鹿馆、灵长馆、河马馆、鳄鱼池、两爬馆、水禽湖等，有亚洲和非洲特色的食草动物，亲切可爱，另设有动物馆舍、展示区、科普教育区等室内设施。与游客零距离接触，体现出动物与人的和谐统一。表演区，有三大表演场，鹦姿剧场，雄风剧场，欢乐剧场每天为您提供精彩的动物表演，小丑表演，训兽表演。让您在游园的同时感受到动物们及演员们带给大家的欢乐。\n\n\n国际大马戏（筹建中）拥有实景式马戏舞台，数千万巨资打造奢华的现代与传统的完美结合马戏剧场，能容纳3000名观众同时观看。全球高规格的舞台设施和主题节目，自然少不了庞大的文化演艺团队，拥有来自世界多个国家文化传承数百名马戏精英同台演绎。此外，还有数十种动物与马戏精英同台献技。\n\n\n散养区在建设上采用了自然生态景观建筑理念，融游乐、生态休闲、人文娱乐等旅游方式为一体，结合宿州野生动物园的真实动物和环境，实现人造景观与生态景观的完美结合。"}}, {"title": "虞姬墓", "address": "宿州市灵璧县城东", "image": "", "rank": 4, "time": 2.5, "location": {"lat": 33.547892231948374, "lng": 117.56455699798788}, "feature": {"sight_features": "", "sight_content": ""}}, {"title": "宿州博物馆", "address": "宿州市埇桥区人民路", "image": "", "rank": 5, "time": null, "location": {"lat": 33.66245841589483, "lng": 116.97309151937789}, "feature": {"sight_features": "", "sight_content": ""}}, {"title": "圣泉寺", "address": "宿州市萧县龙城镇西北1.5公里处的陡山口北坡", "image": "", "rank": 6, "time": 2.0, "location": {"lat": 34.175672487372715, "lng": 116.79578679939604}, "feature": {"sight_features": "", "sight_content": ""}}, {"title": "虞姬文化园", "address": "宿州市城东宿泗公路南侧", "image": "", "rank": 7, "time": 2, "location": {"lat": 33.65209532645213, "lng": 116.97054394561262}, "feature": {"sight_features": "", "sight_content": ""}}, {"title": "宿马生态水上乐园", "address": "宿州市埇桥区宿州大道汴河桥南公交车站对面路西往西80米", "image": "", "rank": 8, "time": 2, "location": {"lat": 33.6683484549578, "lng": 117.10794064112687}, "feature": {"sight_features": "", "sight_content": ""}}, {"title": "运河人家", "address": "宿州市泗县经济开发区北部新城东区（花园路东段通济路1号）", "image": "", "rank": 9, "time": 2, "location": {"lat": 33.48700984621381, "lng": 117.90948466465663}, "feature": {"sight_features": "", "sight_content": ""}}, {"title": "三角洲宿州欢乐世界", "address": "人民路三角洲生态公园北门", "image": "", "rank": 10, "time": 2, "location": {"lat": 33.670359756240835, "lng": 116.96694413809502}, "feature": {"sight_features": "", "sight_content": ""}}, {"title": "涉故台", "address": "安徽省宿州市埇桥区西寺坡镇涉故台村 234114", "image": "", "rank": 11, "time": 2, "location": {"lat": 33.45251378953649, "lng": 117.08490844717323}, "feature": {"sight_features": "", "sight_content": ""}}, {"title": "生态园", "address": "灵壁生态园", "image": "", "rank": 12, "time": 2, "location": {"lat": 29.831361157892797, "lng": 106.44278612439919}, "feature": {"sight_features": "", "sight_content": ""}}, {"title": "宿州城市规划展览馆", "address": "通济一路29号", "image": "", "rank": 13, "time": 1.5, "location": {"lat": 33.65095615222444, "lng": 116.96884317570583}, "feature": {"sight_features": "", "sight_content": ""}}, {"title": "凤凰山", "address": "101指挥中心侧", "image": "", "rank": 14, "time": 5.5, "location": {"lat": 27.510463670884146, "lng": 107.63963969733982}, "feature": {"sight_features": "", "sight_content": ""}}, {"title": "碧云天生态园", "address": "荣辉国际花园对面加油站西北200米", "image": "", "rank": 15, "time": 2, "location": {"lat": 33.48437676687365, "lng": 117.87636322872365}, "feature": {"sight_features": "", "sight_content": ""}}, {"title": "宿州垓下遗址", "address": "安徽省灵璧县韦集镇垓下村 234200", "image": "", "rank": 16, "time": 2.0, "location": {"lat": 33.39110285945534, "lng": 117.5919214032126}, "feature": {"sight_features": "", "sight_content": ""}}, {"title": "谢从皆奇石馆", "address": "迎宾大道与303省道交叉口东100米", "image": "", "rank": 17, "time": 2, "location": {"lat": 29.71143231268567, "lng": 107.3718965062795}, "feature": {"sight_features": "", "sight_content": ""}}, {"title": "虎磬阁奇石展示厅", "address": "安徽省灵璧县中国灵璧石大市场旁边", "image": "", "rank": 18, "time": 2, "location": {"lat": 33.53880711352286, "lng": 117.55268230463793}, "feature": {"sight_features": "", "sight_content": ""}}, {"title": "鲁卡奇儿童乐园", "address": "宿州市泗县", "image": "", "rank": 19, "time": 2, "location": {"lat": 33.48869463013435, "lng": 117.9165899917489}, "feature": {"sight_features": "", "sight_content": ""}}, {"title": "渔沟春天画廊", "address": "龙山路东200米", "image": "", "rank": 20, "time": 2, "location": {"lat": 30.518588728185765, "lng": 117.049325877821}, "feature": {"sight_features": "", "sight_content": ""}}, {"title": "泗水御都", "address": "宿州市泗县泗城镇玉兰路附近", "image": "", "rank": 21, "time": 2, "location": {"lat": 33.4796520318252, "lng": 117.91664132362065}, "feature": {"sight_features": "", "sight_content": ""}}, {"title": "曹村欢乐谷水上乐园", "address": "曹村镇曹村南头206国道春宝车行东50米", "image": "", "rank": 22, "time": 2, "location": {"lat": 33.91523308362743, "lng": 117.08779554179414}, "feature": {"sight_features": "", "sight_content": ""}}, {"title": "水尚汇城市温泉", "address": "汇源大道1号(汇源大酒店南侧)", "image": "", "rank": 23, "time": 2, "location": {"lat": 33.65768561490274, "lng": 116.98758272515286}, "feature": {"sight_features": "", "sight_content": ""}}, {"title": "开心一乐儿童乐园", "address": "开发区金海大道南方国际花园对面万佳购物广场二楼", "image": "", "rank": 24, "time": 2, "location": {"lat": 33.61829126913568, "lng": 117.00544807871151}, "feature": {"sight_features": "", "sight_content": ""}}, {"title": "跃进特约服务", "address": "303省道附近", "image": "", "rank": 25, "time": 2, "location": {"lat": 38.25466494631471, "lng": 114.66726867564682}, "feature": {"sight_features": "", "sight_content": ""}}, {"title": "野生鱼虾", "address": "东平路7号附近", "image": "", "rank": 26, "time": 2, "location": {"lat": 41.814302824027635, "lng": 123.54197034447391}, "feature": {"sight_features": "", "sight_content": ""}}, {"title": "海珠水世界", "address": "城隍庙4号楼130号", "image": "", "rank": 27, "time": 2, "location": {"lat": 40.142254220902444, "lng": 124.39192393156345}, "feature": {"sight_features": "", "sight_content": ""}}, {"title": "泰康图书馆", "address": "公仆路附近", "image": "", "rank": 28, "time": 2, "location": {"lat": 45.96102963880525, "lng": 128.04800744552787}, "feature": {"sight_features": "", "sight_content": ""}}, {"title": "花海阁水上乐园", "address": "淮河西路102号(华联大酒店隔壁)", "image": "", "rank": 29, "time": 2, "location": {"lat": 33.627890020835004, "lng": 116.97950171071737}, "feature": {"sight_features": "", "sight_content": ""}}, {"title": "宿蒙运河公园", "address": "迎宾大道与运粮河路交叉口西南100米", "image": "", "rank": 30, "time": 2, "location": {"lat": 33.617694574629255, "lng": 116.99029458641962}, "feature": {"sight_features": "", "sight_content": ""}}, {"title": "拂晓大道公园", "address": "安徽省宿州市埇桥区拂晓大道828号附近", "image": "", "rank": 31, "time": 2, "location": {"lat": 33.66921233994357, "lng": 116.95626477137868}, "feature": {"sight_features": "", "sight_content": ""}}, {"title": "飞童小可欢乐谷(华夏世贸店)", "address": "汴河西路华夏世贸3楼", "image": "", "rank": 32, "time": 2, "location": {"lat": 33.638164309492275, "lng": 116.96750546675057}, "feature": {"sight_features": "", "sight_content": ""}}, {"title": "宿州基督教会福音堂", "address": "安徽省宿州市埇桥区大河南东街66号", "image": "", "rank": 33, "time": 2.5, "location": {"lat": 33.646130650445464, "lng": 116.98348044326181}, "feature": {"sight_features": "", "sight_content": ""}}, {"title": "东环公园-自行车租赁点", "address": "环城东路41号附近", "image": "", "rank": 34, "time": 2, "location": {"lat": 31.90674898938409, "lng": 120.28393997980855}, "feature": {"sight_features": "", "sight_content": ""}}, {"title": "梦幻童年", "address": "洪河路与港口路交叉口往南义乌商贸城二楼", "image": "", "rank": 35, "time": 2, "location": {"lat": 30.052351666031917, "lng": 103.85568824585489}, "feature": {"sight_features": "", "sight_content": ""}}, {"title": "宿马管委会公园", "address": "双高路与宿州大道交叉口东南200米", "image": "", "rank": 36, "time": 2, "location": {"lat": 23.494386671660774, "lng": 116.51093198121578}, "feature": {"sight_features": "", "sight_content": ""}}, {"title": "古台寺", "address": "安徽省宿州市埇桥区曹村镇骨台寺", "image": "", "rank": 37, "time": 2, "location": {"lat": 33.97912381380497, "lng": 117.12790029876165}, "feature": {"sight_features": "", "sight_content": ""}}, {"title": "雁山寺", "address": "曹村镇马湾村雁山风景区", "image": "", "rank": 38, "time": 2, "location": {"lat": 34.03446945058409, "lng": 117.14687889179642}, "feature": {"sight_features": "", "sight_content": ""}}, {"title": "宿州学院-音乐厅", "address": "宿州市埇桥区", "image": "", "rank": 39, "time": 2.5, "location": {"lat": 33.646130650445464, "lng": 116.98348044326181}, "feature": {"sight_features": "", "sight_content": ""}}, {"title": "淮北芦岭矿影剧院", "address": "苏果超市(芦岭镇人民政府东北)附近", "image": "", "rank": 40, "time": 2, "location": {"lat": 33.530196695560825, "lng": 117.18955330377692}, "feature": {"sight_features": "", "sight_content": ""}}, {"title": "新兴儿童乐园", "address": "刘圩镇中国电信对面(清华宝贝幼儿园南80米)", "image": "", "rank": 41, "time": 1.5, "location": {"lat": 33.65325487649807, "lng": 118.09579264083256}, "feature": {"sight_features": "", "sight_content": ""}}, {"title": "灵璧奇石熊猫", "address": "城东南30公里(近皇藏峪)", "image": "", "rank": 42, "time": 2.5, "location": {"lat": 36.38811248053272, "lng": 101.8095690383313}, "feature": {"sight_features": "", "sight_content": ""}}, {"title": "灵南农家乐", "address": "韦集镇王巷村028乡道与x067交叉口加油站旁", "image": "", "rank": 43, "time": 2, "location": {"lat": 33.39858910629529, "lng": 117.55021043017967}, "feature": {"sight_features": "", "sight_content": ""}}, {"title": "安徽泗县清水湾休闲垂钓中心", "address": "070乡道附近", "image": "", "rank": 44, "time": 2, "location": {"lat": 40.976995121181375, "lng": 116.34609791950922}, "feature": {"sight_features": "", "sight_content": ""}}, {"title": "锦绣生态园", "address": "302省道北50米", "image": "", "rank": 45, "time": 2, "location": {"lat": 40.098972055250094, "lng": 117.61062300284506}, "feature": {"sight_features": "", "sight_content": ""}}, {"title": "皖北甘蔗良种繁育示范基地", "address": "016县道", "image": "", "rank": 46, "time": 2, "location": {"lat": 44.498645148434456, "lng": 126.31562919134316}, "feature": {"sight_features": "", "sight_content": ""}}, {"title": "安徽省砀山果园场", "address": "一零一省道", "image": "", "rank": 47, "time": 2, "location": {"lat": 36.94585432668124, "lng": 105.2698966594025}, "feature": {"sight_features": "", "sight_content": ""}}, {"title": "心情驿站", "address": "044县道西200米", "image": "", "rank": 48, "time": 2, "location": {"lat": 49.07585558465927, "lng": 123.03278049880403}, "feature": {"sight_features": "", "sight_content": ""}}, {"title": "亚龙湾水上世界", "address": "灵城罗河西路西段君临天下小区南门对面西50米路南", "image": "", "rank": 49, "time": null, "location": {"lat": 39.6129869967351, "lng": 118.20604028639353}, "feature": {"sight_features": "", "sight_content": ""}}, {"title": "泗州水上乐园", "address": "汴河大道东段北侧泗州学校向东200米(泗州学校向东200米)", "image": "", "rank": 50, "time": 2, "location": {"lat": 33.491320285384624, "lng": 117.93056724729755}, "feature": {"sight_features": "", "sight_content": ""}}, {"title": "临海水族", "address": "宴喜路与道北东路交叉口东200米", "image": "", "rank": 51, "time": 3.5, "location": {"lat": 34.43206103571301, "lng": 116.38461426213158}, "feature": {"sight_features": "", "sight_content": ""}}, {"title": "李庄文化站图书馆", "address": "008县道与053乡道交叉口东200米", "image": "", "rank": 52, "time": 2, "location": {"lat": 39.69410254031455, "lng": 116.05340483180412}, "feature": {"sight_features": "", "sight_content": ""}}, {"title": "藏宝斋画廊", "address": "黄口镇红旗路83邮政储蓄银行东隔壁", "image": "", "rank": 53, "time": 2, "location": {"lat": 38.929170312583565, "lng": 121.5551856226308}, "feature": {"sight_features": "", "sight_content": ""}}, {"title": "陈沟跃进庄园", "address": "龙城镇陈沟村丁山", "image": "", "rank": 54, "time": 2, "location": {"lat": 34.197837896833256, "lng": 116.9288036114641}, "feature": {"sight_features": "", "sight_content": ""}}, {"title": "晏波农资服务专业合作社", "address": "S201中国石化西北侧", "image": "", "rank": 55, "time": 2, "location": {"lat": 39.941222085709676, "lng": 116.62417126470052}, "feature": {"sight_features": "", "sight_content": ""}}, {"title": "蒋楼垂钓中心", "address": "宴喜路016乡附近", "image": "", "rank": 56, "time": 2, "location": {"lat": 34.43206103571301, "lng": 116.38461426213158}, "feature": {"sight_features": "", "sight_content": ""}}, {"title": "迷城密室逃脱", "address": "东方不夜城步行街二楼", "image": "", "rank": 57, "time": 2, "location": {"lat": 35.10111701188582, "lng": 118.33120293940468}, "feature": {"sight_features": "", "sight_content": ""}}, {"title": "花甲寺古遗址", "address": "安徽省萧县花甲寺村南 235280", "image": "", "rank": 58, "time": 2, "location": {"lat": 34.123595784645694, "lng": 117.06468939663601}, "feature": {"sight_features": "", "sight_content": ""}}, {"title": "垓下之战遗址", "address": "安徽省宿州市灵璧县", "image": "", "rank": 59, "time": 2, "location": {"lat": 33.547892231948374, "lng": 117.56455699798788}, "feature": {"sight_features": "", "sight_content": ""}}, {"title": "大风车儿童乐园", "address": "泗城镇春港花苑北门", "image": "", "rank": 60, "time": 2, "location": {"lat": 33.4868572258289, "lng": 117.9075915262181}, "feature": {"sight_features": "", "sight_content": ""}}]}