{"cityName": "塔城市", "days": "", "cityImage": "", "spots": [{"title": "北山", "address": "市北面(近中国和哈萨克斯坦共和国边界)", "image": "", "rank": 1, "time": 1.0, "location": {"lat": 39.92976931809883, "lng": 116.36095935201878}, "feature": {"sight_features": "", "sight_content": ""}}, {"title": "新疆农业科学院小麦育种家塔城基...", "address": "文化南路西50米", "image": "", "rank": 2, "time": 2, "location": {"lat": 38.291929673134405, "lng": 109.73608390017824}, "feature": {"sight_features": "", "sight_content": ""}}, {"title": "塔城体育中心赛马场", "address": "二工镇075乡道塔城体育中心东北100米", "image": "", "rank": 3, "time": 2, "location": {"lat": 46.738648893881226, "lng": 82.9949681953872}, "feature": {"sight_features": "", "sight_content": ""}}, {"title": "塔额一级", "address": "新疆维吾尔自治区塔城地区塔城市", "image": "", "rank": 4, "time": 2, "location": {"lat": 46.750948254373434, "lng": 82.9872355184064}, "feature": {"sight_features": "", "sight_content": ""}}, {"title": "库鲁克塔格山", "address": "新疆维吾尔自治区塔城市兴地村 834300", "image": "", "rank": 5, "time": 2, "location": {"lat": 46.75434690418796, "lng": 82.98553242099001}, "feature": {"sight_features": "", "sight_content": ""}}, {"title": "森林公园", "address": "景荣山庄北侧", "image": "", "rank": 6, "time": 2.5, "location": {"lat": 46.770583278606686, "lng": 82.96579637944401}, "feature": {"sight_features": "", "sight_content": ""}}, {"title": "康乐渡假村", "address": "二工镇头工村650号", "image": "", "rank": 7, "time": 2, "location": {"lat": 46.740663684938404, "lng": 82.98574504990422}, "feature": {"sight_features": "", "sight_content": ""}}, {"title": "保江度假村", "address": "市环卫局西侧", "image": "", "rank": 8, "time": 2, "location": {"lat": 22.795767878863412, "lng": 114.47045401169763}, "feature": {"sight_features": "", "sight_content": ""}}, {"title": "天然氧吧度假村", "address": "杜别克街道垂钓公园后门", "image": "", "rank": 9, "time": 2, "location": {"lat": 46.76814151757598, "lng": 82.97580561995167}, "feature": {"sight_features": "", "sight_content": ""}}, {"title": "龙泉山庄", "address": "团结路7号", "image": "", "rank": 10, "time": 2, "location": {"lat": 39.129990958814496, "lng": 116.02150030339634}, "feature": {"sight_features": "", "sight_content": ""}}, {"title": "文化广场", "address": "中心偏北(近军分区)", "image": "", "rank": 11, "time": 1.5, "location": {"lat": 42.2721446947315, "lng": 118.96811605900285}, "feature": {"sight_features": "", "sight_content": ""}}, {"title": "俄罗斯墓地", "address": "垂钓公园南侧", "image": "", "rank": 12, "time": 2, "location": {"lat": 46.76814151757598, "lng": 82.97580561995167}, "feature": {"sight_features": "", "sight_content": ""}}, {"title": "塔城市城建档案馆", "address": "杜别克街1号", "image": "", "rank": 13, "time": 2, "location": {"lat": 46.753978369126024, "lng": 82.9844020108532}, "feature": {"sight_features": "", "sight_content": ""}}, {"title": "塔城地区图书馆", "address": "文化路", "image": "", "rank": 14, "time": null, "location": {"lat": 39.74005789896059, "lng": 116.15120920962735}, "feature": {"sight_features": "", "sight_content": ""}}, {"title": "塔城地区博物馆", "address": "文化路12号", "image": "", "rank": 15, "time": null, "location": {"lat": 46.75674924234758, "lng": 82.98528062595555}, "feature": {"sight_features": "", "sight_content": ""}}, {"title": "塔城市图书馆", "address": "团结路18号", "image": "", "rank": 16, "time": 2, "location": {"lat": 37.98480908586139, "lng": 114.47653142539116}, "feature": {"sight_features": "", "sight_content": ""}}, {"title": "首届名犬展", "address": "旅游宾馆(培训中心对面)", "image": "", "rank": 17, "time": 2, "location": {"lat": 39.94031926647769, "lng": 116.44208904969445}, "feature": {"sight_features": "", "sight_content": ""}}, {"title": "塔城地区国土资源勘测规划院", "address": "拜格托别街2", "image": "", "rank": 18, "time": 2, "location": {"lat": 46.760101894403405, "lng": 82.9775027251313}, "feature": {"sight_features": "", "sight_content": ""}}, {"title": "海贝儿乐园", "address": "221省道南50米", "image": "", "rank": 19, "time": 2, "location": {"lat": 40.486353509318825, "lng": 116.04420851897628}, "feature": {"sight_features": "", "sight_content": ""}}, {"title": "欢乐儿童城堡", "address": "新华路与塔尔巴哈台路交汇处西南", "image": "", "rank": 20, "time": 2, "location": {"lat": 46.75136456944874, "lng": 82.99554018935459}, "feature": {"sight_features": "", "sight_content": ""}}, {"title": "经典画廊", "address": "迎宾路南50米", "image": "", "rank": 21, "time": 2, "location": {"lat": 35.41706248096013, "lng": 119.47547541781637}, "feature": {"sight_features": "", "sight_content": ""}}, {"title": "瓦洛佳饮食采摘园", "address": "S221三工村东南侧", "image": "", "rank": 22, "time": 2, "location": {"lat": 38.90006670562927, "lng": 100.47512408511774}, "feature": {"sight_features": "", "sight_content": ""}}]}