{"cityName": "塔城", "days": "", "cityImage": "", "spots": [{"title": "巴尔鲁克旅游风景区", "address": "塔城地区裕民县南侧", "image": "", "rank": 1, "time": 4.5, "location": {"lat": 46.20745354692848, "lng": 82.98943870250018}, "feature": {"sight_features": "", "sight_content": ""}}, {"title": "鹿角湾牧场", "address": "新疆维吾尔自治区塔城地区沙湾县博尔通古牧场", "image": "", "rank": 2, "time": 1.0, "location": {"lat": 44.04637145206862, "lng": 85.37034766811207}, "feature": {"sight_features": "", "sight_content": ""}}, {"title": "巴克图口岸", "address": "塔城地区塔城市巴克图口岸", "image": "", "rank": 3, "time": 1.0, "location": {"lat": 46.689059162286284, "lng": 82.80545266415953}, "feature": {"sight_features": "", "sight_content": ""}}, {"title": "红楼", "address": "塔城地区塔城市第二幼儿园东侧", "image": "", "rank": 4, "time": 1.5, "location": {"lat": 46.75693615758026, "lng": 82.9850901623705}, "feature": {"sight_features": "", "sight_content": ""}}, {"title": "沙湾温泉旅游区", "address": "塔城地区沙湾县", "image": "", "rank": 5, "time": 2, "location": {"lat": 44.33194946174084, "lng": 85.62614468603468}, "feature": {"sight_features": "", "sight_content": ""}}, {"title": "安集海大峡谷", "address": "新疆维吾尔自治区塔城地区X289", "image": "", "rank": 6, "time": 1.5, "location": {"lat": 46.750948254373434, "lng": 82.9872355184064}, "feature": {"sight_features": "", "sight_content": ""}}, {"title": "海乐湾水上乐园", "address": "新疆维吾尔自治区塔城地区沙湾县乌鲁木齐西路", "image": "", "rank": 7, "time": 2.0, "location": {"lat": 44.33389292995544, "lng": 85.61536029428899}, "feature": {"sight_features": "", "sight_content": "新疆海乐湾水上乐园位于塔城地区沙湾县乌鲁木齐西路，园区内有多种游玩设施，如大喇叭，螺旋组合滑梯，彩虹高速滑梯，海啸海浪池，漂流河，游泳池，水寨等，属于室外水上乐园。"}}, {"title": "玛依塔斯", "address": "额敏县喇嘛昭乡境内", "image": "", "rank": 8, "time": 1.0, "location": {"lat": 46.25567885469192, "lng": 84.35727594100723}, "feature": {"sight_features": "", "sight_content": ""}}, {"title": "绿坪", "address": "塔城地区布克赛尔蒙古自治县和什托洛盖镇境内", "image": "", "rank": 9, "time": 1.0, "location": {"lat": 46.52418574418477, "lng": 86.02356481615568}, "feature": {"sight_features": "", "sight_content": ""}}, {"title": "九莲泉", "address": "乌苏县八十四户乡，位于一片低洼沼泽地上。", "image": "", "rank": 10, "time": 1.0, "location": {"lat": 44.50627095756051, "lng": 84.71766752056548}, "feature": {"sight_features": "", "sight_content": ""}}, {"title": "铁厂沟石刻", "address": "塔城地区托里铁厂沟镇南侧的山崖下", "image": "", "rank": 11, "time": 1.0, "location": {"lat": 46.172090383749286, "lng": 84.43804712378659}, "feature": {"sight_features": "", "sight_content": ""}}, {"title": "石刻突厥石人像", "address": "塔城地区托里县加依尔山上", "image": "", "rank": 12, "time": 1.0, "location": {"lat": 45.94274280504971, "lng": 83.6129094383153}, "feature": {"sight_features": "", "sight_content": ""}}, {"title": "垂钓公园", "address": "塔城地区塔城市三水巷", "image": "", "rank": 13, "time": null, "location": {"lat": 46.76730315312698, "lng": 82.98088787104902}, "feature": {"sight_features": "", "sight_content": ""}}, {"title": "松树沟", "address": "", "image": "", "rank": 14, "time": 1.0, "location": {"lat": 40.396812038958956, "lng": 116.24465470369229}, "feature": {"sight_features": "", "sight_content": ""}}, {"title": "佛山公园待甫僧景区", "address": "塔城地区乌苏市南边稍西方向距市中心50公里左右", "image": "", "rank": 16, "time": 2.5, "location": {"lat": 44.42404803445163, "lng": 84.72008814696387}, "feature": {"sight_features": "", "sight_content": ""}}, {"title": "花果山金家桃园", "address": "天果段", "image": "", "rank": 17, "time": 2, "location": {"lat": 29.620662195732876, "lng": 86.2003293574422}, "feature": {"sight_features": "", "sight_content": ""}}, {"title": "待甫僧珠峰大本营度假山庄", "address": "佛山国家森林公园", "image": "", "rank": 18, "time": 2, "location": {"lat": 23.02775875078891, "lng": 113.12851219549718}, "feature": {"sight_features": "", "sight_content": ""}}, {"title": "北山", "address": "市北面(近中国和哈萨克斯坦共和国边界)", "image": "", "rank": 19, "time": 1.0, "location": {"lat": 39.92976931809883, "lng": 116.36095935201878}, "feature": {"sight_features": "", "sight_content": ""}}, {"title": "托里生态园", "address": "036乡道", "image": "", "rank": 20, "time": 7.5, "location": {"lat": 48.39353581856098, "lng": 129.90220447944986}, "feature": {"sight_features": "", "sight_content": ""}}, {"title": "塔斯特风景区", "address": "新疆维吾尔自治区塔城裕民县", "image": "", "rank": 21, "time": 2, "location": {"lat": 46.20745354692848, "lng": 82.98943870250018}, "feature": {"sight_features": "", "sight_content": ""}}, {"title": "也迷里滑雪场", "address": "霍吉尔特蒙古民族乡野果林景区", "image": "", "rank": 22, "time": 2, "location": {"lat": 46.371196137066164, "lng": 83.85358156410854}, "feature": {"sight_features": "", "sight_content": ""}}, {"title": "大自然滑雪场", "address": "塔城地区沙湾县石河子143团石南公路向南9公里处", "image": "", "rank": 23, "time": 2, "location": {"lat": 44.29538699449788, "lng": 85.86678146054018}, "feature": {"sight_features": "", "sight_content": ""}}, {"title": "胡杨林水上乐园", "address": "伊犁哈萨克自治州塔城地区乌苏市新区黄河路与深圳路交汇处（九莲泉公园东侧斜对面）", "image": "", "rank": 24, "time": 1.5, "location": {"lat": 44.42346924362109, "lng": 84.74024757687458}, "feature": {"sight_features": "特色1 全球首个胡杨文化主题，融合国内外先进游乐设施的创新性文化体验园。", "sight_content": "胡杨林水上乐园，是全球首个胡杨文化主题乐园，一处以现代科技为实施手段，以乌苏历史文化和胡杨精神传承与创新为主题内涵，以时尚游乐体验为表现形式，完美融合国内外先进游乐设施的创新性文化体验园。\n\n\n胡杨林乐园，以胡杨林文化为主题，胡杨，生而千年不死，死而千年不倒，倒而千年不朽。它们来自一亿三千五百万年前，给沙漠带来绚丽的色彩，是抵御边疆沙漠的最后的卫士。胡杨林水上乐园，以新疆最具代表的自然、文化、民族元素进行主题包装，雪山冰川、沙漠胡杨、草原毡房、火山温泉，构成水上乐园现代时尚元素与地方文化的完美融合。是乌苏食、游、购、娱一站式体验地。是金三角最好的水上主题乐园集群。是北疆地区旅游目的地。是丝绸之路经济带文化旅游新名片。\n\n\n胡杨林水上乐园含入口服务区、儿童欢乐区、合家欢区、激情尖叫区。胡杨林水上乐园根据水乐园的游乐特性进行分区。其中，儿童戏水区，主要由儿童池、沙地等适合儿童游乐的项目构成；合家欢区由适合大众阖家欢乐的造浪池、漂流河等舒缓型水上游乐项目构成；激情尖叫区由超级大喇叭、高速组合滑梯、冲天回旋、巨兽碗、五彩滑梯等相对比较刺激的水上游乐项目构成。在胡杨林乐园入口处，打造“胡杨王生命之树”地表景观。综合服务区主要提供景区购票、游客服务、游客集散、入园导览、停车等功能。男女更衣淋浴区：设计了300个淋浴间、60个洗手间厕位。衣物储存：设置了2600个储物柜。大型水寨：是大型互动水上城堡。高达12米。多项水上游乐设施。一个大翻桶。不经意间的倾斜，这个酷暑，就来一场酣畅淋漓的“落汤鸡”吧。火山激流：300米长，游客能躺在特别设计的浮圈上沿河激流，放松自己。此外，合中还会提供一个独特的200米长的急漂区域。会是全家享受休闲时光的最佳选择。\n\n\n戏水池：供亲子玩乐的水池，池内安置可爱有趣的戏水设备，如喷水章鱼，小游艇、彩色小滑道等。大喇叭：4人一起游玩，平台高14.6-20.8米，坐在四人的四叶草型浮圈里。从6层楼高的平台出发，滑进一个巨大的喇叭当中，在快速滑行中尖叫，会使你的声音传遍整个园区。五彩滑道：由5条各自独立又完全相同的滑道组成，5个游客可各自选一条滑道，从20米高的塔端进入，开始疾驰滑行。拿上滑毯，享受滑行的乐趣。冲天回旋：可2人一起游玩。游客乘坐圆形皮筏浮垫从19米的高空出发，高速穿越螺旋滑槽后，急速下降近10米俯冲至最低点。在惊魂未定时，又垂直冲上一个大滑坡顶端，挑战地心引力的极限，再次俯冲而下安稳回到水池中。巨兽碗：游玩人数4人/次，乘坐皮筏，从平台口滑下，通过管状滑道之后，会高速冲入巨碗。就好像在巨兽嘴里旋转一样，最后被吸入碗中间的洞口，享受难忘的滑行体验。在胡杨林水世界，无论老中青，总有一款适合您，躲避夏日酷暑，迎来清凉盛夏！"}}, {"title": "阿拉山温泉疗养院", "address": "塔城地区乌苏市096乡道乌苏佛山森林公园内", "image": "", "rank": 25, "time": 2, "location": {"lat": 44.42404803445163, "lng": 84.72008814696387}, "feature": {"sight_features": "", "sight_content": "阿拉山温泉始建于1936年，由苏联人在独山子探油时无意中发现温泉口，并进行初步建设。阿拉山温泉地处待甫僧（佛山）森林公园内，主要包含项目有休度假及温泉疗养等，基础设施包含有客房、餐饮、文体中心，拥有高、中、低三个开放式温泉池及各类室内温泉包厢7个。\n客房标间39间，豪华标间5间，套房6间，可容纳100人入住；餐厅大厅可容纳160人同时用餐，拥有包厢6间，每个包厢设有KTV点歌系统，多功能会议室1个，可容纳60人的会议。"}}, {"title": "碧月谭", "address": "204省道", "image": "", "rank": 26, "time": 2, "location": {"lat": 38.05803661623474, "lng": 114.77437992974008}, "feature": {"sight_features": "", "sight_content": ""}}, {"title": "大牧歌庄园", "address": "巴音沟牧场", "image": "", "rank": 27, "time": 2, "location": {"lat": 44.01486169733359, "lng": 84.95996758192274}, "feature": {"sight_features": "", "sight_content": ""}}, {"title": "屯垦人家", "address": "桃源旅游区", "image": "", "rank": 28, "time": 1.0, "location": {"lat": 44.24796694432949, "lng": 85.84293745154802}, "feature": {"sight_features": "", "sight_content": ""}}, {"title": "冰峰滑雪场", "address": "217国道独山子市区南行16公里", "image": "", "rank": 29, "time": 2, "location": {"lat": 44.26409558667384, "lng": 84.8799083751606}, "feature": {"sight_features": "", "sight_content": ""}}, {"title": "新安镇文化中心图书馆", "address": "新安路与虹桥路交叉口东100米", "image": "", "rank": 30, "time": 2, "location": {"lat": 34.24169773718116, "lng": 109.00759582268871}, "feature": {"sight_features": "", "sight_content": ""}}, {"title": "阿吾勒农家乐", "address": "振兴路72附近", "image": "", "rank": 31, "time": 2, "location": {"lat": 36.567038883083065, "lng": 113.684910964864}, "feature": {"sight_features": "", "sight_content": ""}}, {"title": "新疆农业科学院小麦育种家塔城基...", "address": "文化南路西50米", "image": "", "rank": 32, "time": 2, "location": {"lat": 38.291929673134405, "lng": 109.73608390017824}, "feature": {"sight_features": "", "sight_content": ""}}, {"title": "斯贝斯", "address": "喀普其克南路4号", "image": "", "rank": 33, "time": 2, "location": {"lat": 45.944344976940215, "lng": 83.61071543301738}, "feature": {"sight_features": "", "sight_content": ""}}, {"title": "时尚代码", "address": "和布克赛尔蒙古自治县和布克东街南50米", "image": "", "rank": 34, "time": 2, "location": {"lat": 46.80011271379844, "lng": 85.74106954088973}, "feature": {"sight_features": "", "sight_content": ""}}, {"title": "阿不都尔英葡萄园", "address": "新市区街道阿不都", "image": "", "rank": 35, "time": 2, "location": {"lat": 44.431004541221235, "lng": 84.6942153033893}, "feature": {"sight_features": "", "sight_content": ""}}, {"title": "塔城体育中心赛马场", "address": "二工镇075乡道塔城体育中心东北100米", "image": "", "rank": 36, "time": 2, "location": {"lat": 46.738648893881226, "lng": 82.9949681953872}, "feature": {"sight_features": "", "sight_content": ""}}, {"title": "钱雨桃园", "address": "904县道", "image": "", "rank": 37, "time": 2, "location": {"lat": 31.402836733646584, "lng": 119.0033758078972}, "feature": {"sight_features": "", "sight_content": ""}}, {"title": "九莲泉公园", "address": "新疆维吾尔自治区塔城地区乌苏市黄河路", "image": "", "rank": 38, "time": 2, "location": {"lat": 44.42382369435688, "lng": 84.71735550070423}, "feature": {"sight_features": "", "sight_content": ""}}, {"title": "天泉度假村", "address": "那仁王山庄南侧", "image": "", "rank": 39, "time": 2, "location": {"lat": 44.12332211543734, "lng": 84.83131292937385}, "feature": {"sight_features": "", "sight_content": ""}}, {"title": "塔额一级", "address": "新疆维吾尔自治区塔城地区塔城市", "image": "", "rank": 40, "time": 2, "location": {"lat": 46.750948254373434, "lng": 82.9872355184064}, "feature": {"sight_features": "", "sight_content": ""}}, {"title": "大周农家乐", "address": "904县道附近", "image": "", "rank": 41, "time": 2, "location": {"lat": 31.402836733646584, "lng": 119.0033758078972}, "feature": {"sight_features": "", "sight_content": ""}}, {"title": "准噶尔古城遗址", "address": "新疆维吾尔自治区和布克赛尔蒙古自治县县城东南5公里处 834000", "image": "", "rank": 42, "time": 2, "location": {"lat": 46.79868511263733, "lng": 85.73500888354788}, "feature": {"sight_features": "", "sight_content": ""}}, {"title": "热气泉", "address": "新疆维吾尔自治区和布克赛尔蒙古自治县和什托落盖镇 834406", "image": "", "rank": 43, "time": null, "location": {"lat": 46.79868511263733, "lng": 85.73500888354788}, "feature": {"sight_features": "", "sight_content": ""}}, {"title": "三道河子林场森林公园", "address": "新疆维吾尔自治区沙湾县城西 832100", "image": "", "rank": 44, "time": 2, "location": {"lat": 44.33194946174084, "lng": 85.62614468603468}, "feature": {"sight_features": "", "sight_content": ""}}, {"title": "巴尔达库尔岩画群", "address": "新疆维吾尔自治区裕民县城西南18公里 834800", "image": "", "rank": 45, "time": 2, "location": {"lat": 46.20745354692848, "lng": 82.98943870250018}, "feature": {"sight_features": "", "sight_content": ""}}, {"title": "库鲁克塔格山", "address": "新疆维吾尔自治区塔城市兴地村 834300", "image": "", "rank": 46, "time": 2, "location": {"lat": 46.75434690418796, "lng": 82.98553242099001}, "feature": {"sight_features": "", "sight_content": ""}}, {"title": "乌苏泥火山景区", "address": "塔城地区乌苏市白杨沟镇", "image": "", "rank": 47, "time": 2, "location": {"lat": 44.17981851771652, "lng": 84.367859425817}, "feature": {"sight_features": "", "sight_content": ""}}, {"title": "鲁卡奇儿童乐园", "address": "新疆维吾尔自治区塔城地区乌苏市文德路", "image": "", "rank": 48, "time": 2, "location": {"lat": 44.42639413706852, "lng": 84.72140634876585}, "feature": {"sight_features": "", "sight_content": ""}}, {"title": "四棵树清真大寺", "address": "四布段附近", "image": "", "rank": 49, "time": 2, "location": {"lat": 23.100931760317003, "lng": 113.27528273950196}, "feature": {"sight_features": "", "sight_content": ""}}, {"title": "考拉大冒险儿童乐园", "address": "文林路文林公馆26号", "image": "", "rank": 50, "time": 2, "location": {"lat": 25.056522838172828, "lng": 102.70413016547133}, "feature": {"sight_features": "", "sight_content": ""}}, {"title": "体育公园", "address": "新疆维吾尔自治区塔城地区乌苏市乌苏东立交桥", "image": "", "rank": 51, "time": 1.0, "location": {"lat": 44.407467343279585, "lng": 84.75600793580288}, "feature": {"sight_features": "", "sight_content": ""}}, {"title": "友好啤酒广场", "address": "新疆维吾尔自治区塔城地区乌苏市文景路", "image": "", "rank": 52, "time": 2, "location": {"lat": 44.43500133384482, "lng": 84.72387553630249}, "feature": {"sight_features": "", "sight_content": ""}}, {"title": "路济亚", "address": "鑫锦建材6-121", "image": "", "rank": 53, "time": 2, "location": {"lat": 46.53542356641625, "lng": 83.6064927027303}, "feature": {"sight_features": "", "sight_content": ""}}, {"title": "欢乐堡儿童乐园", "address": "人民路与滨河东路交叉口南50米", "image": "", "rank": 54, "time": 2, "location": {"lat": 36.79678729918012, "lng": 119.97923360728112}, "feature": {"sight_features": "", "sight_content": ""}}, {"title": "奥乐奥儿童乐园", "address": "新疆维吾尔自治区塔城地区沙湾县人民路3-50", "image": "", "rank": 55, "time": 2, "location": {"lat": 44.33113416929236, "lng": 85.63355175394776}, "feature": {"sight_features": "", "sight_content": ""}}, {"title": "紫芸迪士尼儿童城堡", "address": "新疆维吾尔自治区塔城地区额敏县807县道", "image": "", "rank": 56, "time": 2, "location": {"lat": 46.54711507876811, "lng": 83.6419185978103}, "feature": {"sight_features": "", "sight_content": ""}}, {"title": "森林公园", "address": "景荣山庄北侧", "image": "", "rank": 57, "time": 2.5, "location": {"lat": 46.770583278606686, "lng": 82.96579637944401}, "feature": {"sight_features": "", "sight_content": ""}}, {"title": "石河子市143团万福寺", "address": "新疆维吾尔自治区塔城地区沙湾县S223", "image": "", "rank": 58, "time": 1.0, "location": {"lat": 44.33194946174084, "lng": 85.62614468603468}, "feature": {"sight_features": "", "sight_content": ""}}, {"title": "沙湾和平广场", "address": "老沙湾路与219省道交叉口西南100米", "image": "", "rank": 59, "time": 1.5, "location": {"lat": 31.909199228140412, "lng": 121.30903625505988}, "feature": {"sight_features": "", "sight_content": ""}}, {"title": "吐尔加辽草原", "address": "新疆维吾尔自治区塔城地区裕民县兵团农九师一六一团", "image": "", "rank": 60, "time": 2, "location": {"lat": 46.10581832110369, "lng": 82.5969804721158}, "feature": {"sight_features": "", "sight_content": ""}}]}