{"cityName": "台安", "days": 2, "cityImage": "", "spots": [{"title": "少帅陵", "address": "辽宁省鞍山市台安县西平森林公园内", "image": "", "rank": 1, "time": 2, "location": {"lat": 41.51383506442116, "lng": 122.36069976665007}, "feature": {"sight_features": "", "sight_content": ""}}, {"title": "台安少帅陵旅游风景区", "address": "鞍山市台安县西平林场", "image": "", "rank": 2, "time": 2, "location": {"lat": 41.45008883001021, "lng": 122.40888098544073}, "feature": {"sight_features": "", "sight_content": ""}}, {"title": "金水桃源农庄", "address": "张荒地辽河大桥旁金水桃源农庄(辽河大桥)", "image": "", "rank": 3, "time": 2, "location": {"lat": 41.29381592695463, "lng": 122.54259525897454}, "feature": {"sight_features": "", "sight_content": ""}}, {"title": "台安县档案馆", "address": "恩良东路10", "image": "", "rank": 4, "time": 2, "location": {"lat": 41.389948491753884, "lng": 122.44391789078892}, "feature": {"sight_features": "", "sight_content": ""}}, {"title": "台西黑鱼村精品花卉基地", "address": "102省道西50米", "image": "", "rank": 5, "time": 2, "location": {"lat": 36.224418920426714, "lng": 113.13067685674268}, "feature": {"sight_features": "", "sight_content": ""}}, {"title": "台安县物之源生态园", "address": "010县道010县", "image": "", "rank": 6, "time": 2, "location": {"lat": 40.00491705225616, "lng": 115.95978208409595}, "feature": {"sight_features": "", "sight_content": ""}}, {"title": "台安县玉英花卉培植园", "address": "辽宁省鞍山市台安县城郊乡雅化村三组", "image": "", "rank": 7, "time": 2, "location": {"lat": 41.415540827820394, "lng": 122.47870387335732}, "feature": {"sight_features": "", "sight_content": ""}}, {"title": "小龙湾度假村", "address": "辽宁省鞍山市台安县", "image": "", "rank": 8, "time": 2, "location": {"lat": 41.41859037109879, "lng": 122.44255004098889}, "feature": {"sight_features": "", "sight_content": ""}}, {"title": "物之源生态园", "address": "达牛镇大田村三组", "image": "", "rank": 9, "time": 2, "location": {"lat": 39.291582517051715, "lng": 115.77531042673844}, "feature": {"sight_features": "", "sight_content": ""}}, {"title": "高老庄温泉度假村", "address": "鞍山市台安县", "image": "", "rank": 10, "time": 2, "location": {"lat": 41.41859037109879, "lng": 122.44255004098889}, "feature": {"sight_features": "", "sight_content": ""}}, {"title": "哆来咪儿童乐园", "address": "辽宁省鞍山市台安县其他水岸茗都北门西走48米", "image": "", "rank": 11, "time": 2, "location": {"lat": 41.3817125077225, "lng": 122.43903360430734}, "feature": {"sight_features": "", "sight_content": ""}}, {"title": "圣爱基督教堂", "address": "辽宁省鞍山市台安县大庆西路", "image": "", "rank": 12, "time": 2, "location": {"lat": 41.39821568928567, "lng": 122.43684193828682}, "feature": {"sight_features": "", "sight_content": ""}}, {"title": "汉卿广场", "address": "胜利路10号", "image": "", "rank": 13, "time": 2, "location": {"lat": 40.839499471658186, "lng": 111.68863189578077}, "feature": {"sight_features": "", "sight_content": ""}}, {"title": "天主堂", "address": "359乡道附近", "image": "", "rank": 14, "time": 0.4, "location": {"lat": 40.1392874912441, "lng": 116.93544831713494}, "feature": {"sight_features": "", "sight_content": ""}}, {"title": "张学良旧居陈列馆", "address": "桓洞镇鄂家村张家窝堡屯", "image": "", "rank": 15, "time": 2, "location": {"lat": 41.49389642724696, "lng": 122.38886563645757}, "feature": {"sight_features": "", "sight_content": ""}}, {"title": "龙湖温泉度假村", "address": "鞍山市台安县桓洞镇人民政府西50米", "image": "", "rank": 16, "time": 2, "location": {"lat": 41.51293229230016, "lng": 122.47700068611039}, "feature": {"sight_features": "特色1 国内稀有的弱碱性温泉水", "sight_content": ""}}, {"title": "辽河博物馆农业馆", "address": "307省道", "image": "", "rank": 17, "time": 2, "location": {"lat": 40.264498296993764, "lng": 116.57268632168496}, "feature": {"sight_features": "", "sight_content": ""}}, {"title": "张学良出生地纪念馆", "address": "桓洞镇鄂家村张家窝堡屯", "image": "", "rank": 18, "time": 2, "location": {"lat": 41.49389642724696, "lng": 122.38886563645757}, "feature": {"sight_features": "", "sight_content": ""}}, {"title": "台安图书馆", "address": "繁荣北街附近", "image": "", "rank": 19, "time": 1.5, "location": {"lat": 27.837484062614617, "lng": 120.77376732116984}, "feature": {"sight_features": "", "sight_content": ""}}, {"title": "西平森林公园", "address": "辽宁省台安县西平乡", "image": "", "rank": 20, "time": 4.0, "location": {"lat": 41.50650707016179, "lng": 122.35098528784813}, "feature": {"sight_features": "", "sight_content": ""}}, {"title": "鞍山奥体中心", "address": "辽宁省鞍山市台安县光明街", "image": "", "rank": 21, "time": 3.0, "location": {"lat": 41.38938061397046, "lng": 122.433033300789}, "feature": {"sight_features": "", "sight_content": ""}}]}