{"cityName": "太白", "days": 2, "cityImage": "", "spots": [{"title": "青峰峡森林公园", "address": "宝鸡市太白县桃川镇杜家庄村青峰峡森林公园", "image": "", "rank": 1, "time": 3.0, "location": {"lat": 34.04807949875775, "lng": 107.45207163305983}, "feature": {"sight_features": "特色1 九潭十八瀑七十二景", "sight_content": "太白山青峰峡森林公园先后创建为国家森林公园，国家AAA级旅游景区，国家级水利风景区。\n公园总面积4360公顷，园内海拔介于1340—3400米之间，森林覆盖率达95%以上，年平均气温7.6℃，空气清新，负离子含量旅游旺季为3万个/cm3。公园景观有“九潭十八瀑七十二景”，分为四大景区：即临芳墅景区（著名景点有千年古杉、睡佛山）、雾瀑涯景区（著名景点有青凤飞瀑、仙桃山、骆驼峰等）、神女峰景区（著名景点有神女峰、将军探路、石龟背蛋、雄鹰展等）、鳌山景区顶部为秦岭主峰鳌山和四十里跑马梁，可见第四纪冰川地貌，瀑布、石海、石河广布，景象壮观独特（著名景点有高山草甸、万亩杜鹃、浩瀚石海、第四纪冰川遗迹等）。人文传说历史悠久，有汉皇帝刘秀之“四十里跑马梁”，也有唐王李世民之妹为爱情献身的“舍身崖”，更有神女峰、睡佛山、娘娘庙之优美传说，点缀在自然景观之间，辉映成趣。\n园内动植物资源丰富、种类繁多、起源古老，森林植被垂直带谱十分明显，现有野生植物2800余种，野生动物1700余种。珍稀野生动物有：大熊猫、金丝猴、羚牛、大鲵、细鳞鲑等栖息在这里。"}}, {"title": "鳌山滑雪场", "address": "陕西省宝鸡市太白县塘口鳌山滑雪度假区内", "image": "", "rank": 2, "time": 2, "location": {"lat": 33.94693007080391, "lng": 107.43073387775574}, "feature": {"sight_features": "", "sight_content": ""}}, {"title": "药王谷景区", "address": "宝鸡市太白县鹦鸽镇柴胡山村", "image": "", "rank": 3, "time": 2, "location": {"lat": 34.09641899408956, "lng": 107.67974709808912}, "feature": {"sight_features": "", "sight_content": "宝鸡太白县药王谷风景区位于太白山脚下的鹦鸽镇柴胡山村。相传就是药王孙思邈在太白山的隐居研修之地，也是历史上登太白山古道之一。"}}, {"title": "鳌山景区", "address": "陕西省宝鸡市太白县", "image": "", "rank": 4, "time": 2, "location": {"lat": 34.0642484411527, "lng": 107.32552913248024}, "feature": {"sight_features": "", "sight_content": ""}}, {"title": "咸阳太白山", "address": "陕西省太白县境内 721600", "image": "", "rank": 5, "time": 2.5, "location": {"lat": 34.0642484411527, "lng": 107.32552913248024}, "feature": {"sight_features": "", "sight_content": ""}}, {"title": "冻山", "address": "太白县上林房林站", "image": "", "rank": 6, "time": 2, "location": {"lat": 34.0642484411527, "lng": 107.32552913248024}, "feature": {"sight_features": "", "sight_content": ""}}, {"title": "太白县图书馆", "address": "东大街2号", "image": "", "rank": 7, "time": 2, "location": {"lat": 22.61729942596652, "lng": 114.14733751642652}, "feature": {"sight_features": "", "sight_content": ""}}, {"title": "观音山休闲山庄", "address": "眉太线后湾里", "image": "", "rank": 8, "time": 2, "location": {"lat": 34.06248222493849, "lng": 107.55959855107864}, "feature": {"sight_features": "", "sight_content": ""}}, {"title": "雪岭生态园", "address": "陕西省宝鸡市太白县军民路", "image": "", "rank": 9, "time": null, "location": {"lat": 34.063318201308135, "lng": 107.33635021587384}, "feature": {"sight_features": "", "sight_content": ""}}, {"title": "雪域蔬菜游乐园", "address": "新建路与滨河东路交叉口西北100米", "image": "", "rank": 10, "time": 2, "location": {"lat": 34.066599551091144, "lng": 107.32326535588321}, "feature": {"sight_features": "", "sight_content": ""}}, {"title": "宁虢宫", "address": "陕西省宝鸡市太白县北大街37号", "image": "", "rank": 11, "time": 2, "location": {"lat": 34.06992108467344, "lng": 107.32345719082149}, "feature": {"sight_features": "", "sight_content": ""}}, {"title": "衙岭三国文化主题公园", "address": "陕西省太白县黄柏塬镇五里坡", "image": "", "rank": 12, "time": 2, "location": {"lat": 33.814204718559104, "lng": 107.52849023126811}, "feature": {"sight_features": "", "sight_content": ""}}, {"title": "太白生态园", "address": "城南", "image": "", "rank": 13, "time": 2, "location": {"lat": 33.47875545930031, "lng": 119.16196444307023}, "feature": {"sight_features": "", "sight_content": ""}}, {"title": "街心广场", "address": "东大街东大街3号附近", "image": "", "rank": 14, "time": 2, "location": {"lat": 22.618300056679914, "lng": 114.14727652148241}, "feature": {"sight_features": "", "sight_content": ""}}, {"title": "世外梅园", "address": "梅湾村三组", "image": "", "rank": 15, "time": 2, "location": {"lat": 31.24965915029855, "lng": 120.5768031993908}, "feature": {"sight_features": "", "sight_content": ""}}, {"title": "贵子沟", "address": "宝鸡市-太白县-二一零省道", "image": "", "rank": 16, "time": 2, "location": {"lat": 34.135945557322486, "lng": 107.3055835162589}, "feature": {"sight_features": "", "sight_content": ""}}, {"title": "太白雪岭生态园鳌山避暑山庄", "address": "宝鸡市-太白县", "image": "", "rank": 17, "time": 2, "location": {"lat": 34.0642484411527, "lng": 107.32552913248024}, "feature": {"sight_features": "", "sight_content": ""}}, {"title": "大箭沟景区", "address": "陕西省宝鸡市太白县黄柏塬风景区", "image": "", "rank": 18, "time": 2, "location": {"lat": 34.0642484411527, "lng": 107.32552913248024}, "feature": {"sight_features": "", "sight_content": ""}}, {"title": "斗母宫", "address": "陕西省宝鸡市太白山景区内", "image": "", "rank": 19, "time": 1.5, "location": {"lat": 34.36891564286998, "lng": 107.2445753670404}, "feature": {"sight_features": "", "sight_content": ""}}, {"title": "上板寺", "address": "太白山国家森林公园", "image": "", "rank": 20, "time": 2, "location": {"lat": 34.04887321334318, "lng": 107.81739406151846}, "feature": {"sight_features": "", "sight_content": ""}}]}