{"cityName": "太谷", "days": 2, "cityImage": "", "spots": [{"title": "孔祥熙宅院", "address": "晋中市太谷县向观巷1号", "image": "", "rank": 1, "time": 2.0, "location": {"lat": 37.42739557731329, "lng": 112.55738411926058}, "feature": {"sight_features": "", "sight_content": ""}}, {"title": "曹家大院", "address": "晋中市太谷县北汪乡北汪村", "image": "", "rank": 2, "time": 1.0, "location": {"lat": 37.40133648867964, "lng": 112.51092543272598}, "feature": {"sight_features": "", "sight_content": ""}}, {"title": "梅苑南山滑雪场", "address": "晋中市太谷县郭堡水库旁梅苑山庄度假村", "image": "", "rank": 3, "time": 2, "location": {"lat": 37.43713834452639, "lng": 112.85507426672098}, "feature": {"sight_features": "", "sight_content": ""}}, {"title": "光化寺", "address": "晋中市太谷县城西南白城镇", "image": "", "rank": 4, "time": 1.0, "location": {"lat": 37.42739557731329, "lng": 112.55738411926058}, "feature": {"sight_features": "", "sight_content": ""}}, {"title": "无边寺白塔", "address": "晋中太谷县南寺街10号", "image": "", "rank": 5, "time": 1.5, "location": {"lat": 37.42883967496913, "lng": 112.56397390882067}, "feature": {"sight_features": "", "sight_content": ""}}, {"title": "梅苑南山", "address": "晋中市太谷范村镇梅苑山庄", "image": "", "rank": 6, "time": 2, "location": {"lat": 37.43713834452639, "lng": 112.85507426672098}, "feature": {"sight_features": "", "sight_content": ""}}, {"title": "巨鑫农业园", "address": "晋中市太谷县北洸村巨鑫农业园区", "image": "", "rank": 7, "time": 2, "location": {"lat": 37.39378853637843, "lng": 112.51898156769207}, "feature": {"sight_features": "", "sight_content": ""}}, {"title": "南山富海温泉生态园", "address": "晋中市太谷县南山南路南咸阳村", "image": "", "rank": 8, "time": 2, "location": {"lat": 37.42306523962348, "lng": 112.55613533716095}, "feature": {"sight_features": "", "sight_content": ""}}, {"title": "太谷县晋商博物馆", "address": "上官巷2号", "image": "", "rank": 9, "time": 2, "location": {"lat": 37.87136114534824, "lng": 112.58348109268213}, "feature": {"sight_features": "", "sight_content": ""}}, {"title": "净信寺", "address": "太谷县阳邑乡阳邑村", "image": "", "rank": 10, "time": 2, "location": {"lat": 37.44066064369503, "lng": 112.67252063445783}, "feature": {"sight_features": "", "sight_content": ""}}, {"title": "无边寺", "address": "山西省太谷县县城西南隅", "image": "", "rank": 11, "time": 2.5, "location": {"lat": 37.42739557731329, "lng": 112.55738411926058}, "feature": {"sight_features": "", "sight_content": ""}}, {"title": "凤凰山", "address": "山西省晋中市太谷县侯成东山底村", "image": "", "rank": 12, "time": 5.5, "location": {"lat": 37.37551899848317, "lng": 112.58730835742585}, "feature": {"sight_features": "", "sight_content": ""}}, {"title": "晋中太谷县白塔", "address": "山西省太谷县普慈寺", "image": "", "rank": 13, "time": 6.0, "location": {"lat": 37.42739557731329, "lng": 112.55738411926058}, "feature": {"sight_features": "", "sight_content": ""}}, {"title": "棋盘山峡谷漂流", "address": "晋中市太谷县梅苑山庄东南三公里", "image": "", "rank": 14, "time": 0.5, "location": {"lat": 37.43713834452639, "lng": 112.8820234320203}, "feature": {"sight_features": "", "sight_content": ""}}, {"title": "阳邑老年乐园", "address": "319省道", "image": "", "rank": 15, "time": 2, "location": {"lat": 37.11504268647356, "lng": 113.10986967570672}, "feature": {"sight_features": "", "sight_content": ""}}, {"title": "古典家具博物馆", "address": "北洸乡东后街太谷县晋商彩灯文化公司斜对面", "image": "", "rank": 16, "time": 0.75, "location": {"lat": 37.39699586841573, "lng": 112.52059273791238}, "feature": {"sight_features": "", "sight_content": ""}}, {"title": "悠贝亲子图书馆", "address": "康源南路新宝宝亲子园旁", "image": "", "rank": 17, "time": 2, "location": {"lat": 37.43297923721849, "lng": 112.55551429634154}, "feature": {"sight_features": "", "sight_content": ""}}, {"title": "康宁垂钓", "address": "102省道附近", "image": "", "rank": 18, "time": 2, "location": {"lat": 36.224418920426714, "lng": 113.13112600949766}, "feature": {"sight_features": "", "sight_content": ""}}, {"title": "太谷县晋谷香米合作社", "address": "108国道与319省道交叉口东南150米", "image": "", "rank": 19, "time": null, "location": {"lat": 37.43961381845429, "lng": 112.58998344655657}, "feature": {"sight_features": "", "sight_content": ""}}, {"title": "东关图书室", "address": "明星镇北顺承街东71号", "image": "", "rank": 20, "time": 2, "location": {"lat": 37.44274701912757, "lng": 112.56069533535344}, "feature": {"sight_features": "", "sight_content": ""}}, {"title": "星期六儿童主题乐园", "address": "南关正街鑫港湾购物广场北区负一层", "image": "", "rank": 21, "time": 2, "location": {"lat": 37.425361290530915, "lng": 112.56600951761477}, "feature": {"sight_features": "", "sight_content": ""}}, {"title": "美食休闲广场", "address": "山西省晋中市太谷县南关正街13号", "image": "", "rank": 22, "time": 2, "location": {"lat": 37.42459234144069, "lng": 112.56526567214402}, "feature": {"sight_features": "", "sight_content": ""}}, {"title": "太古棋盘山峡谷漂流", "address": "范村镇郭堡水库旁的棋盘山峡谷", "image": "", "rank": 23, "time": 0.5, "location": {"lat": 37.44115514539423, "lng": 112.8555295054958}, "feature": {"sight_features": "", "sight_content": ""}}, {"title": "广顺号旧址", "address": "北大街与西大街交叉口西50米", "image": "", "rank": 24, "time": 2, "location": {"lat": 39.894427170250175, "lng": 119.24010057266783}, "feature": {"sight_features": "", "sight_content": ""}}, {"title": "广昇远旧址", "address": "西大街40号附近", "image": "", "rank": 25, "time": 2, "location": {"lat": 39.91356786944232, "lng": 116.67342187487877}, "feature": {"sight_features": "", "sight_content": ""}}, {"title": "广昇誉旧址", "address": "西大街37号", "image": "", "rank": 26, "time": 2, "location": {"lat": 38.044808162207225, "lng": 114.52805656398507}, "feature": {"sight_features": "", "sight_content": ""}}, {"title": "太谷鼓楼", "address": "晋中市太谷县西大街1号", "image": "", "rank": 27, "time": 2, "location": {"lat": 37.43294492270593, "lng": 112.56517673989853}, "feature": {"sight_features": "", "sight_content": ""}}, {"title": "舞与伦比工作室芷曦儿童乐园", "address": "山西省晋中市太谷县东大街5号", "image": "", "rank": 28, "time": 2, "location": {"lat": 37.432864903206806, "lng": 112.57163268193764}, "feature": {"sight_features": "", "sight_content": ""}}, {"title": "乐宝堡儿童乐园", "address": "山西省晋中市太谷县南山南路安泰购物中心(太谷县政府西)", "image": "", "rank": 29, "time": null, "location": {"lat": 37.42763034872566, "lng": 112.55554635417029}, "feature": {"sight_features": "", "sight_content": ""}}, {"title": "宝峰寺", "address": "晋中市太谷县", "image": "", "rank": 30, "time": 2, "location": {"lat": 37.42739557731329, "lng": 112.55738411926058}, "feature": {"sight_features": "", "sight_content": ""}}, {"title": "山西总商行旧址", "address": "南寺街10号", "image": "", "rank": 31, "time": 2, "location": {"lat": 40.09276454348732, "lng": 113.30745826076495}, "feature": {"sight_features": "", "sight_content": ""}}, {"title": "蓝精灵儿童乐园", "address": "山西省晋中市太谷县康源南路", "image": "", "rank": 32, "time": 2, "location": {"lat": 37.43082016196818, "lng": 112.550321570375}, "feature": {"sight_features": "", "sight_content": ""}}, {"title": "金谷广场", "address": "108国道63附近", "image": "", "rank": 33, "time": 2, "location": {"lat": 36.13286988614712, "lng": 111.56403702575028}, "feature": {"sight_features": "", "sight_content": ""}}, {"title": "广恒庆旧址", "address": "西大街51号", "image": "", "rank": 34, "time": 2, "location": {"lat": 37.93857798351948, "lng": 115.21738284837721}, "feature": {"sight_features": "", "sight_content": ""}}, {"title": "蔚成德旧址", "address": "西大街12号", "image": "", "rank": 35, "time": 2, "location": {"lat": 39.91425251531056, "lng": 116.67338385409805}, "feature": {"sight_features": "", "sight_content": ""}}, {"title": "德胜园旧址", "address": "山西省晋中市太谷县西大街40", "image": "", "rank": 36, "time": 2, "location": {"lat": 37.43322698251385, "lng": 112.56298699984502}, "feature": {"sight_features": "", "sight_content": ""}}, {"title": "广盛庆旧址", "address": "书院巷书院巷南口附近", "image": "", "rank": 37, "time": 2, "location": {"lat": 37.43301125930674, "lng": 112.56786806320642}, "feature": {"sight_features": "", "sight_content": ""}}, {"title": "会通银号旧址", "address": "西大街35号附近", "image": "", "rank": 38, "time": 2, "location": {"lat": 37.938456233836355, "lng": 115.21843329001004}, "feature": {"sight_features": "", "sight_content": ""}}, {"title": "协成乾旧址", "address": "西大街附近", "image": "", "rank": 39, "time": 2, "location": {"lat": 39.91357131364959, "lng": 116.6700940616933}, "feature": {"sight_features": "", "sight_content": ""}}, {"title": "孟家民俗博物馆", "address": "东海南路辅路", "image": "", "rank": 40, "time": 2, "location": {"lat": 37.43576725052886, "lng": 112.57236311121561}, "feature": {"sight_features": "", "sight_content": ""}}, {"title": "白城村草莓采摘", "address": "白城村草莓采摘点", "image": "", "rank": 41, "time": 2, "location": {"lat": 40.194180748499456, "lng": 116.52076336669933}, "feature": {"sight_features": "", "sight_content": ""}}, {"title": "悠乐游乐场", "address": "南关正街", "image": "", "rank": 42, "time": 2, "location": {"lat": 37.42445157539996, "lng": 112.5654004009027}, "feature": {"sight_features": "", "sight_content": ""}}, {"title": "中医药博物馆", "address": "龟龄山庄1号", "image": "", "rank": 43, "time": 1.0, "location": {"lat": 37.36442594327941, "lng": 112.57667097032262}, "feature": {"sight_features": "", "sight_content": ""}}, {"title": "孔祥熙宅园货币金融博物馆", "address": "官道街与东海南路辅路交叉口", "image": "", "rank": 44, "time": 2, "location": {"lat": 37.436831603023904, "lng": 112.57517398191908}, "feature": {"sight_features": "", "sight_content": ""}}, {"title": "小捣旦农鲜", "address": "太谷县任村乡任村", "image": "", "rank": 45, "time": 2, "location": {"lat": 37.53432018735326, "lng": 112.72682884928443}, "feature": {"sight_features": "", "sight_content": ""}}, {"title": "农科院樱桃采摘园", "address": "农科院果树研究所红果庄园", "image": "", "rank": 46, "time": 2, "location": {"lat": 38.12697943667981, "lng": 114.53295852732246}, "feature": {"sight_features": "", "sight_content": ""}}, {"title": "弘雅浮雕画廊", "address": "东大街38号附近", "image": "", "rank": 47, "time": 2, "location": {"lat": 22.61729942596652, "lng": 114.14733751642652}, "feature": {"sight_features": "", "sight_content": ""}}, {"title": "采摘草莓", "address": "108国道太谷县代农业示范园", "image": "", "rank": 48, "time": 2, "location": {"lat": 37.39844565768756, "lng": 112.50191599978321}, "feature": {"sight_features": "", "sight_content": ""}}, {"title": "山西农业大学大学生创业园百果采...", "address": "108国道北汪乡段", "image": "", "rank": 49, "time": 2, "location": {"lat": 36.13357010619177, "lng": 111.55186297208911}, "feature": {"sight_features": "", "sight_content": ""}}, {"title": "多肉植物园", "address": "北洸乡境内", "image": "", "rank": 50, "time": 2, "location": {"lat": 37.39976261979629, "lng": 112.52120809874606}, "feature": {"sight_features": "", "sight_content": ""}}, {"title": "真圣寺", "address": "山西省太谷县范村镇蚍蜉村", "image": "", "rank": 51, "time": 2, "location": {"lat": 37.41954627598352, "lng": 112.83634052032752}, "feature": {"sight_features": "", "sight_content": ""}}, {"title": "安禅寺", "address": "山西省太谷县西道街安禅寺巷", "image": "", "rank": 52, "time": 2, "location": {"lat": 37.43073042107102, "lng": 112.56114110239496}, "feature": {"sight_features": "", "sight_content": ""}}, {"title": "乐优宝贝", "address": "晋中市-太谷县-康源南路与箕城西街交叉口北150米", "image": "", "rank": 53, "time": 2, "location": {"lat": 37.42911275213151, "lng": 112.55021029906808}, "feature": {"sight_features": "", "sight_content": ""}}, {"title": "山西农业大学", "address": "晋中市太谷县南城区管委会山西农业大学", "image": "", "rank": 54, "time": 2, "location": {"lat": 37.43074571656069, "lng": 112.58905541252405}, "feature": {"sight_features": "", "sight_content": ""}}]}