{"cityName": "太和", "days": 2, "cityImage": "", "spots": [{"title": "太和环球嘉年华游乐园", "address": "安徽太和县沙颍河三桥南往西500米", "image": "", "rank": 1, "time": 2, "location": {"lat": 33.20837943746748, "lng": 115.56859348296929}, "feature": {"sight_features": "特色1 大型游乐园", "sight_content": "太和环球嘉年华游乐园是首家落地安徽的世界级品牌游乐园，是皖西北地区最大的主题乐园之一。太和环球嘉年华游乐园坐落于安徽省阜阳市太和县沙颍河三桥南往西500米，临近沙颍河国家湿地公园，是与经济强县地位相匹配的文化娱乐中心。乐园一期项目总投资4.5亿元人民币，占地约151亩，它以时尚、欢乐、动感、梦幻的人文魅力，传播着世界最流行的狂欢气息，已逐渐成为皖西北地区体验旅游的重要标志！\n游乐园的外围是太和盛世商业街，这条街鳞次栉比，有意式餐厅、也有中式茶馆；有西式快餐，也有东方美食；有精品超市，也有购物驿站。它应有尽有，精品店的商品琳琅满目，美食店的菜品唇齿留香，它会是购物的圣地，也将是吃货的天堂。\n太和环球嘉年华的太和之眼、急速飞车、激流勇进、水寨等项目与太和的自然景色、人文历史、风俗民情完美地结合一起，是以自然生态环境为特色的精品旅游项目。乐园中心设置标志性建筑——精灵城堡，将远古的精灵神话缔造出永不落幕的狂欢盛典。身临其境，用声光电的现代高科技手段，打造“特色突出、规模宏大、技术先进、效果震撼”的世界级大型文化娱乐体验项目。在颖水泽国，感受欢乐海洋的魅力。天旋地转的身体感受，光怪陆离的声光影像，体验前所未有的太空惊险。伴着欢乐动感的音乐，身体随着圆盘旋转，感受着翻江倒海带来的魔力。在未来世界，让我们乘坐安徽最高的超级摩天轮，到达108米的高空，换个角度看美丽太和；穿梭在蓝天白云之间的急速飞车，急速翻转漂移的疯狂快感，将在这里得到共鸣，再次考验您的胆量与勇气。\n在这里，最刺激、最惊险、最新奇的游乐设施正等着你来挑战。让我们抛开生活和工作的烦恼，释放热情，肆意尖叫，一起感受太和第一园的狂欢与热辣，享受淋漓尽致的快感吧！"}}, {"title": "湿地水城浴场", "address": "阜阳市太和县镜湖西路悦澜湾S2商铺西侧", "image": "", "rank": 2, "time": 2, "location": {"lat": 33.16431189802797, "lng": 115.61983588080224}, "feature": {"sight_features": "特色1 造型气派典雅，环境优雅，内部格调温馨舒适低调奢华 特色2 打造一座新时代人文主义的精神家园", "sight_content": "湿地水城坐落在安徽太和县国家沙颍河湿地公园附近（镜湖西路与民安路交叉口）是集沐浴、餐饮、咖啡厅、棋牌、客房、保健按摩、会务于一体的高端休闲会所，营业面积近8000平方米,融入湿地文化的超前设计，造型气派典雅，环境优雅，内部格调温馨舒适低调奢华。恪守以人为尊，精心为您打造一座新时代人文主义的精神家园。"}}, {"title": "老杨家葡萄采摘园", "address": "老大桥南五百米路西(太和颍河大桥)", "image": "", "rank": 3, "time": 2, "location": {"lat": 41.11510930713197, "lng": 121.11045324939532}, "feature": {"sight_features": "", "sight_content": ""}}, {"title": "沙颍河国家湿地公园", "address": "阜阳市太和县椿樱大道与文明路交叉口西侧", "image": "", "rank": 4, "time": 2, "location": {"lat": 33.17008908010386, "lng": 115.63161010317242}, "feature": {"sight_features": "", "sight_content": ""}}, {"title": "老泰和农家小院", "address": "安徽省阜阳市太和县城关镇文明东路岸香怡景商务宾馆西", "image": "", "rank": 5, "time": 2, "location": {"lat": 33.16447585596383, "lng": 115.64332207836063}, "feature": {"sight_features": "", "sight_content": ""}}, {"title": "太和县东范甘薯专业合作社", "address": "赵庙镇黄门村东范1组", "image": "", "rank": 6, "time": 2, "location": {"lat": 33.4374951854073, "lng": 115.53858809368084}, "feature": {"sight_features": "", "sight_content": ""}}, {"title": "太和有机良庄", "address": "双浮镇刘小庙(105国道向西两公里)", "image": "", "rank": 7, "time": 2, "location": {"lat": 33.36490924434567, "lng": 115.59624368319369}, "feature": {"sight_features": "", "sight_content": ""}}, {"title": "米罗美术馆", "address": "阜阳市太和县人民北路38号附近", "image": "", "rank": 8, "time": null, "location": {"lat": 33.186844681813135, "lng": 115.63178018019332}, "feature": {"sight_features": "", "sight_content": ""}}, {"title": "太和温泉度假村", "address": "太和镇经济开发区", "image": "", "rank": 9, "time": 2, "location": {"lat": 26.655443026404118, "lng": 118.1922561315343}, "feature": {"sight_features": "", "sight_content": ""}}, {"title": "瑞景果园", "address": "双浮镇南105国道附近", "image": "", "rank": 10, "time": 2, "location": {"lat": 33.36490924434567, "lng": 115.59624368319369}, "feature": {"sight_features": "", "sight_content": ""}}, {"title": "太和县秀娟雪花黄梨原生态种植园", "address": "胡总乡许庄路口1号", "image": "", "rank": 11, "time": 2, "location": {"lat": 33.116800484722226, "lng": 115.54705850019897}, "feature": {"sight_features": "", "sight_content": ""}}, {"title": "椿樱公园", "address": "安徽省阜阳市太和县", "image": "", "rank": 12, "time": 2, "location": {"lat": 33.16595985009563, "lng": 115.62861546970402}, "feature": {"sight_features": "", "sight_content": ""}}, {"title": "开心玩过儿童乐园(望和新城店)", "address": "望和新城购物广场3楼", "image": "", "rank": 13, "time": 2, "location": {"lat": 39.02148006155678, "lng": 117.67265620848099}, "feature": {"sight_features": "", "sight_content": ""}}, {"title": "三堂影剧院", "address": "三堂肉联厂办公楼附近", "image": "", "rank": 14, "time": 2, "location": {"lat": 32.10469431924176, "lng": 118.80910331762907}, "feature": {"sight_features": "", "sight_content": ""}}, {"title": "哇咔咔儿童成长乐园", "address": "城关镇国泰路团结西路交叉口望和新世界B栋2楼", "image": "", "rank": 15, "time": 2, "location": {"lat": 33.17831445216849, "lng": 115.6202284403101}, "feature": {"sight_features": "", "sight_content": ""}}, {"title": "傅祠堂", "address": "阜阳市太和县", "image": "", "rank": 16, "time": 2, "location": {"lat": 33.16595985009563, "lng": 115.62861546970402}, "feature": {"sight_features": "", "sight_content": ""}}, {"title": "倪宽公园", "address": "105国道西150米", "image": "", "rank": 17, "time": 2, "location": {"lat": 23.06304361021549, "lng": 113.30785790236897}, "feature": {"sight_features": "", "sight_content": ""}}, {"title": "椿樱度假村(太和店)", "address": "镜湖西路椿樱大道樱桃园", "image": "", "rank": 18, "time": 2, "location": {"lat": 24.851924427394362, "lng": 102.83184164624005}, "feature": {"sight_features": "", "sight_content": ""}}, {"title": "小勇士儿童拓展乐园", "address": "城关镇团结西路与国泰中路交叉路口望和新世界B座1楼", "image": "", "rank": 19, "time": null, "location": {"lat": 33.17849465660668, "lng": 115.62019102319069}, "feature": {"sight_features": "", "sight_content": ""}}, {"title": "儿童游乐场", "address": "颍州区长征路大润发", "image": "", "rank": 20, "time": 2, "location": {"lat": 32.90840980842303, "lng": 115.80880966481637}, "feature": {"sight_features": "", "sight_content": ""}}, {"title": "细阳广场", "address": "安徽省阜阳市太和县建设东路", "image": "", "rank": 21, "time": 2, "location": {"lat": 33.17995044486843, "lng": 115.63397786581868}, "feature": {"sight_features": "", "sight_content": ""}}, {"title": "太和悅康美景公园(建设中)", "address": "太和大道与幸福路交叉口", "image": "", "rank": 22, "time": 2, "location": {"lat": 30.882200462093387, "lng": 105.39090649634612}, "feature": {"sight_features": "", "sight_content": ""}}, {"title": "太和画廊", "address": "先锋路", "image": "", "rank": 23, "time": 2, "location": {"lat": 36.762279771031594, "lng": 114.23999392587868}, "feature": {"sight_features": "", "sight_content": ""}}, {"title": "革命烈士纪念馆", "address": "阜阳市太和县镜湖西路与105国道交叉口西100米", "image": "", "rank": 24, "time": 2, "location": {"lat": 33.16431189802797, "lng": 115.61983588080224}, "feature": {"sight_features": "", "sight_content": ""}}, {"title": "黄山画廊", "address": "沙河中路", "image": "", "rank": 25, "time": 2.0, "location": {"lat": 43.95858608673636, "lng": 87.62322403447641}, "feature": {"sight_features": "", "sight_content": ""}}, {"title": "民族书画院", "address": "文明路165号", "image": "", "rank": 26, "time": 2, "location": {"lat": 32.24346232356817, "lng": 120.24137152206464}, "feature": {"sight_features": "", "sight_content": ""}}, {"title": "太和县阿龙哥休闲农庄", "address": "吴营村048县道南侧", "image": "", "rank": 27, "time": 2, "location": {"lat": 46.932226821495014, "lng": 122.8326251854109}, "feature": {"sight_features": "", "sight_content": ""}}, {"title": "大新镇良种猪繁育基地", "address": "016县道附近", "image": "", "rank": 28, "time": 2, "location": {"lat": 44.498645148434456, "lng": 126.31562919134316}, "feature": {"sight_features": "", "sight_content": ""}}, {"title": "鲜果冰饮", "address": "人民中路第50号附近", "image": "", "rank": 29, "time": 2, "location": {"lat": 38.19152065072637, "lng": 114.27859481252412}, "feature": {"sight_features": "", "sight_content": ""}}, {"title": "大千画廊", "address": "城关镇富裕城9号楼", "image": "", "rank": 30, "time": 2, "location": {"lat": 33.168442108120665, "lng": 115.62854297644935}, "feature": {"sight_features": "", "sight_content": ""}}, {"title": "来源画廊", "address": "镜湖路22号b104", "image": "", "rank": 31, "time": 2, "location": {"lat": 31.847395179629363, "lng": 119.95130843843502}, "feature": {"sight_features": "", "sight_content": ""}}, {"title": "太和艺术空间", "address": "华源古玩城N106号", "image": "", "rank": 32, "time": 2, "location": {"lat": 24.954595439605885, "lng": 118.59459146065205}, "feature": {"sight_features": "", "sight_content": ""}}, {"title": "翠儿家庭农场休闲垂钓中心", "address": "004县道附近", "image": "", "rank": 33, "time": 2, "location": {"lat": 40.57432358393056, "lng": 116.56266536439895}, "feature": {"sight_features": "", "sight_content": ""}}, {"title": "太和县马集乡明忠家庭农场", "address": "马集乡西张集史庄", "image": "", "rank": 34, "time": 2, "location": {"lat": 33.3650906051075, "lng": 115.6710793871442}, "feature": {"sight_features": "", "sight_content": ""}}, {"title": "耿楼大闸千亩水果采摘园", "address": "沙颍河国家湿地公园南侧", "image": "", "rank": 35, "time": 2, "location": {"lat": 33.209985849837416, "lng": 115.5698638684181}, "feature": {"sight_features": "", "sight_content": ""}}, {"title": "宜和兴城步行街", "address": "安徽省太和县人民中路", "image": "", "rank": 36, "time": 2, "location": {"lat": 33.16979988094586, "lng": 115.62902269315101}, "feature": {"sight_features": "", "sight_content": ""}}, {"title": "大岳寨村", "address": "阜阳市-太和县-零零三县道", "image": "", "rank": 37, "time": 2, "location": {"lat": 33.16595985009563, "lng": 115.62861546970402}, "feature": {"sight_features": "", "sight_content": ""}}, {"title": "大成殿", "address": "人民中路43号", "image": "", "rank": 38, "time": 1.0, "location": {"lat": 30.91820875403555, "lng": 121.46634306037188}, "feature": {"sight_features": "", "sight_content": ""}}, {"title": "太和县清真南寺", "address": "阜阳市太和县城关镇人民中路", "image": "", "rank": 39, "time": 2, "location": {"lat": 33.16979988094586, "lng": 115.62902269315101}, "feature": {"sight_features": "", "sight_content": ""}}]}