{"cityName": "太湖", "days": "", "cityImage": "", "spots": [{"title": "五千年文博园", "address": "安庆市太湖县经济开发区（县高速路口）", "image": "", "rank": 1, "time": 12.0, "location": {"lat": 30.460113290447975, "lng": 116.31547630162399}, "feature": {"sight_features": "特色1 绝美的根雕艺术馆 特色2 一座气势恢弘的文化艺术博览园，东方文明的艺术殿堂 特色3 探文博精髓,尽享中华上下五千年文化神韵", "sight_content": "古老悠久的五千年华夏文明滋养着每位中华儿女，华夏文明是什么？她又在哪里？我们都渴望从浓厚的华夏文明中汲取营养。也许你没有时间和精力踏遍祖国三山五岳去寻找华夏文明的足迹，如今却可以在五千年文博园中一览华夏文明的精髓，领略艺术文化的登峰造极。\n中国最大的中华文化主题公园之一——五千年文博园总规划占地3000多亩。严格按照国家5A级景区标准打造的中华民族的精神家园。一期“艺术千年”景区、二期“诗画千年”景区、三期“记忆千年”景区。现已被国家文化部命名为“国家文化产业示范基地”，被国家旅游局评定为“国家AAAA级旅游景区”，2012年评选为“中国十大文化旅游景区”，并荣登“长三角100个不得不去的地方”榜单。\n现对外开放一期“艺术千年”景区，由五千年文博园第一馆——五千年根雕艺术馆，老子天下第一，孔子列国行，秦始皇兵马俑，中国第一烙画馆，五千年文化长廊，中华孝道园，中华百工坊，国际诗林，四大名著文化园，华夏爱情文化园等百座人文景点及艺术展馆组成，并每天赠送2场在黄梅戏艺术街古戏台上演的黄梅戏经典折子戏。 五千年文博园将中国民间文化产业深度演绎，并升级为旅游产业的崭新创造，是中国文化创意产业成功运作的典范。"}}, {"title": "花亭湖风景区", "address": "安庆市太湖县城北四公里处", "image": "", "rank": 2, "time": 4.5, "location": {"lat": 30.474119976289654, "lng": 116.26105690442273}, "feature": {"sight_features": "", "sight_content": "位于距太湖县城4公里的大别山南麓，安徽省太湖县境内，与小孤山、天柱山构成了安庆山水旅游热线。是一个集观光、度假、疗养、娱乐、休闲于一体的综合风景区。"}}, {"title": "五千年文博园“十里画廊”", "address": "安庆市太湖县经济开发区（县高速路口）", "image": "", "rank": 3, "time": 2, "location": {"lat": 30.460113290447975, "lng": 116.31547630162399}, "feature": {"sight_features": "特色1 五千年根雕文化园 探寻根雕的艺术之美 特色2 2、“清明上河图”文化园 张择端笔下的汴梁繁华 特色3 3、一座气势恢弘的文化艺术博览园，东方文明的艺术殿堂", "sight_content": "二期“十里画廊”景区占地600亩，于2011年10月开工建设，计划于2014年10月建成并对外开放。“十里画廊”是将华夏千年的往事融入到总长两千米、举世无双的四幅立体图画之中，分 别由“三百六十行”文化园、“清明上河图”文化园、“烟雨江南”文化园和“创意石界”文化园等景点组成。\n“三百六十行”文化园，是以两万平方米古建和1800多件青铜人物雕塑相结合，其规模为世界第一。依据各个行业的特点，分别将它们合理地与亭、台、楼、阁、廊、古树、奇石、水系等 元素融为一体，艺术而真实地再现三百六十行的历史原貌，生动地再现了康乾盛世时期的三百六十个行业。这里不仅有全世界最大规模的人物铜雕群，更有传承至今的五十多个行业的永久性 现场表演。“清明上河图”文化园，建于25度斜坡的山体之上，按实际比例，以近大远小的透视艺术完整再现清明上河图中汴河两岸车水马龙的盛景，以获得3项国家发明专利的斜坡建筑艺术主体再 现张择端笔下的汴梁繁华，近看是城，远看是画，晚上再看的时候，她是一个每天上演“走进清明上河图”的实景演出大舞台，这是一个由无数创意串起来的一件原创大作。\n“烟雨江南”文化园，以具有1700年历史的观音河为基础而打造，将我国江南著名水乡的十二大名景全部重建于此，小桥流水、乘船摆渡、渔歌互答，完美地再现中国水乡的悠远韵味。水 乡两岸以雕塑的形式再现中国历史典故，沿河房屋将打造成艺术村落，以水乡的形式来演绎水乡的文化与故事，打造一座立体的露天水乡艺术馆。“创意石界”文化园，由一园四馆组成，分别是创意奇石园、远古沧桑馆、自然天成馆、大象无形馆和天人合一馆，该园区的艺术价值和视觉震撼将超过根雕馆群 ，是将无言的奇石世界赋予其生命与情感，是对奇石文化最深层次的解读。在“十里画廊”景区，还将增设民间艺术现场表演与现场体验等与游客的互动环节，其娱乐性、趣味性及可观赏性将大大超过一期。"}}, {"title": "火狼训练营真人CS", "address": "安庆市太湖县五千年文博园旁", "image": "", "rank": 4, "time": 2, "location": {"lat": 30.446806838627978, "lng": 116.3383276379327}, "feature": {"sight_features": "", "sight_content": ""}}, {"title": "禅源太湖旅游区", "address": "安庆市太湖县新城人民东路283号", "image": "", "rank": 5, "time": 2, "location": {"lat": 30.449334551579373, "lng": 116.3340290951521}, "feature": {"sight_features": "特色1 五千年文博园——严格按照国家5A景区标准打造的一座气势恢弘的文化艺术博览园。 特色2 花亭湖风景名胜区——境内山青水秀，古迹济盛，人文荟萃，物产富饶。 特色3 西风禅寺——建于唐代，有三重，青砖小瓦，砖木结构，坐东向西，为佛教禅宗五祖的道场。", "sight_content": "禅源太湖旅游区位于安徽省太湖县，旅游区面积257.8平方公里，由花亭湖、五千年文博园两个旅游片区和一条禅源文化旅游大道构成。“一湖一园一文化”是禅源太湖旅游区的核心内涵。\n禅源太湖旅游区地处皖南国际旅游文化示范区的核心和前沿地带，合肥、武汉、南昌等省会城市2小时交通圈内。旅游区面积254.91平方公里，形成了以“一湖一园一文化”为核心，“禅宗发祥地，赵朴初故里”为主题，花亭湖为生态母体，文博园为窗口，二祖慧可、赵朴初等高僧大德、马兰等名家名流为灵魂的禅宗旅游目的地。\n花亭湖风景名胜区为国家4A旅游区，分为花亭湖、西风洞、佛图寺、狮子山、龙山五大景区和一个汤湾温泉疗养度假区。境内山青水秀，古迹济盛，人文荟萃，物产富饶。景区自然景观清新绚丽，山水相依。近百余平方公里的湖面碧波荡漾，气势磅礴。湖中岛屿星罗棋布，大小高低相映成趣。四周群山起伏，奇峰怪石，鬼斧神工，飞瀑流泉，美不胜收。赵朴初曾挥毫写下“神驰远景无疆，仅尽情领受，千重山色，万顷波光”的赞美诗句。\n五千年文博园被国家文化部命名为“国家文化产业示范基地” 、中国民间文化产业示范基地，由“一梦千年”和“十里画廊”二大板块组成。“一梦千年”建有五千年文化长廊、五千年根雕文化园、文化古栈道、中华孝道园等百座人文景点。置身园中，水墨丹青，华夏五千年的文化经典在这里彰显与传承，一步一景，让游客有穿越时空，一梦千年之感。“十里画廊”分别由“三百六十行”文化园、“清明上河图”文化园、“烟雨江南”文化园和“创意石界”文化园等景点组成。园内艺术而真实地再现三百六十行的历史原貌，生动地再现了康乾盛世时期的三百六十个行业。在25度斜坡的山体上，按实际比例，完整再现张择端笔下清明上河图中汴河两岸车水马龙的盛景。"}}, {"title": "太湖县天华鑫旺新家庭农场", "address": "天华镇朱河村", "image": "", "rank": 6, "time": 2, "location": {"lat": 30.441325737022538, "lng": 116.09937471797174}, "feature": {"sight_features": "", "sight_content": ""}}, {"title": "玖玖花海", "address": "安庆市太湖县城西乡幸福村", "image": "", "rank": 7, "time": 1.5, "location": {"lat": 30.403393137534945, "lng": 116.21052160956854}, "feature": {"sight_features": "", "sight_content": "玖玖花海位于太湖县城西乡幸福村幸福畈，是一个以花海为主题、以农业科技示范为特色的生态休闲观光旅游项目，集月季文化体验、高端药材、花卉苗木、水果、餐饮、娱乐等于一体美丽景区。\n该项目由浙江金华成龙苗木绿化工程有限公司投资兴建，总投资约2.6亿元，分三期建设，将建成国际月季博览园、名贵药材培育区、特色水果采摘观光园和花卉苗木培育区四大功能区。其中一期投资约5000万元，主要建设国际月季博览园一期等。\n目前，玖玖花海主要景点：月季花园1200亩，荷花园200亩，无花果园150亩，建设孔雀园（孔雀46只）1个、鸵鸟园（鸵鸟10只）1个、垂钓中心2个、摄影基地3个、游客服务中心1个、景观风车8个、游客休憩亭30多个以及50多个停车位等。\n安徽玖玖花海农业开发有限公司从事的是现代生态农业，是农业的提质创新，必将为全乡乃至全县现代农业的发展，为熙岸农业示范区的转型升级提供优质示范样板。"}}, {"title": "一米炊烟农家乐", "address": "汤泉乡赵河中学入口500米", "image": "", "rank": 8, "time": 2, "location": {"lat": 30.586341490277174, "lng": 116.14319747430939}, "feature": {"sight_features": "", "sight_content": ""}}, {"title": "罗河谷漂流", "address": "晋熙镇罗家河水库", "image": "", "rank": 9, "time": 2, "location": {"lat": 30.45604414574066, "lng": 116.30041276744248}, "feature": {"sight_features": "", "sight_content": ""}}, {"title": "情人岛垂钓区", "address": "105国道旁花亭湖风景名胜区情人岛内", "image": "", "rank": 10, "time": 2, "location": {"lat": 30.460404275496888, "lng": 116.30265577521612}, "feature": {"sight_features": "", "sight_content": ""}}, {"title": "奇悦儿童乐园(太湖店)", "address": "法华路金润万家超市1楼", "image": "", "rank": 11, "time": 2, "location": {"lat": 30.46250427307844, "lng": 116.30920790870755}, "feature": {"sight_features": "", "sight_content": ""}}, {"title": "书法艺术典藏馆", "address": "人民路沪渝高速太湖收费站西侧", "image": "", "rank": 12, "time": 2, "location": {"lat": 30.446662778813128, "lng": 116.34292241581959}, "feature": {"sight_features": "", "sight_content": ""}}, {"title": "高空飞降", "address": "安庆市太湖县105国道旁花亭湖风景名胜区情人岛内", "image": "", "rank": 13, "time": 2, "location": {"lat": 30.460404275496888, "lng": 116.30265577521612}, "feature": {"sight_features": "", "sight_content": ""}}, {"title": "昆卢殿", "address": "安庆市太湖县105国道旁花亭湖风景名胜区西风洞景区西风禅寺内", "image": "", "rank": 14, "time": 2, "location": {"lat": 30.460404275496888, "lng": 116.30265577521612}, "feature": {"sight_features": "", "sight_content": ""}}, {"title": "南无大愿地藏王菩萨", "address": "安庆市太湖县105国道旁花亭湖风景名胜区海会寺内", "image": "", "rank": 15, "time": 2, "location": {"lat": 30.460404275496888, "lng": 116.30265577521612}, "feature": {"sight_features": "", "sight_content": ""}}, {"title": "陈福寺", "address": "弥陀镇界岭村", "image": "", "rank": 16, "time": 2, "location": {"lat": 30.540042502302914, "lng": 115.9204590774985}, "feature": {"sight_features": "", "sight_content": ""}}, {"title": "树葬地", "address": "安庆市太湖县寺前镇赵朴初陵园内", "image": "", "rank": 17, "time": 2, "location": {"lat": 30.560192043673613, "lng": 116.23373606971015}, "feature": {"sight_features": "", "sight_content": ""}}, {"title": "曹家祠堂", "address": "安庆市太湖县二一一省道", "image": "", "rank": 18, "time": null, "location": {"lat": 30.466501140360936, "lng": 116.16990041406844}, "feature": {"sight_features": "", "sight_content": ""}}, {"title": "弥陀影剧院", "address": "弥陀中心小学附近", "image": "", "rank": 19, "time": 2, "location": {"lat": 30.549378085212158, "lng": 115.94926966386544}, "feature": {"sight_features": "", "sight_content": ""}}, {"title": "大石乡沙场", "address": "安徽省安庆市太湖县102县道附近", "image": "", "rank": 20, "time": 2, "location": {"lat": 30.25996037046209, "lng": 116.42713316125881}, "feature": {"sight_features": "", "sight_content": ""}}, {"title": "蔡家祠堂", "address": "安庆市太湖县", "image": "", "rank": 21, "time": 2, "location": {"lat": 30.460113290447975, "lng": 116.31547630162399}, "feature": {"sight_features": "", "sight_content": ""}}, {"title": "硅胶馆", "address": "安庆市太湖县十里画廊景区内", "image": "", "rank": 22, "time": null, "location": {"lat": 30.460113290447975, "lng": 116.31547630162399}, "feature": {"sight_features": "", "sight_content": ""}}, {"title": "刘家祠堂", "address": "安庆市太湖县零七三县道", "image": "", "rank": 23, "time": 2, "location": {"lat": 30.460113290447975, "lng": 116.31547630162399}, "feature": {"sight_features": "", "sight_content": ""}}, {"title": "童话王国儿童乐园", "address": "安徽省安庆市太湖县人民路35号", "image": "", "rank": 24, "time": 2, "location": {"lat": 30.45362329415769, "lng": 116.32174854018632}, "feature": {"sight_features": "", "sight_content": ""}}, {"title": "刘家祠堂", "address": "安庆市宿松县", "image": "", "rank": 25, "time": 2, "location": {"lat": 30.159786861375334, "lng": 116.1355236994904}, "feature": {"sight_features": "", "sight_content": ""}}, {"title": "观音阁龙山宫寺庙", "address": "皖西南大道西200米", "image": "", "rank": 26, "time": 2, "location": {"lat": 30.46210666441604, "lng": 116.30981985148877}, "feature": {"sight_features": "", "sight_content": ""}}, {"title": "佛图禅寺", "address": "安庆市太湖县佛图寺风景区内", "image": "", "rank": 27, "time": 2, "location": {"lat": 30.590016604933943, "lng": 116.25979968274284}, "feature": {"sight_features": "", "sight_content": ""}}, {"title": "白云祖师纪念塔", "address": "安庆市太湖县105国道旁花亭湖风景名胜区海会寺清凉苑内", "image": "", "rank": 28, "time": 2, "location": {"lat": 30.460404275496888, "lng": 116.30265577521612}, "feature": {"sight_features": "", "sight_content": ""}}, {"title": "笑哈哈儿童乐园(太湖店)", "address": "晋熙镇西门桥2号(祥和五交化向南200米)", "image": "", "rank": 29, "time": 1.5, "location": {"lat": 30.43841527163333, "lng": 116.29081260520314}, "feature": {"sight_features": "", "sight_content": ""}}, {"title": "府前广场", "address": "013乡道与105国道交叉口东南200米", "image": "", "rank": 30, "time": 2, "location": {"lat": 30.521028840016104, "lng": 116.4193041592477}, "feature": {"sight_features": "", "sight_content": ""}}, {"title": "华表广场", "address": "安庆市太湖县沪渝高速太湖收费站西侧400米五千年文博园内", "image": "", "rank": 31, "time": 2, "location": {"lat": 30.446662778813128, "lng": 116.33932919377966}, "feature": {"sight_features": "", "sight_content": ""}}, {"title": "赵朴初生平陈列室", "address": "寺前镇广播电视站北侧", "image": "", "rank": 32, "time": 2, "location": {"lat": 30.56254531201797, "lng": 116.22872981310306}, "feature": {"sight_features": "", "sight_content": ""}}, {"title": "太湖县图书馆", "address": "龙山路30号", "image": "", "rank": 33, "time": 2, "location": {"lat": 31.662072108554117, "lng": 119.04668657590776}, "feature": {"sight_features": "", "sight_content": ""}}, {"title": "汤湾温泉", "address": "汤泉乡汤湾村", "image": "", "rank": 34, "time": 2, "location": {"lat": 40.21243237891085, "lng": 117.77111857712417}, "feature": {"sight_features": "", "sight_content": ""}}, {"title": "太湖隆环农业生态园", "address": "江塘乡白云村光明组21号", "image": "", "rank": 35, "time": null, "location": {"lat": 22.754465883635365, "lng": 113.94256006193123}, "feature": {"sight_features": "", "sight_content": ""}}, {"title": "松乐园", "address": "百里镇松泉村仁义组20号", "image": "", "rank": 36, "time": null, "location": {"lat": 30.61864598634911, "lng": 115.9799584893757}, "feature": {"sight_features": "", "sight_content": ""}}, {"title": "松乐园", "address": "百里耿家松泉", "image": "", "rank": 37, "time": 2, "location": {"lat": 34.47196263757448, "lng": 114.58430748215503}, "feature": {"sight_features": "", "sight_content": ""}}, {"title": "鳄鱼恤", "address": "晋熙镇建设路新城小学对面", "image": "", "rank": 38, "time": 2, "location": {"lat": 30.45523780391311, "lng": 116.31655384693067}, "feature": {"sight_features": "", "sight_content": ""}}, {"title": "花海草莓基地", "address": "檀桥村花园桥向东50米X058", "image": "", "rank": 39, "time": 2, "location": {"lat": 39.938302230201344, "lng": 116.31699085190026}, "feature": {"sight_features": "", "sight_content": ""}}, {"title": "二祖禅堂", "address": "安徽省太湖县牛镇镇薛义河", "image": "", "rank": 40, "time": 2, "location": {"lat": 30.5932399652243, "lng": 116.06927123102669}, "feature": {"sight_features": "", "sight_content": ""}}, {"title": "龙山步行街", "address": "安徽省太湖县人民路", "image": "", "rank": 41, "time": 3.0, "location": {"lat": 30.45374289794368, "lng": 116.3204696289199}, "feature": {"sight_features": "", "sight_content": ""}}, {"title": "稻场坡", "address": "安庆市-太湖县", "image": "", "rank": 42, "time": 2, "location": {"lat": 30.460113290447975, "lng": 116.31547630162399}, "feature": {"sight_features": "", "sight_content": ""}}, {"title": "稻场屋", "address": "安庆市-太湖县", "image": "", "rank": 43, "time": 2, "location": {"lat": 30.460113290447975, "lng": 116.31547630162399}, "feature": {"sight_features": "", "sight_content": ""}}, {"title": "朱岭咀", "address": "安庆市-太湖县", "image": "", "rank": 44, "time": 2, "location": {"lat": 30.460113290447975, "lng": 116.31547630162399}, "feature": {"sight_features": "", "sight_content": ""}}, {"title": "元畈村", "address": "安庆市-太湖县", "image": "", "rank": 45, "time": 2, "location": {"lat": 30.460113290447975, "lng": 116.31547630162399}, "feature": {"sight_features": "", "sight_content": ""}}, {"title": "元家塝", "address": "安庆市-太湖县", "image": "", "rank": 46, "time": 2, "location": {"lat": 30.460113290447975, "lng": 116.31547630162399}, "feature": {"sight_features": "", "sight_content": ""}}, {"title": "元锋尖", "address": "安庆市-太湖县", "image": "", "rank": 47, "time": 2, "location": {"lat": 30.460113290447975, "lng": 116.31547630162399}, "feature": {"sight_features": "", "sight_content": ""}}, {"title": "元圣村", "address": "安庆市-太湖县-二一一省道", "image": "", "rank": 48, "time": 2, "location": {"lat": 30.466501140360936, "lng": 116.16990041406844}, "feature": {"sight_features": "", "sight_content": ""}}, {"title": "洒水岩", "address": "安庆市-太湖县", "image": "", "rank": 49, "time": 2, "location": {"lat": 30.460113290447975, "lng": 116.31547630162399}, "feature": {"sight_features": "", "sight_content": ""}}, {"title": "扬泗寺", "address": "安庆市太湖县102县道东50米", "image": "", "rank": 50, "time": 1.5, "location": {"lat": 30.25996037046209, "lng": 116.4275823140138}, "feature": {"sight_features": "", "sight_content": ""}}, {"title": "花凉亭水库湿地", "address": "安徽省太湖县境内", "image": "", "rank": 51, "time": 2, "location": {"lat": 30.460113290447975, "lng": 116.31547630162399}, "feature": {"sight_features": "", "sight_content": ""}}]}