{"cityName": "泰和", "days": 2, "cityImage": "", "spots": [{"title": "江畔古村", "address": "吉安市泰和县", "image": "", "rank": 1, "time": 2, "location": {"lat": 26.795697341164775, "lng": 114.91559111543528}, "feature": {"sight_features": "", "sight_content": ""}}, {"title": "井冈第一漂", "address": "吉安市泰和县桥头镇石壁村", "image": "", "rank": 2, "time": 2, "location": {"lat": 26.807097095686522, "lng": 114.61581552937487}, "feature": {"sight_features": "", "sight_content": "井冈第一漂位于江西吉安泰和西部井冈山脚下桥头镇石壁村，它发源于井冈山、永新的六七河，沿着319国道旁奔腾而下。漂流全程8.5公里，漂流时间约为90分钟，夏秋两季是漂流的最佳时段。漂流河断受山地、河谷的影响，河面时而宽，时而窄；河水时而汹涌奔腾，时而温柔平静；河岸苍岩壁立，奇峰怪石，古木修竹，宛如画卷；君若乘筏漂流，蜿蜒而下，神情飘逸。两岸既有高耸的雄山，繁秘的原始深林，也有客家人居住的村庄。艇在水中漂，美景在两岸走，与激流险滩亲密接触，既刺激而又无险。"}}, {"title": "天湖山", "address": "江西省泰和县水槎乡 343721", "image": "", "rank": 3, "time": 2, "location": {"lat": 26.53900443514869, "lng": 115.1126684451186}, "feature": {"sight_features": "", "sight_content": ""}}, {"title": "白口城址", "address": "江西省泰和县塘洲镇洲头村 343715", "image": "", "rank": 4, "time": 2, "location": {"lat": 26.771934013163786, "lng": 114.8598844761007}, "feature": {"sight_features": "", "sight_content": ""}}, {"title": "禾市沙场", "address": "车早段附近", "image": "", "rank": 5, "time": 0.5, "location": {"lat": 26.925802991820827, "lng": 114.74521957043575}, "feature": {"sight_features": "", "sight_content": ""}}, {"title": "吴氏祠堂", "address": "江西省吉安市泰和县X805", "image": "", "rank": 6, "time": 2, "location": {"lat": 26.795697341164775, "lng": 114.91559111543528}, "feature": {"sight_features": "", "sight_content": ""}}, {"title": "丹桂广场", "address": "吉安市泰和县", "image": "", "rank": 7, "time": 2, "location": {"lat": 26.795697341164775, "lng": 114.91559111543528}, "feature": {"sight_features": "", "sight_content": ""}}, {"title": "佳宝美亚特水族馆", "address": "江西省吉安市泰和县工农兵大道135号", "image": "", "rank": 8, "time": 2, "location": {"lat": 26.79766948823998, "lng": 114.89839498780927}, "feature": {"sight_features": "", "sight_content": ""}}, {"title": "桃源渡假村", "address": "江西省吉安市泰和县南溪三一九国道旁(距大广高速泰和站收费站路口300米)", "image": "", "rank": 9, "time": 2, "location": {"lat": 26.811226562374753, "lng": 114.51391371695077}, "feature": {"sight_features": "", "sight_content": ""}}, {"title": "老虎山度假村", "address": "老虎山路附近", "image": "", "rank": 10, "time": null, "location": {"lat": 32.417982889905545, "lng": 119.44796604764167}, "feature": {"sight_features": "", "sight_content": ""}}, {"title": "井冈楠木林度假村", "address": "319国道附近", "image": "", "rank": 11, "time": 2, "location": {"lat": 25.761668573925817, "lng": 116.38626783390552}, "feature": {"sight_features": "", "sight_content": ""}}, {"title": "金牛度假村", "address": "江西省吉安市泰和县螺溪镇三都泰井高速公路金牛山庄", "image": "", "rank": 12, "time": 2, "location": {"lat": 26.86961419510109, "lng": 114.79161328431408}, "feature": {"sight_features": "", "sight_content": ""}}, {"title": "苏溪塘登森林湿地公园", "address": "苏溪镇塘登村", "image": "", "rank": 13, "time": 2, "location": {"lat": 26.68566639271193, "lng": 114.68488289562283}, "feature": {"sight_features": "", "sight_content": ""}}, {"title": "楠木岭第一漂", "address": "319国道", "image": "", "rank": 14, "time": 2, "location": {"lat": 25.761668573925817, "lng": 116.38626783390552}, "feature": {"sight_features": "", "sight_content": ""}}, {"title": "泰和革命烈士纪念馆", "address": "吉安市泰和县吉泰路", "image": "", "rank": 15, "time": 2, "location": {"lat": 26.825257813226784, "lng": 114.92562087611198}, "feature": {"sight_features": "", "sight_content": ""}}, {"title": "邱老根第一漂", "address": "319国道", "image": "", "rank": 16, "time": 2, "location": {"lat": 25.761668573925817, "lng": 116.38626783390552}, "feature": {"sight_features": "", "sight_content": ""}}, {"title": "泰和县博物馆", "address": "吉安市泰和县山谷路26号附近", "image": "", "rank": 17, "time": 2, "location": {"lat": 26.794455942003193, "lng": 114.90946160234934}, "feature": {"sight_features": "", "sight_content": ""}}, {"title": "汇香坊香薰图书馆", "address": "下解放路33附近", "image": "", "rank": 18, "time": 2, "location": {"lat": 26.79398181711611, "lng": 114.90837367981774}, "feature": {"sight_features": "", "sight_content": ""}}, {"title": "主恩菇类栽培场", "address": "圳南路200号", "image": "", "rank": 19, "time": 2, "location": {"lat": 26.66813511480976, "lng": 114.96929861987505}, "feature": {"sight_features": "", "sight_content": ""}}, {"title": "城市英雄电玩城", "address": "工农兵大道(近泰和广场)", "image": "", "rank": 20, "time": 2, "location": {"lat": 28.25233167719639, "lng": 113.0197476999793}, "feature": {"sight_features": "", "sight_content": ""}}, {"title": "花园之城", "address": "澄江大道东50米", "image": "", "rank": 21, "time": 2, "location": {"lat": 26.8040448513115, "lng": 114.89328729095244}, "feature": {"sight_features": "", "sight_content": ""}}, {"title": "石狮岭农场", "address": "750县道附近石山乡林场", "image": "", "rank": 22, "time": 2, "location": {"lat": 21.95707284036203, "lng": 112.20113850765874}, "feature": {"sight_features": "", "sight_content": ""}}, {"title": "老冯果园", "address": "马市镇禾场背村506乡道", "image": "", "rank": 23, "time": 2, "location": {"lat": 26.69963501109913, "lng": 114.79929217228552}, "feature": {"sight_features": "", "sight_content": ""}}, {"title": "泰和泰豪商城", "address": "江西省泰和县工农兵大道", "image": "", "rank": 24, "time": 2, "location": {"lat": 26.798351281392577, "lng": 114.89153601471725}, "feature": {"sight_features": "", "sight_content": ""}}, {"title": "泰和县解放路步行街", "address": "江西省泰和县解放路", "image": "", "rank": 25, "time": 2, "location": {"lat": 26.79424802779244, "lng": 114.90799522370651}, "feature": {"sight_features": "", "sight_content": ""}}, {"title": "友谊广场商业步行街", "address": "江西省泰和县工农兵大道35号", "image": "", "rank": 26, "time": 2, "location": {"lat": 26.796055534826852, "lng": 114.90904983437488}, "feature": {"sight_features": "", "sight_content": ""}}, {"title": "阳丘养路队", "address": "吉安市-泰和县-四六四县道", "image": "", "rank": 27, "time": 2, "location": {"lat": 26.709747283791952, "lng": 115.18346959130535}, "feature": {"sight_features": "", "sight_content": ""}}, {"title": "南无桥", "address": "江西省吉安市泰和县沿溪镇江畔村", "image": "", "rank": 28, "time": 2, "location": {"lat": 26.874703614130066, "lng": 114.97055172192543}, "feature": {"sight_features": "", "sight_content": ""}}, {"title": "千年古樟", "address": "江西省泰和县沿溪镇江畔村", "image": "", "rank": 29, "time": 0.75, "location": {"lat": 26.874703614130066, "lng": 114.97055172192543}, "feature": {"sight_features": "", "sight_content": ""}}, {"title": "花石潭", "address": "吉安市泰和县沿溪镇江畔", "image": "", "rank": 30, "time": 2, "location": {"lat": 26.90960727603859, "lng": 114.98892722587205}, "feature": {"sight_features": "", "sight_content": ""}}, {"title": "魁星塔", "address": "吉安市泰和县沿溪镇江畔村", "image": "", "rank": 31, "time": 2.0, "location": {"lat": 26.874703614130066, "lng": 114.97055172192543}, "feature": {"sight_features": "", "sight_content": ""}}]}