{"cityName": "台江", "days": 2, "cityImage": "", "spots": [{"title": "台江", "address": "黔东南苗族侗族自治州台江县", "image": "", "rank": 1, "time": 1.0, "location": {"lat": 26.672372539642534, "lng": 108.32855163000316}, "feature": {"sight_features": "", "sight_content": ""}}, {"title": "施洞苗寨", "address": "黔东南苗族侗族自治州台江县施洞古镇", "image": "", "rank": 2, "time": 2.5, "location": {"lat": 26.67972506853079, "lng": 108.1678365099105}, "feature": {"sight_features": "", "sight_content": ""}}, {"title": "红阳苗寨", "address": "黔东南苗族侗族自治州台江县红寨村，南宫森林公园境内", "image": "", "rank": 3, "time": 1.5, "location": {"lat": 26.617910339698664, "lng": 108.30658054776247}, "feature": {"sight_features": "", "sight_content": ""}}, {"title": "反排苗寨", "address": "黔东南苗族侗族自治州台江县反排村（方白村）", "image": "", "rank": 4, "time": 2.5, "location": {"lat": 26.623891166010267, "lng": 108.42524201194507}, "feature": {"sight_features": "", "sight_content": ""}}, {"title": "南宫森林公园", "address": "黔东南苗族侗族自治州台江县南部", "image": "", "rank": 5, "time": 1.5, "location": {"lat": 26.672372539642534, "lng": 108.32855163000316}, "feature": {"sight_features": "", "sight_content": ""}}, {"title": "交宫苗寨", "address": "台江县", "image": "", "rank": 6, "time": 2, "location": {"lat": 26.672372539642534, "lng": 108.32855163000316}, "feature": {"sight_features": "", "sight_content": ""}}, {"title": "红阳草场", "address": "黔东南苗族侗族自治州台江县", "image": "", "rank": 7, "time": 2, "location": {"lat": 26.672372539642534, "lng": 108.32855163000316}, "feature": {"sight_features": "", "sight_content": ""}}, {"title": "古生物化石博物馆", "address": "贵州省台江县文昌宫内 556300", "image": "", "rank": 8, "time": 3.0, "location": {"lat": 26.672372539642534, "lng": 108.32855163000316}, "feature": {"sight_features": "", "sight_content": ""}}, {"title": "贵州刺绣博物馆", "address": "贵州省赤水市台江县 556300", "image": "", "rank": 9, "time": 2, "location": {"lat": 26.672372539642534, "lng": 108.32855163000316}, "feature": {"sight_features": "", "sight_content": ""}}, {"title": "台江方召斗牛场", "address": "贵州省黔东南苗族侗族自治州台江县方召乡", "image": "", "rank": 10, "time": 2, "location": {"lat": 26.665501541163877, "lng": 108.3960747111647}, "feature": {"sight_features": "", "sight_content": ""}}, {"title": "苗岭国家地质公园博物馆", "address": "320国道南50米", "image": "", "rank": 11, "time": 2, "location": {"lat": 27.256163819362143, "lng": 111.28158164529765}, "feature": {"sight_features": "", "sight_content": ""}}, {"title": "台江苗族刺绣博物馆", "address": "文昌东路5号", "image": "", "rank": 12, "time": 2.5, "location": {"lat": 28.510419001199804, "lng": 121.53180930833115}, "feature": {"sight_features": "", "sight_content": ""}}, {"title": "张秀眉塑像", "address": "贵州省台江县秀眉广场", "image": "", "rank": 13, "time": 2, "location": {"lat": 26.671682078003375, "lng": 108.32922787439084}, "feature": {"sight_features": "", "sight_content": ""}}, {"title": "金海岸步行街", "address": "贵州省台江县萃文路", "image": "", "rank": 14, "time": 2, "location": {"lat": 26.67540792200373, "lng": 108.32105770942434}, "feature": {"sight_features": "", "sight_content": ""}}, {"title": "台江姊妹街", "address": "贵州省台江县苗疆大道旁", "image": "", "rank": 15, "time": 2.5, "location": {"lat": 26.67382697458532, "lng": 108.32133302658846}, "feature": {"sight_features": "", "sight_content": ""}}]}