{"cityName": "太康", "days": 2, "cityImage": "", "spots": [{"title": "白坡寺", "address": "周口市太康县五里口乡王寺安村", "image": "", "rank": 1, "time": null, "location": {"lat": 33.965431294575765, "lng": 114.76697247555563}, "feature": {"sight_features": "", "sight_content": ""}}, {"title": "双楼李基督教堂", "address": "河南省周口市淮阳县", "image": "", "rank": 2, "time": 2, "location": {"lat": 33.737347183458404, "lng": 114.89258615518705}, "feature": {"sight_features": "", "sight_content": ""}}, {"title": "儿童亲子主题乐园", "address": "河南省周口市太康县谢安中路", "image": "", "rank": 3, "time": 2, "location": {"lat": 34.06912960128776, "lng": 114.86048956906123}, "feature": {"sight_features": "", "sight_content": ""}}, {"title": "太康清真东大寺", "address": "团结南路附近", "image": "", "rank": 4, "time": 2, "location": {"lat": 38.77155718791528, "lng": 115.51348519773005}, "feature": {"sight_features": "", "sight_content": ""}}, {"title": "银河温泉", "address": "财鑫路北段麦霸向北500米", "image": "", "rank": 5, "time": 2, "location": {"lat": 41.12037624689277, "lng": 121.1339668344921}, "feature": {"sight_features": "", "sight_content": ""}}, {"title": "周口市特种鱼苗繁育基地", "address": "016县道附近", "image": "", "rank": 6, "time": 1.0, "location": {"lat": 44.498645148434456, "lng": 126.31562919134316}, "feature": {"sight_features": "", "sight_content": ""}}, {"title": "太康县雅思康种植专业合作社", "address": "311国道附近", "image": "", "rank": 7, "time": 2, "location": {"lat": 34.27017932961585, "lng": 117.14276864732531}, "feature": {"sight_features": "", "sight_content": ""}}, {"title": "河南省太康县清香种植专业合作社", "address": "311国道附近", "image": "", "rank": 8, "time": 2, "location": {"lat": 34.27017932961585, "lng": 117.14276864732531}, "feature": {"sight_features": "", "sight_content": ""}}, {"title": "陈家石刻", "address": "河南省周口市太康县团结南路与扁担街交叉口西北50米", "image": "", "rank": 9, "time": 2, "location": {"lat": 34.06500418162186, "lng": 114.87440509664846}, "feature": {"sight_features": "", "sight_content": ""}}, {"title": "嵖呀山门业", "address": "河南省周口市太康县北街杨庙桥太康杨庙乡客运站", "image": "", "rank": 10, "time": 2, "location": {"lat": 34.18571455277983, "lng": 114.9196929731034}, "feature": {"sight_features": "", "sight_content": ""}}, {"title": "儿童乐园", "address": "河南省周口市淮阳县S206", "image": "", "rank": 11, "time": 2, "location": {"lat": 33.737347183458404, "lng": 114.89258615518705}, "feature": {"sight_features": "", "sight_content": ""}}, {"title": "板桥基督教会", "address": "河南省周口市太康县板桥镇阳光小学附近", "image": "", "rank": 12, "time": 2, "location": {"lat": 34.03759782763618, "lng": 114.64214082476896}, "feature": {"sight_features": "", "sight_content": ""}}, {"title": "毛庄乡基督教会", "address": "河南省周口市太康县毛庄镇石庄小学东200米", "image": "", "rank": 13, "time": 2.5, "location": {"lat": 34.023183544827766, "lng": 114.88867175299511}, "feature": {"sight_features": "", "sight_content": ""}}, {"title": "海洋游乐园", "address": "建设路与交通路交叉口万里新万悦商城4楼", "image": "", "rank": 14, "time": 2, "location": {"lat": 32.171293714411426, "lng": 120.84697848174169}, "feature": {"sight_features": "", "sight_content": ""}}, {"title": "宝宝宝俱乐部儿童游乐园", "address": "河南省周口市太康县朱庄村", "image": "", "rank": 15, "time": 2, "location": {"lat": 34.25326041094957, "lng": 114.98928418892724}, "feature": {"sight_features": "", "sight_content": ""}}, {"title": "真耶稣教会(005乡道)", "address": "005乡道附近", "image": "", "rank": 16, "time": 2, "location": {"lat": 42.08321631584341, "lng": 117.86149951990792}, "feature": {"sight_features": "", "sight_content": ""}}, {"title": "跨世纪·儿童之家", "address": "太康县广播电视局附近", "image": "", "rank": 17, "time": 2, "location": {"lat": 34.07445445311679, "lng": 114.85140513569313}, "feature": {"sight_features": "", "sight_content": ""}}, {"title": "清真北寺", "address": "河南省周口市太康县城关回族镇团结南路中国工商银行旁", "image": "", "rank": 18, "time": 2, "location": {"lat": 34.063329368937545, "lng": 114.87483716722585}, "feature": {"sight_features": "", "sight_content": ""}}, {"title": "白爷庙", "address": "003县道附近", "image": "", "rank": 19, "time": 2, "location": {"lat": 40.157783260865884, "lng": 116.31747817545298}, "feature": {"sight_features": "", "sight_content": ""}}, {"title": "周口市太康农场(三分场)", "address": "清逊路附近", "image": "", "rank": 20, "time": 1.0, "location": {"lat": 34.13199484568069, "lng": 114.72105696382053}, "feature": {"sight_features": "", "sight_content": ""}}, {"title": "绿野生态园", "address": "华夏石油加油站附近", "image": "", "rank": 21, "time": null, "location": {"lat": 35.14602240990529, "lng": 118.38483155916381}, "feature": {"sight_features": "", "sight_content": ""}}, {"title": "绿野温泉小镇", "address": "106国道", "image": "", "rank": 22, "time": 2, "location": {"lat": 39.1725896711994, "lng": 116.39041588203045}, "feature": {"sight_features": "", "sight_content": ""}}, {"title": "世纪新城水上乐园", "address": "未来路泰康世纪新城内", "image": "", "rank": 23, "time": 2, "location": {"lat": 39.432346814765786, "lng": 116.31425864042046}, "feature": {"sight_features": "", "sight_content": ""}}, {"title": "太康县白云蔬菜种植专业合作社", "address": "G106南于庄村东南100米", "image": "", "rank": 24, "time": 2, "location": {"lat": 37.885451891425696, "lng": 116.76028616898088}, "feature": {"sight_features": "", "sight_content": ""}}, {"title": "新奇葡萄苗木繁育基地", "address": "未来路中段宏光制冷食品厂", "image": "", "rank": 25, "time": 2, "location": {"lat": 37.4402378084915, "lng": 121.54447794312142}, "feature": {"sight_features": "", "sight_content": ""}}, {"title": "孔集温泉", "address": "四通镇孔集南", "image": "", "rank": 26, "time": 2, "location": {"lat": 33.8813849704612, "lng": 115.02596612971516}, "feature": {"sight_features": "", "sight_content": ""}}, {"title": "太康文庙", "address": "河南省太康县北大街路", "image": "", "rank": 27, "time": 2, "location": {"lat": 34.07003838224778, "lng": 114.84438388999658}, "feature": {"sight_features": "", "sight_content": ""}}, {"title": "太康县健禾星种植专业合作社漳岗...", "address": "周口市-太康县-326省道(漳西学校西南)", "image": "", "rank": 28, "time": 2, "location": {"lat": 34.18623181985778, "lng": 114.78802594860649}, "feature": {"sight_features": "", "sight_content": ""}}, {"title": "漳岗西", "address": "周口市-太康县", "image": "", "rank": 29, "time": 2, "location": {"lat": 34.07003838224778, "lng": 114.84438388999658}, "feature": {"sight_features": "", "sight_content": ""}}]}