{"cityName": "台南", "days": "2", "cityImage": "", "spots": [{"title": "赤崁楼", "address": "台湾台南市中西区民族路二段212号", "image": "", "rank": 1, "time": 1.5, "location": {"lat": 22.291342714291822, "lng": 114.1594914103114}, "feature": {"sight_features": "", "sight_content": ""}}, {"title": "安平古堡", "address": "台南市安平区国胜路82号", "image": "", "rank": 2, "time": 1.5, "location": {"lat": 32.02097227067293, "lng": 120.9397915516598}, "feature": {"sight_features": "", "sight_content": ""}}, {"title": "安平树屋", "address": "台湾台南市安平区古堡街108号", "image": "", "rank": 3, "time": 2.0, "location": {"lat": 22.987656916226886, "lng": 120.17765271558989}, "feature": {"sight_features": "", "sight_content": ""}}, {"title": "四草湿地保护区", "address": "台南市安南区显草街1段", "image": "", "rank": 4, "time": 2.0, "location": {"lat": 30.36567777609487, "lng": 106.00216627610584}, "feature": {"sight_features": "", "sight_content": ""}}, {"title": "台南孔庙", "address": "台南市中西区南门路2号", "image": "", "rank": 5, "time": 1.5, "location": {"lat": 22.291342714291822, "lng": 114.1594914103114}, "feature": {"sight_features": "", "sight_content": ""}}, {"title": "台湾文学馆", "address": "台南市中西区中正路1号", "image": "", "rank": 6, "time": 2.0, "location": {"lat": 22.291342714291822, "lng": 114.1594914103114}, "feature": {"sight_features": "", "sight_content": ""}}, {"title": "成功大学", "address": "台南市东区大学路1号", "image": "", "rank": 7, "time": 2.0, "location": {"lat": 38.96584875626212, "lng": 121.36052796411255}, "feature": {"sight_features": "", "sight_content": ""}}, {"title": "安平老街", "address": "台南市安平区延平街", "image": "", "rank": 8, "time": 1.5, "location": {"lat": 38.96584875626212, "lng": 121.36052796411255}, "feature": {"sight_features": "", "sight_content": ""}}, {"title": "神农街", "address": "台南市中西区神农街", "image": "", "rank": 9, "time": 1.5, "location": {"lat": 22.291342714291822, "lng": 114.1594914103114}, "feature": {"sight_features": "", "sight_content": ""}}, {"title": "延平郡王祠", "address": "台南中西区开山路152号", "image": "", "rank": 10, "time": 1.0, "location": {"lat": 22.291342714291822, "lng": 114.1594914103114}, "feature": {"sight_features": "", "sight_content": ""}}, {"title": "奇美博物馆", "address": "台南市仁德区文华路二段66号", "image": "", "rank": 11, "time": 1.5, "location": {"lat": 39.54741905753837, "lng": 116.55522657013186}, "feature": {"sight_features": "特色1 前往台南最受欢迎的景点和地标之一，提供文明之奇与艺术之美的体验！ 特色2 典藏西洋艺术品为主，展出艺术、乐器、兵器与自然史四大领域！ 特色3 建筑外观以希腊神话故事为主题，仿佛置身于欧洲古典宫殿！", "sight_content": "前往台南最受欢迎的地标景点「奇美博物馆」，饱览馆藏的4000多件文化瑰宝，尽情徜徉在中西方艺术氛围中。\n奇美博物馆是一座综合性博物馆，拥有西洋艺术、乐器、兵器和动物标本等多元的典藏品，提供“文明之奇与艺术之美”的独特体验。\n\n\n\n\n漫步博物馆广场，你将会欣赏到由四匹神态各异的马匹拉着的阿波罗战车，搭配阿波罗喷泉的壮观水舞秀，完美呈现了太阳神从海面飞跃的磅礴之景。\n经过十二位神祇的众神之桥，这个充满古希腊风情的大型博物馆将映入眼帘。常设展包含：艺术厅、乐器厅、兵器厅、动物厅、罗丹厅、雕塑大道，另设特展厅：每期推出不同的展览。\n走入博物馆内，你将被丰富的馆藏艺术品所震撼，从西元前八世纪的埃及文物、世界顶级的珍贵名琴，到数百年前日本武士刀、文艺复兴与巴比松等画派的经典之作，这些来自世界各地玲琅满目的艺术精品，绝对让你沉迷于此无法自拔。\n↓下方为博物馆1F入口大厅售票服务柜台实拍图。\n\n\n\n\n庆祝「奇美艺术奖30周年」，奇美博物馆特邀美术史学者以台湾「精微写实艺术」为主题策展，囊括来自四大公立美术馆、老中青三代写实大师的精锐作品，用不着痕迹的功力，带给观者超越想像的真实，呈现台湾百年写实艺术的发展。以绘画及雕塑两大部分构成的特展，分划做四个不同主题区：「从人出发」、「风景．心境」、「净悟．静物」及「梦境．奇观」，归纳奇美艺术奖30年主要风格，同时呈显奇美集团创办人许文龙先生对艺术的认知与倾向。从日治时期黄土水的雕塑看见台湾民俗神话，从李梅树的照相式写实人物画像看见真实自我的本土形象，抑或从许坤成及李足新的创作中看见超现实的奇幻想像，共计55位艺术家102件作品，呈现此精微写实风格在台湾的发展成果与贡献，邀你一同细心观赏与指教！\n\n\n▲温室1：詹喻帆将自身喜爱的人事物放入创作之中，象征他所关注的社会现象议题\n\n\n▲石阵：一沙一世界，一石一天堂。无限手中置，刹那成永恒。 （作者：周珠望）\n\n\n▲视界八：在手中看见瞬息万变的大千世界，侯忠颖以最原始简单的主体，延伸出无限的意象"}}, {"title": "七股盐山", "address": "", "image": "", "rank": 12, "time": 2.0, "location": {"lat": 41.64941373289825, "lng": 112.18481023904728}, "feature": {"sight_features": "", "sight_content": ""}}, {"title": "蓝晒图文创园区", "address": "台南市中西区西门路一段689巷", "image": "", "rank": 13, "time": 2, "location": {"lat": 22.291342714291822, "lng": 114.1594914103114}, "feature": {"sight_features": "", "sight_content": ""}}, {"title": "安平观夕平台", "address": "台南市安平渔港观夕平台", "image": "", "rank": 14, "time": 0.75, "location": {"lat": 38.24050692219121, "lng": 115.5255492853222}, "feature": {"sight_features": "", "sight_content": ""}}, {"title": "夕游出张所", "address": "台南市安平区古堡街196号", "image": "", "rank": 15, "time": 2.0, "location": {"lat": 38.96584875626212, "lng": 121.36052796411255}, "feature": {"sight_features": "", "sight_content": ""}}, {"title": "亿载金城", "address": "台南市安平区光州路3号", "image": "", "rank": 16, "time": 1.5, "location": {"lat": 32.01830612731214, "lng": 114.906823938198}, "feature": {"sight_features": "", "sight_content": ""}}, {"title": "大天后宫", "address": "台南市中西区永福路二段227巷18号", "image": "", "rank": 17, "time": 1.5, "location": {"lat": 22.291342714291822, "lng": 114.1594914103114}, "feature": {"sight_features": "", "sight_content": ""}}, {"title": "郑成功祖庙", "address": "台南市中西区忠义路二段36号", "image": "", "rank": 18, "time": 1.5, "location": {"lat": 22.291342714291822, "lng": 114.1594914103114}, "feature": {"sight_features": "", "sight_content": ""}}, {"title": "祀典武庙", "address": "台南中西区永福路2段229号", "image": "", "rank": 19, "time": 1.5, "location": {"lat": 22.291342714291822, "lng": 114.1594914103114}, "feature": {"sight_features": "", "sight_content": ""}}, {"title": "台湾盐博物馆", "address": "台南市七股区盐埕里69号", "image": "", "rank": 20, "time": 2.0, "location": {"lat": 38.96584875626212, "lng": 121.36052796411255}, "feature": {"sight_features": "", "sight_content": ""}}, {"title": "海安路艺术街", "address": "700台湾台南市中西区", "image": "", "rank": 21, "time": 2.0, "location": {"lat": 22.291342714291822, "lng": 114.1594914103114}, "feature": {"sight_features": "", "sight_content": ""}}, {"title": "德商东兴洋行", "address": "台南市安北路233巷3号", "image": "", "rank": 22, "time": 1.5, "location": {"lat": 31.70435299923732, "lng": 118.8443836233467}, "feature": {"sight_features": "", "sight_content": ""}}, {"title": "德记洋行", "address": "台南市安平区古堡街108号", "image": "", "rank": 23, "time": 2.0, "location": {"lat": 38.96584875626212, "lng": 121.36052796411255}, "feature": {"sight_features": "", "sight_content": ""}}, {"title": "朱玖莹故居", "address": "台南市安平区古堡街108号", "image": "", "rank": 24, "time": 1.0, "location": {"lat": 38.96584875626212, "lng": 121.36052796411255}, "feature": {"sight_features": "", "sight_content": ""}}, {"title": "台南爱国妇人馆", "address": "台南市中西区府前路一段195、197号", "image": "", "rank": 25, "time": 1.0, "location": {"lat": 22.291342714291822, "lng": 114.1594914103114}, "feature": {"sight_features": "", "sight_content": ""}}, {"title": "林默娘公园", "address": "台湾台南市安平区安亿路", "image": "", "rank": 26, "time": 1.0, "location": {"lat": 22.987656916226886, "lng": 120.17765271558989}, "feature": {"sight_features": "", "sight_content": ""}}, {"title": "台湾历史博物馆", "address": "台南市安南区长和路一段250号", "image": "", "rank": 27, "time": 3.0, "location": {"lat": 30.719415701218498, "lng": 104.04938200818808}, "feature": {"sight_features": "", "sight_content": ""}}, {"title": "安平开台天后宫", "address": "台南市安平区国胜路33号", "image": "", "rank": 28, "time": 0.75, "location": {"lat": 32.02097227067293, "lng": 120.9397915516598}, "feature": {"sight_features": "", "sight_content": ""}}, {"title": "台江国家公园", "address": "台南市安平区四草大道118号", "image": "", "rank": 29, "time": 1.5, "location": {"lat": 22.987656916226886, "lng": 120.17765271558989}, "feature": {"sight_features": "", "sight_content": ""}}, {"title": "武德殿", "address": "台南市友爱街南侧忠义国小校区", "image": "", "rank": 30, "time": 0.5, "location": {"lat": 38.902165370070705, "lng": 121.65505126665012}, "feature": {"sight_features": "", "sight_content": ""}}, {"title": "花园夜市", "address": "台湾台南市北区海安路三段533号", "image": "", "rank": 31, "time": 3.0, "location": {"lat": 24.086956718804895, "lng": 121.97387097871568}, "feature": {"sight_features": "", "sight_content": ""}}, {"title": "新光三越台南新天地", "address": "台南市7中西区门路一段658号", "image": "", "rank": 32, "time": 2, "location": {"lat": 22.291342714291822, "lng": 114.1594914103114}, "feature": {"sight_features": "", "sight_content": ""}}, {"title": "林百货", "address": "台南市中西区忠义路二段16号", "image": "", "rank": 33, "time": 1.5, "location": {"lat": 22.291342714291822, "lng": 114.1594914103114}, "feature": {"sight_features": "", "sight_content": ""}}, {"title": "吴园", "address": "台湾台南市中西区民权路二段30号", "image": "", "rank": 34, "time": 2.0, "location": {"lat": 22.291342714291822, "lng": 114.1594914103114}, "feature": {"sight_features": "", "sight_content": ""}}, {"title": "台南大东夜市", "address": "", "image": "", "rank": 35, "time": 1.5, "location": {"lat": 41.811425174494424, "lng": 123.47640473208111}, "feature": {"sight_features": "", "sight_content": ""}}, {"title": "七股潟湖", "address": "台南市七股区盐埕村", "image": "", "rank": 36, "time": 2.0, "location": {"lat": 38.96584875626212, "lng": 121.36052796411255}, "feature": {"sight_features": "", "sight_content": ""}}, {"title": "关子岭温泉", "address": "732台湾台南市白河区175县道", "image": "", "rank": 37, "time": 2, "location": {"lat": 24.01305872831871, "lng": 115.35637956801415}, "feature": {"sight_features": "", "sight_content": ""}}, {"title": "龙王瀑布", "address": "台南县南化乡关山村", "image": "", "rank": 38, "time": 1.5, "location": {"lat": 38.96584875626212, "lng": 121.36052796411255}, "feature": {"sight_features": "", "sight_content": ""}}, {"title": "南化水库", "address": "716台湾台南南化区", "image": "", "rank": 39, "time": 2.0, "location": {"lat": 23.124817191551326, "lng": 120.57874889693505}, "feature": {"sight_features": "", "sight_content": ""}}, {"title": "西拉雅国家风景区", "address": "台南市嘉南平原东部的山麓地带", "image": "", "rank": 40, "time": 2.0, "location": {"lat": 38.96584875626212, "lng": 121.36052796411255}, "feature": {"sight_features": "", "sight_content": ""}}, {"title": "安平小炮台", "address": "台南市安平区湖内二街64号", "image": "", "rank": 41, "time": 2.0, "location": {"lat": 38.96584875626212, "lng": 121.36052796411255}, "feature": {"sight_features": "", "sight_content": ""}}, {"title": "武圣庙", "address": "台南市永福路2段", "image": "", "rank": 42, "time": 1.0, "location": {"lat": 39.861808458060544, "lng": 116.31743959772284}, "feature": {"sight_features": "", "sight_content": ""}}, {"title": "小露台", "address": "台南北门路一段30巷12号 ‎ ‎", "image": "", "rank": 43, "time": 2.0, "location": {"lat": 36.0941829338393, "lng": 111.45868830635577}, "feature": {"sight_features": "", "sight_content": ""}}, {"title": "乌山头水库", "address": "台南官田区", "image": "", "rank": 44, "time": 2.0, "location": {"lat": 23.193428125556608, "lng": 120.36559054039051}, "feature": {"sight_features": "", "sight_content": ""}}, {"title": "桥下", "address": "台南市东门路一段20号", "image": "", "rank": 45, "time": null, "location": {"lat": 37.99070987718111, "lng": 114.70660897282872}, "feature": {"sight_features": "", "sight_content": ""}}, {"title": "虎头埤风景区", "address": "台南新化区", "image": "", "rank": 46, "time": 2.0, "location": {"lat": 23.03987145479581, "lng": 120.34183045487984}, "feature": {"sight_features": "", "sight_content": ""}}, {"title": "井仔脚瓦盘盐田", "address": "台南市北门区南10乡道", "image": "", "rank": 47, "time": 2.0, "location": {"lat": 23.286817404197564, "lng": 120.13252034302009}, "feature": {"sight_features": "", "sight_content": ""}}, {"title": "北门水晶教堂", "address": "台南市北门区北门村200号", "image": "", "rank": 48, "time": 1.5, "location": {"lat": 29.993966464536648, "lng": 121.45799439027807}, "feature": {"sight_features": "", "sight_content": ""}}, {"title": "台南武圣夜市", "address": "台南市中西区武圣路69巷42号", "image": "", "rank": 49, "time": 2, "location": {"lat": 22.291342714291822, "lng": 114.1594914103114}, "feature": {"sight_features": "", "sight_content": ""}}, {"title": "台湾首庙天坛", "address": "台南忠义路二段84巷16号 ‎", "image": "", "rank": 50, "time": 1.5, "location": {"lat": 22.998454017497764, "lng": 120.21403703876727}, "feature": {"sight_features": "", "sight_content": ""}}, {"title": "盐水八角楼", "address": "台南市盐水区中山路6-46号", "image": "", "rank": 51, "time": 2.0, "location": {"lat": 31.05060456453319, "lng": 121.7581966492389}, "feature": {"sight_features": "", "sight_content": ""}}, {"title": "七股观海楼", "address": "台南市七股区176县道", "image": "", "rank": 52, "time": 1.5, "location": {"lat": 50.22791571069606, "lng": 127.59589131989597}, "feature": {"sight_features": "", "sight_content": ""}}, {"title": "WIRE破屋", "address": "台南民生路一段132巷5号", "image": "", "rank": 53, "time": 2.0, "location": {"lat": 39.63271513918512, "lng": 116.32911075301034}, "feature": {"sight_features": "", "sight_content": ""}}, {"title": "顽皮世界野生动物园", "address": "台南三庆里6邻顶州75-25号", "image": "", "rank": 54, "time": 2.0, "location": {"lat": 23.755629987389487, "lng": 117.3664483177068}, "feature": {"sight_features": "", "sight_content": ""}}, {"title": "官田", "address": "720台湾台南官田区", "image": "", "rank": 55, "time": 3.0, "location": {"lat": 23.193428125556608, "lng": 120.36559054039051}, "feature": {"sight_features": "", "sight_content": ""}}, {"title": "关子岭风景区", "address": "台湾台南市白河区关岭里28-3号", "image": "", "rank": 56, "time": 2.5, "location": {"lat": 23.354020196753865, "lng": 120.4563440122359}, "feature": {"sight_features": "", "sight_content": ""}}, {"title": "海山馆", "address": "台南效忠街52巷3号", "image": "", "rank": 57, "time": 2.0, "location": {"lat": 38.96584875626212, "lng": 121.36052796411255}, "feature": {"sight_features": "", "sight_content": ""}}, {"title": "五妃庙", "address": "台南市中西区五妃街201号", "image": "", "rank": 58, "time": 2, "location": {"lat": 22.291342714291822, "lng": 114.1594914103114}, "feature": {"sight_features": "", "sight_content": ""}}, {"title": "仙湖休闲农场", "address": "台南县东山乡南势村贺老寮6-2号", "image": "", "rank": 59, "time": null, "location": {"lat": 28.00061758898755, "lng": 120.2774128221534}, "feature": {"sight_features": "", "sight_content": ""}}, {"title": "南鲲鯓代天府", "address": "台南市北门区鲲江里976号", "image": "", "rank": 60, "time": 2, "location": {"lat": 38.96584875626212, "lng": 121.36052796411255}, "feature": {"sight_features": "", "sight_content": ""}}]}