{"cityName": "太仆寺旗", "days": 2, "cityImage": "", "spots": [{"title": "太仆寺御马苑", "address": "锡林郭勒盟太仆寺旗贡宝拉格苏木南1公里", "image": "", "rank": 1, "time": 3.0, "location": {"lat": 41.712129665110936, "lng": 115.17951841235156}, "feature": {"sight_features": "", "sight_content": ""}}, {"title": "海日勒之家", "address": "包恩本招呼站向西200米", "image": "", "rank": 2, "time": 2, "location": {"lat": 23.32128661222331, "lng": 113.24099968675924}, "feature": {"sight_features": "", "sight_content": ""}}, {"title": "金莲山", "address": "内蒙古自治区，太仆寺旗", "image": "", "rank": 3, "time": 7.5, "location": {"lat": 41.88229174604251, "lng": 115.29053531644618}, "feature": {"sight_features": "", "sight_content": ""}}, {"title": "太仆寺旗京蒙草原休闲旅游度", "address": "内蒙古自治区锡林郭勒盟太仆寺旗G207207国道东200米", "image": "", "rank": 4, "time": 2, "location": {"lat": 42.11112199230009, "lng": 115.46867873128267}, "feature": {"sight_features": "", "sight_content": ""}}, {"title": "玛拉盖庙（咸安寺）", "address": "锡林郭勒盟南端的贡宝拉格草原207国道", "image": "", "rank": 5, "time": 2, "location": {"lat": 41.70560797058366, "lng": 115.17418556869156}, "feature": {"sight_features": "", "sight_content": ""}}, {"title": "锡林郭勒盟青青草原度假村", "address": "锡林郭勒盟太仆寺旗宝昌镇南行3公里207国道草原游牧园", "image": "", "rank": 6, "time": 1.0, "location": {"lat": 41.880241424720914, "lng": 115.28372143200033}, "feature": {"sight_features": "", "sight_content": ""}}, {"title": "北斗鑫儿童游乐广场", "address": "内蒙古自治区锡林郭勒盟太仆寺旗宝昌镇解放大街奥盛达购物广场", "image": "", "rank": 7, "time": 2, "location": {"lat": 41.901026799795055, "lng": 115.28911642492706}, "feature": {"sight_features": "", "sight_content": ""}}, {"title": "国鑫博物馆", "address": "建设南街", "image": "", "rank": 8, "time": 2, "location": {"lat": 38.431495162212094, "lng": 115.35093549608875}, "feature": {"sight_features": "", "sight_content": ""}}, {"title": "马场", "address": "207国道‎锡林郭勒盟‎内蒙古自治区中国", "image": "", "rank": 9, "time": 2, "location": {"lat": 43.92595378349937, "lng": 116.03847229931175}, "feature": {"sight_features": "", "sight_content": ""}}, {"title": "玛拉沁之家", "address": "宝昌镇包恩本车站边", "image": "", "rank": 10, "time": 2, "location": {"lat": 41.90037880596354, "lng": 115.28372143200033}, "feature": {"sight_features": "", "sight_content": ""}}, {"title": "浩客家庭农场", "address": "宝昌镇宝龙小区后门", "image": "", "rank": 11, "time": 2, "location": {"lat": 41.885922843324856, "lng": 115.28922589063988}, "feature": {"sight_features": "", "sight_content": ""}}, {"title": "东道沟村", "address": "锡林郭勒盟-太仆寺旗", "image": "", "rank": 12, "time": 2, "location": {"lat": 41.88229174604251, "lng": 115.29053531644618}, "feature": {"sight_features": "", "sight_content": ""}}, {"title": "太仆寺旗贡宝拉格草原", "address": "锡林郭勒盟太仆寺旗", "image": "", "rank": 13, "time": 2, "location": {"lat": 41.88229174604251, "lng": 115.29053531644618}, "feature": {"sight_features": "", "sight_content": ""}}, {"title": "太仆寺旗大草原", "address": "内蒙古自治区锡林郭勒太仆寺旗", "image": "", "rank": 14, "time": 2, "location": {"lat": 41.88229174604251, "lng": 115.29053531644618}, "feature": {"sight_features": "", "sight_content": ""}}, {"title": "太仆寺", "address": "内蒙古自治区锡林郭勒盟太仆寺旗", "image": "", "rank": 15, "time": 3.0, "location": {"lat": 41.88229174604251, "lng": 115.29053531644618}, "feature": {"sight_features": "", "sight_content": ""}}, {"title": "石条山", "address": "内蒙古自治区锡林郭勒盟太仆寺旗", "image": "", "rank": 16, "time": 2, "location": {"lat": 41.88229174604251, "lng": 115.29053531644618}, "feature": {"sight_features": "", "sight_content": ""}}, {"title": "宝昌镇", "address": "内蒙古自治区太仆寺旗中部", "image": "", "rank": 17, "time": 2, "location": {"lat": 41.88229174604251, "lng": 115.29053531644618}, "feature": {"sight_features": "", "sight_content": ""}}]}