{"cityName": "台东", "days": "3", "cityImage": "", "spots": [{"title": "小野柳", "address": "台东县台东市松江路一段500号", "image": "", "rank": 1, "time": 2.0, "location": {"lat": 36.07862579698341, "lng": 120.34396662785056}, "feature": {"sight_features": "", "sight_content": ""}}, {"title": "三仙台", "address": "台东县成功镇三仙里基翚路74号", "image": "", "rank": 2, "time": 1.5, "location": {"lat": 26.095631255981797, "lng": 119.33983605008171}, "feature": {"sight_features": "", "sight_content": ""}}, {"title": "绿岛", "address": "台东县以东33公里", "image": "", "rank": 3, "time": 4.5, "location": {"lat": 26.095631255981797, "lng": 119.63627686827651}, "feature": {"sight_features": "", "sight_content": ""}}, {"title": "鹿野高台", "address": "台东县鹿野乡永安村高台路42巷133号(热气球旁)", "image": "", "rank": 4, "time": 2, "location": {"lat": 26.02415465993272, "lng": 119.35238680905263}, "feature": {"sight_features": "", "sight_content": ""}}, {"title": "知本温泉", "address": "954台湾台东县卑南乡", "image": "", "rank": 5, "time": 2, "location": {"lat": 22.777143000771638, "lng": 121.0001284870107}, "feature": {"sight_features": "", "sight_content": ""}}, {"title": "初鹿牧场", "address": "954台东县卑南乡明峰村28邻牧场1号", "image": "", "rank": 6, "time": 2.0, "location": {"lat": 22.7361290445733, "lng": 114.1188868604258}, "feature": {"sight_features": "", "sight_content": ""}}, {"title": "铁花村音乐聚落", "address": "台湾台东县新生路135巷26号", "image": "", "rank": 7, "time": 2.0, "location": {"lat": 24.086956718804895, "lng": 121.97387097871568}, "feature": {"sight_features": "", "sight_content": ""}}, {"title": "台东铁道艺术村", "address": "台湾台东县台东市铁花路369号", "image": "", "rank": 8, "time": 2.0, "location": {"lat": 22.75582315749902, "lng": 121.12135832971333}, "feature": {"sight_features": "", "sight_content": ""}}, {"title": "富冈渔港", "address": "台湾台东县台东市富冈街297号", "image": "", "rank": 9, "time": 1.5, "location": {"lat": 22.75582315749902, "lng": 121.12135832971333}, "feature": {"sight_features": "", "sight_content": ""}}, {"title": "伯朗大道", "address": "958台湾台东县池上乡", "image": "", "rank": 10, "time": 2, "location": {"lat": 23.096479238624926, "lng": 121.23675384252049}, "feature": {"sight_features": "", "sight_content": ""}}, {"title": "池上", "address": "958台湾台东县池上乡", "image": "", "rank": 11, "time": 4.5, "location": {"lat": 23.096479238624926, "lng": 121.23675384252049}, "feature": {"sight_features": "", "sight_content": ""}}, {"title": "多良车站", "address": "963台湾台东县太麻里乡泷溪路8-1号", "image": "", "rank": 12, "time": 1.0, "location": {"lat": 31.47056250568517, "lng": 104.77072984683998}, "feature": {"sight_features": "", "sight_content": ""}}, {"title": "水往上流", "address": "台东县东河乡都兰村的渔桥附近", "image": "", "rank": 13, "time": 2, "location": {"lat": 26.095631255981797, "lng": 119.33983605008171}, "feature": {"sight_features": "", "sight_content": ""}}, {"title": "八仙洞", "address": "台东县长滨乡三间村水母丁1-4号", "image": "", "rank": 14, "time": 1.0, "location": {"lat": 38.88475593515101, "lng": 121.68299958482919}, "feature": {"sight_features": "", "sight_content": ""}}, {"title": "台东森林公园", "address": "台东县台东市台东大堤", "image": "", "rank": 15, "time": 2.0, "location": {"lat": 26.095631255981797, "lng": 119.33983605008171}, "feature": {"sight_features": "", "sight_content": ""}}, {"title": "东部海岸国家风景区", "address": "台东县成功镇信义里新村路25號东部海岸国家风景区", "image": "", "rank": 16, "time": 9.0, "location": {"lat": 30.641501067057565, "lng": 104.07369493607}, "feature": {"sight_features": "", "sight_content": ""}}, {"title": "兰屿岛", "address": "952台湾台东县兰屿乡", "image": "", "rank": 17, "time": 1.0, "location": {"lat": 22.04690411017343, "lng": 121.55245770038682}, "feature": {"sight_features": "", "sight_content": ""}}, {"title": "台湾史前文化博物馆", "address": "950台湾台东县博物馆路1号", "image": "", "rank": 18, "time": 2.0, "location": {"lat": 24.086956718804895, "lng": 121.97387097871568}, "feature": {"sight_features": "", "sight_content": ""}}, {"title": "绿岛朝日温泉", "address": "台湾台东县绿岛乡温泉路167号", "image": "", "rank": 19, "time": 2, "location": {"lat": 22.659002156597403, "lng": 121.5014742148797}, "feature": {"sight_features": "特色1 世界三大海水温泉之一，泡着温泉倾听海浪的声音，迎接朝阳的升起。 特色2 泡汤，浪涛声，曼妙星空，旭日朝阳，配上温泉蛋/玉米/虾，何等享受。", "sight_content": "绿岛朝日温泉是非常罕见的海底温泉，全世界仅出现在绿岛、意大利北方与日本九州岛，是稀有的地质景观，来朝日温泉泡汤，夜晚可仰望星空，观海听涛，晨间可迎接曙光，惬意享受富有岛屿风情的温泉之旅。\n泉质澄澈透明，温度约在摄氏60-70度，属略呈酸性的硫酸盐氯化物泉，但无浓烈硫磺味，带有海水的咸味，对人类皮肤无刺激，洗后并不黏涩，为罕见的咸水温泉。\n朝日温泉约可容纳300名游客，室内有齐全的水疗设备；温泉区靠海的地方设有三个圆形露天浴池，还有半户外式泡汤池、大型游泳池，浴池的水随着涨潮与退潮温度会产生变化，形成最天然的三温暖。\n由于周边设施完善，在泡汤之余还可观星、听涛、看日出，惬意享受另类的温泉之旅。"}}, {"title": "台东观光夜市", "address": "台湾台东县台东市正气路", "image": "", "rank": 20, "time": 2.5, "location": {"lat": 22.75582315749902, "lng": 121.12135832971333}, "feature": {"sight_features": "", "sight_content": ""}}, {"title": "石雨伞", "address": "台东县成功镇海岸公路", "image": "", "rank": 21, "time": 1.0, "location": {"lat": 43.77224219990765, "lng": 87.62646712442684}, "feature": {"sight_features": "", "sight_content": ""}}, {"title": "池上饭包文化故事馆", "address": "台东县池上乡忠孝路259号", "image": "", "rank": 22, "time": 2, "location": {"lat": 28.89084312757959, "lng": 105.46122997194718}, "feature": {"sight_features": "", "sight_content": ""}}, {"title": "太麻里", "address": "963台湾台东县太麻里乡佳仑产业道路", "image": "", "rank": 23, "time": 3.0, "location": {"lat": 22.582976014479723, "lng": 120.99729410765298}, "feature": {"sight_features": "", "sight_content": ""}}, {"title": "阿美族文化中心", "address": "台东县成功镇信义里新村路25号", "image": "", "rank": 24, "time": 1.5, "location": {"lat": 39.99384958313571, "lng": 117.08772741610088}, "feature": {"sight_features": "", "sight_content": ""}}, {"title": "知本国家森林游乐区", "address": "台东县卑南乡龙泉路148巷", "image": "", "rank": 25, "time": 2.0, "location": {"lat": 22.69550353305422, "lng": 121.02877552247718}, "feature": {"sight_features": "", "sight_content": ""}}, {"title": "布农部落", "address": "台湾台东县延平乡桃源村11邻191号", "image": "", "rank": 26, "time": 1.0, "location": {"lat": 22.890164157183722, "lng": 120.97191299840937}, "feature": {"sight_features": "", "sight_content": ""}}, {"title": "都兰", "address": "台湾台东县东河乡", "image": "", "rank": 27, "time": 3.0, "location": {"lat": 22.98457740940659, "lng": 121.26961193299593}, "feature": {"sight_features": "", "sight_content": ""}}, {"title": "卑南文化公园", "address": "台东县台东市文化公园路200号卑南文化公园", "image": "", "rank": 28, "time": 2.0, "location": {"lat": 31.71456444145901, "lng": 113.411227141937}, "feature": {"sight_features": "", "sight_content": ""}}, {"title": "大坡池", "address": "池上乡台东台湾 958", "image": "", "rank": 29, "time": 2.0, "location": {"lat": 23.096479238624926, "lng": 121.23675384252049}, "feature": {"sight_features": "", "sight_content": ""}}, {"title": "乌石鼻", "address": "962台湾台东县长滨乡", "image": "", "rank": 30, "time": 2.0, "location": {"lat": 23.33252309365106, "lng": 121.44371377157358}, "feature": {"sight_features": "", "sight_content": ""}}, {"title": "鲤鱼山公园", "address": "950台湾台东县台东市正气北路109巷", "image": "", "rank": 31, "time": 2.0, "location": {"lat": 22.75582315749902, "lng": 121.12135832971333}, "feature": {"sight_features": "", "sight_content": ""}}, {"title": "太麻里金針山", "address": "台湾台东县东河乡金针山", "image": "", "rank": 32, "time": 1.5, "location": {"lat": 22.98457740940659, "lng": 121.26961193299593}, "feature": {"sight_features": "", "sight_content": ""}}, {"title": "金樽", "address": "959台湾台东东河乡 ‎", "image": "", "rank": 33, "time": 2, "location": {"lat": 22.98457740940659, "lng": 121.26961193299593}, "feature": {"sight_features": "", "sight_content": ""}}, {"title": "关山亲水公园", "address": "台东县关山镇东7乡道", "image": "", "rank": 34, "time": 2.0, "location": {"lat": 26.095631255981797, "lng": 119.33983605008171}, "feature": {"sight_features": "", "sight_content": ""}}, {"title": "绿岛灯塔", "address": "台湾台东县绿岛乡绿岛灯塔", "image": "", "rank": 35, "time": 1.0, "location": {"lat": 22.659002156597403, "lng": 121.5014742148797}, "feature": {"sight_features": "", "sight_content": ""}}, {"title": "珊瑚博物馆", "address": "台东市南岛大道502号", "image": "", "rank": 36, "time": 1.5, "location": {"lat": 36.17926695522567, "lng": 120.95649270666735}, "feature": {"sight_features": "", "sight_content": ""}}, {"title": "杉原海水浴场", "address": "台湾台东县杉原20号", "image": "", "rank": 37, "time": 2.0, "location": {"lat": 24.086956718804895, "lng": 121.97387097871568}, "feature": {"sight_features": "", "sight_content": ""}}, {"title": "绿岛监狱", "address": "台湾台东县绿岛乡中寮村192号", "image": "", "rank": 38, "time": 1.0, "location": {"lat": 22.659002156597403, "lng": 121.5014742148797}, "feature": {"sight_features": "", "sight_content": ""}}, {"title": "东河桥", "address": "台湾台东县东河乡东河村", "image": "", "rank": 39, "time": 1.0, "location": {"lat": 22.98457740940659, "lng": 121.26961193299593}, "feature": {"sight_features": "", "sight_content": ""}}, {"title": "台东珊瑚展示中心", "address": "台东县台东市中兴路一段398号", "image": "", "rank": 40, "time": 1.0, "location": {"lat": 38.70935513883943, "lng": 117.51340835180949}, "feature": {"sight_features": "", "sight_content": ""}}, {"title": "成功渔港", "address": "961台湾台东县成功镇港边路19号", "image": "", "rank": 41, "time": 2.0, "location": {"lat": 23.109527244309593, "lng": 121.36210453059617}, "feature": {"sight_features": "", "sight_content": ""}}, {"title": "都兰糖厂艺术村", "address": "台东东县东河乡都兰村61号", "image": "", "rank": 42, "time": 2.0, "location": {"lat": 26.78864362705408, "lng": 107.79418823487136}, "feature": {"sight_features": "", "sight_content": ""}}, {"title": "东清湾", "address": "952台湾台东县兰屿乡", "image": "", "rank": 43, "time": 1.5, "location": {"lat": 22.04690411017343, "lng": 121.55245770038682}, "feature": {"sight_features": "", "sight_content": ""}}, {"title": "长滨文化遗址", "address": "台湾台东县长滨乡北段海湾", "image": "", "rank": 44, "time": 1.0, "location": {"lat": 23.33252309365106, "lng": 121.44371377157358}, "feature": {"sight_features": "", "sight_content": ""}}, {"title": "雾鹿峡谷", "address": "台湾台东县海端乡南部横贯公路", "image": "", "rank": 45, "time": 2.0, "location": {"lat": 23.127155736799846, "lng": 121.04170907368002}, "feature": {"sight_features": "", "sight_content": ""}}, {"title": "海山寺", "address": "950台湾台东县中正路88号", "image": "", "rank": 46, "time": 1.5, "location": {"lat": 24.086956718804895, "lng": 121.97387097871568}, "feature": {"sight_features": "", "sight_content": ""}}, {"title": "东河休闲农场", "address": "台东县东河乡北源村45邻67号", "image": "", "rank": 47, "time": 2.0, "location": {"lat": 27.348777861843214, "lng": 114.9101855162172}, "feature": {"sight_features": "", "sight_content": ""}}, {"title": "加路兰休憩区", "address": "臺東縣臺東市台11線157公里處", "image": "", "rank": 48, "time": 2, "location": {"lat": 37.23925416728646, "lng": 107.98486115130108}, "feature": {"sight_features": "", "sight_content": ""}}, {"title": "关山", "address": "台湾台东", "image": "", "rank": 49, "time": 2.0, "location": {"lat": 24.086956718804895, "lng": 121.97387097871568}, "feature": {"sight_features": "", "sight_content": ""}}, {"title": "绿岛人权纪念公园", "address": "台湾台东县绿岛乡公馆村将军岩20号", "image": "", "rank": 50, "time": 2, "location": {"lat": 22.659002156597403, "lng": 121.5014742148797}, "feature": {"sight_features": "", "sight_content": ""}}, {"title": "军舰岩", "address": "台湾台东县兰屿乡", "image": "", "rank": 51, "time": null, "location": {"lat": 22.04690411017343, "lng": 121.55245770038682}, "feature": {"sight_features": "", "sight_content": ""}}, {"title": "琵琶湖", "address": "台东县台东市台东森林公园内", "image": "", "rank": 52, "time": 1.5, "location": {"lat": 26.095631255981797, "lng": 119.33983605008171}, "feature": {"sight_features": "", "sight_content": ""}}, {"title": "白玉瀑布", "address": "台东县卑南乡龙泉路", "image": "", "rank": 53, "time": 2, "location": {"lat": 22.69550353305422, "lng": 121.02877552247718}, "feature": {"sight_features": "", "sight_content": ""}}, {"title": "鹿野观光茶园", "address": "台东县鹿野乡高台路46号", "image": "", "rank": 54, "time": 1.5, "location": {"lat": 26.02245362922485, "lng": 119.35389415222329}, "feature": {"sight_features": "", "sight_content": ""}}, {"title": "栗松温泉", "address": "台东县海端乡南横公路", "image": "", "rank": 55, "time": 2, "location": {"lat": 31.140231925452063, "lng": 121.09578366440032}, "feature": {"sight_features": "", "sight_content": ""}}, {"title": "台东美术馆", "address": "台东县台东市浙江路350号", "image": "", "rank": 56, "time": 1.0, "location": {"lat": 39.02744123810146, "lng": 117.6558360551769}, "feature": {"sight_features": "", "sight_content": ""}}, {"title": "海参坪", "address": "台东县Ludao Township", "image": "", "rank": 57, "time": 1.0, "location": {"lat": 26.095631255981797, "lng": 119.33983605008171}, "feature": {"sight_features": "", "sight_content": ""}}, {"title": "观音洞", "address": "951台湾台东县绿岛乡公馆村的海阶平", "image": "", "rank": 58, "time": 2.5, "location": {"lat": 26.095631255981797, "lng": 119.33983605008171}, "feature": {"sight_features": "", "sight_content": ""}}, {"title": "知本乐山步道", "address": "台东县卑南乡温泉村龙泉路", "image": "", "rank": 59, "time": 2, "location": {"lat": 26.095631255981797, "lng": 119.33983605008171}, "feature": {"sight_features": "", "sight_content": ""}}, {"title": "都兰遗址", "address": "台东县东河乡都兰村圆山产业道路", "image": "", "rank": 60, "time": 1.5, "location": {"lat": 26.095631255981797, "lng": 119.33983605008171}, "feature": {"sight_features": "", "sight_content": ""}}]}