{"cityName": "泰兴", "days": 2, "cityImage": "", "spots": [{"title": "黄桥古镇", "address": "泰州泰兴市黄桥镇米巷10号", "image": "", "rank": 1, "time": 2, "location": {"lat": 32.24858878797926, "lng": 120.2376454909449}, "feature": {"sight_features": "", "sight_content": ""}}, {"title": "泰兴独立支部旧址纪念馆", "address": "泰兴市横垛镇", "image": "", "rank": 2, "time": 1.0, "location": {"lat": 32.31630441285916, "lng": 120.27812127234228}, "feature": {"sight_features": "", "sight_content": ""}}, {"title": "古银杏群落森林公园", "address": "泰州市泰兴市", "image": "", "rank": 3, "time": 1.0, "location": {"lat": 32.17747402371212, "lng": 120.05859939046078}, "feature": {"sight_features": "", "sight_content": ""}}, {"title": "杨根思烈士陵园", "address": "江苏省泰州市泰兴市", "image": "", "rank": 4, "time": 1.0, "location": {"lat": 32.17747402371212, "lng": 120.05859939046078}, "feature": {"sight_features": "", "sight_content": ""}}, {"title": "仙鹤湾风光带", "address": "泰州市泰兴市鼓楼东路(泰兴中学对面)", "image": "", "rank": 5, "time": 2, "location": {"lat": 32.17689404791922, "lng": 120.03085084285084}, "feature": {"sight_features": "", "sight_content": ""}}, {"title": "泰兴公园", "address": "泰州市泰兴市济川北路林园路1号", "image": "", "rank": 6, "time": 1.0, "location": {"lat": 32.21266515254861, "lng": 120.03211061931158}, "feature": {"sight_features": "", "sight_content": ""}}, {"title": "庆云禅寺", "address": "泰州市泰兴市延令路", "image": "", "rank": 7, "time": 1.0, "location": {"lat": 32.17024981132496, "lng": 120.00999207931588}, "feature": {"sight_features": "", "sight_content": ""}}, {"title": "悦水湾水上乐园", "address": "泰州市泰兴黄桥镇塔东路国家电网东100米", "image": "", "rank": 8, "time": 2, "location": {"lat": 32.08478343643207, "lng": 120.0258234994202}, "feature": {"sight_features": "", "sight_content": ""}}, {"title": "中华红枫园景区", "address": "泰州市泰兴市广陵镇顾周村", "image": "", "rank": 9, "time": 2, "location": {"lat": 32.13126457590846, "lng": 120.24794530561715}, "feature": {"sight_features": "", "sight_content": "泰兴市中华红枫园位于泰兴市广陵镇顾周村，毗邻宁通高速（G40）广陵出口不到1公里。距泰兴市区20公里，靖江市9公里，上海180公里，南通58公里、常州80公里、江阴28公里，交通十分便利。园区总规划面积3068亩，是一个集生态观光、餐饮住宿、礼佛朝圣、户外拓展、野营烧烤、健康养老（养生）、休闲垂钓及游玩为一体的大型生态园区，2014年，景区已获得国家AAA级景区。\n中华红枫园以观赏红枫紫薇为主题，自然环境恬静、优美。园区分为九大功能区：红枫紫薇观赏区、餐饮住宿区、佛教文化区、休闲垂钓区、古森林露营烧烤区、户外拓展区、果蔬采摘区、亲子娱乐区。中小学生素质教育培训基地、农耕文化区、大型珍稀鸟类养殖基地、温泉度假区等正在紧张建设中。老年养老（养生）圣地项目包括：养老公寓、医疗护理中心、老年文化交流中心、养老商业配套等已列入建设规划中。\n红枫紫薇观赏区占地面积2000亩，区内以观赏型紫薇、红枫为主，另外荷花、香樟等可观赏，是苏中地区最大的红枫、紫薇种植、观赏基地。"}}, {"title": "泰兴市古银杏森林公园", "address": "宣堡镇张河村", "image": "", "rank": 10, "time": 1.0, "location": {"lat": 32.31604092749445, "lng": 119.95735128570232}, "feature": {"sight_features": "", "sight_content": ""}}, {"title": "兄弟果园", "address": "通江路永晖加油站对面", "image": "", "rank": 11, "time": 2, "location": {"lat": 32.152638202344214, "lng": 119.98778340963342}, "feature": {"sight_features": "", "sight_content": ""}}, {"title": "梦里水垂钓中心", "address": "S29盐靖高速", "image": "", "rank": 12, "time": 2, "location": {"lat": 33.470997930514194, "lng": 120.11770636589797}, "feature": {"sight_features": "", "sight_content": ""}}, {"title": "威龙垂钓中心", "address": "232省道", "image": "", "rank": 13, "time": null, "location": {"lat": 38.377274537943066, "lng": 114.45027902716741}, "feature": {"sight_features": "", "sight_content": ""}}, {"title": "农科所垂钓场", "address": "根新路", "image": "", "rank": 14, "time": 2, "location": {"lat": 32.28825801510418, "lng": 120.09741759697181}, "feature": {"sight_features": "", "sight_content": ""}}, {"title": "普丰农业生态园", "address": "广陵镇顾周村三组", "image": "", "rank": 15, "time": 2, "location": {"lat": 32.13126457590846, "lng": 120.24794530561715}, "feature": {"sight_features": "", "sight_content": ""}}, {"title": "渔人岛垂钓休闲", "address": "泰过路", "image": "", "rank": 16, "time": 2, "location": {"lat": 32.17745400585833, "lng": 120.0069210422689}, "feature": {"sight_features": "", "sight_content": ""}}, {"title": "国际主义战士杨根思烈士陵园", "address": "根思乡宣泰路49号", "image": "", "rank": 17, "time": 2, "location": {"lat": 32.257663689645014, "lng": 120.02256656433607}, "feature": {"sight_features": "", "sight_content": ""}}, {"title": "溪桥", "address": "朱徐村(近钱葛村)", "image": "", "rank": 18, "time": 1.0, "location": {"lat": 32.20626544697738, "lng": 120.21231772756563}, "feature": {"sight_features": "", "sight_content": ""}}, {"title": "小南湖农家乐", "address": "黄桥镇祁巷村", "image": "", "rank": 19, "time": 2, "location": {"lat": 32.221522379788034, "lng": 120.2911008814695}, "feature": {"sight_features": "", "sight_content": ""}}, {"title": "小吴垂钓", "address": "308县道", "image": "", "rank": 20, "time": 2, "location": {"lat": 37.89517191274391, "lng": 114.75769713879207}, "feature": {"sight_features": "", "sight_content": ""}}, {"title": "科技园区姚王垂钓中心", "address": "国庆东路与科技路交叉口北200米", "image": "", "rank": 21, "time": 2, "location": {"lat": 32.188593797847545, "lng": 120.0934030193426}, "feature": {"sight_features": "", "sight_content": ""}}, {"title": "祁巷蔬菜种植专业合作社韭菜生产...", "address": "王家庄村附近", "image": "", "rank": 22, "time": 2, "location": {"lat": 38.02394759911607, "lng": 114.97980545513518}, "feature": {"sight_features": "", "sight_content": ""}}, {"title": "江苏叶家马场", "address": "新街镇凤阳村", "image": "", "rank": 23, "time": 2, "location": {"lat": 32.308852090024075, "lng": 120.13791794073673}, "feature": {"sight_features": "", "sight_content": ""}}, {"title": "泰州市特种花木基地", "address": "229省道附近", "image": "", "rank": 24, "time": 3.0, "location": {"lat": 39.64350034548962, "lng": 117.03562195777462}, "feature": {"sight_features": "", "sight_content": ""}}, {"title": "社区书吧", "address": "国庆新村二区11号", "image": "", "rank": 25, "time": 2, "location": {"lat": 32.173957689651935, "lng": 120.03851265044382}, "feature": {"sight_features": "", "sight_content": ""}}, {"title": "宏瑞家庭农场", "address": "姚王镇新星村姚星线西148号", "image": "", "rank": 26, "time": 2, "location": {"lat": 32.16355112433296, "lng": 120.12659150210393}, "feature": {"sight_features": "", "sight_content": ""}}, {"title": "陈庄垂钓园", "address": "陈家庄村", "image": "", "rank": 27, "time": 2, "location": {"lat": 39.999776668144804, "lng": 116.0759550264618}, "feature": {"sight_features": "", "sight_content": ""}}, {"title": "泰兴公园-垂钓区", "address": "泰兴公园", "image": "", "rank": 28, "time": 1.0, "location": {"lat": 32.18591402007893, "lng": 120.0364564156569}, "feature": {"sight_features": "", "sight_content": ""}}, {"title": "丁文江纪念馆", "address": "致富中路201号", "image": "", "rank": 29, "time": 2, "location": {"lat": 32.249356381272946, "lng": 120.24088655207235}, "feature": {"sight_features": "", "sight_content": ""}}, {"title": "新四军黄桥战役纪念馆(新馆)", "address": "致富北路388号", "image": "", "rank": 30, "time": 2, "location": {"lat": 30.667213179250158, "lng": 113.09779914456915}, "feature": {"sight_features": "", "sight_content": ""}}, {"title": "曲霞影剧院", "address": "曲霞镇", "image": "", "rank": 31, "time": 2, "location": {"lat": 32.11390166570468, "lng": 120.14820985930355}, "feature": {"sight_features": "", "sight_content": ""}}, {"title": "古溪影剧院", "address": "振兴路附近", "image": "", "rank": 32, "time": 2, "location": {"lat": 38.935292139358445, "lng": 116.91891946161574}, "feature": {"sight_features": "", "sight_content": ""}}, {"title": "东进影剧院", "address": "济川南路19号", "image": "", "rank": 33, "time": 2, "location": {"lat": 32.172345487704426, "lng": 120.04280116094846}, "feature": {"sight_features": "", "sight_content": ""}}, {"title": "中共泰兴独立支部", "address": "江苏省泰兴市黄桥镇 225411", "image": "", "rank": 34, "time": 2, "location": {"lat": 32.245593619832995, "lng": 120.23815566020336}, "feature": {"sight_features": "", "sight_content": ""}}, {"title": "泰兴市济川街道商井社区群乐艺术...", "address": "江平北路", "image": "", "rank": 35, "time": 1.0, "location": {"lat": 32.18777451499264, "lng": 120.00705090400835}, "feature": {"sight_features": "", "sight_content": ""}}, {"title": "何庄三队刘公馆", "address": "泰兴市滨江镇大何庄村三组45号", "image": "", "rank": 36, "time": 2, "location": {"lat": 32.22727982773706, "lng": 119.9780906482655}, "feature": {"sight_features": "", "sight_content": ""}}, {"title": "龙王庙", "address": "虹桥镇七圩东风南路", "image": "", "rank": 37, "time": 2, "location": {"lat": 32.02556697360208, "lng": 120.0275062070981}, "feature": {"sight_features": "", "sight_content": ""}}, {"title": "新四军黄桥决战苏北指挥部旧址", "address": "刘严线附近", "image": "", "rank": 38, "time": 2, "location": {"lat": 32.28776260223325, "lng": 120.18167598045055}, "feature": {"sight_features": "", "sight_content": ""}}, {"title": "韩秋岩故居", "address": "珠巷53号附近", "image": "", "rank": 39, "time": 2, "location": {"lat": 32.24685166264801, "lng": 120.23680822170111}, "feature": {"sight_features": "", "sight_content": ""}}, {"title": "丁西林故居", "address": "朱巷62", "image": "", "rank": 40, "time": 2, "location": {"lat": 31.612286317801818, "lng": 120.27296518286765}, "feature": {"sight_features": "", "sight_content": ""}}, {"title": "黄桥决战支前委员会旧址", "address": "珠巷124", "image": "", "rank": 41, "time": 2, "location": {"lat": 32.24685166264801, "lng": 120.23680822170111}, "feature": {"sight_features": "", "sight_content": ""}}, {"title": "直来桥纪念碑", "address": "十桥中路与银杏路西交叉口东南50米", "image": "", "rank": 42, "time": 2, "location": {"lat": 32.25097739630011, "lng": 120.23309909848768}, "feature": {"sight_features": "", "sight_content": ""}}, {"title": "海洋世界", "address": "泰州市泰兴市泰兴公园东大门", "image": "", "rank": 43, "time": 2.5, "location": {"lat": 32.18591402007893, "lng": 120.0364564156569}, "feature": {"sight_features": "", "sight_content": ""}}, {"title": "泰兴公园-水上激光碰碰船", "address": "济川北路与运河路交叉口西北100米", "image": "", "rank": 44, "time": 1.0, "location": {"lat": 32.21266515254861, "lng": 120.03211061931158}, "feature": {"sight_features": "", "sight_content": ""}}, {"title": "游乐设施", "address": "泰州市泰兴市鼓楼西路2号鼓楼购物中心F5", "image": "", "rank": 45, "time": 2, "location": {"lat": 32.174540138274516, "lng": 120.02597185637177}, "feature": {"sight_features": "", "sight_content": ""}}, {"title": "小南湖跑马场", "address": "丁庄6组路附近", "image": "", "rank": 46, "time": 2, "location": {"lat": 32.22226511151686, "lng": 120.29961498875407}, "feature": {"sight_features": "", "sight_content": ""}}, {"title": "淘气堡儿童乐园", "address": "兴镇路与镇龙路交叉口西50米", "image": "", "rank": 47, "time": 2, "location": {"lat": 32.108965142744026, "lng": 120.24280321353896}, "feature": {"sight_features": "", "sight_content": ""}}, {"title": "游乐区", "address": "泰州市泰兴市鼓楼西路2号鼓楼购物中心B1", "image": "", "rank": 48, "time": 2, "location": {"lat": 32.174774790350455, "lng": 120.02613462483865}, "feature": {"sight_features": "", "sight_content": ""}}, {"title": "消防主题公园", "address": "文昌东路与文江南路交叉口东100米", "image": "", "rank": 49, "time": 2, "location": {"lat": 32.17075773104965, "lng": 120.06012279263953}, "feature": {"sight_features": "", "sight_content": ""}}, {"title": "泰兴市姚王镇法治公园", "address": "江苏省泰州市泰兴市牛桥路", "image": "", "rank": 50, "time": 1.0, "location": {"lat": 32.21726856198585, "lng": 120.08245351868486}, "feature": {"sight_features": "", "sight_content": ""}}, {"title": "感应禅院", "address": "宣联线北50米", "image": "", "rank": 51, "time": 2, "location": {"lat": 32.29813378991693, "lng": 119.98581545043066}, "feature": {"sight_features": "", "sight_content": ""}}, {"title": "向阳休闲度假村", "address": "泰过公路附近", "image": "", "rank": 52, "time": 2, "location": {"lat": 32.17176838606094, "lng": 119.99698049051248}, "feature": {"sight_features": "", "sight_content": ""}}, {"title": "新能源美食休闲广场", "address": "曾涛路169号", "image": "", "rank": 53, "time": 2, "location": {"lat": 32.17338198236804, "lng": 120.05447028067567}, "feature": {"sight_features": "", "sight_content": ""}}, {"title": "新能源新世纪广场", "address": "江苏省泰州市泰兴市s336", "image": "", "rank": 54, "time": 2, "location": {"lat": 32.17747402371212, "lng": 120.05859939046078}, "feature": {"sight_features": "", "sight_content": ""}}, {"title": "泰兴民安广场", "address": "江苏省泰州市泰兴市曾涛路东方天水雅居大酒店附近", "image": "", "rank": 55, "time": 1.0, "location": {"lat": 32.1739664103636, "lng": 120.04972407093743}, "feature": {"sight_features": "", "sight_content": ""}}, {"title": "月亮湾休闲广场", "address": "银杏路与K12乡道交叉口南100米", "image": "", "rank": 56, "time": 2, "location": {"lat": 41.7748119325156, "lng": 123.4534090632295}, "feature": {"sight_features": "", "sight_content": ""}}, {"title": "江琴农家乐", "address": "江苏省泰州市泰兴市黄桥镇横过线", "image": "", "rank": 57, "time": 2, "location": {"lat": 32.26184470973936, "lng": 120.1602605324995}, "feature": {"sight_features": "", "sight_content": ""}}, {"title": "临江阁休闲广场", "address": "引江河附近", "image": "", "rank": 58, "time": 2, "location": {"lat": 32.23323727760424, "lng": 119.94034410136345}, "feature": {"sight_features": "", "sight_content": ""}}, {"title": "长生街道广场", "address": "江苏省泰州市泰兴市古墩线", "image": "", "rank": 59, "time": 2, "location": {"lat": 32.20186126855953, "lng": 120.32987147958512}, "feature": {"sight_features": "", "sight_content": ""}}, {"title": "蔡庄市民广场", "address": "孔蔡线北50米", "image": "", "rank": 60, "time": 2, "location": {"lat": 32.31933686550925, "lng": 119.98133479147916}, "feature": {"sight_features": "", "sight_content": ""}}]}