{"cityName": "台中", "days": "3", "cityImage": "", "spots": [{"title": "东海大学", "address": "台中市西屯区台湾大道四段1727号", "image": "", "rank": 1, "time": 1.5, "location": {"lat": 24.18789529324277, "lng": 120.63391191321587}, "feature": {"sight_features": "", "sight_content": ""}}, {"title": "宫原眼科", "address": "台中市中山路20號", "image": "", "rank": 2, "time": 2.0, "location": {"lat": 38.66222906049726, "lng": 114.96165161435523}, "feature": {"sight_features": "", "sight_content": ""}}, {"title": "高美湿地", "address": "台中市清水区大甲溪出海口南侧", "image": "", "rank": 3, "time": 1.5, "location": {"lat": 26.091557030418777, "lng": 119.33696304538368}, "feature": {"sight_features": "", "sight_content": ""}}, {"title": "路思义教堂", "address": "台中市西屯区台湾大道四段1727号", "image": "", "rank": 4, "time": 1.0, "location": {"lat": 24.18789529324277, "lng": 120.63391191321587}, "feature": {"sight_features": "", "sight_content": ""}}, {"title": "彩虹眷村", "address": "台中市南屯区春安路56", "image": "", "rank": 5, "time": 1.5, "location": {"lat": 31.338038795919772, "lng": 118.38010036370386}, "feature": {"sight_features": "", "sight_content": ""}}, {"title": "台中火车站", "address": "台中市中区台湾大道一段1号", "image": "", "rank": 6, "time": 0.5, "location": {"lat": 24.086956718804895, "lng": 121.97387097871568}, "feature": {"sight_features": "", "sight_content": ""}}, {"title": "台湾美术馆", "address": "台湾台中市西区五权西路一段2号", "image": "", "rank": 7, "time": 1.5, "location": {"lat": 24.086956718804895, "lng": 121.97387097871568}, "feature": {"sight_features": "", "sight_content": ""}}, {"title": "逢甲大学", "address": "台中市西屯区文华路100号", "image": "", "rank": 8, "time": 2.0, "location": {"lat": 30.616693745078127, "lng": 120.54075816080267}, "feature": {"sight_features": "", "sight_content": ""}}, {"title": "一中街", "address": "台中市北区育才北路到一中街范围的街道", "image": "", "rank": 9, "time": 3.0, "location": {"lat": 26.091557030418777, "lng": 119.33696304538368}, "feature": {"sight_features": "", "sight_content": ""}}, {"title": "台湾自然科学博物馆", "address": "台中市北区馆前路一号", "image": "", "rank": 10, "time": 3.0, "location": {"lat": 26.091557030418777, "lng": 119.33696304538368}, "feature": {"sight_features": "", "sight_content": ""}}, {"title": "武陵农场", "address": "台中市和平区平等村武陵路3-1号", "image": "", "rank": 11, "time": 4.5, "location": {"lat": 39.12339025327971, "lng": 117.22146699490091}, "feature": {"sight_features": "", "sight_content": ""}}, {"title": "大甲镇澜宫", "address": "台中市大甲区顺天路158号", "image": "", "rank": 12, "time": 1.0, "location": {"lat": 30.756310768855176, "lng": 106.0487562823297}, "feature": {"sight_features": "", "sight_content": ""}}, {"title": "薰衣草森林", "address": "", "image": "", "rank": 13, "time": 3.5, "location": {"lat": 39.898092977839575, "lng": 116.33660911840732}, "feature": {"sight_features": "", "sight_content": ""}}, {"title": "新社庄园", "address": "台中市新小区协成里协中街65号", "image": "", "rank": 14, "time": 2.0, "location": {"lat": 26.091557030418777, "lng": 119.33696304538368}, "feature": {"sight_features": "", "sight_content": ""}}, {"title": "草悟道", "address": "台中市西区向上北路（从自然科学博物馆前经国园道、台湾美术馆到美术园道之间的绿带）", "image": "", "rank": 15, "time": 1.5, "location": {"lat": 24.086956718804895, "lng": 121.97387097871568}, "feature": {"sight_features": "", "sight_content": ""}}, {"title": "台中公园", "address": "台中市中区公园路37-1号（公园路与自由路、双十路、精武路交接）", "image": "", "rank": 16, "time": 2.0, "location": {"lat": 26.091557030418777, "lng": 119.33696304538368}, "feature": {"sight_features": "", "sight_content": ""}}, {"title": "静宜大学", "address": "台中市沙鹿区台湾大道七段200号", "image": "", "rank": 17, "time": 1.5, "location": {"lat": 24.234187349492288, "lng": 120.5863869650058}, "feature": {"sight_features": "", "sight_content": ""}}, {"title": "心之芳庭", "address": "台中市北屯区民政里芳庭路1号", "image": "", "rank": 18, "time": 2, "location": {"lat": 32.221724450602345, "lng": 118.73663369179782}, "feature": {"sight_features": "", "sight_content": ""}}, {"title": "追分车站", "address": "台中市大肚区王田村追分街13号", "image": "", "rank": 19, "time": 0.75, "location": {"lat": 26.091557030418777, "lng": 119.33696304538368}, "feature": {"sight_features": "", "sight_content": ""}}, {"title": "纸箱王创意园区(东山路店)", "address": "台中市北屯区东山路二段二巷二号", "image": "", "rank": 20, "time": 2, "location": {"lat": 49.59462222100006, "lng": 117.47174086587414}, "feature": {"sight_features": "", "sight_content": ""}}, {"title": "勤美术馆", "address": "台中市西区馆前路71号", "image": "", "rank": 21, "time": 3.0, "location": {"lat": 26.091557030418777, "lng": 119.33696304538368}, "feature": {"sight_features": "", "sight_content": ""}}, {"title": "秋红谷广场", "address": "台中市西屯区朝富路30号", "image": "", "rank": 22, "time": 1.0, "location": {"lat": 23.444031191950526, "lng": 113.33592033767756}, "feature": {"sight_features": "", "sight_content": ""}}, {"title": "梧栖渔港", "address": "台中市清水区北堤路30号", "image": "", "rank": 23, "time": 1.0, "location": {"lat": 22.949820801621254, "lng": 115.64877890972089}, "feature": {"sight_features": "", "sight_content": ""}}, {"title": "大坑风景区", "address": "台湾台中市北屯区东山路一段383巷", "image": "", "rank": 24, "time": 3.5, "location": {"lat": 24.191358311725924, "lng": 120.76768576142861}, "feature": {"sight_features": "", "sight_content": ""}}, {"title": "台中文化创意产业园区", "address": "台中市南区复兴路三段362号", "image": "", "rank": 25, "time": 2.0, "location": {"lat": 38.0685769127503, "lng": 114.62582726972457}, "feature": {"sight_features": "", "sight_content": ""}}, {"title": "新社花海", "address": "台中市新社区协兴街与兴义街口", "image": "", "rank": 26, "time": 1.5, "location": {"lat": 25.09811331029694, "lng": 104.9024609483044}, "feature": {"sight_features": "", "sight_content": ""}}, {"title": "台中20号仓库", "address": "台中市中区复兴路4段37巷6-1号", "image": "", "rank": 27, "time": 1.5, "location": {"lat": 38.0685769127503, "lng": 114.62582726972457}, "feature": {"sight_features": "", "sight_content": ""}}, {"title": "福寿山农场", "address": "台中市和平区梨山里福寿路29号", "image": "", "rank": 28, "time": 2, "location": {"lat": 39.12339025327971, "lng": 117.22146699490091}, "feature": {"sight_features": "", "sight_content": ""}}, {"title": "丽宝乐园", "address": "台中市后里区福容路8号（中山高后里外埔交流道）", "image": "", "rank": 29, "time": 7.5, "location": {"lat": 38.92451111549568, "lng": 121.65154739366945}, "feature": {"sight_features": "特色1 台湾有名的主题乐园，一次玩翻水、陆多重主题游乐。 特色2 搭乘全台大规模的摩天轮「天空之梦」，日夜绝美风光尽收眼底", "sight_content": "景点介绍：\n【丽宝乐园】\n“丽宝乐园”原名“月眉育乐世界”，园区分为“马拉湾”与“探索乐园”等两大主题乐园。“探索乐园”主打老少咸宜的缤纷梦幻庆典王国，“马拉湾”则是水上游乐王国，是台湾中部有名的游乐园。\n位于中部的丽宝乐园，包含有马拉湾水上乐园、探索乐园、福容大饭店等，将来会再增加购物中心，让整体园区更加多元化，并成为台中后里一带的生活育乐中心。结合休闲、购物、美食与住宿，目标在打造丽宝乐园成为台湾第一个主题娱乐式定点度假中心，提供民众一个前所未有的台湾旅游休闲胜地。\n\n\n\n\n▼一次畅玩「探索乐园」与「马拉湾」两大主题乐园\n\n\n▼千万不能错过全球独特的断轨云霄飞车「抢救地心」！享受直冲天际与地表的极速快感\n\n\n▼热浪来袭不用怕！前往夏季限定的马拉湾，尽情玩水、清凉一夏\n\n\n\n\n▼搭乘全台性摩天轮「天空之梦」，欣赏山景、眺望海景，美不胜收\n\n\n园区地图参考：\n\n\n\n▼探索乐园\n\n\n\n\n▼马拉湾园区乐园"}}, {"title": "大雪山森林游乐区", "address": "台中市和平区", "image": "", "rank": 30, "time": 3.0, "location": {"lat": 39.12339025327971, "lng": 117.22146699490091}, "feature": {"sight_features": "", "sight_content": ""}}, {"title": "孙立人将军纪念馆", "address": "台中市西区向上路一段18号", "image": "", "rank": 31, "time": 1.0, "location": {"lat": 22.878266678850437, "lng": 113.98150046133469}, "feature": {"sight_features": "", "sight_content": ""}}, {"title": "台中都会公园", "address": "台中西屯区都会园路1215弄140号", "image": "", "rank": 32, "time": 1.5, "location": {"lat": 24.18789529324277, "lng": 120.63391191321587}, "feature": {"sight_features": "", "sight_content": ""}}, {"title": "八仙山森林游乐区", "address": "台中市和平区东关路一段200号之8号", "image": "", "rank": 33, "time": 3.5, "location": {"lat": 39.12339025327971, "lng": 117.22146699490091}, "feature": {"sight_features": "", "sight_content": ""}}, {"title": "后里马场", "address": "台中市后里区寺山路41号", "image": "", "rank": 34, "time": 3.0, "location": {"lat": 30.172037998961507, "lng": 121.24470249260611}, "feature": {"sight_features": "", "sight_content": ""}}, {"title": "里冷部落", "address": "台中市和平区东关路一段里冷", "image": "", "rank": 35, "time": null, "location": {"lat": 39.12339025327971, "lng": 117.22146699490091}, "feature": {"sight_features": "", "sight_content": ""}}, {"title": "中横公路", "address": "台中市和平区中部横贯公路", "image": "", "rank": 36, "time": 3.0, "location": {"lat": 39.12339025327971, "lng": 117.22146699490091}, "feature": {"sight_features": "", "sight_content": ""}}, {"title": "东势林场", "address": "台中市东势区势林街6之1号", "image": "", "rank": 37, "time": 2.0, "location": {"lat": 26.091557030418777, "lng": 119.33696304538368}, "feature": {"sight_features": "", "sight_content": ""}}, {"title": "精明一街", "address": "台中市西屯区精明一街", "image": "", "rank": 38, "time": 1.5, "location": {"lat": 26.091557030418777, "lng": 119.33696304538368}, "feature": {"sight_features": "", "sight_content": ""}}, {"title": "参山国家风景区", "address": "台湾台中市雾峰区中正路738号", "image": "", "rank": 39, "time": 6.5, "location": {"lat": 24.049299491996166, "lng": 120.73725815957746}, "feature": {"sight_features": "", "sight_content": ""}}, {"title": "逢甲夜市", "address": "台湾台中市西屯区文华路", "image": "", "rank": 40, "time": 2.0, "location": {"lat": 24.18789529324277, "lng": 120.63391191321587}, "feature": {"sight_features": "", "sight_content": ""}}, {"title": "台中中华路夜市", "address": "400台湾台中市中區公園路", "image": "", "rank": 41, "time": 2.0, "location": {"lat": 24.086956718804895, "lng": 121.97387097871568}, "feature": {"sight_features": "", "sight_content": ""}}, {"title": "东海艺术街", "address": "台中市龙井区国际街", "image": "", "rank": 42, "time": 1.5, "location": {"lat": 26.091557030418777, "lng": 119.33696304538368}, "feature": {"sight_features": "", "sight_content": ""}}, {"title": "台中歌剧院", "address": "407台湾台中市西屯区惠来路二段101号", "image": "", "rank": 43, "time": 1.5, "location": {"lat": 24.18789529324277, "lng": 120.63391191321587}, "feature": {"sight_features": "", "sight_content": ""}}, {"title": "台中民俗公园", "address": "台中市北屯区旅顺路二段73号", "image": "", "rank": 44, "time": 1.5, "location": {"lat": 31.255760277485766, "lng": 121.50165981842882}, "feature": {"sight_features": "", "sight_content": ""}}, {"title": "台中孔庙", "address": "台中市北区双十路二段30号", "image": "", "rank": 45, "time": 1.5, "location": {"lat": 30.68801355915252, "lng": 111.27007254559588}, "feature": {"sight_features": "", "sight_content": ""}}, {"title": "台中经国绿园道", "address": "台中市西区公益路", "image": "", "rank": 46, "time": 1.5, "location": {"lat": 26.091557030418777, "lng": 119.33696304538368}, "feature": {"sight_features": "", "sight_content": ""}}, {"title": "宝觉寺", "address": "台中市北区健行路140号", "image": "", "rank": 47, "time": 2, "location": {"lat": 39.0628691617717, "lng": 117.30633951122967}, "feature": {"sight_features": "", "sight_content": ""}}, {"title": "大台中龙富观光夜市", "address": "台中市南屯区龙富17路与龙富18路口（五权西路与向上路的M旁边）", "image": "", "rank": 48, "time": 2.5, "location": {"lat": 22.471393315687582, "lng": 102.18045299022506}, "feature": {"sight_features": "", "sight_content": ""}}, {"title": "台中刑务所演武场", "address": "台中市西区台中市西区林森路33号", "image": "", "rank": 49, "time": 1.5, "location": {"lat": 26.091557030418777, "lng": 119.33696304538368}, "feature": {"sight_features": "", "sight_content": ""}}, {"title": "磺溪书院", "address": "台中市大肚区文昌路60号 ‎", "image": "", "rank": 50, "time": 1.5, "location": {"lat": 31.23120280946686, "lng": 121.49889937680005}, "feature": {"sight_features": "", "sight_content": ""}}, {"title": "梧栖假日鱼市", "address": "台中清水区北堤路30号", "image": "", "rank": 51, "time": 2, "location": {"lat": 22.949820801621254, "lng": 115.64877890972089}, "feature": {"sight_features": "", "sight_content": ""}}, {"title": "大肚溪口野鸟保护区", "address": "台中市龙井区三港路", "image": "", "rank": 52, "time": 2.0, "location": {"lat": 26.091557030418777, "lng": 119.33696304538368}, "feature": {"sight_features": "", "sight_content": ""}}, {"title": "台中港", "address": "台中县清水镇", "image": "", "rank": 53, "time": null, "location": {"lat": 26.091557030418777, "lng": 119.33696304538368}, "feature": {"sight_features": "", "sight_content": ""}}, {"title": "雪山群峰", "address": "台中县和平乡中央山脉以西", "image": "", "rank": 54, "time": 2, "location": {"lat": 26.091557030418777, "lng": 119.33696304538368}, "feature": {"sight_features": "", "sight_content": ""}}, {"title": "忠烈祠", "address": "台中市力行路264号", "image": "", "rank": 55, "time": 2.0, "location": {"lat": 32.481776956000715, "lng": 119.95123012056744}, "feature": {"sight_features": "", "sight_content": ""}}, {"title": "私立大度山花园公墓", "address": "台中市大雅区忠义里", "image": "", "rank": 56, "time": 1.5, "location": {"lat": 26.091557030418777, "lng": 119.33696304538368}, "feature": {"sight_features": "", "sight_content": ""}}, {"title": "绿光计划范特喜文创聚落", "address": "台中市中兴一街2-26号", "image": "", "rank": 57, "time": 2.5, "location": {"lat": 25.110918847022464, "lng": 104.92643605312018}, "feature": {"sight_features": "", "sight_content": ""}}, {"title": "谷关风景区", "address": "台中市和平区中部横贯公路西南", "image": "", "rank": 58, "time": 2, "location": {"lat": 39.12339025327971, "lng": 117.22146699490091}, "feature": {"sight_features": "", "sight_content": ""}}, {"title": "美术园道", "address": "台中美术馆前，五全西四街与五权西三街间", "image": "", "rank": 59, "time": 1.5, "location": {"lat": 41.86177809286922, "lng": 123.90326567831437}, "feature": {"sight_features": "", "sight_content": ""}}, {"title": "台湾气球博物馆", "address": "台中市神冈区大丰路5段505号", "image": "", "rank": 60, "time": 2, "location": {"lat": 22.85356744485585, "lng": 108.24173564680002}, "feature": {"sight_features": "", "sight_content": ""}}]}