{"cityName": "郯城", "days": 2, "cityImage": "", "spots": [{"title": "鲁地天沐温泉度假区", "address": "临沂市郯城县新村一村", "image": "", "rank": 1, "time": 2, "location": {"lat": 34.61922593247125, "lng": 118.37358710977321}, "feature": {"sight_features": "", "sight_content": "鲁地天沐（郯城）温泉度假区位于省级古银杏森林公园，有着“天下银杏第一村”之美誉的郯城县新村银杏开发区。\n\n\n南衔江淮，北依齐鲁，交通便利。地处沂蒙山麓，沂河水断裂带南延部分，地热资源丰富。泉水恒温55度，蕴含对人体有益的30多种微量元素和矿物质，水质偏硅酸氯化钠类，不止适宜于美容养颜，更对医疗保健有着特殊功效。\n度假区占地8.5万平方米，43个温泉泡池、由55间银杏主题客房、30间银杏林亲子客房、7栋别墅汤苑、青年旅社、特色汤街及餐饮宴会楼、会议室组成。整体采用盛唐文化主体建筑风格，结合当地源远流长的银杏文化，整体布局保持天然风貌，让人尽享怡人清新的乡土田园格调。\n\n\n鲁地天沐（郯城）温泉度假区作为山东省地矿局对郯城的精准扶贫样板工程，势将打造成为郯城旅游业发展的城市新名片。"}}, {"title": "美栗世界", "address": "临沂市郯城县美栗世界", "image": "", "rank": 2, "time": 2, "location": {"lat": 34.61922593247125, "lng": 118.37358710977321}, "feature": {"sight_features": "", "sight_content": ""}}, {"title": "马陵山寿寝园", "address": "232省道附近", "image": "", "rank": 3, "time": 2, "location": {"lat": 38.377274537943066, "lng": 114.45027902716741}, "feature": {"sight_features": "", "sight_content": ""}}, {"title": "望海楼四季慢城", "address": "临沂市郯城县红花镇山外岩村", "image": "", "rank": 4, "time": 2, "location": {"lat": 34.47360644800178, "lng": 118.40017742986878}, "feature": {"sight_features": "", "sight_content": ""}}, {"title": "郯城县方通家庭农场", "address": "高峰头镇后高西村", "image": "", "rank": 5, "time": 2, "location": {"lat": 34.54584520698729, "lng": 118.38729201795564}, "feature": {"sight_features": "", "sight_content": ""}}, {"title": "xspace真人密室逃脱", "address": "人民广场西侧巷子向内100米(老大唐学府內)郯子公园南门", "image": "", "rank": 6, "time": 2, "location": {"lat": 34.62498526460465, "lng": 118.35677248261027}, "feature": {"sight_features": "", "sight_content": ""}}, {"title": "蒲汪农场农副产品市场(西北门)", "address": "205国道东50米", "image": "", "rank": 7, "time": 2, "location": {"lat": 23.57151036371276, "lng": 114.61811631795476}, "feature": {"sight_features": "", "sight_content": ""}}, {"title": "山东郯城郯南农场鲜切花基地", "address": "205国道附近", "image": "", "rank": 8, "time": 2, "location": {"lat": 37.34066223973322, "lng": 118.07089300716441}, "feature": {"sight_features": "", "sight_content": ""}}, {"title": "信缘银杏苗木基地", "address": "刘管线西50米", "image": "", "rank": 9, "time": 2, "location": {"lat": 34.62390061117303, "lng": 118.15164220598201}, "feature": {"sight_features": "", "sight_content": ""}}, {"title": "郯城影剧院", "address": "宇大步行街", "image": "", "rank": 10, "time": 2, "location": {"lat": 34.62156854259799, "lng": 118.3506131547624}, "feature": {"sight_features": "", "sight_content": ""}}, {"title": "型男基地", "address": "郯城街道御道桥5-6号", "image": "", "rank": 11, "time": 2, "location": {"lat": 30.27917774704361, "lng": 120.24024422051406}, "feature": {"sight_features": "", "sight_content": ""}}, {"title": "采莲湖垂钓俱乐部", "address": "田站村", "image": "", "rank": 12, "time": 2, "location": {"lat": 34.631391942981985, "lng": 118.27555697519904}, "feature": {"sight_features": "", "sight_content": ""}}, {"title": "草莓基地", "address": "310国道", "image": "", "rank": 13, "time": 2, "location": {"lat": 34.341272660809565, "lng": 117.25163434058804}, "feature": {"sight_features": "", "sight_content": ""}}, {"title": "齐魏马陵战址", "address": "山东省郯城县泉源乡清泉寺林场 276114", "image": "", "rank": 14, "time": 2, "location": {"lat": 34.71316742403253, "lng": 118.48302360162818}, "feature": {"sight_features": "", "sight_content": ""}}, {"title": "山东郯城马陵山省级地质公园", "address": "临沂市郯城县310国道附近", "image": "", "rank": 15, "time": 2, "location": {"lat": 34.53384950572079, "lng": 118.22996341975195}, "feature": {"sight_features": "", "sight_content": ""}}, {"title": "清泉山庄", "address": "山东省临沂市郯城县文化路1号", "image": "", "rank": 16, "time": 2, "location": {"lat": 34.63223036743186, "lng": 118.36241524346782}, "feature": {"sight_features": "", "sight_content": ""}}, {"title": "三阳广场", "address": "刘瓦线西100米", "image": "", "rank": 17, "time": 2, "location": {"lat": 34.52104778557696, "lng": 118.27845906792875}, "feature": {"sight_features": "", "sight_content": ""}}, {"title": "郯城滨河公园游乐场", "address": "山东省临沂市郯城县", "image": "", "rank": 18, "time": 2, "location": {"lat": 34.61922593247125, "lng": 118.37358710977321}, "feature": {"sight_features": "", "sight_content": ""}}, {"title": "板栗游乐园", "address": "山东省临沂市郯城县白溪汪村", "image": "", "rank": 19, "time": 2, "location": {"lat": 34.58438511107941, "lng": 118.34069946323905}, "feature": {"sight_features": "", "sight_content": ""}}, {"title": "儿童乐园", "address": "山东省临沂市郯城县文化路", "image": "", "rank": 20, "time": 2, "location": {"lat": 34.630975575240065, "lng": 118.36883712894844}, "feature": {"sight_features": "", "sight_content": ""}}, {"title": "中华银杏花朝园", "address": "临沂市郯城县重坊镇中华银杏园", "image": "", "rank": 21, "time": 2, "location": {"lat": 34.606425794678074, "lng": 118.15241204032948}, "feature": {"sight_features": "", "sight_content": ""}}, {"title": "哈贝熊儿童乐园", "address": "郯东路团结路交汇家和广场1楼", "image": "", "rank": 22, "time": 2, "location": {"lat": 34.619610088326034, "lng": 118.35768264215974}, "feature": {"sight_features": "", "sight_content": ""}}, {"title": "郯城大捷遗址", "address": "山东省临沂市郯城县郯城街道郯东路郯国故城(郯城汽车站南)", "image": "", "rank": 23, "time": 2, "location": {"lat": 34.635653640536475, "lng": 118.36331675592848}, "feature": {"sight_features": "", "sight_content": ""}}, {"title": "西关水族馆", "address": "山东省临沂市郯城县昌盛路", "image": "", "rank": 24, "time": 2, "location": {"lat": 34.62393576152709, "lng": 118.33759630638025}, "feature": {"sight_features": "", "sight_content": ""}}, {"title": "基督教恩惠教会", "address": "人民路55号附近", "image": "", "rank": 25, "time": 2, "location": {"lat": 37.761108307004704, "lng": 114.53350205964756}, "feature": {"sight_features": "", "sight_content": ""}}, {"title": "慈云禅寺", "address": "205国道", "image": "", "rank": 26, "time": 2, "location": {"lat": 37.34066223973322, "lng": 118.07089300716441}, "feature": {"sight_features": "", "sight_content": ""}}, {"title": "郯城县滨河人民公园", "address": "山东省临沂市郯城县新二路", "image": "", "rank": 27, "time": 2, "location": {"lat": 34.62635427855194, "lng": 118.39445450602412}, "feature": {"sight_features": "", "sight_content": ""}}, {"title": "宝宝多肉植物园", "address": "山东省临沂市郯城县205国道东500米", "image": "", "rank": 28, "time": 2, "location": {"lat": 34.74321392462362, "lng": 118.37409896425281}, "feature": {"sight_features": "", "sight_content": ""}}, {"title": "清泉寺", "address": "文化路1号", "image": "", "rank": 29, "time": 1.5, "location": {"lat": 36.50688451289688, "lng": 113.71711041056393}, "feature": {"sight_features": "", "sight_content": ""}}, {"title": "开发区广场", "address": "临沂市郯城县", "image": "", "rank": 30, "time": 2, "location": {"lat": 34.61922593247125, "lng": 118.37358710977321}, "feature": {"sight_features": "", "sight_content": ""}}, {"title": "马头清真寺", "address": "山东省临沂市郯城县马头镇第三中学东南350米", "image": "", "rank": 31, "time": 2, "location": {"lat": 34.65801977897013, "lng": 118.27029893523547}, "feature": {"sight_features": "", "sight_content": ""}}, {"title": "李庄镇中心教堂", "address": "郯城县工商行政管理局李庄工商所附近", "image": "", "rank": 32, "time": 2, "location": {"lat": 34.89131786750855, "lng": 118.41988379948535}, "feature": {"sight_features": "", "sight_content": ""}}, {"title": "白马河生态园", "address": "李庄镇大官庄村", "image": "", "rank": 33, "time": 2, "location": {"lat": 34.8437160417261, "lng": 118.4100226390716}, "feature": {"sight_features": "", "sight_content": ""}}, {"title": "郯城展览中心", "address": "顺亿路与银利路交汇处", "image": "", "rank": 34, "time": 2.5, "location": {"lat": 34.63722115125924, "lng": 118.31317954066952}, "feature": {"sight_features": "", "sight_content": ""}}, {"title": "郯城县图书馆", "address": "团结路60-6号", "image": "", "rank": 35, "time": 2, "location": {"lat": 38.06085198668046, "lng": 117.1179696238743}, "feature": {"sight_features": "", "sight_content": ""}}, {"title": "丰和国际马术俱乐部", "address": "庙山镇丰和有机农场(近国道205)", "image": "", "rank": 36, "time": 2, "location": {"lat": 34.75142852115431, "lng": 118.35382193078982}, "feature": {"sight_features": "", "sight_content": ""}}, {"title": "郯城3d动漫艺术展", "address": "团结路与郯东路交汇处(银都超市南200米)", "image": "", "rank": 37, "time": 2, "location": {"lat": 38.17987575865822, "lng": 115.1926474590919}, "feature": {"sight_features": "", "sight_content": ""}}, {"title": "新村银杏产业开发区", "address": "新村银杏产业开发区99号", "image": "", "rank": 38, "time": 2, "location": {"lat": 24.983257957612256, "lng": 105.88564974856263}, "feature": {"sight_features": "", "sight_content": ""}}, {"title": "银杏园林绿化", "address": "沂河路附近", "image": "", "rank": 39, "time": 2, "location": {"lat": 48.36883196758675, "lng": 134.2979835171273}, "feature": {"sight_features": "", "sight_content": ""}}, {"title": "文体中心图书馆", "address": "人民路2号", "image": "", "rank": 40, "time": 2, "location": {"lat": 46.530543572985266, "lng": 125.11650020044476}, "feature": {"sight_features": "", "sight_content": ""}}, {"title": "小塘采摘园", "address": "小塘村", "image": "", "rank": 41, "time": 2, "location": {"lat": 40.08086030029604, "lng": 116.9591105412512}, "feature": {"sight_features": "", "sight_content": ""}}, {"title": "渔港湾钓鱼俱乐部", "address": "花园乡南涝沟南村桥西", "image": "", "rank": 42, "time": 2, "location": {"lat": 38.010381080199444, "lng": 114.46741977426439}, "feature": {"sight_features": "", "sight_content": ""}}, {"title": "郯城县广播电视台蓝天少儿艺术团", "address": "郯东路105", "image": "", "rank": 43, "time": 2, "location": {"lat": 34.62664960940417, "lng": 118.36031985603525}, "feature": {"sight_features": "", "sight_content": ""}}, {"title": "新村古梅园", "address": "山东省郯城县新村乡政府驻地", "image": "", "rank": 44, "time": 2, "location": {"lat": 34.58681438325142, "lng": 118.15365394051058}, "feature": {"sight_features": "", "sight_content": ""}}, {"title": "豹公墩", "address": "山东省郯城县县城北约3公里处,205国道西侧", "image": "", "rank": 45, "time": 2, "location": {"lat": 34.74321392462362, "lng": 118.3696074367029}, "feature": {"sight_features": "", "sight_content": ""}}, {"title": "东马乐园", "address": "山东省郯城县城南郯西路与南外环路交界处", "image": "", "rank": 46, "time": 2, "location": {"lat": 34.6012423269736, "lng": 118.35424524468512}, "feature": {"sight_features": "", "sight_content": ""}}, {"title": "宇大步行街", "address": "山东省郯城县人民路", "image": "", "rank": 47, "time": 2, "location": {"lat": 34.62044853081298, "lng": 118.36632576857319}, "feature": {"sight_features": "", "sight_content": ""}}, {"title": "郯城县金马商业街", "address": "山东省郯城县马头镇南园街545号", "image": "", "rank": 48, "time": 2, "location": {"lat": 34.65784484989853, "lng": 118.2722004207288}, "feature": {"sight_features": "", "sight_content": ""}}, {"title": "郯子公园", "address": "郯东路", "image": "", "rank": 49, "time": 2, "location": {"lat": 34.61732200886638, "lng": 118.35761438621218}, "feature": {"sight_features": "", "sight_content": ""}}]}