{"cityName": "汤原", "days": 2, "cityImage": "", "spots": [{"title": "丽水温泉", "address": "佳木斯市汤原县哈肇路88号", "image": "", "rank": 1, "time": 0.7, "location": {"lat": 46.73548385293962, "lng": 129.8949644442599}, "feature": {"sight_features": "特色1 拥有药浴温泉、温泉游泳池、四味养生池", "sight_content": "汤原县丽水温泉特设了各种功效的泡浴池，在泉水中加入中草药、香料等材料，形成具有更好养生功效的药浴温泉，有针对性的提高了保健和调养功能。温泉游泳池：水深1.20～1.65米，水温长年保持在36～39摄 氏度。四味养生池:通过不同滋养功能的中药，满足人体的各种需求。首乌可补肾填精，乌须发；防风可祛风除湿，宜痹止痛；红花可活血通络，化淤止痛；菊花可清热解毒，除暑祛烦。\n在泡温泉时，温泉中的矿物质会透过身体皮肤促进血液循环、加速新陈代谢。温泉本身的矿物质透过表皮渗入身体皮肤时，其化学物质可刺激自律神经、内分泌及免疫系统。因此，泡温泉既能驱寒、健身，还有利于一些疾病的治疗。"}}, {"title": "大亮子河国家森林公园", "address": "佳木斯市汤原县大亮子河红松母树林场境内", "image": "", "rank": 2, "time": 2, "location": {"lat": 46.73532672046088, "lng": 129.91164504154594}, "feature": {"sight_features": "", "sight_content": ""}}, {"title": "丁玲公园", "address": "八一街与育才路交叉口南50米", "image": "", "rank": 3, "time": 2, "location": {"lat": 39.14848321411881, "lng": 117.23671479400014}, "feature": {"sight_features": "", "sight_content": ""}}, {"title": "桃温万户府古城", "address": "黑龙江省汤原县香兰镇 154731", "image": "", "rank": 4, "time": 1.0, "location": {"lat": 46.65394430766465, "lng": 129.76677263050894}, "feature": {"sight_features": "", "sight_content": ""}}, {"title": "海鲜鱻啤酒广场", "address": "建设街与振兴路交口北180米", "image": "", "rank": 5, "time": 2, "location": {"lat": 36.81876604167298, "lng": 115.17549672912578}, "feature": {"sight_features": "", "sight_content": ""}}, {"title": "东北反日联合军政扩大会议遗址", "address": "大亮子河国家森林公园", "image": "", "rank": 6, "time": 2, "location": {"lat": 47.023530932635246, "lng": 129.7121797139201}, "feature": {"sight_features": "", "sight_content": ""}}, {"title": "通天红度假村", "address": "汤亮路西50米", "image": "", "rank": 7, "time": 2, "location": {"lat": 47.008166452547755, "lng": 129.62422313511394}, "feature": {"sight_features": "", "sight_content": ""}}, {"title": "秀水佳园", "address": "大亮子河森林公园", "image": "", "rank": 8, "time": 2, "location": {"lat": 47.00822057694545, "lng": 129.7423159800334}, "feature": {"sight_features": "", "sight_content": ""}}, {"title": "通天红啤酒广场", "address": "黑龙江省佳木斯市汤原县汤原镇建设街文秀小区", "image": "", "rank": 9, "time": 2, "location": {"lat": 46.73691360277767, "lng": 129.90774823985385}, "feature": {"sight_features": "", "sight_content": ""}}, {"title": "东湖旅游度假村", "address": "中华路附近", "image": "", "rank": 10, "time": 2, "location": {"lat": 37.970712769913675, "lng": 114.74259828862775}, "feature": {"sight_features": "", "sight_content": ""}}, {"title": "葫芦岛度假村", "address": "亮汤公路", "image": "", "rank": 11, "time": 2, "location": {"lat": 46.86369910680969, "lng": 129.65827856533673}, "feature": {"sight_features": "", "sight_content": ""}}, {"title": "鹤林公园", "address": "黑龙江省佳木斯市汤原县", "image": "", "rank": 12, "time": 2, "location": {"lat": 46.73532672046088, "lng": 129.91164504154594}, "feature": {"sight_features": "", "sight_content": ""}}, {"title": "绿野仙舟度假村", "address": "亮汤公路附近", "image": "", "rank": 13, "time": 2, "location": {"lat": 46.86369910680969, "lng": 129.65827856533673}, "feature": {"sight_features": "", "sight_content": ""}}, {"title": "汤原县博物馆", "address": "哈萝公路", "image": "", "rank": 14, "time": 2, "location": {"lat": 46.075427990665915, "lng": 126.78992353158914}, "feature": {"sight_features": "", "sight_content": ""}}, {"title": "大亮子河漂流", "address": "竹青村旁", "image": "", "rank": 15, "time": 2, "location": {"lat": 46.91869417648213, "lng": 129.60825258904535}, "feature": {"sight_features": "", "sight_content": ""}}, {"title": "密室桌游美食吧", "address": "阳光花园西门启慧幼儿园斜对过", "image": "", "rank": 16, "time": 2, "location": {"lat": 23.74321041606368, "lng": 114.69058953588164}, "feature": {"sight_features": "", "sight_content": ""}}, {"title": "育园农家乐", "address": "团结路与建设街交叉口西150米", "image": "", "rank": 17, "time": 2, "location": {"lat": 43.60250043322764, "lng": 121.3098291039945}, "feature": {"sight_features": "", "sight_content": ""}}, {"title": "汤原县县政府-农业开发办", "address": "汤原镇县政府1楼", "image": "", "rank": 18, "time": 2, "location": {"lat": 24.837393575223274, "lng": 110.83461631377992}, "feature": {"sight_features": "", "sight_content": ""}}, {"title": "永发乡油房", "address": "佳木斯市-汤原县", "image": "", "rank": 19, "time": 2, "location": {"lat": 46.73532672046088, "lng": 129.91164504154594}, "feature": {"sight_features": "", "sight_content": ""}}]}