{"cityName": "唐县", "days": 2, "cityImage": "", "spots": [{"title": "潭瀑峡（大石峪）", "address": "保定唐县倒马关乡大石峪村", "image": "", "rank": 1, "time": 2, "location": {"lat": 39.1000749078048, "lng": 114.62629819201527}, "feature": {"sight_features": "特色1 国家AAA级景区，秀美怡人的自然风光，又有传奇色彩的历史故事。 特色2 一路风景，一路溪流，一路水潭，一路飞瀑。", "sight_content": "﻿潭瀑峡景区位于唐县倒马关乡境内，距县城85公里，毗邻保涞公路。2009年被评定为国家AAA级景区，2010年被批准为国家森林公园。从保涞路边的大石峪村口进入，一路溪水奔流，潭、瀑随处可见，进入景区，我们已不知不觉的被小溪牵住了鼻子。在小溪的引导下，我们蜿蜒前行；哗哗涌动的急流，水花飞溅的潭瀑，经不住溪水媚笑百态的诱惑，人们不时逗留在潭水旁、小溪边；一路溪流，一路潭瀑，撒下一路欢笑。大约走过近千米，有一帘飞瀑从崖顶泻下，恰似一条乳白色纱带飘落在山崖，且细长而轻柔；瀑水从崖顶灌木中汩汩泻出又柔柔地垂下，挂在悬崖绝壁显得是那般温柔，这叫天河瀑。再往上走二百米，就到了天河湖；湖如同一弯大大的明月，静静地躺在高山的环抱中。在三面悬崖峭壁的掩映下，湖水清澄碧绿，山色倒映，映衬着周围高山的倩姿佳容和蓝天白云以及游客的张张笑脸。那般安详，那般明净，让人怦然心动。这条自下而上由天河溪贯穿的大峡谷，长约5公里。既有秀美怡人的自然风光，又有传奇色彩的历史故事。\n顺着天河湖的水源往南走2000米是大石湖瀑布，这是一个双瀑，第一道瀑布宽4米，高20多米，巨大的下泻力冲击出一个大湖，湖底是一块完整的岩石，湖水清澈碧透，鱼虾、蝌蚪清晰可见。大石湖由此得名。紧接着瀑水从一个10米多高的崖岸跌落又形成一道瀑布，因此这里又被称作石塘双瀑。潭瀑峡的谷美，就因谷谷有水；潭瀑峡的水美，就因处处是潭。一路风景、一路溪流、一路水潭，一路飞瀑。天河湖往右依次是葫芦潭、金鸡潭、玉龙潭、石门、对语石处处都是一副醉人的风景，处处都有一个动人的故事。再往前就到了龙堂瀑布，瀑布上面的山石自然断开了一个10米多宽的裂缝，裂缝中间架起一方巨石，传说东海龙王的小龙女到潭瀑峡游玩，因迷恋这里景色而流连忘返。因受山外浪子调戏，被一叫石头的小伙相救，两人一见钟情，相亲相爱不愿分离。为躲避父王干涉，小龙女施法术拘来这块大石头在瀑布上搭起石堂。两人藏在里面躲过老父龙王一劫。后躲进深山老林隐姓埋名，白头偕老。石堂因此被称作龙堂，瀑布而名龙堂瀑布。瀑布高26米 , 丰水期瀑流如注 , 气势磅礴。枯水期泼珠溅玉, 如纤纤女子阿娜多姿。那石堂正像一条张开大嘴的巨龙伏在那里，瀑布从龙嘴里喷泻而出。瀑布两侧是陡不可攀的悬崖峭壁，景象十分壮观。龙堂瀑布往西200多米就到段庄子，这里有一棵1500年高龄的枫树，整个树身三个人张开臂膀才能合围，唐县政府将其命名为枫树王。如今整棵大树依然枝繁叶茂，充满生机。"}}, {"title": "白求恩柯棣华纪念馆", "address": "保定市唐县城向阳北大街", "image": "", "rank": 2, "time": 0.75, "location": {"lat": 38.90388184320964, "lng": 115.46623564931262}, "feature": {"sight_features": "", "sight_content": ""}}, {"title": "华峪山庄", "address": "保定市唐县大洋乡大长峪村", "image": "", "rank": 3, "time": 2, "location": {"lat": 38.803627811436186, "lng": 114.83625796208221}, "feature": {"sight_features": "", "sight_content": ""}}, {"title": "青虚山", "address": "保定市唐县齐家佐乡", "image": "", "rank": 4, "time": 3.5, "location": {"lat": 38.95747539992118, "lng": 114.84152955567932}, "feature": {"sight_features": "", "sight_content": ""}}, {"title": "倒马关", "address": "保定市唐县倒马关乡倒马关村", "image": "", "rank": 5, "time": 0.25, "location": {"lat": 39.1000749078048, "lng": 114.62629819201527}, "feature": {"sight_features": "", "sight_content": ""}}, {"title": "大茂山", "address": "保定市唐县县城西北70公里", "image": "", "rank": 6, "time": 2.5, "location": {"lat": 38.7540199251248, "lng": 114.98944711459758}, "feature": {"sight_features": "", "sight_content": ""}}, {"title": "西胜沟唐河漂流", "address": "保定市唐县齐家佐乡西胜沟村", "image": "", "rank": 7, "time": 2, "location": {"lat": 38.995222170741854, "lng": 114.872244175134}, "feature": {"sight_features": "", "sight_content": ""}}, {"title": "香山生态观光园", "address": "保定市唐县北店头乡东杨庄村", "image": "", "rank": 8, "time": 2, "location": {"lat": 38.82304730682506, "lng": 114.95594878560483}, "feature": {"sight_features": "", "sight_content": ""}}, {"title": "老字号羊杂城(唐县店)", "address": "白求恩广场往西50米路北", "image": "", "rank": 9, "time": 2, "location": {"lat": 28.651321438726058, "lng": 115.80129537508779}, "feature": {"sight_features": "", "sight_content": ""}}, {"title": "红仙农家乐", "address": "祥和路", "image": "", "rank": 10, "time": 2, "location": {"lat": 38.00303720038654, "lng": 114.60828231569047}, "feature": {"sight_features": "", "sight_content": ""}}, {"title": "晋察冀烈士陵园", "address": "241省道", "image": "", "rank": 11, "time": 2, "location": {"lat": 38.605845198015224, "lng": 114.37948707331753}, "feature": {"sight_features": "", "sight_content": ""}}, {"title": "老康垂钓园", "address": "232省道", "image": "", "rank": 12, "time": 2, "location": {"lat": 38.377274537943066, "lng": 114.45027902716741}, "feature": {"sight_features": "", "sight_content": ""}}, {"title": "垂钓园", "address": "中山南大街与仁厚东路交叉口东南50米", "image": "", "rank": 13, "time": 2, "location": {"lat": 38.74138107428531, "lng": 114.9998887806929}, "feature": {"sight_features": "", "sight_content": ""}}, {"title": "庆都山骑马场", "address": "京昆高速公路庆都山骑马场", "image": "", "rank": 14, "time": 2, "location": {"lat": 38.959853947291386, "lng": 115.25393891320722}, "feature": {"sight_features": "", "sight_content": ""}}, {"title": "福生肉铺", "address": "332省道附近", "image": "", "rank": 15, "time": 2, "location": {"lat": 38.92440220517007, "lng": 115.4502308598381}, "feature": {"sight_features": "", "sight_content": ""}}, {"title": "鑫鑫游乐园", "address": "仁厚镇东环路", "image": "", "rank": 16, "time": 2, "location": {"lat": 38.75623419568295, "lng": 114.99173625215576}, "feature": {"sight_features": "", "sight_content": ""}}, {"title": "西城子遗址", "address": "232省道附近", "image": "", "rank": 17, "time": 2, "location": {"lat": 38.377274537943066, "lng": 114.45027902716741}, "feature": {"sight_features": "", "sight_content": ""}}, {"title": "福音堂", "address": "军白线附近", "image": "", "rank": 18, "time": null, "location": {"lat": 38.9271852895516, "lng": 114.82563184152667}, "feature": {"sight_features": "", "sight_content": ""}}, {"title": "葛公戏楼", "address": "阳光街", "image": "", "rank": 19, "time": 2, "location": {"lat": 36.75367976075422, "lng": 114.96716630828776}, "feature": {"sight_features": "", "sight_content": ""}}, {"title": "大石峪景区", "address": "河北省唐县唐县北部 072350", "image": "", "rank": 20, "time": 1.5, "location": {"lat": 38.7540199251248, "lng": 114.98944711459758}, "feature": {"sight_features": "", "sight_content": ""}}, {"title": "仁厚公园", "address": "保定市唐县", "image": "", "rank": 21, "time": 2, "location": {"lat": 38.7540199251248, "lng": 114.98944711459758}, "feature": {"sight_features": "", "sight_content": ""}}, {"title": "嘉贝爱儿童乐园", "address": "河北省保定市唐县唐尧东路", "image": "", "rank": 22, "time": 2, "location": {"lat": 38.74996224688982, "lng": 114.99777369252219}, "feature": {"sight_features": "", "sight_content": ""}}, {"title": "萌太极儿童乐园", "address": "河北省保定市唐县福泰百货3层", "image": "", "rank": 23, "time": 2, "location": {"lat": 38.7540199251248, "lng": 114.98944711459758}, "feature": {"sight_features": "", "sight_content": ""}}, {"title": "唐岩山生态园", "address": "河北省保定市唐县仁厚镇曲庄村北", "image": "", "rank": 24, "time": 2, "location": {"lat": 38.75623419568295, "lng": 114.99173625215576}, "feature": {"sight_features": "", "sight_content": ""}}, {"title": "富华钟鸣园", "address": "河北省保定市唐县白求恩柯棣华纪念馆北侧", "image": "", "rank": 25, "time": 2, "location": {"lat": 38.7765580698348, "lng": 114.99103891016465}, "feature": {"sight_features": "", "sight_content": ""}}, {"title": "都亭水上乐园", "address": "北都亭村东", "image": "", "rank": 26, "time": 2, "location": {"lat": 38.74217332241653, "lng": 114.9336791434359}, "feature": {"sight_features": "", "sight_content": ""}}, {"title": "儿童欢乐谷", "address": "滨河路29号附近", "image": "", "rank": 27, "time": 2, "location": {"lat": 39.93341779317898, "lng": 119.57836598347097}, "feature": {"sight_features": "", "sight_content": ""}}, {"title": "唐尧公园", "address": "河北省保定市唐县迎宾大街与国防东路交叉口", "image": "", "rank": 28, "time": 2, "location": {"lat": 38.758574221816204, "lng": 115.00597806676184}, "feature": {"sight_features": "", "sight_content": ""}}, {"title": "光明公园", "address": "河北省保定市唐县光明路91号", "image": "", "rank": 29, "time": 2, "location": {"lat": 38.75384456608655, "lng": 114.99825946110808}, "feature": {"sight_features": "", "sight_content": ""}}, {"title": "开心哈乐亲子儿童乐园", "address": "河北省保定市唐县唐尧东路4", "image": "", "rank": 30, "time": 2, "location": {"lat": 38.75040440164766, "lng": 114.98790588464766}, "feature": {"sight_features": "", "sight_content": ""}}, {"title": "南环水族馆", "address": "河北省保定市唐县唐王线", "image": "", "rank": 31, "time": 2, "location": {"lat": 38.6676742708692, "lng": 115.0212888002468}, "feature": {"sight_features": "", "sight_content": ""}}, {"title": "步步高升温泉会馆", "address": "国防路东延老山根东行100米路北", "image": "", "rank": 32, "time": 2, "location": {"lat": 41.48352274331447, "lng": 119.44761636425581}, "feature": {"sight_features": "", "sight_content": ""}}, {"title": "倾城花卉苗木", "address": "仁厚东路中山南大街路口附近", "image": "", "rank": 33, "time": 2, "location": {"lat": 38.74138107428531, "lng": 114.99943962793792}, "feature": {"sight_features": "", "sight_content": ""}}, {"title": "方诺园林古建", "address": "政府南50米路东", "image": "", "rank": 34, "time": 2, "location": {"lat": 30.20478603715017, "lng": 120.2265286943605}, "feature": {"sight_features": "", "sight_content": ""}}, {"title": "仁厚公园儿童游乐园", "address": "仁厚镇启明学校", "image": "", "rank": 35, "time": 2, "location": {"lat": 38.73949736591939, "lng": 115.0055240928012}, "feature": {"sight_features": "", "sight_content": ""}}, {"title": "鸿运祥园林古建", "address": "北店头乡农村信用合作社东行100米路南", "image": "", "rank": 36, "time": 2, "location": {"lat": 25.15844342525646, "lng": 118.68582300440156}, "feature": {"sight_features": "", "sight_content": ""}}, {"title": "唐河庄园", "address": "白合镇", "image": "", "rank": 37, "time": 3.0, "location": {"lat": 29.688870595440324, "lng": 105.28458001702855}, "feature": {"sight_features": "", "sight_content": ""}}, {"title": "和顺园", "address": "向阳北街6号鑫汇餐厅对面向阳北街6号", "image": "", "rank": 38, "time": 2, "location": {"lat": 38.76280802726449, "lng": 114.98640134868123}, "feature": {"sight_features": "", "sight_content": ""}}, {"title": "台湾藤一钓鱼王", "address": "国防西路", "image": "", "rank": 39, "time": 2, "location": {"lat": 38.75892345818094, "lng": 114.97277302733167}, "feature": {"sight_features": "", "sight_content": ""}}, {"title": "骑士公园", "address": "京昆高速公路庆都山骑马场附近", "image": "", "rank": 40, "time": 2, "location": {"lat": 32.59261830006549, "lng": 105.43048894704943}, "feature": {"sight_features": "", "sight_content": ""}}, {"title": "倒马关军事要塞", "address": "河北省唐县倒马关乡", "image": "", "rank": 41, "time": 2, "location": {"lat": 39.1000749078048, "lng": 114.62629819201527}, "feature": {"sight_features": "", "sight_content": ""}}, {"title": "通天河未名公社总部", "address": "保定市-唐县-军城镇但里村", "image": "", "rank": 42, "time": 2, "location": {"lat": 38.92342242802125, "lng": 114.73896497790784}, "feature": {"sight_features": "", "sight_content": ""}}]}