{"cityName": "唐河", "days": 2, "cityImage": "", "spots": [{"title": "普化讲寺风景区", "address": "南阳市唐河县黑龙镇", "image": "", "rank": 1, "time": 2, "location": {"lat": 32.49268706608153, "lng": 112.749200376366}, "feature": {"sight_features": "", "sight_content": ""}}, {"title": "泗洲寺塔", "address": "河南省唐河县新春路北段", "image": "", "rank": 2, "time": 2, "location": {"lat": 32.67342389330281, "lng": 112.83950402085894}, "feature": {"sight_features": "", "sight_content": ""}}, {"title": "石柱山森林公园", "address": "河南省南阳市唐河县马振抚乡", "image": "", "rank": 3, "time": 2, "location": {"lat": 32.51797051267922, "lng": 112.97497842702253}, "feature": {"sight_features": "", "sight_content": ""}}, {"title": "花果园(玉珠葡萄生态采摘园)", "address": "原335省道麦仁店与大朱岗之间(麦仁店向南2000米路西)", "image": "", "rank": 4, "time": 2, "location": {"lat": 32.6981487062398, "lng": 112.77799005916371}, "feature": {"sight_features": "", "sight_content": ""}}, {"title": "基地采摘园", "address": "唐河基地南口东侧百米牛庄桥北", "image": "", "rank": 5, "time": 2, "location": {"lat": 32.65287171952625, "lng": 112.75071275364124}, "feature": {"sight_features": "", "sight_content": ""}}, {"title": "赵庄文化体育广场", "address": "河南省南阳市唐河县S335", "image": "", "rank": 6, "time": 2, "location": {"lat": 32.687720660005475, "lng": 112.81342436588645}, "feature": {"sight_features": "", "sight_content": ""}}, {"title": "科迪食文化广场唐河002店", "address": "河南省南阳市唐河县澄源路", "image": "", "rank": 7, "time": 2, "location": {"lat": 32.68561944622092, "lng": 112.82988377340668}, "feature": {"sight_features": "", "sight_content": ""}}, {"title": "冯友兰纪念馆", "address": "河南省南阳市唐河县上海大道与龙山路交叉口南150米", "image": "", "rank": 8, "time": 2, "location": {"lat": 32.71059553229188, "lng": 112.83386094379783}, "feature": {"sight_features": "", "sight_content": ""}}, {"title": "松宝水族馆", "address": "河南省南阳市唐河县新华中路206号", "image": "", "rank": 9, "time": 2, "location": {"lat": 32.687720660005475, "lng": 112.81342436588645}, "feature": {"sight_features": "", "sight_content": ""}}, {"title": "飞凤游园", "address": "飞凤路中段", "image": "", "rank": 10, "time": 2, "location": {"lat": 32.70427884587433, "lng": 112.85437017935378}, "feature": {"sight_features": "", "sight_content": ""}}, {"title": "乐多多儿童乐园", "address": "人民北路55胡同奥斯卡电影院世纪风一楼内东北角", "image": "", "rank": 11, "time": 2, "location": {"lat": 30.805357223114115, "lng": 106.09251616446811}, "feature": {"sight_features": "", "sight_content": ""}}, {"title": "宝宝好儿童乐园", "address": "河南省南阳市唐河县", "image": "", "rank": 12, "time": 2, "location": {"lat": 32.687720660005475, "lng": 112.81342436588645}, "feature": {"sight_features": "", "sight_content": ""}}, {"title": "清真东寺", "address": "湖阳镇政府东100米路南", "image": "", "rank": 13, "time": 2, "location": {"lat": 32.412542501302646, "lng": 112.76077958918626}, "feature": {"sight_features": "", "sight_content": ""}}, {"title": "小博士儿童乐园", "address": "河南省南阳市唐河县李营创业路美罗家纺(农村信用合作社西)", "image": "", "rank": 14, "time": 2, "location": {"lat": 32.58116817975663, "lng": 113.03223407115964}, "feature": {"sight_features": "", "sight_content": ""}}, {"title": "童朔欢乐谷(游乐场)", "address": "河南省南阳市唐河县S240", "image": "", "rank": 15, "time": 2, "location": {"lat": 32.687720660005475, "lng": 112.81342436588645}, "feature": {"sight_features": "", "sight_content": ""}}, {"title": "龙湖广场", "address": "张梅先村", "image": "", "rank": 16, "time": 2, "location": {"lat": 32.510919490789846, "lng": 112.97818482972681}, "feature": {"sight_features": "", "sight_content": ""}}, {"title": "唐河县和谐广场", "address": "唐河县政府对面", "image": "", "rank": 17, "time": 2, "location": {"lat": 32.687487744971165, "lng": 112.8138753386084}, "feature": {"sight_features": "", "sight_content": ""}}, {"title": "大河屯文化广场", "address": "南阳市唐河县", "image": "", "rank": 18, "time": 2, "location": {"lat": 32.687720660005475, "lng": 112.81342436588645}, "feature": {"sight_features": "", "sight_content": ""}}, {"title": "少拜寺镇烈士陵园", "address": "河南省南阳市唐河县少拜寺镇少李线碧桂园西400米", "image": "", "rank": 19, "time": 2, "location": {"lat": 32.77059607270615, "lng": 112.95625328549758}, "feature": {"sight_features": "", "sight_content": ""}}, {"title": "康乐园", "address": "239省道", "image": "", "rank": 20, "time": 2, "location": {"lat": 31.924010648137532, "lng": 119.82352882833763}, "feature": {"sight_features": "", "sight_content": ""}}, {"title": "凤山植物园", "address": "312国道", "image": "", "rank": 21, "time": 3.5, "location": {"lat": 31.33241303413939, "lng": 120.99854638594724}, "feature": {"sight_features": "", "sight_content": ""}}, {"title": "张星江纪念馆", "address": "文峰路", "image": "", "rank": 22, "time": 2, "location": {"lat": 31.81834357238342, "lng": 121.6649969162903}, "feature": {"sight_features": "", "sight_content": ""}}, {"title": "唐河县图书馆", "address": "新春北路256号", "image": "", "rank": 23, "time": 2, "location": {"lat": 28.555202277721502, "lng": 121.26055145923537}, "feature": {"sight_features": "", "sight_content": ""}}, {"title": "唐河周氏藏御火疗休闲会馆", "address": "文峰南路(近312国道)", "image": "", "rank": 24, "time": 2, "location": {"lat": 32.37499014810609, "lng": 119.44691083061674}, "feature": {"sight_features": "", "sight_content": ""}}, {"title": "百年好合婚礼艺术馆", "address": "友兰大道", "image": "", "rank": 25, "time": 2, "location": {"lat": 32.69330644436605, "lng": 112.8234603464338}, "feature": {"sight_features": "", "sight_content": ""}}, {"title": "葛氏生态草莓采摘园", "address": "麦仁店向南500米", "image": "", "rank": 26, "time": 2, "location": {"lat": 34.37865756115442, "lng": 114.17690345058972}, "feature": {"sight_features": "", "sight_content": ""}}, {"title": "杜康村刘氏农家乐", "address": "龙山路", "image": "", "rank": 27, "time": 2, "location": {"lat": 31.224126284270593, "lng": 121.6028160265336}, "feature": {"sight_features": "", "sight_content": ""}}, {"title": "城郊钓鱼场", "address": "312国道附近", "image": "", "rank": 28, "time": 2, "location": {"lat": 31.33241303413939, "lng": 120.99854638594724}, "feature": {"sight_features": "", "sight_content": ""}}, {"title": "老王唢呐吹唱艺术团", "address": "文峰路", "image": "", "rank": 29, "time": 2, "location": {"lat": 31.81834357238342, "lng": 121.6649969162903}, "feature": {"sight_features": "", "sight_content": ""}}, {"title": "唐州荷源生态园", "address": "唐枣路240省道路边(五美屯向南1公里)", "image": "", "rank": 30, "time": 2, "location": {"lat": 29.13514992565639, "lng": 112.38223723886827}, "feature": {"sight_features": "", "sight_content": ""}}]}