{"cityName": "桃江", "days": 2, "cityImage": "", "spots": [{"title": "桃花江竹海风景区", "address": "益阳市桃江县桃花江镇崆峒村", "image": "", "rank": 1, "time": 1.0, "location": {"lat": 28.51079254216218, "lng": 112.20389074416406}, "feature": {"sight_features": "", "sight_content": ""}}, {"title": "湖南桃花江国家森林公园", "address": "湖南省桃江县桃花江镇 413400", "image": "", "rank": 2, "time": 2.5, "location": {"lat": 28.519881106594035, "lng": 112.188002543072}, "feature": {"sight_features": "", "sight_content": ""}}, {"title": "天鹅庄园", "address": "大栗港镇六环村龙形湾", "image": "", "rank": 3, "time": 2, "location": {"lat": 28.511873537904187, "lng": 111.85463670981693}, "feature": {"sight_features": "", "sight_content": ""}}, {"title": "桃江农业", "address": "金盆大道西50米", "image": "", "rank": 4, "time": 5.0, "location": {"lat": 30.064863640244013, "lng": 114.95425865972003}, "feature": {"sight_features": "", "sight_content": ""}}, {"title": "穿天云树", "address": "湖南省桃江县浮丘山的峡谷中 413400", "image": "", "rank": 5, "time": 2, "location": {"lat": 28.473244475867876, "lng": 112.03965539025364}, "feature": {"sight_features": "", "sight_content": ""}}, {"title": "板溪林场", "address": "湖南省桃江县境内 413400", "image": "", "rank": 6, "time": 2, "location": {"lat": 28.523870869897745, "lng": 112.16254146397702}, "feature": {"sight_features": "", "sight_content": ""}}, {"title": "观竹楼", "address": "湖南省桃江县近桃花江镇 413400", "image": "", "rank": 7, "time": 2, "location": {"lat": 28.519881106594035, "lng": 112.188002543072}, "feature": {"sight_features": "", "sight_content": ""}}, {"title": "石头井林场", "address": "湖南省桃江县石头井乡 413400", "image": "", "rank": 8, "time": 2, "location": {"lat": 28.523870869897745, "lng": 112.16254146397702}, "feature": {"sight_features": "", "sight_content": ""}}, {"title": "花园洞", "address": "湖南省桃江县县县城东 413400", "image": "", "rank": 9, "time": 2, "location": {"lat": 28.523870869897745, "lng": 112.16254146397702}, "feature": {"sight_features": "", "sight_content": ""}}, {"title": "渔乡源生态农庄", "address": "湖南省益阳市桃江县半稼洲村(近519乡道)", "image": "", "rank": 10, "time": 2, "location": {"lat": 28.54142517074762, "lng": 112.1287023870545}, "feature": {"sight_features": "", "sight_content": ""}}, {"title": "白鹤山三仙观", "address": "湖南省益阳市桃江县白鹤山", "image": "", "rank": 11, "time": 2, "location": {"lat": 28.310895690174785, "lng": 112.21550052631699}, "feature": {"sight_features": "", "sight_content": ""}}, {"title": "草籽凹一玄则宝塔", "address": "湖南省益阳市桃江县松木塘镇苍霞段村草籽凹", "image": "", "rank": 12, "time": 2, "location": {"lat": 28.325710313726113, "lng": 112.07572315865416}, "feature": {"sight_features": "", "sight_content": ""}}, {"title": "迪士妮儿童乐园", "address": "马迹塘镇S308鑫旺水电城东侧", "image": "", "rank": 13, "time": 2, "location": {"lat": 28.47243764557334, "lng": 111.77328460699506}, "feature": {"sight_features": "", "sight_content": ""}}, {"title": "子良岩会仙观", "address": "湖南省益阳市桃江县X035", "image": "", "rank": 14, "time": 2, "location": {"lat": 28.523870869897745, "lng": 112.16254146397702}, "feature": {"sight_features": "", "sight_content": ""}}, {"title": "云朵儿童乐园", "address": "马迹塘镇车站对面隆兴电器旁", "image": "", "rank": 15, "time": 2, "location": {"lat": 39.41680332679345, "lng": 115.84965332118448}, "feature": {"sight_features": "", "sight_content": ""}}, {"title": "桃花江国家森林公园", "address": "515乡道", "image": "", "rank": 16, "time": 2.5, "location": {"lat": 23.298431292359943, "lng": 110.50096453730482}, "feature": {"sight_features": "", "sight_content": ""}}, {"title": "紫荆花儿童游乐场", "address": "508乡道", "image": "", "rank": 17, "time": 2, "location": {"lat": 26.25667803516416, "lng": 112.48074283483834}, "feature": {"sight_features": "", "sight_content": ""}}, {"title": "旭日升儿童乐园", "address": "207国道", "image": "", "rank": 18, "time": 2, "location": {"lat": 38.67484937592033, "lng": 114.04837902844483}, "feature": {"sight_features": "", "sight_content": ""}}, {"title": "海岛乐园主题游乐场", "address": "桃花中路母婴城3楼", "image": "", "rank": 19, "time": 2, "location": {"lat": 22.594520050066404, "lng": 114.26617471521767}, "feature": {"sight_features": "", "sight_content": ""}}, {"title": "桃江欢乐水世界", "address": "贺家湾村组", "image": "", "rank": 20, "time": 1.0, "location": {"lat": 36.71505919866753, "lng": 110.47764211982091}, "feature": {"sight_features": "", "sight_content": ""}}, {"title": "鸿林坊雕刻艺术馆", "address": "振兴路128", "image": "", "rank": 21, "time": 2, "location": {"lat": 26.08952110666365, "lng": 119.30328518016454}, "feature": {"sight_features": "", "sight_content": ""}}, {"title": "天圣庄园", "address": "103县道东50米", "image": "", "rank": 22, "time": 2, "location": {"lat": 46.25424613801592, "lng": 123.67801726695662}, "feature": {"sight_features": "", "sight_content": ""}}]}