{"cityName": "桃源", "days": 2, "cityImage": "", "spots": [{"title": "桃花源", "address": "常德市桃源县桃花源镇", "image": "", "rank": 1, "time": 4.5, "location": {"lat": 28.758243009993926, "lng": 111.44138810960455}, "feature": {"sight_features": "特色1 桃花源历史源远流长、底蕴深厚 特色2 陶渊明《桃花源记》中所描述的世外桃源", "sight_content": "秦溪秦谷寻梦体验之旅\n\n当年武陵渔郎溯溪而上，误入桃花源，正是从溪进入秦谷。在这片古朴自然的村落里感受到了人间的温暖与平和。这是一条深度和谐的游线，夜晚还将在秦溪上演全球最长的山水实景演出《桃花源记》。\n\n两山一湖千年文化之旅\n“两山一湖”包括桃花山、桃源山和五柳湖。五柳湖静影湖色、摇橹泛舟、各类文化展馆；桃花山下复古情长、诗文碑刻、“采菊东篱下，悠然见南山”的情怀；桃源山的“渔村夕照”“福地洞天”。带您追寻历代文人墨客探访桃花源历史文化的踪迹，同时体验现代桃花源生活理念。\n\n万亩桃林爱情浪漫之旅\n这里既是令人称奇的世界桃林博览园，全世界一百来种桃树品种在这里都能看到，也是一个有浪漫爱情传说的圣地。特别是园中三株直径一米的百年古桃树，见证了多少沧海桑田的爱情故事。\n\n桃川万寿宫归心祈福之旅\n“桃川万寿宫”始建于东晋，唐宋达鼎峰。光落地的柱头就有1330根，气势恢宏、香火极盛。民间流传“四十八层庵，走马观山门”只说。公元1112年，宋徽宗亲笔题写了桃川万寿宫的匾额，列为皇家祈福礼拜的道场。"}}, {"title": "夷望溪", "address": "常德市桃源县兴隆街乡游船码头", "image": "", "rank": 2, "time": 3.5, "location": {"lat": 28.818746396875394, "lng": 111.19267432691879}, "feature": {"sight_features": "特色1 被称为常德的“小桂林”", "sight_content": "夷望溪位于湖南省常德市桃源县兴隆街乡夷望溪村，景色秀美、山水怡人，被称为常德的“小桂林”。夷望溪，亦称怡望溪，有望之心怡的意思，乍听起来，似乎又是一道被世间所遗忘的山间流水。\n夷望溪，一个青山凝黛，绿水悠悠的妙境，仿佛又到了桂林的漓江，恰好这里也有个象山，酷似一只刚从水中沐浴上岸的老象。两岸也是青山如屏，翠竹成荫。夷望溪水清澈透明，如同碧玉，无怪乎诗人将它称作“沅江小桂林”。这山有的如大象、有的如雄狮、有的如麒麟、有的如钟鼓，还有一座山崖壁上似挂着一弯明月。\n在河堤与山脚之间是一些农田，偶尔可见两三个农夫在叱牛耕耘，悠闲的哼着些土里巴唧的用牛歌，旁边总有几只黑身而白翼的笨鸟，在周围停立，似乎一点也不怕人，等到农夫和耕牛走近时，才怏怏地窜飞至另一边去，依就呆呆地盯着那农夫和耕牛，真是一幅写意的《桃源隐耕图》。"}}, {"title": "枫林花海", "address": "常德市桃源县枫树乡回维新村", "image": "", "rank": 3, "time": 1.0, "location": {"lat": 29.024201444876127, "lng": 111.5014608784282}, "feature": {"sight_features": "特色1 四季花开，姹紫嫣红", "sight_content": "常德市桃源县枫树乡被称为维吾尔族第二故乡。\n枫树维吾尔族回族乡位于桃源县城东北14公里。素有维吾尔族“第二故乡”之称。也是马克思主义史学家、著名教育家、维吾尔族杰出代表翦伯赞先生的故乡。\n枫林花海维回民族风情园规划面积2000亩，园区景点遍布，有马克思主义历史学家翦伯赞故居；根据各个季节变化，有多种花卉高低呼应的“枫林花海”；有占地100多亩的葡萄区；有“翦”姓始祖，威震南方的哈勒·八十墓；有被列入湖南省重点宗教活动场所的清真寺。\n枫林花海各色花卉，四季花开，姹紫嫣红，一片生机勃勃的怡人景色。花海品种以郁金香、金盏菊、百日草、醉蝶花、蓝花鼠尾草等为主，花期长，又有入药价值，是集观赏性和实用性为一体的旅游景点。"}}, {"title": "乌云界漂流", "address": "常德市桃源县茶庵铺镇", "image": "", "rank": 4, "time": 2, "location": {"lat": 28.652190084729344, "lng": 111.16262806473956}, "feature": {"sight_features": "", "sight_content": ""}}, {"title": "山洞溪漂流", "address": "常德桃源县西安镇", "image": "", "rank": 5, "time": 2, "location": {"lat": 28.488650460557427, "lng": 111.05846291049907}, "feature": {"sight_features": "", "sight_content": ""}}, {"title": "桃花雪缘室内滑雪场", "address": "常德市桃源县茶庵铺镇古溶溪村（背靠乌云界）", "image": "", "rank": 6, "time": 2, "location": {"lat": 28.621359148249798, "lng": 111.16623621302266}, "feature": {"sight_features": "特色1 常德首家四季滑雪乐园", "sight_content": "桃花雪缘滑四季滑雪乐园,位于桃源县茶庵铺镇古溶溪村，背靠乌云界国家级自然保护区，山峦起伏、林海茫茫、怪石嶙峋、风光秀美；紧邻319国道、杭瑞高速，交通便捷；距离桃花源风景区29公里，桃源县城45公里，常德市区70公里，是常长张凤黄金旅游线中间节点上最具特色、最具体验性，首屈一指的明星项目。\n该规划占地面积30亩，其中规划建设生态停车场6000平方米，滑雪中心6500平方米，建设一条宽40米、常140米的主滑雪道，并引进一条魔毯运输设备，日接待能力2000人次。"}}, {"title": "梦幻水世界", "address": "常德市桃源县漳江南路文化体育中心", "image": "", "rank": 7, "time": 0.2, "location": {"lat": 28.895098670975003, "lng": 111.48762419242526}, "feature": {"sight_features": "", "sight_content": ""}}, {"title": "乌云界生态园", "address": "常德市桃源县乌云界国家级自然保护区", "image": "", "rank": 8, "time": 2, "location": {"lat": 28.56359730254331, "lng": 111.38503918901698}, "feature": {"sight_features": "特色1 美不胜收的各色花海和原汁原味的民俗活动", "sight_content": "在我县南部有一个绿水如诗、青山皆画的地方——乌云界生态园，那里有繁花似锦、美不胜收的各色花海，有别具一格、原汁原味的民俗活动，有空灵澄澈、波平如镜的高峡平湖，还有巍峨耸峙、峰峦雄伟的千米高峰。\n从乌云界生态园的入口往里走，是一段溪流山涧。听着潺潺的流水声，踏着古老的青石板，穿过木质的小吊桥，赏着亭台楼阁、山水风光，别有一番韵味。然而这还只是美景的起点。延着小溪一路蜿蜒而上，十几分钟后，映入眼帘的就是乌云界生态园四大专区之一的花颜话语专区，小道两旁开满了各色的鲜花，有象征着热情奔放的硫华菊，有带有神秘色彩的格桑花，还有桂花、玫瑰花，可谓是馨香满园。\n来到百花园，五颜六色的香水玫瑰争奇斗艳，黄灿灿的硫华菊与蝴蝶比美毫不逊色，意喻幸福美好的格桑花昂首盛开，高傲的波斯菊身姿曼妙，馥郁芬芳的桂花香气袭人。就连纵横交错的青石古道，在各色花草的簇拥下，也更加显得优雅迷人，畅游其中，宛若天仙下凡。"}}, {"title": "新桃花源漂流游乐场", "address": "常德市桃源县芦花潭乡境内", "image": "", "rank": 9, "time": 2, "location": {"lat": 28.67989596012513, "lng": 111.42849982491462}, "feature": {"sight_features": "", "sight_content": ""}}, {"title": "西安镇漂流", "address": "常德市桃源县西安镇桥塘村", "image": "", "rank": 10, "time": 2, "location": {"lat": 28.528802938867674, "lng": 111.03256465934983}, "feature": {"sight_features": "", "sight_content": ""}}, {"title": "桃花源西安漂流", "address": "西安镇桥塘村桃花源西安漂流", "image": "", "rank": 11, "time": 2, "location": {"lat": 42.933308420624584, "lng": 125.15537330312809}, "feature": {"sight_features": "", "sight_content": "桃花源西安原生态漂流位于桃源县西安镇境内，属桃源县、安化县、沅陵县三县接壤处。地处湘西山地向洞庭湖平源过渡地带。雪峰山余脉，沅江中游。境内群山起伏，冷峰尖海拔1080米。无霜期280天左右。当地没有工厂，没有现代化的气息，只有炊烟和蛙鸣。山还是那样绿，天还是那么蓝。空气清新、水纯净。随处都可以找到能直接饮用的山泉水。桃源西安漂流在常德乃至湖南省都是最欢迎的漂流项目，是常德人最爱的漂流景点。景区与著名的桃花源风景区山水相连，位于桃源县西安镇。著名主持人汪涵先生来此一漂后，赞扬说：“桃源有西安，漂流不简单。处处有胜景，步步是青山”。漂流中时而跌进深谷犹如鱼翔浅底；时而偶遇倾盆大雨如浪遇飞舟、水浪扑面、沐浴全身。让人惊叹不已！！漂流时如遇风浪平静之处，小憩一会在阳光下静观小溪似玉带蜿蜒伸向远方，峡谷中雾气氤氲，五光十色。空中白云飘飘、小鸟飞翔、两岸野花盛开、蝴蝶翩翩、绿树成荫、知了歌唱，恍如人随画一块漂向远方。整个漂程全长7200米，落差138米，险滩30多处。途中更有俊美秀丽的景色：竹海、石屋、水帘洞、金银双门、金鸭池，还有多处可直接饮用的山泉水等。"}}, {"title": "宋教仁故居", "address": "湖南省常德市桃源县323乡道", "image": "", "rank": 12, "time": 2, "location": {"lat": 28.908694006999355, "lng": 111.49540733144599}, "feature": {"sight_features": "", "sight_content": ""}}, {"title": "桃源山", "address": "湖南省长沙市桃源县桃源山", "image": "", "rank": 13, "time": 2, "location": {"lat": 28.804341003869876, "lng": 111.44509725976589}, "feature": {"sight_features": "", "sight_content": ""}}, {"title": "河洑快乐谷", "address": "湖南省常德市武陵区河洑镇围山路1号", "image": "", "rank": 14, "time": 2, "location": {"lat": 29.048469389233755, "lng": 111.60883529018683}, "feature": {"sight_features": "", "sight_content": ""}}, {"title": "炎凰山庄", "address": "桃花源镇桃花大道与新319国道交汇处", "image": "", "rank": 15, "time": 2, "location": {"lat": 29.84489923210446, "lng": 107.08622734490895}, "feature": {"sight_features": "", "sight_content": ""}}, {"title": "庆丰园", "address": "姚公潭村", "image": "", "rank": 16, "time": 2, "location": {"lat": 28.915046192825, "lng": 111.46101896406023}, "feature": {"sight_features": "", "sight_content": ""}}, {"title": "慈利县三胞胎农庄", "address": "广福桥镇老棚村内", "image": "", "rank": 17, "time": 2, "location": {"lat": 29.465015699035735, "lng": 111.28649544830004}, "feature": {"sight_features": "", "sight_content": ""}}, {"title": "桃花源碑廊", "address": "湖南省桃源县桃花源风景区 415700", "image": "", "rank": 18, "time": 2, "location": {"lat": 28.7963388239819, "lng": 111.44935911484973}, "feature": {"sight_features": "", "sight_content": ""}}, {"title": "常德太阳山森林公园", "address": "湖南省桃源县桃源县境内 415700", "image": "", "rank": 19, "time": 1.5, "location": {"lat": 28.908694006999355, "lng": 111.49540733144599}, "feature": {"sight_features": "", "sight_content": ""}}, {"title": "伏波洞", "address": "湖南省桃源县穿石山 415700", "image": "", "rank": 20, "time": 2, "location": {"lat": 28.751174076492187, "lng": 111.2507110764234}, "feature": {"sight_features": "", "sight_content": ""}}, {"title": "枫树乡回维村", "address": "湖南省桃源县枫树乡回维村 415701", "image": "", "rank": 21, "time": 2, "location": {"lat": 29.03369666263606, "lng": 111.51420802045813}, "feature": {"sight_features": "", "sight_content": ""}}, {"title": "石龙山风景区", "address": "湖南省桃源县剪市镇张家湾村 415719", "image": "", "rank": 22, "time": 2, "location": {"lat": 28.834650045810207, "lng": 111.41854825005458}, "feature": {"sight_features": "", "sight_content": ""}}, {"title": "插角山", "address": "湖南省桃源县境内 415700", "image": "", "rank": 23, "time": 2, "location": {"lat": 28.908694006999355, "lng": 111.49540733144599}, "feature": {"sight_features": "", "sight_content": ""}}, {"title": "穿山石", "address": "湖南省桃源县马石乡 415700", "image": "", "rank": 24, "time": 2, "location": {"lat": 28.908694006999355, "lng": 111.49540733144599}, "feature": {"sight_features": "", "sight_content": ""}}, {"title": "圣珠洞", "address": "湖南省桃源县马援石室东北 415700", "image": "", "rank": 25, "time": 2, "location": {"lat": 28.908694006999355, "lng": 111.49540733144599}, "feature": {"sight_features": "", "sight_content": ""}}, {"title": "采菱城遗址", "address": "湖南省桃源县茅草街乡黄楚村和金鸡村 415700", "image": "", "rank": 26, "time": 2, "location": {"lat": 28.95722048383299, "lng": 111.4813185773238}, "feature": {"sight_features": "", "sight_content": ""}}, {"title": "三元村一号楚墓", "address": "湖南省桃源县三汊港乡三元村 415703", "image": "", "rank": 27, "time": 2, "location": {"lat": 28.97515217620122, "lng": 111.58284209982318}, "feature": {"sight_features": "", "sight_content": ""}}, {"title": "秦人古洞", "address": "湖南省桃源县桃花源镇 415722", "image": "", "rank": 28, "time": 2, "location": {"lat": 28.758243009993926, "lng": 111.44138810960455}, "feature": {"sight_features": "", "sight_content": ""}}, {"title": "穷林桥", "address": "湖南省桃源县桃花源镇桃花溪 415722", "image": "", "rank": 29, "time": 2, "location": {"lat": 29.010480686447625, "lng": 111.11061265257482}, "feature": {"sight_features": "", "sight_content": ""}}, {"title": "千丘田", "address": "湖南省桃源县西南 415700", "image": "", "rank": 30, "time": 2, "location": {"lat": 25.571422726336362, "lng": 111.49540733144599}, "feature": {"sight_features": "", "sight_content": ""}}, {"title": "绿萝岩", "address": "湖南省桃源县八字路乡游仙观村 451700", "image": "", "rank": 31, "time": 2, "location": {"lat": 28.854161158664002, "lng": 111.49660692592869}, "feature": {"sight_features": "", "sight_content": ""}}, {"title": "桃花源国家森林公园", "address": "湖南省桃源县西南十五公里 415723", "image": "", "rank": 32, "time": 0.75, "location": {"lat": 28.79005430885368, "lng": 111.49540733144599}, "feature": {"sight_features": "", "sight_content": ""}}, {"title": "寻契亭", "address": "湖南省桃源县桃花源镇桃花源村 415722", "image": "", "rank": 33, "time": 2, "location": {"lat": 28.78273900494207, "lng": 111.43985812194859}, "feature": {"sight_features": "", "sight_content": ""}}, {"title": "佳沅中心广场", "address": "湖南省常德市桃源县S227(大桥中路)", "image": "", "rank": 34, "time": 2, "location": {"lat": 29.135321072728072, "lng": 111.38900768087728}, "feature": {"sight_features": "", "sight_content": ""}}, {"title": "桃源县古道茶旅生态旅游度假村", "address": "桃源县古道茶庵铺镇", "image": "", "rank": 35, "time": 2, "location": {"lat": 28.652190084729344, "lng": 111.16262806473956}, "feature": {"sight_features": "", "sight_content": ""}}, {"title": "爱情广场", "address": "常德市桃源县沅江桃仙岭景区内", "image": "", "rank": 36, "time": 2, "location": {"lat": 28.815532745642905, "lng": 111.46048746004608}, "feature": {"sight_features": "", "sight_content": ""}}, {"title": "杨梅湾农庄", "address": "湖南省常德市桃源县X058", "image": "", "rank": 37, "time": null, "location": {"lat": 28.908694006999355, "lng": 111.49540733144599}, "feature": {"sight_features": "", "sight_content": ""}}, {"title": "桃源工艺术博物馆", "address": "常德市桃源县桃花源镇桃花源景区内", "image": "", "rank": 38, "time": 2, "location": {"lat": 28.758243009993926, "lng": 111.44138810960455}, "feature": {"sight_features": "", "sight_content": ""}}, {"title": "桃花源古镇-凉亭", "address": "常德市桃源县G319(旧)桃花源古镇内", "image": "", "rank": 39, "time": 2, "location": {"lat": 28.779829238019953, "lng": 111.43004127225396}, "feature": {"sight_features": "", "sight_content": ""}}, {"title": "漆河影剧院", "address": "湖南省常德市桃源县漆河镇大桥北路中段", "image": "", "rank": 40, "time": 2, "location": {"lat": 29.14107649823415, "lng": 111.39235264810367}, "feature": {"sight_features": "", "sight_content": ""}}, {"title": "仙人山庄休闲度假村", "address": "仙鹤大道附近", "image": "", "rank": 41, "time": 2, "location": {"lat": 29.13197653103539, "lng": 111.39467286074358}, "feature": {"sight_features": "", "sight_content": ""}}, {"title": "桃源县西安漂流景区", "address": "湖南省常德市桃源县", "image": "", "rank": 42, "time": 2, "location": {"lat": 28.908694006999355, "lng": 111.49540733144599}, "feature": {"sight_features": "", "sight_content": ""}}, {"title": "黄石水库", "address": "湖南省桃源县黄石镇 415707", "image": "", "rank": 43, "time": 2.5, "location": {"lat": 29.185915407104076, "lng": 111.20706851928715}, "feature": {"sight_features": "", "sight_content": ""}}, {"title": "灵龟祈福", "address": "常德市桃源县桃花源镇319国道附近桃花源景区桃花山景区内", "image": "", "rank": 44, "time": 2, "location": {"lat": 28.787654101843778, "lng": 111.44881890715351}, "feature": {"sight_features": "", "sight_content": ""}}, {"title": "问津亭", "address": "常德市桃源县桃花源镇319国道附近桃花源景区桃源山景区内", "image": "", "rank": 45, "time": 2, "location": {"lat": 28.804341003869876, "lng": 111.44509725976589}, "feature": {"sight_features": "", "sight_content": ""}}, {"title": "奉先祠", "address": "桃花源镇319国道附近桃花源景区秦人村景区内", "image": "", "rank": 46, "time": 2, "location": {"lat": 28.859618061797246, "lng": 108.77019280088369}, "feature": {"sight_features": "", "sight_content": ""}}, {"title": "刘家祠堂", "address": "常德市桃源县零六三县道", "image": "", "rank": 47, "time": 2, "location": {"lat": 28.908694006999355, "lng": 111.49540733144599}, "feature": {"sight_features": "", "sight_content": ""}}, {"title": "儿童乐园", "address": "湖南省常德市桃源县漳江中路61号", "image": "", "rank": 48, "time": 2, "location": {"lat": 28.90404222305625, "lng": 111.48979340709545}, "feature": {"sight_features": "", "sight_content": ""}}, {"title": "陈家祠堂", "address": "常德市桃源县", "image": "", "rank": 49, "time": 1.5, "location": {"lat": 28.908694006999355, "lng": 111.49540733144599}, "feature": {"sight_features": "", "sight_content": ""}}, {"title": "老祠堂", "address": "常德市桃源县零五四县道", "image": "", "rank": 50, "time": 2, "location": {"lat": 28.908694006999355, "lng": 111.49540733144599}, "feature": {"sight_features": "", "sight_content": ""}}, {"title": "田家祠堂", "address": "常德市桃源县三零六省道", "image": "", "rank": 51, "time": 2, "location": {"lat": 29.045869980747533, "lng": 111.6032036422686}, "feature": {"sight_features": "", "sight_content": ""}}, {"title": "田家祠堂", "address": "桃源县", "image": "", "rank": 52, "time": 2, "location": {"lat": 28.908694006999355, "lng": 111.49540733144599}, "feature": {"sight_features": "", "sight_content": ""}}, {"title": "绿地公园", "address": "湖南省常德市桃源县S306", "image": "", "rank": 53, "time": 2, "location": {"lat": 28.908694006999355, "lng": 111.49540733144599}, "feature": {"sight_features": "", "sight_content": ""}}, {"title": "开心e佰儿童体验乐园", "address": "仙桥路与仙鹤大道交叉口东50米", "image": "", "rank": 54, "time": 2, "location": {"lat": 29.132600198186015, "lng": 111.39153208015617}, "feature": {"sight_features": "", "sight_content": ""}}, {"title": "桃源徐溶熙苏维埃政府旧址", "address": "J21县道东50米", "image": "", "rank": 55, "time": 2, "location": {"lat": 29.294651099621316, "lng": 111.49601530461493}, "feature": {"sight_features": "", "sight_content": ""}}, {"title": "双洲农村旅游生态园", "address": "绿岛休闲山庄附近", "image": "", "rank": 56, "time": 2, "location": {"lat": 28.88618520629488, "lng": 111.49719477974915}, "feature": {"sight_features": "", "sight_content": ""}}, {"title": "绿岛休闲山庄", "address": "湖南省常德市桃源县漳江镇沅水大桥", "image": "", "rank": 57, "time": 2, "location": {"lat": 29.050666736456705, "lng": 111.58630128659512}, "feature": {"sight_features": "", "sight_content": ""}}, {"title": "开国功臣彩银博物馆", "address": "湖南省常德市桃源县漳江镇武陵西路莲花小学附近", "image": "", "rank": 58, "time": 2, "location": {"lat": 28.901038400034444, "lng": 111.4857942542715}, "feature": {"sight_features": "", "sight_content": ""}}, {"title": "乌云界花源里", "address": "常德市桃源县乌云界国家级自然保护区内", "image": "", "rank": 59, "time": 2, "location": {"lat": 28.56359730254331, "lng": 111.38503918901698}, "feature": {"sight_features": "", "sight_content": ""}}, {"title": "桃花源峡谷漂流", "address": "常德市桃源县沙坪镇新跃村一组", "image": "", "rank": 60, "time": null, "location": {"lat": 28.648038305471495, "lng": 111.48134948172824}, "feature": {"sight_features": "", "sight_content": "桃花源峡谷漂流位于桃花源风景名胜区水溪上有的桃源县芦花潭乡境内，漂流河道全长4.5公里，由多处险滩和多个弯道组成，落差153米，是常德市周边较近较刺激的原生态峡谷漂流。漂流沿途溪道蜿蜒，水流湍急，溪潭相接，有惊无险，全程无日光直射，是休闲度假想到之处。"}}]}