{"cityName": "桃园市", "days": "2", "cityImage": "", "spots": [{"title": "小人国主题乐园", "address": "桃园县龙潭乡高原村7邻高原路891号", "image": "", "rank": 1, "time": 4.5, "location": {"lat": 22.695190199282045, "lng": 114.14883391374454}, "feature": {"sight_features": "", "sight_content": ""}}, {"title": "慈湖纪念雕塑园", "address": "桃园县复兴路一段1097号", "image": "", "rank": 2, "time": 1.5, "location": {"lat": 38.91068442728068, "lng": 115.52969928250702}, "feature": {"sight_features": "", "sight_content": ""}}, {"title": "慈湖陵寝", "address": "335台湾桃園市大溪區復興路一段1097號", "image": "", "rank": 3, "time": 1.5, "location": {"lat": 49.59409710617375, "lng": 122.17005239022131}, "feature": {"sight_features": "", "sight_content": ""}}, {"title": "大溪老街", "address": "335台湾桃园县大溪镇", "image": "", "rank": 4, "time": 1.5, "location": {"lat": 39.70192304141052, "lng": 115.82671396351208}, "feature": {"sight_features": "", "sight_content": ""}}, {"title": "两蒋文化园区", "address": "335台湾桃园县大溪镇复兴路一段1097号", "image": "", "rank": 5, "time": 1.0, "location": {"lat": 38.91068442728068, "lng": 115.52969928250702}, "feature": {"sight_features": "", "sight_content": ""}}, {"title": "巧克力共和国", "address": "桃园县八德市介寿路二段490巷旁巧克力街底", "image": "", "rank": 6, "time": 2.5, "location": {"lat": 37.48237466957269, "lng": 121.64813607849531}, "feature": {"sight_features": "", "sight_content": ""}}, {"title": "大溪花海农场", "address": "335台湾桃园县大溪镇复兴路一段1093巷27号", "image": "", "rank": 7, "time": 1.5, "location": {"lat": 38.91068442728068, "lng": 115.52969928250702}, "feature": {"sight_features": "", "sight_content": ""}}, {"title": "永安渔港", "address": "台湾桃园县新屋乡中山西路三段1165号", "image": "", "rank": 8, "time": 1.5, "location": {"lat": 24.97941963395336, "lng": 121.08449535073325}, "feature": {"sight_features": "", "sight_content": ""}}, {"title": "虎头山环保公园", "address": "330台湾桃园县桃园市大有路", "image": "", "rank": 9, "time": 1.5, "location": {"lat": 24.086956718804895, "lng": 121.97387097871568}, "feature": {"sight_features": "", "sight_content": ""}}, {"title": "小乌来风景特定区", "address": "336台湾桃园县复兴乡北横公路", "image": "", "rank": 10, "time": 2.0, "location": {"lat": 31.037268444322635, "lng": 120.56480273518468}, "feature": {"sight_features": "", "sight_content": ""}}, {"title": "角板山公园", "address": "336台湾桃园县复兴乡泽仁村", "image": "", "rank": 11, "time": 1.5, "location": {"lat": 39.70192304141052, "lng": 115.82671396351208}, "feature": {"sight_features": "", "sight_content": ""}}, {"title": "中正公园", "address": "330台湾桃园县桃园市中正路1396-5号", "image": "", "rank": 12, "time": 1.5, "location": {"lat": 24.086956718804895, "lng": 121.97387097871568}, "feature": {"sight_features": "", "sight_content": ""}}, {"title": "味全埔心牧场", "address": "台湾桃园县杨梅市高山顶119号", "image": "", "rank": 13, "time": 1.5, "location": {"lat": 24.919081754570353, "lng": 121.13444763271866}, "feature": {"sight_features": "", "sight_content": ""}}, {"title": "白沙岬灯塔", "address": "台湾桃园县观音乡光明路底", "image": "", "rank": 14, "time": 1.5, "location": {"lat": 25.02525187872754, "lng": 121.1079211623909}, "feature": {"sight_features": "", "sight_content": ""}}, {"title": "巴陵桥", "address": "336台湾桃园县复兴乡巴陵桥", "image": "", "rank": 15, "time": 1.0, "location": {"lat": 39.70192304141052, "lng": 115.82671396351208}, "feature": {"sight_features": "", "sight_content": ""}}, {"title": "中原大学", "address": "桃园县中坜市中北路200号", "image": "", "rank": 16, "time": 1.5, "location": {"lat": 31.58420736638676, "lng": 120.09810354305922}, "feature": {"sight_features": "", "sight_content": ""}}, {"title": "富冈老街", "address": "326台湾桃园县杨梅市", "image": "", "rank": 17, "time": 1.5, "location": {"lat": 39.70192304141052, "lng": 115.82671396351208}, "feature": {"sight_features": "", "sight_content": ""}}, {"title": "龙潭观光大池", "address": "325台湾桃园县龙潭乡", "image": "", "rank": 18, "time": 1.5, "location": {"lat": 39.70192304141052, "lng": 115.82671396351208}, "feature": {"sight_features": "", "sight_content": ""}}, {"title": "桃园孔庙", "address": "台湾桃园县桃园市公园路42号‎", "image": "", "rank": 19, "time": 1.5, "location": {"lat": 24.086956718804895, "lng": 121.97387097871568}, "feature": {"sight_features": "", "sight_content": ""}}, {"title": "达观山", "address": "桃园县复兴乡桃116乡道", "image": "", "rank": 20, "time": 1.5, "location": {"lat": 39.70192304141052, "lng": 115.82671396351208}, "feature": {"sight_features": "", "sight_content": ""}}, {"title": "复兴桥", "address": "桃园县复兴乡复兴桥", "image": "", "rank": 21, "time": 1.0, "location": {"lat": 39.70192304141052, "lng": 115.82671396351208}, "feature": {"sight_features": "", "sight_content": ""}}, {"title": "大艽芎古道", "address": "台湾桃园县大溪镇头寮", "image": "", "rank": 22, "time": 2, "location": {"lat": 24.87480347077626, "lng": 121.31178847350648}, "feature": {"sight_features": "", "sight_content": ""}}, {"title": "甘泉寺", "address": "328台湾桃园县观音乡甘泉街1号", "image": "", "rank": 23, "time": 0.75, "location": {"lat": 25.02525187872754, "lng": 121.1079211623909}, "feature": {"sight_features": "", "sight_content": ""}}, {"title": "慈湖", "address": "台湾桃园县复兴路一段1097号", "image": "", "rank": 24, "time": 2.5, "location": {"lat": 24.99476950771661, "lng": 121.32602647749589}, "feature": {"sight_features": "", "sight_content": ""}}, {"title": "百吉林荫步道", "address": "335台湾桃园县大溪镇 ‎", "image": "", "rank": 25, "time": 2, "location": {"lat": 39.70192304141052, "lng": 115.82671396351208}, "feature": {"sight_features": "", "sight_content": ""}}, {"title": "荣华大坝", "address": "336台湾桃园阿加塔重建乡", "image": "", "rank": 26, "time": 1.5, "location": {"lat": 24.086956718804895, "lng": 121.97387097871568}, "feature": {"sight_features": "", "sight_content": ""}}, {"title": "永安雪森林游憩区", "address": "327台湾桃园县新屋乡50号", "image": "", "rank": 27, "time": 2.0, "location": {"lat": 24.97941963395336, "lng": 121.08449535073325}, "feature": {"sight_features": "", "sight_content": ""}}, {"title": "杨梅贵山公园", "address": "桃园县梅贵镇中山北路一二一巷内", "image": "", "rank": 28, "time": 2, "location": {"lat": 28.467041996483665, "lng": 119.92489353710914}, "feature": {"sight_features": "", "sight_content": ""}}, {"title": "爷亨梯田", "address": "台湾桃园县复兴乡", "image": "", "rank": 29, "time": 1.5, "location": {"lat": 24.71939524036812, "lng": 121.38626602661878}, "feature": {"sight_features": "", "sight_content": ""}}, {"title": "打铁寮古道", "address": "335台湾桃园县大溪镇", "image": "", "rank": 30, "time": 2, "location": {"lat": 39.70192304141052, "lng": 115.82671396351208}, "feature": {"sight_features": "", "sight_content": ""}}, {"title": "桃园仙谷", "address": "桃园县复兴乡长兴村上高遶8邻5之1号 ‎", "image": "", "rank": 31, "time": null, "location": {"lat": 28.23881549025242, "lng": 114.93154115857352}, "feature": {"sight_features": "", "sight_content": ""}}, {"title": "头寮大池", "address": "335台湾桃园县大溪镇", "image": "", "rank": 32, "time": null, "location": {"lat": 39.70192304141052, "lng": 115.82671396351208}, "feature": {"sight_features": "", "sight_content": ""}}, {"title": "三坑仔老街", "address": "325台湾桃园县龙潭乡", "image": "", "rank": 33, "time": 1.5, "location": {"lat": 39.70192304141052, "lng": 115.82671396351208}, "feature": {"sight_features": "", "sight_content": ""}}, {"title": "秋山清泉岩观音洞", "address": "336台湾桃园县复兴乡诗朗道路", "image": "", "rank": 34, "time": 1.5, "location": {"lat": 39.70192304141052, "lng": 115.82671396351208}, "feature": {"sight_features": "", "sight_content": ""}}, {"title": "溪洲山登山步道", "address": "台湾桃园县大溪镇环湖路1-10号", "image": "", "rank": 35, "time": 2, "location": {"lat": 24.87480347077626, "lng": 121.31178847350648}, "feature": {"sight_features": "", "sight_content": ""}}, {"title": "永安海滨公园", "address": "桃园县新屋乡", "image": "", "rank": 36, "time": 2.0, "location": {"lat": 39.70192304141052, "lng": 115.82671396351208}, "feature": {"sight_features": "", "sight_content": ""}}, {"title": "三民蝙蝠洞", "address": "336台湾桃园县复兴乡", "image": "", "rank": 37, "time": 1.5, "location": {"lat": 39.70192304141052, "lng": 115.82671396351208}, "feature": {"sight_features": "", "sight_content": ""}}, {"title": "圆光禅寺", "address": "320台湾桃园县中坜市圣德路一段888巷11号", "image": "", "rank": 38, "time": 1.5, "location": {"lat": 24.979931808296705, "lng": 121.22273953995894}, "feature": {"sight_features": "", "sight_content": ""}}, {"title": "巴陵拦沙坝", "address": "336台湾桃园县复兴乡北部横贯公路", "image": "", "rank": 39, "time": 1.5, "location": {"lat": 40.946904455529484, "lng": 107.95518743706793}, "feature": {"sight_features": "", "sight_content": ""}}, {"title": "寻梦谷", "address": "桃园县芦竹乡口村", "image": "", "rank": 40, "time": 2, "location": {"lat": 22.979784852703986, "lng": 115.88823514928167}, "feature": {"sight_features": "", "sight_content": ""}}, {"title": "御成路古道", "address": "335台湾桃园县大溪镇 ‎", "image": "", "rank": 41, "time": 2, "location": {"lat": 39.70192304141052, "lng": 115.82671396351208}, "feature": {"sight_features": "", "sight_content": ""}}, {"title": "罗浮桥", "address": "桃园县复兴乡罗浮桥", "image": "", "rank": 42, "time": 1.0, "location": {"lat": 39.70192304141052, "lng": 115.82671396351208}, "feature": {"sight_features": "", "sight_content": ""}}, {"title": "豫章湖", "address": "台湾桃园县中坜市", "image": "", "rank": 43, "time": null, "location": {"lat": 24.979931808296705, "lng": 121.22273953995894}, "feature": {"sight_features": "", "sight_content": ""}}, {"title": "观音海水浴场", "address": "桃园县观音乡观音村", "image": "", "rank": 44, "time": 2, "location": {"lat": 30.41794022703022, "lng": 116.30355108397893}, "feature": {"sight_features": "", "sight_content": ""}}, {"title": "桃园蝙蝠洞", "address": "桃园县复兴乡三民村东侧五寮溪溪谷", "image": "", "rank": 45, "time": 2.0, "location": {"lat": 38.65350119240972, "lng": 115.25218671081846}, "feature": {"sight_features": "", "sight_content": ""}}, {"title": "乡土农园", "address": "桃园县平镇乡", "image": "", "rank": 46, "time": 2, "location": {"lat": 39.70192304141052, "lng": 115.82671396351208}, "feature": {"sight_features": "", "sight_content": ""}}, {"title": "圣迹亭", "address": "台湾桃园县龙潭乡竹窝子段20地号", "image": "", "rank": 47, "time": 1.5, "location": {"lat": 24.850093841757182, "lng": 121.22028521389964}, "feature": {"sight_features": "", "sight_content": ""}}, {"title": "救国团复兴活动中心", "address": "336台湾桃园县复兴乡泽仁村中山路1号 ‎", "image": "", "rank": 48, "time": 1.5, "location": {"lat": 29.83562495545083, "lng": 106.447676679255}, "feature": {"sight_features": "", "sight_content": ""}}, {"title": "石门水库", "address": "桃园市大溪区复兴里环湖路一段68号", "image": "", "rank": 49, "time": 3.5, "location": {"lat": 31.95140578324046, "lng": 117.28874580885048}, "feature": {"sight_features": "", "sight_content": ""}}, {"title": "大溪神牛观光区", "address": "桃园县大溪镇慈康路680号", "image": "", "rank": 50, "time": 2, "location": {"lat": 22.058589506301036, "lng": 113.35919952072348}, "feature": {"sight_features": "", "sight_content": ""}}, {"title": "中国家具博物馆", "address": "330台湾桃园县桃园市县府路21号B1楼", "image": "", "rank": 51, "time": 1.5, "location": {"lat": 24.086956718804895, "lng": 121.97387097871568}, "feature": {"sight_features": "", "sight_content": ""}}, {"title": "莲座山观音寺", "address": "桃园县大溪镇瑞安路二段48巷28号 ‎", "image": "", "rank": 52, "time": 1.5, "location": {"lat": 38.91068442728068, "lng": 115.52969928250702}, "feature": {"sight_features": "", "sight_content": ""}}, {"title": "石门山", "address": "台湾桃园县龙潭乡", "image": "", "rank": 53, "time": 2.5, "location": {"lat": 24.850093841757182, "lng": 121.22028521389964}, "feature": {"sight_features": "", "sight_content": ""}}, {"title": "寿山岩观音寺", "address": "333台湾桃园县龟山乡万寿路二段6巷111号 ‎", "image": "", "rank": 54, "time": 1.5, "location": {"lat": 25.02453175215138, "lng": 121.37764762606734}, "feature": {"sight_features": "", "sight_content": ""}}, {"title": "可口可乐工厂博物馆", "address": "台湾桃园县桃园市兴邦路46号", "image": "", "rank": 55, "time": 2, "location": {"lat": 24.086956718804895, "lng": 121.97387097871568}, "feature": {"sight_features": "", "sight_content": ""}}, {"title": "台北高尔夫俱乐部", "address": "桃园市芦竹区赤涂崎34-1号", "image": "", "rank": 56, "time": 2.0, "location": {"lat": 39.70192304141052, "lng": 115.82671396351208}, "feature": {"sight_features": "", "sight_content": ""}}, {"title": "爱情故事馆", "address": "桃园县大溪镇复兴路1段1037号", "image": "", "rank": 57, "time": 1.25, "location": {"lat": 38.91068442728068, "lng": 115.52969928250702}, "feature": {"sight_features": "", "sight_content": ""}}, {"title": "拉拉山", "address": "桃园县复兴乡和台北县乌来乡交界处", "image": "", "rank": 58, "time": 2, "location": {"lat": 33.639177619213335, "lng": 112.85501173926764}, "feature": {"sight_features": "", "sight_content": ""}}, {"title": "元智大学", "address": "桃园县內坜市远东路135号", "image": "", "rank": 59, "time": 2, "location": {"lat": 27.763303340473374, "lng": 120.62449146597994}, "feature": {"sight_features": "", "sight_content": ""}}, {"title": "中壢藝術館", "address": "中美路16号,中坜市, 桃园市 320,Taiwan", "image": "", "rank": 60, "time": 2, "location": {"lat": 31.838775862541496, "lng": 120.55462065153428}, "feature": {"sight_features": "", "sight_content": ""}}]}