{"cityName": "塔什库尔干", "days": 2, "cityImage": "", "spots": [{"title": "帕米尔高原", "address": "喀什地区塔什库尔干塔吉克自治县提孜那甫乡", "image": "", "rank": 1, "time": 9.0, "location": {"lat": 37.8339626209264, "lng": 75.2193608309314}, "feature": {"sight_features": "", "sight_content": ""}}, {"title": "红其拉甫口岸", "address": "喀什地区塔什库尔干塔吉克自治县314国道尽头，距县城约120公里", "image": "", "rank": 2, "time": 3.5, "location": {"lat": 37.285455181279474, "lng": 75.45157778663425}, "feature": {"sight_features": "", "sight_content": ""}}, {"title": "乔戈里峰", "address": "喀什地区塔什库尔干塔吉克自治县", "image": "", "rank": 3, "time": 3.0, "location": {"lat": 37.77904564076277, "lng": 75.23080474483845}, "feature": {"sight_features": "", "sight_content": ""}}, {"title": "喀什古石头城", "address": "喀什地区塔什库尔干塔吉克自治县塔什库尔干路", "image": "", "rank": 4, "time": 1.5, "location": {"lat": 37.784828194363826, "lng": 75.2382702514775}, "feature": {"sight_features": "特色1 古丝道著名的古城遗址，海拔3700米", "sight_content": "﻿    景区位于塔什库尔吉克自治县城北侧，为古丝道著名的古城遗址，海拔3700米，雄踞要津，气势雄伟，自唐至清，扩建及驻军不断，城墙最高处竟达20多米。\n城外建有多层或断或续的城垣，隔墙之间石丘重叠，乱石成堆，构成独特的石头城风光。汉代时，这里曾是西域三十六国之一的蒲犁国的王城。现在已成为丝绸之路上一道独特的风景线。"}}, {"title": "阿拉尔国家湿地公园", "address": "新疆维吾尔自治区喀什地区塔什库尔干塔吉克自治县古城路", "image": "", "rank": 5, "time": 4.5, "location": {"lat": 37.78877788949723, "lng": 75.24472272956073}, "feature": {"sight_features": "", "sight_content": ""}}, {"title": "塔什库尔干镇", "address": "塔什库尔干塔吉克自治县", "image": "", "rank": 6, "time": 2, "location": {"lat": 37.77904564076277, "lng": 75.23080474483845}, "feature": {"sight_features": "", "sight_content": ""}}, {"title": "大同乡杏花", "address": "新疆喀什地区塔什库尔干县塔莎古道大同乡", "image": "", "rank": 7, "time": 12.0, "location": {"lat": 37.776236983309246, "lng": 75.23412398369783}, "feature": {"sight_features": "", "sight_content": ""}}, {"title": "塔合曼温泉", "address": "以北27公里处", "image": "", "rank": 8, "time": 2, "location": {"lat": 46.68544198848472, "lng": 128.54341108383753}, "feature": {"sight_features": "", "sight_content": ""}}, {"title": "喀什欧罗巴温泉庄园", "address": "中巴友谊路59号附近", "image": "", "rank": 9, "time": 4.0, "location": {"lat": 37.78300424608356, "lng": 75.22977259180749}, "feature": {"sight_features": "", "sight_content": ""}}, {"title": "音苏盖提冰河", "address": "喀什地区塔什库尔干塔吉克自治县", "image": "", "rank": 10, "time": 2, "location": {"lat": 37.77904564076277, "lng": 75.23080474483845}, "feature": {"sight_features": "", "sight_content": ""}}, {"title": "塔什库尔干堡垒", "address": "新疆维吾尔自治区塔什库尔干塔吉克自治县境内 845250", "image": "", "rank": 11, "time": 2, "location": {"lat": 37.77904564076277, "lng": 75.23080474483845}, "feature": {"sight_features": "", "sight_content": ""}}, {"title": "塔什库尔干欧罗巴温泉庄园", "address": "塔什库尔干瓦尔希迭村314国道旁", "image": "", "rank": 12, "time": 2, "location": {"lat": 39.48600686677982, "lng": 75.93873606030208}, "feature": {"sight_features": "", "sight_content": ""}}, {"title": "档案史志馆", "address": "慕士塔格路", "image": "", "rank": 13, "time": 2, "location": {"lat": 39.15801821253626, "lng": 75.9610548218163}, "feature": {"sight_features": "", "sight_content": ""}}, {"title": "塔什库尔干塔吉克自治县博物馆", "address": "友谊路36号", "image": "", "rank": 14, "time": 2, "location": {"lat": 39.0895079323582, "lng": 117.21452417127539}, "feature": {"sight_features": "", "sight_content": ""}}, {"title": "布伦口湖群湿地", "address": "新疆维吾尔自治区喀什市市区西南120公里", "image": "", "rank": 16, "time": 2, "location": {"lat": 39.47364953291228, "lng": 76.00031273791514}, "feature": {"sight_features": "", "sight_content": ""}}, {"title": "红其拉甫口岸", "address": "新疆维吾尔自治区塔什库尔干塔吉克自治县红其拉甫公路口岸", "image": "", "rank": 17, "time": null, "location": {"lat": 36.930764615356175, "lng": 75.5548321660204}, "feature": {"sight_features": "", "sight_content": ""}}, {"title": "乔戈里峰 Qiaogeli Peak", "address": "新疆维吾尔自治区叶城县中国和巴基斯坦边界", "image": "", "rank": 18, "time": null, "location": {"lat": 37.88916684442745, "lng": 77.42009762186518}, "feature": {"sight_features": "", "sight_content": ""}}, {"title": "吉日尕拉", "address": "新疆维吾尔自治区喀什市塔什库尔干河谷", "image": "", "rank": 19, "time": 2, "location": {"lat": 39.48600686677982, "lng": 75.93873606030208}, "feature": {"sight_features": "", "sight_content": ""}}, {"title": "哈虎阿勒", "address": "喀什地区-塔什库尔干塔吉克自治县", "image": "", "rank": 20, "time": 2, "location": {"lat": 37.77904564076277, "lng": 75.23080474483845}, "feature": {"sight_features": "", "sight_content": ""}}, {"title": "冬孜哈木西", "address": "喀什地区-塔什库尔干塔吉克自治县", "image": "", "rank": 21, "time": 2, "location": {"lat": 37.77904564076277, "lng": 75.23080474483845}, "feature": {"sight_features": "", "sight_content": ""}}, {"title": "沙哈来哈拉", "address": "喀什地区-塔什库尔干塔吉克自治县", "image": "", "rank": 22, "time": 2, "location": {"lat": 37.77904564076277, "lng": 75.23080474483845}, "feature": {"sight_features": "", "sight_content": ""}}, {"title": "哈木勒提", "address": "喀什地区-塔什库尔干塔吉克自治县", "image": "", "rank": 23, "time": 2, "location": {"lat": 37.77904564076277, "lng": 75.23080474483845}, "feature": {"sight_features": "", "sight_content": ""}}, {"title": "哈木协热", "address": "喀什地区-塔什库尔干塔吉克自治县", "image": "", "rank": 24, "time": 2, "location": {"lat": 37.77904564076277, "lng": 75.23080474483845}, "feature": {"sight_features": "", "sight_content": ""}}, {"title": "哈买子", "address": "喀什地区-塔什库尔干塔吉克自治县", "image": "", "rank": 25, "time": 2, "location": {"lat": 37.77904564076277, "lng": 75.23080474483845}, "feature": {"sight_features": "", "sight_content": ""}}, {"title": "齐热哈塔尔", "address": "喀什地区-塔什库尔干塔吉克自治县", "image": "", "rank": 26, "time": 2, "location": {"lat": 37.77904564076277, "lng": 75.23080474483845}, "feature": {"sight_features": "", "sight_content": ""}}, {"title": "达布达尔牧场", "address": "喀什地区-塔什库尔干塔吉克自治县", "image": "", "rank": 27, "time": 2, "location": {"lat": 37.77904564076277, "lng": 75.23080474483845}, "feature": {"sight_features": "", "sight_content": ""}}, {"title": "若格列日", "address": "喀什地区-塔什库尔干塔吉克自治县", "image": "", "rank": 28, "time": 2, "location": {"lat": 37.77904564076277, "lng": 75.23080474483845}, "feature": {"sight_features": "", "sight_content": ""}}, {"title": "慕士塔格冰川公园", "address": "新疆维吾尔自治区塔什库尔干塔吉克自治县", "image": "", "rank": 29, "time": 2, "location": {"lat": 37.77904564076277, "lng": 75.23080474483845}, "feature": {"sight_features": "", "sight_content": ""}}, {"title": "提孜那甫村", "address": "新疆维吾尔自治区喀什地区塔什库尔干塔吉克自治县提孜那甫村", "image": "", "rank": 30, "time": 2, "location": {"lat": 37.812096932322504, "lng": 75.20816392813279}, "feature": {"sight_features": "", "sight_content": ""}}, {"title": "提孜那甫村", "address": "新疆维吾尔自治区喀什地区塔什库尔干塔吉克自治县提孜那甫村", "image": "", "rank": 31, "time": 2, "location": {"lat": 37.812096932322504, "lng": 75.20816392813279}, "feature": {"sight_features": "", "sight_content": ""}}, {"title": "塔合曼湿地公园观景台", "address": "喀什地区塔什库尔干塔吉克自治县G314(乌红线)", "image": "", "rank": 32, "time": 2, "location": {"lat": 37.77904564076277, "lng": 75.23080474483845}, "feature": {"sight_features": "", "sight_content": ""}}]}