{"cityName": "特克斯", "days": 2, "cityImage": "", "spots": [{"title": "阔克苏大峡谷", "address": "新疆维吾尔自治区特克斯县内", "image": "", "rank": 1, "time": 1.0, "location": {"lat": 43.224248213467376, "lng": 81.84258724924386}, "feature": {"sight_features": "", "sight_content": ""}}, {"title": "八卦公园太极眼景区", "address": "伊犁特克斯县阿克奇街四环八卦公园", "image": "", "rank": 2, "time": 2, "location": {"lat": 43.220084340845034, "lng": 81.82718386551674}, "feature": {"sight_features": "", "sight_content": ""}}, {"title": "柒公里田园", "address": "766县道", "image": "", "rank": 3, "time": 2, "location": {"lat": 29.26877019890292, "lng": 106.66835620737432}, "feature": {"sight_features": "", "sight_content": ""}}, {"title": "琼库什台紫花坡", "address": "伊犁哈萨克自治州特克斯县琼库什台村", "image": "", "rank": 4, "time": 2, "location": {"lat": 42.92727109833168, "lng": 82.2051427242571}, "feature": {"sight_features": "", "sight_content": ""}}, {"title": "库克苏温泉", "address": "哈萨克自治州特克斯县境内库克苏大峡谷深处", "image": "", "rank": 5, "time": 2, "location": {"lat": 43.224248213467376, "lng": 81.84258724924386}, "feature": {"sight_features": "", "sight_content": ""}}, {"title": "库尔代森林大峡谷", "address": "伊犁哈萨克自治州特克斯县喀拉峻东喀拉峻景区内", "image": "", "rank": 6, "time": 2, "location": {"lat": 43.224248213467376, "lng": 81.84258724924386}, "feature": {"sight_features": "", "sight_content": ""}}, {"title": "东站回民农家乐", "address": "霍斯库勒街三环至四环中间(东站)", "image": "", "rank": 7, "time": 2, "location": {"lat": 43.22236846586236, "lng": 81.85481617805303}, "feature": {"sight_features": "", "sight_content": ""}}, {"title": "喀拉峻牧业村", "address": "伊犁哈萨克自治州特克斯县", "image": "", "rank": 8, "time": 2, "location": {"lat": 43.224248213467376, "lng": 81.84258724924386}, "feature": {"sight_features": "", "sight_content": ""}}]}