{"cityName": "滕州", "days": 2, "cityImage": "", "spots": [{"title": "微山湖红荷湿地景区", "address": "枣庄市滕州市滨湖镇", "image": "", "rank": 1, "time": 3.5, "location": {"lat": 35.125378181167314, "lng": 116.89057049468768}, "feature": {"sight_features": "特色1 夏季来坐游船观赏万顷红荷铺满湖面，其景美不胜收。 特色2 参观湿地博物馆，登湖中小岛参观《铁道游击队》的拍摄地。", "sight_content": "‍滕州市微山湖古镇荣获“影响世界的—中国文化旅游名镇”荣誉称号，滕州市微山湖湿地红荷风景区荣获“影响世界的—中国文化旅游名景”荣誉称号。\n\n\n滕州微山湖湿地红荷旅游区位于滕州市西部滨湖镇境内，总面积90平方公。这里有55公里的湖岸线、丰富的物种资源、十万多亩的野生红荷、数十平方公里的芦荡湿地及国内罕见的水上森林，风光旖旎，美不胜收，不仅是体验水乡风韵、感受湿地风情、尽览生态胜景的胜地，也是人们休闲度假的旅游胜地。\n\n\n滕州微山湖湿地红荷旅游区现已被评为国家aaaa旅游景区、国家湿地公园、国家级水利风景区、全国环境教育示范基地、全国湿地红荷标准化示范区、全国摄影家协会拍摄基地、全国垂钓协会比赛基地、山东省消费者满意单位，影响力辐射国内外。滕州微山湖湿地红荷风景区是“泰山—曲阜”旅游热线上的新亮点。微山湖湿地红荷旅游区，拥有久负盛名的万顷红荷，百里芦荡，素有中国\"荷都\"之称。\n\n\n万顷红荷，百里芦荡，鸥鹭翔集，碧水白矾，构成了微山湖独有的风韵。景区内还有古龙泉，牧仙洞，元明百寿石坊等景点和\"鱼舟唱晚\"，\"芦荡飞雪\"等奇景。\n\n\n网红桥简介：\n夏游万顷红荷，苇浪翻波，现更能体验不一样的玩法。\n一桥架南北，步步惊心思绪飞。全程396米，江北最长的网红吊桥、溜索。步惊心桥:不一样的网红桥，推出网红新玩法，吊桥全长396米，让你在桥上领略不一样的荷花美。\n索引天下客，坐瞰荷花美，高空溜索，集惊险刺激于一身，索长396米，让您在体验刺激的同时还能在高空上观看不一样的景观。\n漫步湖端，步步惊心；天空之索，放胆滑来。\n盛夏的湿地是一个美丽的季节，可以在步步惊心桥上观赏荷花的盛开，可以在滑索上全方位体验荷花不一样的美，湿地的夏应该是满目的绿，漫野的红荷，睡莲的盛开让我们更能感受到湿地的热情。"}}, {"title": "新盈泰生态温泉度假村", "address": "滕州市平行南路原104国道路西", "image": "", "rank": 2, "time": 2, "location": {"lat": 34.94743255351319, "lng": 117.17076842852876}, "feature": {"sight_features": "特色1 全世界都在寻找的稀有铁泉 特色2 设有免费宽屏影院、休息室、棋牌室、按摩室、图书室、健身房等 特色3 温泉中心建筑面积20000平方米，日接待能力可达2000人集温泉养生、观景休闲、健身疗养、自助餐饮多种功能于一体", "sight_content": "盈泰温泉度假村中心占地面积2万平方米，日平均可接待3000人。盈泰温泉度假村是以温泉洗浴、观景休闲、健身疗养为一体的娱乐场所。\n盈泰温泉度假村分上下两层，一层设有男、女宾洗浴区、嬉水大厅、游泳馆、茶艺馆、健身房、理发室等；二楼设有豪华休息室、自助餐厅中医理疗室、棋牌室、按摩室等。盈泰温泉度假村来自地下1580米深处，出水温度42.8度。水质清澈柔滑，富含多种矿物质。由于盈泰温泉度假村所处的独特地层结构，使得温泉水中含铁量极高，十分罕见。又由于盈泰温泉水和空气接触后氧化，造成了铁离子的沉淀，故而水质发黄。经科学调查证明，盈泰温泉水发黄时，方为泡温泉的最佳时间，特别是盈泰温泉水中的铁离子更容易被人体吸收，可明显起到补血、养颜、改善微循环的作用。\n经日本温泉协会鉴定，盈泰温泉水中含二价铁离子40mg/升以上，是名副其实的真正“铁泉”，被世界温泉协会誉称为“全世界都在寻找的稀有铁泉”。"}}, {"title": "莲青山省级地质公园", "address": "枣庄市滕州市东郭镇莲青山风景区", "image": "", "rank": 3, "time": 2, "location": {"lat": 35.27691954019191, "lng": 117.33281166732016}, "feature": {"sight_features": "特色1 旅游资源丰富，文化积淀深厚", "sight_content": "国家aaa级风景名胜区、国家森林公园，省级地质公园、山东十大影视拍摄地——莲青山风景区位于滕州市东北部东郭镇境内。规划控制面积84平方公里。北依齐鲁孔孟圣地；南领苏淮平原；东连沂蒙山；西接微山湖。莲青山山脉有大小山头99座，总面积140平方公里，主峰摩天岭海拔603米，是鲁南地区的第二高峰，莲青山北部有两万亩原始森林，森林覆盖率达到93%。古皇城位于莲青山山脉上，背依主峰，面积33万平方米，城前建有御桥，桥前有一小山作为屏风，构成三山加一头之地势。皇城择地势险峻而建，进可攻，退可守，有一夫当关，万夫莫开之势。\n\n\n摩天岭南麓林木覆盖率达95％以上，多为五角枫、榆等珍贵名木；其中，四季常青的松柏流翠欲滴，形态各异，微风吹过，飒飒作响，“青山松涛”由此成名。由摩天岭南行约两公里，即是奇石遍布的“旱海奇观”；连绵起伏的群山之中，岩石裸露，山峰林立，远望如一望无际的大海，古人称之为“旱海”，海内巨石、奇石遍布，有的像人，有的似物，飞禽走兽无所不有。据地质专家考证，“旱海”由变质岩系组成，岩层由太古界泰山群时期发育而成，全为花岗岩石结构。"}}, {"title": "莲青山滑雪场", "address": "枣庄市滕州市莲青山滑雪度假中心", "image": "", "rank": 4, "time": 2, "location": {"lat": 35.27201983566741, "lng": 117.31000157850558}, "feature": {"sight_features": "", "sight_content": ""}}, {"title": "MC真人密室逃脱", "address": "枣庄市滕州市大同南路问天广场南188米路西", "image": "", "rank": 5, "time": 2, "location": {"lat": 35.08227651865605, "lng": 117.16365254724505}, "feature": {"sight_features": "", "sight_content": ""}}, {"title": "荆河公园", "address": "枣庄市滕州市善国南路50号", "image": "", "rank": 6, "time": 2, "location": {"lat": 35.08316050940242, "lng": 117.1734175314777}, "feature": {"sight_features": "", "sight_content": ""}}, {"title": "凤凰乐园", "address": "枣庄市滕州市高铁新区北辛东路凤凰乐园", "image": "", "rank": 7, "time": 5.5, "location": {"lat": 35.115116756417315, "lng": 117.21267216804277}, "feature": {"sight_features": "", "sight_content": ""}}, {"title": "刘村梨园风景区", "address": "枣庄市滕州市柴胡店镇刘村万亩梨园东部", "image": "", "rank": 8, "time": 2, "location": {"lat": 34.904035019880745, "lng": 117.25785598299082}, "feature": {"sight_features": "", "sight_content": ""}}, {"title": "莲青山漂流", "address": "枣庄市滕州市东郭镇", "image": "", "rank": 9, "time": 2, "location": {"lat": 35.22142667341157, "lng": 117.27142364715912}, "feature": {"sight_features": "", "sight_content": ""}}, {"title": "滕州博物馆", "address": "山东省滕州市龙山路82号", "image": "", "rank": 10, "time": 2.5, "location": {"lat": 35.10588162731244, "lng": 117.17006827663802}, "feature": {"sight_features": "", "sight_content": ""}}, {"title": "北台上遗址", "address": "滕州市羊庄镇北台上村西的大台一带", "image": "", "rank": 11, "time": 2, "location": {"lat": 34.97814535722946, "lng": 117.35284273305653}, "feature": {"sight_features": "", "sight_content": ""}}, {"title": "龙山", "address": "山东省枣庄市滕州市龙阳镇甘沟村", "image": "", "rank": 12, "time": 2.0, "location": {"lat": 35.21396081693404, "lng": 117.1703809543284}, "feature": {"sight_features": "", "sight_content": ""}}, {"title": "刘家面馆", "address": "南环路附近", "image": "", "rank": 13, "time": 2, "location": {"lat": 38.02445208545248, "lng": 114.78866638114692}, "feature": {"sight_features": "", "sight_content": ""}}, {"title": "微山湖湿地博物馆", "address": "山东省枣庄市滕州市滨湖镇", "image": "", "rank": 14, "time": 3.0, "location": {"lat": 35.125378181167314, "lng": 116.89057049468768}, "feature": {"sight_features": "", "sight_content": ""}}, {"title": "鲁班纪念馆", "address": "塔寺中路王学仲艺术馆旁", "image": "", "rank": 15, "time": 2, "location": {"lat": 35.09186820309673, "lng": 117.1792201538855}, "feature": {"sight_features": "", "sight_content": ""}}, {"title": "滕州站站前广场", "address": "山东省枣庄市滕州市大同路附近", "image": "", "rank": 16, "time": 3.5, "location": {"lat": 35.093889863089245, "lng": 117.15891425517158}, "feature": {"sight_features": "", "sight_content": ""}}, {"title": "滕州游乐园", "address": "枣庄市滕州市平行南路盈泰生态园内", "image": "", "rank": 17, "time": 4.5, "location": {"lat": 35.064034530109794, "lng": 117.15981352815659}, "feature": {"sight_features": "", "sight_content": ""}}, {"title": "滕州市动物园", "address": "威尼斯北", "image": "", "rank": 18, "time": 1.0, "location": {"lat": 40.83652825365227, "lng": 114.9029890881454}, "feature": {"sight_features": "", "sight_content": ""}}, {"title": "佰家汤泉", "address": "学院东路滕州宾馆东临", "image": "", "rank": 19, "time": 2, "location": {"lat": 35.10601818432121, "lng": 117.20029448109878}, "feature": {"sight_features": "", "sight_content": ""}}, {"title": "北辛植物园", "address": "京台高速公路", "image": "", "rank": 20, "time": 2, "location": {"lat": 39.123678136615176, "lng": 116.93357903050432}, "feature": {"sight_features": "", "sight_content": ""}}, {"title": "鲁南人民抗日武装起义纪念馆", "address": "国防路", "image": "", "rank": 21, "time": 2.5, "location": {"lat": 42.38960069334583, "lng": 126.80861987145664}, "feature": {"sight_features": "", "sight_content": ""}}, {"title": "东郭镇渔王休闲垂钓中心", "address": "东郭镇莲青山路户主水库管理所向西300米", "image": "", "rank": 22, "time": 2, "location": {"lat": 35.234528347618316, "lng": 117.28429337016654}, "feature": {"sight_features": "", "sight_content": ""}}, {"title": "海纳川婚礼庆典舞美演出", "address": "塔寺路", "image": "", "rank": 23, "time": 2, "location": {"lat": 40.06092486329654, "lng": 117.00623135799755}, "feature": {"sight_features": "", "sight_content": ""}}, {"title": "鲁南铁路管理局遗址", "address": "滨湖镇微山湖", "image": "", "rank": 24, "time": 2, "location": {"lat": 44.20160654634496, "lng": 87.46506930395115}, "feature": {"sight_features": "", "sight_content": ""}}, {"title": "刘知侠纪念馆", "address": "滨湖镇微山湖", "image": "", "rank": 25, "time": 2, "location": {"lat": 44.20160654634496, "lng": 87.46506930395115}, "feature": {"sight_features": "", "sight_content": ""}}, {"title": "前王晁", "address": "级索镇", "image": "", "rank": 26, "time": 2, "location": {"lat": 35.040907462689525, "lng": 117.00204210396363}, "feature": {"sight_features": "", "sight_content": ""}}, {"title": "胡路口生态垂钓农家乐", "address": "胡路口村", "image": "", "rank": 27, "time": 2, "location": {"lat": 35.08657766203707, "lng": 116.90846351425941}, "feature": {"sight_features": "", "sight_content": ""}}, {"title": "山东创新种湖羊繁殖基地(西门)", "address": "104国道附近", "image": "", "rank": 28, "time": null, "location": {"lat": 39.73874726467032, "lng": 116.46892125561638}, "feature": {"sight_features": "", "sight_content": ""}}, {"title": "滕州市图书馆(东沙河分馆)", "address": "荆河东路", "image": "", "rank": 29, "time": 3.5, "location": {"lat": 35.09588472442399, "lng": 117.21877718164457}, "feature": {"sight_features": "", "sight_content": ""}}, {"title": "垂钓中心", "address": "曹楼村附近", "image": "", "rank": 30, "time": 2, "location": {"lat": 34.460139186832265, "lng": 116.9089029320776}, "feature": {"sight_features": "", "sight_content": ""}}, {"title": "汉画像石馆", "address": "山东省滕州市塔寺街 277500", "image": "", "rank": 31, "time": 3.0, "location": {"lat": 35.09393096717839, "lng": 117.17889782390242}, "feature": {"sight_features": "", "sight_content": ""}}, {"title": "亲子游部落", "address": "北辛中路（长途汽车站西临）伦达莱迪时尚馆二楼D-007", "image": "", "rank": 32, "time": 2, "location": {"lat": 35.116233505835446, "lng": 117.15227735936884}, "feature": {"sight_features": "", "sight_content": ""}}, {"title": "财神殿", "address": "枣庄市滕州市滨湖镇境内山东滕州微山湖湿地红荷旅游风景区内", "image": "", "rank": 33, "time": 2, "location": {"lat": 35.12377579198078, "lng": 116.85213848408827}, "feature": {"sight_features": "", "sight_content": ""}}, {"title": "湿地保护展厅", "address": "枣庄市滕州市滨湖镇境内山东滕州微山湖湿地红荷旅游风景区微山湖湿地博物馆内", "image": "", "rank": 34, "time": 2, "location": {"lat": 35.1259377379287, "lng": 116.85295410866081}, "feature": {"sight_features": "", "sight_content": ""}}, {"title": "滕州市市民公园", "address": "北辛中路与尚同路交叉口西南150米", "image": "", "rank": 35, "time": 3.5, "location": {"lat": 35.11577022616122, "lng": 117.17411313165444}, "feature": {"sight_features": "", "sight_content": ""}}, {"title": "奇乐多儿童乐园", "address": "山东省枣庄市滕州市大坞镇", "image": "", "rank": 36, "time": 2, "location": {"lat": 35.14764400624839, "lng": 117.00554552689323}, "feature": {"sight_features": "", "sight_content": ""}}, {"title": "弘道公园", "address": "塔寺北路与育才路交叉口东南100米", "image": "", "rank": 37, "time": 2, "location": {"lat": 35.109749371207904, "lng": 117.1780369444949}, "feature": {"sight_features": "", "sight_content": ""}}, {"title": "东方国际儿童乐园", "address": "枣庄市滕州市学院中路1388号东方购物中心2层", "image": "", "rank": 38, "time": 1.5, "location": {"lat": 35.105599659364046, "lng": 117.16684424917965}, "feature": {"sight_features": "", "sight_content": ""}}, {"title": "洪福寺", "address": "山东省枣庄市滕州市S345", "image": "", "rank": 39, "time": 2, "location": {"lat": 35.120034809573916, "lng": 117.17256521920983}, "feature": {"sight_features": "", "sight_content": ""}}, {"title": "小勇士儿童拓展乐园", "address": "滕州市步行街北头华联和如家中间", "image": "", "rank": 40, "time": 2, "location": {"lat": 35.120034809573916, "lng": 117.17256521920983}, "feature": {"sight_features": "", "sight_content": ""}}, {"title": "尚同园", "address": "清河路", "image": "", "rank": 41, "time": 2, "location": {"lat": 45.983639038597964, "lng": 128.76665667292377}, "feature": {"sight_features": "", "sight_content": ""}}, {"title": "养德公园", "address": "山东省枣庄市滕州市S343", "image": "", "rank": 42, "time": 2, "location": {"lat": 35.120034809573916, "lng": 117.17256521920983}, "feature": {"sight_features": "", "sight_content": ""}}, {"title": "家家悦海贝乐儿童乐园", "address": "新兴南路问天科技广场家家悦超市2层", "image": "", "rank": 43, "time": 2, "location": {"lat": 35.08458028171611, "lng": 117.16467055376086}, "feature": {"sight_features": "", "sight_content": ""}}, {"title": "清水湾公园", "address": "山东省枣庄市滕州市柳屯路", "image": "", "rank": 44, "time": 2, "location": {"lat": 35.100236949193054, "lng": 117.13696249727177}, "feature": {"sight_features": "", "sight_content": ""}}, {"title": "滨湖度假村", "address": "滕州市交通港附近", "image": "", "rank": 45, "time": null, "location": {"lat": 35.11289113711716, "lng": 116.86975343857924}, "feature": {"sight_features": "", "sight_content": ""}}, {"title": "官桥剧院", "address": "344省道附近", "image": "", "rank": 46, "time": 2, "location": {"lat": 41.32458237530262, "lng": 114.4727763700204}, "feature": {"sight_features": "", "sight_content": ""}}, {"title": "西里庄", "address": "东朱路北50米", "image": "", "rank": 47, "time": 2, "location": {"lat": 31.48877482536359, "lng": 121.34223187755339}, "feature": {"sight_features": "", "sight_content": ""}}, {"title": "吕坡遗址", "address": "104国道", "image": "", "rank": 48, "time": 2, "location": {"lat": 39.73874726467032, "lng": 116.46892125561638}, "feature": {"sight_features": "", "sight_content": ""}}, {"title": "木石文化广场", "address": "国泰大道", "image": "", "rank": 49, "time": 2, "location": {"lat": 34.99858688833366, "lng": 117.28785985683787}, "feature": {"sight_features": "", "sight_content": ""}}, {"title": "天星舞动艺术团", "address": "新兴南路", "image": "", "rank": 50, "time": 2, "location": {"lat": 31.92935267171767, "lng": 119.06625444118758}, "feature": {"sight_features": "", "sight_content": ""}}, {"title": "刘浩歌当代文学馆", "address": "山东省滕州市望庄计生服务中心斜对面", "image": "", "rank": 51, "time": 2, "location": {"lat": 35.08529683087574, "lng": 116.9443289654066}, "feature": {"sight_features": "", "sight_content": ""}}, {"title": "王山岭袁桂兰书画艺术馆", "address": "山东省滕州市清水湾休闲园内", "image": "", "rank": 52, "time": 2, "location": {"lat": 35.11132188277161, "lng": 117.22160681615352}, "feature": {"sight_features": "", "sight_content": ""}}, {"title": "果多美(翠湖店)", "address": "塔寺北路翠湖天地12号", "image": "", "rank": 53, "time": 2, "location": {"lat": 35.11272556247645, "lng": 117.17690619075626}, "feature": {"sight_features": "", "sight_content": ""}}, {"title": "硅藻泥·海贝泥实景展厅", "address": "枣庄市滕州市", "image": "", "rank": 54, "time": 2, "location": {"lat": 35.120034809573916, "lng": 117.17256521920983}, "feature": {"sight_features": "", "sight_content": ""}}, {"title": "乐高机器人教育", "address": "山东省枣庄市滕州市北辛街道新兴中路丽都水岸东区", "image": "", "rank": 55, "time": 2, "location": {"lat": 35.103593368979226, "lng": 117.16406909330665}, "feature": {"sight_features": "", "sight_content": ""}}, {"title": "保利海德佳园", "address": "枣庄市滕州市维多利亚港湾南门对面", "image": "", "rank": 56, "time": 2, "location": {"lat": 35.11770795755745, "lng": 117.20245797715681}, "feature": {"sight_features": "", "sight_content": ""}}, {"title": "来自购儿童乐园", "address": "学院中路与大同路交界处昊洋大厦1层进门直走60米路北8号", "image": "", "rank": 57, "time": 2, "location": {"lat": 39.63066079909864, "lng": 118.20639924927531}, "feature": {"sight_features": "", "sight_content": ""}}, {"title": "滕州市锦天牡丹园", "address": "山东省滕州市龙阳旅游区冯庄村", "image": "", "rank": 58, "time": 3.5, "location": {"lat": 35.16594241717084, "lng": 117.17616095650517}, "feature": {"sight_features": "", "sight_content": ""}}, {"title": "龙湖度假村", "address": "山东省枣庄市滕州市龙阳镇马河水库西畔", "image": "", "rank": 59, "time": 2, "location": {"lat": 35.198282178395786, "lng": 117.16727319006065}, "feature": {"sight_features": "", "sight_content": ""}}, {"title": "中衡健康", "address": "山东省枣庄市滕州市塔寺北路737", "image": "", "rank": 60, "time": 2, "location": {"lat": 35.11290812580904, "lng": 117.17839870380173}, "feature": {"sight_features": "", "sight_content": ""}}]}