{"cityName": "藤县", "days": 2, "cityImage": "", "spots": [{"title": "石表山", "address": "梧州市藤县象棋镇道家村", "image": "", "rank": 1, "time": 4.5, "location": {"lat": 23.133855026503557, "lng": 110.6982033868103}, "feature": {"sight_features": "特色1 欣赏壮美辽阔的丹霞地貌，畅玩洁净沙滩，尽享度假乐趣。 特色2 \"理想的观光、娱乐、休闲、疗养场所 \" 特色3 集“雅、幽、奇、险、神”于一体", "sight_content": "石表山休闲旅游风景区位于广西东部的梧州市藤县境内，总面积约15.8平方公里，处在珠三角经济圈和北部湾经济圈的交汇点，距梧州市仅88公里，交通便利，旅游资源丰富，类型多样，包括原生态水域景观、沙滩景观、丹霞地貌景观、历史人文景观、田园村落景观等，是丹山、碧水、沙滩、翠竹、村落组合完美的地方，是按国家aaaa级旅游景区规划为集休闲、度假、揽胜于一体的天人合一山水诗 画景区，具有较高的观赏游憩价值。\n石表山景区内道家沙滩公园，滨临于素有“古代南方水上丝绸之路”美誉的北流河。沙滩的沙子中含有丰富矿物质，利用这些天沙子进行沙疗，有十分明显的理疗效果，园内还设有沙地拓展营地、沙地露营、沙地娱乐、沙地美食、水上乐园等项目，在园内可踏沙戏水，是理想的观光、娱乐、休闲、疗养场所。\n\n景区内的石表山寨属典型的丹霞地貌，集“雅、幽、奇、险、神”于一体，山上植被丰富，城墙式的丹崖绝壁及险峻幽深的额状岩廊随处可见，站在山上还可领略山下如诗如画、如梦如幻的田园风光。因山势险要，石表山还是天然的军事要塞，在秦汉时期便有人在山上筑寨而居，至今山上仍留存有古人构筑的古寨门、古石墙、古城堡、古石井等遗迹。石表山寨是丹霞地貌、生态知识、历史文化修学旅游的好去处。\n明澈的河水、洁净的沙滩、深幽的峡谷、青葱的竹林、神秘的山寨、鬼斧神工的丹霞景观、古朴天成的村落，融合了自然的钟秀、文化的气韵和历史的沧桑，使得整个景区魅力无穷。景区资源实体体量巨大，疏密度优良，元素组合度高，互补性强，可以满足游客多样化的旅游需求，据考证，景区内有四级旅游资源4处，三级旅游资源37处，二级旅游资源58处，一级资源16处，旅游资源基本类型多达43种，达到了ⅰ级标准。\n2007年以来，石表山景区被评为广西农业旅游示范点、梧州市十大好玩景点之一。"}}, {"title": "太平狮山", "address": "梧州市藤县太平镇东南方向5公里", "image": "", "rank": 2, "time": 3.5, "location": {"lat": 23.657140286001297, "lng": 110.75161728099253}, "feature": {"sight_features": "", "sight_content": ""}}, {"title": "蝴蝶谷生态旅游度假区", "address": "梧州市藤县埌南镇黎寨村", "image": "", "rank": 3, "time": 2.5, "location": {"lat": 23.19694970299413, "lng": 111.08166847830677}, "feature": {"sight_features": "", "sight_content": ""}}, {"title": "道家村", "address": "广西梧州藤县", "image": "", "rank": 4, "time": 1.0, "location": {"lat": 23.381009915550127, "lng": 110.92149925487912}, "feature": {"sight_features": "", "sight_content": ""}}, {"title": "袁崇焕故里", "address": "广西梧州市藤县天平镇新马村", "image": "", "rank": 5, "time": 1.0, "location": {"lat": 23.458049636914428, "lng": 110.60745000659209}, "feature": {"sight_features": "", "sight_content": ""}}, {"title": "禤洲岛", "address": "广西梧州市藤县", "image": "", "rank": 6, "time": 1.0, "location": {"lat": 23.381009915550127, "lng": 110.92149925487912}, "feature": {"sight_features": "", "sight_content": ""}}, {"title": "古井景区", "address": "广西壮族自治区梧州市藤县石表山休闲旅游风景区内", "image": "", "rank": 7, "time": 2, "location": {"lat": 23.139024524972413, "lng": 110.69068320965974}, "feature": {"sight_features": "", "sight_content": ""}}, {"title": "藤县龙母庙", "address": "广西梧州市藤县胜西村", "image": "", "rank": 8, "time": 1.0, "location": {"lat": 23.378242271722435, "lng": 110.93222193429035}, "feature": {"sight_features": "", "sight_content": ""}}, {"title": "小娘山", "address": "广西梧州市藤县小娘山林场内", "image": "", "rank": 9, "time": 1.0, "location": {"lat": 23.233999976211702, "lng": 110.9181279502335}, "feature": {"sight_features": "", "sight_content": ""}}, {"title": "爽心瀑布", "address": "广西梧州市藤县埌南镇黎寨村", "image": "", "rank": 10, "time": 1.0, "location": {"lat": 23.19694970299413, "lng": 111.08166847830677}, "feature": {"sight_features": "", "sight_content": ""}}, {"title": "石马山", "address": "广西梧州市藤县天平镇回龙村", "image": "", "rank": 11, "time": 1.0, "location": {"lat": 23.380415405954338, "lng": 110.82028205276193}, "feature": {"sight_features": "", "sight_content": ""}}, {"title": "道家沙滩公园", "address": "广西壮族自治区梧州市藤县石表山休闲旅游风景区内", "image": "", "rank": 12, "time": 2, "location": {"lat": 23.139024524972413, "lng": 110.69068320965974}, "feature": {"sight_features": "特色1 集“雅、幽、奇、险、神”于一体", "sight_content": "石表山休闲旅游风景区位于广西东部的梧州市藤县境内，总面积约15.8平方公里，处在珠三角经济圈和北部湾经济圈的交汇点，距梧州市仅88公里，交通便利，旅游资源丰富，类型多样，包括原生态水域景观、沙滩景观、丹霞地貌景观、历史人文景观、田园村落景观等，是丹山、碧水、沙滩、翠竹、村落组合完美的地方，是按国家aaaa级旅游景区规划为集休闲、度假、揽胜于一体的天人合一山水诗 画景区，具有较高的观赏游憩价值。\n石表山景区内道家沙滩公园，滨临于素有“古代南方水上丝绸之路”美誉的北流河。沙滩的沙子中含有丰富矿物质，利用这些天沙子进行沙疗，有十分明显的理疗效果，园内还设有沙地拓展营地、沙地露营、沙地娱乐、沙地美食、水上乐园等项目，在园内可踏沙戏水，是理想的观光、娱乐、休闲、疗养场所。"}}, {"title": "思罗河漂流", "address": "梧州市藤县象棋镇道家村石表山景区", "image": "", "rank": 13, "time": 2, "location": {"lat": 23.118782245522567, "lng": 110.69881133033518}, "feature": {"sight_features": "特色1 在细软的沙滩上或清凉的河水里赤脚奔走", "sight_content": "思罗河，是一条原生态、宁静的河，河岸两旁是典型的丹霞地貌，各种形象各异、栩栩如生的丹霞石壁景观随处可见。\n思罗河休闲竹排漂流，整个游程约7公里，丹山、碧水、金滩、翠竹把思罗河点缀成一条如诗如梦般的立体画廊。河水清澈、舒缓，又常有沙滩显露，伸伸手，就可以捧起一捧水，抓起一把沙，素有三滩九洲十八弯之称。在河面上顺水而下，悠然而漂，把身心全部舒展在大自然中，沐清风、闻水声、听鸟鸣、赏翠竹、观丹崖，感受思罗河的温柔和宁静，尽享两岸原生态风光。还可以忘情的重拾童年旧梦——相互戏水，打水仗：聆听排工原汁原味的本地山歌。"}}, {"title": "石龙大峡谷", "address": "广西壮族自治区梧州市藤县石表山休闲旅游风景区内", "image": "", "rank": 14, "time": 2.0, "location": {"lat": 23.139024524972413, "lng": 110.69068320965974}, "feature": {"sight_features": "", "sight_content": "丹山、古树、碧潭、绿水、幽谷、寺庙在石龙大峡谷景区完美结合，天人合一,是游客观光、寻幽、休闲、礼佛的好地方。"}}, {"title": "藤县图书馆", "address": "登俊路49号", "image": "", "rank": 15, "time": 1.5, "location": {"lat": 23.38004278115691, "lng": 110.92014420144152}, "feature": {"sight_features": "", "sight_content": ""}}, {"title": "东宅江瑶寨蝴蝶谷", "address": "广西壮族自治区临桂县宛田乡东部 541112", "image": "", "rank": 16, "time": 2, "location": {"lat": 25.535852597109464, "lng": 114.93574313890022}, "feature": {"sight_features": "", "sight_content": ""}}, {"title": "金莎湾音乐厅", "address": "津南路280号", "image": "", "rank": 17, "time": 2, "location": {"lat": 23.383693294296865, "lng": 110.93393752174599}, "feature": {"sight_features": "", "sight_content": ""}}, {"title": "梧州市黄五公庙", "address": "广西壮族自治区梧州市藤县X689", "image": "", "rank": 18, "time": 2.5, "location": {"lat": 23.381009915550127, "lng": 110.92149925487912}, "feature": {"sight_features": "", "sight_content": ""}}, {"title": "儿童乐园", "address": "梧州市藤县", "image": "", "rank": 19, "time": 2, "location": {"lat": 23.381009915550127, "lng": 110.92149925487912}, "feature": {"sight_features": "", "sight_content": ""}}, {"title": "乐堡", "address": "广西壮族自治区梧州市藤县金川街230号", "image": "", "rank": 20, "time": 2, "location": {"lat": 23.380946558818295, "lng": 110.93567523446629}, "feature": {"sight_features": "", "sight_content": ""}}, {"title": "爱立方儿童乐园", "address": "政贤路49", "image": "", "rank": 21, "time": 2, "location": {"lat": 22.62005538702854, "lng": 113.19968706103022}, "feature": {"sight_features": "", "sight_content": ""}}, {"title": "周氏大宗祠", "address": "广西壮族自治区梧州市藤县蒙江G321", "image": "", "rank": 22, "time": 2, "location": {"lat": 23.707596995791235, "lng": 110.63432137862539}, "feature": {"sight_features": "", "sight_content": ""}}, {"title": "皆用儿童乐园", "address": "广西壮族自治区梧州市藤县登俊路21号", "image": "", "rank": 23, "time": 2, "location": {"lat": 23.38069570234758, "lng": 110.91944150644808}, "feature": {"sight_features": "", "sight_content": ""}}, {"title": "藤县藤城基督教会", "address": "广西壮族自治区梧州市藤县藤州镇西江路藤州基督教堂", "image": "", "rank": 24, "time": 1.0, "location": {"lat": 23.382136119468658, "lng": 110.91937198388977}, "feature": {"sight_features": "", "sight_content": ""}}, {"title": "藤州文化广场", "address": "滕州大道附近", "image": "", "rank": 25, "time": 2, "location": {"lat": 23.381793662326338, "lng": 110.93981238049113}, "feature": {"sight_features": "", "sight_content": ""}}, {"title": "藤州基督教堂", "address": "登俊路与西江路交叉口东100米", "image": "", "rank": 26, "time": 2, "location": {"lat": 23.38223285327823, "lng": 110.9198789012821}, "feature": {"sight_features": "", "sight_content": ""}}, {"title": "米兰二楼儿童乐园", "address": "河东米兰广场", "image": "", "rank": 27, "time": 2.0, "location": {"lat": 39.12662568466626, "lng": 117.2616931652718}, "feature": {"sight_features": "", "sight_content": ""}}, {"title": "米兰商场儿童乐园", "address": "米兰春天广场一层", "image": "", "rank": 28, "time": 2.0, "location": {"lat": 30.50819403895656, "lng": 114.41305732334433}, "feature": {"sight_features": "", "sight_content": ""}}, {"title": "灵峰广场儿童乐园", "address": "河西灵峰购物广场二楼", "image": "", "rank": 29, "time": 2, "location": {"lat": 39.115718082215515, "lng": 117.2294162800198}, "feature": {"sight_features": "", "sight_content": ""}}, {"title": "斌华农庄", "address": "天平街71", "image": "", "rank": 30, "time": 2, "location": {"lat": 38.4885504443963, "lng": 106.27691147304373}, "feature": {"sight_features": "", "sight_content": ""}}, {"title": "孔伏", "address": "梧州市-藤县", "image": "", "rank": 31, "time": 2, "location": {"lat": 23.381009915550127, "lng": 110.92149925487912}, "feature": {"sight_features": "", "sight_content": ""}}]}