{"cityName": "天柱", "days": 2, "cityImage": "", "spots": [{"title": "三门塘", "address": "黔东南天柱县坌处镇", "image": "", "rank": 1, "time": 1.0, "location": {"lat": 26.7803538514337, "lng": 109.30665299468534}, "feature": {"sight_features": "", "sight_content": ""}}, {"title": "金凤山", "address": "黔东南苗族侗族自治州天柱县城东北，距县城10公里", "image": "", "rank": 2, "time": 1.5, "location": {"lat": 26.915804084011683, "lng": 109.21444570160986}, "feature": {"sight_features": "", "sight_content": ""}}, {"title": "庙堂", "address": "黔东南苗族侗族自治州天柱县", "image": "", "rank": 3, "time": 2, "location": {"lat": 26.915804084011683, "lng": 109.21444570160986}, "feature": {"sight_features": "", "sight_content": ""}}, {"title": "甘溪侗寨", "address": "黔东南苗族侗族自治州天柱县甘溪侗寨", "image": "", "rank": 4, "time": 2, "location": {"lat": 26.89838445278388, "lng": 109.1777663901743}, "feature": {"sight_features": "", "sight_content": ""}}, {"title": "高华村", "address": "贵州黔东南苗族侗族自治州天柱县高华村", "image": "", "rank": 5, "time": 2, "location": {"lat": 27.04629938072779, "lng": 109.35562289066367}, "feature": {"sight_features": "", "sight_content": ""}}, {"title": "金凤公园广场", "address": "便桥头文化街南200米", "image": "", "rank": 6, "time": 2, "location": {"lat": 26.921649023060677, "lng": 109.2174103208936}, "feature": {"sight_features": "", "sight_content": ""}}, {"title": "天柱县图书馆", "address": "中山路", "image": "", "rank": 7, "time": 2, "location": {"lat": 38.66222906049726, "lng": 114.96165161435523}, "feature": {"sight_features": "", "sight_content": ""}}, {"title": "天柱县档案馆", "address": "环城南路", "image": "", "rank": 8, "time": 2, "location": {"lat": 32.343803277365524, "lng": 118.8527646843988}, "feature": {"sight_features": "", "sight_content": ""}}, {"title": "便桥头文化街", "address": "贵州省天柱县锦绣花园附近", "image": "", "rank": 9, "time": 2, "location": {"lat": 26.92380758023548, "lng": 109.22011106203557}, "feature": {"sight_features": "", "sight_content": ""}}, {"title": "金凤商业步行街", "address": "贵州省天柱县环城北路天柱汽车站附近", "image": "", "rank": 10, "time": 2, "location": {"lat": 26.92127071257595, "lng": 109.21247881318791}, "feature": {"sight_features": "", "sight_content": ""}}, {"title": "大了欧", "address": "黔东南苗族侗族自治州-天柱县", "image": "", "rank": 11, "time": 2, "location": {"lat": 26.915804084011683, "lng": 109.21444570160986}, "feature": {"sight_features": "", "sight_content": ""}}, {"title": "岑至一坡", "address": "黔东南苗族侗族自治州-天柱县", "image": "", "rank": 12, "time": 2, "location": {"lat": 26.915804084011683, "lng": 109.21444570160986}, "feature": {"sight_features": "", "sight_content": ""}}]}