{"cityName": "天峨", "days": 2, "cityImage": "", "spots": [{"title": "川洞景区", "address": "广西壮族自治区河池市天峨县川洞景区", "image": "", "rank": 1, "time": 2, "location": {"lat": 25.14972625240987, "lng": 107.1021693509078}, "feature": {"sight_features": "", "sight_content": ""}}, {"title": "天峨县", "address": "广西壮族自治区河池市", "image": "", "rank": 2, "time": 2, "location": {"lat": 24.698911731272894, "lng": 108.09149994498661}, "feature": {"sight_features": "", "sight_content": ""}}, {"title": "老街兴坪镇", "address": "广西壮族自治区老街", "image": "", "rank": 3, "time": 7.5, "location": {"lat": 24.783107911777112, "lng": 110.50276901298894}, "feature": {"sight_features": "", "sight_content": ""}}, {"title": "龙滩", "address": "广西壮族自治区天峨县境内 547300", "image": "", "rank": 4, "time": 3.0, "location": {"lat": 25.005664155231774, "lng": 107.17845647579135}, "feature": {"sight_features": "", "sight_content": ""}}, {"title": "龙滩森林大峡谷", "address": "广西壮族自治区天峨县城南面 547300", "image": "", "rank": 5, "time": 0.4, "location": {"lat": 25.005664155231774, "lng": 107.17845647579135}, "feature": {"sight_features": "", "sight_content": ""}}, {"title": "开心儿童乐园", "address": "广西壮族自治区河池市天峨县城西路316号", "image": "", "rank": 6, "time": 2, "location": {"lat": 24.992242787173705, "lng": 107.1795078525599}, "feature": {"sight_features": "", "sight_content": ""}}, {"title": "纳乐生态园", "address": "河池市天峨县", "image": "", "rank": 7, "time": 2, "location": {"lat": 25.005664155231774, "lng": 107.17845647579135}, "feature": {"sight_features": "", "sight_content": ""}}, {"title": "中心广场", "address": "新民街附近", "image": "", "rank": 8, "time": 1.0, "location": {"lat": 39.005247218088925, "lng": 117.72219242052326}, "feature": {"sight_features": "", "sight_content": ""}}, {"title": "龙滩大峡谷珍稀植物园", "address": "广西壮族自治区河池市天峨县三一七省道", "image": "", "rank": 9, "time": 2, "location": {"lat": 25.05728166808059, "lng": 106.8945930126987}, "feature": {"sight_features": "", "sight_content": ""}}, {"title": "聚龙大峡谷国家森林公园", "address": "兴宁街与城东路交叉口", "image": "", "rank": 10, "time": 2, "location": {"lat": 25.00443353210346, "lng": 107.18042187661939}, "feature": {"sight_features": "", "sight_content": ""}}, {"title": "天峨天湖", "address": "广西壮族自治区天峨县境内", "image": "", "rank": 11, "time": 2, "location": {"lat": 25.005664155231774, "lng": 107.17845647579135}, "feature": {"sight_features": "", "sight_content": ""}}]}