{"cityName": "天全", "days": 2, "cityImage": "", "spots": [{"title": "二郎山喇叭河风景区", "address": "雅安市天全县二郎山喇叭河景区", "image": "", "rank": 1, "time": 2.5, "location": {"lat": 30.19067739496001, "lng": 102.43594579246732}, "feature": {"sight_features": "特色1 生态环境良好，珍稀保护品种众多 特色2 享受大山清幽;划船乐趣，垂钓喜悦", "sight_content": "喇叭河景区位于四川省雅安市天全县境内，西连康定、泸定，北靠宝兴，东至成都180公里。是川藏公路干线318国道和“川西黄金旅游环线”上的重要节点，地理位置优越，是一处集绿色住宿、餐饮、娱乐、休闲、观光、避暑、会议、探险为一体的多功能旅游度假区。\n景区森林覆盖率97%，有“天然氧吧”的美誉。主要是以冷杉、铁杉、天师栗、油樟、云杉、峨眉冷杉等长绿树种构成。公园地质古老、地貌奇特，具有南亚热带常绿阔叶林特色生态环境，保持了良好的原始风貌，植物分布完整，动植物和谐古老，南北曲经混杂。\n景区内国家珍惜保护品种众多，已知公园内有维管束植物68科380属1500多种，脊椎动物206种。属国家重点保护珍稀树种有珙桐（国家一级）、水青树、连香树、楠木、银杏等18种之多，其中连香树属国家二级保护树种，树态优美苍劲有力，有的已有上百年历史，而且是印制人民币的必备材料。属国家一、二级保护动物有大熊猫（国宝）、扭角羚、金丝猴、金钱豹、绿尾红雉、红腹角雉、小熊猫、水鹿、林麝、短尾猴、猕猴、鸳鸯等32种之多。景区是野生珍惜动植物的天然基因库，景区内群山相连、秀峰林立、飞瀑流泉，跌水海子、应有尽有。"}}, {"title": "红军纪念馆", "address": "工农红军纪念馆对面", "image": "", "rank": 2, "time": 2, "location": {"lat": 24.78992029795332, "lng": 106.56926780965397}, "feature": {"sight_features": "", "sight_content": ""}}, {"title": "紫石乡", "address": "四川省雅安天全县紫石乡", "image": "", "rank": 3, "time": 2, "location": {"lat": 30.051071300261277, "lng": 102.60778383564106}, "feature": {"sight_features": "", "sight_content": ""}}, {"title": "康辉生态休闲农场", "address": "天芦路", "image": "", "rank": 4, "time": 2, "location": {"lat": 30.12522965510823, "lng": 102.8275793288046}, "feature": {"sight_features": "", "sight_content": ""}}, {"title": "红军图书馆旧址", "address": "四川省天全县城厢镇黄铜村 625500", "image": "", "rank": 5, "time": 2.0, "location": {"lat": 30.07509943137664, "lng": 102.76682733858873}, "feature": {"sight_features": "", "sight_content": ""}}, {"title": "清水湾山庄", "address": "318国道附近", "image": "", "rank": 6, "time": 2, "location": {"lat": 31.023348267795328, "lng": 120.88254137011852}, "feature": {"sight_features": "", "sight_content": ""}}, {"title": "乐坝水上乐园", "address": "四川省雅安市天全县G318(沪聂线)", "image": "", "rank": 7, "time": 2, "location": {"lat": 30.072472953275035, "lng": 102.76453022767083}, "feature": {"sight_features": "", "sight_content": ""}}, {"title": "慈朗寺", "address": "四川省雅安市天全县九龙路", "image": "", "rank": 8, "time": 2, "location": {"lat": 30.072472953275035, "lng": 102.76453022767083}, "feature": {"sight_features": "", "sight_content": ""}}, {"title": "红军烈士陵园", "address": "四川省雅安市天全县城厢镇黄铜天芦路欣妙酒庄东北200米", "image": "", "rank": 9, "time": 1.0, "location": {"lat": 30.07466282969178, "lng": 102.77198212102884}, "feature": {"sight_features": "", "sight_content": ""}}, {"title": "雷音寺", "address": "雅安市天全县", "image": "", "rank": 10, "time": 1.0, "location": {"lat": 30.072472953275035, "lng": 102.76453022767083}, "feature": {"sight_features": "", "sight_content": ""}}, {"title": "茶马广场", "address": "雅安市天全县环城路110号", "image": "", "rank": 11, "time": 2, "location": {"lat": 30.070884408616557, "lng": 102.76348821573688}, "feature": {"sight_features": "", "sight_content": ""}}, {"title": "乐坝生态度假村", "address": "四川省雅安市天全县G318", "image": "", "rank": 12, "time": 2, "location": {"lat": 30.072472953275035, "lng": 102.76453022767083}, "feature": {"sight_features": "", "sight_content": ""}}, {"title": "凤凰度假村", "address": "始阳镇凤阳大道", "image": "", "rank": 13, "time": 2, "location": {"lat": 30.029393222548233, "lng": 102.8335573705158}, "feature": {"sight_features": "", "sight_content": ""}}, {"title": "音乐广场", "address": "城厢镇向阳巷20号", "image": "", "rank": 14, "time": 2.5, "location": {"lat": 30.06541641613386, "lng": 102.76876420653947}, "feature": {"sight_features": "", "sight_content": ""}}, {"title": "金龙庙", "address": "建设路363号", "image": "", "rank": 15, "time": 2, "location": {"lat": 29.16557183455418, "lng": 119.54155784202985}, "feature": {"sight_features": "", "sight_content": ""}}, {"title": "二郎山茶马古道", "address": "318国道", "image": "", "rank": 16, "time": 2, "location": {"lat": 31.023348267795328, "lng": 120.88254137011852}, "feature": {"sight_features": "", "sight_content": ""}}, {"title": "天全县图书馆", "address": "向阳大道248号", "image": "", "rank": 17, "time": 2, "location": {"lat": 30.05989206463675, "lng": 102.77460955684886}, "feature": {"sight_features": "", "sight_content": ""}}, {"title": "冰岛の恋", "address": "东城街55号附近", "image": "", "rank": 18, "time": 2, "location": {"lat": 26.68336616963787, "lng": 101.85854545247497}, "feature": {"sight_features": "", "sight_content": ""}}, {"title": "海底世界(天全店)", "address": "向阳巷29号附近", "image": "", "rank": 19, "time": 2, "location": {"lat": 29.798652330397683, "lng": 102.853267500155}, "feature": {"sight_features": "", "sight_content": ""}}, {"title": "天全县沉鱼落雁生态农庄", "address": "思经乡大河村安置点", "image": "", "rank": 20, "time": 2, "location": {"lat": 30.025216992157915, "lng": 102.7170965661493}, "feature": {"sight_features": "", "sight_content": ""}}, {"title": "白沙河景区", "address": "四川省天全县小河乡", "image": "", "rank": 21, "time": 2, "location": {"lat": 30.114842839550427, "lng": 102.74703656957627}, "feature": {"sight_features": "", "sight_content": ""}}]}