{"cityName": "天祝", "days": 2, "cityImage": "", "spots": [{"title": "天堂寺", "address": "武威市天祝藏族自治县", "image": "", "rank": 1, "time": 1.0, "location": {"lat": 36.97759617654046, "lng": 103.14862131965808}, "feature": {"sight_features": "", "sight_content": ""}}, {"title": "天祝三峡", "address": "武威市天祝藏族自治县西南部", "image": "", "rank": 2, "time": 2.5, "location": {"lat": 36.97759617654046, "lng": 103.14862131965808}, "feature": {"sight_features": "", "sight_content": ""}}, {"title": "乌鞘岭国际滑雪场", "address": "武威市天祝藏族自治县抓喜秀龙乡永丰村双岔沟组", "image": "", "rank": 3, "time": 2, "location": {"lat": 37.191549437133126, "lng": 102.82714759509176}, "feature": {"sight_features": "", "sight_content": ""}}, {"title": "民族风情度假村", "address": "天祝藏族自治县镇042专用道石门森林公园西北250米", "image": "", "rank": 4, "time": 2, "location": {"lat": 36.97759617654046, "lng": 103.14862131965808}, "feature": {"sight_features": "", "sight_content": ""}}, {"title": "西大滩", "address": "西大滩乡", "image": "", "rank": 5, "time": 2, "location": {"lat": 37.30632212138804, "lng": 103.17882012220757}, "feature": {"sight_features": "", "sight_content": ""}}, {"title": "华府生态园", "address": "天祝县老界牌立交桥向南100米左侧", "image": "", "rank": 6, "time": 2, "location": {"lat": 36.97759617654046, "lng": 103.14862131965808}, "feature": {"sight_features": "", "sight_content": ""}}, {"title": "天祝藏族自治县博物馆", "address": "天堂路26号", "image": "", "rank": 7, "time": 1.0, "location": {"lat": 36.97713465585139, "lng": 103.14751140840386}, "feature": {"sight_features": "", "sight_content": ""}}, {"title": "打柴沟清真寺", "address": "312国道附近", "image": "", "rank": 8, "time": 2, "location": {"lat": 31.33241303413939, "lng": 120.99854638594724}, "feature": {"sight_features": "", "sight_content": ""}}, {"title": "上滩", "address": "甘肃省武威市天祝藏族自治县", "image": "", "rank": 9, "time": null, "location": {"lat": 36.97759617654046, "lng": 103.14862131965808}, "feature": {"sight_features": "", "sight_content": ""}}, {"title": "乌鞘岭", "address": "甘肃省天祝藏族自治县中部 733200", "image": "", "rank": 10, "time": 2, "location": {"lat": 36.97759617654046, "lng": 103.14862131965808}, "feature": {"sight_features": "", "sight_content": ""}}, {"title": "石门峡", "address": "甘肃省古浪县古浪河上游 733100", "image": "", "rank": 11, "time": 2, "location": {"lat": 37.41939382013169, "lng": 102.88605883604646}, "feature": {"sight_features": "", "sight_content": ""}}, {"title": "悠然居农家乐院", "address": "延禧路与祝贡路交叉口南200米", "image": "", "rank": 12, "time": null, "location": {"lat": 36.97035166776843, "lng": 103.14786657235165}, "feature": {"sight_features": "", "sight_content": ""}}, {"title": "天祝三峡森林公园", "address": "甘肃省天祝藏族自治县县西南部", "image": "", "rank": 13, "time": 1.0, "location": {"lat": 36.97759617654046, "lng": 103.14862131965808}, "feature": {"sight_features": "", "sight_content": ""}}, {"title": "马牙雪山 Maya Snow Mountain", "address": "甘肃省天祝藏族自治县县西部", "image": "", "rank": 14, "time": null, "location": {"lat": 36.97759617654046, "lng": 103.14862131965808}, "feature": {"sight_features": "", "sight_content": ""}}, {"title": "乌药沟", "address": "武威市-天祝藏族自治县", "image": "", "rank": 15, "time": 2, "location": {"lat": 36.97759617654046, "lng": 103.14862131965808}, "feature": {"sight_features": "", "sight_content": ""}}, {"title": "碳山岭村", "address": "武威市-天祝藏族自治县", "image": "", "rank": 16, "time": 2, "location": {"lat": 36.97759617654046, "lng": 103.14862131965808}, "feature": {"sight_features": "", "sight_content": ""}}]}