{"cityName": "天门", "days": "", "cityImage": "", "spots": [{"title": "陆羽公园", "address": "天门市文学泉道与西寺路交叉口西50米", "image": "", "rank": 1, "time": 1.5, "location": {"lat": 30.66238965710436, "lng": 113.1672530525992}, "feature": {"sight_features": "", "sight_content": ""}}, {"title": "文学泉", "address": "天门市城区文学泉路陆羽村", "image": "", "rank": 2, "time": 2, "location": {"lat": 30.6616753120902, "lng": 113.17294329878432}, "feature": {"sight_features": "", "sight_content": ""}}, {"title": "佛祖山", "address": "湖北省天门市天门佛子山镇", "image": "", "rank": 3, "time": 2.5, "location": {"lat": 30.742278459089288, "lng": 113.00834724102178}, "feature": {"sight_features": "", "sight_content": ""}}, {"title": "石家河文化遗址", "address": "天门市石河镇石河大道石家河遗址", "image": "", "rank": 4, "time": 2, "location": {"lat": 30.766617915268732, "lng": 113.09578413032717}, "feature": {"sight_features": "", "sight_content": ""}}, {"title": "白龙寺", "address": "天门市皂市镇五华街白龙寺西路", "image": "", "rank": 5, "time": 2.5, "location": {"lat": 30.86269796631239, "lng": 113.35223398629948}, "feature": {"sight_features": "", "sight_content": ""}}, {"title": "茶经楼", "address": "陆羽公园内", "image": "", "rank": 6, "time": 2, "location": {"lat": 28.453943559479306, "lng": 117.95844588583073}, "feature": {"sight_features": "", "sight_content": ""}}, {"title": "天东休闲农庄", "address": "状元大道187号", "image": "", "rank": 7, "time": 2, "location": {"lat": 30.660293281656724, "lng": 113.41067632076101}, "feature": {"sight_features": "", "sight_content": ""}}, {"title": "儿童乐园欢乐屋", "address": "保安商城", "image": "", "rank": 8, "time": 1.5, "location": {"lat": 45.885353209312385, "lng": 121.57372907034193}, "feature": {"sight_features": "", "sight_content": ""}}, {"title": "谢家大院农家乐", "address": "滨江大道附近", "image": "", "rank": 9, "time": 2, "location": {"lat": 25.620828885734245, "lng": 110.6831510068933}, "feature": {"sight_features": "", "sight_content": ""}}, {"title": "姚湾淘宝基地", "address": "小板镇姚湾三组", "image": "", "rank": 10, "time": 2, "location": {"lat": 30.596395859525856, "lng": 113.24370803936708}, "feature": {"sight_features": "", "sight_content": ""}}, {"title": "钟祥市荆沙蔬菜种植专业合作社", "address": "107省道附近", "image": "", "rank": 11, "time": 4.5, "location": {"lat": 41.523408462260896, "lng": 123.50372337043669}, "feature": {"sight_features": "", "sight_content": ""}}, {"title": "机关巷", "address": "陆羽大道与陆羽大道交叉口东北150米(中)", "image": "", "rank": 12, "time": 2, "location": {"lat": 30.669686104221817, "lng": 113.17146824161149}, "feature": {"sight_features": "", "sight_content": ""}}, {"title": "领尚生态农业", "address": "文苑二路与星星大街交叉口东100米", "image": "", "rank": 13, "time": 2, "location": {"lat": 30.65887764488011, "lng": 113.15451358299242}, "feature": {"sight_features": "", "sight_content": ""}}, {"title": "陆羽生态园", "address": "S213湾坝小学西北160米路东", "image": "", "rank": 14, "time": 2, "location": {"lat": 39.754319199493544, "lng": 118.4675874287618}, "feature": {"sight_features": "", "sight_content": ""}}, {"title": "彼岸音乐会馆", "address": "钟惺大道32号黄金海岸二楼", "image": "", "rank": 15, "time": 2, "location": {"lat": 30.645933935533538, "lng": 113.16651500389389}, "feature": {"sight_features": "", "sight_content": ""}}, {"title": "湘西马拉河人体漂流", "address": "蔡甸区湖南湘西马拉河芙蓉镇人体漂流", "image": "", "rank": 16, "time": 6.0, "location": {"lat": 28.95092997671766, "lng": 109.62547464011126}, "feature": {"sight_features": "", "sight_content": ""}}, {"title": "万林图书馆", "address": "天门中学", "image": "", "rank": 17, "time": 2, "location": {"lat": 29.114019764345993, "lng": 110.47738412547235}, "feature": {"sight_features": "", "sight_content": ""}}, {"title": "东湖公园", "address": "天门市人民大道", "image": "", "rank": 18, "time": 2.5, "location": {"lat": 30.677082832777838, "lng": 113.00756092995465}, "feature": {"sight_features": "", "sight_content": ""}}, {"title": "动感帝国游乐园", "address": "元春街5号", "image": "", "rank": 19, "time": 2, "location": {"lat": 30.656281582675334, "lng": 113.17404282472853}, "feature": {"sight_features": "", "sight_content": ""}}, {"title": "万达电影乐园(天门站点)", "address": "新城区西湖南路天门新城CBD", "image": "", "rank": 20, "time": 2, "location": {"lat": 30.657399525755125, "lng": 113.15804543998634}, "feature": {"sight_features": "", "sight_content": ""}}, {"title": "欢乐儿童屋", "address": "陆羽广场陆羽广场蒸菜美食街6栋1-2号铺(梁记粥铺斜对面)", "image": "", "rank": 21, "time": 2, "location": {"lat": 36.70250709226276, "lng": 119.10801589360032}, "feature": {"sight_features": "", "sight_content": ""}}, {"title": "天门市博物馆", "address": "西寺路", "image": "", "rank": 22, "time": 2.5, "location": {"lat": 32.01525397806616, "lng": 120.87112443349373}, "feature": {"sight_features": "", "sight_content": ""}}, {"title": "楚天獒场", "address": "鸿渐路天门剧院附近", "image": "", "rank": 23, "time": 2, "location": {"lat": 30.66874605044058, "lng": 113.17719980086702}, "feature": {"sight_features": "", "sight_content": ""}}, {"title": "十丰欢乐园", "address": "十丰奄村委会", "image": "", "rank": 24, "time": 2, "location": {"lat": 28.023221420577627, "lng": 120.81177342445338}, "feature": {"sight_features": "", "sight_content": ""}}, {"title": "一品画廊", "address": "侨乡大道与兴侨大道交叉口东北200米", "image": "", "rank": 25, "time": 2, "location": {"lat": 30.58031981455487, "lng": 113.34267555394428}, "feature": {"sight_features": "", "sight_content": ""}}, {"title": "庆云社区渔鼓皮影剧场", "address": "竟陵东街与竟陵中街交叉口西南50米", "image": "", "rank": 26, "time": 2, "location": {"lat": 30.65311267124925, "lng": 113.17710401994032}, "feature": {"sight_features": "", "sight_content": ""}}, {"title": "奥秘之家推理游戏俱乐部", "address": "西寺路印象西江天街东方魅力KTV旁", "image": "", "rank": 27, "time": 2, "location": {"lat": 30.731509386508346, "lng": 121.32981444598043}, "feature": {"sight_features": "", "sight_content": ""}}, {"title": "鑫天农业发展公司", "address": "005县道供销石化南侧", "image": "", "rank": 28, "time": 2, "location": {"lat": 38.67752303243548, "lng": 115.48471691167128}, "feature": {"sight_features": "", "sight_content": ""}}, {"title": "陆羽纪念馆", "address": "湖北省天门市西寺路陆羽公园", "image": "", "rank": 29, "time": 2, "location": {"lat": 30.66342458189719, "lng": 113.16476950825405}, "feature": {"sight_features": "", "sight_content": ""}}, {"title": "尚座电竞馆", "address": "天门市-天门市-钟惺大道侨乡客运站东一百米智汇金城三楼", "image": "", "rank": 30, "time": 2, "location": {"lat": 30.64720122232384, "lng": 113.16404515691117}, "feature": {"sight_features": "", "sight_content": ""}}]}