{"cityName": "天长", "days": 2, "cityImage": "", "spots": [{"title": "红草湖湿地公园", "address": "滁州市天长市312省道(近天泽新村)", "image": "", "rank": 1, "time": 2, "location": {"lat": 32.684273562524986, "lng": 118.99761672456084}, "feature": {"sight_features": "", "sight_content": ""}}, {"title": "天长博物馆", "address": "滁州市天长市天长街道石梁西路131号", "image": "", "rank": 2, "time": 1.0, "location": {"lat": 32.69030705351299, "lng": 119.01027263828061}, "feature": {"sight_features": "", "sight_content": ""}}, {"title": "抗大八分校旧址", "address": "天长市区以北30公里龙岗镇", "image": "", "rank": 3, "time": 1.0, "location": {"lat": 32.67341003277047, "lng": 119.01138527948528}, "feature": {"sight_features": "", "sight_content": ""}}, {"title": "谕兴杨捷墓石刻", "address": "滁州市天长市草庙山上", "image": "", "rank": 4, "time": 2, "location": {"lat": 32.67341003277047, "lng": 119.01138527948528}, "feature": {"sight_features": "", "sight_content": ""}}, {"title": "草庙山", "address": "滁州市天长市", "image": "", "rank": 5, "time": 2, "location": {"lat": 32.67341003277047, "lng": 119.01138527948528}, "feature": {"sight_features": "", "sight_content": ""}}, {"title": "朱孝子祠", "address": "天长市区东22.5公里秦栏镇", "image": "", "rank": 6, "time": 2, "location": {"lat": 32.61054427985031, "lng": 119.16486203349271}, "feature": {"sight_features": "", "sight_content": ""}}, {"title": "河口村鹭鸟栖息地", "address": "天长界牌镇河口村高邮湖畔", "image": "", "rank": 7, "time": 2, "location": {"lat": 32.70685404878289, "lng": 119.15797670141983}, "feature": {"sight_features": "", "sight_content": ""}}, {"title": "沃公墓", "address": "天长市邱家湾天（长）扬（州）公路南侧", "image": "", "rank": 8, "time": 2, "location": {"lat": 32.68772140829745, "lng": 119.0457779847997}, "feature": {"sight_features": "", "sight_content": ""}}, {"title": "明日之星儿童乐园(天丰广场店)", "address": "建设中路天丰广场2楼东侧", "image": "", "rank": 9, "time": 2, "location": {"lat": 32.695744178504135, "lng": 119.01399071490505}, "feature": {"sight_features": "", "sight_content": ""}}, {"title": "大自然花卉基地", "address": "205省道附近", "image": "", "rank": 10, "time": 2, "location": {"lat": 40.38230240600069, "lng": 116.84666042934258}, "feature": {"sight_features": "", "sight_content": ""}}, {"title": "垂钓者休闲鞋", "address": "千秋步行街18号附近", "image": "", "rank": 11, "time": 2, "location": {"lat": 32.69214884228677, "lng": 119.02091261789356}, "feature": {"sight_features": "", "sight_content": ""}}, {"title": "贝贝多垂钓俱乐部", "address": "秦香中路", "image": "", "rank": 12, "time": 2, "location": {"lat": 32.605203358547854, "lng": 119.18385440922893}, "feature": {"sight_features": "", "sight_content": ""}}, {"title": "天长剧院立峰演艺中心(学府路店)", "address": "学府路6号天长剧院（电视台对面）", "image": "", "rank": 13, "time": 2, "location": {"lat": 49.20356358268847, "lng": 119.78266199672797}, "feature": {"sight_features": "", "sight_content": ""}}, {"title": "天宝社区活动广场", "address": "天宝路与平安中路交叉口东200米", "image": "", "rank": 14, "time": 2, "location": {"lat": 32.68235934568114, "lng": 119.02680254841049}, "feature": {"sight_features": "", "sight_content": ""}}, {"title": "北祠堂", "address": "滁州市天长市", "image": "", "rank": 15, "time": 2, "location": {"lat": 32.67341003277047, "lng": 119.01138527948528}, "feature": {"sight_features": "", "sight_content": ""}}, {"title": "哆咪乐园", "address": "汊涧镇红绿灯", "image": "", "rank": 16, "time": 2, "location": {"lat": 32.66657857958322, "lng": 118.75963581967018}, "feature": {"sight_features": "", "sight_content": ""}}, {"title": "天长法治文化园", "address": "内环路与环城北路交叉口东北50米", "image": "", "rank": 17, "time": 2, "location": {"lat": 22.73857650598951, "lng": 114.30036174988106}, "feature": {"sight_features": "", "sight_content": ""}}, {"title": "清真寺", "address": "安徽省滁州市天长市天长街道二凤中路衡园山庄附近", "image": "", "rank": 18, "time": 1.0, "location": {"lat": 32.68746416360485, "lng": 119.01382970262544}, "feature": {"sight_features": "", "sight_content": ""}}, {"title": "天长宝林寺", "address": "仁和集镇芦龙社区王桥村", "image": "", "rank": 19, "time": 2.5, "location": {"lat": 32.65806479169505, "lng": 119.08576713164466}, "feature": {"sight_features": "", "sight_content": ""}}, {"title": "弥陀寺", "address": "安徽省滁州市天长市S205", "image": "", "rank": 20, "time": 0.4, "location": {"lat": 32.67341003277047, "lng": 119.01138527948528}, "feature": {"sight_features": "", "sight_content": ""}}, {"title": "平安影剧院", "address": "安徽省滁州市天长市张铺镇平安中学北150米", "image": "", "rank": 21, "time": 2, "location": {"lat": 32.825039248495955, "lng": 118.78988860229607}, "feature": {"sight_features": "", "sight_content": ""}}, {"title": "千秋水都", "address": "滁州市天长市天润城平安中路西50米天润城", "image": "", "rank": 22, "time": 2, "location": {"lat": 32.67920689068371, "lng": 119.02425027201586}, "feature": {"sight_features": "", "sight_content": ""}}, {"title": "滨河公园", "address": "安徽省滁州市天长市天发广场购物中心北100米", "image": "", "rank": 23, "time": 2.0, "location": {"lat": 32.68581844632679, "lng": 119.00815217734466}, "feature": {"sight_features": "", "sight_content": ""}}, {"title": "烈士陵园", "address": "安徽省滁州市天长市天长街道广陵中路园林新村东100米", "image": "", "rank": 24, "time": 2, "location": {"lat": 32.68408981629467, "lng": 119.00512486621668}, "feature": {"sight_features": "", "sight_content": ""}}, {"title": "天发中庭儿童游乐园", "address": "天长市其他天发广场7号楼1楼中庭", "image": "", "rank": 25, "time": 2, "location": {"lat": 32.684081379164816, "lng": 119.00749238272722}, "feature": {"sight_features": "", "sight_content": ""}}, {"title": "真武庙", "address": "安徽省滁州市天长市X076", "image": "", "rank": 26, "time": 1.0, "location": {"lat": 32.67341003277047, "lng": 119.01138527948528}, "feature": {"sight_features": "", "sight_content": ""}}, {"title": "东岳宫", "address": "安徽省滁州市天长市X077", "image": "", "rank": 27, "time": 2, "location": {"lat": 32.67341003277047, "lng": 119.01138527948528}, "feature": {"sight_features": "", "sight_content": ""}}, {"title": "玩转天下儿童乐园", "address": "益民路与驰宇路交叉口东南150米", "image": "", "rank": 28, "time": 2, "location": {"lat": 32.69527273675042, "lng": 118.8871698554988}, "feature": {"sight_features": "", "sight_content": ""}}, {"title": "嘉乐荟", "address": "天长市平安南路88号广厦商贸城3楼", "image": "", "rank": 29, "time": 2, "location": {"lat": 32.68818710676801, "lng": 119.02545112682161}, "feature": {"sight_features": "", "sight_content": ""}}, {"title": "天长市人口文化广场", "address": "安徽省滁州市天长市天康大道人口文化广场(城东大厦东北)", "image": "", "rank": 30, "time": 2, "location": {"lat": 32.67992618158128, "lng": 119.01905592460787}, "feature": {"sight_features": "", "sight_content": ""}}, {"title": "冶山国家矿山公园", "address": "江苏省滁州市天长市冶山街道", "image": "", "rank": 31, "time": 3.5, "location": {"lat": 32.67341003277047, "lng": 119.01138527948528}, "feature": {"sight_features": "", "sight_content": ""}}, {"title": "红草湖湿地公园游乐场", "address": "红草湖湿地公园内", "image": "", "rank": 32, "time": 2, "location": {"lat": 32.685461786028, "lng": 118.9929394606688}, "feature": {"sight_features": "", "sight_content": ""}}, {"title": "古生物陈列", "address": "天长博物馆安徽古生物陈列", "image": "", "rank": 33, "time": 2, "location": {"lat": 32.690022348211905, "lng": 119.01020278245093}, "feature": {"sight_features": "", "sight_content": ""}}, {"title": "淮北汉画像石馆", "address": "琉璃南街与石梁中路交叉口", "image": "", "rank": 34, "time": 2, "location": {"lat": 32.69436281229201, "lng": 119.01096882505084}, "feature": {"sight_features": "", "sight_content": ""}}, {"title": "天发温泉(天发广场店)", "address": "天发广场北门入口处", "image": "", "rank": 35, "time": 2, "location": {"lat": 32.68321839242768, "lng": 119.00905539029763}, "feature": {"sight_features": "", "sight_content": ""}}, {"title": "杞雕艺术馆", "address": "永福东路121号附近", "image": "", "rank": 36, "time": 2, "location": {"lat": 23.766974822561643, "lng": 114.71808312838893}, "feature": {"sight_features": "", "sight_content": ""}}, {"title": "宏业生态农场", "address": "建设西路38号附近", "image": "", "rank": 37, "time": 2, "location": {"lat": 36.36337839772162, "lng": 114.38915549060616}, "feature": {"sight_features": "", "sight_content": ""}}, {"title": "无忧民俗馆", "address": "秦栏镇华声大道4号", "image": "", "rank": 38, "time": 2, "location": {"lat": 32.60641168386718, "lng": 119.17047284970803}, "feature": {"sight_features": "", "sight_content": ""}}, {"title": "天长市图书馆", "address": "广场东路", "image": "", "rank": 39, "time": 1.5, "location": {"lat": 37.98188574771287, "lng": 115.22630694858466}, "feature": {"sight_features": "", "sight_content": ""}}, {"title": "古文钓具(天长店)", "address": "炳辉中路与新河南路交口天翔嘉园42-45号", "image": "", "rank": 40, "time": 2, "location": {"lat": 32.6730072980351, "lng": 119.00019547401884}, "feature": {"sight_features": "", "sight_content": ""}}, {"title": "安乐影剧院", "address": "万寿堂大药房附近富民路", "image": "", "rank": 41, "time": 2, "location": {"lat": 32.07739136572654, "lng": 119.86350171675117}, "feature": {"sight_features": "", "sight_content": ""}}, {"title": "千秋步行街", "address": "安徽省天长市石梁东路", "image": "", "rank": 42, "time": 2, "location": {"lat": 32.68915724304952, "lng": 119.02800927274443}, "feature": {"sight_features": "", "sight_content": ""}}]}