{"cityName": "天等", "days": 2, "cityImage": "", "spots": [{"title": "天等博物馆", "address": "天宝北路141号", "image": "", "rank": 1, "time": 2, "location": {"lat": 30.55378290122143, "lng": 117.07670409269632}, "feature": {"sight_features": "", "sight_content": ""}}, {"title": "大食代休闲美食广场", "address": "天等镇天椒广场天丽路", "image": "", "rank": 2, "time": 2, "location": {"lat": 23.08929009953793, "lng": 107.15060843636385}, "feature": {"sight_features": "", "sight_content": ""}}, {"title": "天等县图书馆", "address": "太平街66号", "image": "", "rank": 3, "time": 2, "location": {"lat": 43.908565640958365, "lng": 125.35284992518416}, "feature": {"sight_features": "", "sight_content": ""}}, {"title": "反斗乐园", "address": "天荣路24号", "image": "", "rank": 4, "time": 2, "location": {"lat": 23.134776247319653, "lng": 113.32784906267308}, "feature": {"sight_features": "", "sight_content": ""}}, {"title": "天等中学农场", "address": "506县道附近", "image": "", "rank": 5, "time": 2, "location": {"lat": 41.90460051149626, "lng": 116.41336887508217}, "feature": {"sight_features": "", "sight_content": ""}}, {"title": "机关事物管理局", "address": "和平路009号", "image": "", "rank": 6, "time": 2, "location": {"lat": 39.9617973133854, "lng": 116.1030849892196}, "feature": {"sight_features": "", "sight_content": ""}}, {"title": "飘山", "address": "广西壮族自治区天等县龙茗镇 532801", "image": "", "rank": 7, "time": 2, "location": {"lat": 22.996028745287994, "lng": 107.0426243114185}, "feature": {"sight_features": "", "sight_content": ""}}, {"title": "量贩式啤酒广场", "address": "崇左市天等县", "image": "", "rank": 8, "time": 2, "location": {"lat": 23.087505812090356, "lng": 107.1494726485215}, "feature": {"sight_features": "", "sight_content": ""}}, {"title": "天椒广场", "address": "崇左市天等县天丽路9号", "image": "", "rank": 9, "time": 2, "location": {"lat": 23.087965256117673, "lng": 107.15098791025521}, "feature": {"sight_features": "", "sight_content": ""}}, {"title": "滨江休闲广场", "address": "广西壮族自治区崇左市天等县天等镇天丽路恒丰国际新城附近", "image": "", "rank": 10, "time": 2, "location": {"lat": 23.08481726805491, "lng": 107.15566215314429}, "feature": {"sight_features": "", "sight_content": ""}}]}