{"cityName": "铁力", "days": 2, "cityImage": "", "spots": [{"title": "依吉密河漂流", "address": "黑龙江省伊春市铁力日月峡谷滑雪场内", "image": "", "rank": 1, "time": 2, "location": {"lat": 46.992948620259035, "lng": 128.0383649039294}, "feature": {"sight_features": "", "sight_content": ""}}, {"title": "铁力公园", "address": "伊春市铁力市建设西大街", "image": "", "rank": 2, "time": 1.0, "location": {"lat": 46.990977340232405, "lng": 128.02506347505653}, "feature": {"sight_features": "", "sight_content": ""}}, {"title": "悬羊峰", "address": "伊春铁力市桃山林业局跃进林场悬羊峰景区", "image": "", "rank": 3, "time": 2, "location": {"lat": 46.935962300184215, "lng": 128.17181392221983}, "feature": {"sight_features": "特色1 后山景色更显得粗犷奔放！ 特色2 前山景色显得非常柔情细腻！ 特色3 喜爱登山的游客不仅仅获得愉快，更能使心灵与自然互渗互融！", "sight_content": "悬羊岭景区位于黑龙江省清河林业局育林林场东部，距清河局址约23公里，其海拔596米。景区内有清光绪二十四年间所立的吉（吉林）江（黑龙江）界碑历史遗迹。景区石阶环线栈道全长2700米。悬羊岭之巅，悬崖峭壁，像一把尖刀直插云端，四面迎风，迎宾松柏，四季常青，城墙砬子，壁如刀削，可谓鬼斧神工。\n\n悬羊岭的四季景致各异，春季，达子香花映红满山；夏季，石阶小路绿阴蔽日；秋季，大山又着五彩霞衣；冬季，冰雪童话白色乐章。龙江大自然四季的魅力在悬羊岭景区充分展现。"}}, {"title": "日月峡水伊方水上乐园", "address": "伊春市铁力市林业局马永顺林场", "image": "", "rank": 4, "time": 2, "location": {"lat": 47.194969251169304, "lng": 128.37681551838168}, "feature": {"sight_features": "", "sight_content": ""}}, {"title": "日月峡国家森林公园", "address": "伊春市铁力市小兴安岭南麓铁力林业局马永顺林场日月峡中", "image": "", "rank": 5, "time": 3.5, "location": {"lat": 46.98507290087887, "lng": 128.06641050410389}, "feature": {"sight_features": "", "sight_content": ""}}, {"title": "桃源湖", "address": "伊春市铁力市桃山林业局内", "image": "", "rank": 6, "time": 1.0, "location": {"lat": 46.935962300184215, "lng": 128.17181392221983}, "feature": {"sight_features": "", "sight_content": ""}}, {"title": "小东沟原始森林", "address": "伊春省铁力市桃山林业局南河林场小东沟景区", "image": "", "rank": 7, "time": 2, "location": {"lat": 46.935962300184215, "lng": 128.17181392221983}, "feature": {"sight_features": "特色1 这是小兴安岭原始森林保存完好、具规模、旅游开发相对早的地方！ 特色2 原始植物类型极其丰富，被称为“第三纪森林”！ 特色3 自下而上领略原始森林绿色与天光，感受回归大自然的清爽与惬意！", "sight_content": "这是小兴安岭原始森林保存相对完好、具有较大规模、旅游开发较早的地方：古木参天的松树，碧波荡漾的层林，重重叠叠的群山，蜿蜒流长的河流，承载着古老而厚重的原始气息，以其幽谷自然的风貌吸引着无数猎奇的游客。小东沟原始森林作为小兴安岭乃至全国仅有不多的稀缺资源，它所富有的对人体有益健康的理疗能力，和本身具有的原始古朴的氛围融合度，所具有的原始树种的活性标本认知度，都非常独到特殊。\n游人行走在原始森林里，就像经历一次全身心的理疗，将自己因多年身处高楼林立的城市肺部呼入的污染尘埃彻底清洗一次，也让自己的大脑得到一次充足的给养。当我们沿着蜿蜒贯穿在密林之中的台阶，自下而上领略原始森林绿色与天光，感受回归大自然的清爽与惬意，体会在原始森林中养生理疗的休闲与健康，那神情该是多么美妙和神奇。拥抱原始森林！这种想法真的会闪现在您的脑海里，绝无戏言！"}}, {"title": "桃山国际狩猎场", "address": "伊春铁力市桃山林业局十公里狩猎场", "image": "", "rank": 8, "time": 2, "location": {"lat": 46.935962300184215, "lng": 128.17181392221983}, "feature": {"sight_features": "", "sight_content": ""}}, {"title": "燕窝山", "address": "伊春市铁力市双丰林业局爱林施业区内", "image": "", "rank": 9, "time": 1.5, "location": {"lat": 46.9743912416158, "lng": 127.7647524073565}, "feature": {"sight_features": "", "sight_content": ""}}, {"title": "朗乡玉兔仙潭风景区", "address": "伊春市铁力市朗乡镇朗乡局头道沟林场", "image": "", "rank": 10, "time": 2.5, "location": {"lat": 47.00753172123554, "lng": 128.77036529757768}, "feature": {"sight_features": "", "sight_content": ""}}, {"title": "桃山玉温泉", "address": "伊春市铁力市桃山林业局桃源湖风景区", "image": "", "rank": 11, "time": 2, "location": {"lat": 46.935962300184215, "lng": 128.17181392221983}, "feature": {"sight_features": "特色1 来爸爸去哪儿第四季收官地——桃山玉温泉，泡同款温泉。", "sight_content": "桃山玉温泉度假中心是一块珍贵的生态净土，集蓝天、碧水、森林、白雪几大生态要素于一身。这里有小兴安岭温泉，钻井深度达 1860 米，水质类型为苏打水，含有氡、 氟、硅、锶、溴、硼、硫等 20余种矿物质及微量元素。常泡这种温泉可调整神经功能，并有催眠、镇静和镇痛作用，对神经炎、关节炎有良好疗效。\n水上乐园娱乐设施丰富，青少年可在此嬉水玩耍，在亲近自然中锻炼体质、获得成长。精致的水中滑梯、小巧的漂浮船、儿童水枪，可以让还子尽情的嬉戏，桃源湖边是孩子们一年四季娱乐的天堂，各类冰上娱乐也是儿童活动的选择。\n特色的山珍菌类、森林蔬菜，拥有“林海山珍”的美誉。营养丰富,味道鲜美,独具风味,而且对人体十分有益；玉石的温泉、森林的氧吧带您远离城市的喧嚣，还您一份安静祥和的自然田园生活。商品齐全的小商场，各种泳衣、泳具琳琅满目，食品、饮品更是数不胜数，当然，有特色的当数更种小兴安岭的土特产，为您的家人带回您的心意！"}}, {"title": "平顶山", "address": "伊春铁力市桃山林业局奋斗林场平顶山景区", "image": "", "rank": 12, "time": 1.5, "location": {"lat": 46.935962300184215, "lng": 128.17181392221983}, "feature": {"sight_features": "", "sight_content": ""}}, {"title": "桃山四季温泉", "address": "伊春市铁力市桃山镇迎宾路518号", "image": "", "rank": 13, "time": null, "location": {"lat": 46.93359929640332, "lng": 128.17686696347624}, "feature": {"sight_features": "", "sight_content": ""}}, {"title": "呼兰河源头漂流", "address": "伊春铁力市桃山林业局十六公里漂流点", "image": "", "rank": 14, "time": 2, "location": {"lat": 46.935962300184215, "lng": 128.17181392221983}, "feature": {"sight_features": "", "sight_content": ""}}, {"title": "达里景区", "address": "伊春市铁力市朗乡镇达里村朗乡石林地质公园内", "image": "", "rank": 15, "time": 2, "location": {"lat": 46.967455035365255, "lng": 128.77690560847032}, "feature": {"sight_features": "", "sight_content": ""}}, {"title": "花海航母乐园", "address": "伊春铁力市朗乡林业局", "image": "", "rank": 16, "time": 2, "location": {"lat": 46.95801434317543, "lng": 128.87569939705065}, "feature": {"sight_features": "", "sight_content": ""}}, {"title": "黑龙江省朗乡林业局图书馆", "address": "中心大街圣康药行附近", "image": "", "rank": 17, "time": 2, "location": {"lat": 46.95990951266882, "lng": 128.88125266152693}, "feature": {"sight_features": "", "sight_content": ""}}, {"title": "奶咔骑士", "address": "西四路9号附近", "image": "", "rank": 18, "time": 2, "location": {"lat": 31.82286747981356, "lng": 117.174983996626}, "feature": {"sight_features": "", "sight_content": ""}}, {"title": "朗乡冰雪大世界", "address": "朗乡镇龙乡大街", "image": "", "rank": 19, "time": 2, "location": {"lat": 46.966300554819775, "lng": 128.89276371721326}, "feature": {"sight_features": "", "sight_content": ""}}, {"title": "带岭滑雪场", "address": "黑龙江省伊春市带岭区西南部 153106", "image": "", "rank": 20, "time": 2, "location": {"lat": 47.03457195113671, "lng": 129.02742523145056}, "feature": {"sight_features": "", "sight_content": ""}}, {"title": "朗乡东山公园", "address": "伊春市铁力市朗乡镇东山路东50米", "image": "", "rank": 21, "time": 2, "location": {"lat": 46.96592500758035, "lng": 128.8941089683416}, "feature": {"sight_features": "", "sight_content": "朗乡东山公园位于朗乡镇东山路，公园内山高林密，空气清馨，楼台亭阁坐落期间，然花草繁茂，人工痕迹很少。信步蹬上摩天岭，可以俯瞰整个朗乡小镇全景，一览小镇全貌。"}}, {"title": "日月峡广场", "address": "哈伊公路", "image": "", "rank": 22, "time": 2, "location": {"lat": 46.64618271154577, "lng": 126.9737195338483}, "feature": {"sight_features": "", "sight_content": ""}}, {"title": "桃山呼兰河漂流河段", "address": "黑龙江省伊春铁力市桃山镇呼兰河", "image": "", "rank": 23, "time": 2, "location": {"lat": 47.186451347506996, "lng": 128.62599852474614}, "feature": {"sight_features": "", "sight_content": ""}}, {"title": "映山湖", "address": "太原市尖草坪区", "image": "", "rank": 24, "time": 0.75, "location": {"lat": 37.94594335454805, "lng": 112.49360496703545}, "feature": {"sight_features": "", "sight_content": ""}}, {"title": "日月峡", "address": "黑龙江省铁力市铁力林业局施业区 152500", "image": "", "rank": 25, "time": 2, "location": {"lat": 46.98507290087887, "lng": 128.06641050410389}, "feature": {"sight_features": "", "sight_content": ""}}, {"title": "双丰公园", "address": "双丰镇育林小区11号楼", "image": "", "rank": 26, "time": 2, "location": {"lat": 45.7043617624136, "lng": 126.65431632892113}, "feature": {"sight_features": "", "sight_content": ""}}, {"title": "崇圣讲寺", "address": "王三路东50米", "image": "", "rank": 27, "time": 2, "location": {"lat": 39.818936559694016, "lng": 116.03996752883312}, "feature": {"sight_features": "", "sight_content": ""}}, {"title": "五色石古陶瓷博物馆", "address": "城南街476", "image": "", "rank": 28, "time": 2, "location": {"lat": 36.51633285375613, "lng": 118.5458076370602}, "feature": {"sight_features": "", "sight_content": ""}}, {"title": "明命寺遗址", "address": "黑龙江省伊春市铁力市", "image": "", "rank": 29, "time": 2, "location": {"lat": 46.992948620259035, "lng": 128.0383649039294}, "feature": {"sight_features": "", "sight_content": ""}}, {"title": "悬羊峰国家地质公园", "address": "黑龙江省伊春铁力市小兴安岭西坡南麓桃山林业局施业区内", "image": "", "rank": 30, "time": 2, "location": {"lat": 46.935962300184215, "lng": 128.17181392221983}, "feature": {"sight_features": "", "sight_content": ""}}, {"title": "林中园风景区", "address": "黑龙江省伊春市铁力市朗乡林业局朗依公路林中园", "image": "", "rank": 31, "time": 2, "location": {"lat": 46.95801434317543, "lng": 128.87569939705065}, "feature": {"sight_features": "", "sight_content": ""}}, {"title": "柳树湾田园度假村", "address": "401乡道附近", "image": "", "rank": 32, "time": 2, "location": {"lat": 47.37847367944935, "lng": 133.7966669840186}, "feature": {"sight_features": "", "sight_content": ""}}, {"title": "鸟语林山庄", "address": "哈伊公路附近", "image": "", "rank": 33, "time": 2, "location": {"lat": 46.64618271154577, "lng": 126.9737195338483}, "feature": {"sight_features": "", "sight_content": ""}}, {"title": "石林河", "address": "伊春市铁力市朗乡镇达里村朗乡石林地质公园内", "image": "", "rank": 34, "time": 2, "location": {"lat": 46.967455035365255, "lng": 128.77690560847032}, "feature": {"sight_features": "", "sight_content": ""}}, {"title": "呼兰河漂流", "address": "铁桃北线公路", "image": "", "rank": 35, "time": 2, "location": {"lat": 46.947606543833, "lng": 128.18030642705355}, "feature": {"sight_features": "", "sight_content": ""}}, {"title": "马永顺纪念馆", "address": "松涛街6号楼", "image": "", "rank": 36, "time": 2, "location": {"lat": 46.98615090723401, "lng": 128.06707368802796}, "feature": {"sight_features": "", "sight_content": ""}}, {"title": "双丰国际家具博览中心", "address": "家具工业园区西侧", "image": "", "rank": 37, "time": 2, "location": {"lat": 46.975895958811165, "lng": 127.7626141276324}, "feature": {"sight_features": "", "sight_content": ""}}, {"title": "文贤庄园", "address": "哈五公路100公里处", "image": "", "rank": 38, "time": 2, "location": {"lat": 45.59744494532201, "lng": 126.69542953084081}, "feature": {"sight_features": "", "sight_content": ""}}, {"title": "双丰林业局图书阅览室", "address": "双林街与环中路交叉口西南100米", "image": "", "rank": 39, "time": 2, "location": {"lat": 46.973734608597674, "lng": 127.76402675436891}, "feature": {"sight_features": "", "sight_content": ""}}, {"title": "钰湘画廊", "address": "中心大街与畅园东路交叉口东北100米", "image": "", "rank": 40, "time": 2, "location": {"lat": 46.95908618461146, "lng": 128.87883960991005}, "feature": {"sight_features": "", "sight_content": ""}}, {"title": "云水庄园", "address": "云山村西北350米", "image": "", "rank": 41, "time": 2, "location": {"lat": 25.078797486920777, "lng": 102.75790053512726}, "feature": {"sight_features": "", "sight_content": ""}}, {"title": "天顺农家院", "address": "新华路", "image": "", "rank": 42, "time": 2, "location": {"lat": 39.14651100379498, "lng": 117.01963610637686}, "feature": {"sight_features": "", "sight_content": ""}}, {"title": "双丰镇高家养鱼池", "address": "春山屯", "image": "", "rank": 43, "time": 2, "location": {"lat": 46.85079182998343, "lng": 127.91411120943249}, "feature": {"sight_features": "", "sight_content": ""}}, {"title": "朗乡石猴山", "address": "黑龙江省铁力市朗乡镇南", "image": "", "rank": 44, "time": 2, "location": {"lat": 46.95919633546267, "lng": 128.87919759094393}, "feature": {"sight_features": "", "sight_content": ""}}, {"title": "桃山水库", "address": "黑龙江省铁力市桃山水库", "image": "", "rank": 45, "time": 2, "location": {"lat": 46.992948620259035, "lng": 128.0383649039294}, "feature": {"sight_features": "", "sight_content": ""}}, {"title": "黑龙江省伊春市铁力市步行街", "address": "黑龙江省铁力市东四路", "image": "", "rank": 46, "time": 2, "location": {"lat": 46.99327911712753, "lng": 128.03960112053156}, "feature": {"sight_features": "", "sight_content": ""}}]}