{"cityName": "通山", "days": 2, "cityImage": "", "spots": [{"title": "隐水洞", "address": "咸宁市通山县大畈镇", "image": "", "rank": 1, "time": 2.5, "location": {"lat": 29.65939708985072, "lng": 114.65587224405215}, "feature": {"sight_features": "特色1 奇特的喀斯特景观 特色2 隐水洞被誉为“洞天华中——中华天洞” 特色3 洞内喀斯特景观丰富多彩、奇特壮丽、玲珑剔透的天然石笋等奇观", "sight_content": "隐水洞全长5180米，原是一片海洋，经过数十万年的地壳运动形成一个天然的钟乳洞。是湖北省命名的首家地质公园，被专家喻为“洞天华中—中华天洞”和“神秘的地下明珠宫殿”。洞内分上下两层，历经百万年演变，景观丰富多彩，独特的熔岩地貌奇特壮丽，十分罕见。洞中游览分为：上游1/3乘船观光、中游1/3乘火车游览、下游1/3徒步零距离感受科学探密的快感，其独特的洞中多样化的游览方式属亚洲第一。\n【第一大景区：龙宫泛舟】\n隐水洞所在的山叫南山，所以这个码头就取名南山码头了，景区游览的第一部分为乘船区域，水道长1300多米，宽8～30米，深1～5米，乘船游览时间约30分钟，在此可以欣赏到上帝的葡萄园，龙宫石林，大象迎宾，鲁班金锤等等仙境景色，伴随着潺潺流水，轻舟荡漾，颇有一种飘飘欲仙的感觉。\n【第二大景区：幽谷龙吟】\n现在为隐水洞的第二大景区，在步行一段之后，以第二种游览方式：乘火车游览。火车如蛟龙一般，在幽谷中穿行，在这里可以看到钟乳石沉积中的滴水沉积，形成的石钟乳、石笋和石柱，坐上飞驰的小火车在迷宫中穿行，好似神仙下凡，梦幻无穷。罕见的洞穴生物，犹如外星来客，与人共舞，独特的景色让您大饱眼福。\n【第三大景区：通灵峡谷】\n洞内游览的最后一部分是步行在金山之下，更有部分石钟乳有如上帝的一只手，轻轻扶住了倾倒的斜塔。漫步在地下宫殿内，零距离感受科学探秘的快感。宏大的钟乳群体造型别致，在荧光闪烁下流光溢彩，华丽胜似天宫。"}}, {"title": "九宫山", "address": "咸宁市通山县九宫山风景名胜区笔架山路8号", "image": "", "rank": 2, "time": 3.0, "location": {"lat": 29.411278922639227, "lng": 114.68068530262026}, "feature": {"sight_features": "特色1 全国重点文物保护单位 特色2 历史悠久，人文景观星罗棋布，雄奇险峻，景色迷人 特色3 春可赏花，夏好避暑，秋看红叶，冬览雪景，既有南国山峰的峻秀", "sight_content": "九宫山因南朝“晋安王兄弟九人建九宫殿于此山，遂以为名。”此后，多朝皇帝封山赐匾，历代文人作赋题词，延 至南宋名道士张道清赴九宫山开辟道场，香火远播，九宫山便成为全国五大道场之一，特别是1645年明末农民起义领袖李自成殉难于九宫山，从此九宫山声名远播。如今,修建于1979年的闯王 陵已成为全国重点文物保护单位和全国农民起义领袖陵寝遗址。\n人文历史：九宫山历史悠久，人文景观星罗棋布。史载，南朝晋安王陈伯恭兄弟九人避战乱建九座行宫于此，故名 。南宋道士张道清至九宫山开辟道场，香火之盛，为全国五大道场之一。\n九宫山为道教名山。《太平御览》卷四十八引《武昌记》：“九宫山西北陆路去州五百八十里。闯王陵 ，其山晋安王 兄弟九人造九宫殿于此山，遂以为名。”宋代淳熙十四（ 1187 ），道士张道清又于山上建造九座道观，遂成为道教胜地，元明各代屡有修葺，后大多建筑被毁。现仅存九王庙、真牧堂、石 城门、一天门等建筑，并留有宋、明、清三代文人墨客摩崖题刻十余处。\n九宫山面积210平方公里，雄奇险峻，景色迷人。春可赏花，夏好避暑，秋看红叶，冬览雪景，既有南国山峰的峻秀， 又兼北国风光之壮美，为华中地区闻名的避暑游览胜地。主峰海拔1656米，盛夏季节日平均气温21℃左右，最高气温不超过30℃。夏天一日三季：午前如春、九宫山美景、午后似秋 、晚如初冬，素有“天下第一爽”之称。\n山上海拔1230米的云中湖为我国极具特色的高山湖泊；有全国落差极大的大崖头瀑布（落差420米）；还有面积6万多亩、分布近千种名贵动植物、近百种珍稀濒危物种、拥有大面积原始森林和第四纪冰川遗迹的省级森林保护区———九宫山森林公园。九宫山镇、佛两教并存，自北魏以来香米不断，延续 至今。\n云中湖景区、铜鼓包景区、石龙沟景区，金鸡谷景区、中港景区、闯王陵景区，风光炯异，令游客流连忘返。山上有中国极具特色的高山湖泊——云中湖，有全国落差极大的瀑布—— 大崖头瀑布，有保存完好的大面积原始次生林和第四纪冰川遗迹——九宫山森林公园。"}}, {"title": "九宫山银河谷漂流", "address": "咸宁市通山九宫山镇东港村", "image": "", "rank": 3, "time": 2, "location": {"lat": 29.41215865531166, "lng": 114.72255939085215}, "feature": {"sight_features": "特色1 唯一以竹林景观为全景的漂流河道", "sight_content": "九宫银河谷漂流全长9公里，面积20平方公里。是一处以楠竹景观为主体、以竹文化为核心的主题生态景区。银河谷谷峡竹青，峡谷两岸的山峰生长着茂密茁壮的楠竹，达万亩之多，山风吹拂，竹涛阵阵，谷中山泉，淙淙有声，给人们一种宁静、苍翠、幽深的静态美。但在景区的尽头，银河大瀑布群，却给宁静的景区带来一种动态美。银河大瀑布群由五级叠瀑组成，最后一叠最为壮观，它宽20米，落差150米，向下跌落的水声，发出巨大的轰鸣，场面极为壮观。\n九宫银河谷漂流景区分为上、中、下三段。上段以五叠瀑和山中人家为主要景观。山中人家在四叠瀑和五叠瀑之间，常流不断的瀑布、古民居、山里人，给人一种人与自然的和谐感。中段以农业生态体验园和竹林幽径为主要景观。农业生态园的各种现代农业蔬菜，不仅可以观赏，还可以亲自采摘；竹林幽径，是你放松身心，呼吸清新空气，欣赏竹子美的好处去。下段以银河谷漂流为主。银河谷漂流是湖北省唯一以竹林景观为全景的漂流河道，漂流河段长5公里，落差138米，有78级跌水，时而惊险刺激，时而平缓悠闲，是刺激、安全有保障的漂流。\n九宫银河谷漂流景区和九宫山（相距6公里），隐水洞（相距50公里），江南第一大夫第—王民璠故居（相距35公里），大汉皇族村—刘家桥古民居（相距45公里），咸宁温泉谷（相距60公里）等著名景点在同一条旅游线上，可和这些著名景点组合成多种不同的休闲度假线路，是游客休闲观光的首选。银河谷位于国家级风景名胜区九宫山东麓，距通山县城30公里，距咸宁市60公里，距武汉市150公里。紧邻通山至九宫山景区公路，交通十分方便。银河谷全长9公里，面积20平方公里。是一处以楠竹景观为主体、以竹文化为核心的主题生态景区。银河谷谷峡竹青，峡谷两岸的山峰生长着茂密茁壮的楠竹，达万亩之多，山风吹拂，竹涛阵阵，谷中山泉，淙淙有声，给人们一种宁静、苍翠、幽深的静态美。"}}, {"title": "闯王陵", "address": "咸宁市通山县闯王镇高湖村", "image": "", "rank": 4, "time": 2, "location": {"lat": 29.396994740399712, "lng": 114.57242000715208}, "feature": {"sight_features": "", "sight_content": ""}}, {"title": "九宫山滑雪场", "address": "咸宁市通山县九宫山滑雪场", "image": "", "rank": 5, "time": 2, "location": {"lat": 29.399328075657646, "lng": 114.67137583833514}, "feature": {"sight_features": "", "sight_content": ""}}, {"title": "隐水洞地质公园", "address": "湖北省咸宁市通山县", "image": "", "rank": 6, "time": 2, "location": {"lat": 29.61263433805842, "lng": 114.48939330026687}, "feature": {"sight_features": "", "sight_content": ""}}, {"title": "通山烈士陵园", "address": "通山县凤池西路", "image": "", "rank": 7, "time": 3.0, "location": {"lat": 29.606481299098053, "lng": 114.51896442081454}, "feature": {"sight_features": "", "sight_content": ""}}, {"title": "云中湖", "address": "九宫山", "image": "", "rank": 8, "time": 2, "location": {"lat": 29.22817754767105, "lng": 113.83113265201808}, "feature": {"sight_features": "", "sight_content": ""}}, {"title": "凤池山森林公园", "address": "湖北咸宁通山县通羊城区", "image": "", "rank": 9, "time": 2, "location": {"lat": 29.61263433805842, "lng": 114.48939330026687}, "feature": {"sight_features": "", "sight_content": ""}}, {"title": "通山富水乐园", "address": "燕厦乡牛鼻孔境区内", "image": "", "rank": 10, "time": 2, "location": {"lat": 29.57013172017314, "lng": 114.87383198066455}, "feature": {"sight_features": "", "sight_content": ""}}, {"title": "通山无量寿禅寺", "address": "湖北省通山县九宫山狮子岩西麓", "image": "", "rank": 11, "time": 3.0, "location": {"lat": 29.530108074748252, "lng": 114.46430865070589}, "feature": {"sight_features": "", "sight_content": ""}}, {"title": "宝石村", "address": "湖北咸宁通山县闯王镇", "image": "", "rank": 12, "time": 2, "location": {"lat": 29.444537716815454, "lng": 114.5978774714657}, "feature": {"sight_features": "", "sight_content": ""}}, {"title": "王明璠府第;畈上王湾", "address": "大路乡吴田村1组", "image": "", "rank": 13, "time": 2, "location": {"lat": 29.626802592176375, "lng": 114.46613038912696}, "feature": {"sight_features": "", "sight_content": ""}}, {"title": "通山厦铺太阳山", "address": "幕阜山脉", "image": "", "rank": 14, "time": 3.0, "location": {"lat": 28.99015576690277, "lng": 113.83976255267667}, "feature": {"sight_features": "", "sight_content": ""}}, {"title": "隐水魔幻世界", "address": "隐水洞出口停车场对面", "image": "", "rank": 15, "time": 2, "location": {"lat": 28.12045441377718, "lng": 120.96450409885381}, "feature": {"sight_features": "", "sight_content": ""}}, {"title": "赤城葡萄园", "address": "通羊镇湄港村墩上", "image": "", "rank": 16, "time": 2.5, "location": {"lat": 29.56479160378071, "lng": 114.52012576904188}, "feature": {"sight_features": "", "sight_content": ""}}, {"title": "通山县博物馆", "address": "通羊大道50", "image": "", "rank": 17, "time": 2, "location": {"lat": 29.605170520370216, "lng": 114.52946917759728}, "feature": {"sight_features": "", "sight_content": ""}}, {"title": "忆江南生态园", "address": "004乡道西100米", "image": "", "rank": 18, "time": 2, "location": {"lat": 22.60919886263197, "lng": 114.24644262262933}, "feature": {"sight_features": "", "sight_content": ""}}, {"title": "雨林生态农庄", "address": "106国道北200米", "image": "", "rank": 19, "time": 2, "location": {"lat": 39.17398817867388, "lng": 116.39041588203045}, "feature": {"sight_features": "", "sight_content": ""}}, {"title": "龙图度假村", "address": "106国道附近", "image": "", "rank": 20, "time": 2, "location": {"lat": 39.1725896711994, "lng": 116.39041588203045}, "feature": {"sight_features": "", "sight_content": ""}}, {"title": "月亮湾夜市城", "address": "洋都大道2", "image": "", "rank": 21, "time": 2, "location": {"lat": 29.607730027598585, "lng": 114.50625737105783}, "feature": {"sight_features": "", "sight_content": ""}}, {"title": "通山剧院", "address": "湖北省咸宁市通山县九宫大道202", "image": "", "rank": 22, "time": 2.0, "location": {"lat": 29.606749426642804, "lng": 114.52369540606944}, "feature": {"sight_features": "", "sight_content": ""}}, {"title": "咸宁李自成墓", "address": "湖北省咸宁市通山县闯王镇", "image": "", "rank": 23, "time": 3.5, "location": {"lat": 29.444537716815454, "lng": 114.5978774714657}, "feature": {"sight_features": "", "sight_content": ""}}, {"title": "循礼门饭店九宫山度假村", "address": "咸宁通山九宫山凤凰岭路37号", "image": "", "rank": 24, "time": 2, "location": {"lat": 29.41010447704595, "lng": 114.67963277332575}, "feature": {"sight_features": "", "sight_content": ""}}, {"title": "龙华古寺", "address": "九宫大道与黄土岭巷交叉口东50米", "image": "", "rank": 25, "time": 2, "location": {"lat": 29.61546772953965, "lng": 114.49351634379352}, "feature": {"sight_features": "", "sight_content": ""}}, {"title": "老一中商业中心-游乐园", "address": "咸宁市通山县", "image": "", "rank": 26, "time": 2, "location": {"lat": 29.61263433805842, "lng": 114.48939330026687}, "feature": {"sight_features": "", "sight_content": ""}}, {"title": "大幕山森林公园", "address": "通山县东南部大幕乡", "image": "", "rank": 27, "time": 2, "location": {"lat": 29.750670796639138, "lng": 114.63679753233411}, "feature": {"sight_features": "", "sight_content": ""}}, {"title": "考拉大冒险儿童乐园", "address": "湖北省咸宁市通山县九宫大道嘉和城4楼2号观光电梯旁", "image": "", "rank": 28, "time": 2, "location": {"lat": 29.60854092858667, "lng": 114.5228581008937}, "feature": {"sight_features": "", "sight_content": ""}}, {"title": "快乐小孩儿童成长乐园", "address": "通羊镇老一中步行街二楼", "image": "", "rank": 29, "time": 2, "location": {"lat": 31.4707878758284, "lng": 104.75488769018823}, "feature": {"sight_features": "", "sight_content": ""}}, {"title": "湖北省新闻出版局九宫山休养所", "address": "云中湖路13", "image": "", "rank": 30, "time": 2, "location": {"lat": 29.407807810909258, "lng": 114.680806888271}, "feature": {"sight_features": "", "sight_content": ""}}, {"title": "创新文化广场", "address": "新月路和九宫大道的交叉口附近", "image": "", "rank": 31, "time": 2, "location": {"lat": 29.61118580416463, "lng": 114.50777233814735}, "feature": {"sight_features": "", "sight_content": ""}}, {"title": "湖北省老干部九宫山休养院", "address": "云中湖路20附近", "image": "", "rank": 32, "time": 2, "location": {"lat": 29.40682120998607, "lng": 114.6775152489512}, "feature": {"sight_features": "", "sight_content": ""}}, {"title": "湖北省建设厅九宫山休养所", "address": "云中湖路18号", "image": "", "rank": 33, "time": 2, "location": {"lat": 29.406777604749294, "lng": 114.67815355520229}, "feature": {"sight_features": "", "sight_content": ""}}, {"title": "地质博物馆", "address": "隐水洞景区", "image": "", "rank": 34, "time": 2, "location": {"lat": 29.64873624768169, "lng": 114.6108016254946}, "feature": {"sight_features": "", "sight_content": ""}}, {"title": "大畈中心图书馆", "address": "G56杭瑞高速", "image": "", "rank": 35, "time": 2, "location": {"lat": 29.523585591880604, "lng": 118.1931793201066}, "feature": {"sight_features": "", "sight_content": ""}}, {"title": "孟清画廊", "address": "209省道", "image": "", "rank": 36, "time": 2, "location": {"lat": 39.99809006691208, "lng": 116.08348027993928}, "feature": {"sight_features": "", "sight_content": ""}}, {"title": "九宫山军事游乐园", "address": "九宫山风景名胜区省建工转弯处", "image": "", "rank": 37, "time": 2, "location": {"lat": 29.433995318223545, "lng": 114.70833783842986}, "feature": {"sight_features": "", "sight_content": ""}}, {"title": "鳄鱼漆(通山专卖店)", "address": "幸福路4附近", "image": "", "rank": 38, "time": 2, "location": {"lat": 32.31879283342285, "lng": 121.19037975756923}, "feature": {"sight_features": "", "sight_content": ""}}, {"title": "通山县大畈枇杷专业合作社", "address": "大畈镇大坑村4组", "image": "", "rank": 39, "time": 2, "location": {"lat": 29.684772995262154, "lng": 114.67355931450362}, "feature": {"sight_features": "", "sight_content": ""}}, {"title": "柘茨岭", "address": "咸宁市-通山县", "image": "", "rank": 40, "time": 2, "location": {"lat": 29.61263433805842, "lng": 114.48939330026687}, "feature": {"sight_features": "", "sight_content": ""}}, {"title": "石龙峡", "address": "湖北省咸宁市通山县", "image": "", "rank": 41, "time": 2.5, "location": {"lat": 29.61263433805842, "lng": 114.48939330026687}, "feature": {"sight_features": "", "sight_content": ""}}]}