{"cityName": "通许", "days": 2, "cityImage": "", "spots": [{"title": "华正书店·图书馆", "address": "幸福路与文教路交叉口南150米", "image": "", "rank": 1, "time": 2, "location": {"lat": 34.48175231343761, "lng": 114.46993091455481}, "feature": {"sight_features": "", "sight_content": ""}}, {"title": "河南西点户外通许天信和野战运动...", "address": "工业大道", "image": "", "rank": 2, "time": 2, "location": {"lat": 22.653704101695602, "lng": 113.61369443205918}, "feature": {"sight_features": "", "sight_content": ""}}, {"title": "悦和中心广场", "address": "人民路与文卫路交汇处北100米", "image": "", "rank": 3, "time": 2, "location": {"lat": 21.613770792657654, "lng": 110.28820210352386}, "feature": {"sight_features": "", "sight_content": ""}}, {"title": "咸平公园", "address": "北环路南50米", "image": "", "rank": 4, "time": 2, "location": {"lat": 38.08152860311617, "lng": 114.69308879219136}, "feature": {"sight_features": "", "sight_content": ""}}, {"title": "东清真寺", "address": "开封市通许县人民路66号", "image": "", "rank": 5, "time": 2, "location": {"lat": 34.47345856337941, "lng": 114.47914418828897}, "feature": {"sight_features": "", "sight_content": ""}}, {"title": "卡卡兔儿童乐园", "address": "解放路西50米", "image": "", "rank": 6, "time": 2, "location": {"lat": 22.99963690930899, "lng": 113.89379545750764}, "feature": {"sight_features": "", "sight_content": ""}}, {"title": "晨读广场", "address": "裕丰路南50米", "image": "", "rank": 7, "time": 2, "location": {"lat": 38.65671607070051, "lng": 116.93216500959767}, "feature": {"sight_features": "", "sight_content": ""}}, {"title": "金宝贝水上乐园", "address": "城关镇建设银行", "image": "", "rank": 8, "time": 2, "location": {"lat": 34.832446755909935, "lng": 112.44954236312662}, "feature": {"sight_features": "", "sight_content": ""}}, {"title": "长智教堂", "address": "河南省开封市通许县", "image": "", "rank": 9, "time": 2, "location": {"lat": 34.48677180265463, "lng": 114.47343590592583}, "feature": {"sight_features": "", "sight_content": ""}}, {"title": "三毛开心哈乐儿童乐园", "address": "河南省开封市通许县城关镇人民路三毛时代购物广场", "image": "", "rank": 10, "time": 2, "location": {"lat": 34.483996106698775, "lng": 114.47168052712877}, "feature": {"sight_features": "", "sight_content": ""}}, {"title": "中央公园", "address": "通许解放路与咸平大道交汇处(新汽车站南邻)", "image": "", "rank": 11, "time": 2.5, "location": {"lat": 34.49491105800788, "lng": 114.47265303896202}, "feature": {"sight_features": "", "sight_content": ""}}, {"title": "宝宝儿童乐园", "address": "爱民街与行政路交叉口南200米", "image": "", "rank": 12, "time": 2, "location": {"lat": 34.485104711905045, "lng": 114.47440283658693}, "feature": {"sight_features": "", "sight_content": ""}}, {"title": "吉智岛儿童乐园", "address": "行政路水榭花都大门东50米商铺", "image": "", "rank": 13, "time": 2, "location": {"lat": 35.27947355051245, "lng": 113.64888810633724}, "feature": {"sight_features": "", "sight_content": ""}}, {"title": "九女冢", "address": "开封市通许县", "image": "", "rank": 14, "time": 2, "location": {"lat": 34.48677180265463, "lng": 114.47343590592583}, "feature": {"sight_features": "", "sight_content": ""}}, {"title": "好朋友主题乐园", "address": "河南省开封市通许县三毛购物广场北门向西100米路北", "image": "", "rank": 15, "time": 2, "location": {"lat": 34.48677180265463, "lng": 114.47343590592583}, "feature": {"sight_features": "", "sight_content": ""}}, {"title": "石鼓广场", "address": "河南省开封市通许县城关镇上海路石鼓广场", "image": "", "rank": 16, "time": 2, "location": {"lat": 34.49947649961978, "lng": 114.484677581349}, "feature": {"sight_features": "", "sight_content": ""}}, {"title": "亿通广场", "address": "行政路与迎宾大道交叉口东北100米", "image": "", "rank": 17, "time": 2, "location": {"lat": 34.48595863523056, "lng": 114.44965592563516}, "feature": {"sight_features": "", "sight_content": ""}}, {"title": "恒心书画廊", "address": "行政路", "image": "", "rank": 18, "time": 2, "location": {"lat": 31.039181092933045, "lng": 121.59570397023475}, "feature": {"sight_features": "", "sight_content": ""}}, {"title": "荣野农场", "address": "文卫路46号附近", "image": "", "rank": 19, "time": 2, "location": {"lat": 31.030295909109643, "lng": 121.7863110164966}, "feature": {"sight_features": "", "sight_content": ""}}, {"title": "赫庄村", "address": "开封市-通许县-二一八省道", "image": "", "rank": 20, "time": 2, "location": {"lat": 34.43282021868827, "lng": 114.47657458537769}, "feature": {"sight_features": "", "sight_content": ""}}, {"title": "岳家湖水上欢乐园", "address": "开封市-通许县", "image": "", "rank": 21, "time": 2, "location": {"lat": 34.48677180265463, "lng": 114.47343590592583}, "feature": {"sight_features": "", "sight_content": ""}}]}