{"cityName": "铜鼓", "days": 2, "cityImage": "", "spots": [{"title": "天柱峰国家森林公园", "address": "宜春市铜鼓县大塅镇", "image": "", "rank": 1, "time": 7.5, "location": {"lat": 28.67886343673251, "lng": 114.55784951783592}, "feature": {"sight_features": "特色1 绵延12公里的水上丹霞地貌，以“峰险、水秀、石异”特色而闻名", "sight_content": "江西天柱峰景区位于赣西北的全国深呼吸百佳县之一、中国长寿之乡的铜鼓县大塅镇境内，是天柱峰国家森林公园的核心景区，绵延12公里的水上丹霞地貌，以“峰险、水秀、石异”特色而闻名。景区内标志性景观——天柱峰，有“修河第一峰”之美誉，是铜鼓县天柱峰国家森林公园的象征。\n\n景区规划总面积49.6平方公里，猕猴、红豆杉等国家一、二级野生动植物保护资源众多。地貌特征为：“七山二水半丹霞，半分道路和农家”；主要特色为碧水丹霞，幽谷丛林，漂流叠瀑，客家风情；主要景点包括天柱飞瀑，峡谷漂流；灵石古庵，观音晒鞋；水上迷宫、少女之春；客家风情寨，水上一线天；灵山栈道，赏天地间美景；天柱峰顶众山小，象鼻山下两线天；天柱湖畔春花秋叶，官山绝顶夏鹃冬雪。 景区建设理念是:“生态保护第一，开发建设第二，保护景区生态就是保护景区生命，保护好景区的原生态，就是景区最好的风景”。"}}, {"title": "秋收起义铜鼓纪念馆", "address": "宜春市铜鼓县定江东路489号", "image": "", "rank": 2, "time": 1.0, "location": {"lat": 28.52552584081462, "lng": 114.37487632306173}, "feature": {"sight_features": "", "sight_content": ""}}, {"title": "景泰酒店燕鸣温泉", "address": "宜春市铜鼓县温泉镇温泉中路88号", "image": "", "rank": 3, "time": 4.5, "location": {"lat": 28.538449732770534, "lng": 114.36212724787835}, "feature": {"sight_features": "", "sight_content": ""}}, {"title": "仙姑坛", "address": "宜春市铜鼓县永宁镇钓鱼村白石组", "image": "", "rank": 4, "time": 2, "location": {"lat": 28.459345406671424, "lng": 114.3941419282938}, "feature": {"sight_features": "", "sight_content": ""}}, {"title": "毛泽东同志化险福地", "address": "江西省铜鼓县排埠镇", "image": "", "rank": 5, "time": 2, "location": {"lat": 28.435867965283556, "lng": 114.26363644161017}, "feature": {"sight_features": "", "sight_content": ""}}, {"title": "尖尾峡森林漂流", "address": "宜春市铜鼓县排埠镇永丰村", "image": "", "rank": 6, "time": 2, "location": {"lat": 28.473311920413593, "lng": 114.26862503124117}, "feature": {"sight_features": "", "sight_content": ""}}, {"title": "汤里森林温泉旅游度假区", "address": "宜春市铜鼓县大塅镇隘口镇", "image": "", "rank": 7, "time": 2, "location": {"lat": 28.67886343673251, "lng": 114.55784951783592}, "feature": {"sight_features": "特色1 世外桃源、养生天堂、人文圣地、仁智沃土", "sight_content": "汤里，位于中国长寿之乡江西铜鼓县，地处湘、鄂、赣三省交汇处之罗霄山脉崇山峻岭中，区域面积96平方公里。这里山青水绿、林茂人康，是世外桃源、养生天堂、人文圣地、仁智沃土。“世上有两个桃花源，一个在心里，一个在汤里”。\n汤里森林覆盖率高达96%，负氧离子含量每立方厘米动态值3万至10万多个，年平均气温16℃，温泉出水温度72℃，日出水量达5千多吨，属于中硫温泉，并含有多种对人体有益元素。汤里集旅游观光、养生度假、文化体验、传经弘道、温泉沐浴、避暑休闲、运动拓展、演艺会展、客家风情于一体。由北京大学北达设计院按照国家5A级旅游景区、国家级旅游度假区标准规划设计，江西好雨旅游发展有限公司及合作单位投资建设。总投资60亿人民币，分一、二、三期开发建设。\n汤里2016年获批国家AAAA级旅游景区；2017年获评江西省省级旅游度假区、中国长寿之乡康养示范基地、江西省森林养生基地；2018年荣获中国十佳避暑景区。汤里交通便捷，通过昌长高速、大广高速，至南昌、长沙均在2小时车程内，至武汉2.5小时车程。"}}, {"title": "铜鼓县博物馆", "address": "定江东路489", "image": "", "rank": 8, "time": 2, "location": {"lat": 28.52552584081462, "lng": 114.37487632306173}, "feature": {"sight_features": "", "sight_content": ""}}, {"title": "毛泽东化险地", "address": "宜春市铜鼓县排埠镇华联村月形湾", "image": "", "rank": 9, "time": 2.5, "location": {"lat": 28.41739025887595, "lng": 114.23330469614336}, "feature": {"sight_features": "", "sight_content": ""}}, {"title": "客家泥屋农庄", "address": "227省道", "image": "", "rank": 10, "time": 2, "location": {"lat": 31.228081134040913, "lng": 120.66770235845375}, "feature": {"sight_features": "", "sight_content": ""}}, {"title": "时利和游乐园", "address": "定江西路2", "image": "", "rank": 11, "time": 2, "location": {"lat": 28.52364194930996, "lng": 114.37036100299359}, "feature": {"sight_features": "", "sight_content": ""}}, {"title": "高僧墓地遗址", "address": "长沙市浏阳市大围山国家森林公园马尾漕瀑布内", "image": "", "rank": 12, "time": 2, "location": {"lat": 28.42439578391639, "lng": 114.1195989732542}, "feature": {"sight_features": "", "sight_content": ""}}, {"title": "湘鄂赣烈士公园", "address": "宜春市铜鼓县", "image": "", "rank": 13, "time": 2, "location": {"lat": 28.52708345653963, "lng": 114.3774110744133}, "feature": {"sight_features": "", "sight_content": ""}}, {"title": "怀远广场", "address": "宜春市铜鼓县定江西路505号", "image": "", "rank": 14, "time": 0.75, "location": {"lat": 28.518758260449218, "lng": 114.36021535057561}, "feature": {"sight_features": "", "sight_content": ""}}, {"title": "西湖广场", "address": "定江东路476号", "image": "", "rank": 15, "time": 2, "location": {"lat": 28.526208810886057, "lng": 114.37573768755394}, "feature": {"sight_features": "", "sight_content": ""}}, {"title": "西湖公园", "address": "宜春市铜鼓县西湖西巷16号", "image": "", "rank": 16, "time": 1.5, "location": {"lat": 28.524873619487654, "lng": 114.37381477567821}, "feature": {"sight_features": "", "sight_content": ""}}, {"title": "温泉度假村(铜鼓县温泉镇农业技...", "address": "温泉中路88号", "image": "", "rank": 17, "time": 2, "location": {"lat": 18.64377433243536, "lng": 109.71018439793119}, "feature": {"sight_features": "", "sight_content": ""}}, {"title": "顺心度假山庄", "address": "城南东路附近", "image": "", "rank": 18, "time": 2, "location": {"lat": 31.048667863657535, "lng": 121.77555395084518}, "feature": {"sight_features": "", "sight_content": ""}}, {"title": "烈士陵园", "address": "宜春市铜鼓县城南西路1-1", "image": "", "rank": 19, "time": 2, "location": {"lat": 28.520825045516315, "lng": 114.37182145820988}, "feature": {"sight_features": "", "sight_content": ""}}, {"title": "虎浴山庄", "address": "309省道附近", "image": "", "rank": 20, "time": 2, "location": {"lat": 40.709016096764906, "lng": 116.52743651721413}, "feature": {"sight_features": "", "sight_content": ""}}, {"title": "淘气包益智乐园", "address": "定江东路文化广场", "image": "", "rank": 21, "time": 2, "location": {"lat": 28.527857569525704, "lng": 114.37991734678532}, "feature": {"sight_features": "", "sight_content": ""}}, {"title": "金淋游泳馆水上乐园", "address": "城北路189号附近", "image": "", "rank": 22, "time": 2, "location": {"lat": 27.568239819541645, "lng": 119.72612868932248}, "feature": {"sight_features": "", "sight_content": ""}}, {"title": "铜鼓影剧院", "address": "定江东路265", "image": "", "rank": 23, "time": 2, "location": {"lat": 28.52737844051955, "lng": 114.37987023066134}, "feature": {"sight_features": "", "sight_content": ""}}, {"title": "江西天柱峰", "address": "江西省铜鼓县境内", "image": "", "rank": 24, "time": 2, "location": {"lat": 28.52708345653963, "lng": 114.3774110744133}, "feature": {"sight_features": "", "sight_content": ""}}, {"title": "江西省宜春市铜鼓县铜鼓步行街", "address": "江西省铜鼓县定江东路617号", "image": "", "rank": 25, "time": 2, "location": {"lat": 28.524156909482375, "lng": 114.37223302994539}, "feature": {"sight_features": "", "sight_content": ""}}]}