{"cityName": "铜陵", "days": "", "cityImage": "", "spots": [{"title": "天井湖公园", "address": "铜陵市铜官山区长江西路181号", "image": "", "rank": 1, "time": 2.5, "location": {"lat": 30.94292281784707, "lng": 117.80759606896785}, "feature": {"sight_features": "", "sight_content": ""}}, {"title": "凤凰山景区", "address": "铜陵市铜陵县", "image": "", "rank": 2, "time": 3.0, "location": {"lat": 30.952359262879224, "lng": 117.91851628857337}, "feature": {"sight_features": "", "sight_content": ""}}, {"title": "浮山", "address": "铜陵市枞阳县浮山镇浮山风景名胜区", "image": "", "rank": 3, "time": 4.0, "location": {"lat": 30.705671267724508, "lng": 117.22643695996541}, "feature": {"sight_features": "特色1 火山岩洞和摩崖石刻", "sight_content": "安庆浮山景区坐落在枞阳县北36公里的浮山镇，面积200平方公里，为安徽五大名山之一，也是全国名山36洞天之一。千百年来，名人墨客游踪不绝，探奇访胜，寻幽觅古，吟诗写记，赋词刻石。\n\n浮山景区由浮山、白云崖、柳峰山、拔茅山等组成，主要旅游景观在海拔160米、面积15平方公里的浮山景区。景区内有妙高、如来、文殊、玉女等36峰；有双蛙、猴头、天鹅等28怪石；有金谷、选佛、滴珠等36岩；有定心、九曲、宝藏等72奇洞；有明镜、龙湫、西天等12名池；有洗心、翰墨、活生等8大古泉；有远禄祖师塔、古庭禅师衣钵塔、众僧藏骨的三宝塔；还有鞠隐山庄、太史墓等名人故居、墓地和农运讲习所、中共桐庐县委机关遗址等一批历史纪念胜迹。\n浮山以独特的火山地质地貌、摩崖石刻、河湖风光而著称于世。张公岩景区是浮山主景区之一，此处集宗教遗迹、火山岩洞、摩崖石刻于一体。"}}, {"title": "天门山", "address": "铜陵市义安区", "image": "", "rank": 4, "time": 3.0, "location": {"lat": 30.9585120990978, "lng": 117.79856800876202}, "feature": {"sight_features": "", "sight_content": ""}}, {"title": "铜陵金牛洞", "address": "铜陵市铜陵县顺安镇凤凰村", "image": "", "rank": 5, "time": 2.5, "location": {"lat": 30.878542399815036, "lng": 118.03331609178338}, "feature": {"sight_features": "", "sight_content": ""}}, {"title": "白鳍豚养护场", "address": "铜陵市大通镇和悦洲与铁板洲之间的夹江上", "image": "", "rank": 6, "time": 1.5, "location": {"lat": 30.82475859220713, "lng": 117.74537196891951}, "feature": {"sight_features": "", "sight_content": ""}}, {"title": "铜陵市博物馆", "address": "铜陵市狮子山区环湖东路与东湖二路交会处", "image": "", "rank": 7, "time": 1.0, "location": {"lat": 30.986894585888937, "lng": 117.87552758541281}, "feature": {"sight_features": "", "sight_content": ""}}, {"title": "和悦洲", "address": "铜陵市区西南14公里处的长江里", "image": "", "rank": 8, "time": 2, "location": {"lat": 30.95123323991339, "lng": 117.81847679445747}, "feature": {"sight_features": "", "sight_content": ""}}, {"title": "天井湖游乐园", "address": "铜陵市长江西路1929号", "image": "", "rank": 9, "time": 2, "location": {"lat": 30.94574974407018, "lng": 117.80762885711896}, "feature": {"sight_features": "", "sight_content": ""}}, {"title": "睿鹰室内真人CS（铜陵店）", "address": "铜陵市翠湖一路与石城大道交汇处东北角铜陵嘉华广场3楼", "image": "", "rank": 10, "time": 2, "location": {"lat": 30.955319570304212, "lng": 117.83972183115831}, "feature": {"sight_features": "", "sight_content": ""}}, {"title": "MY真人密室逃脱", "address": "铜陵市铜官山区汇丰广场步行街出口对面", "image": "", "rank": 11, "time": 2, "location": {"lat": 30.93388284534307, "lng": 117.8201629183912}, "feature": {"sight_features": "", "sight_content": ""}}, {"title": "梧桐花谷", "address": "铜陵市义安区钟鸣镇水村", "image": "", "rank": 12, "time": 2, "location": {"lat": 30.940185558487865, "lng": 118.15216005036274}, "feature": {"sight_features": "特色1 感受大自然的气息，悠然自得", "sight_content": "梧桐花谷风景区位于铜陵市义安区钟鸣镇，铜陵、芜湖两市交界处,区位优越，交通便捷。景区总面积15.4平方公里，主要由精品牡丹园观赏园、千亩凤丹园、青梅园、农业观光体验基地、梧桐湖、玫瑰岛以及大、小金山等景点以及森林隧道漂流、植物迷宫、浑水摸鱼等项目组成。\n梧桐花谷风景区所在地属“铜陵牡丹——凤丹”原产地，凤丹在我国栽培历史悠久，与洛阳、荷泽牡丹齐名。每当牡丹花盛开季节，景区内花中有景，景中有花，千万朵蓓蕾绽放枝头，如彩云飘拂，如锦绣铺地，成为了名副其实的“花谷”。随着季节的交替变化，梅花、牡丹花、玫瑰花、紫荆花、格桑花、海棠花你方唱罢我登场，使景区成了花的海洋。\n“梧桐花谷漂流”，全程3.5公里，由“隧道”、“青檀丛林”、“水生植物河道”三部分组成，被誉为“不怕晒的森林隧道漂流”；梧桐湖水上乐园，是孩子们的天堂，游览之余，家长可陪孩子泛舟湖上，共享亲子时光；农事体验区内，游客除了观赏到品种众多的蔬菜和水果外，还可以亲自参与种植、采摘。此外，景区还以“低碳、环保、生态”的建筑理念，依托得天独厚的自然环境和完善的服务体系，以“生态养老苑”为核心，着力打造木屋养生度假休闲区。未来，景区将围绕“春季赏花、夏季玩水、秋季登山、冬季养生”主题定位，实现“现代农业”、“科普教育”、“农耕文化”、“红色文化”、“养生养老”、“旅游体验”等六大功能，打造集观赏、体验、健身、养生等为一体的田园综合体和乡村旅游目的地。"}}, {"title": "铜陵县大明寺", "address": "铜陵市", "image": "", "rank": 13, "time": 1.5, "location": {"lat": 30.95123323991339, "lng": 117.81847679445747}, "feature": {"sight_features": "", "sight_content": ""}}, {"title": "铜陵永泉农庄度假村", "address": "铜陵钟鸣镇叶山林场", "image": "", "rank": 14, "time": 2, "location": {"lat": 30.97098391905686, "lng": 118.0261097825755}, "feature": {"sight_features": "", "sight_content": ""}}, {"title": "乐道海洋世界", "address": "铜陵市义安区翠湖一路北斗星城乐道海洋世界（万达影城旁边）", "image": "", "rank": 15, "time": 2, "location": {"lat": 30.95783235486374, "lng": 117.82462502194412}, "feature": {"sight_features": "", "sight_content": ""}}, {"title": "翠湖公园", "address": "铜陵狮子山区翠湖二路", "image": "", "rank": 16, "time": 2.0, "location": {"lat": 30.962268649079878, "lng": 117.83795152521861}, "feature": {"sight_features": "", "sight_content": ""}}, {"title": "大通古镇", "address": "铜都大道南段8699号", "image": "", "rank": 17, "time": 2.0, "location": {"lat": 30.82588940372211, "lng": 117.77375420549045}, "feature": {"sight_features": "", "sight_content": ""}}, {"title": "西湖欢乐世界", "address": "翠湖六路以北气象公园以西", "image": "", "rank": 18, "time": 2.5, "location": {"lat": 30.978523264567816, "lng": 117.85704260496765}, "feature": {"sight_features": "", "sight_content": ""}}, {"title": "漫园", "address": "铜陵市义安区西联镇", "image": "", "rank": 19, "time": 2, "location": {"lat": 31.041735555057706, "lng": 117.88499031140068}, "feature": {"sight_features": "", "sight_content": "漫园由3栋古民居和8个院落组成，虽经历岁月沧桑仍然完整的保存着徽州原木文化的风貌和格局，\n全园以木为本，深宅大院，重脊高檐，穿竹石栏，临河水阁，呈现一派古朴、明洁的幽静，\n古旧木屋瓦舍，还有清清湖水的气息，是典型的徽州文化景观建筑。"}}, {"title": "旗山汉武文化生态园", "address": "枞阳县枞阳镇银塘路", "image": "", "rank": 20, "time": 2, "location": {"lat": 30.71879133899711, "lng": 117.1854548253114}, "feature": {"sight_features": "", "sight_content": ""}}, {"title": "城市广场", "address": "铜陵市", "image": "", "rank": 21, "time": 2, "location": {"lat": 30.95123323991339, "lng": 117.81847679445747}, "feature": {"sight_features": "", "sight_content": ""}}, {"title": "滨江生态公园", "address": "铜陵市铜陵县滨江大道北段", "image": "", "rank": 22, "time": 2, "location": {"lat": 30.963416365850392, "lng": 117.78756050002596}, "feature": {"sight_features": "", "sight_content": ""}}, {"title": "莲花湖公园", "address": "铜陵市莲花湖", "image": "", "rank": 23, "time": 1.0, "location": {"lat": 30.95123323991339, "lng": 117.81847679445747}, "feature": {"sight_features": "", "sight_content": ""}}, {"title": "凤凰山铜矿遗址", "address": "铜陵市铜陵县006县道", "image": "", "rank": 24, "time": 2, "location": {"lat": 30.882686813739113, "lng": 118.03996587557525}, "feature": {"sight_features": "", "sight_content": ""}}, {"title": "枞阳县图书馆", "address": "凤凰山路17号", "image": "", "rank": 25, "time": 1.5, "location": {"lat": 31.08015432792944, "lng": 120.44164970568417}, "feature": {"sight_features": "", "sight_content": ""}}, {"title": "水村", "address": "铜陵县顺安", "image": "", "rank": 26, "time": 4.5, "location": {"lat": 30.952359262879224, "lng": 117.91851628857337}, "feature": {"sight_features": "", "sight_content": ""}}, {"title": "实虎祖农休闲垂钓中心", "address": "官埠桥镇祖农村水库组", "image": "", "rank": 27, "time": 2, "location": {"lat": 29.937260213447857, "lng": 114.25719919510748}, "feature": {"sight_features": "", "sight_content": ""}}, {"title": "地狱惊魂", "address": "铜陵市义安区翠湖一路北斗星城1号主楼(大洋百货马路对面)", "image": "", "rank": 28, "time": 2, "location": {"lat": 30.954336085208382, "lng": 117.82094830240706}, "feature": {"sight_features": "", "sight_content": "铜陵市北斗星城地狱传说影视城是全国唯一以地狱神话传说为主题的综合类大型主题游览景区，景区占地6000余平米，包括黄泉路，三生石，奈何桥，鬼窟长廊，十殿阎王，十八层地狱，地藏王大殿，十大阴帅，轮回隧道，万骨窟，乱坟岗等一系列主题景观。\n本景区以民间神话传说为题材，营造游客以鬼魂状态进入地狱以后一系列的经历体验，十殿阎王刚正不阿，十八层地狱各司其职，种种因果，皆在今生，做一天鬼，懂一世人。\n一切因果情缘，皆有前世注定，在当今浮躁的社会，人人都应自责反省，今世为人，该有怎样的作为，在轮回门之前，一切的身为人的荣耀都被黄土掩埋化为森森白骨......佛讲我不入地狱，但地狱究竟是什么样子，我在地狱传说影视城等你……"}}, {"title": "牛庄垂钓园", "address": "天门镇蟠龙村", "image": "", "rank": 29, "time": 2, "location": {"lat": 30.890131936344464, "lng": 117.92766088851498}, "feature": {"sight_features": "", "sight_content": ""}}, {"title": "北斗星城极地海洋世界", "address": "翠湖一路北斗星城主楼", "image": "", "rank": 30, "time": 2, "location": {"lat": 30.95783235486374, "lng": 117.82462502194412}, "feature": {"sight_features": "", "sight_content": ""}}, {"title": "天景庄园", "address": "湖东路与翠湖一路交汇处", "image": "", "rank": 31, "time": 2, "location": {"lat": 30.94836527426195, "lng": 117.81969891305293}, "feature": {"sight_features": "", "sight_content": ""}}, {"title": "龙门垂钓休闲中心", "address": "G3京台高速附近", "image": "", "rank": 32, "time": 3.5, "location": {"lat": 34.36362079238921, "lng": 117.31686524344956}, "feature": {"sight_features": "", "sight_content": ""}}, {"title": "铜冠地产集团东湖苗圃基地", "address": "东湖游乐场附近", "image": "", "rank": 33, "time": 2, "location": {"lat": 30.979979205581827, "lng": 117.90072429949278}, "feature": {"sight_features": "", "sight_content": ""}}, {"title": "画语少儿美术馆", "address": "石城大道南段480", "image": "", "rank": 34, "time": 2, "location": {"lat": 30.93822042480516, "lng": 117.82699203181036}, "feature": {"sight_features": "", "sight_content": ""}}, {"title": "垂钓园", "address": "叶山林场沿江高速铜陵东出口处铜陵永泉农庄内", "image": "", "rank": 35, "time": 2, "location": {"lat": 30.966201675512927, "lng": 118.03640138763369}, "feature": {"sight_features": "", "sight_content": ""}}, {"title": "义安区城北社会公用站", "address": "城北路附近", "image": "", "rank": 36, "time": 2, "location": {"lat": 40.616045229438626, "lng": 118.4978678136211}, "feature": {"sight_features": "", "sight_content": ""}}, {"title": "垂钓基地", "address": "G3京台高速附近", "image": "", "rank": 37, "time": 2, "location": {"lat": 34.36362079238921, "lng": 117.31686524344956}, "feature": {"sight_features": "", "sight_content": ""}}, {"title": "太阳岛农业", "address": "铜陵县五松镇湖畔人家旁", "image": "", "rank": 38, "time": 5.0, "location": {"lat": 30.955435540110226, "lng": 117.79329728741955}, "feature": {"sight_features": "", "sight_content": ""}}, {"title": "锦添葡萄采摘园", "address": "顺安镇东垅村新桥高科技现代农业示范园对面", "image": "", "rank": 39, "time": 2, "location": {"lat": 30.964393076263818, "lng": 117.98532401750596}, "feature": {"sight_features": "", "sight_content": ""}}, {"title": "铜陵植物园", "address": "北京中路975号", "image": "", "rank": 40, "time": 3.5, "location": {"lat": 32.931020041493035, "lng": 115.81012647798772}, "feature": {"sight_features": "", "sight_content": ""}}, {"title": "莲花寺", "address": "安徽省铜陵市义安区", "image": "", "rank": 41, "time": 1.0, "location": {"lat": 30.9585120990978, "lng": 117.79856800876202}, "feature": {"sight_features": "", "sight_content": ""}}, {"title": "大士阁", "address": "老镇路东100米", "image": "", "rank": 42, "time": 1.5, "location": {"lat": 30.81313491942922, "lng": 117.76231265978622}, "feature": {"sight_features": "", "sight_content": ""}}, {"title": "神仙山陵园", "address": "铜都大道中段附近", "image": "", "rank": 43, "time": 2, "location": {"lat": 30.916533080644946, "lng": 117.81465875170096}, "feature": {"sight_features": "", "sight_content": ""}}, {"title": "龙泉山庄", "address": "安徽省铜陵市义安区钟鸣镇龙泉南路3号", "image": "", "rank": 44, "time": 2, "location": {"lat": 30.987027850878217, "lng": 118.0627174119384}, "feature": {"sight_features": "", "sight_content": ""}}, {"title": "铜都文化广场", "address": "淮河大道中段391号", "image": "", "rank": 45, "time": 2, "location": {"lat": 30.934762585190295, "lng": 117.81528652082864}, "feature": {"sight_features": "", "sight_content": ""}}, {"title": "龙潭肖村", "address": "钟鸣镇龙潭村", "image": "", "rank": 46, "time": 2, "location": {"lat": 30.897606694242235, "lng": 118.08195839013128}, "feature": {"sight_features": "", "sight_content": ""}}, {"title": "锦洲垂钓中心", "address": "103省道附近", "image": "", "rank": 47, "time": 2, "location": {"lat": 39.16211906866746, "lng": 117.4666343312951}, "feature": {"sight_features": "", "sight_content": ""}}, {"title": "枞阳县天峰寺", "address": "枞阳县小缸窑居委会向西800米", "image": "", "rank": 48, "time": 2, "location": {"lat": 30.725337170715807, "lng": 117.173521073764}, "feature": {"sight_features": "", "sight_content": ""}}, {"title": "白荡湖湿地公园", "address": "安徽省铜陵市枞阳县S320", "image": "", "rank": 49, "time": 2, "location": {"lat": 30.705671267724508, "lng": 117.22643695996541}, "feature": {"sight_features": "", "sight_content": ""}}, {"title": "陈瑶湖影剧院", "address": "雅兴酒家附近", "image": "", "rank": 50, "time": 2, "location": {"lat": 34.476435611362795, "lng": 112.39049040171547}, "feature": {"sight_features": "", "sight_content": ""}}, {"title": "铜陵文投阅读点", "address": "建设西路32号", "image": "", "rank": 51, "time": 2, "location": {"lat": 36.36327220829814, "lng": 114.3894553297142}, "feature": {"sight_features": "", "sight_content": ""}}, {"title": "民俗大舞台", "address": "建设东路西段安徽民俗村", "image": "", "rank": 52, "time": 2, "location": {"lat": 30.955845127556866, "lng": 117.81037983060764}, "feature": {"sight_features": "", "sight_content": ""}}, {"title": "118茶社", "address": "长江路双星国际北楼A411室", "image": "", "rank": 53, "time": 2, "location": {"lat": 30.93510464062045, "lng": 117.81706384972081}, "feature": {"sight_features": "", "sight_content": ""}}, {"title": "静雨轩茶楼", "address": "铜都高速天地花园7号楼1号商铺(铜陵大市场对面)", "image": "", "rank": 54, "time": 2, "location": {"lat": 32.91864601645635, "lng": 117.33599735420106}, "feature": {"sight_features": "", "sight_content": ""}}, {"title": "中信天门湖实业根雕艺术展示中心", "address": "安徽省铜陵县南湖东路", "image": "", "rank": 55, "time": 2, "location": {"lat": 30.954213483638483, "lng": 117.8004882517727}, "feature": {"sight_features": "", "sight_content": ""}}, {"title": "万松禅寺", "address": "安徽省铜陵市义安区顺安镇凤凰山景区", "image": "", "rank": 56, "time": 2, "location": {"lat": 30.864133540852592, "lng": 118.03998659678845}, "feature": {"sight_features": "", "sight_content": ""}}, {"title": "翰林儿童游乐场", "address": "安徽省铜陵市铜官区狮子山北路", "image": "", "rank": 57, "time": 2, "location": {"lat": 30.932019804472795, "lng": 117.89760356279517}, "feature": {"sight_features": "", "sight_content": ""}}, {"title": "卡雷拉路轨赛车", "address": "铜陵市铜官区石城大道与翠湖一路交叉口嘉华国际广场F3", "image": "", "rank": 58, "time": 2, "location": {"lat": 30.955369634654147, "lng": 117.84200026810127}, "feature": {"sight_features": "", "sight_content": ""}}, {"title": "天香牡丹园", "address": "铜官大道瓜果市场旁", "image": "", "rank": 59, "time": 2.5, "location": {"lat": 33.75299641748557, "lng": 112.93060004537102}, "feature": {"sight_features": "", "sight_content": ""}}, {"title": "南泉禅寺", "address": "中国安徽省铜陵市铜山镇南泉村南泉禅寺", "image": "", "rank": 60, "time": 2, "location": {"lat": 30.95123323991339, "lng": 117.81847679445747}, "feature": {"sight_features": "", "sight_content": ""}}]}