{"cityName": "通河", "days": 2, "cityImage": "", "spots": [{"title": "清河漂流山庄", "address": "哈尔滨市通河县", "image": "", "rank": 1, "time": null, "location": {"lat": 45.99639259092071, "lng": 128.7524162758437}, "feature": {"sight_features": "", "sight_content": ""}}, {"title": "兴隆国家森林公园", "address": "黑龙江省哈尔滨市通河县", "image": "", "rank": 2, "time": 3.0, "location": {"lat": 45.99639259092071, "lng": 128.7524162758437}, "feature": {"sight_features": "", "sight_content": ""}}, {"title": "墨林书画苑", "address": "民强街", "image": "", "rank": 3, "time": 2, "location": {"lat": 41.72566151177323, "lng": 123.37554342420064}, "feature": {"sight_features": "", "sight_content": ""}}, {"title": "乌龙国家级森林公园", "address": "黑龙江省哈尔滨市通河县境内", "image": "", "rank": 4, "time": 2, "location": {"lat": 45.99639259092071, "lng": 128.7524162758437}, "feature": {"sight_features": "", "sight_content": ""}}, {"title": "通河县月牙湖公园", "address": "哈尔滨市通河县临湖北路与公园路交叉处", "image": "", "rank": 5, "time": 2, "location": {"lat": 46.19170953789826, "lng": 129.33078829139487}, "feature": {"sight_features": "", "sight_content": ""}}, {"title": "黑龙江省岔林河农场", "address": "通河街中共黑龙江省岔林河农场委员会附近", "image": "", "rank": 6, "time": 2, "location": {"lat": 46.0071428258202, "lng": 128.91858779348865}, "feature": {"sight_features": "", "sight_content": ""}}, {"title": "五味子观光采摘园", "address": "大古洞沟系18公里处", "image": "", "rank": 7, "time": 2, "location": {"lat": 34.77843294967691, "lng": 112.2577143840326}, "feature": {"sight_features": "", "sight_content": ""}}, {"title": "乌龙森林公园", "address": "黑龙江省通河县凤山镇 150900", "image": "", "rank": 8, "time": 2, "location": {"lat": 46.267069951430486, "lng": 128.5794176030856}, "feature": {"sight_features": "", "sight_content": ""}}, {"title": "文化广场", "address": "通江街附近", "image": "", "rank": 9, "time": 1.5, "location": {"lat": 38.930446457376085, "lng": 121.6341216088443}, "feature": {"sight_features": "", "sight_content": ""}}, {"title": "浓浓河公园", "address": "西顺路与一零一省道交叉口西行1000米", "image": "", "rank": 10, "time": 2, "location": {"lat": 28.24054813030942, "lng": 112.95802549581606}, "feature": {"sight_features": "", "sight_content": ""}}, {"title": "喜鹊公园", "address": "岔林河大街与隆达山大街交口东200米", "image": "", "rank": 11, "time": 2, "location": {"lat": 45.99055263726502, "lng": 128.75662123046138}, "feature": {"sight_features": "", "sight_content": ""}}, {"title": "圆觉寺", "address": "黑龙江省哈尔滨市通河县富林乡C430铧子山景区", "image": "", "rank": 12, "time": 1.5, "location": {"lat": 46.026931045444, "lng": 128.56404170382393}, "feature": {"sight_features": "", "sight_content": ""}}, {"title": "红旗广场", "address": "哈萝公路南50米", "image": "", "rank": 13, "time": 2, "location": {"lat": 46.07511538582829, "lng": 126.78992353158914}, "feature": {"sight_features": "", "sight_content": ""}}, {"title": "欢乐淘气堡", "address": "振兴路与中央大街交叉口旁", "image": "", "rank": 14, "time": 2, "location": {"lat": 48.13527371069056, "lng": 123.47625386722596}, "feature": {"sight_features": "", "sight_content": ""}}, {"title": "金禾升农业", "address": "通河镇中央大街418号", "image": "", "rank": 15, "time": 2, "location": {"lat": 45.9844536581405, "lng": 128.7654311138999}, "feature": {"sight_features": "", "sight_content": ""}}, {"title": "青峰山庄", "address": "黑龙江省通河县凤山镇", "image": "", "rank": 16, "time": 2, "location": {"lat": 46.267069951430486, "lng": 128.5794176030856}, "feature": {"sight_features": "", "sight_content": ""}}, {"title": "通河万米金街步行街", "address": "黑龙江省通河县万米金街", "image": "", "rank": 17, "time": 2, "location": {"lat": 45.98574433298958, "lng": 128.762146092314}, "feature": {"sight_features": "", "sight_content": ""}}, {"title": "乌龙狩猎场", "address": "哈尔滨市-通河县", "image": "", "rank": 18, "time": null, "location": {"lat": 45.99639259092071, "lng": 128.7524162758437}, "feature": {"sight_features": "", "sight_content": ""}}]}