{"cityName": "通道", "days": 2, "cityImage": "", "spots": [{"title": "万佛山", "address": "怀化市通道县临口镇太平岩村", "image": "", "rank": 1, "time": 3.0, "location": {"lat": 26.303862264649858, "lng": 109.87907839824575}, "feature": {"sight_features": "", "sight_content": ""}}, {"title": "通道皇都侗民族文化村", "address": "怀化市通道侗族自治县", "image": "", "rank": 2, "time": 2.5, "location": {"lat": 26.16421986471205, "lng": 109.79044548255604}, "feature": {"sight_features": "", "sight_content": ""}}, {"title": "马田鼓楼", "address": "怀化市通道侗族自治县坪阳乡田心寨", "image": "", "rank": 3, "time": 2.0, "location": {"lat": 25.932661556669164, "lng": 109.79967549351542}, "feature": {"sight_features": "", "sight_content": ""}}, {"title": "恭城书院", "address": "怀化市通道侗族自治县", "image": "", "rank": 4, "time": 1.0, "location": {"lat": 26.16421986471205, "lng": 109.79044548255604}, "feature": {"sight_features": "", "sight_content": ""}}, {"title": "迥龙桥", "address": "怀化市通道侗族自治县", "image": "", "rank": 5, "time": 0.4, "location": {"lat": 26.16421986471205, "lng": 109.79044548255604}, "feature": {"sight_features": "", "sight_content": ""}}, {"title": "独岩公园", "address": "湖南省怀化市通道县城南郊", "image": "", "rank": 6, "time": 2, "location": {"lat": 26.16421986471205, "lng": 109.79044548255604}, "feature": {"sight_features": "", "sight_content": ""}}, {"title": "上湘侗寨", "address": "怀化市通道侗族自治县播阳镇上湘村", "image": "", "rank": 7, "time": 3.5, "location": {"lat": 26.15973677505195, "lng": 109.51044090367861}, "feature": {"sight_features": "", "sight_content": ""}}, {"title": "侗族情景音乐剧《行歌·玩月》", "address": "怀化市通道县芋头古侗寨龙脉广场", "image": "", "rank": 8, "time": 2, "location": {"lat": 26.141430398484385, "lng": 109.72271640466992}, "feature": {"sight_features": "", "sight_content": ""}}, {"title": "神仙洞", "address": "怀化市通道县万佛山镇江寨村", "image": "", "rank": 9, "time": 2, "location": {"lat": 26.16421986471205, "lng": 109.79044548255604}, "feature": {"sight_features": "", "sight_content": ""}}, {"title": "大佛岩景区", "address": "怀化市通道侗族自治县万佛山镇江寨村", "image": "", "rank": 10, "time": 2.0, "location": {"lat": 26.16421986471205, "lng": 109.79044548255604}, "feature": {"sight_features": "", "sight_content": ""}}, {"title": "通道侗文化村", "address": "湖南省通道侗族自治县黄土乡盘寨村", "image": "", "rank": 11, "time": 2, "location": {"lat": 26.111450299241696, "lng": 109.73118862306747}, "feature": {"sight_features": "", "sight_content": ""}}, {"title": "侗文化长廊", "address": "湖南省通道侗族自治县坪坦河边", "image": "", "rank": 12, "time": 2, "location": {"lat": 26.16421986471205, "lng": 109.79044548255604}, "feature": {"sight_features": "", "sight_content": ""}}, {"title": "芋头侗寨古建筑群", "address": "湖南省通道侗族自治县双江镇芋头村 418500", "image": "", "rank": 13, "time": 2, "location": {"lat": 26.141981032573828, "lng": 109.7196745041632}, "feature": {"sight_features": "", "sight_content": ""}}, {"title": "烈士陵园", "address": "青云路附近", "image": "", "rank": 14, "time": 2, "location": {"lat": 31.214143644198504, "lng": 121.61693030601151}, "feature": {"sight_features": "", "sight_content": ""}}, {"title": "通道转兵纪念馆", "address": "湖南省通道侗族自治县县溪镇红长路", "image": "", "rank": 15, "time": 7.5, "location": {"lat": 26.322782392764257, "lng": 109.63691581481153}, "feature": {"sight_features": "", "sight_content": ""}}, {"title": "星光宝贝儿童主题乐园", "address": "湖南省怀化市通道侗族自治县城东内环路", "image": "", "rank": 16, "time": 1.0, "location": {"lat": 26.16412436588201, "lng": 109.79547985612393}, "feature": {"sight_features": "", "sight_content": ""}}, {"title": "新洲度假村", "address": "湖南省怀化市通道侗族自治县万佛山镇坪地村G65(包茂高速)服务区旁", "image": "", "rank": 17, "time": 2, "location": {"lat": 26.20505838338397, "lng": 109.84595437700045}, "feature": {"sight_features": "", "sight_content": ""}}, {"title": "萨岁广场儿童游乐场", "address": "209国道东100米", "image": "", "rank": 18, "time": 2, "location": {"lat": 29.50537463467816, "lng": 109.42627629164495}, "feature": {"sight_features": "", "sight_content": ""}}, {"title": "独岩民俗风情园", "address": "湖南省怀化市通道侗族自治县二零九国道通道收费站旁", "image": "", "rank": 19, "time": 2, "location": {"lat": 26.186774586833888, "lng": 109.78626845176656}, "feature": {"sight_features": "", "sight_content": ""}}, {"title": "马龙休闲农庄", "address": "G65向晖村", "image": "", "rank": 20, "time": 2, "location": {"lat": 26.09667623809475, "lng": 109.81398716574306}, "feature": {"sight_features": "", "sight_content": ""}}, {"title": "皇都侗寨", "address": "湖南省通道侗族自治县皇都侗文化村", "image": "", "rank": 21, "time": 2, "location": {"lat": 26.110842998476592, "lng": 109.73122630878021}, "feature": {"sight_features": "", "sight_content": ""}}, {"title": "龙底生态漂流", "address": "龙底生态漂流", "image": "", "rank": 22, "time": 2, "location": {"lat": 26.314079695470767, "lng": 109.98633833623836}, "feature": {"sight_features": "", "sight_content": ""}}, {"title": "通道渔湾农庄", "address": "万佛山镇五一村里皮湾组", "image": "", "rank": 23, "time": 7.5, "location": {"lat": 26.245774472535253, "lng": 109.8816684313184}, "feature": {"sight_features": "", "sight_content": ""}}, {"title": "博雅画廊", "address": "双江镇吉祥路安置楼4栋", "image": "", "rank": 24, "time": 2, "location": {"lat": 34.23593685248871, "lng": 108.91681742642868}, "feature": {"sight_features": "", "sight_content": ""}}, {"title": "萝蔓地科技农业采摘园", "address": "陇城镇南地村二组", "image": "", "rank": 25, "time": 2, "location": {"lat": 26.05921865646469, "lng": 109.80360485608604}, "feature": {"sight_features": "", "sight_content": ""}}, {"title": "卓雅教育公益图书馆", "address": "通道双江镇民族影院附近征稽所2楼", "image": "", "rank": 26, "time": 2, "location": {"lat": 26.159396335453714, "lng": 109.78804844952383}, "feature": {"sight_features": "", "sight_content": ""}}, {"title": "蒙岩", "address": "湖南省宜章县县城东", "image": "", "rank": 27, "time": 2, "location": {"lat": 25.405713969356206, "lng": 112.95547924076412}, "feature": {"sight_features": "", "sight_content": ""}}, {"title": "白衣观", "address": "湖南省通道侗族自治县播阳乡", "image": "", "rank": 31, "time": 2, "location": {"lat": 26.16421986471205, "lng": 109.79044548255604}, "feature": {"sight_features": "", "sight_content": ""}}, {"title": "阳烂古寨", "address": "湖南省通道侗族自治县双江镇", "image": "", "rank": 32, "time": 2, "location": {"lat": 26.159396335453714, "lng": 109.78804844952383}, "feature": {"sight_features": "", "sight_content": ""}}, {"title": "靖洲毛", "address": "怀化市-通道侗族自治县", "image": "", "rank": 33, "time": 2, "location": {"lat": 26.16421986471205, "lng": 109.79044548255604}, "feature": {"sight_features": "", "sight_content": ""}}, {"title": "普修桥", "address": "湖南省通道侗族自治县黄土乡", "image": "", "rank": 34, "time": 2, "location": {"lat": 26.102425972183827, "lng": 109.71419350387553}, "feature": {"sight_features": "", "sight_content": ""}}]}