{"cityName": "通海", "days": null, "cityImage": "", "spots": [{"title": "秀山历史文化公园", "address": "玉溪市通海县秀山镇文献里46号", "image": "", "rank": 1, "time": 1.0, "location": {"lat": 24.11168761913891, "lng": 102.7641048168757}, "feature": {"sight_features": "", "sight_content": "位于通海县城南，是玉溪重要的风景区之一，秀山上林木茂盛，有众多古建筑群和楹联，隐隐透出浓浓的文化气息。山上珍稀的宋柏、元杉、明玉兰被誉为秀山“三绝”，且秀山素有“匾山联海”和“碑林”之称，至今保留的匾联、碑刻形成了以人文景观和珍稀古木为特色的景区登上秀山，可一览杞麓湖、通海县城以及坝子的景色。"}}, {"title": "通海文庙", "address": "玉溪市通海县顺城街18号", "image": "", "rank": 2, "time": 1.0, "location": {"lat": 24.114667551721055, "lng": 102.76482971079488}, "feature": {"sight_features": "", "sight_content": ""}}, {"title": "纳古镇", "address": "玉溪市通海县", "image": "", "rank": 3, "time": 7.5, "location": {"lat": 24.117891201573585, "lng": 102.73242289127867}, "feature": {"sight_features": "", "sight_content": ""}}, {"title": "兴蒙乡", "address": "云南省玉溪市通海县", "image": "", "rank": 4, "time": 3.0, "location": {"lat": 24.117891201573585, "lng": 102.73242289127867}, "feature": {"sight_features": "", "sight_content": ""}}, {"title": "杨广镇", "address": "云南省玉溪市通海县杨广镇", "image": "", "rank": 5, "time": 4.5, "location": {"lat": 24.11944027195524, "lng": 102.8349291366497}, "feature": {"sight_features": "", "sight_content": ""}}, {"title": "里山仙人洞", "address": "云南省通海县里山乡里山村", "image": "", "rank": 6, "time": 2, "location": {"lat": 24.07372463535554, "lng": 102.76240416374918}, "feature": {"sight_features": "", "sight_content": ""}}, {"title": "曲陀关", "address": "玉溪市通海县319省道南50米", "image": "", "rank": 7, "time": 2, "location": {"lat": 24.117891201573585, "lng": 102.73242289127867}, "feature": {"sight_features": "", "sight_content": ""}}, {"title": "秀山镇", "address": "云南省玉溪市通海县", "image": "", "rank": 8, "time": 2, "location": {"lat": 24.117891201573585, "lng": 102.73242289127867}, "feature": {"sight_features": "", "sight_content": ""}}, {"title": "小世界美食休闲广场", "address": "云南省玉溪市通海县顺城街38-2", "image": "", "rank": 9, "time": 2, "location": {"lat": 24.11437843108056, "lng": 102.7669066838621}, "feature": {"sight_features": "", "sight_content": ""}}, {"title": "通海城清真寺", "address": "盐店巷9", "image": "", "rank": 10, "time": 2.0, "location": {"lat": 24.117288114082164, "lng": 102.76622674115065}, "feature": {"sight_features": "", "sight_content": ""}}, {"title": "接龙桥", "address": "云南省玉溪市通海县富善巷秀山历史文化公园北100米", "image": "", "rank": 11, "time": 0.25, "location": {"lat": 24.107458336981676, "lng": 102.76167284964053}, "feature": {"sight_features": "", "sight_content": ""}}, {"title": "地母寺", "address": "云南省玉溪市通海县秀山街道西街拨云秀苑南", "image": "", "rank": 12, "time": 2.5, "location": {"lat": 24.1173252734771, "lng": 102.75666210510076}, "feature": {"sight_features": "", "sight_content": ""}}, {"title": "南山寺", "address": "玉溪市通海县", "image": "", "rank": 13, "time": 1.0, "location": {"lat": 24.117891201573585, "lng": 102.73242289127867}, "feature": {"sight_features": "", "sight_content": ""}}, {"title": "张盾烈士墓", "address": "城秀山历史文化公园内", "image": "", "rank": 14, "time": 2, "location": {"lat": 24.106633722476662, "lng": 102.76167284964053}, "feature": {"sight_features": "", "sight_content": ""}}, {"title": "蒙古人历滇七百五十年纪念碑", "address": "甸石路与319省道交叉口东北50米", "image": "", "rank": 15, "time": 2.0, "location": {"lat": 39.96032749082214, "lng": 116.42441470912452}, "feature": {"sight_features": "", "sight_content": ""}}, {"title": "开心哈乐室内儿童主题乐园", "address": "北街40附近", "image": "", "rank": 16, "time": 2.5, "location": {"lat": 23.100931760317003, "lng": 113.27528273950196}, "feature": {"sight_features": "", "sight_content": ""}}, {"title": "马脖子山庄", "address": "214省道附近", "image": "", "rank": 17, "time": 2, "location": {"lat": 40.25674691410845, "lng": 116.28095415138388}, "feature": {"sight_features": "", "sight_content": ""}}, {"title": "通海图书馆", "address": "延龄路19号", "image": "", "rank": 18, "time": 1.5, "location": {"lat": 22.533028057343955, "lng": 113.38155852701881}, "feature": {"sight_features": "", "sight_content": ""}}, {"title": "琉璃温泉", "address": "141乡道", "image": "", "rank": 19, "time": 2, "location": {"lat": 23.482334859459005, "lng": 109.46128415566274}, "feature": {"sight_features": "", "sight_content": ""}}, {"title": "蒙古族休闲农庄", "address": "304省道", "image": "", "rank": 20, "time": 2, "location": {"lat": 38.007414201086036, "lng": 114.44892402313616}, "feature": {"sight_features": "", "sight_content": ""}}, {"title": "通海县博物馆", "address": "文献里50号", "image": "", "rank": 21, "time": 2, "location": {"lat": 22.832974366176167, "lng": 113.08674718760501}, "feature": {"sight_features": "", "sight_content": ""}}, {"title": "古乐馆", "address": "步行街", "image": "", "rank": 22, "time": 2, "location": {"lat": 31.4707878758284, "lng": 104.75488769018823}, "feature": {"sight_features": "", "sight_content": ""}}, {"title": "童梦乐园", "address": "东街55号", "image": "", "rank": 23, "time": 2, "location": {"lat": 38.0352744408409, "lng": 114.47262402189743}, "feature": {"sight_features": "", "sight_content": ""}}, {"title": "一青画苑", "address": "文庙街38号", "image": "", "rank": 24, "time": 2, "location": {"lat": 29.305396567045694, "lng": 108.17631920883842}, "feature": {"sight_features": "", "sight_content": ""}}, {"title": "通海县文化馆书法培训室", "address": "文庙街附近", "image": "", "rank": 25, "time": 2, "location": {"lat": 37.13084408685483, "lng": 114.6920894264132}, "feature": {"sight_features": "", "sight_content": ""}}, {"title": "水上世界泳装店", "address": "长虹路3-2号铺面", "image": "", "rank": 26, "time": 2, "location": {"lat": 22.769269800405528, "lng": 113.71522284493376}, "feature": {"sight_features": "", "sight_content": ""}}, {"title": "杞麓湖湿地", "address": "云南省通海县县城北", "image": "", "rank": 27, "time": 2, "location": {"lat": 24.117891201573585, "lng": 102.73242289127867}, "feature": {"sight_features": "", "sight_content": ""}}, {"title": "班猫草箐", "address": "玉溪市-通海县", "image": "", "rank": 28, "time": 2, "location": {"lat": 24.117891201573585, "lng": 102.73242289127867}, "feature": {"sight_features": "", "sight_content": ""}}, {"title": "通海奥斯卡影城", "address": "玉溪市-通海县-顺城街26号", "image": "", "rank": 29, "time": 2, "location": {"lat": 24.11461623590606, "lng": 102.76540265094725}, "feature": {"sight_features": "", "sight_content": ""}}, {"title": "河西镇", "address": "云南省玉溪市通海县河西镇", "image": "", "rank": 30, "time": 2, "location": {"lat": 24.224327500945723, "lng": 102.57534669990739}, "feature": {"sight_features": "", "sight_content": ""}}, {"title": "纳家营清真寺", "address": "云南省玉溪市通海县", "image": "", "rank": 31, "time": 2, "location": {"lat": 24.117891201573585, "lng": 102.73242289127867}, "feature": {"sight_features": "", "sight_content": ""}}, {"title": "通海秀山古寺观", "address": "云南省通海县县城南", "image": "", "rank": 32, "time": 2, "location": {"lat": 24.117891201573585, "lng": 102.73242289127867}, "feature": {"sight_features": "", "sight_content": ""}}]}