{"cityName": "通辽", "days": "", "cityImage": "", "spots": [{"title": "科尔沁草原", "address": "内蒙古自治区东部，在松辽平原西北端，兴安盟和通辽市的部分地方。", "image": "", "rank": 1, "time": null, "location": {"lat": 46.08846371321896, "lng": 122.04436452582519}, "feature": {"sight_features": "", "sight_content": ""}}, {"title": "库伦三大寺", "address": "通辽市库伦旗库伦镇,中心街与兴源路交汇口", "image": "", "rank": 2, "time": 2.5, "location": {"lat": 42.73628978446199, "lng": 121.77789033567997}, "feature": {"sight_features": "特色1 曾经是库伦旗的政教中心，可以观赏元代文物“四龙戏火炉”和清代壁画，还有历代库伦旗扎萨克达喇嘛的画像。 聆听喇嘛的日常诵经，拜拜三世佛殿内的三世佛，为家人祈福。", "sight_content": "三大寺曾经是库伦旗的政教中心，如今可以在这里观赏到元代文物“四龙戏火炉”和修复后的清代佛教壁画，还有历代库伦旗扎萨克达喇嘛的画像。 听喇嘛诵经，\n拜殿内的三世佛，为家人祈福。库伦三大寺，位于通辽市库伦旗（县）政府驻地库伦镇。在镇西北部的斜坡上，建有三座藏汉混合风格的寺庙：兴源寺、象教寺、\n福缘寺，统称为“库伦三大寺”。三个寺庙如今的规模都不大，相距又非常近，游客可以根据景区门口的示意图，沿着参观线路，按照兴源寺、象教寺、福缘寺的\n顺序，轻松的一并游玩。\n库伦旗是清代内蒙古（当时称为漠南蒙古）唯一实行政教合一的喇嘛旗，从清顺治到乾隆朝的一百多年间，清王朝在库伦镇修建了多处喇嘛庙。在众多的喇嘛庙中，\n兴源寺是当时的旗政教中心；象教寺是当年旗“札萨克达喇嘛”（当年库伦旗政教合一的统治者）的居住地和办公场所；而福缘寺则是清代库伦旗财务机构所在地。\n兴源寺始建于清顺治六年（公元1649年），主要建筑有正殿（大经堂）、嘛呢殿、额克苏莫等。除了正殿外，其余建筑都是近年重新修建的。如今的正殿内供着的佛\n祖释迦摩尼像，左右两侧各有几尊铜像和泥塑像。\n在释迦摩尼像前面摆放着是札萨克达喇嘛宝座，殿内还藏有《甘珠尔经》和《丹珠尔经》多卷经书。游客在大殿的地中心，还能观赏到石刻“四龙戏火炉”，据考证\n石刻是元朝文物。此外，游客在嘛呢殿内的墙壁上，能观赏到清代早期汉传佛教十八罗汉、藏传佛教十八罗汉及护法韦驮和多闻天王等壁画。与兴源寺一墙之隔的是\n象教寺，始建于康熙九年（公元1670年），当年是札萨克达喇嘛居住和会客的场所。寺中的正殿是弥勒殿，游客可以在殿内看到一座一人多高的弥勒佛像。在弥勒殿\n西北方的玉柱堂内，挂有历代扎萨克达喇嘛的画像，以及十幅唐卡，这里是当年扎萨克达喇嘛的会客及议事的场所。\n福缘寺位于象教寺的南方，始建于乾隆七年（公元1742年），并有乾隆皇帝赐名，是当年清代库伦旗财务机构的所在地。原建筑在上世纪六七十年代遭受严重破坏，\n如今游客所见的寺中各建筑，都是近年重新建造的，主要有山门殿、诵经殿、三世佛殿、老爷庙，其中三世佛殿是寺中的主殿，供奉着燃灯佛、释迦牟尼佛、弥勒佛\n。目前，福缘寺每年举办6次主要法会。寺中僧众每日清晨还惯常举行诵经。"}}, {"title": "通辽", "address": "通辽市", "image": "", "rank": 3, "time": 4.5, "location": {"lat": 43.657980083916655, "lng": 122.25052178737633}, "feature": {"sight_features": "", "sight_content": ""}}, {"title": "大青沟", "address": "通辽市科左后旗甘旗卡镇西南25公里处", "image": "", "rank": 4, "time": 3.0, "location": {"lat": 42.78970123168252, "lng": 122.36021827489672}, "feature": {"sight_features": "", "sight_content": ""}}, {"title": "孝庄园文化旅游区", "address": "通辽市科尔沁左翼中旗花吐古拉镇，304国道通辽-舍伯吐区间50公里处", "image": "", "rank": 5, "time": 3.0, "location": {"lat": 43.914633800445905, "lng": 122.02240509803646}, "feature": {"sight_features": "", "sight_content": ""}}, {"title": "科尔沁博物馆", "address": "通辽市科尔沁区霍林河大街340号-560号", "image": "", "rank": 6, "time": 2, "location": {"lat": 43.62940463943395, "lng": 122.26925349050204}, "feature": {"sight_features": "", "sight_content": ""}}, {"title": "珠日河草原旅游区", "address": "通辽科尔沁左翼中旗Z001县道", "image": "", "rank": 7, "time": 1.0, "location": {"lat": 44.13229422830756, "lng": 123.3185885336466}, "feature": {"sight_features": "", "sight_content": ""}}, {"title": "塔敏查干沙漠", "address": "通辽市库伦旗塔敏查干沙漠旅游区", "image": "", "rank": 8, "time": 3.0, "location": {"lat": 42.8716945546127, "lng": 121.62421601913833}, "feature": {"sight_features": "", "sight_content": ""}}, {"title": "大乐林寺", "address": "通辽市科尔沁区滨河大街", "image": "", "rank": 9, "time": 1.0, "location": {"lat": 43.64347018929864, "lng": 122.27599291492515}, "feature": {"sight_features": "", "sight_content": ""}}, {"title": "银沙湾", "address": "通辽市库伦旗库伦镇西", "image": "", "rank": 10, "time": 3.0, "location": {"lat": 42.75641547859282, "lng": 121.7856395699584}, "feature": {"sight_features": "特色1 得天独厚的沙漠秘境", "sight_content": "库伦银沙湾旅游区位于通辽市库伦镇西北28公里处，嘎海山北麓，养畜牧河流域两岸，八百里瀚海塔敏查干沙漠中段。\n\n\n项目开发地自然景观极为壮观，大自然的鬼斧神工创造了自然美学，劲风急雨画出了上帝的曲线，形成了得天独厚的沙漠秘境，被世人称之“东北第一漠”。\n\n\n这里的沙山沙峰、沙谷沙梁、丘陵沟壑连绵起伏，沙峰高达70—80米，宛如卷起的巨浪，气势蔚为壮观，富聚了开展沙漠运动，探险穿越，户外体验等沙漠文化独\n特资源。瀚海秀水—养畜牧河潺潺流水绕沙而去，流淌出了两岸绿洲和台地，形成了高低错落的地形地貌。为打造别具特色的水上娱乐游提供了理想的载体。"}}, {"title": "莫力庙水库沙湖旅游区", "address": "通辽市区西南四十五公里处", "image": "", "rank": 11, "time": 1.0, "location": {"lat": 43.657980083916655, "lng": 122.25052178737633}, "feature": {"sight_features": "", "sight_content": ""}}, {"title": "联众海洋之星水上乐园", "address": "通辽市科尔沁左翼后旗木里图镇南6公里（304国道东侧）", "image": "", "rank": 12, "time": 2, "location": {"lat": 43.502248226779166, "lng": 122.2358179634668}, "feature": {"sight_features": "特色1 总投资5亿元，总占地面积586亩，总建筑面积6万平方米。一期工程“海洋之星水上乐园”！ 特色2 该项目是是集娱乐、商务会展、健身康体、拓展训练、休闲采摘、民俗文化风情体验等多方面全角度于一体的水上乐园项目！ 特色3 通辽市目前建设规模最大、娱乐功能最全、基础设施最先进的娱乐项目！", "sight_content": "左后旗联众海洋之星水上乐园项目总投资5亿元，总占地面积586亩，总建筑面积6万平方米。\n一期工程——“海洋之星水上乐园”项目投入运营以来接待游客量稳中有升，营运当日最好接待量达到1500人以上。\n该项目是是集娱乐、商务会展、健身康体、拓展训练、休闲采摘、民俗文化风情体验等多方面全角度于一体的水上乐园项目，也是通辽市目前建设规模最大、娱乐功能最全、基础设施最先进的娱乐项目。\n项目一期总投资1.8亿元，建筑面积约1.8万平方米，建设内直径128米、面积1.3万平方米，全国最大能同时容纳七千余人的蒙古包式水上乐园和3750平方米的接待中心。"}}, {"title": "孝庄故里", "address": "通辽市科左中旗花吐古拉镇，国道304线583公里处", "image": "", "rank": 13, "time": 2, "location": {"lat": 43.576988040325126, "lng": 122.24824603097701}, "feature": {"sight_features": "", "sight_content": ""}}, {"title": "奈曼王府", "address": "通辽市奈曼旗王府街", "image": "", "rank": 14, "time": 3.5, "location": {"lat": 42.852993997907184, "lng": 120.65716013154811}, "feature": {"sight_features": "", "sight_content": ""}}, {"title": "通辽纳斯盾大都汇", "address": "内蒙古自治区通辽市科尔沁区红胜大街与福利路交汇处", "image": "", "rank": 15, "time": 2, "location": {"lat": 43.640043213464516, "lng": 122.29058040647452}, "feature": {"sight_features": "", "sight_content": ""}}, {"title": "欧翔玖玖庄园滑雪场", "address": "通辽市科尔沁左翼后旗甘旗卡镇北304国道东侧欧翔玖玖庄园滑雪场售票处", "image": "", "rank": 16, "time": 2, "location": {"lat": 43.08064047403858, "lng": 122.29153886611468}, "feature": {"sight_features": "", "sight_content": ""}}, {"title": "辉特扎哈诺尔草原旅游区", "address": "通辽市霍林郭勒市", "image": "", "rank": 17, "time": 2, "location": {"lat": 45.53751332060997, "lng": 119.67046591393887}, "feature": {"sight_features": "", "sight_content": ""}}, {"title": "金门山自然保护区", "address": "扎鲁特旗东北部50公里嘎亥图镇境内", "image": "", "rank": 18, "time": 2, "location": {"lat": 44.93220687820997, "lng": 121.0850781974174}, "feature": {"sight_features": "", "sight_content": ""}}, {"title": "炮台山自然保护区", "address": "扎鲁特旗鲁北镇西部1公里处", "image": "", "rank": 19, "time": 2, "location": {"lat": 44.55966197342734, "lng": 120.89012870998134}, "feature": {"sight_features": "", "sight_content": ""}}, {"title": "英皇儿童城", "address": "通辽市经济技术开发区京汉四期南门东侧", "image": "", "rank": 20, "time": 2, "location": {"lat": 43.657980083916655, "lng": 122.25052178737633}, "feature": {"sight_features": "", "sight_content": ""}}, {"title": "章古台佛塔", "address": "通辽市奈曼旗章古台苏木所在地", "image": "", "rank": 21, "time": 1.0, "location": {"lat": 42.92708282578027, "lng": 120.86043782553668}, "feature": {"sight_features": "", "sight_content": ""}}, {"title": "草甘沙漠旅游区", "address": "通辽市科尔沁左翼后旗", "image": "", "rank": 22, "time": 3.0, "location": {"lat": 42.93956249402025, "lng": 122.36356257647982}, "feature": {"sight_features": "", "sight_content": ""}}, {"title": "双合尔山白塔", "address": "通辽市科尔沁左翼后旗阿古拉苏木的双合尔山上", "image": "", "rank": 23, "time": 1.0, "location": {"lat": 43.307111167070595, "lng": 122.64484455307137}, "feature": {"sight_features": "", "sight_content": ""}}, {"title": "湛露田园水上乐园", "address": "通辽市科尔沁区河西镇湛露村农业科技园内", "image": "", "rank": 24, "time": 2, "location": {"lat": 43.59676770678723, "lng": 122.17128581024116}, "feature": {"sight_features": "", "sight_content": "湛露田园水上乐园内设14000平方米室内温泉旅游，园区内绿植覆盖率高达70%以上，有模拟海上冲浪，室内漂流，温泉药浴、鱼疗养生、儿童水上乐园，儿童淘气城堡等多个休闲娱乐项目。二楼美食广场经营各种中西式美食，种类多样。\n400米室内漂流，全身放松，随波逐流，让心与水结合，回归自然，感受平凡；500平米儿童水上乐园，为孩子打造一个专属的水上王国。\n人参泉、艾叶泉、瑶泉、奶泉、玫瑰泉、红酒泉、藏药泉、中医养生泉等30多种汤泉为您量身订做，在享受温暖的同时健康与您相伴。\n园区内绿植覆盖率高达70%以上，汤泉的温暖给这片绿植遮上了神秘的面纱，在汤泉池中欣赏四周的美景，仿佛天宫入凡，梦回自然。\n更有特色风味小吃、冷饮、沙滩，让人一年四季感受热带风情。"}}, {"title": "公爷仓自然保护区", "address": "鲁北镇北7公里处", "image": "", "rank": 25, "time": 2, "location": {"lat": 44.60460375130669, "lng": 120.89911176508112}, "feature": {"sight_features": "", "sight_content": ""}}, {"title": "古榆园", "address": "通辽市开鲁县大榆树镇中心", "image": "", "rank": 26, "time": 2, "location": {"lat": 43.58470936354264, "lng": 121.06795623927844}, "feature": {"sight_features": "", "sight_content": ""}}, {"title": "响山自然保护区", "address": "通辽香山镇西1公里处", "image": "", "rank": 27, "time": 2, "location": {"lat": 44.49004208576595, "lng": 120.62544486802653}, "feature": {"sight_features": "", "sight_content": ""}}, {"title": "平顶山自然保护区", "address": "通辽市奈曼旗平顶山", "image": "", "rank": 28, "time": 4.5, "location": {"lat": 42.871846546660144, "lng": 120.66464641293936}, "feature": {"sight_features": "", "sight_content": ""}}, {"title": "唐十将军山自然保护区", "address": "内蒙古通辽市扎鲁特旗巨日合境内", "image": "", "rank": 29, "time": 2, "location": {"lat": 44.562213133098936, "lng": 120.9186258568948}, "feature": {"sight_features": "", "sight_content": ""}}, {"title": "可汗山", "address": "通辽市霍林郭勒市", "image": "", "rank": 30, "time": 2, "location": {"lat": 45.53751332060997, "lng": 119.67046591393887}, "feature": {"sight_features": "", "sight_content": ""}}, {"title": "科尔沁区图书馆", "address": "明仁大街115号", "image": "", "rank": 31, "time": 2, "location": {"lat": 43.6208072299034, "lng": 122.27236475958055}, "feature": {"sight_features": "", "sight_content": ""}}, {"title": "哈布图·哈萨尔圣地蒙古风情园", "address": "通辽科尔沁区建国路北段(哲里木大桥北侧)", "image": "", "rank": 32, "time": null, "location": {"lat": 43.65274207512854, "lng": 122.27440493715649}, "feature": {"sight_features": "", "sight_content": ""}}, {"title": "通辽薰衣草园", "address": "哲里木大桥东北侧", "image": "", "rank": 33, "time": 4.5, "location": {"lat": 43.65274207512854, "lng": 122.27440493715649}, "feature": {"sight_features": "", "sight_content": ""}}, {"title": "民族游乐园", "address": "通辽市科尔沁左翼后旗", "image": "", "rank": 34, "time": 2, "location": {"lat": 42.93956249402025, "lng": 122.36356257647982}, "feature": {"sight_features": "", "sight_content": ""}}, {"title": "小青湖水上乐园景区", "address": "内蒙古自治区通辽市科尔沁左翼后旗 ‎", "image": "", "rank": 35, "time": 2, "location": {"lat": 42.93956249402025, "lng": 122.36356257647982}, "feature": {"sight_features": "", "sight_content": ""}}, {"title": "科尔沁沙地生态示范区", "address": "中国吉林省白城市通榆县", "image": "", "rank": 36, "time": 2, "location": {"lat": 44.81896373588188, "lng": 123.09452077673187}, "feature": {"sight_features": "", "sight_content": ""}}, {"title": "通辽市科学技术馆", "address": "内蒙古自治区通辽市科尔沁区明仁大街133号", "image": "", "rank": 37, "time": 1.5, "location": {"lat": 43.620631005803595, "lng": 122.2721295409777}, "feature": {"sight_features": "", "sight_content": ""}}, {"title": "孟家段水库", "address": "内蒙古自治区通辽市奈曼旗", "image": "", "rank": 38, "time": 2, "location": {"lat": 42.871846546660144, "lng": 120.66464641293936}, "feature": {"sight_features": "", "sight_content": ""}}, {"title": "生态公园", "address": "生态大街政府办公楼东侧", "image": "", "rank": 39, "time": 1.5, "location": {"lat": 32.09392190605667, "lng": 118.74617436216234}, "feature": {"sight_features": "", "sight_content": ""}}, {"title": "嘎达苏绿色休闲文化旅游度假产业...", "address": "迎宾大街北50米", "image": "", "rank": 40, "time": 2, "location": {"lat": 38.02297205734828, "lng": 114.95683195556528}, "feature": {"sight_features": "", "sight_content": ""}}, {"title": "福缘寺", "address": "内蒙古自治区通辽市库伦旗福缘寺", "image": "", "rank": 41, "time": 2.5, "location": {"lat": 42.73652086177476, "lng": 121.78383151003473}, "feature": {"sight_features": "", "sight_content": ""}}, {"title": "武子娱乐园", "address": "黄山街", "image": "", "rank": 42, "time": 2, "location": {"lat": 45.03754911298064, "lng": 124.27145974352312}, "feature": {"sight_features": "", "sight_content": ""}}, {"title": "扎鲁特旗图书馆", "address": "泰山街", "image": "", "rank": 43, "time": 1.5, "location": {"lat": 38.92291474875417, "lng": 121.60589249383739}, "feature": {"sight_features": "", "sight_content": ""}}, {"title": "3顺游戏乐园", "address": "辽河路", "image": "", "rank": 44, "time": 2, "location": {"lat": 34.203766824091176, "lng": 117.20132199887331}, "feature": {"sight_features": "", "sight_content": ""}}, {"title": "乌力格尔博物馆", "address": "泰山街", "image": "", "rank": 45, "time": 2, "location": {"lat": 38.92291474875417, "lng": 121.60589249383739}, "feature": {"sight_features": "", "sight_content": ""}}, {"title": "二亮水族馆经营店", "address": "新华街", "image": "", "rank": 46, "time": 2, "location": {"lat": 39.02127929745047, "lng": 117.67844309976273}, "feature": {"sight_features": "", "sight_content": ""}}, {"title": "扎鲁特版画院", "address": "泰山街", "image": "", "rank": 47, "time": 2, "location": {"lat": 38.92291474875417, "lng": 121.60589249383739}, "feature": {"sight_features": "", "sight_content": ""}}, {"title": "爱无限游乐园", "address": "巴彦路", "image": "", "rank": 48, "time": 2, "location": {"lat": 45.182936939180216, "lng": 124.84487902440772}, "feature": {"sight_features": "", "sight_content": ""}}, {"title": "麦新烈士纪念馆", "address": "辽河大街与团结路交叉口", "image": "", "rank": 49, "time": 2, "location": {"lat": 43.60796911160511, "lng": 121.31265710448574}, "feature": {"sight_features": "", "sight_content": ""}}, {"title": "乡友藏书馆", "address": "建设街附近", "image": "", "rank": 50, "time": 2, "location": {"lat": 38.093296108711115, "lng": 114.62444471286672}, "feature": {"sight_features": "", "sight_content": ""}}, {"title": "香飘飘果园", "address": "303国道附近", "image": "", "rank": 51, "time": 2, "location": {"lat": 43.53481831055721, "lng": 118.65925526872917}, "feature": {"sight_features": "", "sight_content": ""}}, {"title": "英全腰林毛都葡萄采摘园", "address": "463县道附近", "image": "", "rank": 52, "time": 2, "location": {"lat": 37.92711782942852, "lng": 111.07250469432712}, "feature": {"sight_features": "", "sight_content": ""}}, {"title": "蒙农绿色农业", "address": "304国道", "image": "", "rank": 53, "time": 2, "location": {"lat": 43.502248226779166, "lng": 122.2358179634668}, "feature": {"sight_features": "", "sight_content": ""}}, {"title": "中国科左后旗大青沟丛林音乐节", "address": "大青沟风景区", "image": "", "rank": 54, "time": 2, "location": {"lat": 40.382247835682264, "lng": 116.17465402045427}, "feature": {"sight_features": "", "sight_content": ""}}, {"title": "青龙山洼", "address": "内蒙古自治区通辽奈曼旗青龙山洼", "image": "", "rank": 55, "time": 4.5, "location": {"lat": 42.38652691756343, "lng": 121.12960677125868}, "feature": {"sight_features": "", "sight_content": ""}}, {"title": "象教寺", "address": "内蒙古自治区通辽市库伦旗象教寺", "image": "", "rank": 56, "time": 2.5, "location": {"lat": 42.741211100234985, "lng": 121.81740576201258}, "feature": {"sight_features": "", "sight_content": ""}}, {"title": "经缘寺", "address": "通辽市奈曼旗大沁他拉镇章古台村", "image": "", "rank": 57, "time": 2, "location": {"lat": 42.84628721774126, "lng": 120.67667169193687}, "feature": {"sight_features": "", "sight_content": ""}}, {"title": "龙尾巴沟", "address": "内蒙古自治区通辽市奈曼旗青龙山镇卧龙村", "image": "", "rank": 58, "time": 2, "location": {"lat": 42.38084536426431, "lng": 121.20223689623292}, "feature": {"sight_features": "", "sight_content": ""}}, {"title": "市游乐场", "address": "西拉木伦大街", "image": "", "rank": 59, "time": 2, "location": {"lat": 43.63427752663861, "lng": 122.27287270193966}, "feature": {"sight_features": "", "sight_content": ""}}, {"title": "御龙泉温泉会馆", "address": "红胜大街与福利路交汇处西北角", "image": "", "rank": 60, "time": 2, "location": {"lat": 43.640043213464516, "lng": 122.29058040647452}, "feature": {"sight_features": "", "sight_content": ""}}]}