{"cityName": "桐城", "days": 2, "cityImage": "", "spots": [{"title": "活海欢乐水世界", "address": "安徽省桐城市桐潜路活海欢乐水世界", "image": "", "rank": 1, "time": 12.0, "location": {"lat": 31.0419690376743, "lng": 116.98046635878418}, "feature": {"sight_features": "特色1 华东地区规模最大的水上游乐目的地之一！ 特色2 亚洲首家魔幻水乐园！ 特色3 120余个水上体验项目让您激情一“夏”！", "sight_content": "活海欢乐水世界位于“七省通衢”、“中国文都”、“黄梅戏之乡”的安徽省桐城市西郊，是山湖海俱乐部的重要组成部分，是安徽永先集团继安庆巨石山之后，投入巨资倾力打造的又一经典之作。位于安徽省中部、合肥经济圈核心城市之一——中国•活海欢乐水世界，是国家aaaa级景区，华东地区水上游乐目的地之一，亚洲魔幻水乐园，一期已建成四大主题游乐区域。游乐区域包括激情水迪吧、疯狂活海、疯狂滑梯区、活海探秘区等，其中精心设置了 120 余个水上体验项目，包括40多项游乐设备。二期项目新增反斗乐水寨、极地冰吧西餐厅、诺亚方舟美食、桐城风味小吃、少数民族舞蹈等项目，除精彩的游乐项目和游乐设施外，活海欢乐水世界还拥有健全的配套设施，餐饮、购物、医疗卫生服务、淋浴室、更衣室等一应俱全。\n游玩项目：\n一、激情水迪吧\n激情水迪吧是儿童的戏水乐园，其中建有反斗乐水寨、喷水飞鱼螃蟹、喷水小丑怪、喷水鲸鱼、喷水蜗牛、喷水堆积木、彩虹门、雨蘑菇、青蛙滑梯、鳄鱼滑梯、苹果屋等20多套适合小朋 友嬉戏的大、小型的水玩具，造型生动可爱。孩子们如同与可爱的海洋动物一起嬉水玩乐，仿佛置身于童话般的水世界中。\n二、疯狂活海区\n1、活海冲浪：造浪池总面积12000平方米，可提供8种造浪模式，浪潮可达3米，让游客仿佛在大海中激情澎湃地体验冲浪，更让游客享受到魔幻的、浪漫的亲身体验。造浪池的舞台，为游客呈现精彩绝伦的各类表演，也是开启诺亚方舟的魔幻场地。\n2、疯狂活海：我们将活海冲浪区作为“疯狂活海”的主题场景，以古桐国文化为剧情设计源头，塑造出冰山压住诺亚方舟的造型，再现“魔力岛”的魔幻场景，营造远古时代与未来时代相结合的神秘情境。场景设计了海底八爪鱼、海龟、水母等生物造型，并结合演艺节目，让游客冲浪时亲身经历一场人文的、魔幻的、惊险刺激的精神盛宴。\n三、疯狂滑梯区\n滑梯区有冲天回旋、巨兽碗滑道、合家欢滑梯、六彩竞速滑道、高速滑梯、皮筏滑梯、螺旋滑梯等多种不同的滑道组成，滑道总长度超过300米，游客在此有享不尽的激情体验。\n四、活海探秘\n活海探秘是一条惊险的魔幻漂流河，全长340余米，漂流全过程大约需要20分钟时间。为了提升漂流游乐项目的整体品质，给游客营造更加梦幻的体验感受。整个漂流隧道，采用了声光电技术，塑造出海底怪兽、水怪、“不老泉”等场景，漂流者在通过时，可看到各种海底特效景观和卡通造型，成为具有互动性、闯关式的漂流秘境，让游客不仅体验到漂流本身的精彩，还满怀期待地去寻找神秘的海底魔幻世界。\n五、活海密码\n“活海密码”是一台魔幻的、浪漫的爱情音乐实景剧，也是中国水上乐园演出的大型魔幻剧场。\n住宿指南\n如果您想在活海欢乐水世界所在的桐城市仙龙湖旅游度假区多游玩几天，您可以选择在度假区内的桐城贵宾楼大酒店住宿，使您的旅游行程更加放松舒适。\n特色餐饮\n活海欢乐水世界提倡健康旅游餐饮服务，以营养、安全、快速、美味并且价格合理为经营理念，为游客提供品类丰富的餐饮服务。景区内汇萃了中、西式快餐、营养美味料理饭、各类冷热饮料、特色冰淇淋、桐城当地特色小吃及休闲食品等，让游客尽情品尝美味佳肴。拥有很多游客喜爱的特色餐饮，如仙龙湖有机大鱼头、盐水湖虾、特色野鸭汤等特色美食。游客在活海欢乐水世界游玩的同时，可以品尝最具特色的桐城仙龙湖美食，绝对不虚此行。"}}, {"title": "嬉子湖生态旅游区", "address": "安庆市桐城市嬉子湖镇双店村", "image": "", "rank": 2, "time": 3.5, "location": {"lat": 30.813898149560945, "lng": 117.06965196505296}, "feature": {"sight_features": "特色1 ”过了黄山不看岳，出了嬉子湖不吃鱼“", "sight_content": "嬉子湖生态旅游区位于桐城市东南部，安徽省优秀旅游乡镇嬉子湖镇境内，三面环水、水陆交通发达，距市区25公里，濒临江城名府安庆，距省城合肥仅1.5小时车程。\n水路泊枞川而通长江，可上溯湖广、下达苏杭。占地面积71平方公里，其中陆地面积30平方公里，水面积41平方公里，是集生态农业观光、科普文化体验、渔业休闲、户外拓展、乡村度假、会议商务、特色餐饮于一体的多功能国家aaaa级风景区。\n嬉子湖景区现有嬉子湖度假村、嬉子湖养生酒店、生态湿地、垂钓中心、户外拓展、古漕运八大码头、嬉子仙岛、十二生肖园、天文科普及4d动感影院、水上乐园、游乐园、欢乐园、空中单车、农副产品及瓜果采摘、游客接待中心、方以智广场、生态停车场等景点及旅游配套设施。 推出了春天湿地观光、夏天休闲垂钓、秋天瓜果采摘、冬天赏雪观鸟的四季旅游项目。"}}, {"title": "黄梅酒业文博园", "address": "安庆市桐城市经济开发区龙腾路99号", "image": "", "rank": 3, "time": 1.5, "location": {"lat": 31.03889451992498, "lng": 117.01477498180456}, "feature": {"sight_features": "", "sight_content": ""}}, {"title": "桐城文庙", "address": "安庆市桐城市龙眠中路2号", "image": "", "rank": 4, "time": 1.0, "location": {"lat": 31.05718351908967, "lng": 116.95785804645494}, "feature": {"sight_features": "", "sight_content": ""}}, {"title": "披雪瀑风景区", "address": "安庆市桐城市大石板村", "image": "", "rank": 5, "time": 3.0, "location": {"lat": 31.06629995887127, "lng": 116.92578389730585}, "feature": {"sight_features": "", "sight_content": ""}}, {"title": "仙龙湖度假区", "address": "安庆市桐城市桐潜路西郊公园西七里香溪商业街", "image": "", "rank": 6, "time": 2.0, "location": {"lat": 31.048889684154993, "lng": 116.90990147410959}, "feature": {"sight_features": "", "sight_content": ""}}, {"title": "桐城古城区", "address": "安庆市桐城市市府广场", "image": "", "rank": 7, "time": 1.0, "location": {"lat": 31.05695281102709, "lng": 116.9566459915761}, "feature": {"sight_features": "", "sight_content": ""}}, {"title": "桐城市博物馆", "address": "安庆市桐城市文庙内", "image": "", "rank": 8, "time": 1.0, "location": {"lat": 31.059064596163736, "lng": 116.95918065040304}, "feature": {"sight_features": "", "sight_content": ""}}, {"title": "桐城派陈列馆", "address": "安庆市桐城市古城区公园路", "image": "", "rank": 9, "time": 1.0, "location": {"lat": 31.05947382287685, "lng": 116.9569409834276}, "feature": {"sight_features": "", "sight_content": ""}}, {"title": "龙眠山", "address": "安徽桐城市龙眠乡", "image": "", "rank": 10, "time": 2, "location": {"lat": 31.087530551023928, "lng": 116.94514487653858}, "feature": {"sight_features": "", "sight_content": ""}}, {"title": "安徽省桐城市白马寺", "address": "安徽省桐城市白马乡", "image": "", "rank": 11, "time": 2, "location": {"lat": 30.99887657621615, "lng": 116.97168250652447}, "feature": {"sight_features": "", "sight_content": ""}}, {"title": "冉香葡萄园", "address": "文昌街道官桥村", "image": "", "rank": 12, "time": 2, "location": {"lat": 31.030465235260362, "lng": 116.91887699781599}, "feature": {"sight_features": "", "sight_content": ""}}, {"title": "紫来桥", "address": "市区东门紫来河(即龙眠河)上", "image": "", "rank": 13, "time": 2, "location": {"lat": 30.93595212370804, "lng": 116.95657556442411}, "feature": {"sight_features": "", "sight_content": ""}}, {"title": "五州地图碑", "address": "城北桐城中学校园内", "image": "", "rank": 14, "time": 2, "location": {"lat": 36.656293630836586, "lng": 101.77240488175582}, "feature": {"sight_features": "", "sight_content": ""}}, {"title": "东作门", "address": "龙眠西路", "image": "", "rank": 15, "time": 2, "location": {"lat": 31.052936526624084, "lng": 116.94889331858417}, "feature": {"sight_features": "", "sight_content": ""}}, {"title": "乡村垂钓", "address": "004乡道附近", "image": "", "rank": 16, "time": 2, "location": {"lat": 42.09990729646014, "lng": 117.90189407292786}, "feature": {"sight_features": "", "sight_content": ""}}, {"title": "花戏楼", "address": "青草镇", "image": "", "rank": 17, "time": 1.5, "location": {"lat": 30.89466566456993, "lng": 116.77234446519743}, "feature": {"sight_features": "", "sight_content": ""}}, {"title": "聚馨楼野生馆", "address": "居巢南路200号", "image": "", "rank": 18, "time": 2, "location": {"lat": 31.0496231099265, "lng": 116.96856934523723}, "feature": {"sight_features": "", "sight_content": ""}}, {"title": "安徽凤鸣农业", "address": "006县道南50米", "image": "", "rank": 19, "time": 2, "location": {"lat": 30.84122314613887, "lng": 116.79668526839762}, "feature": {"sight_features": "", "sight_content": ""}}, {"title": "野生大鱼(福桐城店)", "address": "同康路附近", "image": "", "rank": 20, "time": 2, "location": {"lat": 43.929886838977865, "lng": 125.38452906694287}, "feature": {"sight_features": "", "sight_content": ""}}, {"title": "老农夫生态园", "address": "龙眠街道乌石路65号", "image": "", "rank": 21, "time": 2, "location": {"lat": 31.05653524775501, "lng": 116.97414285264311}, "feature": {"sight_features": "", "sight_content": ""}}, {"title": "滨河广场", "address": "安庆市桐城市文城东路44号", "image": "", "rank": 22, "time": 2, "location": {"lat": 31.054702968047522, "lng": 116.95959393211913}, "feature": {"sight_features": "", "sight_content": ""}}, {"title": "新渡乐贝儿童乐园", "address": "竹园路1号", "image": "", "rank": 23, "time": 2, "location": {"lat": 31.29017124004998, "lng": 120.57887036386086}, "feature": {"sight_features": "", "sight_content": ""}}, {"title": "李祠堂", "address": "安庆市桐城市零零五县道", "image": "", "rank": 24, "time": 1.5, "location": {"lat": 31.0419690376743, "lng": 116.98046635878418}, "feature": {"sight_features": "", "sight_content": ""}}, {"title": "张家祠堂", "address": "练潭村", "image": "", "rank": 25, "time": 2, "location": {"lat": 30.76956384946829, "lng": 117.01305809989015}, "feature": {"sight_features": "", "sight_content": ""}}, {"title": "盛百游乐园", "address": "桐城市其他盛百四楼", "image": "", "rank": 26, "time": 2, "location": {"lat": 31.05783823665218, "lng": 116.96769232687292}, "feature": {"sight_features": "", "sight_content": ""}}, {"title": "女性儿童乐园", "address": "红星路86号附近", "image": "", "rank": 27, "time": 2, "location": {"lat": 45.714788386029745, "lng": 126.72272462281255}, "feature": {"sight_features": "", "sight_content": ""}}, {"title": "星奇悦儿童乐园", "address": "安徽省安庆市桐城市和平路174号中业广场1楼三福百货旁", "image": "", "rank": 28, "time": 2, "location": {"lat": 31.054373338840943, "lng": 116.95767904291257}, "feature": {"sight_features": "", "sight_content": ""}}, {"title": "桐城市西郊公园", "address": "安徽省安庆市桐城市同康路与009乡道交叉口西南200米", "image": "", "rank": 29, "time": 4.5, "location": {"lat": 31.06456605352575, "lng": 116.95150282512452}, "feature": {"sight_features": "", "sight_content": ""}}, {"title": "西郊公园旋转木马", "address": "西郊公园", "image": "", "rank": 30, "time": 2, "location": {"lat": 46.08819384179666, "lng": 127.39467879523967}, "feature": {"sight_features": "", "sight_content": ""}}, {"title": "香露寺", "address": "岐岭村", "image": "", "rank": 31, "time": 2, "location": {"lat": 31.19986638069857, "lng": 116.98076298195849}, "feature": {"sight_features": "", "sight_content": ""}}, {"title": "陈祠堂", "address": "安庆市桐城市", "image": "", "rank": 32, "time": 2, "location": {"lat": 31.0419690376743, "lng": 116.98046635878418}, "feature": {"sight_features": "", "sight_content": ""}}, {"title": "龙安广场", "address": "安庆市桐城市名仕苑3号", "image": "", "rank": 33, "time": 2, "location": {"lat": 31.05593781329422, "lng": 116.95366747999665}, "feature": {"sight_features": "", "sight_content": ""}}, {"title": "桐城市八台山公墓", "address": "安徽省安庆市桐城市高黄村", "image": "", "rank": 34, "time": 2, "location": {"lat": 30.99859292158349, "lng": 116.87953222168281}, "feature": {"sight_features": "", "sight_content": ""}}, {"title": "星期六儿童成长主题乐园", "address": "范岗镇006县道元安名城01#101", "image": "", "rank": 35, "time": 2, "location": {"lat": 30.968109581285155, "lng": 116.88590046934142}, "feature": {"sight_features": "", "sight_content": ""}}, {"title": "谷林寺", "address": "005乡道附近", "image": "", "rank": 36, "time": 2, "location": {"lat": 42.08321631584341, "lng": 117.86149951990792}, "feature": {"sight_features": "", "sight_content": ""}}, {"title": "古柏新庵", "address": "007县道附近", "image": "", "rank": 37, "time": 2, "location": {"lat": 44.531961618435595, "lng": 125.30381056322456}, "feature": {"sight_features": "", "sight_content": ""}}, {"title": "僧园庵", "address": "006县道附近", "image": "", "rank": 38, "time": 2, "location": {"lat": 40.427571319226956, "lng": 116.07483903008605}, "feature": {"sight_features": "", "sight_content": ""}}, {"title": "白云寺", "address": "安徽省安庆市桐城市", "image": "", "rank": 39, "time": 1.5, "location": {"lat": 31.0419690376743, "lng": 116.98046635878418}, "feature": {"sight_features": "", "sight_content": ""}}, {"title": "桐城市科技馆", "address": "盛唐路", "image": "", "rank": 40, "time": 2.5, "location": {"lat": 32.455053754408645, "lng": 119.94783731048679}, "feature": {"sight_features": "", "sight_content": ""}}, {"title": "派文物陈列馆", "address": "公园路", "image": "", "rank": 41, "time": 2, "location": {"lat": 39.85630561225323, "lng": 116.5374093064604}, "feature": {"sight_features": "", "sight_content": ""}}, {"title": "姚鼐惜抱轩银杏树", "address": "桐城中学校园内东北隅", "image": "", "rank": 42, "time": 2, "location": {"lat": 31.0631158151408, "lng": 116.95669359547999}, "feature": {"sight_features": "", "sight_content": ""}}, {"title": "青草生态园", "address": "中国安徽省安庆市桐城市青草镇", "image": "", "rank": 43, "time": 2, "location": {"lat": 30.89466566456993, "lng": 116.77234446519743}, "feature": {"sight_features": "", "sight_content": ""}}, {"title": "赛马", "address": "龙眠中路与龙眠路交叉口东150米", "image": "", "rank": 44, "time": 2.0, "location": {"lat": 31.05724392124818, "lng": 116.96133731933921}, "feature": {"sight_features": "", "sight_content": ""}}, {"title": "桐城剧院", "address": "和平路160号附近", "image": "", "rank": 45, "time": 2.0, "location": {"lat": 29.220690249475375, "lng": 119.48307946757055}, "feature": {"sight_features": "", "sight_content": ""}}, {"title": "海林家庭农场", "address": "大关镇甑山村金庄组", "image": "", "rank": 46, "time": 2, "location": {"lat": 31.12272798843812, "lng": 117.07644221777574}, "feature": {"sight_features": "", "sight_content": ""}}, {"title": "老梅生态采摘园", "address": "新渡镇老梅村梅香路", "image": "", "rank": 47, "time": 2, "location": {"lat": 30.85562190593883, "lng": 116.88869448064708}, "feature": {"sight_features": "", "sight_content": ""}}, {"title": "财政局农业综合开发办公室", "address": "乌石路79号", "image": "", "rank": 48, "time": 2, "location": {"lat": 31.055971217288025, "lng": 116.97520690758265}, "feature": {"sight_features": "", "sight_content": ""}}, {"title": "邱家破屋", "address": "安庆市-桐城市-零零六县道", "image": "", "rank": 49, "time": 2, "location": {"lat": 31.0419690376743, "lng": 116.98046635878418}, "feature": {"sight_features": "", "sight_content": ""}}, {"title": "高速滑道", "address": "安徽省安庆市桐城市桐潜路西郊公园2公里处先龙湖度假村", "image": "", "rank": 50, "time": 0.5, "location": {"lat": 31.048889684154993, "lng": 116.94134216695882}, "feature": {"sight_features": "", "sight_content": ""}}, {"title": "活海冲浪", "address": "安徽省安庆市桐城市桐潜路西郊公园2公里处先龙湖度假村", "image": "", "rank": 51, "time": 0.5, "location": {"lat": 31.048889684154993, "lng": 116.94134216695882}, "feature": {"sight_features": "", "sight_content": ""}}, {"title": "活海探秘", "address": "安徽省安庆市桐城市桐潜路西郊公园2公里处先龙湖度假村", "image": "", "rank": 52, "time": 0.5, "location": {"lat": 31.048889684154993, "lng": 116.94134216695882}, "feature": {"sight_features": "", "sight_content": ""}}, {"title": "螺旋滑道", "address": "重庆市南岸区崇文路35号", "image": "", "rank": 53, "time": 0.2, "location": {"lat": 29.557211735198855, "lng": 106.62050517965406}, "feature": {"sight_features": "", "sight_content": ""}}, {"title": "激情水迪吧", "address": "安徽省安庆市桐城市桐潜路西郊公园2公里处先龙湖度假村", "image": "", "rank": 54, "time": 0.5, "location": {"lat": 31.048889684154993, "lng": 116.94134216695882}, "feature": {"sight_features": "", "sight_content": ""}}, {"title": "皮筏滑道", "address": "安徽省安庆市桐城市桐潜路西郊公园2公里处先龙湖度假村", "image": "", "rank": 55, "time": 0.5, "location": {"lat": 31.048889684154993, "lng": 116.94134216695882}, "feature": {"sight_features": "", "sight_content": ""}}, {"title": "冲天回旋", "address": "安徽省安庆市桐城市桐潜路西郊公园2公里处先龙湖度假村", "image": "", "rank": 56, "time": 0.1, "location": {"lat": 31.048889684154993, "lng": 116.94134216695882}, "feature": {"sight_features": "", "sight_content": ""}}, {"title": "巨兽碗滑道", "address": "海南省三亚市三亚湾凤凰路155号红树林度假世界亚马逊丛林水乐园", "image": "", "rank": 57, "time": 0.5, "location": {"lat": 18.29300824157088, "lng": 109.49646988417145}, "feature": {"sight_features": "", "sight_content": ""}}, {"title": "六彩竞速滑道", "address": "安徽省安庆市桐城市桐潜路西郊公园2公里处先龙湖度假村", "image": "", "rank": 58, "time": 0.5, "location": {"lat": 31.048889684154993, "lng": 116.94134216695882}, "feature": {"sight_features": "", "sight_content": ""}}, {"title": "六尺巷", "address": "安徽省桐城", "image": "", "rank": 59, "time": 2, "location": {"lat": 31.0419690376743, "lng": 116.98046635878418}, "feature": {"sight_features": "", "sight_content": ""}}]}