{"cityName": "桐梓", "days": 2, "cityImage": "", "spots": [{"title": "黔北花海", "address": "桐梓县娄山关镇杉坪村", "image": "", "rank": 1, "time": 2.5, "location": {"lat": 28.153668007758974, "lng": 106.83829031531945}, "feature": {"sight_features": "", "sight_content": ""}}, {"title": "水银河景区", "address": "遵义市桐梓县水银河旅游景区", "image": "", "rank": 2, "time": 2, "location": {"lat": 28.649479771895056, "lng": 106.96064146428131}, "feature": {"sight_features": "特色1 水银河 一条透明的河。 特色2 可登山观日出，进洞探奥秘，游谷享幽趣，漂流玩心跳。 特色3 天上银河水 人间水银河。", "sight_content": "水银河位于贵州的大山深处，辖于木瓜镇水银村，因河水清澈透亮，日光照射河面，银光点点而得名。水银河之美用冰清玉洁、美似璞玉来形容最恰当不过了，虬枝险潭、垂帘瀑洞，原生态的景观令所至之人感叹不已。峡谷长而悠远、山雄秀而险峻、水清澈而柔顺、植被徽锐而娟秀，可登山观日出，进洞探奥秘，游谷享幽趣，漂流玩心跳。当地民风纯朴，百姓热情。\n水银河有一条蜿蜒的大峡谷，为我们当向导的本地山民说，真要把全部水银河走完的话，一共要花三天时间！越到里面，水道越崎岖，就跟原始森林差不多！才进峡谷时水流很慢，河道也宽，潺潺的河水经山上蜿蜒流下，冰冷刺骨，清澈爽口。抬头向天空望去，天空就像被峡谷切成了一条细长的玉带，偶尔有一只山鹰在峡谷之间徘徊，这种景象让人心脉膨胀。水银河景区人间仙境，天然氧吧，风光旖旎，四季如春。夹岸林茂山高，时见溪水临虚注落；一河稣沙净石，常临飞鸟展翅腾翔。岸壁多悬崖，神工鬼斧；河途皆绿翠，夏草春花。汩汩流泉，时闻清歌丽曲，涓涓野水，长弹雅韵清音。一汪山风拂面，俗态自然添雅；几口清泉润肺，凡心涤荡无尘。江水清清，尽纵鱼嬉虾戏；吊桥甩甩，不乏游客荡悠。逆水溯源，如攀蜀道，如上青天；顺流探远，可穷天际，可达蓬莱。真乃黔北小九寨，天下水银河。\n后深溪风景区（在建中）：景区位于桐梓县城北106公里，毗邻水银河大峡谷漂流景区。后深溪一带属中山峡谷地形，沟壑纵横，石笋依山傍水而立。石笋与大山分离，自成一体，高百余丈，顶部呈弓形，状如老叟爬坡，据传石笋上生长许多黄连，不易采撷，蛇护黄莲，常人难近。山峰奇物，是观光去处。"}}, {"title": "古夜郎漂流", "address": "遵义市桐梓县新站镇蒙渡村", "image": "", "rank": 3, "time": 2, "location": {"lat": 28.423267560375287, "lng": 106.8508000414913}, "feature": {"sight_features": "特色1 水质清澈纯净，滩多浪急，水量适中", "sight_content": "古夜郎漂流位于贵州省遵义市桐梓县新站镇蒙渡边境内，起于金宝山处，止于蒙渡河大峡谷鲁班岩处，全长7公里，水质清澈纯净，滩多浪急，水量适中，是消暑纳凉的绝佳胜地，沿途经过姊妹滩、上龙滩等二十多个险滩和千尺潭、蛇龙潭等十多个深潭。\n古夜郎漂流属于河流漂流，所以河道比较宽阔，加上河道两边高山耸立，青柏苍翠，让人感觉气势磅礴。整个漂流过程中可以体验到惊险刺激的险滩漂流,也可以体验到在平静的潭面上轻松荡舟的乐趣。这段漂流，整体感觉比较丰富，“静如处子,动如脱兔”。而且可以根据自己的喜好控制漂流时间长短以及中间停靠点，如果你愿意，找个水势平缓的地方，干脆下水一游，就真是激爽到底了呢！\n夜郎有很深厚的文化底蕴,据说关于当年李白关于蜀道难的感慨,就是在这里出发的,在距离漂流点5公里的地方,就可以寻访到李白当年的足迹,古夜郎漂流就如夜郎古国的神秘一样让人向往,峡谷内山回水转,水抱山流,两岸群峰耸立,万木叠翠,沿途怪石嶙峋,急流险滩遍布其间,飞瀑跌宕,溪水清澈见底,鱼石相映成趣。两岸还有古庙、古桥、古战场、古驿道等人文景观,充满了古野的情趣和神秘幽深的色彩。"}}, {"title": "黔北娄山水上乐园", "address": "遵义市桐梓县杉坪景区", "image": "", "rank": 4, "time": 2, "location": {"lat": 28.78943706407029, "lng": 107.27448505899649}, "feature": {"sight_features": "", "sight_content": "黔北娄山水上乐园位于贵州省遵义市桐梓县杉坪4A级景区，拥有5000平米海浪池、超级大喇叭滑道、彩虹滑道、大回环滑梯、螺旋滑梯、急速滑梯、大型水寨、儿童戏水小品、迷你小喇叭、迷你小冲天、冲天大回旋、漂流河等多种刺激而安全的水上游乐项目。"}}, {"title": "桐梓小西湖", "address": "遵义市桐梓县", "image": "", "rank": 5, "time": 1.0, "location": {"lat": 28.139468384162452, "lng": 106.83248902060909}, "feature": {"sight_features": "", "sight_content": ""}}, {"title": "圆满贯漂流", "address": "遵义市桐梓县官仓镇羊复村（高桥镇斋郎村、遵义县山盆镇李梓村交界处）", "image": "", "rank": 6, "time": 2, "location": {"lat": 28.035464941245323, "lng": 106.71303578635705}, "feature": {"sight_features": "特色1 有各种水上及陆地项目，是理想的旅游度假地", "sight_content": "‍‍遵义桐梓县圆满贯旅游度假区位于桐梓县官仓镇、高桥镇和遵义县山盆镇交界处，主要项目有圆满贯漂流、天然游泳场、水上运动中心、户外露营、垂钓等。\n圆满贯漂流位于圆满贯库区上游桐梓县高桥镇桐梓河与混子河两河交汇处，距桐梓县城约26公里，漂流河段全程3.5公里。‍\n河谷水质清澈透底，河道险滩激流错落有致，时而阧滩激流，时而平缓如镜。不愧为漂流的好去处。是“激情漂流”亲水戏水旅游综合体现。\n‍‍‍‍贵州省遵义桐梓县圆满贯旅游度假区项目位于贵州省北部遵义市桐梓县西南端的桐梓河流域，圆满贯旅游度假区由遵义娄山圆满贯‍‍‍‍旅游有限公司开发建设，一期项目圆满贯漂流位于桐梓县官仓镇、高桥镇和遵义县山盆镇交界处，距桐梓县城30公里。\n由重庆到景区约220公里，由遵义到景区约70公里，从重庆或遵义出发，经兰海高速到桐梓站下道，然后进入桐梓至容光二级公路，约在25公里处左转，经5公里到达景区。主要项目有圆满贯漂流、天然游泳场、水上运动中心、户外露营、垂钓等。"}}, {"title": "大娄山滑雪场", "address": "遵义市桐梓县黄莲坝村", "image": "", "rank": 7, "time": 2, "location": {"lat": 28.48434350031347, "lng": 107.02372594785169}, "feature": {"sight_features": "", "sight_content": ""}}, {"title": "桐梓海军学校", "address": "桐梓", "image": "", "rank": 8, "time": 2, "location": {"lat": 28.139468384162452, "lng": 106.83248902060909}, "feature": {"sight_features": "", "sight_content": ""}}, {"title": "黔渝农庄", "address": "木瓜镇熊家陀", "image": "", "rank": 9, "time": 2, "location": {"lat": 28.640382102869722, "lng": 106.97873535394217}, "feature": {"sight_features": "", "sight_content": ""}}, {"title": "山水田源农家乐", "address": "210国道", "image": "", "rank": 10, "time": 2, "location": {"lat": 30.75468488618663, "lng": 107.2576735785458}, "feature": {"sight_features": "", "sight_content": ""}}, {"title": "九坝来凤楼农家乐", "address": "九坝镇上天池", "image": "", "rank": 11, "time": 2, "location": {"lat": 28.189708334255283, "lng": 106.7910666399129}, "feature": {"sight_features": "", "sight_content": ""}}, {"title": "桐梓县图书馆", "address": "县政府对面", "image": "", "rank": 12, "time": 2, "location": {"lat": 31.260850106063387, "lng": 117.2939799224468}, "feature": {"sight_features": "", "sight_content": ""}}, {"title": "娄山关溶洞", "address": "贵州省遵义市桐梓县210国道附近", "image": "", "rank": 13, "time": 2, "location": {"lat": 28.44201722907956, "lng": 106.82553263257267}, "feature": {"sight_features": "", "sight_content": ""}}, {"title": "桐梓县娄山艺术团", "address": "凤鸣路", "image": "", "rank": 14, "time": 2, "location": {"lat": 31.613579274603108, "lng": 120.2992187731428}, "feature": {"sight_features": "", "sight_content": ""}}, {"title": "兰馨儿童乐园", "address": "贵州省遵义市桐梓县人民路", "image": "", "rank": 15, "time": 2, "location": {"lat": 28.13704311214277, "lng": 106.8334554131849}, "feature": {"sight_features": "", "sight_content": ""}}, {"title": "何家祠堂", "address": "遵义市桐梓县", "image": "", "rank": 16, "time": 2, "location": {"lat": 28.139468384162452, "lng": 106.83248902060909}, "feature": {"sight_features": "", "sight_content": ""}}, {"title": "锦荣国际避暑休闲渡假区", "address": "贵州省遵义市桐梓县花秋镇岔水村核桃坪组", "image": "", "rank": 17, "time": 2, "location": {"lat": 28.09034427141526, "lng": 106.6154349457302}, "feature": {"sight_features": "", "sight_content": ""}}, {"title": "桐梓县大娄山度假村", "address": "G210娄山关景区农家乐西北侧75米", "image": "", "rank": 18, "time": 2, "location": {"lat": 40.43413539434948, "lng": 116.64097740557132}, "feature": {"sight_features": "", "sight_content": ""}}, {"title": "世纪广场", "address": "凤鸣路与河滨北路交叉口西南100米", "image": "", "rank": 19, "time": 2.5, "location": {"lat": 28.147594147055877, "lng": 106.83763255805916}, "feature": {"sight_features": "", "sight_content": ""}}, {"title": "茶园避暑山庄", "address": "210国道附近", "image": "", "rank": 20, "time": 2, "location": {"lat": 30.75468488618663, "lng": 107.2576735785458}, "feature": {"sight_features": "", "sight_content": ""}}, {"title": "娄山红韵度假村", "address": "遵义桐梓县南溪口娄山", "image": "", "rank": 21, "time": 2, "location": {"lat": 28.04727544885983, "lng": 106.8572117356938}, "feature": {"sight_features": "", "sight_content": ""}}, {"title": "西流水公园", "address": "贵州省遵义市桐梓县娄山关镇城郊金黔嘉华大酒店游泳池", "image": "", "rank": 22, "time": 2, "location": {"lat": 28.129140775734555, "lng": 106.83430526948521}, "feature": {"sight_features": "", "sight_content": ""}}, {"title": "水银河峡谷漂流风景区", "address": "木瓜镇水银村1号", "image": "", "rank": 23, "time": 2, "location": {"lat": 28.642019537897653, "lng": 106.98361149548607}, "feature": {"sight_features": "", "sight_content": ""}}, {"title": "聚缘农家乐", "address": "桐梓水银村水银街上组水银河景区", "image": "", "rank": 24, "time": 2, "location": {"lat": 28.649479771895056, "lng": 106.96064146428131}, "feature": {"sight_features": "", "sight_content": ""}}, {"title": "铜鼓滩漂流", "address": "羊蹬镇桐林村", "image": "", "rank": 25, "time": 2, "location": {"lat": 28.771927051812433, "lng": 107.01242935901641}, "feature": {"sight_features": "", "sight_content": ""}}, {"title": "漂流农家乐", "address": "G75(兰海高速公路)(古夜郎漂流100处)", "image": "", "rank": 26, "time": 2, "location": {"lat": 28.424200789603358, "lng": 106.84975692823517}, "feature": {"sight_features": "", "sight_content": ""}}, {"title": "冰岛の恋", "address": "河滨北路2附近", "image": "", "rank": 27, "time": 2, "location": {"lat": 29.155713219232155, "lng": 107.11113734231951}, "feature": {"sight_features": "", "sight_content": ""}}, {"title": "月望农家乐食宿", "address": "210国道与G75兰海高速入口交叉口西南50米", "image": "", "rank": 28, "time": 2, "location": {"lat": 26.820408086970804, "lng": 106.71768036629987}, "feature": {"sight_features": "", "sight_content": ""}}, {"title": "桐梓县大河镇葡萄园休闲避暑山庄", "address": "大河镇七二村太阳湾内", "image": "", "rank": 29, "time": 2, "location": {"lat": 28.291107443241952, "lng": 106.8424171119665}, "feature": {"sight_features": "", "sight_content": ""}}, {"title": "燎原镇油草村草莓种植基地", "address": "燎原镇油草村", "image": "", "rank": 30, "time": 2, "location": {"lat": 28.134029400564163, "lng": 106.7868976561442}, "feature": {"sight_features": "", "sight_content": ""}}, {"title": "蟠龙草莓种植基地", "address": "燎原镇油草村李家湾", "image": "", "rank": 31, "time": 2, "location": {"lat": 28.134029400564163, "lng": 106.7868976561442}, "feature": {"sight_features": "", "sight_content": ""}}, {"title": "桐梓县娄山关镇东山村文艺队", "address": "210国道附近", "image": "", "rank": 32, "time": 2, "location": {"lat": 30.75468488618663, "lng": 107.2576735785458}, "feature": {"sight_features": "", "sight_content": ""}}, {"title": "坡渡河漂流", "address": "贵州省桐梓县境内", "image": "", "rank": 33, "time": 2, "location": {"lat": 28.139468384162452, "lng": 106.83248902060909}, "feature": {"sight_features": "", "sight_content": ""}}, {"title": "柏箐自然保护区", "address": "贵州省桐梓县狮溪镇", "image": "", "rank": 34, "time": 2, "location": {"lat": 28.84244459748053, "lng": 107.12792595185444}, "feature": {"sight_features": "", "sight_content": ""}}, {"title": "海校美食街", "address": "贵州省桐梓县文笔路海校门口", "image": "", "rank": 35, "time": 2, "location": {"lat": 28.140630990301492, "lng": 106.8341250586203}, "feature": {"sight_features": "", "sight_content": ""}}, {"title": "桐梓夜郎街", "address": "贵州省桐梓县人民路", "image": "", "rank": 36, "time": 2, "location": {"lat": 28.13704311214277, "lng": 106.8334554131849}, "feature": {"sight_features": "", "sight_content": ""}}, {"title": "贵州遵义桐梓步行街", "address": "贵州省桐梓县人民路", "image": "", "rank": 37, "time": 2, "location": {"lat": 28.13704311214277, "lng": 106.8334554131849}, "feature": {"sight_features": "", "sight_content": ""}}, {"title": "重庆黑山谷景区-凉亭", "address": "遵义市-桐梓县-重庆黑山谷景区内", "image": "", "rank": 38, "time": 1.5, "location": {"lat": 28.139468384162452, "lng": 106.83248902060909}, "feature": {"sight_features": "", "sight_content": ""}}, {"title": "胡刚二休闲山庄", "address": "遵义市-桐梓县", "image": "", "rank": 39, "time": 2, "location": {"lat": 28.139468384162452, "lng": 106.83248902060909}, "feature": {"sight_features": "", "sight_content": ""}}, {"title": "遵义娄山关小西湖玻璃栈道", "address": "遵义市-桐梓县", "image": "", "rank": 40, "time": 2.5, "location": {"lat": 28.139468384162452, "lng": 106.83248902060909}, "feature": {"sight_features": "", "sight_content": ""}}]}