{"cityName": "通城", "days": 2, "cityImage": "", "spots": [{"title": "云溪漂流", "address": "咸宁市通城县关刀镇道上村", "image": "", "rank": 1, "time": 2, "location": {"lat": 29.131886373103427, "lng": 113.88740389253502}, "feature": {"sight_features": "特色1 全长4.5公里，176米落差；280米瀑布滑道式漂流只需58秒！ 特色2 利用独特地形和无与伦比的气势，打造全国独一无二的“瀑布滑道漂流”！ 特色3 中途设置3个水战区, 便于游客打水仗。惊险刺激，必将形成“人在景中漂，景美人欢笑”的漂流特色！", "sight_content": "云溪从关刀镇上堡村夜合桥至道上村的峡谷河段，长度约4.5公里，梯级总落差176米。其风景资源主要包括，碧龙潭瀑布（落差约30米）及其上下游的峡谷景观。峡谷地势险要，洁白的岩石连绵不绝，形成数千米的白石滩，溪水长流不断，跌水成瀑，积水成潭，溪面宽窄随峡谷地形变化，构成“瀑潭连缀，奇山怪石” 优美的峡谷景观。\n云溪漂流河道自上而下，30m左右落差1处，即碧龙潭瀑布，利用该处的独特地形和无与伦比的气势， 打造全国独一无二的“瀑布滑道漂流”； 5m左右落差8处，3m左右落差9处，根据河床地势而设。上游顶部筑坝储水，确保漂流水量。中途设置3个水战区，便于漂流的人们打水仗。碧龙潭漂流河床全长预计6.2km，漂流历时3小时许，惊险刺激，释放心情，其乐无穷，必将形成“人在景中漂，景美人欢笑”的漂流特色。"}}, {"title": "通城县锡山森林公园", "address": "湖北省咸宁市通城县隽水镇白沙社区锡山路锡山森林公园", "image": "", "rank": 2, "time": 2, "location": {"lat": 29.233606562843363, "lng": 113.82646984904969}, "feature": {"sight_features": "", "sight_content": ""}}, {"title": "罗荣桓元帅早期革命纪念馆", "address": "湖北省咸宁市通城县塘湖镇荻田村黄袍街", "image": "", "rank": 3, "time": 2, "location": {"lat": 29.21954988431593, "lng": 114.06760361216672}, "feature": {"sight_features": "", "sight_content": ""}}, {"title": "通城银山", "address": "通城城南2.5公里", "image": "", "rank": 4, "time": 1.0, "location": {"lat": 29.250857930222462, "lng": 113.82356790903289}, "feature": {"sight_features": "", "sight_content": ""}}, {"title": "通城黄龙山", "address": "通城县F04县道", "image": "", "rank": 5, "time": 2, "location": {"lat": 29.250857930222462, "lng": 113.82356790903289}, "feature": {"sight_features": "", "sight_content": ""}}, {"title": "通城药姑山", "address": "湖北省通城县大坪乡境内", "image": "", "rank": 6, "time": 2, "location": {"lat": 29.336716821684636, "lng": 113.72796116201036}, "feature": {"sight_features": "", "sight_content": ""}}, {"title": "通城黄袍山兰若寺", "address": "湖北省咸宁市通城县塘湖镇黄袍山望湖村高山湖西南", "image": "", "rank": 7, "time": 2, "location": {"lat": 29.228850029841603, "lng": 114.04515520810702}, "feature": {"sight_features": "", "sight_content": ""}}, {"title": "秀水公园", "address": "信阳市固始县", "image": "", "rank": 8, "time": 7.5, "location": {"lat": 32.17417437962212, "lng": 115.66048788818134}, "feature": {"sight_features": "", "sight_content": ""}}, {"title": "通城县花鼓戏剧院", "address": "隽水镇九宫路1号", "image": "", "rank": 9, "time": 2, "location": {"lat": 29.243285118779717, "lng": 113.82552213224544}, "feature": {"sight_features": "", "sight_content": ""}}, {"title": "银山公园", "address": "隽水镇", "image": "", "rank": 10, "time": 2, "location": {"lat": 29.249012562918196, "lng": 113.82787104394978}, "feature": {"sight_features": "", "sight_content": ""}}, {"title": "胖子超市-休闲广场", "address": "民主路161号", "image": "", "rank": 11, "time": 2, "location": {"lat": 29.144930847144288, "lng": 121.03930842406983}, "feature": {"sight_features": "", "sight_content": ""}}, {"title": "方琼纪念馆", "address": "湖北省咸宁市通城县黄袍山雷吼墙垣北", "image": "", "rank": 12, "time": 2, "location": {"lat": 29.228850029841603, "lng": 114.04515520810702}, "feature": {"sight_features": "", "sight_content": ""}}, {"title": "白玉寺", "address": "湖北省咸宁市通城县塘湖镇黄袍山荻田村东", "image": "", "rank": 13, "time": 2.0, "location": {"lat": 29.228850029841603, "lng": 114.04515520810702}, "feature": {"sight_features": "", "sight_content": ""}}, {"title": "怪石峰", "address": "湖北省咸宁市通城县塘湖镇荻田村东北", "image": "", "rank": 14, "time": 2, "location": {"lat": 29.23547179564486, "lng": 114.02422864317401}, "feature": {"sight_features": "", "sight_content": ""}}, {"title": "孩皮吧儿童乐园", "address": "解放西路与民主路交叉口西南25米", "image": "", "rank": 15, "time": 2, "location": {"lat": 29.250397772487897, "lng": 113.82171622829256}, "feature": {"sight_features": "", "sight_content": ""}}, {"title": "黄袍山烈士纪念公园", "address": "湖北省咸宁市通城县塘湖镇荻田村干坑", "image": "", "rank": 16, "time": 2, "location": {"lat": 29.23547179564486, "lng": 114.02422864317401}, "feature": {"sight_features": "", "sight_content": ""}}, {"title": "道观", "address": "咸宁市通城县", "image": "", "rank": 17, "time": 2.5, "location": {"lat": 29.250857930222462, "lng": 113.82356790903289}, "feature": {"sight_features": "", "sight_content": ""}}, {"title": "防空洞地下城", "address": "湖北省咸宁市通城县锡山森林公园管理处防空洞地下城", "image": "", "rank": 18, "time": 2, "location": {"lat": 29.233606562843363, "lng": 113.82646984904969}, "feature": {"sight_features": "", "sight_content": ""}}, {"title": "南山祠堂", "address": "咸宁市通城县庄四线", "image": "", "rank": 19, "time": 2, "location": {"lat": 29.311065948941433, "lng": 113.69313558843471}, "feature": {"sight_features": "", "sight_content": ""}}, {"title": "通城县天主教沙堆教堂", "address": "九井街171", "image": "", "rank": 20, "time": 2, "location": {"lat": 29.310278800818182, "lng": 113.91232944051225}, "feature": {"sight_features": "", "sight_content": ""}}, {"title": "复兴堂基督教会", "address": "隽水镇彭家岭路育才中学旁", "image": "", "rank": 21, "time": 2, "location": {"lat": 29.26415047635863, "lng": 113.83572961368418}, "feature": {"sight_features": "", "sight_content": ""}}, {"title": "通城县苏维埃政府旧址", "address": "湖北省通城县塘湖镇荻田村", "image": "", "rank": 22, "time": 2, "location": {"lat": 29.23547179564486, "lng": 114.02422864317401}, "feature": {"sight_features": "", "sight_content": ""}}, {"title": "通城黄龙山天岳度假村", "address": "通城咸宁通城县黄龙山风景区（林场场部大坳）", "image": "", "rank": 23, "time": 2, "location": {"lat": 29.039086595078665, "lng": 113.91377077529577}, "feature": {"sight_features": "", "sight_content": ""}}, {"title": "药姑山生态度假村", "address": "栗坪村三组案坡", "image": "", "rank": 24, "time": 2, "location": {"lat": 29.345996595463216, "lng": 113.72503970091651}, "feature": {"sight_features": "", "sight_content": ""}}, {"title": "银山广场", "address": "银山大道附近", "image": "", "rank": 25, "time": 2, "location": {"lat": 23.04437658107585, "lng": 113.78558988767789}, "feature": {"sight_features": "", "sight_content": ""}}, {"title": "通城县图书馆", "address": "民主路18号", "image": "", "rank": 26, "time": 2, "location": {"lat": 40.66416216861529, "lng": 109.90874941208266}, "feature": {"sight_features": "", "sight_content": ""}}, {"title": "马路坑风景管理区", "address": "马港镇金家村(近百丈潭)", "image": "", "rank": 27, "time": 2, "location": {"lat": 29.17456465241491, "lng": 113.83637492761656}, "feature": {"sight_features": "", "sight_content": ""}}, {"title": "湖北省通城欣荣家庭农场", "address": "大坪乡水口村四组", "image": "", "rank": 28, "time": 2, "location": {"lat": 29.349548640750765, "lng": 113.77328434455177}, "feature": {"sight_features": "", "sight_content": ""}}, {"title": "通城影剧院", "address": "民主大道", "image": "", "rank": 29, "time": 2, "location": {"lat": 31.291430233897252, "lng": 118.38776470631498}, "feature": {"sight_features": "", "sight_content": ""}}, {"title": "玉立大剧院", "address": "玉立大道218号玉立国际酒店", "image": "", "rank": 30, "time": 2, "location": {"lat": 29.267515754433603, "lng": 113.83068510453519}, "feature": {"sight_features": "", "sight_content": ""}}, {"title": "都市庄园", "address": "隽水镇湘汉社区古龙路36号", "image": "", "rank": 31, "time": 2, "location": {"lat": 29.24853807614292, "lng": 113.81839392880761}, "feature": {"sight_features": "", "sight_content": ""}}, {"title": "罗荣恒烈士纪念馆", "address": "塘湖镇获田村", "image": "", "rank": 32, "time": 2, "location": {"lat": 29.243417494685513, "lng": 114.03082621385425}, "feature": {"sight_features": "", "sight_content": ""}}, {"title": "通城县隽水镇和平社区老年人艺术...", "address": "秀水大道六巷", "image": "", "rank": 33, "time": 2, "location": {"lat": 29.254699266625714, "lng": 113.82314689749475}, "feature": {"sight_features": "", "sight_content": ""}}]}