{"cityName": "通江", "days": 2, "cityImage": "", "spots": [{"title": "诺水河风景名胜区", "address": "巴中市通江县诺水河镇牛角嵌", "image": "", "rank": 1, "time": 3.0, "location": {"lat": 32.41447022064018, "lng": 107.19243768829212}, "feature": {"sight_features": "特色1 一座独特的地下宫殿。 特色2 境内秀水中流，奇泉遍地，险峰兀立，怪石丛。", "sight_content": "狮子洞，宏伟华丽，俨然一座独特的地下宫殿。该洞特色鲜明，洞内石柱、石塔、石灯、石笋特别巨大、十分壮观。洞中景点紧凑，由“群仙聚会”等八个大厅组成，犹如一幅幅连绵不绝的神奇画卷。洞内可游面积10万平方米，主洞深2000余米，高30-80米，洞中的“乳石莲花”、“定海神针”、“珍珠玉盘”、“石水文线”等景观遗迹，堪称绝景。\n在楼房洞至别有洞天全长3.8公里的水域，天然植被的大自然峡谷，视野开阔，来一盘激情飞扬的水上漂流，整个漂流全程须穿桥洞一处,过险滩7处，有沙滩4处。在炎炎夏日，乘船而下，沿途绿树成荫，风光秀丽，看一艘接着一艘的游船肆无忌惮的穿梭在峡谷内，感受“透心凉，心飞扬”，就算是水花四溅，湿透了衣裳，依然面带笑容。\n空中滑索又称：“高空溜索”“高空速降”、“空中飞人”。这里有两条滑道，第一滑道为狮子洞旁--仙女洞，第二滑道为仙女洞--原文娱长廊，全长500米。游客身穿保险衣与钢索的滑轮连接，借助高差，从高处的发射台顺势而下，以较快的速度完成滑翔。在整个滑翔过程中，张开双臂，放飞心情，让您有一种在天空自由翱翔的感觉，诺水河绝美的大自然景观、青山绿水您将尽收眼底，迎面吹来凉爽的风，感觉就像大自然在抚摸我们的脸庞一样。"}}, {"title": "红四方面军总指挥部旧址纪念馆", "address": "巴中市，通江县城", "image": "", "rank": 2, "time": 1.0, "location": {"lat": 31.9177143468814, "lng": 107.25151684320765}, "feature": {"sight_features": "", "sight_content": ""}}, {"title": "中峰洞", "address": "巴中市通江县诺水河风景区", "image": "", "rank": 3, "time": 3.5, "location": {"lat": 32.41539020003689, "lng": 107.1901603311124}, "feature": {"sight_features": "", "sight_content": ""}}, {"title": "诺水河龙湖洞", "address": "巴中市通江县诺水河镇牛角嵌", "image": "", "rank": 4, "time": 2, "location": {"lat": 32.41447022064018, "lng": 107.19243768829212}, "feature": {"sight_features": "", "sight_content": ""}}, {"title": "诺水河溶洞漂流", "address": "巴中市通江县诺水河风景区", "image": "", "rank": 5, "time": 0.75, "location": {"lat": 32.41539020003689, "lng": 107.1901603311124}, "feature": {"sight_features": "", "sight_content": ""}}, {"title": "楼房洞风景区", "address": "巴中市通江县诺水河镇刘家坝", "image": "", "rank": 6, "time": 2, "location": {"lat": 32.45863194960358, "lng": 107.17499977634259}, "feature": {"sight_features": "", "sight_content": ""}}, {"title": "狮子洞", "address": "巴中市通江县诺水河镇", "image": "", "rank": 7, "time": 2, "location": {"lat": 32.39184074086775, "lng": 107.26055494287586}, "feature": {"sight_features": "", "sight_content": "狮子洞位于四川通江诺水河风景名胜区，狮子洞全长1800米，是景区内128个溶洞之一，洞内分为12个厅，360多处景点，周边有宋家洞、王家洞、仙人洞、仙女洞、龙湖洞、楼房洞、踏底洞等等，是目前国内已开发溶洞中钟乳石景观类型最齐全、形态最丰富、分布密度最大的洞穴，其边石坝（俗称水纹线）、藤蔓状石柱最具特色、成因未解，在国内外罕见。"}}, {"title": "河道漂流", "address": "巴中市通江县诺水河镇洞天景区", "image": "", "rank": 8, "time": 2, "location": {"lat": 32.39184074086775, "lng": 107.26055494287586}, "feature": {"sight_features": "", "sight_content": ""}}, {"title": "香炉峰", "address": "四川省巴中市通江县", "image": "", "rank": 9, "time": 1.0, "location": {"lat": 31.9177143468814, "lng": 107.25151684320765}, "feature": {"sight_features": "", "sight_content": ""}}, {"title": "空山森林公园", "address": "空山乡", "image": "", "rank": 10, "time": 2, "location": {"lat": 32.4848219445682, "lng": 107.38105089067793}, "feature": {"sight_features": "", "sight_content": ""}}, {"title": "通江银耳博物馆", "address": "巴中市通江县周子坪村博物馆路", "image": "", "rank": 11, "time": 3.0, "location": {"lat": 31.914517435559873, "lng": 107.18779715521407}, "feature": {"sight_features": "", "sight_content": ""}}, {"title": "巴山民俗文化博览馆", "address": "通江县诺水河镇金家坝村", "image": "", "rank": 12, "time": 2, "location": {"lat": 32.36837543092038, "lng": 107.1994372246394}, "feature": {"sight_features": "", "sight_content": ""}}, {"title": "元顶水上乐园", "address": "诺江西路中段604号", "image": "", "rank": 13, "time": 2, "location": {"lat": 31.921410962508286, "lng": 107.24897203352843}, "feature": {"sight_features": "", "sight_content": ""}}, {"title": "生态农庄", "address": "滨河路西100米", "image": "", "rank": 14, "time": 2, "location": {"lat": 40.601378873691075, "lng": 115.06779399744747}, "feature": {"sight_features": "", "sight_content": ""}}, {"title": "基督教会福音堂", "address": "四川省巴中市通江县四川省北街54号", "image": "", "rank": 15, "time": 2, "location": {"lat": 31.9177143468814, "lng": 107.25151684320765}, "feature": {"sight_features": "", "sight_content": ""}}, {"title": "乡村季丰农家乐", "address": "白水垭村附近", "image": "", "rank": 16, "time": 2, "location": {"lat": 32.079183243509576, "lng": 107.29389999220284}, "feature": {"sight_features": "", "sight_content": ""}}, {"title": "马三垭祠堂", "address": "巴中市通江县二零一省道", "image": "", "rank": 17, "time": 2, "location": {"lat": 31.9177143468814, "lng": 107.25151684320765}, "feature": {"sight_features": "", "sight_content": ""}}, {"title": "肖家祠堂", "address": "巴中市通江县零四七乡道", "image": "", "rank": 18, "time": 2, "location": {"lat": 31.9177143468814, "lng": 107.25151684320765}, "feature": {"sight_features": "", "sight_content": ""}}, {"title": "张家祠堂", "address": "巴中市通江县零四五乡道", "image": "", "rank": 19, "time": 2, "location": {"lat": 31.9177143468814, "lng": 107.25151684320765}, "feature": {"sight_features": "", "sight_content": ""}}, {"title": "李家祠堂", "address": "巴中市通江县小魏路", "image": "", "rank": 20, "time": 2, "location": {"lat": 31.9177143468814, "lng": 107.25151684320765}, "feature": {"sight_features": "", "sight_content": ""}}, {"title": "天主堂", "address": "书院街66号", "image": "", "rank": 21, "time": 0.4, "location": {"lat": 29.986020984141653, "lng": 106.2747941906948}, "feature": {"sight_features": "", "sight_content": ""}}, {"title": "陈家祠堂", "address": "巴中市通江县三零二省道", "image": "", "rank": 22, "time": 1.5, "location": {"lat": 31.9177143468814, "lng": 107.25151684320765}, "feature": {"sight_features": "", "sight_content": ""}}, {"title": "陈家祠堂", "address": "巴中市通江县", "image": "", "rank": 23, "time": 1.5, "location": {"lat": 31.9177143468814, "lng": 107.25151684320765}, "feature": {"sight_features": "", "sight_content": ""}}, {"title": "陈家祠堂", "address": "四川省巴中市通江县", "image": "", "rank": 24, "time": 1.5, "location": {"lat": 31.9177143468814, "lng": 107.25151684320765}, "feature": {"sight_features": "", "sight_content": ""}}, {"title": "空山战役遗址", "address": "红四街与迎宾街交叉口西南50米", "image": "", "rank": 25, "time": 2, "location": {"lat": 32.48459741630294, "lng": 107.38142892907722}, "feature": {"sight_features": "", "sight_content": ""}}, {"title": "吴家祠堂", "address": "巴中市平昌县", "image": "", "rank": 26, "time": 2, "location": {"lat": 31.56618581009506, "lng": 107.11059310022719}, "feature": {"sight_features": "", "sight_content": ""}}, {"title": "陈家祠堂", "address": "巴中市通江县乱石子--东山", "image": "", "rank": 27, "time": 1.5, "location": {"lat": 31.887907595604002, "lng": 107.15276038640832}, "feature": {"sight_features": "", "sight_content": ""}}, {"title": "墩尔河度假村", "address": "四川省巴中市通江县通平路", "image": "", "rank": 28, "time": 2, "location": {"lat": 31.724029822717146, "lng": 107.20233557682495}, "feature": {"sight_features": "", "sight_content": ""}}, {"title": "红军广场", "address": "诺江镇诺江中路114号", "image": "", "rank": 29, "time": 2, "location": {"lat": 31.916676060595556, "lng": 107.25618057981647}, "feature": {"sight_features": "", "sight_content": ""}}, {"title": "温祠堂", "address": "巴中市通江县纪红路", "image": "", "rank": 30, "time": 2, "location": {"lat": 32.10134494632785, "lng": 107.4144775753147}, "feature": {"sight_features": "", "sight_content": ""}}, {"title": "彭家祠堂", "address": "巴中市通江县沙溪--胜利", "image": "", "rank": 31, "time": 2, "location": {"lat": 31.9177143468814, "lng": 107.25151684320765}, "feature": {"sight_features": "", "sight_content": ""}}, {"title": "城西度假村", "address": "万阿公路附近", "image": "", "rank": 32, "time": 2, "location": {"lat": 31.857217048217926, "lng": 107.04745911101934}, "feature": {"sight_features": "", "sight_content": ""}}, {"title": "南山度假村", "address": "通平路附近", "image": "", "rank": 33, "time": null, "location": {"lat": 31.570864059959032, "lng": 107.109588676989}, "feature": {"sight_features": "", "sight_content": ""}}, {"title": "通江县图书馆", "address": "诺江镇文庙街66号", "image": "", "rank": 34, "time": 2, "location": {"lat": 31.919625210936676, "lng": 107.25275250825021}, "feature": {"sight_features": "", "sight_content": ""}}, {"title": "桥中楼农家乐", "address": "201省道（鸿福家园旁）诺水河中峰洞景区(邻近诺水漂流洞)", "image": "", "rank": 35, "time": 2, "location": {"lat": 39.63869721336763, "lng": 115.92068624279248}, "feature": {"sight_features": "", "sight_content": ""}}, {"title": "通江鹰歌葡萄庄园", "address": "民胜镇", "image": "", "rank": 36, "time": null, "location": {"lat": 31.91433740877426, "lng": 107.16431969367679}, "feature": {"sight_features": "", "sight_content": ""}}, {"title": "鳄鱼漆(通江总经销)", "address": "诺江中路112号附近", "image": "", "rank": 37, "time": 2, "location": {"lat": 31.916694561804448, "lng": 107.25626914884708}, "feature": {"sight_features": "", "sight_content": ""}}, {"title": "诺水河风景区水上娱乐世界", "address": "诺水河镇诺水河风景区龙湖洞往上2公里处", "image": "", "rank": 38, "time": 2, "location": {"lat": 32.41539020003689, "lng": 107.1901603311124}, "feature": {"sight_features": "", "sight_content": ""}}, {"title": "古栈道农家乐", "address": "诺水河镇唐家坝", "image": "", "rank": 39, "time": 2, "location": {"lat": 32.39184074086775, "lng": 107.26055494287586}, "feature": {"sight_features": "", "sight_content": ""}}, {"title": "四川蜀天乡村旅游发展有限公司", "address": "杨柏乡天平寺村三社36号", "image": "", "rank": 40, "time": 2, "location": {"lat": 31.924827128265076, "lng": 107.11313930766977}, "feature": {"sight_features": "", "sight_content": ""}}, {"title": "通江爱琴海科普游乐园", "address": "石牛嘴爱琴海游乐园", "image": "", "rank": 41, "time": 3.0, "location": {"lat": 31.52943067181579, "lng": 104.96144911212106}, "feature": {"sight_features": "", "sight_content": ""}}, {"title": "通江千佛岩石窟", "address": "四川省通江县诺江镇千佛村", "image": "", "rank": 42, "time": 3.0, "location": {"lat": 31.935471213894992, "lng": 107.22702516690212}, "feature": {"sight_features": "", "sight_content": ""}}, {"title": "诺水河", "address": "四川省通江县境内", "image": "", "rank": 43, "time": 3.0, "location": {"lat": 31.9177143468814, "lng": 107.25151684320765}, "feature": {"sight_features": "", "sight_content": ""}}, {"title": "春在乡", "address": "巴中市-通江县-春在乡政府(201省道)", "image": "", "rank": 44, "time": 2, "location": {"lat": 31.884614722154826, "lng": 107.26702387620925}, "feature": {"sight_features": "", "sight_content": ""}}, {"title": "石桩子湾里", "address": "巴中市-通江县-秦家岭--高石梯", "image": "", "rank": 45, "time": 2, "location": {"lat": 31.91057649630307, "lng": 107.29732547365487}, "feature": {"sight_features": "", "sight_content": ""}}, {"title": "上陈家坝", "address": "巴中市-通江县-秦家岭--高石梯", "image": "", "rank": 46, "time": 2, "location": {"lat": 31.91057649630307, "lng": 107.29732547365487}, "feature": {"sight_features": "", "sight_content": ""}}, {"title": "毕家田", "address": "巴中市-通江县-秦家岭--高石梯", "image": "", "rank": 47, "time": 2, "location": {"lat": 31.91057649630307, "lng": 107.29732547365487}, "feature": {"sight_features": "", "sight_content": ""}}, {"title": "下陈家坝", "address": "巴中市-通江县-秦家岭--高石梯", "image": "", "rank": 48, "time": 2, "location": {"lat": 31.91057649630307, "lng": 107.29732547365487}, "feature": {"sight_features": "", "sight_content": ""}}, {"title": "鲢鱼牵", "address": "巴中市-通江县-秦家岭--高石梯", "image": "", "rank": 49, "time": 2, "location": {"lat": 31.91057649630307, "lng": 107.29732547365487}, "feature": {"sight_features": "", "sight_content": ""}}, {"title": "牟家坪", "address": "巴中市-通江县-秦家岭--高石梯", "image": "", "rank": 50, "time": 2, "location": {"lat": 31.91057649630307, "lng": 107.29732547365487}, "feature": {"sight_features": "", "sight_content": ""}}, {"title": "姜家梁", "address": "巴中市-通江县", "image": "", "rank": 51, "time": 2, "location": {"lat": 31.9177143468814, "lng": 107.25151684320765}, "feature": {"sight_features": "", "sight_content": ""}}, {"title": "梁子壕", "address": "巴中市-通江县-元山--民胜", "image": "", "rank": 52, "time": 2, "location": {"lat": 31.697864602823874, "lng": 107.16661780979854}, "feature": {"sight_features": "", "sight_content": ""}}]}