{"cityName": "同仁", "days": 2, "cityImage": "", "spots": [{"title": "隆务寺", "address": "青海省同仁县隆务镇", "image": "", "rank": 1, "time": 2.5, "location": {"lat": 35.51499000724933, "lng": 102.01980814997115}, "feature": {"sight_features": "", "sight_content": ""}}, {"title": "吾屯下寺", "address": "青海省黄南藏族自治州同仁县203省道吾屯下寺", "image": "", "rank": 2, "time": 1.0, "location": {"lat": 35.56624278491786, "lng": 102.06375156131509}, "feature": {"sight_features": "", "sight_content": ""}}, {"title": "吾屯上寺", "address": "青海省黄南藏族自治州同仁县203省道吾屯上寺", "image": "", "rank": 3, "time": 1.0, "location": {"lat": 35.5605160543673, "lng": 102.06042940386112}, "feature": {"sight_features": "", "sight_content": ""}}, {"title": "郭麻日寺", "address": "青海省黄南藏族自治州同仁县郭麻日寺", "image": "", "rank": 4, "time": 1.0, "location": {"lat": 35.573114567351524, "lng": 102.04931766743164}, "feature": {"sight_features": "", "sight_content": ""}}, {"title": "和日寺", "address": "黄南藏族自治州泽库县", "image": "", "rank": 5, "time": 1.0, "location": {"lat": 35.042014495100005, "lng": 101.47359451318887}, "feature": {"sight_features": "", "sight_content": ""}}, {"title": "麦秀国家森林公园", "address": "青海省黄南藏族自治州泽库县", "image": "", "rank": 6, "time": 1.0, "location": {"lat": 35.042014495100005, "lng": 101.47359451318887}, "feature": {"sight_features": "", "sight_content": ""}}, {"title": "昂拉千户宅院", "address": "青海省尖扎县昂拉乡尖巴昂村", "image": "", "rank": 7, "time": 1.0, "location": {"lat": 35.895354170280534, "lng": 102.0484919486001}, "feature": {"sight_features": "", "sight_content": ""}}, {"title": "李家峡北岸生态园风景区", "address": "青海省海东地区化隆回族自治县", "image": "", "rank": 8, "time": 2, "location": {"lat": 36.07188303331666, "lng": 102.24397796342969}, "feature": {"sight_features": "", "sight_content": ""}}, {"title": "旺嘉寺", "address": "同仁县曲库乎乡", "image": "", "rank": 9, "time": 1.0, "location": {"lat": 35.39714948681302, "lng": 102.047433002709}, "feature": {"sight_features": "", "sight_content": ""}}, {"title": "家·宝贝儿童欢乐谷", "address": "雪莲东路2号附近", "image": "", "rank": 10, "time": 2, "location": {"lat": 44.428687062586285, "lng": 84.8994093301545}, "feature": {"sight_features": "", "sight_content": ""}}, {"title": "双朋西乡", "address": "青海省黄南藏族自治州同仁双朋西乡", "image": "", "rank": 11, "time": 2, "location": {"lat": 35.58099937744863, "lng": 102.28253817115362}, "feature": {"sight_features": "", "sight_content": ""}}, {"title": "热贡艺术馆", "address": "热贡路52号", "image": "", "rank": 12, "time": 2, "location": {"lat": 35.5241897921093, "lng": 102.025148661567}, "feature": {"sight_features": "", "sight_content": ""}}, {"title": "民族博物馆", "address": "热贡路52号", "image": "", "rank": 13, "time": 2.0, "location": {"lat": 35.5241897921093, "lng": 102.025148661567}, "feature": {"sight_features": "", "sight_content": ""}}, {"title": "麦秀国家级森林公园", "address": "青海省泽库县东北部 811400", "image": "", "rank": 14, "time": 2, "location": {"lat": 35.042014495100005, "lng": 101.47359451318887}, "feature": {"sight_features": "", "sight_content": ""}}, {"title": "瓜什则寺", "address": "青海省黄南藏族自治州同仁县瓜什则乡同夏公路瓜什寺", "image": "", "rank": 15, "time": 2, "location": {"lat": 35.551177677924194, "lng": 102.24036688661465}, "feature": {"sight_features": "", "sight_content": ""}}, {"title": "黄南影剧院", "address": "中山路32号附近", "image": "", "rank": 16, "time": 3.5, "location": {"lat": 39.170013299907986, "lng": 117.2125423655915}, "feature": {"sight_features": "", "sight_content": ""}}, {"title": "黄南麦秀原始森林", "address": "青海省泽库县隆务镇 811500", "image": "", "rank": 17, "time": 2, "location": {"lat": 35.51499000724933, "lng": 102.01980814997115}, "feature": {"sight_features": "", "sight_content": ""}}, {"title": "尕沙日寺", "address": "黄南藏族自治州同仁县203省道", "image": "", "rank": 18, "time": 2, "location": {"lat": 35.365629366621135, "lng": 101.9696351327461}, "feature": {"sight_features": "", "sight_content": ""}}, {"title": "十世班禅大师纪念馆", "address": "青海省黄南藏族自治州同仁县德合隆南路", "image": "", "rank": 19, "time": 2, "location": {"lat": 35.51692112223032, "lng": 102.01964930979427}, "feature": {"sight_features": "", "sight_content": ""}}, {"title": "吾屯下庄寺", "address": "隆务镇", "image": "", "rank": 20, "time": 2, "location": {"lat": 35.51499000724933, "lng": 102.01980814997115}, "feature": {"sight_features": "", "sight_content": ""}}, {"title": "立仓漂流度假村", "address": "青海省黄南藏族自治州同仁县立仓村", "image": "", "rank": 21, "time": 2, "location": {"lat": 35.367415537050846, "lng": 101.87874539421303}, "feature": {"sight_features": "", "sight_content": ""}}, {"title": "隆乌寺", "address": "青海省黄南藏族自治州同仁县东 70 米", "image": "", "rank": 22, "time": 2, "location": {"lat": 35.52186515052424, "lng": 102.02606659505237}, "feature": {"sight_features": "", "sight_content": ""}}, {"title": "玉米绿洲生态园", "address": "203省道", "image": "", "rank": 23, "time": 2, "location": {"lat": 38.70057735317822, "lng": 114.30841754306506}, "feature": {"sight_features": "", "sight_content": ""}}, {"title": "热贡福田画院", "address": "203省道", "image": "", "rank": 24, "time": 2, "location": {"lat": 38.70057735317822, "lng": 114.30841754306506}, "feature": {"sight_features": "", "sight_content": ""}}, {"title": "藏乡画廊", "address": "203省道", "image": "", "rank": 25, "time": 2, "location": {"lat": 38.70057735317822, "lng": 114.30841754306506}, "feature": {"sight_features": "", "sight_content": ""}}, {"title": "黄南州热贡画院", "address": "隆务镇吾屯上庄93号", "image": "", "rank": 26, "time": 2, "location": {"lat": 35.56690385550805, "lng": 102.06329079616476}, "feature": {"sight_features": "", "sight_content": ""}}, {"title": "黄南藏族自治州图书馆", "address": "中山路58号", "image": "", "rank": 27, "time": null, "location": {"lat": 41.80183843197536, "lng": 123.41078117898289}, "feature": {"sight_features": "", "sight_content": ""}}, {"title": "东山乐园", "address": "铁吾村东山路加油站旁", "image": "", "rank": 28, "time": 5.5, "location": {"lat": 35.52169202656071, "lng": 102.0271156344303}, "feature": {"sight_features": "", "sight_content": ""}}, {"title": "春沁园农家乐", "address": "德合隆路附近", "image": "", "rank": 29, "time": 2, "location": {"lat": 33.019798129044716, "lng": 100.28758748481783}, "feature": {"sight_features": "", "sight_content": ""}}, {"title": "夏吾才旦手工画廊", "address": "青海省黄南藏族自治州同仁县吾屯下庄村", "image": "", "rank": 30, "time": 2, "location": {"lat": 35.56457427223392, "lng": 102.06088779119675}, "feature": {"sight_features": "", "sight_content": ""}}, {"title": "木合沙寺", "address": "青海省黄南州同仁县曲库乎乡西北木合沙村", "image": "", "rank": 31, "time": 2, "location": {"lat": 35.39714948681302, "lng": 102.047433002709}, "feature": {"sight_features": "", "sight_content": ""}}, {"title": "旺加寺", "address": "黄南藏族自治州同仁县", "image": "", "rank": 32, "time": 2, "location": {"lat": 35.52186515052424, "lng": 102.02543778119538}, "feature": {"sight_features": "", "sight_content": ""}}]}