{"cityName": "同心", "days": 2, "cityImage": "", "spots": [{"title": "同心清真大寺", "address": "吴忠市同心县城以南", "image": "", "rank": 1, "time": 1.0, "location": {"lat": 36.98626962916477, "lng": 105.92059907759594}, "feature": {"sight_features": "", "sight_content": ""}}, {"title": "红军西征纪念堂", "address": "203省道预旺镇政府斜对面", "image": "", "rank": 2, "time": 2, "location": {"lat": 36.835763201429, "lng": 106.38299915202532}, "feature": {"sight_features": "", "sight_content": ""}}, {"title": "宁夏菊花台庄园枸杞种植有限公司", "address": "河西镇菊花台村", "image": "", "rank": 3, "time": 2, "location": {"lat": 37.09626950254427, "lng": 105.91405284776835}, "feature": {"sight_features": "", "sight_content": ""}}, {"title": "下马关中寺", "address": "203省道附近", "image": "", "rank": 4, "time": 2, "location": {"lat": 38.70057735317822, "lng": 114.30841754306506}, "feature": {"sight_features": "", "sight_content": ""}}, {"title": "红古北塘清真大寺", "address": "中卫市海原县", "image": "", "rank": 5, "time": 2, "location": {"lat": 36.570781489719, "lng": 105.65055514637504}, "feature": {"sight_features": "", "sight_content": ""}}, {"title": "红圈清真大寺", "address": "羊张路与307乡道交叉口东北100米", "image": "", "rank": 6, "time": 2, "location": {"lat": 42.85646580255288, "lng": 124.414086267546}, "feature": {"sight_features": "", "sight_content": ""}}, {"title": "同心县图书馆", "address": "长征东街1号附近", "image": "", "rank": 7, "time": 2, "location": {"lat": 38.423755895301476, "lng": 112.75099761170827}, "feature": {"sight_features": "", "sight_content": ""}}, {"title": "同心新月清真大寺", "address": "北环东路080", "image": "", "rank": 8, "time": 1.0, "location": {"lat": 39.34463974337133, "lng": 115.89293592282576}, "feature": {"sight_features": "", "sight_content": ""}}, {"title": "哈哈乐园", "address": "S101同心清真大寺东南侧", "image": "", "rank": 9, "time": 2, "location": {"lat": 36.970648503079936, "lng": 105.92085612592102}, "feature": {"sight_features": "", "sight_content": ""}}, {"title": "湾段头清真大寺", "address": "同红线附近", "image": "", "rank": 10, "time": 2, "location": {"lat": 37.177364578325715, "lng": 106.08010559684755}, "feature": {"sight_features": "", "sight_content": ""}}, {"title": "海坟清真寺", "address": "宁夏回族自治区吴忠市同心县韦州镇康济寺塔南250米", "image": "", "rank": 11, "time": 2, "location": {"lat": 37.28531875407926, "lng": 106.48803634895032}, "feature": {"sight_features": "", "sight_content": ""}}, {"title": "阿愣水族馆", "address": "银平西街北150米", "image": "", "rank": 12, "time": 2, "location": {"lat": 36.983324705057555, "lng": 105.9107226576665}, "feature": {"sight_features": "", "sight_content": ""}}, {"title": "生海商业街", "address": "宁夏回族自治区同心县豫海北街", "image": "", "rank": 13, "time": 2, "location": {"lat": 36.991307625280385, "lng": 105.91747227104801}, "feature": {"sight_features": "", "sight_content": ""}}, {"title": "皓月新都金融商业街", "address": "宁夏回族自治区同心县利通区101省道", "image": "", "rank": 14, "time": 2, "location": {"lat": 36.9247225352519, "lng": 105.97135639314843}, "feature": {"sight_features": "", "sight_content": ""}}, {"title": "荣世商业广场", "address": "宁夏回族自治区同心县利通区长征东街1号", "image": "", "rank": 15, "time": 2, "location": {"lat": 36.98612292071547, "lng": 105.91800829353903}, "feature": {"sight_features": "", "sight_content": ""}}, {"title": "相约穆府农家乐", "address": "吴忠市-同心县-相约穆府农家乐(庙石线南500米)", "image": "", "rank": 16, "time": 2, "location": {"lat": 36.9868479105986, "lng": 105.97362496400197}, "feature": {"sight_features": "", "sight_content": ""}}]}