{"cityName": "铜仁", "days": "", "cityImage": "", "spots": [{"title": "梵净山", "address": "铜仁地区江口县", "image": "", "rank": 1, "time": 3.0, "location": {"lat": 27.72880957525466, "lng": 108.77862291940302}, "feature": {"sight_features": "", "sight_content": ""}}, {"title": "亚木沟风景区", "address": "铜仁市江口县太平镇寨抱村", "image": "", "rank": 2, "time": 3.0, "location": {"lat": 27.77227732232377, "lng": 108.74903117724627}, "feature": {"sight_features": "特色1 梵净归来不看山，亚木归来不看水", "sight_content": "亚木沟风景区位于贵州省铜仁市江口县境内梵净山脚下，是梵净山生态文化旅游的重点卫星景点。景区分为生态停车场、四星级酒店（待建）、乡村风情长廊（目前规划中）、购物街、亚木沟原始生态峡谷、土家风情园、明朝古寨（待建）等几大板块，满足旅游者吃、住、行、游、购、娱各方面需求。游客既可以欣赏原始的自然风光，又可以领略原生态的土家文化诸如原生态歌舞表演、民间绝技、土家风俗等。\n据相关文献记载，亚木沟在唐代以前名为“鬼谷”，又叫“隐龙沟”，后因谷中长出一株神树，似石似木，通体碧透，花有异香，能驱邪治病，食其果实，可使多年未育的夫妇得子，引得远近无数土民对其顶礼膜拜，取名为“亚木”，在古土家语里就是“树神”的意思，因而得名“亚木沟”，一直沿用至今。亚木沟自古就被誉为“贵州第一沟”。\n\n\n\n亚木沟总长50公里，沟里气候宜人，冬无严寒，夏无酷暑，年平均气温在17°C左右，空气负离子浓度高，无愧于天然氧吧的美誉，绝对是探险、觅奇、寻幽及休闲养生的绝佳之地，曾有著名诗人在游览亚木沟后挥毫写下“冬暖夏凉神仙府，山清水秀亚木沟”的赞语。\n\n\n\n亚木沟不仅是一个洗心涤虑、修身养性的寻景探幽妙处，更是一个流淌着传说的文化胜境。当游客朋友在这里甘泉掬水，清流濯足，穿越原始森林时，都不由发出“梵净归来不看山，亚木归来不看水”的感叹。"}}, {"title": "大明边城", "address": "铜仁市大明边城景区（水晶阁下游）", "image": "", "rank": 3, "time": 1.5, "location": {"lat": 27.720720519542372, "lng": 109.2096234179728}, "feature": {"sight_features": "特色1 来一天，穿越明朝600年 特色2 展示明朝以来贵州600年历史文化", "sight_content": "‍‍国家AAAA级大型历史文化景区——大明边城坐落于贵州省铜仁市东郊，于水晶阁沿锦江右岸展开，占地3000于亩。被评为“贵州省首批文化产业示范基地 ”之一、“武陵山文化产业园”、“贵州省文明景区示范点”、“贵州省最受欢迎的旅游景点”之一等多项好评。大明边城景区现已成为全国最大的明朝历史主题景区之一，中国最大的穿越明朝600年历史文化景区之一，中国最大的仿明代古建筑景区之一。\n大明边城景区在原有锦江古渔村遗址上保护性开发，重现600年前大明王朝时期的市井繁华，大明边城景区恰到好处的把明朝文化融入景区每个点。每当游客进入景区，仿佛进入时光隧道一样穿越到大明王朝，黔疆雄关今犹在，金戈铁马，沙场点兵；灯笼高挂，房屋林立；青楼赌坊，别样繁华；往来舟楫，依然如昨；往来熙攘，经久不息。一幅幅生动的画面，再现了大明王朝的那事那景那繁华。\n核心景区划分为边城广场演艺区、边城市井文化区（含五角大楼剧场）、边城军事体验区、边城水师龙舟营、大明水寨锦江渔文化区、大明酒庄、水上乐园区和儿童社会经验区等八大文化体验区块。大明边城景区，能优化大西南旅游格局形成去梵净山看佛文化、去张家界看自然景观、去湖南凤凰看古城、去大明边城了解贵州600年历史文化！\n大明边城景区是人气很旺的大型明史文化景区，年游客逾300万人次，秉承\"建筑为形，文化为魂\"的经营理念。2014年景区内的各个区块全面华丽升级，全面活化每个景点。在景区内随时可观看表演：《明军操练》、《抛绣球》、《竹竿舞》、《出酒仪式》、《敬酒歌舞》、《现场织布》、《小猪跳水》等应有尽有，大明边城景区每年都会举行泼水节，逛庙会，大型篝火晚会，给各位旅客带来独特的游览体验。\n“穿越”是大明边城的灵魂，经过多年的悉心打造，来大明边城玩“穿越”成为一种时尚，来一天，许你600年"}}, {"title": "苗王城", "address": "铜仁市松桃苗族自治县正大乡", "image": "", "rank": 4, "time": 3.0, "location": {"lat": 27.967851912408534, "lng": 109.29774636742128}, "feature": {"sight_features": "特色1 感受苗族文化的古朴、神奇、博大、精深。 特色2 可以重现几百年前的历史。", "sight_content": "苗王城于明洪武年间初步形成，经过石各野、龙达哥、吴不尔、龙西波和吴黑苗等苗王的长期经营，逐步成为了苗王城。苗族是中华民族中最古老的民族之一，为中华民族灿烂文化的发展和进步做出了不朽的贡献。已经有600多年历史的苗王城距凤凰古城39公里，是正在建设的贵州省重点风景名胜区，亦是国家旅游局定点扶持的村寨景点。通过几十代苗王的经营，苗王城在明朝时期就有一定规模。由于这里曾多次爆发苗族起义并成为大本营，促使明政府修筑南方长城。\n苗王城目前开放的有十一道城门，十一个胡同，每个胡同共用一道大门；胡同内每家每户各自拥有自己的龙门和后门，并且相互连通，可步步为营、层层把关，酷似一八卦迷宫。那里地势险峻、山水秀丽，不仅有美丽的自然景观与人文景观，而且有深厚的历史文化遗产。专家认为：此城设计“既能攻、又能守、也能退”，是一个具有相当军事构筑工事水平的古王城，有很高的观赏、保护和旅游价值。其建筑结构、军事巷道、可以重现几百年前的历史。\n在苗王城满身银饰的盛装苗女会热情卡歌、拦门礼捧上的是醇美的苗王米酒、青瓦木房里香喷喷的是苗家饭菜、少女说的是难懂的苗话、多情黛帕留在英俊小伙脸上的是爱的锅烟、古树下迷狂娱神的是神气的苗老司、赤膊小伙跳的是强悍、狂放的鼓舞、篝火晚会上纵情的是欢歌与笑语苗王城是迷人的所在！苗王城是醉人的地方！\n在落后、古旧的苗王城内，红苗苗王的后代们说苗话，穿苗服，保留完整的苗家习俗。 苗王城穿寨而过的小河，奇特、险峻的绝壁，茂密的森林、雅致的苗家风雨桥以及河边洗衣的苗妇、玩闹的小童、苗人农作的歌声让游人产生“人在画中游”、天人合一的梦幻意境、集山、水、洞、泉、瀑、峡谷、森林、古树、原始村寨、军事巷道、苗族风情为一体，是旅游、度假、休闲、探险的胜地。在苗王城的山水画廊里回归自然、回归自我。"}}, {"title": "石阡古温泉", "address": "铜仁市石阡县汤山镇", "image": "", "rank": 5, "time": 2.5, "location": {"lat": 27.524416991229277, "lng": 108.2393407463451}, "feature": {"sight_features": "特色1 贵州一家冬天能玩水上乐园的温泉", "sight_content": "【石阡古温泉水上乐园】\n‍‍   ‍‍石阡古温泉占地面积8万平方米，由古城楼、温泉广场、温泉接待大厅、钟乳石景观泡池区、太极八卦泡池、 森林景观泡池区、石林景观泡池区、名贵药池区、连廊泡池区、温泉别墅区、空中‍‍餐厅、美食广场、人工造浪池、儿童水上乐园、大喇叭、七彩滑道、漂流河等。园区内设计独特，功能多样的泡池合计有100多个。\n石阡古温泉有着美丽的传说：乃天赐露天泉眼自然流出天然优质矿热温泉水，无须人工打造，日自涌量可达1000吨，水中富含人体所需的硒、锶、锌、锂、氡、碘、偏硅酸等20多种元素，符合国家《饮用矿泉水标准》，是世界少有、全国唯有既可洗浴，又能直接饮用的天然矿热温泉。素有“天下第一神汤”美誉。\n神奇温泉，风情万种，浩浩如大江。休闲之乐园，疗养之天堂。热矿泉，多元素，浴与饮，皆是福。春浴回阳敛气，夏浴解暑清心，秋浴除愁涤虑，冬浴祛寒健身，素有“天下第一神汤”美称！四时如一，千古不息，神泉雅韵，天下无双！‍‍‍‍‍‍‍‍\n\n\n温泉矿泉水矿化度00.3—0.5g/L.，其中阴离子主要是SO42-、HCO3- ，阳离子主要是C22+、Mg2+。饮用或洗浴这种矿泉水能中和胃酸因汤内食物发酵产生多余的酸，具有增加食欲、缓解肠痉挛的作用，对糖尿病、痛心、风湿病有显著疗效。温泉矿泉水中放射性元素氡量大于6.13ME.氡浴可使心动过速者变慢，心动过缓变快，能使高血压降低、低血压上升；对中枢神经有镇静，止痛和催眠效应，并可治疗关节炎，神经炎、调节妇女内分泌等。此外水中还含有微量的锂、溴、碘、锌等有益人体健康的元素。"}}, {"title": "九龙洞", "address": "铜仁市碧江区观音山山腰", "image": "", "rank": 6, "time": 2.5, "location": {"lat": 27.71892161906874, "lng": 109.33759340232143}, "feature": {"sight_features": "特色1 水帘洞天、龙口含珠、斑虎下山等构成一幅幅秀丽奇特的景色！ 特色2 常年云雾缭绕，森林覆盖率达86%以上！ 特色3 原始竹海达十万余亩，是一个天然氧吧！", "sight_content": "九龙洞景区是贵州省首批确定的十大风景名胜之一，同时也是铜仁市众多溶洞中最先开发的一个，1981年被列为县级名胜保护区，1987年被列为贵州省首批十大风景名胜区，并被收录入《中国名胜大辞典》，2004年1月13日被国务院列为国家级重点风景名胜区。九龙洞景区由观音山、莲花寺、九龙洞景点组成。位于铜仁城东 17公里处，背靠巍峨苍茫的六龙山，前临碧波滔滔的锦江河，在骂龙溪之右，在观音山之腰，其山峭壁嶙峋、雄奇险峻、漫山翠竹，绿意盎然。典型的喀斯特地貌形成了九龙洞景区宏伟壮观的溶洞奇观，身临其境，探神奇龙洞，登观音险峰，膜拜莲池观音，惊叹大自然奥妙是游九龙洞景区的乐趣所在。\n\n‍‍九龙洞景区是一处大型的天然喀斯特溶洞，广大恢宏，宽70多米，最宽处达210米左右，高30--110米不等。现已探明部分，洞长2284米，总面积约 8万平方米。九龙洞内有7个大厅，已向游人开放4个大厅和一个天厅。单是石柱、石笋就有数百根之多，30米以上的石柱有8根，20米以上的有6根，10米 以上的有18根，还有一根高达44.71米，直径约为16.4米的天下第一柱。另外，还有一条地下暗河。各厅洞中有洞，洞内厅厅相连，石笋、石柱、石花、 石幔等漫布各厅各洞，各具特色，千姿百态，景象万千。"}}, {"title": "红云金顶", "address": "贵州省铜仁地区梵净山景区红云金顶", "image": "", "rank": 7, "time": 2, "location": {"lat": 27.72747349774481, "lng": 109.2023727450514}, "feature": {"sight_features": "", "sight_content": ""}}, {"title": "十里锦江", "address": "铜仁地区铜仁市碧江区", "image": "", "rank": 8, "time": 1.0, "location": {"lat": 27.674902690624183, "lng": 109.16855802826001}, "feature": {"sight_features": "", "sight_content": ""}}, {"title": "九天温泉", "address": "铜仁市思南县城北新区温泉大道1号", "image": "", "rank": 9, "time": 2, "location": {"lat": 27.958215633310772, "lng": 108.26318851186338}, "feature": {"sight_features": "特色1 九天温泉别墅设计风格中融合了土家族绚丽多彩的文化 特色2 置身SPA理疗休闲区幽蘭阁，感受隐于世外、写意乌江的闲适与优雅之余，体验九天温泉SPA理疗，品味身心灵的盛宴！ 特色3 身心灵感受九天温泉的呵护与洗涤，伴随着优美乌江水，悠然随性，只愿长久陶醉其中，尽情吸收天然清新的九天养生精髓！", "sight_content": "九天温泉酒店依山傍水，地处风光旖旎的贵州省铜仁市思南县北部城区。位于四川、湖南、贵州三省交界处，距高速公路思南东站出口仅1公里。酒店周边旅游景点资源丰富，往湖南湘西凤凰古城约150公里，距国家级自然保护区、国家五大佛教名山之一梵净山仅67公里，到思南石林仅100公里，交通地理位置佳；东临乌江，西、南、北三面环山，山清水秀，自然美景尽收眼底。\n以九天温泉酒店为主的思南温泉旅游综合体，项目规划总占地700亩、其中温泉度假酒店投资5亿多元，拟建成铜仁市五星级旅游温泉度假酒店。该项目已被列入贵州省“十二五”规划和贵州省“5个100”重点工程，已被评为“国家AAAA级旅游景区”，并全力打造集温泉沐浴、养生保健、生态旅游、休闲娱乐、餐饮、住宿、地产于一体的新型综合性温泉度假酒店。\n九天温泉是贵州省首家融入“土家文化”元素的大型综合休闲温泉公园，拥有数十种特殊功效的温泉露天泡池60多个，水疗SPA、儿童戏水池、干/湿蒸、室内外恒温泳池、天然养生能量吧等设施设备一应俱全，可同时容纳2000余人。九天温泉出水温度69℃，属偏硅酸泉质，富含偏硅酸、碘、锶、铁、钡、镁、锰、溴、锂等多种对人体有益的微量元素，又称“氟水”或“硅水”，因具有显著的医疗保健和美容护肤功效，被誉为“美人汤”。亲近九天纯天然养生温泉，休养生息，濯尘焕心，可亲身体会到古人“温泉水滑洗凝脂”的美好感受。"}}, {"title": "朱砂古镇（万山国家矿山公园）", "address": "铜仁市万山区万山镇土坪社区", "image": "", "rank": 10, "time": 2, "location": {"lat": 27.65716475868007, "lng": 109.01838380749163}, "feature": {"sight_features": "特色1 武陵腹地的璀璨明珠，楚尾黔首的神秘边城 特色2 矿业遗迹历史悠久、内涵丰富 特色3 独特的矿山休闲怀旧小镇 特色4 齐全的朱砂原矿石和工艺品展示中心", "sight_content": "朱砂古镇，景区总规划面积105平方公里，核心区面积约5平方公里。因位于黔东高山之巅,也有黔东“青藏高原”上的怀旧小镇、云端小镇的称赞。有长达970公里的千年人工雕凿丹砂地府长廊以及迷宫隧道，故又有“天空之城”的美称。这里展现给人们的是有关汞工业文明的宏大历史叙事，是世界矿业史上罕见的旷古杰作，是中国有色金属工业的聚焦点，是历代汞矿工人用血汗留下的辉煌篇章。目前开放的景点有悬崖泳池、万山汞矿工业遗产博物馆、岩鹰窝、时光隧道、水墨丹青、万丈深渊、穿越时空、妙音寺、国家级文物保护单位——黑硐子、仙女石、仙人硐、董郎石、仙人床、英法水银公司,悬崖栈道、玻璃天桥、朱砂大观园、那个年代、放下山庄等景点，是集旅游观光、休闲娱乐、科普教育于一身的综合性旅游景区。\n仙女石\n在矿洞和矿洞交接的两座山之间，有一个天然形成的景观，那就是仙女石。仙女石长在高高的独立悬崖之上，似一个惟妙惟肖的窈窕少女，长身玉立。据传，仙女石是天界七仙女的化身。七仙女思慕董郎，私奔人间并携来珠宝无数，藏于这万山丛中的七十二仓、三十六库，以救黎民百姓。王母知悉后大怒令天兵天将，将董郎捉拿并杀害，七仙女悲愤交加也化身成石，夫妻在仙人洞边隔洞相望。现如今民间求财求平安者、商界求大业者、情侣求天长地久者前来祭祀的仍然络绎不绝。有诗赞道：“崖壑染紫烟，香山绿意浓；丹都添秀色，天仙凡心动；青纱长箩裙，翩然驭春风；挺胸婷婷立，落户在黔东。”不同的角度您还可以欣赏到她青年和老年的两种面貌。\n\n\n玻璃栈道\n是贵州省第一条悬崖玻璃栈道，其修建于半山腰的悬崖峭壁上，东面止于悬崖泳池，西面连接景区大门。与深壑平均高度约100米，沿途可欣赏自然风光的无限壮美。悬于“空中”，观深壑田畴，瞰雄鹰翱翔，令人胆战心惊。\n\n\n黑硐子\n黑硐子景观又叫老沙坑，是古代采矿遗迹之一。古代用爆火烈石在黑硐子留下了大量火烧痕迹以及大量的小洞子。它也是世界最早的汞矿开采之地，距今已有两千多年的历史，不仅是全国重点文物保护单位，更是古代开采技术的真实见证。\n\n\n水墨丹青\n是万山地下采矿坑道内的景点之一。原是一处较大的人工采场。由一座炼丹炉、池塘和一座小桥构成。水墨是中国画的一种，古代绘画常用朱红色和青色为颜料，而朱红色就是丹砂的本色，故称丹青。墨色为主，丹青为辅的水墨画就叫做水墨丹青画。\n\n\n那个年代\n无论是门口残墙上镶嵌着属于那个年代的“老物件”——保温壶、水杯、马灯、缝纫机、报纸以及当时的老式自行车还是围墙上稻草搭建的雨棚、大门上陈旧的喇叭都是无声的力量，让你不由自主的回到那个激情澎湃的年代。景区以修旧如旧的方式，完整的保留了上世纪五十至八十年代矿工住宅及苏式建筑风格，直观的展示出新中国成立后，革命工人在不同年代的精神面貌和生活状态，通过大量的人文塑造，再现那段令人难以忘怀的岁月。\n\n\n玻璃天桥\n朱砂古镇不仅有令人称奇的自然景色，还有各种令你肾上腺素爆发的旅游项目。玻璃天桥位于朱砂古镇景区黑硐子上方，全长126米，其中全透明玻璃铺设86米，距谷底相对高度约100余米，最突出的特点是“与人共舞”，当人站在玻璃天桥上时，根据承载重量，桥身会左右浮动2至3厘米，十分惊险和刺激。勇于挑战的你可以让胆量一次练个够！\n\n\n放下山庄\n放下山庄位于万山朱砂古镇景区内。这里有独一无二的古镇別墅，集山、水、林、洞为一体。産上廊桥、青石古树、红枫争叶、花草芬芳。在此度假可以远离喧嚣、淡忘烦忧、虚怀若谷、宁静致远。置身其中能让您真正感受到“行到水穷处坐看云起时”的悠远意境。"}}, {"title": "梵净山佛教文化苑", "address": "铜仁市江口县太平乡梵净山村", "image": "", "rank": 11, "time": 2, "location": {"lat": 27.81943629171863, "lng": 108.78027996597739}, "feature": {"sight_features": "", "sight_content": ""}}, {"title": "思南古城", "address": "铜仁市思南县县辖区", "image": "", "rank": 12, "time": 1.0, "location": {"lat": 27.944547877976884, "lng": 108.25941731933368}, "feature": {"sight_features": "", "sight_content": ""}}, {"title": "潜龙洞", "address": "铜仁市松桃县乌罗镇黔龙村", "image": "", "rank": 13, "time": 2, "location": {"lat": 28.104834477234384, "lng": 108.85015326318286}, "feature": {"sight_features": "", "sight_content": ""}}, {"title": "寨沙侗寨", "address": "贵州省江口县太平乡梵净山", "image": "", "rank": 14, "time": 2, "location": {"lat": 27.821203283684362, "lng": 108.81629728284555}, "feature": {"sight_features": "", "sight_content": ""}}, {"title": "梦幻锦江游船", "address": "铜仁市三中桥头瓦窑河码头", "image": "", "rank": 15, "time": 2, "location": {"lat": 27.279506022448757, "lng": 108.94567123426509}, "feature": {"sight_features": "", "sight_content": ""}}, {"title": "云舍景区", "address": "铜仁市江口县", "image": "", "rank": 16, "time": 2.5, "location": {"lat": 27.70592169504263, "lng": 108.84540005923948}, "feature": {"sight_features": "", "sight_content": ""}}, {"title": "碧江天生桥景区", "address": "铜仁市碧江区川硐镇", "image": "", "rank": 17, "time": 1.0, "location": {"lat": 27.81795997493634, "lng": 109.23853966302424}, "feature": {"sight_features": "", "sight_content": ""}}, {"title": "万山彩虹海水上乐园", "address": "铜仁市万山区楚溪大道廖家坳", "image": "", "rank": 18, "time": 2, "location": {"lat": 27.67402980034319, "lng": 109.1610022235323}, "feature": {"sight_features": "", "sight_content": "万山彩虹海水上乐园‍‍主要包含大喇叭、海浪池、大型水寨、空中大回环、漂流河等大型水上游乐设施，‍‍\n‍‍先进的游乐设施，同步国内外顶级游乐场的欢乐体验，营造新鲜、刺激、活力、浪漫的生活感受。‍‍"}}, {"title": "三江公园", "address": "贵州省铜仁市碧江区锦江南路", "image": "", "rank": 19, "time": 3.0, "location": {"lat": 27.72200027323287, "lng": 109.19243090872139}, "feature": {"sight_features": "", "sight_content": ""}}, {"title": "太平河漂流", "address": "铜仁市江口县", "image": "", "rank": 20, "time": 2, "location": {"lat": 27.70592169504263, "lng": 108.84540005923948}, "feature": {"sight_features": "", "sight_content": ""}}, {"title": "锦江温泉", "address": "铜仁市碧江区铜仁北路8号", "image": "", "rank": 21, "time": 0.5, "location": {"lat": 27.696773471802057, "lng": 109.18743536171422}, "feature": {"sight_features": "特色1 集休闲、娱乐、度假、养生于一体的城市温泉", "sight_content": "锦江温泉宾馆位于贵州省铜仁市，地处繁华市中心，在铜仁市主城商业区附近，距火车站仅6分钟车程，距铜仁市中心汽车站仅3分钟车程，与机场相隔19公里。交通极为便利。温泉是人们休闲娱乐的场所，亲情与爱情是生活永恒的两个主题，所以我们不仅有供小孩子娱乐的童心池，有益身心的中药理疗池，同样也有为情侣特意精心打造的情侣泡池区，情侣泡池区兼顾私密性与舒适性，在这里，情侣们可以享受一段美妙的独处时光，安静，美妙，不受打扰，享受属于他们的二人世界。\n\n\n每一段旅途都有一个归处，我们锦江温泉位于多彩山水之间，是铜仁地区集休闲、娱乐、度假、养生于一体的城市温泉，我们很乐意在这里用我们各部门“十个一服务”为您提供细致周到的服务，以我们的服务让每一位客人在这里感受到“家”的感觉，成为您们在此旅行的归处，成为您家以外的另外一个家。"}}, {"title": "万寿宫", "address": "铜仁市石阡县汤山镇长征路北端", "image": "", "rank": 22, "time": 1.0, "location": {"lat": 27.524416991229277, "lng": 108.2393407463451}, "feature": {"sight_features": "", "sight_content": ""}}, {"title": "老金顶", "address": "铜仁市江口县太平乡黑湾河梵净山景区", "image": "", "rank": 23, "time": 0.5, "location": {"lat": 27.821203283684362, "lng": 108.81629728284555}, "feature": {"sight_features": "", "sight_content": ""}}, {"title": "九龙洞温泉度假庄园", "address": "铜仁市碧江区漾头镇", "image": "", "rank": 24, "time": 2, "location": {"lat": 27.70034855794697, "lng": 109.42918959702307}, "feature": {"sight_features": "特色1 中国第一古温泉，享恒温45度", "sight_content": "九龙洞温泉度假庄园坐落于风景秀丽的六龙山山麓，可以享受具有异域风情的土耳其浴、恒温泳池、露天温泉泡汤区、水上娱乐区、养生温泉SPA区、亲亲鱼疗、各式养身“氟泉”、名贵中草药、花、茶泡汤区等50余个露天泡池等纯天然温泉体验。\n‍‍\n九龙洞温泉度假庄园温泉水采自地下1800米深的自流温泉层，出水温度达46度，日自流1500立方米。温泉水经国土资源部贵阳矿产资源监督检测中心检测温泉水富含氟、偏硅酸 、偏硼酸等多种对身体有益的矿物质，被相关机构命名为“氟泉”，九龙洞“氟水”温泉，被誉为贵州温泉水中的“蓝宝石”，是国内外极为珍贵的温泉水资源。"}}, {"title": "承恩寺", "address": "贵州省铜仁地区梵净山景区内", "image": "", "rank": 25, "time": 1.5, "location": {"lat": 27.72747349774481, "lng": 109.2023727450514}, "feature": {"sight_features": "", "sight_content": ""}}, {"title": "万山彩虹海陆地乐园", "address": "铜仁市万山区楚溪大道廖家坳", "image": "", "rank": 26, "time": 1.5, "location": {"lat": 27.67402980034319, "lng": 109.1610022235323}, "feature": {"sight_features": "", "sight_content": "万山彩虹海陆地乐园分为未来世界、神秘峡谷、童话王国和不夜天街四大主题区，主要包含大摆锤、摩天轮、太空梭、过山车以及球幕影院等大型游乐设施，同时园内打造主题IP花车巡游及民俗文化演绎秀，别出心裁的节目表演吸引各地游客及本地市民来体验。"}}, {"title": "百花渡", "address": "铜仁市碧江区马岩村", "image": "", "rank": 27, "time": 2, "location": {"lat": 27.741695775450243, "lng": 109.28889672776046}, "feature": {"sight_features": "特色1 集花卉产业、主题婚庆、休闲度假、特色餐饮、现代观光农业五大功能于一体。", "sight_content": "百花渡以花卉为主题，与农产品相融合的模式，结合丰富的地方民俗文化元素，园内设有花卉植物园、智能温室、游船码头、豪华游艇、豪华房车等诸多主题景观。\n集花卉产业、主题婚庆、休闲度假、特色餐饮、现代观光农业五大功能于一体。"}}, {"title": "万卷书", "address": "江口县梵净山山顶", "image": "", "rank": 28, "time": 0.5, "location": {"lat": 27.821203283684362, "lng": 108.81629728284555}, "feature": {"sight_features": "", "sight_content": ""}}, {"title": "万米睡佛", "address": "贵州省铜仁地区梵净山", "image": "", "rank": 29, "time": 2, "location": {"lat": 27.72747349774481, "lng": 109.2023727450514}, "feature": {"sight_features": "", "sight_content": ""}}, {"title": "周逸群故居", "address": "贵州省铜仁市区共同路12号", "image": "", "rank": 30, "time": 1.0, "location": {"lat": 27.722629817760016, "lng": 109.19863995238734}, "feature": {"sight_features": "", "sight_content": ""}}, {"title": "石阡县", "address": "贵州省铜仁石阡县", "image": "", "rank": 31, "time": 2, "location": {"lat": 27.51972205975809, "lng": 108.23046385479006}, "feature": {"sight_features": "", "sight_content": ""}}, {"title": "楼上古寨", "address": "铜仁市石阡县375乡道南50米", "image": "", "rank": 32, "time": 2.5, "location": {"lat": 27.51972205975809, "lng": 108.23046385479006}, "feature": {"sight_features": "", "sight_content": ""}}, {"title": "乌江三峡", "address": "铜仁市沿河土家族自治县境内", "image": "", "rank": 33, "time": 1.0, "location": {"lat": 28.570101680094822, "lng": 108.5104775397904}, "feature": {"sight_features": "", "sight_content": ""}}, {"title": "铜仁", "address": "", "image": "", "rank": 34, "time": 3.0, "location": {"lat": 27.674902690624183, "lng": 109.16855802826001}, "feature": {"sight_features": "", "sight_content": ""}}, {"title": "思南石林旅游区", "address": "铜仁市铜仁地区思南县", "image": "", "rank": 35, "time": null, "location": {"lat": 27.674902690624183, "lng": 109.16855802826001}, "feature": {"sight_features": "特色1 石林是地球上同纬度地区极具科普性和观赏性的连片喀斯特石林。 特色2 林区形状多变，景色秀丽，能从小中见大、大中见巧、巧中见奇、奇中见幽。 特色3 长坝石林还形成了许多惟妙惟肖的象形景观，如老虎石、雄鹰对峙、鬼脸石、四大金刚、三仙迎客等，极具观赏性。", "sight_content": "石林地质公园主要分布在长坝景区和荆竹园景区，石林出露面积分别为4.9平方平方公里。\n石林是地球上同纬度地区迄今发现的发育最好、生公里、2.3态保持最佳、保存最完整、出露面积最大的极具科普性和观赏性的连片喀斯特石林。\n这里石林与树林交相辉映，美不胜收。长坝石林还形成了许多惟妙惟肖的象形景观，如老虎石、雄鹰对峙、鬼脸石、四大金刚、三仙迎客等，极具观赏性。"}}, {"title": "麻阳河自然保护区", "address": "贵州省铜仁市沿河土家族自治县", "image": "", "rank": 36, "time": 1.0, "location": {"lat": 28.570101680094822, "lng": 108.5104775397904}, "feature": {"sight_features": "", "sight_content": ""}}, {"title": "东山寺", "address": "贵州省铜仁市中心三面绝壁临江小山之上", "image": "", "rank": 37, "time": 1.0, "location": {"lat": 27.674902690624183, "lng": 109.16855802826001}, "feature": {"sight_features": "", "sight_content": ""}}, {"title": "尧上仡佬族文化村", "address": "铜仁市石阡县佛顶山东麓，坪山乡境内", "image": "", "rank": 38, "time": 4.5, "location": {"lat": 27.32966687543036, "lng": 108.15639127846254}, "feature": {"sight_features": "", "sight_content": ""}}, {"title": "南长城", "address": "铜仁市松桃苗族自治县", "image": "", "rank": 39, "time": 1.0, "location": {"lat": 28.16042017901075, "lng": 109.20940351278404}, "feature": {"sight_features": "", "sight_content": ""}}, {"title": "一线天", "address": "贵州省铜仁地区江口县梵净山", "image": "", "rank": 40, "time": 2.5, "location": {"lat": 27.920476717592912, "lng": 108.70329935642678}, "feature": {"sight_features": "", "sight_content": ""}}, {"title": "夜郎谷", "address": "湘黔铁路、320国道、铜(仁)玉(屏)高等级公路之间", "image": "", "rank": 41, "time": 4.0, "location": {"lat": 27.256565251327487, "lng": 111.28158164529765}, "feature": {"sight_features": "", "sight_content": ""}}, {"title": "白马洞休闲园", "address": "贵州省铜仁市清水塘上方", "image": "", "rank": 42, "time": 2, "location": {"lat": 27.307000552182554, "lng": 107.73713625098512}, "feature": {"sight_features": "", "sight_content": ""}}, {"title": "四野屯自然保护区", "address": "贵州省铜仁地区思南县", "image": "", "rank": 43, "time": 1.0, "location": {"lat": 27.848808632524012, "lng": 108.14948017036065}, "feature": {"sight_features": "", "sight_content": ""}}, {"title": "五峰山森林公园", "address": "铜仁市石阡县城东面，距城2.5公里。", "image": "", "rank": 44, "time": 2.5, "location": {"lat": 27.51972205975809, "lng": 108.23046385479006}, "feature": {"sight_features": "", "sight_content": ""}}, {"title": "农夫山泉铜仁工厂", "address": "铜仁市碧江区灯塔大道（靠近九龙大道）", "image": "", "rank": 45, "time": 2, "location": {"lat": 27.742194872331797, "lng": 109.28243390919482}, "feature": {"sight_features": "特色1 走在全透明参观走廊听专业讲解水知识", "sight_content": "农夫山泉武陵山生产基地位于位于贵州省铜仁市碧江区灯塔大道循环经济工业园区，是一家集科研、开发、生产与营销为一体的综合性饮料生产企业，拥有现代化高科技设备、全自动化的生产流程。车间内设有全透明的旅游参观通道，游客不仅可以亲眼目睹农夫山泉天然水的整个生产流程，而且有专业讲解员对每一个车间进行讲解，让游客可以更好的了解我们的生产流程。"}}, {"title": "棉絮岭", "address": "贵州省铜仁地区梵净山", "image": "", "rank": 46, "time": 2, "location": {"lat": 27.72747349774481, "lng": 109.2023727450514}, "feature": {"sight_features": "", "sight_content": ""}}, {"title": "恐龙乐园", "address": "铜仁市碧江区铜兴大道中段", "image": "", "rank": 47, "time": 1.5, "location": {"lat": 27.696773471802057, "lng": 109.18743536171422}, "feature": {"sight_features": "", "sight_content": ""}}, {"title": "民族风情园", "address": "贵州省铜仁市", "image": "", "rank": 48, "time": 2, "location": {"lat": 27.674902690624183, "lng": 109.16855802826001}, "feature": {"sight_features": "", "sight_content": ""}}, {"title": "翻天印", "address": "铜仁市江口县太平乡黑湾河梵净山景区内", "image": "", "rank": 49, "time": 2, "location": {"lat": 27.821203283684362, "lng": 108.81629728284555}, "feature": {"sight_features": "", "sight_content": ""}}, {"title": "万山汞矿遗址", "address": "铜仁朱砂古镇内", "image": "", "rank": 50, "time": 2, "location": {"lat": 27.674902690624183, "lng": 109.16855802826001}, "feature": {"sight_features": "", "sight_content": ""}}, {"title": "茶花泉玉屏现代农业科技展示馆", "address": "铜仁市玉屏侗族自治县朱家场镇茅坡村", "image": "", "rank": 51, "time": 2, "location": {"lat": 27.314791622616337, "lng": 108.93019790209812}, "feature": {"sight_features": "", "sight_content": "玉屏现代农业科技展示馆位朱家场镇茅坡村，分为现代农业展示区、热带植物展示区、热带果树展示区以及创意农业展示区。馆内通过降温系统、加温系统、循环系统、灌溉系统及计算机智能控制系统等现代化智能设备，实现温室内部温度、相对湿度、光照进行调节，在温室内创造出适宜作物生长的环境。馆内多处引用玉屏特色文化元素，馆内构筑物、小品设计多采用钢结构、玻璃、防腐木，同时结合当地侗族民居特色元素，使农业也可以是一种具设计感、时尚感、与室外空间形成鲜明的对比。"}}, {"title": "锦江公园", "address": "铜仁市", "image": "", "rank": 52, "time": 2, "location": {"lat": 27.674902690624183, "lng": 109.16855802826001}, "feature": {"sight_features": "", "sight_content": ""}}, {"title": "火车站广场", "address": "贵州省铜仁市碧江区201省道东150米", "image": "", "rank": 53, "time": 2, "location": {"lat": 27.696773471802057, "lng": 109.18743536171422}, "feature": {"sight_features": "", "sight_content": ""}}, {"title": "沿河乌江山峡百里画廊", "address": "贵州省铜仁市沿河土家族自治县", "image": "", "rank": 54, "time": 2, "location": {"lat": 28.570101680094822, "lng": 108.5104775397904}, "feature": {"sight_features": "", "sight_content": ""}}, {"title": "铜仁东山古建筑群", "address": "贵州省铜仁市东山", "image": "", "rank": 55, "time": 2, "location": {"lat": 27.674902690624183, "lng": 109.16855802826001}, "feature": {"sight_features": "", "sight_content": ""}}, {"title": "乘船夜游乌江", "address": "铜仁市思南县乌江明珠1号趸船（乌江酒店河岸下）", "image": "", "rank": 56, "time": 2, "location": {"lat": 27.959516848251358, "lng": 108.26233690566393}, "feature": {"sight_features": "", "sight_content": ""}}, {"title": "铜仁古城", "address": "铜仁市", "image": "", "rank": 57, "time": 1.5, "location": {"lat": 27.674902690624183, "lng": 109.16855802826001}, "feature": {"sight_features": "", "sight_content": ""}}, {"title": "周和顺盐号", "address": "贵州省思南县安化街，乌江河畔", "image": "", "rank": 58, "time": 0.75, "location": {"lat": 27.945436635402434, "lng": 108.26204563459393}, "feature": {"sight_features": "", "sight_content": ""}}, {"title": "中南门", "address": "贵州省铜仁市", "image": "", "rank": 59, "time": 2, "location": {"lat": 27.674902690624183, "lng": 109.16855802826001}, "feature": {"sight_features": "", "sight_content": ""}}, {"title": "森林公园美食城", "address": "梵净山大道", "image": "", "rank": 60, "time": 2, "location": {"lat": 27.70149208190302, "lng": 109.19263866163323}, "feature": {"sight_features": "", "sight_content": ""}}]}