{"cityName": "团风", "days": 2, "cityImage": "", "spots": [{"title": "大崎山", "address": "黄冈市罗田县", "image": "", "rank": 1, "time": 1.0, "location": {"lat": 30.7889104956853, "lng": 115.40554716749966}, "feature": {"sight_features": "", "sight_content": ""}}, {"title": "林氏三兄弟故居", "address": "黄冈市团风县回龙山镇林家大塆", "image": "", "rank": 2, "time": 1.0, "location": {"lat": 30.644131130465457, "lng": 114.99950181583176}, "feature": {"sight_features": "", "sight_content": ""}}, {"title": "田园童话世界", "address": "黄冈市团风县黄湖移民新村", "image": "", "rank": 3, "time": 2, "location": {"lat": 30.64936776721529, "lng": 114.8785243502255}, "feature": {"sight_features": "", "sight_content": ""}}, {"title": "大崎山特色山庄", "address": "大崎山龙王井附近", "image": "", "rank": 4, "time": 2, "location": {"lat": 30.864674798006636, "lng": 115.11457855688208}, "feature": {"sight_features": "", "sight_content": ""}}, {"title": "慧鸿家庭农场", "address": "回龙山镇乌龙村四组拖船进(乌龙村部)", "image": "", "rank": 5, "time": 2, "location": {"lat": 30.61040706909443, "lng": 114.96008728178423}, "feature": {"sight_features": "", "sight_content": ""}}, {"title": "鑫民生态农庄", "address": "回龙山镇华家大湾", "image": "", "rank": 6, "time": 2, "location": {"lat": 30.612099789904423, "lng": 114.97449327879004}, "feature": {"sight_features": "", "sight_content": ""}}, {"title": "湖北天邦种猪扩繁基地", "address": "308省道北50米", "image": "", "rank": 7, "time": 2, "location": {"lat": 40.33747769696877, "lng": 116.52614205897426}, "feature": {"sight_features": "", "sight_content": ""}}, {"title": "包家祠堂", "address": "黄冈市团风县", "image": "", "rank": 8, "time": 2, "location": {"lat": 30.64936776721529, "lng": 114.8785243502255}, "feature": {"sight_features": "", "sight_content": ""}}, {"title": "团风县青年黄梅戏艺术团", "address": "广场路", "image": "", "rank": 9, "time": 2, "location": {"lat": 39.36754798377137, "lng": 117.89038980393971}, "feature": {"sight_features": "", "sight_content": ""}}, {"title": "绿然葡萄火龙果采摘园", "address": "回龙山镇鹞子胡八组马垅小区往里500米", "image": "", "rank": 10, "time": 2, "location": {"lat": 24.518368346545987, "lng": 118.12412970168057}, "feature": {"sight_features": "", "sight_content": ""}}, {"title": "马曹庙电影院", "address": "黄冈市-团风县-虎山街", "image": "", "rank": 11, "time": 2, "location": {"lat": 30.663601292990084, "lng": 115.02950902508717}, "feature": {"sight_features": "", "sight_content": ""}}, {"title": "暴风影音雷霆点播影院", "address": "黄冈市-团风县-团风镇山河假日酒店雷霆点播影院", "image": "", "rank": 12, "time": 2, "location": {"lat": 30.645119614855233, "lng": 114.88128975139898}, "feature": {"sight_features": "", "sight_content": ""}}, {"title": "回龙山影剧院", "address": "黄冈市-团风县-龙山街", "image": "", "rank": 13, "time": 2, "location": {"lat": 30.621156581048442, "lng": 114.98438937250847}, "feature": {"sight_features": "", "sight_content": ""}}, {"title": "马曹庙天意电影院", "address": "黄冈市-团风县-峨嵋大道", "image": "", "rank": 14, "time": 2, "location": {"lat": 30.64936776721529, "lng": 114.8785243502255}, "feature": {"sight_features": "", "sight_content": ""}}, {"title": "蒋军山", "address": "武汉市-新洲区", "image": "", "rank": 15, "time": 2, "location": {"lat": 30.847243870522625, "lng": 114.80754339289633}, "feature": {"sight_features": "", "sight_content": ""}}, {"title": "林彪故居", "address": "黄冈市团风县回龙山镇林家大湾", "image": "", "rank": 16, "time": 2, "location": {"lat": 30.64177432086811, "lng": 114.99771314223929}, "feature": {"sight_features": "", "sight_content": ""}}]}