{"cityName": "图们", "days": 2, "cityImage": "", "spots": [{"title": "图们口岸", "address": "延边朝鲜族自治州图们市口岸大街", "image": "", "rank": 1, "time": 2.0, "location": {"lat": 42.971426139716534, "lng": 129.85747730352924}, "feature": {"sight_features": "", "sight_content": ""}}, {"title": "图们江广场", "address": "延边朝鲜族自治州图们市图们江畔", "image": "", "rank": 2, "time": 1.0, "location": {"lat": 42.979856510260085, "lng": 130.0602975453182}, "feature": {"sight_features": "", "sight_content": ""}}, {"title": "日光山", "address": "延边朝鲜族自治州图们市东南部", "image": "", "rank": 3, "time": 1.5, "location": {"lat": 42.97428349907469, "lng": 129.85038151374656}, "feature": {"sight_features": "", "sight_content": ""}}, {"title": "中国朝鲜族非物质文化遗产展览馆", "address": "延边朝鲜族自治州图们市图们江公园广场", "image": "", "rank": 4, "time": 2, "location": {"lat": 42.968047561744534, "lng": 129.8617398152758}, "feature": {"sight_features": "", "sight_content": ""}}, {"title": "百年部落", "address": "延边朝鲜族自治州图们市月晴镇白龙村", "image": "", "rank": 5, "time": 2, "location": {"lat": 42.808739706361536, "lng": 129.81480369463384}, "feature": {"sight_features": "", "sight_content": ""}}, {"title": "苏联红军烈士纪念碑", "address": "延边朝鲜族自治州图们市友谊街与明星路交汇处南侧", "image": "", "rank": 6, "time": 0.4, "location": {"lat": 42.97158377238659, "lng": 129.8519816195379}, "feature": {"sight_features": "", "sight_content": ""}}, {"title": "图们博物馆", "address": "延边朝鲜族自治州图们市友谊街872号", "image": "", "rank": 7, "time": 1.0, "location": {"lat": 42.972262158531585, "lng": 129.85241323647102}, "feature": {"sight_features": "", "sight_content": ""}}, {"title": "南阳亭", "address": "延边朝鲜族自治州图们市日光山森林公园内", "image": "", "rank": 8, "time": 0.4, "location": {"lat": 42.92945097617724, "lng": 129.8259803785517}, "feature": {"sight_features": "", "sight_content": ""}}, {"title": "革命烈士纪念碑", "address": "延边朝鲜族自治州图们市郊区南山岗上", "image": "", "rank": 9, "time": 0.4, "location": {"lat": 42.97428349907469, "lng": 129.85038151374656}, "feature": {"sight_features": "", "sight_content": ""}}, {"title": "华严寺", "address": "延边朝鲜族自治州图们市日光山森林公园内", "image": "", "rank": 10, "time": 0.75, "location": {"lat": 42.92945097617724, "lng": 129.8259803785517}, "feature": {"sight_features": "", "sight_content": ""}}, {"title": "图们江奇石博物馆", "address": "延边朝鲜族自治州图们市日光山脚下", "image": "", "rank": 11, "time": 1.0, "location": {"lat": 42.935406582146406, "lng": 129.85680097739552}, "feature": {"sight_features": "", "sight_content": ""}}, {"title": "凉水断桥", "address": "延边朝鲜族自治州图们市凉水镇图们江上", "image": "", "rank": 12, "time": 1.0, "location": {"lat": 42.979856510260085, "lng": 130.0602975453182}, "feature": {"sight_features": "", "sight_content": ""}}, {"title": "老虎岭", "address": "延边朝鲜族自治州图们市日光山森林公园内", "image": "", "rank": 13, "time": 1.5, "location": {"lat": 42.92945097617724, "lng": 129.8259803785517}, "feature": {"sight_features": "", "sight_content": ""}}, {"title": "日光山修行台", "address": "延边朝鲜族自治州图们市日光山森林公园内", "image": "", "rank": 14, "time": 0.25, "location": {"lat": 42.92945097617724, "lng": 129.8259803785517}, "feature": {"sight_features": "", "sight_content": ""}}, {"title": "日光山观狮台", "address": "延边朝鲜族自治州图们市日光山森林公园内", "image": "", "rank": 15, "time": 0.6, "location": {"lat": 42.92945097617724, "lng": 129.8259803785517}, "feature": {"sight_features": "", "sight_content": ""}}, {"title": "日光山露营地", "address": "延边朝鲜族自治州图们市日光山森林公园内", "image": "", "rank": 16, "time": 2, "location": {"lat": 42.92945097617724, "lng": 129.8259803785517}, "feature": {"sight_features": "", "sight_content": ""}}, {"title": "凤梧水库", "address": "延边朝鲜族自治州图们市城里以北凤梧河谷狭窄处", "image": "", "rank": 17, "time": 1.0, "location": {"lat": 42.97428349907469, "lng": 129.85038151374656}, "feature": {"sight_features": "", "sight_content": ""}}, {"title": "淘气宝儿童乐园", "address": "国境路724号南园三区正门旁", "image": "", "rank": 18, "time": 2, "location": {"lat": 42.965481831418096, "lng": 129.85590594980235}, "feature": {"sight_features": "", "sight_content": ""}}, {"title": "图们市图书馆", "address": "友谊街与明星路交叉口北100米", "image": "", "rank": 19, "time": 2, "location": {"lat": 42.972510743015654, "lng": 129.85256316635557}, "feature": {"sight_features": "", "sight_content": ""}}, {"title": "图门景区", "address": "集中村图们江畔图们口岸", "image": "", "rank": 20, "time": 2, "location": {"lat": 42.96465379016898, "lng": 129.86004099020045}, "feature": {"sight_features": "", "sight_content": ""}}, {"title": "图们向上基督教会", "address": "图们大路与新星街交叉口西北100米", "image": "", "rank": 21, "time": 2.0, "location": {"lat": 42.97807534293211, "lng": 129.8614560890737}, "feature": {"sight_features": "", "sight_content": ""}}, {"title": "锦光基督教堂", "address": "图们大路56号附近", "image": "", "rank": 22, "time": 2, "location": {"lat": 42.975912150916905, "lng": 129.8580535233952}, "feature": {"sight_features": "", "sight_content": ""}}, {"title": "曲水基督教会", "address": "吉林省延边朝鲜族自治州图们市月宫街道曲水站南450米", "image": "", "rank": 23, "time": 1.0, "location": {"lat": 42.99827351240997, "lng": 129.8087509067178}, "feature": {"sight_features": "", "sight_content": ""}}, {"title": "图们市光明基督教会", "address": "吉林省延边朝鲜族自治州图们市图们大路人力资源和社会保障局附近", "image": "", "rank": 24, "time": 2, "location": {"lat": 42.97832570078398, "lng": 129.85691126865112}, "feature": {"sight_features": "", "sight_content": ""}}, {"title": "三洞墅", "address": "马小线北50米", "image": "", "rank": 25, "time": 2, "location": {"lat": 28.80965069083366, "lng": 120.11905240873395}, "feature": {"sight_features": "", "sight_content": ""}}, {"title": "文化广场", "address": "石砚火车站北", "image": "", "rank": 26, "time": 1.5, "location": {"lat": 30.16567767483513, "lng": 120.25155029366263}, "feature": {"sight_features": "", "sight_content": ""}}, {"title": "社会福利服务中心", "address": "吉林省延边朝鲜族自治州图们市新华街道南宇胡同社会主义学校东南门", "image": "", "rank": 27, "time": 2, "location": {"lat": 42.96234827987108, "lng": 129.8505299982575}, "feature": {"sight_features": "", "sight_content": ""}}, {"title": "图们公路口岸", "address": "口岸大街(近中朝公路大桥)", "image": "", "rank": 28, "time": 2, "location": {"lat": 26.997395412572327, "lng": 105.74985399700363}, "feature": {"sight_features": "", "sight_content": ""}}, {"title": "庆荣木耳场", "address": "延边朝鲜族自治州-图们市-凉水镇琵琶沟", "image": "", "rank": 29, "time": 2, "location": {"lat": 43.05136269865735, "lng": 129.9496192125703}, "feature": {"sight_features": "", "sight_content": ""}}, {"title": "图们平安教会", "address": "吉林省延边朝鲜族自治州图们市春光路", "image": "", "rank": 30, "time": 2.0, "location": {"lat": 42.97662444559247, "lng": 129.8423531480987}, "feature": {"sight_features": "", "sight_content": ""}}, {"title": "图们", "address": "延边朝鲜族自治州图们江下游左岸", "image": "", "rank": 31, "time": 2.0, "location": {"lat": 42.88766435955777, "lng": 130.2836423459585}, "feature": {"sight_features": "", "sight_content": ""}}]}