{"cityName": "土默特右旗", "days": 2, "cityImage": "", "spots": [{"title": "美岱召", "address": "包头市土默特右旗美岱召镇美岱召村", "image": "", "rank": 1, "time": 1.5, "location": {"lat": 40.61096317869105, "lng": 110.71832274268446}, "feature": {"sight_features": "特色1 是一座“城寺结合，人佛共居”的喇嘛庙。 特色2 它是喇嘛教传入蒙古的一个重要的弘法中心。 特色3 美岱召依山傍水，景色宜人，在建筑上更有独特的风格。", "sight_content": "美岱召位于包头市以东80公里，始建于明朝庆隆年间，它是喇嘛教传入蒙古的一个重要的弘法中心。美岱召依山傍水，景色宜人，在建筑上更有独特的风格。它是仿中原汉式，融合蒙藏风格而建，是一座“城寺结合，人佛共居”的喇嘛庙。总面积约4000平方米，寺内有大量的壁画，如大雄宝殿内释迦牟尼历史壁画及描绘蒙古贵族拜佛的场面的壁画都完好无损，这些对于研究明代蒙古史、佛教史、建筑史、美术史都具有很重要的意义。蒙古民族是一个驍勇善战的民族，成吉思汗大军的铁蹄曾将欧洲的土地碾的粉碎，所向之处披靡，英雄事迹永载史册！成吉思汗的继承者归顺了伊斯兰教，但是它在家乡的子孙接受的是藏传佛教。\n\n明隆庆年间，土默特蒙古部主阿勒坦汗受封顺义王，在土默川上始建城寺。明万历三年（1575年）建成的第一座城寺，取名灵觉寺，后改寿灵寺。朝廷赐名福化城。活佛迈达里胡图克图志在弘传佛教，愿将释迦牟尼创立的一代大教献给生于斯、养于斯的于家乡父老。明万历三十四年（1606年）他来到了草原此传教，主持寿灵寺的宗教活动。由于他的业绩明显，归化者众多，为了纪念他的成就，这座寺名也被人们称之为迈达里庙、迈大力庙或美岱召。美岱召是一处罕见的集寺庙、王府与城池为一体的建筑。寺周围有土筑石包镶的城墙，敦厚结实，可以抵御军队的如雨的炮弹和骑兵的突袭。整个城池略呈长方形，周长681米，四角建有角楼，南墙中部开设城门。供奉佛像的殿堂就在城内，山门匾额题有“皇图巩固，帝道咸宁，万民乐业，四海澄清”之句，落款为“大明金国”，颇为特别。既是“大明”王朝，何来“金国”？我百思不得其解。寺里主体建筑有经堂、大雄宝殿、罗汉堂及观音殿等，殿宇高大雄伟，殿内供奉佛像、菩萨像，并陈列法器，墙面绘有佛传故事和护法神像等内容的壁画。顺义王家族世代居住的楼院在城内深处，太后庙里的檀香木塔，储放着太后骨灰。"}}, {"title": "大雁滩景区", "address": "内蒙古包头市土右旗沟门镇西湾村121号", "image": "", "rank": 2, "time": 2, "location": {"lat": 40.60375528216245, "lng": 110.52397655812719}, "feature": {"sight_features": "", "sight_content": ""}}, {"title": "萨拉齐生态公园", "address": "包头市土默特右旗果园路（近工业大街）", "image": "", "rank": 3, "time": 1.5, "location": {"lat": 40.580578623676146, "lng": 110.52221352576721}, "feature": {"sight_features": "", "sight_content": ""}}, {"title": "七彩大地景区", "address": "内蒙古包头市土默特右旗京藏高速美岱召出口延110国道向东2公里七彩大地", "image": "", "rank": 4, "time": 2, "location": {"lat": 40.6020644832221, "lng": 110.68354730173122}, "feature": {"sight_features": "", "sight_content": ""}}, {"title": "乃春庙", "address": "包头市土默特右旗美岱召城内", "image": "", "rank": 5, "time": 2, "location": {"lat": 40.60807450686463, "lng": 110.71717969922811}, "feature": {"sight_features": "", "sight_content": ""}}, {"title": "大雁滩农家乐戏水乐园", "address": "110国道北大雁滩采摘园里大雁滩农家乐戏水乐园", "image": "", "rank": 6, "time": 2, "location": {"lat": 40.78726856177833, "lng": 114.88132487694102}, "feature": {"sight_features": "", "sight_content": ""}}, {"title": "新村剧场", "address": "杨家圪堵村附近", "image": "", "rank": 7, "time": 2, "location": {"lat": 40.45763773784812, "lng": 110.46329051162049}, "feature": {"sight_features": "", "sight_content": ""}}, {"title": "人民剧场", "address": "沟门镇北只图村", "image": "", "rank": 8, "time": 2, "location": {"lat": 40.70437507751363, "lng": 116.3344337377674}, "feature": {"sight_features": "", "sight_content": ""}}, {"title": "禄原祥农家乐", "address": "大东街63号附近", "image": "", "rank": 9, "time": 2, "location": {"lat": 31.438576955824416, "lng": 121.22459059374673}, "feature": {"sight_features": "", "sight_content": ""}}, {"title": "桑树湾生态农庄", "address": "110国道附近", "image": "", "rank": 10, "time": 2, "location": {"lat": 40.65296617192777, "lng": 108.83908835948142}, "feature": {"sight_features": "", "sight_content": ""}}, {"title": "黄河湿地度假村", "address": "061县道附近", "image": "", "rank": 11, "time": 2, "location": {"lat": 43.224068078932625, "lng": 124.79710948268877}, "feature": {"sight_features": "", "sight_content": ""}}, {"title": "国恩禅寺", "address": "沟门镇北只图村北", "image": "", "rank": 12, "time": 2, "location": {"lat": 31.351943995839463, "lng": 120.69679254510558}, "feature": {"sight_features": "", "sight_content": ""}}, {"title": "高乐迪儿童王国", "address": "一一零国道北边顺天泉商务宾馆正北100米左右", "image": "", "rank": 13, "time": 2, "location": {"lat": 39.77134582792185, "lng": 112.14546487003247}, "feature": {"sight_features": "", "sight_content": ""}}, {"title": "欢乐岛儿童乐园", "address": "包头市土默特右旗振华大街包头百货大楼(振华大街)3层", "image": "", "rank": 14, "time": 2, "location": {"lat": 40.57400353761063, "lng": 110.52512590050178}, "feature": {"sight_features": "", "sight_content": ""}}, {"title": "土默特右旗佳禾民俗文化度假村", "address": "包头土默特右旗110国道美岱召西500米路北（美岱桥对面）", "image": "", "rank": 15, "time": 1.5, "location": {"lat": 40.60807450686463, "lng": 110.71268817167822}, "feature": {"sight_features": "", "sight_content": ""}}, {"title": "金豪客智勇大冲关儿童乐园", "address": "土默特右旗其他包百香谢丽步行街口金豪客二楼", "image": "", "rank": 16, "time": 2, "location": {"lat": 40.57512742910827, "lng": 110.53038926651871}, "feature": {"sight_features": "", "sight_content": ""}}, {"title": "观音寺", "address": "内蒙古自治区包头市土默特右旗", "image": "", "rank": 17, "time": 2.0, "location": {"lat": 40.57512742910827, "lng": 110.53038926651871}, "feature": {"sight_features": "", "sight_content": ""}}, {"title": "国防教育展厅", "address": "振华大街", "image": "", "rank": 18, "time": 2, "location": {"lat": 40.57491545741557, "lng": 110.53087980420855}, "feature": {"sight_features": "", "sight_content": ""}}, {"title": "动物园", "address": "大南街", "image": "", "rank": 19, "time": 2, "location": {"lat": 37.60129405281043, "lng": 112.3833991286129}, "feature": {"sight_features": "", "sight_content": ""}}, {"title": "土默特右旗图书馆", "address": "振华大街", "image": "", "rank": 20, "time": 1.5, "location": {"lat": 40.57491545741557, "lng": 110.53087980420855}, "feature": {"sight_features": "", "sight_content": ""}}, {"title": "敕勒川绿农", "address": "果园路7号", "image": "", "rank": 21, "time": 2, "location": {"lat": 36.171274337909225, "lng": 120.43026414776915}, "feature": {"sight_features": "", "sight_content": ""}}, {"title": "土右旗文化馆", "address": "工业路", "image": "", "rank": 22, "time": 2, "location": {"lat": 37.972498014598386, "lng": 114.5628770819088}, "feature": {"sight_features": "", "sight_content": ""}}, {"title": "普晶农业", "address": "萨拉齐镇萨拉齐南门友谊市场", "image": "", "rank": 23, "time": 2, "location": {"lat": 40.55891308303747, "lng": 110.52756472450369}, "feature": {"sight_features": "", "sight_content": ""}}, {"title": "现代城家装艺术街", "address": "内蒙古自治区土默特右旗振华大街", "image": "", "rank": 24, "time": 2, "location": {"lat": 40.57491545741557, "lng": 110.53087980420855}, "feature": {"sight_features": "", "sight_content": ""}}, {"title": "下大圐圙", "address": "包头市-土默特右旗", "image": "", "rank": 25, "time": 2, "location": {"lat": 40.57512742910827, "lng": 110.53038926651871}, "feature": {"sight_features": "", "sight_content": ""}}, {"title": "美岱桥民俗馆", "address": "包头市-土默特右旗-萨拉齐镇110国道南200米", "image": "", "rank": 26, "time": 2, "location": {"lat": 40.60069503737086, "lng": 110.66558119153167}, "feature": {"sight_features": "", "sight_content": ""}}]}