{"cityName": "土默特左旗", "days": 2, "cityImage": "", "spots": [{"title": "哈素海码头", "address": "呼和浩特市土默特左旗哈素海国家湿地公园", "image": "", "rank": 1, "time": 2, "location": {"lat": 40.60860167443888, "lng": 110.9832823949732}, "feature": {"sight_features": "特色1 碧波荡漾，微风轻拂，山青柳翠", "sight_content": "哈素海面积约30平方公里，它的水质肥沃，盛产草鱼、鲢鱼、鲤鱼、鲫鱼、河蟹等水产品。哈素海码头占地面积为4000平方米，建筑分为上下两层，整体造型酷似现代游艇。主要功能有，水上项目售票厅、休息大厅、游客接待中心、超市、医务室、母婴室、无障碍卫生间和普通卫生间等。其中水上项目售票厅是各类船只和水上娱乐项目的售卖点。海上碧波荡漾，微风轻拂，山青柳翠，颇有人间仙境之感。离老远便看见一艘画舫从西头行驶过来，而画舫上张灯结彩，顶上漆着红漆，船柱雕梁画凤，当其驶近，才发现船上张灯结彩个个人物都刻画得栩栩如生，呼之欲出。船上游客或凭或立，身着美裳三三两两聚集在一起，谈笑风生……。\n它是一艘观光型电动游船，满载乘客人数分为60人或40人两种，船行航线为荻花线，往返时间为一小时左右。船行舒缓平稳适用于团队接待或在节假日散客高峰乘坐。在浩淼的大海上，披荆斩棘犹如一艘喷气式飞机，划开碧海，直插水天相连的云端，留下一条白色的水痕，惊险刺激莫过于此。\n它是一艘娱乐型游船，满载乘客人数分别为7人、12人；船行航线为荻花线，往返时间为20分钟左右。船行速度极快，适用于喜好刺激的人群乘坐。"}}, {"title": "伊利工业园区", "address": "呼和浩特市土默特左旗金四路8号", "image": "", "rank": 2, "time": 2.5, "location": {"lat": 40.8035697995605, "lng": 111.5768147205368}, "feature": {"sight_features": "", "sight_content": ""}}, {"title": "哈素海", "address": "呼和浩特市土默特左旗西70公里", "image": "", "rank": 3, "time": 1.5, "location": {"lat": 40.7352937117589, "lng": 110.5407728697391}, "feature": {"sight_features": "", "sight_content": ""}}, {"title": "哈素海冰雪世界", "address": "呼和浩特市土默特左旗哈素海国家湿地公园", "image": "", "rank": 4, "time": 2, "location": {"lat": 40.60860167443888, "lng": 110.9832823949732}, "feature": {"sight_features": "", "sight_content": ""}}, {"title": "哈素海天鹅堡温泉", "address": "呼和浩特市土默特左旗哈素海国家湿地公园", "image": "", "rank": 5, "time": 2, "location": {"lat": 40.60860167443888, "lng": 110.9832823949732}, "feature": {"sight_features": "特色1 温泉水源于地下3368米 特色2 温泉养生、休闲娱乐、按摩、美食、餐饮", "sight_content": "刺勒川地区天鹅堡温泉是呼包鄂及周边地区大型极具特色的温泉养生胜地。天鹅堡温泉总面积达6万多平方米。天鹅堡温泉自地下3368米，出水温度52度，温泉类型属于氯化钠泉，品质良好。\n天鹅堡温泉分为室内温泉和室外温泉两大部分共计大小泡池90余个，室内根据各区域不同的功效划分成八大区域，功能区、戏水区、SPA情侣区、万国药浴区、溶洞区、VIP私密汤屋区、泳池区和静泡区。\n一层为温泉大空间，楼上分别为休闲娱乐中心，自助餐厅，温泉客房中心等，为客人提供养生，休闲，餐饮，住宿等多重度假体验。此外，天鹅堡温泉还有80多个独立的温泉汤屋。"}}, {"title": "土默特博物馆", "address": "呼和浩特市土默特左旗敕勒川大街", "image": "", "rank": 6, "time": 1.5, "location": {"lat": 40.72666856967642, "lng": 111.11687881172242}, "feature": {"sight_features": "", "sight_content": ""}}, {"title": "哈素海戏水乐园", "address": "呼和浩特市土默特左旗哈素海景区", "image": "", "rank": 7, "time": 2, "location": {"lat": 40.60860167443888, "lng": 110.9832823949732}, "feature": {"sight_features": "特色1 多种娱乐项目任您游玩 特色2 是华北地区较大的海洋主题室内戏水乐园。 特色3 水相融，释放生活的压力，享受自然的快乐。", "sight_content": "哈素海戏水乐园位于敕勒川草原文化旅游区内，距离呼和浩特65公里，包头85公里，通过G6高速、110国道仅需1小时车程，为家庭周末出游提供了一个好去处。\n是华北地区最大的海洋主题室内戏水乐园之一，总面积约4万多平方米，室内常年恒温，为游客提供舒适清凉的亲水体验。戏水乐园游乐设施齐全，内蒙古地区独一无二的眼镜蛇滑道为游客提供新鲜、刺激的感官体验；长达400米的漂流河道，可开展冲浪、滑道、漂流等各种戏水项目；巨兽碗、蛟龙滑道、彩虹滑道让您体验水上的速度与激情；造浪池让您与水相拥，与水相融，释放生活的压力，享受自然的快乐。\n戏水乐园突显海洋主题，海底世界主题大门，让您感受迎面而来的海洋气息；美人鱼、章鱼、海盗船等造型随处可见，让您仿佛置身童话海洋王国。宏伟的玛雅水寨、章鱼滑梯、童趣的蘑菇造型，为孩子们提供一个游乐、运动、趣味、安全于一体的综合性水上乐园。戏水乐园打造绿色生态回归、游园戏水、休闲度假等于一身的水上乐园，在丰富自身经营的同时，结合园区整体项目给您带来“可览、可观、可参与“的环境景观，为游客展现独特、饱满的愉悦体验。"}}, {"title": "青山公园", "address": "呼和浩特市土默特左旗台阁牧镇", "image": "", "rank": 8, "time": 1.5, "location": {"lat": 40.7352937117589, "lng": 111.16958672672367}, "feature": {"sight_features": "", "sight_content": ""}}, {"title": "边宁古寺", "address": "呼和浩特市土默特左旗台阁牧镇", "image": "", "rank": 9, "time": 1.0, "location": {"lat": 40.7352937117589, "lng": 111.16958672672367}, "feature": {"sight_features": "", "sight_content": ""}}, {"title": "敕勒川草原文化旅游区", "address": "呼和浩特市土默特左旗西南侧", "image": "", "rank": 10, "time": 2, "location": {"lat": 40.7352937117589, "lng": 111.16958672672367}, "feature": {"sight_features": "", "sight_content": ""}}, {"title": "花海情人谷", "address": "呼和浩特市土默特左旗金盛路云计算总部西南2公里", "image": "", "rank": 11, "time": 2, "location": {"lat": 40.65502834854427, "lng": 111.77605479218123}, "feature": {"sight_features": "", "sight_content": ""}}, {"title": "敕勒川民俗博物馆", "address": "呼和浩特市土默特左旗台阁牧乡达尔架村", "image": "", "rank": 12, "time": 1.0, "location": {"lat": 40.7352937117589, "lng": 111.16958672672367}, "feature": {"sight_features": "", "sight_content": ""}}, {"title": "幕马堂马术俱乐部", "address": "把什村口北1000米", "image": "", "rank": 13, "time": 2, "location": {"lat": 34.03941842485731, "lng": 119.72125072737973}, "feature": {"sight_features": "", "sight_content": ""}}, {"title": "采摘园", "address": "110国道34公里处", "image": "", "rank": 14, "time": 2, "location": {"lat": 40.65296617192777, "lng": 108.83908835948142}, "feature": {"sight_features": "", "sight_content": ""}}, {"title": "察素齐", "address": "呼和浩特市土默特左旗", "image": "", "rank": 15, "time": 2, "location": {"lat": 40.7352937117589, "lng": 111.16958672672367}, "feature": {"sight_features": "", "sight_content": ""}}, {"title": "人民影剧院", "address": "沙尔沁乡西此老村委会附近", "image": "", "rank": 16, "time": 2, "location": {"lat": 40.53752987394167, "lng": 111.67712448901146}, "feature": {"sight_features": "", "sight_content": ""}}, {"title": "小公园乾安人文纪念园", "address": "内蒙古自治区呼和浩特市土默特左旗察素齐镇人民银行巷白塔寺(中蒙医院南)", "image": "", "rank": 17, "time": 2, "location": {"lat": 40.71938007711972, "lng": 111.13991025109941}, "feature": {"sight_features": "", "sight_content": ""}}, {"title": "佛教居士林", "address": "中山北路附近", "image": "", "rank": 18, "time": 1.0, "location": {"lat": 23.004333847652227, "lng": 113.9949492006287}, "feature": {"sight_features": "", "sight_content": ""}}, {"title": "锦川度假村", "address": "026县道附近", "image": "", "rank": 19, "time": 2, "location": {"lat": 40.53873065177745, "lng": 111.1010501485177}, "feature": {"sight_features": "", "sight_content": ""}}, {"title": "东梁山庄", "address": "110国道附近", "image": "", "rank": 20, "time": 2, "location": {"lat": 40.65296617192777, "lng": 108.83908835948142}, "feature": {"sight_features": "", "sight_content": ""}}, {"title": "土默特左旗文物馆", "address": "内蒙古自治区土默特左旗察素齐镇人民路 010100", "image": "", "rank": 21, "time": 1.5, "location": {"lat": 40.717621509295704, "lng": 111.14145269645667}, "feature": {"sight_features": "", "sight_content": ""}}, {"title": "宏塔寺", "address": "内蒙古自治区呼和浩特市土默特左旗S103", "image": "", "rank": 22, "time": 2, "location": {"lat": 40.7352937117589, "lng": 111.16958672672367}, "feature": {"sight_features": "", "sight_content": ""}}, {"title": "淘气堡儿童乐园", "address": "呼和浩特市土默特左旗", "image": "", "rank": 23, "time": 2, "location": {"lat": 40.7352937117589, "lng": 111.16958672672367}, "feature": {"sight_features": "", "sight_content": ""}}, {"title": "贝智家儿童乐园", "address": "内蒙古自治区呼和浩特市土默特左旗金海路", "image": "", "rank": 24, "time": 2, "location": {"lat": 40.79772793767296, "lng": 111.56061375233318}, "feature": {"sight_features": "", "sight_content": ""}}, {"title": "嘟嘟儿童乐园", "address": "内蒙古自治区呼和浩特市土默特左旗丰林路", "image": "", "rank": 25, "time": 2.5, "location": {"lat": 40.79065041757116, "lng": 111.56611059873184}, "feature": {"sight_features": "", "sight_content": ""}}, {"title": "星期六水上主题乐园", "address": "金川开发区锦东商厦转盘向西100米路北", "image": "", "rank": 26, "time": 2, "location": {"lat": 40.80046673428483, "lng": 111.55842288221135}, "feature": {"sight_features": "", "sight_content": ""}}, {"title": "土默特左旗瑞海度假村", "address": "哈素海度假村码头南500米路东100米(近桥头)", "image": "", "rank": 27, "time": 1.5, "location": {"lat": 43.097392324253015, "lng": 129.77811759918296}, "feature": {"sight_features": "", "sight_content": ""}}, {"title": "红果果儿童乐园", "address": "开发区维多利超市对面移动营业厅二楼", "image": "", "rank": 28, "time": 2, "location": {"lat": 40.825608288172106, "lng": 111.7347780061335}, "feature": {"sight_features": "", "sight_content": ""}}, {"title": "儿童乐园", "address": "金三道金厦广场3楼", "image": "", "rank": 29, "time": 2, "location": {"lat": 40.80266792463156, "lng": 111.56824840774382}, "feature": {"sight_features": "", "sight_content": ""}}, {"title": "体育公园", "address": "敕勒川大街北150米", "image": "", "rank": 30, "time": 1.0, "location": {"lat": 40.82275059853764, "lng": 111.76348701570657}, "feature": {"sight_features": "", "sight_content": ""}}, {"title": "公园路与光明南路交叉口", "address": "内蒙古自治区呼和浩特市土默特左旗", "image": "", "rank": 31, "time": 2, "location": {"lat": 40.7352937117589, "lng": 111.16958672672367}, "feature": {"sight_features": "", "sight_content": ""}}, {"title": "呼和浩特瑞海度假村", "address": "土默特左旗哈素海度假村码头南500米路东100米", "image": "", "rank": 32, "time": 2.5, "location": {"lat": 40.60860167443888, "lng": 110.9832823949732}, "feature": {"sight_features": "", "sight_content": ""}}, {"title": "哈素海旅游渡假村", "address": "内蒙古自治区呼和浩特近郊土默特左旗哈素", "image": "", "rank": 33, "time": 2, "location": {"lat": 40.6313101890519, "lng": 110.99937633767635}, "feature": {"sight_features": "", "sight_content": ""}}, {"title": "金川文化广场", "address": "内蒙古自治区呼和浩特市回民区金三道附近", "image": "", "rank": 34, "time": 1.0, "location": {"lat": 40.80461158105317, "lng": 111.57207586384376}, "feature": {"sight_features": "", "sight_content": ""}}, {"title": "土默特左旗图书馆", "address": "人民路", "image": "", "rank": 35, "time": 1.5, "location": {"lat": 23.37490057686854, "lng": 103.40661159663834}, "feature": {"sight_features": "", "sight_content": ""}}, {"title": "长青甘露草莓采摘基地", "address": "兵州亥村(金山开发区金山大道西端国家现代农业示范基地南边)", "image": "", "rank": 36, "time": 2, "location": {"lat": 45.340998070755326, "lng": 131.06965579480718}, "feature": {"sight_features": "", "sight_content": ""}}, {"title": "小博士水上乐园", "address": "金川开发区电力城1号楼", "image": "", "rank": 37, "time": 2, "location": {"lat": 20.02682678828379, "lng": 110.30192833298302}, "feature": {"sight_features": "", "sight_content": ""}}, {"title": "金山开发区锦秀田园", "address": "金山开发区新医学院西3公里(金山大道牛牛营村)", "image": "", "rank": 38, "time": 2, "location": {"lat": 40.7628940150842, "lng": 111.48300528918877}, "feature": {"sight_features": "", "sight_content": ""}}, {"title": "内蒙古民天农业果蔬产业经济园", "address": "后红岱村", "image": "", "rank": 39, "time": 2, "location": {"lat": 40.68069033113097, "lng": 111.35190610426575}, "feature": {"sight_features": "", "sight_content": ""}}, {"title": "特特采摘园", "address": "110国道兵州亥收费站向西2公里五里坡村内", "image": "", "rank": 40, "time": 2, "location": {"lat": 40.74846154824533, "lng": 111.34003114861059}, "feature": {"sight_features": "", "sight_content": ""}}, {"title": "祥和剧场", "address": "023县道附近", "image": "", "rank": 41, "time": 2, "location": {"lat": 44.26720306239666, "lng": 126.17066469051773}, "feature": {"sight_features": "", "sight_content": ""}}, {"title": "大衆剧场", "address": "大衆\\剧场附近", "image": "", "rank": 42, "time": 2, "location": {"lat": 23.100931760317003, "lng": 113.27528273950196}, "feature": {"sight_features": "", "sight_content": ""}}, {"title": "讨尔号钓鱼大棚", "address": "讨尔号大东营村", "image": "", "rank": 43, "time": 2, "location": {"lat": 40.73277553784261, "lng": 111.55253813132398}, "feature": {"sight_features": "", "sight_content": ""}}, {"title": "呼和浩特市蒙骏马术俱乐部", "address": "沙尔沁镇呼和浩特市蒙骏马术俱乐部", "image": "", "rank": 44, "time": 2.5, "location": {"lat": 40.5606629615643, "lng": 111.67702118387783}, "feature": {"sight_features": "", "sight_content": ""}}, {"title": "少儿艺术团", "address": "乌兰大街", "image": "", "rank": 45, "time": 2, "location": {"lat": 40.72550194335148, "lng": 111.13964298275255}, "feature": {"sight_features": "", "sight_content": ""}}, {"title": "贾力更烈士故居", "address": "内蒙古自治区土默特左旗察素齐镇把什村", "image": "", "rank": 46, "time": 2, "location": {"lat": 40.73753735809815, "lng": 111.09789912544983}, "feature": {"sight_features": "", "sight_content": ""}}, {"title": "旧窝铺", "address": "呼和浩特市-土默特左旗", "image": "", "rank": 47, "time": 2, "location": {"lat": 40.7352937117589, "lng": 111.16958672672367}, "feature": {"sight_features": "", "sight_content": ""}}]}