{"cityName": "托克逊", "days": 2, "cityImage": "", "spots": [{"title": "克尔碱旅游区", "address": "吐鲁番市托克逊县", "image": "", "rank": 1, "time": 2, "location": {"lat": 42.79854583102295, "lng": 88.66016435954114}, "feature": {"sight_features": "", "sight_content": ""}}, {"title": "白杨河魔鬼城", "address": "新疆维吾尔自治区托克逊县距县城28公里 838100", "image": "", "rank": 2, "time": 2, "location": {"lat": 42.79854583102295, "lng": 88.66016435954114}, "feature": {"sight_features": "", "sight_content": ""}}, {"title": "新南寺", "address": "吐鲁番市托克逊县", "image": "", "rank": 3, "time": 2, "location": {"lat": 42.79854583102295, "lng": 88.66016435954114}, "feature": {"sight_features": "", "sight_content": ""}}, {"title": "清真寺", "address": "北大街附近", "image": "", "rank": 4, "time": 1.0, "location": {"lat": 39.865658405513635, "lng": 116.29212178217878}, "feature": {"sight_features": "", "sight_content": ""}}, {"title": "托克逊县三间房度假村", "address": "托克逊县S301玉奇欧依买里斯东南侧200米", "image": "", "rank": 5, "time": 2, "location": {"lat": 42.791616042199514, "lng": 88.55663599571682}, "feature": {"sight_features": "", "sight_content": ""}}, {"title": "艾雨乃再尔度假村", "address": "新疆维吾尔自治区吐鲁番市托克逊县S301", "image": "", "rank": 6, "time": 2, "location": {"lat": 42.79854583102295, "lng": 88.66016435954114}, "feature": {"sight_features": "", "sight_content": ""}}, {"title": "白杨河公园", "address": "白杨河大桥边", "image": "", "rank": 7, "time": 2, "location": {"lat": 30.594329076318644, "lng": 117.48682656561624}, "feature": {"sight_features": "", "sight_content": ""}}, {"title": "文化图书馆", "address": "县人民医院旁", "image": "", "rank": 8, "time": 2, "location": {"lat": 36.49238756712366, "lng": 114.95489451180069}, "feature": {"sight_features": "", "sight_content": ""}}, {"title": "垂吉尔塔格山岩画", "address": "城西北55公里处", "image": "", "rank": 9, "time": 2, "location": {"lat": 37.03166648683104, "lng": 101.77241422413312}, "feature": {"sight_features": "", "sight_content": ""}}, {"title": "博斯坦葡萄园", "address": "071乡道附近", "image": "", "rank": 10, "time": 2, "location": {"lat": 41.03196352981676, "lng": 117.27779874529557}, "feature": {"sight_features": "", "sight_content": ""}}, {"title": "华视步行街", "address": "新疆维吾尔自治区托克逊县北大街", "image": "", "rank": 11, "time": 2, "location": {"lat": 42.81124979969927, "lng": 88.66186000102178}, "feature": {"sight_features": "", "sight_content": ""}}, {"title": "托克逊杏花园", "address": "吐鲁番市托克逊县079县道", "image": "", "rank": 12, "time": 2, "location": {"lat": 42.79854583102295, "lng": 88.66016435954114}, "feature": {"sight_features": "", "sight_content": ""}}]}