{"cityName": "突泉", "days": 2, "cityImage": "", "spots": [{"title": "突泉温泉滑雪场", "address": "兴安盟突泉县宝石镇双城水库东岸", "image": "", "rank": 1, "time": 2, "location": {"lat": 45.824320928223635, "lng": 121.23059998467498}, "feature": {"sight_features": "", "sight_content": ""}}, {"title": "宝石山滑雪场", "address": "内蒙古兴安盟市突泉县宝石镇宝城村", "image": "", "rank": 2, "time": 2, "location": {"lat": 45.80624548475345, "lng": 121.2487856093006}, "feature": {"sight_features": "", "sight_content": ""}}, {"title": "兴安盟突泉县天主教会", "address": "内蒙古自治区兴安盟突泉县巴乌线突泉镇中心小学东南800米", "image": "", "rank": 3, "time": 2, "location": {"lat": 45.377674627703435, "lng": 121.57080220683778}, "feature": {"sight_features": "", "sight_content": ""}}, {"title": "古惑仔休闲广场", "address": "利民街附近", "image": "", "rank": 4, "time": 2, "location": {"lat": 38.12574363710372, "lng": 114.47100436358836}, "feature": {"sight_features": "", "sight_content": ""}}, {"title": "明星水库旅游度假村", "address": "巴乌线附近", "image": "", "rank": 5, "time": 2, "location": {"lat": 46.0651361595891, "lng": 122.06157705112575}, "feature": {"sight_features": "", "sight_content": ""}}, {"title": "明星湖旅游度假村", "address": "内蒙古自治区兴安盟突泉县", "image": "", "rank": 6, "time": 2, "location": {"lat": 45.387830342585495, "lng": 121.60054536996837}, "feature": {"sight_features": "", "sight_content": ""}}, {"title": "开心农家乐", "address": "突泉镇彩虹街西过11线300米路北", "image": "", "rank": 7, "time": 2, "location": {"lat": 24.66970925996662, "lng": 118.46497350969337}, "feature": {"sight_features": "", "sight_content": ""}}, {"title": "突泉县振兴商贸城", "address": "内蒙古自治区突泉县康乐街振兴路", "image": "", "rank": 8, "time": 2, "location": {"lat": 45.389853198008176, "lng": 121.57440755420548}, "feature": {"sight_features": "", "sight_content": ""}}]}