{"cityName": "瓦房店", "days": 2, "cityImage": "", "spots": [{"title": "香洲旅游度假区", "address": "大连市瓦房店市谢屯镇", "image": "", "rank": 1, "time": 4.5, "location": {"lat": 39.448038958034665, "lng": 121.52760678828763}, "feature": {"sight_features": "特色1 汇聚了世界各地的特色洗浴", "sight_content": "香洲旅游度假区分为欢乐水王国、香洲温泉公园、香之洲大观园和未来世界游乐场四个板块。每个板块都有自己特色的主题。 欢乐水王国以“水”为主题，其中包含大型的水上游乐器械和水上表演项目，让游客感受刺激的同时又能观看的精彩的表演。 香洲温泉公园以温泉为主题，其中有上百种的温泉洗浴和不同种类的理疗项目，游客可以在温泉公园里尽情的放松身心，享受舒适。\n农业大观园则带有浓厚的田园色彩，美轮美奂的薰衣草田，带有地方风土人情特色的民俗村，以可爱动物为主的宠爱世界，说不尽的游玩场所让您每一秒都感到新奇，每一分都感到愉悦。 未来世界游乐场内有冰天雪地滑冰滑雪场，不分冬夏，一年四季都可以享受冰雪所带来的美妙感受。"}}, {"title": "长兴岛", "address": "大连市瓦房店市西侧，辽东半岛中西部", "image": "", "rank": 2, "time": 3.0, "location": {"lat": 39.63274074738802, "lng": 121.98563754334361}, "feature": {"sight_features": "", "sight_content": ""}}, {"title": "西中岛", "address": "大连市瓦房店市西中岛", "image": "", "rank": 3, "time": 1.0, "location": {"lat": 39.45083427998646, "lng": 121.31942117878937}, "feature": {"sight_features": "", "sight_content": ""}}, {"title": "永丰塔", "address": "大连市瓦房店市复州城镇永丰寺东侧", "image": "", "rank": 4, "time": 0.15000000000000002, "location": {"lat": 39.737669545431444, "lng": 121.72430807297668}, "feature": {"sight_features": "", "sight_content": ""}}, {"title": "横山书院", "address": "大连市瓦房店市复州城西街", "image": "", "rank": 5, "time": 1.0, "location": {"lat": 39.73459609597778, "lng": 121.72315168519198}, "feature": {"sight_features": "", "sight_content": ""}}, {"title": "复州古城", "address": "大连市瓦房店市复州城镇", "image": "", "rank": 6, "time": 3.0, "location": {"lat": 39.735099442769794, "lng": 121.73713905386407}, "feature": {"sight_features": "", "sight_content": ""}}, {"title": "东山公园", "address": "大连市瓦房店市铁东办事处公园路高尔夫俱乐部旁", "image": "", "rank": 7, "time": 2, "location": {"lat": 39.62384628921528, "lng": 122.0189653802387}, "feature": {"sight_features": "", "sight_content": ""}}, {"title": "仙浴湾海滨浴场", "address": "大连市瓦房店市仙浴镇仙浴湾旅游渡假区内", "image": "", "rank": 8, "time": 2.5, "location": {"lat": 39.715462064994135, "lng": 121.51290303714086}, "feature": {"sight_features": "", "sight_content": ""}}, {"title": "凤鸣岛", "address": "大连市瓦房店市西南44公里的渤海域", "image": "", "rank": 9, "time": 7.5, "location": {"lat": 39.95211779221927, "lng": 121.63831553676181}, "feature": {"sight_features": "", "sight_content": ""}}, {"title": "铁道博物馆", "address": "大连市瓦房店市双西线", "image": "", "rank": 10, "time": 2.0, "location": {"lat": 39.74897060444272, "lng": 121.87784754847145}, "feature": {"sight_features": "", "sight_content": ""}}, {"title": "65589部队军史馆", "address": "大连市瓦房店市拥军街39号65589部队", "image": "", "rank": 11, "time": 0.75, "location": {"lat": 39.635136946037036, "lng": 122.04073509742521}, "feature": {"sight_features": "", "sight_content": ""}}, {"title": "仙浴湾旅游渡假区", "address": "大连市瓦房店市仙浴镇胜利村", "image": "", "rank": 12, "time": 3.0, "location": {"lat": 39.68112074000345, "lng": 121.62651523927755}, "feature": {"sight_features": "", "sight_content": ""}}, {"title": "骆驼山海滨森林公园", "address": "大连市瓦房店市驼山乡", "image": "", "rank": 13, "time": 2, "location": {"lat": 39.81226959632135, "lng": 121.66033543113454}, "feature": {"sight_features": "", "sight_content": ""}}, {"title": "将军石温泉", "address": "大连市瓦房店市西杨乡渤海村", "image": "", "rank": 14, "time": 2, "location": {"lat": 39.92100997016473, "lng": 121.69658370595445}, "feature": {"sight_features": "特色1 夏有海滨，冬有温泉 特色2 集餐饮客房温泉等为一体的综合型度假酒店。 特色3 这里夏有海滨，冬有温泉，并结合度假区的垂钓、采摘、生态花卉配有高尔夫俱乐部、滑雪场、骑马练习场、帆船帆板基地、游艇码头水产品、农副产品等系列外卖商品，体闲旅游资源非常丰富这里有山水，空气，温泉，绿色美食等众多养生优势", "sight_content": "将军石温泉会馆建筑面积： 14,000 ㎡，能容纳 1200人同时洗浴，内设有温泉客房22间、男、女宾室内外温泉泡池26个、汗蒸广场、游泳池、儿童戏水区、休息大厅、 自助餐厅、棋牌室、SPA按摩、各类软饮吧、红酒雪茄吧等。\n\n\n将军石海洋温泉源自大海的深处2200米，渊源流淌，经年不息，是优质的海底温泉。这里的温泉水水质清澈，出水口水温常年保持在42℃-45℃之间，水质中性温和。"}}, {"title": "新龙门风吕温泉", "address": "大连市瓦房店市李官镇龙门汤温泉度假区", "image": "", "rank": 15, "time": 2, "location": {"lat": 40.039554902505884, "lng": 121.99511799739071}, "feature": {"sight_features": "", "sight_content": ""}}, {"title": "罗马假日温泉", "address": "大连市瓦房店许屯镇沈大高速李官下道口右转东行8公里", "image": "", "rank": 16, "time": 2.0, "location": {"lat": 40.011556369100184, "lng": 122.15907245481563}, "feature": {"sight_features": "", "sight_content": ""}}, {"title": "观海寺", "address": "大连市瓦房店市仙浴湾镇仙浴湾景区内", "image": "", "rank": 17, "time": 0.75, "location": {"lat": 39.7154537099206, "lng": 121.51296346705082}, "feature": {"sight_features": "", "sight_content": ""}}, {"title": "龙凤滩海滨浴场", "address": "大连市瓦房店市驼山乡", "image": "", "rank": 18, "time": 3.0, "location": {"lat": 39.81226959632135, "lng": 121.66033543113454}, "feature": {"sight_features": "", "sight_content": ""}}, {"title": "金斗湖风景区", "address": "大连市瓦房店市太阳升乡东那线", "image": "", "rank": 19, "time": 3.0, "location": {"lat": 39.77355447568325, "lng": 121.8970681450106}, "feature": {"sight_features": "", "sight_content": ""}}, {"title": "西屏山", "address": "大连市瓦房店市驼山乡", "image": "", "rank": 20, "time": 2.5, "location": {"lat": 39.81226959632135, "lng": 121.66033543113454}, "feature": {"sight_features": "", "sight_content": ""}}, {"title": "玉兔岛海水温泉度假村", "address": "大连瓦房店市复州湾滨海大道玉兔岛", "image": "", "rank": 21, "time": 2, "location": {"lat": 39.644725228644816, "lng": 121.53335674843323}, "feature": {"sight_features": "特色1 海岛原生态的花草树木和舒适宜人的沙滩浴场", "sight_content": "玉兔岛，位于金州区西北部海域、复州湾西侧的渤海湾内，总面积50公顷，其地理位置独特，自然环境优美。玉兔岛度假村酒店按超星级标准设计建造，整体装修为古典、豪华的欧式风格，五星级的服务，给客人舒适和奢华的享受。\n海岛原生态的花草树木和舒适宜人的沙滩浴场，是海岛旅游度假地之一。"}}, {"title": "将军石滑雪场", "address": "大连市瓦房店市滨海公路", "image": "", "rank": 22, "time": 2, "location": {"lat": 39.923214261931314, "lng": 121.69493737695478}, "feature": {"sight_features": "", "sight_content": ""}}, {"title": "涌泉寺", "address": "大连市瓦房店市龙山村", "image": "", "rank": 23, "time": 0.75, "location": {"lat": 39.698027382673914, "lng": 122.02526790337467}, "feature": {"sight_features": "", "sight_content": ""}}, {"title": "颐和温泉山庄", "address": "大连市瓦房店市许屯镇龙门汤村", "image": "", "rank": 24, "time": 2, "location": {"lat": 40.02649084212213, "lng": 122.1557379815931}, "feature": {"sight_features": "", "sight_content": ""}}, {"title": "荷花湾生态园", "address": "大连市瓦房店市金普新区炮台街道小刘村", "image": "", "rank": 25, "time": 2, "location": {"lat": 39.50425871546019, "lng": 121.74048815868672}, "feature": {"sight_features": "", "sight_content": ""}}, {"title": "伊甸园美门温泉", "address": "大连市瓦房店市三台乡政府西侧伊甸园内", "image": "", "rank": 26, "time": 2, "location": {"lat": 39.64557370205929, "lng": 121.60954757588962}, "feature": {"sight_features": "", "sight_content": ""}}, {"title": "悦龙温泉山庄", "address": "大连市瓦房店市许屯镇龙门汤村", "image": "", "rank": 27, "time": 2, "location": {"lat": 40.02649084212213, "lng": 122.1557379815931}, "feature": {"sight_features": "", "sight_content": ""}}, {"title": "金沙湾度假村", "address": "近郊长兴岛海滨公园", "image": "", "rank": 28, "time": 2, "location": {"lat": 39.62741222297969, "lng": 121.46199753890805}, "feature": {"sight_features": "", "sight_content": ""}}, {"title": "双悦湾度假村", "address": "滨海路西50米", "image": "", "rank": 29, "time": 2, "location": {"lat": 39.11012042376985, "lng": 117.3619713900049}, "feature": {"sight_features": "", "sight_content": ""}}, {"title": "聚阳益度假村", "address": "交西线", "image": "", "rank": 30, "time": 2, "location": {"lat": 39.416302367315716, "lng": 121.37612985368446}, "feature": {"sight_features": "", "sight_content": ""}}, {"title": "观海渔家海鲜烧烤店", "address": "临港工业区交流岛街道洪西头村", "image": "", "rank": 31, "time": 2, "location": {"lat": 39.4194030968051, "lng": 121.27381298096245}, "feature": {"sight_features": "", "sight_content": ""}}, {"title": "香洲度假区欢乐水王国", "address": "谢屯镇", "image": "", "rank": 32, "time": 2, "location": {"lat": 39.448038958034665, "lng": 121.52760678828763}, "feature": {"sight_features": "", "sight_content": ""}}, {"title": "云栖禅寺", "address": "大连市瓦房店市谢屯镇花园村黑灵山麓", "image": "", "rank": 33, "time": 0.75, "location": {"lat": 39.48632794740267, "lng": 121.4808771521502}, "feature": {"sight_features": "", "sight_content": ""}}, {"title": "尊豪假日温泉", "address": "大连市瓦房店市许屯镇龙门汤旅游度假区", "image": "", "rank": 34, "time": 2, "location": {"lat": 40.03267032875243, "lng": 122.13191211675532}, "feature": {"sight_features": "", "sight_content": ""}}, {"title": "玉泉苑温泉", "address": "大连市瓦房店市许屯镇温泉度假区", "image": "", "rank": 35, "time": 2, "location": {"lat": 40.011556369100184, "lng": 122.15907245481563}, "feature": {"sight_features": "", "sight_content": "玉泉苑温泉坐落在瓦房店市龙门度假区，位于许屯镇腰屯村，温泉宾馆环境典雅别致，大厅的左侧是干净整洁的温泉洗浴中心，内设有大型男女温泉桑拿浴池、游泳馆。洗浴中心二楼提供休息大厅，理疗棋牌室， KTV包房等，在泡汤之余也可以满足娱乐休闲的需要。"}}, {"title": "鸿鑫水岸温泉", "address": "大连市瓦房店市龙门汤温泉旅游开发区（李官高速下道口右转直走8公里）", "image": "", "rank": 36, "time": 2, "location": {"lat": 39.63274074738802, "lng": 121.98563754334361}, "feature": {"sight_features": "特色1 具有大型水上娱乐、戏水项目和按摩技师", "sight_content": "鸿鑫水岸温泉有水上娱乐戏水项目、洗浴、大小野浴泡池，红酒浴，人参浴，老姜浴，玫瑰花浴等，还可以划船、游泳。"}}, {"title": "瓦房店逸景阁度假村", "address": "辽宁省大连市瓦房店市李官镇华铜村", "image": "", "rank": 37, "time": 2, "location": {"lat": 40.05170702652606, "lng": 122.01139327563733}, "feature": {"sight_features": "", "sight_content": ""}}, {"title": "游乐园", "address": "金座电子城二楼", "image": "", "rank": 38, "time": 2, "location": {"lat": 39.112041196875495, "lng": 121.72580566055001}, "feature": {"sight_features": "", "sight_content": ""}}, {"title": "缘泉温泉会馆", "address": "许屯镇英歌岭村桃树沟1号", "image": "", "rank": 39, "time": 2, "location": {"lat": 40.00737511949051, "lng": 122.14873385580299}, "feature": {"sight_features": "", "sight_content": ""}}, {"title": "北海人家休闲农家院", "address": "西杨乡车家村", "image": "", "rank": 40, "time": 3.0, "location": {"lat": 39.89638267311778, "lng": 121.71335970059064}, "feature": {"sight_features": "", "sight_content": ""}}, {"title": "白石湾度假村", "address": "驼山乡泡子村排石屯", "image": "", "rank": 41, "time": 2, "location": {"lat": 39.872679147352585, "lng": 121.65928136124575}, "feature": {"sight_features": "", "sight_content": ""}}, {"title": "碧云山庄别墅度假村", "address": "李官镇海滨浴场(太平湾浴场)", "image": "", "rank": 42, "time": 2, "location": {"lat": 35.29989712328287, "lng": 118.42777729354394}, "feature": {"sight_features": "", "sight_content": ""}}, {"title": "根雕展", "address": "胡仙堂附近", "image": "", "rank": 43, "time": 2, "location": {"lat": 37.83318675687879, "lng": 120.76021056054958}, "feature": {"sight_features": "", "sight_content": ""}}, {"title": "瓦房店市展览中心", "address": "德林街3段8号", "image": "", "rank": 44, "time": 2.5, "location": {"lat": 39.635477419353165, "lng": 122.00561361391836}, "feature": {"sight_features": "", "sight_content": ""}}, {"title": "金斗湖绿色休闲垂钓园", "address": "东那线", "image": "", "rank": 45, "time": 2, "location": {"lat": 39.77355447568325, "lng": 121.8970681450106}, "feature": {"sight_features": "", "sight_content": ""}}, {"title": "瓦房店博物馆", "address": "南共济街一段8号", "image": "", "rank": 46, "time": 2.5, "location": {"lat": 39.62735663381568, "lng": 122.0069913432824}, "feature": {"sight_features": "", "sight_content": ""}}, {"title": "碧中海温泉会馆", "address": "长兴岛三堂街322号明珠家园正门", "image": "", "rank": 47, "time": 2, "location": {"lat": 39.60738169414117, "lng": 121.46679530868767}, "feature": {"sight_features": "", "sight_content": ""}}, {"title": "幕思温泉", "address": "安波镇幕思温泉", "image": "", "rank": 48, "time": 2, "location": {"lat": 44.97485663870472, "lng": 81.03114554648644}, "feature": {"sight_features": "", "sight_content": ""}}, {"title": "八里垂钓园", "address": "212省道附近", "image": "", "rank": 49, "time": 2, "location": {"lat": 40.390563512510504, "lng": 116.26044547726889}, "feature": {"sight_features": "", "sight_content": ""}}, {"title": "银沙滩一心温泉海景度假村", "address": "李官镇龙王庙村龙王庙南行30米道右侧", "image": "", "rank": 50, "time": 2, "location": {"lat": 40.09663089521833, "lng": 121.94381620539404}, "feature": {"sight_features": "", "sight_content": ""}}, {"title": "大连可以玩更种职业的地方", "address": "五一路一段939号", "image": "", "rank": 51, "time": 1.5, "location": {"lat": 39.62524295453569, "lng": 122.00511793792101}, "feature": {"sight_features": "", "sight_content": ""}}, {"title": "熊猫旅行", "address": "瓦房店仙洞街", "image": "", "rank": 52, "time": 2, "location": {"lat": 39.63453088540404, "lng": 121.99460794491198}, "feature": {"sight_features": "", "sight_content": ""}}, {"title": "闻涛阁休闲山庄", "address": "交流岛街道桑屯村洪西头浴场10-3号", "image": "", "rank": 53, "time": 2, "location": {"lat": 39.42135941783294, "lng": 121.27691570663458}, "feature": {"sight_features": "", "sight_content": ""}}, {"title": "万家乐", "address": "洪西头村丽丽农家院东北20米", "image": "", "rank": 54, "time": 2, "location": {"lat": 39.4194030968051, "lng": 121.27381298096245}, "feature": {"sight_features": "", "sight_content": ""}}, {"title": "小甜地乐园", "address": "辽宁省大连市瓦房店市谢屯镇前进银湖路香洲田园水上乐园", "image": "", "rank": 55, "time": 2, "location": {"lat": 39.47964227950801, "lng": 121.5654047766547}, "feature": {"sight_features": "", "sight_content": ""}}, {"title": "蓝宝童儿童乐园", "address": "长兴岛楼区临港工业区荡底街5-10号", "image": "", "rank": 56, "time": 2, "location": {"lat": 31.0325793268347, "lng": 119.91749832197264}, "feature": {"sight_features": "", "sight_content": ""}}, {"title": "白云观", "address": "元台镇白云山", "image": "", "rank": 57, "time": 1.0, "location": {"lat": 39.59839375526144, "lng": 122.19986340939609}, "feature": {"sight_features": "", "sight_content": ""}}, {"title": "棒棒糖儿童乐园", "address": "大连市瓦房店市", "image": "", "rank": 58, "time": 2, "location": {"lat": 39.63274074738802, "lng": 121.98563754334361}, "feature": {"sight_features": "", "sight_content": ""}}, {"title": "长兴岛体育公园", "address": "景翠路与水秀街交叉口东北50米", "image": "", "rank": 59, "time": 2, "location": {"lat": 39.62066878668741, "lng": 121.47137823253505}, "feature": {"sight_features": "", "sight_content": ""}}, {"title": "观音寺娘娘宫", "address": "辽宁省大连市瓦房店市海山线", "image": "", "rank": 60, "time": 2, "location": {"lat": 39.57740047866116, "lng": 121.51870662343049}, "feature": {"sight_features": "", "sight_content": ""}}]}