{"cityName": "万安", "days": "", "cityImage": "", "spots": [{"title": "花花世界", "address": "江西省吉安市万安县枧头镇上木塘村", "image": "", "rank": 1, "time": 2, "location": {"lat": 26.54441186307084, "lng": 114.87039094415543}, "feature": {"sight_features": "特色1 美丽、生态、创意、智慧、多彩休闲农谷 特色2 阳光氤氲，千花百卉争明媚", "sight_content": "花花世界位于吉安市万安县枧头镇，占地面积3000亩,总投资12亿元,一期投资4亿元,景区主题以主题观光旅游、农业主题休闲、创意农业展示、智慧农业研发、农业科普度假、乡村休闲度假等六大功能定位为发展方向，将旅游的吃、住、行、游、购、娱六大要素融于一体，打造以花卉为主题的综合度假园区。现呈现给观众的由郁金香、风信子、三色堇、羽衣甘蓝、金盏菊、雏菊、杜鹃、一串红、月季、茶梅等花卉近千亩400余万株的多彩花海，其中镶嵌有三角梅、桂花、樱花、红白玉兰等乔木品种，凤凰、风车、蝴蝶、花仙子、卡通人物和动物点缀其中，显得多姿多彩。花海中建有花之语、花之趣、花之恋、花之梦、蝶之舞、蝶之梦、凤之羽、熊出没、天鹅之吻等休闲小广场，让游客有休息和摄影的场所；儿童乐园布置着儿童玩耍的设施，使儿童流连忘返。\n1.花海区域：面积800亩，栽种各种颜色草花和木本花，呈现立体丰满视觉效果。其中安置几个大型风车，形成独特荷兰风情视觉效果，花海核心区在分别点缀5-6组绢花造型或者卡通造型动物，以供游客拍摄留念。\n\n2.风车区：根据花花世界的丘陵地形地貌，花为大地艺术，视为静态，大小风车安装点缀在花海中间，风一吹，风车转动，视为动态，加上风车的鲜亮丰富的色彩与花海景区相互映衬，使景区充满色彩，富有动感。同时作为花海休闲的延伸产品，现场也可以销售各种风车和风筝，让小朋友可以在花海中游戏跑动，放飞梦想、转动快乐！\n3.气球区：在山头的观光广场平台上，设置一个气球区，地面一组小型气球造景，以供拍照互动，再引进一个可以坐人的大型热气球，可供游客乘坐，坐上热气球，观望四周，周边美景一览无余，给游客一个高空美景的视觉体验。花花世界热气球体验区，热气球的丰富色彩与花海相互映衬，起伏丘陵的天际线加上热气球本身就构成花花世界一个亮点，同时也提供给游客从未体验过的热气球升空刺激感受。\n\n\n4.儿童游乐区：通过招商引进儿童城堡和游玩设施，让游园小朋友有游玩游戏的地方，从而留住大人的脚步。"}}, {"title": "万安水电站", "address": "江西省吉安市万安县赣江万安段", "image": "", "rank": 2, "time": 2.0, "location": {"lat": 26.465096955432802, "lng": 114.77984509227268}, "feature": {"sight_features": "", "sight_content": ""}}, {"title": "古城墙", "address": "吉安市万安县沿江路35号", "image": "", "rank": 3, "time": 2.0, "location": {"lat": 26.467568229159426, "lng": 114.78144955780674}, "feature": {"sight_features": "", "sight_content": ""}}, {"title": "万安田北农民画村", "address": "高陂镇田北农民画村", "image": "", "rank": 4, "time": 1.0, "location": {"lat": 26.60736602527793, "lng": 114.68728948572736}, "feature": {"sight_features": "", "sight_content": ""}}, {"title": "梁书中国画艺术馆", "address": "芙蓉大道梁书中国画艺术馆", "image": "", "rank": 5, "time": 2, "location": {"lat": 26.478036184694155, "lng": 114.78151111302688}, "feature": {"sight_features": "", "sight_content": ""}}, {"title": "万安博物馆", "address": "吉安市万安县五云路428号", "image": "", "rank": 6, "time": 2.5, "location": {"lat": 26.473503892047727, "lng": 114.78626160588422}, "feature": {"sight_features": "", "sight_content": ""}}, {"title": "万安县图书馆", "address": "凤凰路1号", "image": "", "rank": 7, "time": 2, "location": {"lat": 31.756706438017467, "lng": 119.99871232651874}, "feature": {"sight_features": "", "sight_content": ""}}, {"title": "万安农业综合开发建筑队(西南门)", "address": "杨万路附近", "image": "", "rank": 8, "time": 2, "location": {"lat": 30.893907153240587, "lng": 104.34128312999286}, "feature": {"sight_features": "", "sight_content": ""}}, {"title": "野生动物繁殖基地", "address": "680乡道", "image": "", "rank": 9, "time": 2, "location": {"lat": 31.966184828256452, "lng": 119.75051680225039}, "feature": {"sight_features": "", "sight_content": ""}}, {"title": "祠堂门口", "address": "吉安市万安县", "image": "", "rank": 10, "time": 2, "location": {"lat": 26.464072836340645, "lng": 114.79257715893954}, "feature": {"sight_features": "", "sight_content": ""}}, {"title": "灵山古刹", "address": "江西省吉安市万安县南苑小区28", "image": "", "rank": 11, "time": 1.0, "location": {"lat": 26.459353555266247, "lng": 114.79544730612776}, "feature": {"sight_features": "", "sight_content": ""}}, {"title": "贤居寺", "address": "江西省吉安市万安县", "image": "", "rank": 12, "time": 2, "location": {"lat": 26.464072836340645, "lng": 114.79257715893954}, "feature": {"sight_features": "", "sight_content": ""}}, {"title": "田北农民画家村景区", "address": "江西省吉安市万安县G105(京珠线)", "image": "", "rank": 13, "time": 2, "location": {"lat": 26.464072836340645, "lng": 114.79257715893954}, "feature": {"sight_features": "", "sight_content": ""}}, {"title": "芙蓉山庄", "address": "芙蓉镇假日酒店", "image": "", "rank": 14, "time": 2, "location": {"lat": 40.21541443901067, "lng": 117.96414884831275}, "feature": {"sight_features": "", "sight_content": ""}}, {"title": "水梦水上乐园", "address": "吉安市万安县万安东大道西侧万安湖院内", "image": "", "rank": 15, "time": 2, "location": {"lat": 26.447954599001818, "lng": 114.81529782053481}, "feature": {"sight_features": "", "sight_content": "水梦水上乐园是万安一家大型室内水上游泳馆，场馆拥有恒温游泳池、泡池、桑拿房、健身、休息室、贵宾棋牌室等多个主题功能场馆，一站统享。场馆四季恒温，老少皆宜，场馆内科学、专业、时尚、潮流的多功能健康运动平台，将彻底颠覆传统的健康养生理念，理想中的室内温泉，将在这里给您精彩呈现！"}}, {"title": "万安县城市规划展示馆", "address": "城市新区建设管理委员会办公室旁边", "image": "", "rank": 16, "time": 2, "location": {"lat": 39.22461386119426, "lng": 117.1426323168879}, "feature": {"sight_features": "", "sight_content": ""}}, {"title": "文化馆城南分馆", "address": "五云路38号", "image": "", "rank": 17, "time": 2, "location": {"lat": 26.465146703146253, "lng": 114.79598049715963}, "feature": {"sight_features": "", "sight_content": ""}}, {"title": "康克清纪念馆", "address": "五云路428号", "image": "", "rank": 18, "time": 2, "location": {"lat": 26.473503892047727, "lng": 114.78626160588422}, "feature": {"sight_features": "", "sight_content": ""}}, {"title": "海川休闲生态园", "address": "创业大道7号附近", "image": "", "rank": 19, "time": 2, "location": {"lat": 29.933787484842686, "lng": 121.8485217899119}, "feature": {"sight_features": "", "sight_content": ""}}, {"title": "蜀江漂流", "address": "高陂镇蜀水河", "image": "", "rank": 20, "time": 2, "location": {"lat": 26.65556225038387, "lng": 114.60083762078122}, "feature": {"sight_features": "", "sight_content": ""}}, {"title": "丰园生态葡萄采摘园", "address": "105国道下东村下东小学南行1000米", "image": "", "rank": 21, "time": 2, "location": {"lat": 26.607505682210128, "lng": 114.63562001011607}, "feature": {"sight_features": "", "sight_content": ""}}, {"title": "南蓬山", "address": "吉安市-万安县", "image": "", "rank": 22, "time": 2, "location": {"lat": 26.464072836340645, "lng": 114.79257715893954}, "feature": {"sight_features": "", "sight_content": ""}}, {"title": "固山古寺", "address": "吉安市-万安县", "image": "", "rank": 23, "time": 2, "location": {"lat": 26.464072836340645, "lng": 114.79257715893954}, "feature": {"sight_features": "", "sight_content": ""}}, {"title": "夏江村", "address": "吉安市-万安县", "image": "", "rank": 24, "time": 2, "location": {"lat": 26.464072836340645, "lng": 114.79257715893954}, "feature": {"sight_features": "", "sight_content": ""}}, {"title": "凤凰花海", "address": "吉安市万安县枧头镇上木塘村", "image": "", "rank": 25, "time": 0.75, "location": {"lat": 26.54441186307084, "lng": 114.87039094415543}, "feature": {"sight_features": "", "sight_content": ""}}]}