{"cityName": "汪清", "days": 2, "cityImage": "", "spots": [{"title": "汪清县博物馆", "address": "延边朝鲜族自治州汪清县汪清镇汪清街东967号", "image": "", "rank": 1, "time": 1.0, "location": {"lat": 43.31634986090802, "lng": 129.78463038509642}, "feature": {"sight_features": "", "sight_content": ""}}, {"title": "标志公园", "address": "延边朝鲜族自治州汪清县柳河子村", "image": "", "rank": 2, "time": 1.0, "location": {"lat": 43.3184508338646, "lng": 129.7776087962472}, "feature": {"sight_features": "", "sight_content": ""}}, {"title": "马村抗日游击根据地", "address": "延边朝鲜族自治州汪清县东光乡东林村东南约4华里处的板石山东边", "image": "", "rank": 3, "time": 2, "location": {"lat": 43.28923424456254, "lng": 129.9190353208216}, "feature": {"sight_features": "", "sight_content": ""}}, {"title": "尖山战斗遗址纪念碑", "address": "延边朝鲜族自治州汪清县明月沟村东1公里", "image": "", "rank": 4, "time": 1.0, "location": {"lat": 43.309199092459664, "lng": 129.87116024005718}, "feature": {"sight_features": "", "sight_content": ""}}, {"title": "腰营子抗日游击根据地", "address": "延边朝鲜族自治州汪清中部鸡冠乡腰营沟和塘石河子沟", "image": "", "rank": 5, "time": 1.0, "location": {"lat": 43.547609715761844, "lng": 129.81769608566404}, "feature": {"sight_features": "", "sight_content": ""}}, {"title": "罗子沟农场", "address": "122乡道附近", "image": "", "rank": 6, "time": 2, "location": {"lat": 43.60004526255713, "lng": 123.87409392372564}, "feature": {"sight_features": "", "sight_content": ""}}, {"title": "德馨园", "address": "吉林省延边朝鲜族自治州汪清县清林路南122号附近", "image": "", "rank": 7, "time": 2, "location": {"lat": 43.31996186120639, "lng": 129.77109500333324}, "feature": {"sight_features": "", "sight_content": ""}}, {"title": "汪清兰家大峡谷国家森林公园", "address": "延边朝鲜族自治州汪清县", "image": "", "rank": 8, "time": 2, "location": {"lat": 43.3184508338646, "lng": 129.7776087962472}, "feature": {"sight_features": "", "sight_content": ""}}, {"title": "华鑫旅游度假山庄", "address": "吉林省汪清县百草沟镇 133212", "image": "", "rank": 9, "time": 2, "location": {"lat": 43.26857396655259, "lng": 129.61658606665074}, "feature": {"sight_features": "", "sight_content": ""}}, {"title": "孩儿乐主题乐园", "address": "新民街中心市场二楼", "image": "", "rank": 10, "time": 2, "location": {"lat": 29.16218021561565, "lng": 107.10125055774436}, "feature": {"sight_features": "", "sight_content": ""}}, {"title": "汪清县普门寺", "address": "汪清县江北社区北山", "image": "", "rank": 11, "time": 2, "location": {"lat": 43.3184508338646, "lng": 129.7776087962472}, "feature": {"sight_features": "", "sight_content": ""}}, {"title": "金盛渡假村", "address": "满天星滑雪场西300米", "image": "", "rank": 12, "time": 2, "location": {"lat": 43.19023264223159, "lng": 129.6760555227341}, "feature": {"sight_features": "", "sight_content": ""}}, {"title": "华鑫旅游度假会议中心", "address": "石永线华鑫矿业北200米", "image": "", "rank": 13, "time": 2, "location": {"lat": 41.129089833526955, "lng": 117.8023517614006}, "feature": {"sight_features": "", "sight_content": ""}}, {"title": "金色世纪广场", "address": "汪清街88号附近", "image": "", "rank": 14, "time": 2, "location": {"lat": 43.905847613424704, "lng": 125.34301268245405}, "feature": {"sight_features": "", "sight_content": ""}}, {"title": "百草沟基督教会", "address": "202省道附近", "image": "", "rank": 15, "time": 2, "location": {"lat": 37.77792504283699, "lng": 114.12616671611477}, "feature": {"sight_features": "", "sight_content": ""}}, {"title": "满天星国家森林公园", "address": "延边朝鲜族自治州汪清县141乡道汪延公路", "image": "", "rank": 16, "time": null, "location": {"lat": 43.19986835365932, "lng": 129.6458972661021}, "feature": {"sight_features": "", "sight_content": ""}}, {"title": "童长荣烈士陵园", "address": "东光镇庙沟村汪复线", "image": "", "rank": 17, "time": 2, "location": {"lat": 43.320827623594134, "lng": 130.3974455080839}, "feature": {"sight_features": "", "sight_content": ""}}, {"title": "育德贤美术书法艺术工作室", "address": "大星路北99-5号", "image": "", "rank": 18, "time": 2, "location": {"lat": 43.31889731794965, "lng": 129.78061075360043}, "feature": {"sight_features": "", "sight_content": ""}}, {"title": "开心哈乐室内儿童乐园", "address": "金色世纪广场南侧门市", "image": "", "rank": 19, "time": 2, "location": {"lat": 43.32188257222729, "lng": 129.77586880183028}, "feature": {"sight_features": "", "sight_content": ""}}, {"title": "天星湖乐园", "address": "百草沟镇满天星国家森林公园", "image": "", "rank": 20, "time": 2, "location": {"lat": 43.1861757450273, "lng": 129.66703336709037}, "feature": {"sight_features": "", "sight_content": ""}}, {"title": "满天星滑雪场", "address": "百草沟镇满天星国家森林公园内", "image": "", "rank": 21, "time": 2, "location": {"lat": 43.1861757450273, "lng": 129.66703336709037}, "feature": {"sight_features": "", "sight_content": ""}}, {"title": "新浪网络", "address": "爱家花园正门对面(近文化大院)", "image": "", "rank": 22, "time": 2, "location": {"lat": 30.97679689105913, "lng": 121.75719586773126}, "feature": {"sight_features": "", "sight_content": ""}}, {"title": "大兴沟林业局图书馆", "address": "兴旺街北200米", "image": "", "rank": 23, "time": 2, "location": {"lat": 38.21476377224616, "lng": 114.33965045156171}, "feature": {"sight_features": "", "sight_content": ""}}, {"title": "汪清县档案局", "address": "汪清街东967号", "image": "", "rank": 24, "time": 2, "location": {"lat": 43.31634986090802, "lng": 129.78463038509642}, "feature": {"sight_features": "", "sight_content": ""}}, {"title": "二十七林班", "address": "延边朝鲜族自治州-汪清县", "image": "", "rank": 25, "time": 2, "location": {"lat": 43.3184508338646, "lng": 129.7776087962472}, "feature": {"sight_features": "", "sight_content": ""}}, {"title": "霍家营村", "address": "延边朝鲜族自治州-汪清县-汪罗线", "image": "", "rank": 26, "time": 2, "location": {"lat": 43.649120963252024, "lng": 130.04938018333667}, "feature": {"sight_features": "", "sight_content": ""}}]}