{"cityName": "望奎", "days": 2, "cityImage": "", "spots": [{"title": "妙象山温泉水上游乐城", "address": "绥化市望奎县S304省道候柱中学东南1500米路西", "image": "", "rank": 1, "time": 2, "location": {"lat": 46.718964058414606, "lng": 126.68644457582482}, "feature": {"sight_features": "", "sight_content": ""}}, {"title": "皮影展厅", "address": "中央大街86号", "image": "", "rank": 2, "time": 2, "location": {"lat": 46.321705766014, "lng": 129.5667673206614}, "feature": {"sight_features": "", "sight_content": ""}}, {"title": "文宝斋画廊", "address": "供水小区一楼", "image": "", "rank": 3, "time": 2, "location": {"lat": 46.84300343498215, "lng": 126.4772828001852}, "feature": {"sight_features": "", "sight_content": ""}}, {"title": "聚星书画苑", "address": "和文明路七星语言学校附近", "image": "", "rank": 4, "time": 2, "location": {"lat": 46.84315695579812, "lng": 126.49116247999281}, "feature": {"sight_features": "", "sight_content": ""}}, {"title": "庙山公园", "address": "黑龙江省绥化望奎县庙山公园", "image": "", "rank": 5, "time": null, "location": {"lat": 46.72025679164927, "lng": 126.68028714070665}, "feature": {"sight_features": "", "sight_content": ""}}, {"title": "梦林源开心农场", "address": "166县道附近", "image": "", "rank": 6, "time": 2, "location": {"lat": 46.92981101303701, "lng": 126.96610154380144}, "feature": {"sight_features": "", "sight_content": ""}}, {"title": "妙象山温泉", "address": "卫星镇", "image": "", "rank": 7, "time": 2, "location": {"lat": 46.736611892967254, "lng": 126.69425561801393}, "feature": {"sight_features": "", "sight_content": ""}}, {"title": "超级明星", "address": "望奎镇正大街金街院里", "image": "", "rank": 8, "time": 2, "location": {"lat": 45.9947085626327, "lng": 126.61016445410536}, "feature": {"sight_features": "", "sight_content": ""}}, {"title": "妙象山滑雪场", "address": "卫星镇妙象山温泉水上乐园(304省道绥望公路28公里处)", "image": "", "rank": 9, "time": 2, "location": {"lat": 44.985761215322995, "lng": 80.95079553217987}, "feature": {"sight_features": "", "sight_content": ""}}, {"title": "灵山寺", "address": "交通街南50米", "image": "", "rank": 10, "time": 1.0, "location": {"lat": 43.18638471526058, "lng": 124.36341970061274}, "feature": {"sight_features": "", "sight_content": ""}}, {"title": "火狐里休闲广场。", "address": "奋斗路285号附近", "image": "", "rank": 11, "time": 2, "location": {"lat": 45.778167468399474, "lng": 131.03692702887344}, "feature": {"sight_features": "", "sight_content": ""}}, {"title": "林枫同志故居纪念馆", "address": "望奎镇林枫路1号", "image": "", "rank": 12, "time": 2, "location": {"lat": 46.83675950093068, "lng": 126.49597556677969}, "feature": {"sight_features": "", "sight_content": ""}}, {"title": "冰雪欢乐谷", "address": "绥化望奎之间红光寺对面", "image": "", "rank": 13, "time": 2, "location": {"lat": 46.71029992606551, "lng": 126.69078258026818}, "feature": {"sight_features": "", "sight_content": ""}}, {"title": "满亿农业", "address": "奋斗路与广场街交叉口东50米", "image": "", "rank": 14, "time": 2, "location": {"lat": 46.842802706031726, "lng": 126.48928751247813}, "feature": {"sight_features": "", "sight_content": ""}}, {"title": "后水五村济源绿色生态园", "address": "后水五村内", "image": "", "rank": 15, "time": 2, "location": {"lat": 28.304937862275867, "lng": 106.61345858916818}, "feature": {"sight_features": "", "sight_content": ""}}, {"title": "刘秧子屯", "address": "绥化市-望奎县-一七零县道", "image": "", "rank": 16, "time": 2, "location": {"lat": 46.837222315226164, "lng": 126.49011047441007}, "feature": {"sight_features": "", "sight_content": ""}}, {"title": "满族风情园", "address": "黑龙江省绥化市望奎县", "image": "", "rank": 17, "time": 1.5, "location": {"lat": 46.83916760174942, "lng": 126.4923848941308}, "feature": {"sight_features": "", "sight_content": ""}}, {"title": "红光寺", "address": "黑龙江省绥化市望奎县", "image": "", "rank": 18, "time": 2, "location": {"lat": 46.83916760174942, "lng": 126.4923848941308}, "feature": {"sight_features": "", "sight_content": ""}}]}