{"cityName": "万宁", "days": "2", "cityImage": "", "spots": [{"title": "兴隆热带植物园", "address": "万宁市兴隆镇南部223国道", "image": "", "rank": 1, "time": 2.5, "location": {"lat": 18.748379906101484, "lng": 110.21611320764318}, "feature": {"sight_features": "特色1 环境优美，可以看到各类珍稀的植物。 特色2 幽幽果香，清新世界令人流连忘返 特色3 以绿色植物为主线，依托特色热带植物资源", "sight_content": "兴隆热带植物园始建于1957年，颇有历史。它地处万宁东郊，风景秀丽，热带植物种类丰富，还可观赏到“见血封喉”等珍稀植物资源。葱葱的绿海，幽幽的果香，漫步其中非常舒服。走进兴隆热带植物园，便如同打开了一本关于热带植物的百科全书，且有许多一般植物园内见不到的奇花异木，如可可树、铁西瓜等。这里还汇集有胡椒、香草兰等热带经济作物和榴莲、山竹子等果树。园区休息接待品尝处还免费提供园区自研自产的兴隆咖啡、可可系列饮品及各式名茶，如苦丁茶、糯米香茶等。如果觉得好喝，有需要的话，可以到里面的超市购茶，买回去当特产还是不错的。"}}, {"title": "东山岭文化旅游区", "address": "万宁市万城镇以东2公里处", "image": "", "rank": 2, "time": 4.0, "location": {"lat": 18.801384666335174, "lng": 110.40257864952697}, "feature": {"sight_features": "特色1 海南古老悠久的佛教圣地", "sight_content": "东山岭位于万宁市郊，海拨184米，山虽然不算高，景色却十分奇特。有奇洞幽谷，摩崖石刻，还是海南历史悠久的佛教圣地。从东山岭的山谷到山脊，到处耸立着形态各异的峭岩和大大小小的山石，有的像船，有的像鹰，栩栩如生。崖壁上还有许多先人游览时留下的摩崖石刻，甚至可追溯到晋朝时期。东山岭佛教文化源远流长，唐宋时期就建有寺庵，其中潮音寺人气颇高，是为纪念南宋抗金名将李纲而修建的，一年四季游客络绎不绝，香火鼎盛。"}}, {"title": "神州半岛", "address": "万宁市东澳镇神州半岛旅游区", "image": "", "rank": 3, "time": 1.0, "location": {"lat": 18.816918489809055, "lng": 110.39102317173871}, "feature": {"sight_features": "", "sight_content": ""}}, {"title": "石梅湾", "address": "万宁市兴隆镇海田路附近", "image": "", "rank": 4, "time": 3.0, "location": {"lat": 18.753673318445475, "lng": 110.22775574470991}, "feature": {"sight_features": "", "sight_content": ""}}, {"title": "石梅湾加井岛", "address": "万宁市石梅湾艾美度假酒店南2公里", "image": "", "rank": 5, "time": 4.0, "location": {"lat": 18.658118714273776, "lng": 110.29178532472734}, "feature": {"sight_features": "", "sight_content": ""}}, {"title": "大洲岛", "address": "万宁市东南部海面", "image": "", "rank": 6, "time": 3.5, "location": {"lat": 18.800106988303387, "lng": 110.39943436554806}, "feature": {"sight_features": "", "sight_content": ""}}, {"title": "兴隆温泉", "address": "万宁市温泉大道8号", "image": "", "rank": 7, "time": 3.0, "location": {"lat": 18.75286941507771, "lng": 110.22271459971506}, "feature": {"sight_features": "", "sight_content": ""}}, {"title": "兴隆热带花园", "address": "万宁市兴隆华侨农场南旺水库区", "image": "", "rank": 8, "time": 2.5, "location": {"lat": 18.753797741684746, "lng": 110.21769990442766}, "feature": {"sight_features": "", "sight_content": ""}}, {"title": "日月湾海门游览区", "address": "万宁市礼纪镇日月湾南海渔村文化旅游区", "image": "", "rank": 9, "time": 3.0, "location": {"lat": 18.632711793018494, "lng": 110.2242518555609}, "feature": {"sight_features": "", "sight_content": ""}}, {"title": "海南天涯热带雨林博物馆", "address": "万宁市兴隆华侨农场工业大道合口旅游区1号", "image": "", "rank": 10, "time": 2.5, "location": {"lat": 18.7354611930315, "lng": 110.21127874567831}, "feature": {"sight_features": "", "sight_content": ""}}, {"title": "兴隆海航康乐大剧场", "address": "万宁市兴隆旅游度假区剧场路", "image": "", "rank": 11, "time": 4.5, "location": {"lat": 18.76041431344662, "lng": 110.23633818339687}, "feature": {"sight_features": "特色1 气质的美、才艺的美、服装的美、肌肤的美", "sight_content": "人妖最早起源于印度，在泰国兴起，全世界只有华人称呼他们为人妖，这是一种不礼貌的称呼，应该叫红艺人，西方人叫他们\"Ladyboy\"翻译过来就是美男女，双面佳人，你既可以说他是男性化女人，也就可以说他是女性化男人。\n她们有着女人的阴柔之美，那种魔鬼般的身材让男人看了流口水，让女人看了心里嫉妒，如果你要形容他的话不能用妩媚，只能用妖媚。由于国情不同，在兴隆他们展示的是艺术、是美：有气质的美、才艺的美，服装的美、肌肤的美。\n兴隆是全国最大的华侨农场，“红艺人”这个充满异域风情的“水晶晶”们的表演，最早起源于印度，在泰国兴起，从他们诞生到现在，其历史不超过百年，却以一种独特的艺术红遍世界。兴隆利用和泰国互相实行落地签证的优惠政策，引进了泰国“红艺人”表演。在海南兴隆康乐大剧场向各位观众展示他们比女人更妖媚的气质、婀娜的身段、风情万种的表演"}}, {"title": "蓝鲸海洋户外运动", "address": "万宁市石梅湾旅游度假区游艇会3号商铺", "image": "", "rank": 12, "time": 2, "location": {"lat": 18.673007151445685, "lng": 110.26698245204541}, "feature": {"sight_features": "", "sight_content": ""}}, {"title": "南燕湾", "address": "海南省万宁市红专中路", "image": "", "rank": 13, "time": 2.0, "location": {"lat": 18.800106988303387, "lng": 110.39943436554806}, "feature": {"sight_features": "", "sight_content": ""}}, {"title": "巴厘村", "address": "万宁市兴隆华侨农场工业大道合口旅游区1号", "image": "", "rank": 14, "time": 2.0, "location": {"lat": 18.7354611930315, "lng": 110.21127874567831}, "feature": {"sight_features": "特色1 拥有华侨农场文化长廊之兴隆", "sight_content": "巴厘村”是海南唯一没有重复主题的归侨文化景区，由归侨文化馆、椰香坊、植物观赏区、太阳河舞台、雨林博物馆、南国体验馆六大板块构成。\n入口的善恶门，是巴厘村标志性建筑之一，印尼语叫做坎迪班塔，是绝佳的拍照点。园区内植物种类丰富、分布错落有致，景区内的主要植物有木棉树、塔松、菠萝蜜、黑桫椤、胡椒、金椰、咖啡、咖啡、海枣、龙血树、重阳、红刺露兜等等，是植物科普的好地方。造型奇特的涂鸦和绘画是景区的一大亮点，具有浓郁印度教和印尼民俗特征的涂鸦，深受游客喜爱，处处都能拍出最美的照片！\n不容错过的是在太阳河舞台，欣赏巴厘村风情歌舞。跟随欢快的音乐节奏，来自印尼的舞蹈老师和南洋归侨子女会邀请来宾与之共舞，冲淡旅途的疲倦，留下最美的回忆！欣赏完精彩的舞蹈节目之后，还可以和巴厘村的印尼姑娘合影留念。巴厘村有目前亚洲规模最大、数量最多的自然根艺展览馆—雨林博物馆，珍藏着兴隆归侨从太阳河河床底下挖掘收集的大型根艺，有坡垒、子京、母生、野荔枝，黄花梨等海南名贵树种，虽死犹生，就像一片凝固的热带雨林，诉说着太阳河两岸热带雨林的动人故事。巴厘村，一次归侨文化的洗礼，一场印尼歌蹈的盛宴，一堂雨林根艺的大课，巴厘村让您满载而归。"}}, {"title": "兴隆康乐园高尔夫球会", "address": "万宁石梅湾兴隆旅游度假区康乐园", "image": "", "rank": 15, "time": 4.5, "location": {"lat": 18.665144023884142, "lng": 110.26614102813892}, "feature": {"sight_features": "", "sight_content": ""}}, {"title": "兴隆康乐园温泉高尔夫球场", "address": "万宁石梅湾兴隆旅游度假区康乐园", "image": "", "rank": 16, "time": 4.5, "location": {"lat": 18.665144023884142, "lng": 110.26614102813892}, "feature": {"sight_features": "", "sight_content": ""}}, {"title": "神州高尔夫球会", "address": "万宁市神州半岛旅游度假区", "image": "", "rank": 17, "time": 2, "location": {"lat": 18.678707283575314, "lng": 110.36180666447744}, "feature": {"sight_features": "", "sight_content": ""}}, {"title": "兴隆康乐园太阳河高尔夫球会", "address": "万宁石梅湾兴隆旅游度假区康乐园", "image": "", "rank": 18, "time": 4.5, "location": {"lat": 18.665144023884142, "lng": 110.26614102813892}, "feature": {"sight_features": "", "sight_content": ""}}, {"title": "忆云-南药温泉", "address": "万宁市兴隆旅游城惠康大道与明珠大道交界处", "image": "", "rank": 19, "time": 2, "location": {"lat": 18.74995232342879, "lng": 110.25061592033727}, "feature": {"sight_features": "特色1 由北京资深老中医张教授领衔，与海南省中医院专家团队一起研发的18大功能养生温泉。", "sight_content": "海南兴隆忆云山水温泉度假酒店位于美丽的太阳河畔，是一家按五星级标准建设的园林式温泉度假酒店。酒店园区内种植了300多种南药养生植物。山顶温泉泳池更是度假天堂的一方净土，天然的兴隆温泉水温达40-70度属于养生疗效最好的硫磺性温泉.\n南药养生温泉浴，在海南忆云山水温泉养生基地首家实施，此项目已获得2010年科技攻关项目，由北京资深老中医张教授领衔，与中科院南药研究所、海南省中医院专家团队一起研发的18大功能养生温泉；疗效不同的户外温泉泡池，根据不同功效，添加相应功效的南药与温泉相融合，加倍发挥温泉的功效。\n沉香牛大力汤池适合男性滋阴壮阳，诺丽果火龙果肉豆蔻汤池适合爱美女性，美容养颜，晒后修复，减肥等等小鱼温泉的泉水是世界温泉的珍稀品种——氡泉，含氡元素极高，水质之优远远超过世界卫生标准，可浴可饮，被誉为琼浆玉液，是美容保健之极品，让您的身心与畅游的小鱼一起，吸收温泉水的精华，尽情舒展释放吧！"}}, {"title": "日月湾水上运动", "address": "万宁市礼记镇日月湾风景区", "image": "", "rank": 20, "time": 2, "location": {"lat": 18.632711793018494, "lng": 110.2242518555609}, "feature": {"sight_features": "", "sight_content": ""}}, {"title": "日月湾南海渔家文化旅游区", "address": "万宁市礼纪镇日月湾南海渔村文化旅游区", "image": "", "rank": 21, "time": 2, "location": {"lat": 18.632711793018494, "lng": 110.2242518555609}, "feature": {"sight_features": "", "sight_content": ""}}, {"title": "六连岭", "address": "万宁市万城镇北面60公里处", "image": "", "rank": 22, "time": 1.0, "location": {"lat": 18.801384666335174, "lng": 110.38461253933335}, "feature": {"sight_features": "", "sight_content": ""}}, {"title": "兴隆南药植物园", "address": "万宁市兴隆镇南部223国道兴隆南药植物园", "image": "", "rank": 23, "time": 4.5, "location": {"lat": 18.748379906101484, "lng": 110.21611320764318}, "feature": {"sight_features": "", "sight_content": ""}}, {"title": "科科莫沙滩俱乐部", "address": "海南万宁神州半岛科科莫沙滩俱乐部", "image": "", "rank": 24, "time": 2, "location": {"lat": 18.67914026511351, "lng": 110.35519759907989}, "feature": {"sight_features": "", "sight_content": ""}}, {"title": "兴隆中奥戴斯酒店温泉", "address": "万宁市石梅湾区兴梅大道（兴隆康乐园温泉高尔夫球会西侧）", "image": "", "rank": 25, "time": 4.5, "location": {"lat": 18.767639231695146, "lng": 110.23822859098603}, "feature": {"sight_features": "", "sight_content": ""}}, {"title": "大花角", "address": "海南万宁东南角的海岸上", "image": "", "rank": 26, "time": 2, "location": {"lat": 18.800106988303387, "lng": 110.39943436554806}, "feature": {"sight_features": "", "sight_content": ""}}, {"title": "金日酒店小鱼温泉", "address": "万宁市兴隆旅游区", "image": "", "rank": 27, "time": 2, "location": {"lat": 18.754320264051668, "lng": 110.2389944099076}, "feature": {"sight_features": "", "sight_content": ""}}, {"title": "伊斯兰教徒墓葬群", "address": "海南省万宁市陵水湾", "image": "", "rank": 28, "time": 1.0, "location": {"lat": 18.800106988303387, "lng": 110.39943436554806}, "feature": {"sight_features": "", "sight_content": ""}}, {"title": "咖啡谷", "address": "万宁市兴隆华侨农场十一队西400米", "image": "", "rank": 29, "time": 2, "location": {"lat": 18.753797741684746, "lng": 110.21769990442766}, "feature": {"sight_features": "", "sight_content": ""}}, {"title": "兴隆华侨橡胶博物馆", "address": "万宁市兴隆华侨橡胶文化广场（海南省海口-三亚东线高速公路中段）", "image": "", "rank": 30, "time": 4.5, "location": {"lat": 20.01662797822657, "lng": 110.34415991267215}, "feature": {"sight_features": "", "sight_content": ""}}, {"title": "万宁山钦湾", "address": "海南省万宁市扎纪镇南燕湾", "image": "", "rank": 31, "time": 2, "location": {"lat": 18.669028382982965, "lng": 110.3088352127079}, "feature": {"sight_features": "", "sight_content": ""}}, {"title": "华润石梅湾海滩", "address": "华润石梅湾售楼处海边", "image": "", "rank": 32, "time": 2, "location": {"lat": 38.89265343637564, "lng": 121.64225628086453}, "feature": {"sight_features": "", "sight_content": ""}}, {"title": "文通村", "address": "万宁市长丰镇", "image": "", "rank": 33, "time": 1.5, "location": {"lat": 18.808111785707304, "lng": 110.3316119177873}, "feature": {"sight_features": "", "sight_content": ""}}, {"title": "牛岭", "address": "海南省万宁市和陵水黎族自治县的交界处", "image": "", "rank": 34, "time": 2.0, "location": {"lat": 18.512331595698807, "lng": 110.04446409254778}, "feature": {"sight_features": "", "sight_content": ""}}, {"title": "兴隆亚洲风情园", "address": "中国海南省兴隆华侨旅游度假城", "image": "", "rank": 35, "time": 3.0, "location": {"lat": 20.025801964462914, "lng": 110.35553651088428}, "feature": {"sight_features": "", "sight_content": ""}}, {"title": "春园海风景区", "address": "海南省万宁市万城镇", "image": "", "rank": 36, "time": 2, "location": {"lat": 18.801384666335174, "lng": 110.38461253933335}, "feature": {"sight_features": "", "sight_content": ""}}, {"title": "苏维埃政府旧址", "address": "海南省陵水黎族自治县椰林镇中山东路22号", "image": "", "rank": 37, "time": 1.0, "location": {"lat": 18.509492822839253, "lng": 110.04743303357934}, "feature": {"sight_features": "", "sight_content": ""}}, {"title": "洲仔岛", "address": "海南省万宁市南部海", "image": "", "rank": 38, "time": 2, "location": {"lat": 18.800106988303387, "lng": 110.39943436554806}, "feature": {"sight_features": "", "sight_content": ""}}, {"title": "万宁八尺门", "address": "海南省万宁市扎纪镇", "image": "", "rank": 39, "time": 2, "location": {"lat": 18.800106988303387, "lng": 110.39943436554806}, "feature": {"sight_features": "", "sight_content": ""}}, {"title": "内峙岛", "address": "海南省万宁市和乐镇港北村", "image": "", "rank": 40, "time": 2, "location": {"lat": 18.90214344048565, "lng": 110.5199808043681}, "feature": {"sight_features": "", "sight_content": ""}}, {"title": "兴隆热带经济作物园", "address": "海南省万宁市市内", "image": "", "rank": 41, "time": 4.5, "location": {"lat": 18.800106988303387, "lng": 110.39943436554806}, "feature": {"sight_features": "", "sight_content": ""}}, {"title": "新潭湾", "address": "万宁市东澳镇新潭村南", "image": "", "rank": 42, "time": 2, "location": {"lat": 18.742538577394424, "lng": 110.45236657573973}, "feature": {"sight_features": "", "sight_content": ""}}, {"title": "尖岭森林自然保护区", "address": "海南省万宁市北大乡", "image": "", "rank": 43, "time": 2, "location": {"lat": 18.800106988303387, "lng": 110.39943436554806}, "feature": {"sight_features": "", "sight_content": ""}}, {"title": "龙缘潜水", "address": "东澳镇神州半岛沙滩俱乐部", "image": "", "rank": 44, "time": 2, "location": {"lat": 18.816918489809055, "lng": 110.39102317173871}, "feature": {"sight_features": "", "sight_content": ""}}, {"title": "海南(广州)水上运动训练基地", "address": "G98海南环线高速", "image": "", "rank": 45, "time": 2, "location": {"lat": 18.33020149570256, "lng": 109.51108441650845}, "feature": {"sight_features": "", "sight_content": ""}}, {"title": "海豚湾", "address": "陵水县东北部分界洲岛", "image": "", "rank": 46, "time": 2.0, "location": {"lat": 18.58942635176777, "lng": 110.18183619600501}, "feature": {"sight_features": "", "sight_content": ""}}, {"title": "椰林乡村生态观光园", "address": "龙滚互通高速路出口处", "image": "", "rank": 47, "time": 2, "location": {"lat": 40.04827612875044, "lng": 116.3438548506508}, "feature": {"sight_features": "", "sight_content": ""}}, {"title": "太阳湖温泉度假村", "address": "东和农场旅游区", "image": "", "rank": 48, "time": 2, "location": {"lat": 18.786932492139172, "lng": 110.26905473685619}, "feature": {"sight_features": "", "sight_content": ""}}, {"title": "金叶桃源温泉度假村", "address": "兴隆镇兴隆桃源大道", "image": "", "rank": 49, "time": 2, "location": {"lat": 40.405473678360124, "lng": 117.5468487014697}, "feature": {"sight_features": "", "sight_content": ""}}, {"title": "海烟温泉度假村", "address": "兴隆温泉旅游城", "image": "", "rank": 50, "time": 2, "location": {"lat": 18.751983698108948, "lng": 110.22505541050033}, "feature": {"sight_features": "", "sight_content": ""}}, {"title": "兴隆南国温泉宾馆", "address": "兴隆旅游区温泉大道旁200米", "image": "", "rank": 51, "time": 4.5, "location": {"lat": 18.754320264051668, "lng": 110.2389944099076}, "feature": {"sight_features": "", "sight_content": ""}}, {"title": "东和农场西岭队", "address": "东线高速公路", "image": "", "rank": 52, "time": 2, "location": {"lat": 19.58442326663934, "lng": 110.40113629516671}, "feature": {"sight_features": "", "sight_content": ""}}, {"title": "东兴农场下口队", "address": "082乡道附近", "image": "", "rank": 53, "time": 2.0, "location": {"lat": 29.42469780229428, "lng": 117.33937227215296}, "feature": {"sight_features": "", "sight_content": ""}}, {"title": "兴隆华侨农场六区", "address": "莲兴路附近", "image": "", "rank": 54, "time": 4.5, "location": {"lat": 24.48552337437726, "lng": 118.12653651276824}, "feature": {"sight_features": "", "sight_content": ""}}, {"title": "南林农场杨梅队", "address": "187乡道附近", "image": "", "rank": 55, "time": 2, "location": {"lat": 40.60823184299834, "lng": 114.9213323806591}, "feature": {"sight_features": "", "sight_content": ""}}, {"title": "石梅渔乡农家乐", "address": "187乡道附近", "image": "", "rank": 56, "time": 2, "location": {"lat": 40.60823184299834, "lng": 114.9213323806591}, "feature": {"sight_features": "", "sight_content": ""}}, {"title": "北坡镇农场", "address": "万城镇中央坡市场", "image": "", "rank": 57, "time": 2, "location": {"lat": 18.79824271534909, "lng": 110.381413857566}, "feature": {"sight_features": "", "sight_content": ""}}, {"title": "高尔夫球用品", "address": "人民中路1号", "image": "", "rank": 58, "time": 2, "location": {"lat": 30.9173908456337, "lng": 121.46673900020338}, "feature": {"sight_features": "", "sight_content": ""}}, {"title": "山钦湾高尔夫俱乐部", "address": "万宁市龙滚镇", "image": "", "rank": 59, "time": 2, "location": {"lat": 19.051329595134565, "lng": 110.50128266501464}, "feature": {"sight_features": "", "sight_content": ""}}, {"title": "万宁市琼剧团", "address": "文明北路31号附近", "image": "", "rank": 60, "time": 2.5, "location": {"lat": 25.41368900470069, "lng": 112.9638089995858}, "feature": {"sight_features": "", "sight_content": ""}}]}