{"cityName": "万年", "days": 2, "cityImage": "", "spots": [{"title": "万年神农源", "address": "上饶市万年县大源镇盘岭村", "image": "", "rank": 1, "time": 1.0, "location": {"lat": 28.76275877295798, "lng": 117.15132216455345}, "feature": {"sight_features": "", "sight_content": ""}}, {"title": "神龙宫", "address": "上饶市万年县大源镇", "image": "", "rank": 2, "time": 2, "location": {"lat": 28.739398020379348, "lng": 117.19933140094176}, "feature": {"sight_features": "特色1 年轻型溶洞的代表之作", "sight_content": "神龙宫以喀斯特地貌特征的地下溶洞、地下河流等自然风光为主，其中身处地下320米深处的中国最美地下河色泽如玉和绝景天然的超大型地下溶洞、宛如一卷波澜壮阔的山水画图、一部百思难解的无字天书、神奇玄妙、四季如春、永远21°的地下世界给我们留下无限的想象空间。\n溶洞纳山川之秀，集天地之灵，迂回曲折，百转千回，被专家学者誉为中国最美的地下长河。神龙宫属全天候景区，洞内终年恒温21度左右，冬季温暖如春，夏季凉爽宜人，适合一年四季游览。洞内池水清浅，流水潺潺，玉石般的钟乳石琳琅满目，令人目不暇接，玉宇神宫、气象万千。丛林飞瀑、惟妙惟肖；琴台楼阁、若隐若现；水乳交融、争奇斗艳。果园农舍、亦真亦幻；春花秋月、养心养颜；置身其中，如临仙境。"}}, {"title": "仙人洞吊桶环遗址", "address": "江西省万年县境内 335500", "image": "", "rank": 3, "time": 1.0, "location": {"lat": 28.700054054128923, "lng": 117.06459894217386}, "feature": {"sight_features": "", "sight_content": ""}}, {"title": "万年县图书馆", "address": "六0大道(新县政府对面)", "image": "", "rank": 4, "time": 2, "location": {"lat": 31.649854344899016, "lng": 114.88571800230875}, "feature": {"sight_features": "", "sight_content": ""}}, {"title": "喜果绿化第六基地", "address": "206国道附近", "image": "", "rank": 5, "time": 2, "location": {"lat": 24.027693425509675, "lng": 115.9917729736661}, "feature": {"sight_features": "", "sight_content": ""}}, {"title": "黄狮庙", "address": "江西省上饶市万年县大黄乡大黄村狮子山", "image": "", "rank": 6, "time": 2, "location": {"lat": 28.78459499176717, "lng": 116.94198653452908}, "feature": {"sight_features": "", "sight_content": ""}}, {"title": "开心玩国儿童成长乐园", "address": "陈营镇建德大街黄河银行隔壁", "image": "", "rank": 7, "time": 2, "location": {"lat": 28.69986437325533, "lng": 117.06883894597617}, "feature": {"sight_features": "", "sight_content": ""}}, {"title": "体育公园", "address": "江西省上饶市万年县S310", "image": "", "rank": 8, "time": 1.0, "location": {"lat": 28.700054054128923, "lng": 117.06459894217386}, "feature": {"sight_features": "", "sight_content": ""}}, {"title": "儿童游乐场", "address": "万年县其他上饶市万年县", "image": "", "rank": 9, "time": 2, "location": {"lat": 28.700054054128923, "lng": 117.06459894217386}, "feature": {"sight_features": "", "sight_content": ""}}, {"title": "农家山寨", "address": "320乡道附近", "image": "", "rank": 10, "time": 2, "location": {"lat": 41.077855197133296, "lng": 122.57300529087827}, "feature": {"sight_features": "", "sight_content": ""}}, {"title": "白马寺", "address": "上饶市万年县", "image": "", "rank": 11, "time": 1.5, "location": {"lat": 28.700054054128923, "lng": 117.06459894217386}, "feature": {"sight_features": "", "sight_content": ""}}, {"title": "江西德同源生态技术有限公司", "address": "汪家乡坑边村206国道南行20米", "image": "", "rank": 12, "time": 2, "location": {"lat": 28.728390899089938, "lng": 116.96839724920888}, "feature": {"sight_features": "", "sight_content": ""}}, {"title": "万年县文化馆", "address": "珠山桥92号", "image": "", "rank": 13, "time": 2, "location": {"lat": 29.773791820485265, "lng": 121.65641475496956}, "feature": {"sight_features": "", "sight_content": ""}}, {"title": "万年县特色美食街", "address": "江西省万年县建明大街", "image": "", "rank": 14, "time": 2, "location": {"lat": 28.690939166565332, "lng": 117.08263715665582}, "feature": {"sight_features": "", "sight_content": ""}}, {"title": "黑曼电竞馆", "address": "上饶市-万年县-陈营镇建明大街综合楼2楼", "image": "", "rank": 15, "time": 2, "location": {"lat": 28.690939166565332, "lng": 117.08263715665582}, "feature": {"sight_features": "", "sight_content": ""}}, {"title": "仙人洞遗址", "address": "上饶市万年县大源乡", "image": "", "rank": 16, "time": 2, "location": {"lat": 28.700054054128923, "lng": 117.06459894217386}, "feature": {"sight_features": "特色1 野稻驯化的发源地 特色2 充满了人类先祖们留下的气息和智慧。", "sight_content": "万年县仙人洞遗址位于江西省上饶市万年县大源乡境内，地处赣东北石灰岩丘陵地区的一个山间盆地。仙人洞遗址的洞口朝向东南，洞口开阔并向前伸展，呈岩厦状，剖面呈弧形。野稻驯化起于是、烧土成器始于斯、刻符记事源于此、物食易换发于兹。在这个长60米，宽25米，高3米的球型洞穴中， 充满了人类先祖们留下的气息和智慧。"}}]}