{"cityName": "万载", "days": 2, "cityImage": "", "spots": [{"title": "竹山洞风景旅游区", "address": "宜春市万载县县城南马步乡洞口村境内", "image": "", "rank": 1, "time": 7.5, "location": {"lat": 28.05691227595407, "lng": 114.38672962595697}, "feature": {"sight_features": "", "sight_content": ""}}, {"title": "九龙原始森林漂流", "address": "宜春市万载县九龙庙（万载九龙山综合垦殖场）", "image": "", "rank": 2, "time": 2, "location": {"lat": 28.356767623816086, "lng": 114.51982304008511}, "feature": {"sight_features": "特色1 九龙源森林地处亚热带湿润气候区，四季分明，雨量充沛，光明充足。 特色2 九龙源森林漂流全程8公里,漂流时间达3小时,沿途风光秀美,树木成荫,是夏日辟暑休闲的好去处。 特色3 九龙源森林漂流既有急流险滩，又有波澜不惊、风景如画的河面。", "sight_content": "九龙原始森林景区位于万载九龙庙森林公园原始森林区，距县城30公里，地处亚热带湿润气候区，四季分明，雨量充沛，光明充足，平均海拔500米左右，区内千沟万壑，古木参天，山高林密，森林覆盖率高达92%。大面积的常绿阔叶树著称，满山树木葱郁葱绿，林相结构层次分明。\n九龙景区离市区约七十多公里，景区内群山环抱，古木参天，泉流淙淙。景区内当年备战备荒遗存的兵工厂（宜春第一机械厂简称一机厂）厂房大部分旧址还在，景区内的唯一一处饮食店也是由老厂房改建的，虽然简陋，但菜饭的口味却是很不错，比大酒店的菜好吃多了，是俺们老百姓最喜爱的味道。在漂流的过程中，既能享受漂流带来的刺激和轻松，又能在船上悠闲地近距离的观赏近似于原始森林的山景，还能细聆远处鸟鸣啁啾、虫声应和，静听两岸泉水涓涓，不时地深吸几口山林间的清新空气，体会那种船在水上行，景在眼前飘的闲情和逸趣 。"}}, {"title": "思乡公园", "address": "建设路附近", "image": "", "rank": 3, "time": 2, "location": {"lat": 39.08959553212996, "lng": 117.0126917080218}, "feature": {"sight_features": "", "sight_content": ""}}, {"title": "塔东农家乐", "address": "宝塔东路", "image": "", "rank": 4, "time": 2, "location": {"lat": 28.106794170786145, "lng": 114.45708478681412}, "feature": {"sight_features": "", "sight_content": ""}}, {"title": "依肯国际垂钓中心", "address": "龙河星城", "image": "", "rank": 5, "time": 2, "location": {"lat": 28.100258069353377, "lng": 114.45036977167153}, "feature": {"sight_features": "", "sight_content": ""}}, {"title": "竹山洞", "address": "江西省万载县马步乡 336100", "image": "", "rank": 6, "time": 7.5, "location": {"lat": 28.10485734193796, "lng": 114.45108999170714}, "feature": {"sight_features": "", "sight_content": ""}}, {"title": "谢灵运墓", "address": "江西省万载县里泉村 336100", "image": "", "rank": 7, "time": 2, "location": {"lat": 28.127259370123777, "lng": 114.46129521390752}, "feature": {"sight_features": "", "sight_content": ""}}, {"title": "万载县首家森林博物馆", "address": "万载县城管局凤凰山公园管理处", "image": "", "rank": 8, "time": 2, "location": {"lat": 28.115375024194297, "lng": 114.46157724231212}, "feature": {"sight_features": "", "sight_content": ""}}, {"title": "万载革命烈士陵园", "address": "看甲路与西环路交叉口东南150米", "image": "", "rank": 9, "time": 2, "location": {"lat": 22.202086498951495, "lng": 113.55591499767628}, "feature": {"sight_features": "", "sight_content": ""}}, {"title": "龙山公园", "address": "宜春市万载县", "image": "", "rank": 10, "time": 2, "location": {"lat": 28.112133306115535, "lng": 114.45253654384906}, "feature": {"sight_features": "", "sight_content": ""}}, {"title": "孙氏宗祠", "address": "江西省宜春市万载县", "image": "", "rank": 11, "time": 2, "location": {"lat": 28.112133306115535, "lng": 114.45253654384906}, "feature": {"sight_features": "", "sight_content": ""}}, {"title": "罗城小不点游乐场", "address": "江西省宜春市万载县罗城镇兴业路工商行政管理局罗城分局", "image": "", "rank": 12, "time": 2, "location": {"lat": 28.284615482454807, "lng": 114.56599826719908}, "feature": {"sight_features": "", "sight_content": ""}}, {"title": "恒晖生态观光园", "address": "宜春市万载县三兴镇闹坪村附近", "image": "", "rank": 13, "time": 2, "location": {"lat": 28.230378581852626, "lng": 114.48195612654537}, "feature": {"sight_features": "", "sight_content": ""}}, {"title": "湘鄂赣革命纪念馆", "address": "阳乐大道322号", "image": "", "rank": 14, "time": 2, "location": {"lat": 28.104106689252145, "lng": 114.45945277493426}, "feature": {"sight_features": "", "sight_content": ""}}, {"title": "革命烈士纪念馆", "address": "沿河东路", "image": "", "rank": 15, "time": 2, "location": {"lat": 34.379647952961456, "lng": 118.36897795540493}, "feature": {"sight_features": "", "sight_content": ""}}, {"title": "万载图书馆", "address": "沿河东路227号", "image": "", "rank": 16, "time": 2, "location": {"lat": 22.290497064235556, "lng": 113.57357314987678}, "feature": {"sight_features": "", "sight_content": ""}}, {"title": "金蓓蕾艺术中心", "address": "沿河东路100多号", "image": "", "rank": 17, "time": 2, "location": {"lat": 25.095929706257525, "lng": 116.10964413111893}, "feature": {"sight_features": "", "sight_content": ""}}, {"title": "四知画廊", "address": "两路巷路与百合路交叉口北150米", "image": "", "rank": 18, "time": 2, "location": {"lat": 28.104339834777065, "lng": 114.45936257697635}, "feature": {"sight_features": "", "sight_content": ""}}, {"title": "九龙源森林漂流", "address": "城东北部", "image": "", "rank": 19, "time": 2, "location": {"lat": 36.605707645661155, "lng": 101.8095690383313}, "feature": {"sight_features": "", "sight_content": ""}}, {"title": "万载县花灯戏剧团", "address": "沿河东路293-7号", "image": "", "rank": 20, "time": 2, "location": {"lat": 28.113598136327678, "lng": 114.45393071849159}, "feature": {"sight_features": "", "sight_content": ""}}, {"title": "三十把自然保护区", "address": "江西省万载县罗城镇, 高村镇, 九龙垦殖场三地交界处", "image": "", "rank": 21, "time": 2, "location": {"lat": 28.344929135590963, "lng": 114.44634965239698}, "feature": {"sight_features": "", "sight_content": ""}}, {"title": "杉树亭", "address": "宜春市-万载县-芳万线", "image": "", "rank": 22, "time": 2, "location": {"lat": 28.21229643720457, "lng": 114.47237296563927}, "feature": {"sight_features": "", "sight_content": ""}}, {"title": "万载古城文化展示中心", "address": "宜春市-万载县-宝塔西路与沿河东路交汇处", "image": "", "rank": 23, "time": 2, "location": {"lat": 28.104078361605218, "lng": 114.44879911323363}, "feature": {"sight_features": "", "sight_content": ""}}]}