{"cityName": "围场", "days": 2, "cityImage": "", "spots": [{"title": "木兰围场", "address": "承德市围场满族蒙古族自治县哈里哈乡", "image": "", "rank": 1, "time": 7.5, "location": {"lat": 42.17388293904, "lng": 117.57044085775618}, "feature": {"sight_features": "", "sight_content": ""}}, {"title": "七星湖", "address": "承德市围场满族蒙古族自治县塞罕坝国家森林公园内", "image": "", "rank": 2, "time": 1.0, "location": {"lat": 42.395362684820284, "lng": 117.39344857651547}, "feature": {"sight_features": "", "sight_content": ""}}, {"title": "大峡谷", "address": "承德市围场满族蒙古族自治县西北部(靠近河北省与内蒙古自治区的交界处)木兰围场御道口草原森林风景区内", "image": "", "rank": 3, "time": 3.5, "location": {"lat": 43.11332182154948, "lng": 128.92024368834416}, "feature": {"sight_features": "", "sight_content": ""}}, {"title": "神龙潭", "address": "河北承德围场满族蒙古族自治县", "image": "", "rank": 4, "time": 1.0, "location": {"lat": 41.9443237736111, "lng": 117.76656434784968}, "feature": {"sight_features": "", "sight_content": ""}}, {"title": "桃山湖", "address": "河北省承德围场满族蒙古族自治县", "image": "", "rank": 5, "time": 2, "location": {"lat": 41.9443237736111, "lng": 117.76656434784968}, "feature": {"sight_features": "", "sight_content": ""}}, {"title": "坝上汤温泉城", "address": "承德市围场县山湾子乡热水汤村", "image": "", "rank": 6, "time": 4.5, "location": {"lat": 42.40702737344281, "lng": 117.78336091278375}, "feature": {"sight_features": "", "sight_content": ""}}, {"title": "滦河上游自然保护区", "address": "围场满族蒙古族自治县", "image": "", "rank": 7, "time": 2, "location": {"lat": 41.9443237736111, "lng": 117.76656434784968}, "feature": {"sight_features": "", "sight_content": ""}}, {"title": "五彩斑斓", "address": "承德市围场满族蒙古族自治县塞罕坝景区内", "image": "", "rank": 8, "time": 1.0, "location": {"lat": 42.605926814665864, "lng": 117.56205828485592}, "feature": {"sight_features": "", "sight_content": ""}}, {"title": "康熙点将台", "address": "河北省承德市塞罕坝森林公园阴河景区", "image": "", "rank": 9, "time": 1.5, "location": {"lat": 42.325831137900025, "lng": 117.50117507645928}, "feature": {"sight_features": "", "sight_content": ""}}, {"title": "十里画廊", "address": "承德市塞罕坝森林公园内", "image": "", "rank": 10, "time": 2.0, "location": {"lat": 42.325831137900025, "lng": 117.50117507645928}, "feature": {"sight_features": "", "sight_content": ""}}, {"title": "古崖口漂流", "address": "承德市围场满族蒙古族自治县四道沟乡庙宫村庙宫水库", "image": "", "rank": 11, "time": 2, "location": {"lat": 41.75946736490418, "lng": 117.84104295020742}, "feature": {"sight_features": "", "sight_content": ""}}, {"title": "承德草原乡情农家院", "address": "围场御道口森林草原风景区御道口镇7号", "image": "", "rank": 12, "time": 4.5, "location": {"lat": 42.14036313132786, "lng": 117.06566233157116}, "feature": {"sight_features": "", "sight_content": ""}}, {"title": "围场利华农家院", "address": "围场御道口七号", "image": "", "rank": 13, "time": 7.5, "location": {"lat": 41.9443237736111, "lng": 117.76656434784968}, "feature": {"sight_features": "", "sight_content": ""}}, {"title": "围场北京理工度假村", "address": "围场木兰围场塞罕坝理工湖滨度假村", "image": "", "rank": 14, "time": 7.5, "location": {"lat": 42.32608578468671, "lng": 117.50118495781989}, "feature": {"sight_features": "", "sight_content": ""}}, {"title": "河北省塞罕坝机械林场总场大唤起...", "address": "011乡道西50米", "image": "", "rank": 15, "time": 2, "location": {"lat": 22.60919886263197, "lng": 114.24644262262933}, "feature": {"sight_features": "", "sight_content": ""}}, {"title": "木兰秋狝文化园", "address": "河北省承德市围场满族蒙古族自治县塞罕坝（机械林场）场部北侧，距离机械林场8公里左右", "image": "", "rank": 16, "time": 2, "location": {"lat": 42.605926814665864, "lng": 117.56205828485592}, "feature": {"sight_features": "", "sight_content": ""}}, {"title": "塞北佛石庙", "address": "河北省承德塞罕坝北曼甸林场四旗拨营林区", "image": "", "rank": 17, "time": 2, "location": {"lat": 42.605926814665864, "lng": 117.56205828485592}, "feature": {"sight_features": "", "sight_content": ""}}, {"title": "大清猎苑", "address": "承德市围场满族蒙古族自治县棋盘山镇甘沟门村", "image": "", "rank": 18, "time": 2, "location": {"lat": 42.07365736641665, "lng": 117.67615311869565}, "feature": {"sight_features": "", "sight_content": ""}}, {"title": "月亮湖游乐场", "address": "承德市围场满族蒙古族自治县月亮湖风景区游乐区", "image": "", "rank": 19, "time": 2, "location": {"lat": 42.3577027763654, "lng": 117.40714108448863}, "feature": {"sight_features": "", "sight_content": ""}}, {"title": "黄土山游乐园", "address": "承德市围场满族蒙古族自治县御道口牧场", "image": "", "rank": 20, "time": 2, "location": {"lat": 42.281493446143635, "lng": 117.10370812559789}, "feature": {"sight_features": "", "sight_content": ""}}, {"title": "温都儿华围", "address": "大致范围在今天的承德市围场满族蒙古族自治县郭家湾乡郭家湾村附近", "image": "", "rank": 21, "time": 1.5, "location": {"lat": 42.14178449392618, "lng": 117.98294165200535}, "feature": {"sight_features": "", "sight_content": ""}}, {"title": "裕龙农家院", "address": "阳光帝景1.2.3号底商(阳光帝景)", "image": "", "rank": 22, "time": 2, "location": {"lat": 39.39161706469377, "lng": 115.72071495806398}, "feature": {"sight_features": "", "sight_content": ""}}, {"title": "海东书画工作室", "address": "254省道", "image": "", "rank": 23, "time": 3.5, "location": {"lat": 42.28777717636898, "lng": 117.52502760300462}, "feature": {"sight_features": "", "sight_content": ""}}, {"title": "无水温泉", "address": "254省道", "image": "", "rank": 24, "time": 2, "location": {"lat": 42.28777717636898, "lng": 117.52502760300462}, "feature": {"sight_features": "", "sight_content": ""}}, {"title": "围场坝上御道口庄园", "address": "御道口牧场四分场(御道庄园)", "image": "", "rank": 25, "time": 7.5, "location": {"lat": 42.281493446143635, "lng": 117.10370812559789}, "feature": {"sight_features": "", "sight_content": ""}}, {"title": "赤峰木兰围场坝上红山度假村", "address": "承德红山军马场红山南街1号", "image": "", "rank": 26, "time": 4.5, "location": {"lat": 40.95785601233803, "lng": 117.96939750996681}, "feature": {"sight_features": "", "sight_content": ""}}, {"title": "围场秀文农家院", "address": "承德市围场满族蒙古族自治县木兰围场御道口牧场中国联通北侧", "image": "", "rank": 27, "time": 7.5, "location": {"lat": 42.281493446143635, "lng": 117.10370812559789}, "feature": {"sight_features": "", "sight_content": ""}}, {"title": "承德塞罕坝温家农家院", "address": "承德围场满族蒙古自治县机械总场南3公里前大脑袋村", "image": "", "rank": 28, "time": 4.5, "location": {"lat": 41.9443237736111, "lng": 117.76656434784968}, "feature": {"sight_features": "", "sight_content": ""}}, {"title": "巴尔图温泉度假村", "address": "501县道附近", "image": "", "rank": 29, "time": 2, "location": {"lat": 29.174209050561004, "lng": 121.3636704639471}, "feature": {"sight_features": "", "sight_content": ""}}, {"title": "承德木兰围场木兰之旅草原度假村", "address": "承德承德围场承德围场县塞罕坝国家森林公园", "image": "", "rank": 30, "time": 4.5, "location": {"lat": 42.32707508486534, "lng": 117.50044923123433}, "feature": {"sight_features": "", "sight_content": ""}}, {"title": "承德木兰围场塞罕坝理工湖滨度假...", "address": "承德木兰围场县坝上机械林场", "image": "", "rank": 31, "time": 4.5, "location": {"lat": 42.32608578468671, "lng": 117.50118495781989}, "feature": {"sight_features": "", "sight_content": ""}}, {"title": "庞客会", "address": "围场县御道口牧场场部东侧(御道口牧场(御道口牧场、机械林场)", "image": "", "rank": 32, "time": 2, "location": {"lat": 42.281493446143635, "lng": 117.10370812559789}, "feature": {"sight_features": "", "sight_content": ""}}, {"title": "神龙潭大型跑马场", "address": "塞罕坝国家森林公园神龙潭大型跑马场", "image": "", "rank": 33, "time": 2, "location": {"lat": 42.45163942946837, "lng": 117.36987254481286}, "feature": {"sight_features": "", "sight_content": ""}}, {"title": "御道口风景区-跑马场", "address": "西北部木兰围场御道口草原森林风景区骑士乐园内(靠近河北省与内蒙古自治区的交界处)", "image": "", "rank": 34, "time": 2, "location": {"lat": 42.263842580685406, "lng": 117.09326972574141}, "feature": {"sight_features": "", "sight_content": ""}}, {"title": "塞罕坝第一景", "address": "二五四省道", "image": "", "rank": 35, "time": 7.5, "location": {"lat": 42.28777717636898, "lng": 117.52502760300462}, "feature": {"sight_features": "", "sight_content": ""}}, {"title": "塞罕坝滑雪场", "address": "木兰围场塞罕坝国家森林公园内", "image": "", "rank": 36, "time": 2, "location": {"lat": 42.32707508486534, "lng": 117.50044923123433}, "feature": {"sight_features": "", "sight_content": ""}}, {"title": "大梨树沟", "address": "围场满族蒙古族自治县", "image": "", "rank": 37, "time": 2, "location": {"lat": 41.9443237736111, "lng": 117.76656434784968}, "feature": {"sight_features": "", "sight_content": ""}}, {"title": "滑草场", "address": "承德市围场满族蒙古族自治县塞罕坝国家森林公园", "image": "", "rank": 38, "time": 3.5, "location": {"lat": 42.32707508486534, "lng": 117.50044923123433}, "feature": {"sight_features": "", "sight_content": ""}}, {"title": "金莲映日", "address": "围场满族蒙古族自治县", "image": "", "rank": 39, "time": null, "location": {"lat": 41.9443237736111, "lng": 117.76656434784968}, "feature": {"sight_features": "", "sight_content": ""}}, {"title": "塞罕坝展览馆", "address": "围场满族蒙古族自治县", "image": "", "rank": 40, "time": 2.5, "location": {"lat": 41.9443237736111, "lng": 117.76656434784968}, "feature": {"sight_features": "", "sight_content": ""}}, {"title": "尚海纪念林", "address": "围场满族蒙古族自治县", "image": "", "rank": 41, "time": 2, "location": {"lat": 41.9443237736111, "lng": 117.76656434784968}, "feature": {"sight_features": "", "sight_content": ""}}, {"title": "五道沟风景区", "address": "围场满族蒙古族自治县", "image": "", "rank": 42, "time": 2, "location": {"lat": 41.9443237736111, "lng": 117.76656434784968}, "feature": {"sight_features": "", "sight_content": ""}}, {"title": "河北省塞罕坝国家森林公园大唤起...", "address": "河北省塞罕坝机械林场总场大唤起林场附近", "image": "", "rank": 43, "time": 2, "location": {"lat": 42.41457444905392, "lng": 117.26550179355928}, "feature": {"sight_features": "", "sight_content": ""}}, {"title": "遨游太空", "address": "承德市围场满族蒙古族自治县西北部(靠近河北省与内蒙古自治区的交界处)木兰围场塞罕坝国家森林公园内", "image": "", "rank": 44, "time": 2, "location": {"lat": 25.061318302947946, "lng": 101.52442648796533}, "feature": {"sight_features": "", "sight_content": ""}}, {"title": "七星湖假鼠妇草湿地公园-凉亭", "address": "木兰围场塞罕坝国家森林公园七星湖假鼠妇草湿地公园内", "image": "", "rank": 45, "time": 2, "location": {"lat": 42.43861990276646, "lng": 117.25035416450747}, "feature": {"sight_features": "", "sight_content": ""}}, {"title": "神童王国室内游乐园", "address": "木兰中路友联商厦1楼(邮政银行对面)", "image": "", "rank": 46, "time": 2, "location": {"lat": 41.94941563608362, "lng": 117.76687092514736}, "feature": {"sight_features": "", "sight_content": ""}}, {"title": "八方客飞碟射击", "address": "承德市围场满族蒙古族自治县西北部(靠近河北省与内蒙古自治区的交界处)木兰围场御道口草原森林风景区八方客射击场内", "image": "", "rank": 47, "time": 2, "location": {"lat": 42.253290502043626, "lng": 117.0772628198591}, "feature": {"sight_features": "", "sight_content": ""}}, {"title": "聪明堡游乐园", "address": "河北省承德市围场满族蒙古族自治县围场镇凤凰北路盛源小区东(围场县医院东南)", "image": "", "rank": 48, "time": 2, "location": {"lat": 41.96571240595667, "lng": 117.76882914132855}, "feature": {"sight_features": "", "sight_content": ""}}, {"title": "帝腾儿童乐园", "address": "X502中国联通东侧", "image": "", "rank": 49, "time": null, "location": {"lat": 22.711924756531765, "lng": 113.16215868559979}, "feature": {"sight_features": "", "sight_content": ""}}, {"title": "凤凰园", "address": "凤凰道大桥东", "image": "", "rank": 50, "time": 2, "location": {"lat": 22.513496920893143, "lng": 114.05602975235283}, "feature": {"sight_features": "", "sight_content": ""}}, {"title": "黄土山滑沙场", "address": "承德市围场满族蒙古族自治县西北部(靠近河北省与内蒙古自治区的交界处)木兰围场御道口草原森林风景区黄土山游乐园内", "image": "", "rank": 51, "time": 2, "location": {"lat": 42.25223038905122, "lng": 117.07300606894577}, "feature": {"sight_features": "", "sight_content": ""}}, {"title": "海盗船", "address": "承德市围场满族蒙古族自治县西北部(靠近河北省与内蒙古自治区的交界处)木兰围场御道口草原森林风景区秋狝文化园内", "image": "", "rank": 52, "time": 2, "location": {"lat": 39.92134543482726, "lng": 116.21636918408238}, "feature": {"sight_features": "", "sight_content": ""}}, {"title": "七星湖假鼠妇草湿地公园-凉亭", "address": "承德市围场满族蒙古族自治县西北部(靠近河北省与内蒙古自治区的交界处)木兰围场塞罕坝国家森林公园七星湖假鼠妇草湿地公园内", "image": "", "rank": 53, "time": 2, "location": {"lat": 42.43861990276646, "lng": 117.25035416450747}, "feature": {"sight_features": "", "sight_content": ""}}, {"title": "承德塞罕坝金龙度假村", "address": "林盛街8号", "image": "", "rank": 54, "time": 4.5, "location": {"lat": 41.58530009774314, "lng": 123.36706640525566}, "feature": {"sight_features": "", "sight_content": ""}}, {"title": "承德国丰农家院", "address": "承德围场塞罕坝机械林场市政管理服务站", "image": "", "rank": 55, "time": 4.5, "location": {"lat": 42.41698797808182, "lng": 117.26650543527165}, "feature": {"sight_features": "", "sight_content": ""}}, {"title": "上兰宫苑国际旅游度假村", "address": "双塔山镇元宝山大街411号(鼎盛王朝对面往东20米)", "image": "", "rank": 56, "time": 2, "location": {"lat": 40.98750595640611, "lng": 117.85740572969887}, "feature": {"sight_features": "", "sight_content": ""}}, {"title": "清新度假村宾馆", "address": "河北省承德市围场满族蒙古族自治县御克线", "image": "", "rank": 57, "time": 2, "location": {"lat": 42.264062662572144, "lng": 117.09260155981494}, "feature": {"sight_features": "", "sight_content": ""}}, {"title": "八旗大营", "address": "承德市围场满族蒙古族自治县西北部(靠近河北省与内蒙古自治区的交界处)木兰围场御道口草原森林风景区内", "image": "", "rank": 58, "time": 2, "location": {"lat": 42.29093732704292, "lng": 117.11253872657466}, "feature": {"sight_features": "", "sight_content": ""}}, {"title": "承德围场龙脉山庄度假村", "address": "承德承德红山军马场", "image": "", "rank": 59, "time": 4.5, "location": {"lat": 40.95785601233803, "lng": 117.96939750996681}, "feature": {"sight_features": "", "sight_content": ""}}, {"title": "草原部落度假村", "address": "围场塞罕坝国家森林公园泰丰湖东岸", "image": "", "rank": 60, "time": 2, "location": {"lat": 42.46724678957063, "lng": 117.22323989694354}, "feature": {"sight_features": "", "sight_content": ""}}]}