{"cityName": "威宁", "days": 2, "cityImage": "", "spots": [{"title": "草海", "address": "毕节市威宁彝族回族苗族自治县草海镇", "image": "", "rank": 1, "time": 2.0, "location": {"lat": 26.874097620010822, "lng": 104.28868841420204}, "feature": {"sight_features": "", "sight_content": ""}}, {"title": "百草坪", "address": "毕节市威宁彝族回族苗族自治县", "image": "", "rank": 2, "time": 2, "location": {"lat": 26.879247190553315, "lng": 104.25948063397878}, "feature": {"sight_features": "", "sight_content": ""}}, {"title": "浪漫草海风景区", "address": "毕节市威宁县威双大道草海国际养生基地", "image": "", "rank": 3, "time": 2, "location": {"lat": 26.852177649656074, "lng": 104.24839479120931}, "feature": {"sight_features": "", "sight_content": ""}}, {"title": "石门坎", "address": "毕节市威宁彝族回族苗族自治县", "image": "", "rank": 4, "time": 3.0, "location": {"lat": 26.879247190553315, "lng": 104.25948063397878}, "feature": {"sight_features": "", "sight_content": ""}}, {"title": "灼甫草场", "address": "贵州省毕节威宁彝族回族苗族自治县雪山镇", "image": "", "rank": 5, "time": 2, "location": {"lat": 27.081755813768066, "lng": 104.12895701679507}, "feature": {"sight_features": "", "sight_content": ""}}, {"title": "向天墓", "address": "贵州省毕节威宁彝族回族苗族自治县盐仓镇", "image": "", "rank": 6, "time": 2, "location": {"lat": 26.94276529659442, "lng": 104.41442865246201}, "feature": {"sight_features": "", "sight_content": ""}}, {"title": "观风海", "address": "贵州省毕节威宁彝族回族苗族自治县观风海镇", "image": "", "rank": 7, "time": 2, "location": {"lat": 26.989448284119277, "lng": 103.97232240366655}, "feature": {"sight_features": "", "sight_content": ""}}, {"title": "草海食在乡农家乐", "address": "草海镇鸭子塘", "image": "", "rank": 8, "time": 2, "location": {"lat": 26.844521493808188, "lng": 104.30754491942703}, "feature": {"sight_features": "", "sight_content": ""}}, {"title": "黑石清真寺", "address": "毕节市威宁彝族回族苗族自治县", "image": "", "rank": 9, "time": 2, "location": {"lat": 26.879247190553315, "lng": 104.25948063397878}, "feature": {"sight_features": "", "sight_content": ""}}, {"title": "凉都高原比女街生态园", "address": "贵州省毕节市威宁彝族回族苗族自治县二塘站北900米(212省道东)", "image": "", "rank": 10, "time": 2, "location": {"lat": 26.879247190553315, "lng": 104.25948063397878}, "feature": {"sight_features": "", "sight_content": ""}}, {"title": "桂天相墓", "address": "威宁彝族回族苗族自治县凤凰山", "image": "", "rank": 11, "time": 2, "location": {"lat": 26.879247190553315, "lng": 104.25948063397878}, "feature": {"sight_features": "", "sight_content": ""}}, {"title": "威宁基督教福音堂", "address": "人民中路57号附近", "image": "", "rank": 12, "time": 2.5, "location": {"lat": 30.918433034757175, "lng": 121.4662010292877}, "feature": {"sight_features": "", "sight_content": ""}}, {"title": "九台禅寺", "address": "贵州省毕节市威宁彝族回族苗族自治县环城路", "image": "", "rank": 13, "time": 2, "location": {"lat": 26.879247190553315, "lng": 104.25948063397878}, "feature": {"sight_features": "", "sight_content": ""}}, {"title": "人民广场", "address": "建设西路附近", "image": "", "rank": 14, "time": 1.5, "location": {"lat": 40.81103539442299, "lng": 114.88582245368022}, "feature": {"sight_features": "", "sight_content": ""}}, {"title": "怡馨缘度假村", "address": "贵州省毕节市威宁彝族回族苗族自治县滨海大道银龙村", "image": "", "rank": 15, "time": 2, "location": {"lat": 26.87509353938331, "lng": 104.26787995039268}, "feature": {"sight_features": "", "sight_content": ""}}, {"title": "博雅画廊", "address": "草海路102附近", "image": "", "rank": 16, "time": 2, "location": {"lat": 26.863787985025017, "lng": 104.28413301174207}, "feature": {"sight_features": "", "sight_content": ""}}, {"title": "金龙庄农家乐", "address": "人民医院附近", "image": "", "rank": 17, "time": 2, "location": {"lat": 30.53991874190456, "lng": 114.30324689654964}, "feature": {"sight_features": "", "sight_content": ""}}, {"title": "全羊农家乐", "address": "渔市路与草海路交叉口西200米", "image": "", "rank": 18, "time": 2, "location": {"lat": 26.862225607937958, "lng": 104.28870156988623}, "feature": {"sight_features": "", "sight_content": ""}}, {"title": "葡萄园烙锅城", "address": "星阳路附近", "image": "", "rank": 19, "time": 2, "location": {"lat": 26.874217517385702, "lng": 104.28859826744754}, "feature": {"sight_features": "", "sight_content": ""}}, {"title": "逃离梦境真人密室逃脱·桌游体验...", "address": "会展中心沿河西路路口3楼", "image": "", "rank": 20, "time": 2, "location": {"lat": 30.807105928400585, "lng": 121.2898394573286}, "feature": {"sight_features": "", "sight_content": ""}}, {"title": "造梦者真人密室逃脱体验馆", "address": "会展中心沿河西路天祥酒店二楼", "image": "", "rank": 21, "time": 2, "location": {"lat": 38.31629630033426, "lng": 115.42888930290512}, "feature": {"sight_features": "", "sight_content": ""}}, {"title": "灵异空间真人鬼屋", "address": "星光路开发区菜市场内50米(原来来往往网吧楼上)", "image": "", "rank": 22, "time": 2, "location": {"lat": 31.358870078607854, "lng": 120.6026680470582}, "feature": {"sight_features": "", "sight_content": ""}}, {"title": "发拉河樱桃园", "address": "龙街镇龙河村龙洞组", "image": "", "rank": 23, "time": 2, "location": {"lat": 27.160113585458802, "lng": 103.98539013476336}, "feature": {"sight_features": "", "sight_content": ""}}, {"title": "街友(新之城店)", "address": "新光路555号A区一层1018", "image": "", "rank": 24, "time": 2, "location": {"lat": 31.567479938443647, "lng": 120.3793700050163}, "feature": {"sight_features": "", "sight_content": ""}}, {"title": "敖家坟", "address": "贵州省金沙县石场乡鹿楼村", "image": "", "rank": 25, "time": 2, "location": {"lat": 27.600474968236632, "lng": 106.01634891081245}, "feature": {"sight_features": "", "sight_content": ""}}, {"title": "嘉吉跑车威宁专卖店", "address": "毕节市-威宁彝族回族苗族自治县-斗阁路175号附近", "image": "", "rank": 26, "time": 2, "location": {"lat": 26.858091006186743, "lng": 104.2952866337815}, "feature": {"sight_features": "", "sight_content": ""}}, {"title": "威宁县幻影VR体验馆", "address": "毕节市-威宁彝族回族苗族自治县-威宁县新永康医院负2楼潮辣火锅旁", "image": "", "rank": 27, "time": 2, "location": {"lat": 26.868388268249447, "lng": 104.28751392825663}, "feature": {"sight_features": "", "sight_content": ""}}, {"title": "茂霖KTV", "address": "毕节市-威宁彝族回族苗族自治县-大湾镇开化居委", "image": "", "rank": 28, "time": 2, "location": {"lat": 26.879247190553315, "lng": 104.25948063397878}, "feature": {"sight_features": "", "sight_content": ""}}, {"title": "比女街黔峰山泉", "address": "毕节市-威宁彝族回族苗族自治县", "image": "", "rank": 29, "time": 2, "location": {"lat": 26.879247190553315, "lng": 104.25948063397878}, "feature": {"sight_features": "", "sight_content": ""}}, {"title": "小山坪子", "address": "毕节市-威宁彝族回族苗族自治县", "image": "", "rank": 30, "time": 2, "location": {"lat": 26.879247190553315, "lng": 104.25948063397878}, "feature": {"sight_features": "", "sight_content": ""}}]}