{"cityName": "尉氏", "days": 2, "cityImage": "", "spots": [{"title": "城关镇", "address": "河南省开封尉氏县城关镇", "image": "", "rank": 1, "time": 2.0, "location": {"lat": 34.41834368290015, "lng": 114.21232589967973}, "feature": {"sight_features": "", "sight_content": ""}}, {"title": "舍茶岗村", "address": "开封市尉氏县", "image": "", "rank": 2, "time": 0.5, "location": {"lat": 34.41722801035352, "lng": 114.1995611508576}, "feature": {"sight_features": "", "sight_content": ""}}, {"title": "金海港温泉水上乐园", "address": "开封市尉氏县西关大转盘向西1公里处", "image": "", "rank": 3, "time": 2, "location": {"lat": 34.41722801035352, "lng": 114.1995611508576}, "feature": {"sight_features": "", "sight_content": "开封金海港水上乐园位于尉氏人民路西转盘向西1公里孔家村，主要分为五大区域，漂流河区环绕整个乐园，冲浪区用地两千多平方米可同时容纳2000人。人造沙滩位于冲浪区旁边，让你有频临海边的感觉。水上螺旋滑梯惊险刺激，让你置身于清澈的激流中，在阳光下流光溢彩。儿童戏水池是孩子们的魔力乐园，游戏天堂。"}}, {"title": "白金时代水上乐园", "address": "滨河路与福星大道交叉口向西900米路南", "image": "", "rank": 4, "time": 2, "location": {"lat": 34.42947006392999, "lng": 114.19098754340928}, "feature": {"sight_features": "", "sight_content": ""}}, {"title": "滨河温泉名苑", "address": "滨河东路", "image": "", "rank": 5, "time": 2, "location": {"lat": 38.024623223067096, "lng": 115.06593737422962}, "feature": {"sight_features": "", "sight_content": ""}}, {"title": "亚隆湾温泉", "address": "人民东路鑫港宾馆", "image": "", "rank": 6, "time": 2, "location": {"lat": 34.41244364273053, "lng": 114.22797976431016}, "feature": {"sight_features": "", "sight_content": ""}}, {"title": "渔乐垂钓", "address": "西关北路附近", "image": "", "rank": 7, "time": 2, "location": {"lat": 38.44180536347995, "lng": 114.55603158878698}, "feature": {"sight_features": "", "sight_content": ""}}, {"title": "河南省尉氏县金谷农业合作社", "address": "任泽村", "image": "", "rank": 8, "time": 2, "location": {"lat": 34.38833170776545, "lng": 114.0432329981953}, "feature": {"sight_features": "", "sight_content": ""}}, {"title": "贝贝龙孕婴童水上主题生活馆", "address": "福甬路与铁路北街交叉口西北50米", "image": "", "rank": 9, "time": 2, "location": {"lat": 34.40996408136656, "lng": 114.1944660769881}, "feature": {"sight_features": "", "sight_content": ""}}, {"title": "刘园生态农庄", "address": "邢庄乡蜜蜂赵转盘", "image": "", "rank": 10, "time": 2, "location": {"lat": 34.42099664087553, "lng": 114.18341342121373}, "feature": {"sight_features": "", "sight_content": ""}}, {"title": "钻石玫瑰文化传媒", "address": "城关镇新华路(新新时代广场西关店北300米)", "image": "", "rank": 11, "time": 2, "location": {"lat": 34.42184341141884, "lng": 114.19283900137044}, "feature": {"sight_features": "", "sight_content": ""}}, {"title": "瑞丽水族馆", "address": "丰华苑路与纱厂西路交叉口东南50米", "image": "", "rank": 12, "time": 2.0, "location": {"lat": 34.411449831079494, "lng": 114.21778590028129}, "feature": {"sight_features": "", "sight_content": ""}}, {"title": "兴豪古陶瓷博物馆", "address": "河南省开封市尉氏县南关街", "image": "", "rank": 13, "time": 2, "location": {"lat": 34.40657405614358, "lng": 114.19921448577824}, "feature": {"sight_features": "", "sight_content": ""}}, {"title": "天泰文化广场", "address": "福星大道北50米", "image": "", "rank": 14, "time": 2, "location": {"lat": 22.88025686648806, "lng": 113.25385632234942}, "feature": {"sight_features": "", "sight_content": ""}}, {"title": "三官庙", "address": "河南省开封市尉氏县", "image": "", "rank": 15, "time": 2, "location": {"lat": 34.41722801035352, "lng": 114.1995611508576}, "feature": {"sight_features": "", "sight_content": ""}}, {"title": "开封卢园", "address": "河南省开封市尉氏县大营镇卢家村", "image": "", "rank": 16, "time": 3.5, "location": {"lat": 34.45045246153292, "lng": 114.06790704399393}, "feature": {"sight_features": "", "sight_content": ""}}, {"title": "基督教堂", "address": "开封市尉氏县自由路北区", "image": "", "rank": 17, "time": 2.0, "location": {"lat": 34.4224739031386, "lng": 114.21310024621576}, "feature": {"sight_features": "", "sight_content": ""}}, {"title": "千岛湖啤酒广场", "address": "尉州大道与西关北路交叉口东南100米", "image": "", "rank": 18, "time": 4.5, "location": {"lat": 34.42598829721126, "lng": 114.19628434166238}, "feature": {"sight_features": "", "sight_content": ""}}, {"title": "城东广场", "address": "开封市尉氏县", "image": "", "rank": 19, "time": 2.5, "location": {"lat": 34.41722801035352, "lng": 114.1995611508576}, "feature": {"sight_features": "", "sight_content": ""}}, {"title": "顽皮豆儿童主题乐园", "address": "尉氏县其他文化路东段八房井购物广场一楼(大众服饰东北角)", "image": "", "rank": 20, "time": 2, "location": {"lat": 34.41722801035352, "lng": 114.1995611508576}, "feature": {"sight_features": "", "sight_content": ""}}, {"title": "关圣帝君全神庙", "address": "南曹乡关圣帝君全神庙", "image": "", "rank": 21, "time": 2, "location": {"lat": 34.26961210514631, "lng": 114.21584096195383}, "feature": {"sight_features": "", "sight_content": ""}}, {"title": "世纪游乐园", "address": "文化西路与滨河西路交叉口西100米", "image": "", "rank": 22, "time": 2, "location": {"lat": 34.41958781198716, "lng": 114.18926438233935}, "feature": {"sight_features": "", "sight_content": ""}}, {"title": "在水一方温泉休闲广场", "address": "建设中路", "image": "", "rank": 23, "time": 2, "location": {"lat": 31.427828087378803, "lng": 119.48412175207878}, "feature": {"sight_features": "", "sight_content": ""}}, {"title": "人民文化馆", "address": "文化西路69", "image": "", "rank": 24, "time": 2, "location": {"lat": 34.41992465123667, "lng": 114.18903372173862}, "feature": {"sight_features": "", "sight_content": ""}}, {"title": "尉北高效生态农业园区", "address": "219省道附近", "image": "", "rank": 25, "time": 2, "location": {"lat": 40.151047949015684, "lng": 115.89871895858025}, "feature": {"sight_features": "", "sight_content": ""}}, {"title": "张市农家果园", "address": "张市镇沙门村", "image": "", "rank": 26, "time": 2, "location": {"lat": 34.38544428695994, "lng": 114.25072038176984}, "feature": {"sight_features": "", "sight_content": ""}}, {"title": "三贤画廊", "address": "南关街西50米", "image": "", "rank": 27, "time": 2, "location": {"lat": 38.03409722959132, "lng": 115.05332615839541}, "feature": {"sight_features": "", "sight_content": ""}}, {"title": "综艺画廊(后新街)", "address": "城关镇后新街", "image": "", "rank": 28, "time": 2, "location": {"lat": 34.41492722359087, "lng": 114.19766734407978}, "feature": {"sight_features": "", "sight_content": ""}}, {"title": "尉氏县联众瓜果种植专业合作社", "address": "大马乡双岭岗村尉氏县前进机械有限公司西南侧250米", "image": "", "rank": 29, "time": null, "location": {"lat": 34.32398119856748, "lng": 114.04684284787021}, "feature": {"sight_features": "", "sight_content": ""}}, {"title": "尉氏县葡提缘家庭农场", "address": "建设路南段与福聚路交叉口南侧路东", "image": "", "rank": 30, "time": 2, "location": {"lat": 34.41210002044225, "lng": 114.2106026595589}, "feature": {"sight_features": "", "sight_content": ""}}, {"title": "刘青霞故居", "address": "河南省尉氏县县城正中央", "image": "", "rank": 31, "time": 0.5, "location": {"lat": 34.41722801035352, "lng": 114.1995611508576}, "feature": {"sight_features": "", "sight_content": ""}}]}