{"cityName": "巍山", "days": 2, "cityImage": "", "spots": [{"title": "巍山古城", "address": "大理白族自治州巍山彝族回族自治县", "image": "", "rank": 1, "time": 3.0, "location": {"lat": 25.23343872979941, "lng": 100.31346033514549}, "feature": {"sight_features": "", "sight_content": ""}}, {"title": "巍宝山", "address": "大理州巍山县巍宝山乡南诏镇巍宝山国家级风景名胜区内", "image": "", "rank": 2, "time": 3.5, "location": {"lat": 25.181913625910475, "lng": 100.35279232568334}, "feature": {"sight_features": "特色1 著名的道教名山，山间道观约30座，格外壮观。", "sight_content": "巍宝山，在巍山古城东南10公里处。景区总面积19.4平方公里，主景区面积6平方公里，最高海拔2509米。巍宝山因其历史悠久，古建荟萃，环境幽雅，自然和谐，是国家风景名胜区、中国道教名山、国家森林公园和南诏发祥地。走进巍宝山如同走进了古老艺术的殿堂。现存20余座明清时期的道教宫观，依山就势、布局严谨，雄伟、庄严又不失灵秀，展现出不凡的风姿。中国道教协会的权威人士曾专程考察巍宝山，先后留下“巍宝仙踪”、“巍宝仙境”“巍宝道教名山”“中国道教名山”的墨迹。在文昌宫的文龙亭，保存着珍贵的清代乾隆年间的彝族踏歌壁画，是研究彝族歌舞、服饰、社会风情的珍贵文物。"}}, {"title": "拱辰楼", "address": "大理白族自治州巍山彝族回族自治县", "image": "", "rank": 3, "time": 0.4, "location": {"lat": 25.23343872979941, "lng": 100.31346033514549}, "feature": {"sight_features": "", "sight_content": ""}}, {"title": "慧明寺", "address": "大理白族自治州巍山彝族回族自治县北部庙街乡", "image": "", "rank": 4, "time": 0.75, "location": {"lat": 25.31634278131509, "lng": 100.2865618342858}, "feature": {"sight_features": "", "sight_content": ""}}, {"title": "星拱楼", "address": "大理白族自治州巍山县巍山古城", "image": "", "rank": 5, "time": 0.75, "location": {"lat": 25.23433677354531, "lng": 100.31513724066755}, "feature": {"sight_features": "", "sight_content": ""}}, {"title": "长春洞", "address": "大理白族自治州巍山彝族回族自治县境内的巍宝山西麓", "image": "", "rank": 6, "time": 0.75, "location": {"lat": 25.181913625910475, "lng": 100.35279232568334}, "feature": {"sight_features": "", "sight_content": ""}}, {"title": "啄木郎", "address": "大理白族自治州巍山县新胜村", "image": "", "rank": 7, "time": 7.5, "location": {"lat": 25.437953524999248, "lng": 100.31580703701829}, "feature": {"sight_features": "", "sight_content": ""}}, {"title": "鸟道雄关", "address": "大理白族自治州巍山彝族回族自治县", "image": "", "rank": 8, "time": 0.75, "location": {"lat": 25.23343872979941, "lng": 100.31346033514549}, "feature": {"sight_features": "", "sight_content": ""}}, {"title": "巍山文庙", "address": "大理白族自治州巍山县巍山古城", "image": "", "rank": 9, "time": 0.75, "location": {"lat": 25.23433677354531, "lng": 100.31513724066755}, "feature": {"sight_features": "", "sight_content": ""}}, {"title": "文华书院", "address": "大理白族自治州巍山县巍山古城东北隅", "image": "", "rank": 10, "time": 0.75, "location": {"lat": 25.23433677354531, "lng": 100.31513724066755}, "feature": {"sight_features": "", "sight_content": ""}}, {"title": "巍山等觉寺", "address": "巍山古城东北隅", "image": "", "rank": 11, "time": 3.0, "location": {"lat": 25.23433677354531, "lng": 100.31513724066755}, "feature": {"sight_features": "", "sight_content": ""}}, {"title": "蒙阳公园", "address": "云南省大理白族自治州巍山彝族回族自治县 大沟街", "image": "", "rank": 12, "time": 2, "location": {"lat": 25.23307576499983, "lng": 100.31344479446017}, "feature": {"sight_features": "", "sight_content": ""}}, {"title": "民俗博物馆", "address": "巍山县巍山古城日升街人文巷21号", "image": "", "rank": 13, "time": 1.5, "location": {"lat": 25.23433677354531, "lng": 100.31513724066755}, "feature": {"sight_features": "", "sight_content": ""}}, {"title": "等觉寺双塔", "address": "巍山县城东北隅报国街", "image": "", "rank": 14, "time": 2, "location": {"lat": 25.235634466322153, "lng": 100.31627409659517}, "feature": {"sight_features": "", "sight_content": ""}}, {"title": "东莲花村", "address": "东莲花村", "image": "", "rank": 15, "time": 2, "location": {"lat": 41.32674168988042, "lng": 122.27437605214283}, "feature": {"sight_features": "", "sight_content": ""}}, {"title": "梁家房子", "address": "大理白族自治州巍山彝族回族自治县", "image": "", "rank": 16, "time": 2, "location": {"lat": 25.23343872979941, "lng": 100.31346033514549}, "feature": {"sight_features": "", "sight_content": ""}}, {"title": "圆觉寺", "address": "大理巍山县", "image": "", "rank": 17, "time": 1.5, "location": {"lat": 25.23343872979941, "lng": 100.31346033514549}, "feature": {"sight_features": "", "sight_content": ""}}, {"title": "玄龙寺", "address": "大理白族自治州巍山彝族回族自治县", "image": "", "rank": 18, "time": 1.5, "location": {"lat": 25.23343872979941, "lng": 100.31346033514549}, "feature": {"sight_features": "", "sight_content": ""}}, {"title": "魏宝山", "address": "云南省大理市才村码头 671000", "image": "", "rank": 19, "time": 2, "location": {"lat": 25.723799197650283, "lng": 100.19770271089584}, "feature": {"sight_features": "", "sight_content": ""}}, {"title": "北社学", "address": "大理白族自治州巍山县巍山古城", "image": "", "rank": 20, "time": 1.5, "location": {"lat": 25.23433677354531, "lng": 100.31513724066755}, "feature": {"sight_features": "", "sight_content": ""}}, {"title": "玉皇阁", "address": "大理白族自治州巍山县巍山古城东北部", "image": "", "rank": 21, "time": 1.0, "location": {"lat": 25.23433677354531, "lng": 100.31513724066755}, "feature": {"sight_features": "", "sight_content": ""}}, {"title": "玄珠观", "address": "大理白族自治州巍山县巍山古城", "image": "", "rank": 22, "time": 0.75, "location": {"lat": 25.23433677354531, "lng": 100.31513724066755}, "feature": {"sight_features": "", "sight_content": ""}}, {"title": "巍山清真寺", "address": "大理白族自治州巍山县巍山古城", "image": "", "rank": 23, "time": null, "location": {"lat": 25.23433677354531, "lng": 100.31513724066755}, "feature": {"sight_features": "", "sight_content": ""}}, {"title": "大理沉香度假村", "address": "大理市巍山县东街64号（柯家大院）", "image": "", "rank": 24, "time": 2, "location": {"lat": 25.23343872979941, "lng": 100.31346033514549}, "feature": {"sight_features": "", "sight_content": ""}}, {"title": "南诏文化广场", "address": "大水沟街12附近", "image": "", "rank": 25, "time": 2, "location": {"lat": 25.233379778654292, "lng": 100.31357009011266}, "feature": {"sight_features": "", "sight_content": ""}}, {"title": "巍山法治文化广场", "address": "大沟街与蒙化南路交叉口东100米", "image": "", "rank": 26, "time": 3.0, "location": {"lat": 25.23307576499983, "lng": 100.31344479446017}, "feature": {"sight_features": "", "sight_content": ""}}, {"title": "宝善寺", "address": "明街西50米", "image": "", "rank": 27, "time": 2, "location": {"lat": 25.24466443995025, "lng": 100.3106816067124}, "feature": {"sight_features": "", "sight_content": ""}}, {"title": "茶山寺", "address": "大理白族自治州巍山彝族回族自治县", "image": "", "rank": 28, "time": 2, "location": {"lat": 25.23343872979941, "lng": 100.31346033514549}, "feature": {"sight_features": "", "sight_content": ""}}, {"title": "北坛寺", "address": "文明街144号附近", "image": "", "rank": 29, "time": 2, "location": {"lat": 23.904603894172006, "lng": 106.63139575146677}, "feature": {"sight_features": "", "sight_content": ""}}, {"title": "南诏胡同历险城", "address": "巍山古城南诏胡同内(蒙化南路和环城南路交叉口)", "image": "", "rank": 30, "time": 2, "location": {"lat": 25.226876172588447, "lng": 100.31661125850042}, "feature": {"sight_features": "", "sight_content": ""}}, {"title": "小新屋亲子游乐园", "address": "南城西路与瓜浦路交叉口西北50米", "image": "", "rank": 31, "time": 2, "location": {"lat": 25.234339028123145, "lng": 100.31098703058568}, "feature": {"sight_features": "", "sight_content": ""}}, {"title": "巍山县民族文化工作队", "address": "文献街", "image": "", "rank": 32, "time": 2, "location": {"lat": 25.24197505676664, "lng": 100.31522553960761}, "feature": {"sight_features": "", "sight_content": ""}}, {"title": "巍山南诏古乐团", "address": "拱辰楼南诏东路", "image": "", "rank": 33, "time": 3.0, "location": {"lat": 25.2359208991127, "lng": 100.31409173252891}, "feature": {"sight_features": "", "sight_content": ""}}, {"title": "小普陀岛", "address": "云南省大理市洱海", "image": "", "rank": 34, "time": 2.5, "location": {"lat": 25.79229436253489, "lng": 100.19100365235404}, "feature": {"sight_features": "", "sight_content": ""}}, {"title": "巍山古城观光游览车招呼站等觉古...", "address": "大理白族自治州-巍山彝族回族自治县-华兴南路", "image": "", "rank": 35, "time": 3.0, "location": {"lat": 25.232610015004525, "lng": 100.32018728697167}, "feature": {"sight_features": "", "sight_content": ""}}, {"title": "昂系古", "address": "大理白族自治州-巍山彝族回族自治县-河南公路", "image": "", "rank": 36, "time": 2, "location": {"lat": 25.259840866285764, "lng": 100.00292788825088}, "feature": {"sight_features": "", "sight_content": ""}}]}