{"cityName": "魏县", "days": 2, "cityImage": "", "spots": [{"title": "魏祠公园", "address": "县城东南部东邻兴源大街", "image": "", "rank": 1, "time": 2, "location": {"lat": 36.36224215473079, "lng": 114.96470729127628}, "feature": {"sight_features": "", "sight_content": ""}}, {"title": "张固葡萄采摘园", "address": "日晷公园", "image": "", "rank": 2, "time": 2, "location": {"lat": 36.36634959713707, "lng": 114.99943036550981}, "feature": {"sight_features": "", "sight_content": ""}}, {"title": "魏县图书馆", "address": "礼贤南街186号", "image": "", "rank": 3, "time": 1.5, "location": {"lat": 36.36084606289686, "lng": 114.94894404627205}, "feature": {"sight_features": "", "sight_content": ""}}, {"title": "老三水果批发交易市场", "address": "沙口集乡大斜街村内", "image": "", "rank": 4, "time": 2, "location": {"lat": 36.326924821998574, "lng": 115.04495951424845}, "feature": {"sight_features": "", "sight_content": ""}}, {"title": "魏都梅苑温泉度假村", "address": "兴魏路附近", "image": "", "rank": 5, "time": 2, "location": {"lat": 36.70399669023127, "lng": 115.91535972949141}, "feature": {"sight_features": "", "sight_content": ""}}, {"title": "手擀面(生态公园)", "address": "礼贤南街路西", "image": "", "rank": 6, "time": null, "location": {"lat": 36.360189945760645, "lng": 114.94906706292349}, "feature": {"sight_features": "", "sight_content": ""}}, {"title": "欢乐岛儿童乐园", "address": "河北省邯郸市魏县北皋镇新农村广场", "image": "", "rank": 7, "time": 2, "location": {"lat": 36.26198675381194, "lng": 114.79370262319196}, "feature": {"sight_features": "", "sight_content": ""}}, {"title": "勤廉文化公园", "address": "魏都北大街西100米", "image": "", "rank": 8, "time": 2, "location": {"lat": 36.371399249767876, "lng": 114.94219948496072}, "feature": {"sight_features": "", "sight_content": ""}}, {"title": "哈哈岛儿童园", "address": "河北省邯郸市魏县礼贤南街", "image": "", "rank": 9, "time": 2, "location": {"lat": 36.360189945760645, "lng": 114.94906706292349}, "feature": {"sight_features": "", "sight_content": ""}}, {"title": "龙凤山玉皇庙", "address": "河北省邯郸市魏县前大么乡魏户村西", "image": "", "rank": 10, "time": 2, "location": {"lat": 36.25990683872307, "lng": 114.84462414270354}, "feature": {"sight_features": "", "sight_content": ""}}, {"title": "星期天儿童乐园", "address": "魏城镇干菜市场北门对面", "image": "", "rank": 11, "time": 2, "location": {"lat": 39.93012667904479, "lng": 116.43434367992631}, "feature": {"sight_features": "", "sight_content": ""}}, {"title": "日晷公园", "address": "河北省邯郸市魏县大广高速魏县连接线", "image": "", "rank": 12, "time": 2, "location": {"lat": 36.366156454371385, "lng": 114.94545044631319}, "feature": {"sight_features": "", "sight_content": ""}}, {"title": "吉祥寺", "address": "邯郸市魏县", "image": "", "rank": 13, "time": 2, "location": {"lat": 36.366156454371385, "lng": 114.94545044631319}, "feature": {"sight_features": "", "sight_content": ""}}, {"title": "魏县三角公园", "address": "魁星街与魏州东路交叉口东北50米", "image": "", "rank": 14, "time": 2, "location": {"lat": 36.36615929010249, "lng": 114.94734238192065}, "feature": {"sight_features": "", "sight_content": ""}}, {"title": "开心岛儿童水上主题俱乐部", "address": "开元东路与魏州东路交叉口东50米", "image": "", "rank": 15, "time": 2, "location": {"lat": 36.3657308229562, "lng": 114.94877507770053}, "feature": {"sight_features": "", "sight_content": ""}}, {"title": "热带植物动物园", "address": "邯郸市魏县天河东路附近魏祠公园内西南角", "image": "", "rank": 16, "time": 2, "location": {"lat": 36.336946076472984, "lng": 114.95881351241854}, "feature": {"sight_features": "", "sight_content": ""}}, {"title": "开心乐园双语幼儿之家(第三分园)", "address": "邯大公路", "image": "", "rank": 17, "time": 2, "location": {"lat": 36.55733951970864, "lng": 114.5390698389442}, "feature": {"sight_features": "", "sight_content": ""}}, {"title": "魏县家居礼品展厅", "address": "新汽车站东行100米路北", "image": "", "rank": 18, "time": 2, "location": {"lat": 39.3208591710094, "lng": 115.86589229351561}, "feature": {"sight_features": "", "sight_content": ""}}, {"title": "魏县梨乡冰乐园", "address": "双井南行3公里（张辉屯）234国道旁梨乡冰乐园(张辉屯)", "image": "", "rank": 19, "time": 2, "location": {"lat": 39.93107728869212, "lng": 116.83541472501919}, "feature": {"sight_features": "", "sight_content": ""}}, {"title": "河北魏宏果品", "address": "沙口集乡大斜街村", "image": "", "rank": 20, "time": 2, "location": {"lat": 36.30709156908873, "lng": 114.99359254569549}, "feature": {"sight_features": "", "sight_content": ""}}, {"title": "魏州小吃步行街", "address": "河北省魏县魏州西路165号", "image": "", "rank": 21, "time": 2, "location": {"lat": 36.36678157689179, "lng": 114.9389556076455}, "feature": {"sight_features": "", "sight_content": ""}}, {"title": "魏县付平种植专业合作社", "address": "邯郸市-魏县", "image": "", "rank": 22, "time": 2, "location": {"lat": 36.366156454371385, "lng": 114.94545044631319}, "feature": {"sight_features": "", "sight_content": ""}}, {"title": "魏州快乐乒乓球馆", "address": "邯郸市-魏县-建安路157西南100米", "image": "", "rank": 23, "time": 2, "location": {"lat": 36.36387332838431, "lng": 114.92861300039367}, "feature": {"sight_features": "", "sight_content": ""}}, {"title": "张二庄东村", "address": "邯郸市-魏县", "image": "", "rank": 24, "time": 2, "location": {"lat": 36.366156454371385, "lng": 114.94545044631319}, "feature": {"sight_features": "", "sight_content": ""}}]}