{"cityName": "威信", "days": 2, "cityImage": "", "spots": [{"title": "扎西上广场", "address": "云南省昭通市威信县人民路12号附近", "image": "", "rank": 1, "time": 2, "location": {"lat": 27.849643975590347, "lng": 105.05588471481235}, "feature": {"sight_features": "", "sight_content": ""}}, {"title": "两合岩", "address": "云南省威信县扎西镇 657900", "image": "", "rank": 2, "time": 2, "location": {"lat": 27.84643348343907, "lng": 105.05474872844448}, "feature": {"sight_features": "", "sight_content": ""}}, {"title": "扎西镇小关口净心寺佛教管理组", "address": "云南省昭通市威信县扎西镇环城北路小关口净心寺", "image": "", "rank": 3, "time": 2, "location": {"lat": 27.854890176073845, "lng": 105.06396171292124}, "feature": {"sight_features": "", "sight_content": ""}}, {"title": "毛主席纪念堂", "address": "人民路10号", "image": "", "rank": 4, "time": 1.0, "location": {"lat": 39.90889134345817, "lng": 116.40416122204557}, "feature": {"sight_features": "", "sight_content": ""}}, {"title": "锦绣山庄", "address": "302省道", "image": "", "rank": 5, "time": 2, "location": {"lat": 40.09862711264105, "lng": 117.61062300284506}, "feature": {"sight_features": "", "sight_content": ""}}, {"title": "威信县图书馆", "address": "人民路10号", "image": "", "rank": 6, "time": 2, "location": {"lat": 27.85253746404035, "lng": 105.05557676310737}, "feature": {"sight_features": "", "sight_content": ""}}, {"title": "观斗山", "address": "云南省威信县高田乡", "image": "", "rank": 7, "time": 1.0, "location": {"lat": 27.965148885874502, "lng": 105.20375016477574}, "feature": {"sight_features": "", "sight_content": ""}}, {"title": "扎西会议纪念馆", "address": "云南省威信县扎西镇东北隅", "image": "", "rank": 8, "time": 2, "location": {"lat": 27.84643348343907, "lng": 105.05474872844448}, "feature": {"sight_features": "", "sight_content": ""}}]}