{"cityName": "文安", "days": 2, "cityImage": "", "spots": [{"title": "文安洼", "address": "廊坊市文安县境内，大清河下游", "image": "", "rank": 1, "time": 1.0, "location": {"lat": 39.00229306986307, "lng": 116.35676529744022}, "feature": {"sight_features": "", "sight_content": ""}}, {"title": "水韵名都", "address": "廊坊文安县兴隆宫镇北斗村106国道", "image": "", "rank": 2, "time": 2, "location": {"lat": 38.907809724913456, "lng": 116.27200219112933}, "feature": {"sight_features": "", "sight_content": ""}}, {"title": "文安万亩林场", "address": "廊坊市文安县境内", "image": "", "rank": 3, "time": 1.0, "location": {"lat": 38.878950493070235, "lng": 116.46460947899904}, "feature": {"sight_features": "", "sight_content": ""}}, {"title": "海之兰温泉水上乐园", "address": "廊坊文安县城东北方向刘小泗村", "image": "", "rank": 4, "time": 2, "location": {"lat": 38.95122462258991, "lng": 116.50122613812893}, "feature": {"sight_features": "", "sight_content": ""}}, {"title": "文安县文化馆", "address": "政通道", "image": "", "rank": 5, "time": 1.0, "location": {"lat": 38.87715896512256, "lng": 116.4572547508565}, "feature": {"sight_features": "", "sight_content": ""}}, {"title": "鲁能庄园", "address": "河北省廊坊市文安县界围农场鲁能生态区", "image": "", "rank": 6, "time": 2, "location": {"lat": 39.00637012837548, "lng": 116.48557422821128}, "feature": {"sight_features": "", "sight_content": ""}}, {"title": "一水倾城洗浴休闲会馆", "address": "廊坊市文安县左各庄镇政府西路（河西村）", "image": "", "rank": 7, "time": 2, "location": {"lat": 39.02200289291192, "lng": 116.62421779782426}, "feature": {"sight_features": "", "sight_content": ""}}, {"title": "大厂文化馆", "address": "东大街", "image": "", "rank": 8, "time": 2.5, "location": {"lat": 22.617509352603705, "lng": 114.14733733676542}, "feature": {"sight_features": "", "sight_content": ""}}, {"title": "小王庄垂钓园", "address": "小王庄盛泰公司西北侧100米", "image": "", "rank": 9, "time": 2, "location": {"lat": 38.878047580098674, "lng": 116.49396405223364}, "feature": {"sight_features": "", "sight_content": ""}}, {"title": "森林公园", "address": "政通道东150米", "image": "", "rank": 10, "time": 2.5, "location": {"lat": 38.87715896512256, "lng": 116.45860220912147}, "feature": {"sight_features": "", "sight_content": ""}}, {"title": "佛缘花海", "address": "河北省廊坊市文安县孙氏四村采留线孙氏镇政府东450米", "image": "", "rank": 11, "time": 2, "location": {"lat": 38.769965066918374, "lng": 116.50402503082672}, "feature": {"sight_features": "", "sight_content": ""}}, {"title": "五爷庙", "address": "河北省廊坊市文安县采留线孙氏镇五村村民委员会东200米", "image": "", "rank": 12, "time": 2.5, "location": {"lat": 38.806719406158976, "lng": 116.52206299019589}, "feature": {"sight_features": "", "sight_content": ""}}, {"title": "萌太极儿童游乐园", "address": "兴文道与商业街交叉口东南50米", "image": "", "rank": 13, "time": 2, "location": {"lat": 38.87109989746145, "lng": 116.46433147320643}, "feature": {"sight_features": "", "sight_content": ""}}, {"title": "儿童游乐园", "address": "河北省廊坊市文安县兴文道", "image": "", "rank": 14, "time": 2, "location": {"lat": 38.87142030723289, "lng": 116.46620641107702}, "feature": {"sight_features": "", "sight_content": ""}}, {"title": "东方红乐园", "address": "河北省廊坊市文安县文安镇永定路文安宾馆东", "image": "", "rank": 15, "time": 2, "location": {"lat": 38.87786876514222, "lng": 116.46553891708308}, "feature": {"sight_features": "", "sight_content": ""}}, {"title": "同乐儿童乐园", "address": "政通道荣美购物中心6楼", "image": "", "rank": 16, "time": 2, "location": {"lat": 38.877488159598904, "lng": 116.4669687328955}, "feature": {"sight_features": "", "sight_content": ""}}, {"title": "基督教圣恩堂", "address": "廊坊市文安县", "image": "", "rank": 17, "time": 2, "location": {"lat": 38.878950493070235, "lng": 116.46460947899904}, "feature": {"sight_features": "", "sight_content": ""}}, {"title": "富祥庄园", "address": "河北省廊坊市文安县王宫线", "image": "", "rank": 18, "time": 2, "location": {"lat": 38.87263559660995, "lng": 116.63838102327448}, "feature": {"sight_features": "", "sight_content": ""}}, {"title": "海水湾汤泉", "address": "廊坊市文安县史各庄镇北辛村", "image": "", "rank": 19, "time": 2, "location": {"lat": 38.94221158498657, "lng": 116.31597403294435}, "feature": {"sight_features": "", "sight_content": "海水湾是集男女沐浴、汗蒸、室内外温泉、健身、休闲区、棋牌室、餐厅、游泳、儿童戏水、儿童乐园、足疗、经络按摩、客房等项目于一体的休闲场所。店内设有天然保健盐浴，格调独特的黄土房、氧吧、窑洞、蒙古包。经营面积8000余平方米，融汇东方文化神韵的全新设计理念，营造出幽雅、安静、舒适、高尚的休闲空间。"}}, {"title": "海之蓝大型游泳水上乐园", "address": "大柳河镇刘小泗村", "image": "", "rank": 20, "time": 2, "location": {"lat": 38.965988564480774, "lng": 116.57555992914693}, "feature": {"sight_features": "", "sight_content": ""}}, {"title": "北国画廊", "address": "新开路", "image": "", "rank": 21, "time": 2, "location": {"lat": 29.833734686847574, "lng": 108.15251404276403}, "feature": {"sight_features": "", "sight_content": ""}}, {"title": "李庄农场", "address": "创业路附近", "image": "", "rank": 22, "time": 2, "location": {"lat": 38.049793198095635, "lng": 114.45225952042694}, "feature": {"sight_features": "", "sight_content": ""}}, {"title": "海龙湾水上乐园", "address": "世纪大道与民族路交叉口", "image": "", "rank": 23, "time": 2, "location": {"lat": 25.276213535106397, "lng": 110.2841402795177}, "feature": {"sight_features": "", "sight_content": ""}}, {"title": "文安洼湿地", "address": "河北省保定市新市区文安县城东部", "image": "", "rank": 24, "time": 2, "location": {"lat": 38.881182947490466, "lng": 115.41224520287372}, "feature": {"sight_features": "", "sight_content": ""}}, {"title": "文安县得赢种养专业合作社", "address": "廊坊市-文安县-左各庄镇中艾头村村车8号", "image": "", "rank": 25, "time": 2, "location": {"lat": 39.00472432540531, "lng": 116.6260375420077}, "feature": {"sight_features": "", "sight_content": ""}}]}