{"cityName": "文昌", "days": "", "cityImage": "", "spots": [{"title": "铜鼓岭", "address": "文昌市龙楼镇", "image": "", "rank": 1, "time": 10.5, "location": {"lat": 19.655527807718165, "lng": 110.97252247603215}, "feature": {"sight_features": "", "sight_content": "铜鼓岭人称“番薯岭”，地处文昌市龙楼镇，共有18座高低起伏的山峰，最高峰海拔为338米，有琼东第一峰之称，也是海南的最东角。铜鼓岭区域三面环海，地貌奇特，植被繁茂，不仅景观奇秀，而且自然资源丰富，有名贵的珍禽异兽、多种药材、檀香木以及大面积的青皮林。"}}, {"title": "东郊椰林", "address": "文昌市东郊镇椰林路东郊椰林风景区内", "image": "", "rank": 2, "time": 7.5, "location": {"lat": 19.53575307553407, "lng": 110.86951103801536}, "feature": {"sight_features": "", "sight_content": ""}}, {"title": "石头公园", "address": "文昌市龙楼镇铜鼓岭", "image": "", "rank": 3, "time": 2.0, "location": {"lat": 19.64549054223604, "lng": 111.03800788139927}, "feature": {"sight_features": "", "sight_content": ""}}, {"title": "宋庆龄祖居", "address": "文昌市昌洒镇古路园村", "image": "", "rank": 4, "time": 2.0, "location": {"lat": 19.74574700700807, "lng": 110.87751770419268}, "feature": {"sight_features": "特色1 祖居是当地传统的农家宅院，深切缅怀革命前辈的光辉一生。", "sight_content": "文昌宋庆龄祖居位于文昌市昌洒镇古路园村，坐落在一片果树环抱的山丘上，周围绿树成荫，环境幽静。\n宋庆龄祖居是宋氏家族奠基人、中国民主革命先驱之一宋耀如先生出生与他少年生活的地方，是中华人民共和国名誉主席宋庆龄的祖籍地。为纪念宋庆龄在中国人民革命事业中的特殊贡献，文昌市人民政府于1985年重修宋庆龄祖居，在宋庆龄基金会及海内外友好人士的支持下，兴建宋庆龄陈列馆。1988年5月，宋庆龄祖居园区正式对外开放。\n宋庆龄陈列馆位于宋庆龄祖居西北侧，面积420平方米。馆内陈列着珍贵展品以及丰富的文献史料和图片资料，展示了宋庆龄伟大光荣的一生，再现了宋氏家族主要成员在中国近现代中的生活轨迹，弘扬了以宋庆龄、宋耀如为代表的宋氏家族的爱国主义精神。\n随着时代的变迁，宋氏家族不但不被浩瀚史海所湮灭，反而愈益成为人们研究和寻踪探奇的热点。他们不懈的人生追求、崇高的人格魅力、炽热的爱国情怀、坚韧的奋斗精神、浓浓的手足深情和深厚的家乡情怀是宋氏家族给海南人民留下的珍贵的精神文化遗产。文昌市委市政府联手华侨城海南集团正在筹建文昌宋氏文化小镇，努力把宋氏家族文化打造成“海南第一人文景观”。为传承中华传统文化、与时代同步伐、弘扬宋庆龄的革命精神、为实现中华民族伟大复兴的中国梦而努力奋斗。"}}, {"title": "文昌孔庙", "address": "文昌市文东路77号", "image": "", "rank": 5, "time": 1.0, "location": {"lat": 19.634142484820533, "lng": 110.7650279429126}, "feature": {"sight_features": "", "sight_content": ""}}, {"title": "文昌航天城", "address": "文昌市龙楼镇航天发射场大门往龙楼方向200米(游客到访中心)", "image": "", "rank": 6, "time": 1.5, "location": {"lat": 19.655527807718165, "lng": 110.97252247603215}, "feature": {"sight_features": "特色1 中国首个滨海发射基地 特色2 近距离体验火箭的发射现场 特色3 在该地建设的中国滨海发射基地", "sight_content": "文昌航天城位于中国海南省文昌市附近，前身为中国发射亚轨道火箭的测试基地，后经国务院、中央军委批准在该地建设中国首个滨海发射基地。建设工程于2009年9月14日正式开工，2014年10月中旬基本竣工。2016年3月开通了航天城观光旅游，可乘坐电瓶车参观发射中心，现场有专门的接待人员讲解。在文昌航天城内，可以近距离观看发射塔指挥中心和发射塔，参观火箭发射台，外观火箭材料运输中心，外观火箭组装基地。海南岛是中国陆地纬度最低、距离赤道最近的地区。火箭发射场距离赤道越近、纬度越低，发射卫星时就可以尽可能利用惯性产生的离心现象，因此所需要的能耗较低，使用同样燃料可以达到的速度也更快。据称，在海南发射地球同步卫星比在西昌发射火箭的运载能力可提高10%至15%，卫星寿命可延长2年以上。同时，发射基地选在海南，火箭可以通过水路运输，火箭的大小就不受铁轨的限制（长征二号系列由于受到铁路运输的限制，其组件的最大直径只能限制在3.5米）。另外，从海南岛发射的火箭，其发射方向1000公里范围内是茫茫大海，因此坠落的残骸不易造成意外。\n海南航天发射场主要用于发射中国新一代大型无毒、无污染运载火箭，承担地球同步轨道卫星、大质量极轨卫星、大吨位空间站和深空探测航天器等航天发射任务，它由发射场区、配套测控站等区域组成，发射场区地理位置居北纬十九度左右，包括发射区、技术区、试验协作区、技术勤务保障系统等。20世纪70年代，中国建设航天发射场时，就曾经把海南岛列为最佳场址之一，但鉴于当时冷战的国际环境，沿海地区很容易被外国军队占领，最终不得不改在较为不易被攻击的西昌。文昌发射中心在冷战后重新开工建设。海南航天发射基地建设项目从上世纪90年代中期开始酝酿和多轮科学评估。据中国科学院院士、著名火箭专家余梦伦介绍，最初论证时曾有海南三亚方案、文昌方案、广东阳江方案等3个方案。但经过专家的综合评估，我国第四个卫星发射基地最终花落文昌市。"}}, {"title": "高隆湾", "address": "文昌市高隆路", "image": "", "rank": 7, "time": 2, "location": {"lat": 19.544451786055927, "lng": 110.82037803760394}, "feature": {"sight_features": "", "sight_content": ""}}, {"title": "月亮湾", "address": "文昌市铜鼓岭附近", "image": "", "rank": 8, "time": 1.5, "location": {"lat": 19.675654992153635, "lng": 111.02900726892126}, "feature": {"sight_features": "", "sight_content": ""}}, {"title": "椰子大观园", "address": "文昌市文清大道502号椰子大观园", "image": "", "rank": 9, "time": 2, "location": {"lat": 19.55692309208429, "lng": 110.80205812888703}, "feature": {"sight_features": "", "sight_content": ""}}, {"title": "清澜港景区", "address": "文昌市清澜镇东南，距文城镇12公里,距海口90多公里", "image": "", "rank": 10, "time": 13.5, "location": {"lat": 19.568300152479814, "lng": 110.8287310122332}, "feature": {"sight_features": "", "sight_content": ""}}, {"title": "八门湾绿道", "address": "文昌市庆龄路横山服务区", "image": "", "rank": 11, "time": 2, "location": {"lat": 19.627840448318366, "lng": 110.76829025525241}, "feature": {"sight_features": "", "sight_content": ""}}, {"title": "环球码头", "address": "文昌市文城镇清澜路", "image": "", "rank": 12, "time": 2, "location": {"lat": 19.565006961275284, "lng": 110.81844275516305}, "feature": {"sight_features": "", "sight_content": ""}}, {"title": "南洋河原生态高尔夫球会", "address": "海口大致坡镇", "image": "", "rank": 13, "time": 2, "location": {"lat": 19.82409762553376, "lng": 110.63734085922323}, "feature": {"sight_features": "", "sight_content": ""}}, {"title": "海南文昌高尔夫球会", "address": "文昌市潭牛镇华侨农场内", "image": "", "rank": 14, "time": 2, "location": {"lat": 19.7006233102158, "lng": 110.75809990629637}, "feature": {"sight_features": "", "sight_content": ""}}, {"title": "木兰湾", "address": "文昌市北端的铺前镇", "image": "", "rank": 15, "time": 2.0, "location": {"lat": 20.09318249564528, "lng": 110.65257816431244}, "feature": {"sight_features": "", "sight_content": ""}}, {"title": "文昌航天科普馆", "address": "文昌市文蔚路169号航天现代城25号楼（文昌市就业局往南800米）", "image": "", "rank": 16, "time": 7.5, "location": {"lat": 19.578978021646552, "lng": 110.75315302948172}, "feature": {"sight_features": "", "sight_content": "文昌航天科普馆是海南首个航天文化、历史事迹、纪念珍藏的综合性主题展馆，以多元化的展示手段生动展示了中国航天事业的昨天、今天和明天。科普馆分为三大展区，一层展区为“中国航天六十年科普展”，二层展区为“人民科学家钱学森专题展”，三层展区为“邮传太空六十年航天邮展”。\n航天科普馆是一个全国青少年优秀传统文化教育基地，海南省科普教育基地，是一个面向公众普及科技及进行科普教育的场所，将为造福社会，造福后代做出积极贡献。航天科普馆以多元化的展示手段生动展示了中国航天事业的昨天、今天和明天。\n步入展馆将领略到中国航天的不懈探索与追求、“两弹一星”的辉煌篇章，感受到神箭问鼎长天、神舟遨游太空、嫦娥探秘月球的一个个神奇，为广大游客朋友提供了一个精彩的航天科普基地，旅行中可借此机会探索航天奥秘，感受航天精神，发现航天神奇。这座科普馆落成开馆为海南国际旅游岛和文昌市航天文化产业注入新的活力，涂抹浓墨重彩的一笔。"}}, {"title": "后港湾", "address": "文昌市头苑镇东南部", "image": "", "rank": 17, "time": 1.0, "location": {"lat": 19.641662918859303, "lng": 110.79674639720487}, "feature": {"sight_features": "", "sight_content": ""}}, {"title": "张云逸纪念馆", "address": "文昌县城文昌中学南面", "image": "", "rank": 18, "time": 4.0, "location": {"lat": 19.607158258120286, "lng": 110.76701433264886}, "feature": {"sight_features": "", "sight_content": ""}}, {"title": "七星岭", "address": "文昌铺前镇东北", "image": "", "rank": 19, "time": 3.0, "location": {"lat": 20.09318249564528, "lng": 110.65257816431244}, "feature": {"sight_features": "", "sight_content": ""}}, {"title": "文南老街", "address": "文城镇", "image": "", "rank": 20, "time": 2, "location": {"lat": 19.556014428113777, "lng": 110.80550223221115}, "feature": {"sight_features": "", "sight_content": ""}}, {"title": "文昌卫星发射中心", "address": "文昌市文教镇", "image": "", "rank": 21, "time": 7.5, "location": {"lat": 19.673715792263287, "lng": 110.91430143915223}, "feature": {"sight_features": "", "sight_content": ""}}, {"title": "小澳港铜鼓佛光", "address": "文昌市龙楼镇铜鼓岭自然保护区", "image": "", "rank": 22, "time": 2, "location": {"lat": 19.64549054223604, "lng": 111.03800788139927}, "feature": {"sight_features": "", "sight_content": ""}}, {"title": "清澜大桥", "address": "海南省文昌市", "image": "", "rank": 23, "time": 2, "location": {"lat": 19.549062083120717, "lng": 110.80450870631743}, "feature": {"sight_features": "", "sight_content": ""}}, {"title": "清澜镇", "address": "文昌市清澜镇", "image": "", "rank": 24, "time": 2, "location": {"lat": 19.568300152479814, "lng": 110.8287310122332}, "feature": {"sight_features": "", "sight_content": ""}}, {"title": "清澜半岛航天渔人码头", "address": "文城镇银滩路1号", "image": "", "rank": 25, "time": 1.5, "location": {"lat": 39.08564108488556, "lng": 122.04221596843131}, "feature": {"sight_features": "", "sight_content": ""}}, {"title": "云龙湾", "address": "海南省文昌市铜鼓岭保护区内", "image": "", "rank": 26, "time": 2, "location": {"lat": 19.675654992153635, "lng": 111.02900726892126}, "feature": {"sight_features": "", "sight_content": ""}}, {"title": "符家宅", "address": "文昌市 符家宅", "image": "", "rank": 27, "time": 2, "location": {"lat": 19.549062083120717, "lng": 110.80450870631743}, "feature": {"sight_features": "", "sight_content": ""}}, {"title": "八门湾", "address": "海南文昌", "image": "", "rank": 28, "time": 2, "location": {"lat": 19.549062083120717, "lng": 110.80450870631743}, "feature": {"sight_features": "", "sight_content": ""}}, {"title": "溪北书院", "address": "海南省文昌市铺前镇", "image": "", "rank": 29, "time": 2, "location": {"lat": 20.09318249564528, "lng": 110.65257816431244}, "feature": {"sight_features": "", "sight_content": ""}}, {"title": "旺生农家乐", "address": "文城镇滨湾路(桥头酒楼旁)", "image": "", "rank": 30, "time": 2, "location": {"lat": 31.84078814895964, "lng": 118.85274012113294}, "feature": {"sight_features": "", "sight_content": ""}}, {"title": "会文温泉", "address": "205省道", "image": "", "rank": 31, "time": 2, "location": {"lat": 40.38230240600069, "lng": 116.84666042934258}, "feature": {"sight_features": "", "sight_content": ""}}, {"title": "探奇乐园(宝真店)", "address": "文南路宝真商场2楼", "image": "", "rank": 32, "time": 2, "location": {"lat": 42.330888611683044, "lng": 127.27992174925242}, "feature": {"sight_features": "", "sight_content": ""}}, {"title": "童趣儿童乐园", "address": "沿江东路9号2铺", "image": "", "rank": 33, "time": 2, "location": {"lat": 30.50780816656827, "lng": 117.07095540634792}, "feature": {"sight_features": "", "sight_content": ""}}, {"title": "文昌县儿童流动图书馆", "address": "振昌路侨光幼儿园附近", "image": "", "rank": 34, "time": 2, "location": {"lat": 19.628592118295643, "lng": 110.77108052601301}, "feature": {"sight_features": "", "sight_content": ""}}, {"title": "吉英图书馆", "address": "联东路", "image": "", "rank": 35, "time": 2, "location": {"lat": 22.972915520563923, "lng": 113.50795369127674}, "feature": {"sight_features": "", "sight_content": ""}}, {"title": "富力楼冰淇淋批发", "address": "中街西附近", "image": "", "rank": 36, "time": 2, "location": {"lat": 39.84301449352596, "lng": 119.49502288796788}, "feature": {"sight_features": "", "sight_content": ""}}, {"title": "高隆湾快艇观光冲浪", "address": "白金路393号", "image": "", "rank": 37, "time": 2, "location": {"lat": 19.542398325588046, "lng": 110.82293834215406}, "feature": {"sight_features": "", "sight_content": ""}}, {"title": "海南角", "address": "海南省文昌市铺前镇木兰湾", "image": "", "rank": 38, "time": 2, "location": {"lat": 20.09318249564528, "lng": 110.65257816431244}, "feature": {"sight_features": "", "sight_content": ""}}, {"title": "七洲列岛", "address": "海南省文昌市翁田镇", "image": "", "rank": 39, "time": 2, "location": {"lat": 19.924048889980174, "lng": 110.89581439171218}, "feature": {"sight_features": "", "sight_content": ""}}, {"title": "宋庆龄图书馆", "address": "文城镇文建路49-79号", "image": "", "rank": 40, "time": 2, "location": {"lat": 19.60336546826546, "lng": 110.76609959353817}, "feature": {"sight_features": "", "sight_content": ""}}, {"title": "邢诒喜科学馆", "address": "云逸路", "image": "", "rank": 41, "time": 2, "location": {"lat": 19.60251996293418, "lng": 110.76998087520468}, "feature": {"sight_features": "", "sight_content": ""}}, {"title": "动感地带欢乐园", "address": "文清大道22", "image": "", "rank": 42, "time": 2, "location": {"lat": 19.590540426296414, "lng": 110.76530348165876}, "feature": {"sight_features": "", "sight_content": ""}}, {"title": "列宁乡革命历史纪念馆", "address": "203省道", "image": "", "rank": 43, "time": 2, "location": {"lat": 38.70057735317822, "lng": 114.30841754306506}, "feature": {"sight_features": "", "sight_content": ""}}, {"title": "伯阳公祠", "address": "孔庙对面", "image": "", "rank": 44, "time": 2, "location": {"lat": 32.583197664085596, "lng": 116.78766655775554}, "feature": {"sight_features": "", "sight_content": ""}}, {"title": "未来之星文娱书吧", "address": "清澜路中心小学对面", "image": "", "rank": 45, "time": 2, "location": {"lat": 28.05051367871526, "lng": 120.65859109821217}, "feature": {"sight_features": "", "sight_content": ""}}, {"title": "多多乐园", "address": "文城镇城新里115号(老干所前30米)", "image": "", "rank": 46, "time": 2, "location": {"lat": 35.482498729154145, "lng": 110.44940171221542}, "feature": {"sight_features": "", "sight_content": ""}}, {"title": "爱薇牛儿童乐园", "address": "文城镇文南路10号", "image": "", "rank": 47, "time": 2, "location": {"lat": 46.65555435826721, "lng": 131.1682619327563}, "feature": {"sight_features": "", "sight_content": ""}}, {"title": "白鹭湖", "address": "东路镇", "image": "", "rank": 48, "time": 2, "location": {"lat": 19.769233789316313, "lng": 110.68709893833712}, "feature": {"sight_features": "", "sight_content": ""}}, {"title": "家佳儿童乐园", "address": "文城镇", "image": "", "rank": 49, "time": 2, "location": {"lat": 19.556014428113777, "lng": 110.80550223221115}, "feature": {"sight_features": "", "sight_content": ""}}, {"title": "国联虾苗场", "address": "201省道西100米", "image": "", "rank": 50, "time": 2, "location": {"lat": 38.686331107748025, "lng": 113.87536403976483}, "feature": {"sight_features": "", "sight_content": ""}}, {"title": "欢乐水上乐园", "address": "庆龄路加油站后面", "image": "", "rank": 51, "time": 2, "location": {"lat": 24.09701218694945, "lng": 108.252842276359}, "feature": {"sight_features": "", "sight_content": ""}}, {"title": "冯家港", "address": "海南省文昌市会文镇", "image": "", "rank": 52, "time": 2, "location": {"lat": 19.460248936435516, "lng": 110.72893710243338}, "feature": {"sight_features": "", "sight_content": ""}}, {"title": "陈策将军祖居", "address": "海南省文昌市会文镇沙港村", "image": "", "rank": 53, "time": 2, "location": {"lat": 19.461215569189815, "lng": 110.74015295067113}, "feature": {"sight_features": "", "sight_content": ""}}, {"title": "邢宥墓", "address": "海南省文昌市文教镇铜斗村", "image": "", "rank": 54, "time": 2, "location": {"lat": 19.673715792263287, "lng": 110.91430143915223}, "feature": {"sight_features": "", "sight_content": ""}}, {"title": "抱虎岭", "address": "海南省文昌市翁田镇", "image": "", "rank": 55, "time": 2, "location": {"lat": 19.924048889980174, "lng": 110.89581439171218}, "feature": {"sight_features": "", "sight_content": ""}}, {"title": "约亭", "address": "海南省文昌市东路镇", "image": "", "rank": 56, "time": 2, "location": {"lat": 19.769233789316313, "lng": 110.68709893833712}, "feature": {"sight_features": "", "sight_content": ""}}, {"title": "名人山鸟类自然保护区", "address": "海南省文昌市东路镇", "image": "", "rank": 57, "time": 2, "location": {"lat": 19.769233789316313, "lng": 110.68709893833712}, "feature": {"sight_features": "", "sight_content": ""}}, {"title": "文昌航天城访客中心", "address": "文昌市-文昌市-文清大道延长线(文昌卫星发射中心附近)中国文昌国际航天城附近", "image": "", "rank": 58, "time": 7.5, "location": {"lat": 19.558999419290164, "lng": 110.78808788641412}, "feature": {"sight_features": "", "sight_content": ""}}, {"title": "严氏大宗祠", "address": "文昌市-文昌市", "image": "", "rank": 59, "time": 2, "location": {"lat": 19.549062083120717, "lng": 110.80450870631743}, "feature": {"sight_features": "", "sight_content": ""}}, {"title": "文昌", "address": "海南省文昌市", "image": "", "rank": 60, "time": 0.4, "location": {"lat": 19.549062083120717, "lng": 110.80450870631743}, "feature": {"sight_features": "", "sight_content": ""}}]}