{"cityName": "汶川", "days": null, "cityImage": "", "spots": [{"title": "水磨古镇", "address": "阿坝藏族羌族自治州汶川县寿溪河畔（近汶川024古道）", "image": "", "rank": 1, "time": 3.0, "location": {"lat": 31.48300532046848, "lng": 103.5965178842219}, "feature": {"sight_features": "", "sight_content": ""}}, {"title": "映秀地震遗址", "address": "阿坝藏族羌族自治州汶川县映秀镇", "image": "", "rank": 2, "time": 2.5, "location": {"lat": 31.059889022035755, "lng": 103.4939448749549}, "feature": {"sight_features": "", "sight_content": ""}}, {"title": "卧龙大熊猫自然保护区", "address": "阿坝藏族羌族自治州汶川县西南部", "image": "", "rank": 3, "time": 2.5, "location": {"lat": 31.48300532046848, "lng": 103.5965178842219}, "feature": {"sight_features": "特色1 保护内熊猫数量众多，约占全国的十分之一。", "sight_content": "卧龙大熊猫自然保护区位于四川省阿坝藏族、羌族自治州汶川县西南部。包括卧龙、耿达两个乡，是省政府直辖的一个特区。保护区内珍贵动植物丰富，其中可爱的的萌萌的大熊猫也是许多游客慕名而来的原因。不仅有大熊猫，还有熊猫幼儿园，有很多超萌的小熊猫可以参观。"}}, {"title": "萝卜寨", "address": "阿坝藏族羌族自治州汶川县雁萝路", "image": "", "rank": 4, "time": 1.0, "location": {"lat": 31.49546570845646, "lng": 103.65906932230654}, "feature": {"sight_features": "", "sight_content": ""}}, {"title": "卧龙中华大熊猫苑神树坪基地", "address": "阿坝州汶川卧龙自然保护区耿达镇中华大熊猫苑神树坪基地", "image": "", "rank": 5, "time": 2, "location": {"lat": 31.05587155337629, "lng": 103.08434823684321}, "feature": {"sight_features": "特色1 保护自然生态系统及大熊猫等珍稀动物 特色2 拥有以大熊猫为主的独特的生物多样性资源优势。 特色3 卧龙的植被覆盖率约98%，是名副其实的氧吧，优越的森林康养圣地。 特色4 动物和大自然的和谐，留下美好的回忆。", "sight_content": "卧龙中华大熊猫苑神树坪基地位于卧龙自然保护区耿达镇，海拔1700米，该基地占地150公顷，由香港特区政府援建，总投资2.3亿人民币。共分为三个区域，分别为：神树坪大熊猫饲养繁育参观区，圈养大熊猫野化培训区及野外放归区。\n目前开放的大熊猫饲养繁育参观区占地450亩，有大熊猫圈舍59套，可容纳60—80只大熊猫，相关配套设施包括游客接待中心，科普教育中心，科研办公区及大熊猫医院等。"}}, {"title": "龙溪羌人谷", "address": "阿坝藏族羌族自治州汶川县317国道", "image": "", "rank": 6, "time": 2.0, "location": {"lat": 31.52711924440048, "lng": 103.54709288779162}, "feature": {"sight_features": "", "sight_content": ""}}, {"title": "仁吉喜目谷", "address": "阿坝州汶川县水磨镇啣凤岩村五组花谷沟口寿溪河", "image": "", "rank": 7, "time": 2, "location": {"lat": 30.92421182513121, "lng": 103.41418971316718}, "feature": {"sight_features": "特色1 花海里的山谷，山谷里的花海 特色2 以鲜花为主题的天然山谷景区 特色3 聆听鲜花盛开的声音，深深呼吸天然好空气", "sight_content": "仁吉喜目谷位于汶川县水磨镇啣凤岩村五组花谷沟口寿溪河一带，响黄沟两侧大槽头村三、四组沿响黄沟两侧及漩三新环线以下大槽头下方范围，所涉景区范围约30万平方米。景区以自然景观与符合当地植被的花卉景观为主，结合山涧游览与花卉观赏的综合性景区，是寻幽觅静的绝佳去处。\n这里不偏不闹，离成都仅1.5小时车程，绝对可以堪称为成都后花园。这里年四季都繁花似春，这里依然山花浪漫，这里满山遍野都盛开鲜花！这里花海里山谷，山谷里花海，还有绿树成荫天然原始林点缀，山间小溪流淌甘甜泉水……去到这里，聆听鲜花盛开声音，深深呼吸天然空气，洗肺、洗颜、养心、安神，这就汶川水磨仁吉喜目谷景区。仁吉喜目，汉译人间天堂视角！这四川汶川水磨镇刚刚新打造以鲜花为主题天然山谷景区！\n\n\n目前景区已种植花菱草、豌豆花、金鱼草、矢车菊、丰花月季（迷你玫瑰）、白头翁、毛地黄、大蓟、虞美人、白晶菊、比格海棠、千叶蓍、蓝盆花、旱金莲、串红、蝴蝶花、凤尾、美人蕉等花卉共约30万平方米。"}}, {"title": "萝卜寨生态旅游区", "address": "阿坝州汶川县", "image": "", "rank": 8, "time": 2, "location": {"lat": 31.48300532046848, "lng": 103.5965178842219}, "feature": {"sight_features": "", "sight_content": ""}}, {"title": "汶川博物馆", "address": "阿坝藏族羌族自治州汶川县园林路 ‎", "image": "", "rank": 9, "time": 1.5, "location": {"lat": 31.476274324966717, "lng": 103.58764702478541}, "feature": {"sight_features": "", "sight_content": ""}}, {"title": "迥澜塔", "address": "阿坝藏族羌族自治州汶川县漩口镇（岷江与寿溪河交汇处）", "image": "", "rank": 10, "time": 0.6, "location": {"lat": 30.998589399336534, "lng": 103.48135332123171}, "feature": {"sight_features": "", "sight_content": ""}}, {"title": "姜维城", "address": "阿坝州汶川县威州镇岷江东岸山梁上", "image": "", "rank": 11, "time": 1.0, "location": {"lat": 31.423721833090426, "lng": 103.54537555492784}, "feature": {"sight_features": "", "sight_content": ""}}, {"title": "西羌第一村", "address": "阿坝藏族羌族自治州绵池镇羌锋村", "image": "", "rank": 12, "time": 3.5, "location": {"lat": 31.905511577266523, "lng": 102.23141546175019}, "feature": {"sight_features": "", "sight_content": ""}}, {"title": "西羌大峡谷", "address": "阿坝藏族羌族自治州汶川县雁门乡境内", "image": "", "rank": 13, "time": 2.5, "location": {"lat": 31.496625596666632, "lng": 103.62358204340619}, "feature": {"sight_features": "", "sight_content": ""}}, {"title": "七盘沟森林公园", "address": "阿坝藏族羌族自治州汶川县城南", "image": "", "rank": 14, "time": 1.5, "location": {"lat": 31.48300532046848, "lng": 103.5965178842219}, "feature": {"sight_features": "", "sight_content": ""}}, {"title": "羌红首座", "address": "阿坝藏族羌族自治州汶川县东街", "image": "", "rank": 15, "time": 2, "location": {"lat": 31.48300532046848, "lng": 103.5965178842219}, "feature": {"sight_features": "", "sight_content": ""}}, {"title": "汶川三江草坪乡居楼农家乐餐饮住...", "address": "阿坝藏族羌族自治州汶川县三江草坪村", "image": "", "rank": 16, "time": 2.5, "location": {"lat": 30.952128720937633, "lng": 103.33052637803793}, "feature": {"sight_features": "", "sight_content": ""}}, {"title": "汶川大地震震中纪念馆", "address": "映秀镇莞香广场", "image": "", "rank": 17, "time": 2.5, "location": {"lat": 31.060030938079432, "lng": 103.49375433357656}, "feature": {"sight_features": "", "sight_content": ""}}, {"title": "汶川图书馆", "address": "四川省阿坝藏族羌族自治州汶川县213国道文化巷22", "image": "", "rank": 18, "time": 1.5, "location": {"lat": 31.484393226839668, "lng": 103.59564113804416}, "feature": {"sight_features": "", "sight_content": ""}}, {"title": "漩口中学地震遗址", "address": "阿坝藏族羌族自治州汶川县", "image": "", "rank": 19, "time": 2, "location": {"lat": 31.48300532046848, "lng": 103.5965178842219}, "feature": {"sight_features": "", "sight_content": ""}}, {"title": "汶川体育馆", "address": "四川省阿坝藏族羌族自治州汶川县东街", "image": "", "rank": 20, "time": 1.5, "location": {"lat": 31.48300532046848, "lng": 103.5965178842219}, "feature": {"sight_features": "", "sight_content": ""}}, {"title": "观音庙", "address": "中国四川省阿坝藏族羌族自治州汶川县", "image": "", "rank": 21, "time": 0.5, "location": {"lat": 31.48300532046848, "lng": 103.5965178842219}, "feature": {"sight_features": "", "sight_content": ""}}, {"title": "草坡自然保护区", "address": "四川省汶川县威州镇", "image": "", "rank": 22, "time": 2, "location": {"lat": 31.438059968960822, "lng": 103.57064785063677}, "feature": {"sight_features": "", "sight_content": ""}}, {"title": "布瓦碉楼", "address": "阿坝藏族羌族自治州汶川县威州镇克枯乡布瓦山上", "image": "", "rank": 23, "time": 1.0, "location": {"lat": 31.52664071704267, "lng": 103.55970688747459}, "feature": {"sight_features": "", "sight_content": ""}}, {"title": "爱立方展览馆", "address": "阿坝藏族羌族自治州汶川县映秀镇映秀公园旁边", "image": "", "rank": 24, "time": 2, "location": {"lat": 31.05610786244908, "lng": 103.48806372717092}, "feature": {"sight_features": "", "sight_content": ""}}, {"title": "中国卧龙大熊猫博物馆", "address": "卧龙镇", "image": "", "rank": 25, "time": 2, "location": {"lat": 29.139038842587052, "lng": 93.71011369599941}, "feature": {"sight_features": "", "sight_content": ""}}, {"title": "核桃坪村雅馨居农家乐", "address": "漩口镇核桃坪村(水磨镇)", "image": "", "rank": 26, "time": 2, "location": {"lat": 31.00387021453874, "lng": 103.51442274797057}, "feature": {"sight_features": "", "sight_content": ""}}, {"title": "汶川县三江花香园生态农家", "address": "照壁村二祖", "image": "", "rank": 27, "time": 2, "location": {"lat": 39.778120544114756, "lng": 113.84154194350018}, "feature": {"sight_features": "", "sight_content": ""}}, {"title": "侨心苑农家乐", "address": "漩口镇核桃坪村", "image": "", "rank": 28, "time": 2, "location": {"lat": 31.00387021453874, "lng": 103.51442274797057}, "feature": {"sight_features": "", "sight_content": ""}}, {"title": "龙溪羌寨漂流", "address": "龙溪乡联合村东门寨", "image": "", "rank": 29, "time": 2, "location": {"lat": 31.554032308074127, "lng": 103.52114731120464}, "feature": {"sight_features": "", "sight_content": ""}}, {"title": "羌族图书馆", "address": "文化巷22号", "image": "", "rank": 30, "time": 2, "location": {"lat": 29.884058795104163, "lng": 121.53536638525108}, "feature": {"sight_features": "", "sight_content": ""}}, {"title": "达拉布庄园", "address": "龙溪乡", "image": "", "rank": 31, "time": 2, "location": {"lat": 25.843690184179582, "lng": 113.50959883900413}, "feature": {"sight_features": "", "sight_content": ""}}, {"title": "若尔盖", "address": "桂城街10号", "image": "", "rank": 32, "time": 4.0, "location": {"lat": 23.041236921250853, "lng": 113.15800736970385}, "feature": {"sight_features": "", "sight_content": ""}}, {"title": "六和茶楼", "address": "岷江路中段97号", "image": "", "rank": 33, "time": 2, "location": {"lat": 31.47952357637965, "lng": 103.58559999583335}, "feature": {"sight_features": "", "sight_content": ""}}, {"title": "让炯博物馆", "address": "东莞大道17号附近", "image": "", "rank": 34, "time": 2, "location": {"lat": 23.013372456940978, "lng": 113.76423871079824}, "feature": {"sight_features": "", "sight_content": ""}}, {"title": "红原", "address": "桂城街8号", "image": "", "rank": 35, "time": 4.0, "location": {"lat": 23.041236921250853, "lng": 113.15800736970385}, "feature": {"sight_features": "", "sight_content": ""}}, {"title": "茂县馆", "address": "桂城街25号", "image": "", "rank": 36, "time": 2, "location": {"lat": 23.041236921250853, "lng": 113.15800736970385}, "feature": {"sight_features": "", "sight_content": ""}}, {"title": "金川馆", "address": "桂城街21号", "image": "", "rank": 37, "time": 2, "location": {"lat": 23.041236921250853, "lng": 113.15800736970385}, "feature": {"sight_features": "", "sight_content": ""}}, {"title": "中国汶川樱桃博览馆", "address": "213国道东50米", "image": "", "rank": 38, "time": 2, "location": {"lat": 24.055864840380938, "lng": 102.21014420433802}, "feature": {"sight_features": "", "sight_content": ""}}, {"title": "文庙", "address": "213国道与S9都汶高速交叉口东南150米", "image": "", "rank": 39, "time": 1.5, "location": {"lat": 30.989848962356074, "lng": 103.60236854800839}, "feature": {"sight_features": "", "sight_content": ""}}, {"title": "耿达盘龙山庄", "address": "汶川县特区耿达镇迎宾大道1段1号", "image": "", "rank": 40, "time": 2, "location": {"lat": 31.08082066573323, "lng": 103.32218265774927}, "feature": {"sight_features": "", "sight_content": ""}}, {"title": "黄岩观音庙", "address": "西街20号附近", "image": "", "rank": 41, "time": 2, "location": {"lat": 23.100931760317003, "lng": 113.27528273950196}, "feature": {"sight_features": "", "sight_content": ""}}, {"title": "威州清真寺", "address": "桑坪路41", "image": "", "rank": 42, "time": 2, "location": {"lat": 31.486572456482904, "lng": 103.59293880869716}, "feature": {"sight_features": "", "sight_content": ""}}, {"title": "汶川文化广场", "address": "较场街40号", "image": "", "rank": 43, "time": 1.0, "location": {"lat": 30.484734492034413, "lng": 106.65079596392829}, "feature": {"sight_features": "", "sight_content": ""}}, {"title": "广福寺沟", "address": "四川省阿坝藏族羌族自治州汶川县", "image": "", "rank": 44, "time": 2, "location": {"lat": 31.48300532046848, "lng": 103.5965178842219}, "feature": {"sight_features": "", "sight_content": ""}}, {"title": "Wolong National Nature Reserve", "address": "303省道, Wenchuan, ABA, Sichuan, China", "image": "", "rank": 45, "time": 2, "location": {"lat": 38.25466494631471, "lng": 114.66726867564682}, "feature": {"sight_features": "", "sight_content": ""}}, {"title": "大禹文化旅游区", "address": "四川汶川县绵镇", "image": "", "rank": 46, "time": 2, "location": {"lat": 31.48300532046848, "lng": 103.5965178842219}, "feature": {"sight_features": "", "sight_content": ""}}, {"title": "大禹农庄", "address": "高店村大禹农庄(近大禹祭坛)", "image": "", "rank": 47, "time": 2, "location": {"lat": 31.343478561319646, "lng": 103.49750890116744}, "feature": {"sight_features": "", "sight_content": ""}}, {"title": "三江梦幻漂流", "address": "三江乡三江生态旅游区内", "image": "", "rank": 48, "time": 2, "location": {"lat": 30.909651910721333, "lng": 103.3571073386884}, "feature": {"sight_features": "", "sight_content": ""}}, {"title": "萝卜寨云上西羌羌家乐", "address": "萝卜寨村188号", "image": "", "rank": 49, "time": 2, "location": {"lat": 31.506819874135775, "lng": 103.67221198107028}, "feature": {"sight_features": "", "sight_content": ""}}, {"title": "樱桃缘羌家乐", "address": "雁门乡小寨子61号", "image": "", "rank": 50, "time": 2, "location": {"lat": 31.49835738963575, "lng": 103.66306559785927}, "feature": {"sight_features": "", "sight_content": ""}}, {"title": "雅乐轩农家乐", "address": "耿达镇S303缘茂居休闲庄东北侧", "image": "", "rank": 51, "time": 2, "location": {"lat": 29.992148098785496, "lng": 121.24532320457415}, "feature": {"sight_features": "", "sight_content": ""}}, {"title": "卧龙自然与地震博物馆", "address": "映卧路中国卧龙大熊猫博物馆", "image": "", "rank": 52, "time": 2, "location": {"lat": 29.3498152010649, "lng": 97.70731857860444}, "feature": {"sight_features": "", "sight_content": ""}}, {"title": "黄土岭避暑山庄", "address": "三江镇河坝村三组", "image": "", "rank": 53, "time": 2, "location": {"lat": 30.919617972437443, "lng": 103.3532619883427}, "feature": {"sight_features": "", "sight_content": ""}}, {"title": "耿达碧水蓝天避暑山庄", "address": "阿坝藏族羌族自治州-汶川县-耿达镇幸福村2组附近", "image": "", "rank": 54, "time": 2, "location": {"lat": 31.104152209253407, "lng": 103.32872278089603}, "feature": {"sight_features": "", "sight_content": ""}}, {"title": "熊猫王国之巅", "address": "中国四川省巴郎山之巅", "image": "", "rank": 55, "time": 2, "location": {"lat": 30.89708015322006, "lng": 101.85067652792603}, "feature": {"sight_features": "", "sight_content": ""}}, {"title": "中国保护大熊猫研究中心", "address": "四川省汶川县汶川境内", "image": "", "rank": 56, "time": 2, "location": {"lat": 31.48300532046848, "lng": 103.5965178842219}, "feature": {"sight_features": "", "sight_content": ""}}, {"title": "汶川三江生态区", "address": "四川省汶川县三江乡", "image": "", "rank": 57, "time": 1.0, "location": {"lat": 30.922583247112374, "lng": 103.35039142703471}, "feature": {"sight_features": "", "sight_content": ""}}, {"title": "克枯栈道", "address": "四川省汶川县克枯乡枯村", "image": "", "rank": 58, "time": 2, "location": {"lat": 31.52664071704267, "lng": 103.55970688747459}, "feature": {"sight_features": "", "sight_content": ""}}, {"title": "阿坝师范高等专科学校", "address": "四川省汶川县水磨镇", "image": "", "rank": 59, "time": 4.5, "location": {"lat": 30.945170644941328, "lng": 103.44164282785763}, "feature": {"sight_features": "", "sight_content": ""}}, {"title": "钟楼地震遗址广场", "address": "阿坝藏族羌族自治州汶川县威州镇钟楼地震遗址广场", "image": "", "rank": 60, "time": 2, "location": {"lat": 31.472793177523346, "lng": 103.58142628338305}, "feature": {"sight_features": "", "sight_content": ""}}]}