{"cityName": "翁牛特旗", "days": 2, "cityImage": "", "spots": [{"title": "农家农院", "address": "乌丹镇赛沁塔拉嘎喳27号", "image": "", "rank": 1, "time": 2, "location": {"lat": 42.943823062372026, "lng": 119.02128048028803}, "feature": {"sight_features": "", "sight_content": ""}}, {"title": "木叶山旅游区", "address": "内蒙古自治区赤峰市翁牛特旗海拉苏镇巴彦呼舒旁", "image": "", "rank": 2, "time": 2, "location": {"lat": 43.254432326942414, "lng": 119.4703976623788}, "feature": {"sight_features": "", "sight_content": ""}}, {"title": "翁牛特旗地质公园", "address": "内蒙古翁牛特旗", "image": "", "rank": 3, "time": 3.0, "location": {"lat": 40.823156232446166, "lng": 111.77260583081977}, "feature": {"sight_features": "", "sight_content": ""}}, {"title": "翁牛特旗图书馆", "address": "同心路", "image": "", "rank": 4, "time": 2, "location": {"lat": 39.93375362215177, "lng": 119.64189448600118}, "feature": {"sight_features": "", "sight_content": ""}}, {"title": "北滩公园", "address": "温馨园附近", "image": "", "rank": 5, "time": 2, "location": {"lat": 39.71219669755579, "lng": 113.71493568568702}, "feature": {"sight_features": "", "sight_content": ""}}, {"title": "龙腾农业", "address": "红大线附近", "image": "", "rank": 6, "time": 2, "location": {"lat": 42.73692853812535, "lng": 119.66482680904312}, "feature": {"sight_features": "", "sight_content": ""}}, {"title": "玉龙沙湖", "address": "内蒙古赤峰市翁牛特旗乌丹镇玉龙沙湖景区", "image": "", "rank": 7, "time": 2.0, "location": {"lat": 43.132756432152796, "lng": 119.06707878381509}, "feature": {"sight_features": "特色1 沙中有湖、湖中有岛、岛上有草、草中有鸟 特色2 一个你前所未见的绝美独家圣地。 特色3 唯美的“白沙漠.红砂岩”", "sight_content": "玉龙沙湖旅游度假区位于内蒙古赤峰市翁牛特旗乌丹镇境内，国家AAAA级景区，距赤峰市120公里。旗政府所在地乌丹镇区与该景区有三级油路相通。乌丹镇的玉龙沙湖度假区集沙漠、沙地、古松、怪石、奇峰、湿地、草原、湖泊为于一身，5万亩草原与茫茫无边的科尔沁沙地相连，沙地中有一眼清泉，在沙漠中积水成湖。\n\n沙漠中，有一面积达1.4万亩的湖泊。湖中又有十多座沙岛。形成沙中有湖、湖中有岛、岛上有草、草中有鸟的奇特沙湖景观。每年6--10月份，这里蓝天丽日，沙白水碧，草绿林翠，游人如织。目前景区内正规划建设四星级标准200间单体集装箱酒店，预计2013年9月末落成。\n玉龙沙湖景区沙丘高大陡险，垂直高度平均75米以上，沙子自然坡高约为70—100米，呈新月形，沙粒多为石英沙粒，颗粒均匀，晶莹剔透。响沙群的巨大陡峭的高差是大众户外运动的理想之地，为了让更多的大众游客接触到泛户外旅游文化的魅力，景区根据沙地地形特点，在不同的功能区域设置了野外露营、汽车营地、滑沙、沙漠滑翔伞、定向运动、徒步穿行等沙地项目。坦荡起伏的沙丘更是开展沙漠越野的首选之地，特此玉龙沙湖设计了初、中、高三个等级的越野赛道，所有来景区的观光游客都可以乘坐景区内专业沙漠越野车，进入沙漠腹地，观八百里瀚海。\n\n景区特别为游客设计三条经典体验路线：\n一、红山文化寻根之旅主题木栈道：游客来到玉龙沙湖，可以将鞋袜脱去，赤脚在沙地上行走，登木栈道，亲近自然。\n二、沙漠驼马队探险驿站：体验完徒步线路的游客可在驼马驿站选择骑马或骑骆驼游览沙湖。既可以省去登山时的疲劳，同时还可以一览无边沙漠的壮观之景。\n三、沙漠冲沙车：坐在沙漠越野车上感受玉龙沙湖的冲沙路线，给您全新的沙湖印象，体验沙漠越野文化魅力。\n主要接待设施：VIP休息大厅，超市，餐厅可提供自助餐、零点，沙漠风暴越野俱乐部可提供野外露营设备及娱乐设备的租赁，水洗厕所等。\n主要活动项目：沙漠越野车体验、骑马、乘驼、皮划艇、滑沙、观摩崖石刻、儿童游乐区、野外露营、水上观鸟、蒙古族歌舞表演等。"}}, {"title": "锦山通太沟生态园", "address": "清泉路东150米", "image": "", "rank": 8, "time": 2, "location": {"lat": 35.81027310585153, "lng": 112.92741447706645}, "feature": {"sight_features": "", "sight_content": ""}}, {"title": "滨河公园", "address": "向阳街与清泉路交叉口东南50米", "image": "", "rank": 9, "time": 2.0, "location": {"lat": 42.936054632017694, "lng": 119.01106949635275}, "feature": {"sight_features": "", "sight_content": ""}}, {"title": "赤峰市翁牛特旗沙海湾度假村", "address": "内蒙古自治区赤峰市翁牛特旗呼波音哎勒嘎查", "image": "", "rank": 10, "time": 4.5, "location": {"lat": 42.94201926223575, "lng": 119.01250888001714}, "feature": {"sight_features": "", "sight_content": ""}}, {"title": "布日墩", "address": "内蒙古自治区赤峰市翁牛特旗313乡道", "image": "", "rank": 11, "time": 2, "location": {"lat": 43.04832462661215, "lng": 119.08040514605561}, "feature": {"sight_features": "", "sight_content": ""}}, {"title": "烈士陵园", "address": "306国道附近", "image": "", "rank": 12, "time": null, "location": {"lat": 42.25044502087562, "lng": 118.94847981919914}, "feature": {"sight_features": "", "sight_content": ""}}, {"title": "翁牛特旗孤山子农作物种植专业合...", "address": "孤山村5组", "image": "", "rank": 13, "time": 2, "location": {"lat": 35.99641031787122, "lng": 117.8951161512448}, "feature": {"sight_features": "", "sight_content": ""}}, {"title": "张应瑞家族墓地", "address": "内蒙古自治区翁牛特旗梧桐花镇国公府村", "image": "", "rank": 14, "time": 2, "location": {"lat": 42.78323562820236, "lng": 119.0869790715404}, "feature": {"sight_features": "", "sight_content": ""}}, {"title": "翁牛特旗乌丹镇星美影城", "address": "赤峰市-翁牛特旗-新华街-都市购物商城", "image": "", "rank": 15, "time": 7.5, "location": {"lat": 42.941272048113944, "lng": 119.02704380452468}, "feature": {"sight_features": "", "sight_content": ""}}, {"title": "乌讷格特乌拉", "address": "赤峰市-翁牛特旗", "image": "", "rank": 16, "time": 2, "location": {"lat": 42.94201926223575, "lng": 119.01250888001714}, "feature": {"sight_features": "", "sight_content": ""}}, {"title": "腾特根乌拉", "address": "赤峰市-翁牛特旗", "image": "", "rank": 17, "time": 2, "location": {"lat": 42.94201926223575, "lng": 119.01250888001714}, "feature": {"sight_features": "", "sight_content": ""}}, {"title": "乌夫斯特乌拉", "address": "赤峰市-翁牛特旗", "image": "", "rank": 18, "time": 2, "location": {"lat": 42.94201926223575, "lng": 119.01250888001714}, "feature": {"sight_features": "", "sight_content": ""}}, {"title": "柴禾栏子", "address": "赤峰市-翁牛特旗", "image": "", "rank": 19, "time": 2, "location": {"lat": 42.94201926223575, "lng": 119.01250888001714}, "feature": {"sight_features": "", "sight_content": ""}}, {"title": "其甘沙漠旅游区", "address": "乌丹镇东南，乌大公路35公里处", "image": "", "rank": 20, "time": 2, "location": {"lat": 43.94148206545486, "lng": 87.62082371669948}, "feature": {"sight_features": "", "sight_content": ""}}, {"title": "布日敦沙漠旅游区", "address": "翁牛特旗巴嘎塔拉朝格温都苏木境内", "image": "", "rank": 21, "time": 2, "location": {"lat": 42.94201926223575, "lng": 119.01250888001714}, "feature": {"sight_features": "", "sight_content": ""}}, {"title": "经山线", "address": "内蒙古自治区赤峰市", "image": "", "rank": 22, "time": 2, "location": {"lat": 42.2616861034116, "lng": 118.8955203975195}, "feature": {"sight_features": "", "sight_content": ""}}]}