{"cityName": "瓮安", "days": 2, "cityImage": "", "spots": [{"title": "朱家山国家森林公园", "address": "黔南布依族苗族自治州瓮安县", "image": "", "rank": 1, "time": 3.5, "location": {"lat": 27.084125602602416, "lng": 107.47755223592003}, "feature": {"sight_features": "", "sight_content": ""}}, {"title": "瓮安县烈士陵园", "address": "瓮安县", "image": "", "rank": 2, "time": 2, "location": {"lat": 27.084125602602416, "lng": 107.47755223592003}, "feature": {"sight_features": "", "sight_content": ""}}, {"title": "红军抢渡乌江江界河战斗遗址", "address": "瓮安县江界河村", "image": "", "rank": 3, "time": 2, "location": {"lat": 27.318384108041762, "lng": 107.41401299865996}, "feature": {"sight_features": "", "sight_content": ""}}, {"title": "江界河省级名胜风景区", "address": "瓮安县205省道", "image": "", "rank": 4, "time": 2, "location": {"lat": 27.176598379011477, "lng": 107.40702393476063}, "feature": {"sight_features": "", "sight_content": ""}}, {"title": "映山红景区", "address": "瓮安县朱家山国家森林公园", "image": "", "rank": 5, "time": null, "location": {"lat": 26.98596854949912, "lng": 107.64686210867157}, "feature": {"sight_features": "", "sight_content": ""}}, {"title": "姐妹农家乐", "address": "S35道新高速瓦厂附近", "image": "", "rank": 6, "time": 2, "location": {"lat": 23.100931760317003, "lng": 113.27528273950196}, "feature": {"sight_features": "", "sight_content": ""}}, {"title": "福泉古城垣", "address": "贵州省福泉市西北面 550500", "image": "", "rank": 7, "time": 2, "location": {"lat": 26.69252570078387, "lng": 107.52643281158493}, "feature": {"sight_features": "", "sight_content": ""}}, {"title": "海龙囤遗址", "address": "贵州省遵义县西北 563100", "image": "", "rank": 8, "time": 1.5, "location": {"lat": 27.669342398031713, "lng": 101.84430351189164}, "feature": {"sight_features": "", "sight_content": ""}}, {"title": "半岛儿童游乐园", "address": "富丽半岛小区(富丽半岛山水酒店对面2楼)", "image": "", "rank": 9, "time": 2, "location": {"lat": 27.07736003903538, "lng": 107.48161615657123}, "feature": {"sight_features": "", "sight_content": ""}}, {"title": "清莲湖湿地公园", "address": "贵州省黔南布依族苗族自治州瓮安县S35(道新高速)", "image": "", "rank": 10, "time": 2, "location": {"lat": 27.084125602602416, "lng": 107.47755223592003}, "feature": {"sight_features": "", "sight_content": ""}}, {"title": "天主教堂", "address": "文峰北路与环城路交叉口东南150米", "image": "", "rank": 11, "time": 1.0, "location": {"lat": 28.126347317223896, "lng": 121.25441225972111}, "feature": {"sight_features": "", "sight_content": ""}}, {"title": "维笙草塘度假村", "address": "猴场镇草塘千年古邑旅游区内", "image": "", "rank": 12, "time": 2, "location": {"lat": 26.71376760791267, "lng": 104.72405418628354}, "feature": {"sight_features": "", "sight_content": ""}}, {"title": "九龙园", "address": "205省道附近", "image": "", "rank": 13, "time": 2, "location": {"lat": 40.38230240600069, "lng": 116.84666042934258}, "feature": {"sight_features": "", "sight_content": ""}}, {"title": "渡江广场", "address": "贵州省黔南布依族苗族自治州瓮安县河西新区", "image": "", "rank": 14, "time": 2, "location": {"lat": 27.0829507580458, "lng": 107.48002662473458}, "feature": {"sight_features": "", "sight_content": ""}}, {"title": "兴隆堡农家乐", "address": "大坡西南侧90米", "image": "", "rank": 15, "time": 2, "location": {"lat": 40.08786449047137, "lng": 117.42311040616671}, "feature": {"sight_features": "", "sight_content": ""}}, {"title": "欢乐谷", "address": "瓮安石林欢乐谷", "image": "", "rank": 16, "time": 4.5, "location": {"lat": 27.084125602602416, "lng": 107.47755223592003}, "feature": {"sight_features": "", "sight_content": ""}}, {"title": "花竹园商业步行街", "address": "贵州省瓮安县文峰南路", "image": "", "rank": 17, "time": 2, "location": {"lat": 27.062000610043917, "lng": 107.48304657155296}, "feature": {"sight_features": "", "sight_content": ""}}]}