{"cityName": "翁源", "days": 2, "cityImage": "", "spots": [{"title": "冷泉滩旅游度假区", "address": "韶关市翁源县龙仙镇南浦马墩村", "image": "", "rank": 1, "time": 2, "location": {"lat": 24.404043796368068, "lng": 114.24121751993732}, "feature": {"sight_features": "", "sight_content": ""}}, {"title": "东华寺", "address": "韶关市翁源县郊2公里东华山风景区(翁源县汽车站)", "image": "", "rank": 2, "time": 0.3, "location": {"lat": 24.356594490867355, "lng": 114.13642723668924}, "feature": {"sight_features": "", "sight_content": ""}}, {"title": "翁源县客家民俗博物馆", "address": "建国路61号", "image": "", "rank": 3, "time": 2, "location": {"lat": 39.94516228758446, "lng": 119.62227711420641}, "feature": {"sight_features": "", "sight_content": ""}}, {"title": "涂志伟美术馆", "address": "314省道北50米", "image": "", "rank": 4, "time": 2, "location": {"lat": 40.193414196422715, "lng": 117.32479692178045}, "feature": {"sight_features": "", "sight_content": ""}}, {"title": "翁源县瑞丰葡萄专业合作社", "address": "S341利龙村", "image": "", "rank": 5, "time": 2, "location": {"lat": 24.303341526750447, "lng": 113.93480193622743}, "feature": {"sight_features": "", "sight_content": ""}}, {"title": "九仙桃花海", "address": "韶关市翁源县韶光市江尾镇九仙村", "image": "", "rank": 6, "time": 2.0, "location": {"lat": 24.446022988511647, "lng": 114.08572224475454}, "feature": {"sight_features": "", "sight_content": ""}}, {"title": "华润兴葡萄园", "address": "244省道附近", "image": "", "rank": 7, "time": 2, "location": {"lat": 41.647500974269505, "lng": 115.6109952071258}, "feature": {"sight_features": "", "sight_content": ""}}, {"title": "磜下影剧院", "address": "府前路东50米", "image": "", "rank": 8, "time": 2, "location": {"lat": 40.6095122160732, "lng": 117.11707742774009}, "feature": {"sight_features": "", "sight_content": ""}}, {"title": "英德市利景园林绿化有限公司", "address": "龙仙镇粤源酒店后面", "image": "", "rank": 9, "time": 2.0, "location": {"lat": 24.3863545368866, "lng": 114.18256389864936}, "feature": {"sight_features": "", "sight_content": ""}}, {"title": "谢晋韬三华李园", "address": "356县道", "image": "", "rank": 10, "time": 2, "location": {"lat": 24.343664291607208, "lng": 114.11768930240167}, "feature": {"sight_features": "", "sight_content": ""}}, {"title": "翁源南浦沙坪垂钓游乐园", "address": "广东省韶关市翁源县X349", "image": "", "rank": 11, "time": 2.5, "location": {"lat": 24.356594490867355, "lng": 114.13642723668924}, "feature": {"sight_features": "", "sight_content": ""}}, {"title": "万古桃园", "address": "广东省韶关市翁源县坝仔镇新梅村腊坑进右拐上坡", "image": "", "rank": 12, "time": 2, "location": {"lat": 24.494012952587934, "lng": 114.15924847526428}, "feature": {"sight_features": "", "sight_content": ""}}, {"title": "江尾影剧院", "address": "349县道附近", "image": "", "rank": 13, "time": 2, "location": {"lat": 35.279144825843105, "lng": 115.05870188805879}, "feature": {"sight_features": "", "sight_content": ""}}, {"title": "韶关市翁源县金山寺", "address": "龙仙镇水口镇委东南方向500米", "image": "", "rank": 14, "time": 1.5, "location": {"lat": 26.370470066301287, "lng": 118.73974840272405}, "feature": {"sight_features": "", "sight_content": ""}}, {"title": "翁源仙湖度假村", "address": "广东省韶关市翁源县跃进水库", "image": "", "rank": 15, "time": 2, "location": {"lat": 24.356594490867355, "lng": 114.13642723668924}, "feature": {"sight_features": "", "sight_content": ""}}, {"title": "石龙头度假村", "address": "广东省韶关市翁源县S244", "image": "", "rank": 16, "time": 2, "location": {"lat": 24.356594490867355, "lng": 114.13642723668924}, "feature": {"sight_features": "", "sight_content": ""}}, {"title": "文体广场", "address": "广东省韶关市翁源县S244(南龙大道)", "image": "", "rank": 17, "time": 2, "location": {"lat": 24.373215949199967, "lng": 114.12227512148621}, "feature": {"sight_features": "", "sight_content": ""}}, {"title": "九曲水生态旅游度假村", "address": "韶关翁源县九曲水国营林场下径工区", "image": "", "rank": 18, "time": 2, "location": {"lat": 24.356594490867355, "lng": 114.13642723668924}, "feature": {"sight_features": "", "sight_content": ""}}, {"title": "韶关精英武术跆拳道俱乐部翁源分...", "address": "文化路", "image": "", "rank": 19, "time": 2.5, "location": {"lat": 39.74005789896059, "lng": 116.15120920962735}, "feature": {"sight_features": "", "sight_content": ""}}, {"title": "竹园山庄", "address": "245省道附近", "image": "", "rank": 20, "time": 2, "location": {"lat": 41.481926629134875, "lng": 114.46674909937065}, "feature": {"sight_features": "", "sight_content": ""}}, {"title": "九仙寨自然生态休闲度假村", "address": "245省道今日景艺生物科技有限公司附近", "image": "", "rank": 21, "time": 2, "location": {"lat": 24.42241008014771, "lng": 114.05886026270873}, "feature": {"sight_features": "", "sight_content": ""}}, {"title": "儿童游乐园", "address": "韶关市翁源县", "image": "", "rank": 22, "time": 2, "location": {"lat": 24.356594490867355, "lng": 114.13642723668924}, "feature": {"sight_features": "", "sight_content": ""}}, {"title": "乐翻天儿童乐园", "address": "新江邮政银行二楼", "image": "", "rank": 23, "time": 2, "location": {"lat": 30.622573910091266, "lng": 104.0855428347632}, "feature": {"sight_features": "", "sight_content": ""}}, {"title": "翁山诗书画院", "address": "翁山大道", "image": "", "rank": 24, "time": 2, "location": {"lat": 28.58375918345779, "lng": 119.28424019876564}, "feature": {"sight_features": "", "sight_content": ""}}, {"title": "翁源游乐园", "address": "朝阳路159号", "image": "", "rank": 25, "time": 4.5, "location": {"lat": 24.357738594371348, "lng": 114.14554404947643}, "feature": {"sight_features": "", "sight_content": ""}}, {"title": "翁源县坝仔图书馆", "address": "老街中路19号", "image": "", "rank": 26, "time": 2, "location": {"lat": 25.166085823429164, "lng": 105.00316153141826}, "feature": {"sight_features": "", "sight_content": ""}}, {"title": "翁源县图书馆", "address": "文体广场旁", "image": "", "rank": 27, "time": 2, "location": {"lat": 38.18970956751888, "lng": 115.21074367537001}, "feature": {"sight_features": "", "sight_content": ""}}, {"title": "江南总药场", "address": "349县道附近", "image": "", "rank": 28, "time": 2, "location": {"lat": 35.279144825843105, "lng": 115.05870188805879}, "feature": {"sight_features": "", "sight_content": ""}}, {"title": "翁源县老沈家家庭农场", "address": "江尾镇南塘村仁川大道社学路7号", "image": "", "rank": 29, "time": 2, "location": {"lat": 24.431190198190492, "lng": 114.13589057819809}, "feature": {"sight_features": "", "sight_content": ""}}, {"title": "逸龙山庄", "address": "官渡镇丘屋崇德楼西", "image": "", "rank": 30, "time": 2, "location": {"lat": 24.250409171487608, "lng": 113.93323046122981}, "feature": {"sight_features": "", "sight_content": ""}}, {"title": "翁源县全好兰花专业合作社", "address": "245省道东50米", "image": "", "rank": 31, "time": 2, "location": {"lat": 41.481926629134875, "lng": 114.46719825212563}, "feature": {"sight_features": "", "sight_content": ""}}, {"title": "九曲水林场", "address": "龙仙镇", "image": "", "rank": 32, "time": 2, "location": {"lat": 24.3863545368866, "lng": 114.18256389864936}, "feature": {"sight_features": "", "sight_content": ""}}, {"title": "敏雄三华李园", "address": "三华村", "image": "", "rank": 33, "time": 2, "location": {"lat": 30.74466585658275, "lng": 121.10253451295192}, "feature": {"sight_features": "", "sight_content": ""}}, {"title": "三毛三华李果园", "address": "三华村", "image": "", "rank": 34, "time": 2, "location": {"lat": 30.74466585658275, "lng": 121.10253451295192}, "feature": {"sight_features": "", "sight_content": ""}}, {"title": "翁源凤凰湖果场(采摘区)", "address": "龙仙镇李洞村", "image": "", "rank": 35, "time": 2, "location": {"lat": 24.356314684699047, "lng": 114.24057056030924}, "feature": {"sight_features": "", "sight_content": ""}}, {"title": "翁源县金果源农场", "address": "坝仔镇珍田村南华岗", "image": "", "rank": 36, "time": 2, "location": {"lat": 24.540534783206343, "lng": 114.10119763404111}, "feature": {"sight_features": "", "sight_content": ""}}, {"title": "官渡影剧院", "address": "032乡道附近G106", "image": "", "rank": 37, "time": 2, "location": {"lat": 31.71938258658872, "lng": 118.55763481723513}, "feature": {"sight_features": "", "sight_content": ""}}, {"title": "谢立挺三华李果园", "address": "356县道附近", "image": "", "rank": 38, "time": 2, "location": {"lat": 24.343664291607208, "lng": 114.11768930240167}, "feature": {"sight_features": "", "sight_content": ""}}, {"title": "翁源县云雾山九仙桃园", "address": "245省道附近", "image": "", "rank": 39, "time": 2, "location": {"lat": 41.481926629134875, "lng": 114.46674909937065}, "feature": {"sight_features": "", "sight_content": ""}}, {"title": "翁源采茶剧团", "address": "建国路14号南龙大道", "image": "", "rank": 40, "time": 2, "location": {"lat": 24.35665226414786, "lng": 114.13665801137466}, "feature": {"sight_features": "", "sight_content": ""}}]}