{"cityName": "文水", "days": 2, "cityImage": "", "spots": [{"title": "武则天纪念馆", "address": "吕梁市文水县南徐村", "image": "", "rank": 1, "time": 1.0, "location": {"lat": 37.479597881047226, "lng": 112.0508815022594}, "feature": {"sight_features": "", "sight_content": ""}}, {"title": "世泰湖", "address": "吕梁市文水县刘胡兰镇汾河大桥南500米", "image": "", "rank": 2, "time": 2, "location": {"lat": 37.4343044449653, "lng": 112.28432945963141}, "feature": {"sight_features": "", "sight_content": ""}}, {"title": "佳林竺艺观光园", "address": "胡兰镇城子村", "image": "", "rank": 3, "time": 2, "location": {"lat": 37.39613344859244, "lng": 112.2145185003137}, "feature": {"sight_features": "", "sight_content": ""}}, {"title": "文水县图书馆", "address": "西大街", "image": "", "rank": 4, "time": 2, "location": {"lat": 39.91357131364959, "lng": 116.6700940616933}, "feature": {"sight_features": "", "sight_content": ""}}, {"title": "避风塘饮品", "address": "新华北路附近", "image": "", "rank": 5, "time": 2, "location": {"lat": 39.081327497403095, "lng": 116.71493236768119}, "feature": {"sight_features": "", "sight_content": ""}}, {"title": "田园薯业专业合作社", "address": "南武乡东庄村12号", "image": "", "rank": 6, "time": 2, "location": {"lat": 37.42743550383526, "lng": 112.13338101792249}, "feature": {"sight_features": "", "sight_content": ""}}, {"title": "天福水上公园(西区)", "address": "山西省吕梁市文水县祈介线", "image": "", "rank": 7, "time": 2, "location": {"lat": 37.41804438997694, "lng": 112.18658418851413}, "feature": {"sight_features": "", "sight_content": ""}}, {"title": "山神庙", "address": "吕梁市文水县", "image": "", "rank": 8, "time": 2, "location": {"lat": 37.44430008265076, "lng": 112.03559869260123}, "feature": {"sight_features": "", "sight_content": ""}}, {"title": "北街体育休闲广场", "address": "城皇庙巷东50米", "image": "", "rank": 9, "time": 2, "location": {"lat": 34.912743406552266, "lng": 108.98982919560054}, "feature": {"sight_features": "", "sight_content": ""}}, {"title": "来吧", "address": "大陵街西口(晋都医院西侧50米路南)附近", "image": "", "rank": 10, "time": 2, "location": {"lat": 37.438005347765746, "lng": 112.0317159547802}, "feature": {"sight_features": "", "sight_content": ""}}, {"title": "龙兴广场", "address": "东外环路附近", "image": "", "rank": 11, "time": 2, "location": {"lat": 37.88975422761368, "lng": 115.20615317611225}, "feature": {"sight_features": "", "sight_content": ""}}, {"title": "吕梁山生态休闲度假村", "address": "219省道附近", "image": "", "rank": 12, "time": 2, "location": {"lat": 40.151047949015684, "lng": 115.89871895858025}, "feature": {"sight_features": "", "sight_content": ""}}, {"title": "苍儿会森林漂流", "address": "吕梁山苍儿会生态旅游风景区(文水县苍儿会乡麻峪口村)", "image": "", "rank": 13, "time": 2, "location": {"lat": 37.491493755099185, "lng": 111.7378101465519}, "feature": {"sight_features": "", "sight_content": ""}}, {"title": "艺想天开少儿美术馆", "address": "大陵西街附近", "image": "", "rank": 14, "time": 2, "location": {"lat": 37.43769263964616, "lng": 112.03376435274986}, "feature": {"sight_features": "", "sight_content": ""}}, {"title": "东街小天使托儿乐园", "address": "东南街第二小学附近", "image": "", "rank": 15, "time": 2, "location": {"lat": 37.440097328775714, "lng": 112.04264949254905}, "feature": {"sight_features": "", "sight_content": ""}}]}