{"cityName": "文山", "days": "", "cityImage": "", "spots": [{"title": "普者黑", "address": "文山壮族苗族自治州丘北县305省道与206省道交叉口（近指北山）", "image": "", "rank": 1, "time": 3.5, "location": {"lat": 24.04231463959478, "lng": 103.78142400105867}, "feature": {"sight_features": "特色1 世间罕见的喀斯特山水风光。 特色2 《三生三世十里桃花》取景地。 特色3 山得水而活，水得山而媚。", "sight_content": "普者黑位于文山州丘北县西北部，“普者黑”是彝语，意为“盛满鱼虾的池塘”。景区内不仅有数百座孤峰，大片的湖泊，还有近百个喀斯特地貌的溶洞，以及上万亩荷塘和原汁原味的民族风情，被誉为“世间罕见的喀斯特山水田园风光”。由于2013年湖南卫视亲子节目《爸爸去哪儿》和2016年《三生三世十里桃花》曾在此取景，而被众人熟知。\n普者黑现在分为核心景区（旧景区）和外围景区（新景区）两大片区，核心景区是常规游览地，能看到溶洞、万亩荷花以及普者黑典型的山水田园风光，普者黑村及仙人洞村等少数民族村落也在这里。外围包括天鹅湖、湿地等等，一般游客主要游玩的是核心景区。\n来到普者黑，一是看洞，一是游湖。可以直接购买核心景区联票，坐上彝家世代相传的柳叶小舟，泛舟在清澈得看得到湖底水草的湖面上，将湖光山色和奇洞怪石一并游览。如果不愿坐船，也可以坐小马车（费用根据路程5-15元不等）直接至各个溶洞门口购买单个洞窟的门票。\n喀斯特溶洞无疑是普者黑的一大看点，目前开放的有月亮洞、火把洞、观音洞和仙人洞，洞内不仅有形形色色的钟乳石，还有不少的神话传说。火把洞和月亮洞是连通的，通常步行进入，乘船而出。观音洞已经成为寺庙性质的景点，烧香、捐款之类的，建议看看就好。这三个洞是在一起的，可以一并游玩，仙人洞则较远，在仙人洞村附近，洞内还保留有古人生活的遗迹，需乘船入洞后上岸步行参观。\n6至9月是普者黑旅游的黄金季节，此时正值荷花盛放，一定要乘船体验一下打水仗的乐趣。然而旅游淡季，则可以带上相机游走在田园、村寨之间，拍拍原汁原味的山水田园风光，或者拍一张文艺范儿的照片留念。另外，由于普者黑是独特的喀斯特地貌，山不高，很容易攀登，其中密枝山（仙人洞村口）和青龙山（普者黑村西约600米）是摄影爱好者拍日出日落，站在山顶上，普者黑的风光可尽收眼底。\n普者黑景区有普者黑村和仙人洞村两个村子，都有宾馆和农家乐可以解决吃住。仙人洞村离景区大门比较近，大约只有1公里，步行前往即可。而普者黑村离景区大门约3公里，可以乘小马车前往景区大门（5元左右），每天晚上8:30-9:30在村里的角斗城有篝火晚会可参加，60元/人。比较推荐住在仙人洞村，乘游船进湖时，在普者黑村吃饭。"}}, {"title": "坝美", "address": "文山市壮族苗族自治州广南县", "image": "", "rank": 2, "time": 3.0, "location": {"lat": 23.391944131908, "lng": 104.23854382746465}, "feature": {"sight_features": "", "sight_content": ""}}, {"title": "仙人洞", "address": "文山壮族苗族自治州丘北县普者黑景区仙人洞村北", "image": "", "rank": 3, "time": 1.5, "location": {"lat": 24.12494800126482, "lng": 104.13578166653188}, "feature": {"sight_features": "", "sight_content": ""}}, {"title": "天鹅湖", "address": "文山壮族苗族自治州丘北县城西边305省道旁", "image": "", "rank": 4, "time": 3.5, "location": {"lat": 24.04231463959478, "lng": 103.78142400105867}, "feature": {"sight_features": "", "sight_content": ""}}, {"title": "青龙山", "address": "文山自治州丘北县普者黑景区普者黑村西", "image": "", "rank": 5, "time": 3.0, "location": {"lat": 24.12494800126482, "lng": 104.13578166653188}, "feature": {"sight_features": "", "sight_content": ""}}, {"title": "蒲塘秀色", "address": "文山壮族苗族自治州丘北县普者黑景区仙人洞村西南蒲草塘", "image": "", "rank": 6, "time": 3.5, "location": {"lat": 24.12494800126482, "lng": 104.13578166653188}, "feature": {"sight_features": "", "sight_content": ""}}, {"title": "西华公园", "address": "文山壮族苗族自治州文山市开化镇西华山", "image": "", "rank": 7, "time": 3.0, "location": {"lat": 23.353054139868078, "lng": 104.26177384625}, "feature": {"sight_features": "", "sight_content": ""}}, {"title": "观音洞", "address": "文山壮族苗族自治州丘北县普者黑景区(青龙山南部山脚洞口)", "image": "", "rank": 8, "time": 2.5, "location": {"lat": 24.12494800126482, "lng": 104.13578166653188}, "feature": {"sight_features": "", "sight_content": ""}}, {"title": "三腊瀑布", "address": "云南省文山州广南县八宝镇三腊村", "image": "", "rank": 9, "time": 2.0, "location": {"lat": 23.761591303763236, "lng": 105.50502416215514}, "feature": {"sight_features": "", "sight_content": ""}}, {"title": "老君山风景名胜区", "address": "文山壮族苗族自治州文山县", "image": "", "rank": 10, "time": 4.5, "location": {"lat": 23.401781435620673, "lng": 104.08911204904233}, "feature": {"sight_features": "", "sight_content": ""}}, {"title": "文笔塔", "address": "文山壮族苗族自治州文山县城东部东文山东山公园内", "image": "", "rank": 11, "time": 0.5, "location": {"lat": 23.377638801862325, "lng": 104.26692397097436}, "feature": {"sight_features": "", "sight_content": ""}}, {"title": "驮娘江", "address": "", "image": "", "rank": 12, "time": 1.0, "location": {"lat": 24.459896942322228, "lng": 104.99897300312806}, "feature": {"sight_features": "", "sight_content": ""}}, {"title": "广南八宝风景区", "address": "文山壮族苗族自治州广南县八宝镇", "image": "", "rank": 13, "time": 2.0, "location": {"lat": 23.749275725823697, "lng": 105.44176492043432}, "feature": {"sight_features": "", "sight_content": ""}}, {"title": "天生桥溶洞", "address": "文山壮族苗族自治州麻栗坡县磨山大小寨旁", "image": "", "rank": 14, "time": 1.0, "location": {"lat": 23.13158558355966, "lng": 104.70954948077816}, "feature": {"sight_features": "", "sight_content": ""}}, {"title": "丘北县", "address": "云南省文山丘北县", "image": "", "rank": 15, "time": 2, "location": {"lat": 24.056993896217723, "lng": 104.17344174073646}, "feature": {"sight_features": "", "sight_content": ""}}, {"title": "老山风景区", "address": "文山壮族苗族自治州麻栗坡县响老段", "image": "", "rank": 16, "time": 2.0, "location": {"lat": 22.926246684836475, "lng": 104.81057776924666}, "feature": {"sight_features": "", "sight_content": ""}}, {"title": "那红壮族风情村(普者黑影视拍摄...", "address": "文山壮族苗族自治州丘北县下那红", "image": "", "rank": 17, "time": 3.5, "location": {"lat": 24.11533484449449, "lng": 104.0599445001832}, "feature": {"sight_features": "", "sight_content": ""}}, {"title": "天保口岸", "address": "文山壮族苗族自治州麻栗坡县联检楼附近", "image": "", "rank": 18, "time": 1.0, "location": {"lat": 22.939908702751694, "lng": 104.85740014732778}, "feature": {"sight_features": "", "sight_content": ""}}, {"title": "三元洞", "address": "云南省文山县西山", "image": "", "rank": 19, "time": 0.2, "location": {"lat": 23.401781435620673, "lng": 104.08911204904233}, "feature": {"sight_features": "", "sight_content": ""}}, {"title": "浴仙湖", "address": "文山壮族苗族自治州砚山县城西42公里323国道南侧", "image": "", "rank": 20, "time": 2.0, "location": {"lat": 23.768312007510474, "lng": 103.69669878979373}, "feature": {"sight_features": "", "sight_content": ""}}, {"title": "都龙边境集市", "address": "云南省文山壮族苗族自治州马关县马白镇", "image": "", "rank": 21, "time": 2.0, "location": {"lat": 23.02062145778154, "lng": 104.40221358576852}, "feature": {"sight_features": "", "sight_content": ""}}, {"title": "华龙湖", "address": "文山壮族苗族自治州华龙北路州政府对面", "image": "", "rank": 22, "time": 2, "location": {"lat": 23.37450192451494, "lng": 104.25789629255137}, "feature": {"sight_features": "", "sight_content": ""}}, {"title": "莲湖公园", "address": "陕西省商洛市商州区江滨北路", "image": "", "rank": 23, "time": 1.0, "location": {"lat": 33.86212489656308, "lng": 109.96496747113535}, "feature": {"sight_features": "", "sight_content": ""}}, {"title": "薄竹山", "address": "云南省文山县文山城西", "image": "", "rank": 24, "time": 2, "location": {"lat": 23.401781435620673, "lng": 104.08911204904233}, "feature": {"sight_features": "", "sight_content": ""}}, {"title": "文山白沙坡温泉公园", "address": "文山县城西北14公里的白沙坡村下", "image": "", "rank": 25, "time": 3.0, "location": {"lat": 36.73579195480632, "lng": 101.77241422413312}, "feature": {"sight_features": "", "sight_content": ""}}, {"title": "城子山公园", "address": "云南省文山县城边", "image": "", "rank": 26, "time": 2, "location": {"lat": 23.401781435620673, "lng": 104.08911204904233}, "feature": {"sight_features": "", "sight_content": ""}}, {"title": "摆龙湖景区（红旗水库）", "address": "文山州丘北县曰者镇南摆落村摆落大山", "image": "", "rank": 27, "time": 2, "location": {"lat": 24.132980851727435, "lng": 103.97951472984847}, "feature": {"sight_features": "", "sight_content": ""}}, {"title": "舍得村", "address": "云南省文山壮族苗族自治州丘北县舍得村", "image": "", "rank": 28, "time": 4.5, "location": {"lat": 24.24159978321397, "lng": 103.87195568217201}, "feature": {"sight_features": "", "sight_content": ""}}, {"title": "硝厂瀑布", "address": "云南省文山县开化镇白沙坡村", "image": "", "rank": 29, "time": 2, "location": {"lat": 23.42564401796714, "lng": 104.16871678311153}, "feature": {"sight_features": "", "sight_content": ""}}, {"title": "盘龙森林公园", "address": "云南省文山壮族苗族自治州文山市 城南路", "image": "", "rank": 30, "time": 2, "location": {"lat": 23.361384208531344, "lng": 104.26722856032183}, "feature": {"sight_features": "", "sight_content": ""}}, {"title": "鸡冠山森林公园", "address": "云南省文山西畴县城40余公里", "image": "", "rank": 31, "time": 2, "location": {"lat": 23.443271275282765, "lng": 104.6785254220347}, "feature": {"sight_features": "", "sight_content": ""}}, {"title": "盘龙公园", "address": "云南省文山壮族苗族自治州文山市 钟秀街", "image": "", "rank": 32, "time": 2, "location": {"lat": 23.375476355695085, "lng": 104.26208016034407}, "feature": {"sight_features": "", "sight_content": ""}}, {"title": "东山公园", "address": "云南省文山壮族苗族自治州文山市 环城东路", "image": "", "rank": 33, "time": 2, "location": {"lat": 23.372119953924212, "lng": 104.26425307154142}, "feature": {"sight_features": "", "sight_content": ""}}, {"title": "普者黑刘老肆农家乐", "address": "文山普者黑村老街子", "image": "", "rank": 34, "time": null, "location": {"lat": 24.142202933569738, "lng": 104.12763727754366}, "feature": {"sight_features": "", "sight_content": ""}}, {"title": "菜花箐苗族生态旅游村", "address": "文山自治州丘北县普者黑景区普者黑村北", "image": "", "rank": 35, "time": 2, "location": {"lat": 24.12494800126482, "lng": 104.13578166653188}, "feature": {"sight_features": "", "sight_content": ""}}, {"title": "民族博物馆", "address": "云南省文山壮族苗族自治州广南县莲城西路9", "image": "", "rank": 36, "time": 2.0, "location": {"lat": 24.053473326951256, "lng": 105.07026244842717}, "feature": {"sight_features": "", "sight_content": ""}}, {"title": "荷湖居", "address": "双龙营镇普者黑村新桥头(鱼虾饭庄)", "image": "", "rank": 37, "time": 2, "location": {"lat": 24.13627537980754, "lng": 104.12579858091117}, "feature": {"sight_features": "", "sight_content": ""}}, {"title": "七花广场游乐园", "address": "七花广场内", "image": "", "rank": 38, "time": 2, "location": {"lat": 23.384945249109453, "lng": 104.23181022368615}, "feature": {"sight_features": "", "sight_content": ""}}, {"title": "大兴寺", "address": "沙坝北路与开化中路交叉口东", "image": "", "rank": 39, "time": 1.5, "location": {"lat": 23.370342434781527, "lng": 104.25505656917414}, "feature": {"sight_features": "", "sight_content": ""}}, {"title": "一家人农庄", "address": "平远镇车白泥村", "image": "", "rank": 40, "time": 2, "location": {"lat": 23.766862887757735, "lng": 103.74358160497121}, "feature": {"sight_features": "", "sight_content": ""}}, {"title": "峰岩洞村", "address": "云南省广南县南屏镇安王村 663307", "image": "", "rank": 41, "time": 2, "location": {"lat": 23.816922982685476, "lng": 105.21353998355929}, "feature": {"sight_features": "", "sight_content": ""}}, {"title": "普者黑好好再来彝族农家乐", "address": "普者黑景区仙人洞村", "image": "", "rank": 42, "time": 4.5, "location": {"lat": 24.12494800126482, "lng": 104.13578166653188}, "feature": {"sight_features": "", "sight_content": ""}}, {"title": "富宁县多多岛儿童乐园", "address": "云南省文山壮族苗族自治州富宁县东风路", "image": "", "rank": 43, "time": 2, "location": {"lat": 23.63110841726181, "lng": 105.63457921735527}, "feature": {"sight_features": "", "sight_content": ""}}, {"title": "茗香苑", "address": "云南省文山壮族苗族自治州马关县都龙镇文都线都龙顺达加油站东北", "image": "", "rank": 44, "time": 2, "location": {"lat": 22.918231603290312, "lng": 104.53131549344921}, "feature": {"sight_features": "", "sight_content": ""}}, {"title": "汤那洞", "address": "云南文山壮族苗族自治州广南县", "image": "", "rank": 45, "time": 2, "location": {"lat": 24.05219851092113, "lng": 105.06158238459233}, "feature": {"sight_features": "", "sight_content": ""}}, {"title": "清华洞旅游区", "address": "富宁县城西郊5公里许", "image": "", "rank": 46, "time": 2, "location": {"lat": 23.631380409520464, "lng": 105.63749017905431}, "feature": {"sight_features": "", "sight_content": ""}}, {"title": "听湖风景区", "address": "云南省文山壮族苗族自治州砚山县听湖风景区(323国道北)", "image": "", "rank": 47, "time": null, "location": {"lat": 23.63859835628551, "lng": 104.39638526823182}, "feature": {"sight_features": "", "sight_content": ""}}, {"title": "老干书协书画作品展示室", "address": "砚华东路56", "image": "", "rank": 48, "time": 2, "location": {"lat": 23.374976044516895, "lng": 104.24815201336564}, "feature": {"sight_features": "", "sight_content": ""}}, {"title": "砚山县图书馆", "address": "振江路189号", "image": "", "rank": 49, "time": 2, "location": {"lat": 23.61309422751566, "lng": 104.34462113277917}, "feature": {"sight_features": "", "sight_content": ""}}, {"title": "文化馆", "address": "嘉禾二路41", "image": "", "rank": 50, "time": 2, "location": {"lat": 23.617473663939023, "lng": 104.3497371614196}, "feature": {"sight_features": "", "sight_content": ""}}, {"title": "七花名店步行街", "address": "云南省文山县开化中路", "image": "", "rank": 51, "time": 2, "location": {"lat": 23.372508014683003, "lng": 104.25416929575444}, "feature": {"sight_features": "", "sight_content": ""}}, {"title": "大尖山景区", "address": "云南省文山砚山县大尖山", "image": "", "rank": 52, "time": 2.0, "location": {"lat": 23.773456314168456, "lng": 104.6510879333777}, "feature": {"sight_features": "", "sight_content": ""}}, {"title": "布宜松林湖景区", "address": "文山州丘北县双龙营镇一带", "image": "", "rank": 53, "time": 2, "location": {"lat": 24.27979790392862, "lng": 104.27839398846794}, "feature": {"sight_features": "", "sight_content": ""}}, {"title": "落水洞湖景区", "address": "云南省文山壮族苗族自治州丘北县新沟农场北‎", "image": "", "rank": 54, "time": 2, "location": {"lat": 24.154758153471345, "lng": 104.08125716850225}, "feature": {"sight_features": "", "sight_content": ""}}, {"title": "麻栏楼", "address": "云南文山壮族苗族自治州广南县", "image": "", "rank": 55, "time": 2, "location": {"lat": 24.05219851092113, "lng": 105.06158238459233}, "feature": {"sight_features": "", "sight_content": ""}}, {"title": "水岸嘉年华游乐场", "address": "文山壮族苗族自治州文山市新闻路水岸嘉年华南113号(广播电视中心对面)", "image": "", "rank": 56, "time": 7.5, "location": {"lat": 23.384594440681614, "lng": 104.25082302329017}, "feature": {"sight_features": "", "sight_content": ""}}, {"title": "珠琳镇", "address": "文山州广南县珠琳镇", "image": "", "rank": 57, "time": 1.0, "location": {"lat": 23.996440837549248, "lng": 104.66943464842932}, "feature": {"sight_features": "", "sight_content": ""}}, {"title": "坝美世外农家农家乐", "address": "坝美风景区(近法利村)", "image": "", "rank": 58, "time": 2, "location": {"lat": 24.319998685967093, "lng": 105.04876040023888}, "feature": {"sight_features": "", "sight_content": ""}}, {"title": "欢乐岛儿童主题游乐园", "address": "宁秀路", "image": "", "rank": 59, "time": 2, "location": {"lat": 24.0580202706635, "lng": 105.06365893545599}, "feature": {"sight_features": "", "sight_content": ""}}, {"title": "姜公垂钓", "address": "13公里普者黑国家重点风景名胜区火把洞-月亮洞内", "image": "", "rank": 60, "time": 2, "location": {"lat": 24.109535643114544, "lng": 104.17385812689953}, "feature": {"sight_features": "", "sight_content": ""}}]}