{"cityName": "汶上", "days": 2, "cityImage": "", "spots": [{"title": "宝相寺", "address": "济宁市汶上县城宝塔路799号", "image": "", "rank": 1, "time": 1.5, "location": {"lat": 35.73781055743928, "lng": 116.51214223709292}, "feature": {"sight_features": "特色1 齐鲁大地上的佛寺名刹，历经千百年沧桑，至今仍保存完好 特色2 集宗教修学体验、旅游观光休闲为一体的佛教文化主题景区 特色3 齐鲁大地上的古寺名刹，著名的皇家寺院", "sight_content": "汶上宝相寺景区位于汶上县城西北隅。是集圣物展示朝拜、宗教修学体验、旅游观光休闲为一体的佛教文化主题景区和著名的佛教文化体验圣地。大宝相寺始建于北魏，原名昭空寺，宋真宗封禅泰山时驻跸汶上，御赐名为宝相寺，从而使其成为著名的皇家寺院，有“北朝最初名胜，东土第一道场”之美誉。\n\n\n1994年3月15日，在葺修寺院内千年古塔——太子灵踪塔时，于塔宫内发现了佛牙、舍利等141件佛教圣物，轰动全国，震惊世界。自从佛教圣物面世后，每年农历三月十五日暨佛牙瘗藏日，宝相寺上空都会出现佛光瑞像。佛家认为，所谓佛光，是从佛的眉宇之间散发出的智慧之光、吉祥之光，是佛祖护佑众生的普济之光。\n\n\n在这里您可以拜瞻屹立千年的神秘佛塔；瞻仰至高无上的神圣佛牙；观看一年一度的神奇佛光；领略博大精深的佛教文化；了解佛牙舍利从古印度来到汶上的历史传奇；品味佛都独具特色的禅茶和素斋文化。大宝相寺——这座北宋皇家寺院，历经千载，香火不衰，是齐鲁大地上的古寺名刹，因供奉释迦牟尼真身佛牙被誉为“北朝最初名胜，东土第一道场”。汶上因此而成为驰名中外的“千年佛都”。"}}, {"title": "中都佛苑", "address": "济宁市汶上县内（南起尚书路，北至外环路，东起中都大街，西至泉河路）", "image": "", "rank": 2, "time": 1.5, "location": {"lat": 35.73720628149617, "lng": 116.49054398936045}, "feature": {"sight_features": "", "sight_content": ""}}, {"title": "中都博物馆", "address": "济宁市宝相寺路", "image": "", "rank": 3, "time": 2, "location": {"lat": 35.73054440353211, "lng": 116.4959346362851}, "feature": {"sight_features": "", "sight_content": ""}}, {"title": "分水龙王庙", "address": "山东省济宁市汶上县", "image": "", "rank": 4, "time": 2, "location": {"lat": 35.71705539262766, "lng": 116.50544105764958}, "feature": {"sight_features": "", "sight_content": ""}}, {"title": "中都民俗馆", "address": "济宁市汶上县城北沿滨湖大道两公里处莲花湖湿地景区东北角", "image": "", "rank": 5, "time": 2, "location": {"lat": 35.7748619496666, "lng": 116.526670944428}, "feature": {"sight_features": "", "sight_content": ""}}, {"title": "如意生态园", "address": "明星商业楼附近", "image": "", "rank": 6, "time": 2, "location": {"lat": 35.79125462654712, "lng": 116.40626642256754}, "feature": {"sight_features": "", "sight_content": ""}}, {"title": "汶上县图书馆", "address": "宝相寺路200附近", "image": "", "rank": 7, "time": 2, "location": {"lat": 35.72686407165085, "lng": 116.49640564733113}, "feature": {"sight_features": "", "sight_content": ""}}, {"title": "汶上欧亚调良马术俱乐部", "address": "郭仓镇祥远工业园帅邦商贸有限公司院内", "image": "", "rank": 8, "time": 2, "location": {"lat": 35.78395986887194, "lng": 116.49298614158428}, "feature": {"sight_features": "", "sight_content": ""}}, {"title": "太子灵踪塔", "address": "山东省汶上县宝相寺内 272509", "image": "", "rank": 9, "time": 2, "location": {"lat": 35.73805269739177, "lng": 116.49552717838036}, "feature": {"sight_features": "", "sight_content": ""}}, {"title": "菩萨广场", "address": "济宁市汶上县", "image": "", "rank": 10, "time": 2, "location": {"lat": 35.71705539262766, "lng": 116.50544105764958}, "feature": {"sight_features": "", "sight_content": ""}}, {"title": "妙珠林", "address": "山东省济宁市汶上县花园路", "image": "", "rank": 11, "time": 2, "location": {"lat": 35.729124150962456, "lng": 116.4991668212558}, "feature": {"sight_features": "", "sight_content": ""}}, {"title": "圣都山东梆子艺术团", "address": "圣泽广场商业街附近圣泽大街", "image": "", "rank": 12, "time": 2, "location": {"lat": 35.7255095882904, "lng": 116.49668554333547}, "feature": {"sight_features": "", "sight_content": ""}}, {"title": "南站镇规划馆", "address": "山东省汶上县坟上新时代中学附近", "image": "", "rank": 13, "time": 2, "location": {"lat": 35.6200681125828, "lng": 116.51274760517607}, "feature": {"sight_features": "", "sight_content": ""}}, {"title": "东贾柏遗址", "address": "山东省汶上县东贾柏村东南约300米 272512", "image": "", "rank": 14, "time": 2, "location": {"lat": 35.719244282679135, "lng": 116.5335633201144}, "feature": {"sight_features": "", "sight_content": ""}}, {"title": "科迪食文化广场(汶上002店)", "address": "山东省济宁市汶上县广场路699号", "image": "", "rank": 15, "time": 2, "location": {"lat": 35.72104880026973, "lng": 116.49002173340135}, "feature": {"sight_features": "", "sight_content": ""}}, {"title": "居士林", "address": "山东省济宁市汶上县宝塔路499号", "image": "", "rank": 16, "time": 2, "location": {"lat": 35.73826663833475, "lng": 116.49548163429101}, "feature": {"sight_features": "", "sight_content": ""}}, {"title": "威威儿童乐园", "address": "西温口村附近", "image": "", "rank": 17, "time": 2, "location": {"lat": 35.66671835482436, "lng": 116.3863837218675}, "feature": {"sight_features": "", "sight_content": ""}}, {"title": "徐氏家祠", "address": "山东省济宁市汶上县", "image": "", "rank": 18, "time": 2, "location": {"lat": 35.71705539262766, "lng": 116.50544105764958}, "feature": {"sight_features": "", "sight_content": ""}}, {"title": "星期六儿童成长主题乐园(中都大...", "address": "九华山路1001号（市政路中段路南，观澜国际北门）", "image": "", "rank": 19, "time": 2, "location": {"lat": 39.6129869967351, "lng": 118.20604028639353}, "feature": {"sight_features": "", "sight_content": ""}}, {"title": "汶上桃源度假村", "address": "济宁汶上县三三七省道南旺工业园", "image": "", "rank": 20, "time": 2, "location": {"lat": 35.571515194119854, "lng": 116.38752485732294}, "feature": {"sight_features": "", "sight_content": ""}}, {"title": "白石人民广场", "address": "白石镇", "image": "", "rank": 21, "time": 1.5, "location": {"lat": 29.714036776639993, "lng": 105.35706373704514}, "feature": {"sight_features": "", "sight_content": ""}}, {"title": "信达马术俱乐部", "address": "汽车站往北G105路西祥远工业园(近帅邦商贸有限公司内)", "image": "", "rank": 22, "time": 2, "location": {"lat": 22.87304372042264, "lng": 113.22980022900381}, "feature": {"sight_features": "", "sight_content": ""}}, {"title": "云龙书画苑", "address": "铁路街和花园路的交叉口附近", "image": "", "rank": 23, "time": 2.5, "location": {"lat": 40.451164766685075, "lng": 116.10819629996116}, "feature": {"sight_features": "", "sight_content": ""}}, {"title": "金水生态园", "address": "255省道附近", "image": "", "rank": 24, "time": 2, "location": {"lat": 35.693879899869906, "lng": 116.53719004894984}, "feature": {"sight_features": "", "sight_content": ""}}, {"title": "路通生态果品采摘园", "address": "333省道南50米", "image": "", "rank": 25, "time": 2, "location": {"lat": 39.026009222835135, "lng": 115.37834791394636}, "feature": {"sight_features": "", "sight_content": ""}}, {"title": "汶上县图书馆(市政路)", "address": "环城东路附近", "image": "", "rank": 26, "time": 2, "location": {"lat": 39.747552383033195, "lng": 117.33256211265966}, "feature": {"sight_features": "", "sight_content": ""}}, {"title": "润金生态园", "address": "333省道北50米", "image": "", "rank": 27, "time": 2, "location": {"lat": 39.02670994729058, "lng": 115.37834791394636}, "feature": {"sight_features": "", "sight_content": ""}}, {"title": "尚书商业街", "address": "山东省汶上县郭仓乡", "image": "", "rank": 28, "time": 2, "location": {"lat": 35.79365605409046, "lng": 116.50292319713566}, "feature": {"sight_features": "", "sight_content": ""}}, {"title": "康兴社区步行街", "address": "山东省汶上县105国道附近", "image": "", "rank": 29, "time": 2, "location": {"lat": 35.735415631715014, "lng": 116.52432802082741}, "feature": {"sight_features": "", "sight_content": ""}}, {"title": "圣泽广场商业街", "address": "山东省汶上县中都大街", "image": "", "rank": 30, "time": 2, "location": {"lat": 35.72510321026172, "lng": 116.5001830024148}, "feature": {"sight_features": "", "sight_content": ""}}, {"title": "东李尹村", "address": "济宁市-汶上县", "image": "", "rank": 31, "time": 2, "location": {"lat": 35.71705539262766, "lng": 116.50544105764958}, "feature": {"sight_features": "", "sight_content": ""}}, {"title": "汶上县良种繁育场", "address": "济宁市-汶上县", "image": "", "rank": 32, "time": 2, "location": {"lat": 35.71705539262766, "lng": 116.50544105764958}, "feature": {"sight_features": "", "sight_content": ""}}]}