{"cityName": "闻喜", "days": 2, "cityImage": "", "spots": [{"title": "晋水湾水上乐园", "address": "运城市闻喜县柴庄村", "image": "", "rank": 1, "time": 2, "location": {"lat": 35.37964931915654, "lng": 111.29313228518967}, "feature": {"sight_features": "", "sight_content": ""}}, {"title": "上郭城址邱家庄墓", "address": "山西省闻喜县官庄乡邱家庄村 043800", "image": "", "rank": 2, "time": 2, "location": {"lat": 35.335952017393, "lng": 111.26888871547617}, "feature": {"sight_features": "", "sight_content": ""}}, {"title": "王家文庙", "address": "山西省闻喜县境内 043800", "image": "", "rank": 3, "time": 2, "location": {"lat": 35.36293119638129, "lng": 111.23141035768413}, "feature": {"sight_features": "", "sight_content": ""}}, {"title": "俏可儿游乐园", "address": "运城市闻喜县", "image": "", "rank": 4, "time": 2, "location": {"lat": 35.36293119638129, "lng": 111.23141035768413}, "feature": {"sight_features": "", "sight_content": ""}}, {"title": "磊源儿童游乐园", "address": "河底镇磊源公寓（红旗中学对面）", "image": "", "rank": 5, "time": 2, "location": {"lat": 35.344537785279044, "lng": 111.36254791552362}, "feature": {"sight_features": "", "sight_content": ""}}, {"title": "西湖公园", "address": "山西省运城市闻喜县卫生局对面", "image": "", "rank": 6, "time": 1.5, "location": {"lat": 35.35701448896249, "lng": 111.22395907517387}, "feature": {"sight_features": "", "sight_content": ""}}, {"title": "汤王山景区", "address": "山西省运城市闻喜县 043800", "image": "", "rank": 7, "time": 2, "location": {"lat": 35.36293119638129, "lng": 111.23141035768413}, "feature": {"sight_features": "", "sight_content": ""}}, {"title": "西湖广场", "address": "西湖南路与牌路西街交汇处", "image": "", "rank": 8, "time": 2, "location": {"lat": 35.356042735424055, "lng": 111.2257210394486}, "feature": {"sight_features": "", "sight_content": ""}}, {"title": "闻喜县博物馆", "address": "运城市闻喜县牌楼东街1025号院", "image": "", "rank": 9, "time": 2, "location": {"lat": 35.36359499885219, "lng": 111.23172871356364}, "feature": {"sight_features": "", "sight_content": ""}}, {"title": "泳乐水世界", "address": "东湖路牌楼东街", "image": "", "rank": 10, "time": 2, "location": {"lat": 35.36380381303322, "lng": 111.23237592651408}, "feature": {"sight_features": "", "sight_content": ""}}, {"title": "北京咏春拳学总会闻喜分会", "address": "龙海大道至尊皇牛4楼", "image": "", "rank": 11, "time": 1.0, "location": {"lat": 37.73306994041536, "lng": 115.67310536789986}, "feature": {"sight_features": "", "sight_content": ""}}, {"title": "凤城绿洲种植专业合作社", "address": "西湖南路桃园村", "image": "", "rank": 12, "time": 4.5, "location": {"lat": 35.35548424422834, "lng": 111.22706484789829}, "feature": {"sight_features": "", "sight_content": ""}}, {"title": "山西省闻喜县蒲剧团", "address": "五一路673", "image": "", "rank": 13, "time": 2, "location": {"lat": 35.364030621519916, "lng": 111.22024374017784}, "feature": {"sight_features": "", "sight_content": ""}}, {"title": "后稷庙", "address": "山西省闻喜县阳隅乡吴吕村", "image": "", "rank": 14, "time": 2, "location": {"lat": 35.40991163436931, "lng": 111.06940926828558}, "feature": {"sight_features": "", "sight_content": ""}}, {"title": "CS云端运动蹦床主题公园", "address": "运城市-闻喜县-018乡道与839县道交叉口东南50米", "image": "", "rank": 15, "time": 2, "location": {"lat": 35.32789941693183, "lng": 111.20748587686744}, "feature": {"sight_features": "", "sight_content": ""}}]}