{"cityName": "武安", "days": 2, "cityImage": "", "spots": [{"title": "七步沟-侏罗纪公园", "address": "邯郸市武安市活水乡七步沟村", "image": "", "rank": 1, "time": 2, "location": {"lat": 36.9443374229951, "lng": 113.8821045685827}, "feature": {"sight_features": "", "sight_content": ""}}, {"title": "七步沟景区", "address": "邯郸市武安市活水乡七步沟村", "image": "", "rank": 2, "time": null, "location": {"lat": 36.9443374229951, "lng": 113.8821045685827}, "feature": {"sight_features": "特色1 因佛教文化中的“七步莲花”而得名 特色2 幽幽古佛地，仙境七步沟 特色3 六大景区组成，奇峰林立，峡谷幽峻， 植被丰茂，林木葱郁", "sight_content": "七步沟景区位于河北武安活水乡境内，河北武安国家地质公园、国家森林公园腹地，因佛教文化中的“七步莲花”而得名。景区占地面积约15平方公里，由门景、休闲度假、百瀑峡、罗汉峡、马武寨、三棱山六个景区组成。集生态旅游、宗教和历史文化、红色旅游、休闲度假于一体。景区内重峦叠嶂，奇峰林立，飞瀑流泉，鸟语花香。天镜湖、南天门、石林峰、红石寨等自然景观美不胜收；罗汉洞高僧修行，隐士塔道人隐居，马武寨屯田练兵等故事传说引人入胜。\n七步沟景区于2003年开始开发，2009年5月重新进行整体规划建设，总投资12亿元，设有冀南首家滑雪场，高空索道，CS真人射击，拓展训练，被列入河北省重点旅游建设项目。“幽幽古佛地，仙境七步沟”，堪称观光旅游、休闲度假、礼佛探秘、品味历史、野外体验、红色教育的最佳选择之一。"}}, {"title": "京娘湖", "address": "邯郸市武安市西北部山区的口上村北", "image": "", "rank": 3, "time": 4.5, "location": {"lat": 36.882147763735, "lng": 113.96801589438628}, "feature": {"sight_features": "特色1 赵匡胤千里送京娘的地方。 特色2 赤红崖壁环绕着碧绿湖水，景色壮美奇幻，十分适合摄影。 乘船游湖，在清凉微风中观看周围的怪石峡谷，非常惬意。 特色3 \"地质构造经历了距今大约1 9亿年的“吕梁运动”反映华北地区古海洋沉积层特征的天然博物馆山高万仞之雄，奇峰峻岩之险，绿水丹崖之美 蜿蜒步游路，苍松翠柏，潺潺流水，鸟语花香，一年四季野趣盎然\"", "sight_content": "这里山水环绕，群峰竞秀，层峦叠嶂，川谷深幽，赤壁丹崖，色彩斑斓，林木茂盛，波光粼粼，风景秀美，造化神奇，现已凭借其中山川水色开辟成为旅游风景区和避暑胜地。国家aaaa景区。京娘湖位于河北省武安市西北部山区的口上村北，是上世纪60年代建造于口上村的一处蓄水工程，亦称口上水库。湖面呈倒“人”字型，分东西两支，长短各3公里。距武安城30公里，距邯郸约60公里，位居太行山脉腹地。据史料记载，赵匡胤千里送京娘的故事便发生在这里。京娘湖因宋太祖送京娘的故事发生在这一带，故得此名。这里山水环绕，群峰竞秀，层峦叠嶂，川谷深幽，赤壁丹崖，色彩斑斓，林木茂盛，波光粼粼，风景秀美，造化神奇。现已凭借其中山川水色开辟成为旅游风景区和避暑胜地。\n京娘湖风景区包括：高峡平湖，仙灵峡，宋祖峡，京娘峡，怒狮昂首，神龟探头，雄鹰视，屯山积粮神女舍粟叠桥戏月驼峰竟秀，妆寒潭遗恨，云崖寄志古岩飘绵，青峰开屏危岩藏经等18景。"}}, {"title": "东山文化博艺园", "address": "武安市区东郊3公里处309国道北侧", "image": "", "rank": 4, "time": 1.5, "location": {"lat": 36.642756108449454, "lng": 114.02465639687625}, "feature": {"sight_features": "", "sight_content": ""}}, {"title": "东太行景区", "address": "邯郸市武安市活水乡202省道北台上村东南方向", "image": "", "rank": 5, "time": 2, "location": {"lat": 36.9002830116572, "lng": 113.93798985754569}, "feature": {"sight_features": "特色1 山势峥嵘巍峨，奇峰突兀林立 特色2 “天脊揽胜，云端漫步” 特色3 山势峥嵘巍峨，奇峰突兀林立。", "sight_content": "‍‍古有名山，太行之东。位于太行山东麓的东太行景区，山势峥嵘巍峨，奇峰突兀林立，巧石变幻多端，云海缥缈壮观，似人间仙境，赛九阙天宫。来东太行旅行游览，除了欣赏壮美的山川美景，醉心于拍照留影之外，东太行这十大精彩看点是不容错过的！不容错过之：奇峰巧石遍布的丹霞地貌，与美国科罗拉多大峡谷齐名。东太行景区是一处集太行山雄、奇、险、峻于一体的山岳型景区，山势巍峨峥嵘，磅礴大气，丹崖赤壁遍布，与美国科罗拉多大峡谷同属丹霞地貌；群山峰峦叠嶂，陡崖绝壁众多，雄伟壮观，怪石嶙峋，巧夺天工，变化万端。登临东太行，可观峰海、峰墙的壮美景观，峰林、峰柱的奇秀景色，奇石、异石的巧夺天工，天脊揽胜追霄汉，人生自此顿开朗。\n不容错过之：磅礴大气的云海仙境。登临东太行，天脊揽胜，云端漫步，近观苍茫云海，遥看红日喷薄欲出，染红整片云海。看云的时候，山在云上，一朵朵山花，是云海上最美的漪涟；看山的时候，云在山上，一片片白云，是山峰间最飒的衣裳。云海奇观，这就是传说中是梦的地方，置身其中，仿佛来到仙境一般。站在高顶，冷风顺脸而过，云海随风流动，像长江一样飞流直下；又如黄河一般波涛汹涌，烟波浩渺，像是把天地置换了一般，磅礴大气，难以忘怀，只有亲身经历方能体会“景色无需多看，只一眼便无法忘怀；有些地方无需多去，只一次便魂牵梦萦”的真切感受。\n不容错过之：国际技术一流的观光索道。进入景区南大门，首先映入眼帘的便是这观光索道，全长1998米，分为共60个吊箱，每个吊箱的造价相当于一辆奥迪A6，以每秒6米的速度循环往复运行于上、下站之间，运力可达2400人/时。索道由国内顶级索道工程设计院设计，采用世界一流技术、欧洲进口设备建造（吊厢来自奥地利，绳索来自法国，转换机组及控制室来自瑞的），从山下到山顶横跨500米总高差仅需6分钟，是国内速度最快、运力最大的脱挂式吊箱索道。索道运行途中，还可将壮美的太行山川美景尽收眼底，一流的技术，飞快的速度，绝佳的视野，如此高的逼格，岂能错过？不及犹豫了，到你上车啦！不容错过之：国内最惊险、最刺激的彩虹玻璃栈道。龙头崖彩虹玻璃栈道，修建于景区最东端第一高峰——龙头崖的上半腰海拔1180米处，栈道采用30毫米厚度钢化夹层玻璃和钢架结构打造，全长266米、宽约2米，呈U字型悬于龙头崖上，每平方可承重350千克，同时设有一个眺望观景台，是国内最惊险、最刺激的U字型夜景亮化悬空玻璃栈道。夜幕降临，栈道灯光闪烁，犹如一条七色彩虹悬挂于山腰，绚丽璀璨。漫步栈道，遥望山川美景，俯瞰幽幽深谷，尽情享受高空行走、心惊肉跳的刺激体验，放肆尖叫吧！不容错过之：国内最长的云端栈道。盘旋于千米之上、悬挂于峭壁之间、隐没于秀丽山峰，云端栈道绝壁上的“极限挑战”，这里是堪称太行山脉人工奇观“云端栈道”。栈道一期全长15公里，宽约2米，为减少游客旅途攀登的劳累，东太行栈道采用人性化设计，以钢混结构、玻璃栈道、石台阶、观景台、生态山路等相间打造，游览起来舒适自然。从山下远望，仿若大山锁着一条长长的玉带，又似万里长城舞动在崇山峻岭之巅，移步异景，景景不同，云雾袭来，缥缈变幻，恍若漫步仙境，时而山谷穿梭，时而豁然开朗，带来全新的山岳旅程。不容错过之：国内最惊险刺激的高山悬崖电梯。在东太行，除了绝壁栈道、观光索道，便数这高山悬崖电梯最惹人瞩目。提到电梯，您可能并不陌生，回家上楼有电梯，逛商场超市也有电梯，那么在高山上、悬崖边的电梯你是否听说过，有没有体验过？在悬崖绝壁之上修筑，高低落差70余米，三面透明玻璃，游客可乘坐电梯直线抬升或下降到达下一处景点，比跳楼机高、比摩天轮快，悬崖绝壁之上让你直呼哇塞！东太行高山悬崖电梯不仅可以帮您免去旅途攀登的艰险与疲惫，运行途中还将东太行壮美的自然风光一览无余，带给您玻璃透明式全景升降体验，快快行动吧！\n不容错过之：国内最炫酷的高山之巅飞船餐厅。东太行飞船餐厅，位于海拔1200余米的高峰之上，外观设计酷似太空飞船，占地360平方米，建筑面积800平方米，钢架玻璃双层结构，装修高档，‍‍设施一流，可容纳200余人同时就餐。坐着飞船吃着饭，赏着山景观云海，美景伴着美食滋润身心，那绝对是一番超然享受，若遇云海，仿若天宫赴宴，壮哉美哉！快来飞船餐厅里享受一把天宫大趴吧！不容错过之：国内最震撼最浪漫的太行天瀑与天境湖。太行天瀑，位于海拔1298米的高山之巅，天瀑落差80余米，依山势而动，如注的山泉倾泻而出，激起的水珠撞到石壁碎成水花，甚是美丽。天瀑之下“山盟海誓”四个摩崖石刻赫然醒目，这里是‍‍浪漫的源头、爱情的发祥地、真情的见证处‍‍，让高山天瀑为你作证，山盟海誓相伴一生吧！天瀑北侧的天境湖，占地2000平米，湖水清澈纯净，倒影巍峨青山、白云蓝天，仿佛一幅铺开的画卷一般，这里是艺术家的乐园、摄影师的天堂。如此惬意的湖光山色，直叫人陶醉其间，流连忘返。不容错过之：蜿蜒曲折于海拔千米山顶之上的天脊长城和天脊美食街。沿着云端栈道前行,越过九重天,可以看到蜿蜒于山脊之上长约300米的天脊长城,暗红色石英砂岩石块砌就,仿古城墙、烽火台与山景浑然一体，气势雄伟，犹如山体脊梁，连接南北高山天瀑与九重天，可站在烽火台上直观东太行壮丽美景，360度将东太行美景尽收眼底。长城双层建筑，底层是天脊美食街，囊括了武安拽面、沙洺炒面、虹鳟鱼、武安驴肉伯延卤肉等地方美食和全国各地名吃，游遍山川美景之余，在此美美饱餐一顿，大快朵颐！"}}, {"title": "武华山景区", "address": "武安市西北52公里的活水乡后柏坡村", "image": "", "rank": 6, "time": 2, "location": {"lat": 36.85243213553481, "lng": 113.9787432566677}, "feature": {"sight_features": "", "sight_content": ""}}, {"title": "悦儿湾水上乐园", "address": "邯郸市武安市上团城乡西营井村北", "image": "", "rank": 7, "time": 2, "location": {"lat": 36.76380528117553, "lng": 114.10450251569006}, "feature": {"sight_features": "", "sight_content": ""}}, {"title": "白鹤公园", "address": "安徽省池州市贵池区", "image": "", "rank": 8, "time": 1.0, "location": {"lat": 30.693857943819243, "lng": 117.57449037048667}, "feature": {"sight_features": "", "sight_content": ""}}, {"title": "碧波庭银草中医丰胸瘦身养生坊", "address": "公园东街", "image": "", "rank": 9, "time": 2, "location": {"lat": 36.69462532615993, "lng": 114.20030398034483}, "feature": {"sight_features": "", "sight_content": ""}}, {"title": "龙泉公园", "address": "湖北省 荆门市 东宝区象山大道", "image": "", "rank": 10, "time": 2, "location": {"lat": 31.02093715165766, "lng": 112.20503287651839}, "feature": {"sight_features": "", "sight_content": ""}}, {"title": "磁山文化博物馆", "address": "邯郸市武安市磁山镇南孔壁村", "image": "", "rank": 11, "time": 2, "location": {"lat": 36.60395115253389, "lng": 114.124927054511}, "feature": {"sight_features": "", "sight_content": ""}}, {"title": "梦幻庄园", "address": "中山街", "image": "", "rank": 12, "time": 2, "location": {"lat": 38.24131073143449, "lng": 114.93847747735137}, "feature": {"sight_features": "", "sight_content": ""}}, {"title": "国家档案馆", "address": "放射路", "image": "", "rank": 13, "time": 1.0, "location": {"lat": 38.01886687579952, "lng": 114.51663685518947}, "feature": {"sight_features": "", "sight_content": ""}}, {"title": "宝贝宝乐园", "address": "珞喻路鲁巷广场购物中心5楼", "image": "", "rank": 14, "time": 2, "location": {"lat": 30.512676720736458, "lng": 114.4032705938302}, "feature": {"sight_features": "", "sight_content": ""}}, {"title": "哈托化妆品", "address": "中兴路与游览路交叉口东100米", "image": "", "rank": 15, "time": 2, "location": {"lat": 36.697848916005576, "lng": 114.19967771947209}, "feature": {"sight_features": "", "sight_content": ""}}, {"title": "泰康人寿保险股份有限公司(祥安4...", "address": "武安镇中山街实验中学斜对过", "image": "", "rank": 16, "time": 2, "location": {"lat": 36.69141766164936, "lng": 114.20427635647948}, "feature": {"sight_features": "", "sight_content": ""}}, {"title": "爱度婚纱摄影会馆", "address": "桥西路", "image": "", "rank": 17, "time": 2, "location": {"lat": 32.34135908605617, "lng": 119.59539112044544}, "feature": {"sight_features": "", "sight_content": ""}}, {"title": "春天乐园", "address": "塔西路鼓楼街委会西行50米路北", "image": "", "rank": 18, "time": 2, "location": {"lat": 28.24054813030942, "lng": 112.95802549581606}, "feature": {"sight_features": "", "sight_content": ""}}, {"title": "老槐树公园", "address": "河北省邯郸市武安市S211", "image": "", "rank": 19, "time": 2, "location": {"lat": 36.70248828627979, "lng": 114.21051607638233}, "feature": {"sight_features": "", "sight_content": ""}}, {"title": "儿童成长主题乐园", "address": "河北省邯郸市武安市向阳路1888号", "image": "", "rank": 20, "time": 2, "location": {"lat": 36.707983733781624, "lng": 114.17599840150028}, "feature": {"sight_features": "", "sight_content": ""}}, {"title": "双马儿童游乐园", "address": "河北省邯郸市武安市中兴路同安佳苑北40多米", "image": "", "rank": 21, "time": 2, "location": {"lat": 36.69973285192776, "lng": 114.22089594534671}, "feature": {"sight_features": "", "sight_content": ""}}, {"title": "红山观", "address": "邯郸市武安市永平大街", "image": "", "rank": 22, "time": 2, "location": {"lat": 36.586937041591455, "lng": 114.12666408362139}, "feature": {"sight_features": "", "sight_content": ""}}, {"title": "晋冀鲁豫边区革命纪念馆", "address": "河北省邯郸市武安市冶陶镇中共晋冀鲁豫中央局旧址", "image": "", "rank": 23, "time": 2, "location": {"lat": 36.640780456656415, "lng": 113.93849003405364}, "feature": {"sight_features": "", "sight_content": ""}}, {"title": "财神殿", "address": "邯郸市武安市活水乡S202京娘湖景区内", "image": "", "rank": 24, "time": 2, "location": {"lat": 36.906442285514785, "lng": 113.95803539318722}, "feature": {"sight_features": "", "sight_content": ""}}, {"title": "南常顺天主教堂", "address": "河北省邯郸市武安市南常顺村", "image": "", "rank": 25, "time": 2, "location": {"lat": 36.84153066728406, "lng": 114.35303085496341}, "feature": {"sight_features": "", "sight_content": ""}}, {"title": "东台公园", "address": "邯郸市武安市", "image": "", "rank": 26, "time": 3.0, "location": {"lat": 36.70248828627979, "lng": 114.21051607638233}, "feature": {"sight_features": "", "sight_content": ""}}, {"title": "公园东街与南环路交叉口", "address": "武安市", "image": "", "rank": 27, "time": null, "location": {"lat": 36.70248828627979, "lng": 114.21051607638233}, "feature": {"sight_features": "", "sight_content": ""}}, {"title": "欢乐屿儿童乐园", "address": "河北省邯郸市武安市体育路", "image": "", "rank": 28, "time": 2, "location": {"lat": 36.69477216156125, "lng": 114.18521075896284}, "feature": {"sight_features": "", "sight_content": ""}}, {"title": "宝贝家儿童主题乐园", "address": "财富二楼(汉丽斯楼下)", "image": "", "rank": 29, "time": 2, "location": {"lat": 39.90147322464633, "lng": 116.2609865212877}, "feature": {"sight_features": "", "sight_content": ""}}, {"title": "武安市奇峡谷景区", "address": "河北省邯郸市武安市管陶乡奇峡谷景区(朝阳沟风景区附近)", "image": "", "rank": 30, "time": 4.5, "location": {"lat": 36.92653289367111, "lng": 113.80303708301884}, "feature": {"sight_features": "", "sight_content": ""}}, {"title": "白云禅寺", "address": "河北省邯郸市武安市", "image": "", "rank": 31, "time": 1.0, "location": {"lat": 36.70248828627979, "lng": 114.21051607638233}, "feature": {"sight_features": "", "sight_content": ""}}, {"title": "河北盛名度假村", "address": "管陶乡小店村西", "image": "", "rank": 32, "time": 2, "location": {"lat": 36.8822985034036, "lng": 113.82999535893265}, "feature": {"sight_features": "", "sight_content": ""}}, {"title": "固镇村文化广场", "address": "广中街与迎宾路交叉口南50米", "image": "", "rank": 33, "time": 2, "location": {"lat": 36.6431445238326, "lng": 113.9804848222209}, "feature": {"sight_features": "", "sight_content": ""}}, {"title": "朝阳湖", "address": "河北省邯郸市武安市三一四省道", "image": "", "rank": 34, "time": 1.5, "location": {"lat": 36.60806755968753, "lng": 114.04374754489649}, "feature": {"sight_features": "", "sight_content": ""}}, {"title": "太行三门扇生态观光园", "address": "河北省邯郸市武安市岳家庄村三门扇", "image": "", "rank": 35, "time": null, "location": {"lat": 36.86543099941221, "lng": 114.04612934176973}, "feature": {"sight_features": "", "sight_content": ""}}, {"title": "明星洗衣坊", "address": "体育路与桥西路交叉口东北50米", "image": "", "rank": 36, "time": 2, "location": {"lat": 22.78149591383179, "lng": 113.293475987142}, "feature": {"sight_features": "", "sight_content": ""}}, {"title": "甲模甲样", "address": "体育路南园西行50米路南", "image": "", "rank": 37, "time": 2, "location": {"lat": 22.924480279946195, "lng": 113.64770121992545}, "feature": {"sight_features": "", "sight_content": ""}}, {"title": "南环路加气站", "address": "南环路", "image": "", "rank": 38, "time": 2, "location": {"lat": 38.02445208545248, "lng": 114.78866638114692}, "feature": {"sight_features": "", "sight_content": ""}}, {"title": "陕汽重卡特约服务站", "address": "南环路", "image": "", "rank": 39, "time": 2, "location": {"lat": 38.02445208545248, "lng": 114.78866638114692}, "feature": {"sight_features": "", "sight_content": ""}}, {"title": "武安市城市规划展馆", "address": "中兴路1369号附近", "image": "", "rank": 40, "time": 4.5, "location": {"lat": 36.697717215051384, "lng": 114.19667651220395}, "feature": {"sight_features": "", "sight_content": ""}}, {"title": "镇南关街军旺卫生室", "address": "公园东街416号", "image": "", "rank": 41, "time": null, "location": {"lat": 36.69137548297505, "lng": 114.20008827653085}, "feature": {"sight_features": "", "sight_content": ""}}, {"title": "南关街省礼中西医卫生室", "address": "中园路", "image": "", "rank": 42, "time": 2, "location": {"lat": 39.94420455863067, "lng": 116.19310201317008}, "feature": {"sight_features": "", "sight_content": ""}}, {"title": "镇南关街中英卫生室", "address": "西岭湖公园东街", "image": "", "rank": 43, "time": 2, "location": {"lat": 36.696351339170626, "lng": 114.19921469328682}, "feature": {"sight_features": "", "sight_content": ""}}, {"title": "七步沟暑假快乐嘉年华", "address": "七步沟景区滑雪场内", "image": "", "rank": 44, "time": 2, "location": {"lat": 36.942427078089345, "lng": 113.8777969205775}, "feature": {"sight_features": "", "sight_content": ""}}, {"title": "畅游水上乐园", "address": "向阳路888号", "image": "", "rank": 46, "time": 2, "location": {"lat": 36.70855615047456, "lng": 114.17475478825057}, "feature": {"sight_features": "", "sight_content": ""}}, {"title": "简约之美", "address": "中兴路与体育路交叉口旁", "image": "", "rank": 47, "time": 2, "location": {"lat": 22.951368071366343, "lng": 113.67459211303579}, "feature": {"sight_features": "", "sight_content": ""}}, {"title": "西海岸水上乐园", "address": "新华大街173号", "image": "", "rank": 48, "time": 2, "location": {"lat": 36.70069453215074, "lng": 114.18553853806715}, "feature": {"sight_features": "", "sight_content": ""}}, {"title": "飞鹰传媒", "address": "公园西街73号武安市园林管理处附近", "image": "", "rank": 49, "time": 2, "location": {"lat": 36.695986590126516, "lng": 114.19758324202301}, "feature": {"sight_features": "", "sight_content": ""}}, {"title": "中通武安公司", "address": "公园东街416号附近", "image": "", "rank": 50, "time": 2, "location": {"lat": 36.69137548297505, "lng": 114.20008827653085}, "feature": {"sight_features": "", "sight_content": ""}}, {"title": "顺意传媒", "address": "中山街附近", "image": "", "rank": 51, "time": 2, "location": {"lat": 38.24131073143449, "lng": 114.93847747735137}, "feature": {"sight_features": "", "sight_content": ""}}, {"title": "益来康健康生活馆", "address": "桥西路934附近", "image": "", "rank": 52, "time": 2, "location": {"lat": 36.67097867304395, "lng": 116.95228974883601}, "feature": {"sight_features": "", "sight_content": ""}}, {"title": "富贵酒楼", "address": "京娘湖景区大坝东头北行30米", "image": "", "rank": 53, "time": 2, "location": {"lat": 34.879690411118084, "lng": 111.59453277576236}, "feature": {"sight_features": "", "sight_content": ""}}, {"title": "清源现代农业科技园", "address": "淑村镇白沙村", "image": "", "rank": 54, "time": 2, "location": {"lat": 36.58156613372223, "lng": 114.22583981014462}, "feature": {"sight_features": "", "sight_content": ""}}, {"title": "甲丽净", "address": "中兴路与游览路交叉口东100米", "image": "", "rank": 55, "time": 2, "location": {"lat": 36.697848916005576, "lng": 114.19967771947209}, "feature": {"sight_features": "", "sight_content": ""}}, {"title": "甲天下灰指甲", "address": "桥西路与祥安4胡同交叉口东50米", "image": "", "rank": 56, "time": 2, "location": {"lat": 36.694440055382806, "lng": 114.20889392168226}, "feature": {"sight_features": "", "sight_content": ""}}, {"title": "雅兰画廊", "address": "312省道东50米", "image": "", "rank": 57, "time": 2, "location": {"lat": 36.622905905946894, "lng": 114.42365918066803}, "feature": {"sight_features": "", "sight_content": ""}}, {"title": "vr密室逃脱", "address": "体育路与游览路交叉口", "image": "", "rank": 58, "time": null, "location": {"lat": 36.69472317929796, "lng": 114.19612757387631}, "feature": {"sight_features": "", "sight_content": ""}}, {"title": "东方名剪会", "address": "中山大街", "image": "", "rank": 59, "time": 1.5, "location": {"lat": 34.55703909491526, "lng": 114.79015350525768}, "feature": {"sight_features": "", "sight_content": ""}}, {"title": "壮大法律事务所", "address": "中山大街金桥大酒店北20米路西", "image": "", "rank": 60, "time": 2, "location": {"lat": 36.69528682783825, "lng": 114.20452575932634}, "feature": {"sight_features": "", "sight_content": ""}}]}