{"cityName": "吴川", "days": 2, "cityImage": "", "spots": [{"title": "蛤岭村", "address": "湛江市吴川市吴阳镇", "image": "", "rank": 1, "time": 2.0, "location": {"lat": 21.318655779331905, "lng": 110.67246212802347}, "feature": {"sight_features": "", "sight_content": ""}}, {"title": "吉兆湾", "address": "湛江市吴川市吉兆湾旅游区沿海路（近海边）", "image": "", "rank": 2, "time": null, "location": {"lat": 21.3927164451242, "lng": 110.8705161951688}, "feature": {"sight_features": "", "sight_content": ""}}, {"title": "德萨斯水世界", "address": "湛江市吴川市覃巴镇碧桂园鼎龙湾", "image": "", "rank": 3, "time": 0.75, "location": {"lat": 21.397053713839764, "lng": 110.90383740615145}, "feature": {"sight_features": "特色1 清凉热情水乐园，充满美国西部风情！", "sight_content": "德萨斯水世界坐落于湛江市吴川碧桂园﹒鼎龙湾国家海洋生态度假区内，占地500亩。项目重金聘请全球顶尖的水上乐园专业设计公司Water Technology Inc.(WTI)操刀主创，按照世界顶级水上乐园的标准进行设计，整体规划完美结合鼎龙湾国家海洋度假区的地理及自然条件，选取了地理位置及自然条件非常接近的美国德克萨斯州作为项目的主题设计元素，将牛仔文化以及以往的石油开采热潮等文化主题融入园区，配以当地的风化沙漠景观，充满美国西部风情。\n德萨斯水世界项目建设预计分二期完成，一期面积约10万平方米，二期面积约3.8万平方米，可同时容纳游客数量4万人。\n德萨斯水世界共设七大区域，分别是达拉斯城、阿拉莫海、响尾蛇峡谷、黑金油田、仙人掌镇、佩科斯河谷、格兰德河谷。在这七大区域内，设置有大型造浪池、互动水寨、漂流河、儿童戏水乐园以及水上过山车、穿山蛇滑道、大喇叭滑道、大碗滑道、冲天回旋滑道、合家欢滑道、急速滑道、水环人体滑道等三十多种滑道组合。"}}, {"title": "好年华雅涛度假村", "address": "湛江市吴川市吉兆湾省级旅游度假区内", "image": "", "rank": 4, "time": 2, "location": {"lat": 21.392662766611984, "lng": 110.87051727313542}, "feature": {"sight_features": "", "sight_content": ""}}, {"title": "陈兰彬故居", "address": "湛江市吴川市黄坡镇黄坡村", "image": "", "rank": 5, "time": 2, "location": {"lat": 21.35166760131345, "lng": 110.62865192821468}, "feature": {"sight_features": "", "sight_content": ""}}, {"title": "李汉魂故居", "address": "广东省湛江市吴川市黄坡镇岭头村", "image": "", "rank": 6, "time": 2, "location": {"lat": 21.352253923044998, "lng": 110.61104518873343}, "feature": {"sight_features": "", "sight_content": ""}}, {"title": "鼎龙湾高尔夫度假村", "address": "覃巴镇鼎龙湾国家海洋生态度假区", "image": "", "rank": 7, "time": 2, "location": {"lat": 21.438135787816638, "lng": 110.85449311979262}, "feature": {"sight_features": "", "sight_content": ""}}, {"title": "自然乐园芦荟胶", "address": "第一中学", "image": "", "rank": 8, "time": 2, "location": {"lat": 23.16917782767351, "lng": 113.26907544843006}, "feature": {"sight_features": "", "sight_content": ""}}, {"title": "三柏新邨影剧场", "address": "文塔村附近", "image": "", "rank": 9, "time": 2, "location": {"lat": 32.62228764469198, "lng": 116.07356696390762}, "feature": {"sight_features": "", "sight_content": ""}}, {"title": "吴阳镇", "address": "广东省吴川市吴阳镇 524559", "image": "", "rank": 10, "time": 2, "location": {"lat": 21.318655779331905, "lng": 110.67246212802347}, "feature": {"sight_features": "", "sight_content": ""}}, {"title": "三浪剧场", "address": "广东省湛江市吴川市三浪村", "image": "", "rank": 11, "time": 2, "location": {"lat": 21.498675898403945, "lng": 110.71971208874753}, "feature": {"sight_features": "", "sight_content": ""}}, {"title": "烈士纪念园", "address": "广东省湛江市吴川市新建路与解放路交汇处以北170米", "image": "", "rank": 12, "time": 2, "location": {"lat": 21.441966034067363, "lng": 110.78341532694957}, "feature": {"sight_features": "", "sight_content": ""}}, {"title": "听涛居度假村", "address": "X704覃巴镇吉兆湾旅游区内", "image": "", "rank": 13, "time": 2, "location": {"lat": 21.409495730479122, "lng": 110.86560552904926}, "feature": {"sight_features": "", "sight_content": ""}}, {"title": "郑山抗日革命根据地纪念牌坊", "address": "285省道附近", "image": "", "rank": 14, "time": 2, "location": {"lat": 38.1816927667358, "lng": 116.86786825463601}, "feature": {"sight_features": "", "sight_content": ""}}, {"title": "碧海渡假村", "address": "湛江市吴川市吉兆旅游区星辰路18号", "image": "", "rank": 15, "time": 2, "location": {"lat": 21.389868649104038, "lng": 110.8750654837615}, "feature": {"sight_features": "", "sight_content": ""}}, {"title": "伴海度假村", "address": "广东省湛江市吴川市覃巴镇吉兆湾旅游度假区", "image": "", "rank": 16, "time": 2, "location": {"lat": 21.39271677022409, "lng": 110.87051627601632}, "feature": {"sight_features": "", "sight_content": ""}}, {"title": "华山神庙", "address": "长歧圩化吴路与622县道交叉口北150米", "image": "", "rank": 17, "time": 3.5, "location": {"lat": 21.541087224717003, "lng": 110.7330871301592}, "feature": {"sight_features": "", "sight_content": ""}}, {"title": "石狗塘剧场", "address": "石狗塘附近", "image": "", "rank": 18, "time": 2, "location": {"lat": 28.3627328384536, "lng": 117.79805833014727}, "feature": {"sight_features": "", "sight_content": ""}}, {"title": "寧根俱樂部", "address": "吴阳镇宁根村", "image": "", "rank": 19, "time": 2, "location": {"lat": 21.37769128444668, "lng": 110.67307981277328}, "feature": {"sight_features": "", "sight_content": ""}}, {"title": "吴阳金海岸", "address": "广东省吴川市吴阳镇 524559", "image": "", "rank": 20, "time": 2, "location": {"lat": 21.318655779331905, "lng": 110.67246212802347}, "feature": {"sight_features": "", "sight_content": ""}}, {"title": "乐根业丰兴文化广场", "address": "广东省湛江市吴川市塘缀镇乐根小学东南100米", "image": "", "rank": 21, "time": 2, "location": {"lat": 21.41324056398924, "lng": 110.55635695655857}, "feature": {"sight_features": "", "sight_content": ""}}, {"title": "将军广场", "address": "989乡道东100米", "image": "", "rank": 22, "time": 2, "location": {"lat": 39.76318280844112, "lng": 116.74561210862784}, "feature": {"sight_features": "", "sight_content": ""}}, {"title": "烈士纪念碑", "address": "湛江市吴川市解放北路11号", "image": "", "rank": 23, "time": 2, "location": {"lat": 21.443483346640768, "lng": 110.7829601537512}, "feature": {"sight_features": "", "sight_content": ""}}, {"title": "梅麓头抗日纪念馆", "address": "沿塘路30号", "image": "", "rank": 24, "time": 2, "location": {"lat": 21.44926454279893, "lng": 110.78587754462276}, "feature": {"sight_features": "", "sight_content": ""}}, {"title": "伏波古庙", "address": "广东省湛江市吴川市敏宁路217号", "image": "", "rank": 25, "time": 2, "location": {"lat": 21.453463776412836, "lng": 110.78203148551529}, "feature": {"sight_features": "", "sight_content": ""}}, {"title": "南埇文化广场", "address": "373省道附近", "image": "", "rank": 26, "time": 2, "location": {"lat": 21.248703819331904, "lng": 110.41433105564566}, "feature": {"sight_features": "", "sight_content": ""}}, {"title": "童爱岛儿童游乐园", "address": "梅花路永健孕婴百货二楼", "image": "", "rank": 27, "time": 1.5, "location": {"lat": 31.78889073166374, "lng": 119.97376952657594}, "feature": {"sight_features": "", "sight_content": ""}}, {"title": "银岭天后宫", "address": "广东省湛江市吴川市塘尾街道银岭圩", "image": "", "rank": 28, "time": 2, "location": {"lat": 21.406852719291084, "lng": 110.7324510400278}, "feature": {"sight_features": "", "sight_content": ""}}, {"title": "北贤庙", "address": "广东省湛江市吴川市海滨街道北贤庙", "image": "", "rank": 29, "time": 2.0, "location": {"lat": 21.41665924409891, "lng": 110.7995493268867}, "feature": {"sight_features": "", "sight_content": ""}}, {"title": "南寿庙", "address": "吴川市第三中学附近", "image": "", "rank": 30, "time": 2, "location": {"lat": 21.4253105604051, "lng": 110.79589870132929}, "feature": {"sight_features": "", "sight_content": ""}}, {"title": "那碌祖庙", "address": "湛江市吴川市", "image": "", "rank": 31, "time": 2.0, "location": {"lat": 21.447262768557348, "lng": 110.78645034014797}, "feature": {"sight_features": "", "sight_content": ""}}, {"title": "大世界儿童游乐园", "address": "长岐镇港龙超市2楼", "image": "", "rank": 32, "time": 2, "location": {"lat": 22.72945098054777, "lng": 113.84390976780797}, "feature": {"sight_features": "", "sight_content": ""}}, {"title": "金岛度假村", "address": "湛江吴川市同德路江心岛（文化岛）", "image": "", "rank": 33, "time": 2, "location": {"lat": 21.448279304620726, "lng": 110.77698732041733}, "feature": {"sight_features": "", "sight_content": ""}}, {"title": "水口渡湿地公园(建设中)", "address": "水口渡", "image": "", "rank": 34, "time": 0.4, "location": {"lat": 30.1604080307069, "lng": 107.38206275637725}, "feature": {"sight_features": "", "sight_content": ""}}, {"title": "吴川星辰阁度假村", "address": "湛江市吴川市吉兆旅游区星辰路6号", "image": "", "rank": 35, "time": 2, "location": {"lat": 21.390115778815854, "lng": 110.8746169723968}, "feature": {"sight_features": "", "sight_content": ""}}, {"title": "吴川裕康度假村", "address": "吴川吉兆湾省级旅游度假区", "image": "", "rank": 36, "time": 2, "location": {"lat": 21.392662766611984, "lng": 110.87051727313542}, "feature": {"sight_features": "", "sight_content": ""}}, {"title": "东山广场", "address": "广东省湛江市吴川市塘尾街道东山村东山广场", "image": "", "rank": 37, "time": 0.75, "location": {"lat": 21.38074859674162, "lng": 110.72254628664753}, "feature": {"sight_features": "", "sight_content": ""}}, {"title": "汇景湾度假村", "address": "湛江市吴川市吉兆湾旅游区28号", "image": "", "rank": 38, "time": 2, "location": {"lat": 21.3927164451242, "lng": 110.8705161951688}, "feature": {"sight_features": "", "sight_content": ""}}, {"title": "泮海度假村", "address": "吉兆湾旅游度假村", "image": "", "rank": 39, "time": 2, "location": {"lat": 21.392662766611984, "lng": 110.87051727313542}, "feature": {"sight_features": "", "sight_content": ""}}, {"title": "金莲菴", "address": "广东省湛江市吴川市", "image": "", "rank": 40, "time": 2, "location": {"lat": 21.447262768557348, "lng": 110.78645034014797}, "feature": {"sight_features": "", "sight_content": ""}}, {"title": "英胜古庙", "address": "002乡道附近", "image": "", "rank": 41, "time": 2, "location": {"lat": 42.378424836827975, "lng": 117.60771626587587}, "feature": {"sight_features": "", "sight_content": ""}}, {"title": "天后祖姑", "address": "白衣庵附近", "image": "", "rank": 42, "time": 2, "location": {"lat": 37.70795323896154, "lng": 112.44543479830087}, "feature": {"sight_features": "", "sight_content": ""}}, {"title": "怡景度假村", "address": "湛江市吴川市吉兆旅游区豪景路27号", "image": "", "rank": 43, "time": 2, "location": {"lat": 21.390757755472272, "lng": 110.87400701037944}, "feature": {"sight_features": "", "sight_content": ""}}, {"title": "造福寺", "address": "芷寮小学附近", "image": "", "rank": 44, "time": 2, "location": {"lat": 21.32476093744407, "lng": 110.66976174889862}, "feature": {"sight_features": "", "sight_content": ""}}, {"title": "居乐村度假村", "address": "覃巴镇吉兆湾海景街居乐村度假村", "image": "", "rank": 45, "time": 2, "location": {"lat": 21.392662766611984, "lng": 110.87051727313542}, "feature": {"sight_features": "", "sight_content": ""}}, {"title": "海蓝度假村", "address": "湛江市吴川市吉兆旅游区豪景路40号", "image": "", "rank": 46, "time": 2, "location": {"lat": 21.390880879418127, "lng": 110.87637344802428}, "feature": {"sight_features": "", "sight_content": ""}}, {"title": "海景湾度假村", "address": "湛江市吴川市海景街附近", "image": "", "rank": 47, "time": 2, "location": {"lat": 21.389906289324145, "lng": 110.8743097393362}, "feature": {"sight_features": "", "sight_content": ""}}, {"title": "滨海渡假村", "address": "湛江市吴川市吉兆旅游区星辰路12号", "image": "", "rank": 48, "time": 2, "location": {"lat": 21.389692966484013, "lng": 110.87551458800785}, "feature": {"sight_features": "", "sight_content": ""}}, {"title": "健爽儿童乐园", "address": "吴川市其他乐山路16号(美优乐二楼)", "image": "", "rank": 49, "time": 2, "location": {"lat": 21.35460428863923, "lng": 110.62855088501435}, "feature": {"sight_features": "", "sight_content": ""}}, {"title": "吉之岛度假村", "address": "湛江市吴川市贵宾街附近", "image": "", "rank": 50, "time": 2, "location": {"lat": 21.391180962571532, "lng": 110.87257061986945}, "feature": {"sight_features": "", "sight_content": ""}}, {"title": "文福庙", "address": "唐基学校附近", "image": "", "rank": 51, "time": 2, "location": {"lat": 21.32736957204445, "lng": 110.5965851164356}, "feature": {"sight_features": "", "sight_content": ""}}, {"title": "豪园度假村", "address": "海港大道26号", "image": "", "rank": 52, "time": 2, "location": {"lat": 21.4281862968451, "lng": 110.78748014500799}, "feature": {"sight_features": "", "sight_content": ""}}, {"title": "夏威夷渡假村", "address": "湛江市吴川市吉兆湾星辰路椰香路口附近", "image": "", "rank": 53, "time": 2, "location": {"lat": 21.392662766611984, "lng": 110.87051727313542}, "feature": {"sight_features": "", "sight_content": ""}}, {"title": "鸿运渡假村", "address": "湛江市吴川市吉兆旅游区豪景路19号", "image": "", "rank": 54, "time": 2, "location": {"lat": 21.391349844995872, "lng": 110.87625378025581}, "feature": {"sight_features": "", "sight_content": ""}}, {"title": "南洋渡假村", "address": "湛江市吴川市吉兆旅游区豪景路8号", "image": "", "rank": 55, "time": 2, "location": {"lat": 21.39117254892358, "lng": 110.87858747017329}, "feature": {"sight_features": "", "sight_content": ""}}, {"title": "奇趣冰雪乐园", "address": "湛江市吴川市海滨街道海港大道60号金沙广场旁", "image": "", "rank": 56, "time": 2, "location": {"lat": 21.413792007649086, "lng": 110.79200950379463}, "feature": {"sight_features": "", "sight_content": "奇趣冰雪乐园拥有各式室内冰雕，冰雕造型流光溢彩，趣味横生，仿佛置身于童话般的海洋冰雪乐园。"}}, {"title": "张炎将军纪念馆", "address": "横塘路", "image": "", "rank": 57, "time": 2, "location": {"lat": 27.877687029317922, "lng": 120.79630262011811}, "feature": {"sight_features": "", "sight_content": ""}}, {"title": "塘缀张炎纪念馆", "address": "解放路", "image": "", "rank": 58, "time": 2, "location": {"lat": 38.31075478654948, "lng": 116.85852551801001}, "feature": {"sight_features": "", "sight_content": ""}}, {"title": "首届3d魔幻艺术画展", "address": "梅录解放路长寿路口农业银行二楼(即旧港丰对面/浩林健身房入口处)", "image": "", "rank": 59, "time": 2, "location": {"lat": 24.80663641170438, "lng": 113.59678466446695}, "feature": {"sight_features": "", "sight_content": ""}}, {"title": "黄坡水上乐园", "address": "黄坡镇光明路5号(工商局后面)", "image": "", "rank": 60, "time": 2, "location": {"lat": 21.31489535568983, "lng": 110.57787610758548}, "feature": {"sight_features": "", "sight_content": ""}}]}