{"cityName": "五常", "days": 2, "cityImage": "", "spots": [{"title": "雪谷", "address": "哈尔滨市五常市山河屯林业局森工中国雪谷旅游景区", "image": "", "rank": 1, "time": 1.5, "location": {"lat": 44.39396294241224, "lng": 128.14785361319133}, "feature": {"sight_features": "", "sight_content": ""}}, {"title": "凤凰山国家森林公园", "address": "哈尔滨市五常市山河屯重点国有林管理局凤凰山景区", "image": "", "rank": 2, "time": 2.5, "location": {"lat": 44.71617234578478, "lng": 127.23630412546947}, "feature": {"sight_features": "特色1 这里的茂密森林，更因东北抗日联军闻名遐迩。 特色2 这里是北方的植物世界，更是野生动物的天堂。", "sight_content": "‍‍山势横亘，林海浩瀚、大河奔腾、花海迤逦，好一派北国风光。‍‍\n‍‍这里有红松、胡桃楸、水曲柳、黄菠萝等珍贵树种；人参、平贝、天麻、黄芪、刺五加、龙胆草等名贵药材；木耳、蘑菇、猴头等山产珍品；虎、熊、马鹿、紫貂、猞猁、獐子、水獭、林蛙、飞龙等珍稀动物。‍‍\n空中花园是大自然的奇异恩赐，拥有高山奇桦、高山崖柳、高山偃松、高山杜鹃、高山稀药、高山石海、高山湿地和高山稻田八大高山景观。云雨时云雾缭绕，烟雨迷蒙，群山若隐若现。"}}, {"title": "龙凤山国家森林公园", "address": "哈尔滨市五常市龙凤山镇", "image": "", "rank": 3, "time": 2, "location": {"lat": 44.79154985107053, "lng": 127.5601001674063}, "feature": {"sight_features": "", "sight_content": ""}}, {"title": "京旗文化博物馆", "address": "哈尔滨市五常市拉林镇", "image": "", "rank": 4, "time": 1.0, "location": {"lat": 45.24376740979176, "lng": 126.8762108063339}, "feature": {"sight_features": "", "sight_content": ""}}, {"title": "葫芦湾风景区", "address": "哈尔滨市五常市葫芦湾旅游风景区（近郊二河乡）", "image": "", "rank": 5, "time": 2, "location": {"lat": 45.09124538972455, "lng": 127.32452718140433}, "feature": {"sight_features": "", "sight_content": ""}}, {"title": "五常磨盘山漂流", "address": "黑龙江省哈尔滨市五常市沙河子镇", "image": "", "rank": 6, "time": 2, "location": {"lat": 44.45797130579603, "lng": 127.62495019951125}, "feature": {"sight_features": "", "sight_content": ""}}, {"title": "五常市", "address": "黑龙江省南部", "image": "", "rank": 7, "time": 1.5, "location": {"lat": 45.74792983743469, "lng": 126.66965282041836}, "feature": {"sight_features": "", "sight_content": ""}}, {"title": "华藏寺", "address": "黑龙江哈尔滨五常市拉林镇", "image": "", "rank": 8, "time": 1.0, "location": {"lat": 45.24376740979176, "lng": 126.8762108063339}, "feature": {"sight_features": "", "sight_content": ""}}, {"title": "月牙湖风景区", "address": "黑龙江省五常市五常镇", "image": "", "rank": 9, "time": 2, "location": {"lat": 44.90553713132907, "lng": 127.17562094815058}, "feature": {"sight_features": "", "sight_content": ""}}, {"title": "五常龙凤湖水库", "address": "黑龙江省五常市龙凤山乡", "image": "", "rank": 10, "time": 1.5, "location": {"lat": 44.86983344474951, "lng": 127.55711654177361}, "feature": {"sight_features": "", "sight_content": ""}}, {"title": "龙凤森林公园", "address": "黑龙江省五常市龙凤山乡", "image": "", "rank": 11, "time": 2, "location": {"lat": 44.86983344474951, "lng": 127.55711654177361}, "feature": {"sight_features": "", "sight_content": ""}}, {"title": "回龙山生态田园旅游区", "address": "哈尔滨市五常市二河乡新庄村", "image": "", "rank": 12, "time": 2, "location": {"lat": 45.09450852402732, "lng": 127.18058491990935}, "feature": {"sight_features": "", "sight_content": "回龙山生态田园风景区以“花海\"为主题，在主题下建立了大型水果采摘园，农副产品蔬菜，家禽类的‘放野’似的圈养。花海占地面积500亩，水果采摘园面积1000亩，蔬菜500亩，家禽圈养占地1000亩。 爬山为环形路，途中可观看深山花海，雷击复活树，林中道观，抗战小路。"}}, {"title": "五常市图书馆", "address": "亚臣路", "image": "", "rank": 13, "time": 1.5, "location": {"lat": 44.92298526745135, "lng": 127.17041021565007}, "feature": {"sight_features": "", "sight_content": ""}}, {"title": "杏花山生态园", "address": "亚臣路", "image": "", "rank": 14, "time": 2, "location": {"lat": 44.92298526745135, "lng": 127.17041021565007}, "feature": {"sight_features": "", "sight_content": ""}}, {"title": "五常园艺研究中心葡萄园(东北门)", "address": "亚臣路38附近", "image": "", "rank": 15, "time": 1.5, "location": {"lat": 44.911026924238726, "lng": 127.1734617561737}, "feature": {"sight_features": "", "sight_content": ""}}, {"title": "北方大戏院", "address": "五常镇南二道街", "image": "", "rank": 16, "time": 2, "location": {"lat": 44.937842855773596, "lng": 127.17352882965176}, "feature": {"sight_features": "", "sight_content": ""}}, {"title": "鑫雅大戏院", "address": "山河镇双丰街奋斗路235号", "image": "", "rank": 17, "time": 2, "location": {"lat": 44.720962351484616, "lng": 127.21454277595795}, "feature": {"sight_features": "", "sight_content": ""}}, {"title": "凤翔度假村", "address": "龙凤山国家森林公园旁", "image": "", "rank": 18, "time": 2, "location": {"lat": 44.74267470182681, "lng": 127.59767626263444}, "feature": {"sight_features": "", "sight_content": ""}}, {"title": "松鹤轩", "address": "黑龙江省哈尔滨市五常市山东屯", "image": "", "rank": 19, "time": 2, "location": {"lat": 45.10449465353445, "lng": 127.08439823939366}, "feature": {"sight_features": "", "sight_content": ""}}, {"title": "星月生态旅游度假村", "address": "525乡道附近", "image": "", "rank": 20, "time": 2, "location": {"lat": 45.08772226620679, "lng": 127.14978310193862}, "feature": {"sight_features": "", "sight_content": ""}}, {"title": "小乡展览馆", "address": "吉林省榆树市六家村", "image": "", "rank": 21, "time": 2, "location": {"lat": 44.84543972769254, "lng": 126.53960936347069}, "feature": {"sight_features": "", "sight_content": ""}}, {"title": "万宝山滑雪场", "address": "黑龙江省七台河市桃山区山湖大街南侧 154600", "image": "", "rank": 22, "time": 2, "location": {"lat": 45.77179991569574, "lng": 131.02644424553824}, "feature": {"sight_features": "", "sight_content": ""}}, {"title": "五常市名优特产品展示中心", "address": "黑龙江省五常市G1211吉黑高速金山大街入口", "image": "", "rank": 23, "time": 1.5, "location": {"lat": 45.183969499375294, "lng": 127.00517100636385}, "feature": {"sight_features": "", "sight_content": ""}}, {"title": "佛仙殿", "address": "顺天府大街与152县道交叉口北150米", "image": "", "rank": 24, "time": 2, "location": {"lat": 45.24354361824018, "lng": 126.87579259750882}, "feature": {"sight_features": "", "sight_content": ""}}, {"title": "佳贝爱儿童主题乐园", "address": "解放大街与152县道交叉口西150米", "image": "", "rank": 25, "time": 2, "location": {"lat": 39.09309514954309, "lng": 117.27805080712675}, "feature": {"sight_features": "", "sight_content": ""}}, {"title": "五常市拉林革命烈士陵园", "address": "顺天府大街17号附近", "image": "", "rank": 26, "time": 1.5, "location": {"lat": 45.24371333476489, "lng": 126.87561808094051}, "feature": {"sight_features": "", "sight_content": ""}}, {"title": "卡米熊水育会馆", "address": "体育东路84号(锦膳楼对过)", "image": "", "rank": 27, "time": 2, "location": {"lat": 44.92715383634891, "lng": 127.15812949501782}, "feature": {"sight_features": "", "sight_content": ""}}, {"title": "五常市以马内利教会", "address": "开发大街与致富路交叉口北50米", "image": "", "rank": 28, "time": 1.5, "location": {"lat": 44.92102114076103, "lng": 127.16129508448778}, "feature": {"sight_features": "", "sight_content": ""}}, {"title": "新曙光基督教会", "address": "五常镇兴业小区10号楼南4门", "image": "", "rank": 29, "time": 0.5, "location": {"lat": 44.92896716175738, "lng": 127.16986926774993}, "feature": {"sight_features": "", "sight_content": ""}}, {"title": "小山子烈士陵园", "address": "黑龙江省哈尔滨市五常市小山子革命烈士陵园", "image": "", "rank": 30, "time": 2.5, "location": {"lat": 44.89529184820914, "lng": 127.16883211115727}, "feature": {"sight_features": "", "sight_content": ""}}, {"title": "永乐教堂", "address": "黑龙江省哈尔滨市五常市民族路", "image": "", "rank": 31, "time": 2, "location": {"lat": 44.932547981844465, "lng": 127.16851723800823}, "feature": {"sight_features": "", "sight_content": ""}}, {"title": "奇奇儿童乐园", "address": "五常市政府广场西侧葵花商贸城", "image": "", "rank": 32, "time": 2, "location": {"lat": 44.93493683887142, "lng": 127.17062141086869}, "feature": {"sight_features": "", "sight_content": ""}}, {"title": "石龙山度假村", "address": "黑龙江省哈尔滨市五常市小岭街道C018西泉眼漂流南300米", "image": "", "rank": 33, "time": 2, "location": {"lat": 45.3412928712666, "lng": 127.3144016424925}, "feature": {"sight_features": "", "sight_content": ""}}, {"title": "哈尔滨凤凰山蒙古部落度假村", "address": "哈尔滨五常凤凰山风景区", "image": "", "rank": 34, "time": 1.5, "location": {"lat": 44.71616001218718, "lng": 127.23682273790142}, "feature": {"sight_features": "", "sight_content": ""}}, {"title": "佳欣度假村", "address": "五常山河屯林业局长青林场", "image": "", "rank": 35, "time": 2, "location": {"lat": 44.45176605668892, "lng": 128.06872035729123}, "feature": {"sight_features": "", "sight_content": ""}}, {"title": "哈尔滨雪谷佳欣度假村", "address": "黑龙江哈尔滨五常市山河镇长青林场", "image": "", "rank": 36, "time": 1.5, "location": {"lat": 44.45176605668892, "lng": 128.06872035729123}, "feature": {"sight_features": "", "sight_content": ""}}, {"title": "文化广场", "address": "富民路附近", "image": "", "rank": 37, "time": 1.5, "location": {"lat": 40.35561640416306, "lng": 116.79599550361348}, "feature": {"sight_features": "", "sight_content": ""}}, {"title": "桌球舰队休闲娱乐广场", "address": "黑龙江省哈尔滨市五常市文化路405", "image": "", "rank": 38, "time": 2, "location": {"lat": 44.92656236790195, "lng": 127.16586767512688}, "feature": {"sight_features": "", "sight_content": ""}}, {"title": "篝火晚会广场", "address": "凤凰山风景区", "image": "", "rank": 39, "time": 2, "location": {"lat": 31.396313347375678, "lng": 104.73403524174101}, "feature": {"sight_features": "", "sight_content": ""}}, {"title": "欧帝风情度假村", "address": "志广乡付家村东南1500米铁通公路路南通公路路南", "image": "", "rank": 40, "time": 2, "location": {"lat": 44.91750176096941, "lng": 127.40740839497383}, "feature": {"sight_features": "", "sight_content": ""}}, {"title": "开心岛儿童水上主题俱乐部", "address": "文苑路202号", "image": "", "rank": 41, "time": 2, "location": {"lat": 30.52807542575784, "lng": 120.6880808573207}, "feature": {"sight_features": "", "sight_content": ""}}, {"title": "五常市基督教曙光教会", "address": "希望大街附近", "image": "", "rank": 42, "time": 1.5, "location": {"lat": 43.618067590651954, "lng": 122.34986889711628}, "feature": {"sight_features": "", "sight_content": ""}}, {"title": "五常市拉林满族镇永光基督教会", "address": "拉林镇顺天府大街23号", "image": "", "rank": 43, "time": 1.5, "location": {"lat": 45.24369797442085, "lng": 126.87581914308714}, "feature": {"sight_features": "", "sight_content": ""}}, {"title": "碧海山庄", "address": "黑龙江省哈尔滨市五常市", "image": "", "rank": 44, "time": null, "location": {"lat": 44.937842855773596, "lng": 127.17352882965176}, "feature": {"sight_features": "", "sight_content": ""}}, {"title": "龙凤源漂流山庄", "address": "黑龙江省哈尔滨市五常市冲河镇红豆杉景区", "image": "", "rank": 45, "time": 2, "location": {"lat": 44.679329731952414, "lng": 128.03300632811403}, "feature": {"sight_features": "", "sight_content": ""}}, {"title": "革命烈士纪念碑", "address": "G1211吉黑高速附近", "image": "", "rank": 46, "time": 0.4, "location": {"lat": 45.58628272926829, "lng": 126.68192654826237}, "feature": {"sight_features": "", "sight_content": ""}}, {"title": "向阳山庄", "address": "吉林省吉林市舒兰市", "image": "", "rank": 47, "time": 2, "location": {"lat": 44.412270028323626, "lng": 126.97137703226396}, "feature": {"sight_features": "", "sight_content": ""}}, {"title": "雪乡国家森林公园", "address": "延边朝鲜族自治州敦化市", "image": "", "rank": 48, "time": 9.0, "location": {"lat": 43.37829127451678, "lng": 128.23861239315394}, "feature": {"sight_features": "", "sight_content": ""}}, {"title": "天然居休闲山庄", "address": "G1211吉黑高速", "image": "", "rank": 49, "time": 2, "location": {"lat": 45.58628272926829, "lng": 126.68192654826237}, "feature": {"sight_features": "", "sight_content": ""}}, {"title": "革命烈士纪念馆", "address": "亚臣路", "image": "", "rank": 50, "time": 2, "location": {"lat": 44.92298526745135, "lng": 127.17041021565007}, "feature": {"sight_features": "", "sight_content": ""}}, {"title": "自由采摘园", "address": "其他地区五常宾馆附近", "image": "", "rank": 51, "time": null, "location": {"lat": 30.247237783314283, "lng": 120.04928757351045}, "feature": {"sight_features": "", "sight_content": ""}}, {"title": "澳凡儿童体验公园", "address": "文苑路227号", "image": "", "rank": 52, "time": 2, "location": {"lat": 44.928439941426575, "lng": 127.16301385104714}, "feature": {"sight_features": "", "sight_content": ""}}, {"title": "LIFE IDEA", "address": "文苑路26号附近", "image": "", "rank": 53, "time": 2, "location": {"lat": 24.698306906651077, "lng": 108.05892894307071}, "feature": {"sight_features": "", "sight_content": ""}}, {"title": "海洋裤城", "address": "奋斗路与山河大街交叉口东北100米", "image": "", "rank": 54, "time": null, "location": {"lat": 44.72431871104541, "lng": 127.21430911505767}, "feature": {"sight_features": "", "sight_content": ""}}, {"title": "兴海水稻种植专业合作社", "address": "宇晨家园四号楼商服1-2号门", "image": "", "rank": 55, "time": 2, "location": {"lat": 44.9217654854867, "lng": 127.15896271597691}, "feature": {"sight_features": "", "sight_content": ""}}, {"title": "文贤庄园", "address": "黑龙江省五常市五常镇", "image": "", "rank": 56, "time": 2, "location": {"lat": 44.90553713132907, "lng": 127.17562094815058}, "feature": {"sight_features": "", "sight_content": ""}}, {"title": "凤尾峡", "address": "哈尔滨市-五常市-山河屯林业局五常市南部120公里处凤凰山国家森林公园内", "image": "", "rank": 57, "time": 2, "location": {"lat": 44.223366809315, "lng": 128.003219878336}, "feature": {"sight_features": "", "sight_content": ""}}, {"title": "漫天星山", "address": "哈尔滨市-五常市-龙凤山国家森林公园", "image": "", "rank": 58, "time": 2, "location": {"lat": 44.74267470182681, "lng": 127.59767626263444}, "feature": {"sight_features": "", "sight_content": ""}}, {"title": "向阳镇林场", "address": "哈尔滨市-五常市-二一七县道", "image": "", "rank": 59, "time": 2, "location": {"lat": 44.411577948194285, "lng": 127.8948141660029}, "feature": {"sight_features": "", "sight_content": ""}}, {"title": "五常回龙山", "address": "哈尔滨市五常市二河乡新庄村", "image": "", "rank": 60, "time": 2, "location": {"lat": 45.09450852402732, "lng": 127.18058491990935}, "feature": {"sight_features": "", "sight_content": ""}}]}