{"cityName": "务川", "days": 2, "cityImage": "", "spots": [{"title": "务川仡佬之源景区", "address": "遵义市务川仡佬族苗族自治县龙潭村", "image": "", "rank": 1, "time": 0.75, "location": {"lat": 28.614346859671244, "lng": 107.9749779714432}, "feature": {"sight_features": "", "sight_content": ""}}, {"title": "务川自治县栗园旅游度假村", "address": "务川仡佬族苗族自治县栗园村栗园完小东南侧300米路北", "image": "", "rank": 2, "time": 2, "location": {"lat": 28.809365364989777, "lng": 107.84827973886566}, "feature": {"sight_features": "", "sight_content": ""}}, {"title": "洪渡河漂流", "address": "遵义市务川仡佬族苗族自治县丰乐镇境内楠木铁索桥至丰乐桥河段", "image": "", "rank": 3, "time": 2, "location": {"lat": 28.51167384288841, "lng": 107.93039081821605}, "feature": {"sight_features": "", "sight_content": ""}}, {"title": "遵义革命领袖故居", "address": "贵州省遵义市红花岗区丰乐镇 564301", "image": "", "rank": 4, "time": 2.0, "location": {"lat": 27.65087026073177, "lng": 106.90049658667778}, "feature": {"sight_features": "", "sight_content": ""}}, {"title": "小广场", "address": "民族街与环城东路交汇处西北50米", "image": "", "rank": 5, "time": 1.5, "location": {"lat": 28.527731420522407, "lng": 107.8944623805933}, "feature": {"sight_features": "", "sight_content": ""}}, {"title": "陈家祠堂", "address": "遵义市务川仡佬族苗族自治县", "image": "", "rank": 6, "time": 1.5, "location": {"lat": 28.569077110561935, "lng": 107.90545629257353}, "feature": {"sight_features": "", "sight_content": ""}}, {"title": "涪洋冷水鱼山庄", "address": "遵义务川仡佬族苗族自治县303省道", "image": "", "rank": 7, "time": 2, "location": {"lat": 28.481277754275737, "lng": 107.97284789055422}, "feature": {"sight_features": "", "sight_content": ""}}, {"title": "红茶楼休闲山庄", "address": "都濡镇福泉街(教育局对面)", "image": "", "rank": 8, "time": 2, "location": {"lat": 28.527662395531515, "lng": 107.89829904342514}, "feature": {"sight_features": "", "sight_content": ""}}, {"title": "机关发室", "address": "龙洞街与中街交叉口旁", "image": "", "rank": 9, "time": 2, "location": {"lat": 23.198172539760392, "lng": 113.37464610853881}, "feature": {"sight_features": "", "sight_content": ""}}, {"title": "龙潭村", "address": "遵义市务川仡佬族苗族自治县", "image": "", "rank": 10, "time": 2, "location": {"lat": 28.569077110561935, "lng": 107.90545629257353}, "feature": {"sight_features": "", "sight_content": ""}}]}