{"cityName": "武城", "days": 2, "cityImage": "", "spots": [{"title": "佛光寺", "address": "德州市武城县四女寺风景区", "image": "", "rank": 1, "time": 2.5, "location": {"lat": 37.359788775513024, "lng": 116.24680690266023}, "feature": {"sight_features": "", "sight_content": ""}}, {"title": "德州市运河文化博物馆", "address": "山东省德州市武城县四女寺风景区附近", "image": "", "rank": 2, "time": 3.5, "location": {"lat": 37.359788775513024, "lng": 116.24680690266023}, "feature": {"sight_features": "", "sight_content": ""}}, {"title": "弦歌湖公园", "address": "北邻振华街、滨湖丽都住宅小区和幸福家园住宅小区，东靠黄花园住宅小区，西接西外环路，南到古贝春大街", "image": "", "rank": 3, "time": 2, "location": {"lat": 37.21831229388801, "lng": 116.05596350952379}, "feature": {"sight_features": "", "sight_content": ""}}, {"title": "武城县金水湾生态园", "address": "南环路与S254省道交叉口往南500米路南", "image": "", "rank": 4, "time": 2, "location": {"lat": 26.5515611966257, "lng": 107.39487246630061}, "feature": {"sight_features": "", "sight_content": ""}}, {"title": "民俗展览馆", "address": "向阳路", "image": "", "rank": 5, "time": 1.5, "location": {"lat": 40.04285042449234, "lng": 116.68176773133793}, "feature": {"sight_features": "", "sight_content": ""}}, {"title": "玻璃钢展览馆", "address": "文化东街", "image": "", "rank": 6, "time": 2, "location": {"lat": 40.79319456506326, "lng": 111.79537871810828}, "feature": {"sight_features": "", "sight_content": ""}}, {"title": "武城县图书馆", "address": "向阳路", "image": "", "rank": 7, "time": 2, "location": {"lat": 40.04285042449234, "lng": 116.68176773133793}, "feature": {"sight_features": "", "sight_content": ""}}, {"title": "海洋净化", "address": "宏海路东50米", "image": "", "rank": 8, "time": 2, "location": {"lat": 43.9630303518003, "lng": 125.16854574790592}, "feature": {"sight_features": "", "sight_content": ""}}, {"title": "四女寺冰雪嘉年华", "address": "四女寺风景区", "image": "", "rank": 9, "time": 2, "location": {"lat": 37.359788775513024, "lng": 116.24680690266023}, "feature": {"sight_features": "", "sight_content": ""}}, {"title": "四女寺水乐园", "address": "德州市武城县四女寺镇县四女寺风景区内", "image": "", "rank": 10, "time": 2, "location": {"lat": 37.359788775513024, "lng": 116.24680690266023}, "feature": {"sight_features": "", "sight_content": "四女寺水乐园位于3A级景区四女寺旅游风景区内，景区依托千年古镇四女寺水库丰富的天然水资源和周边优美的自然环境，在这里戏水，可以享受到度假般的惬意。\n\n\n四女寺水乐园是距离主城较近的大型户外水上主题乐园，同时景区在设计时充分考虑不同年龄和不同喜好的人群的游玩需求，既有适宜全家嬉水玩乐的超大嬉水池、色彩鲜艳的水屋，也有颇受年轻人青睐的刺激项目，让你和家人一起清凉一整夏。"}}, {"title": "四女寺风景区", "address": "德州市武城县四女寺镇四女寺村", "image": "", "rank": 11, "time": 2, "location": {"lat": 37.364356175477766, "lng": 116.2449612234984}, "feature": {"sight_features": "", "sight_content": ""}}]}