{"cityName": "武川", "days": 2, "cityImage": "", "spots": [{"title": "哈达门高原牧场", "address": "呼和浩特市武川县哈达门国家森林公园内", "image": "", "rank": 1, "time": 4.0, "location": {"lat": 41.015329473467624, "lng": 111.58769273535498}, "feature": {"sight_features": "", "sight_content": ""}}, {"title": "哈达门国家森林公园", "address": "呼和浩特市武川县呼武旧公路27公里处", "image": "", "rank": 2, "time": 2, "location": {"lat": 41.01558540745298, "lng": 111.58758153052268}, "feature": {"sight_features": "", "sight_content": ""}}, {"title": "创智牌楼馆", "address": "呼和浩特市武川县呼武公路19公里处", "image": "", "rank": 3, "time": 2, "location": {"lat": 41.02152079347246, "lng": 111.58156041326569}, "feature": {"sight_features": "", "sight_content": ""}}, {"title": "大青山抗日根据地展馆", "address": "呼和浩特市武川县得胜沟乡", "image": "", "rank": 4, "time": 1.0, "location": {"lat": 41.00543669029944, "lng": 111.16658566677764}, "feature": {"sight_features": "", "sight_content": ""}}, {"title": "泓业生态园", "address": "104省道附近", "image": "", "rank": 5, "time": 2, "location": {"lat": 37.84517653890577, "lng": 112.34866876283355}, "feature": {"sight_features": "", "sight_content": ""}}, {"title": "古骑·博格", "address": "内蒙古自治区呼和浩特市武川县可镇健康西街新世界商业街", "image": "", "rank": 6, "time": 2, "location": {"lat": 41.10154573870853, "lng": 111.46559765372815}, "feature": {"sight_features": "", "sight_content": ""}}, {"title": "贝贝乐儿童乐园", "address": "内蒙古自治区呼和浩特市武川县瑞兴商城4楼", "image": "", "rank": 7, "time": 2, "location": {"lat": 41.10117927790372, "lng": 111.46712939757188}, "feature": {"sight_features": "", "sight_content": ""}}, {"title": "县委广场", "address": "兴元东路与泰安巷交叉口东北150米", "image": "", "rank": 8, "time": 2, "location": {"lat": 41.08295063327801, "lng": 111.47437603710394}, "feature": {"sight_features": "", "sight_content": ""}}, {"title": "中国燕麦博物馆", "address": "金三角开发区", "image": "", "rank": 9, "time": 2, "location": {"lat": 39.72419078047331, "lng": 116.88379476217514}, "feature": {"sight_features": "", "sight_content": ""}}, {"title": "大青山抗日游击根据地礼堂", "address": "大青山抗日游击根据地礼堂东南侧大青山抗日游击根据地展馆附近", "image": "", "rank": 10, "time": 2, "location": {"lat": 41.00380415148619, "lng": 111.22796511171425}, "feature": {"sight_features": "", "sight_content": ""}}, {"title": "北上荞麦民俗博物馆", "address": "青山路附近", "image": "", "rank": 11, "time": 2, "location": {"lat": 41.87034034443168, "lng": 123.39673780365717}, "feature": {"sight_features": "", "sight_content": ""}}, {"title": "武川历史文化生态园", "address": "兴元东路", "image": "", "rank": 12, "time": 2, "location": {"lat": 41.08295063327801, "lng": 111.47437603710394}, "feature": {"sight_features": "", "sight_content": ""}}, {"title": "荥阳优河湾生态园", "address": "荥阳市广武镇孙寨村寨河桥南头路西", "image": "", "rank": 13, "time": 3.5, "location": {"lat": 34.91326354655125, "lng": 113.4611138620096}, "feature": {"sight_features": "", "sight_content": ""}}, {"title": "农兴苑专业合作社", "address": "青山路30号附近", "image": "", "rank": 14, "time": 2, "location": {"lat": 41.09468303329427, "lng": 111.46786152554557}, "feature": {"sight_features": "", "sight_content": ""}}, {"title": "呼和牧马场", "address": "104省道北100米", "image": "", "rank": 15, "time": 2, "location": {"lat": 37.84588891620944, "lng": 112.34866876283355}, "feature": {"sight_features": "", "sight_content": ""}}, {"title": "大青山抗日根据地", "address": "内蒙古自治区武川县纳令沟乡", "image": "", "rank": 16, "time": 1.0, "location": {"lat": 41.00601826618629, "lng": 111.16999317223811}, "feature": {"sight_features": "", "sight_content": ""}}, {"title": "呼和浩特尊胜寺", "address": "呼和浩特市-武川县-了目山庄", "image": "", "rank": 17, "time": 2.5, "location": {"lat": 41.009381708744684, "lng": 111.70444106126439}, "feature": {"sight_features": "", "sight_content": ""}}, {"title": "武川冰雪嘉年华", "address": "呼和浩特市武川县可镇南山5公里处", "image": "", "rank": 18, "time": 2, "location": {"lat": 41.10609056698969, "lng": 111.46018640326831}, "feature": {"sight_features": "", "sight_content": ""}}, {"title": "兔虎子山", "address": "呼和浩特市-武川县", "image": "", "rank": 19, "time": 2, "location": {"lat": 41.10241872379268, "lng": 111.45749705623255}, "feature": {"sight_features": "", "sight_content": ""}}]}