{"cityName": "五大连池", "days": 2, "cityImage": "", "spots": [{"title": "五大连池风景区", "address": "黑河市五大连池市五大连池镇", "image": "", "rank": 1, "time": 4.5, "location": {"lat": 48.668371956724116, "lng": 126.17258909645845}, "feature": {"sight_features": "特色1 五大连池是一组休眠的火山群，拔地而起，形态各异 特色2 火山口领略大自然的震撼，探秘熔岩冰洞，还可品尝天然药泉。", "sight_content": "白龙洞全长515米，可观赏374米，洞底冰体覆盖光滑如镜，呈阶梯式斜坡状，洞的尽头有两个传说是锁白龙的巨大熔岩石柱，因此民间传为“白龙洞”。\n白龙洞是以霜雪为主的熔洞，洞内全长515米，是一条不折不扣的地下冰河，目前已开发出365米，还有150米属于探险区，洞内四季温度为零下12℃。它是我国目前发现的最长的火山地下熔岩隧道之一。\n\n\n水晶宫位于西焦得布山的桦树林中，这里一年四季结冰，犹如冰雕玉砌的一样，因此，人们称之为冰洞，也誉为水晶宫。水晶宫全长150多米，深23米，洞内平均温度为-5℃，洞壁是各种奇形怪状的熔岩，洞顶是低垂下来的熔岩钟乳。更为美妙的是如玉的霜花遍布洞内，晶莹剔透，洁净素雅，脚下万载寒冰，终年不化，“三伏赏冰雪”是五大连池奇观之一"}}, {"title": "老黑山", "address": "黑河市五大连池市区北10公里", "image": "", "rank": 2, "time": 2.5, "location": {"lat": 48.52260955176269, "lng": 126.21155518831091}, "feature": {"sight_features": "", "sight_content": "黑龙山却是特殊的玄武岩地貌，它的形成原因是：地球深部的岩浆，沿着地壳断裂在远古乌德林湖泊的薄弱地带于1720年溢出，沿着远古湖泊的低洼处流淌,填塞了64平方公里的湖区，留下了45平方公里的堰塞湖，形成了新的火山地质体。\n火山年轮  远古湖岸线 大自然中很多事物都是有生命年轮的，火山也是一样。我们眼前看到的这个新老期火山界，是标志“火山年轮”的边界。脚下的黑色火山复合土是距今已有28-34万年历史的笔架山火山爆发遗迹，地表3-10米或更深土层覆盖下是老期火山喷发所形成的台地。\n石龙台地  龙岩霜塔  放眼四周方圆64平方公里，苍茫无际的青灰色玄武岩使我们步入了无人之境。当年黑龙山喷发时，大股大股的岩浆像一条红色“巨龙”沿着远古乌德邻湖床咆哮着翻腾着倾泻而下。"}}, {"title": "北药泉", "address": "黑河五大连池市五大连池镇药泉西路", "image": "", "rank": 3, "time": 0.75, "location": {"lat": 48.654579251076, "lng": 126.15114069237306}, "feature": {"sight_features": "", "sight_content": ""}}, {"title": "火烧山", "address": "黑河市五大连池市老黑山东北2公里处", "image": "", "rank": 4, "time": 0.35, "location": {"lat": 48.72216121288869, "lng": 126.1514860522145}, "feature": {"sight_features": "", "sight_content": ""}}, {"title": "药泉山", "address": "黑河五大连池市五大连池镇二龙泉路", "image": "", "rank": 5, "time": 1.0, "location": {"lat": 48.65312667403088, "lng": 126.14688225264534}, "feature": {"sight_features": "", "sight_content": ""}}, {"title": "二龙泉", "address": "黑河五大连池市五大连池镇二龙泉路", "image": "", "rank": 6, "time": 0.5, "location": {"lat": 48.65312667403088, "lng": 126.14688225264534}, "feature": {"sight_features": "", "sight_content": ""}}, {"title": "温泊", "address": "黑河市五大连池市五大连池镇五大连池风景区内", "image": "", "rank": 7, "time": 2, "location": {"lat": 48.70424150400512, "lng": 126.16715662353091}, "feature": {"sight_features": "", "sight_content": ""}}, {"title": "南药泉", "address": "黑河五大连池市五大连池镇药泉西路", "image": "", "rank": 8, "time": 0.5, "location": {"lat": 48.654579251076, "lng": 126.15114069237306}, "feature": {"sight_features": "", "sight_content": ""}}, {"title": "龙门石寨", "address": "黑河市五大连池市五大连池镇东部", "image": "", "rank": 9, "time": 1.75, "location": {"lat": 48.668371956724116, "lng": 126.17258909645845}, "feature": {"sight_features": "", "sight_content": "龙门石寨科考观光区，是古火山石塘地质生态观光区。走进石塘神秘而古老的环境，体验几十万年前的生态多样性植物群落和火山风光，会使你浮想联翩，趣味盎然。这个观光区有可介绍景观景点54处，观赏栈道、栈桥3000余米。\n龙门石寨  “石啸山崩浪涛天，疑是陨星降世眠。古道彩林玉观音，熔岩城寨展奇观。”28－34万年间，龙门山首期喷发的盾火山滚滚岩浆似大河奔流，浩浩荡荡顺坡而下。上部凝固后，下部的岩流推进破裂成块，后经多次龙门山喷发运动和大地震筛抖推移，形成了景象万千、造型奇绝的熔岩景观。"}}, {"title": "五大连池山口湖", "address": "黑龙江省黑河市五大连池市二龙山火车站东20公里", "image": "", "rank": 10, "time": 2, "location": {"lat": 48.4994714863043, "lng": 126.69781211552801}, "feature": {"sight_features": "特色1 黑龙江省独具魅力的旅游胜地，国家AAA级景区，国家级水利风景名胜区，黑龙江省级自然保护区！ 特色2 山口湖水质优良，自然饵料丰富，84平方公里的养殖水面、近10亿立方米的水体中盛产着30多种淡水鱼类！ 特色3 山口湖风景名胜区与五大连池火山风景区、大沾河漂流形成黑河南部旅游网，是您度假旅游、避暑休闲的最佳选择地！", "sight_content": "山口湖旅游区位于“中国矿泉水之乡”五大连池市境内的讷谟尔河上游，距北安市45公里、五大连池火山公园景区68公里、五大连池市52公里，是黑龙江省独具魅力的旅游胜地，国家aaa级景区，国家级水利风景名胜区，黑龙江省级自然保护区。\n主要景点有生态景观、水上娱乐、湖光山色、水鸟世界等四大景区，在景区内有84平方公里烟波浩渺的水面，鸥鸟盘旋；湖心岛上绿景垂帘，轻舟过处，水波荡漾。湖中的金龟山、怪石山、八戒石、石猿山、石林、忘忧石、东、西炮台山岛、老道营岛等天然景观与人文景观相得益彰，让您在感叹大自然鬼斧神工般的造化之余，会更加由衷感叹人类改造自然的伟大力量。当您进入水鸟世界，可以看到鸳鸯、中华沙秋鸥、丹顶鹤、飞龙、灰鹤、野猪、马鹿等30多种珍奇动物，使您真正体会到“鸟鸣山更幽”的空旷与怡静。带给您无尽的乡情野趣。游区内还开辟了游湖、漂流、水上乐园、垂钓场等娱乐项目，山口湖风景名胜区与五大连池火山风景区、大沾河漂流形成黑河南部旅游网，是您度假旅游、避暑休闲的最佳选择地。"}}, {"title": "白龙洞", "address": "黑河市五大连池市五大连池镇东8公里处", "image": "", "rank": 11, "time": 1.5, "location": {"lat": 48.52260955176269, "lng": 126.21155518831091}, "feature": {"sight_features": "", "sight_content": ""}}, {"title": "水晶宫", "address": "黑河市五大连池市五大连池镇五大连池风景区内", "image": "", "rank": 12, "time": 2, "location": {"lat": 48.70424150400512, "lng": 126.16715662353091}, "feature": {"sight_features": "", "sight_content": ""}}, {"title": "五大连池世界地质公园博物馆", "address": "五大连池市石龙北路", "image": "", "rank": 13, "time": 1.5, "location": {"lat": 48.66799715530439, "lng": 126.14277353439527}, "feature": {"sight_features": "", "sight_content": ""}}, {"title": "白龙湖(三池)", "address": "黑河市五大连池市五大连池镇五大连池景区", "image": "", "rank": 14, "time": 2, "location": {"lat": 48.668371956724116, "lng": 126.17258909645845}, "feature": {"sight_features": "", "sight_content": ""}}, {"title": "天池", "address": "黑河市五大连池市五大连池镇五大连池风景区内", "image": "", "rank": 15, "time": 5.0, "location": {"lat": 48.70424150400512, "lng": 126.16715662353091}, "feature": {"sight_features": "", "sight_content": ""}}, {"title": "五大连池风景区火山磁矿泉", "address": "黑河市五大连池风景区三池湖畔温泉国际商务酒店", "image": "", "rank": 16, "time": 2, "location": {"lat": 48.70424150400512, "lng": 126.16715662353091}, "feature": {"sight_features": "特色1 拟申请最大的雪地温矿泉吉尼斯纪录", "sight_content": "五大连池火山雪地温矿泉位于风景区美丽的三池湖畔，设有生态泡池、组合泡池等室内外36个温泉泡池，配有规模宏大的室外影院。\n其五行汤洗泡、功能池洗泡、花泉汤洗泡、茶泉汤洗泡、草本池洗泡、泥浴洗泡、火山石板炕、玉石窑洞等，利用五大连池天然火山矿泉和矿泥资源，辅助以功能齐全的服务项目，让人在此得到身心的放松。"}}, {"title": "药泉山钟灵禅寺", "address": "黑龙江省五大连池市五大连池风景区内 161100", "image": "", "rank": 17, "time": 2.0, "location": {"lat": 48.70424150400512, "lng": 126.16715662353091}, "feature": {"sight_features": "", "sight_content": ""}}, {"title": "山口坝下漂流", "address": "讷谟尔河上游山口坝下漂流", "image": "", "rank": 18, "time": 2, "location": {"lat": 48.541108485265426, "lng": 125.69369799055868}, "feature": {"sight_features": "", "sight_content": ""}}, {"title": "二龙山森林植物园", "address": "黑河市五大连池市", "image": "", "rank": 19, "time": 2, "location": {"lat": 48.52260955176269, "lng": 126.21155518831091}, "feature": {"sight_features": "", "sight_content": ""}}, {"title": "五大连池漂流", "address": "黑河五大连池市五大连池镇五大连池风景区矿泉西路石龙河桥北", "image": "", "rank": 20, "time": 2, "location": {"lat": 48.62808066063065, "lng": 126.16518169347738}, "feature": {"sight_features": "", "sight_content": ""}}, {"title": "五大连池风景区白龙湖露营旅游基...", "address": "黑龙江省黑河市五大连池市五大连池风景区白龙湖畔(三池子边)150米", "image": "", "rank": 21, "time": 2, "location": {"lat": 48.70424150400512, "lng": 126.16715662353091}, "feature": {"sight_features": "", "sight_content": ""}}, {"title": "省工人疗养院", "address": "黑河市五大连池市石龙北路", "image": "", "rank": 22, "time": 2, "location": {"lat": 48.66799715530439, "lng": 126.14277353439527}, "feature": {"sight_features": "", "sight_content": ""}}, {"title": "大沾河国家森林公园", "address": "五大连池市沾河林业局辖区内", "image": "", "rank": 23, "time": 7.5, "location": {"lat": 48.652198735090195, "lng": 126.63533343390114}, "feature": {"sight_features": "", "sight_content": ""}}, {"title": "五大连池风景区新新迷宫游园会场", "address": "五大连池市五大连池风景区迎宾路88号", "image": "", "rank": 24, "time": 2, "location": {"lat": 48.70424150400512, "lng": 126.16715662353091}, "feature": {"sight_features": "特色1 在上千灯笼的映衬下，展现神秘的民俗特色", "sight_content": "五大连池风景区新新迷宫游园会场占地6000平方米，其中的新新迷宫灯会场更是一直受到游客的喜爱。作为当地具有民俗特色的游览景点，整个迷宫在上千盏大红灯笼的映衬下，营造出亦真亦幻的神秘氛围。"}}, {"title": "迷宫灯会", "address": "药泉东路8号", "image": "", "rank": 25, "time": 2.5, "location": {"lat": 48.65948610685531, "lng": 126.17879793868147}, "feature": {"sight_features": "", "sight_content": ""}}, {"title": "北纬四十八度温泉养生会馆", "address": "石龙北路", "image": "", "rank": 26, "time": 2, "location": {"lat": 39.91832752950279, "lng": 116.11888415207135}, "feature": {"sight_features": "", "sight_content": ""}}, {"title": "山口风景区", "address": "Z154县道", "image": "", "rank": 27, "time": 2, "location": {"lat": 36.06504680178999, "lng": 113.80945833160084}, "feature": {"sight_features": "", "sight_content": ""}}, {"title": "火山展览馆", "address": "石龙北路", "image": "", "rank": 28, "time": 1.0, "location": {"lat": 39.91832752950279, "lng": 116.11888415207135}, "feature": {"sight_features": "", "sight_content": ""}}, {"title": "凤凰山农场畜牧场", "address": "Z984附近", "image": "", "rank": 29, "time": 2, "location": {"lat": 23.100931760317003, "lng": 113.27528273950196}, "feature": {"sight_features": "", "sight_content": ""}}, {"title": "黑龙江省龙江剧院(五大连池分院)", "address": "朝阳大街南50米", "image": "", "rank": 30, "time": 2, "location": {"lat": 38.27158390963645, "lng": 115.24563992493975}, "feature": {"sight_features": "", "sight_content": ""}}, {"title": "北安运输公司青年农场", "address": "鹤嫩公路附近", "image": "", "rank": 31, "time": 2, "location": {"lat": 47.41933518510655, "lng": 129.85953211740227}, "feature": {"sight_features": "", "sight_content": ""}}, {"title": "祥源农家乐", "address": "通兴路附近", "image": "", "rank": 32, "time": 2, "location": {"lat": 41.81533219876467, "lng": 126.91849194177203}, "feature": {"sight_features": "", "sight_content": ""}}, {"title": "二龙山农场四队农具厂(南门)", "address": "德都大街附近", "image": "", "rank": 33, "time": 2, "location": {"lat": 48.52140633560327, "lng": 126.20473320923408}, "feature": {"sight_features": "", "sight_content": ""}}, {"title": "火山斯卡拉", "address": "火山路2号", "image": "", "rank": 34, "time": 2, "location": {"lat": 23.469813098679563, "lng": 111.33288704843194}, "feature": {"sight_features": "", "sight_content": ""}}, {"title": "北饮泉广场", "address": "黑河市五大连池市五大连池镇火山路北饮泉内", "image": "", "rank": 35, "time": 2, "location": {"lat": 48.660144166263656, "lng": 126.18253728471008}, "feature": {"sight_features": "", "sight_content": ""}}, {"title": "黑龙江省龙江剧院五大连池分院", "address": "朝阳大街320", "image": "", "rank": 36, "time": 2, "location": {"lat": 48.51455223763321, "lng": 126.20041265168035}, "feature": {"sight_features": "", "sight_content": ""}}, {"title": "五大连池工人疗养宾馆", "address": "黑河五大连池风景区省工人疗养院（近火山路）", "image": "", "rank": 37, "time": 2, "location": {"lat": 48.65726658520911, "lng": 126.15586336291375}, "feature": {"sight_features": "", "sight_content": ""}}, {"title": "火山雪地高尔夫球场", "address": "石龙北路五大连池风景区", "image": "", "rank": 38, "time": 2, "location": {"lat": 48.70424150400512, "lng": 126.16715662353091}, "feature": {"sight_features": "", "sight_content": ""}}, {"title": "熔岩钟乳", "address": "黑河市五大连池市五大连池风景区白龙洞景区内", "image": "", "rank": 39, "time": 2, "location": {"lat": 48.70424150400512, "lng": 126.16715662353091}, "feature": {"sight_features": "", "sight_content": ""}}, {"title": "钟灵禅寺", "address": "黑河市五大连池市五大连池镇二龙泉路药泉山内", "image": "", "rank": 40, "time": 2, "location": {"lat": 48.65781020745027, "lng": 126.14417063392104}, "feature": {"sight_features": "", "sight_content": ""}}, {"title": "火海遗迹", "address": "黑河市五大连池市区北10公里老黑山(火山)景区内", "image": "", "rank": 41, "time": 2, "location": {"lat": 48.72216121288869, "lng": 126.13351994201483}, "feature": {"sight_features": "", "sight_content": ""}}, {"title": "爬虫状熔岩", "address": "黑河市五大连池市五大连池风景区温泊景区内", "image": "", "rank": 42, "time": 2, "location": {"lat": 48.676371472597204, "lng": 126.18417484534967}, "feature": {"sight_features": "", "sight_content": ""}}, {"title": "湖滨公园", "address": "黑河市五大连池市五大连池风景区火山堰塞湖风景区内", "image": "", "rank": 43, "time": 1.5, "location": {"lat": 48.71166412270547, "lng": 126.20937787541583}, "feature": {"sight_features": "", "sight_content": ""}}, {"title": "福泉度假村", "address": "黑河五大连池鸡西商业街诚信医药商店旁", "image": "", "rank": 44, "time": 2, "location": {"lat": 48.652888301717326, "lng": 126.15245539931745}, "feature": {"sight_features": "", "sight_content": ""}}, {"title": "哈客隆超市-儿童乐园", "address": "文化路一道街义和兴商厦内", "image": "", "rank": 45, "time": 2, "location": {"lat": 45.87764871667933, "lng": 126.55955895667526}, "feature": {"sight_features": "", "sight_content": ""}}, {"title": "妙音佛堂", "address": "180县道附近", "image": "", "rank": 46, "time": 2, "location": {"lat": 29.463901247005534, "lng": 107.20691281806594}, "feature": {"sight_features": "", "sight_content": ""}}, {"title": "五大连池冰雪乐园", "address": "Z968附近", "image": "", "rank": 47, "time": 2, "location": {"lat": 23.100931760317003, "lng": 113.27528273950196}, "feature": {"sight_features": "", "sight_content": ""}}, {"title": "文化广场(龙山中路)", "address": "黑龙江省黑河市五大连池市龙山北路文化广场(龙府花园小区南)", "image": "", "rank": 48, "time": 2, "location": {"lat": 48.501885482073725, "lng": 126.6308918233918}, "feature": {"sight_features": "", "sight_content": ""}}, {"title": "天主堂", "address": "天主堂(东门)附近", "image": "", "rank": 49, "time": 0.4, "location": {"lat": 27.78366845606339, "lng": 120.6554428068924}, "feature": {"sight_features": "", "sight_content": ""}}, {"title": "百老汇演艺广场", "address": "黑河市五大连池市福寿堂大药房(五大连池风景名胜区自然保护区劳动人事局西)附近", "image": "", "rank": 50, "time": null, "location": {"lat": 48.65202513121341, "lng": 126.14852872627219}, "feature": {"sight_features": "", "sight_content": ""}}, {"title": "黑龙江省电力职工度假村", "address": "石龙南路附近", "image": "", "rank": 51, "time": 2, "location": {"lat": 39.902193504615745, "lng": 116.11702576907301}, "feature": {"sight_features": "", "sight_content": ""}}, {"title": "月牙湖山庄", "address": "龙华路附近", "image": "", "rank": 52, "time": 2, "location": {"lat": 22.384907541696023, "lng": 112.70786303380096}, "feature": {"sight_features": "", "sight_content": ""}}, {"title": "北大荒尾山庄园", "address": "303省道附近", "image": "", "rank": 53, "time": 2, "location": {"lat": 38.25466494631471, "lng": 114.66726867564682}, "feature": {"sight_features": "", "sight_content": ""}}, {"title": "三股友谊度假村", "address": "黑河市五大连池市石龙北路附近", "image": "", "rank": 54, "time": 2, "location": {"lat": 48.66799715530439, "lng": 126.14277353439527}, "feature": {"sight_features": "", "sight_content": ""}}, {"title": "红灯记文化广场", "address": "190县道附近", "image": "", "rank": 55, "time": 2, "location": {"lat": 28.53494562895207, "lng": 105.82410326732999}, "feature": {"sight_features": "", "sight_content": ""}}, {"title": "五大连池市图书馆", "address": "朝阳大街", "image": "", "rank": 56, "time": 2, "location": {"lat": 38.2719380123905, "lng": 115.24563992493975}, "feature": {"sight_features": "", "sight_content": ""}}, {"title": "五大连池书画院", "address": "迎宾路", "image": "", "rank": 57, "time": 2, "location": {"lat": 40.19033466276813, "lng": 117.30191343601585}, "feature": {"sight_features": "", "sight_content": ""}}, {"title": "古火山次生林植物园", "address": "五大连池风景区", "image": "", "rank": 58, "time": 2, "location": {"lat": 48.70424150400512, "lng": 126.16715662353091}, "feature": {"sight_features": "", "sight_content": ""}}, {"title": "花园农场蚕场", "address": "Z974附近", "image": "", "rank": 59, "time": 2, "location": {"lat": 23.100931760317003, "lng": 113.27528273950196}, "feature": {"sight_features": "", "sight_content": ""}}, {"title": "bk鲜果冰客", "address": "德都大街附近", "image": "", "rank": 60, "time": 2, "location": {"lat": 48.52140633560327, "lng": 126.20473320923408}, "feature": {"sight_features": "", "sight_content": ""}}]}