{"cityName": "武定", "days": 2, "cityImage": "", "spots": [{"title": "狮子山旅游区", "address": "楚雄州武定县狮子山旅游景区", "image": "", "rank": 1, "time": 2.5, "location": {"lat": 25.536089587806806, "lng": 102.4105318203669}, "feature": {"sight_features": "特色1 素有“西南第一山”之称", "sight_content": "武定狮子山风景区距昆明88公里，主峰海拔2419.8米，年均气温13.2°c，冬无严寒，夏无酷暑。是一个以一山一湖一箐为主体，融山水风光，文物古迹、人文地质、民族风情为一体的风景名胜区。景区总面积166平方公里，分为4个片区。 　　武定狮子山素有“西南第一山”之称，山势雄险，在蜿蜒起伏的丘陵中拔地而起，像一头雄踞而视的狮子。山中箐谷幽深，林木葱郁，一些珍禽异兽相嬉于其间。在壁立的悬岩中，一条历史悠久的石阶沿山势曲折而上，沿途有很多景点，有虬劲蟠立的迎客松，有峻峭惊险的观日亭，有造型粗犷的蛇头岩，有山岚掩映的双笋峰，有神秘诱人的观音洞，有幽深险奇的“九曲黄河”、“曲水流觞”等，还有人工雕琢环境优雅的礼斗阁、月牙塘。这些遍布于悬岩峭壁间的景点，把人们带到了一个奇妙的世界。每当天气晴朗的凌晨，总有很多的游客来到观日亭上，观看狮山日出。高原名山的日出，自有一番迷人的景象。\n狮山主峰海拔2452米，与武定县城高差达680米。在从县城出发，盘山而上的短短数公里，一股宜人的清新空气扑面而来，令人心旷神怡。狮山风景与周围环境迥然有别，仿佛周围丘陵与山地相簇拥的一方世外桃源。风景区东西长12公里，南北宽8公里，总面积0.78万亩，四周立有永久性界碑。1982年5月7日，楚雄州人大常委会批准狮山为州级自然保护区，主要保护对象为亚热带半湿润常绿阔叶林。保护区内森林覆盖率为42%，属元江栲、滇青冈生态群落。狮山植物种类丰富，共有86科165属214种。狮山自然保护区对维持地方生态衡，涵养水源发挥着重要作用。"}}, {"title": "己衣大裂谷", "address": "楚雄彝族自治州武定县己衣乡", "image": "", "rank": 2, "time": 2.0, "location": {"lat": 26.103881131693157, "lng": 102.26268510636153}, "feature": {"sight_features": "", "sight_content": ""}}, {"title": "水城河", "address": "楚雄州武定县水城村", "image": "", "rank": 3, "time": 3.5, "location": {"lat": 25.819868325979098, "lng": 102.35918074285539}, "feature": {"sight_features": "", "sight_content": ""}}, {"title": "天生桥", "address": "楚雄彝族自治州武定县己衣乡己衣大裂谷景区内", "image": "", "rank": 4, "time": 0.3, "location": {"lat": 26.10209998600536, "lng": 102.2750019941879}, "feature": {"sight_features": "", "sight_content": ""}}, {"title": "水城河何家院农家乐", "address": "插甸乡水城自然风景区南50米", "image": "", "rank": 5, "time": 1.0, "location": {"lat": 25.825442473678187, "lng": 102.36103218913797}, "feature": {"sight_features": "", "sight_content": ""}}, {"title": "禾郎谷休闲美食广场", "address": "楚雄彝族自治州武定县", "image": "", "rank": 6, "time": 2, "location": {"lat": 25.536089587806806, "lng": 102.4105318203669}, "feature": {"sight_features": "", "sight_content": ""}}, {"title": "武定迪乐尼儿童成长乐园", "address": "罗婺彝寨2-B-19栋", "image": "", "rank": 7, "time": 2.0, "location": {"lat": 25.529908775502097, "lng": 102.41333047141958}, "feature": {"sight_features": "", "sight_content": ""}}, {"title": "观音洞", "address": "狮子山景区内", "image": "", "rank": 8, "time": 2.5, "location": {"lat": 26.876700263369774, "lng": 100.23759565010583}, "feature": {"sight_features": "", "sight_content": ""}}, {"title": "狮山秀坤山庄", "address": "武定县盐臼湾", "image": "", "rank": 9, "time": 2, "location": {"lat": 25.536089587806806, "lng": 102.4105318203669}, "feature": {"sight_features": "", "sight_content": ""}}, {"title": "黑井古镇-香山古刹", "address": "武定县江畔黑井古镇大龙祠(包含三元宫)内", "image": "", "rank": 10, "time": 2, "location": {"lat": 25.536089587806806, "lng": 102.4105318203669}, "feature": {"sight_features": "", "sight_content": ""}}, {"title": "牡丹工艺美术社", "address": "中马街31号", "image": "", "rank": 11, "time": 2, "location": {"lat": 29.881843494440638, "lng": 121.56666582763329}, "feature": {"sight_features": "", "sight_content": ""}}, {"title": "武定县图书馆", "address": "狮山镇文化路8号", "image": "", "rank": 12, "time": 2, "location": {"lat": 25.53395792541734, "lng": 102.40931615834269}, "feature": {"sight_features": "", "sight_content": ""}}, {"title": "狮子山乾坤生态园", "address": "狮山办事处公路", "image": "", "rank": 13, "time": 2, "location": {"lat": 23.13267066544299, "lng": 113.00975369186189}, "feature": {"sight_features": "", "sight_content": ""}}, {"title": "狮山镇健华图书馆", "address": "文化路", "image": "", "rank": 14, "time": 2, "location": {"lat": 39.74005789896059, "lng": 116.15120920962735}, "feature": {"sight_features": "", "sight_content": ""}}, {"title": "文化馆", "address": "文化路", "image": "", "rank": 15, "time": 2, "location": {"lat": 39.74005789896059, "lng": 116.15120920962735}, "feature": {"sight_features": "", "sight_content": ""}}, {"title": "溪竹农庄", "address": "田坝27号", "image": "", "rank": 16, "time": 2, "location": {"lat": 32.552870047779024, "lng": 118.93139461882336}, "feature": {"sight_features": "", "sight_content": ""}}, {"title": "依纳格民族文化广场", "address": "楚雄彝族自治州-武定县-长己线东50米", "image": "", "rank": 17, "time": 2, "location": {"lat": 25.924681537256962, "lng": 102.29876891221029}, "feature": {"sight_features": "", "sight_content": ""}}]}