{"cityName": "无棣", "days": 2, "cityImage": "", "spots": [{"title": "黄河三角洲生态文化旅游岛", "address": "滨州市无棣县黄河岛风景区", "image": "", "rank": 1, "time": 2, "location": {"lat": 37.930412675705604, "lng": 118.03589564612311}, "feature": {"sight_features": "", "sight_content": ""}}, {"title": "碣石山", "address": "滨州市无棣县碣石山镇大山村北", "image": "", "rank": 2, "time": 2.0, "location": {"lat": 38.00389543710545, "lng": 117.70516716407414}, "feature": {"sight_features": "", "sight_content": ""}}, {"title": "浅海水会", "address": "山东省滨州市无棣县棣新四路211号", "image": "", "rank": 3, "time": 2, "location": {"lat": 37.74253201521124, "lng": 117.62591200003159}, "feature": {"sight_features": "", "sight_content": ""}}, {"title": "无棣润春家庭农场", "address": "鲁北大道阳信交界处润春家庭农场(牧怡饲料)", "image": "", "rank": 4, "time": 2, "location": {"lat": 37.64733803495721, "lng": 117.58443703790701}, "feature": {"sight_features": "", "sight_content": ""}}, {"title": "滨州贝壳堤岛", "address": "山东省无棣县城北60公里处 251902", "image": "", "rank": 5, "time": 2.0, "location": {"lat": 37.777567312085814, "lng": 117.63245748606224}, "feature": {"sight_features": "", "sight_content": ""}}, {"title": "无棣石缘盆景花卉批发市场", "address": "北环路12号", "image": "", "rank": 6, "time": 2, "location": {"lat": 39.14089435874492, "lng": 116.02744919239882}, "feature": {"sight_features": "", "sight_content": ""}}, {"title": "白天鹅天然温泉洗浴", "address": "富路大街三十一号", "image": "", "rank": 7, "time": 2, "location": {"lat": 37.73798247194089, "lng": 117.63765822581226}, "feature": {"sight_features": "", "sight_content": ""}}, {"title": "马谷山", "address": "山东省无棣县无棣县域北部 251900", "image": "", "rank": 8, "time": 2, "location": {"lat": 37.777567312085814, "lng": 117.63245748606224}, "feature": {"sight_features": "", "sight_content": ""}}, {"title": "荷花湾公园", "address": "塔影街4号", "image": "", "rank": 9, "time": 2, "location": {"lat": 37.743641131377494, "lng": 117.61245985795186}, "feature": {"sight_features": "", "sight_content": ""}}, {"title": "碣石山鸟类博物馆", "address": "山东省滨州市无棣县碣山路", "image": "", "rank": 10, "time": 2, "location": {"lat": 37.777567312085814, "lng": 117.63245748606224}, "feature": {"sight_features": "", "sight_content": ""}}, {"title": "碣石山地震与火山博物馆", "address": "大山街东200米", "image": "", "rank": 11, "time": 2, "location": {"lat": 25.083480373623463, "lng": 103.37518743262088}, "feature": {"sight_features": "", "sight_content": ""}}, {"title": "北海湿地公园", "address": "滨港六路附近", "image": "", "rank": 12, "time": 3.0, "location": {"lat": 22.609910129799108, "lng": 113.10531254033636}, "feature": {"sight_features": "", "sight_content": ""}}, {"title": "北国江南生态园", "address": "滨州市无棣县", "image": "", "rank": 13, "time": 2, "location": {"lat": 37.777567312085814, "lng": 117.63245748606224}, "feature": {"sight_features": "", "sight_content": ""}}, {"title": "莲池广场", "address": "无棣县十六路与镜湖东路交叉口西150米", "image": "", "rank": 14, "time": 2, "location": {"lat": 37.768107619883544, "lng": 117.63357550182877}, "feature": {"sight_features": "", "sight_content": ""}}, {"title": "清波烟雨", "address": "滨州市无棣县棣新八路附近", "image": "", "rank": 15, "time": 2, "location": {"lat": 37.76989197333014, "lng": 117.65152357135877}, "feature": {"sight_features": "", "sight_content": ""}}, {"title": "无棣古城旅游景区", "address": "滨州市无棣县吴式芬故居(庆无路南)", "image": "", "rank": 16, "time": 2, "location": {"lat": 37.74582604804082, "lng": 117.60837291193248}, "feature": {"sight_features": "", "sight_content": ""}}, {"title": "无棣县图书馆", "address": "商业街106号", "image": "", "rank": 17, "time": 2, "location": {"lat": 39.92056896134573, "lng": 116.53491015585365}, "feature": {"sight_features": "", "sight_content": ""}}, {"title": "爱儿乐婴童spa水育乐园", "address": "北环路8号", "image": "", "rank": 18, "time": 2, "location": {"lat": 40.235506870202194, "lng": 116.23905508665176}, "feature": {"sight_features": "", "sight_content": ""}}, {"title": "三千茶农合作社", "address": "飞龙大街山水润福苑", "image": "", "rank": 19, "time": 2, "location": {"lat": 37.76893625229631, "lng": 117.64838794614565}, "feature": {"sight_features": "", "sight_content": ""}}, {"title": "小歪玩艺术油画画廊", "address": "民生街与镜湖东路交叉口西150米", "image": "", "rank": 20, "time": 2, "location": {"lat": 37.777817140531106, "lng": 117.6333229189804}, "feature": {"sight_features": "", "sight_content": ""}}, {"title": "山东丰泰农业科技有限公司", "address": "棣新六路与飞龙街交叉口西南200米", "image": "", "rank": 21, "time": 2, "location": {"lat": 37.76751759601854, "lng": 117.63923841976367}, "feature": {"sight_features": "", "sight_content": ""}}, {"title": "瑞阳美术馆", "address": "棣新六路西200米", "image": "", "rank": 22, "time": 2, "location": {"lat": 31.003549067025986, "lng": 121.86737066341028}, "feature": {"sight_features": "", "sight_content": ""}}, {"title": "无棣县图书馆", "address": "飞龙街附近", "image": "", "rank": 23, "time": 2, "location": {"lat": 22.221714265785366, "lng": 113.30051469589533}, "feature": {"sight_features": "", "sight_content": ""}}, {"title": "塔影公园", "address": "山东省无棣县塔影路西首", "image": "", "rank": 24, "time": 2, "location": {"lat": 37.777567312085814, "lng": 117.63245748606224}, "feature": {"sight_features": "", "sight_content": ""}}, {"title": "汪子岛", "address": "山东省滨州市无棣县汪子村汪子堡", "image": "", "rank": 25, "time": 2, "location": {"lat": 38.235775106313056, "lng": 117.95444566390597}, "feature": {"sight_features": "", "sight_content": ""}}]}