{"cityName": "五峰", "days": 2, "cityImage": "", "spots": [{"title": "柴埠溪大峡谷", "address": "宜昌市五峰土家族自治县渔洋关镇", "image": "", "rank": 1, "time": 7.5, "location": {"lat": 30.178555645943455, "lng": 111.0830659203943}, "feature": {"sight_features": "特色1 奇峰林立，婀娜多姿，峰峦叠翠，瀑布如娟 特色2 南有张家界，北有柴埠溪 特色3 柴埠溪大峡谷是国际公认的“奇特北纬30度地球圈”上不可多得的一颗绿色明珠", "sight_content": "柴埠溪大峡谷景区位于湖北省宜昌市五峰县境内，总面积80平方公里，共分为五大景区，现对外开放的为大湾口及坛子口景区。景区内有景点130余处，是一个融石林绝壁、清溪幽谷、原始生态和土家风情为一体的国家森林公园，先拥有国家地质公园，国家4A级旅游区等多项殊荣。\n“一嘴五包十二弯，三垴一坡十六口”，柴埠溪大峡谷景区属武陵山脉，是典型的喀斯特地貌，景区内多见石林型特异地质奇观。比如在妙笔生花的‘神笔峰’旁，还能看到栩栩如生的‘笔架峰’，土家儿女把它们誉为智慧的象征，土家少年在大考前都要来这里祈愿一番；在比如双手合十的‘圣水观音’，姿态飘逸，仙姿卓绝，让人不能不感叹大自然的鬼斧神工！\n2012年9月投资近亿元全长1608米的柴埠溪索道投入使用，采用索道王国-奥地利进口的设备，单线循环脱挂式8人吊厢，上下高差793米。线路跨越三个山峰，离地面最高处超过200米，索道的4号支架到7号支架间的倾角接近45°，达到了99.7%,为全国之最陡。游客从谷底景区只需要八分钟就到达大湾口景区，大大环节了攀登的艰辛，让不同年龄层次的人都可以欣赏了峡谷奇峰的美景。\n五峰历史上属土家容美土司，有着深厚的民族文化底蕴。这里的民俗奇特，人文景观典雅独特，民族风情浓郁醇厚，民族文化多姿多彩。无论是饮食起居、婚丧嫁娶，还是多姿多彩的戏曲、歌舞，古朴而不陈腐，自然而不庸俗，粗犷而又不失典雅，既保留了浓郁的民族个性，又具有鲜明的时代特色，犹如一幅幅瑰丽的民族风情画卷。\n土家不仅有独特的风俗文化，更有区别于汉族的饮食习惯，土家烟熏肉、土家抬格子……朴实的土家人在招待远道而来的宾客时，从来不会吝啬。\n景区导览图"}}, {"title": "仙源桥", "address": "宜川市五峰县后河天门峡景区内", "image": "", "rank": 2, "time": 0.5, "location": {"lat": 30.203803920854178, "lng": 110.60475679250185}, "feature": {"sight_features": "", "sight_content": ""}}, {"title": "百步坡", "address": "宜川市五峰县后河天门峡景区内", "image": "", "rank": 3, "time": 0.5, "location": {"lat": 30.203803920854178, "lng": 110.60475679250185}, "feature": {"sight_features": "", "sight_content": ""}}, {"title": "三跳泉", "address": "宜川市五峰县后河天门峡景区内", "image": "", "rank": 4, "time": 1.5, "location": {"lat": 30.203803920854178, "lng": 110.60475679250185}, "feature": {"sight_features": "", "sight_content": ""}}, {"title": "关门峡", "address": "五峰县五峰县后河国家级自然保护区", "image": "", "rank": 5, "time": 2, "location": {"lat": 30.08471722575404, "lng": 110.63196848938308}, "feature": {"sight_features": "", "sight_content": ""}}, {"title": "久美农家乐", "address": "325省道附近", "image": "", "rank": 6, "time": 2, "location": {"lat": 40.38011571404755, "lng": 115.90477371737859}, "feature": {"sight_features": "", "sight_content": ""}}, {"title": "静心园农家乐", "address": "下街82号湾潭派出所附近", "image": "", "rank": 7, "time": null, "location": {"lat": 30.045935696753062, "lng": 110.43878736754682}, "feature": {"sight_features": "", "sight_content": ""}}, {"title": "五峰如意旅店", "address": "五峰渔洋关镇南北路97号", "image": "", "rank": 8, "time": 2, "location": {"lat": 30.174507686520755, "lng": 111.08320908244514}, "feature": {"sight_features": "", "sight_content": ""}}, {"title": "小桃园(五峰分店)", "address": "渔洋关镇东泰10号", "image": "", "rank": 9, "time": 2, "location": {"lat": 30.178555645943455, "lng": 111.0830659203943}, "feature": {"sight_features": "", "sight_content": ""}}, {"title": "柴埠溪佳佳农庄", "address": "百年关村6组", "image": "", "rank": 10, "time": 2, "location": {"lat": 30.186626767629743, "lng": 110.96328712042326}, "feature": {"sight_features": "", "sight_content": ""}}, {"title": "荆江分洪闸", "address": "湖北省公安县南北两端 434300", "image": "", "rank": 11, "time": 2, "location": {"lat": 30.064400686806085, "lng": 112.23650157583852}, "feature": {"sight_features": "", "sight_content": ""}}, {"title": "童爱岛儿童乐园", "address": "渔洋关镇瑜龙大厦一楼", "image": "", "rank": 12, "time": 2, "location": {"lat": 30.176898516015072, "lng": 111.08398407306622}, "feature": {"sight_features": "", "sight_content": ""}}, {"title": "湖北茶博馆", "address": "宜昌市五峰土家族自治县s322附近", "image": "", "rank": 13, "time": 2, "location": {"lat": 30.171156151026448, "lng": 111.05258063743803}, "feature": {"sight_features": "", "sight_content": ""}}, {"title": "小叮咚儿童乐园", "address": "湖北省宜昌市五峰土家族自治县南北路54", "image": "", "rank": 14, "time": 2, "location": {"lat": 30.1757314296657, "lng": 111.08344710286289}, "feature": {"sight_features": "", "sight_content": ""}}, {"title": "五峰国家地质公园博物馆", "address": "东西路与南北路交叉口东南50米", "image": "", "rank": 15, "time": 1.0, "location": {"lat": 30.174840695849145, "lng": 111.08382727743269}, "feature": {"sight_features": "", "sight_content": ""}}, {"title": "五峰国酒水上乐园", "address": "五峰县五峰国际大酒店", "image": "", "rank": 16, "time": 2, "location": {"lat": 30.160624348892668, "lng": 111.07740741403776}, "feature": {"sight_features": "", "sight_content": ""}}, {"title": "爱民农家乐", "address": "325省道附近", "image": "", "rank": 17, "time": 2, "location": {"lat": 40.38011571404755, "lng": 115.90477371737859}, "feature": {"sight_features": "", "sight_content": ""}}, {"title": "五峰幽幽谷农家乐", "address": "五峰柴埠溪大峡谷谷底", "image": "", "rank": 18, "time": 2, "location": {"lat": 30.171156151026448, "lng": 111.05258063743803}, "feature": {"sight_features": "", "sight_content": ""}}, {"title": "后河自然保护区", "address": "湖北省五峰土家族自治县五峰镇后河村二组", "image": "", "rank": 19, "time": 2, "location": {"lat": 30.084035976145184, "lng": 110.62111265683745}, "feature": {"sight_features": "", "sight_content": ""}}, {"title": "火田坑村", "address": "宜昌市-五峰土家族自治县", "image": "", "rank": 20, "time": 2, "location": {"lat": 30.171156151026448, "lng": 111.05258063743803}, "feature": {"sight_features": "", "sight_content": ""}}, {"title": "百溪河", "address": "湖北省宜昌五峰土家族自治县百溪河村", "image": "", "rank": 21, "time": 2, "location": {"lat": 30.078701210091722, "lng": 110.69527277845123}, "feature": {"sight_features": "", "sight_content": ""}}]}