{"cityName": "武冈", "days": 2, "cityImage": "", "spots": [{"title": "云山国家森林公园", "address": "邵阳市武冈市城南5公里处", "image": "", "rank": 1, "time": 13.5, "location": {"lat": 26.732898572991598, "lng": 110.6384076158804}, "feature": {"sight_features": "", "sight_content": ""}}, {"title": "王城公园", "address": "都梁路41号", "image": "", "rank": 2, "time": 2.0, "location": {"lat": 26.732305199948044, "lng": 110.6406373898165}, "feature": {"sight_features": "", "sight_content": ""}}, {"title": "童幻天地(武冈步步高店)", "address": "东门旺角步步高百货二楼童幻天地", "image": "", "rank": 3, "time": 2, "location": {"lat": 26.735616465486753, "lng": 110.6446507493421}, "feature": {"sight_features": "", "sight_content": ""}}, {"title": "荷花公园", "address": "忠义路", "image": "", "rank": 4, "time": 2, "location": {"lat": 30.183101010220636, "lng": 121.40790234825009}, "feature": {"sight_features": "", "sight_content": ""}}, {"title": "阳和山", "address": "湖南省双牌县阳明山万寿寺东 425212", "image": "", "rank": 5, "time": 2, "location": {"lat": 26.004746869629884, "lng": 111.70265000575148}, "feature": {"sight_features": "", "sight_content": ""}}, {"title": "邵阳双龙桥", "address": "湖南省洞口县岩山乡双龙村 422304", "image": "", "rank": 6, "time": 1.0, "location": {"lat": 27.197604505595848, "lng": 110.56837614414245}, "feature": {"sight_features": "", "sight_content": ""}}, {"title": "邓家祠堂", "address": "邵阳市武冈市二一九省道", "image": "", "rank": 7, "time": 2, "location": {"lat": 26.76452914997409, "lng": 110.75224610023913}, "feature": {"sight_features": "", "sight_content": ""}}, {"title": "段家祠堂", "address": "邵阳市武冈市", "image": "", "rank": 8, "time": null, "location": {"lat": 26.732898572991598, "lng": 110.6384076158804}, "feature": {"sight_features": "", "sight_content": ""}}, {"title": "化龙寺", "address": "邵阳市武冈市柳山路23号", "image": "", "rank": 9, "time": 2.5, "location": {"lat": 26.731495316519837, "lng": 110.6422352058266}, "feature": {"sight_features": "", "sight_content": ""}}, {"title": "百姓广场", "address": "同保路与春园路交叉口东150米", "image": "", "rank": 10, "time": 2, "location": {"lat": 26.748895512223605, "lng": 110.64533249405444}, "feature": {"sight_features": "", "sight_content": ""}}, {"title": "廖家祠堂", "address": "邵阳市武冈市零七一县道", "image": "", "rank": 11, "time": 0.5, "location": {"lat": 26.732898572991598, "lng": 110.6384076158804}, "feature": {"sight_features": "", "sight_content": ""}}, {"title": "唐家祠堂", "address": "邵阳市武冈市二二零省道", "image": "", "rank": 12, "time": 2.5, "location": {"lat": 26.783470586255657, "lng": 110.63172862458535}, "feature": {"sight_features": "", "sight_content": ""}}, {"title": "武冈市佛教协会转龙寺理事组", "address": "220省道附近", "image": "", "rank": 13, "time": 13.5, "location": {"lat": 40.38775563397051, "lng": 115.90384459998963}, "feature": {"sight_features": "", "sight_content": ""}}, {"title": "大家乐儿童乐园", "address": "湖南省邵阳市武冈市水西门街道都梁路宣风楼(王城公园西)", "image": "", "rank": 14, "time": 2, "location": {"lat": 26.73194544093012, "lng": 110.64047576399429}, "feature": {"sight_features": "", "sight_content": ""}}, {"title": "武冈赏石文化博物馆", "address": "湖南省邵阳市武冈市春光大道", "image": "", "rank": 15, "time": 13.5, "location": {"lat": 26.7384646771682, "lng": 110.6674673796099}, "feature": {"sight_features": "", "sight_content": ""}}, {"title": "渔塘村龙泉休闲钓鱼山庄", "address": "219省道", "image": "", "rank": 16, "time": 2, "location": {"lat": 40.151047949015684, "lng": 115.89871895858025}, "feature": {"sight_features": "", "sight_content": ""}}, {"title": "武冈革命历史纪念馆", "address": "城壕路革命历史纪念馆", "image": "", "rank": 17, "time": 2.5, "location": {"lat": 30.646693983749415, "lng": 120.57546151453533}, "feature": {"sight_features": "", "sight_content": ""}}, {"title": "武冈市图书馆", "address": "富田路13号", "image": "", "rank": 18, "time": 1.5, "location": {"lat": 31.03228411211301, "lng": 121.60315528418573}, "feature": {"sight_features": "", "sight_content": ""}}, {"title": "洪茂农场(杏花鸡直营总店)", "address": "同保路与庆丰东路交叉口北150米", "image": "", "rank": 19, "time": 2, "location": {"lat": 26.746102846000053, "lng": 110.64320339142017}, "feature": {"sight_features": "", "sight_content": ""}}, {"title": "长龙水上乐园", "address": "龙田乡枧道村(武冈大酒店往湾头桥方向2公里省道旁)", "image": "", "rank": 20, "time": null, "location": {"lat": 26.760662302957783, "lng": 110.64092809315743}, "feature": {"sight_features": "", "sight_content": ""}}, {"title": "迷你秀", "address": "春园路4栋29号", "image": "", "rank": 21, "time": 2, "location": {"lat": 26.749042790652172, "lng": 110.64056821400413}, "feature": {"sight_features": "", "sight_content": ""}}, {"title": "ART DOMAIN", "address": "同保南路与同保路交叉口南50米", "image": "", "rank": 22, "time": 2, "location": {"lat": 26.736083917020586, "lng": 110.64171277469809}, "feature": {"sight_features": "", "sight_content": ""}}, {"title": "依尚街区店", "address": "辕门口街道都梁路龙城国际12-13号门面", "image": "", "rank": 23, "time": 2, "location": {"lat": 26.7309215522882, "lng": 110.64048497521898}, "feature": {"sight_features": "", "sight_content": ""}}, {"title": "路尚", "address": "乐洋路26号", "image": "", "rank": 24, "time": 2, "location": {"lat": 26.735616465486753, "lng": 110.6446507493421}, "feature": {"sight_features": "", "sight_content": ""}}, {"title": "同保山", "address": "湖南省武冈市新东乡", "image": "", "rank": 25, "time": 2, "location": {"lat": 26.751072254311755, "lng": 110.65662706349892}, "feature": {"sight_features": "", "sight_content": ""}}, {"title": "关风桥", "address": "湖南省武冈市邓家铺镇", "image": "", "rank": 26, "time": 2, "location": {"lat": 26.880180430653606, "lng": 110.93137150397283}, "feature": {"sight_features": "", "sight_content": ""}}, {"title": "江背山采育场", "address": "湖南省资兴市皮石乡北部 423400", "image": "", "rank": 27, "time": 2, "location": {"lat": 29.577598627235236, "lng": 113.5995005178025}, "feature": {"sight_features": "", "sight_content": ""}}, {"title": "法相岩", "address": "湖南省武冈市法相岩乡", "image": "", "rank": 28, "time": 2, "location": {"lat": 26.72572714851318, "lng": 110.65632881079853}, "feature": {"sight_features": "", "sight_content": ""}}, {"title": "浪石村", "address": "邵阳市武冈市东部的双牌乡浪石村", "image": "", "rank": 29, "time": 3.0, "location": {"lat": 26.961834885675696, "lng": 111.02496006393898}, "feature": {"sight_features": "", "sight_content": ""}}, {"title": "武冈城墙", "address": "湖南省武冈市境内", "image": "", "rank": 30, "time": 2.0, "location": {"lat": 26.732898572991598, "lng": 110.6384076158804}, "feature": {"sight_features": "", "sight_content": ""}}, {"title": "宣风楼", "address": "湖南省武冈市境内", "image": "", "rank": 31, "time": 2, "location": {"lat": 26.732898572991598, "lng": 110.6384076158804}, "feature": {"sight_features": "", "sight_content": ""}}]}