{"cityName": "舞钢", "days": 2, "cityImage": "", "spots": [{"title": "灯台架景区", "address": "舞钢市杨庄乡东南16公里处", "image": "", "rank": 1, "time": 2, "location": {"lat": 33.275608814366514, "lng": 113.63930303293554}, "feature": {"sight_features": "特色1 山岳钟秀，古树参天，沟壑相连，群峰叠翠 特色2 寻幽揽胜、强身健体、同归自然 特色3 自然景观丰富，古迹遗址众多", "sight_content": "国家aaaa级景区——灯台架景区位于舞钢市杨庄乡东南16公里处，是石漫滩国家森林公园核心景区，面积56平方公里，因主峰酷似古代灯台且上有神灯而得名。\n灯台架景区山势雄伟、群峰竞秀、峰林洞涧、千姿百态。从天而降的天池瀑布、盘旋而上的中国最惊险刺激的原生态悬崖栈道、诡秘诱人的猴府洞天等138处景观，无不体现深谷峡峪的灵气神韵。\n灯台架景区地质地貌奇特，山体为十分罕见的页岩、石英砂岩、玄武岩类。陈列着12.8亿年以来，无数次剧烈造山运动的地层遗迹——原始海底、波痕石、龟裂石、仙人足和百余处溶洞石棚，展示着地球由海洋变陆地的历史。灯台架景区植物达600余种，国家保护的30多种。素有“森林氧吧”、“植物王国”、“古海洋地理遗迹博物馆”之美誉。\n据甲骨文记载：灯台架景区是八位人类始祖和燃灯道人的居住地之一，也是人类文明的发源地。灯台架景区二期开发将以祈福文化为主线，深挖旅游潜能，努力将灯台架景区建设成为生态环境优美、文化魅力独特的祈福圣地。\n灯台架景区七大奇观：中国最惊险刺激的原生态悬崖栈道、青檀大峡谷、天池大瀑布、摩天崖、仙人石棚、原始海底、猴府洞天。\n灯台架景区七大美誉：“植物王国”、“古海洋地理遗迹博物馆”、“生态氧吧”、“天然空调”、“中药宝库”、“探险秘境”、“峡谷极品”。"}}, {"title": "祥龙谷景区", "address": "平顶山市舞钢市杨庄境内", "image": "", "rank": 2, "time": 2, "location": {"lat": 33.19732097680898, "lng": 113.51629357511314}, "feature": {"sight_features": "", "sight_content": ""}}, {"title": "祥龙谷水上乐园", "address": "平顶山市舞钢市南部杨庄境内", "image": "", "rank": 3, "time": 2, "location": {"lat": 33.19732097680898, "lng": 113.51629357511314}, "feature": {"sight_features": "", "sight_content": ""}}, {"title": "石漫滩水库", "address": "石漫滩水库", "image": "", "rank": 4, "time": 2, "location": {"lat": 33.269257761532536, "lng": 113.5482330062832}, "feature": {"sight_features": "", "sight_content": ""}}, {"title": "过足瘾舞钢店", "address": "平顶山市舞钢市干休路11号", "image": "", "rank": 5, "time": 2, "location": {"lat": 33.3315562962584, "lng": 113.54432218563532}, "feature": {"sight_features": "", "sight_content": ""}}, {"title": "晨光草莓采摘园", "address": "尹集镇埂上村中石化加油站南80米", "image": "", "rank": 6, "time": 2, "location": {"lat": 23.098961518311597, "lng": 112.94433612023872}, "feature": {"sight_features": "", "sight_content": ""}}, {"title": "舞钢市图书馆", "address": "温州路32号", "image": "", "rank": 7, "time": 1.5, "location": {"lat": 31.24282159763669, "lng": 121.47693618706434}, "feature": {"sight_features": "", "sight_content": ""}}, {"title": "舞钢中源野战演习基地", "address": "龙泉路石漫滩大坝蒙古风情园内", "image": "", "rank": 8, "time": 2, "location": {"lat": 33.2874119977746, "lng": 113.5595013038885}, "feature": {"sight_features": "", "sight_content": ""}}, {"title": "舞钢市建中广场", "address": "河南省平顶山市舞钢市朱兰街道钢城路建中广场", "image": "", "rank": 9, "time": 2, "location": {"lat": 33.33833403461334, "lng": 113.5388250499823}, "feature": {"sight_features": "", "sight_content": ""}}, {"title": "舞钢市林场", "address": "湖滨大道1号", "image": "", "rank": 10, "time": 6.5, "location": {"lat": 22.781142194274622, "lng": 115.37969515578914}, "feature": {"sight_features": "", "sight_content": ""}}, {"title": "今古画廊", "address": "朱兰大道190附近", "image": "", "rank": 11, "time": null, "location": {"lat": 33.33089569173377, "lng": 113.54216093852521}, "feature": {"sight_features": "", "sight_content": ""}}, {"title": "灵光禅寺", "address": "河南省平顶山市舞钢市", "image": "", "rank": 12, "time": 2, "location": {"lat": 33.2994311053011, "lng": 113.53141031593}, "feature": {"sight_features": "", "sight_content": ""}}, {"title": "舞钢市花卉博览园", "address": "杨庄乡岗李村南200米", "image": "", "rank": 13, "time": 2.5, "location": {"lat": 33.26930466124071, "lng": 113.51952124250545}, "feature": {"sight_features": "", "sight_content": ""}}, {"title": "平顶山二郎山农家院", "address": "平顶山舞钢市220省道二郎山售票处西行80米（二郎山风景区内）", "image": "", "rank": 14, "time": 4.0, "location": {"lat": 33.2769351979321, "lng": 113.56406740876182}, "feature": {"sight_features": "", "sight_content": ""}}, {"title": "怡鑫农家院", "address": "河南省平顶山市舞钢市建设路", "image": "", "rank": 15, "time": 2, "location": {"lat": 33.33941385368982, "lng": 113.52796140128042}, "feature": {"sight_features": "", "sight_content": ""}}, {"title": "鑫源广场", "address": "河南省平顶山市舞钢市垭口街道常州路鑫源广场", "image": "", "rank": 16, "time": 2, "location": {"lat": 33.3058470248145, "lng": 113.53017892861828}, "feature": {"sight_features": "", "sight_content": ""}}, {"title": "绿地广场", "address": "钢城路与铁山大道交叉口西南150米", "image": "", "rank": 17, "time": 2, "location": {"lat": 33.31401327567933, "lng": 113.53353841515772}, "feature": {"sight_features": "", "sight_content": ""}}, {"title": "香满园农家院", "address": "河南省平顶山市舞钢市枣林镇张卜庄枣安路河南长鑫面业附近", "image": "", "rank": 18, "time": 2, "location": {"lat": 33.3855108752201, "lng": 113.60346609580185}, "feature": {"sight_features": "", "sight_content": ""}}, {"title": "盘古山", "address": "平顶山市舞钢市", "image": "", "rank": 19, "time": 4.0, "location": {"lat": 33.2994311053011, "lng": 113.53141031593}, "feature": {"sight_features": "", "sight_content": ""}}, {"title": "丰瑞农家院", "address": "焦桐高速尚店高速入口尚店镇王庄村23号", "image": "", "rank": 20, "time": 2, "location": {"lat": 33.25241135494408, "lng": 113.44594355882842}, "feature": {"sight_features": "", "sight_content": ""}}, {"title": "舞钢市杨庄乡明珠渔家乐", "address": "石漫滩水库附近", "image": "", "rank": 21, "time": 2, "location": {"lat": 33.269257761532536, "lng": 113.5482330062832}, "feature": {"sight_features": "", "sight_content": ""}}, {"title": "虎头山战场游览区管理处", "address": "220省道虎头山战场游览区附近", "image": "", "rank": 22, "time": 2.0, "location": {"lat": 33.20642695462951, "lng": 113.60602516338612}, "feature": {"sight_features": "", "sight_content": ""}}, {"title": "八台中心镇文化广场", "address": "234省道附近", "image": "", "rank": 23, "time": 1.5, "location": {"lat": 38.2624574136461, "lng": 114.98072501724845}, "feature": {"sight_features": "", "sight_content": ""}}, {"title": "九头崖度假山庄", "address": "河南省平顶山市舞钢市七蚁线尹集镇苇子园村村民委员会北", "image": "", "rank": 24, "time": 2, "location": {"lat": 33.220251294732506, "lng": 113.59878127446555}, "feature": {"sight_features": "", "sight_content": ""}}, {"title": "珠江啤酒美食广场", "address": "李辉庄千千幼儿园对面", "image": "", "rank": 25, "time": 2, "location": {"lat": 33.299420297008936, "lng": 113.5286676212249}, "feature": {"sight_features": "", "sight_content": ""}}, {"title": "舞钢市影剧院", "address": "河南省平顶山市舞钢市文化路12号院", "image": "", "rank": 26, "time": 2, "location": {"lat": 33.30293948149289, "lng": 113.53421346749423}, "feature": {"sight_features": "", "sight_content": ""}}, {"title": "鱼趣水族", "address": "矿山三街朱兰村村口", "image": "", "rank": 27, "time": 2, "location": {"lat": 33.32826502583701, "lng": 113.54443372373896}, "feature": {"sight_features": "", "sight_content": ""}}, {"title": "瑞丰采摘园", "address": "庙街乡郭洼村", "image": "", "rank": 28, "time": 2, "location": {"lat": 33.372382563507614, "lng": 113.48660627490749}, "feature": {"sight_features": "", "sight_content": ""}}, {"title": "天主堂", "address": "平顶山市舞钢市王店西村4组", "image": "", "rank": 29, "time": 0.4, "location": {"lat": 33.191355604904516, "lng": 113.39114555909198}, "feature": {"sight_features": "", "sight_content": ""}}, {"title": "舞钢档案馆", "address": "舞钢路", "image": "", "rank": 30, "time": 1.0, "location": {"lat": 33.2878706383427, "lng": 113.53201049540056}, "feature": {"sight_features": "", "sight_content": ""}}, {"title": "金水湖", "address": "杨庄乡褚庄桥南头向西一百米", "image": "", "rank": 31, "time": 2, "location": {"lat": 33.27618914821093, "lng": 113.49615112488338}, "feature": {"sight_features": "", "sight_content": ""}}, {"title": "舞艺画廊", "address": "建设路与220省道交叉口东南150米", "image": "", "rank": 32, "time": 2, "location": {"lat": 25.039775478757456, "lng": 118.80975645923057}, "feature": {"sight_features": "", "sight_content": ""}}, {"title": "石漫滩国家森林公园", "address": "河南省舞钢市龙泉路东段", "image": "", "rank": 33, "time": 2, "location": {"lat": 33.2994311053011, "lng": 113.53141031593}, "feature": {"sight_features": "", "sight_content": ""}}, {"title": "河南省平顶山市舞钢市步行街", "address": "河南省舞钢市四马路", "image": "", "rank": 34, "time": 2, "location": {"lat": 33.28724488302531, "lng": 113.52508674908914}, "feature": {"sight_features": "", "sight_content": ""}}, {"title": "朱阑市场步行街", "address": "河南省舞钢市健康路", "image": "", "rank": 35, "time": 2, "location": {"lat": 33.332748231987374, "lng": 113.5468031132165}, "feature": {"sight_features": "", "sight_content": ""}}]}