{"cityName": "乌海", "days": "", "cityImage": "", "spots": [{"title": "金沙湾生态旅游区", "address": "乌海市海勃湾区以北约15公里", "image": "", "rank": 1, "time": 3.5, "location": {"lat": 39.69690799353465, "lng": 106.82943856713665}, "feature": {"sight_features": "", "sight_content": ""}}, {"title": "蒙根花温泉水世界", "address": "乌海市海勃湾区机场路北300米", "image": "", "rank": 2, "time": 2, "location": {"lat": 39.751917732454245, "lng": 106.82496043691513}, "feature": {"sight_features": "特色1 是大型室内主题水上乐园，也是温泉疗养基地", "sight_content": "蒙根花温泉水世界位于内蒙古乌海市蒙根花旅游区内，地处乌海市海勃湾区飞机场北300米，与蒙西高新技术园毗邻，是“宁蒙陕甘”地区最具特色的大型室内主题水上乐园和自治区西部最大的温泉疗养基地。该项目占地面积24000平方米，分为南北2个场馆。\n南馆主要为激情漂流河、龙卷风暴、空中飞龙、云霄大滑板、欢乐水寨、魔幻水城、超级巨兽碗、爱情海浪池等十多项国际顶尖级室内水上游乐设施。\n\n北馆温泉区充分利用了乌海市地热资源和具有医疗保健功能的温泉，共有19个温泉泡池，取自地下3000米以下的自然温泉，出水温度62℃，富含人体有益的微量元素十多种，主要为水疗SPA区、养生药疗区、假山瀑布浴区、百花浴区、亲亲鱼疗区、茶道浴区、酒疗汤区等多种类型的养生温泉；儿童区主要为：林屋探秘、冒险岛、巨兽之口等数项儿童娱乐项目。\n\n\n欢乐嘉年华、水上音乐节、魔术杂技节、亲子童话剧、帐篷烧烤文化节等主题文化活动将让园区内容更加丰富，这里还设有餐厅、桑拿、按摩及美容美发等功能区。一年四季来蒙根花温泉水世界，感受一年四季的欢乐！"}}, {"title": "黄河滩岛", "address": "乌海市境内", "image": "", "rank": 3, "time": 1.0, "location": {"lat": 39.6620063648907, "lng": 106.80039104999656}, "feature": {"sight_features": "", "sight_content": ""}}, {"title": "满巴拉僧庙", "address": "乌海市海南区拉僧庙镇的图海山上", "image": "", "rank": 4, "time": 1.0, "location": {"lat": 39.32975035405026, "lng": 106.85127429810018}, "feature": {"sight_features": "", "sight_content": ""}}, {"title": "胡杨岛", "address": "乌海市乌达区三道坎黄河河心中", "image": "", "rank": 5, "time": 2.5, "location": {"lat": 39.442336220410574, "lng": 106.75758488714013}, "feature": {"sight_features": "", "sight_content": ""}}, {"title": "乌海湖生态旅游区", "address": "乌海市滨河区一号码头（蒙古族家具博物馆南500米）", "image": "", "rank": 6, "time": null, "location": {"lat": 39.66805773103176, "lng": 106.78880899044616}, "feature": {"sight_features": "特色1 横贯乌海市南北的高端休闲度假区", "sight_content": "乌海湖生态旅游景区是由黄河海勃湾区水利枢纽工程建成后形成的118平方公里的舒缓水面及环湖区域，与甘德尔山生态文明景区共同呈现出一片水沙相映，山水相连的壮观景象。\n横贯乌海市南北，涵盖乌兰布和沙漠、乌兰淖尔湖、乌海湖、胡杨岛、兔岛等风景区，由东向西远远望去，波光明净、碧水连天，直抵金沙岸畔，一边是碧水、一边是金沙，大气磅礴，浑然天成，构成一幅“大漠出平湖.塞上有江南”的美丽画卷。"}}, {"title": "甘德尔山奇峡谷", "address": "乌海市海南区西北方向的甘德尔山上", "image": "", "rank": 7, "time": 1.0, "location": {"lat": 39.44682751508743, "lng": 106.89847100998414}, "feature": {"sight_features": "", "sight_content": ""}}, {"title": "四合木保护区", "address": "乌海市海勃湾区", "image": "", "rank": 8, "time": 1.0, "location": {"lat": 39.69690799353465, "lng": 106.82943856713665}, "feature": {"sight_features": "", "sight_content": ""}}, {"title": "桌子山岩画", "address": "乌海市城东", "image": "", "rank": 9, "time": 1.0, "location": {"lat": 39.6620063648907, "lng": 106.80039104999656}, "feature": {"sight_features": "", "sight_content": ""}}, {"title": "煤炭博物馆", "address": "内蒙古自治区乌海市海勃湾区狮城大街 ‎", "image": "", "rank": 10, "time": 1.5, "location": {"lat": 39.68970763074503, "lng": 106.8374282104272}, "feature": {"sight_features": "", "sight_content": ""}}, {"title": "蒙根花游乐园", "address": "乌海市海勃湾区乌海机场北300米蒙根花休闲农业园", "image": "", "rank": 11, "time": 2, "location": {"lat": 39.80143376491298, "lng": 106.81268005442399}, "feature": {"sight_features": "特色1 具有当今先进水平的多功能综合性游乐园", "sight_content": "蒙根花游乐园坐落于蒙根花休闲农业园西南部，占地2万余平方米。是一个集科学、体育、游乐、餐饮、购物性质的多功能综合性具有当今先进水平的现代化游乐园。\n蒙根花游乐园立足于专业化的设施、完善的配套服务，秉承最优质最全面的安全服务理念，集科普性、教育性、娱乐性、体验性于一体，是游客出游的最佳选择。\n已拥中型游乐设备16项和小项目30余项。其中，有惊而不险、兴趣盎然的过山车、摇头飞椅、海盗船、大摆锤、鬼屋、镜屋、斜屋、倒屋；也有老少皆宜的太空漫步、旋转木马、动物园；还有普遍为孩子们属目的果虫滑车、碰碰车、立环跑车、激战鲨鱼岛、体能乐园、迷宫等；这是一个引人入胜的神奇地方，园内还专门为启迪儿童智力兴建了十分丰富的小型游乐项目，放养着10多种动物，这些动物除来自全国各地外，还来自世界各洲。\n在这里，游客不仅可以游玩一流的游乐项目，还可以品尝到地道的风味小吃，体验前所未有的激情和欢乐！"}}, {"title": "西鄂尔多斯自然保护区", "address": "乌海市境内及鄂尔多斯市的鄂托克旗西部", "image": "", "rank": 12, "time": 1.0, "location": {"lat": 39.61448231394889, "lng": 109.78744317923602}, "feature": {"sight_features": "", "sight_content": ""}}, {"title": "乌海博物馆", "address": "内蒙古自治区乌海市海勃湾区狮城大街", "image": "", "rank": 13, "time": 2.5, "location": {"lat": 39.68970763074503, "lng": 106.8374282104272}, "feature": {"sight_features": "", "sight_content": ""}}, {"title": "乌海市科技馆", "address": "滨河大道", "image": "", "rank": 14, "time": 2.5, "location": {"lat": 35.577103347384345, "lng": 110.70954352208794}, "feature": {"sight_features": "", "sight_content": ""}}, {"title": "乌达区巴音赛夕阳红二人台艺术团", "address": "巴音赛东街人民公园西侧", "image": "", "rank": 15, "time": 2, "location": {"lat": 39.506592671536374, "lng": 106.73059291488832}, "feature": {"sight_features": "", "sight_content": ""}}, {"title": "乌海市植物园", "address": "内蒙古自治区乌海市海勃湾区海拉路", "image": "", "rank": 16, "time": 3.5, "location": {"lat": 39.69188535405043, "lng": 106.8351335429003}, "feature": {"sight_features": "", "sight_content": ""}}, {"title": "一线天景区", "address": "一线天景区‎ 内蒙古自治区乌海市海南区", "image": "", "rank": 17, "time": 2, "location": {"lat": 39.471618173508965, "lng": 106.84114348793167}, "feature": {"sight_features": "", "sight_content": ""}}, {"title": "乌海清真寺", "address": "内蒙古自治区乌海海勃湾区215省道乌海清真寺", "image": "", "rank": 18, "time": 1.0, "location": {"lat": 39.53960013010443, "lng": 106.90553294892028}, "feature": {"sight_features": "", "sight_content": ""}}, {"title": "蒙根花光伏乐园", "address": "乌海市海勃湾区机场路金沙湾路口东500米蒙根花光伏农业园", "image": "", "rank": 19, "time": 2, "location": {"lat": 39.74983744803946, "lng": 106.82496043691513}, "feature": {"sight_features": "特色1 蒙根花光伏乐园坐落在蒙根花农乐园内，娱乐设施完善。 特色2 是周末及亲子游的最佳选择。 特色3 园方将以优质的服务迎接广大游客的到来。", "sight_content": "蒙根花光伏乐园坐落在蒙根花农乐园内，娱乐设施完善，内有淘气堡等娱乐项目，是周末及亲子游的最佳选择。\n蒙根花光伏乐园坐落在蒙根花农乐园内，娱乐设施完善，内有淘气堡等娱乐项目，是周末及亲子游的最佳选择。"}}, {"title": "老贺采摘园", "address": "黄河村乌达到海南方向半路旧浮桥南500米处", "image": "", "rank": 20, "time": 2, "location": {"lat": 39.46569378142085, "lng": 106.77349221226342}, "feature": {"sight_features": "", "sight_content": ""}}, {"title": "欣泽水游乐园", "address": "内蒙古自治区乌海海勃湾区110国道欣泽水游乐园", "image": "", "rank": 21, "time": 2, "location": {"lat": 39.76107097405364, "lng": 106.78830066630721}, "feature": {"sight_features": "", "sight_content": ""}}, {"title": "海贝儿儿童乐园", "address": "奥林超市二楼", "image": "", "rank": 22, "time": 2, "location": {"lat": 39.666968669517, "lng": 106.8258365165502}, "feature": {"sight_features": "", "sight_content": ""}}, {"title": "包钢农场", "address": "创业路", "image": "", "rank": 23, "time": null, "location": {"lat": 38.049793198095635, "lng": 114.45225952042694}, "feature": {"sight_features": "", "sight_content": ""}}, {"title": "海南区图书馆", "address": "仁和路西50米", "image": "", "rank": 24, "time": 2, "location": {"lat": 22.697295581580093, "lng": 113.25936746078693}, "feature": {"sight_features": "", "sight_content": ""}}, {"title": "维尼熊亲子阅读馆", "address": "拉僧仲街与新桥路交叉口西北100米", "image": "", "rank": 25, "time": 2, "location": {"lat": 39.44121620614384, "lng": 106.89297828141794}, "feature": {"sight_features": "", "sight_content": ""}}, {"title": "乌海梦幻灯光节", "address": "乌海市海勃湾区乌海机场北300米蒙根花休闲农业园", "image": "", "rank": 26, "time": 2, "location": {"lat": 39.80143376491298, "lng": 106.81268005442399}, "feature": {"sight_features": "", "sight_content": ""}}, {"title": "乌海穆斯林栖园亭", "address": "棋千线附近", "image": "", "rank": 27, "time": 2, "location": {"lat": 39.614853646450115, "lng": 106.86807744671533}, "feature": {"sight_features": "", "sight_content": ""}}, {"title": "冷淡杯啤酒广场", "address": "公园南路附近", "image": "", "rank": 28, "time": 2, "location": {"lat": 40.82744672089443, "lng": 114.89382012512709}, "feature": {"sight_features": "", "sight_content": ""}}, {"title": "海贝儿儿童游乐场", "address": "大庆路锦绣中华西门205商铺", "image": "", "rank": 29, "time": 0.5, "location": {"lat": 39.682263892946615, "lng": 106.84051557238018}, "feature": {"sight_features": "", "sight_content": ""}}, {"title": "丫丫儿童游乐场", "address": "人民路丫丫饰品城内(富达市场转角楼)", "image": "", "rank": 30, "time": 2, "location": {"lat": 34.70060352865783, "lng": 116.60806813682353}, "feature": {"sight_features": "", "sight_content": ""}}, {"title": "观音寺观音像", "address": "内蒙古自治区乌海市海勃湾区棋千线", "image": "", "rank": 31, "time": 2, "location": {"lat": 39.614853646450115, "lng": 106.86807744671533}, "feature": {"sight_features": "", "sight_content": ""}}, {"title": "嘻哈乐儿童游乐园", "address": "人民路植物园南门", "image": "", "rank": 32, "time": 2, "location": {"lat": 36.795873016333154, "lng": 118.03577812620306}, "feature": {"sight_features": "", "sight_content": ""}}, {"title": "乌海4号公园", "address": "内蒙古自治区乌海市海勃湾区青山路", "image": "", "rank": 33, "time": 2, "location": {"lat": 39.69900937293526, "lng": 106.85051096748462}, "feature": {"sight_features": "", "sight_content": ""}}, {"title": "乐一乐儿童乐园", "address": "乌海市乌达区", "image": "", "rank": 34, "time": 2, "location": {"lat": 39.511468916129324, "lng": 106.73260635350245}, "feature": {"sight_features": "", "sight_content": ""}}, {"title": "朵朵儿儿童乐园", "address": "乌达区C区西门商铺，左邻农电所(英英超市东侧30米)", "image": "", "rank": 35, "time": 2, "location": {"lat": 39.511468916129324, "lng": 106.73260635350245}, "feature": {"sight_features": "", "sight_content": ""}}, {"title": "开心儿童乐园", "address": "内蒙古自治区乌海市海南区拉僧仲街道西卓子山街明达花园", "image": "", "rank": 36, "time": 2, "location": {"lat": 39.444707507797624, "lng": 106.8924990426148}, "feature": {"sight_features": "", "sight_content": ""}}, {"title": "主题儿童乐园", "address": "内蒙古自治区乌海市乌达区解放北路民乐商场旁(中国工商银行旁)", "image": "", "rank": 37, "time": 2, "location": {"lat": 39.50601722874087, "lng": 106.7230283982736}, "feature": {"sight_features": "", "sight_content": ""}}, {"title": "儿童乐园", "address": "内蒙古自治区乌海市乌达区巴音赛街道公园路锦绣花苑", "image": "", "rank": 38, "time": 2, "location": {"lat": 39.503905249187504, "lng": 106.72875572561186}, "feature": {"sight_features": "", "sight_content": ""}}, {"title": "海电生态园", "address": "西卓子山街南50米", "image": "", "rank": 39, "time": 2, "location": {"lat": 39.44324560602214, "lng": 106.88915951462718}, "feature": {"sight_features": "", "sight_content": ""}}, {"title": "桃李园", "address": "团结路与大学路交叉口东南150米", "image": "", "rank": 40, "time": 2, "location": {"lat": 23.16076521129572, "lng": 113.30656515091}, "feature": {"sight_features": "", "sight_content": ""}}, {"title": "欢乐海洋伴我成长", "address": "乌海市海勃湾区新华街38号通用时代广场F1", "image": "", "rank": 41, "time": 2, "location": {"lat": 39.67646410387295, "lng": 106.82816234449862}, "feature": {"sight_features": "", "sight_content": ""}}, {"title": "美国鲁卡奇儿童乐园", "address": "明珠百货四楼", "image": "", "rank": 42, "time": 2, "location": {"lat": 40.06310266727832, "lng": 116.42141741128196}, "feature": {"sight_features": "", "sight_content": ""}}, {"title": "坎儿井", "address": "乌海市海勃湾区", "image": "", "rank": 43, "time": 2.5, "location": {"lat": 39.69690799353465, "lng": 106.82943856713665}, "feature": {"sight_features": "", "sight_content": ""}}, {"title": "贞子鬼屋", "address": "人民路与千里山街交叉口东50米", "image": "", "rank": 44, "time": 2, "location": {"lat": 39.67846453839651, "lng": 106.82698897424828}, "feature": {"sight_features": "", "sight_content": ""}}, {"title": "速博卡丁车", "address": "狮城大街小刘家电维修东北130米", "image": "", "rank": 45, "time": 2, "location": {"lat": 34.153606813723805, "lng": 120.0882588216363}, "feature": {"sight_features": "", "sight_content": ""}}, {"title": "儿童游乐区", "address": "乌海市海勃湾区新华大街36号春天百货F3", "image": "", "rank": 46, "time": 2, "location": {"lat": 39.67603218209071, "lng": 106.8272325982958}, "feature": {"sight_features": "", "sight_content": ""}}, {"title": "生命纪念园", "address": "内蒙古自治区乌海市海勃湾区G110", "image": "", "rank": 47, "time": 2, "location": {"lat": 39.69690799353465, "lng": 106.82943856713665}, "feature": {"sight_features": "", "sight_content": ""}}, {"title": "北岸儿童乐园", "address": "八一路与新达街交叉口东南150米", "image": "", "rank": 48, "time": 2, "location": {"lat": 23.494386671660774, "lng": 116.51093198121578}, "feature": {"sight_features": "", "sight_content": ""}}, {"title": "嘻哈乐儿童主题乐园", "address": "建设路月星家居三楼", "image": "", "rank": 49, "time": 2, "location": {"lat": 39.681411577134455, "lng": 106.81867137398893}, "feature": {"sight_features": "", "sight_content": ""}}, {"title": "乌海站广场", "address": "内蒙古自治区乌海市海勃湾区新华大街与车站路交叉口西100米", "image": "", "rank": 50, "time": 2, "location": {"lat": 39.67615191147025, "lng": 106.81310277723428}, "feature": {"sight_features": "", "sight_content": ""}}, {"title": "公乌素清真寺", "address": "109国道附近", "image": "", "rank": 51, "time": 2, "location": {"lat": 39.790711104970946, "lng": 109.99633110015151}, "feature": {"sight_features": "", "sight_content": ""}}, {"title": "全通文化休闲广场", "address": "内蒙古自治区乌海市海南区太阳神酒店旁", "image": "", "rank": 52, "time": 2, "location": {"lat": 39.44377404566365, "lng": 106.88904509026793}, "feature": {"sight_features": "", "sight_content": ""}}, {"title": "乌海影剧院", "address": "海拉北路16号", "image": "", "rank": 53, "time": 2, "location": {"lat": 39.67985732329097, "lng": 106.8349164341365}, "feature": {"sight_features": "", "sight_content": ""}}, {"title": "乌达区基督教堂", "address": "内蒙古自治区乌海市乌达区", "image": "", "rank": 54, "time": 2, "location": {"lat": 39.511468916129324, "lng": 106.73260635350245}, "feature": {"sight_features": "", "sight_content": ""}}, {"title": "金水乐园", "address": "胡杨岛旅游景区附近", "image": "", "rank": 55, "time": 2, "location": {"lat": 39.46889657216442, "lng": 106.76165212613324}, "feature": {"sight_features": "", "sight_content": ""}}, {"title": "蒙古族家具博物馆", "address": "滨河大道", "image": "", "rank": 56, "time": 2, "location": {"lat": 35.577103347384345, "lng": 110.70954352208794}, "feature": {"sight_features": "", "sight_content": ""}}, {"title": "乌海书画院", "address": "狮城大街", "image": "", "rank": 57, "time": 2, "location": {"lat": 39.68970763074503, "lng": 106.8374282104272}, "feature": {"sight_features": "", "sight_content": ""}}, {"title": "老兵乐园", "address": "双拥街", "image": "", "rank": 58, "time": 2, "location": {"lat": 38.75541655761237, "lng": 112.76712522559687}, "feature": {"sight_features": "", "sight_content": ""}}, {"title": "图书馆流动图书站", "address": "光明路", "image": "", "rank": 59, "time": 2, "location": {"lat": 39.91629389090759, "lng": 116.48112671224156}, "feature": {"sight_features": "", "sight_content": ""}}, {"title": "青少年宫水上乐园", "address": "海北大街", "image": "", "rank": 60, "time": 2.0, "location": {"lat": 39.695549052525216, "lng": 106.83792026445674}, "feature": {"sight_features": "", "sight_content": ""}}]}