{"cityName": "五河", "days": 2, "cityImage": "", "spots": [{"title": "沱湖", "address": "蚌埠市五河县沱湖乡", "image": "", "rank": 1, "time": 1.0, "location": {"lat": 33.1609286764662, "lng": 117.84573930309158}, "feature": {"sight_features": "", "sight_content": ""}}, {"title": "风然画业", "address": "中兴路9号", "image": "", "rank": 2, "time": 2, "location": {"lat": 39.050191867503436, "lng": 117.17655401008106}, "feature": {"sight_features": "", "sight_content": ""}}, {"title": "朱墨画像馆", "address": "中兴路9号", "image": "", "rank": 3, "time": null, "location": {"lat": 39.050191867503436, "lng": 117.17655401008106}, "feature": {"sight_features": "", "sight_content": ""}}, {"title": "沱湖湿地风景区", "address": "沱湖乡", "image": "", "rank": 4, "time": 2, "location": {"lat": 33.1609286764662, "lng": 117.84573930309158}, "feature": {"sight_features": "", "sight_content": ""}}, {"title": "大方清真寺", "address": "蚌埠市五河县", "image": "", "rank": 5, "time": 1.0, "location": {"lat": 33.13270946286574, "lng": 117.88756088987175}, "feature": {"sight_features": "", "sight_content": ""}}, {"title": "五河县龙湖公园", "address": "安徽省蚌埠市五河县X025", "image": "", "rank": 6, "time": 2, "location": {"lat": 33.13270946286574, "lng": 117.88756088987175}, "feature": {"sight_features": "", "sight_content": ""}}, {"title": "红旗影剧院", "address": "国贸超市旁", "image": "", "rank": 7, "time": 2, "location": {"lat": 37.07618596380562, "lng": 115.04727266980106}, "feature": {"sight_features": "", "sight_content": ""}}, {"title": "美食娱乐城", "address": "五蚌路三角公园对面", "image": "", "rank": 8, "time": 2, "location": {"lat": 32.99498182838543, "lng": 117.55307827052027}, "feature": {"sight_features": "", "sight_content": ""}}, {"title": "沫沫游乐园", "address": "104国道附近", "image": "", "rank": 9, "time": 2, "location": {"lat": 39.73874726467032, "lng": 116.46892125561638}, "feature": {"sight_features": "", "sight_content": ""}}, {"title": "儿童游乐园", "address": "安徽省蚌埠市五河县国防路", "image": "", "rank": 10, "time": 2, "location": {"lat": 33.15452758962792, "lng": 117.89794861451783}, "feature": {"sight_features": "", "sight_content": ""}}, {"title": "头铺镇法制广场", "address": "安徽省蚌埠市五河县S306", "image": "", "rank": 11, "time": 2, "location": {"lat": 33.13270946286574, "lng": 117.88756088987175}, "feature": {"sight_features": "", "sight_content": ""}}, {"title": "贝美嘉儿童乐园", "address": "淮河路与青年路交叉口南50米", "image": "", "rank": 12, "time": 2, "location": {"lat": 33.15041231467888, "lng": 117.89362598636991}, "feature": {"sight_features": "", "sight_content": ""}}, {"title": "漴东新城规划展览馆", "address": "潼河路", "image": "", "rank": 13, "time": 2, "location": {"lat": 31.26671872007354, "lng": 118.36675687077725}, "feature": {"sight_features": "", "sight_content": ""}}, {"title": "九和实物档案馆", "address": "沱湖路", "image": "", "rank": 14, "time": 2, "location": {"lat": 33.1591290021573, "lng": 117.89462950321784}, "feature": {"sight_features": "", "sight_content": ""}}, {"title": "九和收藏馆", "address": "安徽城关镇九和收藏馆", "image": "", "rank": 15, "time": 2, "location": {"lat": 31.249144365260978, "lng": 117.29974246336106}, "feature": {"sight_features": "", "sight_content": ""}}, {"title": "星牌台球star", "address": "城关镇中兴路(近县实验小学)", "image": "", "rank": 16, "time": 2, "location": {"lat": 36.69423252137522, "lng": 114.19185407046353}, "feature": {"sight_features": "", "sight_content": ""}}, {"title": "农家乐柴锅炖", "address": "018乡道西50米", "image": "", "rank": 17, "time": 2, "location": {"lat": 22.60919886263197, "lng": 114.24644262262933}, "feature": {"sight_features": "", "sight_content": ""}}, {"title": "西坝口草莓园", "address": "304省道西100米", "image": "", "rank": 18, "time": 2, "location": {"lat": 38.007414201086036, "lng": 114.44802571762618}, "feature": {"sight_features": "", "sight_content": ""}}, {"title": "五河县民间收藏馆", "address": "安徽省五河县沱湖路", "image": "", "rank": 19, "time": 2, "location": {"lat": 33.1591290021573, "lng": 117.89462950321784}, "feature": {"sight_features": "", "sight_content": ""}}, {"title": "五河县新天地商业广场", "address": "安徽省五河县国防路", "image": "", "rank": 20, "time": 2, "location": {"lat": 33.15452758962792, "lng": 117.89794861451783}, "feature": {"sight_features": "", "sight_content": ""}}, {"title": "单间标准间棋牌钟点房免费上网", "address": "蚌埠市-五河县", "image": "", "rank": 21, "time": 2, "location": {"lat": 33.13270946286574, "lng": 117.88756088987175}, "feature": {"sight_features": "", "sight_content": ""}}, {"title": "上黄咀", "address": "蚌埠市-五河县-零三一县道", "image": "", "rank": 22, "time": 2, "location": {"lat": 33.13270946286574, "lng": 117.88756088987175}, "feature": {"sight_features": "", "sight_content": ""}}, {"title": "永利皇宫音乐会所", "address": "蚌埠市-五河县-亿豪泊景城二期北门", "image": "", "rank": 23, "time": 2, "location": {"lat": 33.15229111689437, "lng": 117.88856867726408}, "feature": {"sight_features": "", "sight_content": ""}}]}