{"cityName": "芜湖县", "days": 2, "cityImage": "", "spots": [{"title": "陶辛水韵", "address": "芜湖市芜湖县陶辛镇", "image": "", "rank": 1, "time": 2.0, "location": {"lat": 31.13657664673829, "lng": 118.50308620327777}, "feature": {"sight_features": "", "sight_content": "位于芜湖县,距市区约20公里处。青弋江蜿蜓而过,境内沟渠纵横,碧水环绕,构成了颇具特色.1999年“陶辛水韵”被评为芜湖市新十景之一。\n2002年“陶辛水韵”旅游商标在国家工商总局注册，本景区具备进一步建设的潜力。"}}, {"title": "芜湖东湖公园", "address": "芜湖市芜湖县湾沚镇世纪大道", "image": "", "rank": 2, "time": 1.5, "location": {"lat": 31.140183754974025, "lng": 118.59475733555362}, "feature": {"sight_features": "", "sight_content": ""}}, {"title": "芜湖鱼沟钩农庄", "address": "芜湖市陶辛镇水韵村（原楼麻村）", "image": "", "rank": 3, "time": 2, "location": {"lat": 31.17670814469859, "lng": 118.4927508282836}, "feature": {"sight_features": "", "sight_content": ""}}, {"title": "奚小姐的私房菜馆", "address": "陶辛镇后沙", "image": "", "rank": 4, "time": 2, "location": {"lat": 31.152219446766633, "lng": 118.492934189506}, "feature": {"sight_features": "", "sight_content": ""}}, {"title": "芜湖六郎湿地花海", "address": "芜湖市芜湖县六郎镇新团村（芜屯快速通道旁）", "image": "", "rank": 5, "time": 1.5, "location": {"lat": 31.18645701799521, "lng": 118.59148732563281}, "feature": {"sight_features": "特色1 花海月月有花、四季皆景", "sight_content": "安徽芜湖六郎湿地花海位于“鱼米之乡”的芜湖市芜湖县六郎镇境内，距离合肥、巢湖、南京、宣城、广德均在两个小时车程内。园区占地面积约56万平方米，一期投资2170万元。\n一期恒温恒湿科技生态展示馆及350亩花海项目2018年3月18日营业；二期为特色民宿及游乐项目正在规划中；三期为休闲度假村及生态餐饮。景区计划年游客接待人数200万/人次，月均17万/人次。\n附近综合停车场达3万平方米，可供数百辆旅游大巴同时停放。景区以花海旅游观光为主，融入绿色健康文化，打造花海观光、婚纱摄影基地、休闲度假、亲子互动和科研养生为一体的花海欢乐世界。\n景区内一年四季鲜花不断，2-3月有各种不同品种不同颜色的郁金香盛开与初春；4-6月有几十只高品质玫瑰花怒放在初夏；7-9月大丽菊漫山遍野；9-10月高贵纯洁的百合迎风飘扬；11-2月浪漫的紫罗兰花海醉人心房......园区拥有研学、参观、婚纱摄影基地等多个综合场地。如生态恒温恒湿的科技展示馆，主要展示高科技无土种植技术、水培管道式栽种以及立柱式栽培等。\n科学营造了番茄树，立体定植杯墙体，种子展示等新奇特的技术。寓教于乐，同时增设了生态餐厅、园艺体验项目，开辟了多个大型室内参观体验的活动项目。目前园区可一次性接待参观游客约5000人次。"}}, {"title": "益然香木榨产业观光园", "address": "芜湖市芜湖县六郎镇集镇区益然香厂区内", "image": "", "rank": 6, "time": 2, "location": {"lat": 31.23688202067812, "lng": 118.54471152377862}, "feature": {"sight_features": "", "sight_content": "芜湖县益然香木榨文化产业园园区以非遗文化为载体，以古朴建筑为骨架，以水系绿荫为血脉，环境优美、空气洁净，亭阁坊榭掩映其中。\n馆藏木榨及农耕史料丰富、实物全面、特色显著，是集文化科教、非遗传承和产品制造销售、旅游休闲赏玩为一体的文化产业园区，日前被评为国家3A级旅游景区。"}}, {"title": "芜湖绿荣生态农庄", "address": "芜湖市芜湖县湾沚镇新丰行政村野鸡冲辖内", "image": "", "rank": 7, "time": 3.0, "location": {"lat": 31.128665367106784, "lng": 118.58067678026117}, "feature": {"sight_features": "", "sight_content": "芜湖绿荣山庄农家乐有限公司位于芜湖县湾沚镇新丰行政村野鸡冲辖内，离县城10公里，距离市区40公里，边连花桥镇环境优美、空气新鲜，是旅游、度假的好地方。 公司于2014年11月4日成立，注册资本300万元，主要经营餐饮、垂钓、农业生态旅游观光、住宿，公司占地面积13亩，建筑面积2300多平方米，能容纳300人就餐和50人住宿，可接待各种会议。\n公司现有持证上岗职工23人，其中中级职称5人、大中专学历8人、专业技术人员10人。 随着收入、闲暇的时间增多，生活节奏加快以及竞争日益激烈，人们渴望多样化的旅游环境。尤其希望能在典型的农村环境中放松自己。我公司根据得天独厚的地理环境，建造生态农业..."}}, {"title": "墨兰桑蚕文化园", "address": "芜湖市芜湖县六郎镇新团村", "image": "", "rank": 8, "time": null, "location": {"lat": 31.2388900305271, "lng": 118.57109825820156}, "feature": {"sight_features": "", "sight_content": ""}}, {"title": "芜湖县陶辛翠玉农场", "address": "陶辛镇奚村第五生产队(芜湖县陶辛镇奚村现代农业园区)", "image": "", "rank": 9, "time": 2.0, "location": {"lat": 31.139102177849384, "lng": 118.51014829582415}, "feature": {"sight_features": "", "sight_content": ""}}, {"title": "绿溪地农庄", "address": "花桥镇复兴村", "image": "", "rank": 10, "time": 2, "location": {"lat": 31.22946603692173, "lng": 118.66370360036032}, "feature": {"sight_features": "", "sight_content": ""}}, {"title": "芜湖乐摘生态农业园", "address": "六郎镇东南加油站向东300米", "image": "", "rank": 11, "time": 3.0, "location": {"lat": 31.266471920483863, "lng": 118.54091598806667}, "feature": {"sight_features": "", "sight_content": ""}}, {"title": "老梁山庄休闲中心", "address": "056乡道", "image": "", "rank": 12, "time": 2, "location": {"lat": 40.8039515364187, "lng": 116.83772148104333}, "feature": {"sight_features": "", "sight_content": ""}}, {"title": "鑫鹿堂农场", "address": "西河第二小学西南侧90米X011", "image": "", "rank": 13, "time": 2, "location": {"lat": 30.96983677587609, "lng": 118.52398162127076}, "feature": {"sight_features": "", "sight_content": ""}}, {"title": "张村垂钓农家乐", "address": "六郎镇保丰村", "image": "", "rank": 14, "time": 2, "location": {"lat": 31.248447316189818, "lng": 118.52472970494692}, "feature": {"sight_features": "", "sight_content": ""}}, {"title": "楚王城堡儿童乐园", "address": "安徽省芜湖市芜湖县芜湖中路47号", "image": "", "rank": 15, "time": 2, "location": {"lat": 31.152686311636455, "lng": 118.57743533645558}, "feature": {"sight_features": "", "sight_content": ""}}, {"title": "芜湖县野树林水上乐园", "address": "安徽省芜湖市芜湖县X028(芜屯路)", "image": "", "rank": 16, "time": 2.0, "location": {"lat": 31.291241172783973, "lng": 118.49848656106654}, "feature": {"sight_features": "", "sight_content": ""}}, {"title": "佛来寺", "address": "安徽省芜湖市芜湖县Y008(分水路)", "image": "", "rank": 17, "time": 2, "location": {"lat": 31.289655682925602, "lng": 118.49919856250527}, "feature": {"sight_features": "", "sight_content": ""}}, {"title": "九十殿寺庙", "address": "安徽省芜湖市芜湖县013县道西50米", "image": "", "rank": 18, "time": 2, "location": {"lat": 31.141239223464176, "lng": 118.58244251202923}, "feature": {"sight_features": "", "sight_content": ""}}, {"title": "芜湖县市民广场", "address": "安徽省芜湖市芜湖县芜湖南路延伸段", "image": "", "rank": 19, "time": 2.0, "location": {"lat": 31.144568410418675, "lng": 118.57920896253246}, "feature": {"sight_features": "", "sight_content": ""}}, {"title": "印象南湖", "address": "滨湖大道-芜湖南路交叉口阳关城售楼部旁", "image": "", "rank": 20, "time": 2, "location": {"lat": 31.125348363092524, "lng": 118.58477765720241}, "feature": {"sight_features": "", "sight_content": ""}}, {"title": "红庙祠山殿", "address": "红杨镇团坝行政村贡庄自然村", "image": "", "rank": 21, "time": 2, "location": {"lat": 31.1309768681592, "lng": 118.44441108911283}, "feature": {"sight_features": "", "sight_content": ""}}, {"title": "蟠龙寺", "address": "湾沚镇东湖公园内", "image": "", "rank": 22, "time": 0.75, "location": {"lat": 31.159377007392777, "lng": 118.58613729469349}, "feature": {"sight_features": "", "sight_content": ""}}, {"title": "樊祠堂", "address": "芜湖市芜湖县", "image": "", "rank": 23, "time": 2, "location": {"lat": 31.141239223464176, "lng": 118.58244251202923}, "feature": {"sight_features": "", "sight_content": ""}}, {"title": "楚皇城", "address": "安徽省芜湖市芜湖县", "image": "", "rank": 24, "time": 1.0, "location": {"lat": 31.141239223464176, "lng": 118.58244251202923}, "feature": {"sight_features": "", "sight_content": ""}}, {"title": "水溢楼休闲广场", "address": "沿河路80号", "image": "", "rank": 25, "time": 2, "location": {"lat": 27.99869657504256, "lng": 120.73760928654018}, "feature": {"sight_features": "", "sight_content": ""}}, {"title": "陶辛休闲广场", "address": "009县道附近", "image": "", "rank": 26, "time": 2, "location": {"lat": 44.321504872459506, "lng": 125.34496535219758}, "feature": {"sight_features": "", "sight_content": ""}}, {"title": "陶辛恋花湾", "address": "芜湖市芜湖县陶辛镇137乡道北", "image": "", "rank": 27, "time": 2, "location": {"lat": 31.170234088606072, "lng": 118.48560293228982}, "feature": {"sight_features": "", "sight_content": "芜湖陶辛恋花湾位于芜湖县137乡道北50米，小猪佩奇、萌态鹦鹉，童真无限。\n百亩灯海、3D星空馆，流光溢彩。还有40米滑道、尖叫短视频。200处美景，屏霸朋友圈。"}}, {"title": "19领域密室", "address": "天润发2楼(大嘴巴火锅旁)", "image": "", "rank": 28, "time": 2, "location": {"lat": 31.779982239286067, "lng": 117.76213882599207}, "feature": {"sight_features": "", "sight_content": ""}}, {"title": "阳光半岛沙滩浴场", "address": "湾沚镇阳光半岛大酒店内部", "image": "", "rank": 29, "time": 2, "location": {"lat": 23.478129888110526, "lng": 111.28935201400724}, "feature": {"sight_features": "", "sight_content": ""}}, {"title": "中铁规划院(新芜分院)", "address": "荆山河路18号附近", "image": "", "rank": 30, "time": 2, "location": {"lat": 31.13616350949035, "lng": 118.58494483185783}, "feature": {"sight_features": "", "sight_content": ""}}, {"title": "瑯山愚公绿色生态农业有限公司", "address": "104省道西50米", "image": "", "rank": 31, "time": 2, "location": {"lat": 37.84517653890577, "lng": 112.34821961007857}, "feature": {"sight_features": "", "sight_content": ""}}, {"title": "新创地农家乐", "address": "芜屯路", "image": "", "rank": 32, "time": 2, "location": {"lat": 31.291241172783973, "lng": 118.49848656106654}, "feature": {"sight_features": "", "sight_content": ""}}, {"title": "芜湖县陶辛镇奚村果真采摘园", "address": "陶辛镇奚村小学东南", "image": "", "rank": 33, "time": 2.0, "location": {"lat": 31.13840354978627, "lng": 118.50887533313683}, "feature": {"sight_features": "", "sight_content": ""}}, {"title": "乐摘葡萄黄桃蟠桃采摘园", "address": "六咸路1号", "image": "", "rank": 34, "time": 2, "location": {"lat": 31.267264531627706, "lng": 118.54817488048589}, "feature": {"sight_features": "", "sight_content": ""}}, {"title": "延安路商业街", "address": "安徽省芜湖县延安路", "image": "", "rank": 35, "time": 3.0, "location": {"lat": 31.154104307984372, "lng": 118.57533790358136}, "feature": {"sight_features": "", "sight_content": ""}}, {"title": "安徽信息工程学院新芜校区体育馆", "address": "芜湖市-芜湖县-新芜经济开发区永和路1号", "image": "", "rank": 36, "time": 2, "location": {"lat": 31.14987425649694, "lng": 118.59186272750543}, "feature": {"sight_features": "", "sight_content": ""}}, {"title": "沚津花开", "address": "芜湖市芜湖县湾沚镇桃园村", "image": "", "rank": 37, "time": 2, "location": {"lat": 31.128665367106784, "lng": 118.58067678026117}, "feature": {"sight_features": "", "sight_content": ""}}, {"title": "珩琅山玫瑰谷", "address": "芜湖市芜湖县红杨镇梅溪塘村", "image": "", "rank": 38, "time": 2, "location": {"lat": 30.973798446289823, "lng": 118.53793070775522}, "feature": {"sight_features": "", "sight_content": ""}}]}