{"cityName": "芜湖", "days": "", "cityImage": "", "spots": [{"title": "芜湖方特东方神画", "address": "芜湖市鸠江区徽州路与赤铸山东路交叉口东北角(水上乐园旁边)", "image": "", "rank": 1, "time": 3.0, "location": {"lat": 31.361898062359852, "lng": 118.4588235188844}, "feature": {"sight_features": "特色1 感悟华夏文明的厚重，体验高新科技的惊艳。 特色2 项目种类丰富，满足你的多重玩乐需求。", "sight_content": "芜湖方特东方神画是（中国•芜湖）方特旅游度假区第四座主题公园，坐落于安徽省芜湖市鸠江区方特水上乐园以东，是一座综合激光多媒体、微缩实景、真人秀等高科技设备资源，通过深度创意，崭新诠释民间传统艺术升华为民族文化的伟大成果和精髓，将中国非物质文化遗产与现代旅游产业完美结合的全新概念主题公园。\n芜湖方特东方神画有八大分区：综合项目区、民间传说区、民间戏曲区、经典爱情传奇区、神秘文化区、杂技与竞技区、民间节庆区、民间手工艺区；由女娲补天、大闹水晶宫、牛郎织女、烈焰风云、雷峰塔、千古蝶恋、九州神韵、缤纷华夏、仙岛探秘、熊出没剧场、灵魂之旅等20多个主题项目区组成。\n包含主题项目、游乐项目、景观项目等200余项，集高雅文化、现代科技、艺术创新等于一体，用全新独特的表现形式，向全世界展现了一幅璀璨的五千年华夏文明史诗画卷。"}}, {"title": "芜湖方特欢乐世界", "address": "芜湖市镜湖区银湖北路80号", "image": "", "rank": 2, "time": 3.0, "location": {"lat": 31.384152365549614, "lng": 118.3801580349176}, "feature": {"sight_features": "特色1 以科幻动漫为特色的大型主题公园。 特色2 探秘影视特技,感受科幻神奇。 特色3 “方特欢乐大道”一个开放式的旅游商业区。", "sight_content": "芜湖方特欢乐世界坐落于中国芜湖的长江之滨。方特欢乐世界以科幻和动漫为最大特色，采用当今国际一流的理念和技术精心打造，被誉为“东方梦幻乐园”、“亚洲科幻神奇”。 芜湖方特欢乐世界是通过多种现代高科技手段和艺术的完美结合缔造出的一个充满激情和惊喜的乐园。主要由星际航班、神秘河谷、维苏威火山、恐龙危机、海螺 湾、儿童王国、聊斋等15个主题项目区组成，包含主题项目、游乐项目、休闲及景观项目300多项，内 容涵盖现代科技、未来幻想、神话传说、历史文化、儿童游乐等多个方面。内容丰富，适应不同年龄层游客的需要。\n其中，阳光广场、方特欢乐大道、渔人码头是全开放式区域，游客可以自由出入。芜湖方特欢乐世界中的主题项目、游乐项目、休闲及景观项目共300多个。公园的内容涵盖现代科技、未来科技、科学幻想、神话传说、历史文化、综合表演、儿童游乐等多个方面。形式新颖，内容丰富，适应不同年龄层游客的需要。\n\n\n儿童乐园：童话般动感天地，让欢声笑语响彻云霄！\n这是一个造型卡通、充满童趣的世界，也是室外项目的集中营。苹果飞椅、悬挂滑车、UFO、双层转马、旋转小蜜蜂、青蛙跳、空中飞舞、欢乐宫……或刺激，或浪漫，或趣味盎然，无论是孩子们，还是成年人，都能找到适合自己的动感项目。置身儿童王国，犹如置身一片欢乐的海洋。\n海螺湾：潜入色彩斑斓的海底世界，赶赴一场别开生面的海洋嘉年华。\n大形的环境4D剧场，也是方特一期具有梦幻色彩的项目。通过多屏幕立体影片播放、亦真亦幻的实物景观和活动机模等多种特技，你仿佛置身于一个童话般 美丽的海底世界。前半场展现盛大温馨的海洋嘉年华表演，各种可爱的鱼儿竞相亮相，还调皮地与你亲密互动；后半场代表恶势力的大螃蟹前来挑衅，原本祥和的气 氛突变紧张。\n恐龙危机：紧急逃离恐龙现场，体验惊心动魄的生死之旅！\n你可曾幻想过，如果有一天，我们的城市被无数的恐龙包围，那将是怎样的场景？“恐龙危机”即将你脑海中的种种画面变为现实！游客乘坐动感游览车，穿梭在被恐 龙占领的混乱的都市中。沿途不断遭到恐龙的围追堵截。眼看这些大家伙们就要靠近，但动感车疾速扭转，让人们侥幸逃过。一场惊心动魄的恐龙危机大逃亡精彩上演……\n飞越极限：风一样的飞行，带你穿越世界奇观。\n球幕高空飞翔体验项目。节目开始后，巨大的半球形银幕将观众包围，雄伟的悬挂式座椅凌空飞起，配合场面宏大的电影画面，让您在飞翔天际的同 时，或坠落美国大峡谷，或穿越埃菲尔铁塔，或与金字塔擦身而过，或与亚马逊河贴面掠过，或盘旋于珠穆朗玛之巅，或呼啸在绵延的万里长城，或俯视雄伟的布鲁 克林钢索大桥，或近赏香港东方之珠的璀璨烟。"}}, {"title": "芜湖方特水上乐园", "address": "芜湖市鸠江区赤铸山东路", "image": "", "rank": 3, "time": 3.0, "location": {"lat": 31.359606495501453, "lng": 118.47861915671272}, "feature": {"sight_features": "特色1 水天一色，海滨风情，韵味十足。 特色2 芜湖方特水上乐园作为方特旅游度假区以水景为特色。 特色3 尽情享受漂流的乐趣，能从各个角度观赏到其它游玩项目的精彩盛况。", "sight_content": "‍‍芜湖方特水上乐园位于芜湖市东部，芜湖方特水上乐园作为方特旅游度假区首座以水景为特色、水上活动为内容，游玩项目最为丰富的水上度假乐园之一，是华强集团继方特欢乐世界和方特梦幻王国及非物质文化博览园后，在华东地区推出的又一精品力作。‍‍‍‍\n芜湖方特水上乐园主要分为八大区域：儿童区、造浪区、大喇叭区、超级互动水寨区、疾速滑道区、巨蟒区、竞赛滑道区。各区域内又含有多个国际主流精品项目如：儿童区内的古树探险、小喇叭、海盗船、熊熊乐园；造浪区内的飓风湾、爱琴湾、懒人河、炮筒滑梯、雪橇滑梯；大喇叭区内的大喇叭；合家欢区内的一飞冲天；超级互动水寨区内的熊出没水寨、冰河漂流；疾速滑道区内的风驰极限；巨蟒区内的天旋地转；竞赛滑道区内的彩虹滑道。其中多项获得国际行业旅游协会水上设备奖。\n各式各样的滑道直入水中，或是直 接站在水里，等待翻斗桶带来的从天而降的巨大水花浇个透心凉。满天飞舞的水花令人疯狂尖叫！在满足新潮一族追求惊险,刺激体验的同时,更能给人们留下长久记忆。一座真正的魔幻水城 ，开启欢乐水工厂！\n缤纷夏日享受一场透心凉的方特SPA！或戏水玩耍，或悠闲漂浮，在水 中姝影轻摇。阳光沙滩，水天一色，海滨风情，韵味十足！拿出手机，留下永恒的记忆。与水来一次亲密接触，侵润你的每一寸肌肤，彻底化解盛夏的酷热。落花流水，分不清是天上人间！\n在这里，你可以领略浪花冲击的无限快感；你可以享受海滨风情的休闲浪漫；你可以随时感受徜徉溪流的美妙乐趣；更可以欣赏充满异域风情的精彩演绎。超大的游玩空间，顶尖的配套设施、清新宜人的环境、贴心优质的服务，方特打造，让您尽情体验水上乐趣，玩转水世界，开启方特水上之旅！\n‍‍‍‍‍‍"}}, {"title": "芜湖方特梦幻王国", "address": "芜湖市鸠江区赤铸山东路华强文化科技产业园", "image": "", "rank": 4, "time": 3.0, "location": {"lat": 31.36586115700339, "lng": 118.46589745828385}, "feature": {"sight_features": "特色1 高科技演绎特色主题综合主题乐园 特色2 以科技手段演绎中国古老文化，充满幻想与创意的游玩乐园。", "sight_content": "芜湖方特梦幻王国坐落于安徽省芜湖市城东新区，占地70万平方米，总投资18亿元人民币，是继方特欢乐世界之后深圳华强文化科技集团在芜兴建的又一个现代综合性主题公园。方特梦幻王国、方特欢乐世界，将如长三角文化旅游版图上璀璨的双子星座，交相辉映，各抒魅力，炫丽迷人，带您踏入东方梦幻乐园、体验世界科幻神奇。\n\n\n方特梦幻王国采用高科技演绎特色主题，将动漫卡通、电影特技等国际时尚娱乐元素和中国传统文化符号精妙融合，创造充满幻想和创意的神奇天地。公园由魔法城堡、水漫金山、生命之光、猴王、古文明之光、秦陵历险、未来警察、盘丝洞、卡通城堡、欢乐天地、方特乐园等10多个项目区组成，包含主题项目、游乐项目、休闲及景观项目200余项。\n其中有超大型室内游历探险项目——秦陵历险，跟踪式立体魔幻表演项目——魔法城堡，国内首创动感射击游戏项目——嘟比历险；其中国际顶尖的高科技水灾难体验项目——水漫金山，奇迹般地再现了那洪水滔滔的宏大场景；大型原创舞台剧——《猴王》魔幻般地创造了一种新颖奇特的娱乐视野；现代大型主题环境剧场——盘丝洞亦真亦幻，讲述既熟悉却不一样的西游故事；生命之光和古文明之光分别带您寻找生命进化和文明发展的神秘代码；未来警察以同名电影为故事背景，让您身临其境地感受未来世界里惊险刺激的高科技战争场面；大摆锤、波浪翻滚、海盗船、转转杯、探空飞梭、极速飞车……精彩纷呈，带您畅游云霄、体验极限欢愉。\n这是一次充满神奇幻想的探险！这是一次挑战自我的释放！这是一次对美好未来的憧憬！历史与未来交汇，现实与梦幻重叠，欢迎您光临方特梦幻王国！"}}, {"title": "新华联大白鲸海洋公园", "address": "芜湖市鸠江区徽州路99号", "image": "", "rank": 5, "time": 2, "location": {"lat": 31.39444605108211, "lng": 118.45980515031519}, "feature": {"sight_features": "", "sight_content": "‍‍‍‍‍‍‍‍‍‍芜湖新华联大白鲸海洋公园地处安徽省芜湖市鸠江区万春路与徽州路交界处，是新华联国际文化旅游度假区的核心项目，毗邻鸠兹古镇、芜湖方特国际旅游度假区及芜湖市博物馆，是芜湖市致力打造欢乐芜湖、东方奥兰多的重要组成部分。由国内百强企业新华联集团旗下的不动产板块斥资打造，旨在打造国内首座第五代海洋公园。\n\n\n“芜湖·新华联国际文化旅游度假区”位于安徽省芜湖市鸠江区，是中国百强企业新华联集团文旅项目。度假区总投资约100亿，总占地面积近2000亩，总建筑面积约120万平方米。项目依托徽商在芜湖“兴业”的深厚历史积淀及开埠多元文化的精髓，以体现印象芜湖的璀璨辉煌为规划核心，打造集观光休闲、旅游度假、体验互动于一体的芜湖市国际文化旅游综合体项目。度假区按照国家5A级景区标准进行打造，由鸠兹古镇景区、海洋公园景区、新华联梦想城区等共同构成，其中鸠兹古镇景区（一期）和海洋公园景区（一期）计划分别于2016年7月30日和9月22日对外试运营，届时预计年接待游客将达到300万人次。度假区建成后将雄踞长三角沿江重点区域，1小时都市圈辐射南京、合肥 ，2小时都市圈辐射上海、杭州；宁马、宁芜、合宁、合芜等9条全程高速，城际高铁全线开通，无缝对接整个华东地区。  ‍‍‍‍‍‍‍‍"}}, {"title": "马仁奇峰风景区", "address": "芜湖市繁昌县孙村镇八分村马仁奇峰风景区", "image": "", "rank": 6, "time": 3.0, "location": {"lat": 30.97890095445712, "lng": 118.17479052568554}, "feature": {"sight_features": "特色1 有“皖南张家界“之美誉。 特色2 素有“皖南张家界，江滨小黄山”之称。 特色3 山势突兀，地貌独特。", "sight_content": "马仁奇峰森林旅游区位于安徽省长江南岸芜湖境内的南陵、繁昌、铜陵三县交界处，距繁昌县城12公里，芜湖市区60公里，南京150公里、上海400公里，铁路、公路、航运均可到达。\n属皖南大旅游区的重点景区之一，与“两山一湖”（黄山、九华山、太平湖）连为一体，景区利用自身特点开辟了多条特色旅游线路，游客可就近到繁昌县境内的“新四军三支队司令部旧址”、“人字洞”、“柯冲古瓷窑”、“荻港板子矶”等处揽胜寻幽。\n\n马仁山，原名叫马人山。据传，在唐德宗贞元年间，山上有块形如人马的巨石在日精月露的滋润下修炼成精，方圆数里不得安宁，幸有仙人乘舟前来斩其首，并将其身首分开置于不同的山头。从此，这里又恢复了往日的宁静，为答谢仙人的仁德，当地的人们将此山改名为“马仁山”，以此来纪念仙人的仁爱和正义！"}}, {"title": "赭山风景区", "address": "芜湖市镜湖区九华山路345号(近凤凰美食街)", "image": "", "rank": 7, "time": 2.0, "location": {"lat": 31.3482396406299, "lng": 118.3836352408009}, "feature": {"sight_features": "", "sight_content": ""}}, {"title": "天门山", "address": "芜湖市经济技术开发区东梁村凤鸣湖北路", "image": "", "rank": 8, "time": 3.0, "location": {"lat": 31.473571899233587, "lng": 118.38880309717942}, "feature": {"sight_features": "", "sight_content": ""}}, {"title": "鸠兹古镇", "address": "芜湖市鸠江区纬二路和徽州路交汇处", "image": "", "rank": 9, "time": 2, "location": {"lat": 31.36397456578593, "lng": 118.45905378692561}, "feature": {"sight_features": "", "sight_content": ""}}, {"title": "珩琅山", "address": "芜湖市芜湖县西河镇", "image": "", "rank": 10, "time": 4.5, "location": {"lat": 30.995429448695113, "lng": 118.48769046853225}, "feature": {"sight_features": "", "sight_content": ""}}, {"title": "镜湖公园", "address": "芜湖市镜湖区镜湖路", "image": "", "rank": 11, "time": 2.0, "location": {"lat": 31.331825116546273, "lng": 118.37767012301109}, "feature": {"sight_features": "", "sight_content": ""}}, {"title": "中江塔", "address": "芜湖市镜湖区滨江北路", "image": "", "rank": 12, "time": 1.0, "location": {"lat": 31.33474175544204, "lng": 118.366736463971}, "feature": {"sight_features": "", "sight_content": ""}}, {"title": "芜湖天主教堂", "address": "芜湖市镜湖区吉和街28号", "image": "", "rank": 13, "time": 1.0, "location": {"lat": 31.339176501966833, "lng": 118.36890047026655}, "feature": {"sight_features": "", "sight_content": ""}}, {"title": "西河古镇", "address": "芜湖市芜湖县西河镇", "image": "", "rank": 14, "time": 2, "location": {"lat": 30.995429448695113, "lng": 118.48769046853225}, "feature": {"sight_features": "", "sight_content": ""}}, {"title": "徽商博物馆", "address": "芜湖市镜湖区九华中路169-2号赭山公园东大门北侧", "image": "", "rank": 15, "time": 2, "location": {"lat": 31.349179543739808, "lng": 118.38656048286359}, "feature": {"sight_features": "", "sight_content": ""}}, {"title": "芜湖市博物馆", "address": "芜湖市鸠江区中江大道与仁和路交叉口", "image": "", "rank": 16, "time": 4.0, "location": {"lat": 31.35615871136189, "lng": 118.4360189375809}, "feature": {"sight_features": "", "sight_content": ""}}, {"title": "广济寺", "address": "芜湖市镜湖区九华中路", "image": "", "rank": 17, "time": 2.5, "location": {"lat": 31.350719674404996, "lng": 118.38702280657397}, "feature": {"sight_features": "", "sight_content": ""}}, {"title": "汀棠公园", "address": "芜湖市镜湖区九华中路45号", "image": "", "rank": 18, "time": 1.0, "location": {"lat": 31.367587273028185, "lng": 118.39264807472833}, "feature": {"sight_features": "", "sight_content": ""}}, {"title": "芜湖市中山路步行街", "address": "安徽省芜湖市中山路步行街", "image": "", "rank": 19, "time": 2.0, "location": {"lat": 31.33477469853991, "lng": 118.37563779932022}, "feature": {"sight_features": "", "sight_content": ""}}, {"title": "鸠兹广场", "address": "芜湖市镜湖区北京西路", "image": "", "rank": 20, "time": 1.5, "location": {"lat": 31.3389678501084, "lng": 118.37440788612786}, "feature": {"sight_features": "", "sight_content": ""}}, {"title": "大浦乡村世界", "address": "芜湖市南陵县大浦试验区（G50高速芜湖南出口左转9公里处）", "image": "", "rank": 21, "time": 7.5, "location": {"lat": 30.920260298683342, "lng": 118.34041816695333}, "feature": {"sight_features": "特色1 赏花踏青，夏季玩水圣地", "sight_content": "‍‍大浦乡村世界——国家4a级景区，位于安徽省芜湖市城南，距市区15公里（g50高速芜湖南出口左转9公里处）。总规划面积16平方公里，项目预计总投资40亿元。\n景区以高科技观光农业、海啸文化体 验、传统文化展示、生态美食为特色，目前已建成大浦都市农园、农业文化广场、科普植物园、组培驯化中心、我的e家农场、南瓜探秘、葫芦神宫、大浦绿洲生态美食园、葡萄广场、中国农业自然灾害 教育体验主题公园（海啸文化馆、快乐漂流区、儿童游乐园、玛雅欢乐园、挑战体验区、自然灾害科普教育馆、）、动物竞技场、蒙古风情园、冒险训练营、3d游乐城、传统农艺街、农夫乐园等；让您 在体验海啸的同时，还能漫步田园、采摘瓜果、感受传统农艺文化，是您理想的旅游休闲度假区。\n大浦乡村世界是中国农业自然灾害教育体验旅游地，同时致力于打造中国“低碳”乡村旅游目 的地，已获得“国家农业科技园区”、“国家现代农业示范区（核心区）”、“十佳魅力新农村”“全国休闲农业示范点”、“全国科普教育基地”、“全国休闲农业与乡村旅游五星级企业”、“2012 年度全省十佳旅游景区”等多个国家、省级称号。\n快乐漂流河是由一条环状河流组成，全长1200米，水深1.6米。通过排浪机的作用，使您在波澜壮阔的水流中释放繁华都市带来的压力，享受“你玩水？水玩你”带给您 的乐趣。儿童水上乐园是由多种水上游乐项目组成，水池水深0.5米。这里有小朋友们喜欢的溜滑道、蘑菇瀑布浴、旋转水碟、瀑布水帘等。让孩子们在感受童话般的水上世界带来 乐趣的同时，促进家长与孩 子的情感交流！\n玛雅欢乐滑道是以6联滑道为主体，滑道全长110米，高15.6米。随着激流飞滑而下，劈波斩浪，让您在高速下滑的过程中享受超越时空的全新体验。功夫大喇叭零重力会让您以惊悚、刺激、疯狂到顶点的特殊感觉，如同体验被卷入龙卷风般的惊险旅途，倾情演绎世界级玩水体验，使您尖叫推崇。魔幻漩涡缸是从16米高的魔幻滑道快速冲入巨大的漩涡缸，然后高速旋转，仿佛吸力强大的宇宙黑洞将一切统统卷入其中。当您快速滑出洞口坠入“深井”时，你会感受到 此段魔幻旅程带来的刺激！"}}, {"title": "丫山花海石林", "address": "芜湖市南陵县何湾镇", "image": "", "rank": 22, "time": 12.0, "location": {"lat": 30.826648891823208, "lng": 118.08847463272436}, "feature": {"sight_features": "特色1 华东最大的喀斯特地貌景区之一 特色2 自然景观秀美，文化底蕴深厚 特色3 名花似海，奇石如林", "sight_content": "丫山花海石林旅游区位于安徽省芜湖市南陵县何湾镇，处南陵、青阳、铜陵三县交汇之地。丫山风景优美，久负盛名，早在1987年即被评为首批省级风景名胜区，景区前身西山风景区一直位居芜湖十景之首。\n2004年安徽丫山花海石林旅游有限公司以最新的旅游理念对景区进行规划开发，推出“丫山花海石林”的全新主题形象。经过四年的努力和巨大的人力、物力投入，丫山花海石林旅游区目前已成为集旅游观光、休闲度假、会议接待、民俗展览、科考探险、拓展训练、竞技体育、农家乐于一体的大型综合旅游区，并先后通过国家AAAA级旅游区和国家地质公园验收。\n丫山花海石林旅游区旅游资源类型丰富，山、水、古迹、民俗、购物等资源一应俱全，自然景观秀美，文化底蕴深厚。自然景观方面，景区内具有华东地区最大的喀斯特地貌景观，集石林、溶洞、天坑、峰林、瀑布、湖泊、暗河、奇花异草、飞鸟走兽为一体，同时牡丹花海也是丫山一大特色，每到春季，漫山遍野的牡丹花依山层叠而上，花团锦簇，美不胜收。\n丫山花海石林旅游区大面积的石林与大面积的牡丹相结合，形成了丫山花海石林旅游区最与众不同的特色。历史遗迹方面，丫山地区历史文化景观众多，有革命烈士纪念碑、李白南陵遗踪、孙权练兵处、二乔避难处、南山寺、成华寺遗址、各式宗祠、古民居等资源点。景区对其进行适度开发，既维护了这些历史遗迹的完整，又保留了其传统文化的韵味。民俗文化方面，景区斥巨资建立了民俗文化博物馆，收录了明清至民国时期民俗展品六千余件，在同类展馆中，本展馆展品全面，极具地方传统特色的文化风范和艺术风范。"}}, {"title": "王稼祥纪念园", "address": "芜湖市镜湖区中山北路23号", "image": "", "rank": 23, "time": 1.5, "location": {"lat": 31.34938474003439, "lng": 118.36933651045601}, "feature": {"sight_features": "", "sight_content": ""}}, {"title": "陶辛水韵", "address": "芜湖市芜湖县陶辛镇", "image": "", "rank": 24, "time": 2.0, "location": {"lat": 31.13657664673829, "lng": 118.50308620327777}, "feature": {"sight_features": "", "sight_content": "位于芜湖县,距市区约20公里处。青弋江蜿蜓而过,境内沟渠纵横,碧水环绕,构成了颇具特色.1999年“陶辛水韵”被评为芜湖市新十景之一。\n2002年“陶辛水韵”旅游商标在国家工商总局注册，本景区具备进一步建设的潜力。"}}, {"title": "柏庄儿童王国", "address": "芜湖市弋江区九华南路与大工山路交叉口柏庄时代广场影院楼一楼", "image": "", "rank": 25, "time": 2, "location": {"lat": 31.29624143928832, "lng": 118.39003600622067}, "feature": {"sight_features": "特色1 安徽省首家双语特色教育儿童职业体验馆。", "sight_content": "﻿柏庄儿童王国总建筑面积约8000㎡，拥有54个室内场馆，近60种职业体验，总投资近3000万元人民币，是安徽省双语特色教育儿童职业体验馆，设计、硬件、设施配套均达到国内同类体验场所一流水准。体验馆设置有政府机构、民生服务、文化艺术、科学教育、美食餐饮、休闲购物、卫生医疗、交通运输等各种行业和职业。\n目前我们已与多个商家达成合作协议，在场馆外开设了儿童二代体验基地。如芜湖市弋江区公安消防大队、芜湖市弋江区公安分局、芜湖市共青团、芜湖市弋江区教育局、芜湖市文化馆、芜湖日报报业集团、空三师、中国电信、芜湖市广电艺术培训学校、卫岗乳业、储氏铁画、32颗口腔医院、卡普兰烘焙坊、芜湖市第五人民医院、棒棒糖儿童摄影、t台之星、耿福兴等等。"}}, {"title": "第一名人藏馆", "address": "芜湖市镜湖区镜湖路烟雨墩上", "image": "", "rank": 26, "time": 1.0, "location": {"lat": 31.33213013460824, "lng": 118.37771141003061}, "feature": {"sight_features": "", "sight_content": ""}}, {"title": "临江桥", "address": "芜湖市内，北起新芜路与吉和南路交叉口、南接滨江南路。", "image": "", "rank": 27, "time": 1.0, "location": {"lat": 31.333254191608773, "lng": 118.37131294337465}, "feature": {"sight_features": "", "sight_content": ""}}, {"title": "芜湖美丽华新视听歌舞剧院", "address": "芜湖市弋江区奥林匹克体育馆内6号门", "image": "", "rank": 28, "time": 3.0, "location": {"lat": 31.317566272497334, "lng": 118.37957970583027}, "feature": {"sight_features": "", "sight_content": ""}}, {"title": "洛卡王国儿童职业体验馆", "address": "芜湖市镜湖区赭山西路与银湖南路交汇处星隆国际城三楼", "image": "", "rank": 29, "time": 2, "location": {"lat": 31.352718801984697, "lng": 118.38127762002385}, "feature": {"sight_features": "", "sight_content": ""}}, {"title": "芜湖长江游船", "address": "芜湖市新市口长江游船码头（世贸百货对面）", "image": "", "rank": 30, "time": 3.0, "location": {"lat": 31.34094807268963, "lng": 118.36810753599289}, "feature": {"sight_features": "", "sight_content": ""}}, {"title": "小格里自然风景区", "address": "芜湖市南陵县烟墩镇霭里村（距南陵县城35公里）", "image": "", "rank": 31, "time": 1.0, "location": {"lat": 30.71047679064126, "lng": 118.14654524297603}, "feature": {"sight_features": "", "sight_content": ""}}, {"title": "3D魔幻游戏馆", "address": "芜湖市镜湖区步行街苏宁广场10楼", "image": "", "rank": 32, "time": 2, "location": {"lat": 31.33457570439033, "lng": 118.37406114559083}, "feature": {"sight_features": "", "sight_content": ""}}, {"title": "中国雨耕山", "address": "芜湖市镜湖区青山街57号附近", "image": "", "rank": 33, "time": 2, "location": {"lat": 31.33387073444217, "lng": 118.37236713183977}, "feature": {"sight_features": "", "sight_content": ""}}, {"title": "安徽师范大学", "address": "安徽省芜湖市镜湖区北京东路1号", "image": "", "rank": 34, "time": 2, "location": {"lat": 31.337790330945218, "lng": 118.38151214782978}, "feature": {"sight_features": "", "sight_content": ""}}, {"title": "睿鹰户外运动（天门山）", "address": "芜湖市鸠江区大桥镇境内向东路头", "image": "", "rank": 35, "time": 2, "location": {"lat": 31.494079815142083, "lng": 118.3816022595504}, "feature": {"sight_features": "", "sight_content": ""}}, {"title": "奎潭湖", "address": "芜湖市南陵县205国道", "image": "", "rank": 36, "time": 1.0, "location": {"lat": 31.007108495907406, "lng": 118.3906475483576}, "feature": {"sight_features": "", "sight_content": ""}}, {"title": "新华联童梦乐园", "address": "芜湖市徽州路99号大白鲸海洋公园旁", "image": "", "rank": 37, "time": 2, "location": {"lat": 31.39444605108211, "lng": 118.45980515031519}, "feature": {"sight_features": "", "sight_content": ""}}, {"title": "赭塔", "address": "芜湖市镜湖区九华中路赭山风景区内，广济寺后面", "image": "", "rank": 38, "time": 0.3, "location": {"lat": 31.34701232066832, "lng": 118.3841406274808}, "feature": {"sight_features": "", "sight_content": ""}}, {"title": "芜湖科技馆", "address": "芜湖市镜湖区银湖北路70号", "image": "", "rank": 39, "time": 2.5, "location": {"lat": 31.388663090632125, "lng": 118.38027571293941}, "feature": {"sight_features": "", "sight_content": ""}}, {"title": "睿鹰户外运动（神山公园）", "address": "芜湖市鸠江区园林管理处神山苗圃", "image": "", "rank": 40, "time": 2, "location": {"lat": 31.35948796901966, "lng": 118.41775291461224}, "feature": {"sight_features": "", "sight_content": ""}}, {"title": "芜湖睿鹰真人cs室内馆", "address": "芜湖市镜湖区星隆国际城C区外街三楼", "image": "", "rank": 41, "time": 3.0, "location": {"lat": 31.352718801984697, "lng": 118.38127762002385}, "feature": {"sight_features": "", "sight_content": ""}}, {"title": "睿鹰户外运动（城南高校园区）", "address": "芜湖市弋江区安师大新校区", "image": "", "rank": 42, "time": 2, "location": {"lat": 31.286971687047835, "lng": 118.3831463380271}, "feature": {"sight_features": "", "sight_content": ""}}, {"title": "Mr L真人密室别墅店", "address": "芜湖弋江区九华南路柏庄丽城别墅区30#-1（安师大东门正对面）", "image": "", "rank": 43, "time": 2, "location": {"lat": 31.294464731609096, "lng": 118.38980309626295}, "feature": {"sight_features": "", "sight_content": ""}}, {"title": "睿鹰室内真人CS银泰店", "address": "芜湖市新时代商业街189号芜湖银泰城负一楼", "image": "", "rank": 44, "time": 2, "location": {"lat": 31.316494743963574, "lng": 118.37286565905882}, "feature": {"sight_features": "", "sight_content": ""}}, {"title": "世纪星真冰滑冰场", "address": "芜湖市镜湖区赭山中路17号联盛广场四楼", "image": "", "rank": 45, "time": 2, "location": {"lat": 31.346492515416035, "lng": 118.39480562130898}, "feature": {"sight_features": "", "sight_content": ""}}, {"title": "烟斗先生真人密室逃脱室(万达店)", "address": "芜湖市镜湖区万达广场2号写字楼808室（华润苏果一楼大门入口左侧）", "image": "", "rank": 46, "time": 2, "location": {"lat": 31.344587644232366, "lng": 118.4053653858331}, "feature": {"sight_features": "", "sight_content": ""}}, {"title": "X-MISS真人密室", "address": "芜湖市弋江区长江长一期7栋3单元701", "image": "", "rank": 47, "time": 2, "location": {"lat": 31.328384120568213, "lng": 118.3728853535088}, "feature": {"sight_features": "", "sight_content": ""}}, {"title": "滨江公园", "address": "芜湖市镜湖区滨江北路", "image": "", "rank": 48, "time": 3.5, "location": {"lat": 31.33474175544204, "lng": 118.366736463971}, "feature": {"sight_features": "", "sight_content": ""}}, {"title": "睿鹰户外运动（汀棠公园）", "address": "芜湖市镜湖区汀棠公园", "image": "", "rank": 49, "time": 2, "location": {"lat": 31.369890464792686, "lng": 118.3932082499596}, "feature": {"sight_features": "", "sight_content": ""}}, {"title": "天井山", "address": "芜湖市无为县城西南40公里处", "image": "", "rank": 50, "time": 1.0, "location": {"lat": 31.308844155979028, "lng": 117.90857854388872}, "feature": {"sight_features": "", "sight_content": ""}}, {"title": "板子矶风景区", "address": "芜湖市繁昌县荻港镇板子矶", "image": "", "rank": 51, "time": 2, "location": {"lat": 31.14185786933714, "lng": 118.01339592635372}, "feature": {"sight_features": "特色1 文物古迹众多，也有战争的遗迹", "sight_content": "板子矶风景区座落于长江中下游，芜湖市繁昌县的荻港镇，突兀江流，惊涛拍崖、水流湍急、险峻奇秀，如中流砥柱。石阶由矶后盘旋而上，遍地青竹滴翠，满山怪石嵯峨，登临矶上、江声盈耳；极目远眺，白帆翩翩、入夜渔火星星、蟹灯点点，历来为观光游览胜地。\n历史上很多文人墨客也曾在这留下了很多动人的诗篇。古诗中的板子矶是雄伟壮丽的画卷，势吞吴楚的砥柱。“板子矶头接翠岑，兴来倚棹漫登临。悬崖云树晴犹湿，近岸烟楼昼亦明。山拥画图浮水面，天垂星斗入江心。势吞吴楚千年壮，稳镇中流亘古今。”明代川籍进士、时任繁昌县令宋棠的这首《板子矶》，描摹出了矶头“翠岑”的葱郁、“悬崖之树”的高洁和“近岸烟楼”的繁盛。这里 历来是兵家必争之地。据《左传•昭公五年》记载，著名的吴楚“鹊岸战役”就发生在这里，三国时，这里是东吴军津要塞。南宋在此筑炮台、土垒，是抗金的重要江防。《明史•黄得公传》记载，抗清明将黄得公，为保南明弘光帝，战死板子矶。\n板子矶兀立江中，修竹翠绿，古道石阶，青苔苍苍，有近千年的古银杏并明清残留之古塔、鹊起庵、黄公阁。古有黄得公旧事，不仅是风景名胜区，也是德育教育基地；既有丰富的文化内涵，文物古迹众多，也有战争的遗迹，文化和历史价值都很高。"}}, {"title": "3D错觉艺术馆", "address": "芜湖市镜湖区中山北路37号凯德广场4层", "image": "", "rank": 52, "time": 1.5, "location": {"lat": 31.344875907348754, "lng": 118.37378997769976}, "feature": {"sight_features": "", "sight_content": ""}}, {"title": "无为县烈士陵园", "address": "芜湖市无为县环城西路与芝山路交叉口东100米", "image": "", "rank": 53, "time": 1.0, "location": {"lat": 31.29926530771914, "lng": 117.91711146258898}, "feature": {"sight_features": "", "sight_content": ""}}, {"title": "芜湖东湖公园", "address": "芜湖市芜湖县湾沚镇世纪大道", "image": "", "rank": 54, "time": 1.5, "location": {"lat": 31.140183754974025, "lng": 118.59475733555362}, "feature": {"sight_features": "", "sight_content": ""}}, {"title": "X-BOX真人密室逃脱俱乐部", "address": "芜湖市弋江区安徽机电职业技术学院南大门对面", "image": "", "rank": 55, "time": 2, "location": {"lat": 31.289080468024714, "lng": 118.36825679843643}, "feature": {"sight_features": "", "sight_content": ""}}, {"title": "安徽工程大学", "address": "芜湖市鸠江区北京中路8号", "image": "", "rank": 56, "time": 2, "location": {"lat": 31.340911297364254, "lng": 118.38796062674672}, "feature": {"sight_features": "", "sight_content": ""}}, {"title": "芜湖国际会展中心", "address": "安徽省，芜湖", "image": "", "rank": 57, "time": 2.5, "location": {"lat": 31.358536655799266, "lng": 118.43943137653523}, "feature": {"sight_features": "", "sight_content": ""}}, {"title": "泊山洞", "address": "芜湖市无为县蜀山镇", "image": "", "rank": 58, "time": 1.0, "location": {"lat": 31.223778512978015, "lng": 117.61236127161706}, "feature": {"sight_features": "", "sight_content": ""}}, {"title": "乐宝王国", "address": "芜湖市弋江区利民西路189号芜湖银泰城F3", "image": "", "rank": 59, "time": 1.0, "location": {"lat": 31.316494743963574, "lng": 118.37286565905882}, "feature": {"sight_features": "", "sight_content": ""}}, {"title": "米公祠", "address": "芜湖市无为县南大街", "image": "", "rank": 60, "time": 1.0, "location": {"lat": 31.30083406068216, "lng": 117.92370997469558}, "feature": {"sight_features": "", "sight_content": ""}}]}