{"cityName": "武强", "days": 2, "cityImage": "", "spots": [{"title": "音乐水世界水乐方", "address": "衡水市武强县周窝镇金音街南路1号", "image": "", "rank": 1, "time": 2, "location": {"lat": 38.00397571464338, "lng": 115.9043286555069}, "feature": {"sight_features": "特色1 音乐水世界•水乐方是中国唯一以音乐为主题的水上乐园，它开创了全国特色主题水上乐园的新篇章。这里汇集了六大娱乐水景观。 特色2 水乐方景区海啸池项目，占地5000多平方米的大型海啸冲浪池最高可形成3米高的浪潮，是目前华北最大的人工海啸冲浪池。 特色3 观潮戏潮期间，游客们还能尽情享受时尚劲爆的DJ互动喊麦，欣赏性感女郎带来具有异国风情的草裙舞。", "sight_content": "﻿音乐水世界•水乐方是中国唯一以音乐为主题的水上乐园，它开创了全国特色主题水上乐园的新篇章。这里汇集了六大娱乐水景观。园内所有设备国内领先，有众多荣获国际大奖的顶尖项目。超大的游玩空间，顶尖的游乐设备，清新宜人的环境，让我们感受美妙音乐与嬉水的完美结合，在水声、音乐声、欢笑声、尖叫声中忘记一切烦恼。漫步周窝，踏浪赏乐、音乐之旅，踏着浪花，步入水乐方乐园。嬉水同时，享受音乐，人在水中，乐在其中。水乐方景区海啸池项目，占地5000多平方米的大型海啸冲浪池最高可形成3米高的浪潮，是目前华北最大的人工海啸冲浪池。引进了国际领先机房设备、按国际标准投资建设并配置安全救生员，旁边设有观浪台，休息厅，大型演出舞台等，游客可以亲身投入海啸冲浪池中赶大潮，追潮、搏潮、逐潮、弄潮、戏潮，让您不在海边就能感受到大海的魅力。观潮戏潮期间，游客们还能尽情享受时尚劲爆的DJ互动喊麦，欣赏性感女郎带来具有异国风情的草裙舞。让您感受音乐与水的完美结合，乐声，水声，声声入耳，让你置身于大自然将心情放松到极致。\n\n\n巨兽碗是音乐水世界•水乐方十大娱乐设备之一。巨: 庞然大物 雄霸乐园；兽：迅猛滑行 、新鲜体验；碗：坐“碗”观天 、共赏美景。站在六层楼高的塔台，穿越长达50米的加速滑道，跌入直径12米的巨碗中，从16米高的站台口滑下,在水流的回旋中，先经历一个封闭管道，然后被吸入激流漩涡，再次穿越深不见底的滑道，高速冲入直径达12米的巨碗,在离心力的带动下，在沿巨碗边缘旋转约一圈半之后，再冲入碗中的洞口。“巨兽碗”将让你体验到完全不同于其他设备的滑行体验。挑战狂风骤雨的勇敢水手，水花四溅，蓝天旋转，我们快乐的心情也得到极度绽放！欢乐儿童水寨是国内最新研发的一款水屋设备，采用的高科技“连锁反应”原理，有开放式滑道、封闭式滑道、集水枪、水桶、跷跷板等游玩设施为一体化，高于屋顶的木桶每隔8分钟注满水后，约1吨水倾泻而下。气势磅礴！与诗人那句：“飞流直下三千尺”的境界相媲美。按照音乐动漫主题水屋设计，是游客群体戏水、玩闹、联欢的清凉水世界，是抛弃所有的游戏规则，开心互动、恣意尽兴的欢乐平台，适合儿童，家庭亲子等小团体游客。\n\n\n潮汐漂流是国内最新推出的，属于环流河的升级版，引进国际先进的潮汐造浪技术，让漂流的游客真正体验到潮涨潮落的真切感受，迅猛上涨又自行退却，循环往复。游客在潮汐河内顺流或者逆流，浪花飞溅的瞬间，声音分贝也达到最大，游客在惊讶于先进技术的同时也在感叹着大自然的奇特与美妙。潮汐河一波一波涨潮落潮的速度每次仅仅间隔20秒，利用频繁快速的潮汐速度带给游客真实漂流体验。一边享受着急湍冲击的惊险与刺激；一边享受着急湍已过，有惊无险的轻松与愉悦。游客三五成群，在潮汐河中嬉戏耍玩，享受一波接一波的浪花冲击所带来的乐趣……为了满足勇敢者挑战极限的愿望，音乐水世界引进了全国先进的高速滑梯项目，高18米，游客无需滑垫，人体直滑，以每秒7米的速度紧贴着几乎垂直的滑行面下冲，游客能体验到真正的一泻千里、水花四溅的感觉。无论亲身体验的你或周围的观众都能被它的惊险征服。彩虹竞速滑梯是带有竞技性成分的滑梯，为年青人所喜爱，也是水上乐园的必设项目，滑梯滑道分为4道，同时为多人游乐。滑垫载着游客高速飞翔在波浪形的滑道上，直接奔驰俯冲，加速冲到水池里，尽享风驰电掣的竞赛快感，带给游客的是头向下滑行的刺激。水上儿童冲关为充气水上玩具该项目安全、环保、时尚、操作简单，集运动性、趣味性、观赏性为一体，能锻炼您的孩子肢体协调能力和平衡能力，且增强孩子的积极性和互动性。"}}, {"title": "阳光画饰", "address": "保大南路", "image": "", "rank": 2, "time": 2, "location": {"lat": 38.041258974666334, "lng": 115.97441731519334}, "feature": {"sight_features": "", "sight_content": ""}}, {"title": "龙门火锅", "address": "体育街30附近附近", "image": "", "rank": 3, "time": 2, "location": {"lat": 36.07318635730596, "lng": 103.78910357143732}, "feature": {"sight_features": "", "sight_content": ""}}, {"title": "吉祥文化公园", "address": "光明桥西行", "image": "", "rank": 4, "time": 2, "location": {"lat": 39.89026534488403, "lng": 116.45188899687584}, "feature": {"sight_features": "", "sight_content": ""}}, {"title": "皇甫欢乐水世界", "address": "皇甫村欢乐水世界", "image": "", "rank": 5, "time": 2, "location": {"lat": 39.01729240329585, "lng": 117.65514740765045}, "feature": {"sight_features": "", "sight_content": ""}}, {"title": "儿童游乐城", "address": "迎宾西街南50米", "image": "", "rank": 6, "time": 2, "location": {"lat": 38.77067921693833, "lng": 115.47719884553618}, "feature": {"sight_features": "", "sight_content": ""}}, {"title": "白洋淀竞文水寨冰雪嘉年华", "address": "任丘鄚州镇大口子码头北行800米", "image": "", "rank": 7, "time": 6.0, "location": {"lat": 38.717348630774524, "lng": 116.1056050954973}, "feature": {"sight_features": "", "sight_content": ""}}, {"title": "衡水音乐公园", "address": "衡水市武强县金音路音乐公园北门", "image": "", "rank": 8, "time": 1.0, "location": {"lat": 38.04685680523654, "lng": 115.98961391177681}, "feature": {"sight_features": "", "sight_content": "衡水音乐公园位于衡水市武强县，共划分为吉他湖、环湖园建绿化和一条环绕园区的主路。在园区里，随处可见音乐元素。整个音乐公园片区还包括乐湖东岸艺术园区和武强县游客集散中心两个景点。"}}, {"title": "街关商业街", "address": "河北省武强县307国道附近", "image": "", "rank": 9, "time": 2, "location": {"lat": 38.03817718713044, "lng": 115.9261023647631}, "feature": {"sight_features": "", "sight_content": ""}}]}