{"cityName": "五家渠", "days": "", "cityImage": "", "spots": [{"title": "青湖御园生态旅游度假区", "address": "五家渠市青湖南路青格达湖风景区旁青湖御园", "image": "", "rank": 1, "time": 2, "location": {"lat": 44.143292248997646, "lng": 87.54371441129474}, "feature": {"sight_features": "", "sight_content": ""}}, {"title": "青格达湖", "address": "五家渠市荷花东街五家渠水管处", "image": "", "rank": 2, "time": 2, "location": {"lat": 44.12003602931423, "lng": 87.55494777900891}, "feature": {"sight_features": "", "sight_content": ""}}, {"title": "郁金香基地", "address": "新疆五家渠市猛进水库", "image": "", "rank": 3, "time": 2, "location": {"lat": 44.13605264081258, "lng": 87.54567048959866}, "feature": {"sight_features": "", "sight_content": ""}}, {"title": "新疆恒尚伯骏马术俱乐部", "address": "青湖南路(青格达湖旅游风景区)", "image": "", "rank": 4, "time": 2, "location": {"lat": 44.126482529691096, "lng": 87.55431924506394}, "feature": {"sight_features": "", "sight_content": ""}}, {"title": "田园钓鱼村", "address": "102省道", "image": "", "rank": 5, "time": 2, "location": {"lat": 36.224418920426714, "lng": 113.13112600949766}, "feature": {"sight_features": "", "sight_content": ""}}, {"title": "金果葡萄", "address": "新潜巷与长征东街交叉口南50米", "image": "", "rank": 6, "time": 2, "location": {"lat": 44.170611713910276, "lng": 87.53893628458206}, "feature": {"sight_features": "", "sight_content": ""}}, {"title": "西北首席马术俱乐部", "address": "外环路迎宾大道", "image": "", "rank": 7, "time": 2, "location": {"lat": 31.149489699162764, "lng": 118.59861664556696}, "feature": {"sight_features": "", "sight_content": ""}}, {"title": "嘟嘟儿童乐园", "address": "人民南路998号附近", "image": "", "rank": 8, "time": 2.5, "location": {"lat": 31.36788712340271, "lng": 120.96065290051803}, "feature": {"sight_features": "", "sight_content": ""}}, {"title": "青格达湖生态观光园", "address": "青格达湖旅游风景区附近", "image": "", "rank": 9, "time": null, "location": {"lat": 44.126482529691096, "lng": 87.55431924506394}, "feature": {"sight_features": "", "sight_content": ""}}, {"title": "中大鳄鱼", "address": "天山南路丽润广场1楼", "image": "", "rank": 10, "time": 2, "location": {"lat": 37.06709409591098, "lng": 115.65870876177983}, "feature": {"sight_features": "", "sight_content": ""}}, {"title": "五家渠郁金香节", "address": "五家渠", "image": "", "rank": 11, "time": 2, "location": {"lat": 44.17244451890095, "lng": 87.54993663229611}, "feature": {"sight_features": "", "sight_content": ""}}]}