{"cityName": "乌兰浩特", "days": 2, "cityImage": "", "spots": [{"title": "内蒙古民族解放纪念馆", "address": "乌兰浩特市", "image": "", "rank": 1, "time": 2, "location": {"lat": 46.07865434358189, "lng": 122.099622351983}, "feature": {"sight_features": "", "sight_content": ""}}, {"title": "乌兰牧骑宫", "address": "兴安盟乌兰浩特市盟党政综合大楼西侧", "image": "", "rank": 2, "time": 2, "location": {"lat": 46.07865434358189, "lng": 122.099622351983}, "feature": {"sight_features": "", "sight_content": ""}}, {"title": "Luck8密室逃脱", "address": "英伦酒店东20米小区内", "image": "", "rank": 3, "time": 2, "location": {"lat": 46.07625180353622, "lng": 122.07896702140862}, "feature": {"sight_features": "", "sight_content": ""}}, {"title": "终极密室逃脱", "address": "罕山公园旅游中心1楼南第一户", "image": "", "rank": 4, "time": 2, "location": {"lat": 39.895530358950495, "lng": 116.39059027277402}, "feature": {"sight_features": "", "sight_content": ""}}, {"title": "视界桌游俱乐部", "address": "财富时代广场后欧洲风情1期6号楼13号门市(财富时代广场东南角)", "image": "", "rank": 5, "time": 2, "location": {"lat": 46.082654386180046, "lng": 122.09538603302848}, "feature": {"sight_features": "", "sight_content": ""}}, {"title": "兴安盟图书馆", "address": "罕山西街乌兰浩特一中旁", "image": "", "rank": 6, "time": 2, "location": {"lat": 46.08879705810221, "lng": 122.0360698332546}, "feature": {"sight_features": "", "sight_content": ""}}, {"title": "贝乐迪儿童游乐城", "address": "兴安北路成吉思汗公园门口门市", "image": "", "rank": 7, "time": 2, "location": {"lat": 40.86506052406181, "lng": 111.71758145360332}, "feature": {"sight_features": "", "sight_content": ""}}, {"title": "乌兰哈达滑雪场", "address": "乌兰浩特到白城方向302国道原收费站东3公里处路北(白音特布斯格嘎查)", "image": "", "rank": 8, "time": 2, "location": {"lat": 46.01606624013331, "lng": 122.1978791029871}, "feature": {"sight_features": "", "sight_content": ""}}, {"title": "奇门密室逃脱游乐部", "address": "洮河北路圣地亚哥南门一楼门市", "image": "", "rank": 9, "time": 2, "location": {"lat": 46.087735021643624, "lng": 122.09452957328406}, "feature": {"sight_features": "", "sight_content": ""}}, {"title": "威鲸欢乐世界", "address": "欧亚广场3楼", "image": "", "rank": 10, "time": 2, "location": {"lat": 43.90658165738739, "lng": 125.32309827216838}, "feature": {"sight_features": "", "sight_content": ""}}, {"title": "王爷庙", "address": "内蒙古自治区兴安盟乌兰浩特市成吉思汗庙景区王爷庙", "image": "", "rank": 11, "time": 2, "location": {"lat": 46.10161803099272, "lng": 122.06698780122944}, "feature": {"sight_features": "", "sight_content": ""}}, {"title": "乌兰浩特市居士林", "address": "内蒙古自治区兴安盟乌兰浩特市兴安南路市居士林(杰林佳园附近)", "image": "", "rank": 12, "time": 2, "location": {"lat": 46.068093588676966, "lng": 122.0812387758569}, "feature": {"sight_features": "", "sight_content": ""}}, {"title": "三合朝鲜族民俗文化旅游村", "address": "302国道附近", "image": "", "rank": 13, "time": 2, "location": {"lat": 45.75877779746667, "lng": 122.5732323727896}, "feature": {"sight_features": "", "sight_content": ""}}, {"title": "阿尔山森林谷度假村", "address": "乌兰浩特407县道旅游公路旁", "image": "", "rank": 14, "time": 4.5, "location": {"lat": 46.07865434358189, "lng": 122.099622351983}, "feature": {"sight_features": "", "sight_content": ""}}, {"title": "华杨冰上乐园", "address": "水景公园内", "image": "", "rank": 16, "time": 2, "location": {"lat": 38.922198183671526, "lng": 116.35708752321985}, "feature": {"sight_features": "", "sight_content": ""}}, {"title": "王朝养生汤泉", "address": "科右前旗同德街与乌兰毛都路交汇处", "image": "", "rank": 17, "time": 2, "location": {"lat": 36.9357478590324, "lng": 98.48673569929515}, "feature": {"sight_features": "", "sight_content": ""}}, {"title": "兴安盟群众艺术馆", "address": "内蒙古自治区乌兰浩特市兴安北路", "image": "", "rank": 18, "time": 2, "location": {"lat": 46.093203722845786, "lng": 122.06939681586135}, "feature": {"sight_features": "", "sight_content": ""}}, {"title": "红岩巴林石阁", "address": "兴安盟乌兰浩特市红山龙1号", "image": "", "rank": 19, "time": null, "location": {"lat": 46.08420455805571, "lng": 122.09389516567867}, "feature": {"sight_features": "", "sight_content": ""}}, {"title": "国色牡丹园", "address": "111国道北200米", "image": "", "rank": 20, "time": 2, "location": {"lat": 50.42654372961186, "lng": 124.1866783773556}, "feature": {"sight_features": "", "sight_content": ""}}, {"title": "儿童公园", "address": "内蒙古自治区兴安盟乌兰浩特市光明东街万家樱花园三小区北门西", "image": "", "rank": 21, "time": 1.0, "location": {"lat": 46.07872952648182, "lng": 122.0965728958276}, "feature": {"sight_features": "", "sight_content": ""}}, {"title": "友彦水族馆", "address": "内蒙古自治区兴安盟乌兰浩特市乳品巷", "image": "", "rank": 22, "time": 2, "location": {"lat": 46.08503121357028, "lng": 122.07735521878122}, "feature": {"sight_features": "", "sight_content": ""}}, {"title": "开心哈乐儿童乐园", "address": "红都现代城A座地下室(阳光书苑对面)", "image": "", "rank": 23, "time": 2, "location": {"lat": 46.08436154440384, "lng": 122.07466792347523}, "feature": {"sight_features": "", "sight_content": ""}}, {"title": "卡尼熊儿童拓展游乐中心", "address": "钢铁大街与滨河南路交会欧亚购物中心三楼儿童游乐区域", "image": "", "rank": 24, "time": 2, "location": {"lat": 42.903871005498104, "lng": 125.1236179967401}, "feature": {"sight_features": "", "sight_content": ""}}, {"title": "百兴游园", "address": "五一北路59号附近", "image": "", "rank": 25, "time": 2, "location": {"lat": 46.087039872314975, "lng": 122.07985202481062}, "feature": {"sight_features": "", "sight_content": ""}}, {"title": "艺其乐儿童乐园", "address": "盛苑A区1号楼地下室", "image": "", "rank": 26, "time": 2, "location": {"lat": 46.08946010788256, "lng": 122.08237502722528}, "feature": {"sight_features": "", "sight_content": ""}}, {"title": "公主陵古城遗址", "address": "兴安盟乌兰浩特市", "image": "", "rank": 27, "time": 2, "location": {"lat": 46.07865434358189, "lng": 122.099622351983}, "feature": {"sight_features": "", "sight_content": ""}}, {"title": "曲乐园", "address": "矿泉东街北50米", "image": "", "rank": 28, "time": 2, "location": {"lat": 46.075690099507995, "lng": 122.09777406504028}, "feature": {"sight_features": "", "sight_content": ""}}, {"title": "劲速卡丁车", "address": "内蒙古自治区兴安盟乌兰浩特市", "image": "", "rank": 29, "time": 2, "location": {"lat": 46.07865434358189, "lng": 122.099622351983}, "feature": {"sight_features": "", "sight_content": ""}}, {"title": "南新图书馆美食广场", "address": "城郊办事处兴安职业技术学院院内教学楼", "image": "", "rank": 30, "time": 2, "location": {"lat": 46.11132618424113, "lng": 122.031539670483}, "feature": {"sight_features": "", "sight_content": ""}}, {"title": "好庄园旅游度假村", "address": "纬二街", "image": "", "rank": 31, "time": 2, "location": {"lat": 37.53380249761535, "lng": 114.94315238139484}, "feature": {"sight_features": "", "sight_content": ""}}, {"title": "罕山公园", "address": "兴安盟乌兰浩特市兴安北大路67号", "image": "", "rank": 32, "time": 2, "location": {"lat": 46.095617423537995, "lng": 122.06915420689906}, "feature": {"sight_features": "", "sight_content": ""}}, {"title": "兴蒙山庄", "address": "科右中旗203省道附近", "image": "", "rank": 33, "time": 2, "location": {"lat": 38.70057735317822, "lng": 114.30841754306506}, "feature": {"sight_features": "", "sight_content": ""}}, {"title": "高家庄休闲度假村", "address": "巴乌线附近", "image": "", "rank": 34, "time": 2, "location": {"lat": 46.0651361595891, "lng": 122.06157705112575}, "feature": {"sight_features": "", "sight_content": ""}}, {"title": "龙凤源旅游度假村", "address": "内蒙古自治区兴安盟乌兰浩特市城郊办事处洮儿河附近", "image": "", "rank": 35, "time": 2, "location": {"lat": 46.110189010340115, "lng": 122.03506311754074}, "feature": {"sight_features": "", "sight_content": ""}}, {"title": "海魔方水上乐园", "address": "兴安盟乌兰浩特市科尔沁右翼前旗天骄南路考试中心对面", "image": "", "rank": 36, "time": 2, "location": {"lat": 46.063372629688686, "lng": 121.99732971913623}, "feature": {"sight_features": "", "sight_content": "海魔方水上乐园位于兴安盟地区，以大型室内戏水乐园为主题，坐落于兴安盟科右前旗新址天骄路与哈萨尔街交口，是集室内大型戏水、洗浴汗蒸、餐饮会议、按摩SPA、儿童乐园、美容美体、棋牌影视等休闲项目于一体。"}}, {"title": "兴安博物馆", "address": "育才南路", "image": "", "rank": 37, "time": 2.5, "location": {"lat": 37.86305066659329, "lng": 114.741120603013}, "feature": {"sight_features": "", "sight_content": ""}}, {"title": "香格里拉生态园", "address": "111国道", "image": "", "rank": 38, "time": 1.0, "location": {"lat": 50.42539598847844, "lng": 124.1866783773556}, "feature": {"sight_features": "", "sight_content": ""}}, {"title": "兴安盟档案馆", "address": "铁西北路", "image": "", "rank": 39, "time": 2, "location": {"lat": 46.084157054843, "lng": 122.05617745707818}, "feature": {"sight_features": "", "sight_content": ""}}, {"title": "图书馆", "address": "光明东街", "image": "", "rank": 40, "time": 1.0, "location": {"lat": 38.0793435844521, "lng": 114.33189620743345}, "feature": {"sight_features": "", "sight_content": ""}}, {"title": "青苹果儿童游乐园", "address": "洮河南路市政府路口南行600米第二个1路公交车站点（南滨河经典站）东行20米小市场道北门市(红城老年公寓东侧)", "image": "", "rank": 41, "time": 2, "location": {"lat": 23.081714420497608, "lng": 113.30428156847383}, "feature": {"sight_features": "", "sight_content": ""}}, {"title": "第8街区真人密室逃脱", "address": "市政府路东迪欧咖啡北100米地下室", "image": "", "rank": 42, "time": 2, "location": {"lat": 35.49220175514183, "lng": 112.88668391826035}, "feature": {"sight_features": "", "sight_content": ""}}, {"title": "Baby go！欢乐世界", "address": "复兴西街35号(哈尔滨商城老凤祥东50米)", "image": "", "rank": 43, "time": 2, "location": {"lat": 45.808825827952184, "lng": 126.54161509031663}, "feature": {"sight_features": "", "sight_content": ""}}, {"title": "云风玉画苑", "address": "互助西街11附近", "image": "", "rank": 44, "time": 2, "location": {"lat": 46.072772355827894, "lng": 122.07546071851154}, "feature": {"sight_features": "", "sight_content": ""}}, {"title": "绿园苗木", "address": "302国道附近", "image": "", "rank": 45, "time": 2, "location": {"lat": 45.75877779746667, "lng": 122.5732323727896}, "feature": {"sight_features": "", "sight_content": ""}}, {"title": "飞鱼", "address": "中央大路西50米", "image": "", "rank": 46, "time": 2, "location": {"lat": 46.06928459646269, "lng": 122.14082152443494}, "feature": {"sight_features": "", "sight_content": ""}}, {"title": "乌兰夫办公旧址 Former Official...", "address": "内蒙古自治区乌兰浩特市兴安路", "image": "", "rank": 47, "time": 2, "location": {"lat": 46.07865434358189, "lng": 122.099622351983}, "feature": {"sight_features": "", "sight_content": ""}}, {"title": "王爷庙小吃街", "address": "内蒙古自治区乌兰浩特市乌兰西街50-12号", "image": "", "rank": 48, "time": 2, "location": {"lat": 46.077968151487674, "lng": 122.07206790843088}, "feature": {"sight_features": "", "sight_content": ""}}, {"title": "耘帜·蒙元文化城步行街", "address": "内蒙古自治区乌兰浩特市洮河南路", "image": "", "rank": 49, "time": 2, "location": {"lat": 46.07908242138216, "lng": 122.10159725149416}, "feature": {"sight_features": "", "sight_content": ""}}, {"title": "内蒙古自治政府成立大会会址", "address": "内蒙古自治区乌兰浩特市五一北路", "image": "", "rank": 50, "time": 2, "location": {"lat": 46.0885494094592, "lng": 122.07699604569595}, "feature": {"sight_features": "", "sight_content": ""}}]}