{"cityName": "乌拉特前旗", "days": 2, "cityImage": "", "spots": [{"title": "乌梁素海旅游区", "address": "巴彦淖尔市乌拉特前旗境内", "image": "", "rank": 1, "time": 1.0, "location": {"lat": 40.822232051033644, "lng": 108.78925556918013}, "feature": {"sight_features": "", "sight_content": ""}}, {"title": "莫尼山泉小镇海洋世界", "address": "彦淖尔市乌拉特前旗白彦花高速出口正北1公里处", "image": "", "rank": 2, "time": 2, "location": {"lat": 40.58690293171038, "lng": 109.30664466711431}, "feature": {"sight_features": "特色1 零距离观赏海洋生物，还可欣赏海洋动物表演 特色2 完全置身于真实海洋中 特色3 可以与各种珍稀深海鱼类及贝壳标本近距离接触", "sight_content": "乌拉特部落海洋世界，有神秘的海底隧道，可零距离观赏海底内多姿多彩的海洋生物。海洋动物表演场将引进活泼可爱、聪明伶俐的海狮和海豹，到时可和他们零距离接触。"}}, {"title": "芦苇荡", "address": "内蒙古乌梁素海内", "image": "", "rank": 3, "time": 2.5, "location": {"lat": 40.823156232446166, "lng": 111.77260583081977}, "feature": {"sight_features": "", "sight_content": ""}}, {"title": "大桦背", "address": "巴彦淖尔市乌拉特前旗大桦背", "image": "", "rank": 4, "time": 2, "location": {"lat": 40.70848086125323, "lng": 109.41735193428269}, "feature": {"sight_features": "", "sight_content": ""}}, {"title": "河迹湖", "address": "内蒙古乌梁素海景区内", "image": "", "rank": 5, "time": 2, "location": {"lat": 40.823156232446166, "lng": 111.77260583081977}, "feature": {"sight_features": "", "sight_content": ""}}, {"title": "蒲草", "address": "内蒙古乌梁素海内蒲草景观", "image": "", "rank": 6, "time": 2, "location": {"lat": 40.823156232446166, "lng": 111.77260583081977}, "feature": {"sight_features": "", "sight_content": ""}}, {"title": "海明钓场", "address": "红同补隆世外园西400米", "image": "", "rank": 7, "time": 2, "location": {"lat": 24.82615130993735, "lng": 107.14097574738346}, "feature": {"sight_features": "", "sight_content": ""}}, {"title": "多粒农业有限公司", "address": "大佘太镇西街", "image": "", "rank": 8, "time": 2, "location": {"lat": 41.02843131501722, "lng": 109.15227298163238}, "feature": {"sight_features": "", "sight_content": ""}}, {"title": "小舵手水上乐园", "address": "乌拉山镇红卫北路天政购物中心三楼", "image": "", "rank": 9, "time": 2, "location": {"lat": 40.73080111952374, "lng": 108.65859096470012}, "feature": {"sight_features": "", "sight_content": ""}}, {"title": "四海春生态园", "address": "巴彦淖尔市乌拉特前旗", "image": "", "rank": 10, "time": 2, "location": {"lat": 40.74210351292801, "lng": 108.6586151381014}, "feature": {"sight_features": "", "sight_content": ""}}, {"title": "三湖口渡假村", "address": "巴彦淖尔乌拉特前旗东风大街", "image": "", "rank": 11, "time": 2, "location": {"lat": 40.729144652131524, "lng": 108.66076071745603}, "feature": {"sight_features": "", "sight_content": ""}}, {"title": "伟伟沙窝蛋", "address": "内蒙古自治区巴彦淖尔市乌拉特前旗乌拉山镇大街振兴花苑附近", "image": "", "rank": 12, "time": 2, "location": {"lat": 40.74229047059905, "lng": 108.66320356137511}, "feature": {"sight_features": "", "sight_content": ""}}, {"title": "欢乐城堡儿童乐园", "address": "水利北路b段", "image": "", "rank": 13, "time": 2, "location": {"lat": 34.30709876697102, "lng": 119.24208657343843}, "feature": {"sight_features": "", "sight_content": ""}}, {"title": "星期六儿童乐园", "address": "红卫中路天政商场3楼西侧", "image": "", "rank": 14, "time": 2, "location": {"lat": 22.164518176318325, "lng": 113.56640661853757}, "feature": {"sight_features": "", "sight_content": ""}}, {"title": "东方步行街", "address": "内蒙古自治区乌拉特前旗红卫中路", "image": "", "rank": 15, "time": 3.0, "location": {"lat": 40.73547177575332, "lng": 108.6593324512206}, "feature": {"sight_features": "", "sight_content": ""}}, {"title": "巴彦淖尔市乌拉山林场", "address": "巴彦淖尔市-乌拉特前旗-白彦花镇110国道北(白彦花小学东)", "image": "", "rank": 16, "time": 2, "location": {"lat": 40.64888565799425, "lng": 109.21754873149816}, "feature": {"sight_features": "", "sight_content": ""}}, {"title": "巴荣公呼都嘎", "address": "巴彦淖尔市-乌拉特前旗", "image": "", "rank": 17, "time": 2, "location": {"lat": 40.74210351292801, "lng": 108.6586151381014}, "feature": {"sight_features": "", "sight_content": ""}}, {"title": "莫尼山泉小镇温泉游泳馆", "address": "巴彦淖尔市乌拉特前旗白彦花", "image": "", "rank": 18, "time": 2, "location": {"lat": 40.58690293171038, "lng": 109.30664466711431}, "feature": {"sight_features": "特色1 占地面积10万平米，园内设施完善，水质好 特色2 设置特色蒙药浴、艾草浴、牛奶浴、玫瑰浴、红酒浴等温泉项目。", "sight_content": "乌拉特部落度假村温泉游泳馆内设置了标准成人游泳池、儿童浅水戏水区、莫尼山温泉理疗浴区、泉水洗浴中心、酒吧茶吧会客区、按摩椅休息大厅等。除一般性温泉洗泡外，还设置特色蒙药浴、艾草浴、牛奶浴、玫瑰浴、红酒浴等温泉项目。"}}, {"title": "胡杨林", "address": "内蒙古乌梁素海内胡杨林", "image": "", "rank": 19, "time": 2, "location": {"lat": 40.823156232446166, "lng": 111.77260583081977}, "feature": {"sight_features": "", "sight_content": ""}}]}