{"cityName": "乌拉特中旗", "days": 2, "cityImage": "", "spots": [{"title": "温根塔拉草原旅游区", "address": "巴彦淖尔市乌拉特中旗海流图南向西2公里", "image": "", "rank": 1, "time": 2, "location": {"lat": 41.59334626374648, "lng": 108.51951244005076}, "feature": {"sight_features": "", "sight_content": ""}}, {"title": "风蚀冰臼地质公园", "address": "内蒙古自治区巴彦淖尔市乌拉特中旗S212", "image": "", "rank": 2, "time": 2, "location": {"lat": 41.59334626374648, "lng": 108.51951244005076}, "feature": {"sight_features": "", "sight_content": ""}}, {"title": "巴特日敖包", "address": "巴彦淖尔市乌拉特中旗", "image": "", "rank": 3, "time": 2, "location": {"lat": 41.59334626374648, "lng": 108.51951244005076}, "feature": {"sight_features": "", "sight_content": ""}}, {"title": "海之韵水育儿童游乐园", "address": "教育路党校街坊旗幼北100米", "image": "", "rank": 4, "time": 2, "location": {"lat": 36.659348240649535, "lng": 111.57232056046807}, "feature": {"sight_features": "", "sight_content": ""}}, {"title": "海流图生态园", "address": "内蒙古自治区巴彦淖尔市乌拉特中旗", "image": "", "rank": 5, "time": 2, "location": {"lat": 41.59334626374648, "lng": 108.51951244005076}, "feature": {"sight_features": "", "sight_content": ""}}, {"title": "儿童欢乐泡泡乐园", "address": "川井路附近", "image": "", "rank": 6, "time": 2, "location": {"lat": 41.585844338556356, "lng": 108.51981127844645}, "feature": {"sight_features": "", "sight_content": ""}}, {"title": "巴音宝力格度假村", "address": "乌兰大街与哈太路交叉口西南50米", "image": "", "rank": 7, "time": 2, "location": {"lat": 41.570869017929255, "lng": 108.53413189241186}, "feature": {"sight_features": "", "sight_content": ""}}, {"title": "童馨游乐园", "address": "212省道", "image": "", "rank": 8, "time": 2, "location": {"lat": 40.390563512510504, "lng": 116.26044547726889}, "feature": {"sight_features": "", "sight_content": ""}}, {"title": "葡萄园玩具礼品", "address": "杭盖北街北150米", "image": "", "rank": 9, "time": 2, "location": {"lat": 41.58816586318267, "lng": 108.50862937896683}, "feature": {"sight_features": "", "sight_content": ""}}, {"title": "布和其努土格", "address": "巴彦淖尔市-乌拉特中旗", "image": "", "rank": 10, "time": 2, "location": {"lat": 41.59334626374648, "lng": 108.51951244005076}, "feature": {"sight_features": "", "sight_content": ""}}, {"title": "巴润滚呼都格", "address": "巴彦淖尔市-乌拉特中旗", "image": "", "rank": 11, "time": 2, "location": {"lat": 41.59334626374648, "lng": 108.51951244005076}, "feature": {"sight_features": "", "sight_content": ""}}]}