{"cityName": "五莲", "days": 2, "cityImage": "", "spots": [{"title": "人民公园", "address": "日照市五莲县人民路", "image": "", "rank": 1, "time": 2.5, "location": {"lat": 35.77703087326564, "lng": 119.21230936363091}, "feature": {"sight_features": "", "sight_content": ""}}, {"title": "五莲山滑雪场（滑草场）", "address": "日照市五莲县五莲山西北山麓", "image": "", "rank": 2, "time": 2, "location": {"lat": 35.75569710410426, "lng": 119.21558036258607}, "feature": {"sight_features": "", "sight_content": ""}}, {"title": "幸福公园", "address": "日照市五莲县幸福路", "image": "", "rank": 3, "time": 1.5, "location": {"lat": 35.75829171222028, "lng": 119.21859086551963}, "feature": {"sight_features": "", "sight_content": ""}}, {"title": "九仙山峡谷漂流", "address": "日照市五莲县松柏镇驻地九仙山南麓", "image": "", "rank": 4, "time": 2, "location": {"lat": 35.690149991787884, "lng": 119.36864712456894}, "feature": {"sight_features": "", "sight_content": ""}}, {"title": "长青公园", "address": "日照事五莲县文化路", "image": "", "rank": 5, "time": 3.0, "location": {"lat": 35.760066887684864, "lng": 119.21394906672913}, "feature": {"sight_features": "", "sight_content": ""}}, {"title": "五莲山-九仙山索道", "address": "日照市五莲县五莲山风景区胡林村", "image": "", "rank": 6, "time": 2, "location": {"lat": 35.69739892828994, "lng": 119.40451211398707}, "feature": {"sight_features": "特色1 国内技术最成熟的单线循环索道", "sight_content": "光明索道将隔壑并峙的五莲山、九仙山连为一体，为游客快捷登山、空中观景提供了方便。乘索道跨越流云峡、槲林峪，沿途可近观远瞰观澜亭、大悲峰、楞伽峰、西峰挂月、系马流云、观音送子、十八盘、情侣峰、山盟阁等胜景。\n\n\n转瞬间自五莲山飞临九仙山，可谓信步登天，悠然神游两山，真正感受逍遥于峰林松涛之上的意境，尽享穿云破雾的无穷魅力。乘坐索道可春享山花烂漫，夏观云海松涛，秋揽层林尽染，冬赏雾凇琼雪，既无攀登之苦，又增游览之兴，是登山观光的最佳选择。"}}, {"title": "黑虎山狩猎场", "address": "日照市五莲县石场乡加油站南1.5公里", "image": "", "rank": 7, "time": 2, "location": {"lat": 35.54763322569267, "lng": 119.15582867328438}, "feature": {"sight_features": "", "sight_content": ""}}, {"title": "五蔬园风景区", "address": "日照市五莲县叩官镇五莲山游客服务中心东临", "image": "", "rank": 8, "time": 2, "location": {"lat": 35.69452577940752, "lng": 119.40558070678104}, "feature": {"sight_features": "", "sight_content": ""}}, {"title": "双龙峡风景区", "address": "日照五莲县户部乡上沟村龙潭湖水库大坝处", "image": "", "rank": 9, "time": 2, "location": {"lat": 35.71555379135054, "lng": 119.36369741809028}, "feature": {"sight_features": "特色1 山水相依，地理位置优越，是旅游观光、休闲度假的理想场所。", "sight_content": "双龙峡景区上连龙潭大峡谷，下接潮白河，山水相依，地理位置优越，是旅游观光、休闲度假的理想场所。龙潭湖景区旅游综合开发项目以优美的山水生态环境为主题背景，以观光、休闲、体验为主体功能，打造集山水观光、康体运动、乡村度假等功能为一体的生态旅游休闲度假区，使之成为都市人群养身养心的一条精神幽谷。\n该景区景观规划由青岛市水利勘测设计研究院编制。规划提炼山水文化和龙文化主题元素，设置丰富的水上游乐项目，打造水陆两条游览线路，其中水路设置上下游艇码头，游客乘坐游艇游览；陆路围绕水系建设栈道，串联沿途景点。规划旅游服务用房1000平方米，商业服务中心600平方米，生态客栈2000平方米，码头管理房300平方米。该项目计划分两期实施，一期主要以游艇码头和栈道为主，二期主要建设生态客栈等配套服务设施。"}}, {"title": "青岛好汉谷农业开发有限公司", "address": "五莲山度假区", "image": "", "rank": 10, "time": 0.75, "location": {"lat": 35.505855461701884, "lng": 119.39643083455145}, "feature": {"sight_features": "", "sight_content": ""}}, {"title": "文慧农家乐", "address": "莲山人家4-7", "image": "", "rank": 11, "time": 2, "location": {"lat": 35.68873600290793, "lng": 119.43373967670392}, "feature": {"sight_features": "", "sight_content": ""}}, {"title": "多乐福农家小吃", "address": "莲山人家3-14", "image": "", "rank": 12, "time": 2, "location": {"lat": 35.68817293575709, "lng": 119.43282500047432}, "feature": {"sight_features": "", "sight_content": ""}}, {"title": "五莲县在水一方农业科技有限公司", "address": "却坡水库东100米", "image": "", "rank": 13, "time": 2, "location": {"lat": 35.73409064808116, "lng": 119.23039515327693}, "feature": {"sight_features": "", "sight_content": ""}}, {"title": "五莲县绿菲源林果家庭农场", "address": "叩官镇黑石子村", "image": "", "rank": 14, "time": 2, "location": {"lat": 35.73809930954034, "lng": 119.46392715611245}, "feature": {"sight_features": "", "sight_content": ""}}, {"title": "日照九仙山", "address": "山东省五莲县文化路东首 262300", "image": "", "rank": 15, "time": 1.5, "location": {"lat": 35.69739892828994, "lng": 119.40451211398707}, "feature": {"sight_features": "", "sight_content": ""}}, {"title": "九仙山奇石根艺馆", "address": "山东省五莲县五莲飞天宾馆南130米", "image": "", "rank": 16, "time": 2, "location": {"lat": 35.68688915704218, "lng": 119.3806502881831}, "feature": {"sight_features": "", "sight_content": ""}}, {"title": "西班牙广场", "address": "洪凝街道解放路117号", "image": "", "rank": 17, "time": 1.0, "location": {"lat": 35.77921418073695, "lng": 119.20253606827568}, "feature": {"sight_features": "", "sight_content": ""}}, {"title": "观音阁", "address": "日照市五莲县松柏镇驻地九仙山风景区内", "image": "", "rank": 18, "time": 1.0, "location": {"lat": 35.69607998927599, "lng": 119.34562103190633}, "feature": {"sight_features": "", "sight_content": ""}}, {"title": "地震遗迹", "address": "日照市五莲县松柏镇驻地九仙山风景区老母阁景区内", "image": "", "rank": 19, "time": 2, "location": {"lat": 35.69607998927599, "lng": 119.34562103190633}, "feature": {"sight_features": "", "sight_content": ""}}, {"title": "孙膑书院景区", "address": "日照市五莲县松柏镇驻地九仙山风景区孙膑书院景区内", "image": "", "rank": 20, "time": 2, "location": {"lat": 35.696270442707004, "lng": 119.36489939937114}, "feature": {"sight_features": "", "sight_content": ""}}, {"title": "地藏殿", "address": "日照市五莲县东20公里五莲山风景区光明寺内", "image": "", "rank": 21, "time": 2.5, "location": {"lat": 35.69739892828994, "lng": 119.40451211398707}, "feature": {"sight_features": "", "sight_content": ""}}, {"title": "公路文化园", "address": "日照市五莲县", "image": "", "rank": 22, "time": 2, "location": {"lat": 35.75569710410426, "lng": 119.21558036258607}, "feature": {"sight_features": "", "sight_content": ""}}, {"title": "度假村 尚客优", "address": "山东省日照市五莲县金沙西路", "image": "", "rank": 23, "time": 2, "location": {"lat": 35.765274860319366, "lng": 119.20670240923097}, "feature": {"sight_features": "", "sight_content": ""}}, {"title": "五莲县博物馆", "address": "长青路", "image": "", "rank": 24, "time": 2, "location": {"lat": 35.614771776091956, "lng": 112.73773633709179}, "feature": {"sight_features": "", "sight_content": ""}}, {"title": "弘丰育才水韵水上乐园", "address": "解放路与育才路交汇处向西100米(弘丰育才水韵小区北门)", "image": "", "rank": 25, "time": 2, "location": {"lat": 35.744629155046496, "lng": 119.21509958857882}, "feature": {"sight_features": "", "sight_content": ""}}, {"title": "五莲县百果谷游乐园", "address": "334省道南凤凰山百果谷生态旅游区内", "image": "", "rank": 26, "time": 2, "location": {"lat": 29.831361157892797, "lng": 106.44278612439919}, "feature": {"sight_features": "", "sight_content": ""}}, {"title": "锦红水饺农家乐", "address": "沿河路附近", "image": "", "rank": 27, "time": 2, "location": {"lat": 40.64228347726066, "lng": 122.5173173722121}, "feature": {"sight_features": "", "sight_content": ""}}, {"title": "世丰农业", "address": "五莲山风景区", "image": "", "rank": 28, "time": 2, "location": {"lat": 35.69739892828994, "lng": 119.40451211398707}, "feature": {"sight_features": "", "sight_content": ""}}, {"title": "大槐树生态度假庄园", "address": "大槐村", "image": "", "rank": 29, "time": 2, "location": {"lat": 22.104503796227725, "lng": 112.2376199996448}, "feature": {"sight_features": "", "sight_content": ""}}, {"title": "樱桃采摘", "address": "户部乡黄崖川村", "image": "", "rank": 30, "time": 2, "location": {"lat": 35.721012402051194, "lng": 119.37364238681491}, "feature": {"sight_features": "", "sight_content": ""}}, {"title": "九赛马", "address": "解放路与建设路交汇处", "image": "", "rank": 31, "time": 2, "location": {"lat": 43.85141036621345, "lng": 126.57824233938555}, "feature": {"sight_features": "", "sight_content": ""}}, {"title": "五莲县九仙百果家庭农场", "address": "叩官镇下院村", "image": "", "rank": 32, "time": 2, "location": {"lat": 35.66788429863346, "lng": 119.37700470840653}, "feature": {"sight_features": "", "sight_content": ""}}, {"title": "九仙山樱桃采摘园", "address": "松柏镇九仙山景区内靴石村", "image": "", "rank": 33, "time": 2, "location": {"lat": 35.69565098723593, "lng": 119.35527583178171}, "feature": {"sight_features": "", "sight_content": ""}}, {"title": "狐笼貂笼", "address": "日照市-五莲县-龙城路", "image": "", "rank": 34, "time": 2, "location": {"lat": 35.877188821958896, "lng": 119.33542150406122}, "feature": {"sight_features": "", "sight_content": ""}}, {"title": "黑虎山冰雪世界", "address": "日照市五莲县岳疃村南边", "image": "", "rank": 35, "time": 2, "location": {"lat": 35.65510098734849, "lng": 119.16016719425336}, "feature": {"sight_features": "", "sight_content": ""}}]}