{"cityName": "乌鲁木齐县", "days": 2, "cityImage": "", "spots": [{"title": "乌鲁木齐天山大峡谷", "address": "乌鲁木齐市乌鲁木齐县板房沟乡灯草沟村阑旅基地天山大峡谷游客服务中心", "image": "", "rank": 1, "time": 2.5, "location": {"lat": 43.43564550511026, "lng": 87.38342573483054}, "feature": {"sight_features": "特色1 百里黄金旅游走廊，休闲度假户外天堂 特色2 景区三面环山，平均海拔约2020米，年平均气温约4-6℃ 特色3 景区囊括了除沙漠以外的新疆所有自然景观。", "sight_content": "乌鲁木齐天山大峡谷景区距乌鲁木齐市42公里，平均海拔2020米，总面积1038平方公里。景区深居干旱内陆山地区域，地处天山山脉中段天格尔峰北麓，准噶尔盆地南缘，地形上高山和山间盆地兼有，山势雄耸，起伏多变。地形总体呈南高北低之势，由南向北依次由暖温带、中温带、寒温带和寒带组成鲜明的气候带谱，形成天山山脉最具代表性的地貌特征和生态系统之一。\n景区内旅游资源丰富，有神秘的原始森林、碧绿的山谷草原、壮观的雪峰冰川、秀美的湖光山色、幽深的山间峡谷、奔腾的谷底溪流，囊括了除沙漠以外的新疆所有自然景观。\n景区分别由天山坝休闲区、照壁山度假游乐区、加斯达坂观光区、天鹅湖自然风景区、牛牦湖林海松涛观光区、哈萨克民族风情园区、高山草原生态区、雪山冰川观光区8个景观带组成。独特的地质地貌、植被类型、生态系统、生物多样性和自然景观，为野生动植物提供了多样的栖息和生存环境。这里溪流纵横、森林茂密、水草丰美、牛羊成群，蓝天、白云、峻岭、雪山、草场、牛群，以及星星点点的毡房，形成了天山大峡谷景区独特而最具代表性的景观带之一。"}}, {"title": "丝绸之路国际度假区", "address": "乌鲁木齐市乌鲁木齐县水西沟镇丝绸之路国际度假区", "image": "", "rank": 2, "time": 2, "location": {"lat": 43.47276929891259, "lng": 87.48405818015858}, "feature": {"sight_features": "", "sight_content": "丝绸之路国际度假区位于乌鲁木齐市乌鲁木齐县南侧，距离乌璐木齐市中心车程约50公里，景区内风光优美，娱乐活动众多，还有舒适的度假酒店和木屋可以居住，是全家放松度假的好去处。丝绸之路度假区的风光四季都很优美，这里背靠山岭，山脚下又有平坦宽阔的草原，夏天时草原上野花遍布，湖泊里还常有天鹅等飞鸟嬉戏，是景色最美的时节。冬天时白雪覆盖，一片洁白的雪景，也可以拍出美丽的照片。在春夏秋三季，度假区内会举办多种夏令营等活动，这里有一些儿童游艺项目，可以带小朋友前来游玩，全家在草原上野餐娱乐也非常惬意。冬季时是来此娱乐的好时节，这里开设的丝绸之路滑雪场是乌鲁木齐市最著名的滑雪场之一，也是2016年全国冬运会的计划举办地，场内设施完备，滑雪体验非常好。来到度假区游玩，多会在这里住宿一晚，度假区内有接待的酒店，还有特色的欧式小木屋可以居住，标间的价格一般在380元左右。"}}, {"title": "白云滑雪场", "address": "乌鲁木齐市乌鲁木齐县水西沟镇东湾村老虎沟", "image": "", "rank": 3, "time": 2, "location": {"lat": 43.47707623266481, "lng": 87.51153446349558}, "feature": {"sight_features": "", "sight_content": ""}}, {"title": "丝绸之路国际滑雪场", "address": "乌鲁木齐市乌鲁木齐县水西沟镇平西梁村二队丝绸之路国际度假区内", "image": "", "rank": 4, "time": 2, "location": {"lat": 43.44936021889452, "lng": 87.42807333469085}, "feature": {"sight_features": "特色1 冬暖夏凉，阳光明媚，滑雪其中，乐趣无穷。", "sight_content": "‍‍丝绸之路国际滑雪场坐落于天山山脉，‍‍距‍‍乌鲁木齐城南38公里处的国家森林公园南山水西沟镇平西梁景区，全程一级公路交通十分便利。滑雪场地处天山北坡逆温带生态谷地，海拔1800米至2500米，是冬季滑雪度假、夏季消暑旅游的理想选择。‍‍\n‍‍丝绸之路国际滑雪场占地12平方公里，是目前国内三大滑雪场之一，可同时容纳一万人滑雪，建有初、中、‍‍高级雪道8条，‍‍并拥有西北地区唯一直达原始森林的专用滑雪及观光缆车3条。配有2条舒适魔毯的儿童和成人滑雪教学区，1100米的四人滑雪观光缆车直达2280米的山顶。同时建有6000平米生态酒店、雪地飞碟欢乐园、单板公园、动力三角翼会员飞行体验基地，国际标准高山滑冰场、滑雪综合服务接待大厅、国际品牌雪具专卖店、1200平米的休闲木平台阳光食街等滑雪配套服务设施。"}}, {"title": "南山阳光sport滑雪场", "address": "乌鲁木齐市乌鲁木齐县水西沟镇羊圈沟风景区", "image": "", "rank": 5, "time": 2, "location": {"lat": 43.436318544552186, "lng": 87.48120553600315}, "feature": {"sight_features": "", "sight_content": ""}}, {"title": "苏拉夏河谷", "address": "乌鲁木齐市乌鲁木齐县柴窝铺乡白杨沟村", "image": "", "rank": 6, "time": 3.0, "location": {"lat": 43.489145300769245, "lng": 87.30759396215257}, "feature": {"sight_features": "", "sight_content": ""}}, {"title": "五棵松滑雪场", "address": "乌鲁木齐市乌鲁木齐县水西沟镇", "image": "", "rank": 7, "time": 2, "location": {"lat": 43.47276929891259, "lng": 87.48405818015858}, "feature": {"sight_features": "", "sight_content": ""}}, {"title": "板房沟农业科技示范园", "address": "乌鲁木齐市乌鲁木齐县板房沟乡境内", "image": "", "rank": 8, "time": 2.5, "location": {"lat": 43.4842381580438, "lng": 87.42077049348305}, "feature": {"sight_features": "", "sight_content": ""}}, {"title": "法明寺", "address": "乌鲁木齐市乌鲁木齐县板房沟乡板房沟村附近", "image": "", "rank": 9, "time": 0.75, "location": {"lat": 43.46618732765788, "lng": 87.4017506865508}, "feature": {"sight_features": "", "sight_content": ""}}, {"title": "蓝天滑雪场", "address": "乌鲁木齐市乌鲁木齐县水西沟镇羊圈沟", "image": "", "rank": 10, "time": 2, "location": {"lat": 43.436318544552186, "lng": 87.48120553600315}, "feature": {"sight_features": "", "sight_content": ""}}, {"title": "南山南滑雪场", "address": "乌鲁木齐市乌鲁木齐县境内南山牧场西白杨沟景区内", "image": "", "rank": 11, "time": 2, "location": {"lat": 43.50004014477975, "lng": 87.97915322222583}, "feature": {"sight_features": "", "sight_content": ""}}, {"title": "天牧玫瑰园", "address": "乌鲁木齐市乌鲁木齐县水西沟镇境内", "image": "", "rank": 12, "time": 2.5, "location": {"lat": 43.47276929891259, "lng": 87.48405818015858}, "feature": {"sight_features": "", "sight_content": ""}}, {"title": "69号农家乐", "address": "南和路128", "image": "", "rank": 13, "time": 2, "location": {"lat": 22.612951194439663, "lng": 114.15602062731364}, "feature": {"sight_features": "", "sight_content": ""}}, {"title": "南山白杨沟风景区西白杨沟", "address": "新疆维吾尔自治区乌鲁木齐县干沟乡 830063", "image": "", "rank": 14, "time": 2.5, "location": {"lat": 43.47708606579323, "lng": 87.41602874517912}, "feature": {"sight_features": "", "sight_content": ""}}, {"title": "银峰滑雪场", "address": "乌鲁木齐市乌鲁木齐县水西沟镇羊圈沟风景区", "image": "", "rank": 15, "time": null, "location": {"lat": 43.436318544552186, "lng": 87.48120553600315}, "feature": {"sight_features": "", "sight_content": ""}}, {"title": "丝绸之路国际度假区丝路汤泉", "address": "乌鲁木齐市乌鲁木齐县水西沟镇平西梁村二队丝绸之路国际度假区内", "image": "", "rank": 16, "time": 2, "location": {"lat": 43.44936021889452, "lng": 87.42807333469085}, "feature": {"sight_features": "", "sight_content": "丝绸之路国际度假区丝路汤泉位于乌鲁木齐郊水西沟镇平西梁村二队丝绸之路国际度假区内，温泉水无色无味、无肉眼可见物，氟、硅矿物质的含量达到了医疗价值浓度指标，是休闲娱乐养生的良好去处。"}}, {"title": "野味农家乐", "address": "南和路111号", "image": "", "rank": 17, "time": 2, "location": {"lat": 22.60966786806552, "lng": 114.15679577513795}, "feature": {"sight_features": "", "sight_content": ""}}, {"title": "回族花儿蒙古包", "address": "板房沟乡灯草沟景区", "image": "", "rank": 18, "time": 2, "location": {"lat": 33.97148886245186, "lng": 112.60552169028482}, "feature": {"sight_features": "", "sight_content": ""}}, {"title": "绿色家园农家乐", "address": "板房沟617号", "image": "", "rank": 19, "time": 2, "location": {"lat": 48.30963045896775, "lng": 121.54458665351265}, "feature": {"sight_features": "", "sight_content": ""}}, {"title": "风情农家乐", "address": "南和路142号(天山大道水西沟镇方家庄二队41号)", "image": "", "rank": 20, "time": 2, "location": {"lat": 43.494312198636635, "lng": 87.51001713170612}, "feature": {"sight_features": "", "sight_content": ""}}, {"title": "马继民农家乐", "address": "平西梁四巷9号", "image": "", "rank": 21, "time": 2, "location": {"lat": 43.465546811655656, "lng": 87.4597233227078}, "feature": {"sight_features": "", "sight_content": ""}}, {"title": "别列克哈萨克特色农家乐", "address": "南和路附近", "image": "", "rank": 22, "time": 2, "location": {"lat": 22.61257918398973, "lng": 114.15557939312187}, "feature": {"sight_features": "", "sight_content": ""}}, {"title": "云尚康养别院", "address": "水西沟镇大庙村", "image": "", "rank": 23, "time": 2, "location": {"lat": 43.46224095053673, "lng": 87.49816689903555}, "feature": {"sight_features": "", "sight_content": ""}}, {"title": "南山古烽火台", "address": "新疆维吾尔自治区乌鲁木齐市南庄大道On the way to Urumqi Tianshan Gorge", "image": "", "rank": 24, "time": 2, "location": {"lat": 43.544219107592305, "lng": 87.45991024701408}, "feature": {"sight_features": "", "sight_content": ""}}, {"title": "田园山庄度假村", "address": "乌鲁木齐县其他南山甘沟乡小渠子旅游区西北2千米", "image": "", "rank": 25, "time": 2, "location": {"lat": 43.52207193428149, "lng": 87.11125161986396}, "feature": {"sight_features": "", "sight_content": ""}}, {"title": "七星度假村", "address": "乌鲁木齐近郊板房沟乡附近", "image": "", "rank": 26, "time": 2, "location": {"lat": 43.4842381580438, "lng": 87.42077049348305}, "feature": {"sight_features": "", "sight_content": ""}}, {"title": "天野渡假村", "address": "板家沟附近", "image": "", "rank": 27, "time": 2, "location": {"lat": 31.533713099714635, "lng": 106.17760537364522}, "feature": {"sight_features": "", "sight_content": ""}}, {"title": "马家大院", "address": "水西沟镇南大路与大庙路交叉口东北150米", "image": "", "rank": 28, "time": 2, "location": {"lat": 43.46136506096178, "lng": 87.46439626947831}, "feature": {"sight_features": "", "sight_content": ""}}, {"title": "南山白杨沟风景区菊花台", "address": "新疆维吾尔自治区乌鲁木齐县干沟乡 830063", "image": "", "rank": 29, "time": 2, "location": {"lat": 43.47708606579323, "lng": 87.41602874517912}, "feature": {"sight_features": "", "sight_content": ""}}, {"title": "阳光SPORT滑学场", "address": "新疆维吾尔自治区乌鲁木齐县水西沟镇 830063", "image": "", "rank": 30, "time": 2, "location": {"lat": 43.46768426681471, "lng": 87.47489873504648}, "feature": {"sight_features": "", "sight_content": ""}}, {"title": "银峰滑雪基地", "address": "新疆维吾尔自治区乌鲁木齐县水西沟镇东湾村 830063", "image": "", "rank": 31, "time": 2, "location": {"lat": 43.47707623266481, "lng": 87.51153446349558}, "feature": {"sight_features": "", "sight_content": ""}}, {"title": "壁照山", "address": "新疆维吾尔自治区乌鲁木齐市天山区南郊 830002", "image": "", "rank": 32, "time": 2, "location": {"lat": 43.80027135831345, "lng": 87.63840777756565}, "feature": {"sight_features": "", "sight_content": ""}}, {"title": "天山乌鲁木齐河源1号冰川", "address": "新疆维吾尔自治区乌鲁木齐市天山区天格尔山 830002", "image": "", "rank": 33, "time": 2, "location": {"lat": 43.80027135831345, "lng": 87.63840777756565}, "feature": {"sight_features": "", "sight_content": ""}}, {"title": "前峡", "address": "新疆维吾尔自治区乌鲁木齐市天山区境内 830002", "image": "", "rank": 34, "time": 2, "location": {"lat": 43.80027135831345, "lng": 87.63840777756565}, "feature": {"sight_features": "", "sight_content": ""}}, {"title": "余纯顺墓地", "address": "新疆维吾尔自治区乌鲁木齐市天山区境内 830002", "image": "", "rank": 35, "time": 2, "location": {"lat": 43.80027135831345, "lng": 87.63840777756565}, "feature": {"sight_features": "", "sight_content": ""}}, {"title": "客运青秀山庄", "address": "新疆维吾尔自治区乌鲁木齐市乌鲁木齐县", "image": "", "rank": 36, "time": 2, "location": {"lat": 43.47708606579323, "lng": 87.41602874517912}, "feature": {"sight_features": "", "sight_content": ""}}, {"title": "新疆迪士尼冰雪游园会", "address": "平西梁村", "image": "", "rank": 37, "time": 2, "location": {"lat": 43.454846828637294, "lng": 87.42292610960514}, "feature": {"sight_features": "", "sight_content": ""}}, {"title": "甘菊避暑山庄", "address": "甘沟乡附近", "image": "", "rank": 38, "time": 2, "location": {"lat": 35.413371805451746, "lng": 105.60008640158627}, "feature": {"sight_features": "", "sight_content": ""}}, {"title": "银都度假村", "address": "乌鲁木齐市乌鲁木齐县南溪南路138号", "image": "", "rank": 39, "time": 2, "location": {"lat": 43.46983295993889, "lng": 87.479295424082}, "feature": {"sight_features": "", "sight_content": ""}}, {"title": "天门", "address": "乌鲁木齐市乌鲁木齐县板房沟乡灯草沟村乌鲁木齐天山大峡谷景区内", "image": "", "rank": 40, "time": 0.5, "location": {"lat": 43.437224424796206, "lng": 87.38190526292433}, "feature": {"sight_features": "", "sight_content": ""}}, {"title": "乔亚草场", "address": "乌鲁木齐市乌鲁木齐县板房沟乡灯草沟村乌鲁木齐天山大峡谷景区内", "image": "", "rank": 41, "time": 0.3, "location": {"lat": 43.437224424796206, "lng": 87.38190526292433}, "feature": {"sight_features": "", "sight_content": ""}}, {"title": "碧龙湾", "address": "乌鲁木齐市乌鲁木齐县板房沟乡灯草沟村乌鲁木齐天山大峡谷景区内", "image": "", "rank": 42, "time": 0.3, "location": {"lat": 43.437224424796206, "lng": 87.38190526292433}, "feature": {"sight_features": "", "sight_content": ""}}, {"title": "加斯达坂观光区", "address": "乌鲁木齐市乌鲁木齐县板房沟乡灯草沟村乌鲁木齐天山大峡谷景区内", "image": "", "rank": 43, "time": null, "location": {"lat": 43.437224424796206, "lng": 87.38190526292433}, "feature": {"sight_features": "", "sight_content": ""}}, {"title": "天山坝", "address": "乌鲁木齐市乌鲁木齐县板房沟乡灯草沟村乌鲁木齐天山大峡谷景区内", "image": "", "rank": 44, "time": 0.3, "location": {"lat": 43.437224424796206, "lng": 87.38190526292433}, "feature": {"sight_features": "", "sight_content": ""}}, {"title": "乌鲁木齐县图书馆", "address": "南华路71号", "image": "", "rank": 45, "time": 1.5, "location": {"lat": 22.93094119611395, "lng": 113.3725692064377}, "feature": {"sight_features": "", "sight_content": ""}}, {"title": "天山国际滑雪场", "address": "南山风景区", "image": "", "rank": 46, "time": 2, "location": {"lat": 46.80155547764821, "lng": 134.03701859350758}, "feature": {"sight_features": "", "sight_content": ""}}, {"title": "休闲农家乐", "address": "南滩路附近", "image": "", "rank": 47, "time": 2, "location": {"lat": 43.49541699162429, "lng": 87.46748646953773}, "feature": {"sight_features": "", "sight_content": ""}}, {"title": "暴风雪滑雪用品店", "address": "丝绸之路滑雪场3-4号商铺", "image": "", "rank": 48, "time": 2, "location": {"lat": 43.45195693512131, "lng": 87.42316793838911}, "feature": {"sight_features": "", "sight_content": ""}}, {"title": "阳光滑雪场", "address": "新疆维吾尔自治区乌鲁木齐县水西沟镇羊圈沟风景", "image": "", "rank": 49, "time": 2, "location": {"lat": 43.436318544552186, "lng": 87.48120553600315}, "feature": {"sight_features": "", "sight_content": ""}}, {"title": "逸景滑雪别墅营地", "address": "乌鲁木齐市-乌鲁木齐县-乌鲁木齐乌鲁木齐县丝绸之路滑雪场", "image": "", "rank": 50, "time": null, "location": {"lat": 43.45195693512131, "lng": 87.42316793838911}, "feature": {"sight_features": "", "sight_content": ""}}, {"title": "后峡", "address": "新疆维吾尔自治区乌鲁木齐市乌鲁木齐县后峡", "image": "", "rank": 51, "time": 1.0, "location": {"lat": 43.273427522235444, "lng": 87.17698668735055}, "feature": {"sight_features": "", "sight_content": ""}}, {"title": "天鹅湖", "address": "乌鲁木齐市乌鲁木齐县板房沟乡灯草沟村乌鲁木齐天山大峡谷景区内", "image": "", "rank": 52, "time": 3.5, "location": {"lat": 43.437224424796206, "lng": 87.38190526292433}, "feature": {"sight_features": "", "sight_content": ""}}]}