{"cityName": "武平", "days": 2, "cityImage": "", "spots": [{"title": "梁野山", "address": "龙岩市武平县城厢镇梁野山景区", "image": "", "rank": 1, "time": 3.5, "location": {"lat": 25.16796286140987, "lng": 116.1614293668697}, "feature": {"sight_features": "特色1 被誉为\"野生动物避难所\"。 特色2 自古以来就是武平的象征，被誉为梁野仙山。", "sight_content": "神奇的梁野山沉淀了岁月给予大自然的恩惠，也酿就了这华南第一瀑的美誉，全长6.04公里的木栈道贯 穿了大大小小30几条瀑布。\n有横、斜、陡峭等多种类型，大大小小的瀑布迭起，激起无数透明的浪花，跌宕在山涧险溪；\n在阳光的照射下，闪闪发光，耀眼夺目；跌落的瀑水，或像无数的碎玉落下，或像白纱帐覆在山石之上，与周边峡谷、险峰、绝壁、深潭、溪流、怪石、密林等多种景观相呼应，气象万千。\n景点主要有\"神牛瀑\"、“草鞋陂”、“通天瀑”、“仙姑潭”、“飞鱼瀑”、“披云瀑”、“飞云瀑”、“金龟瀑”等十余条姿态各异的瀑布，绵延近10里，穷尽人间飞瀑之美，是中国东南最美的瀑布群\n其中“通天瀑”瀑高约百米，宽八十多米，下瀑布群中此瀑最壮观，瀑声震耳，水雾弥漫，气势恢宏，举目仰望，疑是天上来水，唯见飞流直下三千尺，顿觉两翼生风登九天。被誉为华南地区最美的瀑布。\n梁野山已陆续被评为“国家级自然保护区”、“国家AAAA级景区”、“国家水利风景区”、“中国天然 氧吧”。"}}, {"title": "园丁自助农家乐", "address": "城厢镇030乡道园丁村村部旁边芳銘内", "image": "", "rank": 2, "time": 2, "location": {"lat": 25.11673561056775, "lng": 116.12690599045398}, "feature": {"sight_features": "", "sight_content": ""}}, {"title": "梁野山自然保护区", "address": "武平县境内", "image": "", "rank": 3, "time": 2, "location": {"lat": 25.100855173343017, "lng": 116.10758916743498}, "feature": {"sight_features": "", "sight_content": ""}}, {"title": "太平山", "address": "龙岩市武平县", "image": "", "rank": 4, "time": 4.0, "location": {"lat": 25.100855173343017, "lng": 116.10758916743498}, "feature": {"sight_features": "", "sight_content": ""}}, {"title": "坤云温泉", "address": "205省道", "image": "", "rank": 5, "time": 2, "location": {"lat": 40.38230240600069, "lng": 116.84666042934258}, "feature": {"sight_features": "", "sight_content": ""}}, {"title": "葡萄园(客都汇斜对面)", "address": "205省道", "image": "", "rank": 6, "time": 2, "location": {"lat": 40.38230240600069, "lng": 116.84666042934258}, "feature": {"sight_features": "", "sight_content": ""}}, {"title": "中山镇太平村光华图书室", "address": "205省道", "image": "", "rank": 7, "time": 2, "location": {"lat": 40.38230240600069, "lng": 116.84666042934258}, "feature": {"sight_features": "", "sight_content": ""}}, {"title": "武平县影剧院", "address": "政府路47号附近", "image": "", "rank": 8, "time": 2, "location": {"lat": 41.51602183415114, "lng": 122.74709437267691}, "feature": {"sight_features": "", "sight_content": ""}}, {"title": "武平十方老牛休闲山庄", "address": "十方高速出入口往武平方向500米西瓜小桥旁", "image": "", "rank": 9, "time": 3.5, "location": {"lat": 25.100855173343017, "lng": 116.10758916743498}, "feature": {"sight_features": "", "sight_content": ""}}, {"title": "万欣农业葡萄园", "address": "309省道", "image": "", "rank": 10, "time": 2, "location": {"lat": 40.709016096764906, "lng": 116.52743651721413}, "feature": {"sight_features": "", "sight_content": ""}}, {"title": "武平儿童乐园", "address": "福建省龙岩市武平县南环路", "image": "", "rank": 11, "time": 3.5, "location": {"lat": 25.079385893682314, "lng": 116.1009158408545}, "feature": {"sight_features": "", "sight_content": ""}}, {"title": "林氏祠堂", "address": "林业公路", "image": "", "rank": 12, "time": 2, "location": {"lat": 26.513764875485574, "lng": 117.37580934023664}, "feature": {"sight_features": "", "sight_content": ""}}, {"title": "武平下坝乡狮子山", "address": "福建省武平县下坝乡 364309", "image": "", "rank": 13, "time": 3.5, "location": {"lat": 24.905389676750413, "lng": 116.07675736134179}, "feature": {"sight_features": "", "sight_content": ""}}, {"title": "资福寺", "address": "中堡镇", "image": "", "rank": 14, "time": 2, "location": {"lat": 39.52643076674766, "lng": 118.90104816718704}, "feature": {"sight_features": "", "sight_content": ""}}, {"title": "绵洋寺观音阁", "address": "枫停路40号", "image": "", "rank": 15, "time": 2, "location": {"lat": 25.089331535389174, "lng": 116.10950103105124}, "feature": {"sight_features": "", "sight_content": ""}}, {"title": "文博园", "address": "育才路北200米", "image": "", "rank": 16, "time": 2, "location": {"lat": 38.94744202403063, "lng": 116.91527113302432}, "feature": {"sight_features": "", "sight_content": ""}}, {"title": "武平县图书馆", "address": "政府路05号", "image": "", "rank": 17, "time": 2, "location": {"lat": 41.302214928173285, "lng": 124.13034450858669}, "feature": {"sight_features": "", "sight_content": ""}}, {"title": "武东演出站", "address": "武东中学附近X646", "image": "", "rank": 18, "time": 2, "location": {"lat": 30.58763477555925, "lng": 114.47454109119474}, "feature": {"sight_features": "", "sight_content": ""}}, {"title": "武平县白水寨瀑居", "address": "龙岩市-武平县", "image": "", "rank": 19, "time": 2, "location": {"lat": 25.100855173343017, "lng": 116.10758916743498}, "feature": {"sight_features": "", "sight_content": ""}}]}