{"cityName": "吴起", "days": 2, "cityImage": "", "spots": [{"title": "吴起镇革命旧址", "address": "延安市吴起县吴起镇", "image": "", "rank": 1, "time": 2, "location": {"lat": 36.912013879802224, "lng": 108.20504672195436}, "feature": {"sight_features": "", "sight_content": ""}}, {"title": "中央红军长征胜利纪念园", "address": "和平路", "image": "", "rank": 2, "time": 2, "location": {"lat": 39.14914859962243, "lng": 117.01253630655839}, "feature": {"sight_features": "", "sight_content": ""}}, {"title": "黄土情农家乐", "address": "迎宾街北150米", "image": "", "rank": 3, "time": 2, "location": {"lat": 40.14257784701298, "lng": 116.60761854839038}, "feature": {"sight_features": "", "sight_content": ""}}, {"title": "柴沟休闲山庄", "address": "三零三省道旁", "image": "", "rank": 4, "time": 2, "location": {"lat": 29.755923844716406, "lng": 121.1177942747562}, "feature": {"sight_features": "", "sight_content": ""}}, {"title": "城外城特色农家乐", "address": "迎宾街与303省道交叉口东150米", "image": "", "rank": 5, "time": 2, "location": {"lat": 38.25466494631471, "lng": 114.66726867564682}, "feature": {"sight_features": "", "sight_content": ""}}, {"title": "砚洼山", "address": "陕西省吴起县吴旗镇 717600", "image": "", "rank": 6, "time": 2, "location": {"lat": 36.93003338888289, "lng": 108.18593953468924}, "feature": {"sight_features": "", "sight_content": ""}}, {"title": "长征广场", "address": "拥军巷与长征街交叉口西北50米", "image": "", "rank": 7, "time": 2, "location": {"lat": 36.932456022391605, "lng": 108.18217058343053}, "feature": {"sight_features": "", "sight_content": ""}}, {"title": "鲸鱼王子儿童乐园(吴起店)", "address": "陕西省延安市吴起县S303(迎宾街)", "image": "", "rank": 8, "time": 2, "location": {"lat": 36.91937195899538, "lng": 108.20644354839524}, "feature": {"sight_features": "", "sight_content": ""}}, {"title": "儿童乐园", "address": "延安市吴起县旭胜大厦4楼", "image": "", "rank": 9, "time": 2, "location": {"lat": 36.91518349279362, "lng": 108.2043670451411}, "feature": {"sight_features": "", "sight_content": ""}}, {"title": "场尚昆旧居", "address": "旧居路附近", "image": "", "rank": 10, "time": 2, "location": {"lat": 36.932711634222265, "lng": 108.18421112032868}, "feature": {"sight_features": "", "sight_content": ""}}, {"title": "叶剑英旧居", "address": "拥军巷与长征街交叉口东北200米", "image": "", "rank": 11, "time": 2, "location": {"lat": 36.932456022391605, "lng": 108.18441634720548}, "feature": {"sight_features": "", "sight_content": ""}}, {"title": "周湾广场", "address": "延安市吴起县", "image": "", "rank": 12, "time": 2, "location": {"lat": 36.93257609948267, "lng": 108.18258966361198}, "feature": {"sight_features": "", "sight_content": ""}}, {"title": "吴起县退耕还林森林公园", "address": "中街大吉沟", "image": "", "rank": 13, "time": 2, "location": {"lat": 36.93113040623826, "lng": 108.18386768286102}, "feature": {"sight_features": "", "sight_content": ""}}, {"title": "吴起革命纪念馆", "address": "拥军巷与长征街交叉口东北150米", "image": "", "rank": 14, "time": 1.5, "location": {"lat": 36.932456022391605, "lng": 108.18396719445049}, "feature": {"sight_features": "", "sight_content": ""}}, {"title": "吴起县图书馆", "address": "长征街151", "image": "", "rank": 15, "time": 2, "location": {"lat": 36.933118865054524, "lng": 108.1818686584571}, "feature": {"sight_features": "", "sight_content": ""}}]}