{"cityName": "武胜", "days": 2, "cityImage": "", "spots": [{"title": "宝箴塞", "address": "广安市武胜县农林乡方家沟村", "image": "", "rank": 1, "time": 3.5, "location": {"lat": 30.36152931440121, "lng": 106.08003919949408}, "feature": {"sight_features": "特色1 被誉为“全国罕有，蜀中一绝”", "sight_content": "宝箴塞始建于清宣统三年（公元1911年）秋，占地26000多平方米，系当地豪门段氏家族为避战乱而修建的集军事防御、生活起居于一体的全封闭式川东民居建筑群。依山而建，闽南团城建筑风格，有江南民居特色。宝箴塞至今已有93年历史，前后分二期工程修建，先建正塞，然后建尾塞，历时40多年。房屋设计精巧，重叠有序，古色古香，独具特色。占地26000多平方米，8个天井，108道门，塞墙高6.5米，宽0.4至1.5米，长560米。\n宝箴塞突出传统的关隘山寨建筑的地形特点，其防御工事借鉴传统的山寨建筑之长，融碉楼、城堡和闽南地区团城建筑风格为一体，形成了全封闭式防御体系，被中国古建筑专家组组长罗哲文誉为“全国罕有，蜀中一绝”。"}}, {"title": "沿口古镇", "address": "广安市武胜县真静街附近", "image": "", "rank": 2, "time": 2.5, "location": {"lat": 30.352345012601624, "lng": 106.29289098060796}, "feature": {"sight_features": "", "sight_content": ""}}, {"title": "白坪飞龙乡村旅游度假区", "address": "广安市武胜县白坪乡白坪村", "image": "", "rank": 3, "time": 2, "location": {"lat": 30.38644648670953, "lng": 106.37147613001133}, "feature": {"sight_features": "", "sight_content": ""}}, {"title": "印山公园", "address": "广安市武胜县沿口镇临江街8号", "image": "", "rank": 4, "time": 7.5, "location": {"lat": 30.353589203131936, "lng": 106.29304483309323}, "feature": {"sight_features": "", "sight_content": ""}}, {"title": "龙女湖旅游度假区", "address": "广安市武胜县滨江路", "image": "", "rank": 5, "time": 2, "location": {"lat": 30.349971356864387, "lng": 106.28689001683509}, "feature": {"sight_features": "", "sight_content": ""}}, {"title": "白坪原生态度假屋", "address": "飞龙镇", "image": "", "rank": 6, "time": 2, "location": {"lat": 30.432360821172182, "lng": 106.40211415814161}, "feature": {"sight_features": "", "sight_content": ""}}, {"title": "大自然草莓采摘园", "address": "万善镇伏虎村大自然草莓采摘园", "image": "", "rank": 7, "time": 2, "location": {"lat": 30.384540048856923, "lng": 106.12488444399372}, "feature": {"sight_features": "", "sight_content": ""}}, {"title": "金鸡岭生态园", "address": "沿口镇", "image": "", "rank": 8, "time": 2, "location": {"lat": 30.355659013430333, "lng": 106.3153564066662}, "feature": {"sight_features": "", "sight_content": ""}}, {"title": "桃园山庄", "address": "304省道附近", "image": "", "rank": 9, "time": 2, "location": {"lat": 38.007414201086036, "lng": 114.44892402313616}, "feature": {"sight_features": "", "sight_content": ""}}, {"title": "滨河公园", "address": "合川区万隆镇滨河路", "image": "", "rank": 10, "time": 2.0, "location": {"lat": 29.978181239534244, "lng": 106.28254108757974}, "feature": {"sight_features": "", "sight_content": ""}}, {"title": "侯家祠堂", "address": "广安市武胜县", "image": "", "rank": 11, "time": 2, "location": {"lat": 30.35549566037789, "lng": 106.3024617431046}, "feature": {"sight_features": "", "sight_content": ""}}, {"title": "卢家祠堂", "address": "广安市武胜县二一二国道", "image": "", "rank": 12, "time": 2, "location": {"lat": 30.40120457242122, "lng": 106.11087105410596}, "feature": {"sight_features": "", "sight_content": ""}}, {"title": "王家祠堂", "address": "广安市武胜县三零四省道", "image": "", "rank": 13, "time": 2, "location": {"lat": 30.35549566037789, "lng": 106.3024617431046}, "feature": {"sight_features": "", "sight_content": ""}}, {"title": "星期天儿童乐园", "address": "弘武大道57号附近", "image": "", "rank": 14, "time": 2, "location": {"lat": 30.348460717055048, "lng": 106.29927738481756}, "feature": {"sight_features": "", "sight_content": ""}}, {"title": "炫彩水族馆", "address": "四川省广安市武胜县清平街121号", "image": "", "rank": 15, "time": 2, "location": {"lat": 30.352983494359812, "lng": 106.29444525754712}, "feature": {"sight_features": "", "sight_content": ""}}, {"title": "童乐园", "address": "人民南路嘉美琪购物附近", "image": "", "rank": 16, "time": 3.5, "location": {"lat": 30.348984047586427, "lng": 106.30120263677976}, "feature": {"sight_features": "", "sight_content": ""}}, {"title": "周家祠堂", "address": "广安市武胜县赛马路", "image": "", "rank": 17, "time": 2, "location": {"lat": 30.35549566037789, "lng": 106.3024617431046}, "feature": {"sight_features": "", "sight_content": ""}}, {"title": "段家祠堂", "address": "广安市武胜县板桥--沙溪", "image": "", "rank": 18, "time": 2, "location": {"lat": 30.43794831288124, "lng": 106.14613975281809}, "feature": {"sight_features": "", "sight_content": ""}}, {"title": "武胜欢乐水上乐园", "address": "沿口镇东环线东方明珠东450米", "image": "", "rank": 19, "time": 2.5, "location": {"lat": 30.355477449919483, "lng": 106.31061412701456}, "feature": {"sight_features": "", "sight_content": ""}}, {"title": "淳风广场", "address": "人民北路与新建街交叉口北50米", "image": "", "rank": 20, "time": 2, "location": {"lat": 30.481588711477276, "lng": 106.0957241706477}, "feature": {"sight_features": "", "sight_content": ""}}, {"title": "雪花啤酒广场(祥和缘店)", "address": "下东街83号附近", "image": "", "rank": 21, "time": 2, "location": {"lat": 31.043395764871345, "lng": 104.68720908357483}, "feature": {"sight_features": "", "sight_content": ""}}, {"title": "图书馆", "address": "长寿巷", "image": "", "rank": 22, "time": 1.0, "location": {"lat": 22.998940753589416, "lng": 113.37870736391758}, "feature": {"sight_features": "", "sight_content": ""}}, {"title": "儿童乐园", "address": "金雁街城市江山小区内", "image": "", "rank": 23, "time": 2, "location": {"lat": 30.195871567001067, "lng": 120.19019567160217}, "feature": {"sight_features": "", "sight_content": ""}}, {"title": "奇奇画廊", "address": "下西街芳香园旁", "image": "", "rank": 24, "time": 2, "location": {"lat": 48.37452067845247, "lng": 134.30320533471783}, "feature": {"sight_features": "", "sight_content": ""}}, {"title": "武胜县飞龙张家院子休闲农庄", "address": "飞龙镇卢山村卢山生态农庄西北侧160米", "image": "", "rank": 25, "time": 2, "location": {"lat": 45.72067912919303, "lng": 118.85140089597445}, "feature": {"sight_features": "", "sight_content": ""}}, {"title": "罗曼蒂克庄园", "address": "卢山村2组", "image": "", "rank": 26, "time": 2, "location": {"lat": 30.318803012306482, "lng": 116.64355831365746}, "feature": {"sight_features": "", "sight_content": ""}}, {"title": "河尔口鱼塘休闲", "address": "河尔口村", "image": "", "rank": 27, "time": 2, "location": {"lat": 30.41627448935572, "lng": 106.38504002309311}, "feature": {"sight_features": "", "sight_content": ""}}, {"title": "龙女湖乐翻天游乐园", "address": "下东街9号", "image": "", "rank": 28, "time": 2, "location": {"lat": 30.35084391925031, "lng": 106.30043930768404}, "feature": {"sight_features": "", "sight_content": ""}}, {"title": "天印山", "address": "四川省武胜县嘉陵江畔", "image": "", "rank": 29, "time": 2, "location": {"lat": 30.35549566037789, "lng": 106.3024617431046}, "feature": {"sight_features": "", "sight_content": ""}}, {"title": "永寿寺", "address": "四川省武胜县华封乡", "image": "", "rank": 30, "time": 2, "location": {"lat": 30.341154412528393, "lng": 106.2330461729571}, "feature": {"sight_features": "", "sight_content": ""}}, {"title": "民族商业广场", "address": "四川省武胜县沿口镇振兴路38号", "image": "", "rank": 31, "time": 2, "location": {"lat": 30.34451941209721, "lng": 106.2931485589333}, "feature": {"sight_features": "", "sight_content": ""}}, {"title": "驴子岩村", "address": "广安市-武胜县", "image": "", "rank": 32, "time": 2, "location": {"lat": 30.35549566037789, "lng": 106.3024617431046}, "feature": {"sight_features": "", "sight_content": ""}}]}