{"cityName": "乌审旗", "days": 2, "cityImage": "", "spots": [{"title": "察罕苏力德生态游牧旅游区", "address": "鄂尔多斯市乌审旗察罕陶海草原，距乌审旗府邸在地16公里", "image": "", "rank": 1, "time": 3.0, "location": {"lat": 38.610026521176685, "lng": 108.82443496913814}, "feature": {"sight_features": "", "sight_content": ""}}, {"title": "萨拉乌苏旅游区", "address": "鄂尔多斯市乌审旗无定河镇巴图湾", "image": "", "rank": 2, "time": 2.5, "location": {"lat": 37.86619808134561, "lng": 108.63268447158926}, "feature": {"sight_features": "特色1 国家AAAA级景区和水利风景区 特色2 中国版科罗拉多大峡谷 特色3 黄河河套文化发源地，景色宜人。", "sight_content": "萨拉乌苏旅游区（巴图湾旅游区）位于乌审旗无定河镇，萨拉乌苏河从西北蜿蜒而来，在这里轻轻一拐，形成了两个连接的湖湾。据说，很早以前这里曾经住过一户名叫巴图的蒙古人，因而得名巴图湾。由于长年累月的河水切割下蚀，萨拉乌苏河槽深邃、宽广、萨拉乌苏河流域人烟密集，阡陌相连，人们养鱼、栽果树、种稻、使这里成为鄂尔多斯的“鱼米之乡”、“花果之乡”。萨拉乌苏旅游区是国家aaa级旅游区。\n巴图湾水库库容达1亿立方米，控制流域面积3421平方公里，是自治区西部最大的水库，集发电、灌溉、防洪、水产养殖和旅游观光于一体。巴图湾水电站是这里一个重要的参观点，高高的石岩上，绿树摇曳，一抹飞瀑直泻而下，喷珠溅玉，煞是壮观；岩脚石缝，数股清泉汩汩而出特别是沿岸有几只石龟，依次排列，缩头蹲伏，当地人称镇沙鳖。巴图湾水面泛舟可延伸20公里，水中有珍贵的野生大华鳖，有大银鱼、鲤鱼、白条鱼等多种鱼类。乘坐“明珠号”画舫可以观赏库区两岸优美的自然风光。巴图湾一带有丰富的人文景观。从巴图湾沿无定河上溯30公里，可到“河套人”发源地大沟湾；从巴图湾东行4公里，有历史遗迹大夏国都城统万城，又名白城子。巴图湾是革命老区，早在上世纪三十年代，乌兰夫、宋任穷、高岗等老一辈革命家就在这里留下了革命的火种，巴图湾游击队的故事，至今还广为流传。"}}, {"title": "乌审召", "address": "鄂尔多斯乌审旗乌审召镇", "image": "", "rank": 3, "time": 2, "location": {"lat": 39.22509375223915, "lng": 109.0227386871281}, "feature": {"sight_features": "", "sight_content": ""}}, {"title": "绿缘采摘园", "address": "乌审街西001号", "image": "", "rank": 4, "time": 2, "location": {"lat": 38.59608345087149, "lng": 108.85579041279446}, "feature": {"sight_features": "", "sight_content": ""}}, {"title": "巴图湾蒙古包旅游度假村", "address": "巴图湾村", "image": "", "rank": 5, "time": 2, "location": {"lat": 40.905427466636745, "lng": 115.12880691756654}, "feature": {"sight_features": "", "sight_content": ""}}, {"title": "河套人(鄂尔多斯人)遗址文物陈列...", "address": "萨拉乌苏旅游区旁", "image": "", "rank": 6, "time": 2, "location": {"lat": 37.98370431734416, "lng": 108.79105663130389}, "feature": {"sight_features": "", "sight_content": ""}}, {"title": "乌审旗天思旅游度假村", "address": "交警大队北7公里路东", "image": "", "rank": 7, "time": 2.5, "location": {"lat": 38.610026521176685, "lng": 108.82443496913814}, "feature": {"sight_features": "", "sight_content": ""}}, {"title": "燕京啤酒广场", "address": "乌审街与达布察克路交叉口西南150米", "image": "", "rank": 8, "time": 2, "location": {"lat": 38.59712066466015, "lng": 108.85210842020406}, "feature": {"sight_features": "", "sight_content": ""}}, {"title": "鸿沁湖公园", "address": "内蒙古自治区鄂尔多斯市乌审旗鸿沁路", "image": "", "rank": 9, "time": 2, "location": {"lat": 38.61945989586851, "lng": 108.83950268313517}, "feature": {"sight_features": "", "sight_content": ""}}, {"title": "小能人儿童创意游乐园", "address": "内蒙古自治区鄂尔多斯市乌审旗嘎鲁图镇萨拉乌苏街沁源购物中心附近", "image": "", "rank": 10, "time": null, "location": {"lat": 38.606503945801975, "lng": 108.85029021212303}, "feature": {"sight_features": "", "sight_content": ""}}, {"title": "廉政文化广场", "address": "乌审街与达布察克路交叉口西100米", "image": "", "rank": 11, "time": 2, "location": {"lat": 38.59817814898171, "lng": 108.85121011469408}, "feature": {"sight_features": "", "sight_content": ""}}, {"title": "河套人(鄂尔多斯人)遗址文物陈列...", "address": "内蒙古自治区乌审旗萨拉乌苏旅游区旁", "image": "", "rank": 12, "time": 2, "location": {"lat": 37.98370431734416, "lng": 108.79105663130389}, "feature": {"sight_features": "", "sight_content": ""}}, {"title": "沙海生态旅游庄园", "address": "内蒙古自治区鄂尔多斯市乌审旗S313(府深线)", "image": "", "rank": 13, "time": 2, "location": {"lat": 38.906861799948075, "lng": 109.20841051478256}, "feature": {"sight_features": "", "sight_content": ""}}, {"title": "鸿沁湖公园中湖", "address": "内蒙古自治区鄂尔多斯市乌审旗嘎鲁图镇府深线金税苑附近", "image": "", "rank": 14, "time": 2, "location": {"lat": 38.61090520917698, "lng": 108.83306823485199}, "feature": {"sight_features": "", "sight_content": ""}}, {"title": "独贵龙广场", "address": "嘎鲁图镇三马路独", "image": "", "rank": 15, "time": 2, "location": {"lat": 38.60543217083822, "lng": 108.85082145832367}, "feature": {"sight_features": "", "sight_content": ""}}, {"title": "大夏匈奴文化博物馆", "address": "内蒙古自治区鄂尔多斯市乌审旗无定河镇鄂尔多斯市巴图湾旅游区", "image": "", "rank": 16, "time": 2, "location": {"lat": 37.98490523574997, "lng": 108.7912461737665}, "feature": {"sight_features": "", "sight_content": ""}}, {"title": "中国苏力德文化博物馆", "address": "内蒙古自治区鄂尔多斯市乌审旗", "image": "", "rank": 17, "time": 2, "location": {"lat": 38.610026521176685, "lng": 108.82443496913814}, "feature": {"sight_features": "", "sight_content": ""}}, {"title": "博源生态公园", "address": "乌审召镇工业园", "image": "", "rank": 18, "time": 2, "location": {"lat": 39.277575493272366, "lng": 108.95708473896465}, "feature": {"sight_features": "", "sight_content": ""}}, {"title": "大牛地度假村", "address": "榆林市榆阳区", "image": "", "rank": 19, "time": 2, "location": {"lat": 38.28241962673043, "lng": 109.72755916953271}, "feature": {"sight_features": "", "sight_content": ""}}, {"title": "鄂尔多斯人(河套人)遗址", "address": "鄂尔多斯市乌审旗", "image": "", "rank": 20, "time": 3.0, "location": {"lat": 38.610026521176685, "lng": 108.82443496913814}, "feature": {"sight_features": "", "sight_content": ""}}, {"title": "宏腾度假村", "address": "708乡道附近", "image": "", "rank": 21, "time": 2, "location": {"lat": 40.11109877203812, "lng": 116.52151003644262}, "feature": {"sight_features": "", "sight_content": ""}}, {"title": "银海生态旅游B区演艺厅", "address": "内蒙古自治区鄂尔多斯市乌审旗嘎鲁图镇府深线银海生态旅游(B区)", "image": "", "rank": 22, "time": 2, "location": {"lat": 38.906861799948075, "lng": 109.20841051478256}, "feature": {"sight_features": "", "sight_content": ""}}, {"title": "谷香阁农家乐", "address": "一马路附近", "image": "", "rank": 23, "time": 2, "location": {"lat": 40.29279337132304, "lng": 116.64159411027003}, "feature": {"sight_features": "", "sight_content": ""}}, {"title": "马东画廊", "address": "达布察克路东50米", "image": "", "rank": 24, "time": 2, "location": {"lat": 38.5855844970566, "lng": 108.84156851272324}, "feature": {"sight_features": "", "sight_content": ""}}, {"title": "巴彦尔音浩来", "address": "鄂尔多斯市-乌审旗", "image": "", "rank": 25, "time": 2, "location": {"lat": 38.610026521176685, "lng": 108.82443496913814}, "feature": {"sight_features": "", "sight_content": ""}}, {"title": "乌日图雅", "address": "鄂尔多斯市-乌审旗", "image": "", "rank": 26, "time": 2, "location": {"lat": 38.610026521176685, "lng": 108.82443496913814}, "feature": {"sight_features": "", "sight_content": ""}}]}