{"cityName": "武威", "days": "", "cityImage": "", "spots": [{"title": "文庙", "address": "武威市凉州区崇文街43号", "image": "", "rank": 1, "time": 1.5, "location": {"lat": 37.9297990914894, "lng": 102.65066474919388}, "feature": {"sight_features": "", "sight_content": ""}}, {"title": "卡通动漫舞台剧《白雪公主》", "address": "武威市凉州区北关东路武威十院俱乐部（解放军第十医院对面）", "image": "", "rank": 2, "time": 2, "location": {"lat": 37.94107758597465, "lng": 102.65183498256141}, "feature": {"sight_features": "", "sight_content": ""}}, {"title": "白塔寺", "address": "武威市凉州区武南镇白塔村白塔寺遗址", "image": "", "rank": 3, "time": 1.0, "location": {"lat": 37.81518635670978, "lng": 102.72306040295544}, "feature": {"sight_features": "", "sight_content": ""}}, {"title": "雷台公园", "address": "武威市凉州区雷台东路附近", "image": "", "rank": 4, "time": 2.5, "location": {"lat": 37.94510817075, "lng": 102.6515963836349}, "feature": {"sight_features": "特色1 目睹那神奇的\"马踏飞燕\"", "sight_content": "雷台旅游景区是位于武威市城区内的国家AAAA级旅游景区，也是中国旅游标志“马踏飞燕”的出土地。被史学界称为一座丰富的“地下博物馆”。在出土文物中最突出的是铸造精致的99件铜车马仪仗俑和艺术价值最高一匹铜奔马。\n雷台景区环境环境优美、文化底蕴深厚，道教文化、汉文化和马文化展示交相辉映，独具魅力。目睹那神奇的“马踏飞燕”和金戈铁马的“千年雄师”以及那神秘雷台奇观。"}}, {"title": "西夏博物馆", "address": "武威市凉州区崇文街172号", "image": "", "rank": 5, "time": 1.0, "location": {"lat": 37.929521439097265, "lng": 102.65046688912354}, "feature": {"sight_features": "", "sight_content": ""}}, {"title": "神州荒漠野生动物园", "address": "武威市凉州区西大街西环路80号", "image": "", "rank": 6, "time": 1.0, "location": {"lat": 37.93154800308725, "lng": 102.62185550759031}, "feature": {"sight_features": "", "sight_content": ""}}, {"title": "武威沙漠公园", "address": "武威市凉州区清源镇", "image": "", "rank": 7, "time": 1.0, "location": {"lat": 37.92202231771583, "lng": 102.81803387337081}, "feature": {"sight_features": "", "sight_content": ""}}, {"title": "天梯山石窟", "address": "武威市凉州区中路乡灯山村", "image": "", "rank": 8, "time": 1.0, "location": {"lat": 37.540344450327964, "lng": 102.73045159242032}, "feature": {"sight_features": "", "sight_content": ""}}, {"title": "马牙雪山", "address": "武威市天祝藏族自治县", "image": "", "rank": 9, "time": null, "location": {"lat": 36.97759617654046, "lng": 103.14862131965808}, "feature": {"sight_features": "", "sight_content": ""}}, {"title": "罗什寺", "address": "武威市凉州区北大街139号", "image": "", "rank": 10, "time": 1.0, "location": {"lat": 37.93932399321096, "lng": 102.64341573813529}, "feature": {"sight_features": "", "sight_content": ""}}, {"title": "海藏寺", "address": "甘肃省武威市凉州区西北2公里处", "image": "", "rank": 11, "time": 1.0, "location": {"lat": 37.934121948376344, "lng": 102.63060868631008}, "feature": {"sight_features": "", "sight_content": ""}}, {"title": "武威温泉度假村", "address": "武威市凉州区西营镇五沟村", "image": "", "rank": 12, "time": 2, "location": {"lat": 37.91198824459735, "lng": 102.21075829773439}, "feature": {"sight_features": "", "sight_content": "度假村集温泉、水上乐园、商务、住宿、餐饮、茶室、豪华KTV、汗蒸房、健身房、休闲大厅等于一体，秉承经典温泉文化，倡议温泉养生理念，用户在观赏秀丽风光的同时，尽享尊崇的养生体验。"}}, {"title": "红崖山水库", "address": "武威市民勤县(‎山丹县石羊河下游)", "image": "", "rank": 13, "time": 1.0, "location": {"lat": 38.19712495498852, "lng": 102.74143771070558}, "feature": {"sight_features": "", "sight_content": ""}}, {"title": "凉州白塔寺", "address": "威武市凉州区武南镇白塔村", "image": "", "rank": 14, "time": 2, "location": {"lat": 37.833897328028314, "lng": 102.72653055714049}, "feature": {"sight_features": "", "sight_content": ""}}, {"title": "天堂寺", "address": "武威市天祝藏族自治县", "image": "", "rank": 15, "time": 1.0, "location": {"lat": 36.97759617654046, "lng": 103.14862131965808}, "feature": {"sight_features": "", "sight_content": ""}}, {"title": "天祝三峡", "address": "武威市天祝藏族自治县西南部", "image": "", "rank": 16, "time": 2.5, "location": {"lat": 36.97759617654046, "lng": 103.14862131965808}, "feature": {"sight_features": "", "sight_content": ""}}, {"title": "大云寺铜钟", "address": "武威市凉州区和平街钟楼巷18号大云寺内", "image": "", "rank": 17, "time": 1.0, "location": {"lat": 37.93660681268543, "lng": 102.65152023607342}, "feature": {"sight_features": "", "sight_content": ""}}, {"title": "皇娘娘台遗址", "address": "武威市凉州区西北2.5公里", "image": "", "rank": 18, "time": 1.0, "location": {"lat": 37.934121948376344, "lng": 102.42399841901516}, "feature": {"sight_features": "", "sight_content": ""}}, {"title": "西郊公园", "address": "武威市凉州区西关街公园路110号", "image": "", "rank": 19, "time": 4.5, "location": {"lat": 37.934428369479924, "lng": 102.62433056577164}, "feature": {"sight_features": "", "sight_content": ""}}, {"title": "瑞安堡", "address": "武威市民勤县三雷镇三陶村", "image": "", "rank": 20, "time": 1.0, "location": {"lat": 38.598076567155815, "lng": 103.07809411081489}, "feature": {"sight_features": "", "sight_content": ""}}, {"title": "马路滩农业生态园", "address": "武威市古浪县马路滩村", "image": "", "rank": 21, "time": 2, "location": {"lat": 37.67549687665099, "lng": 103.15346620466337}, "feature": {"sight_features": "", "sight_content": ""}}, {"title": "塔儿湾滑雪场", "address": "武威市凉州区古城镇小河村", "image": "", "rank": 22, "time": 2, "location": {"lat": 37.773718761633596, "lng": 102.63041619291388}, "feature": {"sight_features": "", "sight_content": ""}}, {"title": "石门沟草原公园", "address": "武威市天祝藏族自治县Z042北100米", "image": "", "rank": 23, "time": 1.0, "location": {"lat": 36.97759617654046, "lng": 103.14862131965808}, "feature": {"sight_features": "", "sight_content": ""}}, {"title": "黄羊川", "address": "", "image": "", "rank": 24, "time": 1.0, "location": {"lat": 36.766261407246255, "lng": 105.54903547218291}, "feature": {"sight_features": "", "sight_content": ""}}, {"title": "乌鞘岭国际滑雪场", "address": "武威市天祝藏族自治县抓喜秀龙乡永丰村双岔沟组", "image": "", "rank": 25, "time": 2, "location": {"lat": 37.191549437133126, "lng": 102.82714759509176}, "feature": {"sight_features": "", "sight_content": ""}}, {"title": "天佛寺石窟", "address": "甘肃省武威市凉州区中路乡灯山村", "image": "", "rank": 26, "time": 2, "location": {"lat": 37.540344450327964, "lng": 102.73045159242032}, "feature": {"sight_features": "", "sight_content": ""}}, {"title": "青土湖", "address": "甘肃省武威市民勤县", "image": "", "rank": 27, "time": 2, "location": {"lat": 38.630624826433106, "lng": 103.10040027988245}, "feature": {"sight_features": "", "sight_content": ""}}, {"title": "民族风情度假村", "address": "天祝藏族自治县镇042专用道石门森林公园西北250米", "image": "", "rank": 28, "time": 2, "location": {"lat": 36.97759617654046, "lng": 103.14862131965808}, "feature": {"sight_features": "", "sight_content": ""}}, {"title": "布尔智草原", "address": "天祝县祁连乡布尔智草原", "image": "", "rank": 29, "time": 2, "location": {"lat": 37.6947389047921, "lng": 102.45453393341894}, "feature": {"sight_features": "", "sight_content": ""}}, {"title": "西大滩", "address": "西大滩乡", "image": "", "rank": 30, "time": 2, "location": {"lat": 37.30632212138804, "lng": 103.17882012220757}, "feature": {"sight_features": "", "sight_content": ""}}, {"title": "沙生植物园", "address": "312国道", "image": "", "rank": 31, "time": 2, "location": {"lat": 31.33241303413939, "lng": 120.99854638594724}, "feature": {"sight_features": "", "sight_content": ""}}, {"title": "鲁西民间艺术体验馆", "address": "古楼南城门北20米路东(梦回大明内街)", "image": "", "rank": 32, "time": 2, "location": {"lat": 25.490364498362663, "lng": 103.80452347808736}, "feature": {"sight_features": "", "sight_content": ""}}, {"title": "聚延湖农家乐", "address": "武威市凉州区碧水兰庭西门", "image": "", "rank": 33, "time": 2, "location": {"lat": 37.9516741920978, "lng": 102.64632944326033}, "feature": {"sight_features": "", "sight_content": ""}}, {"title": "武威市天马艺术剧院", "address": "北大街57", "image": "", "rank": 34, "time": 1.0, "location": {"lat": 39.97790138199467, "lng": 116.77330862278941}, "feature": {"sight_features": "", "sight_content": ""}}, {"title": "武秦剧院", "address": "西大街111号附近", "image": "", "rank": 35, "time": 2, "location": {"lat": 37.433022291521844, "lng": 112.55893899626778}, "feature": {"sight_features": "", "sight_content": ""}}, {"title": "文化广场", "address": "共和街东口秦剧团家属楼3单元4楼西文化广场北口", "image": "", "rank": 36, "time": 1.5, "location": {"lat": 37.93476444779647, "lng": 102.64212115952247}, "feature": {"sight_features": "", "sight_content": ""}}, {"title": "龙腾花园山庄", "address": "强锋摩托车修配中心附近", "image": "", "rank": 37, "time": 2, "location": {"lat": 36.69303389035198, "lng": 114.21642845375736}, "feature": {"sight_features": "", "sight_content": ""}}, {"title": "武威市民俗博物馆", "address": "东南隅文庙", "image": "", "rank": 38, "time": 1.0, "location": {"lat": 23.494386671660774, "lng": 116.51093198121578}, "feature": {"sight_features": "", "sight_content": ""}}, {"title": "华府生态园", "address": "天祝县老界牌立交桥向南100米左侧", "image": "", "rank": 39, "time": 2, "location": {"lat": 36.97759617654046, "lng": 103.14862131965808}, "feature": {"sight_features": "", "sight_content": ""}}, {"title": "重兴镇红旗山庄农家乐", "address": "重兴镇(民武公路39.5公里向东700米处)", "image": "", "rank": 40, "time": 2, "location": {"lat": 37.96109647730619, "lng": 102.65819555869096}, "feature": {"sight_features": "", "sight_content": ""}}, {"title": "民勤县博物馆", "address": "小南街11号", "image": "", "rank": 41, "time": 2, "location": {"lat": 29.9944877959818, "lng": 106.27619809218943}, "feature": {"sight_features": "", "sight_content": ""}}, {"title": "天祝藏族自治县博物馆", "address": "天堂路26号", "image": "", "rank": 42, "time": 1.0, "location": {"lat": 36.97713465585139, "lng": 103.14751140840386}, "feature": {"sight_features": "", "sight_content": ""}}, {"title": "西茨农场", "address": "164县道北200米", "image": "", "rank": 43, "time": 2, "location": {"lat": 24.174681602032898, "lng": 114.90563735140472}, "feature": {"sight_features": "", "sight_content": ""}}, {"title": "新村农家乐", "address": "211省道东150米", "image": "", "rank": 44, "time": 2, "location": {"lat": 36.51043423729015, "lng": 114.22300135517385}, "feature": {"sight_features": "", "sight_content": ""}}, {"title": "和悦农家乐", "address": "暖泉村组028号", "image": "", "rank": 45, "time": 2, "location": {"lat": 39.91134858923789, "lng": 116.46208081097153}, "feature": {"sight_features": "", "sight_content": ""}}, {"title": "宇景源农家乐", "address": "民武路中坝镇四中队旁", "image": "", "rank": 46, "time": 2, "location": {"lat": 38.268862396936555, "lng": 102.83227043378795}, "feature": {"sight_features": "", "sight_content": ""}}, {"title": "打柴沟清真寺", "address": "312国道附近", "image": "", "rank": 47, "time": 2, "location": {"lat": 31.33241303413939, "lng": 120.99854638594724}, "feature": {"sight_features": "", "sight_content": ""}}, {"title": "上滩", "address": "甘肃省武威市天祝藏族自治县", "image": "", "rank": 48, "time": 2, "location": {"lat": 36.97759617654046, "lng": 103.14862131965808}, "feature": {"sight_features": "", "sight_content": ""}}, {"title": "乌鞘岭", "address": "甘肃省天祝藏族自治县中部 733200", "image": "", "rank": 49, "time": 2, "location": {"lat": 36.97759617654046, "lng": 103.14862131965808}, "feature": {"sight_features": "", "sight_content": ""}}, {"title": "达武威", "address": "甘肃省武威市凉州区境内 733000", "image": "", "rank": 50, "time": 2, "location": {"lat": 37.934121948376344, "lng": 102.64857479650965}, "feature": {"sight_features": "", "sight_content": ""}}, {"title": "山丹军马场", "address": "甘肃省山丹县南55公里 734104", "image": "", "rank": 51, "time": 4.5, "location": {"lat": 38.402704271975495, "lng": 101.09561558172206}, "feature": {"sight_features": "", "sight_content": ""}}, {"title": "石门峡", "address": "甘肃省古浪县古浪河上游 733100", "image": "", "rank": 52, "time": 2, "location": {"lat": 37.41939382013169, "lng": 102.88605883604646}, "feature": {"sight_features": "", "sight_content": ""}}, {"title": "梁岗汉墓群", "address": "武威市民勤县", "image": "", "rank": 53, "time": 2, "location": {"lat": 38.630624826433106, "lng": 103.10040027988245}, "feature": {"sight_features": "", "sight_content": ""}}, {"title": "儿童乐园", "address": "东大街与举街巷交叉口西南100米", "image": "", "rank": 54, "time": 2, "location": {"lat": 31.909199228140412, "lng": 121.30903625505988}, "feature": {"sight_features": "", "sight_content": ""}}, {"title": "苏武广场", "address": "东内环路与北内环路交叉口东南150米", "image": "", "rank": 55, "time": 2, "location": {"lat": 38.634895687886555, "lng": 103.10437225896607}, "feature": {"sight_features": "", "sight_content": ""}}, {"title": "甘露寺", "address": "甘肃省武威市古浪县凉古公路", "image": "", "rank": 56, "time": 2.5, "location": {"lat": 37.736644554342966, "lng": 103.02558159432984}, "feature": {"sight_features": "", "sight_content": ""}}, {"title": "东竺寺", "address": "甘肃省武威市凉州区高坝镇金羊北路十三里堡小学南150米", "image": "", "rank": 57, "time": 2, "location": {"lat": 37.89232819394594, "lng": 102.71394127523195}, "feature": {"sight_features": "", "sight_content": ""}}, {"title": "海藏公园-北湖", "address": "海藏寺南边", "image": "", "rank": 58, "time": 2, "location": {"lat": 37.9618840805648, "lng": 102.62667416387133}, "feature": {"sight_features": "", "sight_content": ""}}, {"title": "好奇乐儿童城", "address": "浙江大厦3楼", "image": "", "rank": 59, "time": 2, "location": {"lat": 39.97569400795356, "lng": 116.40669443639726}, "feature": {"sight_features": "", "sight_content": ""}}, {"title": "湿地公园", "address": "二环西路与天祝街交叉口东150米", "image": "", "rank": 60, "time": 2, "location": {"lat": 37.940597618477874, "lng": 102.62320160312582}, "feature": {"sight_features": "", "sight_content": ""}}]}