{"cityName": "无为", "days": 2, "cityImage": "", "spots": [{"title": "天井山", "address": "芜湖市无为县城西南40公里处", "image": "", "rank": 1, "time": 1.0, "location": {"lat": 31.308844155979028, "lng": 117.90857854388872}, "feature": {"sight_features": "", "sight_content": ""}}, {"title": "无为县烈士陵园", "address": "芜湖市无为县环城西路与芝山路交叉口东100米", "image": "", "rank": 2, "time": 1.0, "location": {"lat": 31.29926530771914, "lng": 117.91711146258898}, "feature": {"sight_features": "", "sight_content": ""}}, {"title": "泊山洞", "address": "芜湖市无为县蜀山镇", "image": "", "rank": 3, "time": 1.0, "location": {"lat": 31.223778512978015, "lng": 117.61236127161706}, "feature": {"sight_features": "", "sight_content": ""}}, {"title": "米公祠", "address": "芜湖市无为县南大街", "image": "", "rank": 4, "time": 1.0, "location": {"lat": 31.30083406068216, "lng": 117.92370997469558}, "feature": {"sight_features": "", "sight_content": ""}}, {"title": "西九华胜境景区", "address": "芜湖市无为县039县道与043县道交叉口西北100米", "image": "", "rank": 5, "time": 1.5, "location": {"lat": 31.111398853588835, "lng": 118.02139367864811}, "feature": {"sight_features": "", "sight_content": ""}}, {"title": "无为县城建档案馆", "address": "无城镇凤河路", "image": "", "rank": 6, "time": 2, "location": {"lat": 31.31799208583037, "lng": 117.9106342855059}, "feature": {"sight_features": "", "sight_content": ""}}, {"title": "无为植物园", "address": "滨河西路", "image": "", "rank": 7, "time": 2, "location": {"lat": 31.78845753730818, "lng": 119.70188674421337}, "feature": {"sight_features": "", "sight_content": ""}}, {"title": "乾隆垂钓园", "address": "渡江希望小学附近", "image": "", "rank": 8, "time": 2, "location": {"lat": 31.117634890754854, "lng": 117.94793653948577}, "feature": {"sight_features": "", "sight_content": ""}}, {"title": "悠贝亲子图书馆", "address": "田间路附近", "image": "", "rank": 9, "time": 2, "location": {"lat": 36.08370832912159, "lng": 111.60806746672863}, "feature": {"sight_features": "", "sight_content": ""}}, {"title": "张家祠堂", "address": "安徽省芜湖市无为县开城镇", "image": "", "rank": 10, "time": 2, "location": {"lat": 31.29885358903556, "lng": 117.76450444528137}, "feature": {"sight_features": "", "sight_content": ""}}, {"title": "芜湖市开城镇太平寺", "address": "安徽省芜湖市无为县X048", "image": "", "rank": 11, "time": 3.0, "location": {"lat": 31.308844155979028, "lng": 117.90857854388872}, "feature": {"sight_features": "", "sight_content": ""}}, {"title": "卢氏宗祠", "address": "安徽省芜湖市无为县", "image": "", "rank": 12, "time": 1.0, "location": {"lat": 31.308844155979028, "lng": 117.90857854388872}, "feature": {"sight_features": "", "sight_content": ""}}, {"title": "碧桂园翡翠公园", "address": "天井山路与高新大道交汇处东南角", "image": "", "rank": 13, "time": 2, "location": {"lat": 21.61293072722965, "lng": 110.28820210352386}, "feature": {"sight_features": "", "sight_content": ""}}, {"title": "金太阳儿童乐园", "address": "无城镇西大街新百商厦三楼", "image": "", "rank": 14, "time": 2, "location": {"lat": 31.303392526249322, "lng": 117.92354127651403}, "feature": {"sight_features": "", "sight_content": ""}}, {"title": "小鬼当家儿童乐园", "address": "安徽省芜湖市无为县人民广场新马路迪信通二楼", "image": "", "rank": 15, "time": 2, "location": {"lat": 31.303473525695324, "lng": 117.9251000261163}, "feature": {"sight_features": "", "sight_content": ""}}, {"title": "黄家祠堂", "address": "一一一县道", "image": "", "rank": 16, "time": 2, "location": {"lat": 30.169802874864953, "lng": 115.4648469192993}, "feature": {"sight_features": "", "sight_content": ""}}, {"title": "夏家祠堂", "address": "安徽省芜湖市无为县x046", "image": "", "rank": 17, "time": 2, "location": {"lat": 31.308844155979028, "lng": 117.90857854388872}, "feature": {"sight_features": "", "sight_content": ""}}, {"title": "天池庵", "address": "合肥市巢湖市", "image": "", "rank": 18, "time": 0.5, "location": {"lat": 31.629002428816317, "lng": 117.89557620044565}, "feature": {"sight_features": "", "sight_content": ""}}, {"title": "新沟影剧院", "address": "十三股附近", "image": "", "rank": 19, "time": 2, "location": {"lat": 41.86632137251925, "lng": 114.08832631245645}, "feature": {"sight_features": "", "sight_content": ""}}, {"title": "青苔洞", "address": "安徽省无为县石涧镇 238391", "image": "", "rank": 20, "time": null, "location": {"lat": 31.417508608973137, "lng": 117.87772213679064}, "feature": {"sight_features": "", "sight_content": ""}}, {"title": "鸳鸯谷", "address": "安徽省无为县鹤毛乡万年台村万年台风景区 238361", "image": "", "rank": 21, "time": 2, "location": {"lat": 31.09244386708535, "lng": 117.55926011349744}, "feature": {"sight_features": "", "sight_content": ""}}, {"title": "蓝精灵儿童乐园", "address": "九州广场西1号楼", "image": "", "rank": 22, "time": 2, "location": {"lat": 31.309696295597305, "lng": 117.92080456901515}, "feature": {"sight_features": "", "sight_content": ""}}, {"title": "城南公园", "address": "安徽省芜湖市无为县渡江路", "image": "", "rank": 23, "time": null, "location": {"lat": 31.288379496164122, "lng": 117.93887044053312}, "feature": {"sight_features": "", "sight_content": ""}}, {"title": "城墙庵", "address": "芜湖市无为县", "image": "", "rank": 24, "time": 2, "location": {"lat": 31.308844155979028, "lng": 117.90857854388872}, "feature": {"sight_features": "", "sight_content": ""}}, {"title": "新四军七师纪念馆", "address": "安徽省芜湖市无为县红庙镇新四军第七师纪念馆", "image": "", "rank": 25, "time": 2, "location": {"lat": 31.38182097006483, "lng": 117.80180230295407}, "feature": {"sight_features": "", "sight_content": ""}}, {"title": "钱家祠堂", "address": "安徽省芜湖市无为县X043", "image": "", "rank": 26, "time": 2, "location": {"lat": 31.308844155979028, "lng": 117.90857854388872}, "feature": {"sight_features": "", "sight_content": ""}}, {"title": "农文化广场", "address": "田间路与环城北路交叉口附近", "image": "", "rank": 27, "time": 2, "location": {"lat": 31.310459088764908, "lng": 117.92178172778279}, "feature": {"sight_features": "", "sight_content": ""}}, {"title": "安徽皖能万家滩水上服务区", "address": "安徽省芜湖市无为县X150无为大堤东", "image": "", "rank": 28, "time": 2, "location": {"lat": 31.308844155979028, "lng": 117.90857854388872}, "feature": {"sight_features": "", "sight_content": ""}}, {"title": "时代广场步行街", "address": "无城镇西大街", "image": "", "rank": 29, "time": 2, "location": {"lat": 31.304593452156624, "lng": 117.92069232753828}, "feature": {"sight_features": "", "sight_content": ""}}, {"title": "世峰油画会社", "address": "草市街19-附近", "image": "", "rank": 30, "time": 2, "location": {"lat": 31.305333699442563, "lng": 117.925946607195}, "feature": {"sight_features": "", "sight_content": ""}}, {"title": "铜陵市郊区东风葡萄专业合作社", "address": "227省道东风村委会附近", "image": "", "rank": 31, "time": 2, "location": {"lat": 31.008607325454605, "lng": 117.71686811076559}, "feature": {"sight_features": "", "sight_content": ""}}, {"title": "天外天画廊", "address": "无城镇银杏苑门面房", "image": "", "rank": 32, "time": 2, "location": {"lat": 31.305328065960744, "lng": 117.92523539806173}, "feature": {"sight_features": "", "sight_content": ""}}, {"title": "联邦鳄鱼", "address": "无城镇安子巷斜对面(三福正对面)", "image": "", "rank": 33, "time": 2, "location": {"lat": 43.874110778455744, "lng": 87.56620045265595}, "feature": {"sight_features": "", "sight_content": ""}}, {"title": "九寨沟农家乐", "address": "鹤毛乡万年台村下院大队", "image": "", "rank": 34, "time": 4.5, "location": {"lat": 31.09244386708535, "lng": 117.55926011349744}, "feature": {"sight_features": "", "sight_content": ""}}, {"title": "无为丰乐百姓大舞台", "address": "凤河路48号", "image": "", "rank": 35, "time": 2, "location": {"lat": 31.312548102528517, "lng": 117.91027849638026}, "feature": {"sight_features": "", "sight_content": ""}}, {"title": "鑫源农业循环经济发展公司", "address": "025乡道东50米", "image": "", "rank": 36, "time": null, "location": {"lat": 35.37720857982394, "lng": 113.08436330673442}, "feature": {"sight_features": "", "sight_content": ""}}, {"title": "三缘园", "address": "208省道18号附近", "image": "", "rank": 37, "time": 2, "location": {"lat": 39.82817275160928, "lng": 115.96548677323707}, "feature": {"sight_features": "", "sight_content": ""}}, {"title": "无为县庐剧团", "address": "田间路", "image": "", "rank": 38, "time": 2, "location": {"lat": 36.08370832912159, "lng": 111.60806746672863}, "feature": {"sight_features": "", "sight_content": ""}}, {"title": "锦绣溪", "address": "安徽省无为县城西南", "image": "", "rank": 39, "time": 2, "location": {"lat": 31.308844155979028, "lng": 117.90857854388872}, "feature": {"sight_features": "", "sight_content": ""}}]}