{"cityName": "武乡", "days": 2, "cityImage": "", "spots": [{"title": "八路军文化园", "address": "长治市武乡县太行西街", "image": "", "rank": 1, "time": 2, "location": {"lat": 36.84316794930056, "lng": 112.8706056438019}, "feature": {"sight_features": "特色1 逼真的现场效果使得游客如临其境", "sight_content": "‍\n‍\n八路军文化园位于长治市武乡县太行西街，背靠风景宜人的凤凰山，东临风光涟漪的马牧河，整个景区由前广场、游客服务中心、胜利大道、军艺社、胜利坛、情景剧场、八路村等七部分组成。\n文化园内主要设有八路村、军艺社等几大主题景观和各种不同风格的常态演出，以及水、陆、空多种拓展项目。八路村——真实还原抗战时期八路军生活、生产、工作、娱乐的历史场景；军艺社——结合高科技的数字技术，展现八路军“亦文亦武”的抗战风貌；三场常态演出——情景剧《反扫荡》、影视蒙太奇体验剧《太行游击队》、《欢庆胜利》大巡游，生动再现了八路军将士与当地老百姓军民同心、共同抵制日寇的艰苦历程。\n‍‍\n园内共设置了水面、高空、陆地三大拓展区，可以给参加“当一天八路军”活动的游客朋友们进行军事训练和团队精神锻炼。通过参与拓展项目，游客可以认识自身潜能，增强自信心，改善自身形象；克服心理惰性，磨练战胜困难的毅力；启发想象力与创造力，提高解决问题的能力。"}}, {"title": "太行山实景剧", "address": "长治市武乡县丰州镇下关村八路军剧坊", "image": "", "rank": 2, "time": 2.25, "location": {"lat": 36.84804642767756, "lng": 112.89966528806637}, "feature": {"sight_features": "", "sight_content": ""}}, {"title": "板山", "address": "治市武乡县部窑湾乡左会村黎(城)武(乡)交界处一带", "image": "", "rank": 3, "time": 3.5, "location": {"lat": 36.83906110798064, "lng": 113.33050713445529}, "feature": {"sight_features": "", "sight_content": ""}}, {"title": "八路军总部旧址纪念馆", "address": "650县道", "image": "", "rank": 4, "time": 2, "location": {"lat": 22.490756985502482, "lng": 111.0726028653404}, "feature": {"sight_features": "", "sight_content": ""}}, {"title": "超峰龙湖梦岛", "address": "长治市武乡县关园则村龙湖梦岛", "image": "", "rank": 5, "time": 2, "location": {"lat": 36.84316794930056, "lng": 112.8706056438019}, "feature": {"sight_features": "", "sight_content": ""}}, {"title": "老区农家乐", "address": "G55二广高速附近(龙湖西北250米)", "image": "", "rank": 6, "time": 2, "location": {"lat": 23.37777578062844, "lng": 116.72127888315919}, "feature": {"sight_features": "", "sight_content": ""}}, {"title": "武乡县图书馆", "address": "飞翔广场宣传文化活动中心", "image": "", "rank": 7, "time": 2, "location": {"lat": 49.62365749759549, "lng": 117.3944968075458}, "feature": {"sight_features": "", "sight_content": ""}}, {"title": "百团大战砖壁旧址", "address": "山西省武乡县韩北乡王家峪村 046300", "image": "", "rank": 8, "time": 2, "location": {"lat": 36.74861434780494, "lng": 113.11077537247445}, "feature": {"sight_features": "", "sight_content": ""}}, {"title": "王家峪八路军总部", "address": "山西省武乡县韩北乡王家峪村 046300", "image": "", "rank": 9, "time": 2, "location": {"lat": 36.74861434780494, "lng": 113.11077537247445}, "feature": {"sight_features": "", "sight_content": ""}}, {"title": "武乡古动物群化石", "address": "山西省武乡县楼则峪、石北、张村一带 046300", "image": "", "rank": 10, "time": 2, "location": {"lat": 36.976338900085096, "lng": 112.8537066100566}, "feature": {"sight_features": "", "sight_content": ""}}, {"title": "老爷庙", "address": "幸福路东150米", "image": "", "rank": 11, "time": 2, "location": {"lat": 29.89359416626127, "lng": 121.48116917046103}, "feature": {"sight_features": "", "sight_content": ""}}, {"title": "八里庙", "address": "长治市武乡县", "image": "", "rank": 12, "time": 2, "location": {"lat": 36.84316794930056, "lng": 112.8706056438019}, "feature": {"sight_features": "", "sight_content": ""}}, {"title": "将士托", "address": "山西省长治市武乡县迎宾街282号", "image": "", "rank": 13, "time": 2, "location": {"lat": 36.84133259706926, "lng": 112.87184208947193}, "feature": {"sight_features": "", "sight_content": ""}}, {"title": "武乡四月天度假村(梦岛店)", "address": "武乡武乡高速出口东100米(关河码头)", "image": "", "rank": 14, "time": 2, "location": {"lat": 36.84266153857294, "lng": 112.89037182888744}, "feature": {"sight_features": "", "sight_content": ""}}, {"title": "八路军剧坊", "address": "下关村附近", "image": "", "rank": 15, "time": 2, "location": {"lat": 36.89522958268082, "lng": 114.28606284394063}, "feature": {"sight_features": "", "sight_content": ""}}, {"title": "太行龙湖35号农家乐", "address": "下关村35号", "image": "", "rank": 16, "time": 2, "location": {"lat": 36.84703896039844, "lng": 112.89386600735506}, "feature": {"sight_features": "", "sight_content": ""}}, {"title": "武乡风情街展示中心", "address": "丰州路宏伟副食批零超市对面", "image": "", "rank": 17, "time": 2, "location": {"lat": 34.13747124782421, "lng": 107.90866768731802}, "feature": {"sight_features": "", "sight_content": ""}}, {"title": "李峪村王来法纪念馆", "address": "山西省长治市武乡县322省道李峪桥", "image": "", "rank": 18, "time": 2, "location": {"lat": 36.81774804098396, "lng": 113.17753687384013}, "feature": {"sight_features": "", "sight_content": ""}}, {"title": "北齐石刻造像", "address": "山西省武乡县北良候村", "image": "", "rank": 19, "time": 2, "location": {"lat": 36.99160317824067, "lng": 112.67729892178752}, "feature": {"sight_features": "", "sight_content": ""}}, {"title": "长乐村战斗纪念碑", "address": "山西省武乡县长乐村", "image": "", "rank": 20, "time": 2, "location": {"lat": 36.79982135297406, "lng": 113.04356846788096}, "feature": {"sight_features": "", "sight_content": ""}}, {"title": "洪济院", "address": "山西省武乡县故城镇东良村", "image": "", "rank": 21, "time": 2, "location": {"lat": 36.98902097542857, "lng": 112.67936415669736}, "feature": {"sight_features": "", "sight_content": ""}}, {"title": "会仙观", "address": "山西省武乡县监漳镇监漳村西", "image": "", "rank": 22, "time": 2.0, "location": {"lat": 36.75993386893438, "lng": 113.05904158356141}, "feature": {"sight_features": "", "sight_content": ""}}, {"title": "分水岭古墓群", "address": "山西省长治市城区武乡县分水岭", "image": "", "rank": 23, "time": 2, "location": {"lat": 36.202356803984685, "lng": 113.11718727239099}, "feature": {"sight_features": "", "sight_content": ""}}]}