{"cityName": "武穴", "days": 2, "cityImage": "", "spots": [{"title": "仙人湖水上乐园", "address": "黄冈市武穴市余川镇砌石村祠堂旁", "image": "", "rank": 1, "time": 2, "location": {"lat": 30.064805698014133, "lng": 115.68437189763988}, "feature": {"sight_features": "", "sight_content": ""}}, {"title": "怡湖山庄", "address": "车坊村吴家昌村", "image": "", "rank": 2, "time": 2, "location": {"lat": 30.12449346840182, "lng": 115.70513784465633}, "feature": {"sight_features": "", "sight_content": ""}}, {"title": "横岗山森林公园(任寨北街店)", "address": "黄冈市武穴市", "image": "", "rank": 3, "time": 2, "location": {"lat": 29.850441430483002, "lng": 115.56739216105213}, "feature": {"sight_features": "", "sight_content": ""}}, {"title": "龙湫寺", "address": "黄冈市武穴市龙湫寺(308省道南450米)", "image": "", "rank": 4, "time": 1.5, "location": {"lat": 30.074741325855086, "lng": 115.68100512494445}, "feature": {"sight_features": "", "sight_content": ""}}, {"title": "relaxing休闲吧", "address": "天宝街122号", "image": "", "rank": 5, "time": 2, "location": {"lat": 29.86547789911064, "lng": 115.56411604081937}, "feature": {"sight_features": "", "sight_content": ""}}, {"title": "大金水库休闲旅游区", "address": "黄冈市武穴市梅川镇", "image": "", "rank": 6, "time": 2, "location": {"lat": 30.12828158324465, "lng": 115.58907677276719}, "feature": {"sight_features": "", "sight_content": ""}}, {"title": "仙人坝水库", "address": "黄冈市武穴市033乡道", "image": "", "rank": 7, "time": 2.5, "location": {"lat": 29.850441430483002, "lng": 115.56739216105213}, "feature": {"sight_features": "", "sight_content": ""}}, {"title": "武穴武山湖度假村", "address": "武穴官桥武山湖国家湿地公园内", "image": "", "rank": 8, "time": 2, "location": {"lat": 29.888182842322077, "lng": 115.6304409908768}, "feature": {"sight_features": "", "sight_content": ""}}, {"title": "城市广场游乐园", "address": "北川路城市广场4楼", "image": "", "rank": 9, "time": 2, "location": {"lat": 25.85236044296219, "lng": 114.92780914833357}, "feature": {"sight_features": "", "sight_content": ""}}, {"title": "红旗农场", "address": "060乡道附近", "image": "", "rank": 10, "time": 2, "location": {"lat": 32.80934749738426, "lng": 116.72537598040456}, "feature": {"sight_features": "", "sight_content": ""}}, {"title": "游鸿寨", "address": "湖北省武穴市太平山顶", "image": "", "rank": 11, "time": 2, "location": {"lat": 29.850441430483002, "lng": 115.56739216105213}, "feature": {"sight_features": "", "sight_content": ""}}, {"title": "四祖广济禅寺", "address": "湖北省武穴市梅川镇西街", "image": "", "rank": 12, "time": 2, "location": {"lat": 30.12828158324465, "lng": 115.58907677276719}, "feature": {"sight_features": "", "sight_content": ""}}, {"title": "城市公园", "address": "湖北省黄冈市武穴市武穴街道民主路东风小学附近", "image": "", "rank": 13, "time": 1.5, "location": {"lat": 29.85266240054251, "lng": 115.5719461118504}, "feature": {"sight_features": "", "sight_content": ""}}, {"title": "花桥人民广场", "address": "湖北省黄冈市武穴市民主路与麒麟大道交叉口东100米", "image": "", "rank": 14, "time": 2, "location": {"lat": 30.012217181825054, "lng": 115.73091299382367}, "feature": {"sight_features": "", "sight_content": ""}}, {"title": "武穴市兴发墙体材料有限公司(兴...", "address": "湖北省黄冈市武穴市沿江大道", "image": "", "rank": 15, "time": 2, "location": {"lat": 29.852195171815097, "lng": 115.60094162966816}, "feature": {"sight_features": "", "sight_content": ""}}, {"title": "匡山休闲旅游区", "address": "黄冈市武穴市027乡道", "image": "", "rank": 16, "time": 2.0, "location": {"lat": 29.850441430483002, "lng": 115.56739216105213}, "feature": {"sight_features": "", "sight_content": ""}}, {"title": "梅川水库", "address": "黄冈市武穴市梅川水库", "image": "", "rank": 17, "time": 2.0, "location": {"lat": 30.170672836653303, "lng": 115.63016260421604}, "feature": {"sight_features": "", "sight_content": ""}}, {"title": "荆竹水库", "address": "黄冈市武穴市314县道", "image": "", "rank": 18, "time": 2.0, "location": {"lat": 30.12631531218755, "lng": 115.68699948886676}, "feature": {"sight_features": "", "sight_content": ""}}, {"title": "云月农庄", "address": "湖北省黄冈市武穴市大金镇S204(旧)武穴大金客运站", "image": "", "rank": 19, "time": 2, "location": {"lat": 30.011972398063953, "lng": 115.6205317953859}, "feature": {"sight_features": "", "sight_content": ""}}, {"title": "武穴市圆通寺", "address": "湖北省黄冈市武穴市武穴街道百米港二桥圆通寺", "image": "", "rank": 20, "time": 2.0, "location": {"lat": 29.884169741647657, "lng": 115.60628218707582}, "feature": {"sight_features": "", "sight_content": ""}}, {"title": "耶稣教堂", "address": "公园南路16号附近", "image": "", "rank": 21, "time": 1.5, "location": {"lat": 40.81162818988732, "lng": 111.67834528619953}, "feature": {"sight_features": "", "sight_content": ""}}, {"title": "天主堂", "address": "天宝街与窝陂塘路交叉口北150米", "image": "", "rank": 22, "time": 0.4, "location": {"lat": 29.866608919712636, "lng": 115.56234522198675}, "feature": {"sight_features": "", "sight_content": ""}}, {"title": "湖北匡山旅游开发有限公司龙珠峡...", "address": "梅川镇龙珠峡漂流景区", "image": "", "rank": 23, "time": 2, "location": {"lat": 39.637117720153945, "lng": 115.60259479297979}, "feature": {"sight_features": "", "sight_content": ""}}, {"title": "龙门度假村", "address": "湖北省黄冈市武穴市", "image": "", "rank": 24, "time": 2, "location": {"lat": 29.850441430483002, "lng": 115.56739216105213}, "feature": {"sight_features": "", "sight_content": ""}}, {"title": "半壁山古战场遗址", "address": "湖北省黄石市阳新县鄂江右半壁山古战场遗址", "image": "", "rank": 25, "time": 2, "location": {"lat": 29.93315836673647, "lng": 115.4083693344549}, "feature": {"sight_features": "", "sight_content": ""}}, {"title": "武穴市博物馆", "address": "玉湖路239号", "image": "", "rank": 26, "time": 2.5, "location": {"lat": 29.858231496615975, "lng": 115.554923478459}, "feature": {"sight_features": "", "sight_content": ""}}, {"title": "湖北省武穴市图书馆", "address": "栖贤路22号", "image": "", "rank": 27, "time": 2, "location": {"lat": 30.556464253421392, "lng": 114.27666941140821}, "feature": {"sight_features": "", "sight_content": ""}}, {"title": "武穴市档案馆", "address": "公园北路15号", "image": "", "rank": 28, "time": 1.0, "location": {"lat": 32.06948881471775, "lng": 118.63810942831256}, "feature": {"sight_features": "", "sight_content": ""}}, {"title": "毛毛草莓园", "address": "官桥朱华村正对面", "image": "", "rank": 29, "time": 2, "location": {"lat": 23.62272544093086, "lng": 111.11912578160187}, "feature": {"sight_features": "", "sight_content": ""}}, {"title": "常兴农家乐", "address": "240省道附近附近", "image": "", "rank": 30, "time": 2, "location": {"lat": 39.44051349146481, "lng": 113.89354610260898}, "feature": {"sight_features": "", "sight_content": ""}}, {"title": "湖北省扬帆计划苗圃创业基地", "address": "武石大道西50米", "image": "", "rank": 31, "time": 2, "location": {"lat": 29.953190267576517, "lng": 115.63845509951527}, "feature": {"sight_features": "", "sight_content": ""}}, {"title": "武穴市余川志文中药材产销专业合...", "address": "余川镇蚂蚁河村十组", "image": "", "rank": 32, "time": 2, "location": {"lat": 30.072937531440193, "lng": 115.81061542507794}, "feature": {"sight_features": "", "sight_content": ""}}, {"title": "毕加绘创意美术馆", "address": "城市新街5b4楼", "image": "", "rank": 33, "time": 2, "location": {"lat": 29.861092317981335, "lng": 115.56538579120472}, "feature": {"sight_features": "", "sight_content": ""}}, {"title": "武穴剧院", "address": "武穴街道民主路8号(宏棋电脑)", "image": "", "rank": 34, "time": 2.0, "location": {"lat": 29.850447382189717, "lng": 115.5676083831883}, "feature": {"sight_features": "", "sight_content": ""}}, {"title": "龙珠峡漂流", "address": "梅川镇峰口村", "image": "", "rank": 35, "time": 2, "location": {"lat": 30.21077520613322, "lng": 115.64341877555894}, "feature": {"sight_features": "", "sight_content": ""}}, {"title": "全有庄园", "address": "花桥镇商贸城东门", "image": "", "rank": 36, "time": 2, "location": {"lat": 35.864260724100816, "lng": 115.51351836945763}, "feature": {"sight_features": "", "sight_content": ""}}, {"title": "仰山寺", "address": "江西省奉新县源芳乡", "image": "", "rank": 37, "time": 2, "location": {"lat": 28.69402895145841, "lng": 115.40655109852699}, "feature": {"sight_features": "", "sight_content": ""}}, {"title": "武穴市科技馆", "address": "湖北省武穴市窝陂塘路30号", "image": "", "rank": 38, "time": 2.5, "location": {"lat": 29.858474776258294, "lng": 115.56006533607776}, "feature": {"sight_features": "", "sight_content": ""}}]}