{"cityName": "舞阳", "days": 2, "cityImage": "", "spots": [{"title": "北舞渡镇", "address": "漯河市舞阳县北舞渡镇", "image": "", "rank": 1, "time": 7.5, "location": {"lat": 33.61737210494458, "lng": 113.69480194183424}, "feature": {"sight_features": "", "sight_content": ""}}, {"title": "舞阳县博物馆", "address": "西大街", "image": "", "rank": 2, "time": 2, "location": {"lat": 39.91357131364959, "lng": 116.6700940616933}, "feature": {"sight_features": "", "sight_content": ""}}, {"title": "玄境真人密室逃脱俱乐部", "address": "东大街35号", "image": "", "rank": 3, "time": 2, "location": {"lat": 22.61729942596652, "lng": 114.14733751642652}, "feature": {"sight_features": "", "sight_content": ""}}, {"title": "盐都生态园", "address": "盐都路", "image": "", "rank": 4, "time": 2, "location": {"lat": 33.378513903177506, "lng": 119.02784534007361}, "feature": {"sight_features": "", "sight_content": ""}}, {"title": "富康农家院", "address": "330省道沟李村卫生所旁", "image": "", "rank": 5, "time": 2, "location": {"lat": 33.44808689527277, "lng": 113.70401172026169}, "feature": {"sight_features": "", "sight_content": ""}}, {"title": "花园温泉", "address": "人民路中段花园茶艺KTV后院", "image": "", "rank": 6, "time": 2, "location": {"lat": 33.443154693022315, "lng": 113.62326004930735}, "feature": {"sight_features": "", "sight_content": ""}}, {"title": "中农普源益生种植农民专业合作社", "address": "220省道附近", "image": "", "rank": 7, "time": 2, "location": {"lat": 40.38775563397051, "lng": 115.90384459998963}, "feature": {"sight_features": "", "sight_content": ""}}, {"title": "春满园草莓采摘园", "address": "青岛路北段庙后村北500米", "image": "", "rank": 8, "time": 2, "location": {"lat": 41.12468174995691, "lng": 118.70988497998397}, "feature": {"sight_features": "", "sight_content": ""}}, {"title": "舞阳县天岚家庭农场", "address": "220省道魏集村西北侧430米", "image": "", "rank": 9, "time": 2, "location": {"lat": 33.64934155510127, "lng": 113.74754639451383}, "feature": {"sight_features": "", "sight_content": ""}}, {"title": "贾湖遗址", "address": "河南舞阳县北舞渡镇贾湖村 462412", "image": "", "rank": 10, "time": 2, "location": {"lat": 33.61766073400851, "lng": 113.67269100689299}, "feature": {"sight_features": "", "sight_content": ""}}, {"title": "山陕会馆彩牌楼", "address": "河南舞阳县北舞渡镇 462412", "image": "", "rank": 11, "time": 2, "location": {"lat": 33.61737210494458, "lng": 113.69480194183424}, "feature": {"sight_features": "", "sight_content": ""}}, {"title": "大岗遗址", "address": "河南舞阳县侯集乡大岗村 462405", "image": "", "rank": 12, "time": 2, "location": {"lat": 33.660367662132956, "lng": 113.7105141091872}, "feature": {"sight_features": "", "sight_content": ""}}, {"title": "舞阳县万达农业生态园", "address": "河南省漯河市舞阳县X009(马皇线)", "image": "", "rank": 13, "time": 2, "location": {"lat": 33.51780988513957, "lng": 113.78273315159397}, "feature": {"sight_features": "", "sight_content": ""}}, {"title": "金涛阁啤酒广场", "address": "北大街与舞光路交叉口向北300米（凤凰城门面房）", "image": "", "rank": 14, "time": null, "location": {"lat": 33.44861030480383, "lng": 113.60626355210914}, "feature": {"sight_features": "", "sight_content": ""}}, {"title": "天爷庙", "address": "河南省漯河市舞阳县S241", "image": "", "rank": 15, "time": 2, "location": {"lat": 33.443577799934204, "lng": 113.61549000488345}, "feature": {"sight_features": "", "sight_content": ""}}, {"title": "北舞渡镇清真寺", "address": "河南省漯河市舞阳县顺河街金山路北舞渡镇政府西北300米", "image": "", "rank": 16, "time": 2, "location": {"lat": 33.62767759118363, "lng": 113.70122246728032}, "feature": {"sight_features": "", "sight_content": ""}}, {"title": "艺苑春俱乐部", "address": "南大街舞阳县公安局附近", "image": "", "rank": 17, "time": 2, "location": {"lat": 33.433995458935044, "lng": 113.6057656779582}, "feature": {"sight_features": "", "sight_content": ""}}, {"title": "城隍庙", "address": "新西路与西大街交叉口东100米", "image": "", "rank": 18, "time": 1.5, "location": {"lat": 33.43668755944696, "lng": 113.60004720072583}, "feature": {"sight_features": "", "sight_content": ""}}, {"title": "韩寨休闲文化广场", "address": "241省道附近", "image": "", "rank": 19, "time": 2, "location": {"lat": 38.605845198015224, "lng": 114.37948707331753}, "feature": {"sight_features": "", "sight_content": ""}}, {"title": "何庄村文化广场", "address": "舞戴路附近", "image": "", "rank": 20, "time": 2, "location": {"lat": 33.47522744261548, "lng": 113.60001648855875}, "feature": {"sight_features": "", "sight_content": ""}}, {"title": "沙河国家湿地公园", "address": "河南省漯河市舞阳县莲花镇泥河大桥西南", "image": "", "rank": 21, "time": 4.5, "location": {"lat": 33.60288128845063, "lng": 113.82403740512927}, "feature": {"sight_features": "", "sight_content": ""}}, {"title": "舞阳县图书馆", "address": "北京路北段", "image": "", "rank": 22, "time": 2, "location": {"lat": 30.57940832556942, "lng": 104.25263605338579}, "feature": {"sight_features": "", "sight_content": ""}}, {"title": "中国现代民间绘画画廊", "address": "330省道", "image": "", "rank": 23, "time": 2, "location": {"lat": 33.628718313782905, "lng": 114.07705276066223}, "feature": {"sight_features": "", "sight_content": ""}}, {"title": "群众书画活动中心", "address": "西大街36号", "image": "", "rank": 24, "time": 2, "location": {"lat": 38.04776493101067, "lng": 114.52747364006507}, "feature": {"sight_features": "", "sight_content": ""}}, {"title": "革命老区纪念馆", "address": "新西路", "image": "", "rank": 25, "time": 1.0, "location": {"lat": 35.50641270119119, "lng": 112.83079273820984}, "feature": {"sight_features": "", "sight_content": ""}}, {"title": "嘉年华水世界", "address": "西关路与西环路交叉口南150米路东", "image": "", "rank": 26, "time": 2, "location": {"lat": 40.22883697179121, "lng": 116.23348102550467}, "feature": {"sight_features": "", "sight_content": ""}}, {"title": "北京佳美水上乐园", "address": "东大街佳美广场西侧", "image": "", "rank": 27, "time": 1.0, "location": {"lat": 24.86292952372062, "lng": 102.85729750797663}, "feature": {"sight_features": "", "sight_content": ""}}, {"title": "康宫温泉", "address": "张家港路中段", "image": "", "rank": 28, "time": 2, "location": {"lat": 30.982039798905145, "lng": 121.12135048124868}, "feature": {"sight_features": "", "sight_content": ""}}, {"title": "龙泉生态园", "address": "大路李村冯河桥旁", "image": "", "rank": 29, "time": 2, "location": {"lat": 33.43652700090801, "lng": 113.51696192070071}, "feature": {"sight_features": "", "sight_content": ""}}, {"title": "农民画创作发展中心", "address": "新西路", "image": "", "rank": 30, "time": 2, "location": {"lat": 35.50641270119119, "lng": 112.83079273820984}, "feature": {"sight_features": "", "sight_content": ""}}, {"title": "贾湖字画廊", "address": "舞光路106号附近", "image": "", "rank": 31, "time": 2, "location": {"lat": 33.4462299786278, "lng": 113.60873299575267}, "feature": {"sight_features": "", "sight_content": ""}}, {"title": "余庄草莓基地", "address": "侯集乡余庄小学东北200米", "image": "", "rank": 32, "time": 2, "location": {"lat": 33.68788854191047, "lng": 113.68496356604146}, "feature": {"sight_features": "", "sight_content": ""}}, {"title": "文轩阁", "address": "人民路南200米", "image": "", "rank": 33, "time": 2, "location": {"lat": 31.287902178638635, "lng": 120.63329384386067}, "feature": {"sight_features": "", "sight_content": ""}}]}