{"cityName": "武义", "days": 2, "cityImage": "", "spots": [{"title": "牛头山国家森林公园", "address": "金华市武义县柳城镇西联乡上田村", "image": "", "rank": 1, "time": 3.0, "location": {"lat": 28.638845567291657, "lng": 119.60963705964089}, "feature": {"sight_features": "特色1 走走横跨两座山头的金锁桥，长长的悬索桥惊险刺激。 冬天泡温泉，夏天玩漂流，滋味各不相同。", "sight_content": "浙江武义牛头山国家森林公园位于有“江南华清池，浙中桃花源”之美誉的浙江省武义县境内，距武义县城60公里，总面积1327.69公顷。公园属中山地貌，峰峦叠嶂，高耸云霄，千米以上山峰林立，牛头山，海拔1560米，不仅由仙而名，更因水而灵。古树断崖相伴的碧湖悬瀑，皮筏漂流、爬坡戏浪等激情诱惑，让游宾在访仙问道之余，可拥抱激流而抵达快乐生命的高点。牛头山神牛谷漂流，峰险崖峭，峡深流急。漂流全程3公里，大小落差有20余个，高处落差有2.6米，两岸林密岩奇，兽跃禽飞，和谐怡然，一派原始景象。良好植被的水源涵养和水质净化，造就了可与九寨沟媲美的秀水，河流顺山势而下，千回百转，曲径通幽，大有“山水复疑无路，柳岸花明又一村的新奇。\n武义牛头山相传为老子坐骑青牛所化，唐代道教长老叶法善天师常在此采药炼丹，他侍奉了自高宗、武则天至玄宗五朝唐皇，所得的皇帝尊宠在道教史上也是的。叶天师105岁鹤龄在此牛头山羽化仙去后，乡人建殿崇祀。钦定《四库全书》载：叶天师殿，在县东牛头山，祀叶法善真人。牛头山因而成为充满神奇的道教名山，天师古殿缘此平添神秘的力量与灵气。\n\n牛头山森林公园人迹罕至的天然森林，耐人寻味的奇树异木，雄奇绝险的峡谷断崖，美不胜收的溪水瀑潭与一尘不染的生态环境，形成一幅幅意趣横生的优美画卷，具有“雄、奇、险、秀、幽”的特色。森林公园拟划分为可登高揽胜，生态探险的牛头山景区；可峡谷涉趣，探险猎奇的石门峡景区；可观览瀑布，吸氧保健的九瀑沟景区和上田服务管理区等4个功能区。\n\n牛头山森林公园景观资源丰富，计有各类景物(景观)38处，其中上上景10处，上景15处。森林景观有林木二绝、独木成林、古藤恋树，树体庞大的算盘子土、秋子梨土，飘然欲仙的云峰鹃霞等。地貌景观资源是牛头山森林公园的又一特色，有气势磅礴的牛头山、天师峰、擎天柱、天崩峡、地裂峡，藏奇纳胜的石门峡，逼真、传神的石门迎宾、道士岩等。繁茂的森林，滋润了溪谷瀑潭。园内山山有溪谷，处处有瀑潭，众多的溪谷瀑潭与四周群山刚柔相济，充满诗情画意。公园的水体景观有“浙中大瀑布”之称的仙女瀑，忽隐忽现的流云瀑，形影不离的鸳鸯瀑，险峻异常的潜龙涧等。\n牛头山公园地处中亚热带季风气候区，具有夏季凉爽的小气候特征。公园水资源丰富，溪水终年不断，水质 纯净，各溪流水质均符合GBZBL-1999《地表水环境质量标准》I类水质标准和GB5749-85《生活饮用水卫生标准》。牛头山森林公园是浙江中部地区天然森林植被保存最为完好，植物资源最为丰富的地区。公园内天然阔叶林占优势，大树参天，森林覆盖率达99%。园内有木本植物72科199属439种，其中国家一级重点保护野生植物有 南方红豆杉、钟萼木(伯乐树)2种，二级重点保护的有长叶榧、凹叶厚朴等6种。主要依赖森林而生存的陆生脊椎动物有4纲29目7l科265种，其中国家一级重点保护野生动物有白颈长尾雉、云豹、豹、黑麂等4种，二级重点保护野生动物有大鲵、虎纹蛙、白鹇、猕猴、穿山甲、黑熊等32种。\n牛头山森林公园的建设是武义县大力实施“生态立县”的重大举措。武义县委、县政府已明确牛头山森林公园开发规划由县林业局牵头，开发业主为武义县林场，牛头山森林公园必将成为浙江森林生态旅游的新亮点。牛头山那一峡峡翡翠般的秀水，不枉了“江南九寨沟”之雅称。也难怪游人离山时会感叹：没到牛头山，踏遍江 南也枉然！\n\n牛头山旅游美食：\n谈到旅游，美食当然是必不可少的一部分，民以食为天嘛！\n\n金牌鸭：武义口味偏辣，鸭子嫩而入味。\n\n土烧南瓜：南瓜糯而粉，佐料用了大量的大蒜，生姜，辣椒。味道浓郁。\n\n炒香干：农家自作的熏干。\n\n红烧牛蹄：爱吃辣的朋友千万别错过。\n\n干菜锅巴：微焦的锅巴呈圆拱状雄踞整个盘子，上顶红绿辣椒、农家自制干菜。一筷敲下，脆碎成片，“嘎 崩嘎崩”霎似好吃。\n\n山栀子花：采摘野栀子花瓣，晒干，和着湿淀粉、肉片清炒。微酸，到也清香天然。\n\n野猪肉：色泽诱人，可惜肉肉太硬。\n\n玉米糊：一大缸，内有咸菜、肉糜配料，玉米被碾成细粉状。\n\n艾叶团：尝个清明才有机会吃的“艾叶团”吧，里面可是微辣的豆腐干哦。\n\n土豆饼：个个金黄的小土豆，去皮、拷扁、浇上酱料，和着辣椒编炒。小土豆又软又香，一吃就停不了口。"}}, {"title": "郭洞", "address": "金华市武义县城10公里", "image": "", "rank": 2, "time": 12.0, "location": {"lat": 28.898243786650067, "lng": 119.82256555866991}, "feature": {"sight_features": "特色1 清新幽深的古村落，有许多百年历史的古木与古建筑。", "sight_content": "郭洞景区位于距武义县城10公里的群山幽岭之间，因山环如郭、幽峰如洞而得名。约5平方公里的景区内，层峦叠蟑，竹木苍翠，静雅宜人。“郭外风光凌北斗，洞中锦秀映南山”，这是古人对郭洞风景区的贴切描绘。古村落奇观郭洞先祖可溯宋朝宰相何执中。元代至元三年(1337年)，后裔仿珍藏北京白云观的学仙修道宝图《内经图》营造村庄。\n砌城墙形成水口，建回龙桥聚气藏风，植村周树木善化环境，规划民居、通道并巧设七星井，形成\"山环如郭，幽邃如洞\"的绝佳人居环境， 故名郭洞。被誉为\"江南第一风水村\"。任何一个地方，哪怕再精致，如果没有文化内涵，不能品赏人文景观，恐怕总是缺少回味的。郭洞之所以耐看，还因为有着大片的明清古建筑，虽然鲜见豪门深院，但村宅之完整，保存之完好，可以说是一部从明代到清代直至民国的建筑编年史。古朴大度的明代廊柱，精雕细刻的清代牛腿，受到西洋气影响的民国门窗，比比皆是。让人饶有兴趣的是郭洞的整体布局。\n郭洞由相连的郭上村和郭下村两部分组成，道路纵横有序，均以卵石铺地，晴雨皆宜。6口水井，郭上、郭下各半。公用设施有一祠四厅，分布在村子的上、中、下三个部分，村民的祭祀、红白喜事等活动均可就近举行，郭洞的始祖似乎当时就懂得\"环保\"和\"规划\"了。建筑中最值得一提的当数何氏宗祠，它建于明万历三十七年（1609年），规模宏伟，气象肃穆，总面积达1060平方米，大梁下高4。64米，祠堂悬挂匾额30块。要不是\"文革\"中遭受破坏，匾额多达94块。祠中还建有36平方米古朴典雅的古戏台，飞檐角，壁画辉煌。每逢重要节日，台下紧锣密鼓，台下人头攒动，好不热闹……"}}, {"title": "大红岩景区", "address": "金华市武义县丹霞旅游区，武义县中部，距县城20公里，44省道上松线西侧", "image": "", "rank": 3, "time": 2.5, "location": {"lat": 28.972894582593987, "lng": 119.84340696513891}, "feature": {"sight_features": "特色1 在空中栈道上欣赏大红岩巍峨的褚红色崖壁，如同一幅壮丽的卷轴画。 钻进接二连三隧道般的洞穴里，听听它们的故事和传说。 秋天来看山下争相绽放的薰衣草、百合花、波斯菊，美不胜收。", "sight_content": "武义丹霞旅游区，浙江省武义丹霞旅游区位于武义县中部，距县城20公里，44省道上松线西侧，是武义旅游的核心景区，有近10平方公里的典型丹霞地貌。十里丹霞十里画廊，是大自然的鬼斧神工造就的一幅精美绝伦的自然画卷。丹霞地貌是由我国地质学家发现并命名的一种独特地貌，哪里有丹霞哪里就有奇山异水。武义丹霞是由紫红色砾岩夹杂红色粉砂岩形成典型的红色丹霞岩体。在距今6500万年的白垩纪晚期，受地球新构造运动产生的断裂和几千万年的溶蚀侵蚀、重力崩塌、风化剥蚀作用造就了武义丹霞多姿多彩的地貌景观。\n\n\n\n有号称世界丹霞最大赤壁的大红岩；有仙人广成子修炼得道，人文始祖黄帝悟道的崆峒山；有丹霞地貌共有的沟、谷、洞、柱、壁；象形的狮、象、鲸、猴、龟千姿百态，惟妙惟肖。游过武义丹霞人们都会发出由衷的感慨“武义丹霞山胜似武夷。"}}, {"title": "俞源太极星象村", "address": "金华市武义县城面南行20公里", "image": "", "rank": 4, "time": 2.5, "location": {"lat": 28.898243786650067, "lng": 119.82256555866991}, "feature": {"sight_features": "特色1 依照天体星象布局的古朴村落，农田构成的巨大太极图案。", "sight_content": "武义俞源太极星象村该景区位于武义县西面，距离武义县城20公里，交通便捷。该村以其深厚的文化底蕴，奇异的布局，罕见的古建筑群和精致的木雕、砖雕，以及一个个不解之谜而吸引着国内外众多游客，开放近几年多来，已有英、美、法、德、日、澳地利等十三个国家的专家、学者慕名而来。\n武义俞源太极星象村布局奇异，充满神奇。据考证俞源村是明朝开国帝师刘伯温“按天体星象排列”设置的村落，村口设有直径320米，面积120亩的巨型太极图，村庄内主要的二十八幢古建筑是按天空中的星座排布的，村中还有防火、镇邪用的“七星塘”“七星井”，体现了人与自然和谐相处“天人合一”的理想境界。\n俞源名胜古迹甚多，有始建于南宋的圆梦胜地―洞主庙，建于元代的“利涉桥”，明代的古建筑，全村共有1072间，占地3.4万平方米，有民居、宗祠、店铺、庙宇、书馆等。古建筑体量大，做工精致，墙上壁画保存完好，木雕、砖雕、石雕精细，巧夺天工，将功能与艺术，实用与美化很好地结合在一起，并与建筑主体结构完美地融合起来，独具江南风格。\n神秘的俞源古村落，抹不去600余年的封尘，走进俞源犹如走入历史的谜宫。"}}, {"title": "清水湾沁温泉", "address": "金华市武义县温泉旅游度假区温泉南路1689号", "image": "", "rank": 5, "time": 2, "location": {"lat": 28.875442814822463, "lng": 119.82964591286667}, "feature": {"sight_features": "特色1 大型的热矿泉", "sight_content": "武义清水湾沁温泉位于浙江武义，是由浙江骏达联酒店有限公司投资4.2亿元精心建设的温泉休闲度假景区，青山环抱，绿树成荫，环境优美，上百个温泉池星罗棋布散落其中，武义清水湾沁温泉是首批全国优先发展的43个旅游开发区项目之一、浙江省十佳旅游度假休闲胜地。\n武义清水湾沁温泉抽取自溪里温泉，为武义温泉的主要泉眼，属武义温泉旅游度假区管委会管辖，其日出水量达4000-6000吨以，常年水温42.6至44℃，PH值7-8，水质略显蛋青色，属重碳酸氢钠—硫酸盐型温泉水，含有多种对人体有益的微量元素和矿物质，如氟、锂、锶、锌、碘、氡偏硅酸、偏硼酸等，属大型热矿泉，称为“氟泉”。医学专家认为泡洗温泉使人肌肤润滑，精神焕发，能起到舒筋活络、消除疲劳、祛病强身、美容养颜、抵抗衰老、促进血液循环等保健作用，对骨关节、神经系统、心血管系统、呼吸系统、循环系统、消化系统、泌尿及生殖系统等多种疾病及皮肤病类、妇科疾病等数十种病症均具有显著的康复和辅助疗效。\n在灵山秀水环绕之中的武义清水湾沁温泉，铺陈开来的是一副地中海式画卷，一百多个沁温泉风格各异的温泉池镶嵌在鲜花碧草中，每一个温泉池都注入了深厚的文化内涵与不同的异域风情，别有一番浪漫风味。亭台楼阁，小桥流水，山岚飞瀑，融合温泉的自然、闲时、动感、健康等特质。从海浪池到华夏坊，从棕榈泉到欧陆风情，从草泉区到巴厘岛，从情侣木屋到欢乐岛，从SPA水疗到温泉叠瀑舞台……汇融世界温泉经典，传承华夏沐浴文化。武义清水湾沁温泉让你感受世界。\n武义清水湾沁温泉水疗区有28种不同功效的水疗按摩项目：背部超音波浴、大腿超音波浴、小腿超音波、脚底超音波、脚跟超音波、鹅颈瀑布浴、水伞浴、仰式躺椅按摩浴、温泉冲击浴、情侣坐椅、腹部按摩浴、立姿脚底针穴、周身按摩浴、漩涡池、悬浮浴、气泡涌泉浴等。　碧绿的泉水，幽雅的环境，完备的设施展示出水疗中心的生机勃勃、蒸蒸日上的现代气息。在这样的环境下，加以专业的技师为您做各式的水疗服务，放松之余身心愉悦，流连忘返。\n特色区域介绍：\n\n草泉区：与花草有机结合，形成独有美容汤，花草区一共有20余个温泉池，贵妃池、鲜奶池、灵芝池、人参池、当归池、咖啡池……让您体验中华草本奥秘。\n日式区：按日式风格建造，与大自然融为一体，日式包厢巧借自然风光，为其带来无限生机，室内选材也特别注重自然质感，与大自然亲切交流、其乐融融。日式包厢私秘空间、溢流泳池感受神秘之水，东瀛温泉文化之神韵尽在其中。\n巴厘岛风情区：按东南亚风格建造的温泉区域。当疲惫的身心浸泡在晶莹、沸腾的温度中，顿时感觉脱胎换骨的重生感，加以专业按摩师的巴哩式按摩，令您可以一边与水玩乐一边享受最温暖的健身方式，将所有劳累一泡而散，释放身心压力、精神上的重担，清静神宁地注视这个风情万种的武义清水湾沁温泉，体验另一种生活存在感。\n棕榈区：按地中海风情建造，假山瀑布、棕榈斜影与水中酒吧、茅篷相合一章，透过傍晚夕阳，午夜的星光，让您产生无限的暇想。大型水上舞台，为您提供轻松愉悦的节目表演，在放松的温泉水中，尽情开怀。\n情侣木屋：一个极具吸引力的木屋，在非凡的设计下，面积虽小，却极大的提升了空间的使用率并完美的划分了功能区。步入其中，迎面而来木香温暖的气息，宛如投入了母亲的怀抱。看园中花开花落，望天空云卷云舒。\n特色体验之火山泥浴：泥浴功效作用含有钾、钠、锌、镁、铜、硅等26种人体所需的微量元素，其负离子释放量约530个每平方米，比重为190，微远红外线的释放量有益人体的微循环系统，天然的活性炭吸附力强，起到抗衰老、美白、细肌、镇静、抑菌、消炎之作用，还可以促进了皮肤的微循环、软化角质，增强皮肤的弹性和润泽度。\n特色体验之亲亲鱼疗：当人进入温泉池中，鱼儿都围拢在人体周围，\"亲亲啃啃\"的为您工作,啄食人体老化皮质、细菌和毛孔排泄物，从而达到让人体毛孔畅通，排除体内垃圾和毒素的作用。同时还能更好的帮助人体吸收水中多种矿物质，加速人体新陈代谢，达到美肤洁体、延年益寿的神奇功效。\n特色体验之死海漂浮：含有丰富有益人体的矿物质，如锌、硒、铜、锰、铁等，和维生素E、β-胡萝卜素、腐殖酸，能有效防止机体免受自由基的侵害，提高人体内SOD酶的活性，从而达到延缓机体衰老的目的；维生素E、微量元素硅等具有营养皮肤、保持皮肤水分、增加皮下胶原蛋白含量、防止色素沉着等功效。"}}, {"title": "熟溪桥", "address": "金华市武义县溪南街", "image": "", "rank": 6, "time": 1.0, "location": {"lat": 28.895887229487915, "lng": 119.82497692865806}, "feature": {"sight_features": "", "sight_content": ""}}, {"title": "石鹅湖", "address": "金华市武义县壶山街道石鹅湖渡假区", "image": "", "rank": 7, "time": 4.0, "location": {"lat": 28.918129660652465, "lng": 119.7244527575636}, "feature": {"sight_features": "特色1 人称小千岛湖", "sight_content": "石鹅景区位于武义县城西8公里处的桃溪滩境内，面积10平方公里，分石鹅岩和石鹅湖两部分。景区内丘岭起伏，岩性复杂，断崖发育，形成独特的地貌。石鹅岩以奇岩、名寺和红军革命史迹而著称于世；石鹅湖则以秀湖著名，湖光秀色，清丽宜人，人称“小千岛湖”。\n景区属亚热带季风气候，温和宜人，四季分明，景区内林木苍盛，幽谷荫荫，奇峰秀水，怪石嶙峋，形成了气象万千的奇妙组合，融自然景观与人文景观于一体。奇岩、秀湖、洞府、夹道、幽谷是石鹅景区的景观特色，各景自成一体，婀娜多姿，灵秀动人。石鹅岩是由一块巨大的岩石和岩洞组成，在连绵的群山丘壑中突兀着，远远望去犹如一只凌空欲飞的天鹅，大岩洞又恰似那张嘴吃食的鹅嘴，故名石鹅岩。石鹅下洞，下雨时，洞背巨大的飞瀑凌空泻下仿佛美丽的水晶帘遮蔽整个洞口，让人不得不联想到孙悟空的水帘洞。\n景区有一湖四洞六岩，是人们休闲渡假的绝好去处。一湖为石鹅湖，石鹅湖以秀湖著称，湖光秀色，清丽宜人，人称“小千岛湖”。其水域面积266亩，湖水清澈明净，浅水处可见底，深处水碧如玉，湖中波光粼粼，群山皓月倒映水中，微风过时，湖面荡起层层涟漪，朦朦胧胧，更令人如痴如醉。湖区配有游艇和自划船，建有索桥、廊桥、亭台、钓鱼台等，是垂钓、嬉水、游湖的理想之地。\n洞有慈航洞府、红军洞、潜龙洞、金牛洞，其中慈航洞府面积3200平米，始建于唐朝天佑年间，至今已有1000多年历史。洞府傍岩依洞，气势非凡，虽历经沧桑仍风貌依然，是浙中禅林古刹的代表，建刹以来，香火鼎盛，游客不绝。\n岩有古栈道，天生石梁、鲸鱼岩、相思岩、巨石阵、狮象山，此诸多奇岩皆属丹霞胜景，其中以古栈道、天生石梁最为典型，天生石梁高30多米，宽10多米，横空跨越两山之间，桥面平坦，行走其上如履平地，被誉为“吴越第一梁”。\n烧烤：石鹅湖湖心岛烧烤基地设在景区湖心岛上，营地配有交通游船、木质画舫、烧烤长廊、茶艺吧、烧烤物品服务站……，烧烤基地可提供烧烤食品、烤炉、木炭、调料、桌椅和其他烧烤工具，岛上设农家灶台，亦可野炊自助。 采茶、品茶：景区是武义有机茶产地之一，在三四月份是采茶的季节，湖心岛绿油油一片茶叶山甚是壮观。在湖心岛可以参加采茶、品茶活动，自采、自制别有一番乐趣。"}}, {"title": "唐风露天温泉", "address": "金华市武义县环城北路77号塔山风景区内", "image": "", "rank": 8, "time": 2, "location": {"lat": 28.91129440078319, "lng": 119.82642746388657}, "feature": {"sight_features": "特色1 各种名目的温泉小泡池 特色2 明月松间照武川·暮雪寒梅浴唐风 特色3 穿越回大唐，温泉池里的诗画江南", "sight_content": "开元盛世，是每个炎黄子孙引以为豪的时代。\n新唐风温泉秉承了“盛唐风格”的唐代宫廷园林建筑风格，传承了“大唐风吕“的古代帝王养生沐浴温泉文化。延承了“古唐风韵”美轮美奂的盛唐文化的底蕴。\n新唐风温泉露天区占地百余亩，整个温泉区置身于壶山森林公园内，依山傍水。露天温泉共有泡池72个（先期使用40个），“龙凤迎宾汤”、“九龙至尊汤”、“五凤来仪汤”等彰显着唐代帝王的沐浴文化，“法善六根汤”解读了千古流传的中国博大精深的中医养生文化，更有一步四景，景景不同的“十二花神”四季花海温泉，露天温泉同时还拥有地热带，鱼疗，矿沙，等特色温泉区。新唐风温泉耗资千万元打造了露天5D电影，让您感受和四大美人之一的杨玉环共同沐浴的感觉，领悟长恨歌的凄美的历史故事，侧目一次真实版的贵妃出浴的场景。\n新唐风温泉史诗巨献之作“大唐街市”（11月开业），将您带回了那段梦里牵挂的往事，“明皇巡街”、“贵妃抛绣”、“民俗表演”等参与性的活动，让您真真切切享受着开元盛世的魅力,让我们这个冬天共浴唐风，圆你帝王梦。\n在这里，您感受的是一种温泉沐浴文化，更是一种对健康的投资。这里的自然美景、古唐风韵、人性化布置的特色泉池及御式服务，让您享受盛唐皇室尊贵！"}}, {"title": "寿仙谷", "address": "金华市武义县王宅镇石井里村", "image": "", "rank": 9, "time": 3.5, "location": {"lat": 28.7805963498743, "lng": 119.73171256086219}, "feature": {"sight_features": "特色1 进入寿仙谷，满目岩泉潺潺，碧竹茵茵，犹如置身幽美宁静的世外桃源！<br> 怪峰异石奇秀，石相依，竹相亲，真如郑板桥先生所画的十里长廊竹石图！", "sight_content": "进入寿仙谷，满目岩泉潺潺，碧竹茵茵，犹如置身幽美宁静的世外桃源，这里，断崖绝壁雄险，怪峰异石奇秀，石相依，竹相亲，真如郑板桥先生所画的十里长廊竹石图。 最为迷人的是九天瀑布，落差120米，上瀑如烟似雾，下瀑如珠似雨，一天白练蜿蜒于绿谷之中，令游人痴醉。景区内，可观“天下第一酒坛－－醉仙岩，”可赏“天下第一天然大寿”－－绝壁天书，可攀“华东第一悬梯”－－天梯，可尝老寿星的赠品－－赐珠园仙。\n寿仙谷的由来有许多美丽动人的传说。相传，天宫中的大将青龙与宫中侍女金凤相爱，冒犯了天规，为追求幸福，他俩私奔到此处峡谷，隐蔽在一个山洞里，过着人间美满的生活。此洞就是现在的“龙凤居”，居室石壁上仍有含情相望的龙形和凤影。青龙和金凤在龙凤居长相厮守，产有一子。儿子聪慧过人，性柔心善，深爱此谷山青水美，即静心修炼，终成正果，成为寿仙。寿仙谷因此而得名。寿仙好行善事，乐为人间主点延年益寿之应，受到百姓拥戴。千年之后，升天为星，即寿星，也就是二十八星宿中的角亢星。\n拾级而上，首先映入眼帘的是一块元宝状的大岩石，上面有一座三角的石亭，称为仙弈亭。继续上行几十米就是天门，“天门”二字是著名书法家王羲之的手笔。跨过天门，就到了赐珠园，自上空不断地有晶莹剔透的水珠滴落。相传，南极仙翁乐善好施，得道成仙后，特地在此留下用千年灵芝所酿成的仙露，并留言：“仙珠入口增寿九九。”意思是“接得一颗仙珠入口，能添寿九九八十一天。”品尝着甘甜的仙水再往前走，是聚仙阁。聚仙阁有水帘洞，据说是神仙聚会的场所。边上是炼丹厅，南极仙翁曾在此地修炼金丹，服食后飞仙而去。再往下，有“醉仙亭”、到寿星堂。寿星堂塑像是南极仙翁，高7.7米，正展眉笑迎客人。老寿仙后面的“寿星岩”，也叫“老鹰岩”。当中这块是鹰身，上方凸现来的鹰嘴很形象，两边是鹰的翅膀，正展翅欲飞。 寿星前方有块“世纪问候”纪念碑。跨入新世纪的那一天，武义县长金中梁，向一百年以后的武义县长写了一封问候函，密封在一个玻璃器皿，存放在石碑下面。同时放进去的还有当年武义的一些资料，如画册、书籍、光盘等。那天，有一百多名上海游客来武义，除了撞世纪钟，看新世纪第一缕阳光外，就是来寿仙谷种各种纪念树和寄百年信，他们写给一百年之后自己后代的信，也同县长的信放在一起。 再拾级而上，细细的雨丝会打游人脸上，带来一丝凉意。仰头望去，一条白练映入人们眼帘：寿仙谷九天瀑布。瀑布高120米，分2级，上层像烟，下层像雨，俗称“烟雨瀑”。瀑布下的水潭叫九龙潭。"}}, {"title": "清风寨", "address": "金华市武义县俞源乡清风寨", "image": "", "rank": 10, "time": 5.0, "location": {"lat": 28.798957106686878, "lng": 119.6710975954939}, "feature": {"sight_features": "", "sight_content": ""}}, {"title": "牛头山梦温泉", "address": "金华市武义县柳城镇西联乡上田村", "image": "", "rank": 11, "time": 2, "location": {"lat": 28.638845567291657, "lng": 119.60963705964089}, "feature": {"sight_features": "特色1 享有浙中桃花源的美誉", "sight_content": "武义牛头山旅游景区位于浙江金华武义境内距县城西南60公里的西联乡上田村，景区以牛头山国家森林公园的自然山水资源为依托，开发建设开放了石门峡峡谷游览景区，神牛谷漂流区，和刚刚开业的五星级温泉休闲区三部分。\n武义牛头山相传为老子坐骑青牛所化，唐代道教领袖叶法善天师常在此采药炼丹，他侍奉了自高宗、武则天 至玄宗五朝唐皇，所得的皇帝尊宠在道 教史上也是绝无仅有的。牛头山梦幻谷温泉含有多种人体有益的矿物质，对你的身心健康更加有益！\n叶天师105岁鹤龄在此牛头山羽化仙去后，乡人 建殿崇祀。钦定《四库全书》载：叶天师殿，在县东牛头山，祀叶法善真人。 牛头山因而成为充满神奇的道教 名山，天师古殿缘此平添神秘的力量与灵气。"}}, {"title": "神牛谷漂流", "address": "金华市武义县柳城镇西联乡上田村", "image": "", "rank": 12, "time": 2, "location": {"lat": 28.638845567291657, "lng": 119.60963705964089}, "feature": {"sight_features": "特色1 ★神牛谷漂流过程缓段休闲自在，急段有惊无险！ 特色2 ★神牛谷漂流区两岸森林茂密，怪石林立，风景极其独特！ 特色3 ★神牛谷漂流非常适合大都市紧张的人们放松疲惫的心情！", "sight_content": "浙江武义神牛谷漂流景区由于植被保护良好，起到了很好的水源涵养和水质净化作用，该漂流区段为原始天然浴场，构成了这里独具一格的自然景观和地域特色。漂流区两岸森林茂密，怪石林立，风景极其独特，缓段休闲自在，急段有惊无险，两岸森林植被丰富、山石林立、河流千回百转，风景宜人。神牛谷漂流于2010年7月10日正式对外开放。神牛谷漂流不同于其它地方的漂流，神牛谷贵在纯真与自然，因为它开发的时间非常短，基本上没有人为因素的改变，所以你看到的一山一水一树都是自然的。\n武义神牛谷漂流使用高强度像皮筏漂流，每只筏乘2人，正常漂流时间大约在3个小时左右。因为峡谷迂回迭荡，所以水流有缓有急，缓时如平静之湖面，需要划浆才可以前行，橡皮筏会上下颠簸，轻则让游客全身湿透，重则会让人落水，其中趣味繁多。神牛谷浅滩处只刚刚没脚，浅滩处橡皮筏上的游客可以用水盆、水瓢等物品盛水相互嬉戏，无论老少,玩这种游戏均兴奋异常。神牛谷两岸呈丘陵地势，山不高，山势迂缓漫延，两岸青翠树木郁郁匆匆，夹杂着山间清新空间和当空的骄阳，偶然间还会看到有山间的溪流飞瀑，非常适合大都市紧张的人们放松疲惫的心情。"}}, {"title": "刘秀垄", "address": "金华市武义县俞源乡刘秀垄村", "image": "", "rank": 13, "time": 4.5, "location": {"lat": 28.79916245366649, "lng": 119.6797679504428}, "feature": {"sight_features": "", "sight_content": ""}}, {"title": "小黄山", "address": "金华市武义县山赤线小黄山畲族古村", "image": "", "rank": 14, "time": 1.0, "location": {"lat": 28.59170052608902, "lng": 119.62947490434703}, "feature": {"sight_features": "", "sight_content": ""}}, {"title": "三美卡丁车竞技游乐中心", "address": "金华市武义县大公山村武义三美赛车场", "image": "", "rank": 15, "time": 2, "location": {"lat": 28.848796268766108, "lng": 119.78566900013159}, "feature": {"sight_features": "", "sight_content": ""}}, {"title": "延福寺", "address": "金华市武义县桃溪镇陶村东福平山", "image": "", "rank": 16, "time": 1.5, "location": {"lat": 28.71525929006097, "lng": 119.60916193867038}, "feature": {"sight_features": "", "sight_content": ""}}, {"title": "九龙谷漂流", "address": "金华市武义县俞源乡", "image": "", "rank": 17, "time": 2, "location": {"lat": 28.77973920903771, "lng": 119.64982632648258}, "feature": {"sight_features": "特色1 河道设计科学安全，两边青山环抱", "sight_content": "九龙谷漂流位于浙中武义俞源乡大黄岭头村，在国家首批历史文化名村俞源太极星象村边。该段山涧既有腾云驾雾的九龙山群峰，又有天人合一的古村落，漂流全长2公里，总落差150多米，河道设计科学安全，又惊险独特，水浪飞流直下，漂流九曲十八弯，尽显九龙抢珠之风采。\n俞源九龙谷漂流是温泉名城武义开发的第二个漂流项目，在武义俞源乡大黄岭头村和国家首批公布的中国历史文化名村俞源之间。大黄岭头村坐落于海拔1041米的武义中部最高峰龙头眼睛山的半山腰，是一个藏在深山中的古村落。漂流水源发源于龙头眼睛山麓，这里上有腾云驾雾的九龙山群峰，下有太极星象古村落，遥相辉映。在古村落和青山怀抱中漂流，是一种绝美的享受。俞源古村青山环绕，进山两三公里就是九龙谷漂流，形同九龙戏珠。"}}, {"title": "十里荷花", "address": "金华市武义县柳城畲族镇毗邻牛头山国家森林公园和小黄山畲乡风景区", "image": "", "rank": 18, "time": 2, "location": {"lat": 28.670684302083895, "lng": 119.51094209008971}, "feature": {"sight_features": "", "sight_content": ""}}, {"title": "台山景区", "address": "金华市武义县柳城镇云华", "image": "", "rank": 19, "time": 3.0, "location": {"lat": 28.629414834211495, "lng": 119.60561284948302}, "feature": {"sight_features": "", "sight_content": ""}}, {"title": "清溪湖温泉", "address": "金华市武义县温泉旅游度假区温泉南路1689号", "image": "", "rank": 20, "time": 2, "location": {"lat": 28.875442814822463, "lng": 119.82964591286667}, "feature": {"sight_features": "", "sight_content": ""}}, {"title": "寿仙谷漂流", "address": "金华市武义县王宅镇石井里村寿仙谷景区内", "image": "", "rank": 21, "time": 2, "location": {"lat": 28.825247690174038, "lng": 119.70454330623036}, "feature": {"sight_features": "特色1 有\"天高重霄九，地美大莱口，山清水又秀，古井称魁首之称。 特色2 寿仙谷漂流全程约3公里，总落差却有70余米，落差位有40余处，最为惊险的当属龙潭河段，有着跌宕起伏的三段巨大落差和S型的大转角。寿仙谷：纵情山水的精灵 。 特色3 在谷中，可看“金华第一瀑”——九天瀑布，可观“天下第一酒坛”——醉仙岩，可赏“天下第一天然大寿”——绝壁天书，可攀“华东第一悬梯”——天梯，可尝老寿星的赠品——赐珠园仙珠。", "sight_content": "相传为南极寿翁故里的寿仙谷，是自大莱口村到桃花庄（现名石井里）崖险溪急的峡谷。神仙皆居好山水，可见此处风光奇。难怪古诗人惊叹：\"天高重霄九，地美大莱口，山清水又秀，古井称魁首。\" 进入寿仙谷，满目岩泉潺潺，碧竹茵茵，犹如置身幽美宁静的世外桃源。这里，断崖绝壁雄险，怪峰异石奇秀，石相依，竹相亲，真如郑板桥先生所画的十里长廊竹石图。 ，也是享受。\n在谷中，可看“金华第一瀑”——九天瀑布，可观“天下第一酒坛”——醉仙岩，可赏“天下第一天然大寿”——绝壁天书，可攀“华东第一悬梯”——天梯，可尝老寿星的赠品——赐珠园仙珠…… 寿仙谷漂流，漂流区全程约3公里，总落差却有70余米，落差位有40余处，需时约60分钟。寿仙谷漂流，具有崖高谷深、河道曲折、落差悬殊、水流清澈等特点。在这里，您既能在忽转忽旋、急驰而下中挑战极限，提升勇气；又能在大浪扑面、浪遏飞舟中享受刺激，体验激情；还能在潺潺流水、轻舟荡漾中远离尘嚣，享受浪漫。寿仙谷漂流，让你成为不再是美景之外的看客，而是纵情山水的精灵。"}}, {"title": "钱江源漂流", "address": "武义俞源乡凡脚岭", "image": "", "rank": 22, "time": 2, "location": {"lat": 28.77973920903771, "lng": 119.64982632648258}, "feature": {"sight_features": "特色1 河道四面群山，峰峦起伏", "sight_content": "武义钱江源漂流位于浙江武义俞源乡凡岭脚村，漂流全程约2.8公里，分一级勇士全程漂，二级休闲漂。\n河道总体落差约100余米，落差区位60余个，惊险刺激河道段约10余处，漂流游程约90分钟，水质清澈透底，流量大，是一处理想的漂流去处。\n漂流河道四面群山，峰峦起伏，卵石河床，青山飞流，风光无限，乘坐皮划艇清澈见底的溪水顺流而下，任意东西，天高水长，阳光灿烂。"}}, {"title": "桃花源漂流", "address": "金华市武义县桃溪镇陶村桃花源漂流", "image": "", "rank": 23, "time": 2, "location": {"lat": 28.717893488255733, "lng": 119.59654402687107}, "feature": {"sight_features": "", "sight_content": ""}}, {"title": "武义温泉萤石博物馆江南一泉温泉", "address": "金华市武义县武义温泉南路1688号。（清水湾度假村对面）", "image": "", "rank": 24, "time": 2.5, "location": {"lat": 28.89719147247901, "lng": 119.82995591809807}, "feature": {"sight_features": "", "sight_content": ""}}, {"title": "武义温泉度假区", "address": "金华市武义县，紧邻武义县城", "image": "", "rank": 25, "time": 2.5, "location": {"lat": 28.898243786650067, "lng": 119.82256555866991}, "feature": {"sight_features": "", "sight_content": ""}}, {"title": "大斗山飞行营地", "address": "金华市武义县王宅镇", "image": "", "rank": 26, "time": 2, "location": {"lat": 28.816121510650902, "lng": 119.7113743833431}, "feature": {"sight_features": "特色1 该基地整体规划面积3000余亩。海拔落差和地势环境非常适合开展热气球、滑翔伞、动力伞、三角翼等飞行运动。 特色2 基地内的草坪可以打造热气球婚礼，开展滑翔伞、三角翼、动力伞等飞行体验项目。还可以搭配卡丁车、山地越野、丛林穿越等体育运动项目。", "sight_content": "‍‍‍‍‍‍‍‍‍‍‍‍\n武义大斗山飞行营地位于金华武义县王宅镇，是由浙江博来体育发展有限公司投资开发的以户外体育运动为主题，集飞行体验、山地运动、休闲运动、户外拓展、房车露营、度假养生等多功能为一体的户外体育运动基地。\n该基地整体规划面积3000余亩。海拔落差和地势环境非常适合开展热气球、滑翔伞、动力伞、三角翼等飞行运动；\n基地内的草坪可以打造热气球婚礼，开展滑翔伞、三角翼、动力伞等飞行体验项目。还可以搭配卡丁车、山地越野、丛林穿越等体育运动项目。另外依托武义地方旅游文化，游客还可以体验山林木屋休娱、房车露营、竹林养生、康体健身、亲子教育等体验项目；\n未来，该基地作为地方旅游产业优势互补的同时，也将会与地方优势旅游项目充分互动，更好的促进地方旅游经济和产业大发展，使得武义成为浙中地区一颗璀璨的明珠。"}}, {"title": "明招温泉", "address": "浙江省金华市武义县明招路 ‎", "image": "", "rank": 27, "time": 2, "location": {"lat": 28.902923092312, "lng": 119.84378557396208}, "feature": {"sight_features": "", "sight_content": ""}}, {"title": "千丈岩", "address": "武义县泉溪镇 董源坑村", "image": "", "rank": 28, "time": 1.5, "location": {"lat": 28.780254701199237, "lng": 119.9159888169477}, "feature": {"sight_features": "特色1 生态环境良好，宜观光旅游、养生健身。 特色2 千丈岩滑雪场会有滑雪教练现场指导，有整套的装备出租，所以前去游玩的乘客无需携带设备。 特色3 武义千丈岩景区生态环境良好，主要植被为面积约1.3万亩的竹林，景区水系为钱塘江水系，主流发源于千丈岩，千丈岩东侧山坑水为武义江源头。", "sight_content": "武义千丈岩位于浙江省中部，素有“萤石之乡，温泉之都”美誉的武义县，海拔700-1000米。景区地处武义、缙云、永康交界处。\n景区以独有的知青文化历史为依托，郁郁葱葱的万亩竹海为环境基础，集特色竹海景观与竹文化、人文历史森林生态环境和嘻雪功能旅游资源为一体，是一处既宜观光旅游、农作体验，运动体验，又宜避暑度假、养生健身、科普教育的多功能特色景区。\n武义千丈岩滑雪\n千丈岩滑雪场位于武义县泉溪镇，总造雪面积1.2万平方米，共设计2条雪道，雪道总长约300米，可同时容纳220人滑雪，整个滑雪季将持续70天左右。滑雪场会有滑雪教练现场指导，有整套的装备出租，所以前去游玩的乘客无需携带设备。\n武义千丈岩玻璃栈道\n武义千丈岩景区\n武义千丈岩景区是一处既宜观光旅游、农作体验、嘻雪运动、森林游憩、又宜避暑度假、养生健身、科普教育的多功能特色景区。\n武义千丈岩景区生态环境良好，主要植被为面积约1.3万亩的竹林，景区水系为钱塘江水系，主流发源于千丈岩，千丈岩东侧山坑水为武义江源头。"}}, {"title": "璟园古民居博物馆", "address": "金华市武义市温泉南路1533号", "image": "", "rank": 29, "time": 2, "location": {"lat": 28.875442814822463, "lng": 119.82964591286667}, "feature": {"sight_features": "特色1 80余栋江南各地迁建而来的古民居", "sight_content": "武义璟园古民居博物馆位于武义县温泉度假区，系浙江省重点工程、浙江省旅游重点项目。\n璟园项目占地20万平方米，里面安放着80余栋江南各地依法迁建而来的古民居。并配套建造花园、楼台亭阁和水榭观景，目前璟园已成为集旅游、观光、研究古民居文化为一体“大观园”。"}}, {"title": "花田小镇", "address": "金华市武义县王宅镇", "image": "", "rank": 30, "time": 2, "location": {"lat": 28.816121510650902, "lng": 119.7113743833431}, "feature": {"sight_features": "", "sight_content": ""}}, {"title": "武义温泉萤石博物馆", "address": "金华市武义县武义温泉南路1688号（清水湾度假村对面）", "image": "", "rank": 31, "time": 2.5, "location": {"lat": 28.89719147247901, "lng": 119.82995591809807}, "feature": {"sight_features": "", "sight_content": ""}}, {"title": "明招寺", "address": "浙江省金华武义县明招寺", "image": "", "rank": 32, "time": 2, "location": {"lat": 28.94529609924925, "lng": 119.89395610915244}, "feature": {"sight_features": "", "sight_content": ""}}, {"title": "武士山（山外山）红色景区", "address": "金华市武义县俞源古镇下杨水弄山（山外山）", "image": "", "rank": 33, "time": 2, "location": {"lat": 28.777596655383423, "lng": 119.67043385462061}, "feature": {"sight_features": "", "sight_content": ""}}, {"title": "大博金一乐园", "address": "金华市武义县王宅镇仁村", "image": "", "rank": 34, "time": 2, "location": {"lat": 28.855801121494146, "lng": 119.72882381425842}, "feature": {"sight_features": "特色1 感受浪漫薰衣草风情，体验全地形车驾驶", "sight_content": "大博金一乐园是浙江大博金农业开发有限公司投巨额打造开发的大型现代生态农业、创3A级观光主题乐园。园区离武义县城10公里，位于武义县王宅镇仁村，交通便宜，距金温高速12公里，武义高铁站15公里，44省道贯穿全境。\n此前，《浙江日报》结合“浙江省十大养生福地”武义的实际情况，以“气养、水养、体养、食养、药养”五养专版解读了养生福地的新内涵。五养之一的“食养”主角大博金，拥有红心火龙果栽培基地的大博金，近些年先后引进牛奶蜜枣、车厘子等绿色有机水果，并建成各色水果长廊形成独特生态园。\n今年年初，现己建成薰衣草园、波斯花海、全地形车运动场、观光小火车、土灶长廊、水上乐园、恐龙世界等诸多旅游观光项目，定于今年10月1日正式对外开园。此外，大博金一乐园目前正积极筹备争创AAA级旅游景区。在大博金一乐园，领先感受浪漫薰衣草风情，激情体验全地形车驾驶，穿越壮观时空隧道，看格桑花、格桑花中乘座卡通小火车回忆儿时记忆……这里有热带水果观光园，火龙果采摘基地，浪漫薰衣草婚纱摄影基地，激情地形车赛道，穿越时空隧道，3D走廊，卡通小火车，儿童攀岩，水上小游船，7D影院，DIY手工巧克力制作，你还在等什么，快来吧~~"}}, {"title": "花果山庄水上乐园", "address": "植物园前200米(花果山庄内)", "image": "", "rank": 35, "time": 2, "location": {"lat": 40.4075363005954, "lng": 117.48552197718513}, "feature": {"sight_features": "", "sight_content": ""}}, {"title": "壶山森林公园", "address": "金华市武义县", "image": "", "rank": 36, "time": 2, "location": {"lat": 28.898243786650067, "lng": 119.82256555866991}, "feature": {"sight_features": "", "sight_content": ""}}, {"title": "台山寺旅游区", "address": "浙江省金华市武义县柳城镇祝村", "image": "", "rank": 37, "time": 2, "location": {"lat": 28.614641771735883, "lng": 119.61219016786556}, "feature": {"sight_features": "", "sight_content": ""}}, {"title": "金华小黄山畲族风情村", "address": "浙江省武义县柳城镇", "image": "", "rank": 38, "time": 4.5, "location": {"lat": 28.629414834211495, "lng": 119.60561284948302}, "feature": {"sight_features": "", "sight_content": ""}}, {"title": "何氏宗祠", "address": "浙江省金华市武义县郭洞古生态村", "image": "", "rank": 39, "time": 2, "location": {"lat": 28.898243786650067, "lng": 119.82256555866991}, "feature": {"sight_features": "", "sight_content": ""}}, {"title": "龙潭", "address": "浙江省金华市武义县王宅镇", "image": "", "rank": 40, "time": 0.25, "location": {"lat": 28.816121510650902, "lng": 119.7113743833431}, "feature": {"sight_features": "", "sight_content": ""}}, {"title": "骆驼九龙黑茶文化园", "address": "金华市武义县王宅江南工业功能区", "image": "", "rank": 41, "time": 2, "location": {"lat": 29.055127499028618, "lng": 119.68714878783254}, "feature": {"sight_features": "", "sight_content": "骆驼九龙黑茶文化园是一个以黑茶养生文化为主题的景区，包含一栋四层主体建筑，内设接待中心，茶道培训等功能厅。可为游客提供茶知识学习，茶道培训等交流传播场所。\n车主题吧是一个以骆驼九龙创业故事为主题，以绿皮火车文化为脉络的多功区块，配套有站台、露台等设施，可进行文化主题沙龙、影视创作交流、品茶休闲等，可以成为广大青年游客休闲交友的青春联络站。印象丝路茶膳馆餐厅主要以茶膳为主。"}}, {"title": "大湾湖", "address": "莫名湖(近郭洞古村)", "image": "", "rank": 42, "time": 2, "location": {"lat": 30.089175841684725, "lng": 108.49532146432824}, "feature": {"sight_features": "", "sight_content": ""}}, {"title": "百花广场", "address": "开发大道36号武义物流中心公楼203室", "image": "", "rank": 43, "time": 2, "location": {"lat": 28.952105023922883, "lng": 119.83869905375934}, "feature": {"sight_features": "", "sight_content": ""}}, {"title": "汤思伯故里", "address": "开发大道", "image": "", "rank": 44, "time": 2, "location": {"lat": 28.868011858096068, "lng": 121.1729539322727}, "feature": {"sight_features": "", "sight_content": ""}}, {"title": "柳城荷花博物馆", "address": "220省道", "image": "", "rank": 45, "time": 2, "location": {"lat": 40.38775563397051, "lng": 115.90384459998963}, "feature": {"sight_features": "", "sight_content": ""}}, {"title": "陈厍纪念馆", "address": "许曳线", "image": "", "rank": 46, "time": 2, "location": {"lat": 28.63837244125004, "lng": 119.7438260390839}, "feature": {"sight_features": "", "sight_content": ""}}, {"title": "温泉华园(东区西南门店)", "address": "武川路40号", "image": "", "rank": 47, "time": 2, "location": {"lat": 31.30658843402091, "lng": 121.50102914976625}, "feature": {"sight_features": "", "sight_content": ""}}, {"title": "古汤池", "address": "解放北街14号", "image": "", "rank": 48, "time": 2, "location": {"lat": 28.905913722397717, "lng": 119.81967040624954}, "feature": {"sight_features": "", "sight_content": ""}}, {"title": "奔跑吧水世界", "address": "北岭雅苑旁边", "image": "", "rank": 49, "time": 2, "location": {"lat": 28.928729501082874, "lng": 119.808822596474}, "feature": {"sight_features": "", "sight_content": ""}}, {"title": "溪里温泉", "address": "武丽线莱茵小镇内", "image": "", "rank": 50, "time": 2, "location": {"lat": 28.843332583706704, "lng": 119.82264255333345}, "feature": {"sight_features": "", "sight_content": ""}}, {"title": "武义牛角山庄温泉(温泉)", "address": "牛头山国家森林公园景区内", "image": "", "rank": 51, "time": 2.5, "location": {"lat": 31.25621990038516, "lng": 119.74206949655677}, "feature": {"sight_features": "", "sight_content": ""}}, {"title": "武义蓝健家庭农场", "address": "古竹村蓝莓山", "image": "", "rank": 52, "time": 2.5, "location": {"lat": 29.570768436209736, "lng": 120.07730876703833}, "feature": {"sight_features": "", "sight_content": ""}}, {"title": "塘头影剧院", "address": "武丽线附近", "image": "", "rank": 53, "time": 2, "location": {"lat": 28.76120280797477, "lng": 119.77694283885121}, "feature": {"sight_features": "", "sight_content": ""}}, {"title": "徐家小院", "address": "金华市武义县王宅镇石井里村寿仙谷南行60米", "image": "", "rank": 54, "time": 2, "location": {"lat": 28.78012147311743, "lng": 119.73171256086219}, "feature": {"sight_features": "", "sight_content": ""}}, {"title": "武义市民广场", "address": "壶山街道壶山下街1号", "image": "", "rank": 55, "time": 2.5, "location": {"lat": 28.901464144144988, "lng": 119.82742072028863}, "feature": {"sight_features": "", "sight_content": ""}}, {"title": "梅川广场", "address": "履坦镇履二村", "image": "", "rank": 56, "time": 2, "location": {"lat": 28.952527672439846, "lng": 119.80701433263557}, "feature": {"sight_features": "", "sight_content": ""}}, {"title": "桐琴影剧院", "address": "浙江省金华市武义县赵宅S43(旧)桐琴镇政府", "image": "", "rank": 57, "time": 2, "location": {"lat": 28.879607093964527, "lng": 119.94674363017397}, "feature": {"sight_features": "", "sight_content": ""}}, {"title": "王宅影剧院", "address": "金华市武义县双岩路249号", "image": "", "rank": 58, "time": 2, "location": {"lat": 28.831694299764287, "lng": 119.700566507739}, "feature": {"sight_features": "", "sight_content": ""}}, {"title": "荷花地", "address": "金华市武义县", "image": "", "rank": 59, "time": 2, "location": {"lat": 28.898243786650067, "lng": 119.82256555866991}, "feature": {"sight_features": "", "sight_content": ""}}, {"title": "石鹅湖景区", "address": "浙江省武义县桃溪滩乡 321200", "image": "", "rank": 60, "time": 2, "location": {"lat": 28.904034123557825, "lng": 119.7677256251521}, "feature": {"sight_features": "", "sight_content": ""}}]}