{"cityName": "武陟", "days": null, "cityImage": "", "spots": [{"title": "嘉应观", "address": "焦作武陟县城东南12公里杨庄村南", "image": "", "rank": 1, "time": 1.5, "location": {"lat": 35.046865735133004, "lng": 113.51648931229055}, "feature": {"sight_features": "特色1 河南省文物保护单位", "sight_content": "嘉应观在武陟县东13公里的二铺营东。南距黄河4公里。清雍正初年，以黄、沁安澜奉敕建。有铜碑，高4.3米，宽0.95米，厚0.24米，下为独角兽碑座，侧刻龙纹。相传修堤时，雍正驾临，扳石填基，故观前的黄河堤坝，至今仍称御坝。观内现存殿宇100余间，皆采用清代宫式建筑形制规模雄巨，结构谨严。观前山门正中嵌石，上刻“敕建嘉应观”。门周石雕五条奔龙和海水、云气等，技巧颇精。门左右有掖门，山门内两侧为重檐歇山式钟鼓楼。轴线建筑有御碑亭、天王殿、大王殿和禹王殿。\n\n嘉应观建于清雍正元年（1723）年，是雍正皇帝为纪念在武陟筑坝堵口、祭祀河神、封赏治河功臣，而修建的的座集宫、庙、衙三位一体黄淮诸河龙王庙，建筑风格形似故宫，主要包括山门、御碑亭、治河功臣殿、中大殿、禹王阁等，规模宏大，有“北京小故宫”之美誉。嘉应观现占地140亩，中轴线南北依次有山门、御碑亭、前楼、更衣殿、龙王殿、风神殿、雨神殿，东西跨院为河台、道台衙署。嘉应观山门为单檐歇山顶，顶部覆盖兰色琉璃瓦，檐下为五踩重昂斗拱，用材甚小，玲珑别致。外檐木质上均有彩绘，笔调明朗，色彩鲜艳。"}}, {"title": "千佛阁", "address": "焦作市武陟县东大街", "image": "", "rank": 2, "time": 1.0, "location": {"lat": 35.10516572333428, "lng": 113.40064081451898}, "feature": {"sight_features": "", "sight_content": ""}}, {"title": "无畏护生园", "address": "焦作市武陟县北郭乡余会", "image": "", "rank": 3, "time": 2, "location": {"lat": 35.02386227791491, "lng": 113.33921605545919}, "feature": {"sight_features": "", "sight_content": ""}}, {"title": "享润温泉", "address": "和平路海英美容美发阳光工程培训学校院内", "image": "", "rank": 4, "time": 2, "location": {"lat": 35.10741252535429, "lng": 113.41233668668258}, "feature": {"sight_features": "", "sight_content": ""}}, {"title": "锴福温泉", "address": "104省道附近", "image": "", "rank": 5, "time": 2, "location": {"lat": 37.84517653890577, "lng": 112.34866876283355}, "feature": {"sight_features": "", "sight_content": ""}}, {"title": "天宇鹌鹑孵化场", "address": "309省道附近", "image": "", "rank": 6, "time": 2, "location": {"lat": 40.709016096764906, "lng": 116.52743651721413}, "feature": {"sight_features": "", "sight_content": ""}}, {"title": "鑫海庄园", "address": "谢旗营镇新洛路3号", "image": "", "rank": 7, "time": 2, "location": {"lat": 30.683312067782754, "lng": 104.29953508838305}, "feature": {"sight_features": "", "sight_content": ""}}, {"title": "胖发祥时代广场(No.7)", "address": "河南省焦作市武陟县兴华路38号-附10", "image": "", "rank": 8, "time": 2, "location": {"lat": 35.10653523933755, "lng": 113.41512525515515}, "feature": {"sight_features": "", "sight_content": ""}}, {"title": "二仙庙", "address": "焦作市武陟县大封镇", "image": "", "rank": 9, "time": 1.0, "location": {"lat": 34.97511641246584, "lng": 113.24811158957023}, "feature": {"sight_features": "", "sight_content": ""}}, {"title": "龙泉青岛啤酒美食广场", "address": "文化路与工业路交叉路向北150米路西", "image": "", "rank": 10, "time": 2.0, "location": {"lat": 25.154627984618415, "lng": 104.9728458224129}, "feature": {"sight_features": "", "sight_content": ""}}, {"title": "汤王庙", "address": "河南省焦作市武陟县谢旗营镇英才幼儿园附近", "image": "", "rank": 11, "time": 2, "location": {"lat": 35.118491538130634, "lng": 113.51242462897662}, "feature": {"sight_features": "", "sight_content": ""}}, {"title": "三阳乡教堂", "address": "三阳村南四街", "image": "", "rank": 12, "time": 2, "location": {"lat": 43.14265858629842, "lng": 124.966276109903}, "feature": {"sight_features": "", "sight_content": ""}}, {"title": "福慧寺", "address": "河南省焦作市武陟县万花村", "image": "", "rank": 13, "time": 1.5, "location": {"lat": 35.126856210988166, "lng": 113.38717690284045}, "feature": {"sight_features": "", "sight_content": ""}}, {"title": "宜家生活广场(圪垱店)", "address": "河南省焦作市武陟县圪垱店", "image": "", "rank": 14, "time": 2, "location": {"lat": 35.105838449216684, "lng": 113.4083958204103}, "feature": {"sight_features": "", "sight_content": ""}}, {"title": "飞鸿游园", "address": "朝阳一路与黄河大道交叉口西南50米", "image": "", "rank": 15, "time": 2, "location": {"lat": 35.10309474788904, "lng": 113.42040446009486}, "feature": {"sight_features": "", "sight_content": ""}}, {"title": "胖金来生活广场", "address": "迎宾路那些年的小板凳老火锅旁", "image": "", "rank": 16, "time": 2, "location": {"lat": 37.7537757348046, "lng": 115.65693980868822}, "feature": {"sight_features": "", "sight_content": ""}}, {"title": "儿童乐园", "address": "焦作市武陟县", "image": "", "rank": 17, "time": 2, "location": {"lat": 35.105838449216684, "lng": 113.4083958204103}, "feature": {"sight_features": "", "sight_content": ""}}, {"title": "海德公园", "address": "武陟木栾大道与朝阳二街交叉口东500米", "image": "", "rank": 18, "time": 2.0, "location": {"lat": 35.09954237060125, "lng": 113.42952933517702}, "feature": {"sight_features": "", "sight_content": ""}}, {"title": "老字号门业大展厅", "address": "河南省焦作市武陟县小董乡高九线小董客运站东150米", "image": "", "rank": 19, "time": 2, "location": {"lat": 35.083846840030404, "lng": 113.22305661642179}, "feature": {"sight_features": "", "sight_content": ""}}, {"title": "百草园水族馆", "address": "光明二路与向阳一街交叉口东200米", "image": "", "rank": 20, "time": 2, "location": {"lat": 35.09275320631856, "lng": 113.42303245106768}, "feature": {"sight_features": "", "sight_content": ""}}, {"title": "慕荘肃公祠", "address": "河南省焦作市武陟县", "image": "", "rank": 21, "time": 2, "location": {"lat": 35.105838449216684, "lng": 113.4083958204103}, "feature": {"sight_features": "", "sight_content": ""}}, {"title": "水浒新村旅游景点", "address": "渠首汽垫船码头附近", "image": "", "rank": 22, "time": 2, "location": {"lat": 34.99264107126972, "lng": 113.52086690415938}, "feature": {"sight_features": "", "sight_content": ""}}, {"title": "亚圣祠", "address": "大街附近", "image": "", "rank": 23, "time": 2, "location": {"lat": 39.86731619074314, "lng": 119.43216012593926}, "feature": {"sight_features": "", "sight_content": ""}}, {"title": "何塘纪念馆", "address": "河南省焦作市武陟县002县道与311省道交叉口西北150米", "image": "", "rank": 24, "time": 2, "location": {"lat": 35.07424391461651, "lng": 113.59072875248422}, "feature": {"sight_features": "", "sight_content": ""}}, {"title": "谢旗营镇烈士陵园", "address": "谢旗营镇309省道新起点驾校西北", "image": "", "rank": 25, "time": 2, "location": {"lat": 35.38211250853903, "lng": 103.86580817125557}, "feature": {"sight_features": "", "sight_content": ""}}, {"title": "欢乐谷水上乐园", "address": "文化路自来水公司西临院内欢乐谷水上乐园", "image": "", "rank": 26, "time": 1.5, "location": {"lat": 29.886752098731236, "lng": 121.54829842999558}, "feature": {"sight_features": "", "sight_content": ""}}, {"title": "神童动漫水世界", "address": "龙源湖花卉市场南临", "image": "", "rank": 27, "time": 2, "location": {"lat": 26.620391094105646, "lng": 118.17838302373445}, "feature": {"sight_features": "", "sight_content": ""}}, {"title": "木栾大酒店威尼斯温泉", "address": "朝阳一街中段", "image": "", "rank": 28, "time": 2, "location": {"lat": 27.469754863131598, "lng": 120.37312767665081}, "feature": {"sight_features": "", "sight_content": ""}}, {"title": "舞之韵艺术中心", "address": "235省道西50米", "image": "", "rank": 29, "time": 2, "location": {"lat": 38.72736549768279, "lng": 115.81232622276914}, "feature": {"sight_features": "", "sight_content": ""}}, {"title": "soso童屋", "address": "朝阳二路75号附近", "image": "", "rank": 30, "time": 2, "location": {"lat": 35.09964708641493, "lng": 113.41211593708657}, "feature": {"sight_features": "", "sight_content": ""}}, {"title": "武陟县图书馆", "address": "南大街(武陟县公安局附近)", "image": "", "rank": 31, "time": 2, "location": {"lat": 35.103004119407274, "lng": 113.3976678068574}, "feature": {"sight_features": "", "sight_content": ""}}, {"title": "男人海洋经典时尚", "address": "红旗路075号附19号", "image": "", "rank": 32, "time": 2, "location": {"lat": 39.93893299791994, "lng": 119.5944560724435}, "feature": {"sight_features": "", "sight_content": ""}}, {"title": "得雅堂画廊", "address": "振华巷附近", "image": "", "rank": 33, "time": 2, "location": {"lat": 35.10963337080667, "lng": 113.41633578381294}, "feature": {"sight_features": "", "sight_content": ""}}, {"title": "河南省武陟产业集聚区", "address": "工业北路", "image": "", "rank": 34, "time": 2, "location": {"lat": 33.90605809937704, "lng": 117.9519503418773}, "feature": {"sight_features": "", "sight_content": ""}}, {"title": "巨峰葡萄园", "address": "003乡道", "image": "", "rank": 35, "time": 2, "location": {"lat": 40.96482298415481, "lng": 116.62729781702801}, "feature": {"sight_features": "", "sight_content": ""}}, {"title": "武陟县百信农民专业合作社", "address": "迎宾大道翰林苑小区南邻", "image": "", "rank": 36, "time": 2, "location": {"lat": 37.09496091908901, "lng": 114.50577705662504}, "feature": {"sight_features": "", "sight_content": ""}}, {"title": "东石寺遗址 Dongshi Temple Ruin...", "address": "河南武陟县城关乡东石寺村", "image": "", "rank": 37, "time": 2, "location": {"lat": 35.105838449216684, "lng": 113.4083958204103}, "feature": {"sight_features": "", "sight_content": ""}}, {"title": "河南武陟商贸中心", "address": "河南省武陟县迎宾大道", "image": "", "rank": 38, "time": 2, "location": {"lat": 35.098344817615555, "lng": 113.44152426851609}, "feature": {"sight_features": "", "sight_content": ""}}]}