{"cityName": "吴忠", "days": "", "cityImage": "", "spots": [{"title": "青铜峡108塔", "address": "青铜峡市青铜峡镇大坝下游西岸", "image": "", "rank": 1, "time": 1.5, "location": {"lat": 37.89446329382922, "lng": 106.02229200168364}, "feature": {"sight_features": "", "sight_content": ""}}, {"title": "同心清真大寺", "address": "吴忠市同心县城以南", "image": "", "rank": 2, "time": 1.0, "location": {"lat": 36.98626962916477, "lng": 105.92059907759594}, "feature": {"sight_features": "", "sight_content": ""}}, {"title": "青铜峡黄河大峡谷", "address": "吴忠市青铜峡市青铜峡镇", "image": "", "rank": 3, "time": 1.5, "location": {"lat": 37.89446329382922, "lng": 106.02229200168364}, "feature": {"sight_features": "特色1 素有“黄河上游小三峡”之称 特色2 黄河中上游第一峡谷 特色3 十里长峡十里景，十里画廊在青铜。", "sight_content": "‍国家AAAA级景区青铜峡黄河大峡谷景区位于宁夏中部，北邻沙湖，南接沙坡头，距滨河水韵、回族之乡吴忠市15公里，是具有着丰富旅游资源的新兴景区之一。它黄河上游的最后一道峡谷，素有“黄河上游小三峡”之称。大峡谷内山河相依，两岸峭壁奇景纷呈。\n景区内分布着青铜古镇、黄河铁桥、拦河大坝、一百零八塔、秦王古渡、大禹神像、中华黄河坛、库区鸟岛和牛首山等景点，宛如镶嵌在黄河金岸中的颗颗明珠，使游客目不暇接、留恋忘返。正是“十里长峡十里景，十里画廊在青铜”。\n‍峡谷里的每一处景观都有着一段久远的历史、一个美丽的神话。只有当大家乘船游览于峡谷之中，才能领略到塞上江南的魅力，体验到黄河文化的深"}}, {"title": "古长城", "address": "吴忠市盐池县柳杨堡乡的上红沟粱至陕西省定边县界", "image": "", "rank": 4, "time": 1.5, "location": {"lat": 37.891605357487585, "lng": 107.40734820327886}, "feature": {"sight_features": "", "sight_content": ""}}, {"title": "古城湾旅游区", "address": "古城湾旅游区", "image": "", "rank": 5, "time": 1.0, "location": {"lat": 38.01280012848771, "lng": 106.18694178350549}, "feature": {"sight_features": "", "sight_content": ""}}, {"title": "黄河坛", "address": "吴忠青铜峡市109国道广武收费站北400米", "image": "", "rank": 6, "time": null, "location": {"lat": 37.87150257535482, "lng": 105.92541978111522}, "feature": {"sight_features": "特色1 每一座建筑都是文化的见证", "sight_content": "黄河坛位于青铜峡市金沙湾西岸，背靠贺兰山脉，左傍万里黄河臂弯，右依青铜峡峡口。站在黄河坛向下望去，眼前的黄河及滩地正好构成一个太极图 ,山水之间，庄严肃穆的黄河坛高高矗立，营造出一幅囊括天地、气吞八荒的千年气象。这里，每一个雕塑、每一个铸件，每一座建筑都是文化的见证。黄河坛的建设，让散落于世的黄河文化有了最温暖的归宿和最恰当的表达。\n黄河坛以“金石为质”在这里，每一个雕塑、每一个铸件，每一座建筑在落定前都经历了层层审定、层层把关，甚至一座桥，一条甬道、一个台阶都别有韵味。为了让黄河坛更好地承载黄河文化，设计者在北京、山东、南京、河南等地举办了多次研讨会，组织文化、历史、古建、规划等领域的专家，多次对黄河坛的细节进行研讨论证。经历了母亲河的千年淘洗，经历了书山文稿的修改打磨，黄河坛内的每一件作品都堪称艺术精品，从不同角度诠释再现着黄河留给人们的千古之谜和文化脉络，对中华大地历久弥新的黄河文化做了一次全面、系统的梳理。黄河坛是挖掘黄河文化、感恩黄河母亲的重要载体，建设黄河坛是黄河流域乃至中华民族的大事。这座承载历史，继往开来的文化平台，必将引起社会各界的高度关注，对于弘扬黄河文化、打造黄河金岸、带动旅游产业都具有重要的现实意义和深远的历史意义。\n暮色四合。黄河坛安静地依偎在母亲河畔，将黄河母亲五千年的故事娓娓道来......"}}, {"title": "秦渠公园", "address": "吴忠市", "image": "", "rank": 7, "time": 1.0, "location": {"lat": 38.00371291345338, "lng": 106.20537126663626}, "feature": {"sight_features": "", "sight_content": ""}}, {"title": "吴忠清真寺", "address": "吴忠市区", "image": "", "rank": 8, "time": 1.0, "location": {"lat": 38.00371291345338, "lng": 106.20537126663626}, "feature": {"sight_features": "", "sight_content": ""}}, {"title": "黄河楼", "address": "吴忠市青铜峡市黄河路与滨河大道交叉处", "image": "", "rank": 9, "time": 2, "location": {"lat": 38.003097087799475, "lng": 106.13681453314956}, "feature": {"sight_features": "特色1 体现中华传统黄河农耕文明之凤凰涅槃", "sight_content": "中华黄河楼位于黄河西岸、青铜峡滨河大道东侧，是宁夏回族自治区打造沿黄城市带标志性建筑物。中华黄河楼总建筑面积23600平方米，高108米，由主楼、角楼、牌楼、十二生肖图腾柱、镇河铁牛等附属建筑和雕塑组成。\n黄河楼主楼由地下、城台、楼阁三部分组成，建筑风格为明清仿古建筑，其主体建筑为混凝土框剪结构，外挑檐为钢结构，斗拱全部采用铝镁合金制作并用“和玺彩绘”装饰，顶部设计为地方风格的重檐十字屋脊，屋面铺装金黄色琉璃瓦，整体风格恢弘大气。\n中华黄河楼共十一层，地上九层（包括两层夹层），地下二层。\n地上一层主题黄河颂，展示黄河之水天上来之磅礴气势，厘清黄河上下五千年纵横万里之源流，纵观世界四大古国之大河文明，诠释黄河乃中华民族母亲河，体现中华传统黄河农耕文明之凤凰涅槃，凸显天下黄河富宁夏的地域特色；\n地上二层主题黄河情，解读黄河为中华文明之摇篮地，追溯中华民族于洪荒上古在黄河流域之金色童年，礼拜根出黄河流域之三皇五帝大禹等中华人文始祖，表达黄河流域元典时代诸子百家之智慧星河，标榜源于黄河流域之中华汉字，弘扬发于黄河流域之中国四大发明等科技光芒；\n三至七层主题黄河风，容纳甲骨、青铜、陶瓷、玉石和非物质文化遗产等文物精粹，以器载道挥洒中华黄河文明之典雅风范；八层主题黄河心，为游客观光层。"}}, {"title": "哈巴湖", "address": "吴忠市盐池县王乐井乡", "image": "", "rank": 10, "time": 1.0, "location": {"lat": 37.78416724076805, "lng": 107.1620622528285}, "feature": {"sight_features": "特色1 生物多样、大漠奇秀、湿地湖泊", "sight_content": "盐池县哈巴湖位于盐池县城西南30公里处王乐井乡境内，是花马寺国家森林公园三大景区之一。属国家级自然保护区是塞北荒漠天然“生物基因库”。自然人文景观二十余处，景区内山、沙、水交融，树木繁茂、沙山雄浑、草原广袤、沙滩浴场细软宽阔，湖水清澈湛蓝，风光旖旎，景色壮美。因特殊的地理位置，而具有丰富的自然资源。以生物多样、大漠奇秀、湿地湖泊为主要特色。\n餐饮娱乐活动丰富，不仅提供盐池当地特色饮食，烤全羊、滩鸡、野兔、天然野菜和荞面等，采摘园中种植各种家常蔬菜和瓜果，绿色有机，真正吃到“小时候的味道”；还有篝火晚会，歌舞互动，真人CS、射箭馆、足球场、拍球场，真正集生态、科普、探险、休闲、消夏避暑为一体的生态旅游休闲度假区。"}}, {"title": "十里长峡", "address": "吴忠市青铜峡市青铜峡旅游区", "image": "", "rank": 11, "time": 1.0, "location": {"lat": 37.88730527974739, "lng": 106.00337891847649}, "feature": {"sight_features": "", "sight_content": ""}}, {"title": "罗山自然保护区", "address": "同心县境内", "image": "", "rank": 12, "time": 1.0, "location": {"lat": 36.98626962916477, "lng": 105.92059907759594}, "feature": {"sight_features": "", "sight_content": ""}}, {"title": "花马寺", "address": "吴忠市盐池县", "image": "", "rank": 13, "time": 1.0, "location": {"lat": 37.78929564990927, "lng": 107.4133795486424}, "feature": {"sight_features": "", "sight_content": ""}}, {"title": "牛首山寺庙群", "address": "吴忠青铜峡市牛首山", "image": "", "rank": 14, "time": 1.0, "location": {"lat": 37.75740598685942, "lng": 106.07462719445762}, "feature": {"sight_features": "", "sight_content": ""}}, {"title": "金沙湾旅游区", "address": "青铜峡市", "image": "", "rank": 15, "time": 2, "location": {"lat": 38.027412223967175, "lng": 106.0853703166109}, "feature": {"sight_features": "", "sight_content": ""}}, {"title": "董府", "address": "", "image": "", "rank": 16, "time": 1.0, "location": {"lat": 37.929251789664825, "lng": 106.0908818422199}, "feature": {"sight_features": "", "sight_content": ""}}, {"title": "灵应山石窟寺", "address": "吴忠市盐池县青山乡", "image": "", "rank": 17, "time": 1.0, "location": {"lat": 37.57281671881044, "lng": 107.18477176286667}, "feature": {"sight_features": "", "sight_content": ""}}, {"title": "鸵鸟山庄", "address": "吴忠市利通区南端，距市区20公里处的鸵鸟山庄。", "image": "", "rank": 18, "time": 1.0, "location": {"lat": 37.99074608085695, "lng": 106.21940702073802}, "feature": {"sight_features": "", "sight_content": ""}}, {"title": "云青寺", "address": "吴忠市同心县 ，罗山东麓", "image": "", "rank": 19, "time": 1.0, "location": {"lat": 36.98626962916477, "lng": 105.92059907759594}, "feature": {"sight_features": "", "sight_content": ""}}, {"title": "明王陵", "address": "吴忠市同心县", "image": "", "rank": 20, "time": 1.0, "location": {"lat": 36.98626962916477, "lng": 105.92059907759594}, "feature": {"sight_features": "", "sight_content": ""}}, {"title": "左记沟", "address": "吴忠市盐池县西南13公里", "image": "", "rank": 21, "time": 1.0, "location": {"lat": 37.69655682513212, "lng": 107.4133795486424}, "feature": {"sight_features": "", "sight_content": ""}}, {"title": "中营堡湖", "address": "", "image": "", "rank": 22, "time": 1.0, "location": {"lat": 37.902803352018594, "lng": 106.14013972328293}, "feature": {"sight_features": "", "sight_content": ""}}, {"title": "青铜峡鸟岛", "address": "吴忠市青铜峡市", "image": "", "rank": 23, "time": null, "location": {"lat": 38.027412223967175, "lng": 106.0853703166109}, "feature": {"sight_features": "", "sight_content": ""}}, {"title": "翼扬通用航空", "address": "吴忠市盐池县花马池镇盐池通用机场", "image": "", "rank": 24, "time": 2, "location": {"lat": 37.862620449159216, "lng": 107.43247243847705}, "feature": {"sight_features": "", "sight_content": ""}}, {"title": "紫云观", "address": "青铜峡108塔景区内", "image": "", "rank": 25, "time": 1.0, "location": {"lat": 37.881013701365795, "lng": 105.99044157013196}, "feature": {"sight_features": "", "sight_content": ""}}, {"title": "王朝御马酒庄", "address": "宁夏回族自治区吴忠市青铜峡市古峡东街", "image": "", "rank": 26, "time": 2, "location": {"lat": 38.02176650883464, "lng": 106.12243684175034}, "feature": {"sight_features": "", "sight_content": ""}}, {"title": "盐池县博物馆", "address": "盐林南路", "image": "", "rank": 27, "time": 2, "location": {"lat": 37.78755359976373, "lng": 107.39753243424252}, "feature": {"sight_features": "", "sight_content": ""}}, {"title": "宁夏农垦巴浪湖农场有限公司", "address": "设施园艺葡萄采摘园(宁夏国营巴浪湖农场)", "image": "", "rank": 28, "time": 2, "location": {"lat": 37.937380130226664, "lng": 106.23216425074303}, "feature": {"sight_features": "", "sight_content": ""}}, {"title": "深蓝采摘园", "address": "金廖公路307县", "image": "", "rank": 29, "time": 2, "location": {"lat": 37.926591968585406, "lng": 106.17055213659457}, "feature": {"sight_features": "", "sight_content": ""}}, {"title": "开源广场", "address": "利通南街", "image": "", "rank": 30, "time": 2, "location": {"lat": 37.984317729460216, "lng": 106.2044686088361}, "feature": {"sight_features": "", "sight_content": ""}}, {"title": "“8”字湖", "address": "滨河路与灵州路交汇处附近", "image": "", "rank": 31, "time": 2, "location": {"lat": 38.01282092800469, "lng": 106.18053726766021}, "feature": {"sight_features": "", "sight_content": ""}}, {"title": "王道祖道堂", "address": "利红公路", "image": "", "rank": 32, "time": 2, "location": {"lat": 25.23344306052993, "lng": 100.31443302035137}, "feature": {"sight_features": "", "sight_content": ""}}, {"title": "红寺堡区图书阅览室", "address": "文化街北50米", "image": "", "rank": 33, "time": 2, "location": {"lat": 24.173915290997947, "lng": 110.81563259681678}, "feature": {"sight_features": "", "sight_content": ""}}, {"title": "榭太源少儿美术馆", "address": "明珠西路592-594号", "image": "", "rank": 34, "time": 2, "location": {"lat": 33.49700537975231, "lng": 119.77897577312602}, "feature": {"sight_features": "", "sight_content": ""}}, {"title": "吴忠博物馆", "address": "开元大道50号", "image": "", "rank": 35, "time": 2.5, "location": {"lat": 34.62521192029479, "lng": 112.48466853399162}, "feature": {"sight_features": "", "sight_content": ""}}, {"title": "黄河国家湿地公园", "address": "滨河路与灵州路交汇处", "image": "", "rank": 36, "time": 1.5, "location": {"lat": 38.01282092800469, "lng": 106.18053726766021}, "feature": {"sight_features": "", "sight_content": ""}}, {"title": "永泉清真寺西大寺", "address": "宁夏回族自治区吴忠市红寺堡区黄同路", "image": "", "rank": 37, "time": 2, "location": {"lat": 37.55013721113628, "lng": 106.27168534268847}, "feature": {"sight_features": "", "sight_content": ""}}, {"title": "怡心园", "address": "国土局对面", "image": "", "rank": 38, "time": 2, "location": {"lat": 30.235083500859055, "lng": 119.73217097831177}, "feature": {"sight_features": "", "sight_content": ""}}, {"title": "红军西征纪念堂", "address": "203省道预旺镇政府斜对面", "image": "", "rank": 39, "time": 2, "location": {"lat": 36.835763201429, "lng": 106.38299915202532}, "feature": {"sight_features": "", "sight_content": ""}}, {"title": "盐池县万亩生态园", "address": "盐惠线附近", "image": "", "rank": 40, "time": 2, "location": {"lat": 37.64720485895497, "lng": 107.27432179551134}, "feature": {"sight_features": "", "sight_content": ""}}, {"title": "化肥厂农场", "address": "万上公路附近", "image": "", "rank": 41, "time": 2, "location": {"lat": 37.96685952291205, "lng": 106.05793736348932}, "feature": {"sight_features": "", "sight_content": ""}}, {"title": "宁夏菊花台庄园枸杞种植有限公司", "address": "河西镇菊花台村", "image": "", "rank": 42, "time": 2, "location": {"lat": 37.09626950254427, "lng": 105.91405284776835}, "feature": {"sight_features": "", "sight_content": ""}}, {"title": "下马关中寺", "address": "203省道附近", "image": "", "rank": 43, "time": 2, "location": {"lat": 38.70057735317822, "lng": 114.30841754306506}, "feature": {"sight_features": "", "sight_content": ""}}, {"title": "宁夏水利博物馆", "address": "宁夏回族自治区吴忠市青铜峡市峡谷路", "image": "", "rank": 44, "time": 2, "location": {"lat": 37.89232372628436, "lng": 106.01489422404613}, "feature": {"sight_features": "", "sight_content": ""}}, {"title": "大水坑镇中心广场", "address": "大水坑镇", "image": "", "rank": 45, "time": null, "location": {"lat": 37.44647827135094, "lng": 106.96736082706919}, "feature": {"sight_features": "", "sight_content": ""}}, {"title": "红古北塘清真大寺", "address": "中卫市海原县", "image": "", "rank": 46, "time": 2, "location": {"lat": 36.570781489719, "lng": 105.65055514637504}, "feature": {"sight_features": "", "sight_content": ""}}, {"title": "红圈清真大寺", "address": "羊张路与307乡道交叉口东北100米", "image": "", "rank": 47, "time": 2, "location": {"lat": 42.85646580255288, "lng": 124.414086267546}, "feature": {"sight_features": "", "sight_content": ""}}, {"title": "同心县图书馆", "address": "长征东街1号附近", "image": "", "rank": 48, "time": 2, "location": {"lat": 38.423755895301476, "lng": 112.75099761170827}, "feature": {"sight_features": "", "sight_content": ""}}, {"title": "吴忠", "address": "吴忠市", "image": "", "rank": 49, "time": 1.0, "location": {"lat": 38.00371291345338, "lng": 106.20537126663626}, "feature": {"sight_features": "", "sight_content": ""}}, {"title": "黄河楼3D奇幻艺术馆", "address": "吴忠市青铜峡市黄河路与滨河大道交叉处", "image": "", "rank": 50, "time": 2, "location": {"lat": 38.003097087799475, "lng": 106.13681453314956}, "feature": {"sight_features": "", "sight_content": ""}}, {"title": "张家场城址", "address": "宁夏回族自治区盐池县西北15公里 751500", "image": "", "rank": 51, "time": 2, "location": {"lat": 37.78929564990927, "lng": 107.27863372214571}, "feature": {"sight_features": "", "sight_content": ""}}, {"title": "大水坑清真寺", "address": "宁夏回族自治区吴忠市盐池县友谊南路23", "image": "", "rank": 52, "time": 2, "location": {"lat": 37.44458649824442, "lng": 106.97603445454791}, "feature": {"sight_features": "", "sight_content": ""}}, {"title": "复活岛度假村", "address": "宁夏回族自治区吴忠市青铜峡市", "image": "", "rank": 53, "time": 2, "location": {"lat": 38.027412223967175, "lng": 106.0853703166109}, "feature": {"sight_features": "", "sight_content": ""}}, {"title": "街心公园", "address": "盐州南路3", "image": "", "rank": 54, "time": 2, "location": {"lat": 37.79127054651942, "lng": 107.41260926065065}, "feature": {"sight_features": "", "sight_content": ""}}, {"title": "沃沙清真寺", "address": "宁夏回族自治区吴忠市青铜峡市青铜峡镇侯余公路沃沙小学西100米", "image": "", "rank": 55, "time": 2, "location": {"lat": 37.89136730744641, "lng": 106.04848489076056}, "feature": {"sight_features": "", "sight_content": ""}}, {"title": "三清阁", "address": "花马池镇北门", "image": "", "rank": 56, "time": 1.0, "location": {"lat": 37.798020193208494, "lng": 107.39975546190502}, "feature": {"sight_features": "", "sight_content": ""}}, {"title": "睿智儿童游乐园", "address": "吴忠市盐池县", "image": "", "rank": 57, "time": 2, "location": {"lat": 37.78929564990927, "lng": 107.4133795486424}, "feature": {"sight_features": "", "sight_content": ""}}, {"title": "青镇团结清真大寺", "address": "宁夏回族自治区吴忠市青铜峡市团结街青铜峡旅游区青铜峡镇政府", "image": "", "rank": 58, "time": 2, "location": {"lat": 37.89446329382922, "lng": 106.02229200168364}, "feature": {"sight_features": "", "sight_content": ""}}, {"title": "金积镇街心广场", "address": "秦汉街与西街交叉口东南50米", "image": "", "rank": 59, "time": null, "location": {"lat": 23.494386671660774, "lng": 116.51093198121578}, "feature": {"sight_features": "", "sight_content": ""}}, {"title": "银平清真寺", "address": "友谊西路与西盛南街交叉口西北100米", "image": "", "rank": 60, "time": 2, "location": {"lat": 37.97530122204138, "lng": 106.1943981405436}, "feature": {"sight_features": "", "sight_content": ""}}]}