{"cityName": "五指山", "days": "", "cityImage": "", "spots": [{"title": "五指山热带雨林风景区", "address": "五指山市水满乡右进1.5公里热带雨林风景区", "image": "", "rank": 1, "time": 2.5, "location": {"lat": 18.8873190765404, "lng": 109.67352238326355}, "feature": {"sight_features": "特色1 山上古树参天，藤萝密布，奇花异草随处可见 特色2 集中了热带山地雨林和热带沟谷雨林的典型景观 特色3 时而水流湍急，如万马奔腾", "sight_content": "五指山热带雨林风景区位于海南省五指山市五指山脚下的水满乡，海拔为1868米高的海南屋脊—五指山。\n它集中了热带山地雨林和热带沟谷雨林的典型景观；山上古树参天，藤萝密布，奇花异草随处可见，有永远两株相接母子相连母生树，具有神奇医疗功效的野生茶树。\n常年云雾缭绕的五峰并列如撑天五指，在云海中时隐时现，近在咫尺，尽在眼底。"}}, {"title": "五指山国家级自然保护区", "address": "五指山市水满乡", "image": "", "rank": 2, "time": 7.5, "location": {"lat": 18.8873190765404, "lng": 109.67352238326355}, "feature": {"sight_features": "", "sight_content": ""}}, {"title": "红峡谷漂流", "address": "五指山市南圣镇往水满乡6公里处红峡谷漂流景区", "image": "", "rank": 3, "time": 2, "location": {"lat": 18.8873190765404, "lng": 109.67352238326355}, "feature": {"sight_features": "特色1 五指山市重点推进的精品旅游项目", "sight_content": "红峡谷漂流,位于五指山红峡谷文化旅游风景区内，距离五指山市区12公里。景区占地3000亩，总投资12亿元，是五指山市重点推进的精品旅游项目。\n五指山红峡谷文化旅游风景区是以五指山热带雨林、峡谷漂流为主题，依托黎苗文化为根基，挖掘中华养生文化内涵，植入现代多元文化因素，形成集观光度假、休闲娱乐、居住养生为一体的复合型景区。景区主要有四个旅游资源组团：热带雨林体验、红峡谷漂流、山地游乐、温泉养生度假。\n红峡谷漂流全程3.8公里，落差80余米，因沿途岩石被山泉、雨水冲刷后形成黄中带红的颜色而得名。峡谷岩壁险峻奇特，河道多岩滩激流，沿岸为原始热带雨林，常有山顶泉瀑自空降落。古人言：仁者乐山，智者乐水。红峡谷风景区具有优越的自然旅游资源，既可满足热爱挑战自我的漂流者之征服欲，亦可满足体验天人合一的养生者之精神追求。\n红峡谷星空露营：临溪而建，提供帐篷以及各种配套装备，底部有实木隔板，隔绝地面湿气。露营者可以生篝火，可以烧烤、野炊或者唱歌。营地有现代设施、清洁的淋浴室，露营营地附近风光迷人，丰富的地方特色和娱乐活动。\n真人CS：定位模拟战场体验，是对真实战场环境下作战的高度模拟。配备激光感应帽、激光枪、迷彩服、护膝护腕等装备。\n除了作战对抗环节外，还有军队战术攻略的完全讲解，以及对装备的实操训练，主要有攻防战、大逃杀等游戏任务或者根据标准军队分队演习战役想定。\n餐厅：红峡谷食味轩选材考究,菜品丰富,每道菜都经过专业厨师精心烹制色香味俱全,环境优雅,服务热情!"}}, {"title": "五指山", "address": "五指山市水满乡境内", "image": "", "rank": 4, "time": 5.5, "location": {"lat": 18.8873190765404, "lng": 109.67352238326355}, "feature": {"sight_features": "", "sight_content": ""}}, {"title": "五指山大峡谷漂流", "address": "五指山市水满乡左进18公里", "image": "", "rank": 5, "time": 2.5, "location": {"lat": 18.8873190765404, "lng": 109.67352238326355}, "feature": {"sight_features": "特色1 被誉为“华夏第一漂” 特色2 五指山峡谷漂流地处热带雨林腹地，冬暖夏凉 特色3 境内有象征海南岛的最高峰—五指山。", "sight_content": "﻿五指山市是海南省山地旅游资源最较为丰富的地方，是海南热带山地生态风光旅游的中心城市。她以其独特的热带自然景观、独特的气候条件和独特的民族风情闻名中外，其有不可替代的旅游开发价值。\n境内有象征海南岛的最高峰—五指山，海拔1867米，主体面积211平方公里，是海南岛之“肺”，与南美洲的亚马逊河流域、印度尼西亚的热带雨林并成为全球保存最完好的三块热带雨林。它被国际旅游组织列为a级旅游景区，不仅自然风光优美，而且极具神秘色彩。\n五指山大峡谷漂流是五指山最具特色的旅游项目。它水中有盆景、岸边有森林，既有惊险刺激的急流险滩，又有舒缓悠静的平缓水区，是全国唯一可四季漂流的峡谷漂流点，国家旅游局专家考察后认为这里是国内漂流探险品味最高的地方，堪称中国第一漂。\n‍"}}, {"title": "民族博物馆", "address": "海南省五指山市市北面", "image": "", "rank": 6, "time": 2.0, "location": {"lat": 18.780994100706135, "lng": 109.52354032070569}, "feature": {"sight_features": "", "sight_content": ""}}, {"title": "五指山雨林谷漂流", "address": "五指山市水满乡热带雨林风景区内", "image": "", "rank": 7, "time": 2, "location": {"lat": 18.8873190765404, "lng": 109.67352238326355}, "feature": {"sight_features": "", "sight_content": "五指山雨林谷漂流，是五指山水满河热带雨林风景区的水上娱乐项目，离水满乡集市仅两公里，全长4公里、沿途险滩叠水落差8米可达8米，总落差80米。，在惊险刺激中欣赏高峡平湖、热带雨林峡谷、黎苗风情和美丽的田园风光。"}}, {"title": "太平山瀑布", "address": "五指山市甘工路", "image": "", "rank": 8, "time": 1.0, "location": {"lat": 18.797910267878134, "lng": 109.5342949348778}, "feature": {"sight_features": "", "sight_content": ""}}, {"title": "中华民族文化村", "address": "五指山市城郊", "image": "", "rank": 9, "time": 3.0, "location": {"lat": 18.780994100706135, "lng": 109.52354032070569}, "feature": {"sight_features": "", "sight_content": ""}}, {"title": "番茅黎寨", "address": "五指山市市区北面约1.5公里处", "image": "", "rank": 10, "time": 1.0, "location": {"lat": 18.780994100706135, "lng": 109.52354032070569}, "feature": {"sight_features": "", "sight_content": ""}}, {"title": "“琼崖公学”纪念亭", "address": "海南省五指山市番阳镇", "image": "", "rank": 11, "time": 1.0, "location": {"lat": 18.880892685987128, "lng": 109.4039936249518}, "feature": {"sight_features": "", "sight_content": ""}}, {"title": "琼州大学(主校区)", "address": "海南省五指山市海榆北路", "image": "", "rank": 12, "time": 2, "location": {"lat": 18.797075152191873, "lng": 109.52641669494768}, "feature": {"sight_features": "", "sight_content": ""}}, {"title": "红峡谷大漂流", "address": "海南省五指山市", "image": "", "rank": 13, "time": 2, "location": {"lat": 18.780994100706135, "lng": 109.52354032070569}, "feature": {"sight_features": "", "sight_content": ""}}, {"title": "五指山毛岸苗村", "address": "海南省五指山市冲山镇", "image": "", "rank": 14, "time": 2.5, "location": {"lat": 18.786516078383972, "lng": 109.52375420724755}, "feature": {"sight_features": "", "sight_content": ""}}, {"title": "五指山黎苗风情旅游村寨", "address": "海南省五指山市保亭县", "image": "", "rank": 15, "time": 2.5, "location": {"lat": 18.780994100706135, "lng": 109.52354032070569}, "feature": {"sight_features": "", "sight_content": ""}}, {"title": "太平水库", "address": "海南省五指山市通什镇太平村", "image": "", "rank": 16, "time": 1.5, "location": {"lat": 18.813645862898362, "lng": 109.53993027932322}, "feature": {"sight_features": "", "sight_content": ""}}, {"title": "五指山翡翠山", "address": "海南省五指山市太平山旅游风景区", "image": "", "rank": 17, "time": 2, "location": {"lat": 18.80230023923887, "lng": 109.53606637897}, "feature": {"sight_features": "", "sight_content": ""}}, {"title": "五指山洪斗坡白鹭乐园", "address": "海南省五指山市屯昌县屯城镇", "image": "", "rank": 18, "time": 2, "location": {"lat": 19.377182035470813, "lng": 110.1114746841279}, "feature": {"sight_features": "", "sight_content": ""}}, {"title": "海南保亭毛感千龙洞", "address": "海南省五指山市毛感乡干龙苗村", "image": "", "rank": 19, "time": 2, "location": {"lat": 18.61017365947002, "lng": 109.49174043591727}, "feature": {"sight_features": "", "sight_content": ""}}, {"title": "农家乐", "address": "五指山新桥旁", "image": "", "rank": 20, "time": 2, "location": {"lat": 18.780994100706135, "lng": 109.52354032070569}, "feature": {"sight_features": "", "sight_content": ""}}, {"title": "蝴蝶生态牧场", "address": "热带雨林风景区附近", "image": "", "rank": 21, "time": 2, "location": {"lat": 31.230470143923576, "lng": 121.40355569492132}, "feature": {"sight_features": "", "sight_content": ""}}, {"title": "文化农场", "address": "五九零县道", "image": "", "rank": 22, "time": 2, "location": {"lat": 18.842666806922274, "lng": 109.65837894211703}, "feature": {"sight_features": "", "sight_content": ""}}, {"title": "海南五指山", "address": "海南省五指山市水满乡境内 572200", "image": "", "rank": 23, "time": 2, "location": {"lat": 18.8873190765404, "lng": 109.67352238326355}, "feature": {"sight_features": "", "sight_content": ""}}, {"title": "黎苗民族歌舞长廊", "address": "海南省五指山市至保亭县的路段两侧 572200", "image": "", "rank": 24, "time": 2, "location": {"lat": 18.780994100706135, "lng": 109.52354032070569}, "feature": {"sight_features": "", "sight_content": ""}}, {"title": "五指山华夏第一漂", "address": "水满乡16公里处(华夏第一漂)", "image": "", "rank": 25, "time": 2.5, "location": {"lat": 18.8873190765404, "lng": 109.67352238326355}, "feature": {"sight_features": "", "sight_content": ""}}, {"title": "番通村农场", "address": "585县道附近", "image": "", "rank": 26, "time": 2, "location": {"lat": 36.76309249848862, "lng": 111.51434164924285}, "feature": {"sight_features": "", "sight_content": ""}}, {"title": "德国鳄鱼漆", "address": "沿河南路附近", "image": "", "rank": 27, "time": 2, "location": {"lat": 34.1440102576257, "lng": 119.9421913462718}, "feature": {"sight_features": "", "sight_content": ""}}, {"title": "毛贵", "address": "五指山市-五指山市", "image": "", "rank": 28, "time": 2, "location": {"lat": 18.780994100706135, "lng": 109.52354032070569}, "feature": {"sight_features": "", "sight_content": ""}}, {"title": "毛贵村农场", "address": "五指山市-五指山市-三一三省道", "image": "", "rank": 29, "time": 2, "location": {"lat": 18.906752827013566, "lng": 109.45077128628293}, "feature": {"sight_features": "", "sight_content": ""}}, {"title": "五指山黎寨自然村", "address": "海南省五指山市通什市 572200", "image": "", "rank": 30, "time": 2.5, "location": {"lat": 18.780994100706135, "lng": 109.52354032070569}, "feature": {"sight_features": "", "sight_content": ""}}, {"title": "翡翠公园", "address": "海南省五指山市三月三大道(近五指山市教育局)", "image": "", "rank": 31, "time": 2, "location": {"lat": 18.788986491654217, "lng": 109.52524812254744}, "feature": {"sight_features": "", "sight_content": ""}}, {"title": "五指山革命根据地", "address": "海南省五指山市毛阳镇毛贵村", "image": "", "rank": 32, "time": 2.5, "location": {"lat": 18.94134147096224, "lng": 109.4886748893146}, "feature": {"sight_features": "", "sight_content": ""}}, {"title": "阿陀岭", "address": "海南省直辖县级行政单位五指山市翡翠城北郊", "image": "", "rank": 33, "time": 2, "location": {"lat": 18.780994100706135, "lng": 109.52354032070569}, "feature": {"sight_features": "", "sight_content": ""}}, {"title": "五指山市", "address": "海南省五指山市", "image": "", "rank": 34, "time": 2.5, "location": {"lat": 18.780994100706135, "lng": 109.52354032070569}, "feature": {"sight_features": "", "sight_content": ""}}, {"title": "水满乡", "address": "五指山市东北部", "image": "", "rank": 35, "time": 2, "location": {"lat": 18.780994100706135, "lng": 109.52354032070569}, "feature": {"sight_features": "", "sight_content": ""}}, {"title": "牙排水库", "address": "海南省五指山市水满乡牙排村毛阳河上游", "image": "", "rank": 36, "time": 2, "location": {"lat": 18.893082094436917, "lng": 109.62212721781592}, "feature": {"sight_features": "", "sight_content": ""}}]}