{"cityName": "五寨", "days": 2, "cityImage": "", "spots": [{"title": "效军图书馆", "address": "迎宾东街517", "image": "", "rank": 1, "time": null, "location": {"lat": 38.93068537430591, "lng": 111.86117005401474}, "feature": {"sight_features": "", "sight_content": ""}}, {"title": "五寨县图书馆", "address": "迎宾东街517号附近", "image": "", "rank": 2, "time": 2, "location": {"lat": 38.93068537430591, "lng": 111.86117005401474}, "feature": {"sight_features": "", "sight_content": ""}}, {"title": "清涟公园", "address": "清涟路附近", "image": "", "rank": 3, "time": 2, "location": {"lat": 30.69308592625429, "lng": 103.99080080916927}, "feature": {"sight_features": "", "sight_content": ""}}, {"title": "廉政文化广场", "address": "山西省忻州市五寨县政府街", "image": "", "rank": 4, "time": 2, "location": {"lat": 38.917958017025704, "lng": 111.8584344119062}, "feature": {"sight_features": "", "sight_content": ""}}, {"title": "和谐剧场", "address": "山西省忻州市五寨县", "image": "", "rank": 5, "time": 2, "location": {"lat": 38.917019909691845, "lng": 111.85340993856165}, "feature": {"sight_features": "", "sight_content": ""}}, {"title": "迎宾广场", "address": "新建路与迎宾东街交叉口东南100米", "image": "", "rank": 6, "time": 0.35, "location": {"lat": 38.92407144481118, "lng": 111.84660899061348}, "feature": {"sight_features": "", "sight_content": ""}}, {"title": "童欣园游乐场", "address": "忻州市五寨县", "image": "", "rank": 7, "time": 2, "location": {"lat": 38.917019909691845, "lng": 111.85340993856165}, "feature": {"sight_features": "", "sight_content": ""}}, {"title": "博雅画廊", "address": "迎宾西街", "image": "", "rank": 8, "time": 2, "location": {"lat": 38.77103085248113, "lng": 115.47719884553618}, "feature": {"sight_features": "", "sight_content": ""}}, {"title": "五寨县图书馆", "address": "学府东路", "image": "", "rank": 9, "time": null, "location": {"lat": 39.959585619421055, "lng": 116.81209842308361}, "feature": {"sight_features": "", "sight_content": ""}}]}