{"cityName": "夏河", "days": 2, "cityImage": "", "spots": [{"title": "拉卜楞寺", "address": "甘南藏族自治州夏河县城西", "image": "", "rank": 1, "time": 3.5, "location": {"lat": 35.20832432554126, "lng": 102.52857708038411}, "feature": {"sight_features": "", "sight_content": ""}}, {"title": "桑科草原", "address": "甘南藏族自治州夏河县拉卜楞寺西南10公里处", "image": "", "rank": 2, "time": 3.5, "location": {"lat": 35.12464031248723, "lng": 102.51695681230714}, "feature": {"sight_features": "", "sight_content": ""}}, {"title": "贡唐宝塔", "address": "甘南藏族自治州夏河县人民东街拉卜楞寺西南角", "image": "", "rank": 3, "time": 1.0, "location": {"lat": 35.19841412629267, "lng": 102.51695681230714}, "feature": {"sight_features": "", "sight_content": ""}}, {"title": "甘加草原", "address": "甘南藏族自治州夏河县甘加乡（县城以北约33公里）", "image": "", "rank": 4, "time": 2.5, "location": {"lat": 35.40585619516133, "lng": 102.5251361615519}, "feature": {"sight_features": "", "sight_content": ""}}, {"title": "八角城", "address": "甘南藏族自治州夏河县城北35公里处", "image": "", "rank": 5, "time": 3.5, "location": {"lat": 35.20832432554126, "lng": 102.52857708038411}, "feature": {"sight_features": "", "sight_content": ""}}, {"title": "达尔宗湖", "address": "甘南州夏河县王格尔塘乡达宗村（距离夏河县城约17公里）", "image": "", "rank": 6, "time": 2.0, "location": {"lat": 35.24306364783084, "lng": 102.8353850629064}, "feature": {"sight_features": "", "sight_content": ""}}, {"title": "白石崖", "address": "甘南州夏河县甘加乡境内，夏河县城北30公里。", "image": "", "rank": 7, "time": 0.75, "location": {"lat": 35.40585619516133, "lng": 102.5251361615519}, "feature": {"sight_features": "", "sight_content": ""}}, {"title": "白石崖洞", "address": "甘南州夏河县甘加乡境内，白石崖上", "image": "", "rank": 8, "time": 0.75, "location": {"lat": 35.40585619516133, "lng": 102.5251361615519}, "feature": {"sight_features": "", "sight_content": ""}}, {"title": "德尔隆寺", "address": "甘肃省夏河县王格尔塘乡洒索玛村S312省道旁", "image": "", "rank": 9, "time": 1.0, "location": {"lat": 35.22236397388688, "lng": 102.81041676546}, "feature": {"sight_features": "", "sight_content": ""}}, {"title": "佐海黑教寺", "address": "甘南州夏河县甘加乡境内", "image": "", "rank": 10, "time": 0.75, "location": {"lat": 35.40585619516133, "lng": 102.5251361615519}, "feature": {"sight_features": "", "sight_content": ""}}, {"title": "红教寺", "address": "甘南藏族自治州夏河县城西拉卜楞寺西侧", "image": "", "rank": 11, "time": 0.4, "location": {"lat": 35.19841412629267, "lng": 102.51695681230714}, "feature": {"sight_features": "", "sight_content": ""}}, {"title": "尼姑寺", "address": "甘南藏族自治州夏河县城西，红教寺旁", "image": "", "rank": 12, "time": 1.0, "location": {"lat": 35.20832432554126, "lng": 102.52857708038411}, "feature": {"sight_features": "", "sight_content": ""}}, {"title": "土门关", "address": "甘南州夏河县曲奥乡与临夏回族自治州临夏县马集乡的交界处", "image": "", "rank": 13, "time": 0.25, "location": {"lat": 35.45256102942418, "lng": 102.999261376735}, "feature": {"sight_features": "", "sight_content": ""}}, {"title": "斯柔古城址", "address": "甘南州夏河县甘加乡斯柔村西北的台地上", "image": "", "rank": 14, "time": 0.75, "location": {"lat": 35.382101877030436, "lng": 102.49614940220327}, "feature": {"sight_features": "", "sight_content": ""}}, {"title": "藏经殿", "address": "甘南藏族自治州夏河县城西1公里处拉卜楞寺内", "image": "", "rank": 15, "time": 1.0, "location": {"lat": 35.19841412629267, "lng": 102.51695681230714}, "feature": {"sight_features": "", "sight_content": ""}}, {"title": "藏地阳光度假村", "address": "甘肃省甘南藏族自治州夏河县桑科草原", "image": "", "rank": 16, "time": 2, "location": {"lat": 35.01971155694409, "lng": 102.5893628980906}, "feature": {"sight_features": "", "sight_content": ""}}, {"title": "桑科日月相聚度假村", "address": "312省道东50米", "image": "", "rank": 17, "time": 2, "location": {"lat": 36.622905905946894, "lng": 114.42365918066803}, "feature": {"sight_features": "", "sight_content": ""}}, {"title": "勒帝擦告", "address": "甘南藏族自治州夏河县城西南1公里处夏河桑科草原内", "image": "", "rank": 18, "time": 2, "location": {"lat": 35.11205521423989, "lng": 102.43187709732098}, "feature": {"sight_features": "", "sight_content": ""}}, {"title": "拉卜楞更藏度假村", "address": "夏河县夏河县九乡上塘乃合村", "image": "", "rank": 19, "time": 2, "location": {"lat": 35.20832432554126, "lng": 102.52857708038411}, "feature": {"sight_features": "", "sight_content": ""}}, {"title": "科才寺", "address": "科才乡科才寺", "image": "", "rank": 20, "time": 2, "location": {"lat": 34.6423452217319, "lng": 102.23049703419679}, "feature": {"sight_features": "", "sight_content": ""}}, {"title": "甘南蒙膳宝度假村", "address": "夏河桑科草原(停车场对面)", "image": "", "rank": 21, "time": 3.5, "location": {"lat": 35.11205521423989, "lng": 102.43187709732098}, "feature": {"sight_features": "", "sight_content": ""}}, {"title": "大夏河", "address": "桑科乡", "image": "", "rank": 22, "time": 2.5, "location": {"lat": 35.12986126003737, "lng": 102.43253225847857}, "feature": {"sight_features": "", "sight_content": ""}}, {"title": "达力加山", "address": "甘肃省夏河县甘加乡", "image": "", "rank": 23, "time": 2, "location": {"lat": 35.40585619516133, "lng": 102.5251361615519}, "feature": {"sight_features": "", "sight_content": ""}}, {"title": "拉卜楞扎西热旦民俗生态园", "address": "312省道", "image": "", "rank": 24, "time": 2, "location": {"lat": 36.622905905946894, "lng": 114.42321002791304}, "feature": {"sight_features": "", "sight_content": ""}}, {"title": "吉祥生态园", "address": "213国道", "image": "", "rank": 25, "time": 2, "location": {"lat": 24.055864840380938, "lng": 102.20969505158318}, "feature": {"sight_features": "", "sight_content": ""}}, {"title": "图书馆", "address": "桑曲西路", "image": "", "rank": 26, "time": 1.0, "location": {"lat": 34.99773518355273, "lng": 102.91474439265929}, "feature": {"sight_features": "", "sight_content": ""}}, {"title": "白云生态园", "address": "拉不楞镇来吉合村66号", "image": "", "rank": 27, "time": 2, "location": {"lat": 35.20583880872903, "lng": 102.54516160389578}, "feature": {"sight_features": "", "sight_content": ""}}, {"title": "秀水苑农家乐", "address": "同夏公路东50米", "image": "", "rank": 28, "time": 2, "location": {"lat": 35.45621261203275, "lng": 102.45754514601387}, "feature": {"sight_features": "", "sight_content": ""}}, {"title": "雪域之家欢乐园", "address": "S312拉曲嘎尔村西南侧", "image": "", "rank": 29, "time": 2, "location": {"lat": 27.770085661533674, "lng": 100.65473204829291}, "feature": {"sight_features": "", "sight_content": ""}}, {"title": "摩尼宝唐卡展览中心", "address": "拉卜楞镇雅鸽塘253号", "image": "", "rank": 30, "time": 2, "location": {"lat": 35.20229006736699, "lng": 102.5269851482746}, "feature": {"sight_features": "", "sight_content": ""}}, {"title": "拉卜楞寺 Labrang Monastery (La...", "address": "甘肃省夏河县拉卜楞镇", "image": "", "rank": 31, "time": 2, "location": {"lat": 35.20236727246667, "lng": 102.52693233330045}, "feature": {"sight_features": "", "sight_content": ""}}, {"title": "格桑花草原", "address": "甘肃省夏河县桑科乡曼玛村", "image": "", "rank": 32, "time": 2, "location": {"lat": 35.11487133021309, "lng": 102.44337840190096}, "feature": {"sight_features": "", "sight_content": ""}}, {"title": "阿姨山", "address": "甘肃省夏河县王格尔塘乡", "image": "", "rank": 33, "time": 2, "location": {"lat": 35.24306364783084, "lng": 102.8353850629064}, "feature": {"sight_features": "", "sight_content": ""}}, {"title": "德哇仓文殊佛殿", "address": "甘肃省兰州市城关区拉卜楞寺正南", "image": "", "rank": 34, "time": 2, "location": {"lat": 36.0631814753695, "lng": 103.83147490052859}, "feature": {"sight_features": "", "sight_content": ""}}, {"title": "甘南郭札沟自然保护区 Gannan Go...", "address": "甘肃省卓尼县境内", "image": "", "rank": 35, "time": 3.5, "location": {"lat": 34.59491643280379, "lng": 103.51361578396147}, "feature": {"sight_features": "", "sight_content": ""}}, {"title": "尕巴加拉", "address": "甘南藏族自治州-夏河县", "image": "", "rank": 36, "time": 2, "location": {"lat": 35.20832432554126, "lng": 102.52857708038411}, "feature": {"sight_features": "", "sight_content": ""}}, {"title": "时论学院", "address": "甘南藏族自治州-夏河县-城西1公里处拉卜楞寺内", "image": "", "rank": 37, "time": 2, "location": {"lat": 35.19841412629267, "lng": 102.51695681230714}, "feature": {"sight_features": "", "sight_content": ""}}, {"title": "桑科草原友谊度假村", "address": "甘南藏族自治州-夏河县", "image": "", "rank": 38, "time": 2, "location": {"lat": 35.20832432554126, "lng": 102.52857708038411}, "feature": {"sight_features": "", "sight_content": ""}}, {"title": "杂恰勒布", "address": "甘南藏族自治州-夏河县", "image": "", "rank": 39, "time": 2, "location": {"lat": 35.20832432554126, "lng": 102.52857708038411}, "feature": {"sight_features": "", "sight_content": ""}}, {"title": "高原生态藏民俗旅游度假村", "address": "甘南藏族自治州夏河县桑科乡312省道三岔路口", "image": "", "rank": 40, "time": 2, "location": {"lat": 34.969517436515, "lng": 102.30159647802272}, "feature": {"sight_features": "", "sight_content": ""}}, {"title": "格尔迪寺", "address": "甘肃省甘南藏族自治州夏河县 ‎", "image": "", "rank": 41, "time": 2, "location": {"lat": 35.20832432554126, "lng": 102.52857708038411}, "feature": {"sight_features": "", "sight_content": ""}}]}