{"cityName": "夏津", "days": 2, "cityImage": "", "spots": [{"title": "夏津黄河故道森林公园", "address": "德州市夏津县苏留庄镇东北315公路（近惠津湖）", "image": "", "rank": 1, "time": 4.5, "location": {"lat": 37.090981841499286, "lng": 116.14209491568579}, "feature": {"sight_features": "", "sight_content": ""}}, {"title": "喜盈门婚庆演出", "address": "南城街", "image": "", "rank": 2, "time": 2, "location": {"lat": 27.780949041413383, "lng": 120.63982930313368}, "feature": {"sight_features": "", "sight_content": ""}}, {"title": "德百温泉公寓", "address": "德百温泉2号楼2门101室", "image": "", "rank": 3, "time": 2, "location": {"lat": 37.04426693831265, "lng": 116.11397002657566}, "feature": {"sight_features": "", "sight_content": ""}}, {"title": "夏津县农科所农场", "address": "308国道附近", "image": "", "rank": 4, "time": 2, "location": {"lat": 37.971605149822686, "lng": 114.57704960751596}, "feature": {"sight_features": "", "sight_content": ""}}, {"title": "家宝贝儿童欢乐谷", "address": "银山北街华夏B区西门正对过（原绿苑名茶）", "image": "", "rank": 5, "time": 2, "location": {"lat": 36.96922823283613, "lng": 116.0078720350468}, "feature": {"sight_features": "", "sight_content": ""}}, {"title": "夏津县碧霞宫道观", "address": "夏津县碧霞宫道观(南门)附近", "image": "", "rank": 6, "time": 2, "location": {"lat": 36.94662243460941, "lng": 116.03980931926671}, "feature": {"sight_features": "", "sight_content": ""}}, {"title": "夏津县会盟九龙阁", "address": "山东省德州市夏津县308国道东30米", "image": "", "rank": 7, "time": 2, "location": {"lat": 36.97730088423382, "lng": 115.92730519584097}, "feature": {"sight_features": "", "sight_content": ""}}, {"title": "朝阳公园", "address": "朝阳东路与锦纺街交汇处东北角", "image": "", "rank": 8, "time": 1.0, "location": {"lat": 36.956319580412845, "lng": 116.02511200807213}, "feature": {"sight_features": "", "sight_content": ""}}, {"title": "龙湖公园", "address": "泰和街与二五四省道交口南侧", "image": "", "rank": 9, "time": 1.5, "location": {"lat": 36.95422818644507, "lng": 116.00827036976078}, "feature": {"sight_features": "", "sight_content": ""}}, {"title": "光腚猴儿童乐园", "address": "山东省德州市夏津县北城街道胜利路金都花城附近", "image": "", "rank": 10, "time": 2, "location": {"lat": 36.985515947818875, "lng": 116.02024307722493}, "feature": {"sight_features": "", "sight_content": ""}}, {"title": "夏津市民中心", "address": "中山北路胜利希望小学北行300米", "image": "", "rank": 11, "time": 2, "location": {"lat": 36.98904933945779, "lng": 116.01493516783096}, "feature": {"sight_features": "", "sight_content": ""}}, {"title": "城市交通城", "address": "德州市夏津县银山路与泰和路交汇处夏津德百广场F4", "image": "", "rank": 12, "time": 2, "location": {"lat": 36.961028109787705, "lng": 115.9947952481278}, "feature": {"sight_features": "", "sight_content": ""}}, {"title": "供销商厦儿童乐园", "address": "山东省德州市夏津县供销商厦1层", "image": "", "rank": 13, "time": 2, "location": {"lat": 36.98120146653592, "lng": 116.01362048603914}, "feature": {"sight_features": "", "sight_content": ""}}, {"title": "鄃城公园", "address": "德州市夏津县中山中路15号", "image": "", "rank": 14, "time": 2, "location": {"lat": 36.96691078145628, "lng": 116.01212630753523}, "feature": {"sight_features": "", "sight_content": ""}}, {"title": "哈哈乐儿童乐园", "address": "山东省德州市夏津县中山路家庭号商厦4层", "image": "", "rank": 15, "time": 2, "location": {"lat": 36.960919257586, "lng": 116.01256026455422}, "feature": {"sight_features": "", "sight_content": ""}}, {"title": "香雪园", "address": "德州市夏津县", "image": "", "rank": 16, "time": 2, "location": {"lat": 36.954154863323446, "lng": 116.00853411225853}, "feature": {"sight_features": "", "sight_content": ""}}, {"title": "星期六儿童主题乐园", "address": "华夏C区大石门往西30米路北", "image": "", "rank": 17, "time": 2, "location": {"lat": 40.81450505387426, "lng": 116.73142941060907}, "feature": {"sight_features": "", "sight_content": ""}}, {"title": "瑞祥银龙中心广场", "address": "山东省德州市夏津县南城街与西城街交口", "image": "", "rank": 18, "time": 2, "location": {"lat": 36.95464180978039, "lng": 116.00712194545444}, "feature": {"sight_features": "", "sight_content": ""}}, {"title": "古玩书画部", "address": "南城街258号", "image": "", "rank": 19, "time": 2, "location": {"lat": 36.95405027133607, "lng": 116.00444467793287}, "feature": {"sight_features": "", "sight_content": ""}}, {"title": "书画研究院", "address": "南城街132号", "image": "", "rank": 20, "time": 2, "location": {"lat": 36.95431382192107, "lng": 116.01360586611698}, "feature": {"sight_features": "", "sight_content": ""}}, {"title": "森林游乐园", "address": "315省道", "image": "", "rank": 21, "time": 2, "location": {"lat": 36.88733965403998, "lng": 115.75610288886648}, "feature": {"sight_features": "", "sight_content": ""}}, {"title": "人民剧场", "address": "中山南路39号附近", "image": "", "rank": 22, "time": 2, "location": {"lat": 31.90831785475386, "lng": 120.2735488972965}, "feature": {"sight_features": "", "sight_content": ""}}, {"title": "乐心生态农场", "address": "中山中路203附近", "image": "", "rank": 23, "time": 2, "location": {"lat": 34.74513969993477, "lng": 119.40447954861573}, "feature": {"sight_features": "", "sight_content": ""}}, {"title": "御都生态园", "address": "御都餐饮有限公司附近", "image": "", "rank": 24, "time": 2, "location": {"lat": 37.03405330520706, "lng": 116.11317538552152}, "feature": {"sight_features": "", "sight_content": ""}}, {"title": "夏津县银都商业广场", "address": "山东省夏津县南城街附近", "image": "", "rank": 25, "time": 2, "location": {"lat": 36.95463521679467, "lng": 116.01030487813065}, "feature": {"sight_features": "", "sight_content": ""}}, {"title": "德百旅游小镇椹仙村", "address": "德州市夏津县苏留庄镇后屯村", "image": "", "rank": 26, "time": 2, "location": {"lat": 37.04590012169986, "lng": 116.10941328653726}, "feature": {"sight_features": "", "sight_content": "德百旅游小镇椹仙村以国家4A级景区黄河故道森林公园为依托，以齐鲁民俗休闲体验为契入点，将传统民俗、夏津历史人文以及生态资源有机融合，集中展示齐晋会盟的历史文化和世界农业文化遗产的古桑文化。\n\n\n景区建设有齐鲁印象体验地、欢乐杂技大世界、跑马训练场、特色小吃一条街、养生休闲公寓、拓展实训基地、康养基地七大板块。\n光影秀位于德百旅游小镇椹仙传奇游乐场，光影秀故事取材于椹仙村本土地缘传说，讲述了远古时期，共工怒触不周之山，世间化为炼狱，椹仙变身金种子阻隔洪水与蛮荒，辅助大禹治水排患，最终涅磐重生，羽化为天赐神树的传奇故事。项目可容纳1800人同时观赏，建有长50多米高20多米的大型塑石山与舞台，光影秀采用多维视听和实时互动的表现手法，多角度的立体激光阵、喷泉阵、火焰等视听体验集群。让游客身临其境感受椹树传说的唯美与惊奇，体验不同寻常的视觉盛宴，从而了解椹仙村的长寿文化，以及椹仙村养老养生文旅品牌理念。"}}]}