{"cityName": "峡江", "days": 2, "cityImage": "", "spots": [{"title": "玉笥山", "address": "吉安市峡江县玉笥山", "image": "", "rank": 1, "time": 1.0, "location": {"lat": 27.555485566886237, "lng": 115.28906540396838}, "feature": {"sight_features": "", "sight_content": ""}}, {"title": "百丈峰森林公园", "address": "江西省新余市渝水区", "image": "", "rank": 2, "time": 2, "location": {"lat": 27.80683965044363, "lng": 114.95142389340262}, "feature": {"sight_features": "", "sight_content": ""}}, {"title": "江丰果业家庭农场", "address": "105国道1869公章旁义桥村内江丰果业", "image": "", "rank": 3, "time": 2, "location": {"lat": 27.533917687085314, "lng": 115.32212304672466}, "feature": {"sight_features": "", "sight_content": ""}}, {"title": "峡江县 万寿寺", "address": "南门街郭家坡", "image": "", "rank": 4, "time": 1.5, "location": {"lat": 38.30749410138954, "lng": 114.38091377380645}, "feature": {"sight_features": "", "sight_content": ""}}, {"title": "儿童乐园", "address": "江西省吉安市峡江县水边镇玉笥大道百花湿地公园", "image": "", "rank": 5, "time": 2, "location": {"lat": 27.590602287031462, "lng": 115.32569302690493}, "feature": {"sight_features": "", "sight_content": ""}}, {"title": "蓝泡泡儿童乐园", "address": "江西省吉安市峡江县玉深路11", "image": "", "rank": 6, "time": 1.0, "location": {"lat": 27.59821388488243, "lng": 115.32694922451611}, "feature": {"sight_features": "", "sight_content": ""}}, {"title": "希望星（儿童乐园）", "address": "江西省吉安市峡江县玉梁创业示范街17号", "image": "", "rank": 7, "time": 2, "location": {"lat": 27.58823461761528, "lng": 115.32240322821313}, "feature": {"sight_features": "", "sight_content": ""}}, {"title": "佩贝礼堂", "address": "佩贝村附近", "image": "", "rank": 8, "time": 1.0, "location": {"lat": 27.582375279436835, "lng": 115.33389507183568}, "feature": {"sight_features": "", "sight_content": ""}}, {"title": "玉笥山景区", "address": "县城西北10公里赣江东岸", "image": "", "rank": 9, "time": 2, "location": {"lat": 32.84710265909933, "lng": 113.91662354960098}, "feature": {"sight_features": "", "sight_content": ""}}, {"title": "金山休闲山庄", "address": "235省道附近", "image": "", "rank": 10, "time": 2, "location": {"lat": 38.72736549768279, "lng": 115.81277537552413}, "feature": {"sight_features": "", "sight_content": ""}}, {"title": "峡江精品花卉展", "address": "吉安市峡江县105国道旁峡江县农业示范科技园", "image": "", "rank": 11, "time": 2, "location": {"lat": 27.533224967453094, "lng": 115.32166670752574}, "feature": {"sight_features": "", "sight_content": ""}}, {"title": "百花公园", "address": "玉笥大道73号", "image": "", "rank": 12, "time": null, "location": {"lat": 27.590522086243332, "lng": 115.32527939314994}, "feature": {"sight_features": "", "sight_content": ""}}, {"title": "峡江县城市规划展示馆", "address": "峡江住房资源管理中心附近", "image": "", "rank": 13, "time": 2, "location": {"lat": 27.58823461761528, "lng": 115.32240322821313}, "feature": {"sight_features": "", "sight_content": ""}}, {"title": "幻城密室", "address": "水边镇玉峡商业中心附2栋2楼", "image": "", "rank": 14, "time": 2, "location": {"lat": 27.610477504443605, "lng": 115.33677325346837}, "feature": {"sight_features": "", "sight_content": ""}}, {"title": "峡江县福民农业综合服务中心", "address": "善政街与223省道交叉口东北150米", "image": "", "rank": 15, "time": 2, "location": {"lat": 42.85646580255288, "lng": 124.414086267546}, "feature": {"sight_features": "", "sight_content": ""}}, {"title": "何林坑", "address": "吉安市-峡江县", "image": "", "rank": 16, "time": 2, "location": {"lat": 27.58823461761528, "lng": 115.32240322821313}, "feature": {"sight_features": "", "sight_content": ""}}, {"title": "峡江县巴邱镇吉昌村", "address": "吉安市-峡江县-人民北路", "image": "", "rank": 17, "time": 2, "location": {"lat": 27.564366070855762, "lng": 115.16669464589555}, "feature": {"sight_features": "", "sight_content": ""}}]}