{"cityName": "项城", "days": 2, "cityImage": "", "spots": [{"title": "袁世凯故居", "address": "周口市项城市王明口乡袁寨村", "image": "", "rank": 1, "time": 2.5, "location": {"lat": 33.348613113533474, "lng": 114.97248966494328}, "feature": {"sight_features": "", "sight_content": ""}}, {"title": "南顿故城", "address": "周口市项城市106国道", "image": "", "rank": 2, "time": 2, "location": {"lat": 33.2002838004633, "lng": 114.84770007461722}, "feature": {"sight_features": "", "sight_content": ""}}, {"title": "项城博物馆", "address": "周口市项城市南大街4号", "image": "", "rank": 3, "time": 2.5, "location": {"lat": 33.45045632808113, "lng": 114.91247709155199}, "feature": {"sight_features": "", "sight_content": ""}}, {"title": "项城公园", "address": "106国道", "image": "", "rank": 4, "time": 3.0, "location": {"lat": 39.1725896711994, "lng": 116.39041588203045}, "feature": {"sight_features": "", "sight_content": ""}}, {"title": "豪景温泉会馆", "address": "莲花大道豪景温泉会馆", "image": "", "rank": 5, "time": 2, "location": {"lat": 33.45516727015297, "lng": 114.88750532934125}, "feature": {"sight_features": "", "sight_content": ""}}, {"title": "易道牛奶草莓采摘园", "address": "S331S331(北极星服装公司西北侧90米路北)", "image": "", "rank": 6, "time": 2, "location": {"lat": 33.25116777556235, "lng": 114.7867366062165}, "feature": {"sight_features": "", "sight_content": ""}}, {"title": "人民公园游乐城", "address": "光武大道人民公园内", "image": "", "rank": 7, "time": 2, "location": {"lat": 33.449615195396596, "lng": 114.88629586068397}, "feature": {"sight_features": "", "sight_content": ""}}, {"title": "金海岸温泉会馆", "address": "通济大道北段新大桥南100米路西", "image": "", "rank": 8, "time": 2, "location": {"lat": 27.08660177282271, "lng": 114.98960906400814}, "feature": {"sight_features": "", "sight_content": ""}}, {"title": "项城市丰盈种植专业合作社", "address": "331省道附近", "image": "", "rank": 9, "time": 2, "location": {"lat": 38.76243571351783, "lng": 115.64385441420583}, "feature": {"sight_features": "", "sight_content": ""}}, {"title": "项城市图书馆服务一部", "address": "海河路10号附近", "image": "", "rank": 10, "time": 2, "location": {"lat": 45.76251372672029, "lng": 126.68257126212688}, "feature": {"sight_features": "", "sight_content": ""}}, {"title": "鲍园垂钓园", "address": "南顿镇鲍园村", "image": "", "rank": 11, "time": 2, "location": {"lat": 33.421317128849324, "lng": 114.82351703722051}, "feature": {"sight_features": "", "sight_content": ""}}, {"title": "智升生态园", "address": "106国道杨冢开发区向西380米", "image": "", "rank": 12, "time": 2, "location": {"lat": 33.58313110761693, "lng": 113.98756888642176}, "feature": {"sight_features": "", "sight_content": ""}}, {"title": "蹦蹦童屋", "address": "中心街与商贸街交叉口南100米", "image": "", "rank": 13, "time": 2, "location": {"lat": 36.742296685618264, "lng": 115.80131829272779}, "feature": {"sight_features": "", "sight_content": ""}}, {"title": "昭财夫人", "address": "花园办事处人民医院西路北", "image": "", "rank": 14, "time": 2, "location": {"lat": 35.31709613443578, "lng": 113.884723569314}, "feature": {"sight_features": "", "sight_content": ""}}, {"title": "世纪龙儿童乐园", "address": "河南省周口市项城市S217", "image": "", "rank": 15, "time": 2, "location": {"lat": 33.473007441429914, "lng": 114.88151400079326}, "feature": {"sight_features": "", "sight_content": ""}}, {"title": "七彩儿童乐园", "address": "西大街治安路口东50米路南(曙光婚纱西胡同内)", "image": "", "rank": 16, "time": 2, "location": {"lat": 39.92291256800272, "lng": 116.42128331223543}, "feature": {"sight_features": "", "sight_content": ""}}, {"title": "淘气宝儿童乐园", "address": "团结北路19号中央花园小区7号楼1楼", "image": "", "rank": 17, "time": 2, "location": {"lat": 39.7047750693488, "lng": 122.97444572009515}, "feature": {"sight_features": "", "sight_content": ""}}, {"title": "项城市郑郭镇师寨教会", "address": "河南省周口市项城市S238", "image": "", "rank": 18, "time": 2, "location": {"lat": 33.473007441429914, "lng": 114.88151400079326}, "feature": {"sight_features": "", "sight_content": ""}}, {"title": "火星寺", "address": "河南省周口市项城市", "image": "", "rank": 19, "time": 2, "location": {"lat": 33.473007441429914, "lng": 114.88151400079326}, "feature": {"sight_features": "", "sight_content": ""}}, {"title": "宝贝家儿童游乐园", "address": "周口市项城市", "image": "", "rank": 20, "time": 2.0, "location": {"lat": 33.473007441429914, "lng": 114.88151400079326}, "feature": {"sight_features": "", "sight_content": ""}}, {"title": "项城市新火车站广场", "address": "河南省周口市项城市南二环南50米", "image": "", "rank": 21, "time": 2, "location": {"lat": 33.42014172865261, "lng": 114.89602043464325}, "feature": {"sight_features": "", "sight_content": ""}}, {"title": "以马内利基督教会", "address": "012县道附近", "image": "", "rank": 22, "time": 2, "location": {"lat": 40.15507522393554, "lng": 116.62437778513727}, "feature": {"sight_features": "", "sight_content": ""}}, {"title": "基督教会(富民路)", "address": "环城路派出所附近", "image": "", "rank": 23, "time": 2, "location": {"lat": 33.444123138759366, "lng": 114.89665143677246}, "feature": {"sight_features": "", "sight_content": ""}}, {"title": "呦乐儿童乐园", "address": "莲花大道北段", "image": "", "rank": 24, "time": 2, "location": {"lat": 40.116665139314314, "lng": 113.13642940580476}, "feature": {"sight_features": "", "sight_content": ""}}, {"title": "中心广场", "address": "团结中路与西大街交叉口", "image": "", "rank": 25, "time": 1.0, "location": {"lat": 33.45040049036808, "lng": 114.90757171645028}, "feature": {"sight_features": "", "sight_content": ""}}, {"title": "弥陀寺", "address": "河南省周口市项城市102省道附近", "image": "", "rank": 26, "time": 0.4, "location": {"lat": 33.49236608287341, "lng": 114.88557712644544}, "feature": {"sight_features": "", "sight_content": ""}}, {"title": "欢乐水世界", "address": "迎宾大道花园办事处天然气站对面", "image": "", "rank": 27, "time": 3.5, "location": {"lat": 33.47735531063625, "lng": 114.88860800923611}, "feature": {"sight_features": "", "sight_content": ""}}, {"title": "荣辉园林苗圃基地", "address": "常青路附近", "image": "", "rank": 28, "time": 2, "location": {"lat": 39.96616919895882, "lng": 116.27846015794906}, "feature": {"sight_features": "", "sight_content": ""}}, {"title": "活色生香", "address": "迎宾大道6号", "image": "", "rank": 29, "time": 2, "location": {"lat": 34.722423975520684, "lng": 116.95212100034935}, "feature": {"sight_features": "", "sight_content": ""}}, {"title": "夜宴庄园", "address": "粮管所南大院", "image": "", "rank": 30, "time": 2, "location": {"lat": 34.09049590564453, "lng": 119.37096270824134}, "feature": {"sight_features": "", "sight_content": ""}}, {"title": "项城市清泉生态旅游开发有限公司", "address": "关庄清泉生态庄园", "image": "", "rank": 31, "time": 2, "location": {"lat": 32.08287023737775, "lng": 112.1476549388658}, "feature": {"sight_features": "", "sight_content": ""}}, {"title": "鑫怡生态园餐饮部", "address": "238国道郑郭镇东一公里路北", "image": "", "rank": 32, "time": 2, "location": {"lat": 33.39755007403891, "lng": 115.02461853850096}, "feature": {"sight_features": "", "sight_content": ""}}, {"title": "清泉生态庄园", "address": "丁集镇关庄社区", "image": "", "rank": 33, "time": null, "location": {"lat": 32.932826693472414, "lng": 115.87636318867563}, "feature": {"sight_features": "", "sight_content": ""}}, {"title": "欢乐谷儿童乐园", "address": "工业南路东50米", "image": "", "rank": 34, "time": 2, "location": {"lat": 36.74028929207124, "lng": 119.96672883885324}, "feature": {"sight_features": "", "sight_content": ""}}, {"title": "观澜岛书画艺术馆", "address": "湖滨路西150米", "image": "", "rank": 35, "time": 2, "location": {"lat": 39.94661103639673, "lng": 116.47109131110126}, "feature": {"sight_features": "", "sight_content": ""}}, {"title": "漂流瓶", "address": "公园路与正泰路交叉口西150米", "image": "", "rank": 36, "time": 2, "location": {"lat": 33.45301385591282, "lng": 114.88773652982358}, "feature": {"sight_features": "", "sight_content": ""}}, {"title": "海底世界(团结南路)", "address": "团结南路2100号", "image": "", "rank": 37, "time": 2, "location": {"lat": 31.733927286819778, "lng": 120.03521502301841}, "feature": {"sight_features": "", "sight_content": ""}}, {"title": "金花家庭", "address": "永丰镇", "image": "", "rank": 38, "time": 2, "location": {"lat": 31.872488938177526, "lng": 120.71334974935007}, "feature": {"sight_features": "", "sight_content": ""}}, {"title": "河南省百信农业有限公司", "address": "工业南路西50米", "image": "", "rank": 39, "time": 2, "location": {"lat": 24.135543948690636, "lng": 117.6110014430176}, "feature": {"sight_features": "", "sight_content": ""}}, {"title": "时光剧情密室", "address": "迎宾大道花园路交叉口向北二百米路东时光休闲吧二楼", "image": "", "rank": 40, "time": 2, "location": {"lat": 34.12742500166752, "lng": 118.80739463544734}, "feature": {"sight_features": "", "sight_content": ""}}, {"title": "仁和商业步行街", "address": "河南省项城市西大街", "image": "", "rank": 41, "time": 2, "location": {"lat": 33.450060501713175, "lng": 114.90186891375072}, "feature": {"sight_features": "", "sight_content": ""}}, {"title": "莲溪书院", "address": "周口市-项城市-水寨办事处东大街与食盐路交叉口北40米路东", "image": "", "rank": 42, "time": 2, "location": {"lat": 33.4531442623856, "lng": 114.91334608535318}, "feature": {"sight_features": "", "sight_content": ""}}, {"title": "九龙泉浴清池", "address": "周口市-项城市-水寨街道交通中路39号九龙泉浴清池", "image": "", "rank": 43, "time": 2, "location": {"lat": 33.44704339790105, "lng": 114.91500343656146}, "feature": {"sight_features": "", "sight_content": ""}}]}