{"cityName": "乡宁", "days": 2, "cityImage": "", "spots": [{"title": "云丘山景区", "address": "临汾乡宁县关王庙乡大河村、坂儿上村境内", "image": "", "rank": 1, "time": 3.0, "location": {"lat": 35.74433540961738, "lng": 111.04227463793235}, "feature": {"sight_features": "特色1 素有“河汾名胜”的美誉。 特色2 云丘山一带是黄河文化的大摇篮，是汉民族文化以致华夏文明诞生和繁荣的原始载体。 特色3 夏季洞口挂满冰凌、冬季腾起热气的自然奇观。", "sight_content": "‍\n云丘山旅游风景名胜区，坐落在吕梁山南端，总面积210平方公里，最高处海拔1629米。地处临汾市乡宁，属山西省南部。从南而望，若天顶高榘，接北斗而傲苍穹，古曰“昆仑”，俗称“北顶”。上古时期，是稷王教民稼穑的农耕文化始发地，是上古羲和以云丘山为北顶高榘观天定时，夏历产生的地方。是唐代中和节的保留延续地（已申报为国家级非物质文化遗产），是上古至今民众的生殖崇拜地，是道教龙门派的发祥地。春秋战国时庄子笔下写到了姑射山，而云丘山当属姑射山的最高山峦。享有“河汾第一名胜”、 “藐姑射山最秀之峰”之美称。云丘山自然景观独特奇异，人文景观丰富多彩，是国家AAAA级旅游风景区。\n\n\n\n景区内山雄峰峻、层峦叠嶂，森林茂密、乔灌丛生，景观神奇、气象万千，古建筑、古村寨星罗棋布。有形象逼真的人形山体，有洞察世事的蜡台放光，有今年为桑、次年为榆的桑榆同株，如此种种，令人赞叹大自然的鬼斧神工。春日花如云霞，秋日有红叶满山，动、植物品种繁多，植物就高达1700多种。威灵仙、穿地龙、五味子、五倍子等名贵药材随处可见，还有矮牡丹、野大豆、脱皮榆、葛罗槭等是国家二级保护植物。山泉流淌，鸟鸣兽藏，金钱豹、褐马鸡等国家级保护动物时有出没；更为奇特的是这里有罕见的反季节冰洞和男女生之器的形象山体。中华瑰宝、世界唯一的翅果油树也生长在这里的漫山遍野。\n\n\n‍‍\n‍云丘山旅游风景名胜区的魅力远不止于此，其人文景观更是尤为丰富深邃。有供奉真武大帝的明代五龙宫，有三教合一的清代八宝宫，有蜿蜒如飞龙的始建于元代的一天门、二天门、三天门、祖师顶、土地庙、玉皇顶，有巧夺天工的悬空元代建筑玉莲洞，有唐代的佛窟秦王庙及多处摩崖、明代佛塔多宝灵岩寺，有清代的关帝庙、戏台，有筑于悬崖峭壁的栈道，还有抗日阵亡将士纪念碑以及民间流传的许多美丽动听的传说故事。\n\n\n据说，上古时羲和在此观天测时，确定了日月轮回的古老历法；玄武大帝居此修行，终成正果，成为天神，并受元始天尊指令镇守北国。更为神秘的是每年二月二十五云丘山都有晋南地区最大的庙会，也是云丘山中和文化节。中和文化节起始于唐代，这个在其他地方早已绝迹的节日在云丘山却仍一脉相承，传续至今。这一节日同时也是未婚男女相亲的日子，届时男子手持鞭杆，女子手提花篮，演绎着原始古老的爱情婚俗，这个稀有的云丘山的中和文化节已被列入省级、国家级非物质文化遗产保护名录，千年古村塔尔坡，更被打造成有名的婚俗体验区。2009年乡宁中和节习俗和云丘山风景名胜区分别被评定为“省级非物质文化遗产”和“省级非物质文化遗产示范地”。\n\n\n\n云丘山旅游风景名胜区最为引人入胜的是攀登云丘山没有丝毫的压抑感，从上至下都行走在高高的山脊山上，回首一览众山小。尤其是到了玉皇顶，俯瞰身后走来得路径，竟然是一条巨龙，顿生乘龙腾飞的好爽感兴！云丘山以其雄奇的自然风光，悠久的历史渊源，古老的民俗传统与独具魅力的中和文化吸引着无数游人。\n‍‍\n‍云丘山旅游风景名胜区景区距侯禹高速公路出入口12公里，距108国道20公里，交通十分方便，欢迎您走进云丘山，感受这人间仙境！"}}, {"title": "金利量贩KTV", "address": "临汾市乡宁县迎旭街乡宁电视台东侧", "image": "", "rank": 2, "time": 2, "location": {"lat": 35.98349568439691, "lng": 110.86877687651533}, "feature": {"sight_features": "", "sight_content": ""}}, {"title": "戎子酒庄", "address": "昌宁镇东廒村(黄河壶口瀑布)", "image": "", "rank": 3, "time": 2, "location": {"lat": 36.016521358508896, "lng": 110.83145480681422}, "feature": {"sight_features": "", "sight_content": ""}}, {"title": "乡宁县图书馆", "address": "文笔路7号附近", "image": "", "rank": 4, "time": 2, "location": {"lat": 26.23739440805086, "lng": 117.61379641730584}, "feature": {"sight_features": "", "sight_content": ""}}, {"title": "垂钓园", "address": "枣岭乡阳涧沟", "image": "", "rank": 5, "time": 2, "location": {"lat": 35.87441215756874, "lng": 110.68448277463169}, "feature": {"sight_features": "", "sight_content": ""}}, {"title": "儿童乐园", "address": "山西省临汾市乡宁县迎旭街", "image": "", "rank": 6, "time": 2, "location": {"lat": 35.98349568439691, "lng": 110.86877687651533}, "feature": {"sight_features": "", "sight_content": ""}}, {"title": "熙熙儿童乐园", "address": "山西省临汾市乡宁县美如家东侧一层琪尔康小区大门对面", "image": "", "rank": 7, "time": 2, "location": {"lat": 35.98493894438043, "lng": 110.8749437905532}, "feature": {"sight_features": "", "sight_content": ""}}, {"title": "乡宁县迎旭广场", "address": "迎旭西街中段", "image": "", "rank": 8, "time": 2, "location": {"lat": 35.97672225446979, "lng": 110.85468120363944}, "feature": {"sight_features": "", "sight_content": ""}}, {"title": "台头镇影剧院", "address": "309国道北200米", "image": "", "rank": 9, "time": 2, "location": {"lat": 36.73191411297156, "lng": 118.90798977630351}, "feature": {"sight_features": "", "sight_content": ""}}, {"title": "图腾柱", "address": "山西省临汾市乡宁县关王庙乡云丘山风景区", "image": "", "rank": 10, "time": 0.4, "location": {"lat": 35.74433540961738, "lng": 111.04227463793235}, "feature": {"sight_features": "", "sight_content": ""}}, {"title": "抗战阵亡战士纪念碑", "address": "临汾市乡宁县", "image": "", "rank": 11, "time": 2, "location": {"lat": 35.9764416654741, "lng": 110.85349790082506}, "feature": {"sight_features": "", "sight_content": ""}}, {"title": "先皇庙", "address": "寨谭线与569县道交叉口西北100米", "image": "", "rank": 12, "time": 2, "location": {"lat": 35.890731334302416, "lng": 110.64180582942963}, "feature": {"sight_features": "", "sight_content": ""}}, {"title": "琪尔康度假村", "address": "临汾乡宁关王庙乡大河村", "image": "", "rank": 13, "time": 2, "location": {"lat": 35.74946649123305, "lng": 111.04410703834212}, "feature": {"sight_features": "", "sight_content": ""}}, {"title": "双鹤广场", "address": "山西省临汾市乡宁县", "image": "", "rank": 14, "time": 2, "location": {"lat": 35.9764416654741, "lng": 110.85349790082506}, "feature": {"sight_features": "", "sight_content": ""}}, {"title": "钓鱼岛度假村", "address": "209国道", "image": "", "rank": 15, "time": null, "location": {"lat": 29.50537463467816, "lng": 109.42537798613527}, "feature": {"sight_features": "", "sight_content": ""}}, {"title": "云丘山冰洞群", "address": "临汾乡宁县关王庙乡大河村", "image": "", "rank": 16, "time": 2, "location": {"lat": 35.74433540961738, "lng": 111.04227463793235}, "feature": {"sight_features": "", "sight_content": ""}}, {"title": "乡宁华灵庙抗日纪念馆", "address": "运城市新绛县新苏线附近", "image": "", "rank": 17, "time": 2, "location": {"lat": 35.66625211428436, "lng": 111.20181149745254}, "feature": {"sight_features": "", "sight_content": ""}}, {"title": "动漫水世界", "address": "文笔路177号号", "image": "", "rank": 18, "time": 2, "location": {"lat": 21.918719164017606, "lng": 110.87058692774464}, "feature": {"sight_features": "", "sight_content": ""}}, {"title": "乡宁县关王庙福源农家乐宾馆", "address": "云丘山新村11排2号", "image": "", "rank": 19, "time": 2, "location": {"lat": 28.039489868614353, "lng": 120.53165696611626}, "feature": {"sight_features": "", "sight_content": ""}}, {"title": "乡宁动物园", "address": "文笔路158号", "image": "", "rank": 20, "time": 1.0, "location": {"lat": 21.919433987703236, "lng": 110.8698809997497}, "feature": {"sight_features": "", "sight_content": ""}}, {"title": "塔尔坡", "address": "山西省运城市稷山县", "image": "", "rank": 21, "time": 2, "location": {"lat": 35.61040356961574, "lng": 110.98941457872347}, "feature": {"sight_features": "", "sight_content": ""}}]}