{"cityName": "襄汾", "days": 2, "cityImage": "", "spots": [{"title": "荷花温泉", "address": "山西襄汾县燕村滨河东路段燕村荷花温泉", "image": "", "rank": 1, "time": 2, "location": {"lat": 35.97638572313965, "lng": 111.43972426946348}, "feature": {"sight_features": "特色1 综合服务区和旅游景区", "sight_content": "养生休闲何处去，襄汾燕村荷花园！荷花区：多池莲叶无穷碧，各色荷花别样艳，观景、采摘、垂钓、野炊，回归自然；温泉区：泳池温泉品类多，室内室外任君乐，游泳，冲浪、药疗、休憩，享受生活。景区建设历时五年，投资五亿，规模宏大，设施齐全。休闲娱乐、商务会议、旅游度假，欢迎您前来体验！\n园区充分利用得天独厚的温泉资源和自然生态田园风光，高端策划，精心设计，建成集度假休闲、康体疗养，观光游览，展销购物，餐饮住宿，会务接待，商贸洽谈，文化交流为一体的综合服务区和旅游景区，为顾客提供各种服务。"}}, {"title": "东岭真人CS", "address": "山西省临汾市襄汾县", "image": "", "rank": 2, "time": 2, "location": {"lat": 35.88206267067628, "lng": 111.44854005199257}, "feature": {"sight_features": "", "sight_content": ""}}, {"title": "双龙湖湿地公园", "address": "临汾市襄汾县境内", "image": "", "rank": 3, "time": 2, "location": {"lat": 35.88206267067628, "lng": 111.44854005199257}, "feature": {"sight_features": "", "sight_content": ""}}, {"title": "天地马业马术俱乐部", "address": "南贾镇南贾村", "image": "", "rank": 4, "time": 2, "location": {"lat": 35.81636330657556, "lng": 111.3828311598709}, "feature": {"sight_features": "", "sight_content": ""}}, {"title": "七一水库", "address": "临汾市襄汾县", "image": "", "rank": 5, "time": 2, "location": {"lat": 35.88206267067628, "lng": 111.44854005199257}, "feature": {"sight_features": "", "sight_content": ""}}, {"title": "唐回漂流(襄汾店)", "address": "大运路加油站对面春秋国旅", "image": "", "rank": 6, "time": 2, "location": {"lat": 24.09701218694945, "lng": 108.252842276359}, "feature": {"sight_features": "", "sight_content": ""}}, {"title": "大泡泡儿童游乐园", "address": "华艺百货三楼", "image": "", "rank": 7, "time": 2, "location": {"lat": 26.67676581054841, "lng": 118.92725859278}, "feature": {"sight_features": "", "sight_content": ""}}, {"title": "益智儿童乐园", "address": "南大街与文卫街交叉口东南100米", "image": "", "rank": 8, "time": 2, "location": {"lat": 35.8811985382234, "lng": 111.44285627091219}, "feature": {"sight_features": "", "sight_content": ""}}, {"title": "华佗庙", "address": "南黄线北50米", "image": "", "rank": 9, "time": 2, "location": {"lat": 36.001694286334306, "lng": 111.31658919259858}, "feature": {"sight_features": "", "sight_content": ""}}, {"title": "东汾阳忠义文化广场", "address": "232省道附近", "image": "", "rank": 10, "time": 2, "location": {"lat": 38.377274537943066, "lng": 114.45027902716741}, "feature": {"sight_features": "", "sight_content": ""}}, {"title": "双龙湖国家湿地公园", "address": "山西省临汾市襄汾县南贾镇襄侯线七一水库附近", "image": "", "rank": 11, "time": 2, "location": {"lat": 35.793170390269744, "lng": 111.3583209344549}, "feature": {"sight_features": "", "sight_content": ""}}, {"title": "1 1儿童乐园", "address": "山西省临汾市襄汾县新建南路20号", "image": "", "rank": 12, "time": 2, "location": {"lat": 35.88001675904013, "lng": 111.4494432909964}, "feature": {"sight_features": "", "sight_content": ""}}, {"title": "红果果儿童乐园", "address": "东大街襄汾县文物局附近", "image": "", "rank": 13, "time": 2, "location": {"lat": 35.877019405739325, "lng": 111.44701724449203}, "feature": {"sight_features": "", "sight_content": ""}}, {"title": "荷塘月色度假村", "address": "曲沃县高显镇汾阴村北侧", "image": "", "rank": 14, "time": 2, "location": {"lat": 35.712441863190115, "lng": 111.401491176043}, "feature": {"sight_features": "", "sight_content": ""}}, {"title": "喷泉广场", "address": "山西省临汾市襄汾县新城镇振兴路滨河公园", "image": "", "rank": 15, "time": null, "location": {"lat": 35.89079874397841, "lng": 111.44343742876356}, "feature": {"sight_features": "", "sight_content": ""}}, {"title": "林乡四季庄园", "address": "山西省临汾市襄汾县滨河南路赵曲村西口", "image": "", "rank": 16, "time": 2, "location": {"lat": 36.021782909172686, "lng": 111.43513166906915}, "feature": {"sight_features": "", "sight_content": ""}}, {"title": "东富康广场", "address": "临汾市襄汾县文卫路55号", "image": "", "rank": 17, "time": 2, "location": {"lat": 35.879154869274736, "lng": 111.44876624531997}, "feature": {"sight_features": "", "sight_content": ""}}, {"title": "东岭滑雪度假村水上乐园", "address": "东岭森林公园往东3公里", "image": "", "rank": 18, "time": 2, "location": {"lat": 35.89319812642965, "lng": 111.48512701314229}, "feature": {"sight_features": "", "sight_content": ""}}, {"title": "醉墨轩画廊", "address": "丁村路", "image": "", "rank": 19, "time": 2, "location": {"lat": 30.94654058875979, "lng": 117.8330809765232}, "feature": {"sight_features": "", "sight_content": ""}}, {"title": "襄汾县图书馆", "address": "丁陶大道与北大街交叉口东南200米", "image": "", "rank": 20, "time": 2, "location": {"lat": 35.88989677435338, "lng": 111.43321543160273}, "feature": {"sight_features": "", "sight_content": ""}}, {"title": "丰硕采摘园", "address": "山西尧庙镇下靳村东300米", "image": "", "rank": 21, "time": 2, "location": {"lat": 36.02630120564957, "lng": 111.44744437259253}, "feature": {"sight_features": "", "sight_content": ""}}, {"title": "大剧院", "address": "北大街南150米", "image": "", "rank": 22, "time": 2, "location": {"lat": 37.03426789188468, "lng": 111.92690709453956}, "feature": {"sight_features": "", "sight_content": ""}}, {"title": "依尚街区", "address": "南大街001号3F", "image": "", "rank": 23, "time": 2, "location": {"lat": 40.24174146607666, "lng": 116.14064646632217}, "feature": {"sight_features": "", "sight_content": ""}}, {"title": "荷花小镇大型油纸伞彩色艺术节", "address": "临汾市襄汾县邓庄镇燕村荷花小镇民俗村", "image": "", "rank": 24, "time": 2, "location": {"lat": 35.97638572313965, "lng": 111.43972426946348}, "feature": {"sight_features": "", "sight_content": ""}}]}