{"cityName": "咸宁", "days": "", "cityImage": "", "spots": [{"title": "隐水洞", "address": "咸宁市通山县大畈镇", "image": "", "rank": 1, "time": 2.5, "location": {"lat": 29.65939708985072, "lng": 114.65587224405215}, "feature": {"sight_features": "特色1 奇特的喀斯特景观 特色2 隐水洞被誉为“洞天华中——中华天洞” 特色3 洞内喀斯特景观丰富多彩、奇特壮丽、玲珑剔透的天然石笋等奇观", "sight_content": "隐水洞全长5180米，原是一片海洋，经过数十万年的地壳运动形成一个天然的钟乳洞。是湖北省命名的首家地质公园，被专家喻为“洞天华中—中华天洞”和“神秘的地下明珠宫殿”。洞内分上下两层，历经百万年演变，景观丰富多彩，独特的熔岩地貌奇特壮丽，十分罕见。洞中游览分为：上游1/3乘船观光、中游1/3乘火车游览、下游1/3徒步零距离感受科学探密的快感，其独特的洞中多样化的游览方式属亚洲第一。\n【第一大景区：龙宫泛舟】\n隐水洞所在的山叫南山，所以这个码头就取名南山码头了，景区游览的第一部分为乘船区域，水道长1300多米，宽8～30米，深1～5米，乘船游览时间约30分钟，在此可以欣赏到上帝的葡萄园，龙宫石林，大象迎宾，鲁班金锤等等仙境景色，伴随着潺潺流水，轻舟荡漾，颇有一种飘飘欲仙的感觉。\n【第二大景区：幽谷龙吟】\n现在为隐水洞的第二大景区，在步行一段之后，以第二种游览方式：乘火车游览。火车如蛟龙一般，在幽谷中穿行，在这里可以看到钟乳石沉积中的滴水沉积，形成的石钟乳、石笋和石柱，坐上飞驰的小火车在迷宫中穿行，好似神仙下凡，梦幻无穷。罕见的洞穴生物，犹如外星来客，与人共舞，独特的景色让您大饱眼福。\n【第三大景区：通灵峡谷】\n洞内游览的最后一部分是步行在金山之下，更有部分石钟乳有如上帝的一只手，轻轻扶住了倾倒的斜塔。漫步在地下宫殿内，零距离感受科学探秘的快感。宏大的钟乳群体造型别致，在荧光闪烁下流光溢彩，华丽胜似天宫。"}}, {"title": "赤壁古战场", "address": "湖北省咸宁市赤壁市赤壁镇武侯巷6号", "image": "", "rank": 2, "time": 2.5, "location": {"lat": 29.88197566651635, "lng": 113.64311935248685}, "feature": {"sight_features": "特色1 我国古代著名战役中惟一尚存原貌的古战场", "sight_content": "赤壁古战场位于长江中游南岸，湖北省赤壁市境内。公元208年，羽扇纶巾的诸葛亮，巧借一夜东风，在这里吹灭了曹操独霸天下的梦想；雄姿英发的周瑜，智用一场烈火，点燃了赤壁千秋不息的辉煌。\n\n赤壁之战，一战成就了多少人：周瑜、庞统、诸葛亮、黄盖等等数不尽的英雄好汉。那个时代是注重勇气与智慧的时代！没有藐视一切的勇气怎么会有孙权切案的故事！没有绝顶的智慧怎么会有庞统巧献连环计的传奇！一切都是因为在赤壁这个地方人杰地灵！“赤壁”二字，上写皆土。土接地气，乃万物之源。赤壁，得地气，通王气，乃吉祥宝地。\n古往今来，任何战争都是以一方为最终结果的，唯独这场赤壁大战，虽然以曹军溃败为阶段性的结果，但是天下诸侯纷争、民不聊生的局面自此短暂平息了，赤壁大战后诞生了三个鼎足而立的国家和三位开国皇帝！"}}, {"title": "三江森林温泉", "address": "咸宁市咸安区月亮湾路2号三江森林温泉度假区", "image": "", "rank": 3, "time": 9.0, "location": {"lat": 29.81978507458086, "lng": 114.33312461278602}, "feature": {"sight_features": "特色1 森林、温泉、桂花、楠竹", "sight_content": "三江森林温泉度假区是按五星级酒店标准建造的，集休闲度假、商务会议、养生娱乐、中外贵宾接待为一体的综合型大型度假区，三江森林温泉整体规划为温泉旅游、五星酒店、商业街、酒店式公寓、休闲别墅等项目。\n八宝养生汤（隧道温泉区）：位于三江汇泉的右侧。八宝养生汤将温泉保健养生之功效与传统中药作用相结合，汇聚中华养生之精华。区内8个泡池，分别加入养生中药：\n芦荟汤；当归汤；人参汤；艾叶汤。\n三江森林温泉度假区温泉座落在著名的“桂花之乡”—湖北省咸宁市潜山国家森林公园东麓、紧邻淦河，依山而建70多个露天泡池及情趣汤屋，融合山地、森林、温泉、桂花、楠竹等原生态资源，是目前华中地区独具有森林特色且规模庞大的温泉度假区，意欲打造“东方模式、御式服务、情字风格” 的温泉经营典范。\n首乌汤；黄柏汤；防风汤；灵芝汤。\n十二泉坊（室内温泉区）：是温泉区仅有的室内温泉，室内布置为热带雨林风格，共计12个泡池，起名时按照一年12个月来的，分别为迎新池（或开岁池）、情趣池、伊人池、清和池、勤缘池、运来 池、夏恋池、桂秋池、菊月池、金秋池、藏冬池、雪舞池。池内温泉水温较高，可以迅速提升客人身体温度，对于怕冷，御寒性较差的客人是一个不错的选择；另在雪天，还可隔窗欣赏雪景，别有一番趣味。\n童梦奇泉（多功能亲子戏水区）：童梦奇泉紧邻月亮湾，是儿童游玩戏水的乐园，有可爱憨厚的大象型滑梯，童趣十足的儿童滑梯及水上蘑菇等设备，家长们也不用闲着，与亲人共享天伦之乐的同时还可在淋浴区体验不一样的感觉。\n三江汇泉（中央温泉区）：整个温泉的中心区，四周由漂流河环绕。游客可在此体验独特的温泉漂流，脚踩着温暖滑溜的鹅卵石，在水流的推动下，穿过一个又一个木制拱形桥洞，冲过急湍气泡区的激流，流连在弧形石壁喷雾区享受水蒸气和负离子弥漫四周的感觉，最后在水流回旋作用下轻轻地被送上中央温泉区的主入口。三江汇泉泡池中央设计有露天舞台，定期上演各类异彩纷呈节目，游客可泡在温泉中欣赏精彩的节目，也可以躺在气泡床上让水流轻轻地按摩全身穴位，视听娱乐与身心舒畅共享。"}}, {"title": "九宫山", "address": "咸宁市通山县九宫山风景名胜区笔架山路8号", "image": "", "rank": 4, "time": 3.0, "location": {"lat": 29.411278922639227, "lng": 114.68068530262026}, "feature": {"sight_features": "特色1 全国重点文物保护单位 特色2 历史悠久，人文景观星罗棋布，雄奇险峻，景色迷人 特色3 春可赏花，夏好避暑，秋看红叶，冬览雪景，既有南国山峰的峻秀", "sight_content": "九宫山因南朝“晋安王兄弟九人建九宫殿于此山，遂以为名。”此后，多朝皇帝封山赐匾，历代文人作赋题词，延 至南宋名道士张道清赴九宫山开辟道场，香火远播，九宫山便成为全国五大道场之一，特别是1645年明末农民起义领袖李自成殉难于九宫山，从此九宫山声名远播。如今,修建于1979年的闯王 陵已成为全国重点文物保护单位和全国农民起义领袖陵寝遗址。\n人文历史：九宫山历史悠久，人文景观星罗棋布。史载，南朝晋安王陈伯恭兄弟九人避战乱建九座行宫于此，故名 。南宋道士张道清至九宫山开辟道场，香火之盛，为全国五大道场之一。\n九宫山为道教名山。《太平御览》卷四十八引《武昌记》：“九宫山西北陆路去州五百八十里。闯王陵 ，其山晋安王 兄弟九人造九宫殿于此山，遂以为名。”宋代淳熙十四（ 1187 ），道士张道清又于山上建造九座道观，遂成为道教胜地，元明各代屡有修葺，后大多建筑被毁。现仅存九王庙、真牧堂、石 城门、一天门等建筑，并留有宋、明、清三代文人墨客摩崖题刻十余处。\n九宫山面积210平方公里，雄奇险峻，景色迷人。春可赏花，夏好避暑，秋看红叶，冬览雪景，既有南国山峰的峻秀， 又兼北国风光之壮美，为华中地区闻名的避暑游览胜地。主峰海拔1656米，盛夏季节日平均气温21℃左右，最高气温不超过30℃。夏天一日三季：午前如春、九宫山美景、午后似秋 、晚如初冬，素有“天下第一爽”之称。\n山上海拔1230米的云中湖为我国极具特色的高山湖泊；有全国落差极大的大崖头瀑布（落差420米）；还有面积6万多亩、分布近千种名贵动植物、近百种珍稀濒危物种、拥有大面积原始森林和第四纪冰川遗迹的省级森林保护区———九宫山森林公园。九宫山镇、佛两教并存，自北魏以来香米不断，延续 至今。\n云中湖景区、铜鼓包景区、石龙沟景区，金鸡谷景区、中港景区、闯王陵景区，风光炯异，令游客流连忘返。山上有中国极具特色的高山湖泊——云中湖，有全国落差极大的瀑布—— 大崖头瀑布，有保存完好的大面积原始次生林和第四纪冰川遗迹——九宫山森林公园。"}}, {"title": "嘉鱼山湖温泉", "address": "湖北省嘉鱼县鱼岳镇连江大道", "image": "", "rank": 5, "time": 2, "location": {"lat": 29.975903957443457, "lng": 113.94011864721702}, "feature": {"sight_features": "", "sight_content": ""}}, {"title": "楚天瑶池温泉度假村", "address": "咸宁市咸安区温泉路3号", "image": "", "rank": 6, "time": 2, "location": {"lat": 29.824560334890975, "lng": 114.33629742784622}, "feature": {"sight_features": "特色1 四星级温泉旅游休闲场所", "sight_content": "“天上人间，瑶池温泉”。楚天瑶池温泉度假村座落于素有鄂南明珠之称的咸宁市城区，淦水河畔，是沸潭牌坊所在地，距武汉市区82公里，1小时车程。瑶池温泉度假村以原生态、园林式露天温泉为最大特色，拥有十大类40多个功能各异的特色温泉池，具有美容理疗、保健养身等多种功效，同时将博大精深的佛教文化和丰富的温泉旅游资源相结合，成为华中地区的首创。\n楚天瑶池温泉度假村，集温泉、客房、会议、娱乐、休闲为一体的四星级温泉旅游休闲场所。度假村坐落于中国温泉之乡的咸宁市区（原咸宁军分区温泉招待所）淦水河畔。占地40多亩，总建筑面积17000平方米。建筑风格独特，格调新颖，气势恢弘。四星级标准建造的配套酒店，设施齐全，拥有中式、日式高档客房170余间，豪华商务套房8间，独立温泉别墅2栋，VIP商务温泉别墅1栋（含12间高级客房），可同时容纳500余人就餐住宿。\n温泉分为祝福区、瑶池区、药物汤泡区、spa水疗区和泡池区。各自的特色有：\n祈福区一层：福池、禄池、寿池、喜池。\n祈福区一层：长命富贵、福至心灵、鹤鹿回春、松鹤延年。\n药物汤泡区：养生系列：艾叶三丫苦泉、甘草泉、夏枯草泉。\n滋补系列： 益母草泉、老参泉、枸杞泉、足乐池。\n美容养颜系列： 红酒汤、椰奶汤、汉方玉容散。\nSPA水疗区：瀑布浴、水幕拍打浴、鹅颈冲击浴、池壁按摩浴、热带雨林浴、水床浴。\n泡池区：橙花池、柠檬池、檀香池、白兰池、般若池、冷水池、热水池、三叠泉、五味甘露浴、亲亲鱼疗。"}}, {"title": "碧桂园温泉", "address": "咸宁市咸安区龙潭大道1号", "image": "", "rank": 7, "time": 2, "location": {"lat": 29.820584884082557, "lng": 114.31546482477121}, "feature": {"sight_features": "特色1 全国六大“温泉之乡”之一！ 特色2 具东南亚巴厘岛风格的室内外温泉，格调新颖，恬静幽雅！ 特色3 温泉区内40多种温泉泡汤池精巧别致，气象万千，浑然天成！", "sight_content": "碧桂园温泉度假区是东南亚风格的室内外温泉，格调新颖，恬静幽雅，40多种温泉泡汤池依据地势高低起伏而设，在自然山脊中错落分布，山脊各温泉池与山底共同构筑成远近高低各不相同的景观，精巧别致，气象万千，浑然天成。周边自然环境优越，风光旖旎，山水兼得。\n温泉区里不仅有各种各样的温泉泡池，还有适合小朋友游玩的动感欢乐天地温泉、玫瑰飘香的花草温泉、矿务泥浴和风情各异的室内温泉吊角楼。更拥有丰富的娱乐设施和齐备的商务配套，是集宾客会议、休闲旅游于一体的理想之选。\n在独具浪漫风情巴厘岛特色的一个个开放式平台上，在开枝散叶的天然圆木和椰子壳、海贝壳等天花中，尽显“千庙之岛”、“艺术之岛”本色，木屋与花香，配合巴厘岛古式香熏按摩，再来一个花瓣浴，牛奶浴……势必让您醉心东方神髓，饱览山水之妙！\n碧桂园凤凰温泉风景区：其温泉水水质好，站在整体依潜山山势而建的酒店温泉区内，极目而望，近处是极具欧陆建筑风情的五星级花园酒店。背靠潜山，总投资约150亿元的“碧桂园温泉城”已经开始接待宾客，源自巴厘岛风情的60席露天风情SPA汤池，全部依山而建，散落于山林中。\n温泉景区内含有特色项目，项目如下：SPA泡泡浴: 使得身心舒畅放松，产生大量负离子群，可安定神经;御足池:可促进血液循环，增强免疫力，促进新陈代谢，并对各种脚部疾病有诸多疗效。薄荷浴:具有疏风散热，清头目，利咽喉，透疹，解郁等功效;\n美肤亲亲鱼：吃掉身上的坏死角质层，令精神充沛，肌肤更美；温泉地热屋:快速改善血液循环，驱散人体内的寒气，增强人体免疫力;中药熏蒸太空舱：改善微循环、松弛骨骼、镇痛、活络关节海盐浴：保湿、祛痘、美白、防皱具有功效；\n桂花浴：桂为百药之长，具有清香提神功效；冰火泉：能使皮肤血管扩张收缩，对自律神经失调或冷体质的人，有显著调理功效"}}, {"title": "万豪温泉谷", "address": "咸宁市温泉区月亮湾路特1号（近潜山国家森林公园）", "image": "", "rank": 8, "time": null, "location": {"lat": 29.813697588934513, "lng": 114.32498371371472}, "feature": {"sight_features": "特色1 “中国温泉之乡”，放松身心，休闲娱乐。", "sight_content": "咸宁温泉谷度假区，位于湖北咸宁温泉潜山公园正门，距离武汉市区1小时、长沙市区2.5小时车程，有京广铁路、京珠高速、武广专线经过，未来城际铁路开通后武汉至咸宁仅28分钟。咸宁温泉又名沸潭，在唐代即已著称，至今有1400年历史。日出水量达80000吨，富含硫酸盐、碳酸盐、氡、钙、镁、钾、钠等数十种有益矿物质，保健功效显著。咸宁温泉谷度假区毗邻咸宁市区，淦河缓缓从旁流过，自然环境优越。\n咸宁温泉谷度假区有室内温泉、露天温泉、汤屋、水上乐园……鄂南、东洋、南洋风情，80多个温泉项目给您一站式世界温泉体验，Let’s go！缤纷的温泉享受就此开始。\n来到咸宁温泉谷度假区，先体验室内的玉石滩、电气石浴、黄土房、活氧炭浴、冰室、盐砖浴，在冰与火的洗礼中，让身体更干净清爽。然后，进入咸宁温泉谷度假区的鄂南文化区，迎客泉、帝王池、状元池、石板泉、月桂泉、竹香泉、表演台，一边泡温泉一边感受鄂南特色文化。沿着咸宁温泉谷度假区的水岸，是玛雅、伽姆、芭东、芭提雅、乌布、金巴兰、布吉岛等南洋风情温泉，以及不老汤、送子汤、无忧汤、养心汤、香体汤等养生温泉。再往里则是咸宁温泉谷度假区的东洋秘境，箱根汤屋、伊豆风吕、沐樱池、富士冷泉、浅间热泉、草津瀑布池、鱼趣池等东洋风情，不用远道去日本，便可感受日本温泉的精致与禅意。咸宁温泉谷度假区的最深处，为动感的棕榈水城，浮浴池组、观涛池、搏浪池、马尔代夫、巨蟒滑道、童乐园，是欢乐刺激的天地，让温泉动起来。咸宁温泉谷度假区中曼谷府、春武里府、清迈府，以及特色半山草舍，独立区域，差异服务，尊贵享受与众不同。娓娓道来的楚天故事，伊豆那缕氤氲暖雾，水岸芭蕉挡不住迷人风情，更有望山临水私家温泉生活。美妙纷呈真温泉享受，期待您的体验！"}}, {"title": "太乙洞", "address": "咸宁市咸安区温泉城区石乌山", "image": "", "rank": 9, "time": 1.0, "location": {"lat": 29.85815391515437, "lng": 114.30456990605815}, "feature": {"sight_features": "特色1 洞内奇观异象，左顾右盼，俯仰皆是", "sight_content": "桂花之乡湖北咸宁温泉侧畔，有一座天然溶洞，洞内、奇观异象，左顾右盼，俯仰皆是，景点约四十多处。此洞名为太乙洞，有一段传说。太乙真人将丹丸炼成之后，心里惦记着石乌山凿洞的事，便邀了黄龙真人一同前去察看。二人来山北边洞口，只见洞内妖雾迷漫，阴气袭人，便知道事情不妙，一定有妖魔鬼怪藏在里面与敖浚厮混。为了防止打草惊蛇，他二人作起隐身术，他作一股轻风，徐徐飘入洞来。只见洞内群魔乱舞，几个美女缠着体形消瘦、昏昏迷迷的敖浚，正在轻歌曼舞，有的妖精用舌头去舔敖浚流出的涎水。两位真人见此情景，交耳商量了一下，便把敖浚的真身摄乙真人说延：“为了我的事，已使师弟的弟子遭到不幸，现在又来麻烦八位神仙，真是过意不去”。太乙洞外迷人景色蒋公祖见下面的老汉怒气冲冲，好像很认真的样子，就向身两边的洞墙一看，不由得大吃一惊：原来两丈宽的山洞，现在变得只有五、六尺宽了，而两边的石墙还在迅速地往中间移动，吓得他掉头就跑，可是已经晚了一步。他弯着腰向前跑，可他的屁股却被山墙夹住了。他大呼救命！蒋家村的人闻声赶来，见山洞快要长垅，竟把蒋公祖的屁股夹住了，大家也来不及问明情况，七手八脚地把蒋公祖往外拖。最后，人是拖出来了，可是屁股上的皮肉全没有了，只剩下几根骨头，众人忙将他抬回家去医治。\n\n太乙真人见蒋公祖被夹住，这才收了法术。所以，还留有一条狭缝没有封死。个子瘦小的人，侧着身子，还能走过去。由于石洞长垅了，刚才哗啦啦的流水也断了流，飞流直下的瀑布也消失了，不过它的痕迹还在，和真瀑布一模一样，人们把它称作石瀑布。但瀑布的怒涛声依锛没有停止。现在人们走进洞内，离石瀑布百米之外，都听到哗哗的流水声响。太乙真人将那把磕断了的劈石剑竖插在洞内，又作法穿了几个暗洞，将盆地的水排干，驾着祥云飘回去了。 太乙洞外部景观再说蒋公祖被众人抬回家里，俯卧在床上哼哼唧唧的痛得难受，不一会儿就迷迷糊糊地睡着了。醒来之后，忽然觉得受伤的地方疼痛消失了。他对守在床边的人说，他刚才做了一个梦，梦里见到了借剑给他的那位老者。那位老者自称是天上的神仙，名叫太乙真人。由于自己自私，不愿使周围村庄的百姓都能受益，才得到了他的惩罚。告诉大家，山洞今天能够通水，全是太乙真人的功劳，北边那么长的山洞，是太乙真人作起法术打通的。他教全村的人不要自私自利，快把盆地的积水放干，让周围的百姓都去开垦田地。把山洞流到山北的水，也分去灌溉别姓的田地。让大家都能年年丰收，让石乌山周围村庄的人，都过上好日子。蒋公祖说，最后，太乙真人告诉他，为了防止有妖魔再进洞破坏，洞内留有他的石像，以镇妖魔鬼蜮；洞内冬暖夏凉，百姓可以进去避暑。"}}, {"title": "太乙温泉", "address": "咸宁市咸安区太乙村（太乙洞旁）", "image": "", "rank": 10, "time": 2, "location": {"lat": 29.785399332492585, "lng": 114.31566605957826}, "feature": {"sight_features": "", "sight_content": ""}}, {"title": "咸宁温泉", "address": "咸宁市咸安区", "image": "", "rank": 11, "time": 0.7, "location": {"lat": 29.85815391515437, "lng": 114.30456990605815}, "feature": {"sight_features": "", "sight_content": ""}}, {"title": "星星竹海", "address": "咸宁市咸安区汀泗桥镇花纹乡", "image": "", "rank": 12, "time": 3.5, "location": {"lat": 29.718902156896082, "lng": 114.25040096992554}, "feature": {"sight_features": "", "sight_content": ""}}, {"title": "九宫山银河谷漂流", "address": "咸宁市通山九宫山镇东港村", "image": "", "rank": 13, "time": 2, "location": {"lat": 29.41215865531166, "lng": 114.72255939085215}, "feature": {"sight_features": "特色1 唯一以竹林景观为全景的漂流河道", "sight_content": "九宫银河谷漂流全长9公里，面积20平方公里。是一处以楠竹景观为主体、以竹文化为核心的主题生态景区。银河谷谷峡竹青，峡谷两岸的山峰生长着茂密茁壮的楠竹，达万亩之多，山风吹拂，竹涛阵阵，谷中山泉，淙淙有声，给人们一种宁静、苍翠、幽深的静态美。但在景区的尽头，银河大瀑布群，却给宁静的景区带来一种动态美。银河大瀑布群由五级叠瀑组成，最后一叠最为壮观，它宽20米，落差150米，向下跌落的水声，发出巨大的轰鸣，场面极为壮观。\n九宫银河谷漂流景区分为上、中、下三段。上段以五叠瀑和山中人家为主要景观。山中人家在四叠瀑和五叠瀑之间，常流不断的瀑布、古民居、山里人，给人一种人与自然的和谐感。中段以农业生态体验园和竹林幽径为主要景观。农业生态园的各种现代农业蔬菜，不仅可以观赏，还可以亲自采摘；竹林幽径，是你放松身心，呼吸清新空气，欣赏竹子美的好处去。下段以银河谷漂流为主。银河谷漂流是湖北省唯一以竹林景观为全景的漂流河道，漂流河段长5公里，落差138米，有78级跌水，时而惊险刺激，时而平缓悠闲，是刺激、安全有保障的漂流。\n九宫银河谷漂流景区和九宫山（相距6公里），隐水洞（相距50公里），江南第一大夫第—王民璠故居（相距35公里），大汉皇族村—刘家桥古民居（相距45公里），咸宁温泉谷（相距60公里）等著名景点在同一条旅游线上，可和这些著名景点组合成多种不同的休闲度假线路，是游客休闲观光的首选。银河谷位于国家级风景名胜区九宫山东麓，距通山县城30公里，距咸宁市60公里，距武汉市150公里。紧邻通山至九宫山景区公路，交通十分方便。银河谷全长9公里，面积20平方公里。是一处以楠竹景观为主体、以竹文化为核心的主题生态景区。银河谷谷峡竹青，峡谷两岸的山峰生长着茂密茁壮的楠竹，达万亩之多，山风吹拂，竹涛阵阵，谷中山泉，淙淙有声，给人们一种宁静、苍翠、幽深的静态美。"}}, {"title": "通山太阳溪漂流", "address": "湖北省咸宁市通山县夏铺镇青山村", "image": "", "rank": 14, "time": 3.0, "location": {"lat": 29.41325740415678, "lng": 114.46362480306036}, "feature": {"sight_features": "特色1 太阳山下，河流中下游，水流湍急，清澈见底，有 “华中小漓江”之美誉！ 特色2 共有数十个2至10米高的大落差，由国内专业河道设计团队设计，保证游客安全！ 特色3 太阳溪漂流自2008年开业以来，备受游客青睐和好评！", "sight_content": "太阳溪漂流河段位于咸宁市通山县境内，始于幕阜山脉，太阳山下，河流中下游，水流湍急，清澈见底，有 “华中小漓江”之美誉，每年6月初进入漂流黄金季节。\n漂流河道长约5公里，落差130余米，漂完全程约需2小时左右，属于大落差、强刺激、保安全的双人自助漂流。原生态的河道，两岸植被覆盖率高、绿水青山、悬崖峭壁、怪石嶙峋、滩多水急、跌宕起伏;全程在峡谷丛林中穿梭，无太阳暴晒，共有数十个2至10米高的大落差。\n由国内专业河道设计团队设计，保证游客安全。让游客在享受极限刺激快感的同时既置身天然氧吧，又确保游客的人身安全是太阳溪漂流独有的特色。太阳溪漂流自2008年开业以来，备受游客青睐和好评，在华中地区享有盛誉，号称“华中丛林第一漂”。"}}, {"title": "盘龙溪漂流", "address": "咸宁市通山县黄沙铺镇源头村", "image": "", "rank": 15, "time": 2, "location": {"lat": 29.750567258551417, "lng": 114.63643577302739}, "feature": {"sight_features": "特色1 两岸悬崖壁立，水流湍急，是天然的大氧吧", "sight_content": "通山大幕山盘龙溪漂流有限公司位于国家级风景区九宫山北麓省级森林公园--大幕山森林公园脚下。 方圆2平方公里。距武汉市120公里，距咸宁市50公里，距省地质公园隐水洞8公里，距杭瑞高速黄沙入口5公里， 交通十分便利，是您节假日旅行探幽的首选之地。 这里群山环绕、碧水如玉、峰峦叠翠、古木参天、竹海生涛，尽展大自然的旖旎风光和神奇风韵，被誉为天然的大氧吧。盘龙溪全程4.8公里，落差186米，有48级跌水，连续跌水达138米，惊险刺激！全程无日晒竹海漂流，耗时约1个半小时左右。\n\n\n漂流分三段进行\n第一段：竹篁通幽：盘龙溪源头峰岭叠翠，蜿蜒起伏，秀竹连绵，郁郁葱葱。这里是竹的世界，竹的海洋！ “瞻彼淇奥，绿竹猗猗”、“余处幽篁兮终不见天”。来到这里，顿觉神清气爽，俗虑全消，让你深深体会： “无竹令人瘦，无竹令人俗”；“家中虽有八珍尝，那及山家竹笋香”的意境！源头水流平缓，清澈见底，甘甜清爽。 两岸绿竹护堤，古木参天，枝颈相牵，编成天然的绿色隧道，让你感觉到：如入仙境博舟，似在画中畅游，宁静而恬淡， 让人心向神往，流连忘返！\n第二段：中流击水：如果说竹篁通幽让您心如止水，来到这里一定让您神情振奋，豪情万丈。这里两岸悬崖壁立， 水流湍急，有连续138米跌水，让您顿生征服自然，挑战极限，超越自我的雄心壮志！两岸流泉飞瀑为您唱彩，竹影婆娑为您伴舞， 让您惊叹大自然的博大精深，充分体现您征服自然，驾御自然的智慧和毅力，让您欢笑，让您跳，这份体验挑战的乐趣和激情， 一定让您终生获益，永世难忘。\n\n\n第三段：回归自然：经历了动静结合，刚柔相济的历练，享受了万流奔腾、一泄千里、惊涛骇浪的激越； 感受了大自然的博大精深和神奇美丽。在这里您尺可抛弃舒适和慵懒，天人合一，回归自然，释放出久积于心的压力， 舒展紧绷的神经，尽情享受两岸田园风光、村舍茅屋。与自然对话，与碧水亲近，捕捉自然的激越和欣喜！\n盘龙溪以其茂密的原始丛林风光、罕见的青石板漂流河床而彰显出与众不同的特点。登上橡皮艇，奔流而下，一路搏急浪、闯险滩、滑奇石，既有乘过山车的动感刺激，又有乘滑翔机的畅快淋漓；同时还可欣赏藤蔓错杂、奇石飞瀑、山花烂漫的丛林风光，品清新空气、吃山珍野味，尽情体验“青石板上漂，绿荫丛中游”的诗情画意。我景区开业近年来，不断的改进，未发生一起安全事故，获得游客的一致好评。是距武汉最近，最安全，最刺激，最有特色的竹海漂流。"}}, {"title": "澄水洞（咸宁131工程）", "address": "咸宁市咸安区高桥镇澄水洞村", "image": "", "rank": 16, "time": 2, "location": {"lat": 29.879452035211607, "lng": 114.49440130677145}, "feature": {"sight_features": "特色1 群山环抱，茂林修竹", "sight_content": "地下工程建筑面积3288㎡，由一条456米长的主道和通风、通信两条支道组成。每个进出洞口，均装有防核辐射、防毒、防冲击波的大铅门。内设各种不同规格、用途的房间131间。包括一号首长毛泽东室、二号首长林彪室、总参谋长黄永胜室、作战指挥室、通信指挥室、机电设备房、发电配电房、生活服务区等。\n“131”军事工程于1981年移交原咸宁地区行政公署，不再使用原军事代号，以地名命名为“澄水洞”。中央、省、市财政投入大量资金，对原有设施进行维修、改造，增设大量旅游服务接待配套设施，现已开发成为集旅游观光、休闲度假于一体的旅游区。\n澄水洞旅游区群山环抱，茂林修竹、风光旖旎、鸟语花香、空气清新、气候宜人。自对外开放以来，累计接待游客近千万人次。主要景点有：“131”地下军事城堡、特一号领袖毛泽东行宫、将军山、将军陵园及其陈列馆、毛主席像章展览馆、盆景花卉观赏园等。配套服务设施有客房、餐厅、会议室等。"}}, {"title": "陆水湖风景区", "address": "咸宁市赤壁市沿湖路", "image": "", "rank": 17, "time": 1.0, "location": {"lat": 29.70037064800708, "lng": 113.9065716911615}, "feature": {"sight_features": "", "sight_content": ""}}, {"title": "潜山国家森林公园", "address": "咸宁市咸安区温泉镇月亮湾路", "image": "", "rank": 18, "time": 3.5, "location": {"lat": 29.826386044710443, "lng": 114.33009904706667}, "feature": {"sight_features": "", "sight_content": ""}}, {"title": "崇阳浪口森林温泉", "address": "咸宁市崇阳县白霓镇浪口村浪口温泉旅游度假区", "image": "", "rank": 19, "time": 2, "location": {"lat": 29.57054089597455, "lng": 114.09524989487167}, "feature": {"sight_features": "特色1 集田野风情和民俗特色为一体 特色2 “田野牧歌”主题系列休闲度假", "sight_content": "浪口森林温泉坐落在百泉之乡的崇阳，是三特集团精心打造的“田野牧歌”主题系列休闲度假产品的扛鼎之作，也是一家集田野风情和民俗特色为一体的森林温泉。早在1987年10月就被湖北省科委组织评审鉴定其水质指标已达到天然矿泉水国家标准，既可作为饮用矿泉水开发，也可作为医疗矿泉水加以利用。\n尽在樊笼里，复得返自然。“田野牧歌”旨在创造一个无限亲近自然的生活空间，引领一种养生、低碳、乐活的新兴绿色生活方式。\n曲径通幽处，禅房花木深。无论是低调奢华的客房，还是古董佛像交嵌的茶室，从建筑风格和色彩搭配上您都可以感受到浓浓的禅意，游客可在【精和馆】饱览隽水河湿地风姿，在醇厚的茶香中了悟禅意与佛道。\n横穿整个崇阳县城的隽水河像蜿蜒的玉带，缠绕在苍翠的奇峰间，不时可见水鸟追逐，白鹭相伴、渔船点点，河水平静如镜，倒影成景，无比秀丽。隽水河是崇阳的母亲河，此河清新隽美、九曲回肠，汇集了59条山野溪流，形成了充满诗意的十里画廊、鸟类天堂乡野景观氛围。从上游往下依次可见到：“桃园春霁”、“水滴石穿”“渔舟唱晚”、“望夫墩”、“隽水人家”、“飞翠亭”、“老青茶屋”、“洪下竹海”八大景点。一叶扁舟，一抹夕阳，河上泛舟，领略活态自然风光，也使自己置身其中，成为大自然中的一笔。\n燕子垭山顶是浪口温泉度假区内的一个制高点，借助索道登上山顶，有一览众山小之感触，在露天休息台上俯瞰隽水河，呈现出太极八卦图，会不由感叹大自然的造化神奇；走在蜿蜒曲折的木栈上，仿佛穿越了时光；山顶茶室依山而建，约三五好友品茗闲叙，谈笑有鸿儒，煮茶论英雄，尽享休闲时光。"}}, {"title": "赤壁龙佑温泉", "address": "咸宁市赤壁市龙佑温泉度假区", "image": "", "rank": 20, "time": 2, "location": {"lat": 29.685685813260356, "lng": 113.83627461563691}, "feature": {"sight_features": "特色1 拥有稀少珍贵的医疗矿泉", "sight_content": "龙佑赤壁温泉度假区位于湖北省赤壁市境内，距市中心5公里，由此北上武汉110公里，南下岳阳70公里，进抵长沙210公里，西去赤壁古战场40公里，东与著名风景区陆水湖毗邻。龙佑赤壁温泉度假区坐落在风景秀美五洪山麓，五洪山温泉自古有之，相传为舜帝南巡驻跸之地。其二妃娥皇、女英寻迹于此，及第洞庭君山，竞成湘水之神。\n附近有被列入国家级重点文物保护单位的三国赤壁古战场，古迹众多，名闻遐迩。有山清水秀、岛屿棋布的陆水湖风景区，中央电视台在此建成了《水浒传》的第二个外景拍摄基地“水浒城”，目前又在建设国家级陆水湖旅游度假区。\n有宜浴宜饮、治病健身，被专家赞为“神泉”的珍贵医疗矿泉龙佑赤壁温泉；有莽莽苍苍、绵绵不绝，陆水水库黏土坝；有美轮美奂、鬼斧神工的“地下龙宫”玄素洞、神龙洞；有山高水长、夏日风凉的雪峰山避暑胜地；还有万亩茶园、万亩猕猴桃园等自然风光，如诗如画、交相辉映，是观光休闲旅游度假的乐园。"}}, {"title": "腾龙溪漂流", "address": "下杨村腾龙溪漂流", "image": "", "rank": 21, "time": 2, "location": {"lat": 29.649797495690883, "lng": 114.581341350457}, "feature": {"sight_features": "特色1 避暑休闲、娱乐观光、漂流探险的旅游之所", "sight_content": "腾龙溪漂流景区位于通山县城东北12公里处的下杨村，距武汉市118公里，交通十分便利，是避暑休闲、娱乐观光、漂流探险的极佳旅游之所。腾龙溪集瀑布、深潭、奇石、密林于一身，自然景色之美令人惊叹。这里山峦叠翠，鸟语花香，九曲十弯，飞瀑如雪，置身其中，恍若步入人间仙境，让您流连忘返。\n漂流全程3.5公里，整体落差114米，河道前半段是充满激情的勇士之漂，最大垂直落差达13米的滑道让您体验过山车般的惊险刺激，河道后半段是充满浪漫的休闲之漂，让您在激情之余悠然泛舟，畅享静谧的田园风光。\n炎炎夏日，驱车来此，于密林之下，瀑布飞舟，于峡谷之中，穿石绕壁，于田园之间，凌波逐浪，在有惊无险的刺激中尽享大自然的狂野和魅力，感受纵情山水、放飞心灵的轻松和惬意，必定是人生一大乐事。\n腾龙溪漂流景区紧邻国家级地质公园隐水洞、富水湖水上乐园，与内陆第一核电站——大畈核电观景台相距仅8公里、乐家新村土楼相距4公里，多个景点沿核电公路一脉相承，可组合成多种不同的休闲度假线路，是游客休闲观光的首选。"}}, {"title": "玄素洞风景区", "address": "赤壁市陆水湖办事处玄素洞村", "image": "", "rank": 22, "time": 2, "location": {"lat": 29.635201563276237, "lng": 113.8806286127707}, "feature": {"sight_features": "特色1 被誉为“自然大空调”", "sight_content": "赤壁玄素洞风景区位于赤壁市城区六公里处。区内山青、水秀、石奇、洞幽，四季成游。春天，春花烂漫；盛夏，浓荫蔽日；金秋，层林尽染；隆冬，冰挂银条。玄素洞洞口成椭圆形，分前中后三洞；穿过石缝，别有洞天，有石柱、石台、石田和岩浆形成的奇形怪状的钟乳石；中洞至200米处有一天星洞，仰望洞顶，似天空星光，洞壁留有许多历代名人题词和诗句。\n\n\n洞中一年四季恒温18℃，严冬季节，洞内热浪扑面，暖意融融；盛夏酷暑，洞中寒气侵袭，清神爽心，爽凉宜人。洞中的石笋、钟乳、石幔、石花、石田等成型造景浪漫而夸张，精致而疏脱，万千姿态，各领风骚；玄武池、飞烟瀑、玉麒麟、赤壁石、等景观，更给人们留下了许多神奇的传说和无穷的遐想。据专家考证，玄素洞形成于早、中更新纪，诸多景观在八亿年前就已定形。早在清乾隆年间，就有人冒险探幽，终因洞内深幽奇险，惧而返。"}}, {"title": "赤壁古温泉", "address": "湖北省赤壁市赤壁镇三国赤壁古温泉。", "image": "", "rank": 23, "time": 2.5, "location": {"lat": 29.88141184718303, "lng": 113.63734539411146}, "feature": {"sight_features": "", "sight_content": ""}}, {"title": "十六潭水上乐园", "address": "咸宁市咸安区十六潭路特一号", "image": "", "rank": 24, "time": 2, "location": {"lat": 29.85815391515437, "lng": 114.30456990605815}, "feature": {"sight_features": "", "sight_content": ""}}, {"title": "闯王陵", "address": "咸宁市通山县闯王镇高湖村", "image": "", "rank": 25, "time": 2, "location": {"lat": 29.396994740399712, "lng": 114.57242000715208}, "feature": {"sight_features": "", "sight_content": ""}}, {"title": "大汉皇族村", "address": "咸宁市咸安区209省道东150米", "image": "", "rank": 26, "time": 2, "location": {"lat": 29.71069122344439, "lng": 114.40365237496212}, "feature": {"sight_features": "", "sight_content": ""}}, {"title": "梓山湖航天科技馆", "address": "咸宁市咸安区贺胜桥东站站前广场8号楼", "image": "", "rank": 27, "time": 2.5, "location": {"lat": 30.025664948457628, "lng": 114.37794745762262}, "feature": {"sight_features": "", "sight_content": "梓山湖航天科技馆是以航天科技为主题的高科技场馆，集教学、科普、文化传承为一体。馆内拥有大量航天飞行器模型，如“天宫”系列、“神舟”系列、“长征”系列等。除此以外，航天基础知识普及、航天历史普及、太空情形演化等等也应有尽有。"}}, {"title": "云溪漂流", "address": "咸宁市通城县关刀镇道上村", "image": "", "rank": 28, "time": 2, "location": {"lat": 29.131886373103427, "lng": 113.88740389253502}, "feature": {"sight_features": "特色1 全长4.5公里，176米落差；280米瀑布滑道式漂流只需58秒！ 特色2 利用独特地形和无与伦比的气势，打造全国独一无二的“瀑布滑道漂流”！ 特色3 中途设置3个水战区, 便于游客打水仗。惊险刺激，必将形成“人在景中漂，景美人欢笑”的漂流特色！", "sight_content": "云溪从关刀镇上堡村夜合桥至道上村的峡谷河段，长度约4.5公里，梯级总落差176米。其风景资源主要包括，碧龙潭瀑布（落差约30米）及其上下游的峡谷景观。峡谷地势险要，洁白的岩石连绵不绝，形成数千米的白石滩，溪水长流不断，跌水成瀑，积水成潭，溪面宽窄随峡谷地形变化，构成“瀑潭连缀，奇山怪石” 优美的峡谷景观。\n云溪漂流河道自上而下，30m左右落差1处，即碧龙潭瀑布，利用该处的独特地形和无与伦比的气势， 打造全国独一无二的“瀑布滑道漂流”； 5m左右落差8处，3m左右落差9处，根据河床地势而设。上游顶部筑坝储水，确保漂流水量。中途设置3个水战区，便于漂流的人们打水仗。碧龙潭漂流河床全长预计6.2km，漂流历时3小时许，惊险刺激，释放心情，其乐无穷，必将形成“人在景中漂，景美人欢笑”的漂流特色。"}}, {"title": "咸宁叠水湾温泉", "address": "湖北省咸宁市温泉区南外环大道（潜山脚下）", "image": "", "rank": 29, "time": 2, "location": {"lat": 29.80553304214282, "lng": 114.3224371855779}, "feature": {"sight_features": "", "sight_content": ""}}, {"title": "春泉庄温泉", "address": "咸宁市赤壁市茶庵岭镇五龙山路(温泉大道)1号", "image": "", "rank": 30, "time": 2, "location": {"lat": 29.662804773270956, "lng": 113.83620304763694}, "feature": {"sight_features": "特色1 水温稳定，水质清澈", "sight_content": "‍‍   ‍‍盛春温泉水取自五龙山热水体，热水体集中分布在茶庵岭—五龙山-陆水水库断层溶洞出露部位，水温为60℃，最高可达到64℃，热水体内水温稳定。水质明亮清澈，无菌无毒无沉淀物，浴感极好。五龙山温泉水的化学类型属于含偏硅酸，放射性氡，硫酸钙型泉，亦可称为硫酸钙型弱放射性氡泉。所含的矿物质并非硫酸，故没有浓重的硫磺气味。氡泉非常少见，与国内外一些名泉相比，氡泉不仅矿物质含量丰富，而且构成巧妙，比例适中，特色显著，是极为稀少珍贵的医疗矿泉，故被称为“温泉中的贵族”。‍‍‍‍‍‍‍‍\n‍‍   盛春温泉位于赤壁市茶庵岭著名的温泉村，坐落于五龙山脚下，占地14000平方米，包含室内，室外，餐饮等功能区。室外区由家庭亲子区、养生区、氧吧区和溶洞区组成、溶洞区更配有景观干湿蒸房；室内区由男、女宾室内泡池区、VIP区组成；全区43个泡池错落有致地分布于山丘之上。传统的温泉泡汤环境有着很深的人工打造痕迹，而盛春温泉在设计中保留自然环境的原始生态风貌，43个泡池依地形巧妙地分布于山坡上，隐卧在原生树木和山石的怀抱之中，四周田野风光尽收眼底。沐浴温泉时听着清脆的鸟叫，阵阵花香扑鼻而来，抬头便可仰望青山，回眸可见静谧湖水，在温泉的细腻滋润中领略日出、日落之美。盛春温泉不添加人工化学物质，打造天然纯粹温泉体验，回归享受温泉的自然本质。‍‍\n\n\n‍‍‍‍‍‍   盛春温泉致力于打造高度休闲的温泉体验，倡导生态健康的“自然疗法”，用最质朴的自然与温泉治愈心灵，舒缓身心压力，寻回健康活力，快乐轻松的生命状态。根据砖茶的特有疗效，结合五龙山温泉的天然效力，在赤壁三国文化、砖茶文化的沉淀中，遵循古法秘技，‍‍首创砖茶汤泉‍‍。在独特的茶香中，沐浴在翠竹山林间，呼吸着富含负离子的清新空气，品尝着地道的砖茶，来一份砖茶制作的小吃，这种悠闲自得，处处流露着修心、抒怀之境。“茶能通禅”，在茶中融进了“清”、“静”思想；而喝茶人通过饮茶，又将自己与山水、自然、宇宙融为一体，在茶中求得美好的韵律和精神开释。在茶的繁衍过程中，“以茶散郁气、以茶驱睡气、以茶养生气、以茶驱病气、以茶树礼仁、以茶表敬意、以茶尝滋味、以茶养身体、以茶可行道、以茶可雅志”，深深地影响着每一个人。\n‍‍‍‍   砖茶汤泉以其独具的优势，在这里充分地发挥着她内外在的魅力。砖茶汤泉对于美容养颜、消脂健体、降血糖血脂、抗氧化、抗衰老、促进机体对营养补充的运行等发挥着独有的功效。泡浴温泉之余，来到依山傍水的盛春餐厅，古朴与简约的布置，融合着对自然尊崇的品位。餐厅选用当地的新鲜蔬果，精良肉质等绿色有机食材，既有多款精心准备的免费小吃，更有为您用心制作的各式风味及砖茶特色美食。一杯砖茶，一杯咖啡，一味美食，倚窗而坐，近俯眼前静谧湖水，远眺秀美五龙山。在温泉滋润之后开启特色美食之旅，让身心在味蕾的满足中得以放松！‍‍\n‍‍‍‍"}}, {"title": "时舞《印象咸宁》演出", "address": "咸宁市咸安区金桂路时舞剧场（市青少年宫旁）", "image": "", "rank": 31, "time": 2, "location": {"lat": 29.823666949466396, "lng": 114.3364117821376}, "feature": {"sight_features": "", "sight_content": ""}}, {"title": "九宫山滑雪场", "address": "咸宁市通山县九宫山滑雪场", "image": "", "rank": 32, "time": 2, "location": {"lat": 29.399328075657646, "lng": 114.67137583833514}, "feature": {"sight_features": "", "sight_content": ""}}, {"title": "香泉映月生态旅游度假区", "address": "咸宁市咸安区嫦娥大道888号", "image": "", "rank": 33, "time": 2, "location": {"lat": 29.821231855520708, "lng": 114.30324583338096}, "feature": {"sight_features": "", "sight_content": ""}}, {"title": "乐儿乐儿童乐园（沃尔玛店）", "address": "咸宁市赤壁市河北大道47号沃尔玛购物广场一楼", "image": "", "rank": 34, "time": 2, "location": {"lat": 29.729368907535303, "lng": 113.8871527577552}, "feature": {"sight_features": "", "sight_content": ""}}, {"title": "柃蜜小镇旅游度假区", "address": "咸宁市崇阳县金塘镇畈上村4组", "image": "", "rank": 35, "time": 1.5, "location": {"lat": 29.355153983702788, "lng": 114.11175796269761}, "feature": {"sight_features": "", "sight_content": "柃蜜小镇旅游度假区位于咸宁市崇阳县金塘镇畈上村，东倚九宫山，南接通城黄袍山至江西小山界，西邻青山水库大泉洞风景区，北靠怪石嶙峋、溶洞密布的白崖山脉。柃蜜小镇旅游度假区内主要分为白崖山风景区以及柃蜜动物园两个板块。\n主要景点及游玩项目有：花山乐园、花山栈道、月亮湾广场、玻璃桥、湖畔花廊、恐龙谷、水上乐园、碰碰车、旋转木马、9D玻璃吊桥、滑道、鸽舍、文化岛等（水上乐园、碰碰车、旋转木马、9D玻璃吊桥、滑道等均为二次消费项目）。\n景区配套设施及服务功能有：休息亭、餐饮中心、商业街、地方特色的大型实景演出、大型生态停车场、多功能游客服务中心等。\n动物园园内则有天鹅、孔雀、鸸鹋（澳洲鸵鸟）、蓑衣鹤、鹳鹤、美洲红鹮、白冠长尾稚、白鹇、鸳鸯、鹰雕、苍鹰、鹦鹉、大雁等珍禽以及羊驼、矮马、北极狐、梅花鹿、浣熊、果子狸、雪地松鼠、石獾、毫猪等异兽，备受大小游客的喜爱。\n另外，景区还配套有：为数众多的休息亭、独具农家特色的餐饮中心、商业街、多个大型停车场、多功能游客服务中心等等。"}}, {"title": "赤壁市博物馆", "address": "陆水湖大道229", "image": "", "rank": 36, "time": 2.5, "location": {"lat": 29.72368183476753, "lng": 113.90219668012583}, "feature": {"sight_features": "", "sight_content": ""}}, {"title": "隐水洞地质公园", "address": "湖北省咸宁市通山县", "image": "", "rank": 37, "time": 2, "location": {"lat": 29.61263433805842, "lng": 114.48939330026687}, "feature": {"sight_features": "", "sight_content": ""}}, {"title": "仙休谷", "address": "咸宁市崇阳县天成镇桃红村", "image": "", "rank": 38, "time": 2, "location": {"lat": 29.59779564648965, "lng": 113.98693259020939}, "feature": {"sight_features": "", "sight_content": ""}}, {"title": "咸宁市香吾山公园", "address": "湖北咸宁市温泉潜山路7号", "image": "", "rank": 39, "time": 3.5, "location": {"lat": 29.83151200188512, "lng": 114.32968136554706}, "feature": {"sight_features": "", "sight_content": ""}}, {"title": "蚂蚁亲子乐园", "address": "咸宁市赤壁市龙佑温泉度假区", "image": "", "rank": 40, "time": 2, "location": {"lat": 29.685685813260356, "lng": 113.83627461563691}, "feature": {"sight_features": "", "sight_content": ""}}, {"title": "白霓镇", "address": "崇阳县的东部", "image": "", "rank": 41, "time": 2, "location": {"lat": 29.561333782271227, "lng": 114.04656290943393}, "feature": {"sight_features": "", "sight_content": ""}}, {"title": "通山烈士陵园", "address": "通山县凤池西路", "image": "", "rank": 42, "time": 3.0, "location": {"lat": 29.606481299098053, "lng": 114.51896442081454}, "feature": {"sight_features": "", "sight_content": ""}}, {"title": "咸宁市鸣水泉生态旅游风景区", "address": "湖北省咸宁市咸安区", "image": "", "rank": 43, "time": 3.5, "location": {"lat": 29.85815391515437, "lng": 114.30456990605815}, "feature": {"sight_features": "", "sight_content": ""}}, {"title": "葛仙山", "address": "咸宁市崇阳县", "image": "", "rank": 44, "time": 1.0, "location": {"lat": 29.561333782271227, "lng": 114.04656290943393}, "feature": {"sight_features": "", "sight_content": ""}}, {"title": "三湖连江", "address": "湖北省咸宁市嘉鱼县二乔公园西南580米", "image": "", "rank": 45, "time": 2, "location": {"lat": 29.967546508181712, "lng": 113.9265603892102}, "feature": {"sight_features": "", "sight_content": ""}}, {"title": "大泉洞", "address": "湖北省崇阳县青山百里平湖中游白岩山南麓", "image": "", "rank": 46, "time": 2, "location": {"lat": 29.387701559359712, "lng": 114.12261754027531}, "feature": {"sight_features": "", "sight_content": ""}}, {"title": "二乔公园", "address": "咸宁市嘉鱼县殷家坡路与沿湖大道交叉口西50米", "image": "", "rank": 47, "time": 2, "location": {"lat": 29.973751611862667, "lng": 113.92688983017959}, "feature": {"sight_features": "", "sight_content": ""}}, {"title": "崇阳青山水库", "address": "崇阳县城西南10公里处的青山镇", "image": "", "rank": 48, "time": 2, "location": {"lat": 29.441484794374972, "lng": 114.01354113062683}, "feature": {"sight_features": "", "sight_content": ""}}, {"title": "汀泗桥战役遗址", "address": "湖北省咸宁市咸安区汀泗桥镇", "image": "", "rank": 49, "time": null, "location": {"lat": 29.821295236325245, "lng": 114.17900690257693}, "feature": {"sight_features": "", "sight_content": ""}}, {"title": "咸宁半壁山", "address": "阳新县城东25公里长江南岸", "image": "", "rank": 50, "time": 3.5, "location": {"lat": 30.070789143093837, "lng": 115.32993687357234}, "feature": {"sight_features": "", "sight_content": ""}}, {"title": "咸宁金桂湖", "address": "咸宁咸安区桂花镇内", "image": "", "rank": 51, "time": 3.5, "location": {"lat": 29.726085789570774, "lng": 114.39996936818599}, "feature": {"sight_features": "", "sight_content": ""}}, {"title": "崇阳桂花森林公园", "address": "湖北省崇阳县桂花泉镇境内", "image": "", "rank": 52, "time": 2, "location": {"lat": 29.55901132678139, "lng": 113.91884768362955}, "feature": {"sight_features": "", "sight_content": ""}}, {"title": "黄盖湖", "address": "湖北省咸宁市赤壁市", "image": "", "rank": 53, "time": 2, "location": {"lat": 29.73066599752579, "lng": 113.90643686179263}, "feature": {"sight_features": "", "sight_content": ""}}, {"title": "通城县锡山森林公园", "address": "湖北省咸宁市通城县隽水镇白沙社区锡山路锡山森林公园", "image": "", "rank": 54, "time": 2, "location": {"lat": 29.233606562843363, "lng": 113.82646984904969}, "feature": {"sight_features": "", "sight_content": ""}}, {"title": "赤壁遗址", "address": "湖北省咸宁市赤壁市s214", "image": "", "rank": 55, "time": 1.5, "location": {"lat": 29.73066599752579, "lng": 113.90643686179263}, "feature": {"sight_features": "", "sight_content": ""}}, {"title": "罗荣桓元帅早期革命纪念馆", "address": "湖北省咸宁市通城县塘湖镇荻田村黄袍街", "image": "", "rank": 56, "time": 2, "location": {"lat": 29.21954988431593, "lng": 114.06760361216672}, "feature": {"sight_features": "", "sight_content": ""}}, {"title": "通城银山", "address": "通城城南2.5公里", "image": "", "rank": 57, "time": 1.0, "location": {"lat": 29.250857930222462, "lng": 113.82356790903289}, "feature": {"sight_features": "", "sight_content": ""}}, {"title": "儿童乐园", "address": "代湾路与烟墩路交叉口北100米", "image": "", "rank": 58, "time": 2, "location": {"lat": 29.97645361129148, "lng": 113.93626783068356}, "feature": {"sight_features": "", "sight_content": ""}}, {"title": "通城黄龙山", "address": "通城县F04县道", "image": "", "rank": 59, "time": 2, "location": {"lat": 29.250857930222462, "lng": 113.82356790903289}, "feature": {"sight_features": "", "sight_content": ""}}, {"title": "云中湖", "address": "九宫山", "image": "", "rank": 60, "time": 2, "location": {"lat": 29.22817754767105, "lng": 113.83113265201808}, "feature": {"sight_features": "", "sight_content": ""}}]}