{"cityName": "香河", "days": 2, "cityImage": "", "spots": [{"title": "天下第一城", "address": "廊坊市三河市香河县安平开发区中信国安第一城", "image": "", "rank": 1, "time": 2, "location": {"lat": 39.71759338631942, "lng": 116.90317660185843}, "feature": {"sight_features": "特色1 传统文化氛围，造属于老百姓的嘉年华。 特色2 中信国安天下第一城完美再现明清时期北京都城的城垣风貌！ 特色3 历经十余载的精心雕琢，以世人不可思议的精神和意志再创一代风华。拥有了众多的荷莲品种，其中不乏珍品，并且形成了皇家园林与荷花种植相结合的观赏体系。地处香河安平故地，“望夕阳斜于京畿，放扁舟而至津塘”，“土润润可植万物，地坦坦一纵八方”，自古就有“京畿明珠”、“京畿福地”之美誉。", "sight_content": "中信国安第一城是由中信国安集团公司投资兴建、中信国安第一城国际会议展览有限公司经营管理的一座集会议展览、旅游观光、休闲度假、娱乐健身、美食购物、影视拍摄等多种功能于一体的大型综合性会展中心，座落于京、津、冀交界的黄金地带-河北香河经济技术开发区，距北京市中心52公里，天津市中心70公里，总占地3320亩，总投资超过60亿人民币。 站在老北京六朝古都的历史和中华民族五千年文明的根基上，中信国安第一城外仿明清时期北京都城的城垣风貌，内聚中华几千年民族建筑之精华，内九外七、皇宫王府、市井茶肆、圆明八景、22座城关、十里古城墙，城里的一砖一瓦、一草一木，一尊雕塑、一方石刻，到处都能唤醒华夏子孙难以泯灭的文明记忆。周边5公里的空腹城墙、22座错落有致的城楼、具有浓郁中国传统文化风格的建筑群和独具匠心的皇家园林组成的景园内，亭台楼榭，九曲回廊，雕梁画栋，融中国南北古典造园艺术于一身，虽经人工，宛若天成。特别是每年6-8月间，第一城芙蓉满园、荷香四溢，形成了“荷在湖中、湖在景中、景在城中、人在画中”的靓丽风景，成为京津冀地区赏荷基地之一。\n城内还建有大型现代化国际会展中心、五座建筑风格各异的星级酒店、设施完备的康体健身中心、宏伟壮丽的金色艺术大厅、金碧辉煌的佛教艺术博物院、景色怡人的高尔夫式草坪花园、别具一格的海景康乐宫、琳琅满目的购物中心以及中国美术家协会艺术交流中心、中华诗词学会培训中心、中国现代瓷器艺术博物馆、荣毅仁同志生平暨中信公司发展陈列馆、珍宝馆等文化艺术设施。整体风格尽现华夏古今文化之精华、神州民族建筑之异彩，是一座将古典与现代、历史与文化、科学与艺术、休闲与健康完美结合的大型仿古建筑群。 中信国安第一城共建有客房3000余间(套)，风味餐厅18个，会议厅(室)100余个。\n住宿容量超过3000人，餐饮接待能力11000多人，会议容纳量10000多人，具备举办展览活动的室内面积达37000平方米，是目前国内较大的综合性国际会议度假酒店之一。曾有多位党和国家领导人莅临中信国安第一城视察或出席各种会议，有多位外国领导人和300多位驻华使节到第一城参观访问。2005年10月“第七届20国集团财长和央行行长会议”、2006年10月国际反贪局联合会首届年会、2007年12月第三次中美战略经济对话等重要会议均在这里成功举办。"}}, {"title": "华夏星光国际影城", "address": "廊坊市香河县淑阳镇永泰路劝业购物中心四层", "image": "", "rank": 2, "time": 2, "location": {"lat": 39.763751167080216, "lng": 117.0300784219471}, "feature": {"sight_features": "", "sight_content": ""}}, {"title": "香椿营清真寺", "address": "廊坊香河县香椿营村", "image": "", "rank": 3, "time": 1.0, "location": {"lat": 39.682858726668876, "lng": 117.06978253465714}, "feature": {"sight_features": "", "sight_content": ""}}, {"title": "海尚汇韩式汗蒸洗浴休闲馆", "address": "廊坊市香河县新华大街兴业家园对面", "image": "", "rank": 4, "time": 2, "location": {"lat": 39.77023319254575, "lng": 117.03222906504989}, "feature": {"sight_features": "", "sight_content": "海尚汇韩式汗蒸洗浴休闲馆位于香河县新华大街兴业家园对面，总营业面积5000平米，以韩式风格结合家庭式消费理念精心设计，是一家集韩式汗蒸、高端洗浴、特色餐饮、商务客房、棋牌娱乐、足疗保健、儿童乐园、商务洽谈为一体的综合性休闲洗浴会所。"}}, {"title": "永利垂钓园", "address": "张家湾镇王各庄村", "image": "", "rank": 5, "time": 2, "location": {"lat": 39.86426206320901, "lng": 116.72668474865122}, "feature": {"sight_features": "", "sight_content": ""}}, {"title": "经济开发区规划展馆", "address": "运河大道", "image": "", "rank": 6, "time": 2, "location": {"lat": 22.899028036641752, "lng": 113.04240332335736}, "feature": {"sight_features": "", "sight_content": ""}}, {"title": "余粮卖场(隆源店)", "address": "兴济路福宁园旁", "image": "", "rank": 7, "time": 2, "location": {"lat": 39.766866079765975, "lng": 116.99925836567978}, "feature": {"sight_features": "", "sight_content": ""}}, {"title": "国际会展中心", "address": "平安大街香河线中信国安第一城高尔夫花园训练基地", "image": "", "rank": 8, "time": 2.5, "location": {"lat": 39.721379949338505, "lng": 116.91366794874}, "feature": {"sight_features": "", "sight_content": ""}}, {"title": "聚友垂钓俱乐部", "address": "新城街与民安北路交叉口西100米", "image": "", "rank": 9, "time": 2, "location": {"lat": 39.723554058808304, "lng": 116.89739219888298}, "feature": {"sight_features": "", "sight_content": ""}}, {"title": "双安农业技术园", "address": "河北省香河县安平镇 065402", "image": "", "rank": 10, "time": 2, "location": {"lat": 39.743032236231905, "lng": 116.94056109840265}, "feature": {"sight_features": "", "sight_content": ""}}, {"title": "魔法戏水乐园", "address": "安平经济技术开发区中信国安第一城城前广场", "image": "", "rank": 11, "time": 2, "location": {"lat": 38.24050692219121, "lng": 115.5255492853222}, "feature": {"sight_features": "", "sight_content": ""}}, {"title": "香河八景", "address": "河北省香河县境内 065400", "image": "", "rank": 12, "time": 2, "location": {"lat": 39.76793918854631, "lng": 117.01240210779996}, "feature": {"sight_features": "", "sight_content": ""}}, {"title": "福安宫", "address": "廊坊市香河县平安大街", "image": "", "rank": 13, "time": 2, "location": {"lat": 39.71909804007875, "lng": 116.93095499477064}, "feature": {"sight_features": "", "sight_content": ""}}, {"title": "第一城-西直门", "address": "开发区第一城内", "image": "", "rank": 14, "time": 2, "location": {"lat": 39.72213141676271, "lng": 116.9185489303556}, "feature": {"sight_features": "", "sight_content": ""}}, {"title": "安平基督教会", "address": "河北省廊坊市香河县二街京塘路京津花园", "image": "", "rank": 15, "time": 1.0, "location": {"lat": 39.71120937884556, "lng": 116.90216683190586}, "feature": {"sight_features": "", "sight_content": ""}}, {"title": "潮白河湿地公园", "address": "河北省廊坊市香河县唐通线", "image": "", "rank": 16, "time": 2, "location": {"lat": 39.75924982541172, "lng": 117.05071897988724}, "feature": {"sight_features": "", "sight_content": ""}}, {"title": "果果儿童乐园", "address": "河北省廊坊市香河县渠口村附近", "image": "", "rank": 17, "time": 2, "location": {"lat": 39.774250174998585, "lng": 117.13913734791144}, "feature": {"sight_features": "", "sight_content": ""}}, {"title": "七彩童儿童乐园", "address": "河北省廊坊市香河县汇文金街南口美联福超市3层", "image": "", "rank": 18, "time": 2, "location": {"lat": 39.76934065845195, "lng": 117.00238851661912}, "feature": {"sight_features": "", "sight_content": ""}}, {"title": "城前广场", "address": "廊坊市香河县", "image": "", "rank": 19, "time": 2, "location": {"lat": 39.76793918854631, "lng": 117.01240210779996}, "feature": {"sight_features": "", "sight_content": ""}}, {"title": "南台村文化休闲身广场", "address": "迎宾小区南台村委会附近", "image": "", "rank": 20, "time": 2, "location": {"lat": 39.75245783806079, "lng": 117.01427845960343}, "feature": {"sight_features": "", "sight_content": ""}}, {"title": "大杨生态园", "address": "河北省廊坊市香河县西通唐公路东侧", "image": "", "rank": 21, "time": null, "location": {"lat": 39.76793918854631, "lng": 117.01240210779996}, "feature": {"sight_features": "", "sight_content": ""}}, {"title": "佛教文化艺术博物院", "address": "安平开发区第一城", "image": "", "rank": 22, "time": 2, "location": {"lat": 39.72141340786987, "lng": 116.91347680549697}, "feature": {"sight_features": "", "sight_content": ""}}, {"title": "中国美术家协会艺术交流中心", "address": "安平开发区第一城", "image": "", "rank": 23, "time": 2, "location": {"lat": 39.72141340786987, "lng": 116.91347680549697}, "feature": {"sight_features": "", "sight_content": ""}}, {"title": "童心源游乐园", "address": "迎宾路6号县委广场西", "image": "", "rank": 24, "time": 2, "location": {"lat": 41.100266973883535, "lng": 111.448694515625}, "feature": {"sight_features": "", "sight_content": ""}}, {"title": "嘟嘟儿童乐园(刘宋店)", "address": "刘宋集贸批发市场(忠环水暖大楼附近)", "image": "", "rank": 25, "time": 2, "location": {"lat": 39.67127010214796, "lng": 117.14822033141448}, "feature": {"sight_features": "", "sight_content": ""}}, {"title": "雪坊画廊(开发区校区)", "address": "开发区廊坊市香河县安平道口京津花园A区北门对面雪坊画廊主校区", "image": "", "rank": 26, "time": 2, "location": {"lat": 39.71120937884556, "lng": 116.90216683190586}, "feature": {"sight_features": "", "sight_content": ""}}, {"title": "泽普生态园", "address": "迎宾路与新华大街交叉口", "image": "", "rank": 27, "time": 7.5, "location": {"lat": 43.662857587076665, "lng": 111.99336137272593}, "feature": {"sight_features": "", "sight_content": ""}}, {"title": "东方千年古葡萄庄园", "address": "203乡道附近", "image": "", "rank": 28, "time": 1.5, "location": {"lat": 40.22814030651341, "lng": 116.72793974433003}, "feature": {"sight_features": "", "sight_content": ""}}, {"title": "余粮卖场(同梦店)", "address": "淑阳镇府前街同梦便利店", "image": "", "rank": 29, "time": null, "location": {"lat": 39.76844558565944, "lng": 117.02417371250789}, "feature": {"sight_features": "", "sight_content": ""}}, {"title": "郁金香晾衣架", "address": "全球家居CBD香河采购中心A馆内", "image": "", "rank": 30, "time": 4.5, "location": {"lat": 39.76793918854631, "lng": 117.01240210779996}, "feature": {"sight_features": "", "sight_content": ""}}, {"title": "运河湾农庄", "address": "幸福路", "image": "", "rank": 31, "time": 2, "location": {"lat": 39.711873989517485, "lng": 116.72200968560766}, "feature": {"sight_features": "", "sight_content": ""}}, {"title": "金堂商贸街", "address": "河北省香河县淑阳大街附近", "image": "", "rank": 32, "time": 3.0, "location": {"lat": 39.7659679450701, "lng": 117.01261395159516}, "feature": {"sight_features": "", "sight_content": ""}}, {"title": "金钥匙汇展中心", "address": "河北省香河县绣水街与永泰路交汇处", "image": "", "rank": 33, "time": 2, "location": {"lat": 39.763751167080216, "lng": 117.0300784219471}, "feature": {"sight_features": "", "sight_content": ""}}, {"title": "九圣寺荷花博览园", "address": "廊坊市-香河县-庆功台村渠庆线西", "image": "", "rank": 34, "time": 2, "location": {"lat": 39.72016748965757, "lng": 117.14054610923934}, "feature": {"sight_features": "", "sight_content": ""}}]}