{"cityName": "襄城", "days": 2, "cityImage": "", "spots": [{"title": "紫云山", "address": "许昌市襄城县紫云镇境内", "image": "", "rank": 1, "time": 1.0, "location": {"lat": 33.84047800596826, "lng": 113.43070873036243}, "feature": {"sight_features": "", "sight_content": ""}}, {"title": "襄城革命烈士纪念馆", "address": "许昌市襄城县体育街1号", "image": "", "rank": 2, "time": 2, "location": {"lat": 33.85696777367813, "lng": 113.5134312701311}, "feature": {"sight_features": "", "sight_content": ""}}, {"title": "毛主席视察纪念馆", "address": "许昌市襄城县", "image": "", "rank": 3, "time": 0.75, "location": {"lat": 33.85696777367813, "lng": 113.5134312701311}, "feature": {"sight_features": "", "sight_content": ""}}, {"title": "钧瓷艺术馆", "address": "紫云大道与烟城路交叉口东50米", "image": "", "rank": 4, "time": 2, "location": {"lat": 33.857878378069294, "lng": 113.50721797478312}, "feature": {"sight_features": "", "sight_content": ""}}, {"title": "智慧源亲子图书馆", "address": "烟城路51-5号附近", "image": "", "rank": 5, "time": 2, "location": {"lat": 33.8576737870018, "lng": 113.50857152715265}, "feature": {"sight_features": "", "sight_content": ""}}, {"title": "三元温泉", "address": "紫云大道北段襄城公园对面", "image": "", "rank": 6, "time": 2, "location": {"lat": 33.87461136987621, "lng": 113.52562909115943}, "feature": {"sight_features": "", "sight_content": ""}}, {"title": "襄城县大樱桃采摘基地", "address": "329省道", "image": "", "rank": 7, "time": 2, "location": {"lat": 37.006006509118556, "lng": 114.74389772886998}, "feature": {"sight_features": "", "sight_content": ""}}, {"title": "台湾城啤酒广场", "address": "河南省许昌市襄城县S238(八七路)", "image": "", "rank": 8, "time": 2, "location": {"lat": 33.85696777367813, "lng": 113.5134312701311}, "feature": {"sight_features": "", "sight_content": ""}}, {"title": "襄城县北汝河湿地公园", "address": "河南省许昌市襄城县S238(迎宾路)", "image": "", "rank": 9, "time": 2, "location": {"lat": 33.85144865612147, "lng": 113.49633629888628}, "feature": {"sight_features": "", "sight_content": ""}}, {"title": "儿童亲子乐园", "address": "河南省许昌市襄城县中心路一峰城市广场5层", "image": "", "rank": 10, "time": 2, "location": {"lat": 33.85557705260117, "lng": 113.49680346715827}, "feature": {"sight_features": "", "sight_content": ""}}, {"title": "曹操练兵台", "address": "台王村", "image": "", "rank": 11, "time": 2, "location": {"lat": 37.34519438970046, "lng": 117.90415735994839}, "feature": {"sight_features": "", "sight_content": ""}}, {"title": "青冢寺", "address": "许昌市襄城县", "image": "", "rank": 12, "time": 2, "location": {"lat": 33.85696777367813, "lng": 113.5134312701311}, "feature": {"sight_features": "", "sight_content": ""}}, {"title": "儿童乐园", "address": "河南省许昌市襄城县G311(徐峡线)", "image": "", "rank": 13, "time": 2, "location": {"lat": 33.85696777367813, "lng": 113.5134312701311}, "feature": {"sight_features": "", "sight_content": ""}}, {"title": "神童王国游乐公园(襄城店)", "address": "河南省许昌市襄城县泰安路1302", "image": "", "rank": 14, "time": 2, "location": {"lat": 33.85984110662549, "lng": 113.50895071987453}, "feature": {"sight_features": "", "sight_content": ""}}, {"title": "百宁岗五岳庙景区", "address": "河南省许昌市襄城县百宁岗", "image": "", "rank": 15, "time": 2, "location": {"lat": 33.85696777367813, "lng": 113.5134312701311}, "feature": {"sight_features": "", "sight_content": ""}}, {"title": "考拉儿童乐园", "address": "紫云大道丹尼斯金街2楼东侧电梯旁", "image": "", "rank": 16, "time": 2, "location": {"lat": 31.816072330543257, "lng": 114.91936478347345}, "feature": {"sight_features": "", "sight_content": ""}}, {"title": "襄城公园", "address": "许昌市襄城县三一一国道", "image": "", "rank": 17, "time": 3.0, "location": {"lat": 33.808427684533015, "lng": 113.46529682700664}, "feature": {"sight_features": "", "sight_content": ""}}, {"title": "古城公园", "address": "河南省许昌市襄城县城关镇西环路襄城古城墙附近", "image": "", "rank": 18, "time": 1.5, "location": {"lat": 33.85658631402677, "lng": 113.48033715166866}, "feature": {"sight_features": "", "sight_content": ""}}, {"title": "襄城图书馆", "address": "中心路", "image": "", "rank": 19, "time": 1.5, "location": {"lat": 39.02339741954867, "lng": 117.07202799480481}, "feature": {"sight_features": "", "sight_content": ""}}, {"title": "麦岭镇农民健身乐园", "address": "238省道", "image": "", "rank": 20, "time": 2, "location": {"lat": 32.02406130021086, "lng": 119.88529029655679}, "feature": {"sight_features": "", "sight_content": ""}}, {"title": "老年书画院工艺社", "address": "北大街201", "image": "", "rank": 21, "time": 2, "location": {"lat": 38.86689754291124, "lng": 115.50991472707379}, "feature": {"sight_features": "", "sight_content": ""}}, {"title": "迪诺欢乐世界", "address": "中心路", "image": "", "rank": 22, "time": 2, "location": {"lat": 39.02339741954867, "lng": 117.07202799480481}, "feature": {"sight_features": "", "sight_content": ""}}, {"title": "怡轩艺术馆", "address": "紫云大道虎记羊肉馆旁", "image": "", "rank": 23, "time": 2, "location": {"lat": 29.35781326393492, "lng": 105.91322837898134}, "feature": {"sight_features": "", "sight_content": ""}}, {"title": "犇腾庄园", "address": "范湖乡卫生院斜对面附近", "image": "", "rank": 24, "time": 2, "location": {"lat": 33.85063480707844, "lng": 113.6897193310554}, "feature": {"sight_features": "", "sight_content": ""}}, {"title": "大河画廊", "address": "238省道北50米", "image": "", "rank": 25, "time": 2.0, "location": {"lat": 32.02444396793915, "lng": 119.88529029655679}, "feature": {"sight_features": "", "sight_content": ""}}, {"title": "人民剧院", "address": "老市场中心路", "image": "", "rank": 26, "time": 2, "location": {"lat": 44.81199180712146, "lng": 123.09116987529818}, "feature": {"sight_features": "", "sight_content": ""}}, {"title": "河南省白塔寺武术艺术团", "address": "103省道白塔寺武校附近", "image": "", "rank": 27, "time": 2, "location": {"lat": 33.99208507338352, "lng": 113.49775979152624}, "feature": {"sight_features": "", "sight_content": ""}}, {"title": "紫云书院", "address": "河南省襄城县紫云镇", "image": "", "rank": 28, "time": 2, "location": {"lat": 33.84047800596826, "lng": 113.43070873036243}, "feature": {"sight_features": "", "sight_content": ""}}, {"title": "富东商贸区", "address": "河南省襄城县中心路", "image": "", "rank": 29, "time": 2, "location": {"lat": 33.85373431185381, "lng": 113.50344089745279}, "feature": {"sight_features": "", "sight_content": ""}}]}