{"cityName": "仙桃", "days": "", "cityImage": "", "spots": [{"title": "168休闲客栈恒温游泳馆", "address": "仙桃市沔街杜柳美食广场2号楼", "image": "", "rank": 1, "time": 2, "location": {"lat": 30.35370008924518, "lng": 113.43856828015072}, "feature": {"sight_features": "", "sight_content": ""}}, {"title": "百万花海风景区", "address": "仙桃市长埫口刘家垸林场", "image": "", "rank": 2, "time": 2.5, "location": {"lat": 30.218026546514007, "lng": 113.57482488583715}, "feature": {"sight_features": "", "sight_content": ""}}, {"title": "梦里水乡", "address": "仙桃市毛通线仙桃市国营赵西垸林场旁", "image": "", "rank": 3, "time": 2, "location": {"lat": 30.31546319105983, "lng": 113.02192525636448}, "feature": {"sight_features": "", "sight_content": ""}}, {"title": "欢乐天地儿童乐园", "address": "武商仙桃购物中心5楼", "image": "", "rank": 4, "time": 2, "location": {"lat": 30.36844274657276, "lng": 113.4610140387081}, "feature": {"sight_features": "", "sight_content": ""}}, {"title": "仙桃市博物馆", "address": "仙桃大道60号", "image": "", "rank": 5, "time": 2.5, "location": {"lat": 30.366426321961164, "lng": 113.46061742694408}, "feature": {"sight_features": "", "sight_content": ""}}, {"title": "高雅汗蒸养生会所", "address": "仙桃市中心钱沟南路新城壹号新城广场3楼", "image": "", "rank": 6, "time": 2, "location": {"lat": 30.35328220787501, "lng": 113.46650768983406}, "feature": {"sight_features": "", "sight_content": "高雅汗蒸养生会所是一家以韩式汗蒸、韩式泡汤为主；同时配有男女汤池水疗、足道、SPA按摩、健身、棋牌、影院、儿童乐园为一体综合性韩式养生会所。\n会所地处于湖北省仙桃市新城壹号新城广场3楼，营业面积4500余平方，耗资1000余万元。倾情打造仙桃地区旗舰式主题养生会所。\n会所交通便利，内部环境清新优雅，硬件设施高档先进，汗蒸种类齐全；引进LED负离子保健窑洞、水晶房、艾灸人参灵房、麦饭石房、红外理疗区及超大养生共享大厅。同时我们还提供韩式料理和各种美食小吃！新休闲/新时尚/新文化/新体验！"}}, {"title": "虹桥壹号", "address": "通海口镇红仓路特1号", "image": "", "rank": 7, "time": 2, "location": {"lat": 30.2284920741382, "lng": 113.17810003324232}, "feature": {"sight_features": "", "sight_content": ""}}, {"title": "绿尤葡萄采摘园", "address": "沙湖镇中邦八一幼儿园西南侧100米", "image": "", "rank": 8, "time": 2, "location": {"lat": 30.224606124560893, "lng": 113.63979751238993}, "feature": {"sight_features": "", "sight_content": ""}}, {"title": "岳口码头", "address": "沿江大道岳口", "image": "", "rank": 9, "time": 2, "location": {"lat": 27.76396464245724, "lng": 120.62942788921339}, "feature": {"sight_features": "", "sight_content": ""}}, {"title": "好友农家乐", "address": "318国道附近", "image": "", "rank": 10, "time": 2, "location": {"lat": 31.023348267795328, "lng": 120.88254137011852}, "feature": {"sight_features": "", "sight_content": ""}}, {"title": "昭军农家乐", "address": "东荆路107附近", "image": "", "rank": 11, "time": 2, "location": {"lat": 30.723199763866738, "lng": 104.12176223624742}, "feature": {"sight_features": "", "sight_content": ""}}, {"title": "洋苗农产品专业合作社", "address": "农民路附近", "image": "", "rank": 12, "time": 2, "location": {"lat": 32.430968932650565, "lng": 119.56686964202893}, "feature": {"sight_features": "", "sight_content": ""}}, {"title": "永兴渔业专业合作社", "address": "杜银线附近", "image": "", "rank": 13, "time": 3.0, "location": {"lat": 30.342700946811696, "lng": 113.5977680343588}, "feature": {"sight_features": "", "sight_content": ""}}, {"title": "斑马儿童美术馆", "address": "凤凰河路22", "image": "", "rank": 14, "time": 2, "location": {"lat": 30.382698679038857, "lng": 113.44560650292308}, "feature": {"sight_features": "", "sight_content": ""}}, {"title": "心怡家庭农场", "address": "陈场镇依湾村四组", "image": "", "rank": 15, "time": 2, "location": {"lat": 30.294002458265762, "lng": 113.06279693986451}, "feature": {"sight_features": "", "sight_content": ""}}, {"title": "玉沙湖生态庄园", "address": "沙湖大道179号", "image": "", "rank": 16, "time": 2, "location": {"lat": 30.181168100626756, "lng": 113.68606255946652}, "feature": {"sight_features": "", "sight_content": ""}}, {"title": "一号桃园", "address": "318国道旁边", "image": "", "rank": 17, "time": 2, "location": {"lat": 31.023348267795328, "lng": 120.88254137011852}, "feature": {"sight_features": "", "sight_content": ""}}, {"title": "51密室逃脱俱乐部", "address": "仙源大道13号", "image": "", "rank": 18, "time": 2, "location": {"lat": 30.373337063878125, "lng": 113.44890228253406}, "feature": {"sight_features": "", "sight_content": ""}}, {"title": "科学技术馆", "address": "仙桃大道60号", "image": "", "rank": 19, "time": 2, "location": {"lat": 30.366426321961164, "lng": 113.46061742694408}, "feature": {"sight_features": "", "sight_content": ""}}, {"title": "仙桃市档案馆", "address": "艺波路9", "image": "", "rank": 20, "time": 1.0, "location": {"lat": 30.36911133196267, "lng": 113.45792272690578}, "feature": {"sight_features": "", "sight_content": ""}}, {"title": "印湾农机合作社", "address": "印湾村附近", "image": "", "rank": 21, "time": 2, "location": {"lat": 30.223234263601633, "lng": 113.28505149495483}, "feature": {"sight_features": "", "sight_content": ""}}, {"title": "迪斯尼儿童乐园", "address": "彭场镇文化路国税旁宝帝服饰二楼", "image": "", "rank": 22, "time": 2, "location": {"lat": 30.260664342432236, "lng": 113.52642202543309}, "feature": {"sight_features": "", "sight_content": ""}}, {"title": "武商水上乐园", "address": "武商仙桃购物中心北门", "image": "", "rank": 23, "time": 2, "location": {"lat": 30.36844274657276, "lng": 113.4610140387081}, "feature": {"sight_features": "", "sight_content": ""}}, {"title": "爱迪儿童乐园(彭场店)", "address": "彭场镇富迪购物广场彭场店三楼", "image": "", "rank": 24, "time": 2, "location": {"lat": 30.087173372816416, "lng": 112.45580337197177}, "feature": {"sight_features": "", "sight_content": ""}}, {"title": "爱迪城堡儿童乐园(富迪三友生活...", "address": "市中心桃源大道9号富迪三友生活广场3楼", "image": "", "rank": 25, "time": 2, "location": {"lat": 30.370960090953844, "lng": 113.43848706704448}, "feature": {"sight_features": "", "sight_content": ""}}, {"title": "城市建设继续教育学院仙桃教学点", "address": "仙桃大道中段20号", "image": "", "rank": 26, "time": 2, "location": {"lat": 30.36681848929896, "lng": 113.45165577936292}, "feature": {"sight_features": "", "sight_content": ""}}, {"title": "新四军历史研究会", "address": "艺波路9号", "image": "", "rank": 27, "time": 2, "location": {"lat": 30.36911133196267, "lng": 113.45792272690578}, "feature": {"sight_features": "", "sight_content": ""}}, {"title": "刘口戏楼", "address": "沔街刘口超市对面", "image": "", "rank": 28, "time": 2, "location": {"lat": 30.35597822089129, "lng": 113.46813167168756}, "feature": {"sight_features": "", "sight_content": ""}}, {"title": "麦麦票务", "address": "欢乐谷旁", "image": "", "rank": 29, "time": 2, "location": {"lat": 39.872998854672566, "lng": 116.49664787379221}, "feature": {"sight_features": "", "sight_content": ""}}, {"title": "清风休闲马场", "address": "冯家口上堤左转两公里渔樵村附近", "image": "", "rank": 30, "time": 2, "location": {"lat": 30.13550347101355, "lng": 113.67363569461136}, "feature": {"sight_features": "", "sight_content": ""}}, {"title": "三木恒荣林业有限公司杨树苗基地", "address": "毛通线附近", "image": "", "rank": 31, "time": null, "location": {"lat": 30.30448998161495, "lng": 113.02155772274982}, "feature": {"sight_features": "", "sight_content": ""}}, {"title": "欢乐谷", "address": "高轻道73号", "image": "", "rank": 32, "time": 4.5, "location": {"lat": 30.363443396178376, "lng": 113.43626632107798}, "feature": {"sight_features": "", "sight_content": ""}}, {"title": "乡韵农场", "address": "仙源大道与大洪路交叉口东北50米", "image": "", "rank": 33, "time": 2, "location": {"lat": 30.37502792565554, "lng": 113.44794749247193}, "feature": {"sight_features": "", "sight_content": ""}}, {"title": "欢乐谷", "address": "大桥路与胜利正街交叉口西北50米", "image": "", "rank": 34, "time": 4.5, "location": {"lat": 30.17495045362203, "lng": 113.68688968127525}, "feature": {"sight_features": "", "sight_content": ""}}, {"title": "薰衣草店", "address": "工业园区纺织大道8号武警路", "image": "", "rank": 35, "time": 2, "location": {"lat": 30.34668565596011, "lng": 113.432379319899}, "feature": {"sight_features": "", "sight_content": ""}}, {"title": "仙桃职业学院图书馆", "address": "仙桃职业学院内", "image": "", "rank": 36, "time": 2, "location": {"lat": 30.34452190514629, "lng": 113.4332774170021}, "feature": {"sight_features": "", "sight_content": ""}}, {"title": "阿拉丁苗圃厂", "address": "郑场镇蒋家河村", "image": "", "rank": 37, "time": 2, "location": {"lat": 30.466541304974015, "lng": 113.07728739285947}, "feature": {"sight_features": "", "sight_content": ""}}, {"title": "德馨生态农庄", "address": "百曲镇龙禅寺西北侧1000米", "image": "", "rank": 38, "time": 2, "location": {"lat": 30.2752295003723, "lng": 113.78954575056461}, "feature": {"sight_features": "", "sight_content": ""}}, {"title": "仙桃市三伏潭钓鱼俱乐部", "address": "三伏潭镇汉沙大道248号(金园·沟二新村北侧)", "image": "", "rank": 39, "time": 2, "location": {"lat": 30.379911062539453, "lng": 113.21192391039764}, "feature": {"sight_features": "", "sight_content": ""}}, {"title": "梦幻歌舞团", "address": "318国道附近", "image": "", "rank": 40, "time": 2, "location": {"lat": 31.023348267795328, "lng": 120.88254137011852}, "feature": {"sight_features": "", "sight_content": ""}}, {"title": "胜利文艺团", "address": "腰河口附近", "image": "", "rank": 41, "time": 2, "location": {"lat": 30.37524290988851, "lng": 113.48969107489316}, "feature": {"sight_features": "", "sight_content": ""}}, {"title": "黄荆社区老年民间艺术团", "address": "何李路79号附近", "image": "", "rank": 42, "time": 2, "location": {"lat": 30.365471664770993, "lng": 113.46872032050857}, "feature": {"sight_features": "", "sight_content": ""}}, {"title": "晶鑫生态农庄", "address": "西流河镇消仙公路特1号", "image": "", "rank": 43, "time": 2, "location": {"lat": 30.320392662488896, "lng": 113.68422235619907}, "feature": {"sight_features": "", "sight_content": ""}}, {"title": "湖北仙桃飞鹭林高尔夫", "address": "湖北省仙桃市五乐台大道1号", "image": "", "rank": 44, "time": 2, "location": {"lat": 30.301746842386095, "lng": 113.26492545586842}, "feature": {"sight_features": "", "sight_content": ""}}, {"title": "仙桃文化步行街", "address": "湖北省仙桃市仙桃文化步行街", "image": "", "rank": 45, "time": 3.5, "location": {"lat": 30.368271921724794, "lng": 113.46159059813357}, "feature": {"sight_features": "", "sight_content": ""}}, {"title": "仙桃女人街", "address": "湖北省仙桃市沔阳大道", "image": "", "rank": 46, "time": 2.0, "location": {"lat": 30.374695995520224, "lng": 113.4637691066733}, "feature": {"sight_features": "", "sight_content": ""}}, {"title": "丝宝文化步行街", "address": "湖北省仙桃市汪洲河路附近", "image": "", "rank": 47, "time": 2, "location": {"lat": 30.36466986824776, "lng": 113.45724948285827}, "feature": {"sight_features": "", "sight_content": ""}}, {"title": "北京伟嘉集团黑金刚示范基地", "address": "仙桃市-仙桃市-徐家台附近", "image": "", "rank": 48, "time": 1.0, "location": {"lat": 30.380328201260262, "lng": 113.12031192749724}, "feature": {"sight_features": "", "sight_content": ""}}, {"title": "封口头村", "address": "仙桃市-仙桃市", "image": "", "rank": 49, "time": 2, "location": {"lat": 30.368271921724794, "lng": 113.46159059813357}, "feature": {"sight_features": "", "sight_content": ""}}, {"title": "孙廖湾", "address": "仙桃市-仙桃市", "image": "", "rank": 50, "time": 2, "location": {"lat": 30.368271921724794, "lng": 113.46159059813357}, "feature": {"sight_features": "", "sight_content": ""}}, {"title": "豪客世家·十全湖度假村", "address": "仙桃市-仙桃市-214省道豪客世家", "image": "", "rank": 51, "time": 2, "location": {"lat": 30.378458430949006, "lng": 113.45659087130922}, "feature": {"sight_features": "", "sight_content": ""}}, {"title": "严文家台", "address": "仙桃市-仙桃市", "image": "", "rank": 52, "time": 2, "location": {"lat": 30.368271921724794, "lng": 113.46159059813357}, "feature": {"sight_features": "", "sight_content": ""}}, {"title": "沔街", "address": "湖北省仙桃市", "image": "", "rank": 53, "time": 2, "location": {"lat": 30.368271921724794, "lng": 113.46159059813357}, "feature": {"sight_features": "", "sight_content": ""}}]}