{"cityName": "咸丰", "days": 2, "cityImage": "", "spots": [{"title": "唐崖土司江山黄金洞", "address": "恩施州咸丰县黄金洞乡", "image": "", "rank": 1, "time": 1.5, "location": {"lat": 29.945412417077772, "lng": 109.08716738914775}, "feature": {"sight_features": "特色1 形成于侏罗纪以前，迄今已有1.5亿年", "sight_content": "唐崖河黄金洞景区位于中国唯一与皇帝帝号同名咸丰县，是原生态土司文化旅游区。\n唐崖河黄金洞景区也是一方福地，古巴人在此诞生、土司在此扎根、神兵在此发源、贺龙元帅在此写下传奇，胡耀邦、胡锦涛两位总书记在此留下足迹！沧海已变桑田，海洋珍禽短嘴金丝燕却仍在此集聚、生息，土苗羌少数民族在此繁衍生息，哭嫁歌、摆手舞、傩戏、茅古斯等等，绘就一幅幅浓墨重彩的风情画卷……\n\n地心大峡谷漂流位于神奇倒流的唐崖河上游，唐崖河是古冰川故道，峡谷峻美，水流湍急，五彩卵石遍布。漂流全程六公里，用时两小时左右，地上四公里激情闯滩，地心两公里梦幻穿越，展现给游客一个风景优美、湍流曲折和洞穴幽深的神秘世界。激情浪漫有惊无险的漂流，让游客领略地心大穿越的神奇魅力。\n\n黄金洞古称黑洞，古时是土司藏宝与屯兵之地，它地处恩施、利川、咸丰交界之地，据中国和比利时洞穴专家联合考证，此洞形成于侏罗纪以前，迄今已有1.5亿年，其罕见的地质奇观，璀璨的人类文明，堪称自然与文化宝库。"}}, {"title": "坪坝营原生态休闲旅游区", "address": "恩施土家族苗族自治州咸丰县坪坝营镇", "image": "", "rank": 2, "time": 4.5, "location": {"lat": 29.51183798285095, "lng": 108.98789854161323}, "feature": {"sight_features": "特色1 万顷林海一奇观，四大绝洞紧相连 特色2 坪坝营坐拥大片的原始森林,号称\"湖北的大兴安岭”。 特色3 走进坪坝营,体验原始生态。天然氧吧万顷林海,满目苍翠。", "sight_content": "去坪坝营的N个理由\n梦幻森林：湖北最大原始森林群落，负氧离子含量70000个/m³\n地质奇观：绝世罕见的穿洞群落景观，一峡穿四洞\n浪漫游步道：中国最美的森林游步道，落英缤纷、禅意浓浓\nV型索道：全亚洲最大的V型索道，感受滑行森林的潇洒\n帐篷树屋：极致浪漫的树上木屋\n土家民俗：土家拦门酒歌、土家地盘子、土家肉连响、送情郎、土家特技飞镰刀\n恩施是世界著名的富硒生态圈，是最适合人类居住地之一，而位于恩施咸丰的坪坝营原生态旅游区便是这仙居之地中仙境之一，被喻为鄂西的“大兴安岭”，负氧离子极为丰富，达70000个/ m³，是绝佳的洗肺养生、休闲度假胜地。\n坪坝营原生态旅游区位于地处世界最奇特最神秘的北纬30°地带，以古、奇、秀、幽、野等景致构成的浓郁原始气息为显著特色，是中西部连接最大的原始森林群落。总面积154平方公里，旅游区内人迹罕至，群山逶迤，浩瀚苍茫。有12万亩原始森林、8万亩原始次生林和6万亩人工林。有树干直径达80厘米以上的千寿杜鹃王和万亩千年古树杜鹃林，有红豆杉、珙桐、鹅掌楸、秤锤树等国家二级以上保护植物和1300多种植物树种；生活着华南虎、金钱豹、锦鸡、香獐、大灵猫等128种珍禽异兽。罕见的穿洞群落、幽深的峡谷急流，别致的飞瀑流泉以及宜人的高山气候、古朴的土苗风情，堪称树的王国、花的海洋、动物的乐园、人间的仙境和天然的原始风情博览园。\n梦幻森林—鸡公山原始森林公园\n乘坐亚洲最长的 “V”型索道—鸡公山索道，俯览广袤“中西部最大原始森林群落”，体验“树尖滑行”的感觉，放眼四周，鸡公山原始森林尽收眼底。如聚的峰峦蜿蜒起伏，林海莽莽。在欣赏原始、生态、梦幻的森林古树奇观的同时，尽情深呼吸，让身体充分接受富氧离子对身体的修复,感受原始、奇妙的大自然，仿佛在“画中行、梦中游”。\n登北纬30°瞭望塔，游览巴人寨，观赏地道的土家歌舞表演，—哭嫁、土家拦门酒歌、土家地盘子、土家肉连响、送情郎等；\n秘境奇观—四洞峡\n四洞峡于1亿4千万年前形成，是一处世界上极为少见的天坑--穿洞群落，也是罕见的地质构造景观，是神秘的北纬30度现象。大自然鬼斧神工，使得2公里的距离之内，一条峡谷从四座大山的山体对穿而过，形成了大小不同，形状各异的四个穿洞。她既有“伊莲洞”神似、神门洞的形似：又有巴神洞的神话、玉莲洞的传说。\n寻春踏青—流花溪\n流花溪--古树杜鹃林位于咸丰坪坝营原生态休闲旅游区的南面，主峰石灰窑海拔1991.5米，为咸丰县的屋脊。景区中2万亩林中杜鹃连片，其中有一胸径90公分的千年古树“杜鹃王”，属全国罕见。云锦杜鹃与似血杜鹃，当地人称“土家杜鹃”，花开春夏，春红，夏白，属国家一极保护植物。在流花溪里伴着微风赏春听泉，令人流连忘返。\n青云阁\n徒步走上青云阁，可浏览坪坝营全景，登高望远，坪坝营生态旅游区全部风光尽收眼底，云雾缭绕，美不胜收。\n景区导览图"}}, {"title": "唐崖土司城", "address": "恩施土家族苗族自治州咸丰县唐崖镇", "image": "", "rank": 3, "time": 2.5, "location": {"lat": 29.671077652357877, "lng": 109.14660773562142}, "feature": {"sight_features": "特色1 2015年7月4日被列入“世界文化遗产名录”！唐崖土司系著名“九溪十八峒”土司之一，咸丰县四大土司之最！ 特色2 1992年被省人民政府列为省级文物保护单位！ 特色3 2006年申报为全国重点文物保护单位！", "sight_content": "唐崖土司城址位于咸丰县唐崖镇唐崖司村，面临唐崖河，背靠玄武山，距县城30公里。唐崖土司系著名“九溪十八峒”土司之一，咸丰县四大土司之最。所辖范围方圆近二百里，城址内随处可见残缺砖瓦，以及残陶、瓷器碎片，文化层最厚处可达1米左右，现城址中还保存着土司时代的重要文物遗迹，如石牌坊、石人石马、土王坟以及城墙、街巷等。1992年被省人民政府列为省级文物保护单位，2006年申报为全国重点文物保护单位。\n一、唐崖土司城址历史沿革：\n唐崖土司，覃姓，世代居宦，沿袭一十八代，历位460余年。元时建制，功授宣慰使司；明洪武四年（1371年）因过降为长官司，永乐二年升授安抚司，并颁授活龙、苍蒲二副司。天启年间，覃鼎奉命征讨，战功卓著，蒙四川右布政使朱燮元提奏，授宣慰使职，朝廷赐皇令二道、牌坊一座，上书“荆南雄镇”、“楚蜀屏翰”八个大字，清康熙十八年又降为长官司，直至雍正十三年改土归流为止。\n唐崖土司城始建于元代初期，明朝达到鼎盛时期，拥有三街十八巷三十六院，建有衙署、宫言堂、大小衙门、存钱库、牢房、阅书院、靶场、箭道、左右营房、万兽园等，还有8大寺院36箍井。现存的遗址东西长770米，南北宽750米，总面积57.75万平方米。整体建筑分政治、宗教、军事、文化、经济、综合、娱乐和墓葬八大组成部份。\n二、唐崖土司城址文物遗存：\n（一）城墙\n唐崖土司城的东面、北面和南面大部分地方修建了城墙（又称外城墙），在其北面和东北面还修建了内城墙。城墙以自然石块稍微加工后垒砌而成，现大多可见，并保存在1米以上。其中，临河一面保存最好，高达2.5米，现存城墙基宽3.2米。在城的东门处，原有的城楼基础墙体远远大于城墙的宽度，现残存宽6米至7米左右，可明显看出是城门楼的基础，现东城墙残长150米。\n（二）街巷\n城址中街巷至今仍清晰可见，传称土司城中三街自城东入，城西出。分为上、中、下三街，呈不规则形状，全长880米。以石牌坊为中心，称中街，街面全部以青石铺砌而成，条石长2米，宽0.3米，横向顺街镶嵌，街面宽阔而整齐。沿大衙门而下，称上街；沿小衙门而上，称下街。36条巷道仍以石块铺砌，随地势连接街道，四通八达，其中在上街和南城墙之间依次平行着“一横道”、“二横道”“三横道”。\n（三）石牌坊\n石牌坊是土司城的屏障，矗立在唐崖土司城中央，前为街道，后为衙院，颇为雄伟壮观，是现今土司城遗址中的精华。牌坊为全石结构，一斗三开亭阁式斗拱建筑，飞檐翘角，三门四柱，通高6.6米，通宽6.7米，柱粗2500厘米。前后均以高2.5米、宽0.7米、厚0.25米鼓石护撑，门前立石狮一对。中门宽2.9米、高5米。侧门宽1.7米，高3.5米。上以整石为枋，凿榫为柱相接。枋间以厚15厘米的薄石镶嵌，其上雕有人物、书画、文字、龙凤。中门枋额下以象鼻装饰，布局别致。临街一面阴刻“荆南雄镇”四个苍劲醒目大字和“钦差总督四川兼湖广荆岳郧襄陕汉中等府军务策授总粮饷巡抚四川等处四方兵部左侍郎兼都察院乃佥郡御使使朱燮元为”等小字。临后衙一面阴刻“楚蜀屏翰”四个苍劲醒目大字和“湖广唐崖司征西蜀升都司佥事兼宣抚司宣抚使覃鼎立天启四年正月吉旦”等小字。大字上下坊与侧门坊客面浮雕神话故事人物图案，计有“土王出巡”、“麒麟奔天”、“哪咤闹海”、“舜耕南山”、“渔樵耕读”、“云龙吞雾”等。据史料记载，此楼牌是明天启三年（公元1623年）赐书给土司覃鼎的皇令，距今已有380多年的历史。整个牌楼的门、柱、坊额和飞檐全系石头结构，从楼基到楼顶收放自然，坚固协调。既体现了中原汉文化的强大影响，又保留了土家族文化的特色，是土家族、汉族人民勤劳智慧的结晶。\n（四）石人石马\n明万历辛亥岁，印官田氏夫人和钦依峒主覃杰为纪念覃氏宗族出征功绩，请当地雕刻大师陈大仙用巨石雕刻了一对石人和两匹石马。现立于城东唐崖河畔的台地上。按《覃氏族谱》记载：当年雕凿石人石马的同时，还修建了张王庙，后又改称桓侯庙。为了有效保护石人石马，1979年省政府拨款新建了罩马亭。据说这是土王的马夫和坐骑，石马为公母二马，作提腿欲行状，前有执辔石人两名，皆武士装束，侍立马旁。石马“傥权奇，势如腾骧”；石人“执辔其旁，如控驭状”，左右并立，栩栩如生。马以整块石凿成，奇伟雄壮。左侧石马高2.38米，背宽0.7米，长2.8米。马身雕饰鞍、蹬、缰、辔，清晰明显。缰上阴刻小字：“万历辛亥岁（公元1611年）季夏月四日良旦，印官田夫人立”，石人高1.9米。着盔甲，佩剑抱伞，侍立马前。右侧石马高2.08米，长2.5米。马缰阴刻小字“万历辛亥岁季夏月四日良旦，峒主覃杰同覃文仲修立”。石人头已毁，残身高1.6米，着盔甲，侍立于旁。两马间距4.8米。马的特点，似为南方马的形体，肥壮而不高大。\n（五）土王墓葬\n城址东北角高坡上，有并列两座明代墓葬，一为土王墓，一为田氏夫人，占地面积400平方米。土王墓封土保存完好，墓葬石室宏大而华丽。椁室以钻凿砂岩垒成。前观为坊木结构的一斗三升式重檐建筑，长7米。屋面雕饰筒瓦，脊雕龙首装饰，檐下斗拱明显，5根廊柱形成4间墓室。廊柱长方形，面宽0.45米，厚0.6米。柱间宽1至1.1米。廊室间距1.85米，高2米。廊顶雕刻圆形藻井饰。再进为4个墓室，前有抹石门8扇。门高1.65米,厚0.1米,宽0.67米左右，门上雕饰格栏。墓室以整块砂石合成，长3米，高1.5米,两中室宽1.3米，侧室宽1.25米。各有石棺床，长2.7米,宽0.9米。后有壁龛，高离椁床0.5米。龛高0.5米，跨0.4米，深0.15米，室间以整块石隔开，厚0.15米左右。中雕小格窗，宽0.58米，高0.9米。窗眼为钱纹图案,可以相望。室顶雕刻藻井,以花为纹饰图案。墓前为八字形祭台，前端各立一小兽，两侧饰以精雕麒麟,高约1米。整个王坟以石建构，十分精工，其建筑格局及装饰实为土司文化的精品之作，很好地代表了这一时期的石雕工艺水平。\n田氏夫人墓在土司墓左侧，封土保存完好。墓前立有石碑和石牌坊。碑宽0.97米，高1.9米，基座高0.45米，有桌几花纹图案。碑面中刻“明显妣诰封武略将军覃太夫人田氏之墓”，前记“孝男印官茵宗记”，后题“皇明崇祯岁庚午季夏吉旦立”。在墓前有一较矮小的素面石牌坊，造型简单，无雕饰花纹。牌坊以石建成，高3.5米，边高2.5米，中门宽2.04米，侧门宽1.4米。牌坊两侧以鼓形石护柱，上以石为坊，凿榫相接。\n再上为武略将军覃鼎墓。覃鼎墓附近，有同时期、同形制、同等级的将军墓5座，多无碑记。司城背后玄武山上丛林中，存有不少不同格局的墓葬群。可以断定，这一带为覃氏的家族墓地。\n（六）文化遗物\n土司城内所见的文化遗物，主要有残瓦、陶器碎片、建筑后的石料残件及毁弃的建筑装饰件等。1986年，当地农民在衙院后发现3颗铜印。其中，一颗为“永宁卫千户所百户印”，长7厘米，厚1.3厘米，柄长5.7厘米，重850克。正面刻“永宁卫千户所百户印”，背面右刻“礼部造洪武五年十一月日”，左刻“永宁卫千户所百户印”，印沿刻“于字二十五号”。永宁卫在今四川叙永县，元置永宁路，故治所在今叙永县西，明改置永宁卫，移今叙永县，与云南交界，距唐崖司十分遥远。该印显系初建永宁卫时所颁。“明系唐崖土司最倔强”，曾多次征蜀，此当为胜利品，另两颗为“唐崖长官司印”，篆刻。一颗背面有文字，右刻“唐崖长官司印”，左刻“周元年（清圣祖康熙十三年）十二月”， 中刻“礼曹造”，印沿刻“于字叁佰四十四号”。印长6. 厘米，厚1.2厘米，柄长8.2厘米，重675克。此印为吴三桂据云南时所颁。另一颗背面无文字，印长7.1厘米，厚1.8厘米，柄长7.5厘米，重1100克。此印应为清廷所颁。按清廷规定，吴三桂所颁旧印应上缴朝廷，但唐崖土司却把它藏下来了。从制造水平看，前印铸造工艺比较粗糙，篆体字笔画粗而偏方，不规划；后印笔画较细，规则匀称，工艺水平也较高。\n此外，文物考古工作者在城址内还发现石火盆一个，以砂石凿长与今天完全相同的火盆状，长宽0.7米，高0.2米；石马槽一个，石兽一尊，花卉、草叶纹石刻等。建筑用的石质材料构件比比皆是，还有以花草为饰的花纹砖，青花钱纹瓷片，钱纹中书“泰昌通宝”。土司城中的瓷器出自“碗厂沟”，那里曾烧制过质量上乘的白瓷器具，并发现了窑址及烧窑用的支垫器具。\n唐崖土司城是一座带有军事战略意义的堡垒式建筑，从背靠陡峭的玄武山，前临奔腾的唐崖河，到随时待命出征的石人、石马。再到镌刻“荆南雄镇、楚蜀屏翰”的石牌坊，以及左右营房、靶场、跑马场和东、北、南三面修建的城墙，从不同侧面传送着唐崖土司英勇善战的土司城重视军事防御的历史信息。三街十八巷三十六院烘托出的繁华景象，显示出土司城社区自给自足的封建农奴制经济。专门为土司子弟学习汉文化而开办的书院，证明唐崖土司学习汉文化的风气比较浓厚；专门为覃氏家族修建的覃氏宗祠，昭示着他们盛行祖先崇拜的宗族观念。在宗教区修建的几大寺庙，昭示着这里曾流行佛教，香火旺盛。传说中的覃氏夫人化解了覃、田两姓土司的恩怨，也显示出唐崖土司的婚姻半径。残存至今的建筑柱基，显露出土司城房屋建筑的“干栏”特色。牌楼上雕刻的“土王出巡”图，传递着土司城特有的礼仪风俗。集中分布的墓葬群和保存至今的碑文，诠释着唐崖土司的丧葬文化。留存至今的民间文学和见诸方志的典礼祭祀，无不承载着古代王城的文化习俗。因此，400多年前的唐崖土司曾是方圆1000多公里地区的政治、军事、经济、文化中心。现今则是全国西南地区规模最大、保存最完整、最具民族特色的文物遗址，具有非常的历史地位和学术研究价值。要研究土家族，不得不研究唐崖土司；要研究西南地区的民族文化不得不研究唐崖土司城遗址。"}}, {"title": "中国地心第一漂", "address": "恩施州咸丰县黄金洞乡", "image": "", "rank": 4, "time": 2, "location": {"lat": 29.945412417077772, "lng": 109.08716738914775}, "feature": {"sight_features": "", "sight_content": ""}}, {"title": "四洞峡", "address": "恩施土家族苗族自治州咸丰县坪坝营国家森林公园内", "image": "", "rank": 5, "time": 3.5, "location": {"lat": 29.40603869486666, "lng": 108.99067860762322}, "feature": {"sight_features": "", "sight_content": ""}}, {"title": "鸡公山原始森林", "address": "恩施土家族苗族自治州咸丰县坪坝营国家森林公园内", "image": "", "rank": 6, "time": 3.5, "location": {"lat": 29.40603869486666, "lng": 108.99067860762322}, "feature": {"sight_features": "", "sight_content": ""}}, {"title": "咸丰县坪坝营镇食家庄农家乐", "address": "坪坝营生态旅游区移民新村还建街168号", "image": "", "rank": 7, "time": 2, "location": {"lat": 29.440808709864253, "lng": 108.9905788058811}, "feature": {"sight_features": "", "sight_content": ""}}, {"title": "大溪洞", "address": "恩施土家族苗族自治州咸丰县坪坝营镇坪坝营旅游区内", "image": "", "rank": 8, "time": 2, "location": {"lat": 29.671077652357877, "lng": 109.14660773562142}, "feature": {"sight_features": "", "sight_content": ""}}, {"title": "幺妹河漂流", "address": "恩施土家族苗族自治州咸丰县坪坝营镇坪坝营旅游区内", "image": "", "rank": 9, "time": 2, "location": {"lat": 29.671077652357877, "lng": 109.14660773562142}, "feature": {"sight_features": "", "sight_content": ""}}, {"title": "苕秧嫂农家乐", "address": "232省道北50米", "image": "", "rank": 10, "time": 2, "location": {"lat": 38.377628120449195, "lng": 114.45027902716741}, "feature": {"sight_features": "", "sight_content": ""}}, {"title": "凉水井生态农庄", "address": "小莫超限检测站前40米", "image": "", "rank": 11, "time": 2, "location": {"lat": 30.64661255761855, "lng": 117.86079941113584}, "feature": {"sight_features": "", "sight_content": ""}}, {"title": "小南海地震遗址", "address": "恩施州咸丰县与重庆节黔江区的交界处", "image": "", "rank": 12, "time": 2, "location": {"lat": 29.671077652357877, "lng": 109.14660773562142}, "feature": {"sight_features": "", "sight_content": ""}}, {"title": "咸丰望城楼", "address": "湖北省恩施土家族苗族自治州咸丰县高乐山镇沿河路红绿灯", "image": "", "rank": 13, "time": 2, "location": {"lat": 29.68357287884319, "lng": 109.15897874545645}, "feature": {"sight_features": "", "sight_content": ""}}, {"title": "烈士公园", "address": "乐山镇前胜街35号", "image": "", "rank": 14, "time": 2.0, "location": {"lat": 29.685063183828635, "lng": 109.15563628090922}, "feature": {"sight_features": "", "sight_content": ""}}, {"title": "喜洋洋游乐园", "address": "高乐山镇南门广场", "image": "", "rank": 15, "time": 2, "location": {"lat": 29.68843809272534, "lng": 109.1604308608044}, "feature": {"sight_features": "", "sight_content": ""}}, {"title": "祥凤龙农家乐", "address": "重庆黔江小南海镇风景区内", "image": "", "rank": 16, "time": 2, "location": {"lat": 29.65997390699256, "lng": 108.70810976985486}, "feature": {"sight_features": "", "sight_content": ""}}, {"title": "百年沐野生山茶油", "address": "大坝路与楚蜀大道交叉口南50米", "image": "", "rank": 17, "time": 2, "location": {"lat": 29.67319794084548, "lng": 109.14892753144758}, "feature": {"sight_features": "", "sight_content": ""}}, {"title": "白地坪农家乐", "address": "高乐山镇白地坪村委会旁", "image": "", "rank": 18, "time": 2, "location": {"lat": 26.98526413843799, "lng": 111.02638908924209}, "feature": {"sight_features": "", "sight_content": ""}}, {"title": "海脚天丫", "address": "皇城广场旁龙泰四巷8号", "image": "", "rank": 19, "time": 2, "location": {"lat": 22.530717502654056, "lng": 114.08215884556041}, "feature": {"sight_features": "", "sight_content": ""}}, {"title": "坪坝营", "address": "湖北省咸丰县南端", "image": "", "rank": 20, "time": 4.5, "location": {"lat": 29.671077652357877, "lng": 109.14660773562142}, "feature": {"sight_features": "", "sight_content": ""}}, {"title": "咸丰县科技馆", "address": "湖北省咸丰县营屏寨路82号", "image": "", "rank": 21, "time": 2, "location": {"lat": 29.679830675945265, "lng": 109.1538016203634}, "feature": {"sight_features": "", "sight_content": ""}}, {"title": "宝丰商城精品服装一条街", "address": "湖北省咸丰县解放路", "image": "", "rank": 22, "time": 2, "location": {"lat": 29.68302338148395, "lng": 109.15435978249185}, "feature": {"sight_features": "", "sight_content": ""}}, {"title": "麻柳溪村", "address": "恩施市土家族苗族自治州咸丰县麻柳溪村", "image": "", "rank": 23, "time": 2, "location": {"lat": 29.972221536717196, "lng": 109.03767612473635}, "feature": {"sight_features": "", "sight_content": ""}}]}