{"cityName": "湘潭县", "days": 2, "cityImage": "", "spots": [{"title": "彭德怀故居与纪念馆", "address": "湘潭市湘潭县乌石镇乌石村彭家围子", "image": "", "rank": 1, "time": 1.0, "location": {"lat": 27.671725995609478, "lng": 112.66835598687521}, "feature": {"sight_features": "", "sight_content": ""}}, {"title": "湘潭农博园", "address": "湘潭市湘潭县泉塘子乡境内320国道附近", "image": "", "rank": 2, "time": 1.5, "location": {"lat": 27.873352930554795, "lng": 112.85848874573108}, "feature": {"sight_features": "", "sight_content": ""}}, {"title": "仙女山", "address": "湘潭县响塘乡尧家村", "image": "", "rank": 3, "time": 1.5, "location": {"lat": 27.92839290658596, "lng": 112.79049591636429}, "feature": {"sight_features": "", "sight_content": ""}}, {"title": "齐白石故居", "address": "湘潭市湘潭县白石铺乡杏子坞", "image": "", "rank": 4, "time": 1.0, "location": {"lat": 27.784982534656113, "lng": 112.95750536884121}, "feature": {"sight_features": "", "sight_content": ""}}, {"title": "隐山湖湘文化源生态旅游区", "address": "湖南省湘潭市湘潭县排头乡黄荆坪", "image": "", "rank": 5, "time": 2, "location": {"lat": 27.622160457556312, "lng": 112.64286488102027}, "feature": {"sight_features": "", "sight_content": ""}}, {"title": "湘潭乐林游乐园", "address": "湘潭市湘潭县易俗河镇梅林村荷叶组", "image": "", "rank": 6, "time": 4.5, "location": {"lat": 27.794036512955945, "lng": 112.97843678552229}, "feature": {"sight_features": "", "sight_content": ""}}, {"title": "鑫田水上乐园", "address": "天易大道1号鑫田国际大酒店内", "image": "", "rank": 7, "time": 2, "location": {"lat": 27.787050598514682, "lng": 112.97086060261641}, "feature": {"sight_features": "", "sight_content": ""}}, {"title": "彭德怀纪念园", "address": "彭德怀纪念馆内", "image": "", "rank": 8, "time": 2, "location": {"lat": 27.664564055561375, "lng": 112.66237045329805}, "feature": {"sight_features": "", "sight_content": ""}}, {"title": "排头乡金星坝生态农场", "address": "杏花一路与杏花二路交叉口北50米", "image": "", "rank": 9, "time": 2, "location": {"lat": 27.786625884441854, "lng": 112.95214086620187}, "feature": {"sight_features": "", "sight_content": ""}}, {"title": "杨梅基地", "address": "谭家山镇仙娥村仙娥组", "image": "", "rank": 10, "time": null, "location": {"lat": 27.630190592359217, "lng": 112.9232856780776}, "feature": {"sight_features": "", "sight_content": ""}}, {"title": "龙飞生态园", "address": "易俗河飞龙桥村", "image": "", "rank": 11, "time": 2, "location": {"lat": 27.782132960423898, "lng": 112.95968196309116}, "feature": {"sight_features": "", "sight_content": ""}}, {"title": "壶山", "address": "湖南省湘潭县湘江与涟水汇合处 411200", "image": "", "rank": 12, "time": 2, "location": {"lat": 27.79785742176723, "lng": 112.93562508282992}, "feature": {"sight_features": "", "sight_content": ""}}, {"title": "青山石器时代遗址", "address": "湖南省湘阴县青潭乡青山岛 414600", "image": "", "rank": 13, "time": 2, "location": {"lat": 28.870427878962328, "lng": 112.8542845816237}, "feature": {"sight_features": "", "sight_content": ""}}, {"title": "石潭桥", "address": "湖南省湘潭县境内 411200", "image": "", "rank": 14, "time": 2, "location": {"lat": 27.784982534656113, "lng": 112.95750536884121}, "feature": {"sight_features": "", "sight_content": ""}}, {"title": "莲花涌泉", "address": "湖南省涟源市湄江风景区观音崖下 417109", "image": "", "rank": 15, "time": null, "location": {"lat": 27.69816753225533, "lng": 111.67056199396235}, "feature": {"sight_features": "", "sight_content": ""}}, {"title": "战国时期军人墓地", "address": "湖南省湘潭县易俗河镇 411228", "image": "", "rank": 16, "time": 2, "location": {"lat": 27.794036512955945, "lng": 112.97843678552229}, "feature": {"sight_features": "", "sight_content": ""}}, {"title": "观鹫园", "address": "金霞山庄山上", "image": "", "rank": 17, "time": 2, "location": {"lat": 32.628580977840336, "lng": 110.81544558959183}, "feature": {"sight_features": "", "sight_content": ""}}, {"title": "淘气堡贝儿童游乐园", "address": "金霞美墅2栋32号", "image": "", "rank": 18, "time": 2, "location": {"lat": 27.79918896043763, "lng": 112.9816880442128}, "feature": {"sight_features": "", "sight_content": ""}}, {"title": "湘潭万里自行车易俗河连锁店", "address": "湖南省湘潭市湘潭县玉兰中路488号", "image": "", "rank": 19, "time": 1.5, "location": {"lat": 27.783914057988515, "lng": 112.95054676109187}, "feature": {"sight_features": "", "sight_content": ""}}, {"title": "雷速卡丁车", "address": "湖南省湘潭市湘潭县金桂路39号", "image": "", "rank": 20, "time": 2, "location": {"lat": 27.78458848054826, "lng": 112.95864774395787}, "feature": {"sight_features": "", "sight_content": ""}}, {"title": "湘潭隐山", "address": "湖南省湘潭县排头乡 411218", "image": "", "rank": 21, "time": 1.5, "location": {"lat": 27.56725017615356, "lng": 112.6871925533111}, "feature": {"sight_features": "", "sight_content": ""}}, {"title": "抗美援朝保家卫国大型史实展览", "address": "湖南省湘潭县彭德怀同志故居附近", "image": "", "rank": 22, "time": 2, "location": {"lat": 27.66626555686592, "lng": 112.65866550361326}, "feature": {"sight_features": "", "sight_content": ""}}, {"title": "乌石风景名胜旅游区", "address": "湖南省湘潭县乌石镇 411209", "image": "", "rank": 23, "time": 2, "location": {"lat": 27.67496391021069, "lng": 112.6670098338486}, "feature": {"sight_features": "", "sight_content": ""}}, {"title": "金色童年儿童乐园", "address": "花石镇大桥路155号", "image": "", "rank": 24, "time": 2, "location": {"lat": 27.515730131935126, "lng": 112.73509660261576}, "feature": {"sight_features": "", "sight_content": ""}}, {"title": "边家祠堂", "address": "湘潭市湘潭县零零六县道", "image": "", "rank": 25, "time": 2, "location": {"lat": 27.784982534656113, "lng": 112.95750536884121}, "feature": {"sight_features": "", "sight_content": ""}}, {"title": "谭家祠堂", "address": "湘潭市湘潭县三一三省道", "image": "", "rank": 26, "time": 2, "location": {"lat": 27.644595141891724, "lng": 112.98783575607007}, "feature": {"sight_features": "", "sight_content": ""}}, {"title": "刘家祠堂", "address": "320国道南100米", "image": "", "rank": 27, "time": 2, "location": {"lat": 27.255762385932325, "lng": 111.28158164529765}, "feature": {"sight_features": "", "sight_content": ""}}, {"title": "韩家祠堂", "address": "湘潭市湘潭县零一八县道", "image": "", "rank": 28, "time": 2, "location": {"lat": 27.63582796211182, "lng": 112.79440248892412}, "feature": {"sight_features": "", "sight_content": ""}}, {"title": "黎氏八兄弟故居", "address": "湖南省湘潭市湘潭县石潭坝", "image": "", "rank": 29, "time": 2, "location": {"lat": 27.53651858864594, "lng": 112.84367930804764}, "feature": {"sight_features": "", "sight_content": ""}}, {"title": "曹家祠堂", "address": "湘潭市湘潭县", "image": "", "rank": 30, "time": 1.5, "location": {"lat": 27.784982534656113, "lng": 112.95750536884121}, "feature": {"sight_features": "", "sight_content": ""}}, {"title": "马家祠堂", "address": "株洲市株洲县", "image": "", "rank": 31, "time": 2, "location": {"lat": 27.53593624049437, "lng": 113.15334777322079}, "feature": {"sight_features": "", "sight_content": ""}}, {"title": "王家祠堂", "address": "湘潭市湘潭县零二二县道", "image": "", "rank": 32, "time": 2, "location": {"lat": 27.784982534656113, "lng": 112.95750536884121}, "feature": {"sight_features": "", "sight_content": ""}}, {"title": "易俗河海天龙水上乐园", "address": "易俗河滨江东路银港国际内", "image": "", "rank": 33, "time": 2, "location": {"lat": 26.42728031561007, "lng": 111.61771947598262}, "feature": {"sight_features": "", "sight_content": ""}}, {"title": "城市之欢儿童乐园", "address": "湖南省湘潭市湘潭县凤凰路88号", "image": "", "rank": 34, "time": 2, "location": {"lat": 27.78812160179194, "lng": 112.95353507677666}, "feature": {"sight_features": "", "sight_content": ""}}, {"title": "张家祠堂", "address": "湘潭市湘潭县零零四县道", "image": "", "rank": 35, "time": 2, "location": {"lat": 27.784982534656113, "lng": 112.95750536884121}, "feature": {"sight_features": "", "sight_content": ""}}, {"title": "智慧儿童乐园", "address": "湖南省湘潭市湘潭县G107(京深线)", "image": "", "rank": 36, "time": 2, "location": {"lat": 27.784982534656113, "lng": 112.95750536884121}, "feature": {"sight_features": "", "sight_content": ""}}, {"title": "寒仙祠", "address": "041乡道附近", "image": "", "rank": 37, "time": 2, "location": {"lat": 43.70072308970692, "lng": 127.54202156510266}, "feature": {"sight_features": "", "sight_content": ""}}, {"title": "遇见你爱上你多肉植物园", "address": "湖南省湘潭市湘潭县湘莲大道旁", "image": "", "rank": 38, "time": 2, "location": {"lat": 27.784982534656113, "lng": 112.95750536884121}, "feature": {"sight_features": "", "sight_content": ""}}, {"title": "周家祠堂", "address": "湘潭市湘潭县零五五乡道", "image": "", "rank": 39, "time": 2, "location": {"lat": 27.784982534656113, "lng": 112.95750536884121}, "feature": {"sight_features": "", "sight_content": ""}}, {"title": "海狗游乐场", "address": "湖南省湘潭县中路铺镇中心小学附近", "image": "", "rank": 40, "time": 2, "location": {"lat": 27.564054673392892, "lng": 112.93582158536356}, "feature": {"sight_features": "", "sight_content": ""}}, {"title": "花漾山谷", "address": "六亩冲附近", "image": "", "rank": 41, "time": 2, "location": {"lat": 30.596968386119457, "lng": 119.42005155695317}, "feature": {"sight_features": "", "sight_content": ""}}, {"title": "肖家祠堂", "address": "湘潭市湘潭县", "image": "", "rank": 42, "time": 2, "location": {"lat": 27.784982534656113, "lng": 112.95750536884121}, "feature": {"sight_features": "", "sight_content": ""}}, {"title": "江南水上乐园", "address": "易俗河镇", "image": "", "rank": 43, "time": 2, "location": {"lat": 27.794036512955945, "lng": 112.97843678552229}, "feature": {"sight_features": "", "sight_content": ""}}, {"title": "平江起义纪念馆", "address": "东兴大道", "image": "", "rank": 44, "time": 1.0, "location": {"lat": 30.987241111093702, "lng": 105.40428365686493}, "feature": {"sight_features": "", "sight_content": ""}}, {"title": "超级靓女", "address": "玉兰北路75-30号附近", "image": "", "rank": 45, "time": 2, "location": {"lat": 28.229710982770268, "lng": 112.91650603165021}, "feature": {"sight_features": "", "sight_content": ""}}, {"title": "梅林山莊项目指挥部", "address": "易俗河云龙东路7号", "image": "", "rank": 46, "time": 2, "location": {"lat": 27.779326857047483, "lng": 112.96964551865179}, "feature": {"sight_features": "", "sight_content": ""}}, {"title": "湘潭梅林山荘项目部", "address": "易俗河云龙东路7号", "image": "", "rank": 47, "time": 1.5, "location": {"lat": 27.779326857047483, "lng": 112.96964551865179}, "feature": {"sight_features": "", "sight_content": ""}}, {"title": "碧泉潭", "address": "湖南省湘潭县锦石乡", "image": "", "rank": 48, "time": 2, "location": {"lat": 27.617441702372314, "lng": 112.72831701188332}, "feature": {"sight_features": "", "sight_content": ""}}, {"title": "晓霞山", "address": "湖南省湘潭县中路铺镇", "image": "", "rank": 49, "time": 2, "location": {"lat": 27.558361501331188, "lng": 112.93510428302423}, "feature": {"sight_features": "", "sight_content": ""}}, {"title": "葛藤冲", "address": "湘潭市-湘潭县-一零七国道", "image": "", "rank": 50, "time": 2, "location": {"lat": 27.470563177089055, "lng": 112.90751763163564}, "feature": {"sight_features": "", "sight_content": ""}}, {"title": "周小舟故居", "address": "湖南省湘潭市湘潭县黄荆坪镇", "image": "", "rank": 51, "time": 2, "location": {"lat": 27.784982534656113, "lng": 112.95750536884121}, "feature": {"sight_features": "", "sight_content": ""}}, {"title": "窑湾老街", "address": "湖南省湘潭县窑湾", "image": "", "rank": 52, "time": null, "location": {"lat": 27.47753231984554, "lng": 112.92084243441337}, "feature": {"sight_features": "", "sight_content": ""}}]}