{"cityName": "仙游", "days": 2, "cityImage": "", "spots": [{"title": "九鲤湖风景区", "address": "莆田市仙游县九鲤湖风景区", "image": "", "rank": 1, "time": 2.5, "location": {"lat": 25.469204307442975, "lng": 118.8213580748881}, "feature": {"sight_features": "特色1 看历史文化名湖，赏九鲤飞瀑天下奇景。 特色2 湖光山色尽收眼底。", "sight_content": "九鲤湖位于风光旖旎的福建省仙游县境内，由九鲤湖、东凤寨、麦斜岩、卓泉岩四大景区组成，规划面积25平方公里，控制面积50.2平方公里，距仙游县城31公里。相传汉武帝时，有何氏九兄弟在此炼丹济世，丹成跨鲤升天，九鲤湖因之得名。\n九鲤湖与武夷山、玉华洞并称为“福建三绝”，以九鲤飞瀑、冰川峡谷、千年祈梦三大奇观著称，尤以飞瀑为最，素有“九鲤飞瀑天下奇”之美誉，明代著名旅行家、地理学家徐霞客游览后赞叹：“即匡庐三迭，雁荡龙湫，各以一长擅胜，未若此山微体皆也！”九鲤湖是历史文化名湖，千百年来为朝野所推崇，历代骚人墨客在此留连盘桓，吟赋词章不计其数，摩崖题刻灿若繁星，其“祈梦”文化，自宋以来极负盛名。"}}, {"title": "菜溪岩", "address": "莆田市仙游县象溪乡境内", "image": "", "rank": 2, "time": 1.0, "location": {"lat": 25.562259449506396, "lng": 118.70656100871997}, "feature": {"sight_features": "特色1 省级风景名胜区，人文氤氲丰富", "sight_content": "菜溪岩风景名胜区名居仙游“四大景”（菜溪岩、麦斜岩、九鲤湖、天马山）之首，位于仙游县城北部40多公里的菜溪乡境内，景区面积35平方公里，2004年被福建省政府列为省级风景名胜区。\n据《兴化县志》记载，唐懿宗咸通八年(公元867年)，凤山九座寺正觉禅师智广和尚在此结庐修炼，讲经布道，以野菜为食，因常有菜叶漂流而下，溪以菜为名，地因溪而称菜溪岩。北宋易学家陈易、西京提举学司蔡枢曾在此隐居参禅修道弘法，创办“菜溪书院”；‍‍‍‍宋代石刻、石塔、石轿古迹犹存，人文氤氲丰富。\n菜溪岩以山青水秀、岩奇崖峻、谷深林幽而著称，集峻峰秀峦、峡谷流泉、悬崖瀑布、摩天石壁、古刹亭榭、老松翠柏等景观120多处，景景皆有典故。景区主要四大山峰环抱交错，峰峦起伏，石壁参差，岩石遍布，象形山岩，千姿百态，盎然成趣，如凉伞峰、绵羊峰、虎啸岩、象鼻岩形态逼真；石狮、石鱼、仙翁观瀑、老猴抱儿石栩栩如生。山间水景多姿 ，泉、涧、潭、瀑20多处，悬崖瀑布高达80米，摇蓝溪流水潺潺，两岸群峰绵延，森林茂密，原始粗犷，野趣横生，百鸟啁啾，景美境优。宋代状元郑侨诗赞：“百景千姿观不尽，八闽胜地菜溪先”。菜溪岩风景区是闽东南地区景点最多、最集中、人文景观和自然景观最完美和谐的景区，是一个天然幽静、风景秀丽的旅游度假避暑胜地。"}}, {"title": "天马山", "address": "莆田市城厢区仙游县榜头镇境内", "image": "", "rank": 3, "time": 2.0, "location": {"lat": 25.437689500394836, "lng": 118.76455472489913}, "feature": {"sight_features": "", "sight_content": ""}}, {"title": "龙华寺", "address": "莆田市仙游县龙华镇灯塔村", "image": "", "rank": 4, "time": 2.0, "location": {"lat": 25.344976182276774, "lng": 118.65559009769336}, "feature": {"sight_features": "", "sight_content": ""}}, {"title": "九座寺", "address": "莆田市仙游县凤山乡凤顶村", "image": "", "rank": 5, "time": 1.5, "location": {"lat": 25.574406796023958, "lng": 118.57111359488505}, "feature": {"sight_features": "", "sight_content": ""}}, {"title": "麦斜岩", "address": "莆田市仙游县钟山镇麦斜村", "image": "", "rank": 6, "time": 2.5, "location": {"lat": 25.543122324295354, "lng": 118.82031446666562}, "feature": {"sight_features": "", "sight_content": ""}}, {"title": "天中万寿塔", "address": "莆田市仙游县枫亭镇塔斗山上", "image": "", "rank": 7, "time": 0.5, "location": {"lat": 25.256786023515488, "lng": 118.8745680007196}, "feature": {"sight_features": "", "sight_content": ""}}, {"title": "中国古典工艺博览城", "address": "莆田市仙游县紫檀南街", "image": "", "rank": 8, "time": 2, "location": {"lat": 25.377671709480126, "lng": 118.72313373298327}, "feature": {"sight_features": "", "sight_content": ""}}, {"title": "仙水洋", "address": "莆田市仙游县西苑乡，与德化县交界的九仙溪上游", "image": "", "rank": 9, "time": 2.0, "location": {"lat": 25.576504716355284, "lng": 118.59147171658307}, "feature": {"sight_features": "", "sight_content": ""}}, {"title": "康源湖温泉山庄", "address": "乌石村东慧云水库", "image": "", "rank": 10, "time": 2, "location": {"lat": 32.59265393122844, "lng": 118.71726734090231}, "feature": {"sight_features": "", "sight_content": ""}}, {"title": "极乐寺", "address": "南丰南街22号", "image": "", "rank": 11, "time": 1.5, "location": {"lat": 27.224733524876402, "lng": 116.53140350859456}, "feature": {"sight_features": "", "sight_content": ""}}, {"title": "好再来农家乐", "address": "九湖线与223县道交叉口东150米", "image": "", "rank": 12, "time": 2, "location": {"lat": 25.4656686934269, "lng": 118.84040915847632}, "feature": {"sight_features": "", "sight_content": ""}}, {"title": "艺家主题馆", "address": "榜头镇南溪村(小学斜对面)", "image": "", "rank": 13, "time": 2, "location": {"lat": 25.445424264415774, "lng": 118.72638722935281}, "feature": {"sight_features": "", "sight_content": ""}}, {"title": "庆辉农家乐", "address": "枫亭镇海安村边防派出所附近", "image": "", "rank": 14, "time": 2, "location": {"lat": 21.619092824409858, "lng": 108.35166574941167}, "feature": {"sight_features": "", "sight_content": ""}}, {"title": "文峰宫戏台", "address": "郑元水之路玉金路路口附近X241", "image": "", "rank": 15, "time": 2, "location": {"lat": 25.365281803215552, "lng": 118.84205323722014}, "feature": {"sight_features": "", "sight_content": ""}}, {"title": "九鲤百香园", "address": "钟山镇卓泉村塔尾", "image": "", "rank": 16, "time": 2, "location": {"lat": 25.487126852514624, "lng": 118.79953502261574}, "feature": {"sight_features": "", "sight_content": ""}}, {"title": "百松生态农庄", "address": "县城象公路17km", "image": "", "rank": 17, "time": 2, "location": {"lat": 23.130918691650503, "lng": 105.5897067883491}, "feature": {"sight_features": "", "sight_content": ""}}, {"title": "莲花公园", "address": "福建省莆田市仙游县S35(福诏高速)", "image": "", "rank": 18, "time": 2, "location": {"lat": 25.36829149810406, "lng": 118.69845425064784}, "feature": {"sight_features": "", "sight_content": ""}}, {"title": "清峰寺", "address": "福建省莆田市仙游县鲤南镇象林村龙邦山旁", "image": "", "rank": 19, "time": 1.0, "location": {"lat": 25.343781908304024, "lng": 118.67647961021903}, "feature": {"sight_features": "", "sight_content": ""}}, {"title": "圣泉宫祖殿", "address": "福建省莆田市仙游县鲤南镇圣泉村", "image": "", "rank": 20, "time": 2, "location": {"lat": 25.34217319433469, "lng": 118.71758892156375}, "feature": {"sight_features": "", "sight_content": ""}}, {"title": "洞源堂(度山寺)", "address": "福建省莆田市仙游县赖店镇S306岭兜", "image": "", "rank": 21, "time": 2, "location": {"lat": 25.30730592212007, "lng": 118.73665770805863}, "feature": {"sight_features": "", "sight_content": ""}}, {"title": "会元庵", "address": "福建省莆田市仙游县郊尾镇沙溪村东", "image": "", "rank": 22, "time": 2, "location": {"lat": 25.287172549609274, "lng": 118.85469149743584}, "feature": {"sight_features": "", "sight_content": ""}}, {"title": "太子府", "address": "北一环与龙泉街交叉口北50米", "image": "", "rank": 23, "time": 2, "location": {"lat": 25.3719901341588, "lng": 118.69038872479862}, "feature": {"sight_features": "", "sight_content": ""}}, {"title": "仙游文庙", "address": "福建省莆田市仙游县师范路1号", "image": "", "rank": 24, "time": 1.0, "location": {"lat": 25.366384530624337, "lng": 118.70502391726404}, "feature": {"sight_features": "", "sight_content": ""}}, {"title": "莆田塔斗山与望海塔", "address": "福建省莆田市莆田塔斗山与望海塔 351256", "image": "", "rank": 25, "time": 3.0, "location": {"lat": 25.256786023515488, "lng": 118.8745680007196}, "feature": {"sight_features": "", "sight_content": ""}}, {"title": "半岭宫", "address": "福建省莆田市仙游县", "image": "", "rank": 26, "time": 2.5, "location": {"lat": 25.36829149810406, "lng": 118.69845425064784}, "feature": {"sight_features": "", "sight_content": ""}}, {"title": "美吉乐儿童乐园", "address": "福建省莆田市仙游县西门兜实验小学附近", "image": "", "rank": 27, "time": 2, "location": {"lat": 25.368654435545736, "lng": 118.70073979318663}, "feature": {"sight_features": "", "sight_content": ""}}, {"title": "明德禅寺", "address": "福建省莆田市仙游县学府东路1703号", "image": "", "rank": 28, "time": 2, "location": {"lat": 25.377131681443647, "lng": 118.7149024041912}, "feature": {"sight_features": "", "sight_content": ""}}, {"title": "上善水族馆", "address": "福建省莆田市仙游县龙仙路686号", "image": "", "rank": 29, "time": 2, "location": {"lat": 25.361938026093135, "lng": 118.69731151620898}, "feature": {"sight_features": "", "sight_content": ""}}, {"title": "奥乐奥儿童乐园", "address": "莆田市仙游县鲤中步行街5号楼", "image": "", "rank": 30, "time": 2, "location": {"lat": 25.36619649949438, "lng": 118.70060081005307}, "feature": {"sight_features": "", "sight_content": ""}}, {"title": "仙安府", "address": "兴泰东路北100米", "image": "", "rank": 31, "time": 2, "location": {"lat": 22.943174433299124, "lng": 113.41051526787928}, "feature": {"sight_features": "", "sight_content": ""}}, {"title": "卓泉岩寺", "address": "莆田市仙游县卓泉岩内", "image": "", "rank": 32, "time": 2, "location": {"lat": 25.478399578286687, "lng": 118.79886145338186}, "feature": {"sight_features": "", "sight_content": ""}}, {"title": "净业寺", "address": "306省道附近", "image": "", "rank": 33, "time": 1.5, "location": {"lat": 44.29269479672118, "lng": 120.43504383645545}, "feature": {"sight_features": "", "sight_content": ""}}, {"title": "正觉寺", "address": "正觉巷39", "image": "", "rank": 34, "time": 0.75, "location": {"lat": 25.369441967457796, "lng": 118.70169192426414}, "feature": {"sight_features": "", "sight_content": ""}}, {"title": "清峰寺", "address": "福建省莆田市仙游县枫亭镇海安村北和路", "image": "", "rank": 35, "time": 1.0, "location": {"lat": 25.27319096648545, "lng": 118.89876381830081}, "feature": {"sight_features": "", "sight_content": ""}}, {"title": "朝天宫", "address": "福建省莆田市仙游县东大路32号", "image": "", "rank": 36, "time": 1.0, "location": {"lat": 25.363740768307387, "lng": 118.70976077294544}, "feature": {"sight_features": "", "sight_content": ""}}, {"title": "锦邱宫", "address": "度尾镇南街度尾中心小学", "image": "", "rank": 37, "time": 2, "location": {"lat": 25.410991140363695, "lng": 118.58757118782272}, "feature": {"sight_features": "", "sight_content": ""}}, {"title": "怀念亭", "address": "钟山镇九鲤湖村(近九龙谷)九鲤湖内", "image": "", "rank": 38, "time": 2, "location": {"lat": 25.442968176111524, "lng": 118.844364487466}, "feature": {"sight_features": "", "sight_content": ""}}, {"title": "来洋水上乐园", "address": "福建省莆田市仙游县鲤城镇来洋社区林下基地兴园路1号", "image": "", "rank": 39, "time": 2, "location": {"lat": 25.385703451593695, "lng": 118.67698361799982}, "feature": {"sight_features": "", "sight_content": ""}}, {"title": "兰溪景观带", "address": "仙游大桥旁", "image": "", "rank": 40, "time": 3.0, "location": {"lat": 25.359889086610746, "lng": 118.70197687665318}, "feature": {"sight_features": "", "sight_content": ""}}, {"title": "兰溪公园手拉盐鸡", "address": "福建省莆田市仙游县园滨西路93-2", "image": "", "rank": 41, "time": 3.0, "location": {"lat": 25.360524773420345, "lng": 118.7003617125671}, "feature": {"sight_features": "", "sight_content": ""}}, {"title": "仑尾宫", "address": "莆田市仙游县", "image": "", "rank": 42, "time": 2, "location": {"lat": 25.36829149810406, "lng": 118.69845425064784}, "feature": {"sight_features": "", "sight_content": ""}}, {"title": "仙游县基督教堂", "address": "福建省莆田市仙游县会园路", "image": "", "rank": 43, "time": 2, "location": {"lat": 25.3615919892843, "lng": 118.69645314127752}, "feature": {"sight_features": "", "sight_content": ""}}, {"title": "仙游吴氏宗祠", "address": "福建省莆田市仙游县S306(城南西路)", "image": "", "rank": 44, "time": 2.5, "location": {"lat": 25.35747937049316, "lng": 118.68776365242127}, "feature": {"sight_features": "", "sight_content": ""}}, {"title": "显圣宫", "address": "花园路23", "image": "", "rank": 45, "time": 2, "location": {"lat": 34.127120020751434, "lng": 118.80791420457464}, "feature": {"sight_features": "", "sight_content": ""}}, {"title": "仙游县榜头镇坝下基督教堂", "address": "福建省莆田市仙游县X241", "image": "", "rank": 46, "time": 2, "location": {"lat": 25.36829149810406, "lng": 118.69845425064784}, "feature": {"sight_features": "", "sight_content": ""}}, {"title": "陈氏宗祠", "address": "福建省莆田市仙游县鲤南镇玉塔村南埔", "image": "", "rank": 47, "time": 2, "location": {"lat": 25.36382236823636, "lng": 118.73312580615061}, "feature": {"sight_features": "", "sight_content": ""}}, {"title": "郊尾镇西山村岳帝庙", "address": "福建省莆田市仙游县S306", "image": "", "rank": 48, "time": 2, "location": {"lat": 25.36829149810406, "lng": 118.69845425064784}, "feature": {"sight_features": "", "sight_content": ""}}, {"title": "下亭教堂", "address": "福建省莆田市仙游县X231(九鲤北街)", "image": "", "rank": 49, "time": 2, "location": {"lat": 25.44152824308812, "lng": 118.76701241331597}, "feature": {"sight_features": "", "sight_content": ""}}, {"title": "仙游县郊尾镇星期六儿童乐园", "address": "郊尾镇竹林港88号", "image": "", "rank": 50, "time": 2, "location": {"lat": 29.04341451827708, "lng": 115.84831591936434}, "feature": {"sight_features": "", "sight_content": ""}}, {"title": "城南教堂", "address": "胜利路与至喜亭街交叉口北50米", "image": "", "rank": 51, "time": 2, "location": {"lat": 25.363992141432956, "lng": 118.69730403152748}, "feature": {"sight_features": "", "sight_content": ""}}, {"title": "第108团遗址", "address": "钟山镇麦斜村麦斜岩内", "image": "", "rank": 52, "time": 2, "location": {"lat": 25.5412969601879, "lng": 118.82818918433983}, "feature": {"sight_features": "", "sight_content": ""}}, {"title": "鲤声剧场", "address": "师范路45", "image": "", "rank": 53, "time": 2, "location": {"lat": 25.366357394956303, "lng": 118.70548545226202}, "feature": {"sight_features": "", "sight_content": ""}}, {"title": "赤射真人cs", "address": "福建省莆田市仙游县华侨大酒店西边150米", "image": "", "rank": 54, "time": 2, "location": {"lat": 25.36829149810406, "lng": 118.69845425064784}, "feature": {"sight_features": "", "sight_content": ""}}, {"title": "枫硕葡萄主题公园", "address": "仙游县枫亭镇蔡襄中学东北100米", "image": "", "rank": 55, "time": 2, "location": {"lat": 25.26817720482607, "lng": 118.84260012561442}, "feature": {"sight_features": "", "sight_content": ""}}, {"title": "木兰社区义务消防队", "address": "木兰路361号", "image": "", "rank": 56, "time": 2, "location": {"lat": 25.365959582929854, "lng": 118.68813784966606}, "feature": {"sight_features": "", "sight_content": ""}}, {"title": "开心哈乐儿童亲子乐园", "address": "度尾广场中国农业银行对面直走50米食家庄往里走", "image": "", "rank": 57, "time": 2, "location": {"lat": 37.617315163939935, "lng": 114.6180159472642}, "feature": {"sight_features": "", "sight_content": ""}}, {"title": "黄羲博物馆", "address": "莆田市仙游县鲤南镇九隆城509-510室", "image": "", "rank": 58, "time": 2, "location": {"lat": 25.347321625164184, "lng": 118.7045417490868}, "feature": {"sight_features": "", "sight_content": ""}}, {"title": "南山宫", "address": "枫亭镇南山宫", "image": "", "rank": 59, "time": 2, "location": {"lat": 25.29635904076638, "lng": 118.89005958196302}, "feature": {"sight_features": "", "sight_content": ""}}, {"title": "东桥城隍庙", "address": "东桥小学附近", "image": "", "rank": 60, "time": 2, "location": {"lat": 25.42059681809113, "lng": 118.76579478265523}, "feature": {"sight_features": "", "sight_content": ""}}]}