{"cityName": "象州", "days": 2, "cityImage": "", "spots": [{"title": "象州古象温泉度假村", "address": "来宾市象州县城郊花池村", "image": "", "rank": 1, "time": 2, "location": {"lat": 23.982216372781263, "lng": 109.763347348568}, "feature": {"sight_features": "", "sight_content": ""}}, {"title": "象州温泉", "address": "来宾市象州县象桐路2号(近温泉大酒店)", "image": "", "rank": 2, "time": null, "location": {"lat": 23.982143015212312, "lng": 109.7673152834789}, "feature": {"sight_features": "", "sight_content": ""}}, {"title": "象州凉泉", "address": "来宾市象州县象州镇塘森村委闷头屯", "image": "", "rank": 3, "time": 2, "location": {"lat": 24.002577747163148, "lng": 109.66289266320135}, "feature": {"sight_features": "", "sight_content": ""}}, {"title": "温泉源头景观区", "address": "热水村源头宾馆内", "image": "", "rank": 4, "time": 2, "location": {"lat": 34.90093482149768, "lng": 112.62231369811502}, "feature": {"sight_features": "", "sight_content": ""}}, {"title": "古海底迷宫", "address": "614县道", "image": "", "rank": 5, "time": 2, "location": {"lat": 23.907560888128454, "lng": 109.68128438515562}, "feature": {"sight_features": "", "sight_content": ""}}, {"title": "象州温泉疗养区", "address": "广西壮族自治区象州县寺村镇热水村 545804", "image": "", "rank": 6, "time": 2, "location": {"lat": 23.977699350978416, "lng": 109.82136484199572}, "feature": {"sight_features": "", "sight_content": ""}}, {"title": "郑小谷故居", "address": "来宾市象州县", "image": "", "rank": 7, "time": 2, "location": {"lat": 23.979680993270705, "lng": 109.71146215027841}, "feature": {"sight_features": "", "sight_content": ""}}, {"title": "象州县博物馆", "address": "平安大道277", "image": "", "rank": 8, "time": 2, "location": {"lat": 22.677300032436133, "lng": 114.1476910858819}, "feature": {"sight_features": "", "sight_content": ""}}, {"title": "天主堂", "address": "广西壮族自治区来宾市象州县刘家巷54号", "image": "", "rank": 9, "time": 0.4, "location": {"lat": 23.963349980675826, "lng": 109.68854197502944}, "feature": {"sight_features": "", "sight_content": ""}}, {"title": "基督教堂", "address": "209国道西100米", "image": "", "rank": 10, "time": 2.0, "location": {"lat": 29.50537463467816, "lng": 109.4244796806256}, "feature": {"sight_features": "", "sight_content": ""}}, {"title": "烈士陵园", "address": "象州镇温泉大道", "image": "", "rank": 11, "time": 2, "location": {"lat": 23.968298090537846, "lng": 109.6954985328456}, "feature": {"sight_features": "", "sight_content": ""}}, {"title": "名胜乐园", "address": "307省道附近", "image": "", "rank": 12, "time": 2, "location": {"lat": 40.264498296993764, "lng": 116.57268632168496}, "feature": {"sight_features": "", "sight_content": ""}}, {"title": "仁河山庄", "address": "仁义幼儿园附近", "image": "", "rank": 13, "time": 2, "location": {"lat": 22.514911349486663, "lng": 113.02859628053793}, "feature": {"sight_features": "", "sight_content": ""}}, {"title": "古榕农庄", "address": "中平小学附近", "image": "", "rank": 14, "time": 2, "location": {"lat": 24.386492716985313, "lng": 109.92780403507464}, "feature": {"sight_features": "", "sight_content": ""}}, {"title": "广场儿童乐园", "address": "温泉大道(近步行街)", "image": "", "rank": 15, "time": 2, "location": {"lat": 39.551639262963434, "lng": 117.3679369767102}, "feature": {"sight_features": "", "sight_content": ""}}, {"title": "象州七胜悦水上乐园", "address": "象州温泉大道218号(象州汽车站斜对面万达超市旁)", "image": "", "rank": 16, "time": 2, "location": {"lat": 23.971419518244904, "lng": 109.70050785267286}, "feature": {"sight_features": "", "sight_content": ""}}, {"title": "三门江茶花岭林场", "address": "609县道附近", "image": "", "rank": 17, "time": 2, "location": {"lat": 25.03263094426074, "lng": 116.97124263191078}, "feature": {"sight_features": "", "sight_content": ""}}, {"title": "东方画廊", "address": "象州镇建南路", "image": "", "rank": 18, "time": 2, "location": {"lat": 23.970373580124757, "lng": 109.69917522183907}, "feature": {"sight_features": "", "sight_content": ""}}, {"title": "象州县鼎立植保合作社", "address": "033乡道东150米", "image": "", "rank": 19, "time": 2, "location": {"lat": 35.37720857982394, "lng": 113.08436330673442}, "feature": {"sight_features": "", "sight_content": ""}}, {"title": "象州商业步行街", "address": "广西壮族自治区象州县温泉大道", "image": "", "rank": 20, "time": 2, "location": {"lat": 23.968298090537846, "lng": 109.6954985328456}, "feature": {"sight_features": "", "sight_content": ""}}]}