{"cityName": "湘乡", "days": 2, "cityImage": "", "spots": [{"title": "东山书院", "address": "湘潭市湘乡市书院路1号", "image": "", "rank": 1, "time": 1.0, "location": {"lat": 27.739013809863295, "lng": 112.55377004226456}, "feature": {"sight_features": "", "sight_content": ""}}, {"title": "陈赓故居", "address": "湘潭市湘乡市泉湖村杨吉湾", "image": "", "rank": 2, "time": 2, "location": {"lat": 27.989853612500216, "lng": 112.42337873739768}, "feature": {"sight_features": "", "sight_content": ""}}, {"title": "水府庙", "address": "湘潭市湘乡市", "image": "", "rank": 3, "time": 7.5, "location": {"lat": 27.740190553343652, "lng": 112.54149155340549}, "feature": {"sight_features": "", "sight_content": ""}}, {"title": "茅浒水乡", "address": "湘潭市湘乡市东郊乡东山电站旁", "image": "", "rank": 4, "time": 2, "location": {"lat": 27.7677916658903, "lng": 112.58240724937048}, "feature": {"sight_features": "", "sight_content": ""}}, {"title": "云门寺", "address": "湘潭市湘乡市东风路与桑梅中路交叉口东南150米", "image": "", "rank": 5, "time": 2.5, "location": {"lat": 27.74305949395174, "lng": 112.53931621408833}, "feature": {"sight_features": "", "sight_content": ""}}, {"title": "东台山国家森林公园", "address": "湘潭市湘乡市", "image": "", "rank": 6, "time": 2, "location": {"lat": 27.740190553343652, "lng": 112.54149155340549}, "feature": {"sight_features": "", "sight_content": ""}}, {"title": "S Time真人密室逃脱（湘乡店）", "address": "湘潭市湘乡市七一广场七一大厦负一楼", "image": "", "rank": 7, "time": 2, "location": {"lat": 27.7387253458085, "lng": 112.53608387910168}, "feature": {"sight_features": "", "sight_content": ""}}, {"title": "挑战者游乐园", "address": "东山街道办双泉村委", "image": "", "rank": 8, "time": 2, "location": {"lat": 27.727543924811858, "lng": 112.54386900876742}, "feature": {"sight_features": "", "sight_content": ""}}, {"title": "黄公略同志故居", "address": "湘潭市湘乡市中沙镇桂花分朝阳村高木冲", "image": "", "rank": 9, "time": 2, "location": {"lat": 27.4950301923364, "lng": 112.36955090134168}, "feature": {"sight_features": "", "sight_content": ""}}, {"title": "撒野湾景区", "address": "湖南省湘乡市棋梓镇水府示范区", "image": "", "rank": 10, "time": 2, "location": {"lat": 27.72984575446414, "lng": 112.23394276627819}, "feature": {"sight_features": "", "sight_content": ""}}, {"title": "湘潭曾国藩生平研究馆", "address": "滨河北路38附近", "image": "", "rank": 11, "time": 1.5, "location": {"lat": 36.15675267069891, "lng": 112.26121313757015}, "feature": {"sight_features": "", "sight_content": ""}}, {"title": "东山小学", "address": "湖南省湘潭市湘乡市", "image": "", "rank": 12, "time": 1.5, "location": {"lat": 27.740190553343652, "lng": 112.54149155340549}, "feature": {"sight_features": "", "sight_content": ""}}, {"title": "白托动漫水世界", "address": "湘乡铝厂对直往白托村岔路口处湘铝医院向前1000米", "image": "", "rank": 13, "time": 2, "location": {"lat": 27.738491600291137, "lng": 112.51377273612387}, "feature": {"sight_features": "", "sight_content": ""}}, {"title": "春梅疏菜基地", "address": "泉塘镇上湖村", "image": "", "rank": 14, "time": 2, "location": {"lat": 27.677947529161028, "lng": 112.452510074517}, "feature": {"sight_features": "", "sight_content": ""}}, {"title": "农家垂钓", "address": "311省道附近", "image": "", "rank": 15, "time": 2, "location": {"lat": 40.42605053578163, "lng": 117.19514906888342}, "feature": {"sight_features": "", "sight_content": ""}}, {"title": "万福桥", "address": "湖南省湘乡市湘乡市西南部 411400", "image": "", "rank": 16, "time": 2, "location": {"lat": 27.740190553343652, "lng": 112.54149155340549}, "feature": {"sight_features": "", "sight_content": ""}}, {"title": "水府水利风景区", "address": "湖南省邵阳市双清区境内 422000", "image": "", "rank": 17, "time": 2, "location": {"lat": 27.239108783296654, "lng": 111.50344150643294}, "feature": {"sight_features": "", "sight_content": ""}}, {"title": "岱子山新石器遗址", "address": "湖南省湘乡市龙石河畔 411400", "image": "", "rank": 18, "time": 2, "location": {"lat": 27.740190553343652, "lng": 112.54149155340549}, "feature": {"sight_features": "", "sight_content": ""}}, {"title": "宋窑遗址博物馆", "address": "湖南省湘乡市市城西南 411400", "image": "", "rank": 19, "time": 2, "location": {"lat": 27.740190553343652, "lng": 112.54149155340549}, "feature": {"sight_features": "", "sight_content": ""}}, {"title": "刘烈士祠", "address": "湖南省湘潭县正街 411100", "image": "", "rank": 20, "time": 0.4, "location": {"lat": 27.765801700154043, "lng": 112.72246207036792}, "feature": {"sight_features": "", "sight_content": ""}}, {"title": "湘郷剧院", "address": "新湘路中国联通旁", "image": "", "rank": 21, "time": 2, "location": {"lat": 27.875540447128916, "lng": 113.19336572827726}, "feature": {"sight_features": "", "sight_content": ""}}, {"title": "淘气堡儿童游乐园", "address": "湖南省湘潭市湘乡市X036(宁韶公路)", "image": "", "rank": 22, "time": 2, "location": {"lat": 27.740190553343652, "lng": 112.54149155340549}, "feature": {"sight_features": "", "sight_content": ""}}, {"title": "陈家祠堂", "address": "湘潭市湘乡市", "image": "", "rank": 23, "time": 1.5, "location": {"lat": 27.740190553343652, "lng": 112.54149155340549}, "feature": {"sight_features": "", "sight_content": ""}}, {"title": "贺家祠堂", "address": "湘潭市湘乡市二零九省道", "image": "", "rank": 24, "time": 2, "location": {"lat": 27.740190553343652, "lng": 112.54149155340549}, "feature": {"sight_features": "", "sight_content": ""}}, {"title": "新祠堂", "address": "湘潭市湘乡市零四五县道", "image": "", "rank": 25, "time": 1.5, "location": {"lat": 27.740190553343652, "lng": 112.54149155340549}, "feature": {"sight_features": "", "sight_content": ""}}, {"title": "农夫宝生态园", "address": "金石镇金石水库", "image": "", "rank": 26, "time": 2, "location": {"lat": 28.004801371548382, "lng": 112.47782308771141}, "feature": {"sight_features": "", "sight_content": ""}}, {"title": "周家祠堂", "address": "湘潭市湘乡市零五八县道", "image": "", "rank": 27, "time": 2, "location": {"lat": 27.740190553343652, "lng": 112.54149155340549}, "feature": {"sight_features": "", "sight_content": ""}}, {"title": "刘家祠堂", "address": "湘潭市湘乡市零二五县道", "image": "", "rank": 28, "time": null, "location": {"lat": 27.740190553343652, "lng": 112.54149155340549}, "feature": {"sight_features": "", "sight_content": ""}}, {"title": "陈家祠堂", "address": "湖南省湘潭市湘乡市", "image": "", "rank": 29, "time": 1.5, "location": {"lat": 27.740190553343652, "lng": 112.54149155340549}, "feature": {"sight_features": "", "sight_content": ""}}, {"title": "李卓然故居", "address": "湖南省湘潭市湘乡市葆元村", "image": "", "rank": 30, "time": 2, "location": {"lat": 27.705375672988787, "lng": 112.39425946362307}, "feature": {"sight_features": "", "sight_content": ""}}, {"title": "快乐酷堡儿童乐园", "address": "东风广场东风广场嘉亨茂商业购物中心3楼（即万隆中央广场）", "image": "", "rank": 31, "time": 2, "location": {"lat": 27.74016432590007, "lng": 112.53798671205264}, "feature": {"sight_features": "", "sight_content": ""}}, {"title": "北门教堂主日学", "address": "湖南省湘潭市湘乡市北正街47号", "image": "", "rank": 32, "time": 2, "location": {"lat": 27.74153089983528, "lng": 112.53552348109083}, "feature": {"sight_features": "", "sight_content": ""}}, {"title": "康佳乐儿童亲子游乐场", "address": "云门步行街1号附近", "image": "", "rank": 33, "time": 2, "location": {"lat": 27.74754934490402, "lng": 112.53436574494994}, "feature": {"sight_features": "", "sight_content": ""}}, {"title": "傅家祠堂", "address": "湘潭市湘乡市零一三乡道", "image": "", "rank": 34, "time": 2, "location": {"lat": 27.740190553343652, "lng": 112.54149155340549}, "feature": {"sight_features": "", "sight_content": ""}}, {"title": "铭铭游乐园", "address": "047县道与311省道交叉口西北150米", "image": "", "rank": 35, "time": 2, "location": {"lat": 39.754319199493544, "lng": 118.4675874287618}, "feature": {"sight_features": "", "sight_content": ""}}, {"title": "湘乡站-站前广场", "address": "东风路102号附近", "image": "", "rank": 36, "time": 2, "location": {"lat": 35.61778188717353, "lng": 111.36911349575023}, "feature": {"sight_features": "", "sight_content": ""}}, {"title": "七一广场", "address": "湘潭市湘乡市新湘路17号", "image": "", "rank": 37, "time": 1.5, "location": {"lat": 27.73874982662746, "lng": 112.53591339576256}, "feature": {"sight_features": "", "sight_content": ""}}, {"title": "金凤凰休闲广场", "address": "湖南省湘潭市湘乡市X04(零四县道)", "image": "", "rank": 38, "time": 2, "location": {"lat": 27.740190553343652, "lng": 112.54149155340549}, "feature": {"sight_features": "", "sight_content": ""}}, {"title": "文正湖渡假村", "address": "娄底市双峰县蛇形山镇泉塘村", "image": "", "rank": 39, "time": 2, "location": {"lat": 27.646179211415006, "lng": 112.11278071150593}, "feature": {"sight_features": "", "sight_content": ""}}, {"title": "大将广场", "address": "036县道附近", "image": "", "rank": 40, "time": 2, "location": {"lat": 45.86033063587241, "lng": 128.87654583799372}, "feature": {"sight_features": "", "sight_content": ""}}, {"title": "千水山庄", "address": "肖家坳附近", "image": "", "rank": 41, "time": 2, "location": {"lat": 28.601551305724165, "lng": 114.41729431551701}, "feature": {"sight_features": "", "sight_content": ""}}, {"title": "和源休闲度假村", "address": "湘潭湘乡市东山街道办事处张江旅游区", "image": "", "rank": 42, "time": 2, "location": {"lat": 27.727543924811858, "lng": 112.54386900876742}, "feature": {"sight_features": "", "sight_content": ""}}, {"title": "蒋琬广场", "address": "湘乡大道西50米", "image": "", "rank": 43, "time": 2, "location": {"lat": 27.760772268189207, "lng": 112.51820677571287}, "feature": {"sight_features": "", "sight_content": ""}}, {"title": "湘乡剧院演艺大舞台", "address": "新湘东路(近健康路)", "image": "", "rank": 44, "time": 2, "location": {"lat": 27.739479496481067, "lng": 112.53744848691669}, "feature": {"sight_features": "", "sight_content": ""}}, {"title": "湘乡博物馆", "address": "新港西街与桑梅中路交叉口", "image": "", "rank": 45, "time": 2.5, "location": {"lat": 27.741663992878447, "lng": 112.53023126689247}, "feature": {"sight_features": "", "sight_content": ""}}, {"title": "档案托管中心", "address": "桑梅西路", "image": "", "rank": 46, "time": 2, "location": {"lat": 27.7403279486977, "lng": 112.52551913437532}, "feature": {"sight_features": "", "sight_content": ""}}, {"title": "喜洋洋儿童游乐园", "address": "梅康路", "image": "", "rank": 47, "time": 2, "location": {"lat": 22.576497616945183, "lng": 114.06793961615617}, "feature": {"sight_features": "", "sight_content": ""}}, {"title": "cos动感乐园", "address": "都尚百货3楼", "image": "", "rank": 48, "time": 2, "location": {"lat": 39.916760729325155, "lng": 116.30831057157093}, "feature": {"sight_features": "", "sight_content": ""}}, {"title": "七彩金童儿童游乐园", "address": "励志城邦大门左侧三楼", "image": "", "rank": 49, "time": 2, "location": {"lat": 27.731662705246197, "lng": 112.5495490897255}, "feature": {"sight_features": "", "sight_content": ""}}, {"title": "大石塘农家乐", "address": "030县道应山塘西侧", "image": "", "rank": 50, "time": 2, "location": {"lat": 27.721853413447842, "lng": 112.53980633226934}, "feature": {"sight_features": "", "sight_content": ""}}, {"title": "快乐时光儿童乐园", "address": "东山路46附近", "image": "", "rank": 51, "time": 2, "location": {"lat": 27.058461216069862, "lng": 106.98750822082091}, "feature": {"sight_features": "", "sight_content": ""}}, {"title": "华伦鳄鱼(长丰专卖店)", "address": "东郊乡长丰村2组附近", "image": "", "rank": 52, "time": 2, "location": {"lat": 29.873807809373577, "lng": 121.58569457575331}, "feature": {"sight_features": "", "sight_content": ""}}, {"title": "湘乡市少儿艺术团", "address": "东风路23号附近", "image": "", "rank": 53, "time": 2, "location": {"lat": 45.303421463142136, "lng": 130.98410686520853}, "feature": {"sight_features": "", "sight_content": ""}}, {"title": "湘乡市花鼓戏剧团", "address": "北正街", "image": "", "rank": 54, "time": 2, "location": {"lat": 30.520273059216958, "lng": 117.0457609452182}, "feature": {"sight_features": "", "sight_content": ""}}, {"title": "壶天花鼓剧团", "address": "209省道附近", "image": "", "rank": 55, "time": 2, "location": {"lat": 39.99809006691208, "lng": 116.08348027993928}, "feature": {"sight_features": "", "sight_content": ""}}, {"title": "伏虎古井", "address": "湖南省湘乡市城北正街", "image": "", "rank": 56, "time": 2, "location": {"lat": 27.740190553343652, "lng": 112.54149155340549}, "feature": {"sight_features": "", "sight_content": ""}}, {"title": "黄公略铜像", "address": "湖南省湘乡市市区东侧", "image": "", "rank": 57, "time": 2, "location": {"lat": 27.740190553343652, "lng": 112.54149155340549}, "feature": {"sight_features": "", "sight_content": ""}}, {"title": "褒忠山", "address": "湖南省湘乡市陶月山区境内", "image": "", "rank": 58, "time": 2, "location": {"lat": 27.740190553343652, "lng": 112.54149155340549}, "feature": {"sight_features": "", "sight_content": ""}}, {"title": "石鱼山", "address": "湖南省湘乡市湖山乡", "image": "", "rank": 59, "time": 2, "location": {"lat": 27.740190553343652, "lng": 112.54149155340549}, "feature": {"sight_features": "", "sight_content": ""}}, {"title": "黄土山", "address": "湖南省湘乡市市区西面", "image": "", "rank": 60, "time": 2, "location": {"lat": 27.740190553343652, "lng": 112.54149155340549}, "feature": {"sight_features": "", "sight_content": ""}}]}