{"cityName": "乡城", "days": 2, "cityImage": "", "spots": [{"title": "尼丁峡谷", "address": "甘孜藏族自治州乡城县", "image": "", "rank": 1, "time": 1.5, "location": {"lat": 28.936733475223633, "lng": 99.80505957092221}, "feature": {"sight_features": "", "sight_content": ""}}, {"title": "然乌温泉", "address": "甘孜藏族自治州乡城县", "image": "", "rank": 2, "time": 2, "location": {"lat": 28.936733475223633, "lng": 99.80505957092221}, "feature": {"sight_features": "", "sight_content": ""}}, {"title": "乡城县图书馆", "address": "香巴拉休闲广场旁边", "image": "", "rank": 3, "time": 2, "location": {"lat": 29.66038933491059, "lng": 104.07162806376085}, "feature": {"sight_features": "", "sight_content": ""}}, {"title": "芳极地农家乐", "address": "217省道附近", "image": "", "rank": 4, "time": 2, "location": {"lat": 39.08362397662689, "lng": 117.74948306857745}, "feature": {"sight_features": "", "sight_content": ""}}, {"title": "绿福园农家乐", "address": "墨学街15号", "image": "", "rank": 5, "time": 2, "location": {"lat": 28.933434836398536, "lng": 99.80815431604717}, "feature": {"sight_features": "", "sight_content": ""}}, {"title": "巴姆七湖景区", "address": "四川省乡城县县城以东巴姆山", "image": "", "rank": 6, "time": 2, "location": {"lat": 28.936733475223633, "lng": 99.80505957092221}, "feature": {"sight_features": "", "sight_content": ""}}, {"title": "马熊沟", "address": "四川省甘孜藏族自治州乡城县217省道", "image": "", "rank": 7, "time": 2, "location": {"lat": 28.72961629421045, "lng": 99.85452314686287}, "feature": {"sight_features": "", "sight_content": ""}}, {"title": "然乌乡", "address": "甘孜", "image": "", "rank": 8, "time": 2, "location": {"lat": 30.05527884351838, "lng": 101.96854674579022}, "feature": {"sight_features": "", "sight_content": ""}}]}