{"cityName": "孝昌", "days": 2, "cityImage": "", "spots": [{"title": "双峰山国家森林公园", "address": "孝感市孝昌县丰山镇和周巷镇之间", "image": "", "rank": 1, "time": 4.5, "location": {"lat": 31.119291980725002, "lng": 114.1553701135151}, "feature": {"sight_features": "", "sight_content": "双峰山森林公园位于大别山南麓、湖北省东北部的孝感市区东北部，距孝感市区31公里。双峰山森林公园风景秀美，古有“仙源”之称，现以鄂东北景点最多、面积最大的国家森林公园之名而享誉中原，也是以武汉为中心200公里范围内唯一一处国家级森林公园。双峰山景点有54处之多，尤以唐代农民起义领袖黄巢屯兵打过仗、可称湖北第一寨的白云古寨，有清代乾隆帝南巡路过亲笔赐的“天下第一泉”，还有距武汉市最近的天然溶洞——青龙洞三处景点最为有名。白云寨古战场南临白云湖，为湖北第一大古寨。白云寨雄踞在海拔485米、690，7米和559米的三个山头上，分内、外寨，外寨墙高1---6米左右，场面宏大，气势恢宏，相传为南北朝梁国(公元502-557年)邵陵王萧纶所建。\n双峰山主峰由两座海拔888米对峙山峰组成，故名双峰山，是孝感市第一峰。国家AAAA级景区，传说双峰山由七仙女仙化而成。四周有21座海拔500米以上的山峰簇拥，登临主峰凭高眺望，眼底千里丘陵、沃野，脚下“河流如束带，田舍若棋盘”，“峻岭横屏晓雾开”，“千壑谷静响杜鹃”。周围有峡谷探幽、双峰托日、书院听琴、回龙晨钟、凉亭看花、林海听涛、古寨烽烟、白云晓月、万兽朝圣、农家社火、达海洞天、沧海泛舟12个景区。"}}, {"title": "观音湖生态文化旅游度假区", "address": "孝感市孝昌县小悟乡境内", "image": "", "rank": 2, "time": 3.5, "location": {"lat": 31.343266180004793, "lng": 114.14508227145869}, "feature": {"sight_features": "", "sight_content": ""}}, {"title": "西域风情园", "address": "孝感市孝昌县丰山镇二公村", "image": "", "rank": 3, "time": 2, "location": {"lat": 31.145161649035504, "lng": 114.16387574259225}, "feature": {"sight_features": "", "sight_content": ""}}, {"title": "孝昌县图书馆", "address": "孟宗大道", "image": "", "rank": 4, "time": 2, "location": {"lat": 31.250794502576873, "lng": 114.0251117407528}, "feature": {"sight_features": "", "sight_content": ""}}, {"title": "刘震将军纪念馆", "address": "孝感市孝昌县小悟乡刘家咀", "image": "", "rank": 5, "time": 2, "location": {"lat": 31.303455572165845, "lng": 114.16097397055762}, "feature": {"sight_features": "", "sight_content": ""}}, {"title": "花园广场", "address": "湖北省孝感市孝昌县孝昌县政府对面", "image": "", "rank": 6, "time": 2, "location": {"lat": 31.264598510736064, "lng": 114.00397905152886}, "feature": {"sight_features": "", "sight_content": ""}}, {"title": "黄老大生态园", "address": "花园联络线周巷段三星村", "image": "", "rank": 7, "time": 2, "location": {"lat": 31.236978064881676, "lng": 114.03976483106204}, "feature": {"sight_features": "", "sight_content": ""}}, {"title": "年丰度假山庄", "address": "年丰村(共大南一公里)", "image": "", "rank": 8, "time": 2, "location": {"lat": 42.76963707544845, "lng": 125.38069630994211}, "feature": {"sight_features": "", "sight_content": ""}}, {"title": "金上海水上乐园", "address": "孟宗大道特888号金上海国际广场内(孝昌县新汽车站正对面)", "image": "", "rank": 9, "time": 2, "location": {"lat": 31.253698019232154, "lng": 114.01931916050228}, "feature": {"sight_features": "", "sight_content": ""}}, {"title": "动漫水世界(金上海店)", "address": "金上海国际广场内(孝昌县新汽车站)", "image": "", "rank": 10, "time": 2.5, "location": {"lat": 31.253698019232154, "lng": 114.01931916050228}, "feature": {"sight_features": "", "sight_content": ""}}, {"title": "隆泉谷", "address": "孝感市孝昌县双峰大道19号", "image": "", "rank": 11, "time": 2, "location": {"lat": 31.264540493061723, "lng": 114.00440859068135}, "feature": {"sight_features": "", "sight_content": ""}}, {"title": "孝廉文化展示", "address": "孝感市孝昌县双峰大道68号双峰山国家森林公园孟宗孝廉文化园内", "image": "", "rank": 12, "time": 2, "location": {"lat": 31.188043577233508, "lng": 114.21907047716056}, "feature": {"sight_features": "", "sight_content": ""}}, {"title": "电力度假村", "address": "小悟乡", "image": "", "rank": 13, "time": 2, "location": {"lat": 31.313204694091002, "lng": 114.11270178306289}, "feature": {"sight_features": "", "sight_content": ""}}, {"title": "卓洲度假山庄", "address": "环湖南路附近", "image": "", "rank": 14, "time": 2, "location": {"lat": 45.63547657735917, "lng": 126.31133190817012}, "feature": {"sight_features": "", "sight_content": ""}}, {"title": "孝昌县博物馆", "address": "北京路592号", "image": "", "rank": 15, "time": null, "location": {"lat": 31.2629414873048, "lng": 113.99271444955245}, "feature": {"sight_features": "", "sight_content": ""}}, {"title": "召唤师峡谷", "address": "二中附近", "image": "", "rank": 16, "time": 2, "location": {"lat": 40.14021037444128, "lng": 116.6369898570566}, "feature": {"sight_features": "", "sight_content": ""}}, {"title": "大唐生态观光园", "address": "丰山镇发展大道88号", "image": "", "rank": 17, "time": 2, "location": {"lat": 31.115963526605967, "lng": 114.1741632459875}, "feature": {"sight_features": "", "sight_content": ""}}, {"title": "男人海洋", "address": "花园镇中心广场", "image": "", "rank": 18, "time": 2, "location": {"lat": 29.822368775724037, "lng": 114.42500245770566}, "feature": {"sight_features": "", "sight_content": ""}}, {"title": "跑马场俱乐部", "address": "花园镇龙井村", "image": "", "rank": 19, "time": 2, "location": {"lat": 31.300100463582925, "lng": 114.01751265734205}, "feature": {"sight_features": "", "sight_content": ""}}, {"title": "孝昌文豪山庄", "address": "华阳大道晏家河橡胶坝旁", "image": "", "rank": 20, "time": 4.5, "location": {"lat": 31.875593297788804, "lng": 115.75186239907949}, "feature": {"sight_features": "", "sight_content": ""}}, {"title": "吴家巷子", "address": "孝感市-孝昌县", "image": "", "rank": 21, "time": 2, "location": {"lat": 31.264540493061723, "lng": 114.00440859068135}, "feature": {"sight_features": "", "sight_content": ""}}]}