{"cityName": "萧县", "days": 2, "cityImage": "", "spots": [{"title": "圣泉寺", "address": "宿州市萧县龙城镇西北1.5公里处的陡山口北坡", "image": "", "rank": 1, "time": 2.0, "location": {"lat": 34.175672487372715, "lng": 116.79578679939604}, "feature": {"sight_features": "", "sight_content": ""}}, {"title": "灵璧奇石熊猫", "address": "城东南30公里(近皇藏峪)", "image": "", "rank": 2, "time": 2.5, "location": {"lat": 36.38811248053272, "lng": 101.8095690383313}, "feature": {"sight_features": "", "sight_content": ""}}, {"title": "皖北甘蔗良种繁育示范基地", "address": "016县道", "image": "", "rank": 3, "time": 2, "location": {"lat": 44.498645148434456, "lng": 126.31562919134316}, "feature": {"sight_features": "", "sight_content": ""}}, {"title": "藏宝斋画廊", "address": "黄口镇红旗路83邮政储蓄银行东隔壁", "image": "", "rank": 4, "time": 2, "location": {"lat": 38.929170312583565, "lng": 121.5551856226308}, "feature": {"sight_features": "", "sight_content": ""}}, {"title": "陈沟跃进庄园", "address": "龙城镇陈沟村丁山", "image": "", "rank": 5, "time": 2, "location": {"lat": 34.197837896833256, "lng": 116.9288036114641}, "feature": {"sight_features": "", "sight_content": ""}}, {"title": "花甲寺古遗址", "address": "安徽省萧县花甲寺村南 235280", "image": "", "rank": 6, "time": 2, "location": {"lat": 34.123595784645694, "lng": 117.06468939663601}, "feature": {"sight_features": "", "sight_content": ""}}, {"title": "瑞云寺", "address": "宿州市萧县城东南30公里处皇藏峪国家森林公园内", "image": "", "rank": 7, "time": 2, "location": {"lat": 34.05552826156894, "lng": 117.07224893035009}, "feature": {"sight_features": "", "sight_content": ""}}, {"title": "龙河景观带", "address": "安徽省宿州市萧县世纪大道", "image": "", "rank": 8, "time": 2, "location": {"lat": 34.19426934431854, "lng": 116.95358492572029}, "feature": {"sight_features": "", "sight_content": ""}}, {"title": "乐悠游儿童乐园", "address": "安徽省宿州市萧县龙城镇龙霄路龙霄公园南", "image": "", "rank": 9, "time": 2, "location": {"lat": 34.17839935452351, "lng": 116.95114059959711}, "feature": {"sight_features": "", "sight_content": ""}}, {"title": "爱之翼儿童乐园", "address": "安徽省宿州市萧县酒店乡政府东150米", "image": "", "rank": 10, "time": 2, "location": {"lat": 34.291002144374076, "lng": 116.65723861365875}, "feature": {"sight_features": "", "sight_content": ""}}, {"title": "井泉山庄", "address": "202省道附近", "image": "", "rank": 11, "time": 2, "location": {"lat": 37.77792504283699, "lng": 114.12616671611477}, "feature": {"sight_features": "", "sight_content": ""}}, {"title": "淮海战役总前委旧址", "address": "安徽省萧县丁里镇蔡洼村 235143", "image": "", "rank": 12, "time": 2, "location": {"lat": 34.116865475646094, "lng": 116.95132899492359}, "feature": {"sight_features": "", "sight_content": ""}}, {"title": "萧县车牛返千佛禅寺", "address": "车牛返", "image": "", "rank": 13, "time": 1.5, "location": {"lat": 34.13613254620592, "lng": 116.8570366529832}, "feature": {"sight_features": "", "sight_content": ""}}, {"title": "虎山公园", "address": "安徽省宿州市萧县淮海西路", "image": "", "rank": 14, "time": 2, "location": {"lat": 34.18930866769324, "lng": 116.94133430229408}, "feature": {"sight_features": "", "sight_content": ""}}, {"title": "萧宿铜灵边区革命烈士陵园", "address": "宿州市萧县Z003附近", "image": "", "rank": 15, "time": 2, "location": {"lat": 34.19426934431854, "lng": 116.95358492572029}, "feature": {"sight_features": "", "sight_content": ""}}, {"title": "天主堂", "address": "安徽省宿州市萧县y016", "image": "", "rank": 16, "time": 0.4, "location": {"lat": 34.19426934431854, "lng": 116.95358492572029}, "feature": {"sight_features": "", "sight_content": ""}}, {"title": "财神殿", "address": "宿州市萧县城东南30公里处皇藏峪国家森林公园瑞云寺内", "image": "", "rank": 17, "time": 2, "location": {"lat": 34.05552826156894, "lng": 117.07224893035009}, "feature": {"sight_features": "", "sight_content": ""}}, {"title": "公园路与巴黎商街交叉口", "address": "萧县", "image": "", "rank": 18, "time": 2, "location": {"lat": 34.19426934431854, "lng": 116.95358492572029}, "feature": {"sight_features": "", "sight_content": ""}}, {"title": "开心一乐儿童主题乐园", "address": "宿州市萧县", "image": "", "rank": 19, "time": 2, "location": {"lat": 34.19426934431854, "lng": 116.95358492572029}, "feature": {"sight_features": "", "sight_content": ""}}, {"title": "儿童游乐场", "address": "龙城镇健康路南头往西教育路北", "image": "", "rank": 20, "time": 2, "location": {"lat": 34.16994158868965, "lng": 116.95267896574907}, "feature": {"sight_features": "", "sight_content": ""}}, {"title": "张庄寨基督教会", "address": "029县道附近", "image": "", "rank": 21, "time": 2, "location": {"lat": 40.207818949945654, "lng": 116.90935883020866}, "feature": {"sight_features": "", "sight_content": ""}}, {"title": "九九4度假村", "address": "088乡道附近", "image": "", "rank": 22, "time": 2, "location": {"lat": 45.8538992940418, "lng": 123.24095920752069}, "feature": {"sight_features": "", "sight_content": ""}}, {"title": "皇藏峪秀峰休闲度假村", "address": "Z003附近", "image": "", "rank": 23, "time": 2, "location": {"lat": 23.100931760317003, "lng": 113.27528273950196}, "feature": {"sight_features": "", "sight_content": ""}}, {"title": "三圣阁(道教馆)", "address": "015县道附近", "image": "", "rank": 24, "time": 2, "location": {"lat": 40.019133469133095, "lng": 116.15155036809394}, "feature": {"sight_features": "", "sight_content": ""}}, {"title": "卧虎山庄度假村", "address": "301省道附近", "image": "", "rank": 25, "time": 2, "location": {"lat": 38.13474737719127, "lng": 114.42863974573754}, "feature": {"sight_features": "", "sight_content": ""}}, {"title": "龙湖公园", "address": "龙城镇淮海路", "image": "", "rank": 26, "time": 1.5, "location": {"lat": 34.1919563261568, "lng": 116.95269039309346}, "feature": {"sight_features": "", "sight_content": ""}}, {"title": "陈展真烈士纪念碑", "address": "020县道附近", "image": "", "rank": 27, "time": 2, "location": {"lat": 31.238861031662534, "lng": 118.51347169293973}, "feature": {"sight_features": "", "sight_content": ""}}, {"title": "萧县黄河故道湿地公园", "address": "安徽省宿州市萧县", "image": "", "rank": 28, "time": 1.5, "location": {"lat": 34.19426934431854, "lng": 116.95358492572029}, "feature": {"sight_features": "", "sight_content": ""}}, {"title": "天门寺", "address": "宿州市萧县白土镇戴村天门寺", "image": "", "rank": 29, "time": 2, "location": {"lat": 34.06910623475803, "lng": 117.07474833338068}, "feature": {"sight_features": "", "sight_content": "天门寺，又称钻天峪、小黄山。位于安徽天门寺，又称钻天峪、小黄山。位于安徽萧县白土镇戴村，始建于公元425年，南朝宋开国皇帝刘裕之子刘义隆在天门山兴建寺院，因一山中劈，双峰壁立，过此步步登高，如上天门，故名此山为天门山。天门寺因山得名。\n\n\n天门寺占地1.68平方千米，主要以寺庙为核心，多种景点环绕。寺周围有孔子晒书台、砚墨池、飞来佛、蚂虾泉等景点。有殿堂20余间，供有缅甸玉佛6尊及各种佛象40余尊。\n2000年，国家文物保护委员会授予天门寺院所在地为“中国历史文化遗产保护区”。2008年10月，被评为国家AAAA级风景区。2015年，国家宗教局认证天门寺为中国佛教活动场所。"}}, {"title": "萧龙士艺术陈列馆", "address": "广电信息中心旁边", "image": "", "rank": 30, "time": 2, "location": {"lat": 26.591399475292675, "lng": 104.85209376685154}, "feature": {"sight_features": "", "sight_content": ""}}, {"title": "萧县书画院", "address": "淮海路8号", "image": "", "rank": 31, "time": 1.0, "location": {"lat": 31.23164714135705, "lng": 121.48627331287409}, "feature": {"sight_features": "", "sight_content": ""}}, {"title": "妇联巾帼书画苑", "address": "中山北路", "image": "", "rank": 32, "time": 2, "location": {"lat": 23.004333847652227, "lng": 113.9949492006287}, "feature": {"sight_features": "", "sight_content": ""}}, {"title": "黄金水岸水上乐园", "address": "交通路与中山路交汇处停车场内(金街对面)", "image": "", "rank": 33, "time": null, "location": {"lat": 34.1854765001865, "lng": 116.9550788931224}, "feature": {"sight_features": "", "sight_content": ""}}, {"title": "鳄鱼漆(萧县店)", "address": "龙城镇健康路南关小学南50米", "image": "", "rank": 34, "time": 2, "location": {"lat": 34.18495667807961, "lng": 116.94959328991551}, "feature": {"sight_features": "", "sight_content": ""}}, {"title": "博雅画廊", "address": "006乡道", "image": "", "rank": 35, "time": 2, "location": {"lat": 42.011747549379294, "lng": 118.25427947194045}, "feature": {"sight_features": "", "sight_content": ""}}, {"title": "博雅画廊", "address": "310国道南100米", "image": "", "rank": 36, "time": 2, "location": {"lat": 34.34052748755224, "lng": 117.25163434058804}, "feature": {"sight_features": "", "sight_content": ""}}, {"title": "海洋童装批发", "address": "010乡道北50米", "image": "", "rank": 37, "time": 2, "location": {"lat": 41.20783012676974, "lng": 118.51884433602535}, "feature": {"sight_features": "", "sight_content": ""}}, {"title": "草莓家族", "address": "龙城镇萧县步行街B12", "image": "", "rank": 38, "time": 2, "location": {"lat": 34.175672487372715, "lng": 116.93053262589274}, "feature": {"sight_features": "", "sight_content": ""}}, {"title": "墨林轩画廊(中山北路)", "address": "龙城镇民冶街中段", "image": "", "rank": 39, "time": 2, "location": {"lat": 42.559020429363436, "lng": 129.02134773723782}, "feature": {"sight_features": "", "sight_content": ""}}, {"title": "梅村画廊", "address": "龙城镇萧县博物馆西侧", "image": "", "rank": 40, "time": 2, "location": {"lat": 34.192603144377706, "lng": 116.95017632702202}, "feature": {"sight_features": "", "sight_content": ""}}, {"title": "安徽省萧县图书馆(总馆)", "address": "淮海西路18号附近", "image": "", "rank": 41, "time": 2, "location": {"lat": 34.269493619853165, "lng": 117.1902071264593}, "feature": {"sight_features": "", "sight_content": ""}}, {"title": "人民剧场", "address": "中山北路与富贵街交叉口西100米", "image": "", "rank": 42, "time": 2, "location": {"lat": 34.19160555578427, "lng": 116.95218547982054}, "feature": {"sight_features": "", "sight_content": ""}}, {"title": "黄河故道园艺场", "address": "刘套镇", "image": "", "rank": 43, "time": 2, "location": {"lat": 34.35165328021189, "lng": 116.95211231373507}, "feature": {"sight_features": "", "sight_content": ""}}, {"title": "诚鑫艺术团", "address": "交通西路", "image": "", "rank": 44, "time": 2, "location": {"lat": 31.261363449226117, "lng": 121.45439978588777}, "feature": {"sight_features": "", "sight_content": ""}}]}