{"cityName": "小金", "days": 2, "cityImage": "", "spots": [{"title": "四姑娘山", "address": "阿坝藏族羌族自治州小金县日隆乡境内", "image": "", "rank": 1, "time": 7.5, "location": {"lat": 31.001203254052943, "lng": 102.84138875573143}, "feature": {"sight_features": "特色1 景致奇特、风光绚丽、生态原始、别具情韵。 特色2 雄峻奇异的山峰，鬼斧神工的地貌，丰富独特的景观。 特色3 是集登山、滑雪、游览、摄影、绘画、科考于一体的综合性景区。", "sight_content": "四姑娘山风景区位于阿坝藏族羌族自治州小金县日隆乡境内，面积2000余平方公里，由四姑娘山、巴郎山和双桥沟、长坪沟、海子沟等几部分组成，距成都220公里。\n四姑娘山以雄峻挺拔闻名，山体陡峭，直指蓝天，冰雪覆盖，银光照人。山麓森林茂密，绿草如茵，清澈的溪流潺潺不绝，宛如一派秀美的南欧风光，人称“东方的阿尔卑斯”。每当春夏之交，这里绿草如茵，繁花似锦，是良好的夏季牧场。景区内自然生态保护良好，植被茂盛，生物种类繁多。有金丝猴、牛羚、雪豹、小熊猫、毛冠鹿、藏马鸡、盘羊、黑熊等国家一、二类保护动物30余种，有“雉类和画眉的乐园”之美称。\n四姑娘山的地表主要为中生代和古生代的砂岩、板岩、大理石、石灰岩与结晶灰岩组成。这些岩石大多耐风化剥蚀，山峰尖削陡峭，直插云天。其周围还有20多座被冰雪覆盖着的四至五千米高的山峰。\n1994年被列为国家级风景名胜区，1996年被列为国家级自然保护区。是一处风光绚丽、生态原始、别具情韵的风景区，也是集登山、滑雪、游览、摄影、绘画、科考于一体的综合性景区。"}}, {"title": "玛嘉沟景区", "address": "阿坝藏族羌族自治州小金县", "image": "", "rank": 2, "time": 7.5, "location": {"lat": 31.002208697061754, "lng": 102.369426359284}, "feature": {"sight_features": "", "sight_content": ""}}, {"title": "布达拉峰", "address": "阿坝藏族羌族自治州小金县日隆镇四姑娘山景区双桥沟内", "image": "", "rank": 3, "time": 0.6, "location": {"lat": 31.036023386589264, "lng": 102.83302570570481}, "feature": {"sight_features": "", "sight_content": ""}}, {"title": "枯树滩", "address": "阿坝藏族羌族自治州小金县日隆镇四姑娘山景区长坪沟内", "image": "", "rank": 4, "time": 0.4, "location": {"lat": 31.036023386589264, "lng": 102.83302570570481}, "feature": {"sight_features": "", "sight_content": ""}}, {"title": "锅庄坪", "address": "阿坝藏族羌族自治州小金县，距离海子沟大约3千米的距离", "image": "", "rank": 5, "time": 1.5, "location": {"lat": 31.065415760391012, "lng": 102.95685123815078}, "feature": {"sight_features": "", "sight_content": ""}}, {"title": "喇嘛寺", "address": "阿坝藏族羌族自治州小金县日隆镇四姑娘山景区长坪沟内", "image": "", "rank": 6, "time": 1.0, "location": {"lat": 31.036023386589264, "lng": 102.83302570570481}, "feature": {"sight_features": "", "sight_content": ""}}, {"title": "上下干海子", "address": "阿坝藏族羌族自治州小金县日隆镇四姑娘山景区长坪沟内", "image": "", "rank": 7, "time": 1.5, "location": {"lat": 31.036023386589264, "lng": 102.83302570570481}, "feature": {"sight_features": "", "sight_content": ""}}, {"title": "大海子", "address": "阿坝藏族羌族自治州小金县日隆镇四姑娘山景区海子沟内", "image": "", "rank": 8, "time": 0.5, "location": {"lat": 31.036023386589264, "lng": 102.83302570570481}, "feature": {"sight_features": "", "sight_content": ""}}, {"title": "红衫林", "address": "阿坝藏族羌族自治州小金县日隆镇四姑娘山景区双桥沟内", "image": "", "rank": 9, "time": 0.6, "location": {"lat": 31.036023386589264, "lng": 102.83302570570481}, "feature": {"sight_features": "", "sight_content": ""}}, {"title": "虹桥沟", "address": "阿坝藏族羌族自治州小金县", "image": "", "rank": 10, "time": 7.5, "location": {"lat": 31.002208697061754, "lng": 102.369426359284}, "feature": {"sight_features": "", "sight_content": ""}}, {"title": "小金县", "address": "四川省阿坝藏族羌族自治州小金县", "image": "", "rank": 11, "time": 7.5, "location": {"lat": 31.002208697061754, "lng": 102.369426359284}, "feature": {"sight_features": "", "sight_content": ""}}, {"title": "阿妣山", "address": "阿坝藏族羌族自治州小金县日隆镇四姑娘山景区双桥沟内", "image": "", "rank": 12, "time": 0.5, "location": {"lat": 31.036023386589264, "lng": 102.83302570570481}, "feature": {"sight_features": "", "sight_content": ""}}, {"title": "玉兔峰", "address": "阿坝藏族羌族自治州小金县日隆镇四姑娘山景区双桥沟内", "image": "", "rank": 13, "time": 0.4, "location": {"lat": 31.036023386589264, "lng": 102.83302570570481}, "feature": {"sight_features": "", "sight_content": ""}}, {"title": "沙棘林", "address": "阿坝藏族羌族自治州小金县日隆镇四姑娘山景区长坪沟内", "image": "", "rank": 14, "time": 0.4, "location": {"lat": 31.036023386589264, "lng": 102.83302570570481}, "feature": {"sight_features": "", "sight_content": ""}}, {"title": "朝山坪", "address": "阿坝藏族羌族自治州小金县日隆镇四姑娘山景区海子沟内", "image": "", "rank": 15, "time": 0.6, "location": {"lat": 31.036023386589264, "lng": 102.83302570570481}, "feature": {"sight_features": "", "sight_content": ""}}, {"title": "撵鱼坝", "address": "阿坝藏族羌族自治州小金县日隆镇四姑娘山景区双桥沟内", "image": "", "rank": 16, "time": 0.75, "location": {"lat": 31.036023386589264, "lng": 102.83302570570481}, "feature": {"sight_features": "", "sight_content": ""}}, {"title": "唐柏古道", "address": "阿坝藏族羌族自治州小金县日隆镇四姑娘山长坪沟景区内", "image": "", "rank": 17, "time": null, "location": {"lat": 31.004817630637785, "lng": 102.85259909017367}, "feature": {"sight_features": "", "sight_content": ""}}, {"title": "红石阵", "address": "阿坝藏族羌族自治州小金县日隆镇四姑娘山景区长坪沟内", "image": "", "rank": 18, "time": 0.4, "location": {"lat": 31.036023386589264, "lng": 102.83302570570481}, "feature": {"sight_features": "", "sight_content": ""}}, {"title": "老牛院子", "address": "阿坝藏族羌族自治州小金县日隆镇四姑娘山景区海子沟内", "image": "", "rank": 19, "time": 0.6, "location": {"lat": 31.036023386589264, "lng": 102.83302570570481}, "feature": {"sight_features": "", "sight_content": ""}}, {"title": "打尖包", "address": "阿坝藏族羌族自治州小金县日隆镇四姑娘山景区海子沟内", "image": "", "rank": 20, "time": 0.25, "location": {"lat": 31.036023386589264, "lng": 102.83302570570481}, "feature": {"sight_features": "", "sight_content": ""}}, {"title": "巴朗山垭口", "address": "四川省阿坝藏族羌族自治州小金县", "image": "", "rank": 21, "time": null, "location": {"lat": 31.002208697061754, "lng": 102.369426359284}, "feature": {"sight_features": "", "sight_content": ""}}, {"title": "人参果坪", "address": "阿坝藏族羌族自治州小金县日隆镇四姑娘山景区双桥沟内", "image": "", "rank": 22, "time": 0.6, "location": {"lat": 31.036023386589264, "lng": 102.83302570570481}, "feature": {"sight_features": "", "sight_content": ""}}, {"title": "双峰山", "address": "阿坝藏族羌族自治州小金县日隆镇四姑娘山景区双桥沟内", "image": "", "rank": 23, "time": 2.0, "location": {"lat": 31.036023386589264, "lng": 102.83302570570481}, "feature": {"sight_features": "", "sight_content": ""}}, {"title": "花海子", "address": "阿坝藏族羌族自治州小金县日隆镇四姑娘山景区海子沟内", "image": "", "rank": 24, "time": 0.4, "location": {"lat": 31.036023386589264, "lng": 102.83302570570481}, "feature": {"sight_features": "", "sight_content": ""}}, {"title": "阴阳谷", "address": "阿坝藏族羌族自治州小金县日隆镇四姑娘山景区双桥沟内", "image": "", "rank": 25, "time": 0.6, "location": {"lat": 31.036023386589264, "lng": 102.83302570570481}, "feature": {"sight_features": "", "sight_content": ""}}, {"title": "十里白杨林", "address": "阿坝藏族羌族自治州小金县日隆镇四姑娘山景区双桥沟内", "image": "", "rank": 26, "time": 0.4, "location": {"lat": 31.036023386589264, "lng": 102.83302570570481}, "feature": {"sight_features": "", "sight_content": ""}}, {"title": "夫妻海", "address": "阿坝藏族羌族自治州小金县日隆镇四姑娘山景区海子沟内", "image": "", "rank": 27, "time": 1.0, "location": {"lat": 31.036023386589264, "lng": 102.83302570570481}, "feature": {"sight_features": "", "sight_content": ""}}, {"title": "金枪岩", "address": "阿坝藏族羌族自治州小金县日隆镇四姑娘山景区双桥沟内", "image": "", "rank": 28, "time": 0.6, "location": {"lat": 31.036023386589264, "lng": 102.83302570570481}, "feature": {"sight_features": "", "sight_content": ""}}, {"title": "达维会师纪念碑", "address": "四川省小金县城东部夹金山北麓达维", "image": "", "rank": 29, "time": 2, "location": {"lat": 31.002208697061754, "lng": 102.369426359284}, "feature": {"sight_features": "", "sight_content": ""}}, {"title": "四姑娜措", "address": "四川省小金县与汶川县交界处四姑娘山风景区双桥沟内", "image": "", "rank": 30, "time": 1.5, "location": {"lat": 31.116770378745734, "lng": 102.9094714021971}, "feature": {"sight_features": "", "sight_content": ""}}, {"title": "四姑娘山二峰", "address": "阿坝藏族羌族自治州小金县日隆镇", "image": "", "rank": 31, "time": 1.0, "location": {"lat": 31.00127372286333, "lng": 102.84570558801218}, "feature": {"sight_features": "", "sight_content": ""}}, {"title": "长坪村", "address": "四川阿坝四姑娘山长坪村", "image": "", "rank": 32, "time": 2, "location": {"lat": 30.939581601794032, "lng": 103.42959209896672}, "feature": {"sight_features": "", "sight_content": ""}}, {"title": "木骡子", "address": "四川省阿坝州小金县日隆镇四姑娘山北面山脚", "image": "", "rank": 33, "time": null, "location": {"lat": 31.116770378745734, "lng": 102.9094714021971}, "feature": {"sight_features": "", "sight_content": ""}}, {"title": "卧龙镇", "address": "四川省阿坝藏族羌族自治州汶川县", "image": "", "rank": 34, "time": 2, "location": {"lat": 31.48300532046848, "lng": 103.5965178842219}, "feature": {"sight_features": "", "sight_content": ""}}, {"title": "宝兴县", "address": "四川省雅安市宝兴县", "image": "", "rank": 35, "time": 2, "location": {"lat": 30.37408211244484, "lng": 102.82148423429224}, "feature": {"sight_features": "", "sight_content": ""}}, {"title": "玛曲县", "address": "甘肃省甘南藏族自治州碌曲县", "image": "", "rank": 36, "time": 2, "location": {"lat": 34.59708727156553, "lng": 102.49442413370862}, "feature": {"sight_features": "", "sight_content": ""}}, {"title": "樟木寨", "address": "四川省小金县与汶川县交界处四姑娘山风景区长坪沟内", "image": "", "rank": 37, "time": 2, "location": {"lat": 31.1861536316603, "lng": 102.85620187647234}, "feature": {"sight_features": "", "sight_content": ""}}, {"title": "木尔寨沟", "address": "阿坝藏族羌族自治州小金县达维乡", "image": "", "rank": 38, "time": 7.5, "location": {"lat": 30.968961425531194, "lng": 102.644822105479}, "feature": {"sight_features": "", "sight_content": ""}}, {"title": "鹰嘴岩", "address": "阿坝藏族羌族自治州小金县日隆镇四姑娘山景区双桥沟内", "image": "", "rank": 39, "time": 1.0, "location": {"lat": 31.036023386589264, "lng": 102.83302570570481}, "feature": {"sight_features": "", "sight_content": ""}}, {"title": "犀牛望月", "address": "阿坝藏族羌族自治州小金县日隆镇四姑娘山景区双桥沟内", "image": "", "rank": 40, "time": 0.25, "location": {"lat": 31.036023386589264, "lng": 102.83302570570481}, "feature": {"sight_features": "", "sight_content": ""}}, {"title": "五色山", "address": "阿坝藏族羌族自治州小金县日隆镇四姑娘山景区双桥沟内", "image": "", "rank": 41, "time": 0.6, "location": {"lat": 31.036023386589264, "lng": 102.83302570570481}, "feature": {"sight_features": "", "sight_content": ""}}, {"title": "三锅庄", "address": "阿坝藏族羌族自治州小金县日隆镇四姑娘山景区双桥沟内", "image": "", "rank": 42, "time": 0.6, "location": {"lat": 31.036023386589264, "lng": 102.83302570570481}, "feature": {"sight_features": "", "sight_content": ""}}, {"title": "日月宝镜", "address": "阿坝藏族羌族自治州小金县日隆镇四姑娘山景区双桥沟内", "image": "", "rank": 43, "time": 0.4, "location": {"lat": 31.036023386589264, "lng": 102.83302570570481}, "feature": {"sight_features": "", "sight_content": ""}}, {"title": "两河口会议遗址", "address": "美兴镇", "image": "", "rank": 44, "time": 2, "location": {"lat": 30.98030107583688, "lng": 102.36355594804748}, "feature": {"sight_features": "", "sight_content": ""}}, {"title": "双桥沟漂流", "address": "双桥沟景区漂流漂流", "image": "", "rank": 45, "time": 2, "location": {"lat": 46.73301281765467, "lng": 120.5474615080043}, "feature": {"sight_features": "", "sight_content": ""}}, {"title": "夹金山", "address": "四川省小金县南部 625700", "image": "", "rank": 46, "time": 1.0, "location": {"lat": 26.04014283693168, "lng": 102.36942634837995}, "feature": {"sight_features": "", "sight_content": ""}}, {"title": "天主教堂", "address": "四川省阿坝藏族羌族自治州小金县美兴镇长征时红军一四方面军会师遗址", "image": "", "rank": 47, "time": 1.0, "location": {"lat": 30.98030107583688, "lng": 102.36355594804748}, "feature": {"sight_features": "", "sight_content": ""}}, {"title": "法治文化广场", "address": "阿坝藏族羌族自治州小金县", "image": "", "rank": 48, "time": 2, "location": {"lat": 31.002208697061754, "lng": 102.369426359284}, "feature": {"sight_features": "", "sight_content": ""}}, {"title": "两河口会议会址", "address": "两河口", "image": "", "rank": 49, "time": 2, "location": {"lat": 29.685306698063037, "lng": 110.9830471419599}, "feature": {"sight_features": "", "sight_content": ""}}, {"title": "Siguniangshan (四姑娘山 mounta...", "address": "Xiaojin, Aba, China", "image": "", "rank": 50, "time": 2, "location": {"lat": 30.939581601794032, "lng": 103.42959209896672}, "feature": {"sight_features": "", "sight_content": ""}}, {"title": "骆驼峰", "address": "四川省阿坝藏族羌族自治州小金县", "image": "", "rank": 51, "time": 2.0, "location": {"lat": 31.002208697061754, "lng": 102.369426359284}, "feature": {"sight_features": "", "sight_content": ""}}, {"title": "婆姆峰", "address": "四川省阿坝藏族羌族自治州小金县", "image": "", "rank": 52, "time": 2, "location": {"lat": 31.002208697061754, "lng": 102.369426359284}, "feature": {"sight_features": "", "sight_content": ""}}, {"title": "四姑娘山保护区", "address": "四川省小金县境内", "image": "", "rank": 53, "time": 2, "location": {"lat": 31.002208697061754, "lng": 102.369426359284}, "feature": {"sight_features": "", "sight_content": ""}}, {"title": "日月宝镜山", "address": "四川省理县双桥沟旅游路", "image": "", "rank": 54, "time": 2, "location": {"lat": 31.181413624809792, "lng": 102.76488130792177}, "feature": {"sight_features": "", "sight_content": ""}}, {"title": "麻足寨", "address": "阿坝藏族羌族自治州-小金县", "image": "", "rank": 55, "time": 2, "location": {"lat": 31.002208697061754, "lng": 102.369426359284}, "feature": {"sight_features": "", "sight_content": ""}}, {"title": "俄呷村", "address": "甘孜藏族自治州-丹巴县-汗牛大桥--汗牛", "image": "", "rank": 56, "time": 2, "location": {"lat": 30.88476979933027, "lng": 101.89643706758775}, "feature": {"sight_features": "", "sight_content": ""}}, {"title": "王二哥牛棚子", "address": "阿坝藏族羌族自治州-小金县-四姑娘山镇四姑娘山景区双桥沟内", "image": "", "rank": 57, "time": 2, "location": {"lat": 31.036023386589264, "lng": 102.83302570570481}, "feature": {"sight_features": "", "sight_content": ""}}, {"title": "幺妹峰", "address": "阿坝藏族羌族自治州小金县四姑娘山长坪沟景区内", "image": "", "rank": 58, "time": 3.5, "location": {"lat": 31.004817630637785, "lng": 102.85259909017367}, "feature": {"sight_features": "", "sight_content": ""}}, {"title": "九架海", "address": "四川省阿坝藏族羌族自治州小金县", "image": "", "rank": 59, "time": 2, "location": {"lat": 31.002208697061754, "lng": 102.369426359284}, "feature": {"sight_features": "", "sight_content": ""}}]}