{"cityName": "孝义", "days": 2, "cityImage": "", "spots": [{"title": "山西孝河国家湿地公园", "address": "吕梁市孝义市贾家庄三皇庙斜对面，时代大道右拐1000米处（时代门）", "image": "", "rank": 1, "time": 2.5, "location": {"lat": 37.14631483368199, "lng": 111.75697606592958}, "feature": {"sight_features": "", "sight_content": ""}}, {"title": "梦幻海室内主题乐园", "address": "吕梁市孝义市崇文大街与大众路交叉口往西北方向", "image": "", "rank": 2, "time": 2, "location": {"lat": 37.16477033341653, "lng": 111.78809515732146}, "feature": {"sight_features": "特色1 多层立体式空间布局 特色2 四季恒温，全年游乐 特色3 拥有40余种水上娱乐设施", "sight_content": "‍\n‍‍‍‍‍‍‍梦幻海室内主题乐园有着全球独有双穹顶结构，40米恢宏挑高，3万平米建筑面积，借鉴洛杉矶迪士尼乐园、香港迪士尼乐园和广州长隆水上乐园等成熟先进的设计理念，令人兴奋的多层立体式空间布局，四季恒温，全年游乐。‍‍‍‍‍‍\n‍\n嘉年华狂欢之余亦能在山水秘境中体验养生温泉，畅游在空中无边泳池的同时还可观赏大型叠瀑，每晚更能享受太空之夜，星光之夜，亦真亦幻的全息影像，美轮美奂的灯光水影夜以及一应俱全的水上游乐设施。"}}, {"title": "孝义金龙山", "address": "吕梁市孝义市高阳园区南岸", "image": "", "rank": 3, "time": 2, "location": {"lat": 37.16044707963351, "lng": 111.7081510630206}, "feature": {"sight_features": "特色1 自然风光秀美，文化底蕴丰厚", "sight_content": "景区以高起点、高水平策划生态文化旅游项目，进一步挖掘出当地的历史文化内涵，加大了旅游与文化产业的融合。\n与孝义市湿地公园、晋商古驿道、临黄塔、胜溪湖森林公园等景点形成一条特色文化旅游路线。\n景区内自然风光秀美，文化底蕴丰厚，是中国佛教文化、道教文化与当地孝亲文化的结合地。\n为孝义市弘扬历史文化，发展旅游业，推进文化产业大繁荣，打造文化强市增添浓墨重彩的一笔！"}}, {"title": "《水舞孝义》大型水上实景光舞秀", "address": "吕梁市孝义市孝河国家湿地公园时代门（三皇庙斜对面）", "image": "", "rank": 4, "time": 2, "location": {"lat": 37.14631483368199, "lng": 111.75697606592958}, "feature": {"sight_features": "", "sight_content": ""}}, {"title": "曹溪河欢乐城滑雪场", "address": "吕梁市孝义市迎师河底村", "image": "", "rank": 5, "time": 2, "location": {"lat": 37.06417907013491, "lng": 111.72713151195455}, "feature": {"sight_features": "", "sight_content": ""}}, {"title": "孝河游乐场", "address": "吕梁市孝义市孝汾大道胜溪湿地公园贞观门南50米", "image": "", "rank": 6, "time": 2.5, "location": {"lat": 37.137846343109786, "lng": 111.75127798652039}, "feature": {"sight_features": "", "sight_content": ""}}, {"title": "三皇庙", "address": "贾家庄村三皇庙街中部", "image": "", "rank": 7, "time": 2, "location": {"lat": 38.12317550417845, "lng": 114.94825882332056}, "feature": {"sight_features": "", "sight_content": ""}}, {"title": "孝义市图书馆", "address": "府前街253号", "image": "", "rank": 8, "time": 1.5, "location": {"lat": 37.15120567121802, "lng": 111.78910505393512}, "feature": {"sight_features": "", "sight_content": ""}}, {"title": "胜溪湖森林公园儿童乐园", "address": "胜溪湖森林公园游乐场", "image": "", "rank": 9, "time": 2, "location": {"lat": 37.13121757445971, "lng": 111.79082574466491}, "feature": {"sight_features": "", "sight_content": ""}}, {"title": "君昂童子军乐园", "address": "华美新天地5层", "image": "", "rank": 10, "time": 2, "location": {"lat": 40.1059640069498, "lng": 124.36166184339079}, "feature": {"sight_features": "", "sight_content": ""}}, {"title": "爱红干鲜瓜果店", "address": "建设街83号", "image": "", "rank": 11, "time": 2, "location": {"lat": 36.82293661815984, "lng": 115.1769074846919}, "feature": {"sight_features": "", "sight_content": ""}}, {"title": "悠贝亲子图书馆", "address": "建东巷46-48号附近", "image": "", "rank": 12, "time": 2, "location": {"lat": 35.4989618038025, "lng": 112.85831913686778}, "feature": {"sight_features": "", "sight_content": ""}}, {"title": "信道文化广场", "address": "山西省吕梁市孝义市S223(汾介线)", "image": "", "rank": 13, "time": 2, "location": {"lat": 37.19135410903118, "lng": 111.79209402987544}, "feature": {"sight_features": "", "sight_content": ""}}, {"title": "慈胜寺", "address": "吕梁市孝义市", "image": "", "rank": 14, "time": 1.0, "location": {"lat": 37.15106331910215, "lng": 111.78560601832963}, "feature": {"sight_features": "", "sight_content": ""}}, {"title": "蜜果幻想乐园", "address": "吕梁市孝义市义都购物中心3层", "image": "", "rank": 15, "time": 2, "location": {"lat": 37.14952096855393, "lng": 111.78410726295914}, "feature": {"sight_features": "", "sight_content": ""}}, {"title": "三个国王", "address": "其他崇文大街沃尔玛超市旁", "image": "", "rank": 16, "time": 2, "location": {"lat": 37.16548710416725, "lng": 111.79070264447104}, "feature": {"sight_features": "", "sight_content": ""}}, {"title": "小浪海儿童乐园", "address": "新阳煤矿集贸市场负一层(新阳幼儿园西)", "image": "", "rank": 17, "time": 2, "location": {"lat": 24.530204577888654, "lng": 118.0158991167373}, "feature": {"sight_features": "", "sight_content": ""}}, {"title": "老爷庙", "address": "时代大道附近", "image": "", "rank": 18, "time": 2, "location": {"lat": 34.71642003836509, "lng": 119.05820271690156}, "feature": {"sight_features": "", "sight_content": ""}}, {"title": "天荣六层喜洋洋儿童乐园", "address": "新义街天荣购物中心六层喜洋洋儿童乐园", "image": "", "rank": 19, "time": 2, "location": {"lat": 37.14750659256789, "lng": 111.78690685453861}, "feature": {"sight_features": "", "sight_content": ""}}, {"title": "大鲨鱼儿童乐园", "address": "大众路华美新天地负一层（家家利超市出口处）", "image": "", "rank": 20, "time": 2, "location": {"lat": 37.1489770716592, "lng": 111.7883580365476}, "feature": {"sight_features": "", "sight_content": ""}}, {"title": "孝义晋徽园度假村", "address": "山西省吕梁市孝义市湖滨路与贞观大道交叉口胜溪湖森林公园西南角", "image": "", "rank": 21, "time": 2, "location": {"lat": 37.13121757445971, "lng": 111.79082574466491}, "feature": {"sight_features": "", "sight_content": ""}}, {"title": "兑九峪广场", "address": "321省道附近", "image": "", "rank": 22, "time": 2, "location": {"lat": 37.11728765273746, "lng": 114.47042757060345}, "feature": {"sight_features": "", "sight_content": ""}}, {"title": "东风剧院", "address": "府南路47号", "image": "", "rank": 23, "time": 2, "location": {"lat": 37.14940749912844, "lng": 111.78104639802436}, "feature": {"sight_features": "", "sight_content": ""}}, {"title": "信谊文化广场", "address": "义虎路附近", "image": "", "rank": 24, "time": 2, "location": {"lat": 37.15331209736434, "lng": 111.81143733225234}, "feature": {"sight_features": "", "sight_content": ""}}, {"title": "建天福广场", "address": "府前街附近", "image": "", "rank": 25, "time": 2, "location": {"lat": 40.21766577839302, "lng": 116.66222689966413}, "feature": {"sight_features": "", "sight_content": ""}}, {"title": "郑兴公园", "address": "建设西街552", "image": "", "rank": 26, "time": 1.5, "location": {"lat": 42.552861625174174, "lng": 124.04944953724247}, "feature": {"sight_features": "", "sight_content": ""}}, {"title": "龙天庙", "address": "山西省吕梁市孝义市", "image": "", "rank": 27, "time": 2, "location": {"lat": 37.15106331910215, "lng": 111.78560601832963}, "feature": {"sight_features": "", "sight_content": ""}}, {"title": "东风影剧院", "address": "吕梁市孝义市府南路东风剧院", "image": "", "rank": 28, "time": 2, "location": {"lat": 37.14766710469637, "lng": 111.78130468720875}, "feature": {"sight_features": "", "sight_content": ""}}, {"title": "皮影木偶艺术博物馆", "address": "永安路", "image": "", "rank": 29, "time": 2, "location": {"lat": 22.584805941996752, "lng": 113.88184437495599}, "feature": {"sight_features": "", "sight_content": ""}}, {"title": "郑兴公园游乐场", "address": "安阳路郑兴公园内", "image": "", "rank": 30, "time": 2, "location": {"lat": 37.15770230192142, "lng": 111.7740351723269}, "feature": {"sight_features": "", "sight_content": ""}}, {"title": "淘气堡儿童乐园", "address": "棚户区北", "image": "", "rank": 31, "time": 2, "location": {"lat": 40.023316013195526, "lng": 113.21552566768736}, "feature": {"sight_features": "", "sight_content": ""}}, {"title": "麦幼优儿童乐园", "address": "府前街新广场广电网络三楼", "image": "", "rank": 32, "time": null, "location": {"lat": 29.3348087007989, "lng": 115.77112820997002}, "feature": {"sight_features": "", "sight_content": ""}}, {"title": "星宇迪士尼室内水上乐园", "address": "崇文大街星宇国际广场(近大众路沃尔玛)", "image": "", "rank": 33, "time": 2, "location": {"lat": 37.164513630357305, "lng": 111.78100090543784}, "feature": {"sight_features": "", "sight_content": ""}}, {"title": "爱蓓儿亲乐园", "address": "新乐巷附近", "image": "", "rank": 34, "time": 2, "location": {"lat": 37.14901894164621, "lng": 111.79020594440541}, "feature": {"sight_features": "", "sight_content": ""}}, {"title": "孝义市民间艺术剧院", "address": "贾家庄村附近", "image": "", "rank": 35, "time": 2, "location": {"lat": 38.12317550417845, "lng": 114.94825882332056}, "feature": {"sight_features": "", "sight_content": ""}}, {"title": "和谐大舞台", "address": "002乡道西50米", "image": "", "rank": 36, "time": 2, "location": {"lat": 22.60919886263197, "lng": 114.24644262262933}, "feature": {"sight_features": "", "sight_content": ""}}, {"title": "梦幻海新春欢乐世界", "address": "大众路孝义梦幻海水上乐园", "image": "", "rank": 37, "time": 2, "location": {"lat": 37.15988180622593, "lng": 111.78838811181608}, "feature": {"sight_features": "", "sight_content": ""}}, {"title": "山西省孝义市碗碗腔剧团工会委员...", "address": "府前街174号附近府前大街", "image": "", "rank": 38, "time": 2, "location": {"lat": 37.15088052605237, "lng": 111.79250084998326}, "feature": {"sight_features": "", "sight_content": ""}}, {"title": "孝义广播电视台裕杰金鹰艺术团", "address": "建设街47", "image": "", "rank": 39, "time": 2, "location": {"lat": 40.9734987779132, "lng": 117.81623330159884}, "feature": {"sight_features": "", "sight_content": ""}}, {"title": "府前步行街 FuQian BuXingJie", "address": "山西省孝义市府前步行街", "image": "", "rank": 40, "time": 2, "location": {"lat": 37.14849831477298, "lng": 111.78346672262204}, "feature": {"sight_features": "", "sight_content": ""}}, {"title": "青岛多彩扎啤美食花园", "address": "山西省孝义市新义街", "image": "", "rank": 41, "time": 2, "location": {"lat": 37.14790563394519, "lng": 111.78856861912186}, "feature": {"sight_features": "", "sight_content": ""}}, {"title": "楼东步行街", "address": "山西省孝义市楼东步行街", "image": "", "rank": 42, "time": 2, "location": {"lat": 37.15177830746236, "lng": 111.80168532763602}, "feature": {"sight_features": "", "sight_content": ""}}, {"title": "前庞沟", "address": "吕梁市-孝义市-三零七国道", "image": "", "rank": 43, "time": 2, "location": {"lat": 37.15106331910215, "lng": 111.78560601832963}, "feature": {"sight_features": "", "sight_content": ""}}, {"title": "后庞沟", "address": "吕梁市-孝义市-三零七国道", "image": "", "rank": 44, "time": 2, "location": {"lat": 37.15106331910215, "lng": 111.78560601832963}, "feature": {"sight_features": "", "sight_content": ""}}]}