{"cityName": "霞浦", "days": 2, "cityImage": "", "spots": [{"title": "杨家溪", "address": "宁德市霞浦县", "image": "", "rank": 1, "time": 1.5, "location": {"lat": 26.891348873766713, "lng": 120.01142710563632}, "feature": {"sight_features": "", "sight_content": ""}}, {"title": "北岐滩涂", "address": "宁德市霞浦县", "image": "", "rank": 2, "time": 2.5, "location": {"lat": 26.891348873766713, "lng": 120.01142710563632}, "feature": {"sight_features": "", "sight_content": ""}}, {"title": "霞浦", "address": "宁德市霞浦县", "image": "", "rank": 3, "time": 3.0, "location": {"lat": 26.891348873766713, "lng": 120.01142710563632}, "feature": {"sight_features": "", "sight_content": ""}}, {"title": "小皓村", "address": "宁德市霞浦县三沙镇小皓村", "image": "", "rank": 4, "time": 2.5, "location": {"lat": 26.933686858657033, "lng": 120.15895194420128}, "feature": {"sight_features": "", "sight_content": ""}}, {"title": "大京城堡", "address": "宁德市霞浦县长春镇大京村", "image": "", "rank": 5, "time": 2.5, "location": {"lat": 26.706997040893878, "lng": 120.10881090666896}, "feature": {"sight_features": "", "sight_content": ""}}, {"title": "东壁", "address": "宁德市霞浦县三沙镇东壁村", "image": "", "rank": 6, "time": 2.0, "location": {"lat": 26.923927540643945, "lng": 120.19815412060994}, "feature": {"sight_features": "", "sight_content": ""}}, {"title": "留云洞", "address": "宁德市霞浦县三沙镇区西二里的东壁山山崖处（留云禅寺内）。", "image": "", "rank": 7, "time": 1.5, "location": {"lat": 26.925131400963814, "lng": 120.20300225388635}, "feature": {"sight_features": "", "sight_content": ""}}, {"title": "外浒沙滩", "address": "宁德市霞浦县下浒镇外浒村", "image": "", "rank": 8, "time": 3.5, "location": {"lat": 26.609347842244905, "lng": 119.95942680476684}, "feature": {"sight_features": "", "sight_content": ""}}, {"title": "三沙港", "address": "宁德市霞浦县三沙镇东北角的古镇港", "image": "", "rank": 9, "time": 1.0, "location": {"lat": 26.928917999543163, "lng": 120.22863730421616}, "feature": {"sight_features": "", "sight_content": ""}}, {"title": "罗汉溪", "address": "宁德市霞浦县太康路251号", "image": "", "rank": 10, "time": 4.0, "location": {"lat": 26.888825743690006, "lng": 120.01617114686348}, "feature": {"sight_features": "", "sight_content": ""}}, {"title": "大京沙滩", "address": "宁德市霞浦县顶1号大京沙滩度假村内", "image": "", "rank": 11, "time": 2, "location": {"lat": 26.891348873766713, "lng": 120.01142710563632}, "feature": {"sight_features": "", "sight_content": ""}}, {"title": "小皓海滩", "address": "宁德市霞浦县东部（距三沙镇镇区约12公里）", "image": "", "rank": 12, "time": 2, "location": {"lat": 26.928917999543163, "lng": 120.22863730421616}, "feature": {"sight_features": "", "sight_content": ""}}, {"title": "红树林", "address": "宁德市霞浦县盐田乡中贝大队鹅湾村88号", "image": "", "rank": 13, "time": 2.5, "location": {"lat": 26.85397707663865, "lng": 119.86896555350037}, "feature": {"sight_features": "", "sight_content": ""}}, {"title": "馒头山", "address": "宁德市霞浦县沙江镇围江村1号海旭摄影酒店摄影基地", "image": "", "rank": 14, "time": 1.0, "location": {"lat": 26.742979359753235, "lng": 119.93414576765532}, "feature": {"sight_features": "", "sight_content": ""}}, {"title": "海岛乡", "address": "宁德市霞浦县东南海域", "image": "", "rank": 15, "time": 2, "location": {"lat": 26.891348873766713, "lng": 120.01142710563632}, "feature": {"sight_features": "", "sight_content": ""}}, {"title": "沙江S湾", "address": "宁德市霞浦县沙江村S弯摄影基地", "image": "", "rank": 16, "time": 2.5, "location": {"lat": 26.785780090553477, "lng": 119.98054767407993}, "feature": {"sight_features": "", "sight_content": ""}}, {"title": "三沙镇", "address": "福建省宁德市霞浦县", "image": "", "rank": 17, "time": 1.5, "location": {"lat": 26.891348873766713, "lng": 120.01142710563632}, "feature": {"sight_features": "", "sight_content": ""}}, {"title": "大京海滩度假村", "address": "福建省宁德市霞浦县大京村大京古堡", "image": "", "rank": 18, "time": 2, "location": {"lat": 26.706997040893878, "lng": 120.10881090666896}, "feature": {"sight_features": "", "sight_content": ""}}, {"title": "南湾甲骨文", "address": "宁德市霞浦县南湾长岐山66号", "image": "", "rank": 19, "time": 2, "location": {"lat": 26.796320959301557, "lng": 119.85952686078124}, "feature": {"sight_features": "特色1 甲骨文滩涂，线条粗犷硬朗", "sight_content": "霞浦南湾甲骨文盐田镇南湾村的滩涂，线条粗犷、硬朗，随着潮起潮落，若隐若现，会出现各种图案，有时特别像甲骨文。旁边各色围网，原是用于养螃蟹的，现在只留作拍照用，正好相映成景，别有情趣。小木船慢悠悠从中穿过，如梦如幻。\n‍"}}, {"title": "七都", "address": "福建宁德市蕉城区七都镇", "image": "", "rank": 20, "time": 2.5, "location": {"lat": 26.75967012053183, "lng": 119.51536778711544}, "feature": {"sight_features": "", "sight_content": ""}}, {"title": "北兜沙滩", "address": "长春镇新兰厝", "image": "", "rank": 21, "time": null, "location": {"lat": 28.679995970119343, "lng": 112.36385534168134}, "feature": {"sight_features": "", "sight_content": ""}}, {"title": "传胪城堡", "address": "宁德市霞浦县长春镇传胪村", "image": "", "rank": 22, "time": 1.5, "location": {"lat": 26.753582065862556, "lng": 120.06343764449367}, "feature": {"sight_features": "", "sight_content": ""}}, {"title": "福宁游乐园", "address": "山河路福宁文化公园内西侧(福宁长途汽车站斜对面)", "image": "", "rank": 23, "time": 2, "location": {"lat": 26.88736403881291, "lng": 120.02928047130203}, "feature": {"sight_features": "", "sight_content": ""}}, {"title": "赤岸风景区", "address": "973县道转弯里附近", "image": "", "rank": 24, "time": null, "location": {"lat": 26.546250447491477, "lng": 116.70258200143343}, "feature": {"sight_features": "", "sight_content": ""}}, {"title": "农兴庄园", "address": "赤岸大道56号", "image": "", "rank": 25, "time": 2, "location": {"lat": 26.899634104863377, "lng": 120.03167908894514}, "feature": {"sight_features": "", "sight_content": ""}}, {"title": "宁德吕峡渔家灯火度假村", "address": "霞浦霞浦县长春镇吕峡小吕沙滩（吕峡沙滩30米处）", "image": "", "rank": 26, "time": 4.5, "location": {"lat": 26.73102031128916, "lng": 120.05159794194385}, "feature": {"sight_features": "", "sight_content": ""}}, {"title": "建福寺", "address": "共青路16号附近", "image": "", "rank": 27, "time": 2, "location": {"lat": 30.009484897592607, "lng": 120.82323916594486}, "feature": {"sight_features": "", "sight_content": ""}}, {"title": "姚澳村福榕公园", "address": "福建省宁德市霞浦县盐田乡姚澳村福榕公园", "image": "", "rank": 28, "time": 2, "location": {"lat": 26.81747560236452, "lng": 119.85072442887157}, "feature": {"sight_features": "", "sight_content": ""}}, {"title": "鑫中兴服装城儿童乐园", "address": "福建省宁德市霞浦县府前路211号", "image": "", "rank": 29, "time": 2, "location": {"lat": 26.889862172800324, "lng": 120.00918483028184}, "feature": {"sight_features": "", "sight_content": ""}}, {"title": "三涧寺", "address": "福建省宁德市霞浦县六一七路", "image": "", "rank": 30, "time": 2, "location": {"lat": 26.891348873766713, "lng": 120.01142710563632}, "feature": {"sight_features": "", "sight_content": ""}}, {"title": "小勇士儿童拓展训练中心(霞浦店)", "address": "霞浦县其他双子铂金广场", "image": "", "rank": 31, "time": 2, "location": {"lat": 26.892770108054428, "lng": 120.02678619849502}, "feature": {"sight_features": "", "sight_content": ""}}, {"title": "中央公园", "address": "长溪路3号附近", "image": "", "rank": 32, "time": 2.5, "location": {"lat": 26.890409590776958, "lng": 120.02465771928476}, "feature": {"sight_features": "", "sight_content": ""}}, {"title": "旋转木马", "address": "府前路169号", "image": "", "rank": 33, "time": 0.15000000000000002, "location": {"lat": 29.21427143974522, "lng": 119.46228030212153}, "feature": {"sight_features": "", "sight_content": ""}}, {"title": "儿童乐园", "address": "福建省宁德市霞浦县太康路396号", "image": "", "rank": 34, "time": 2, "location": {"lat": 26.8876335141046, "lng": 120.01345646761324}, "feature": {"sight_features": "", "sight_content": ""}}, {"title": "古龙寺", "address": "福建省宁德市霞浦县X961", "image": "", "rank": 35, "time": 1.0, "location": {"lat": 26.891348873766713, "lng": 120.01142710563632}, "feature": {"sight_features": "", "sight_content": ""}}, {"title": "桐松林氏大宗祠", "address": "福建省宁德市霞浦县牙城镇东岭村", "image": "", "rank": 36, "time": 2, "location": {"lat": 27.02055939080538, "lng": 120.15696542870225}, "feature": {"sight_features": "", "sight_content": ""}}, {"title": "霞浦太康路文化广场", "address": "太康路114号", "image": "", "rank": 37, "time": 2, "location": {"lat": 34.76050059107647, "lng": 113.67735151289575}, "feature": {"sight_features": "", "sight_content": ""}}, {"title": "霞浦京海度假村客栈", "address": "宁德霞浦县长春镇小京村", "image": "", "rank": 38, "time": 2, "location": {"lat": 26.67384538350674, "lng": 120.11194139357355}, "feature": {"sight_features": "", "sight_content": ""}}, {"title": "爱婴阁儿童乐园(沃尔玛店)", "address": "松港街道福宁大道沃尔玛负一楼", "image": "", "rank": 39, "time": 2, "location": {"lat": 26.893140479595157, "lng": 120.02254310811497}, "feature": {"sight_features": "", "sight_content": ""}}, {"title": "东澳尾角", "address": "宁德市霞浦县", "image": "", "rank": 40, "time": 2, "location": {"lat": 26.891348873766713, "lng": 120.01142710563632}, "feature": {"sight_features": "", "sight_content": ""}}, {"title": "建善庵", "address": "961县道附近", "image": "", "rank": 41, "time": 2, "location": {"lat": 26.80175931050481, "lng": 120.00196354692237}, "feature": {"sight_features": "", "sight_content": ""}}, {"title": "镇江宫", "address": "镇江小学(霞浦县溪南镇财政所北)附近", "image": "", "rank": 42, "time": 2, "location": {"lat": 26.727011005899694, "lng": 119.86334844914833}, "feature": {"sight_features": "", "sight_content": ""}}, {"title": "文星威灵宫", "address": "文星明村附近", "image": "", "rank": 43, "time": 2, "location": {"lat": 26.657820291578076, "lng": 120.03233398150918}, "feature": {"sight_features": "", "sight_content": ""}}, {"title": "悟心寺", "address": "982县道附近", "image": "", "rank": 44, "time": 2, "location": {"lat": 26.751905182384085, "lng": 119.94127196058562}, "feature": {"sight_features": "", "sight_content": ""}}, {"title": "基督教会三沙堂", "address": "五澳村附近", "image": "", "rank": 45, "time": 2, "location": {"lat": 26.930764281996098, "lng": 120.22652353026713}, "feature": {"sight_features": "", "sight_content": ""}}, {"title": "月波公园", "address": "酒厂弄6号", "image": "", "rank": 46, "time": 2, "location": {"lat": 26.889239945945306, "lng": 120.01139683274063}, "feature": {"sight_features": "", "sight_content": ""}}, {"title": "小沙宫", "address": "山河路69", "image": "", "rank": 47, "time": 2, "location": {"lat": 33.457418100130575, "lng": 118.22041624855464}, "feature": {"sight_features": "", "sight_content": ""}}, {"title": "义乌城隍庙", "address": "东关上街", "image": "", "rank": 48, "time": 2, "location": {"lat": 40.57502425710029, "lng": 117.0781689370338}, "feature": {"sight_features": "", "sight_content": ""}}, {"title": "禹安宫", "address": "盐田畲族乡禹安宫", "image": "", "rank": 49, "time": 2, "location": {"lat": 26.9271445509057, "lng": 119.84811049278763}, "feature": {"sight_features": "", "sight_content": ""}}, {"title": "德龙宫", "address": "983县道附近", "image": "", "rank": 50, "time": 2, "location": {"lat": 22.930129339306987, "lng": 113.80296176877685}, "feature": {"sight_features": "", "sight_content": ""}}, {"title": "塔岗寺", "address": "共青路旁", "image": "", "rank": 51, "time": 2, "location": {"lat": 46.540713830133214, "lng": 124.88142193085886}, "feature": {"sight_features": "", "sight_content": ""}}, {"title": "沙头昭贤寺", "address": "G15沈海高速961县道入口附近", "image": "", "rank": 52, "time": 2, "location": {"lat": 24.684208635520125, "lng": 118.28177739591544}, "feature": {"sight_features": "", "sight_content": ""}}, {"title": "宝莲寺", "address": "福建省宁德市霞浦县牙城镇秦牙线第十中学东北450米", "image": "", "rank": 53, "time": 2.5, "location": {"lat": 26.991665062313043, "lng": 120.20062934934013}, "feature": {"sight_features": "", "sight_content": ""}}, {"title": "圣仁宫", "address": "宁德市霞浦县共青路建福寺北", "image": "", "rank": 54, "time": 2, "location": {"lat": 26.896011889772033, "lng": 120.00578882283358}, "feature": {"sight_features": "", "sight_content": ""}}, {"title": "石泉禅寺", "address": "下砚村附近", "image": "", "rank": 55, "time": 2, "location": {"lat": 26.681102795828487, "lng": 119.8817013490334}, "feature": {"sight_features": "", "sight_content": ""}}, {"title": "会稽宫", "address": "霞浦县柏洋乡谢墩村民委员会附近", "image": "", "rank": 56, "time": 2, "location": {"lat": 27.041986049674556, "lng": 119.85779242957095}, "feature": {"sight_features": "", "sight_content": ""}}, {"title": "天王殿", "address": "山河路81号", "image": "", "rank": 57, "time": 2, "location": {"lat": 29.301882024574905, "lng": 121.428298406612}, "feature": {"sight_features": "", "sight_content": ""}}, {"title": "赤岸林氏史迹纪念馆", "address": "宁德市霞浦县赤岸村内", "image": "", "rank": 58, "time": 2, "location": {"lat": 26.912395681767, "lng": 120.04526474796494}, "feature": {"sight_features": "", "sight_content": ""}}, {"title": "双溪古刹", "address": "福建省宁德市霞浦县松港街道天王殿", "image": "", "rank": 59, "time": 2, "location": {"lat": 26.86813856988918, "lng": 120.01732609825729}, "feature": {"sight_features": "", "sight_content": ""}}, {"title": "龙潭寺", "address": "福建省宁德市霞浦县", "image": "", "rank": 60, "time": 1.0, "location": {"lat": 26.891348873766713, "lng": 120.01142710563632}, "feature": {"sight_features": "", "sight_content": ""}}]}