{"cityName": "夏县", "days": 2, "cityImage": "", "spots": [{"title": "堆云洞", "address": "运城市夏县水头镇上牛村堆云洞", "image": "", "rank": 1, "time": 1.0, "location": {"lat": 35.305658328275186, "lng": 111.11696300810125}, "feature": {"sight_features": "", "sight_content": ""}}, {"title": "瑶台山", "address": "运城市夏县县城以东二公里的中条山前沿", "image": "", "rank": 2, "time": 2, "location": {"lat": 35.31731566385537, "lng": 111.66538543260707}, "feature": {"sight_features": "", "sight_content": ""}}, {"title": "夏县骑马场", "address": "运城市夏县南大里乡小王村", "image": "", "rank": 3, "time": 2, "location": {"lat": 35.214039510934576, "lng": 111.3068965201629}, "feature": {"sight_features": "", "sight_content": ""}}, {"title": "东下冯遗址", "address": "运城市夏县埝掌镇东下冯村", "image": "", "rank": 4, "time": 1.0, "location": {"lat": 35.25895651923353, "lng": 111.31558541793699}, "feature": {"sight_features": "", "sight_content": ""}}, {"title": "泗交国际滑雪场", "address": "运城市夏县泗交镇", "image": "", "rank": 5, "time": 2, "location": {"lat": 35.091185674056035, "lng": 111.4134745562749}, "feature": {"sight_features": "", "sight_content": ""}}, {"title": "夏县动物园", "address": "运城市夏县南大里乡小王村农场", "image": "", "rank": 6, "time": 1.0, "location": {"lat": 35.214039510934576, "lng": 111.3068965201629}, "feature": {"sight_features": "", "sight_content": ""}}, {"title": "德兰度假村", "address": "运城市夏县南大里乡小王村", "image": "", "rank": 7, "time": 2, "location": {"lat": 35.214039510934576, "lng": 111.3068965201629}, "feature": {"sight_features": "", "sight_content": ""}}, {"title": "司马光祠", "address": "山西运城市夏县水头镇小晁", "image": "", "rank": 8, "time": 2, "location": {"lat": 35.20549028212414, "lng": 111.13070396977533}, "feature": {"sight_features": "", "sight_content": ""}}, {"title": "瑶台汤泉", "address": "运城市夏县南山底村温泉度假区温泉路中段", "image": "", "rank": 9, "time": 2, "location": {"lat": 35.12335478637768, "lng": 111.24941113079839}, "feature": {"sight_features": "", "sight_content": ""}}, {"title": "瑶池温泉山庄", "address": "温泉路2号(禹泽苑斜对面)", "image": "", "rank": 10, "time": 2, "location": {"lat": 31.624432195141697, "lng": 104.46309452943456}, "feature": {"sight_features": "", "sight_content": ""}}, {"title": "滨河水上乐园", "address": "瑶峰镇镇", "image": "", "rank": 11, "time": 2, "location": {"lat": 35.144990799973826, "lng": 111.22843091096867}, "feature": {"sight_features": "", "sight_content": ""}}, {"title": "夏县福兴菌类种植专业合作社", "address": "232省道附近", "image": "", "rank": 12, "time": 2, "location": {"lat": 38.377274537943066, "lng": 114.45027902716741}, "feature": {"sight_features": "", "sight_content": ""}}, {"title": "温泉休闲垂钓园", "address": "瑶峰镇温泉路温泉休闲垂钓园", "image": "", "rank": 13, "time": 2, "location": {"lat": 44.97485663870472, "lng": 81.03114554648644}, "feature": {"sight_features": "", "sight_content": ""}}, {"title": "大洋泰山庙", "address": "山西省夏县瑶峰镇大洋村 044400", "image": "", "rank": 14, "time": 2, "location": {"lat": 35.200943161111205, "lng": 111.28312401557069}, "feature": {"sight_features": "", "sight_content": ""}}, {"title": "西阴村遗址", "address": "山西省夏县尉郭乡西阴村 044401", "image": "", "rank": 15, "time": 2, "location": {"lat": 35.220782615388956, "lng": 111.23664330527991}, "feature": {"sight_features": "", "sight_content": ""}}, {"title": "龙鼎园", "address": "新建北路与林荫街交叉口北100米", "image": "", "rank": 16, "time": 2, "location": {"lat": 35.15208692142918, "lng": 111.23474018307394}, "feature": {"sight_features": "", "sight_content": ""}}, {"title": "青台普度寺", "address": "S232(临夏线)", "image": "", "rank": 17, "time": 2, "location": {"lat": 35.48311488520585, "lng": 111.12089325640238}, "feature": {"sight_features": "", "sight_content": ""}}, {"title": "温泉电力度假村", "address": "山西省运城市夏县公路路政管理大队南100米", "image": "", "rank": 18, "time": 2, "location": {"lat": 35.11965475677035, "lng": 111.24254396605616}, "feature": {"sight_features": "", "sight_content": ""}}, {"title": "鑫淼度假村", "address": "运城市夏县", "image": "", "rank": 19, "time": 2, "location": {"lat": 35.14746177980724, "lng": 111.22643149939508}, "feature": {"sight_features": "", "sight_content": ""}}, {"title": "南城教会", "address": "209国道附近", "image": "", "rank": 20, "time": 1.0, "location": {"lat": 29.50537463467816, "lng": 109.42537798613527}, "feature": {"sight_features": "", "sight_content": ""}}, {"title": "狐仙洞", "address": "山西省运城市夏县泗交镇夏南线泗交国际滑雪场", "image": "", "rank": 21, "time": 2, "location": {"lat": 35.095284359046026, "lng": 111.41452426039892}, "feature": {"sight_features": "", "sight_content": ""}}, {"title": "基督教堂", "address": "山西省运城市夏县八一街", "image": "", "rank": 22, "time": 2.0, "location": {"lat": 35.14746177980724, "lng": 111.22643149939508}, "feature": {"sight_features": "", "sight_content": ""}}, {"title": "神奇洞水上乐园", "address": "泗交大峡谷", "image": "", "rank": 23, "time": 2, "location": {"lat": 39.60940507898687, "lng": 118.19318517522353}, "feature": {"sight_features": "", "sight_content": ""}}, {"title": "喜乐多动漫水上乐园", "address": "八一街夏县实验中学斜对面", "image": "", "rank": 24, "time": 2, "location": {"lat": 35.14484609357763, "lng": 111.24399147579223}, "feature": {"sight_features": "", "sight_content": ""}}, {"title": "格瑞特生态园", "address": "水头镇三贤庄", "image": "", "rank": 25, "time": 2, "location": {"lat": 35.214658524989886, "lng": 111.12944360941599}, "feature": {"sight_features": "", "sight_content": ""}}, {"title": "致远新农", "address": "南大里乡圪塔村", "image": "", "rank": 26, "time": 2, "location": {"lat": 35.22603179049081, "lng": 111.2810346099545}, "feature": {"sight_features": "", "sight_content": ""}}, {"title": "夏县档案馆(东北门)", "address": "禹王大道西50米", "image": "", "rank": 27, "time": 2, "location": {"lat": 35.05919256017076, "lng": 111.03964243121175}, "feature": {"sight_features": "", "sight_content": ""}}, {"title": "崔家河墓群", "address": "山西省夏县埝掌镇崔家河村", "image": "", "rank": 28, "time": 2, "location": {"lat": 35.25234996488744, "lng": 111.2876895302573}, "feature": {"sight_features": "", "sight_content": ""}}]}