{"cityName": "淅川", "days": 2, "cityImage": "", "spots": [{"title": "荆紫关古镇", "address": "南阳市淅川县", "image": "", "rank": 1, "time": 3.0, "location": {"lat": 33.14418526002652, "lng": 111.49743203615358}, "feature": {"sight_features": "", "sight_content": ""}}, {"title": "香严寺", "address": "南阳市淅川县仓房镇", "image": "", "rank": 2, "time": 1.0, "location": {"lat": 32.78125825668144, "lng": 111.48565526349404}, "feature": {"sight_features": "特色1 原为大唐慧忠国师道场，有“千顷香岩”之称", "sight_content": "香严寺景区位于南水北调中线渠首和亚洲第一人工湖的丹江小太洋西岸，与道教名山武当山遥遥相望，并且与洛阳白马寺、嵩山少林寺，开封相国寺并称为中原四大名寺。香严寺地势优越，东为龙山，西为虎山，南对面山，背靠清风岭。整个地势就象一朵盛开的莲花，寺院恰好就坐落在莲花台上。寺院周围40多处自然景观和名胜古迹留下了许多脍炙人口的美丽传说和动人故事。\n\n香严寺又名显通禅寺，香严长寿寺，素有“万顷香严”之称。寺院始建于大唐开元年间，距今已有1300多年。宋、元、明、清各有重修。鼎盛时，各类建筑房屋达437间，院墙700余丈，占地一万多平方米。但经过“文革”以后，现仅剩房舍144间。\n过去，香严寺分上下两寺，一在白崖山丛中，一在丹水山麓旁。可惜，下寺已淹没于丹江水库之中。现存的香严上寺，为唐肃宗，唐代宗两朝国师慧忠的修炼道场。说的是唐开元年间，一位姓冉名虎茵，法名慧忠的和尚，云游到顺阳川党子谷，结茅为奄，设立道场，一住就是40几年。唐天宝年间，玄宗遍访天下名僧，得知禅宗南禅派六祖慧能五大弟子的慧忠，“戒行精专，堪称一代大师”遂下诏迎慧忠于长安龙兴寺。“安史之乱”，慧忠又“循归”党子谷。肃宗李享继位，再次迎慧忠入京，尊为国师。其间，慧忠奏请在白崖山建“长寿寺”，还将佛径一套分藏长寿寺作为镇寺之宝。不久，慧忠在原修炼道场就是今天这个地方建长寿寺，代宗李豫御赐“永镇山川”匾额。慧忠在长安生活16年圆寂。代宗赐“大证禅师”。并遵其遗愿，派十位大臣（亦传十位王子），将尸骨运至白崖山入塔。大师入塔，高官显宦，齐来送葬，香烟袅袅，经月不散，人们便以“香光庄严”之义称长寿寺为香严寺。\n香严寺是一家皇家寺院。唐开成五年，唐武宗李炎在继位前，因害怕光王李忱与其争夺王位，千方百计加害光王。李忱为免遭武宗杀害，在香严寺削发为僧，避难七年，后即位宣宗皇帝。一千多年来，唐、明、清、多位皇帝，历有敕封。因此，香严寺就自然成为一家偏居一隅的皇家寺院了。\n\n香严寺四周峰峦叠翠，碧水缠绕，茂林修竹，古木参天，泉水叮咚，是“深山藏古寺”的真实写照。寺内主体建筑有石牌坊、韦驮殿、凝月轩、大雄宝殿、接官厅和藏经楼等，雕梁画栋，气势磅礴。砖雕、木雕、石雕和大雄宝殿内保存的中原最大原型壁画，被称为“三绝一宝”；寺里的三大奇观“美女抱将军”树、能识善恶的痒痒树、“灵气宝地”，寺外的一柏单八榆、一柏一石一座庙、双石洞、珍珠泉、百亩竹园、塔林、迎宾桥等各具魅力，是游人朝圣崇佛、寄情山水、生态休闲的一方净土。"}}, {"title": "丹江大观苑", "address": "南阳市淅川县石桥村鲁家沟", "image": "", "rank": 3, "time": 2, "location": {"lat": 32.84920277110871, "lng": 111.58922088687498}, "feature": {"sight_features": "特色1 中原休闲度假胜地和祈福圣地 特色2 湖中千顷碧水、烟波浩渺、天水一色 特色3 四周青山环绕、群峰耸立、惊险壮观", "sight_content": "景点介绍\n\n河南丹江大观苑位于举世瞩目的南水北调中线工程水源地——丹江水库北岸，是河南省黄金旅游带“南水北调中线沿线生态观光带”的源头，由河南福森实业集团投资建设，集“观赏性、知识性、趣味性、娱乐性、养生性”为一体的中原休闲度假胜地和祈福圣地。\n丹江大观苑由多个伸入丹江湖中的小岛组成，占地26.8平方公里，是丹江库区周边自然景观丰富的区域，是古代楚国始都丹阳所在地、楚文化发祥地，历史文化底蕴丰厚。岛上鸟语花香、苍松翠柏、松针铺地；湖中千顷碧水、烟波浩渺、天水一色；四周青山环绕、群峰耸立、惊险壮观。\n景区佳景荟萃、自然天成，吸引着海内外大批游客慕名而来，已成为中原旅游业跃起的一颗璀璨明珠，被誉为河南省旅游业的一张珍贵名片。\n为提高综合服务水平和接待能力，景区投资建设了融餐饮住宿、商务会议、休闲度假、健身娱乐等多功能为一体的福森半岛假日酒店和江畔度假疗养别墅区，为游客配备了高档的客房设施、特色的餐饮美食、优良的会议设备、丰富的娱乐休闲项目，让您在繁杂的公务之余享受片刻的闲暇，在这丹江湖畔，看山林之奇峻、听小鸟之啁啾、吸富氧之灵气、品养生之药膳，体味别样的休闲和适意；让您仿佛置身于灵秀惠兰之室或清幽水乡一隅，在这灵山秀水中感受回归自然的淳朴，追寻慢慢远逝的纯真，见证内心深处的震撼……\n景区依丹江湖沿岸而建，拥有风格迥异的万米观江长廊，布局合理的南水北调中线工程纪念馆、楚风楼、范蠡阁、世界精英馆、中华长河馆、文博园、中华世纪龙等50多处固定景点，错落有致，内涵丰富，趣韵叠加。景区游览车观光、湖中乘游船揽胜、空中直升机俯瞰，实现“海陆空”立体化观光接待，满足不同消费群体游览观光需求。\n范蠡，一代商圣。在楚国位居宰相后，急流勇退，弃官从商，成就一代儒商，富可 敌国。其在商业上的创见至今仍闪耀着真理的光芒，可谓市场经济的鼻祖。他提出的 “ 经商十八则”及相关经商哲学仍有着现实的指导意义，为诸多商家学者 所称赞与研究。 丹江大观苑筹建的范蠡阁及相关建筑旨在向游客提供文化观光的同时 ，传播商圣范蠡的 经商风范，使其发扬光大，成就更多商业巨子。"}}, {"title": "坐禅谷", "address": "南阳市淅川县仓房镇", "image": "", "rank": 4, "time": 2.5, "location": {"lat": 32.78125825668144, "lng": 111.48565526349404}, "feature": {"sight_features": "", "sight_content": ""}}, {"title": "八仙洞", "address": "南阳市淅川县马蹬镇余沟村", "image": "", "rank": 5, "time": 1.0, "location": {"lat": 32.87922796646493, "lng": 111.56430253701156}, "feature": {"sight_features": "特色1 洞内钟乳石形态各异、姿态万千", "sight_content": "八仙洞位于贵州黔西县乌江源百里画廊，地处六冲河、三岔河、鸭池河三江交汇处，在这里山势险峻、雄关漫漫、碧水绵延、一泻千里。自古为一夫当关，万夫难敌之险。八仙洞不仅拥有令人惊叹的洞穴奇观，而且容纳了博大精深的佛道文化。洞穴内的“聚仙阁”、“万佛山”、“观音堂”、“财神殿”巧妙的将洞穴奇观和佛道文化紧密联系，造就出厚重的文化底蕴。这也是八仙洞比较全国其他旅游溶洞最具其特色的地方。\n\n八仙洞是一个多层次、多类型的高位溶洞，洞内沉积物生长独特，景物千姿百态，精妙绝伦。洞内空间开阔，地形起伏跌宕。全洞长约2公里，两壁最宽处30米，垂直高度多在20—40米，最高处达80米。目前八仙洞已开发9个洞景，全洞大小景观80余个，洞内目前已发现的滴石地貌有30多种类型，几乎囊括溶洞所有类型，其中有些类型极为独特，在国内是极为罕见的。特别是龙宫洞景中的“定海神针”和水晶宫中的“盘花玉笋”堪称国宝。\n水晶宫的盘花玉笋，通体透明，高10余米直径1米。在全国的溶洞中是绝无仅有的。洞顶是鹅管状钟乳石，它的中部是空心的，鹅管悬于洞顶到达一定程度时，则会因为自身的重量而引起破裂和坠落，通过实验研究，完好的鹅管可支持900克重量。它的形成条件相当严格：洞顶水平，裂隙小且分布均匀，滴水洁净滴速也十分缓慢。像这么大面积的均匀分布，在国内是极为少见的。"}}, {"title": "南水北调中线工程渠首", "address": "南阳市淅川县九重镇淘岔村", "image": "", "rank": 6, "time": 2, "location": {"lat": 32.70211636976134, "lng": 111.80009814666435}, "feature": {"sight_features": "", "sight_content": ""}}, {"title": "丹江风景名胜区", "address": "南阳市淅川县", "image": "", "rank": 7, "time": null, "location": {"lat": 33.14418526002652, "lng": 111.49743203615358}, "feature": {"sight_features": "", "sight_content": ""}}, {"title": "淅川神仙洞景区", "address": "南阳市淅川县金河镇杜湾村", "image": "", "rank": 8, "time": 1.0, "location": {"lat": 33.02247610683705, "lng": 111.49494500907798}, "feature": {"sight_features": "", "sight_content": ""}}, {"title": "丹阳楼", "address": "河南省南阳市淅川县", "image": "", "rank": 9, "time": 2, "location": {"lat": 33.14418526002652, "lng": 111.49743203615358}, "feature": {"sight_features": "", "sight_content": ""}}, {"title": "金印农家乐", "address": "335省道附近", "image": "", "rank": 10, "time": 2, "location": {"lat": 38.65605367468026, "lng": 115.46499190580862}, "feature": {"sight_features": "", "sight_content": ""}}, {"title": "鸡鸣泉山庄", "address": "滔河乡周营村", "image": "", "rank": 11, "time": 2, "location": {"lat": 33.07235012029624, "lng": 111.20510949318322}, "feature": {"sight_features": "", "sight_content": ""}}, {"title": "山水农家", "address": "马蹬镇石桥村", "image": "", "rank": 12, "time": 2, "location": {"lat": 32.84920277110871, "lng": 111.58922088687498}, "feature": {"sight_features": "", "sight_content": ""}}, {"title": "淅川县龙山风景区", "address": "河南淅川县下王岗村 474450", "image": "", "rank": 13, "time": 2, "location": {"lat": 33.14418526002652, "lng": 111.49743203615358}, "feature": {"sight_features": "", "sight_content": ""}}, {"title": "泓森植物园", "address": "金河镇姬家山根村", "image": "", "rank": 14, "time": 2, "location": {"lat": 33.06745144035753, "lng": 111.45142462776482}, "feature": {"sight_features": "", "sight_content": ""}}, {"title": "淅川县城关奥乐奥儿童乐园", "address": "丹江大道134号", "image": "", "rank": 15, "time": 2, "location": {"lat": 32.55114781223782, "lng": 111.51449131314727}, "feature": {"sight_features": "", "sight_content": ""}}, {"title": "荆紫关解放纪念碑", "address": "荆紫关镇", "image": "", "rank": 16, "time": 2, "location": {"lat": 33.235631407053575, "lng": 111.04784586492553}, "feature": {"sight_features": "", "sight_content": ""}}, {"title": "南岗古冢", "address": "南阳市淅川县", "image": "", "rank": 17, "time": 2, "location": {"lat": 33.14418526002652, "lng": 111.49743203615358}, "feature": {"sight_features": "", "sight_content": ""}}, {"title": "儿童乐园巧乐仔", "address": "龙城花园附近", "image": "", "rank": 18, "time": 2, "location": {"lat": 38.088726366357974, "lng": 114.43944414130966}, "feature": {"sight_features": "", "sight_content": ""}}, {"title": "渠首休闲娱乐广场", "address": "河南省南阳市淅川县S335", "image": "", "rank": 19, "time": 2, "location": {"lat": 33.14418526002652, "lng": 111.49743203615358}, "feature": {"sight_features": "", "sight_content": ""}}, {"title": "基督教会", "address": "209国道附近", "image": "", "rank": 20, "time": 2, "location": {"lat": 29.50537463467816, "lng": 109.42537798613527}, "feature": {"sight_features": "", "sight_content": ""}}, {"title": "龙山度假村", "address": "河南省南阳市淅川县毛堂乡龙山风景区南350米", "image": "", "rank": 21, "time": 2, "location": {"lat": 33.26060847381196, "lng": 111.39331847695394}, "feature": {"sight_features": "", "sight_content": ""}}, {"title": "淅湖度假村", "address": "茶马古道附近", "image": "", "rank": 22, "time": 2, "location": {"lat": 39.14067322334488, "lng": 117.18723077440633}, "feature": {"sight_features": "", "sight_content": ""}}, {"title": "淅川图书馆", "address": "新建路", "image": "", "rank": 23, "time": 1.5, "location": {"lat": 39.164365704750224, "lng": 117.21108062489954}, "feature": {"sight_features": "", "sight_content": ""}}, {"title": "水调歌头书画院", "address": "新建路", "image": "", "rank": 24, "time": 2, "location": {"lat": 39.164365704750224, "lng": 117.21108062489954}, "feature": {"sight_features": "", "sight_content": ""}}, {"title": "淅川县博物馆", "address": "人民路", "image": "", "rank": 25, "time": 2, "location": {"lat": 23.37490057686854, "lng": 103.40661159663834}, "feature": {"sight_features": "", "sight_content": ""}}, {"title": "威尼斯水世界(客房部)", "address": "灌河路南段(城镇派出所对面)", "image": "", "rank": 26, "time": 1.5, "location": {"lat": 33.13244650501799, "lng": 111.49454551105836}, "feature": {"sight_features": "", "sight_content": ""}}, {"title": "光伏发电装置", "address": "丹江大道414号附近", "image": "", "rank": 27, "time": 2, "location": {"lat": 32.55372760971993, "lng": 111.51467968160625}, "feature": {"sight_features": "", "sight_content": ""}}, {"title": "丹江孔雀谷", "address": "南阳市淅川县上集镇周园村", "image": "", "rank": 28, "time": 2, "location": {"lat": 33.11256532559996, "lng": 111.54932615553233}, "feature": {"sight_features": "", "sight_content": ""}}, {"title": "南阳丹江", "address": "河南省淅川县盛湾镇", "image": "", "rank": 29, "time": 2.0, "location": {"lat": 32.92360634627534, "lng": 111.41352409602717}, "feature": {"sight_features": "", "sight_content": ""}}, {"title": "法海禅寺", "address": "河南省淅川县荆紫关镇", "image": "", "rank": 30, "time": 2, "location": {"lat": 33.235631407053575, "lng": 111.04784586492553}, "feature": {"sight_features": "", "sight_content": ""}}, {"title": "金泰盛世步行街", "address": "河南省淅川县灌河路", "image": "", "rank": 31, "time": 2, "location": {"lat": 33.15732035299479, "lng": 111.49369858862356}, "feature": {"sight_features": "", "sight_content": ""}}, {"title": "范蠡阁", "address": "淅川县南阳市河南省", "image": "", "rank": 32, "time": null, "location": {"lat": 33.14418526002652, "lng": 111.49743203615358}, "feature": {"sight_features": "", "sight_content": ""}}]}