{"cityName": "西充", "days": 2, "cityImage": "", "spots": [{"title": "中国有机生活公园", "address": "南充市西充县义兴镇书房山村", "image": "", "rank": 1, "time": 2, "location": {"lat": 31.149278082858558, "lng": 105.85294901374183}, "feature": {"sight_features": "特色1 做一回“农田主人”", "sight_content": "中国有机生活公园--您的最佳度假天堂！\n亲子、度假、约会、举办婚礼——都可以！\n观花海、品有机食品——真安逸！\n中国有机生活公园位于四川省南充市西充县，是一个鲜花盛放的地方。春有鸟语花香，夏有百花盛放，秋有繁花似锦，冬有腊梅飘香。除可以看鲜花外，还可以亲身体会到有机农庄之旅。在这里你可以放飞心情，体会到1万亩的有机瓜果飘香；深入田间，你还可以做一回“农田主人”，收获自已喜欢的有机蔬菜，满载而归！ 中国有机生活公园是由西充县百科有机种养殖有限公司全力打造的一个集花海景点与品有机食品一体的综合性生活公园。\n景点1 中国有机生活公园景区景点标牌。\n景点2 有机之源、绿色生态，奇异瓜果走廊。\n景点3 四季花海 四季花海分布于整个核心景区，占地413000平方米，由彩虹花田、四季花海、特色花展、农产品雕塑为主，发挥艺术创意和想象，结合花卉品种，大面积的种植花卉，营造震撼视野的景观效果，展现园区“有机、生态、绿色”的特色。\n景点4 叠水瀑布，叠水瀑布位于迎宾池和九宫格水田之间，占地100000平方米，由九个水池组成，利用水循环原理，从景区低点抽调水源至叠水池，形成自然落差的叠水瀑布，水池中间安装喷雾装置，与池内八品香莲交相辉映，达到雾里看花、雾中有花的效果，行人从中间的石墩子穿过，犹如穿梭于人间仙境之中。\n景点5 360°全方位观景亭。"}}, {"title": "凤凰谷水上乐园", "address": "南充市西充县凤鸣镇新书房村凤凰谷", "image": "", "rank": 2, "time": 2, "location": {"lat": 31.063399227810606, "lng": 105.87004150656173}, "feature": {"sight_features": "特色1 南充首创式、场景式、体验式顶级水上乐园", "sight_content": "凤凰谷旅游度假区位于西充县“新农村”建设标兵镇凤鸣镇，是西充县旅游局引进的重点旅游项目。度假区占地3万平米，毗邻212国道，由“凤凰谷水上乐园”和“凤凰山庄”组成，是一个集水上娱乐、特色餐饮、商务会议、休闲度假、露天美食广场、湖面垂钓、凤凰茶道为一体的综合性休闲旅游度假胜地。\n作为南充地区目前最大的，也是唯一的首创式、场景式、体验式顶级水上乐园，凤凰谷水上乐园项目包括：彩虹滑道、冲浪池、漂流河、半标准游泳池、儿童水寨及儿童戏水池。乐园将于7月22日正式对外开放，预计年接待量将超过15万人次，年经营收入达到1500万元。\n\n“水上乐园丰富了我县的游乐项目，提升了旅游品质，填补了西充乃至全市的人文景观和高科技旅游乐园的空白。”西充县旅游局相关负责人介绍道，这个项目开启了蓝色经济主体乐园新纪元，也必将成为西充县一张流光溢彩的城市名片。"}}, {"title": "张澜故居", "address": "西充县莲池乡", "image": "", "rank": 3, "time": 2, "location": {"lat": 30.933279731247, "lng": 105.87187896982138}, "feature": {"sight_features": "", "sight_content": ""}}, {"title": "假日温泉", "address": "文庙巷名都佳苑B幢附近", "image": "", "rank": 4, "time": 2, "location": {"lat": 30.990931151887985, "lng": 105.90121984299864}, "feature": {"sight_features": "", "sight_content": ""}}, {"title": "西充县老兵职工图书屋", "address": "西山路与雨台路交叉口东100米", "image": "", "rank": 5, "time": 2, "location": {"lat": 49.5982302398277, "lng": 117.44598733981857}, "feature": {"sight_features": "", "sight_content": ""}}, {"title": "西充县晋城镇库楼坝社区图书室", "address": "阳光路431号附近", "image": "", "rank": 6, "time": 2, "location": {"lat": 36.79549248304191, "lng": 116.76231035043061}, "feature": {"sight_features": "", "sight_content": ""}}, {"title": "依尚街区", "address": "晋城大道三段100号", "image": "", "rank": 7, "time": 2, "location": {"lat": 31.001997555825824, "lng": 105.89634083136703}, "feature": {"sight_features": "", "sight_content": ""}}, {"title": "牛头山", "address": "四川省西充县双凤镇 637250", "image": "", "rank": 8, "time": 0.6, "location": {"lat": 30.98093467329814, "lng": 105.87422848608611}, "feature": {"sight_features": "", "sight_content": ""}}, {"title": "鱼塘", "address": "安汉大道三段西充中学操场旁(茂远大酒店南侧下行20米)", "image": "", "rank": 9, "time": 2, "location": {"lat": 30.990603744001174, "lng": 105.89506352177932}, "feature": {"sight_features": "", "sight_content": ""}}, {"title": "九龙潭水库", "address": "四川省西充县晋城镇龙门桥村", "image": "", "rank": 10, "time": 1.0, "location": {"lat": 30.991644720511957, "lng": 105.92644571697375}, "feature": {"sight_features": "", "sight_content": ""}}, {"title": "阙家老酒厂", "address": "四川省南充市西充县安汉大道2段-160-、162号", "image": "", "rank": 11, "time": 2, "location": {"lat": 30.99611632623485, "lng": 105.89821111841056}, "feature": {"sight_features": "", "sight_content": ""}}, {"title": "付家祠堂", "address": "南充市西充县", "image": "", "rank": 12, "time": 2, "location": {"lat": 31.000688020791618, "lng": 105.90761137653269}, "feature": {"sight_features": "", "sight_content": ""}}, {"title": "气象公园", "address": "四川省南充市西充县常林乡环城大道二段圣典名都西350米", "image": "", "rank": 13, "time": 1.5, "location": {"lat": 30.983161760763803, "lng": 105.89099498024324}, "feature": {"sight_features": "", "sight_content": ""}}, {"title": "芭比熊亲子儿童乐园", "address": "四川省南充市西充县凤凰街30号", "image": "", "rank": 14, "time": 2, "location": {"lat": 31.00029080382673, "lng": 105.89235904727877}, "feature": {"sight_features": "", "sight_content": ""}}, {"title": "杨家桥度假村", "address": "杨家桥村(西充往南充方向，CNG加气站斜对面)", "image": "", "rank": 15, "time": null, "location": {"lat": 30.997194905633634, "lng": 105.92781026999258}, "feature": {"sight_features": "", "sight_content": ""}}, {"title": "晋城镇刘家嘴社区文化茶园", "address": "虹溪路30", "image": "", "rank": 16, "time": 2, "location": {"lat": 31.002057025193665, "lng": 105.8941049040374}, "feature": {"sight_features": "", "sight_content": ""}}, {"title": "北山寺", "address": "四川省南充市西充县", "image": "", "rank": 17, "time": 1.0, "location": {"lat": 31.000688020791618, "lng": 105.90761137653269}, "feature": {"sight_features": "", "sight_content": ""}}, {"title": "西充县凤凰山圭峰禅院", "address": "天王殿附近", "image": "", "rank": 18, "time": 2, "location": {"lat": 40.08879277715348, "lng": 117.295651707628}, "feature": {"sight_features": "", "sight_content": ""}}, {"title": "天天文化走廊", "address": "南充市西充县文化路121号", "image": "", "rank": 19, "time": 2, "location": {"lat": 30.998769941892906, "lng": 105.89495721630529}, "feature": {"sight_features": "", "sight_content": ""}}, {"title": "西充图书院", "address": "文庙巷", "image": "", "rank": 20, "time": 2, "location": {"lat": 40.91987173640915, "lng": 115.83849685453043}, "feature": {"sight_features": "", "sight_content": ""}}, {"title": "西充县图书馆(晋城大道一段店)", "address": "晋城大道1段-14-、16号", "image": "", "rank": 21, "time": 2, "location": {"lat": 31.001442364715235, "lng": 105.89036382091057}, "feature": {"sight_features": "", "sight_content": ""}}, {"title": "西充影剧场", "address": "晋城大道一段30号", "image": "", "rank": 22, "time": 2, "location": {"lat": 31.001646271788633, "lng": 105.89020715642961}, "feature": {"sight_features": "", "sight_content": ""}}, {"title": "西充义兴青禾生态农庄", "address": "义兴镇义青路", "image": "", "rank": 23, "time": null, "location": {"lat": 31.15951566508032, "lng": 105.85327332538687}, "feature": {"sight_features": "", "sight_content": ""}}, {"title": "胖土地葡萄园", "address": "中岭乡观音岩村(212国道往南部方向)", "image": "", "rank": 24, "time": 2, "location": {"lat": 31.106839716732402, "lng": 105.86627539933829}, "feature": {"sight_features": "", "sight_content": ""}}, {"title": "百科有机生活体验馆", "address": "莲湖北路与莲花路交叉口东北50米", "image": "", "rank": 25, "time": 2, "location": {"lat": 30.991658756902364, "lng": 105.90546055376879}, "feature": {"sight_features": "", "sight_content": ""}}, {"title": "西充益康农场", "address": "莲湖北路与莲花路交叉口东北50米", "image": "", "rank": 26, "time": 2, "location": {"lat": 30.991658756902364, "lng": 105.90546055376879}, "feature": {"sight_features": "", "sight_content": ""}}, {"title": "高院镇文化宣传服务站", "address": "高院镇老年协会附近", "image": "", "rank": 27, "time": 2, "location": {"lat": 30.984804308037845, "lng": 105.68775873856242}, "feature": {"sight_features": "", "sight_content": ""}}, {"title": "同德乡文化宣传服务站", "address": "西射路同德乡附近", "image": "", "rank": 28, "time": 2, "location": {"lat": 31.00567738288744, "lng": 105.68872398759561}, "feature": {"sight_features": "", "sight_content": ""}}, {"title": "万年山", "address": "四川省西充县青狮、双洛、仁和、双江4乡镇交界处", "image": "", "rank": 29, "time": 2, "location": {"lat": 31.000688020791618, "lng": 105.90761137653269}, "feature": {"sight_features": "", "sight_content": ""}}, {"title": "西充凤凰山", "address": "四川省西充县多扶镇", "image": "", "rank": 30, "time": 1.0, "location": {"lat": 30.977459171560675, "lng": 105.96248083018429}, "feature": {"sight_features": "", "sight_content": ""}}, {"title": "南充市西充县鸿运步行街", "address": "四川省西充县虹溪巷晋城大道三段路口", "image": "", "rank": 31, "time": 7.5, "location": {"lat": 31.005570952173642, "lng": 105.89721483771297}, "feature": {"sight_features": "", "sight_content": ""}}, {"title": "黄桷树休闲山庄", "address": "南充市-西充县-K歌会西50米(九洲王朝大酒店东)", "image": "", "rank": 32, "time": 2, "location": {"lat": 31.0013085225813, "lng": 105.8959288936127}, "feature": {"sight_features": "", "sight_content": ""}}]}