{"cityName": "喜德", "days": 2, "cityImage": "", "spots": [{"title": "小相岭风景区", "address": "四川省凉山彝族自治州喜德县", "image": "", "rank": 1, "time": 1.0, "location": {"lat": 28.312709832521158, "lng": 102.41956715684437}, "feature": {"sight_features": "", "sight_content": ""}}, {"title": "喜德公塘子温泉", "address": "凉山彝族自治州喜德县拉克乡幸福村", "image": "", "rank": 2, "time": 2, "location": {"lat": 28.326403600163864, "lng": 102.38342667510437}, "feature": {"sight_features": "", "sight_content": ""}}, {"title": "喜德县图书馆", "address": "文化路东段60号", "image": "", "rank": 3, "time": 2, "location": {"lat": 28.311654537194286, "lng": 102.41893645654602}, "feature": {"sight_features": "", "sight_content": ""}}, {"title": "凉山彝族自治州天保工程中心种苗...", "address": "啄木山附近", "image": "", "rank": 4, "time": 2.0, "location": {"lat": 27.892702545732703, "lng": 102.32032509767845}, "feature": {"sight_features": "", "sight_content": ""}}, {"title": "高枧温泉花园休闲庄", "address": "氡泉矿泉花园内", "image": "", "rank": 5, "time": 2, "location": {"lat": 36.063740521506766, "lng": 120.36696982270574}, "feature": {"sight_features": "", "sight_content": ""}}, {"title": "皇家山庄", "address": "喜德县光明镇新联村", "image": "", "rank": 6, "time": 2, "location": {"lat": 28.307899278552476, "lng": 102.44560042780324}, "feature": {"sight_features": "", "sight_content": ""}}, {"title": "喜德县步行街", "address": "四川省喜德县中心街8号", "image": "", "rank": 7, "time": 2, "location": {"lat": 28.312073068851532, "lng": 102.41864741091479}, "feature": {"sight_features": "", "sight_content": ""}}, {"title": "甘洛瓦拖", "address": "凉山彝族自治州-喜德县", "image": "", "rank": 8, "time": 2, "location": {"lat": 28.312709832521158, "lng": 102.41956715684437}, "feature": {"sight_features": "", "sight_content": ""}}, {"title": "依甘洛村", "address": "凉山彝族自治州-喜德县", "image": "", "rank": 9, "time": 2, "location": {"lat": 28.312709832521158, "lng": 102.41956715684437}, "feature": {"sight_features": "", "sight_content": ""}}]}