{"cityName": "西华", "days": 2, "cityImage": "", "spots": [{"title": "女娲城", "address": "周口市西华县思都岗村", "image": "", "rank": 1, "time": 1.0, "location": {"lat": 33.88618963802273, "lng": 114.5224976168282}, "feature": {"sight_features": "", "sight_content": ""}}, {"title": "逍遥镇", "address": "周口市西华县逍遥镇", "image": "", "rank": 2, "time": 3.0, "location": {"lat": 33.751262935827135, "lng": 114.29014664409412}, "feature": {"sight_features": "", "sight_content": ""}}, {"title": "盘古寨遗址", "address": "河南省周口市西华县县城东北20公里东夏镇木岗寺村", "image": "", "rank": 3, "time": 2, "location": {"lat": 33.87739963487039, "lng": 114.63293024954453}, "feature": {"sight_features": "", "sight_content": ""}}, {"title": "杜岗会师纪念馆", "address": "周口市西华县红花集镇", "image": "", "rank": 4, "time": 2.5, "location": {"lat": 33.85243988678301, "lng": 114.47004790537288}, "feature": {"sight_features": "", "sight_content": ""}}, {"title": "黄淮华龙农民种植专业合作社", "address": "102省道附近", "image": "", "rank": 5, "time": 2, "location": {"lat": 36.224418920426714, "lng": 113.13112600949766}, "feature": {"sight_features": "", "sight_content": ""}}, {"title": "国家生猪活体储备基地", "address": "国家生猪活体储备基地附近", "image": "", "rank": 6, "time": 2, "location": {"lat": 22.767566024240118, "lng": 114.42302226717572}, "feature": {"sight_features": "", "sight_content": ""}}, {"title": "文宝画廊", "address": "329省道南50米", "image": "", "rank": 7, "time": 2, "location": {"lat": 37.0056462684588, "lng": 114.74389772886998}, "feature": {"sight_features": "", "sight_content": ""}}, {"title": "天天美术馆", "address": "兴华路北50米", "image": "", "rank": 8, "time": 2, "location": {"lat": 22.646687844541926, "lng": 113.83614964696761}, "feature": {"sight_features": "", "sight_content": ""}}, {"title": "师古轩石雕艺术馆", "address": "河南西华县102省道附近", "image": "", "rank": 9, "time": 2, "location": {"lat": 33.84314184146465, "lng": 114.46203685815696}, "feature": {"sight_features": "", "sight_content": ""}}, {"title": "净业念佛堂", "address": "河南省周口市西华县红苑路", "image": "", "rank": 10, "time": 2, "location": {"lat": 33.7991138746229, "lng": 114.52096560618773}, "feature": {"sight_features": "", "sight_content": ""}}, {"title": "北关水上乐园", "address": "周口市西华县", "image": "", "rank": 11, "time": 2, "location": {"lat": 33.77321533492214, "lng": 114.53559667094417}, "feature": {"sight_features": "", "sight_content": ""}}, {"title": "儿童成长主题乐园", "address": "娲城街道长平路县医院北园向东路南", "image": "", "rank": 12, "time": 2, "location": {"lat": 33.79561257051528, "lng": 114.53170273305004}, "feature": {"sight_features": "", "sight_content": ""}}, {"title": "水上乐园", "address": "河南省周口市西华县西华营镇中心小学", "image": "", "rank": 13, "time": 2, "location": {"lat": 33.94457718256411, "lng": 114.6276775814479}, "feature": {"sight_features": "", "sight_content": ""}}, {"title": "开心宝贝游乐园", "address": "河南省周口市西华县长平路", "image": "", "rank": 14, "time": 2, "location": {"lat": 33.79561257051528, "lng": 114.53170273305004}, "feature": {"sight_features": "", "sight_content": ""}}, {"title": "星期六儿童成长主题乐园", "address": "明德小学时代广场步行街", "image": "", "rank": 15, "time": 2, "location": {"lat": 23.114583934421155, "lng": 113.86131418104097}, "feature": {"sight_features": "", "sight_content": ""}}, {"title": "礼拜堂", "address": "女娲大道附近", "image": "", "rank": 16, "time": 2, "location": {"lat": 33.79695537324095, "lng": 114.55168708959482}, "feature": {"sight_features": "", "sight_content": ""}}, {"title": "黄桥桃花园", "address": "河南省周口市西华县黄桥乡", "image": "", "rank": 17, "time": 2, "location": {"lat": 33.772783884407616, "lng": 114.4645010026963}, "feature": {"sight_features": "", "sight_content": ""}}, {"title": "龙泉寺", "address": "河南省周口市西华县聂堆镇思都岗村", "image": "", "rank": 18, "time": 3.0, "location": {"lat": 33.88618963802273, "lng": 114.5224976168282}, "feature": {"sight_features": "", "sight_content": ""}}, {"title": "师古轩书画艺术馆", "address": "青华路", "image": "", "rank": 19, "time": 2, "location": {"lat": 26.03972438070431, "lng": 119.31182478405158}, "feature": {"sight_features": "", "sight_content": ""}}, {"title": "西华县图书馆", "address": "箕子台路", "image": "", "rank": 20, "time": 2, "location": {"lat": 33.79888164587259, "lng": 114.53171007310438}, "feature": {"sight_features": "", "sight_content": ""}}, {"title": "河南省国营黄泛区农场依法治场领...", "address": "锦苑大酒店附近", "image": "", "rank": 21, "time": 2, "location": {"lat": 36.63894783501789, "lng": 114.38579059447093}, "feature": {"sight_features": "", "sight_content": ""}}, {"title": "梦幻水上乐园", "address": "箕城路与安康大道交叉口", "image": "", "rank": 22, "time": 2, "location": {"lat": 33.77322790843503, "lng": 114.53437294168693}, "feature": {"sight_features": "", "sight_content": ""}}, {"title": "现代城步行街", "address": "河南省西华县长平路", "image": "", "rank": 23, "time": 2, "location": {"lat": 33.79561257051528, "lng": 114.53170273305004}, "feature": {"sight_features": "", "sight_content": ""}}, {"title": "大时代广场步行街", "address": "河南省西华县建设路", "image": "", "rank": 24, "time": 2, "location": {"lat": 33.792392577084485, "lng": 114.53024003476443}, "feature": {"sight_features": "", "sight_content": ""}}, {"title": "楼陈村", "address": "周口市-西华县-二一三省道", "image": "", "rank": 25, "time": 2, "location": {"lat": 33.717214146854374, "lng": 114.64511852787344}, "feature": {"sight_features": "", "sight_content": ""}}]}