{"cityName": "锡林浩特", "days": 2, "cityImage": "", "spots": [{"title": "贝子庙", "address": "锡林郭勒盟锡林浩特市贝子庙街额尔敦陶力盖敖包山南坡下，贝子庙街与额尔敦路交汇处", "image": "", "rank": 1, "time": 0.75, "location": {"lat": 43.9615215310599, "lng": 116.08943938986185}, "feature": {"sight_features": "", "sight_content": ""}}, {"title": "平顶山火山群", "address": "锡林郭勒盟锡林浩特市贝力克牧场", "image": "", "rank": 2, "time": 1.5, "location": {"lat": 43.66161577638308, "lng": 116.12503643540738}, "feature": {"sight_features": "", "sight_content": ""}}, {"title": "浑善达克沙地", "address": "锡林郭勒盟锡林浩特市克什克腾旗西部", "image": "", "rank": 3, "time": 2.0, "location": {"lat": 43.938333801360066, "lng": 116.09361388473624}, "feature": {"sight_features": "", "sight_content": ""}}, {"title": "白音锡勒牧场景区", "address": "锡林郭勒盟锡林浩特市", "image": "", "rank": 4, "time": 2.5, "location": {"lat": 43.938333801360066, "lng": 116.09361388473624}, "feature": {"sight_features": "", "sight_content": ""}}, {"title": "锡林郭勒盟博物馆", "address": "锡林郭勒盟锡林浩特市河西开发区蒙元文化苑内，锡林西大街", "image": "", "rank": 5, "time": 2.5, "location": {"lat": 43.93509876890687, "lng": 116.05571491425358}, "feature": {"sight_features": "", "sight_content": ""}}, {"title": "中国马都", "address": "锡林郭勒盟锡林浩特市南郊街道南京路", "image": "", "rank": 6, "time": 2, "location": {"lat": 43.931665063909115, "lng": 116.10548762857728}, "feature": {"sight_features": "特色1 一台全面展示蒙古族文化的大型室内实景剧 特色2 一座可容纳1875人的民族文化大型演艺厅 特色3 包括实景舞台、表演区、预演区、观众席、民族工艺品展示区等功能房间", "sight_content": "全国各地实景演出的成功经验，融合独特的蒙元文化精粹，利用先进的高科技手段，依靠震撼的实景舞台效果，打造的一台全面展示蒙古族文化的大型室内实景剧。马文化演艺厅建成于2014年9月，位于锡林浩特市中国马都核心区，占地12000平米，是一座可容纳1875人的民族文化大型演艺厅，包括实景舞台、表演区、预演区、观众席、民族工艺品展示区等功能房间。演艺厅设计独特，坐位呈阶梯形排列，对面为壮观的实景舞台表演区。"}}, {"title": "啤酒泉", "address": "阿尔善宝力格境内", "image": "", "rank": 7, "time": 2, "location": {"lat": 48.23849839154936, "lng": 118.24799455033535}, "feature": {"sight_features": "", "sight_content": ""}}, {"title": "缘上都", "address": "内蒙古锡林浩特市正蓝旗元上都金莲川草原51种蓄场6分场", "image": "", "rank": 8, "time": 2, "location": {"lat": 43.938333801360066, "lng": 116.09361388473624}, "feature": {"sight_features": "", "sight_content": ""}}, {"title": "锡林郭勒赛马场", "address": "内蒙古自治区锡林浩特市额尔敦南路", "image": "", "rank": 9, "time": 2, "location": {"lat": 43.938333801360066, "lng": 116.09361388473624}, "feature": {"sight_features": "", "sight_content": ""}}, {"title": "额尔敦敖包", "address": "锡林浩特市区北端", "image": "", "rank": 10, "time": 2, "location": {"lat": 43.938333801360066, "lng": 116.09361388473624}, "feature": {"sight_features": "", "sight_content": ""}}, {"title": "蒙元文化苑（蒙元文化博物馆）", "address": "内蒙古自治区锡林郭勒盟锡林浩特市新区中心", "image": "", "rank": 11, "time": 2, "location": {"lat": 43.938333801360066, "lng": 116.09361388473624}, "feature": {"sight_features": "", "sight_content": ""}}, {"title": "九曲度假村", "address": "内蒙古自治区锡林郭勒盟锡林浩特市九曲弯旅游区内", "image": "", "rank": 12, "time": 2, "location": {"lat": 43.938333801360066, "lng": 116.09361388473624}, "feature": {"sight_features": "", "sight_content": ""}}, {"title": "芍药谷", "address": "锡林浩特市东乌珠穆沁旗贺斯格乌拉牧场北26公里处", "image": "", "rank": 13, "time": 2, "location": {"lat": 46.14361059249775, "lng": 119.13352488935618}, "feature": {"sight_features": "", "sight_content": ""}}, {"title": "锡林郭勒盟古长城遗址", "address": "内蒙古自治区正蓝旗境内 027200", "image": "", "rank": 14, "time": 0.4, "location": {"lat": 42.24711884418806, "lng": 115.99860388382902}, "feature": {"sight_features": "", "sight_content": ""}}, {"title": "辉腾希勒天然植物园", "address": "内蒙古自治区乌兰察布市察哈尔右翼中旗 ‎", "image": "", "rank": 15, "time": 2, "location": {"lat": 41.28327294329096, "lng": 112.64258040196295}, "feature": {"sight_features": "", "sight_content": ""}}, {"title": "乌拉盖乞颜部落度假区", "address": "锡林浩特乌拉盖管理区哈场洪浩勒图分场九曲湾一公里处环湖公路", "image": "", "rank": 16, "time": 1.5, "location": {"lat": 43.938333801360066, "lng": 116.09361388473624}, "feature": {"sight_features": "", "sight_content": ""}}, {"title": "红库X密室逃脱俱乐部", "address": "那达慕大街香榭丽舍步行街五号楼2单元3楼(第一佳大鸡排西侧)", "image": "", "rank": 17, "time": 2, "location": {"lat": 38.0437620058931, "lng": 114.51802688055935}, "feature": {"sight_features": "", "sight_content": ""}}, {"title": "迷镜密室逃脱", "address": "金塘商业中心5楼(麦豪斯水晶酒店)", "image": "", "rank": 18, "time": 2, "location": {"lat": 32.265709998619315, "lng": 118.81574757863868}, "feature": {"sight_features": "", "sight_content": ""}}, {"title": "葡桃儿 采摘聚会吧", "address": "内蒙古自治区锡林郭勒盟锡林浩特市循环经济生态园区", "image": "", "rank": 19, "time": 2, "location": {"lat": 43.938333801360066, "lng": 116.09361388473624}, "feature": {"sight_features": "", "sight_content": ""}}, {"title": "义合马场", "address": "307省道附近", "image": "", "rank": 20, "time": 2, "location": {"lat": 40.264498296993764, "lng": 116.57268632168496}, "feature": {"sight_features": "", "sight_content": ""}}, {"title": "彩虹鱼儿童图书借阅馆", "address": "团结大街西苑小区北门往西", "image": "", "rank": 21, "time": 2, "location": {"lat": 43.93414261715331, "lng": 116.08693498326956}, "feature": {"sight_features": "", "sight_content": ""}}, {"title": "工人影剧院", "address": "云衫大道附近云杉大道", "image": "", "rank": 22, "time": 2.0, "location": {"lat": 44.76162069409872, "lng": 115.81570421080886}, "feature": {"sight_features": "", "sight_content": ""}}, {"title": "南山动漫水世界", "address": "宝昌路50号", "image": "", "rank": 23, "time": 2, "location": {"lat": 31.259900018725965, "lng": 121.48479006764654}, "feature": {"sight_features": "", "sight_content": ""}}, {"title": "御马苑旅游区", "address": "内蒙古自治区锡林浩特市太仆寺旗贡宝拉格苏木", "image": "", "rank": 24, "time": 2, "location": {"lat": 41.71886060260019, "lng": 115.17951841235156}, "feature": {"sight_features": "", "sight_content": ""}}, {"title": "白音锡勒旅游度假村", "address": "026乡道附近", "image": "", "rank": 25, "time": 2, "location": {"lat": 45.75376621177619, "lng": 120.29702071223088}, "feature": {"sight_features": "", "sight_content": ""}}, {"title": "灰腾梁", "address": "内蒙古自治区察哈尔右翼中旗胜利乡 013550", "image": "", "rank": 26, "time": 2, "location": {"lat": 41.167369574286475, "lng": 112.87438505582826}, "feature": {"sight_features": "", "sight_content": ""}}, {"title": "锡林郭勒盟群众艺术馆", "address": "内蒙古自治区锡林浩特市那达慕大街与东一环交叉口", "image": "", "rank": 27, "time": 1.0, "location": {"lat": 43.95960806119564, "lng": 116.1048633646377}, "feature": {"sight_features": "", "sight_content": ""}}, {"title": "安答堡子城址", "address": "内蒙古自治区达尔罕茂明安联合旗百灵庙镇东约35公里 014500", "image": "", "rank": 28, "time": 2, "location": {"lat": 41.807461300213326, "lng": 110.53313133330826}, "feature": {"sight_features": "", "sight_content": ""}}, {"title": "优优派克儿童乐园", "address": "额尔顿路32号德克隆购物中心5楼", "image": "", "rank": 29, "time": 2, "location": {"lat": 43.949039491576386, "lng": 116.08615085957634}, "feature": {"sight_features": "", "sight_content": ""}}, {"title": "童萌汇儿童乐园", "address": "民盛购物中心3楼，M儿童乐园内", "image": "", "rank": 30, "time": 2, "location": {"lat": 43.94489620049811, "lng": 116.09211680740044}, "feature": {"sight_features": "", "sight_content": ""}}, {"title": "博苑学生之家儿童拓展中心儿童水...", "address": "内蒙古自治区锡林郭勒盟锡林浩特市宝昌路未来城博苑艺术幼儿园总部", "image": "", "rank": 31, "time": 2, "location": {"lat": 43.92182389084407, "lng": 116.05154869277293}, "feature": {"sight_features": "", "sight_content": ""}}, {"title": "阿日嘎郎图", "address": "锡林郭勒盟锡林浩特市", "image": "", "rank": 32, "time": 2, "location": {"lat": 43.938333801360066, "lng": 116.09361388473624}, "feature": {"sight_features": "", "sight_content": ""}}, {"title": "逸园公园", "address": "重庆路", "image": "", "rank": 33, "time": 2, "location": {"lat": 45.7487298035103, "lng": 132.8153958761508}, "feature": {"sight_features": "", "sight_content": ""}}, {"title": "锡林郭勒盟算盘博物馆", "address": "天津路东50米", "image": "", "rank": 34, "time": 1.0, "location": {"lat": 43.90947942059965, "lng": 125.33432858672177}, "feature": {"sight_features": "", "sight_content": ""}}, {"title": "城西公园", "address": "滨河路与赛汉路交叉口西南200米", "image": "", "rank": 35, "time": 2, "location": {"lat": 43.95029746127216, "lng": 116.06865575341331}, "feature": {"sight_features": "", "sight_content": ""}}, {"title": "淘气堡", "address": "天圆生态购物广场5", "image": "", "rank": 36, "time": 1.0, "location": {"lat": 43.94903961573508, "lng": 116.08615076255936}, "feature": {"sight_features": "", "sight_content": ""}}, {"title": "警民度假村", "address": "锡林浩特机场附近", "image": "", "rank": 37, "time": 2, "location": {"lat": 43.9140012329157, "lng": 115.96890126302289}, "feature": {"sight_features": "", "sight_content": ""}}, {"title": "锡林浩特市法治文化广场", "address": "内蒙古自治区锡林郭勒盟锡林浩特市察哈尔街民盛购物中心公交站西", "image": "", "rank": 38, "time": 0.75, "location": {"lat": 43.94489620049811, "lng": 116.09211680740044}, "feature": {"sight_features": "", "sight_content": ""}}, {"title": "蒙纳歌旅游度假村", "address": "G207(锡海线)", "image": "", "rank": 39, "time": 2, "location": {"lat": 42.02893579205865, "lng": 115.31258811125821}, "feature": {"sight_features": "", "sight_content": ""}}, {"title": "水库小赵度假村", "address": "内蒙古自治区锡林郭勒盟锡林浩特市g207", "image": "", "rank": 40, "time": 2, "location": {"lat": 43.938333801360066, "lng": 116.09361388473624}, "feature": {"sight_features": "", "sight_content": ""}}, {"title": "安达度假村", "address": "207国道附近", "image": "", "rank": 41, "time": 2, "location": {"lat": 38.67484937592033, "lng": 114.04837902844483}, "feature": {"sight_features": "", "sight_content": ""}}, {"title": "草原情度假村", "address": "内蒙古自治区锡林郭勒盟锡林浩特市", "image": "", "rank": 42, "time": 2, "location": {"lat": 43.938333801360066, "lng": 116.09361388473624}, "feature": {"sight_features": "", "sight_content": ""}}, {"title": "锡林部落旅游度假村", "address": "207国道西50米", "image": "", "rank": 43, "time": 2, "location": {"lat": 38.67484937592033, "lng": 114.04792987568985}, "feature": {"sight_features": "", "sight_content": ""}}, {"title": "百老汇休闲广场", "address": "额尔敦路附近", "image": "", "rank": 44, "time": 2, "location": {"lat": 43.94871801166292, "lng": 116.08624129109371}, "feature": {"sight_features": "", "sight_content": ""}}, {"title": "生态实践基地度假村", "address": "内蒙古自治区锡林郭勒盟锡林浩市g207", "image": "", "rank": 45, "time": 2, "location": {"lat": 43.93942266533856, "lng": 116.05439144074573}, "feature": {"sight_features": "", "sight_content": ""}}, {"title": "锡林浩特市额尔敦达来度假村", "address": "内蒙古自治区锡林郭勒盟锡林浩特市白音锡勒牧场一分场", "image": "", "rank": 46, "time": 0.75, "location": {"lat": 43.71704139743067, "lng": 116.64066344060915}, "feature": {"sight_features": "", "sight_content": ""}}, {"title": "锡林浩特市吉祥马都牧人之家", "address": "锡林浩特市西张高速路东3公里", "image": "", "rank": 47, "time": 0.75, "location": {"lat": 43.938333801360066, "lng": 116.09361388473624}, "feature": {"sight_features": "", "sight_content": ""}}, {"title": "科信广场", "address": "内蒙古自治区锡林郭勒盟锡林浩特市贝子庙街", "image": "", "rank": 48, "time": 2, "location": {"lat": 43.9615215310599, "lng": 116.08943938986185}, "feature": {"sight_features": "", "sight_content": ""}}, {"title": "锡林郭勒马文化博物馆", "address": "南京路6号", "image": "", "rank": 49, "time": 2, "location": {"lat": 43.93239925983447, "lng": 116.10176875156263}, "feature": {"sight_features": "", "sight_content": ""}}, {"title": "公路度假村", "address": "207国道", "image": "", "rank": 50, "time": 2, "location": {"lat": 38.67484937592033, "lng": 114.04837902844483}, "feature": {"sight_features": "", "sight_content": ""}}, {"title": "马文化博物馆", "address": "南京路6号", "image": "", "rank": 51, "time": 1.5, "location": {"lat": 43.93239925983447, "lng": 116.10176875156263}, "feature": {"sight_features": "", "sight_content": ""}}, {"title": "锡林浩特城市展览馆", "address": "上海路", "image": "", "rank": 52, "time": 0.75, "location": {"lat": 38.958963902248165, "lng": 117.33795895429911}, "feature": {"sight_features": "", "sight_content": ""}}, {"title": "灰腾希勒天然植物园", "address": "207国道", "image": "", "rank": 53, "time": 2, "location": {"lat": 38.67484937592033, "lng": 114.04837902844483}, "feature": {"sight_features": "", "sight_content": ""}}, {"title": "锡林浩特市文化体育会展中心", "address": "广场西街振兴大街交汇西侧", "image": "", "rank": 54, "time": null, "location": {"lat": 39.492537493588955, "lng": 116.01516484209223}, "feature": {"sight_features": "", "sight_content": ""}}, {"title": "铁骑马术俱乐部", "address": "南京路6号", "image": "", "rank": 55, "time": 2, "location": {"lat": 43.93239925983447, "lng": 116.10176875156263}, "feature": {"sight_features": "", "sight_content": ""}}, {"title": "锡林浩特生态植物园", "address": "上海路与阿巴嘎街交汇处", "image": "", "rank": 56, "time": 0.75, "location": {"lat": 43.9293757965879, "lng": 116.06570311213426}, "feature": {"sight_features": "", "sight_content": ""}}, {"title": "锡林郭勒盟图书馆", "address": "锡林大街66号(与杭盖路交汇)", "image": "", "rank": 57, "time": 1.5, "location": {"lat": 43.957534108436654, "lng": 116.09429390200731}, "feature": {"sight_features": "", "sight_content": ""}}, {"title": "科技图书馆", "address": "云衫大道", "image": "", "rank": 58, "time": 2, "location": {"lat": 44.76162069409872, "lng": 115.81570421080886}, "feature": {"sight_features": "", "sight_content": ""}}, {"title": "金钱豹密室逃脱俱乐部", "address": "额尔顿路龙城购物广场三楼A区南厅(入口从南门美天KTV入口步梯上三楼)", "image": "", "rank": 59, "time": 2, "location": {"lat": 43.94845817748383, "lng": 116.08686490915164}, "feature": {"sight_features": "", "sight_content": ""}}, {"title": "莫测密室逃脱", "address": "香榭丽舍院内4号楼(银座和民生中间)", "image": "", "rank": 60, "time": 2, "location": {"lat": 33.07096179556668, "lng": 107.02997862477845}, "feature": {"sight_features": "", "sight_content": ""}}]}