{"cityName": "新宾", "days": 2, "cityImage": "", "spots": [{"title": "赫图阿拉城", "address": "抚顺市新宾满族自治县赫图阿拉城", "image": "", "rank": 1, "time": 2.5, "location": {"lat": 41.71240113917955, "lng": 124.88457163324338}, "feature": {"sight_features": "特色1 重点文物保护单位", "sight_content": "努尔哈赤登基大典——赫图阿拉城是清王朝发祥地，全国重点文物保护单位，国家AAAA级旅游景区。为了让游客进一步感受历史文化的魅力、体验400年前汗王登基的神秘氛围，每逢节假日将举行汗王登基展演。登基大典气势恢宏、盛况空前；满族歌舞舞姿曼妙、余音绕梁；八碟八碗回味无穷、十里飘香；薰衣草园醉人绽放、浪漫幽香。\n皇城有着厚重的清前文化，浓郁的满族风情，是您这个夏天最佳旅游胜地。努尔哈赤登基大典——五月一日至十月三十一日期间每逢节假日均有演出，演出时间为下午14:00。\n赫图阿拉，满语，意为横岗。赫图阿拉城是全国重点文物保护单位、国家AAAA级旅游景区，位于辽宁省新宾满族自治县永陵镇。赫图阿拉城始建于公元1603年，1616年努尔哈赤在此登基称汗，建国号大金，建元天命，史称“后金”。公元1634年，皇太极尊此城为“天眷兴京”，是清代关外三京之首，大清王朝的发祥地、满族崛起的摇篮。\n赫图阿拉城，历经四个世纪风雨的洗礼，成为清前历史的见证。汗宫大衙门、汗王寝宫、罕王井、努尔哈赤出生地（塔克世故居）、正白旗衙门、文庙、关帝庙等一大批古建筑群浓缩着满族先民的智慧和精华，皇家寺庙（地藏寺、显佑宫）长年香火缭绕，康熙、乾隆、嘉庆、道光四位皇帝曾先后九次东巡，并到此谒庙祭天，祈求大清国运昌盛。满族民俗博物馆、满族历史文化长廊的展览，述说着满族历史和努尔哈赤崛起的故事。景区后进宾馆设施齐备，满族特色美食八碟八碗名扬四方，满族歌舞、民俗表演等独具特色，是您访古、休闲、娱乐、度假的理想选择。"}}, {"title": "岗山国家森林公园", "address": "抚顺市新宾满族自治县响水河乡腰堡村北", "image": "", "rank": 2, "time": 2, "location": {"lat": 41.627921909760346, "lng": 124.94583880526247}, "feature": {"sight_features": "", "sight_content": ""}}, {"title": "木奇镇", "address": "抚顺市新宾满族自治县", "image": "", "rank": 3, "time": 2, "location": {"lat": 41.73996877507051, "lng": 125.04635620406488}, "feature": {"sight_features": "", "sight_content": ""}}, {"title": "参仙谷生态旅游度假村", "address": "抚顺市新宾满族自治县", "image": "", "rank": 4, "time": 2, "location": {"lat": 41.73996877507051, "lng": 125.04635620406488}, "feature": {"sight_features": "", "sight_content": "参仙谷生态旅游度假村位于辽宁省抚顺市新宾满族自治县永陵镇，景区内主要景点有参仙石、迎仙台、稻成桥、花海、罕王池、洗墨池、参仙池等，是集旅游观光、休闲度假、餐饮娱乐、拓展训练、动植物科普为一体的旅游景区。"}}, {"title": "三味书屋阅读馆", "address": "新城路112号附近", "image": "", "rank": 5, "time": null, "location": {"lat": 36.61640710456953, "lng": 114.55089424515172}, "feature": {"sight_features": "", "sight_content": ""}}, {"title": "苏子河漂流", "address": "辽宁省新宾满族自治县苏子河中段 113200", "image": "", "rank": 6, "time": 2, "location": {"lat": 41.73996877507051, "lng": 125.04635620406488}, "feature": {"sight_features": "", "sight_content": ""}}, {"title": "观音阁", "address": "抚顺市新宾满族自治县苏水南路47楼", "image": "", "rank": 7, "time": 1.0, "location": {"lat": 41.73535695981156, "lng": 125.0480264459572}, "feature": {"sight_features": "", "sight_content": ""}}, {"title": "花卉园", "address": "新城路与车站街交叉口东北100米", "image": "", "rank": 8, "time": 2, "location": {"lat": 41.98552969872753, "lng": 124.39525395008894}, "feature": {"sight_features": "", "sight_content": ""}}, {"title": "八旗漂流", "address": "新宾满族自治县永陵镇八旗漂流景区（近和睦森林公园）", "image": "", "rank": 9, "time": 2, "location": {"lat": 41.78318241293141, "lng": 124.7266915257617}, "feature": {"sight_features": "", "sight_content": ""}}, {"title": "启运山", "address": "辽宁省新宾满族自治县永陵镇 113206", "image": "", "rank": 10, "time": 2, "location": {"lat": 41.717293769671976, "lng": 124.83919694544228}, "feature": {"sight_features": "", "sight_content": ""}}, {"title": "大清沟", "address": "辽宁省彰武县境内 123200", "image": "", "rank": 11, "time": 1.0, "location": {"lat": 42.392706534363775, "lng": 122.54544932020693}, "feature": {"sight_features": "", "sight_content": ""}}, {"title": "英文根艺奇石馆", "address": "辽宁省抚顺市新宾满族自治县上夹河镇S202(铁长线)", "image": "", "rank": 12, "time": 2, "location": {"lat": 41.78871263547795, "lng": 124.62778285648352}, "feature": {"sight_features": "", "sight_content": ""}}, {"title": "臻宝水族馆", "address": "辽宁省抚顺市新宾满族自治县青年路23号", "image": "", "rank": 13, "time": 2, "location": {"lat": 41.739128599906934, "lng": 125.04679583478146}, "feature": {"sight_features": "", "sight_content": ""}}, {"title": "烈士陵园(中共红庙子乡委员会西...", "address": "辽宁省抚顺市新宾满族自治县彰桓线县红庙子乡政府西北400米", "image": "", "rank": 14, "time": 2, "location": {"lat": 41.54540591196028, "lng": 125.15056294000355}, "feature": {"sight_features": "", "sight_content": ""}}, {"title": "中华满族风情园", "address": "满族历史文化长廊附近", "image": "", "rank": 15, "time": 1.5, "location": {"lat": 31.336821103962762, "lng": 118.37960842465743}, "feature": {"sight_features": "", "sight_content": ""}}, {"title": "天湖度假村", "address": "永陵满族博物馆对面", "image": "", "rank": 16, "time": 2, "location": {"lat": 43.846338077775165, "lng": 126.5446768261237}, "feature": {"sight_features": "", "sight_content": ""}}, {"title": "兴京公园", "address": "辽宁省抚顺市新宾满族自治县兴京街22号", "image": "", "rank": 17, "time": null, "location": {"lat": 41.74159048972236, "lng": 125.04557054606585}, "feature": {"sight_features": "", "sight_content": ""}}, {"title": "世纪星度假村", "address": "437县道附近", "image": "", "rank": 18, "time": 2, "location": {"lat": 29.156534776700084, "lng": 108.75612205599036}, "feature": {"sight_features": "", "sight_content": ""}}, {"title": "新宾满族自治县档案馆", "address": "兴京街26-1号", "image": "", "rank": 19, "time": 2.5, "location": {"lat": 41.74090219285464, "lng": 125.0466890864428}, "feature": {"sight_features": "", "sight_content": ""}}, {"title": "八旗第一漂", "address": "大河胜村", "image": "", "rank": 20, "time": 2, "location": {"lat": 21.95532810168257, "lng": 111.15242567938799}, "feature": {"sight_features": "", "sight_content": ""}}, {"title": "老游灵芝种植园", "address": "抚顺市-新宾满族自治县-新宾镇沈通线西苑山庄东侧50米", "image": "", "rank": 21, "time": 2, "location": {"lat": 41.733729550729365, "lng": 124.99345847621105}, "feature": {"sight_features": "", "sight_content": ""}}, {"title": "和睦国家森林公园-休憩区", "address": "抚顺市-新宾满族自治县-永陵镇和睦国家森林公园和睦国家森林公园内", "image": "", "rank": 22, "time": 2, "location": {"lat": 41.784591669223694, "lng": 124.72695717715864}, "feature": {"sight_features": "", "sight_content": ""}}, {"title": "满族历史文化长廊", "address": "辽宁省抚顺市新宾满族自治县 ‎ 北 0.1 米", "image": "", "rank": 23, "time": 2, "location": {"lat": 41.73997550342466, "lng": 125.04635620406488}, "feature": {"sight_features": "", "sight_content": ""}}, {"title": "夹扁石", "address": "辽宁省抚顺市新宾满族自治县 ‎ 东南 171 米", "image": "", "rank": 24, "time": 2, "location": {"lat": 41.73996877507051, "lng": 125.04789230648694}, "feature": {"sight_features": "", "sight_content": ""}}]}