{"cityName": "新蔡", "days": 2, "cityImage": "", "spots": [{"title": "新蔡文庙", "address": "河南省驻马店市新蔡县古吕街道新蔡县安全生产监督管理局", "image": "", "rank": 1, "time": 1.0, "location": {"lat": 32.75535297626862, "lng": 114.9922580921994}, "feature": {"sight_features": "", "sight_content": ""}}, {"title": "子路问津处", "address": "", "image": "", "rank": 2, "time": 1.0, "location": {"lat": 30.60580900007902, "lng": 109.7322472319553}, "feature": {"sight_features": "", "sight_content": ""}}, {"title": "信阳野生山茶油", "address": "永康路附近", "image": "", "rank": 3, "time": 7.5, "location": {"lat": 38.08863243185495, "lng": 114.3934686703767}, "feature": {"sight_features": "", "sight_content": ""}}, {"title": "新蔡县关津许埠基督教堂", "address": "河南省驻马店市新蔡县关津乡许埠村", "image": "", "rank": 4, "time": 2, "location": {"lat": 32.674228473269466, "lng": 114.91876795019093}, "feature": {"sight_features": "", "sight_content": ""}}, {"title": "新蔡县关津牛湾基督教堂", "address": "河南省驻马店市新蔡县关津乡牛津村", "image": "", "rank": 5, "time": 2, "location": {"lat": 32.696731639099, "lng": 114.96545786056379}, "feature": {"sight_features": "", "sight_content": ""}}, {"title": "新蔡县关津街基督教堂", "address": "河南省驻马店市新蔡县关津乡", "image": "", "rank": 6, "time": 2, "location": {"lat": 32.696731639099, "lng": 114.96545786056379}, "feature": {"sight_features": "", "sight_content": ""}}, {"title": "新蔡县顿岗街基督教堂", "address": "河南省驻马店市新蔡县顿岗乡方庄顿蛟线南500米", "image": "", "rank": 7, "time": 2, "location": {"lat": 32.7217971431168, "lng": 115.06943164791761}, "feature": {"sight_features": "", "sight_content": ""}}, {"title": "新蔡县余店街基督教堂", "address": "河南省驻马店市新蔡县余店乡", "image": "", "rank": 8, "time": 2, "location": {"lat": 32.76155546269857, "lng": 114.74270062987958}, "feature": {"sight_features": "", "sight_content": ""}}, {"title": "新蔡县陈店大刘庄基督教堂", "address": "陈店镇大刘庄村", "image": "", "rank": 9, "time": 2, "location": {"lat": 32.778730256236635, "lng": 114.8423754935713}, "feature": {"sight_features": "", "sight_content": ""}}, {"title": "东湖公园", "address": "河南省驻马店市新蔡县S335", "image": "", "rank": 10, "time": 2.5, "location": {"lat": 32.75526886730577, "lng": 114.9924692838248}, "feature": {"sight_features": "", "sight_content": ""}}, {"title": "问津公园", "address": "河南省驻马店市新蔡县新正路问津园(家乐福超市西150米)", "image": "", "rank": 11, "time": 2, "location": {"lat": 32.75055685301921, "lng": 114.97782133182308}, "feature": {"sight_features": "", "sight_content": ""}}, {"title": "新蔡县涧头魏庄基督教堂", "address": "涧头乡魏庄村", "image": "", "rank": 12, "time": 2, "location": {"lat": 32.77963557972904, "lng": 115.07588939734741}, "feature": {"sight_features": "", "sight_content": ""}}, {"title": "新蔡县涧头赵庄基督教堂", "address": "河南省驻马店市新蔡县涧头乡赵庄村", "image": "", "rank": 13, "time": 2, "location": {"lat": 32.77963557972904, "lng": 115.07588939734741}, "feature": {"sight_features": "", "sight_content": ""}}, {"title": "西湖公园", "address": "河南省驻马店市新蔡县周寺新社区鹏飞大厦附近", "image": "", "rank": 14, "time": 1.5, "location": {"lat": 32.75526886730577, "lng": 114.9924692838248}, "feature": {"sight_features": "", "sight_content": ""}}, {"title": "新蔡县杨庄户魏营基督教堂", "address": "杨庄户乡魏营村", "image": "", "rank": 15, "time": 2, "location": {"lat": 32.764883523686414, "lng": 115.16068373594425}, "feature": {"sight_features": "", "sight_content": ""}}, {"title": "新蔡县弥陀寺小曹庄基督教堂", "address": "河南省驻马店市新蔡县弥陀寺乡小曹庄村", "image": "", "rank": 16, "time": 2, "location": {"lat": 32.9114495960346, "lng": 114.8389097006595}, "feature": {"sight_features": "", "sight_content": ""}}, {"title": "新蔡天街水世界", "address": "蔡州大道与新正路交叉口南", "image": "", "rank": 17, "time": 2, "location": {"lat": 32.751059765720115, "lng": 114.97314405176154}, "feature": {"sight_features": "特色1 园内有大型人工造浪池、四彩高速滑梯、大喇叭滑梯、环流河、大型儿童水寨、亲子戏水池等十几项国内先进的水上游乐设备，另有美食餐厅、泳衣超市等相关配套服务项目是您全家夏季消暑玩水的理想去处！", "sight_content": "园内有大型人工造浪池、四彩高速滑梯、大喇叭滑梯、环流河、大型儿童水寨、亲子戏水池等十几项国内先进的水上游乐设备，\n另有美食餐厅、泳衣超市等相关配套服务项目是您全家夏季消暑玩水的理想去处！"}}, {"title": "新蔡城市规划展览馆", "address": "河南新蔡县开元大道附近", "image": "", "rank": 18, "time": 1.5, "location": {"lat": 32.76247830150697, "lng": 114.95755776485801}, "feature": {"sight_features": "", "sight_content": ""}}, {"title": "蔡州音乐啤酒广场", "address": "河南省驻马店市新蔡县人民路", "image": "", "rank": 19, "time": 2, "location": {"lat": 32.76284435617095, "lng": 114.94238675740529}, "feature": {"sight_features": "", "sight_content": ""}}, {"title": "北湖生态园", "address": "335省道附近", "image": "", "rank": 20, "time": 7.5, "location": {"lat": 38.65605367468026, "lng": 115.46499190580862}, "feature": {"sight_features": "", "sight_content": ""}}, {"title": "科迪食文化广场", "address": "得月路与置业路交叉口西北100米", "image": "", "rank": 21, "time": 2, "location": {"lat": 32.76052225422619, "lng": 114.9449994358624}, "feature": {"sight_features": "", "sight_content": ""}}, {"title": "新蔡(洪汝堂)杨氏祠堂", "address": "河南省新蔡县杨庄户乡杨张庄", "image": "", "rank": 22, "time": 2, "location": {"lat": 32.738646379095464, "lng": 115.15045717628973}, "feature": {"sight_features": "", "sight_content": ""}}, {"title": "新蔡县陈店三庙基督教堂", "address": "河南省驻马店市新蔡县陈店镇三庙村", "image": "", "rank": 23, "time": 2, "location": {"lat": 32.78870191330819, "lng": 114.79908599923182}, "feature": {"sight_features": "", "sight_content": ""}}, {"title": "新蔡县陈店大陈庄基督教堂", "address": "陈店镇大陈庄村", "image": "", "rank": 24, "time": 2, "location": {"lat": 32.76100921204417, "lng": 114.80541929561966}, "feature": {"sight_features": "", "sight_content": ""}}, {"title": "新蔡县涧头街基督教堂", "address": "河南省驻马店市新蔡县涧头街", "image": "", "rank": 25, "time": 2, "location": {"lat": 32.75526886730577, "lng": 114.9924692838248}, "feature": {"sight_features": "", "sight_content": ""}}, {"title": "龚庄基督教堂", "address": "龚庄村", "image": "", "rank": 26, "time": 2, "location": {"lat": 39.72173357344465, "lng": 118.56755653781313}, "feature": {"sight_features": "", "sight_content": ""}}, {"title": "水韵天街游乐园", "address": "河南省驻马店市新蔡县古吕街道英豪幼儿园西南450米", "image": "", "rank": 27, "time": 2, "location": {"lat": 32.74571248634476, "lng": 114.97649976811275}, "feature": {"sight_features": "", "sight_content": ""}}, {"title": "金粟禅林寺", "address": "驻马店市新蔡县", "image": "", "rank": 28, "time": 2, "location": {"lat": 32.75526886730577, "lng": 114.9924692838248}, "feature": {"sight_features": "", "sight_content": ""}}, {"title": "新蔡县黄楼前李庄基督教堂", "address": "黄楼镇前李庄村", "image": "", "rank": 29, "time": 2, "location": {"lat": 32.80854253453019, "lng": 114.71893448978192}, "feature": {"sight_features": "", "sight_content": ""}}, {"title": "新蔡县余店李老庄基督教堂", "address": "余店李老庄村", "image": "", "rank": 30, "time": 2, "location": {"lat": 32.954619864588004, "lng": 115.77049220254237}, "feature": {"sight_features": "", "sight_content": ""}}, {"title": "新蔡县李桥街基督教堂", "address": "新蔡县李桥镇李桥村", "image": "", "rank": 31, "time": 2, "location": {"lat": 32.85637085497664, "lng": 114.86273606495516}, "feature": {"sight_features": "", "sight_content": ""}}, {"title": "新蔡县河坞孙湾基督教堂", "address": "河南省驻马店市新蔡县河坞乡孙湾村", "image": "", "rank": 32, "time": 2, "location": {"lat": 32.678983237222354, "lng": 114.88000670523229}, "feature": {"sight_features": "", "sight_content": ""}}, {"title": "新蔡县顿岗愰庄基督教堂", "address": "顿岗乡愰庄村", "image": "", "rank": 33, "time": 2, "location": {"lat": 32.70901769436328, "lng": 115.16847701683676}, "feature": {"sight_features": "", "sight_content": ""}}, {"title": "新蔡县河坞周庄基督教堂", "address": "005乡道北", "image": "", "rank": 34, "time": 2, "location": {"lat": 42.08321631584341, "lng": 117.86149951990792}, "feature": {"sight_features": "", "sight_content": ""}}, {"title": "九龙广场", "address": "河南省驻马店市新蔡县X002(小练线)", "image": "", "rank": 35, "time": 2, "location": {"lat": 32.70397954315873, "lng": 115.12051210372476}, "feature": {"sight_features": "", "sight_content": ""}}, {"title": "月亮湾公园", "address": "河南省驻马店市新蔡县", "image": "", "rank": 36, "time": 1.0, "location": {"lat": 32.75526886730577, "lng": 114.9924692838248}, "feature": {"sight_features": "", "sight_content": ""}}, {"title": "李桥回族镇清真寺", "address": "河南省驻马店市新蔡县高蛟线李桥回族镇地税所北400米", "image": "", "rank": 37, "time": 2, "location": {"lat": 32.86008980023072, "lng": 114.85661845172028}, "feature": {"sight_features": "", "sight_content": ""}}, {"title": "塔桥生态农庄", "address": "106国道", "image": "", "rank": 38, "time": 2, "location": {"lat": 39.1725896711994, "lng": 116.39041588203045}, "feature": {"sight_features": "", "sight_content": ""}}, {"title": "陈店镇烈士纪念馆", "address": "003乡道", "image": "", "rank": 39, "time": 2, "location": {"lat": 40.96482298415481, "lng": 116.62729781702801}, "feature": {"sight_features": "", "sight_content": ""}}, {"title": "悦享游乐园", "address": "喜盈门五楼", "image": "", "rank": 40, "time": 2, "location": {"lat": 37.229430779712615, "lng": 115.04705135427255}, "feature": {"sight_features": "", "sight_content": ""}}]}