{"cityName": "信丰", "days": 2, "cityImage": "", "spots": [{"title": "信丰玉带桥", "address": "赣州市信丰县", "image": "", "rank": 1, "time": 2, "location": {"lat": 25.391975120013715, "lng": 114.92952113897391}, "feature": {"sight_features": "", "sight_content": ""}}, {"title": "陈毅广场", "address": "陈毅广场海信置业", "image": "", "rank": 2, "time": 2.0, "location": {"lat": 25.3893293307063, "lng": 114.93576723684383}, "feature": {"sight_features": "", "sight_content": ""}}, {"title": "仙水缘漂流", "address": "崇仙乡寨下村水口组", "image": "", "rank": 3, "time": 2, "location": {"lat": 25.152847751323854, "lng": 114.80252346074623}, "feature": {"sight_features": "", "sight_content": ""}}, {"title": "张笃孝美术馆", "address": "嘉定镇大圣寺塔旁", "image": "", "rank": 4, "time": 2, "location": {"lat": 25.38995170605476, "lng": 114.94053003199512}, "feature": {"sight_features": "", "sight_content": ""}}, {"title": "老区红军博物馆", "address": "105国道", "image": "", "rank": 5, "time": 2, "location": {"lat": 23.06304361021549, "lng": 113.30920536063348}, "feature": {"sight_features": "", "sight_content": ""}}, {"title": "百石圩", "address": "江西省信丰县新田镇 341613", "image": "", "rank": 6, "time": 2, "location": {"lat": 25.41606336386401, "lng": 115.24166902214117}, "feature": {"sight_features": "", "sight_content": ""}}, {"title": "儿童乐园", "address": "赣州市信丰县", "image": "", "rank": 7, "time": 2, "location": {"lat": 25.391975120013715, "lng": 114.92952113897391}, "feature": {"sight_features": "", "sight_content": ""}}, {"title": "嘟嘟儿童乐园", "address": "八一路", "image": "", "rank": 8, "time": 2.5, "location": {"lat": 30.98511389875592, "lng": 112.19800604066668}, "feature": {"sight_features": "", "sight_content": ""}}, {"title": "喜洋洋儿童乐园环游超市店", "address": "西河北路86附近", "image": "", "rank": 9, "time": 2, "location": {"lat": 30.805993061675682, "lng": 106.08564120153574}, "feature": {"sight_features": "", "sight_content": ""}}, {"title": "润意水上乐园", "address": "江西省赣州市信丰县", "image": "", "rank": 10, "time": 2, "location": {"lat": 25.391975120013715, "lng": 114.92952113897391}, "feature": {"sight_features": "", "sight_content": ""}}, {"title": "赣州赣粤水上乐园", "address": "工业园工业大道19号", "image": "", "rank": 11, "time": 1.5, "location": {"lat": 31.792966385569592, "lng": 119.84606668476911}, "feature": {"sight_features": "", "sight_content": ""}}, {"title": "采茶小剧院", "address": "江西省赣州市信丰县解放东路", "image": "", "rank": 12, "time": 2, "location": {"lat": 25.38806989954779, "lng": 114.95271094870635}, "feature": {"sight_features": "", "sight_content": ""}}, {"title": "嘉昱山庄", "address": "325省道附近", "image": "", "rank": 13, "time": 2, "location": {"lat": 40.38011571404755, "lng": 115.90477371737859}, "feature": {"sight_features": "", "sight_content": ""}}, {"title": "赣粤边三年游击战争纪念馆", "address": "赣州市信丰县阳明北路76号", "image": "", "rank": 14, "time": 2, "location": {"lat": 25.392551564131075, "lng": 114.93966092410942}, "feature": {"sight_features": "", "sight_content": ""}}, {"title": "海底世界水族宠物馆", "address": "广场路梅子店旁", "image": "", "rank": 15, "time": 2, "location": {"lat": 22.82584607892539, "lng": 113.67692837390364}, "feature": {"sight_features": "", "sight_content": ""}}, {"title": "臻齐文化艺术品", "address": "市政大道国土资源局旁", "image": "", "rank": 16, "time": 2, "location": {"lat": 25.392386239497014, "lng": 114.93231235385359}, "feature": {"sight_features": "", "sight_content": ""}}, {"title": "轻舞飞扬舞蹈艺术中心", "address": "南山东路与花园路交叉口西南150米", "image": "", "rank": 17, "time": 2, "location": {"lat": 25.383772883990474, "lng": 114.9461043770049}, "feature": {"sight_features": "", "sight_content": ""}}, {"title": "太平山乡村休闲旅游", "address": "正平镇黄泥寨", "image": "", "rank": 18, "time": 2, "location": {"lat": 25.30269195155223, "lng": 114.80827344424588}, "feature": {"sight_features": "", "sight_content": ""}}, {"title": "渔具", "address": "中心路顺丰宾馆西南100米", "image": "", "rank": 19, "time": 2, "location": {"lat": 25.258968012382148, "lng": 114.93559983940871}, "feature": {"sight_features": "", "sight_content": ""}}, {"title": "信丰县博物馆", "address": "江西省信丰县圣塔广场", "image": "", "rank": 20, "time": 2, "location": {"lat": 25.38996922522789, "lng": 114.94051291837685}, "feature": {"sight_features": "", "sight_content": ""}}, {"title": "赣丰渔网渔具", "address": "S325加油站西北侧", "image": "", "rank": 21, "time": 2, "location": {"lat": 24.09701218694945, "lng": 108.252842276359}, "feature": {"sight_features": "", "sight_content": ""}}, {"title": "景佳葡萄园", "address": "325省道附近", "image": "", "rank": 22, "time": 2, "location": {"lat": 40.38011571404755, "lng": 115.90477371737859}, "feature": {"sight_features": "", "sight_content": ""}}, {"title": "小乌洋", "address": "赣州市-信丰县", "image": "", "rank": 23, "time": 2, "location": {"lat": 25.391975120013715, "lng": 114.92952113897391}, "feature": {"sight_features": "", "sight_content": ""}}, {"title": "大阿七月葡萄庄园", "address": "赣州市-信丰县-X369", "image": "", "rank": 24, "time": 2, "location": {"lat": 25.391975120013715, "lng": 114.92952113897391}, "feature": {"sight_features": "", "sight_content": ""}}, {"title": "九仔岗", "address": "赣州市-信丰县", "image": "", "rank": 25, "time": 2, "location": {"lat": 25.391975120013715, "lng": 114.92952113897391}, "feature": {"sight_features": "", "sight_content": ""}}, {"title": "大圣寺塔", "address": "赣州市信丰县嘉定镇", "image": "", "rank": 26, "time": 1.0, "location": {"lat": 25.404012816368276, "lng": 114.97792951046628}, "feature": {"sight_features": "", "sight_content": ""}}]}