{"cityName": "兴海", "days": 2, "cityImage": "", "spots": [{"title": "赛宗寺", "address": "海南藏族自治州兴海县曲什安镇", "image": "", "rank": 1, "time": 0.75, "location": {"lat": 35.33169591403372, "lng": 100.24092694274702}, "feature": {"sight_features": "", "sight_content": ""}}, {"title": "幸福广场", "address": "青海省海南藏族自治州兴海县", "image": "", "rank": 2, "time": 2, "location": {"lat": 35.594629879948684, "lng": 99.994380072293}, "feature": {"sight_features": "", "sight_content": ""}}, {"title": "兴海县图书馆", "address": "东大街5号", "image": "", "rank": 3, "time": 2, "location": {"lat": 22.61729942596652, "lng": 114.14733751642652}, "feature": {"sight_features": "", "sight_content": ""}}, {"title": "兴海步行街", "address": "青海省兴海县东大街", "image": "", "rank": 4, "time": 3.0, "location": {"lat": 35.59451720454741, "lng": 99.99840244721403}, "feature": {"sight_features": "", "sight_content": ""}}, {"title": "云洛岗", "address": "海南藏族自治州-兴海县", "image": "", "rank": 5, "time": 2, "location": {"lat": 35.594629879948684, "lng": 99.994380072293}, "feature": {"sight_features": "", "sight_content": ""}}, {"title": "乃亥青洛布", "address": "海南藏族自治州-兴海县", "image": "", "rank": 6, "time": 2, "location": {"lat": 35.594629879948684, "lng": 99.994380072293}, "feature": {"sight_features": "", "sight_content": ""}}, {"title": "敲格龙哇", "address": "海南藏族自治州-兴海县", "image": "", "rank": 7, "time": 2, "location": {"lat": 35.594629879948684, "lng": 99.994380072293}, "feature": {"sight_features": "", "sight_content": ""}}, {"title": "却格龙洼", "address": "海南藏族自治州-兴海县", "image": "", "rank": 8, "time": 2, "location": {"lat": 35.594629879948684, "lng": 99.994380072293}, "feature": {"sight_features": "", "sight_content": ""}}]}