{"cityName": "兴化", "days": 2, "cityImage": "", "spots": [{"title": "李中水上森林公园", "address": "兴化市李中镇舜川路东", "image": "", "rank": 1, "time": 12.0, "location": {"lat": 33.03000730223669, "lng": 119.69970702565612}, "feature": {"sight_features": "特色1 苏中九寨沟，华东鸟天堂 特色2 都市人回归自然休闲的好去处。 特色3 水上生态森林、水上森林内木筏漂流、野鸭放飞表演！", "sight_content": "李中水上森林公园位于兴化市李中镇，是都市人回归自然休闲的好去处。李中水上森林占地面积1550亩，其中森林面积1050亩,水面面积500亩。园内水系丰富，河道纵横，形“成河流回环，水杉林立”的景观。这里是野生动物的天堂，猫头鹰、野鸭、白鹭、黑杜鹃、草鹦鹉、山喜等在此筑巢生息。  林中乌平时有3万多只，多时有6万多只。黄昏时分，百鸟归巢，  遮天蔽月，景象蔚为壮观。\n水上森林公园现开辟的景点，有林间“木筏漂流”，游客乘一片木筏，缓缓划行于密林的沟汊间，会蓦然惊起林间水滩上栖息的水鸟，扑楞楞的飞起而去，令游人领略无限野趣；有“好汉道”，乃长长的木质甬道，笔直地铺向密林深处。下午三点,前往千岛油菜花, 被称为“千岛之乡”的垛田，像青螺散落银盘，点缀在兴化城东的梓辛河、车路河、白涂河之中；亭亭玉立、风姿绰约的装点着古老的水乡泽国，使这里的水更明，土更绿，天更蓝。\n李中水上森林公园位于兴化市李中镇，是都市人回归自然休闲的好去处。\n李中水上森林占地面积1550亩，其中森林面积1050亩，水面面积500亩。园内水系丰富，河道纵横，形成“河流回环，水杉林立”的景观。这里是野生动物的天堂，猫头鹰、野鸭、白鹭、黑杜鹃、草鹦鹉、山喜等在此筑巢生息。\n林中鸟平时有3万多只，多时有6万多只。黄昏时分，百鸟归巢，遮天蔽日，景象蔚为壮观。\n兴化李中水上森林公园主要项目大致可分为7个功能区，即南端正门特别功能区；水上森林休闲游乐功能区；水上项目浏览参与功能区；苏宋村“桃花源”吃住购物生活功能区；苇荡大水面湿地观光功能区；万亩荷藕观赏区；旅游产品经营区；以及李中河十里画廊观光带，在这八大项目之中，拟设立众多二级项目，如水上游船、木伐、垂钓、狩猎、赏鸟、品蟹、野外生存、野外自助过夜、观赏鱼类、锦（野）鸡、鸭养殖、鹅鸭养殖、特种蔬菜种植、观光风车、天然氧吧、沙滩浴场、森林酒吧、水上酒家、森林迷宫、小型水上游乐园、十里荷塘、百亩梅海、农家茶园、休闲亭阁等等，目前该公司已投资1200多万元，新建公园门楼2处。铺设林间栈道5条220米，新建情水平台8处，休闲木屋12处，购置小游艇10艘、木伐12座，增设野鸭放飞、森林水路迷宫等景点。"}}, {"title": "千垛景区", "address": "泰州市兴化市缸顾乡迎春西路53号附近", "image": "", "rank": 2, "time": 2.5, "location": {"lat": 33.06833825967202, "lng": 119.82512903384088}, "feature": {"sight_features": "", "sight_content": ""}}, {"title": "郑板桥故居纪念馆", "address": "泰州市兴化市郑家巷7-8号", "image": "", "rank": 3, "time": 1.0, "location": {"lat": 32.917824213889254, "lng": 119.85751406137442}, "feature": {"sight_features": "", "sight_content": ""}}, {"title": "施耐庵陵园", "address": "江苏省兴化市新垛镇施家桥村", "image": "", "rank": 4, "time": 1.0, "location": {"lat": 33.088716647298064, "lng": 120.2197352131277}, "feature": {"sight_features": "", "sight_content": ""}}, {"title": "拱极台公园", "address": "泰州市兴化市英武路106号(近拱极路)", "image": "", "rank": 5, "time": 1.0, "location": {"lat": 32.944378191763136, "lng": 119.84639115271932}, "feature": {"sight_features": "", "sight_content": ""}}, {"title": "张郭镇", "address": "泰州市兴化市张郭镇", "image": "", "rank": 6, "time": 1.0, "location": {"lat": 32.78026536238131, "lng": 120.14119817337424}, "feature": {"sight_features": "", "sight_content": ""}}, {"title": "乌巾荡风景区", "address": "泰州市兴化市英武北路乌巾走廊", "image": "", "rank": 7, "time": 1.0, "location": {"lat": 32.958154143378934, "lng": 119.8389060642778}, "feature": {"sight_features": "", "sight_content": ""}}, {"title": "上方寺", "address": "泰州市兴化市乌巾荡公园北首", "image": "", "rank": 8, "time": 1.0, "location": {"lat": 32.962289594506906, "lng": 119.83909479377391}, "feature": {"sight_features": "", "sight_content": ""}}, {"title": "徐马荒原", "address": "泰州市兴化市西郊镇西部", "image": "", "rank": 9, "time": 2, "location": {"lat": 32.96722489046489, "lng": 119.76462914587994}, "feature": {"sight_features": "", "sight_content": ""}}, {"title": "兴化县署", "address": "泰州市兴化市城内东大街35号", "image": "", "rank": 10, "time": 12.0, "location": {"lat": 32.94085427131717, "lng": 119.85049573517078}, "feature": {"sight_features": "", "sight_content": "兴化县署始建于北宋淳化年间。北宋天圣年间范仲淹任职兴化，筑海堤、建学馆、兴城市，实践其先天下之忧而忧，后天下之乐而乐的平生抱负。二零零九年兴化市对宋县署进行移址重建，按照修旧如旧的原则复建了正门、谯楼、仪门、大堂、两庑及当年范仲淹所建梅岭、梅亭。在两庑设立了范仲淹纪念馆。"}}, {"title": "万亩荷塘", "address": "泰州市兴化市李中镇与周奋乡交界处", "image": "", "rank": 11, "time": 2, "location": {"lat": 33.10381571815929, "lng": 119.72746272557454}, "feature": {"sight_features": "特色1 以“荷文化”为主题打造的生态旅游度假景区", "sight_content": "万亩荷塘景区全新策划的《荷塘聆风节》，通过风车、风铃、许愿瓶自身的寓意，打造出天空之城、聆风知音、风车物语三大活动主题场景，营造出一个聆听风声，为春许愿的场景，融入祈福、许愿等互动环节。坐上木筏穿行于由上万种风车和风铃打造出的“聆风水道”，感受里下河地区别样风情。\n荷塘聆风——许一个春天的愿望。\n“江南可采莲，莲叶何田田。” 万亩荷塘景区是以“荷文化”为主题打造的生态旅游度假景区。景区位于江苏省兴化市李中镇与周奋乡交界处，一期规划总面积2000余亩，引进了荷花一百余种。\n这里是荷花的世界，放眼望去，看不到边际的绿色滋润了双眼，出水的荷花娇滴滴的像是女子的面庞，荷叶犹如亭亭的少女的裙子，在清风里，一场盛大的舞会在心中悸动开展。\n漫步在景区的浮桥栈道上，随处可见不同品种、颜色各异的荷花、睡莲。初夏游览，湖水清清，小荷初露尖角，叶儿覆水含露，清丽可人；盛夏观赏，微风轻拂，碧波荡漾，荷红叶绿天蓝水清，满湖的荷花亭亭玉立，风随荷动，荷随风摆，花叶相依，情景怡人；秋天光顾，划着小舟穿行荷叶之中，船在水上走，人在画中游，别有情趣，形成兴化独有的“万亩荷塘绿，千垛菜花黄”自然景观。"}}, {"title": "成家大司马府", "address": "泰州市兴化市板桥街与牌楼东路交叉口西北50米", "image": "", "rank": 12, "time": 2, "location": {"lat": 32.93983208212841, "lng": 119.85448510544907}, "feature": {"sight_features": "", "sight_content": ""}}, {"title": "李园船厅", "address": "泰州市兴化市城中武安街13号", "image": "", "rank": 13, "time": 2, "location": {"lat": 32.94102040506913, "lng": 119.85048265674088}, "feature": {"sight_features": "", "sight_content": "李园船厅建于清咸丰年间，是扬州富商李小波家花园的一部分。大门朝东，有门楼隐壁二门、南北耳房、前庭井、坐北朝南花厅。"}}, {"title": "兴化博物馆", "address": "位于兴化城区牌楼北路", "image": "", "rank": 14, "time": 2.5, "location": {"lat": 32.917824213889254, "lng": 119.85751406137442}, "feature": {"sight_features": "", "sight_content": ""}}, {"title": "乌巾荡柏兹温泉", "address": "泰州市兴化市长安北路519号（乌巾荡风景区内）", "image": "", "rank": 15, "time": 2, "location": {"lat": 32.957098101366476, "lng": 119.84103934762662}, "feature": {"sight_features": "特色1 具有野趣的自然岛屿温泉", "sight_content": "乌巾荡柏兹温泉度假酒店坐落于“板桥故里、水浒摇篮”美丽的水乡—泰州兴化市，是一个精心打造的综合型露天温泉度假酒店。\n包括：体育养生度假区、滨水休闲度假区、温泉体验度假区（乌巾荡柏兹温泉）、五星级乌巾荡柏兹酒店。\n其中，乌巾荡柏兹温泉是以纯山地露天式温泉为主题，汤池项目近四十余种，是具有野趣的纯自然岛屿温泉。"}}, {"title": "赵海仙洋楼", "address": "泰兴市兴化市城东门家舒巷15号内", "image": "", "rank": 16, "time": 2, "location": {"lat": 32.17747402371212, "lng": 120.05859939046078}, "feature": {"sight_features": "", "sight_content": ""}}, {"title": "状元坊", "address": "泰州兴化古城城外东大街中段", "image": "", "rank": 17, "time": 2, "location": {"lat": 32.917824213889254, "lng": 119.85751406137442}, "feature": {"sight_features": "", "sight_content": ""}}, {"title": "上池斋药店", "address": "泰州市兴化古城牌楼东路82号附近", "image": "", "rank": 18, "time": 2, "location": {"lat": 32.93978611841874, "lng": 119.85461600023984}, "feature": {"sight_features": "", "sight_content": ""}}, {"title": "1991真人机械密室", "address": "丰收南路123号思远教育楼上(一中西门向南100米)", "image": "", "rank": 19, "time": 2, "location": {"lat": 32.9369964627252, "lng": 119.84425792506545}, "feature": {"sight_features": "", "sight_content": ""}}, {"title": "迷城密室逃脱", "address": "英武中路14号", "image": "", "rank": 20, "time": 2, "location": {"lat": 32.93929280457037, "lng": 119.84838046823728}, "feature": {"sight_features": "", "sight_content": ""}}, {"title": "水乡垂钓中心", "address": "张帅路", "image": "", "rank": 21, "time": 2, "location": {"lat": 32.734113752235594, "lng": 120.10171390746319}, "feature": {"sight_features": "", "sight_content": ""}}, {"title": "桃花岛生态温泉", "address": "泰州市兴化市临城镇兴泰公路东侧桃花岛", "image": "", "rank": 22, "time": 4.5, "location": {"lat": 32.86124635581263, "lng": 119.8734834180864}, "feature": {"sight_features": "", "sight_content": "位于泰州市兴化市的桃花岛生态温泉，有药浴、玫瑰浴、硫磺泉、碳酸泉、酒浴、铁泉等不同主题的温泉泡池，水温在39-42摄氏度的，另有汗蒸，桑拿，水疗SAP等特色项目，是休闲养生的好去处。"}}, {"title": "舒雅画廊", "address": "护国路168号附近", "image": "", "rank": 23, "time": 2, "location": {"lat": 26.581256247746186, "lng": 106.72524122411376}, "feature": {"sight_features": "", "sight_content": ""}}, {"title": "东方名墅", "address": "人民路152号", "image": "", "rank": 24, "time": 1.5, "location": {"lat": 32.72996234349155, "lng": 120.12957360331218}, "feature": {"sight_features": "", "sight_content": ""}}, {"title": "兴化市合陈镇科普活动中心", "address": "江苏省兴化市新城路", "image": "", "rank": 25, "time": 12.0, "location": {"lat": 33.01812388759176, "lng": 120.24656210647086}, "feature": {"sight_features": "", "sight_content": ""}}, {"title": "兴化市游乐园-儿童碰碰船", "address": "江苏省泰州市兴化市昭阳镇S233(旧)乌巾荡湿地公园", "image": "", "rank": 26, "time": 12.0, "location": {"lat": 32.96184772038099, "lng": 119.83964215557538}, "feature": {"sight_features": "", "sight_content": ""}}, {"title": "普陀寺", "address": "江苏省泰州市兴化市西鲍乡高垛村S231", "image": "", "rank": 27, "time": 1.0, "location": {"lat": 32.96434809998725, "lng": 119.88251754724425}, "feature": {"sight_features": "", "sight_content": ""}}, {"title": "明城墙遗址", "address": "府前街与板桥路交叉口西北150米", "image": "", "rank": 28, "time": 1.5, "location": {"lat": 32.940851767685714, "lng": 119.85411308928991}, "feature": {"sight_features": "", "sight_content": ""}}, {"title": "玉皇阁", "address": "戴窑青龙路", "image": "", "rank": 29, "time": 1.0, "location": {"lat": 39.95282546202002, "lng": 116.43430837202824}, "feature": {"sight_features": "", "sight_content": ""}}, {"title": "亲亲宝贝游乐园", "address": "政通路66号附近", "image": "", "rank": 30, "time": 2, "location": {"lat": 44.92064226051181, "lng": 127.15686907934179}, "feature": {"sight_features": "", "sight_content": ""}}, {"title": "迪乐尼儿童乐园", "address": "戴南镇戴泽路142号戴南商城1层", "image": "", "rank": 31, "time": 2, "location": {"lat": 32.72932335253048, "lng": 120.14116164018746}, "feature": {"sight_features": "", "sight_content": ""}}, {"title": "儿童乐园", "address": "泰州市兴化市戴南镇戴泽路142号戴南商城1层", "image": "", "rank": 32, "time": 2, "location": {"lat": 32.72932335253048, "lng": 120.14116164018746}, "feature": {"sight_features": "", "sight_content": ""}}, {"title": "兴化市安丰镇观音禅寺", "address": "泰州市兴化市安丰镇汪家垛振安北路13-1", "image": "", "rank": 33, "time": 12.0, "location": {"lat": 33.09685842314663, "lng": 120.10789463025336}, "feature": {"sight_features": "", "sight_content": ""}}, {"title": "儿童乐园", "address": "同心路与张帅路交叉口北100米", "image": "", "rank": 34, "time": 2, "location": {"lat": 32.73486741212534, "lng": 120.10145539579845}, "feature": {"sight_features": "", "sight_content": ""}}, {"title": "基督教会", "address": "泰州市兴化市护国路", "image": "", "rank": 35, "time": 2, "location": {"lat": 32.722339071295394, "lng": 120.13726342995234}, "feature": {"sight_features": "", "sight_content": ""}}, {"title": "兴化市陈堡镇侯王寺", "address": "兴化市陈堡镇宁乡村", "image": "", "rank": 36, "time": 12.0, "location": {"lat": 32.74146450431667, "lng": 119.86641242782393}, "feature": {"sight_features": "", "sight_content": ""}}, {"title": "普济寺", "address": "江苏省泰州市兴化市S352", "image": "", "rank": 37, "time": 1.5, "location": {"lat": 32.917824213889254, "lng": 119.85751406137442}, "feature": {"sight_features": "", "sight_content": ""}}, {"title": "泽园", "address": "迎宾大道1号", "image": "", "rank": 38, "time": 2, "location": {"lat": 38.043686879175624, "lng": 115.06602244915125}, "feature": {"sight_features": "", "sight_content": ""}}, {"title": "儿童主题乐园", "address": "江苏省泰州市兴化市幸福路265", "image": "", "rank": 39, "time": 2, "location": {"lat": 32.85573670880171, "lng": 120.09178481808507}, "feature": {"sight_features": "", "sight_content": ""}}, {"title": "兴化市千佛古寺", "address": "大垛镇盐靖高速西侧", "image": "", "rank": 40, "time": 12.0, "location": {"lat": 32.89246141278439, "lng": 120.05491476314032}, "feature": {"sight_features": "", "sight_content": ""}}, {"title": "兴化市昭阳湖公园", "address": "八里铺路与兴化大道交叉口东南150米", "image": "", "rank": 41, "time": 12.0, "location": {"lat": 32.91093174569423, "lng": 119.85926877991692}, "feature": {"sight_features": "", "sight_content": ""}}, {"title": "开心玩国儿童乐园", "address": "英武中路109号东方商厦购物中心F5", "image": "", "rank": 42, "time": 2, "location": {"lat": 32.934834622781956, "lng": 119.84748466001662}, "feature": {"sight_features": "", "sight_content": ""}}, {"title": "陈口小公园", "address": "泰州市兴化市", "image": "", "rank": 43, "time": 2, "location": {"lat": 32.917824213889254, "lng": 119.85751406137442}, "feature": {"sight_features": "", "sight_content": ""}}, {"title": "大唐影城儿童主题乐园", "address": "英武中路298", "image": "", "rank": 44, "time": 2, "location": {"lat": 32.930677118201224, "lng": 119.84850399961778}, "feature": {"sight_features": "", "sight_content": ""}}, {"title": "沙垛庙", "address": "兴姜河西路与兴姜河路交叉口北150米", "image": "", "rank": 45, "time": 2, "location": {"lat": 32.92328039302501, "lng": 119.87002348212654}, "feature": {"sight_features": "", "sight_content": ""}}, {"title": "兴化市人防园", "address": "江苏省泰州市兴化市昭阳镇楚水路人防园", "image": "", "rank": 46, "time": 12.0, "location": {"lat": 32.94978402590311, "lng": 119.8293886368742}, "feature": {"sight_features": "", "sight_content": ""}}, {"title": "兴化市乾明禅寺", "address": "江苏省泰州市兴化市中堡镇中长村河北", "image": "", "rank": 47, "time": 12.0, "location": {"lat": 33.11019334736217, "lng": 119.86508228978751}, "feature": {"sight_features": "", "sight_content": ""}}, {"title": "儿童主题乐园（安丰店）", "address": "安丰镇振安南路文峰会馆向南500米", "image": "", "rank": 48, "time": 2, "location": {"lat": 33.08990262659478, "lng": 120.10758612698869}, "feature": {"sight_features": "", "sight_content": ""}}, {"title": "大型儿童游乐园", "address": "江苏省泰州市兴化市新大街", "image": "", "rank": 49, "time": 2, "location": {"lat": 33.09307902950011, "lng": 120.113642770432}, "feature": {"sight_features": "", "sight_content": ""}}, {"title": "五角广场", "address": "文化路东50米", "image": "", "rank": 50, "time": 2, "location": {"lat": 33.50501953851551, "lng": 112.43562110165533}, "feature": {"sight_features": "", "sight_content": ""}}, {"title": "儿童乐园", "address": "泰州市兴化市英武中路109号东方商厦购物中心F5", "image": "", "rank": 51, "time": 2, "location": {"lat": 32.934834622781956, "lng": 119.84748466001662}, "feature": {"sight_features": "", "sight_content": ""}}, {"title": "八字桥广场", "address": "泰州市兴化市东大街33号", "image": "", "rank": 52, "time": 2, "location": {"lat": 32.9408552800115, "lng": 119.85080622099572}, "feature": {"sight_features": "", "sight_content": ""}}, {"title": "民健广场", "address": "泰州市兴化市昌合路966号", "image": "", "rank": 53, "time": 2, "location": {"lat": 33.01869683500412, "lng": 120.24736792575393}, "feature": {"sight_features": "", "sight_content": ""}}, {"title": "兴达广场", "address": "兴达大道与园区大道交叉口西南150米", "image": "", "rank": 54, "time": 2, "location": {"lat": 32.73810545314183, "lng": 120.11720388164315}, "feature": {"sight_features": "", "sight_content": ""}}, {"title": "严家休闲广场", "address": "兴沙公路北50米", "image": "", "rank": 55, "time": 2, "location": {"lat": 32.9536233788454, "lng": 119.83841293317994}, "feature": {"sight_features": "", "sight_content": ""}}, {"title": "中庄酒店度假村", "address": "中堡镇政府路88号(敬老院南)", "image": "", "rank": 56, "time": 2, "location": {"lat": 30.815570938809483, "lng": 103.89315691093049}, "feature": {"sight_features": "", "sight_content": ""}}, {"title": "罗顾村公益墓地", "address": "戴南镇戴东线东罗顾骏发锻造厂东南", "image": "", "rank": 57, "time": 2, "location": {"lat": 32.721564029524586, "lng": 120.1286790643972}, "feature": {"sight_features": "", "sight_content": ""}}, {"title": "文峰社区-双拥文化广场", "address": "长安南路187号附近", "image": "", "rank": 58, "time": 2, "location": {"lat": 22.550697436447724, "lng": 113.25784507010069}, "feature": {"sight_features": "", "sight_content": ""}}, {"title": "兴化市游乐园", "address": "乌巾荡湿地公园风景区主入口", "image": "", "rank": 59, "time": 4.5, "location": {"lat": 32.96066497959752, "lng": 119.84022104340875}, "feature": {"sight_features": "", "sight_content": ""}}, {"title": "里下河渔业文化博物馆", "address": "中心街与人民东路交叉口东50米", "image": "", "rank": 60, "time": 2, "location": {"lat": 33.1528506472124, "lng": 119.7351277886267}, "feature": {"sight_features": "", "sight_content": ""}}]}