{"cityName": "荥阳", "days": 2, "cityImage": "", "spots": [{"title": "环翠峪风景区", "address": "郑州市西南40公里处荥阳庙子乡", "image": "", "rank": 1, "time": 3.5, "location": {"lat": 34.6406744737629, "lng": 113.26446444458239}, "feature": {"sight_features": "", "sight_content": ""}}, {"title": "汉霸二王城", "address": "郑州市荥阳市", "image": "", "rank": 2, "time": 1.0, "location": {"lat": 34.79381050034602, "lng": 113.38942279956461}, "feature": {"sight_features": "", "sight_content": ""}}, {"title": "三皇山桃花峪旅游区", "address": "郑州市荥阳市广武镇桃花峪村", "image": "", "rank": 3, "time": 2.5, "location": {"lat": 34.95819991441846, "lng": 113.50797648958286}, "feature": {"sight_features": "", "sight_content": ""}}, {"title": "刘禹锡公园", "address": "郑州市荥阳市京城路和310国道交叉口东南角", "image": "", "rank": 4, "time": 1.0, "location": {"lat": 34.7812563114092, "lng": 113.31930196976124}, "feature": {"sight_features": "", "sight_content": ""}}, {"title": "飞龙顶", "address": "郑州市荥阳市北部18公里的北邙乡境内", "image": "", "rank": 5, "time": 1.0, "location": {"lat": 34.92344274269722, "lng": 113.37445870780307}, "feature": {"sight_features": "", "sight_content": ""}}, {"title": "荥阳植物园", "address": "郑州市荥阳市京城路南段（市体育馆对面）", "image": "", "rank": 6, "time": 1.0, "location": {"lat": 34.79381050034602, "lng": 113.38942279956461}, "feature": {"sight_features": "", "sight_content": ""}}, {"title": "洞林寺", "address": "郑州市荥阳市贾峪镇洞林寺村", "image": "", "rank": 7, "time": 1.0, "location": {"lat": 34.67271905794802, "lng": 113.50792869433988}, "feature": {"sight_features": "", "sight_content": ""}}, {"title": "虎牢关", "address": "郑州市荥阳市汜水镇虎牢关村", "image": "", "rank": 8, "time": 0.3, "location": {"lat": 34.85230062944731, "lng": 113.21182722712307}, "feature": {"sight_features": "", "sight_content": ""}}, {"title": "桃花峪滑雪场", "address": "郑州市荥阳广武桃花峪景区内", "image": "", "rank": 9, "time": 2, "location": {"lat": 34.79381050034602, "lng": 113.38942279956461}, "feature": {"sight_features": "", "sight_content": ""}}, {"title": "京襄城遗址生态园", "address": "郑州市荥阳市商隐路", "image": "", "rank": 10, "time": 1.0, "location": {"lat": 34.7522037883256, "lng": 113.4536142883917}, "feature": {"sight_features": "", "sight_content": ""}}, {"title": "大海寺", "address": "郑州市荥阳市京城路(近禹锡路)", "image": "", "rank": 11, "time": 1.0, "location": {"lat": 34.79137796142814, "lng": 113.41656673636294}, "feature": {"sight_features": "", "sight_content": ""}}, {"title": "李商隐公园", "address": "郑州市荥阳市商隐路", "image": "", "rank": 12, "time": 1.5, "location": {"lat": 34.7522037883256, "lng": 113.4536142883917}, "feature": {"sight_features": "", "sight_content": ""}}, {"title": "兴国寺", "address": "郑州市荥阳市豫龙镇兴国寺村", "image": "", "rank": 13, "time": 1.0, "location": {"lat": 34.74231202123264, "lng": 113.46834711409463}, "feature": {"sight_features": "", "sight_content": ""}}, {"title": "古柏渡丰乐樱花园", "address": "郑州市荥阳市连霍高速上街虎牢关站下沿石化路向北行驶2500米（古柏渡飞黄旅游区附近）", "image": "", "rank": 14, "time": 2, "location": {"lat": 34.85183445276889, "lng": 113.21113493720212}, "feature": {"sight_features": "", "sight_content": ""}}, {"title": "龙溪宫", "address": "郑州市荥阳市庙子乡环翠峪景区内天堂山附近", "image": "", "rank": 15, "time": 1.0, "location": {"lat": 34.64026613795481, "lng": 113.2633503642923}, "feature": {"sight_features": "", "sight_content": ""}}, {"title": "刘禹锡墓", "address": "郑州市荥阳市京城路和310国道交叉口刘禹锡公园内", "image": "", "rank": 16, "time": 0.3, "location": {"lat": 34.777108108658936, "lng": 113.4225676138985}, "feature": {"sight_features": "", "sight_content": ""}}, {"title": "九龙口冰雪大世界", "address": "汜水镇廖峪村九龙口生态园内", "image": "", "rank": 17, "time": 2, "location": {"lat": 34.83571331761597, "lng": 113.16849523484822}, "feature": {"sight_features": "", "sight_content": ""}}, {"title": "大堡礁欢乐世界", "address": "荥阳市国泰路与福民路交叉口正上·豪布斯卡三楼", "image": "", "rank": 18, "time": 1.0, "location": {"lat": 34.79026598224926, "lng": 113.43222099355287}, "feature": {"sight_features": "特色1 真实还原远古时期的室内热带雨林奇幻“哈密岛秘境”，中原首家主题公园室内海洋生物科普教育实验站。", "sight_content": "大堡礁欢乐世界位于荥阳市国泰路与福民路交叉口正上·豪布斯卡三楼，除建设有室内海洋馆外，首次把孟加拉豹猫、龙猫、蜥蜴、金刚鹦鹉、花栗鼠、袋鼠等众多真实森林动物融入到购物中心主题乐园规划内，并配套餐饮水吧、创意教育、儿童水育等特色服务项目，将其打造成集观光游览、娱乐体验、休闲餐饮、文化创意等多功能于一体的大型室内主题公园。\n设计图如下："}}, {"title": "三山森林溪谷温泉", "address": "郑州荥阳市刘河镇分水岭村中原西路与环翠峪大道交叉口向南4公里处", "image": "", "rank": 19, "time": 2, "location": {"lat": 34.7109788947078, "lng": 113.30816454089587}, "feature": {"sight_features": "特色1 以温泉养生为核心的高品质休闲度假综合体 特色2 您修身养性，避暑纳凉的绝佳去处，", "sight_content": "三山森林溪谷度假庄园位于中原西路与庙王路交叉口向南4公里处(荥阳市刘河镇分水岭村)，是以温泉养生、自助烧烤、野外露营、登山健身、休闲避暑、采摘垂钓、住宿会议、特色餐饮、度假养老、培训拓展为核心的高品质休闲度假综合体。\n\n\n三山森林溪谷温泉水来自三山地下2300多米，根据温泉水质监测报告，三山森林溪谷温泉水质含偏硅酸、锶及少量的氟、硒，其中偏硅酸含量为28.6mg/L;锶含量为8.6mg/L;偏硅酸温泉是具有软化皮肤角质，预防心血管疾病，调节神经功能紊乱的作用。锶可降低人体对钠的吸收，有利心血管的正常活动，对人体主动脉硬化具有软化作用。三山森林溪谷度假庄园位于三山半山腰的位置，海拔528米，庄园分为特色露天温泉汤池区，特色窑洞式豪华汤屋/木屋区，三山嫘祖庙游览区，高端别墅区、花园洋房区等，是您休闲度假的理想之地。"}}, {"title": "黄河彩虹谷", "address": "郑州市荥阳市广武镇邙岭", "image": "", "rank": 20, "time": 2, "location": {"lat": 34.91326354655125, "lng": 113.4611138620096}, "feature": {"sight_features": "", "sight_content": ""}}, {"title": "惠翔草莓采摘基地", "address": "郑州市荥阳市郑上路与京城路交叉口向北5.5公里路西", "image": "", "rank": 21, "time": 2, "location": {"lat": 35.18764307533594, "lng": 113.41642119200591}, "feature": {"sight_features": "", "sight_content": ""}}, {"title": "越无止境越野穿越基地", "address": "郑州市荥阳市忆江南休闲度假区中原影视城影视城", "image": "", "rank": 22, "time": 2, "location": {"lat": 34.92504277475715, "lng": 113.49542998677929}, "feature": {"sight_features": "", "sight_content": ""}}, {"title": "汇川农业无花果基地", "address": "王村镇王村", "image": "", "rank": 23, "time": 2, "location": {"lat": 29.75922901311278, "lng": 118.4127607478929}, "feature": {"sight_features": "", "sight_content": ""}}, {"title": "京城古城址", "address": "河南省郑州市荥阳市豫龙镇商隐路荥阳京襄城遗址生态园", "image": "", "rank": 24, "time": 2, "location": {"lat": 34.72982840430675, "lng": 113.44963609752551}, "feature": {"sight_features": "", "sight_content": ""}}, {"title": "榴香温泉", "address": "郑州市荥阳市高村乡河阴石榴风景区", "image": "", "rank": 25, "time": 2, "location": {"lat": 34.91102641522018, "lng": 113.36975317872816}, "feature": {"sight_features": "", "sight_content": ""}}, {"title": "小李沟葡萄园", "address": "中原路", "image": "", "rank": 26, "time": 2, "location": {"lat": 32.240170599137954, "lng": 119.84584715417368}, "feature": {"sight_features": "", "sight_content": ""}}, {"title": "采摘园", "address": "乔楼街北侧10号", "image": "", "rank": 27, "time": 2, "location": {"lat": 34.75816363298557, "lng": 113.39789426967646}, "feature": {"sight_features": "", "sight_content": ""}}, {"title": "智玩密室体验馆", "address": "大海寺路与塔山路交叉口往西100米(防疫站往东50米王婆大虾和老店糊辣鱼中间)", "image": "", "rank": 28, "time": 2, "location": {"lat": 34.790215293580516, "lng": 113.3988293473225}, "feature": {"sight_features": "", "sight_content": ""}}, {"title": "合众家庭农场(聚缘饭庄)", "address": "荥广路4号", "image": "", "rank": 29, "time": 2, "location": {"lat": 34.8822432120638, "lng": 113.44346351158663}, "feature": {"sight_features": "", "sight_content": ""}}, {"title": "楚汉文化生态园", "address": "三一零国道滨湖花园老年公寓旁边", "image": "", "rank": 30, "time": 2, "location": {"lat": 34.772165381709264, "lng": 113.38400107216762}, "feature": {"sight_features": "", "sight_content": ""}}, {"title": "郑州天品计算机科技有限公司", "address": "经济技术开发区经北二路66号17号楼1层8号", "image": "", "rank": 31, "time": 3.5, "location": {"lat": 34.733034518959116, "lng": 113.75738418730636}, "feature": {"sight_features": "", "sight_content": ""}}, {"title": "藝素/ART SIMPLE", "address": "康泰路", "image": "", "rank": 32, "time": null, "location": {"lat": 37.88866262537895, "lng": 114.74914004938545}, "feature": {"sight_features": "", "sight_content": ""}}, {"title": "荥阳24小时自助图书馆", "address": "京城路街道繁荣街与福民路交叉口往西100米路南", "image": "", "rank": 33, "time": 3.5, "location": {"lat": 34.78443789394895, "lng": 113.43256806736125}, "feature": {"sight_features": "", "sight_content": ""}}, {"title": "永信百果采摘园", "address": "王村镇蒋头村南侧", "image": "", "rank": 34, "time": 2, "location": {"lat": 34.869609523075546, "lng": 113.30704714136694}, "feature": {"sight_features": "", "sight_content": ""}}, {"title": "石榴园", "address": "汜水镇黄河附近", "image": "", "rank": 35, "time": 2, "location": {"lat": 35.01171269000208, "lng": 111.74702175392935}, "feature": {"sight_features": "", "sight_content": ""}}, {"title": "石榴园", "address": "富民大道附近", "image": "", "rank": 36, "time": 2, "location": {"lat": 34.00794242996295, "lng": 118.16749213297643}, "feature": {"sight_features": "", "sight_content": ""}}, {"title": "穆王壁画墓", "address": "河南荥阳市豫龙镇瓦屋孙村 450121", "image": "", "rank": 37, "time": 1.0, "location": {"lat": 34.75495947183627, "lng": 113.48538869185654}, "feature": {"sight_features": "", "sight_content": ""}}, {"title": "大师姑城址", "address": "河南荥阳市广武镇大师姑村 450103", "image": "", "rank": 38, "time": null, "location": {"lat": 34.85008079082049, "lng": 113.49855298271525}, "feature": {"sight_features": "", "sight_content": ""}}, {"title": "荥阳关", "address": "河南荥阳市市境内 450100", "image": "", "rank": 39, "time": 2, "location": {"lat": 34.79381050034602, "lng": 113.38942279956461}, "feature": {"sight_features": "", "sight_content": ""}}, {"title": "高河白龙庙原始森林风景区", "address": "河南卢氏县瓦窑沟乡 472233", "image": "", "rank": 40, "time": 2, "location": {"lat": 33.66654243252062, "lng": 111.06303836164265}, "feature": {"sight_features": "", "sight_content": ""}}, {"title": "武台高井清真寺", "address": "河南省郑州市二七区贾峪镇工业路马寨经济开发区", "image": "", "rank": 41, "time": 2, "location": {"lat": 34.72032752473348, "lng": 113.53562641223087}, "feature": {"sight_features": "", "sight_content": ""}}, {"title": "索河湿地公园", "address": "河南省郑州市荥阳市荥丁路", "image": "", "rank": 42, "time": 2, "location": {"lat": 34.75570359195157, "lng": 113.39551735329705}, "feature": {"sight_features": "", "sight_content": ""}}, {"title": "董天知将军故居", "address": "南街董天知将军故居附近", "image": "", "rank": 43, "time": 2, "location": {"lat": 34.79148978086059, "lng": 113.37390103075943}, "feature": {"sight_features": "", "sight_content": ""}}, {"title": "荥阳市豫剧团", "address": "办东街81号荥阳市豫剧团附近", "image": "", "rank": 44, "time": 3.5, "location": {"lat": 34.79287223076994, "lng": 113.37514526024671}, "feature": {"sight_features": "", "sight_content": ""}}, {"title": "新田城农夫乐园", "address": "郑州市荥阳市贾峪镇郭岗新村东南350米", "image": "", "rank": 45, "time": 2, "location": {"lat": 34.684864830401196, "lng": 113.47717949102137}, "feature": {"sight_features": "", "sight_content": ""}}, {"title": "奥克啤酒广场", "address": "郑州近郊荥阳市工业路", "image": "", "rank": 46, "time": 2, "location": {"lat": 34.82993763871219, "lng": 113.29542507937386}, "feature": {"sight_features": "", "sight_content": ""}}, {"title": "百川汇啤酒广场", "address": "站南东路5号", "image": "", "rank": 47, "time": 2, "location": {"lat": 23.643865364503306, "lng": 116.59640981439605}, "feature": {"sight_features": "", "sight_content": ""}}, {"title": "乡里香舍度假村", "address": "河南省郑州市荥阳市X021", "image": "", "rank": 48, "time": 2, "location": {"lat": 34.79381050034602, "lng": 113.38942279956461}, "feature": {"sight_features": "", "sight_content": ""}}, {"title": "索园", "address": "京城路与索河路交叉口西北50米", "image": "", "rank": 49, "time": 2, "location": {"lat": 34.793610106497916, "lng": 113.41604895845683}, "feature": {"sight_features": "", "sight_content": ""}}, {"title": "元正置业广场", "address": "万山路6号附近", "image": "", "rank": 50, "time": 2, "location": {"lat": 41.89773233680556, "lng": 123.42862747111221}, "feature": {"sight_features": "", "sight_content": ""}}, {"title": "真人cs拓展特训营", "address": "近郊广武镇樊河村江南春温泉东北角01号中原影视城", "image": "", "rank": 51, "time": 2, "location": {"lat": 34.91938868330349, "lng": 113.4975203742434}, "feature": {"sight_features": "", "sight_content": ""}}, {"title": "法堂清真寺", "address": "河南省郑州市荥阳市崔庙镇盆窑法堂万山路西200米", "image": "", "rank": 52, "time": 2, "location": {"lat": 34.68436808352643, "lng": 113.3528289771574}, "feature": {"sight_features": "", "sight_content": ""}}, {"title": "崔府君庙", "address": "陇海西路与034县道交叉口西北200米", "image": "", "rank": 53, "time": 2, "location": {"lat": 34.73832809539865, "lng": 113.41884679654395}, "feature": {"sight_features": "", "sight_content": ""}}, {"title": "乔楼基督教堂", "address": "乔楼街东100米", "image": "", "rank": 54, "time": 2, "location": {"lat": 34.75808949178105, "lng": 113.39879257518643}, "feature": {"sight_features": "", "sight_content": ""}}, {"title": "奥浦乐水世界", "address": "郑上路与京城路交叉口植物园内西南方青少年游泳培训中心", "image": "", "rank": 55, "time": 2, "location": {"lat": 34.780998663271745, "lng": 113.41642119200591}, "feature": {"sight_features": "", "sight_content": ""}}, {"title": "棒棒糖儿童游乐园", "address": "繁荣街和荥泽大道交叉口东北角意墅蓝山62号楼", "image": "", "rank": 56, "time": 2, "location": {"lat": 25.37593472464048, "lng": 112.2034349358637}, "feature": {"sight_features": "", "sight_content": ""}}, {"title": "郑成功纪念馆", "address": "河南省郑州市荥阳市西石冈", "image": "", "rank": 57, "time": 1.5, "location": {"lat": 34.705515098875644, "lng": 113.40659203821747}, "feature": {"sight_features": "", "sight_content": ""}}, {"title": "吉姆考拉儿童主题乐园", "address": "索河路与广武路交叉口西100米路南", "image": "", "rank": 58, "time": 2, "location": {"lat": 34.793896600115616, "lng": 113.40533574269057}, "feature": {"sight_features": "", "sight_content": ""}}, {"title": "荥阳郑氏始祖殿", "address": "塔山路西石冈", "image": "", "rank": 59, "time": 3.5, "location": {"lat": 34.705515098875644, "lng": 113.40659203821747}, "feature": {"sight_features": "", "sight_content": ""}}, {"title": "神童儿童乐园", "address": "万山路与索河路交叉口西北角商业大厦2楼", "image": "", "rank": 60, "time": 2, "location": {"lat": 31.781684980957614, "lng": 111.85036225745796}, "feature": {"sight_features": "", "sight_content": ""}}]}