{"cityName": "兴城", "days": 2, "cityImage": "", "spots": [{"title": "兴城海滨风景区", "address": "葫芦岛市兴城市兴海南路5段", "image": "", "rank": 1, "time": 1.5, "location": {"lat": 40.61640810562827, "lng": 120.79286995753505}, "feature": {"sight_features": "", "sight_content": ""}}, {"title": "兴城古城", "address": "葫芦岛市兴城市古城延辉街南端", "image": "", "rank": 2, "time": 1.5, "location": {"lat": 40.62732124193862, "lng": 120.71977448964559}, "feature": {"sight_features": "特色1 古城呈正方形，城墙高8.8米，四城设门。 特色2 登上古城墙，俯瞰保存完整的明代古城全貌。 参观蓟辽督师府、文庙等古迹，重温明清史话、领略民俗风情。 特色3 城内正中有钟鼓楼一座，还有明代祖氏石坊和文庙等古迹。", "sight_content": "中国十佳古城之一，是我国目前保存较完整的四座明代古城之一，也是唯一一座方形卫城。\n城墙设有东南西北四门，城中心设有钟鼓楼，城门外筑有半圆形瓮城，城墙四角仍筑有炮台，用来架设红夷大炮。\n集“城、泉、山、海、岛”五大景观于一体，是北方沿海旅游风景区中极其特色的。\n兴城古城始建于明宣德三年（公元1428年），为宁远卫城，清代重修，改称宁远州城。宁远古城与西安古城、荆州古城和山西平遥古城同被列为我国迄今保留完整的四座古代城池，为全国重点文物保护单位。\n\n兴城古城内四街十字相交，正中有古楼一座，登楼鸟瞰全城，古朴典雅的明代一条街、乾隆帝赋诗评价过的祖氏石坊尽收眼底。城设四门，东为春和门、南为延辉门，西为永宁门，北为威远门，门上皆筑门楼，四角各设角台，东南角台上有魁星楼一座。\n古城呈正方形，城墙高8.8米，周长3200米，四城设门，城内正中有钟鼓楼一座，还有明代祖氏石坊和文庙等古迹。明代为边防重地，明将袁崇焕驻兵于此，屡败清兵。天启六年（公元1626年）1月，清太祖努尔哈赤率兵13万围攻宁远城，身负重伤而败退。天启七年5月，清太祖统军再攻宁远城，再败城下。兴城古城是五百年前留下来的一份珍贵的历史遗产，是我国目前保存最完整的明代古城之一，它经历了570多年的风雨浸蚀和战争摧残，外城现已无存，内城经历代维修，基本保持原貌。\n\n\n兴城古城始建于明宣德三年（公元1428年），为宁远卫城，清代重修，改称宁远州城。宁远古城与西安古城、荆州古城和山西平遥古城同被列为我国迄今保留完整的四座古代城池，为全国重点文物保护单位。古城呈正方形，城墙高8.8米，周长3200米，四城设门，城内正中有钟鼓楼一座，还有明代祖氏石坊和文庙等古迹。明代为边防重地，明将袁崇焕驻兵于此，屡败清兵。天启六年（公元1626年）1月，清太祖努尔哈赤率兵13万围攻宁远城，身负重伤而败退。天启七年5月，清太祖统军再攻宁远城，再败城下。兴城古城是五百年前留下来的一份珍贵的历史遗产，是我国目前保存较完整的一座明代古城，它经历了570多年的风雨浸蚀和战争摧残，外城现已无存，内城经历代维修，基本保持原貌。"}}, {"title": "龙回头", "address": "葫芦岛市兴城市兴城海滨(近313海滨)", "image": "", "rank": 3, "time": 1.5, "location": {"lat": 40.616924484507045, "lng": 120.80434241213527}, "feature": {"sight_features": "", "sight_content": ""}}, {"title": "首山", "address": "葫芦岛市兴城市首山路国家级森林公园", "image": "", "rank": 4, "time": 3.5, "location": {"lat": 40.62356171387239, "lng": 120.76075880179216}, "feature": {"sight_features": "", "sight_content": ""}}, {"title": "钟鼓楼", "address": "葫芦岛市兴城市兴城古城内", "image": "", "rank": 5, "time": 0.75, "location": {"lat": 40.628912292663045, "lng": 120.71928843539857}, "feature": {"sight_features": "", "sight_content": ""}}, {"title": "祖氏石坊", "address": "葫芦岛兴城市兴城古城内南大街", "image": "", "rank": 6, "time": 0.4, "location": {"lat": 40.62670871501697, "lng": 120.78487068171451}, "feature": {"sight_features": "", "sight_content": ""}}, {"title": "蓟辽督师府", "address": "葫芦岛市兴城市兴城古城内", "image": "", "rank": 7, "time": 0.6, "location": {"lat": 40.628912292663045, "lng": 120.71928843539857}, "feature": {"sight_features": "", "sight_content": ""}}, {"title": "兴城文庙", "address": "葫芦岛市兴城市春和门里北二道胡同", "image": "", "rank": 8, "time": 2.0, "location": {"lat": 40.616555664043666, "lng": 120.76455846701454}, "feature": {"sight_features": "", "sight_content": ""}}, {"title": "将军府", "address": "葫芦岛兴城市兴城古城内", "image": "", "rank": 9, "time": 0.6, "location": {"lat": 40.628912292663045, "lng": 120.71928843539857}, "feature": {"sight_features": "", "sight_content": ""}}, {"title": "水调歌头", "address": "葫芦岛市兴城市海滨南路瑞心商旅兴城水调歌头酒店", "image": "", "rank": 10, "time": 2, "location": {"lat": 40.73114762964322, "lng": 120.86663355092719}, "feature": {"sight_features": "特色1 高温弱碱性食盐矿泉 特色2 出浴神清气爽，恍至仙境、乐而忘返。 特色3 健康人沐浴温泉，可以爽身提神，解除疲劳。", "sight_content": "城水调歌头温泉酒店，位于兴城市东南的温泉街，距海滨浴场仅3.5公里。兴城温泉水储量相当丰富，共有4穴12眼，日涌水量可达3000吨。泉水无色无臭，清澈透明，水温67度左右，属于高温弱碱性食盐矿泉。\n泉水中含有钾、钠、钙、铵、硫、镁等多种矿物质，还含有一定数量的放射性元素氡和镭。\n室外露天温泉区综合面积1400平方米，绿荫如盖，花木扶疏。以历史典故和泉池功能命名的唐王池、贵妃池、桃花池、古汤池、药浴池、养生池、天地人和池，七个造型各异的露天温泉池错落有致，掩映其间。泉池上香风缭绕，水气氤氲，置身于温润清澈的泉水中，可有解乏消烦，宁神息虑之感。可谓入泉则宠辱皆忘，出浴而神清气爽，令人恍至仙境，乐而忘返。"}}, {"title": "三礁揽胜", "address": "葫芦岛市兴城市兴城海滨风景区内", "image": "", "rank": 11, "time": 2, "location": {"lat": 40.53286936506443, "lng": 120.64613983902635}, "feature": {"sight_features": "", "sight_content": ""}}, {"title": "兴城温泉", "address": "葫芦岛市兴城市欣和园小区南150米", "image": "", "rank": 12, "time": 0.7, "location": {"lat": 40.62374280359871, "lng": 120.74468109955431}, "feature": {"sight_features": "", "sight_content": ""}}, {"title": "红海滩", "address": "兴城市区南10公里处", "image": "", "rank": 13, "time": 2.5, "location": {"lat": 40.616555664043666, "lng": 120.76455846701454}, "feature": {"sight_features": "", "sight_content": ""}}, {"title": "张山岛", "address": "葫芦岛市兴城市菊花岛西南二、三海里处", "image": "", "rank": 14, "time": 3.0, "location": {"lat": 40.51559497621874, "lng": 120.82299015386087}, "feature": {"sight_features": "", "sight_content": ""}}, {"title": "富都露天温泉", "address": "葫芦岛市兴城市兴海南路5段（近龙兴路）富都国际饭店洗浴部", "image": "", "rank": 15, "time": 2, "location": {"lat": 40.61387823297274, "lng": 120.78077711877673}, "feature": {"sight_features": "", "sight_content": ""}}, {"title": "明代一条街", "address": "葫芦岛市兴城市延辉街", "image": "", "rank": 16, "time": 1.0, "location": {"lat": 40.62732124193862, "lng": 120.71977448964559}, "feature": {"sight_features": "", "sight_content": ""}}, {"title": "兴城博物馆", "address": "葫芦岛市兴城市兴城古城头道牌坊西胡同", "image": "", "rank": 17, "time": 1.0, "location": {"lat": 40.616555664043666, "lng": 120.76455846701454}, "feature": {"sight_features": "", "sight_content": ""}}, {"title": "渔家赶海园", "address": "葫芦岛市兴城市钓鱼台桥南行588米（海上钓鱼台斜对面）", "image": "", "rank": 18, "time": 2, "location": {"lat": 40.61884303418443, "lng": 120.78844948595098}, "feature": {"sight_features": "", "sight_content": ""}}, {"title": "古城汤泉", "address": "葫芦岛市兴城市兴海南路五段", "image": "", "rank": 19, "time": 2, "location": {"lat": 40.61640810562827, "lng": 120.79286995753505}, "feature": {"sight_features": "", "sight_content": "古城汤泉位于兴城市兴海南路橡榕国际酒店院内，纯天然温泉与现代汗蒸休闲完美的融合。游泳、汗蒸、养生SPA以及二十余个室内外温泉泡池，经营面积达一万余平米。"}}, {"title": "天外天密室逃脱俱乐部", "address": "葫芦岛市兴城市兴海南路塞北佳园东门", "image": "", "rank": 20, "time": 2, "location": {"lat": 40.6134769628063, "lng": 120.77472599721739}, "feature": {"sight_features": "", "sight_content": ""}}, {"title": "兴城城墙", "address": "葫芦岛市兴城市兴城古城内", "image": "", "rank": 21, "time": 0.6, "location": {"lat": 40.628912292663045, "lng": 120.71928843539857}, "feature": {"sight_features": "", "sight_content": ""}}, {"title": "郜家住宅", "address": "葫芦岛市兴城市兴城古城内", "image": "", "rank": 22, "time": 0.6, "location": {"lat": 40.628912292663045, "lng": 120.71928843539857}, "feature": {"sight_features": "", "sight_content": ""}}, {"title": "周家住宅", "address": "葫芦岛兴城市兴城古城内", "image": "", "rank": 23, "time": 0.6, "location": {"lat": 40.628912292663045, "lng": 120.71928843539857}, "feature": {"sight_features": "", "sight_content": ""}}, {"title": "白塔峪塔", "address": "葫芦岛市兴城市白塔乡塔沟村九龙山南的山丘上", "image": "", "rank": 24, "time": 1.0, "location": {"lat": 40.70552750944268, "lng": 120.61654068325224}, "feature": {"sight_features": "", "sight_content": ""}}, {"title": "兴海栈道", "address": "兴城市龙回头兴海栈道", "image": "", "rank": 25, "time": 1.5, "location": {"lat": 40.65980956348823, "lng": 120.83373519479473}, "feature": {"sight_features": "", "sight_content": ""}}, {"title": "城隍庙", "address": "兴城市威远街", "image": "", "rank": 26, "time": 1.5, "location": {"lat": 40.63104157031008, "lng": 120.71855359633885}, "feature": {"sight_features": "", "sight_content": ""}}, {"title": "观海国际公园", "address": "葫芦岛市兴城市兴海北街与龙兴路交汇处", "image": "", "rank": 27, "time": 1.0, "location": {"lat": 40.625392040281476, "lng": 120.76582678456407}, "feature": {"sight_features": "", "sight_content": ""}}, {"title": "兴城菊花岛度假村", "address": "兴城市菊花岛度假村（近菊花岛码头）", "image": "", "rank": 28, "time": 2, "location": {"lat": 40.51560868837285, "lng": 120.82299015386087}, "feature": {"sight_features": "", "sight_content": ""}}, {"title": "九龙山", "address": "葫芦岛市兴城市白塔乡塔沟村", "image": "", "rank": 29, "time": 3.5, "location": {"lat": 40.70552750944268, "lng": 120.61654068325224}, "feature": {"sight_features": "", "sight_content": ""}}, {"title": "望海楼观海露天温泉", "address": "葫芦岛市兴城市海滨新中路第二浴场兵器部疗养院望海楼宾馆院内", "image": "", "rank": 30, "time": 2, "location": {"lat": 40.63122583444461, "lng": 120.8099559223688}, "feature": {"sight_features": "特色1 高温弱碱性食盐矿泉", "sight_content": "望海楼露天温泉，位于兴城市海滨新东路4号，紧邻第二浴场，位置优越。院内露天温泉，位置极佳，泡温泉，看海景。室外温泉泡池，使用的是因地下溶岩的作用而形成的天然矿泉。\n泉水清澈透明，无色无臭，水温67度左右，酸碱度为7.4，泉水比重为1.006，属于高温弱碱性食盐矿泉。"}}, {"title": "大龙宫寺", "address": "葫芦岛市兴城市菊花岛", "image": "", "rank": 31, "time": 1.0, "location": {"lat": 40.51560868837285, "lng": 120.82299015386087}, "feature": {"sight_features": "", "sight_content": ""}}, {"title": "八角井", "address": "葫芦岛市兴城市菊花岛", "image": "", "rank": 32, "time": 0.3, "location": {"lat": 40.51560868837285, "lng": 120.82299015386087}, "feature": {"sight_features": "", "sight_content": ""}}, {"title": "航母栈道观景台", "address": "兴城红海滩", "image": "", "rank": 33, "time": 2, "location": {"lat": 40.47538190832568, "lng": 120.60224474753579}, "feature": {"sight_features": "", "sight_content": ""}}, {"title": "兴城比基尼广场", "address": "新东路东50米", "image": "", "rank": 34, "time": 2.5, "location": {"lat": 39.933488963555895, "lng": 119.63716530454218}, "feature": {"sight_features": "", "sight_content": ""}}, {"title": "第二海滨浴场", "address": "近龙岗路", "image": "", "rank": 35, "time": 2, "location": {"lat": 37.9623781654468, "lng": 114.44806690942534}, "feature": {"sight_features": "", "sight_content": ""}}, {"title": "兴城汤上温泉水上乐园", "address": "葫芦岛市兴城市高家岭乡汤上温泉度假区", "image": "", "rank": 36, "time": 2.5, "location": {"lat": 40.50580710786909, "lng": 120.28095803939698}, "feature": {"sight_features": "特色1 独一无二的“大白鲸”外观让您眼前一亮。 特色2 多项游玩项目共同推进，营造出多功能性的温泉场所。 特色3 彰显品味生活，共享生活之美，倾力为您打造一座现代休闲娱乐王国！", "sight_content": "汤上温泉水乐园占地15000平方米，总投资6000余万元，水源采集至地表高热弱碱性活泉（62度），水质富含多种对人体有益的矿物质。设有大喇叭、三彩组合滑梯、儿童水寨、理疗池、海浪池、游泳池、鱼疗池、各种特色美颜温泉泡池、KTV、韩式汗蒸房、有氧健身区等不同游乐项目让您尽享不同的激情和快乐，带您走进一个个惊险刺激、美轮美奂的游乐世界。\n★一层拥有特色接待大厅，占地面积1323平方米，大厅内设男女宾洗浴更衣区，可同时接待1500人，让您洗去这一天的疲劳，尽享尊贵体验。\n★二层占地面积1098平方米，设有韩式汗蒸房、有氧动感健身房、自然休闲休息大厅、小吃吧等。\n★三层设有多功能特色自助餐厅，总面积919.6平方米，致力于打造“绿色、生态、健康、养生”的饮食文化，可同时容纳200余人就餐，也同时能接待各类大小型会议。是朋友聚餐、商务接待、婚宴庆典的理想场所。"}}, {"title": "唐王洞", "address": "葫芦岛市兴城市菊花岛景区内", "image": "", "rank": 37, "time": 0.4, "location": {"lat": 40.51560868837285, "lng": 120.82299015386087}, "feature": {"sight_features": "", "sight_content": ""}}, {"title": "史迹宫博物馆", "address": "葫芦岛市兴城市觉华岛码头100米处", "image": "", "rank": 38, "time": 1.0, "location": {"lat": 40.506075683972554, "lng": 120.82100929139777}, "feature": {"sight_features": "", "sight_content": ""}}, {"title": "老渔翁农家院", "address": "徐大堡镇台里金沙湾景区", "image": "", "rank": 39, "time": 2, "location": {"lat": 43.88130096176605, "lng": 125.25321895988611}, "feature": {"sight_features": "", "sight_content": ""}}, {"title": "红军渔家院", "address": "徐大堡镇方安堡", "image": "", "rank": 40, "time": null, "location": {"lat": 40.39934715702373, "lng": 120.54126380619458}, "feature": {"sight_features": "", "sight_content": ""}}, {"title": "兴城市热带水果采摘园", "address": "东二线", "image": "", "rank": 41, "time": 2.5, "location": {"lat": 40.38964273251807, "lng": 120.51575182550776}, "feature": {"sight_features": "", "sight_content": ""}}, {"title": "琨御府农家院", "address": "兴城市四家乡周家村冯屯", "image": "", "rank": 42, "time": 2, "location": {"lat": 40.65057152659011, "lng": 120.7868236320288}, "feature": {"sight_features": "", "sight_content": ""}}, {"title": "汤上温泉", "address": "兴西线", "image": "", "rank": 43, "time": 2, "location": {"lat": 40.61252474179983, "lng": 120.36531093808995}, "feature": {"sight_features": "", "sight_content": ""}}, {"title": "兴城刘台子油菜花", "address": "刘台子满族乡前刘台子村内", "image": "", "rank": 44, "time": 2.5, "location": {"lat": 40.352180675672486, "lng": 120.49512987955949}, "feature": {"sight_features": "", "sight_content": ""}}, {"title": "7天阳光葫芦岛兴城温泉街店", "address": "兴海南街109号(原温泉大厦)", "image": "", "rank": 45, "time": 2, "location": {"lat": 40.61945713451485, "lng": 120.74732151139743}, "feature": {"sight_features": "", "sight_content": ""}}, {"title": "银象中央公园娱乐城", "address": "兴海南街86号(银象宁远城三楼)", "image": "", "rank": 46, "time": 2, "location": {"lat": 40.62060800112356, "lng": 120.73511062002393}, "feature": {"sight_features": "", "sight_content": ""}}, {"title": "拉斯维加斯温泉小镇", "address": "高家岭乡汤上度假村", "image": "", "rank": 47, "time": 4.0, "location": {"lat": 32.940758909655365, "lng": 107.04620769239304}, "feature": {"sight_features": "", "sight_content": ""}}, {"title": "温泉疗养院", "address": "兴海路四段20号", "image": "", "rank": 48, "time": 2, "location": {"lat": 40.61852478956123, "lng": 120.75110786912198}, "feature": {"sight_features": "", "sight_content": ""}}, {"title": "沐娃温泉水大众洗浴", "address": "兴海北街美星花园红木家具南30米", "image": "", "rank": 49, "time": 2, "location": {"lat": 40.62155349833725, "lng": 120.77184720204109}, "feature": {"sight_features": "", "sight_content": ""}}, {"title": "一方净土公益图书馆", "address": "兴海南街与兴海南路交叉口东南50米", "image": "", "rank": 50, "time": 2, "location": {"lat": 40.6171831654922, "lng": 120.75489827820441}, "feature": {"sight_features": "", "sight_content": ""}}, {"title": "磨盘山岛", "address": "辽宁省兴城市东南 125100", "image": "", "rank": 51, "time": 2, "location": {"lat": 40.616555664043666, "lng": 121.88833865999696}, "feature": {"sight_features": "", "sight_content": ""}}, {"title": "兹毛山", "address": "辽宁省兴城市境内 125100", "image": "", "rank": 52, "time": 2, "location": {"lat": 40.616555664043666, "lng": 120.76455846701454}, "feature": {"sight_features": "", "sight_content": ""}}, {"title": "兴城红海滩农家乐", "address": "辽宁省葫芦岛兴城市曹庄镇四城子村庙后头82号", "image": "", "rank": 53, "time": 2.5, "location": {"lat": 40.585734099965464, "lng": 120.76140700198034}, "feature": {"sight_features": "", "sight_content": ""}}, {"title": "兴城觉华岛东海浴场度假村", "address": "葫芦岛兴城市觉华岛乡南村", "image": "", "rank": 54, "time": 2.5, "location": {"lat": 40.506075683972554, "lng": 120.82100929139777}, "feature": {"sight_features": "", "sight_content": ""}}, {"title": "常乐大戏院二人转", "address": "辽宁省葫芦岛市兴城市果园东路", "image": "", "rank": 55, "time": 2, "location": {"lat": 40.614689204973935, "lng": 120.74734519162898}, "feature": {"sight_features": "", "sight_content": ""}}, {"title": "铁道部兴城疗养院-温泉度假村", "address": "兴海南街125", "image": "", "rank": 56, "time": 2, "location": {"lat": 40.61803200360671, "lng": 120.75366400014555}, "feature": {"sight_features": "", "sight_content": ""}}, {"title": "海星国际温泉度假村", "address": "星海南路海星国际温泉度假村27栋(近龙兴路)", "image": "", "rank": 57, "time": 2, "location": {"lat": 40.614789665013944, "lng": 120.77904535014339}, "feature": {"sight_features": "", "sight_content": ""}}, {"title": "辽宁省公路职工疗养院", "address": "兴海路四段20号", "image": "", "rank": 58, "time": 2, "location": {"lat": 40.61852478956123, "lng": 120.75110786912198}, "feature": {"sight_features": "", "sight_content": ""}}, {"title": "欢乐龙湾水世界", "address": "龙回头风景区西行200米", "image": "", "rank": 59, "time": 2, "location": {"lat": 31.212113194916512, "lng": 121.44239614706999}, "feature": {"sight_features": "", "sight_content": ""}}, {"title": "五顶山", "address": "辽宁省兴城市药王乡 121627", "image": "", "rank": 60, "time": 2, "location": {"lat": 40.616555664043666, "lng": 120.76455846701454}, "feature": {"sight_features": "", "sight_content": ""}}]}