{"cityName": "兴宁", "days": 2, "cityImage": "", "spots": [{"title": "鸿源生态温泉", "address": "兴宁市坭陂镇合湖村", "image": "", "rank": 1, "time": null, "location": {"lat": 24.071929721767763, "lng": 115.8164317860954}, "feature": {"sight_features": "特色1 兴宁鸿源温泉生态园坐落于素有“温泉之乡”美称的坭陂镇合湖村。 特色2 传承中西方传统养生理论，结合人体生命机能，精心打造了33个大小不一，风格功能各异，极富养生特色的温泉浴池。 特色3 适合来温泉生态园泡汤放松心情的时间,享受片刻悠闲时光。", "sight_content": "鸿源生态园系由广东鸿源集团属下梅州鸿源生态旅游股份有限公司投巨资兴建，集温泉洗浴、休闲娱乐、会议商务、运动健身、餐饮住宿为一体的高档次旅游休闲场所，它与河源万绿湖、五华热矿泥、梅州客天下、雁南飞、雁鸣湖连成一线，是港澳台同胞、珠三角、粤东、赣闽周边游客客都旅游的理想选择。\n鸿源生态园所在地坭陂合湖村素有“温泉之乡”美誉，拥有极为丰富的温泉资源，据专家测定，合湖温泉流量达11.37公升/秒，日流量4500立方米，水温高达88℃，含丰富的碳酸氢钠、硫化氢、氡、钽、碘等10多种对人体健康有益的微量元素，对神经衰弱、糖尿病、皮肤病、关节炎等有极佳的疗效和良好的保健功能。\n\n温泉区内设大型露天温泉泡池，以传承中西方传统养生理念为目的，结合人体生理机能，精心打造了33个大小不一，风格功能各异，极富养生特色的温泉泡池。休闲吧、游泳池、水疗区、鱼疗区等服务完善，还有标准室内温泉游泳馆，鱼疗温泉泡池。当你踏进鱼疗泡池内时，成百上千可爱的鱼儿会欢快地依附在您的身边，亲吻您的皮肤，帮您去除皮肤老化角质，美妙的鱼吻、温润的泉水会让你获得无法言喻的心灵喜悦，使你产生通体舒泰、神清气爽之感。\n距离鸿源生态园不足3公里远的地方是同属广东鸿源旗下的鸿源农庄，该农庄以满足人们回归自然的愿望为宗旨，融旅游观光、果蔬采摘、湖滨垂钓、休闲健身为一体，目前已种植珍贵花木10万多株，放养各种鱼类50多万尾，此外还建有无公害蔬菜瓜果基地、高尔夫草地练习场、农家乐项目，是都市人释放压力、陶冶性情的又一世外桃源。"}}, {"title": "熙和湾客乡文化旅游产业园", "address": "梅州市兴宁市永和镇长安熙和湾客乡文化旅游产业园", "image": "", "rank": 2, "time": 2, "location": {"lat": 24.143473165240863, "lng": 115.82476372061302}, "feature": {"sight_features": "", "sight_content": "熙和湾客乡文化旅游产业园坐落在兴宁市永和镇，距中心城区8公里，规划占地面积11700多亩，由熙和集团拟投资38亿元建设。熙和湾是以客家文化为主题集旅游、休闲、体育、度假综合性景区，按照国家5A级旅游景区标准倾力打造。2014年，被国家旅游局确定为全国旅游优选项目。2015年被国家文化部列为中国文化产业重点项目。\n熙和湾客乡文化旅游产业园以客家文化为魂\n标志性花灯建筑楼高36米，创全国之最，充分展现了兴宁“中国花灯之乡”赏灯文化的风采。占地600多亩的新客居小镇，依托厚重的客家文化，建设围龙活力门户区、客商文化风情区、人文体验区、新客居慢生活居、客商配套生活区五大版区，建设风格重塑了江南小桥流水人家，是景区灵气所在。客家博物馆、民居民俗雕塑长廊、耕读传家、慈母教子、诗书广场、状元桥等人文景点，讴歌了客家人勤劳朴实、崇明重教的传统美德，让你在山水间体验独特的客家民俗，获取传统客家文化熏陶。\n熙和湾客乡文化旅游产业园美景如画\n百福堤上一百个祝福，为您全家带来福气和运气。美丽的凤栖湖一湾碧沼，湖水澄绿，湖山天影融为晶莹一体，如一杯绿茶，自然清新，象一段丝绸，绚丽光洁，似一幅画卷，描绘出客乡的别致。卧龙山上百亭丛立，玉宇琼楼，飞檐流阁，古朴典雅，巧夺天工。行走于此，博大精深的中华建筑文化、姓氏文化、花灯文化扑面而来，犹如徜洋书山，畅游书海，让人体会别样的闲适和淡然，感悟人生的真谛。湿地公园闲廊信步，转水车，穿角亭，观鱼池，听荷风，轻折浮水石阶，循入古树林园，行走于此，别样的境地，别样的心情。亮丽的多彩景观带，静谧浪漫的情人谷，让人赏心悦目。\n壮观的天鹅飞瀑百米飞泻，有如珠雨飘洒。在蜿蜒弯曲的登山道休闲散心，立于湖山拥翠的景观线揽胜抒怀，美不胜收，令人流连忘返。金秋十月，柚果飘香，一株株葱茏的柚树布满山头，金灿灿、沉甸甸的柚果垂挂枝头，散发着诱人的清香。\n占地10万平方米的游乐园，恢宏规划，匠心打造，陆地项目与水上项目将刺激性与趣味性融为一体，让你玩转四季精彩，体验超凡的震撼与享受。座落在凤栖湖畔的腾龙阁以湖面相映水天一色，在腾龙阁上休憩，池畔临波羡鱼，偷得人生半日闲； 宴请好友于此，可谓宾至如归，即使佳酿未酣，席面景气已醉人三分，惬意无限。“森林公园”中的高级别墅，一墅万湖山，园林围合宅第，左右翠绿相映，理水叠山，筑桥植绿，境之珊阑，意之博大，甚得大隐之士垂青，栖于屋内，听雨落芭蕉，汇四水明堂，何啻于天人合一，堪称桃园仙居之所。"}}, {"title": "将军府", "address": "梅州市兴宁市上长岭村", "image": "", "rank": 3, "time": 0.6, "location": {"lat": 24.169099764553142, "lng": 115.68541299147404}, "feature": {"sight_features": "", "sight_content": ""}}, {"title": "和山岩旅游度假区", "address": "广东省兴宁市宁塘镇和山村", "image": "", "rank": 4, "time": 2, "location": {"lat": 24.183458610743063, "lng": 115.77914261504931}, "feature": {"sight_features": "", "sight_content": ""}}, {"title": "磐安围围龙屋", "address": "梅州市兴宁市叶塘镇河西村", "image": "", "rank": 5, "time": 3.0, "location": {"lat": 24.16578820442222, "lng": 115.66469693006434}, "feature": {"sight_features": "", "sight_content": ""}}, {"title": "德兴富贵温泉", "address": "225省道", "image": "", "rank": 6, "time": 2, "location": {"lat": 36.171635087060416, "lng": 113.15712827095895}, "feature": {"sight_features": "", "sight_content": ""}}, {"title": "龙渡温泉", "address": "120乡道", "image": "", "rank": 7, "time": 2, "location": {"lat": 39.759357747243186, "lng": 119.07126443833883}, "feature": {"sight_features": "", "sight_content": ""}}, {"title": "育群温泉", "address": "120乡道附近", "image": "", "rank": 8, "time": 2, "location": {"lat": 39.759357747243186, "lng": 119.07126443833883}, "feature": {"sight_features": "", "sight_content": ""}}, {"title": "悦和温泉", "address": "120乡道", "image": "", "rank": 9, "time": 2, "location": {"lat": 39.759357747243186, "lng": 119.07126443833883}, "feature": {"sight_features": "", "sight_content": ""}}, {"title": "东兴温泉", "address": "225省道", "image": "", "rank": 10, "time": 0.7, "location": {"lat": 36.171635087060416, "lng": 113.15712827095895}, "feature": {"sight_features": "", "sight_content": ""}}, {"title": "天天温泉", "address": "仙湖路", "image": "", "rank": 11, "time": 2, "location": {"lat": 22.569683290282985, "lng": 114.17280491240584}, "feature": {"sight_features": "", "sight_content": ""}}, {"title": "红灯龙温泉", "address": "225省道鸿源生态园隔壁", "image": "", "rank": 12, "time": 2, "location": {"lat": 24.938053817481258, "lng": 118.6408064827001}, "feature": {"sight_features": "", "sight_content": ""}}, {"title": "梅州黄蜂窝茶山", "address": "广东省兴宁市径南镇浊水村 514575", "image": "", "rank": 13, "time": 4.5, "location": {"lat": 24.174790506532297, "lng": 115.90872760897545}, "feature": {"sight_features": "", "sight_content": ""}}, {"title": "基督教会(官岭村)", "address": "经纬小学附近", "image": "", "rank": 14, "time": 2, "location": {"lat": 37.69020813281726, "lng": 112.71326363299865}, "feature": {"sight_features": "", "sight_content": ""}}, {"title": "五里文化公园", "address": "广东省梅州市兴宁市福兴街道976县道五里文化公园", "image": "", "rank": 15, "time": 2, "location": {"lat": 24.111948409560945, "lng": 115.71971486192058}, "feature": {"sight_features": "", "sight_content": ""}}, {"title": "神光山旅游风景区-神光佛园", "address": "广东省梅州市兴宁市539乡道附近", "image": "", "rank": 16, "time": 2, "location": {"lat": 24.1092726108296, "lng": 115.72749418763442}, "feature": {"sight_features": "", "sight_content": ""}}, {"title": "假日山庄", "address": "976县道附近", "image": "", "rank": 17, "time": 2, "location": {"lat": 26.53887251321345, "lng": 116.35108080465044}, "feature": {"sight_features": "", "sight_content": ""}}, {"title": "坭陂教堂", "address": "东沟西堤路附近", "image": "", "rank": 18, "time": 2, "location": {"lat": 24.087035319563544, "lng": 115.8266266921553}, "feature": {"sight_features": "", "sight_content": ""}}, {"title": "旺角啤酒广场", "address": "兴宁市和平路74号", "image": "", "rank": 19, "time": 2, "location": {"lat": 24.140623152512497, "lng": 115.74495302470673}, "feature": {"sight_features": "", "sight_content": ""}}, {"title": "1551红火啤酒广场", "address": "梅州市兴宁市", "image": "", "rank": 20, "time": 2, "location": {"lat": 24.14229377932197, "lng": 115.73757946359162}, "feature": {"sight_features": "", "sight_content": ""}}, {"title": "明星公园", "address": "广东省梅州市兴宁市人民大道中", "image": "", "rank": 21, "time": 2, "location": {"lat": 24.13417843643159, "lng": 115.7389204109378}, "feature": {"sight_features": "", "sight_content": ""}}, {"title": "刁坊基督教会", "address": "源志大街与017县道交叉口西北200米", "image": "", "rank": 22, "time": 2, "location": {"lat": 39.754319199493544, "lng": 118.4675874287618}, "feature": {"sight_features": "", "sight_content": ""}}, {"title": "兴宁市基督教叶塘镇叶南教会", "address": "广东省梅州市兴宁市汤湖温泉南路叶塘镇文化活动中心", "image": "", "rank": 23, "time": 2, "location": {"lat": 24.196980445802485, "lng": 115.67424802685358}, "feature": {"sight_features": "", "sight_content": ""}}, {"title": "福音堂", "address": "广东省梅州市兴宁市龙田镇凉伞龙丰路基督教龙田堂", "image": "", "rank": 24, "time": 1.0, "location": {"lat": 24.227181420723834, "lng": 115.72238576584505}, "feature": {"sight_features": "", "sight_content": ""}}, {"title": "新陂淘淘乐儿童乐园", "address": "广东省梅州市兴宁市S226(兴叶路)", "image": "", "rank": 25, "time": 2, "location": {"lat": 24.147191612558203, "lng": 115.723453121672}, "feature": {"sight_features": "", "sight_content": ""}}, {"title": "慈恩庐", "address": "新陂镇上长岭村", "image": "", "rank": 26, "time": 2, "location": {"lat": 24.169099764553142, "lng": 115.68541299147404}, "feature": {"sight_features": "", "sight_content": ""}}, {"title": "新陂基督教会", "address": "广东省梅州市兴宁市新陂镇环圩路中国邮政储蓄银行西50米", "image": "", "rank": 27, "time": 2, "location": {"lat": 24.160730212006438, "lng": 115.69973358207879}, "feature": {"sight_features": "", "sight_content": ""}}, {"title": "药王寺", "address": "469乡道附近", "image": "", "rank": 28, "time": 2, "location": {"lat": 40.04299345519964, "lng": 116.82849336820044}, "feature": {"sight_features": "", "sight_content": ""}}, {"title": "王母宫", "address": "广东省梅州市兴宁市黄陂", "image": "", "rank": 29, "time": 1.0, "location": {"lat": 24.14229377932197, "lng": 115.73757946359162}, "feature": {"sight_features": "", "sight_content": ""}}, {"title": "中山公祠", "address": "广东省梅州市兴宁市Y524", "image": "", "rank": 30, "time": 2.0, "location": {"lat": 24.14229377932197, "lng": 115.73757946359162}, "feature": {"sight_features": "", "sight_content": ""}}, {"title": "鸽池村文化广场", "address": "广东省梅州市兴宁市大坪镇鸽池小学西北150米", "image": "", "rank": 31, "time": 2, "location": {"lat": 24.343287192798652, "lng": 115.58188775773965}, "feature": {"sight_features": "", "sight_content": ""}}, {"title": "拱辰门", "address": "环城东路与石光街交叉口西南100米", "image": "", "rank": 32, "time": 1.0, "location": {"lat": 24.14462310455864, "lng": 115.73843275591051}, "feature": {"sight_features": "", "sight_content": ""}}, {"title": "银山生态园", "address": "广东省梅州市兴宁市", "image": "", "rank": 33, "time": 2, "location": {"lat": 24.14229377932197, "lng": 115.73757946359162}, "feature": {"sight_features": "", "sight_content": ""}}, {"title": "明星鲜啤广场", "address": "永兴路与泰宁路交叉口西北50米", "image": "", "rank": 34, "time": 2, "location": {"lat": 24.133357770587683, "lng": 115.73439764840852}, "feature": {"sight_features": "", "sight_content": ""}}, {"title": "和山旅游度假村", "address": "广东省梅州市兴宁市Y342", "image": "", "rank": 35, "time": 2, "location": {"lat": 24.14229377932197, "lng": 115.73757946359162}, "feature": {"sight_features": "", "sight_content": ""}}, {"title": "福兴文化广场", "address": "广东省梅州市兴宁市锦华兴福路中国邮政储蓄银行西150米", "image": "", "rank": 36, "time": 2, "location": {"lat": 24.126315338261488, "lng": 115.72859321861193}, "feature": {"sight_features": "", "sight_content": ""}}, {"title": "黄槐文化广场", "address": "广东省梅州市兴宁市槐西Y155黄槐镇文化广场", "image": "", "rank": 37, "time": 2, "location": {"lat": 24.47269249674625, "lng": 115.78350089873807}, "feature": {"sight_features": "", "sight_content": ""}}, {"title": "东升沙场", "address": "120省道附近", "image": "", "rank": 38, "time": 2, "location": {"lat": 23.301610542654394, "lng": 114.742588613259}, "feature": {"sight_features": "", "sight_content": ""}}, {"title": "径南基督教会", "address": "梅州市兴宁市205国道附近", "image": "", "rank": 39, "time": 2, "location": {"lat": 24.173268136684804, "lng": 115.8850231079148}, "feature": {"sight_features": "", "sight_content": ""}}, {"title": "黄垌基督教会", "address": "382乡道附近", "image": "", "rank": 40, "time": 2, "location": {"lat": 32.657457596015725, "lng": 120.35045013708917}, "feature": {"sight_features": "", "sight_content": ""}}, {"title": "龙北基督教会", "address": "广东省梅州市兴宁市合水镇府前路龙北卫生院东北400米", "image": "", "rank": 41, "time": 2, "location": {"lat": 24.283583964978973, "lng": 115.73550358286387}, "feature": {"sight_features": "", "sight_content": ""}}, {"title": "兴宁影剧院", "address": "大坝里", "image": "", "rank": 42, "time": 2, "location": {"lat": 24.14688818571905, "lng": 115.73163880306957}, "feature": {"sight_features": "", "sight_content": ""}}, {"title": "玩趣谷度假庄园", "address": "梅州市梅县区畲江镇官铺村涌塘茶子山", "image": "", "rank": 43, "time": 2, "location": {"lat": 24.03431053543757, "lng": 115.98355070967494}, "feature": {"sight_features": "", "sight_content": ""}}, {"title": "文德画廊", "address": "司前街81号", "image": "", "rank": 44, "time": 2, "location": {"lat": 31.304928205125716, "lng": 120.62374701222282}, "feature": {"sight_features": "", "sight_content": ""}}, {"title": "东方温泉", "address": "120乡道附近", "image": "", "rank": 45, "time": 0.7, "location": {"lat": 39.759357747243186, "lng": 119.07126443833883}, "feature": {"sight_features": "", "sight_content": ""}}, {"title": "天源水上乐园", "address": "洪溪桥中等专业技校附近", "image": "", "rank": 46, "time": 2, "location": {"lat": 26.35578035268389, "lng": 111.81715997347872}, "feature": {"sight_features": "", "sight_content": ""}}, {"title": "鹏香山庄水上乐园", "address": "新民大道", "image": "", "rank": 47, "time": 2, "location": {"lat": 32.140965335416894, "lng": 114.04645923818013}, "feature": {"sight_features": "", "sight_content": ""}}, {"title": "优雅美术馆", "address": "迎宾大道中段", "image": "", "rank": 48, "time": 2, "location": {"lat": 30.15201334776034, "lng": 102.94009186396315}, "feature": {"sight_features": "", "sight_content": ""}}, {"title": "强兴温泉", "address": "225省道", "image": "", "rank": 49, "time": 2, "location": {"lat": 36.171635087060416, "lng": 113.15712827095895}, "feature": {"sight_features": "", "sight_content": ""}}, {"title": "复兴书画院", "address": "城东路", "image": "", "rank": 50, "time": 2, "location": {"lat": 38.06940165046618, "lng": 112.68869434130043}, "feature": {"sight_features": "", "sight_content": ""}}, {"title": "胃珍之家纪念馆", "address": "205国道", "image": "", "rank": 51, "time": 2, "location": {"lat": 37.34066223973322, "lng": 118.07089300716441}, "feature": {"sight_features": "", "sight_content": ""}}, {"title": "会乐温泉", "address": "120乡道", "image": "", "rank": 52, "time": 2, "location": {"lat": 39.759357747243186, "lng": 119.07126443833883}, "feature": {"sight_features": "", "sight_content": ""}}, {"title": "桃源温泉", "address": "罗岗镇溪庄村", "image": "", "rank": 53, "time": 0.7, "location": {"lat": 24.478301859629397, "lng": 115.65393221983658}, "feature": {"sight_features": "", "sight_content": ""}}, {"title": "何云亭纪念馆", "address": "013县道", "image": "", "rank": 54, "time": 2, "location": {"lat": 44.74936812620221, "lng": 125.66485607650608}, "feature": {"sight_features": "", "sight_content": ""}}, {"title": "常发温泉", "address": "225省道", "image": "", "rank": 55, "time": 2, "location": {"lat": 36.171635087060416, "lng": 113.15712827095895}, "feature": {"sight_features": "", "sight_content": ""}}, {"title": "兴宁市图书馆", "address": "公园路46号", "image": "", "rank": 56, "time": 1.5, "location": {"lat": 40.68249213715319, "lng": 122.28376528955351}, "feature": {"sight_features": "", "sight_content": ""}}, {"title": "汇能儿童乐园", "address": "曙光路1号", "image": "", "rank": 57, "time": 2, "location": {"lat": 40.11502000989984, "lng": 116.53728446085893}, "feature": {"sight_features": "", "sight_content": ""}}, {"title": "红楼温泉", "address": "老街37号", "image": "", "rank": 58, "time": 2, "location": {"lat": 32.48806135418495, "lng": 119.93796793686576}, "feature": {"sight_features": "", "sight_content": ""}}, {"title": "永和肉联厂鲜肉直销点", "address": "中山东路23号", "image": "", "rank": 59, "time": 2, "location": {"lat": 40.82379135237637, "lng": 111.67830545353661}, "feature": {"sight_features": "", "sight_content": ""}}, {"title": "宝贝玩家儿童乐园", "address": "团结路北门街尾段", "image": "", "rank": 60, "time": 2, "location": {"lat": 32.20496981609567, "lng": 119.47387924570485}, "feature": {"sight_features": "", "sight_content": ""}}]}