{"cityName": "兴国", "days": 2, "cityImage": "", "spots": [{"title": "兴国烈士陵园", "address": "赣州市兴国县红军路16号", "image": "", "rank": 1, "time": 1.5, "location": {"lat": 26.33467102587094, "lng": 115.35971968349246}, "feature": {"sight_features": "", "sight_content": ""}}, {"title": "潋江书院", "address": "赣州市兴国县横街26号", "image": "", "rank": 2, "time": 2, "location": {"lat": 26.330903817750887, "lng": 115.35981735355561}, "feature": {"sight_features": "", "sight_content": ""}}, {"title": "宝石仙境风景区", "address": "赣州市兴国县瑶冈东路", "image": "", "rank": 3, "time": 2, "location": {"lat": 26.337495736771476, "lng": 115.36078560292889}, "feature": {"sight_features": "", "sight_content": ""}}, {"title": "将军园", "address": "赣州市兴国县将军大道南端", "image": "", "rank": 4, "time": 2, "location": {"lat": 26.33135501000067, "lng": 115.35078034443329}, "feature": {"sight_features": "", "sight_content": ""}}, {"title": "大乌山", "address": "赣州市兴国县郊区", "image": "", "rank": 5, "time": 2, "location": {"lat": 26.34388258824273, "lng": 115.36955169119426}, "feature": {"sight_features": "", "sight_content": ""}}, {"title": "苏区干部好作风陈列馆", "address": "将军大道", "image": "", "rank": 6, "time": 2, "location": {"lat": 25.965014614918225, "lng": 115.14307357675571}, "feature": {"sight_features": "", "sight_content": ""}}, {"title": "兴国县剧院", "address": "平固街", "image": "", "rank": 7, "time": 2, "location": {"lat": 26.326029306650643, "lng": 115.3601414756581}, "feature": {"sight_features": "", "sight_content": ""}}, {"title": "年年红葡萄采摘园", "address": "埠头乡德星桥滨江西大道与同福路交界路口西侧", "image": "", "rank": 8, "time": 2, "location": {"lat": 26.315209973798563, "lng": 115.35718799805758}, "feature": {"sight_features": "", "sight_content": ""}}, {"title": "农家乐餐馆", "address": "均村乡均村街新农村桥头", "image": "", "rank": 9, "time": 2, "location": {"lat": 26.36863746176666, "lng": 115.10837955642876}, "feature": {"sight_features": "", "sight_content": ""}}, {"title": "赣州客家土围", "address": "江西省兴国县县境内 342400", "image": "", "rank": 10, "time": 1.5, "location": {"lat": 26.34388258824273, "lng": 115.36955169119426}, "feature": {"sight_features": "", "sight_content": ""}}, {"title": "开心儿童乐园", "address": "江西省赣州市兴国县红军路30号", "image": "", "rank": 11, "time": 2, "location": {"lat": 26.338163825757544, "lng": 115.357501855223}, "feature": {"sight_features": "", "sight_content": ""}}, {"title": "益乐多儿童乐园", "address": "中心花园太平洋购物广场一楼", "image": "", "rank": 12, "time": 2, "location": {"lat": 26.34215766618805, "lng": 115.36059053409085}, "feature": {"sight_features": "", "sight_content": ""}}, {"title": "普惠古寺", "address": "普惠路49", "image": "", "rank": 13, "time": 2, "location": {"lat": 31.256813919101074, "lng": 120.76288945400412}, "feature": {"sight_features": "", "sight_content": ""}}, {"title": "海洋之星儿童乐园", "address": "江西省赣州市兴国县G319(将军大道)", "image": "", "rank": 14, "time": 2, "location": {"lat": 26.33135501000067, "lng": 115.35078034443329}, "feature": {"sight_features": "", "sight_content": ""}}, {"title": "唐灵古寺", "address": "江西省赣州市兴国县樟木乡螺形村", "image": "", "rank": 15, "time": null, "location": {"lat": 26.329834293528727, "lng": 115.62251155202416}, "feature": {"sight_features": "", "sight_content": ""}}, {"title": "开心儿童游乐城", "address": "赣州市兴国县", "image": "", "rank": 16, "time": 2, "location": {"lat": 26.34388258824273, "lng": 115.36955169119426}, "feature": {"sight_features": "", "sight_content": ""}}, {"title": "江东古庙", "address": "458县道附近", "image": "", "rank": 17, "time": 2, "location": {"lat": 40.726147274468815, "lng": 114.97938025390002}, "feature": {"sight_features": "", "sight_content": ""}}, {"title": "崇贤河", "address": "江西省赣州市兴国县", "image": "", "rank": 18, "time": 2, "location": {"lat": 26.34388258824273, "lng": 115.36955169119426}, "feature": {"sight_features": "", "sight_content": ""}}, {"title": "毛主席作长冈乡调查纪念馆", "address": "长冈乡", "image": "", "rank": 19, "time": 2, "location": {"lat": 26.368343023396104, "lng": 115.40601283476391}, "feature": {"sight_features": "", "sight_content": ""}}, {"title": "梦幻游乐园", "address": "红军桥头旁往高速公路方向(红军桥)", "image": "", "rank": 20, "time": 2, "location": {"lat": 40.49710515654462, "lng": 111.78257691059065}, "feature": {"sight_features": "", "sight_content": ""}}, {"title": "兴国水上乐园", "address": "五福路富兴新村", "image": "", "rank": 21, "time": 2.5, "location": {"lat": 26.332034423741728, "lng": 115.35494263852085}, "feature": {"sight_features": "", "sight_content": ""}}, {"title": "天下画廊", "address": "潋江镇红军北路261号", "image": "", "rank": 22, "time": 2, "location": {"lat": 26.343687415027865, "lng": 115.35464341471197}, "feature": {"sight_features": "", "sight_content": ""}}, {"title": "兴隆葡萄基地", "address": "S223福华商行西南550米", "image": "", "rank": 23, "time": 4.5, "location": {"lat": 26.288370363182985, "lng": 115.33817209929957}, "feature": {"sight_features": "", "sight_content": ""}}, {"title": "通天岩景区", "address": "江西省赣州市章贡区境内", "image": "", "rank": 24, "time": 2, "location": {"lat": 25.823747013882084, "lng": 114.92755088549953}, "feature": {"sight_features": "", "sight_content": ""}}, {"title": "总工会瑞金旧址", "address": "江西省瑞金市沙洲坝枣子排村", "image": "", "rank": 25, "time": 2, "location": {"lat": 25.863536286518723, "lng": 116.01071564255898}, "feature": {"sight_features": "", "sight_content": ""}}, {"title": "龙口贸易广场", "address": "江西省兴国县223省道", "image": "", "rank": 26, "time": 2, "location": {"lat": 26.572674882707087, "lng": 115.36962903529863}, "feature": {"sight_features": "", "sight_content": ""}}, {"title": "密石村", "address": "赣州市-兴国县-城枫公路", "image": "", "rank": 27, "time": 2, "location": {"lat": 26.597454189336826, "lng": 115.49998574103051}, "feature": {"sight_features": "", "sight_content": ""}}, {"title": "新人坑", "address": "赣州市-兴国县", "image": "", "rank": 28, "time": 2, "location": {"lat": 26.34388258824273, "lng": 115.36955169119426}, "feature": {"sight_features": "", "sight_content": ""}}, {"title": "木子山下", "address": "赣州市-兴国县", "image": "", "rank": 29, "time": 2, "location": {"lat": 26.34388258824273, "lng": 115.36955169119426}, "feature": {"sight_features": "", "sight_content": ""}}]}