{"cityName": "邢台县", "days": 2, "cityImage": "", "spots": [{"title": "天河山", "address": "邢台市邢台县白岸乡清泉村天河山景区", "image": "", "rank": 1, "time": 7.5, "location": {"lat": 37.08413318811082, "lng": 113.81558168590624}, "feature": {"sight_features": "特色1 在溪水树木之间漫步登山 特色2 参观众多与牛郎织女相关的景点，与爱人一起探寻古典的浪漫。 可以游玩景区内众多的拓展娱乐项目，体验刺激的漂流。", "sight_content": "天河山位于晋冀交界的太行山，总面积30平方公里，距邢台市65公里，交通便利，沿途风光优美。这里奇峰林立，峡谷幽峻，植被丰茂，林木葱郁，这里群瀑飞雪，清泉鸣筝，水源丰沛，是著名的“太行山水”；这里松涛阵阵，牛羊成群，又称“云顶草原”。天河山景区文化底蕴丰厚。早在新石器时代，天河山地区就有人类居住。春秋时期，孔夫子曾游学至此，“夫子岩”由此得名。抗日战争时期，这里是八路军主要根据地之一。129师医院，冀南银行（中国人民银行前身）等革命遗址，至今保存完好。特别是天河山一带广泛流传着牛郎织女的故事，并拥有大量的文化遗存。经多位专家考证，这里就是牛郎织女故事的原生地。\n2005年，天河山在国家工商总局注册为“中国爱情山”。2006年，天河山被中国民俗学会命名为“七夕”文化研究基地，被中国民间文艺家协会命名为“中国七夕文化之乡”。这里是千里太行的一颗耀眼的明珠。主要景点有：汉阙大门、天河湖、鸳鸯池、天河度假山庄、碟仙谷、碧莲池（壶穴）、情人谷、牛郎庄、仙人峰、鹊桥、月老峰、圣母庙、夫子岩、云顶草原、天下第一牝等数十处。另外，“七夕”文化陈列馆、中华古代性文化展也已向游人开放。天河山拥有北方户外拓展培训基地和华北落差较大的峡谷漂流项目，因落差大，水流急，惊险刺激，被誉为“中国情侣第一漂”。联合国教科文组织专家杨亮才先生观天河山有感：“此景只应天上有，不知何故落邢台。”牛郎织女魅力的爱情故事，也许只能发生在这唐诗宋词般绝美的仙境之中。"}}, {"title": "九龙峡", "address": "邢台市桥西区钢铁北路302号", "image": "", "rank": 2, "time": 1.0, "location": {"lat": 37.07814971056408, "lng": 114.47053127907627}, "feature": {"sight_features": "特色1 参观层叠锗红的横切地貌，奇幻壮观。 在峡谷、瀑布、溪流之间漫步登山，欣赏清新的自然风光。", "sight_content": "‍‍\n九龙峡旅游区2016年6月将举办“第七届端午祭龙大典暨2016年高山露营音乐节”。\n‍‍九龙峡高山露营音乐节期间系列活动时间：2016年6月4日-8月31日‍‍\n‍‍九龙出峡，夺冠天下时间：2016年5月20日-2016年5月22日‍‍\n‍‍中国·邢台第七届九龙峡端午祭龙大典时间：2016年6月4日\n‍‍通过神圣的道教仪式还原传统祭龙文化，充分挖掘民俗信仰，领略和感悟中华民族博大精深的龙文化和龙的精神。上香祈福，画龙点睛。舞龙舞狮庆节日，龙幡龙旗迎宾来，以热烈古典民间艺术表现出隆重的节日氛围和对来宾的欢迎。\n九龙峡峡谷底部三步一泉，五步一溪，十步一潭，清泉流淌，喷珠溅玉，时而急湍而下，时而微流细浪，时而平静如湖。游客至此犹如坠入人间仙境世外桃源，给人以“长恨冬景无觅处，不觉转入仙境来”的诗情画意。邢台九龙峡景区 位于太行山中麓，河北省石家庄南部邢台县浆水镇，盘桓于邢台、沙河、和顺、内丘四县之间，东距邢台市区62公里，距107国道、京（北京）—珠（珠海）高速公路62公里，宜沙国防公路和晋冀高等级省道由景区通过。九龙峡景区目前开发总面积64平方公里，从极峰俯瞰群峡，九峡蜿蜒汇向一球型山峰，“九龙戏珠”浑然天成，“九龙峡”因此而得名。九龙峡分布有上百个景点，这些景点归纳起来有十大特点，这就是：罕见的幽谷奇峡，迷人的高山奇景，刀削斧劈的悬崖，千姿百态的山石，如练似银的瀑布，碧波荡漾的深潭，绿浪翻滚的林海，丰富的文化积淀，浓郁的民俗风情，令人神往的传说。九龙峡被誉为“燕赵第一景”，人间仙境。\n九龙峡的峰林、草原、云海、日出、彩虹，一幅幅雄伟壮观、奇特迷人的景象，丰茂的植被和森林是九龙峡的又一大特点。植被茂盛，原始次生林覆盖了整个山峦，各种树林和奇花异草种类达数百种。奇妙的自然景观、变化多样的森林植被、幽深的环境以及形形色色的稀有动植物汇集成一种难于抗拒的诱人魅力。九龙峡的日出是那样的美丽和壮观，令人心旷神怡。由于九龙峡的局部环境特殊，常见云雾飘游于山腰，流动于千峰万壑之间，或成涛涛云海，浩瀚无际，或与朝霞、落日相映，色彩斑斓，壮美瑰丽。幽谷泉鸣，鸟语花香，整个景区犹如一幅幅立体的壮丽画卷。春天，满山桃花和上百种山花，竞相争艳，可使你领略高山春的气息；夏日，泉水潺潺，清幽凉爽，高山飞瀑，九峡秀谷，一步一景；秋来，满山树上的硕果挂满枝头，黄栌、五角枫将大山妆点得五彩缤纷，让人感到丰收的喜悦和秀美大山的强烈诱惑；冬至，瑞雪飞舞，银装素裹，百丈悬崖上的冰挂令人惊叹不已。支锅岭长城建于明嘉靖二十一年(公元1542年)，呈东南、西北走向。墩台上尚存城楼遗址，在关门内侧两边各存建筑残垣，这里山高陡峭，是通往山西的要塞，历来为兵家必争之地。两千余米千年古夷仪栈道保存完好，在抗日战争时期，为中国人民抗日军政大学所在地，并被中宣部命名为全国爱国主义教育示范基地。"}}, {"title": "邢台峡谷群", "address": "邢台市邢台县路罗镇贺家坪村", "image": "", "rank": 3, "time": 2.0, "location": {"lat": 37.14481330606452, "lng": 113.82973077921419}, "feature": {"sight_features": "", "sight_content": ""}}, {"title": "天梯山景区", "address": "邢台市邢台县西黄村镇东牛庄村", "image": "", "rank": 4, "time": 3.0, "location": {"lat": 37.11121904610756, "lng": 114.26137940725619}, "feature": {"sight_features": "特色1 走进一个个形状各异的天然山洞，观看雕像、石刻等古迹。 特色2 登山走在悬空古桥和吊桥之间，感受天梯山地貌的独特和险峻。 特色3 乘船进入金水洞，观赏古洞内的钟乳石美景。", "sight_content": "天梯山风景区集奇山、丽水、古洞、金泉、抗金遗址于一体，突出一个“险”字，以险取胜别具秀美特点。景区规划面积16平方公里，其中游览面积6平方公里。拥有54个奇特景点景观和36个天然古洞，素有“三十六洞洞洞奇，五十四景景景美”之盛誉。天梯山系太行山脉，海拔虽说只有500多米，远远不及小西天、白云山高大雄伟。但山不在高，奇特则名。远看此山平平常常貌不惊人，近前才知与众不同确有奇特之处。说其奇，奇就奇在该山古洞群聚，洞套洞洞连洞别有洞天；说其特，特就特在该山怪石嶙峋形貌各异，壁立千仞宛若刀劈，登山台阶陡立向上，好像一架梯子高倚云天，其险要之势，奇特之状令人交口赞绝。\n\n\n素有第一水洞美誉的金水洞，位于天梯山东部山脚下，是我国北方典型的喀斯特地貌岩溶洞，洞中有经数亿年冲刷而成的石笋、石柱、石花、石幔、石盾、石瀑布等钟乳石千姿百态、琳琅满壁，其中的石盾世界罕见。奇异的溶洞景观和独具特色的旅游资源引无数游客竞折腰。1999年百年难遇奇旱，金泉水断流，4月3日在挖泉眼的时候，金水洞破腹而生，洞的前部是地下暗河，曲径通幽，可乘船游览。这在华北独有，洞中、水洞、旱洞及地下暗河纵横交错，水质清澈，四季恒温18℃，严冬季节洞内热浪扑面暖意融融，盛夏酷暑，洞内寒气侵袭，清神爽心，被誉为天然空调。已开发的游览线路、水路400多米，旱路800多米，洞线彩灯流荧、碧波映辉、盘梯生趣，把地下溶洞奇观美景映衬得更加绚丽多姿，具有很高的观赏价值，堪称太行地下明珠。好处尽在不言中，天造地设金水洞。\n\n天梯山主峰长寿峰，俗称金顶，垂直拔高550米，是观日出的好地方。金顶上金石、玉石、雨花石储量丰富，美丽的民间传说为其增添了神奇的色彩。金顶一侧裸露的巨石上镶嵌一张藏宝图，石纹盘结宛若天书，意象鲜明引人注目，猛一看杂乱无章，细观瞧神工杰作，自古至今口碑流传：“南坡至北坡，金子一大锅，谁能解开谜，便是得宝者！”游客到此无不跃跃欲试，试图解开“藏宝图”之谜发一笔大财。"}}, {"title": "云梦山风景区", "address": "邢台县冀家村乡石板房村北", "image": "", "rank": 5, "time": 3.5, "location": {"lat": 37.32919128092591, "lng": 113.94154153115916}, "feature": {"sight_features": "特色1 被誉为“北方的九寨沟”", "sight_content": "云梦山风景区位于河北省邢台县冀家村乡石板房村北。东距邢台市66公里，交通便利。该景区属北方山岳类型，主峰1300多米，为河北、山西分 水岭。面积25平方公里，植被覆盖率95%，珍稀动植物100余种。8月份日平均气温23℃左右。风景区位于翠阳山、牛群山、轿顶山的三山环抱之中， 人进入景区，恍如进入一只大肚茶壶中，只见四面山势峭拔，赤壁翠崖，头顶只一片圆天，神秘莫测，故称“壶天仙境”，自下而上分为4层，分别 为碧溪幽谷“下壶天”、峭崖飞瀑“中壶天”、水帘仙洞“上壶天”、天上人间“天外天”。\n云梦山景区属北方山岳类型，云梦山主峰1300多米，游览面积25平方公里，植被覆盖率95%，林中有珍稀动物百余种。进入景区，恍如进入一只大 肚茶壶，只见四面山势峭拔，赤壁翠崖，头顶一片圆天，神秘莫测，故称“壶天仙境”。云梦山被誉为“北方的九寨沟”，最奇之处在于它的九潭十 八瀑，您可以游览龙吟峡、镇蛟石、栖鹰飞瀑、五禅洞、上壶天、下壶天、白龙溪、附丹崖、温翠坡、绕桧柏、挤幽涧、流蛟瀑、龙吟瀑、晒波瀑、 神仙道、红碾盘、神仙脚印、讲经洞等。\n云梦山是太行山脉的一朵奇葩，千百年来沉睡在香闺深处。云梦山山雄、水秀、谷幽、洞奇。整个景区山水石树交相辉映，塘溪潭瀑错落有致， 若白龙飞腾，如银练飘舞，四季如画，景色宜人，令人诗情勃发，被誉为“北方的九寨沟”。已开发景点80余处，景点密集，游程安排张弛有度，有 惊无险。云梦山以水见长，她是一个瀑的世界，潭的海洋。\n云梦山景区的瀑潭的形成，主要源自天外天的水帘洞。水帘洞虽然高在云天外，但却水源充沛，洞泉常流，泉盛时，汹涌澎湃，如蛟龙出海，泉 弱时喷银吐玉，微波漪澜。水帘洞泉自山之巅峰，汇集东西两大龙泉，形成波光粼粼的，白龙溪一路漫翠坡，坠丹崖，绕松柏，漫翠坡，挤幽涧，一 路形成栖鹰瀑、滚蛟瀑、龙吟瀑、晒鳞潭、浣药潭、碧波潭……构成多姿多彩的九瀑十八潭。云梦山山雄、水秀、谷幽、洞奇，尤其是白龙溪，从山顶的水帘洞及东、西白龙泉喷涌而出一路形成九瀑十八潭，若白龙飞腾，如银练飘舞，令 人诗情勃发，被誉为“北方的九寨沟”。云梦山是战国时期著名道家鬼谷子隐居修道授徙之处。叱咤风云的孙膑、宠涓、苏秦、乐毅、毛遂都曾在这里拜师学道。如今，在讲经洞内诵一 声道号，回音袅袅，仿若众生读书唪典。还特别值得称道的是，这里有丰富的文化底蕴，相传战国时期著名道家鬼谷子曾隐居此山，修道授徒，叱嚓 风云名扬天下的孙膑，庞涓，苏秦，张仪，毛遂，都是再这里拜师学道，至今，很多古迹尚存。"}}, {"title": "前南峪生态观光旅游区", "address": "邢台市邢台县浆水镇前南峪村", "image": "", "rank": 6, "time": 5.0, "location": {"lat": 37.16676995356374, "lng": 113.93640907340756}, "feature": {"sight_features": "特色1 全国百家红色经典景区。", "sight_content": "前南峪生态观光区现有三大特色：抗大遗址及展馆的红色之旅、生态农业的绿色观光、自然野趣的坐化山揽胜。 　　前南峪生态观光园景区的第一大特色：红色旅游是集体精神文明、物质文明为一体的旅游活动，十大景区之一的抗大观瞻区，前南峪生态观光园是整个景区的灵魂。现已建好的抗大纪念馆、纪念碑和大型浮雕，恢复的滕代远、何长工旧居、汉白玉雕像和抗大部分学员题词刻成的千米碑林。2001年被中共中央宣传部列为“全国爱国主义教育基地”，2002年被国防部列为“国防教育基地”，国家军委副主席迟浩田亲笔题写的“国防教育基地”的匾牌在阳光的照射下熠熠发光。在抗大纪念馆内，陈列着自抗大1936年创立到新中国成立14年的建校史和艰苦卓绝的战斗史的大量图片和实物，纪念碑有愿国家主席胡耀邦的题词，而大型浮雕则是抗大学员在抗战期间学军事、学文化、开梯田、反扫荡的生动写照。首长旧居里陈列着滕代远、何长工生活战斗用过的部分实物和资料。不久将开放建筑面积达2000多平方米的山中坑道战备工事，使大家进一步了解毛泽东时代“深挖洞，广积粮、不称霸”思想的部分缩影。\n前南峪生态观光园景区的第二大特色：绿色的生态观光。它是整个前南峪景区的精髓。春天鲜花惹人醉，秋季果实满枝头，各种奇花异草，构成了一幅幅优美、和谐的动人画卷。在此可以看到8300亩栗树林，异国他乡的奇花异果，保健药用植物园，唐代女皇武则天亲自命名的“千年板栗王”，其中万邦珍果园内有薄皮核桃园、美国的凯特杏、红提葡萄、澳洲的秋红油桃、大杏仁、欧洲榛子以及乌克兰大樱桃等七大园区。现又新增杜仲、树莓、北海道黄杨和千株玫瑰园四个园区。最引人注目的是花香飘溢的玫瑰园，这是现任国家旅游局局长何光暐委托夫人，赠送的千株香玫瑰。用常青小柏树栽植而成的“再造秀美山川”六个大字，浓缩着前南峪人民战天斗地的昂扬精神和艰苦奋斗、勇攀高峰的决心。站在泽后亭前，放眼望去，工程浩大的层层梯田不由你不对人定胜天的前南峪人肃然起敬。同时看到了二次创业的高标准起步。在前南峪生态观光园景区内可亲口品尝异国它乡的果实，亲自体会在绿色海洋里回归大自然的趣味，亲自领略为中国人民解放军做出巨大贡献的抗日军政大学在战争年代的峥嵘岁月。目前景区内设有邢襄宾馆，可以容纳150人同时吃住，有可接纳100人农家旅舍，能提供较高档次的美味佳肴，也备足了纯粹的农家饭菜。前南峪生态观光园按着高起点的规划，搞大旅游的方针，充分发挥抗大艰苦奋头精神，努力营造科学至上、健康文明至上，以经济改造升级为依托，以高效林果业为重点，将前南峪生态观光园景区的红色旅游，绿色生态观光游推向高潮，使景区突出特色上品位。"}}, {"title": "紫金山旅游区", "address": "邢台市邢台县白岸乡前坪村", "image": "", "rank": 7, "time": 4.5, "location": {"lat": 37.03398098255292, "lng": 113.80691951451769}, "feature": {"sight_features": "特色1 探太行圣境，访五杰灵踪", "sight_content": "中华五杰山（紫金山）景区系国家地质公园，河北省风景名胜区之一，位于太行山主脉中段、邢台县白岸乡前坪村，东距邢台市55公里。景区面积28平方公里。境内千峰竞秀，万树相拥，平湖飞瀑，云蒸霞蔚。植被覆盖率97%，负氧离子含量高出一般工作环境200多倍，是八百里太行独一无二的天然大氧吧。唯此独有的“龙旋天瓮”“立屏板山”，雄伟壮丽的“追梦楼”“五星湖”，青碧秀艳的“水滑梯”“蚌仙池”，神奇灵验的“柏灵洞”“养元庙”等百余处景点定会让您赏心悦目，流连忘返。\n多姿多彩的紫金山承载着厚重的历史文化和红色文化。辅佐元世祖忽必烈创建大元王朝的开国重臣刘秉忠、郭守敬、张文谦、张易、王恂曾在本区滴水涧紫金书院潜心研究经天纬地，治国安民之学问，人称“中华五杰”。抗日战争时期八路军129师供给部、冀南银行印币厂曾隐扎此山，至今遗址尚存。这里是旅游观光、避暑度假、猎奇探险、访古科考、会议接待、餐饮娱乐、养生健体、会友谈情的绝佳胜地。探太行圣境，访五杰灵踪，将成为您终生受益的人文生态之旅。"}}, {"title": "张果老山", "address": "邢台市邢台县会宁镇景刘庄村", "image": "", "rank": 8, "time": 2.0, "location": {"lat": 37.1243217310531, "lng": 114.34249282583941}, "feature": {"sight_features": "特色1 有悠久的历史和丰厚的文化底蕴", "sight_content": "张果老山系国家AA级旅游景区，河北省第一批省级风景名胜区。全景区现有游览面积10平方公里，是邢台历史文化名山，海拔450.7米，位于邢台市西郊15公里的会宁镇境内，因传说张果老逃避唐玄宗招赘驸马，假装暴死后隐居此山修行悟道而得名。张果老山有着悠久的历史和丰厚的文化底蕴，在整个河北省的中南部几乎都家喻户晓。 仙山常年香火旺盛，富有灵气，作为邢台市著名的道教仙山而名扬在外，且地理位置得天独厚，距邢台市区仅15公里，景区的旅游专线和黄羊公路、邢昔公路连为一体；同时与北面的玉泉古寺、西山康年酒店度假村，南面的天梯山风景区形成了邢台市“后花园”的第一道特色风景线。\n每年农历三月初八是仙山的传统庙会。庙会当天，苦梦树便准时于凌晨开花，花香四益为游客提神，待傍晚庙会结束时，这棵树的香花便自动凋落，成为张果老山的一大奇观。据考证，苦梦树系华夏大地罕见的稀有树种，整个长江以北仅此一棵，可以说是珍贵之极。张果老山主峰海拔虽四百多米，但相对高度很大，山势显得格外高峻挺拔。北面是断壁悬崖，幽深莫测；南坡稍缓，呈坡状倾斜，形成座北朝南之势。山坡上纽纹古柏（俗称拧劲柏）苍翠劲拔，躯干纽缠，条条粗纹根扎于坚硬的岩缝之中，郁郁葱葱，山花遍野，鸟鸣山谷，泉水叮咚，真乃是郊区度假、休闲之仙境！"}}, {"title": "天海一色水上乐园", "address": "邢台市邢台县西郊中兴路5公里处皇台底村南", "image": "", "rank": 9, "time": 2, "location": {"lat": 37.06969158419412, "lng": 114.48599727119405}, "feature": {"sight_features": "", "sight_content": ""}}, {"title": "邢台峡谷漂流", "address": "邢台市邢台县路罗镇茶旧沟村", "image": "", "rank": 10, "time": 2.0, "location": {"lat": 37.17710928752027, "lng": 114.14341085817597}, "feature": {"sight_features": "特色1 河道水源清澈，峡谷内急流湍湍，弯叉交错。 特色2 河道可控程度高，兼顾刺激、安全、舒适。 特色3 漂流河道依峡谷顺流而下，浑然天成。", "sight_content": "﻿邢台峡谷漂流位于邢台市西南部邢台峡谷群路罗川一带，距邢台市65公里、邯郸市100公里、石家庄市180公里，G2516东吕高速直达漂流上码头，地理位置优越，交通便捷，是目前距离邢台、邯郸、石家庄距离最近的漂流，也是河北地区唯一的大型漂流。\n\n\n邢台峡谷漂流以八百里太行为背景，紧邻邢台峡谷群国家地质公园，其环境山势陡峭奇伟、峡谷曲折幽深，周边景区景点品质高，数量多，而且十分集中，不失为燕赵大地最为自然壮观的漂流目的地和观光、休闲、度假、购买当地土特产品、旅游的最佳目的地。\n\n\n漂流河道依峡谷顺流而下，浑然天成。河道全长8.8公里，落差122米，漂流时长2-3小时，可一次性投放2000条橡皮艇。河道可控程度高，兼顾刺激、安全、舒适，上下码头综合服务中心占地98亩，均配有高标准的更衣室、洗浴室、卫生间、购物中心、快餐店等，是目前河北地区接待规模最大、建设档次最高、服务设施最全的水上运动娱乐项目。"}}, {"title": "兴台古镇", "address": "邢台市邢台县兴台古镇", "image": "", "rank": 11, "time": 1.0, "location": {"lat": 37.17710928752027, "lng": 114.14341085817597}, "feature": {"sight_features": "", "sight_content": "兴台古镇位于邢台县龙冈经济开发区，古镇中，曲桥卧波，亭台楼阁，如入诗境，如临画卷。兴台古镇分为中华财神第一阁、大戏楼、福禄寿三星报喜台、民俗文化体验区、饮食文化体验区、酒文化体验区六个区域。"}}, {"title": "景梅山风景区", "address": "邢台市邢台县西黄村镇西川口村", "image": "", "rank": 12, "time": 2, "location": {"lat": 37.11882847455285, "lng": 114.21776153464263}, "feature": {"sight_features": "特色1 最高海拔682米，属丹霞地貌，是集太行山雄、奇、险、峻，和巧石、云海、清幽、变幻于一体的山岳型自然风景区。 特色2 景梅山景区建有山脊云端玻璃栈道310米，惊险刺激、雄伟壮观。 特色3 离市近，路方便;可戏水，可登山。", "sight_content": "景梅山景区位于河北邢台市西25余公里处，因所处太行山中部而得名。最高海拔682米，属丹霞地貌，是集太行山雄、奇、险、峻，和巧石、云海、清幽、变幻于一体的山岳型自然风景区\n景梅山景区建有山脊云端玻璃栈道310米，惊险刺激、雄伟壮观。\n离市近，路方便;可戏水，可登山;千亩山顶平展展;各种运动随便玩;居高临下看得远;风光无限胸怀宽;山风清爽无污染;邢台人的星期天。"}}, {"title": "仙界山", "address": "邢台市邢台县冀家村乡老道旮旯村", "image": "", "rank": 13, "time": 2, "location": {"lat": 37.306679511074066, "lng": 113.92956447320141}, "feature": {"sight_features": "特色1 仙界山山险、水秀、峰奇、谷幽，四季分明，风景优美。", "sight_content": "仙界山山险、水秀、峰奇、谷幽，四季分明，风景优美。阳春三月山花怒放，百花争艳，一片花的海洋；盛夏酷暑，流泉飞瀑，云缠雾绕，绿荫蔽日，凉爽宜人；金秋十月，千峰竞秀，层林尽染，红叶似火，“枫”情万种；隆冬严寒，冰雕玉琢，银装素裹，宛如琉璃世界。仙界山具备山岳旅游区避暑气候的条件，这里常年溪流不断，形成了许多瀑布、水潭、清泉等水景。有水使景观变活，有水使沟谷清幽，丰富的泉水溪流，构成了仙界山灵秀景观。\n\n\n仙界山春夏两季，满山遍野，鲜花盛开，植被茂密，绿树成荫，尤其进入深秋，黄栌、五角枫及柿树等红叶似火，苍山如妆，格外艳丽。仙界山主沟有三条瀑布，飞龙瀑喷金洗翠，瀑雨纷飞，雾霭轻盈，令人心旷神怡；银河瀑如银似玉，如白雪匹练，顺着光滑如磨的巨大石壁，缓缓流淌；九霄瀑夏季自层岩之巅，以高屋建瓴之势，倾泻而下，水势汹涌，撼天动地，蔚为壮观。传说道家信奉的老子、玉皇大帝均在此隐居修炼过，另外传说中的张果老、吕洞宾等八仙，以及七仙女也在仙界山生活居住过，神仙洞、神仙脚印、仙女楼、仙人谷、罗汉洞等均是诸神仙生活遗存。\n\n\n抗日战争时期，一二九师后勤部的军械所迁至仙界山，1942年日军大扫荡时，把兵工厂列为重点袭击目标，当地军民齐心协力，将兵工厂的设备，弹药及时转移，避免了重大损失，老道旮旯村民为革命立下了不朽功绩，兵工厂遗址尚存。根据景区自然地理条件，区位条件、综合景区旅游资源特色，景区规划为综合服务区，通天谷景区，桃花岭景区，仙驼峰景区。目前，综合服务区和通天谷景区正式对外开放。不久，桃花岭景区、仙驼峰景区对外开放后，将形成融山岳峡谷风光，道教神仙文化、飞瀑溪流特色于一体的休闲养生度假风景区。"}}, {"title": "森林公园圣乐游乐场", "address": "邢台市邢台县107国道森林公园内", "image": "", "rank": 14, "time": 2, "location": {"lat": 37.13000847454015, "lng": 114.52313167409444}, "feature": {"sight_features": "", "sight_content": ""}}, {"title": "颐和温泉度假区", "address": "邢台市邢台县郭守敬大道东京港澳高速辅路与京珠高速交叉口（京珠高速邢台北出口）西北方向50米路北", "image": "", "rank": 15, "time": 2, "location": {"lat": 34.61201118507224, "lng": 118.68457877054712}, "feature": {"sight_features": "", "sight_content": ""}}, {"title": "凤凰崖", "address": "邢台市邢台县白岸乡大西庄", "image": "", "rank": 16, "time": 2.5, "location": {"lat": 37.07559086322352, "lng": 113.78933958765347}, "feature": {"sight_features": "特色1 以凤凰文化为品牌，打造一体的综合项目", "sight_content": "邢台凤凰崖景区位于邢台市邢台县白岸乡大西庄，地处太行山深处，主要建设有清泉引凤接待服务区、凤凰涅槃山地休闲区、凤凰华韵水上乐园、凤凰来仪养生度假区、梧桐栖凤生态观光区五大功能区，以凤凰文化为品牌，打造集山水观光、休闲度假、会议接待、研学旅行、水上娱乐、民族体验等功能于一体的综合项目。"}}, {"title": "森林公园龙鑫游乐场", "address": "邢台市邢台县森林公园内", "image": "", "rank": 17, "time": 1.0, "location": {"lat": 37.13000847454015, "lng": 114.52313167409444}, "feature": {"sight_features": "", "sight_content": ""}}, {"title": "春田公社", "address": "邢台市邢台县泉北东大街仙寓花卉市场东行500米路南", "image": "", "rank": 18, "time": 2, "location": {"lat": 37.096981303840714, "lng": 114.54494167219835}, "feature": {"sight_features": "", "sight_content": ""}}, {"title": "邢台市动物园", "address": "梁庄路与水厂路交汇处", "image": "", "rank": 19, "time": 1.0, "location": {"lat": 33.99493441031624, "lng": 117.9695886002098}, "feature": {"sight_features": "", "sight_content": ""}}, {"title": "西山康年滑雪场", "address": "皇寺镇玉泉山渡假村内", "image": "", "rank": 20, "time": 2, "location": {"lat": 37.199852780158466, "lng": 114.34202739399197}, "feature": {"sight_features": "", "sight_content": ""}}, {"title": "路桥地产龙熙山庄", "address": "宋家庄镇土垴村富家坡学校西南350米", "image": "", "rank": 21, "time": 2, "location": {"lat": 37.303547997257425, "lng": 114.1067965544031}, "feature": {"sight_features": "", "sight_content": ""}}, {"title": "前南峪国家森林公园", "address": "河北省邢台县浆水镇前南峪村 054013", "image": "", "rank": 22, "time": 2, "location": {"lat": 37.16676995356374, "lng": 113.93640907340756}, "feature": {"sight_features": "", "sight_content": ""}}, {"title": "映雪湖温泉度假村", "address": "映雪湖山庄朱庄水库附近", "image": "", "rank": 23, "time": 2, "location": {"lat": 37.03657907716625, "lng": 114.17925271083739}, "feature": {"sight_features": "", "sight_content": ""}}, {"title": "海洋动物馆", "address": "邢台市邢台县", "image": "", "rank": 24, "time": 2, "location": {"lat": 37.17710928752027, "lng": 114.14341085817597}, "feature": {"sight_features": "", "sight_content": ""}}, {"title": "玉泉禅寺", "address": "皇寺村内", "image": "", "rank": 25, "time": 2, "location": {"lat": 41.81302401105632, "lng": 123.43456019000189}, "feature": {"sight_features": "", "sight_content": ""}}, {"title": "邢台县龙冈经济开发区规划展示馆", "address": "河北省邢台县羊祁线", "image": "", "rank": 26, "time": 7.5, "location": {"lat": 37.01315295782091, "lng": 114.3342749761188}, "feature": {"sight_features": "", "sight_content": ""}}, {"title": "儿童主题乐园", "address": "河北省邢台市邢台县国际新城", "image": "", "rank": 27, "time": 2, "location": {"lat": 37.0654166341258, "lng": 114.56040154056745}, "feature": {"sight_features": "", "sight_content": ""}}, {"title": "儿童乐园", "address": "321省道附近", "image": "", "rank": 28, "time": 2, "location": {"lat": 37.11728765273746, "lng": 114.47042757060345}, "feature": {"sight_features": "", "sight_content": ""}}, {"title": "圣水寺", "address": "河北省邢台市邢台县", "image": "", "rank": 29, "time": 1.5, "location": {"lat": 37.17710928752027, "lng": 114.14341085817597}, "feature": {"sight_features": "", "sight_content": ""}}, {"title": "龙泉湖生态园", "address": "河北省邢台市邢台县龙泉寺乡戴凤庄村", "image": "", "rank": 30, "time": 2, "location": {"lat": 37.03906401402083, "lng": 114.18772861857845}, "feature": {"sight_features": "", "sight_content": ""}}, {"title": "小雷音寺", "address": "河北省邢台市邢台县路罗镇南寺", "image": "", "rank": 31, "time": 2, "location": {"lat": 37.085030884676186, "lng": 113.93058373914154}, "feature": {"sight_features": "", "sight_content": ""}}, {"title": "龙华寺遗址", "address": "071乡道附近", "image": "", "rank": 32, "time": 2, "location": {"lat": 41.03196352981676, "lng": 117.27779874529557}, "feature": {"sight_features": "", "sight_content": ""}}, {"title": "吉祥寺", "address": "河北省邢台市邢台县会宁镇淼岳林庄园西450米", "image": "", "rank": 33, "time": 2, "location": {"lat": 37.1549261673058, "lng": 114.46268817007544}, "feature": {"sight_features": "", "sight_content": ""}}, {"title": "莲花山莲池寺", "address": "河北省邢台市邢台县S321", "image": "", "rank": 34, "time": 2, "location": {"lat": 37.17710928752027, "lng": 114.14341085817597}, "feature": {"sight_features": "", "sight_content": ""}}, {"title": "邢台东站站前广场", "address": "河北省邢台市邢台县振兴一路", "image": "", "rank": 35, "time": 2.0, "location": {"lat": 37.10308413338604, "lng": 114.60222641604412}, "feature": {"sight_features": "", "sight_content": ""}}, {"title": "邢襄颐和温泉旅游度假村", "address": "邢州大道", "image": "", "rank": 36, "time": 2, "location": {"lat": 37.11033041300226, "lng": 114.4799927124025}, "feature": {"sight_features": "", "sight_content": ""}}, {"title": "梅花休闲山庄", "address": "321省道", "image": "", "rank": 37, "time": 2, "location": {"lat": 37.11728765273746, "lng": 114.47042757060345}, "feature": {"sight_features": "", "sight_content": ""}}, {"title": "中国人民抗日军政大学陈列馆", "address": "前南峪生态旅游区附近", "image": "", "rank": 38, "time": 2, "location": {"lat": 37.17126786631404, "lng": 113.92480544015201}, "feature": {"sight_features": "", "sight_content": ""}}, {"title": "经济社会发展展示馆", "address": "羊祁线", "image": "", "rank": 39, "time": 2, "location": {"lat": 37.01315295782091, "lng": 114.3342749761188}, "feature": {"sight_features": "", "sight_content": ""}}, {"title": "邢州民俗博物馆", "address": "森林公园附近", "image": "", "rank": 40, "time": 2, "location": {"lat": 37.86836484885634, "lng": 114.46014602566868}, "feature": {"sight_features": "", "sight_content": ""}}, {"title": "抗大陈列馆", "address": "前南峪村", "image": "", "rank": 41, "time": 2, "location": {"lat": 37.172076027494185, "lng": 113.95378499149723}, "feature": {"sight_features": "", "sight_content": ""}}, {"title": "花果山漂流", "address": "森林公园游乐场东南角(卡丁车南邻)", "image": "", "rank": 42, "time": 0.5, "location": {"lat": 37.131936162479946, "lng": 114.5150182883216}, "feature": {"sight_features": "", "sight_content": ""}}, {"title": "寒山农家乐", "address": "侯家庄乡行家峪村", "image": "", "rank": 43, "time": 2, "location": {"lat": 37.40401449239002, "lng": 114.04220748903188}, "feature": {"sight_features": "", "sight_content": ""}}, {"title": "青青生态园", "address": "北良舍村", "image": "", "rank": 44, "time": 2, "location": {"lat": 37.16121517854476, "lng": 114.43362017426463}, "feature": {"sight_features": "", "sight_content": ""}}, {"title": "邢台龙隐堂根艺馆", "address": "郭守敬大道23公交终点站西行20米路北", "image": "", "rank": 45, "time": 2.0, "location": {"lat": 37.11042734585444, "lng": 114.57815588829831}, "feature": {"sight_features": "", "sight_content": ""}}, {"title": "山之泉农家庄园", "address": "清泉村天河山景区口东侧300米", "image": "", "rank": 46, "time": 2, "location": {"lat": 37.678498473611576, "lng": 114.1839549772667}, "feature": {"sight_features": "", "sight_content": ""}}, {"title": "邢襄古镇", "address": "邢台市邢台县龙泉寺乡055乡道附近", "image": "", "rank": 47, "time": 2, "location": {"lat": 37.08432423361648, "lng": 114.17644451977925}, "feature": {"sight_features": "", "sight_content": "邢襄古镇位于河北省邢台市邢台县龙泉寺乡，踏着古朴的道路，品味时光的轴线，带着岁月的古朴与深邃，寻找历史的回声，感受来自文化真实的脉动，享受生活的静谧和悠闲。这里是一个将历史文化、景观特色、休闲美食等有机相融的所在。"}}, {"title": "凉水坪", "address": "邢台市-邢台县-紫金山线", "image": "", "rank": 48, "time": 2, "location": {"lat": 37.061405324214945, "lng": 113.84098276808294}, "feature": {"sight_features": "", "sight_content": ""}}, {"title": "不老青山", "address": "河北省邢台市大北沟村", "image": "", "rank": 49, "time": 2, "location": {"lat": 37.344602531545995, "lng": 113.97358298108938}, "feature": {"sight_features": "", "sight_content": ""}}, {"title": "英谈村", "address": "河北省邢台英谈村", "image": "", "rank": 50, "time": 2, "location": {"lat": 37.1165918675697, "lng": 113.85461017855071}, "feature": {"sight_features": "", "sight_content": ""}}, {"title": "八一水库", "address": "邢台市邢台县", "image": "", "rank": 51, "time": 2, "location": {"lat": 37.17710928752027, "lng": 114.14341085817597}, "feature": {"sight_features": "", "sight_content": ""}}, {"title": "老道旮旯村", "address": "河北省邢台邢台县老道旮旯村", "image": "", "rank": 52, "time": 2, "location": {"lat": 37.306679511074066, "lng": 113.92956447320141}, "feature": {"sight_features": "", "sight_content": ""}}]}