{"cityName": "兴仁", "days": 2, "cityImage": "", "spots": [{"title": "鲤鱼坝", "address": "黔西南布依族苗族自治州兴仁县屯脚镇，距兴仁县15公里，兴仁县距兴义市65公里", "image": "", "rank": 1, "time": 2.0, "location": {"lat": 25.372895841965438, "lng": 105.34901177201588}, "feature": {"sight_features": "", "sight_content": ""}}, {"title": "剑平池公园", "address": "贵州省黔西南布依族苗族自治州兴仁县", "image": "", "rank": 2, "time": 2, "location": {"lat": 25.49978380271888, "lng": 105.27763031670058}, "feature": {"sight_features": "", "sight_content": ""}}, {"title": "积圆寺", "address": "贵州省黔西南布依族苗族自治州兴仁县建国路", "image": "", "rank": 3, "time": 2, "location": {"lat": 25.43821089770157, "lng": 105.1908475592994}, "feature": {"sight_features": "", "sight_content": ""}}, {"title": "真武山公园", "address": "贵州省黔西南布依族苗族自治州兴仁县环城西路", "image": "", "rank": 4, "time": 2, "location": {"lat": 25.437052514106416, "lng": 105.18705777993041}, "feature": {"sight_features": "", "sight_content": ""}}, {"title": "帝贝温泉", "address": "黔西南州兴仁县城南街道薏仁生态园", "image": "", "rank": 5, "time": 2, "location": {"lat": 25.394049083079306, "lng": 105.26025913016784}, "feature": {"sight_features": "特色1 接受大自然自然疗法", "sight_content": "景点介绍：\n【康养黔西南 温泉养生圣地】兴仁县总人口53万，百岁以上的老人有58人，80岁以上的老人有一万余人，境内居住人员的平均年龄为77.02岁，当地的空气和水有延年益寿的功效。\n帝贝天然温泉，地处兴仁县、毛栗寨、龙潭，温泉水取自地下2620米。泉水中富含偏硅酸、锂、溴、硒、铜、锶等75种对人体有利的矿物质微量元素，对人体有特殊的调节作用，可以预防和改善疾病。当地盛产薏仁，从唐代就有种植，兴仁人喜食薏仁和粗娘，薏仁米具有祛风湿、强筋健骨、健脾补肺等功效。现代科学研究和临床实践证明，薏仁米有抗肿瘤、免疫调节、降血糖、降血压、抗病毒等方面的药理活性，对癌症抑制率达35%以上，具有防癌作用，被誉为“生命健康之友”，益寿延年效果十分明显。\n\n\n兴仁县城地处北纬25度，与美国迈阿密、广西桂林、云南昆明、台湾台北及阿联茜的迪拜等著名旅游城市同在一个纬度上，是当今世界上最佳适宜人居住的地区之一。此地冬无严寒、夏无酷暑、四季温差不大，水质优良，人体的生理功能、生活节奏、新陈代谢水平均处于最佳状态，是形成健康长寿的基础条件。\n未来兴仁县帝贝温泉将紧紧围绕州委州政府提出的着力打造“康养黔西南、四季花园城”，深度挖掘长寿文化，打响长寿文化品牌；抓好健康养生、休闲度假、旅游观光、生态农业、食品加工等产业发展，做大做强长寿产业，迅速提升兴仁的知名度、影响力和综合竞争力，让兴仁人共享“长寿之乡”释放的“红利”，让兴仁帝贝温泉真正成为人人向往的养生福地和幸福家园。"}}, {"title": "东湖公园", "address": "贵州省黔西南布依族苗族自治州兴仁县", "image": "", "rank": 6, "time": 2.5, "location": {"lat": 25.49978380271888, "lng": 105.27763031670058}, "feature": {"sight_features": "", "sight_content": ""}}, {"title": "三家寨清真寺", "address": "贵州省黔西南布依族苗族自治州兴仁县", "image": "", "rank": 7, "time": 2, "location": {"lat": 25.49978380271888, "lng": 105.27763031670058}, "feature": {"sight_features": "", "sight_content": ""}}, {"title": "东湖景区", "address": "贵州省黔西南布依族苗族自治州兴仁县", "image": "", "rank": 8, "time": 2.5, "location": {"lat": 25.49978380271888, "lng": 105.27763031670058}, "feature": {"sight_features": "", "sight_content": ""}}, {"title": "清真古寺", "address": "贵州省黔西南布依族苗族自治州兴仁县", "image": "", "rank": 9, "time": 1.0, "location": {"lat": 25.49978380271888, "lng": 105.27763031670058}, "feature": {"sight_features": "", "sight_content": ""}}, {"title": "多彩欢乐都游乐场", "address": "城北街道黑石头", "image": "", "rank": 10, "time": 2, "location": {"lat": 39.858997776806376, "lng": 116.22882133965486}, "feature": {"sight_features": "", "sight_content": ""}}, {"title": "元帥府", "address": "民主路6", "image": "", "rank": 11, "time": 2, "location": {"lat": 43.730023934551916, "lng": 127.35255204490471}, "feature": {"sight_features": "", "sight_content": ""}}, {"title": "兴仁县七彩明珠欢乐世界儿童乐园", "address": "里仁广场D区1-2号(兴旺超市出口楼下)", "image": "", "rank": 12, "time": 2, "location": {"lat": 38.04786355815094, "lng": 114.46300801624379}, "feature": {"sight_features": "", "sight_content": ""}}, {"title": "家宝贝儿童游乐园", "address": "长兴路与文化路交叉口", "image": "", "rank": 13, "time": 2, "location": {"lat": 25.436994506544362, "lng": 105.20064781279974}, "feature": {"sight_features": "", "sight_content": ""}}, {"title": "兴仁广场", "address": "兴仁大道与振兴大道交叉口西150米", "image": "", "rank": 14, "time": 0.75, "location": {"lat": 25.43922283259363, "lng": 105.21541470583593}, "feature": {"sight_features": "", "sight_content": ""}}, {"title": "巴铃绿阴河湿池公园", "address": "贵州省黔西南布依族苗族自治州兴仁县巴铃镇绿荫河社区巴铃绿阴河湿池公园", "image": "", "rank": 15, "time": 2, "location": {"lat": 25.493369506808097, "lng": 105.37588861203483}, "feature": {"sight_features": "", "sight_content": ""}}, {"title": "交乐墓群", "address": "贵州省兴仁县雨樟镇交乐村", "image": "", "rank": 16, "time": 2, "location": {"lat": 25.34505757802229, "lng": 105.1526209633353}, "feature": {"sight_features": "", "sight_content": ""}}, {"title": "解放路商业步行街", "address": "贵州省兴仁县解放路", "image": "", "rank": 17, "time": 2, "location": {"lat": 25.49978380271888, "lng": 105.27763031670058}, "feature": {"sight_features": "", "sight_content": ""}}, {"title": "马保树", "address": "黔西南布依族苗族自治州-兴仁市", "image": "", "rank": 18, "time": 2, "location": {"lat": 25.44089875357608, "lng": 105.19256772451989}, "feature": {"sight_features": "", "sight_content": ""}}, {"title": "放马坪高山草原", "address": "黔西南州兴仁县下山镇", "image": "", "rank": 19, "time": 2, "location": {"lat": 25.593650300967255, "lng": 105.22112088795892}, "feature": {"sight_features": "", "sight_content": ""}}]}