{"cityName": "新干", "days": 2, "cityImage": "", "spots": [{"title": "新干大洋洲商代青铜博物馆", "address": "吉安市新干县大洋洲镇上周家村", "image": "", "rank": 1, "time": 1.0, "location": {"lat": 27.912132740042576, "lng": 115.48600951584292}, "feature": {"sight_features": "", "sight_content": ""}}, {"title": "海木源景区", "address": "江西省吉安市新干县木源村及海源村", "image": "", "rank": 2, "time": 2, "location": {"lat": 27.538877475666546, "lng": 115.56784504716467}, "feature": {"sight_features": "", "sight_content": ""}}, {"title": "黄板杨梅基地", "address": "界埠镇788县道南450米", "image": "", "rank": 3, "time": 2, "location": {"lat": 27.755003419693104, "lng": 115.3247662325343}, "feature": {"sight_features": "", "sight_content": ""}}, {"title": "牡丹园静安古寺", "address": "江西省吉安市新干县", "image": "", "rank": 4, "time": 2, "location": {"lat": 27.746080951712873, "lng": 115.39359474833033}, "feature": {"sight_features": "", "sight_content": ""}}, {"title": "城东湿地公园", "address": "吉安市新干县金川镇甘溪新村1号", "image": "", "rank": 5, "time": 2, "location": {"lat": 27.75588301724601, "lng": 115.41863022285109}, "feature": {"sight_features": "", "sight_content": ""}}, {"title": "挹秀园", "address": "吉安市新干县环城北路29号", "image": "", "rank": 6, "time": 2, "location": {"lat": 27.76491704585291, "lng": 115.40518589091555}, "feature": {"sight_features": "", "sight_content": ""}}, {"title": "东湖休闲广场", "address": "105国道东50米", "image": "", "rank": 7, "time": 2, "location": {"lat": 23.06304361021549, "lng": 113.30965451338832}, "feature": {"sight_features": "", "sight_content": ""}}, {"title": "金川广场", "address": "广场南路与环城南路交叉口东南150米", "image": "", "rank": 8, "time": 0.75, "location": {"lat": 34.15746181543617, "lng": 108.93328636586867}, "feature": {"sight_features": "", "sight_content": ""}}, {"title": "万家乐文化广场", "address": "金川镇建辉家电维修安装部川琴路10-33号店", "image": "", "rank": 9, "time": 2, "location": {"lat": 27.759300884760084, "lng": 115.4076596973565}, "feature": {"sight_features": "", "sight_content": ""}}, {"title": "可丽爱水族管", "address": "江西省吉安市新干县金川南大道27号", "image": "", "rank": 10, "time": 2, "location": {"lat": 27.748742499545173, "lng": 115.40096597385111}, "feature": {"sight_features": "", "sight_content": ""}}, {"title": "新干县森林湿地博物馆", "address": "江西省吉安市新干县S221(川琴路)", "image": "", "rank": 11, "time": 2, "location": {"lat": 27.758783676859593, "lng": 115.41089349747944}, "feature": {"sight_features": "", "sight_content": ""}}, {"title": "白鹭山庄", "address": "784县道附近", "image": "", "rank": 12, "time": 2, "location": {"lat": 46.668738973449514, "lng": 83.3088188299588}, "feature": {"sight_features": "", "sight_content": ""}}, {"title": "临海宗祠", "address": "353乡道附近", "image": "", "rank": 13, "time": 2, "location": {"lat": 40.416106646916475, "lng": 116.33351535423095}, "feature": {"sight_features": "", "sight_content": ""}}, {"title": "新干县博物馆", "address": "吉安市新干县金川镇环城南路10号", "image": "", "rank": 14, "time": 2, "location": {"lat": 27.76049099802652, "lng": 115.4024350213596}, "feature": {"sight_features": "", "sight_content": ""}}, {"title": "广场欢乐园", "address": "广场南路", "image": "", "rank": 15, "time": 2, "location": {"lat": 39.9450505513416, "lng": 116.47008146119948}, "feature": {"sight_features": "", "sight_content": ""}}, {"title": "新干县城市规划展览馆", "address": "新干委县政府信访局旁边", "image": "", "rank": 16, "time": 2, "location": {"lat": 27.746080951712873, "lng": 115.39359474833033}, "feature": {"sight_features": "", "sight_content": ""}}, {"title": "新干图书馆", "address": "勤政路与淦中大道交叉口东北150米", "image": "", "rank": 17, "time": 1.5, "location": {"lat": 27.743996698352774, "lng": 115.39581960494209}, "feature": {"sight_features": "", "sight_content": ""}}, {"title": "新干县创名生态农场", "address": "神政桥乡庄上村", "image": "", "rank": 18, "time": 2, "location": {"lat": 27.69397965331942, "lng": 115.49990870684154}, "feature": {"sight_features": "", "sight_content": ""}}, {"title": "新干县锦绣商业街", "address": "江西省新干县金川南大道135号", "image": "", "rank": 19, "time": 2, "location": {"lat": 27.731472818956743, "lng": 115.39025502810642}, "feature": {"sight_features": "", "sight_content": ""}}]}