{"cityName": "兴山", "days": 2, "cityImage": "", "spots": [{"title": "朝天吼漂流", "address": "宜昌市兴山县朝天吼漂流", "image": "", "rank": 1, "time": 2, "location": {"lat": 31.203670844066423, "lng": 110.93224001204847}, "feature": {"sight_features": "特色1 全程水质清澈、古朴原始、风光秀美。 特色2 秀美的高岚风光，孕育“中国自然水域漂流之都”！ 特色3 湖北省“一江两山”黄金旅游干线的重要节点！", "sight_content": "朝天吼漂流位于湖北省宜昌市昭君故里－－兴山县境内，宜昌至神农架的的中途， 属“一江两山”黄金旅游通道的重要结点，距宜昌100公里，神农架90公里，距三峡大坝90公里，水路距香溪码头12公里，即将建设的沪蓉北高速公里出口位于高岚集镇，交通极为便利，是新开发的一条过境游、自驾游和目的的游精品线路。\n朝天吼于2007年3月正式启动由武汉大学旅游研究院规划设计，由兴发集团、兴山天星供电公司、水月寺镇共同投资开发，首期投资约500万元，随着这一项目的深度开发和纵深推进，将全面拉动昭君故里兴山县旅游业的快速发展，为实现“依托大三峡，融入神农架，打造昭君牌，发展节点游”的发展战略迈出更加坚实的一步。\n漂流的水温可谓影响漂流效果的一大要素，大家可能都有体验，经过险滩的一刹那，冰冷的河水溅湿我们的全身，不由的打起寒颤。这是因为上游流下来的水多是山泉水，所以冰冷异常，即使在火热的夏天也让人难以忍受，从而让我们的漂流不能尽兴。朝天吼景区在上游河道通过筑坝拦水，保证了漂流河面水量的充足，达到了提升水温的目的，这样一来漂流河的水不再冰冷刺骨，大家可以尽情享受漂流的乐趣。朝天吼漂流的双子河道，特别是孔子河，漂流时视野异常广阔，这样在体验漂流惊险刺激的同时沿途还可以观赏到太公钓鱼、孔雀岭、骆驼峰、昭君石等优美的自然风光。可谓漂流观景两不误。\n景区导览图："}}, {"title": "昭君村", "address": "宜昌市兴山县昭君镇昭君村景区", "image": "", "rank": 2, "time": 2.5, "location": {"lat": 31.263409014539583, "lng": 110.74043367582911}, "feature": {"sight_features": "特色1 水秀山奇，地灵人杰。", "sight_content": "昭君村位于香溪河畔，原名宝坪村，因西汉时有“沉鱼落雁”之美的王昭君生长于此，得名昭君村。\n村中有粉黛林、佳丽岛、彩石滩等20余处胜迹，昭君纪念馆收藏陈列着昭君村出土的汉唐文物，昭君书院内珍藏着各个版本的古典书籍，记载着几千年来人们对昭君的评价。"}}, {"title": "高岚风景区", "address": "宜昌市兴山县境内", "image": "", "rank": 3, "time": 1.0, "location": {"lat": 31.35446351771565, "lng": 110.75344607041252}, "feature": {"sight_features": "特色1 地处昭君故里，有\"十里画廊\"的美称。", "sight_content": "高岚风景区，位于湖北省宜昌市兴山县高岚村。地处昭君故里，有\"十里画廊\"的美称。该景区距宜昌90公里、距神农架100公里、离三峡大坝90公里，离西陵峡约30公里。风景区以高岚河与夏阳河汇合处的两河口为中心，面积20余平方公里。\n\n高岚卧佛山景区在2008年进行开发，景点景观有卧佛山、将军柱、点将台、线天洞、红石笋、白岩松、鸳鸯石、棋盘柱等。高岚风景区最精彩的景色是奇峰林立。这些山峰，有许多酷似动物的形状，因此有些山峰以动物命名，如骆驼峰、孔雀岭、鸳鸯石、猿猴岭等等。其他的山峰也很奇特，其中有一座称为棋盘峰，是一座略呈圆形的几十米高的、四周是悬崖峭壁的山峰，而在峰顶，有一方石酷似棋盘，甚至有方格，有棋子。\n高岚的奇峰异石，最引人注目的要数骆驼峰、红石笋、卧佛山和棋盘柱等。其中红石笋位于高岚河与下洋河的汇合处。这里是高岚风光的集萃之地。许多耸立如林的赫色石柱，或粗或细，或尖或圆，或高或低，当地人们给取名叫“红石笋”。当中最高的4个石笋，拔地有300多米高，圆锥形的身躯上长着一垛垛石疙瘩，犹如一层层笋壳，栩栩如生。\n作为高岚山峰代表的却是一座称为睡佛的峰峦。远远望去，卧佛山犹如一位大肚弥陀佛正在仰天酣睡，\"佛\"的前额、鼻子和嘴的轮廓都非常清晰，形态逼真。高岚卧佛山长达9公里，堪称\"天下第一卧佛山\"。卧佛山为大体量的象形石。其身躯大得惊人，全长可达五六华里。远远看去，圆圆的脑袋，高高的鼻梁，张着大嘴，闭着眼睛，一幅沉沉酣睡的模样。这座仰天长睡的“大佛”，坦胸露臂，鼓着肚子，两腿并齐，脚趾朝上，碰上雨后初晴的天气，睡佛还加盖了一床柔软绵长的云絮，游人越看越觉得神秘有趣。"}}, {"title": "白羊寨", "address": "兴山县城西北25公里", "image": "", "rank": 4, "time": 1.0, "location": {"lat": 36.81528641410439, "lng": 101.77241422413312}, "feature": {"sight_features": "", "sight_content": ""}}, {"title": "寸元山庄", "address": "南阳镇白羊寨村", "image": "", "rank": 5, "time": 2, "location": {"lat": 34.179179058718965, "lng": 109.30266835819813}, "feature": {"sight_features": "", "sight_content": ""}}, {"title": "龙门河国家森林公园", "address": "湖北省兴山县县西北部 443713", "image": "", "rank": 6, "time": 1.0, "location": {"lat": 31.35446351771565, "lng": 110.75344607041252}, "feature": {"sight_features": "", "sight_content": ""}}, {"title": "兴山县民俗博物馆", "address": "后河小区香溪大道8号", "image": "", "rank": 7, "time": 2, "location": {"lat": 32.684875812841554, "lng": 109.03448081064037}, "feature": {"sight_features": "", "sight_content": ""}}, {"title": "湖北仙侣山生态农场", "address": "古夫镇龙池村八组", "image": "", "rank": 8, "time": 2, "location": {"lat": 38.819688291957036, "lng": 113.35963623210857}, "feature": {"sight_features": "", "sight_content": ""}}, {"title": "渝鄂农家乐", "address": "312省道附近", "image": "", "rank": 9, "time": 2, "location": {"lat": 36.622905905946894, "lng": 114.42321002791304}, "feature": {"sight_features": "", "sight_content": ""}}, {"title": "qq农家乐", "address": "312省道附近", "image": "", "rank": 10, "time": 2, "location": {"lat": 36.622905905946894, "lng": 114.42321002791304}, "feature": {"sight_features": "", "sight_content": ""}}, {"title": "山神庙", "address": "宜昌市兴山县209国道附近龙门河国家森林公园神龙洞景区内", "image": "", "rank": 11, "time": 2, "location": {"lat": 31.35911255500703, "lng": 110.51472673234181}, "feature": {"sight_features": "", "sight_content": ""}}, {"title": "龙宫七女", "address": "湖北省神农架林区209国道附近龙门河国家森林公园神龙洞景区神龙洞内", "image": "", "rank": 12, "time": 2, "location": {"lat": 31.718784393236984, "lng": 110.47991482737132}, "feature": {"sight_features": "", "sight_content": ""}}, {"title": "潮水河漂流起漂点", "address": "湖北省湖北省宜昌市", "image": "", "rank": 13, "time": 2, "location": {"lat": 30.697446484492378, "lng": 111.29254921035434}, "feature": {"sight_features": "", "sight_content": ""}}, {"title": "龙门河国家森林公园", "address": "湖北省神农架林区209国道附近", "image": "", "rank": 14, "time": 1.0, "location": {"lat": 31.718784393236984, "lng": 110.47991482737132}, "feature": {"sight_features": "", "sight_content": ""}}, {"title": "朝阳农家乐", "address": "209县道附近", "image": "", "rank": 15, "time": 2, "location": {"lat": 39.67314235956417, "lng": 115.47328128939358}, "feature": {"sight_features": "", "sight_content": ""}}, {"title": "兴山县图书馆", "address": "古夫镇丰邑大道", "image": "", "rank": 16, "time": null, "location": {"lat": 31.35438983756694, "lng": 110.75853283405775}, "feature": {"sight_features": "", "sight_content": ""}}, {"title": "美食美客农家乐", "address": "高岚村1组43号", "image": "", "rank": 17, "time": 2, "location": {"lat": 31.199657683575815, "lng": 110.94001720788252}, "feature": {"sight_features": "", "sight_content": ""}}, {"title": "兴山观景台农家乐(原大家菜饭庄...", "address": "宜昌市-兴山县-高岚水月寺镇(朝天吼漂流起漂点对面)", "image": "", "rank": 18, "time": 2.5, "location": {"lat": 31.203670844066423, "lng": 110.93224001204847}, "feature": {"sight_features": "", "sight_content": ""}}]}