{"cityName": "兴县", "days": 2, "cityImage": "", "spots": [{"title": "晋绥革命纪念馆", "address": "吕梁市兴县蔡家崖", "image": "", "rank": 1, "time": 2, "location": {"lat": 38.480830441122045, "lng": 111.0465051277824}, "feature": {"sight_features": "", "sight_content": ""}}, {"title": "四八烈士纪念馆", "address": "吕梁市兴县城南50公里的庄上村", "image": "", "rank": 2, "time": 2, "location": {"lat": 38.21265476731338, "lng": 111.29925814936067}, "feature": {"sight_features": "", "sight_content": ""}}, {"title": "晋绥解放区烈士塔", "address": "白文镇晋绥解放区烈士塔", "image": "", "rank": 3, "time": 2, "location": {"lat": 38.18337442576667, "lng": 111.23092356592828}, "feature": {"sight_features": "", "sight_content": ""}}, {"title": "带王庙", "address": "吕梁市兴县", "image": "", "rank": 4, "time": 2, "location": {"lat": 38.468803780990854, "lng": 111.1343921049788}, "feature": {"sight_features": "", "sight_content": ""}}, {"title": "明通沟战斗主战场遗址", "address": "313省道附近", "image": "", "rank": 5, "time": 2, "location": {"lat": 40.47363217982258, "lng": 116.99325005466613}, "feature": {"sight_features": "", "sight_content": ""}}, {"title": "家宝贝儿童欢乐谷", "address": "南关三段附近", "image": "", "rank": 6, "time": 2, "location": {"lat": 34.61609923838103, "lng": 118.35239644211502}, "feature": {"sight_features": "", "sight_content": ""}}, {"title": "橙宝儿童乐园", "address": "新建西路东50米", "image": "", "rank": 7, "time": 2, "location": {"lat": 37.0252092623669, "lng": 114.54966942445327}, "feature": {"sight_features": "", "sight_content": ""}}, {"title": "红脚丫儿童乐园", "address": "新建西路171号附近", "image": "", "rank": 8, "time": 2, "location": {"lat": 36.8072964936027, "lng": 117.84453312133415}, "feature": {"sight_features": "", "sight_content": ""}}, {"title": "恒通农家乐", "address": "恒通石化加油站附近", "image": "", "rank": 9, "time": 2, "location": {"lat": 36.98494380415704, "lng": 115.30323241567696}, "feature": {"sight_features": "", "sight_content": ""}}]}