{"cityName": "兴平", "days": 2, "cityImage": "", "spots": [{"title": "马嵬驿", "address": "咸阳市兴平市马嵬镇马嵬驿民俗文化体验园", "image": "", "rank": 1, "time": 3.5, "location": {"lat": 34.329094576419664, "lng": 108.3867333483664}, "feature": {"sight_features": "", "sight_content": ""}}, {"title": "茂陵", "address": "咸阳市兴平市茂陵博物馆", "image": "", "rank": 2, "time": 2.5, "location": {"lat": 34.34478090043774, "lng": 108.59289709853472}, "feature": {"sight_features": "特色1 被称为“中国的金字塔” 特色2 为汉武帝刘彻的陵墓。 特色3 绝大部分是西汉前期的遗物。", "sight_content": "汉茂陵，是西汉武帝刘彻的陵墓。位于西安市西北40公里的兴平市（原兴平县）城东北南位乡茂陵村。现为全国重点文物保护单位。公元前139年—前87年间建成，历时53年。茂陵封土为覆斗形，现存残高46.5米，墓冢底部基边长240米，陵园呈方形，边长约420米。至今东、西、北三面的土阙犹存，陵周陪葬墓尚有李夫人、卫青、霍去病、霍光、金日磾等人的墓葬。它是汉代帝王陵墓中规模最大、修造时间最长、陪葬品最丰富的一座，被称为“中国的金字塔”。咸阳原共葬有西汉11个皇帝中的9个，陵墓自西向东依次排列，长近百里，气势宏伟。\n\n茂陵博物馆是以汉武帝茂陵、霍去病墓及大型石刻群而闻名的西汉断代史博物馆。馆藏文物4100余件，国宝文物14件。其中石刻伏虎、鎏金铜马、秦汉画像、青玉雕铺首、四神空心砖、文字瓦当等更是其中的珍品。霍去病墓前石刻艺术是我国迄今发现时代最早、保存最完整、最具有艺术价值的大型石刻群。"}}, {"title": "杨贵妃墓", "address": "咸阳市兴平市马嵬镇西", "image": "", "rank": 3, "time": 1.0, "location": {"lat": 34.32186213574511, "lng": 108.38274810131041}, "feature": {"sight_features": "", "sight_content": ""}}, {"title": "霍去病墓", "address": "咸阳市兴平市茂陵茂陵博物馆内", "image": "", "rank": 4, "time": 0.4, "location": {"lat": 34.34478090043774, "lng": 108.59289709853472}, "feature": {"sight_features": "", "sight_content": ""}}, {"title": "卫青墓", "address": "咸阳市兴平市茂陵博物馆东北，霍去病墓旁", "image": "", "rank": 5, "time": 0.25, "location": {"lat": 34.34478090043774, "lng": 108.59289709853472}, "feature": {"sight_features": "", "sight_content": ""}}, {"title": "马嵬驿明馨农博园", "address": "咸阳市兴平市马嵬街道庞家村", "image": "", "rank": 6, "time": 2, "location": {"lat": 34.32319646294619, "lng": 108.41097794663973}, "feature": {"sight_features": "", "sight_content": ""}}, {"title": "宏兴大剧院马戏", "address": "咸阳市兴平市段家村（段家小学南行200米）", "image": "", "rank": 7, "time": 2, "location": {"lat": 34.27308695882609, "lng": 108.62234417927074}, "feature": {"sight_features": "", "sight_content": ""}}, {"title": "宏兴滑草滑雪体验基地", "address": "咸阳市兴平市渭河北岸河堤路宏兴码头生态观光园内东北角", "image": "", "rank": 8, "time": 2, "location": {"lat": 34.30547652029205, "lng": 108.49639400876816}, "feature": {"sight_features": "", "sight_content": ""}}, {"title": "茂陵大樱桃生态博览园", "address": "咸阳市兴平市040乡道（汉武帝茂陵南500米）", "image": "", "rank": 9, "time": 2, "location": {"lat": 34.33813311822976, "lng": 108.58053121532512}, "feature": {"sight_features": "", "sight_content": ""}}, {"title": "汉邦马业", "address": "宏兴码头西15公里老渡口旁边（（田南村和河提路中间）高德地图直接导航老渡口即可）", "image": "", "rank": 10, "time": 2, "location": {"lat": 30.547205236569088, "lng": 103.90715026680877}, "feature": {"sight_features": "", "sight_content": ""}}, {"title": "花田贝尔游乐园", "address": "莽山路花田公社花田贝尔游乐场", "image": "", "rank": 11, "time": 2, "location": {"lat": 29.14414663058539, "lng": 121.0397996274039}, "feature": {"sight_features": "", "sight_content": ""}}, {"title": "鑫海宾馆", "address": "西南巷32号", "image": "", "rank": 12, "time": 2, "location": {"lat": 31.206866021388688, "lng": 107.50967088624093}, "feature": {"sight_features": "", "sight_content": ""}}, {"title": "贵妃温泉度假村", "address": "金城路(东段)与中心大街(北段)交叉口", "image": "", "rank": 13, "time": 2, "location": {"lat": 35.06980751576749, "lng": 116.32084165765532}, "feature": {"sight_features": "", "sight_content": ""}}, {"title": "天冰冷饮(红旗路分店)", "address": "中心大街(北段)附近", "image": "", "rank": 14, "time": 2, "location": {"lat": 39.11753828312672, "lng": 117.72698127551898}, "feature": {"sight_features": "", "sight_content": ""}}, {"title": "满汉全席展览馆", "address": "G30连霍高速旁满汉全席展览馆", "image": "", "rank": 15, "time": 2, "location": {"lat": 44.39213706188286, "lng": 84.08595951923803}, "feature": {"sight_features": "", "sight_content": ""}}, {"title": "褒斜道", "address": "陕西省眉县西南 722300", "image": "", "rank": 16, "time": 1.5, "location": {"lat": 28.724641535396128, "lng": 107.7563981237578}, "feature": {"sight_features": "", "sight_content": ""}}, {"title": "马蒐驿民俗文化村", "address": "陕西省咸阳市兴平市", "image": "", "rank": 17, "time": 2, "location": {"lat": 34.30547652029205, "lng": 108.49639400876816}, "feature": {"sight_features": "", "sight_content": ""}}, {"title": "八仙庵", "address": "陕西省咸阳市兴平市南环路南150米", "image": "", "rank": 18, "time": 3.5, "location": {"lat": 34.29150511894663, "lng": 108.49240349045544}, "feature": {"sight_features": "", "sight_content": ""}}, {"title": "莽山水上乐园", "address": "陕西省咸阳市兴平市莽山路", "image": "", "rank": 19, "time": 2, "location": {"lat": 34.3222350095396, "lng": 108.46668351341592}, "feature": {"sight_features": "", "sight_content": ""}}, {"title": "兴平影剧院", "address": "南关西路晶海大厦B座1102室影剧院隔壁", "image": "", "rank": 20, "time": 2, "location": {"lat": 34.30127251701693, "lng": 108.49182208287513}, "feature": {"sight_features": "", "sight_content": ""}}, {"title": "秦汉马业", "address": "田阜乡田南村", "image": "", "rank": 21, "time": 2, "location": {"lat": 34.267310023783246, "lng": 108.6004911002312}, "feature": {"sight_features": "", "sight_content": ""}}, {"title": "基督教会", "address": "陕西省咸阳市兴平市104省道关中建筑机械公司附近", "image": "", "rank": 22, "time": 2, "location": {"lat": 34.32033200508684, "lng": 108.36858085504473}, "feature": {"sight_features": "", "sight_content": ""}}, {"title": "莽山公园", "address": "莽山路附近", "image": "", "rank": 23, "time": 3.0, "location": {"lat": 34.3222350095396, "lng": 108.46668351341592}, "feature": {"sight_features": "", "sight_content": ""}}, {"title": "海贼王主题乐园", "address": "咸阳市兴平市", "image": "", "rank": 24, "time": 2.5, "location": {"lat": 34.30547652029205, "lng": 108.49639400876816}, "feature": {"sight_features": "", "sight_content": ""}}, {"title": "百姓广场", "address": "县门街东路东段", "image": "", "rank": 25, "time": 2, "location": {"lat": 34.305187357706274, "lng": 108.49835980485125}, "feature": {"sight_features": "", "sight_content": ""}}, {"title": "兴包文化广场", "address": "南关西路30附近", "image": "", "rank": 26, "time": 2, "location": {"lat": 34.30132297436698, "lng": 108.49321691777271}, "feature": {"sight_features": "", "sight_content": ""}}, {"title": "华兴广场", "address": "金城路中段", "image": "", "rank": 27, "time": 2, "location": {"lat": 34.31187507651566, "lng": 108.46360937721495}, "feature": {"sight_features": "", "sight_content": ""}}, {"title": "利利休闲广场", "address": "陕西省咸阳市兴平市西环路南段", "image": "", "rank": 28, "time": 2, "location": {"lat": 34.30118893950829, "lng": 108.4876288816868}, "feature": {"sight_features": "", "sight_content": ""}}, {"title": "清慧寺", "address": "西宝中线南50米", "image": "", "rank": 29, "time": 2, "location": {"lat": 34.276735317828205, "lng": 108.01735388117373}, "feature": {"sight_features": "", "sight_content": ""}}, {"title": "茂陵故园", "address": "豆马西附近", "image": "", "rank": 30, "time": 2, "location": {"lat": 34.33493045231032, "lng": 108.58965271996502}, "feature": {"sight_features": "", "sight_content": ""}}, {"title": "黄山宫", "address": "咸阳市兴平市马嵬街道104省道", "image": "", "rank": 31, "time": 2, "location": {"lat": 34.31143695288984, "lng": 108.42930990074127}, "feature": {"sight_features": "", "sight_content": ""}}, {"title": "犬邱遗址", "address": "中心大街(北段)", "image": "", "rank": 32, "time": 2, "location": {"lat": 39.11753828312672, "lng": 117.72698127551898}, "feature": {"sight_features": "", "sight_content": ""}}, {"title": "鹰皇马场俱乐部", "address": "莽山路华田生态酒店隔壁", "image": "", "rank": 33, "time": 2, "location": {"lat": 34.32382867647172, "lng": 108.46426677245834}, "feature": {"sight_features": "", "sight_content": ""}}, {"title": "兴平文化馆美术培训中心", "address": "东南巷17附近", "image": "", "rank": 34, "time": 2.5, "location": {"lat": 34.30587691661361, "lng": 108.49949267230278}, "feature": {"sight_features": "", "sight_content": ""}}, {"title": "明星书画艺术馆", "address": "粮食路与幸福路交叉口北", "image": "", "rank": 35, "time": 2, "location": {"lat": 34.29786882570395, "lng": 108.49719413667235}, "feature": {"sight_features": "", "sight_content": ""}}, {"title": "海洋宾馆商店", "address": "西环路16号", "image": "", "rank": 36, "time": 2, "location": {"lat": 40.232809830660784, "lng": 116.23345175511794}, "feature": {"sight_features": "", "sight_content": ""}}, {"title": "冰佳水上乐园", "address": "兴礼路瑞闽第一城对面", "image": "", "rank": 37, "time": 2, "location": {"lat": 34.31655680778479, "lng": 108.49810584220562}, "feature": {"sight_features": "", "sight_content": ""}}, {"title": "兴平市农拓葡萄专业合作社", "address": "西宝中线附近", "image": "", "rank": 38, "time": 2.5, "location": {"lat": 34.27710819109478, "lng": 108.01735388117373}, "feature": {"sight_features": "", "sight_content": ""}}, {"title": "天冰冷饮", "address": "财政局北巷内", "image": "", "rank": 39, "time": 2, "location": {"lat": 34.719126017231595, "lng": 113.68524456588634}, "feature": {"sight_features": "", "sight_content": ""}}, {"title": "冰魔方动漫水乐园", "address": "西城街道体乐南巷(金童年幼儿园向南100米)", "image": "", "rank": 40, "time": 2, "location": {"lat": 34.30511717156286, "lng": 108.48045428625664}, "feature": {"sight_features": "", "sight_content": ""}}, {"title": "秦耀园艺有限公司兴平基地", "address": "040乡道东150米", "image": "", "rank": 41, "time": 2, "location": {"lat": 33.34435267821959, "lng": 117.1264630126406}, "feature": {"sight_features": "", "sight_content": ""}}, {"title": "晨光游乐园", "address": "阜寨镇小寨村东", "image": "", "rank": 42, "time": 2, "location": {"lat": 34.30070556992568, "lng": 108.50513412522753}, "feature": {"sight_features": "", "sight_content": ""}}, {"title": "马踏匈奴", "address": "陕西省兴平市南位镇茂陵村", "image": "", "rank": 43, "time": 2, "location": {"lat": 34.34919964485846, "lng": 108.58207811088789}, "feature": {"sight_features": "", "sight_content": ""}}, {"title": "金城路体育文化街", "address": "陕西省兴平市金城路", "image": "", "rank": 44, "time": 2, "location": {"lat": 34.3114966937851, "lng": 108.4162954436484}, "feature": {"sight_features": "", "sight_content": ""}}, {"title": "金日蝉墓", "address": "咸阳市兴平市茂陵", "image": "", "rank": 45, "time": 2, "location": {"lat": 34.34078977916658, "lng": 108.58089868605839}, "feature": {"sight_features": "", "sight_content": ""}}]}