{"cityName": "新晃", "days": 2, "cityImage": "", "spots": [{"title": "夜郎谷", "address": "怀化市新晃侗族自治县", "image": "", "rank": 1, "time": 4.0, "location": {"lat": 27.358782968573223, "lng": 109.18147151143545}, "feature": {"sight_features": "", "sight_content": ""}}, {"title": "新晃侗族自治县", "address": "湖南省怀化市", "image": "", "rank": 2, "time": 4.0, "location": {"lat": 27.575160902978517, "lng": 110.00851426537254}, "feature": {"sight_features": "", "sight_content": ""}}, {"title": "平溪山庄", "address": "232省道", "image": "", "rank": 3, "time": 2, "location": {"lat": 38.377274537943066, "lng": 114.45027902716741}, "feature": {"sight_features": "", "sight_content": ""}}, {"title": "十家坪商代遗址", "address": "湖南省石门县庞家堡镇杨家营村 415300", "image": "", "rank": 4, "time": 2, "location": {"lat": 29.590365966649998, "lng": 111.386451407024}, "feature": {"sight_features": "", "sight_content": ""}}, {"title": "亮晶晶儿童游乐园", "address": "湖南省怀化市新晃侗族自治县太阳坪路31号", "image": "", "rank": 5, "time": 2.0, "location": {"lat": 27.365978118731817, "lng": 109.178720377151}, "feature": {"sight_features": "", "sight_content": ""}}, {"title": "新晃开心岛儿童游泳馆乐园", "address": "湖南省怀化市新晃侗族自治县通达路(通达路检察院旁)", "image": "", "rank": 6, "time": 4.0, "location": {"lat": 27.35699676740637, "lng": 109.18291370679563}, "feature": {"sight_features": "", "sight_content": ""}}, {"title": "龙溪公园", "address": "龙溪口大桥附近", "image": "", "rank": 7, "time": 2, "location": {"lat": 27.369458595291313, "lng": 109.17811651103483}, "feature": {"sight_features": "", "sight_content": ""}}, {"title": "新晃档案", "address": "人民路", "image": "", "rank": 8, "time": null, "location": {"lat": 23.37490057686854, "lng": 103.40661159663834}, "feature": {"sight_features": "", "sight_content": ""}}, {"title": "夜郎大峡谷 Yelang Grand Canyon", "address": "湖南省新晃侗族自治县新晃侗族自治县县城郊", "image": "", "rank": 9, "time": 2, "location": {"lat": 27.358782968573223, "lng": 109.18147151143545}, "feature": {"sight_features": "", "sight_content": ""}}, {"title": "镇江阁", "address": "湖南省新晃侗族自治县新晃镇", "image": "", "rank": 10, "time": 0.15000000000000002, "location": {"lat": 27.36845672987222, "lng": 109.17977836095655}, "feature": {"sight_features": "", "sight_content": ""}}, {"title": "仙人桥", "address": "湖南省新晃侗族自治县九湾罗乡高寨村", "image": "", "rank": 11, "time": 2, "location": {"lat": 27.420328742365182, "lng": 109.20555383709856}, "feature": {"sight_features": "", "sight_content": ""}}, {"title": "新晃烈士纪念碑", "address": "湖南省新晃侗族自治县方家屯乡", "image": "", "rank": 12, "time": 1.0, "location": {"lat": 27.375941886392095, "lng": 109.17297487439923}, "feature": {"sight_features": "", "sight_content": ""}}, {"title": "金星商业街", "address": "湖南省新晃侗族自治县金星商业街", "image": "", "rank": 13, "time": 2, "location": {"lat": 27.368789783091334, "lng": 109.17849578460408}, "feature": {"sight_features": "", "sight_content": ""}}]}