{"cityName": "辛集", "days": 2, "cityImage": "", "spots": [{"title": "欢乐谷生态园", "address": "河北辛集市市府东大街六前观光路一号", "image": "", "rank": 1, "time": 2, "location": {"lat": 37.94884280427051, "lng": 115.22534204719571}, "feature": {"sight_features": "", "sight_content": ""}}, {"title": "辛集国际皮革城", "address": "河北省石家庄市辛集教育大道北段路东", "image": "", "rank": 2, "time": 2, "location": {"lat": 37.96602740701042, "lng": 115.23908639548155}, "feature": {"sight_features": "", "sight_content": ""}}, {"title": "澳森温泉", "address": "石家庄市辛集市辛集镇教育路与澳森大街交叉口北行200米路西", "image": "", "rank": 3, "time": 2, "location": {"lat": 37.94541600252772, "lng": 115.23930242538043}, "feature": {"sight_features": "特色1 真山真水真享受", "sight_content": "澳森温泉是一家五星级温泉度假村，是一所以新中式风格开发建设的园林景观式温泉。室外温泉区环境优雅舒适，有不同风格、类型的温泉泡池，室内有儿童游乐区、休息区、水上乐园等各类休闲娱乐设施。\n澳森温泉泉水采自地下2800米处、四时不竭、热储温度达82℃，日出水量可达近3000m³，温泉属氯化钠型热矿泉，泉水富含对人体有益的氯化钠、碳酸盐、氡、钙、镁、钾、钠等数十种对人体有益的矿物质及微量元素，经过提取部分高温能源综合利用后，直接引至各温泉泡池，保证“原汁原味”，让您感觉到温泉品质的不同。\n养生温泉“澳森温泉”——真山真水真享受"}}, {"title": "烈士纪念馆", "address": "兴华北路252号", "image": "", "rank": 4, "time": 2, "location": {"lat": 37.937185756672505, "lng": 115.22079721419685}, "feature": {"sight_features": "", "sight_content": ""}}, {"title": "辛集长新林果种植专业合作社", "address": "233省道东50米", "image": "", "rank": 5, "time": 2, "location": {"lat": 38.114297221258184, "lng": 115.22623883007786}, "feature": {"sight_features": "", "sight_content": ""}}, {"title": "辛集市贞贞粮棉专业合作社", "address": "233省道西50米", "image": "", "rank": 6, "time": 2, "location": {"lat": 38.114297221258184, "lng": 115.22534052456788}, "feature": {"sight_features": "", "sight_content": ""}}, {"title": "周边垂钓园辛集市", "address": "王庄营武辛公路", "image": "", "rank": 7, "time": 2, "location": {"lat": 37.92358147788448, "lng": 115.29497683083679}, "feature": {"sight_features": "", "sight_content": ""}}, {"title": "陶香园(烘焙剧场)", "address": "兴华北路20号", "image": "", "rank": 8, "time": 2, "location": {"lat": 37.92542034189886, "lng": 115.22225131839367}, "feature": {"sight_features": "", "sight_content": ""}}, {"title": "润泽湖公园", "address": "石家庄市辛集市安定大街9号", "image": "", "rank": 9, "time": 2, "location": {"lat": 37.94409121107315, "lng": 115.22713794046956}, "feature": {"sight_features": "", "sight_content": ""}}, {"title": "柳润庄园", "address": "石家庄市石津总干渠六前线和睦井乡双柳树村(六前线)", "image": "", "rank": 10, "time": 2, "location": {"lat": 37.95984304775355, "lng": 115.30545700728935}, "feature": {"sight_features": "", "sight_content": ""}}, {"title": "凯奇乐儿童乐园(二店)", "address": "金街不夜城对面宝联商城3层", "image": "", "rank": 11, "time": null, "location": {"lat": 38.86402435984305, "lng": 115.49907048087263}, "feature": {"sight_features": "", "sight_content": ""}}, {"title": "芳华公园西园", "address": "河北省辛集市辛集镇教育路锦绣江南", "image": "", "rank": 12, "time": 2, "location": {"lat": 37.92949449352811, "lng": 115.23617820415575}, "feature": {"sight_features": "", "sight_content": ""}}, {"title": "开心哈乐儿童乐园", "address": "石家庄市辛集市", "image": "", "rank": 13, "time": 2, "location": {"lat": 37.949309043172505, "lng": 115.22445084279079}, "feature": {"sight_features": "", "sight_content": ""}}, {"title": "广福寺", "address": "河北省石家庄市辛集市西王封村", "image": "", "rank": 14, "time": 1.0, "location": {"lat": 37.9830249280488, "lng": 115.35906806966729}, "feature": {"sight_features": "", "sight_content": ""}}, {"title": "普雨寺", "address": "河北省石家庄市辛集市S392(衡井线)", "image": "", "rank": 15, "time": 2, "location": {"lat": 37.87356846939932, "lng": 115.08330085078798}, "feature": {"sight_features": "", "sight_content": ""}}, {"title": "乐库儿童乐园", "address": "朝阳北路西113", "image": "", "rank": 16, "time": 2, "location": {"lat": 34.20786835791977, "lng": 120.11020390692279}, "feature": {"sight_features": "", "sight_content": ""}}, {"title": "辛集多多岛儿童乐园", "address": "河北省石家庄市辛集市安定东大街(芙蓉岛东北角)", "image": "", "rank": 17, "time": 2, "location": {"lat": 37.94422580603992, "lng": 115.23785212371084}, "feature": {"sight_features": "", "sight_content": ""}}, {"title": "新视界乐园", "address": "辛集镇文化体育中心", "image": "", "rank": 18, "time": 2, "location": {"lat": 37.92965461538401, "lng": 115.2227839991882}, "feature": {"sight_features": "", "sight_content": ""}}, {"title": "芳华公园东园", "address": "教育路东50米", "image": "", "rank": 19, "time": 2, "location": {"lat": 36.659348240649535, "lng": 111.57276971322305}, "feature": {"sight_features": "", "sight_content": ""}}, {"title": "辛集市抬头村耶稣基督教堂", "address": "市府西大街与233省道交叉口西100米", "image": "", "rank": 20, "time": 2, "location": {"lat": 40.772942579265205, "lng": 114.90259992602897}, "feature": {"sight_features": "", "sight_content": ""}}, {"title": "兴灵寺", "address": "孟章村", "image": "", "rank": 21, "time": 2, "location": {"lat": 38.03247528024705, "lng": 115.36216092565678}, "feature": {"sight_features": "", "sight_content": ""}}, {"title": "悠游虎拓展乐园(供销店)", "address": "辛集市兴华南路2号供销商城2楼", "image": "", "rank": 22, "time": 2, "location": {"lat": 37.92413588494042, "lng": 115.22117139886551}, "feature": {"sight_features": "", "sight_content": ""}}, {"title": "大德寺", "address": "河北省石家庄市辛集市小车城线", "image": "", "rank": 23, "time": 2.0, "location": {"lat": 37.7628264385843, "lng": 115.23131557851494}, "feature": {"sight_features": "", "sight_content": ""}}, {"title": "崇兴寺", "address": "泗上村北", "image": "", "rank": 24, "time": 1.0, "location": {"lat": 40.097929778730226, "lng": 116.48597458411267}, "feature": {"sight_features": "", "sight_content": ""}}, {"title": "辛集市天主教堂", "address": "河北省辛集市辛集镇宴城路农行社区东南400米", "image": "", "rank": 25, "time": 1.0, "location": {"lat": 37.9224566536055, "lng": 115.24869386633453}, "feature": {"sight_features": "", "sight_content": ""}}, {"title": "双柳树圆通寺", "address": "双柳树村", "image": "", "rank": 26, "time": 2, "location": {"lat": 39.65837784960758, "lng": 116.02847742073301}, "feature": {"sight_features": "", "sight_content": ""}}, {"title": "佛光寺", "address": "王庄营村南", "image": "", "rank": 27, "time": 2.5, "location": {"lat": 37.90985603826408, "lng": 115.17094855083722}, "feature": {"sight_features": "", "sight_content": ""}}, {"title": "芳华公园", "address": "石家庄市辛集市教育路", "image": "", "rank": 28, "time": 2, "location": {"lat": 37.94541600252772, "lng": 115.23930242538043}, "feature": {"sight_features": "", "sight_content": ""}}, {"title": "河北省辛集市抬头禅寺", "address": "雷河村北", "image": "", "rank": 29, "time": 2, "location": {"lat": 37.990251492048614, "lng": 115.39975346257064}, "feature": {"sight_features": "", "sight_content": ""}}, {"title": "糖糖儿童乐园", "address": "育红街北100米", "image": "", "rank": 30, "time": 2, "location": {"lat": 38.77702733583113, "lng": 115.49354566393531}, "feature": {"sight_features": "", "sight_content": ""}}, {"title": "雷锋广场", "address": "教育路西50米", "image": "", "rank": 31, "time": 2, "location": {"lat": 36.659348240649535, "lng": 111.57187140771308}, "feature": {"sight_features": "", "sight_content": ""}}, {"title": "化工路儿童乐园", "address": "河北辛集化工集团一生活区附近", "image": "", "rank": 32, "time": 2, "location": {"lat": 37.913665486883744, "lng": 115.23089582550269}, "feature": {"sight_features": "", "sight_content": ""}}, {"title": "乐汇城娱乐购物广场", "address": "辛集市兴华路21号", "image": "", "rank": 33, "time": 2, "location": {"lat": 37.920207046507876, "lng": 115.22274801486607}, "feature": {"sight_features": "", "sight_content": ""}}, {"title": "公木纪念馆", "address": "石家庄市辛集市兴华北路与育红街交叉口东北150米", "image": "", "rank": 34, "time": 2, "location": {"lat": 37.983956021245035, "lng": 115.2257842874898}, "feature": {"sight_features": "", "sight_content": ""}}, {"title": "亚澳温泉洗浴城", "address": "兴华路", "image": "", "rank": 35, "time": 2, "location": {"lat": 39.96943190081741, "lng": 116.4197261831763}, "feature": {"sight_features": "", "sight_content": ""}}, {"title": "乐汇城新视界儿童乐园", "address": "乐汇城3楼", "image": "", "rank": 36, "time": 2, "location": {"lat": 38.05029710534398, "lng": 114.50451835453767}, "feature": {"sight_features": "", "sight_content": ""}}, {"title": "柳润庄园跑马场", "address": "柳润庄园内", "image": "", "rank": 37, "time": 2, "location": {"lat": 37.96690781601107, "lng": 115.29390159148035}, "feature": {"sight_features": "", "sight_content": ""}}, {"title": "艺绿斋画廊", "address": "东华北路与东华路交叉口西150米", "image": "", "rank": 38, "time": 2, "location": {"lat": 32.03509824343025, "lng": 118.62417733687005}, "feature": {"sight_features": "", "sight_content": ""}}, {"title": "彩虹桥童书馆", "address": "革兴路401号", "image": "", "rank": 39, "time": 2, "location": {"lat": 37.94113962328746, "lng": 115.22753221035111}, "feature": {"sight_features": "", "sight_content": ""}}, {"title": "影剧院", "address": "新开街", "image": "", "rank": 40, "time": 2, "location": {"lat": 38.059141939205965, "lng": 114.41420298895444}, "feature": {"sight_features": "", "sight_content": ""}}, {"title": "雷锋艺术团", "address": "农贸街", "image": "", "rank": 41, "time": 2, "location": {"lat": 39.28739149748527, "lng": 118.63609756173308}, "feature": {"sight_features": "", "sight_content": ""}}, {"title": "福林寺", "address": "河北省辛集市商业城东", "image": "", "rank": 42, "time": 2, "location": {"lat": 37.949309043172505, "lng": 115.22445084279079}, "feature": {"sight_features": "", "sight_content": ""}}, {"title": "宝街不夜城", "address": "河北省辛集市兴华路", "image": "", "rank": 43, "time": 2, "location": {"lat": 37.94168158515019, "lng": 115.22193549932891}, "feature": {"sight_features": "", "sight_content": ""}}, {"title": "清凉之夏美食文化花园", "address": "河北省辛集市兴华路", "image": "", "rank": 44, "time": 2, "location": {"lat": 37.94168158515019, "lng": 115.22193549932891}, "feature": {"sight_features": "", "sight_content": ""}}, {"title": "木邱天主堂", "address": "石家庄市-辛集市-回新公路南150米", "image": "", "rank": 45, "time": 2, "location": {"lat": 37.83438352119028, "lng": 115.15728563125093}, "feature": {"sight_features": "", "sight_content": ""}}]}