{"cityName": "新津", "days": 2, "cityImage": "", "spots": [{"title": "花舞人间", "address": "成都市新津县永商镇梨花大道一段555号", "image": "", "rank": 1, "time": 3.5, "location": {"lat": 30.395256689128892, "lng": 103.80383787305618}, "feature": {"sight_features": "特色1 花开四季，各领风骚 特色2 园内有大量的花卉，是赏花休闲的好地方", "sight_content": "花舞人间占地3000余亩，位于成都南郊新津县，距离成都市区仅30余公里，是赏花、玩水，体验低碳休闲度假的国家4a级旅游景区。\n\n\n一、郁金香节\n\n时间：12月下旬-5月上旬\n主要花卉：郁金香、虞美人、海棠、兰花……\n二、杜鹃花节\n时间：3月上旬-5月中旬\n主要花卉：杜鹃花、樱花、郁金香、海棠、桃花、梨花……\n三、百花节\n时间：4月中旬-5月下旬\n主要花卉：鲁冰花、飞燕草、毛地黄、三角梅、绣球花……\n四、向日葵节\n时间：5月下旬-9月下旬\n主要花卉：向日葵、三角梅、蜀葵、荷花、百日草……\n五、百合花节\n时间：9月上旬-10月下旬\n主要花卉：百合花、格桑花、菊花、醉蝶花、石竹……\n六、野菊花节\n时间：10月下旬-11月下旬\n主要花卉：菊花、格桑花、百合花、石竹......\n七、花粉节\n时间：11月1日-7日\n主要花卉：菊花、格桑花、百合花......\n八、红叶兰花节\n时间：11月下旬-12月下旬\n主要花卉：兰花、红叶、虞美人……\n如果说花是花舞人间的彩衣，那么水就是她的血脉。这里有飘逸的“半山运河”、刺激的“森林漂流”，还有妙趣横生的“击鼓喷泉”、“珍珠滩”，以及山顶的那片“云海”……花舞人间，景色绝美。\n\n森林漂流：河道全长500米，坐落在海拔500米的半山之中。乘坐皮划艇随激流不由自主地飞驰而下，狭窄的河道、湍急的河流、嶙峋的奇石，激烈的碰撞，河道迂回曲折，飞溅起的水花打过全身，让你在漂流途中，欢呼声、尖叫声、呐喊声一路相随，仿佛置身于“船到山前疑无路，潭过湾转又一滩”的境界。体验过的游客还有意犹未尽的感觉，还说“这种漂流还是第一次体验，有惊无险，刺激好玩，而且老少皆宜，以后还会常来。\n半山运河：全长3000米，从半山穿越4个山洞，直奔山那边的“花海”和“果海”，并将山两边的风景联为一体。从远处看，“半山运河”恰似仙女身上的轻纱，轻柔而飘逸。运河一边是茂密森林，一边是花草丛生，划船其中，聊天赏景，趣味无穷。\n\n击鼓喷泉：全球独创，不用电。用双拳有节奏，合适的力度连续击打鼓面中心5至6秒可喷泉。当有斜阳照耀时，背向阳光，可见彩虹。更有“人移彩虹飘”之神奇景象。\n同心潭：是“人间印象”的核心景点，由多层同心环形水道组成，游人在此既可休闲、聊天、逗鱼，又可享受“山不转水转”的乐趣。其中的“时空环道”，内侧由365块条石组成，寓意365天，每块石头上铭刻着“历史上的今天”，游人可在上面“看生日、看大事、看如水时光”；外侧亦由365块条石组成，上面标明了成都、四川、中国、世界共365个城市的地理位置，游人可在上面“找家乡、找方向、找无限空间。”\n雾海：蒙蒙细雨之中，青山似在云彩间如仙女般飘来飘去，被青山绿水环抱的“雾海”中央，还有另一奇观“升降舞台”。以山作景、以天作幕的“升降舞台”，为仙女展示楚楚动人的歌舞搭建了一个舞台。这个舞台可举办大型歌舞晚会，正所谓“花舞人间人欢喜，喜欢人间人舞花”，“花舞人间花舞人，人舞花间人舞花”。\n\n珍珠滩：是由五圈彩色珠子铺设形成，呈螺旋状，五层层层嵌入，当旁边的升降水亭落下之时，珍珠滩就会喷射出清澈的泉水，螺旋环绕喷洒，无数朵水花在阳光照耀下点点好似珍珠洒落，闪动着耀眼的光亮，跳动着轻盈的舞姿，唱起欢快的山歌。\n云海：山下风景如画，山上风云变幻。青山和白云倒映在8000平方米水面的云海之中，此时此刻，天与地浑然一体，游人仿佛置身于幻境之中。极目远眺，远处层层叠叠的群山和松林在云彩间若隐若现，让人身处成都郊外，一样能够体味峨眉之秀和青城之幽。\n寻觅在迷宫花园，旋转手摇摆渡船，沿杜鹃长廊拾阶而上，乘观光车在樱花大道逶迤前行，到海棠山舍茶歇小憩，畅游2万平方米的花卉博览园和花舞天阶，漫步金沙沟花海，无论置身何处，总有花儿扑面而来，甜醉你的心窝。\n倘佯于景区，得赏花之美，得玩水之乐，与花相衬，与景相融，好似一幅“花舞人间，人舞花间”的美丽画卷！\n\n\n攻略链接：https://you.ctrip.com/travels/xinjin3124/3335988.html"}}, {"title": "新津老君山", "address": "成都市新津县城南三公里处", "image": "", "rank": 2, "time": 2.5, "location": {"lat": 30.416363953297463, "lng": 103.81743303794937}, "feature": {"sight_features": "", "sight_content": ""}}, {"title": "梨花溪", "address": "成都市新津县永商镇", "image": "", "rank": 3, "time": 1.5, "location": {"lat": 30.373977507869284, "lng": 103.7997816418988}, "feature": {"sight_features": "特色1 成都市民赏桃花，享受农家乐的去处。", "sight_content": "梨花溪，就是一片自然的梨花树林，这里如今是成都人春季的休闲好地方，除了梨树林外，这里还有很多农家乐可以选择。这里没有特别的规划，都是上一辈人为了自己家能吃到梨而随意种植的。慢慢的，就变成这样的一片梨树林。"}}, {"title": "观音寺", "address": "成都市新津县城西南7公里处的九蓬山麓", "image": "", "rank": 4, "time": 2.0, "location": {"lat": 30.416363953297463, "lng": 103.81743303794937}, "feature": {"sight_features": "", "sight_content": ""}}, {"title": "古藤堡疯狂农庄", "address": "成都市新津县兴义镇古藤堡园区", "image": "", "rank": 5, "time": 2, "location": {"lat": 30.492854220913255, "lng": 103.8209954481103}, "feature": {"sight_features": "", "sight_content": ""}}, {"title": "尚润度假酒店城市温泉", "address": "成都市新津县岷江大道三段1199号", "image": "", "rank": 6, "time": 2, "location": {"lat": 30.39264505889013, "lng": 103.8422870853078}, "feature": {"sight_features": "特色1 一步是都市，一步是田野", "sight_content": "尚润酒店是三旺集团投入巨资新建的顶级休闲会所，集餐饮、娱乐、温泉、茶坊、客房为一体的会所。\n酒店坐落于城南门户水城新津的新兴工业园区，距成都二十七公里，紧邻成雅成乐高速公路。隐逸在四通八达的快速通道之中，隐逸在城市和乡村的边缘。\n尚润度假酒店独享着不可复制的天生静谧与悠然。一步是都市，一步是田野，酒店将打造成为成都市区及近郊高档的、阳光的、尊贵的顶级休闲度假会所。"}}, {"title": "胡家大院", "address": "成都市新津县金华镇", "image": "", "rank": 7, "time": 2, "location": {"lat": 30.367839923243633, "lng": 103.89610995554872}, "feature": {"sight_features": "", "sight_content": ""}}, {"title": "乌尤寺", "address": "成都市新津县", "image": "", "rank": 8, "time": 0.75, "location": {"lat": 30.416363953297463, "lng": 103.81743303794937}, "feature": {"sight_features": "", "sight_content": ""}}, {"title": "魔法鲸灵欢乐世界", "address": "成都市新津县花源镇花源社区5组", "image": "", "rank": 9, "time": 2, "location": {"lat": 30.491704126434684, "lng": 103.8902421368219}, "feature": {"sight_features": "", "sight_content": ""}}, {"title": "景源水世界", "address": "成都市新津县梨花溪风景区", "image": "", "rank": 10, "time": 2, "location": {"lat": 30.3704261038777, "lng": 103.8222666465256}, "feature": {"sight_features": "", "sight_content": ""}}, {"title": "纯阳观", "address": "成都市新津县五津镇纯阳路313号", "image": "", "rank": 11, "time": 1.0, "location": {"lat": 30.427406523613577, "lng": 103.80315894992124}, "feature": {"sight_features": "", "sight_content": ""}}, {"title": "知美术馆", "address": "成都市新津县新津君山路1号", "image": "", "rank": 12, "time": 1.0, "location": {"lat": 30.400170183239826, "lng": 103.8095996081904}, "feature": {"sight_features": "", "sight_content": ""}}, {"title": "青青草地", "address": "成都市新津县其他花桥镇杨家大院", "image": "", "rank": 13, "time": 2, "location": {"lat": 30.403331620103195, "lng": 103.81920422692339}, "feature": {"sight_features": "", "sight_content": ""}}, {"title": "好农夫葡萄园", "address": "成都市新津县安西镇（成新蒲快通道31.8公里处）", "image": "", "rank": 14, "time": 2, "location": {"lat": 30.37926681807336, "lng": 103.76987811955688}, "feature": {"sight_features": "", "sight_content": ""}}, {"title": "新津机场", "address": "新津县花桥镇桥津上街320号", "image": "", "rank": 15, "time": 2, "location": {"lat": 30.424533568051853, "lng": 103.84591432168584}, "feature": {"sight_features": "", "sight_content": ""}}, {"title": "清泉花海", "address": "四川省成都市新津县西北2.0公里", "image": "", "rank": 16, "time": 2, "location": {"lat": 30.416363953297463, "lng": 103.63777193595378}, "feature": {"sight_features": "", "sight_content": ""}}, {"title": "花源镇", "address": "成都市新津县花源镇", "image": "", "rank": 17, "time": 2, "location": {"lat": 30.48250898256086, "lng": 103.88355469696134}, "feature": {"sight_features": "", "sight_content": ""}}, {"title": "廊桥水乡", "address": "四川省成都新津花源镇北师大附中旁(杨柳河边)", "image": "", "rank": 18, "time": 2, "location": {"lat": 30.44555700328735, "lng": 103.88263537559396}, "feature": {"sight_features": "", "sight_content": ""}}, {"title": "翔生有机生态农场", "address": "成都市新津县兴义镇三新路388號(近成新蒲快速通道)", "image": "", "rank": 19, "time": 2, "location": {"lat": 30.49126697241206, "lng": 103.82096876484341}, "feature": {"sight_features": "", "sight_content": ""}}, {"title": "梨园农家鸡", "address": "成都市新津县文井乡张场", "image": "", "rank": 20, "time": 2, "location": {"lat": 30.484251548150553, "lng": 103.76238663428181}, "feature": {"sight_features": "", "sight_content": ""}}, {"title": "安西镇", "address": "四川省成都市新津县安西镇", "image": "", "rank": 21, "time": 2, "location": {"lat": 30.37926681807336, "lng": 103.76987811955688}, "feature": {"sight_features": "", "sight_content": ""}}, {"title": "朴宝园", "address": "新津县兴义镇万兴路288号", "image": "", "rank": 22, "time": 2, "location": {"lat": 30.501399380709277, "lng": 103.82007452147097}, "feature": {"sight_features": "", "sight_content": ""}}, {"title": "徐公茶文化研究所", "address": "成都市新津县儒林路171号徐公茶文化研究所", "image": "", "rank": 23, "time": 2, "location": {"lat": 30.425685844785654, "lng": 103.80707801521709}, "feature": {"sight_features": "", "sight_content": ""}}, {"title": "宝墩古城遗址", "address": "四川省新津县龙马乡宝墩村", "image": "", "rank": 24, "time": 2, "location": {"lat": 30.450457443332144, "lng": 103.75863687621865}, "feature": {"sight_features": "", "sight_content": ""}}, {"title": "兴义镇", "address": "四川省成都市新津县东南", "image": "", "rank": 25, "time": 2, "location": {"lat": 30.416363953297463, "lng": 103.81743303794937}, "feature": {"sight_features": "", "sight_content": ""}}, {"title": "美好庄园", "address": "邓双镇芝芝路888号(花舞人间景区东大门)", "image": "", "rank": 26, "time": 2, "location": {"lat": 30.391947184460296, "lng": 103.82672421183908}, "feature": {"sight_features": "", "sight_content": ""}}, {"title": "四川天赐蓝莓科技有限公司", "address": "兴义镇杨牌村羊马河大桥西", "image": "", "rank": 27, "time": 2, "location": {"lat": 30.506278569423724, "lng": 103.81592618345641}, "feature": {"sight_features": "", "sight_content": ""}}, {"title": "五津汉陶博物馆", "address": "五河路", "image": "", "rank": 28, "time": 2, "location": {"lat": 29.545660289932485, "lng": 106.68948876543868}, "feature": {"sight_features": "", "sight_content": ""}}, {"title": "宝墩寨农家乐", "address": "新平镇龙马乡大新路万街社区龙马小学对面", "image": "", "rank": 29, "time": 2, "location": {"lat": 30.43320713095416, "lng": 103.77213698511768}, "feature": {"sight_features": "", "sight_content": ""}}, {"title": "自然风生态农场", "address": "花园后街", "image": "", "rank": 30, "time": 2, "location": {"lat": 23.05541793097318, "lng": 112.4779270063877}, "feature": {"sight_features": "", "sight_content": ""}}, {"title": "迎宾广场-4区", "address": "红石一街50号", "image": "", "rank": 31, "time": 2, "location": {"lat": 30.42767711826321, "lng": 103.81782309118485}, "feature": {"sight_features": "", "sight_content": ""}}, {"title": "迎宾广场-3区", "address": "温州路与迎宾大道交叉口东南50米", "image": "", "rank": 32, "time": 2, "location": {"lat": 30.428232239138204, "lng": 103.81768014382907}, "feature": {"sight_features": "", "sight_content": ""}}, {"title": "胡祠堂", "address": "成都市新津县宝清路", "image": "", "rank": 33, "time": 2, "location": {"lat": 30.383640384440234, "lng": 103.89323121157584}, "feature": {"sight_features": "", "sight_content": ""}}, {"title": "新津县乐百汇音乐厅", "address": "普兴镇新中路20号3栋附1-6号", "image": "", "rank": 34, "time": 2, "location": {"lat": 30.90108866372154, "lng": 121.21337666877736}, "feature": {"sight_features": "", "sight_content": ""}}, {"title": "公馆柚园", "address": "成都市新津县五津镇临江村张大公馆", "image": "", "rank": 35, "time": 2, "location": {"lat": 30.4580675311195, "lng": 103.80200193871252}, "feature": {"sight_features": "", "sight_content": ""}}, {"title": "古藤堡", "address": "成都市新津县兴义镇万兴路349号", "image": "", "rank": 36, "time": 3.5, "location": {"lat": 30.49317923205632, "lng": 103.82129954902464}, "feature": {"sight_features": "", "sight_content": ""}}, {"title": "仙鹤森林公园", "address": "新津县兴义镇", "image": "", "rank": 37, "time": 2, "location": {"lat": 30.484976248104896, "lng": 103.80762037974502}, "feature": {"sight_features": "", "sight_content": ""}}, {"title": "布瓜的世界", "address": "西顺河街80号(二十一街区)", "image": "", "rank": 38, "time": 2, "location": {"lat": 34.035467889232784, "lng": 113.8409949733599}, "feature": {"sight_features": "", "sight_content": ""}}, {"title": "基因越野卡丁车俱乐部", "address": "老码头毛林盘竹林公园内", "image": "", "rank": 39, "time": 2, "location": {"lat": 30.405552231621122, "lng": 103.80953699899128}, "feature": {"sight_features": "", "sight_content": ""}}, {"title": "徐家小院", "address": "四川省成都市新津县方兴街72号", "image": "", "rank": 40, "time": 2, "location": {"lat": 30.43093616614607, "lng": 103.73827761007267}, "feature": {"sight_features": "", "sight_content": ""}}, {"title": "响叮铛儿童乐园", "address": "花源正西后街199号", "image": "", "rank": 41, "time": 2, "location": {"lat": 30.489038427343072, "lng": 103.89192699998388}, "feature": {"sight_features": "", "sight_content": ""}}, {"title": "宝资山森林公园-五湖四海湿地公...", "address": "岷江一桥至二桥段西侧", "image": "", "rank": 42, "time": 2, "location": {"lat": 29.570447257366318, "lng": 103.77671306508444}, "feature": {"sight_features": "", "sight_content": ""}}, {"title": "和睦生态园", "address": "四川省成都市新津县黄津路", "image": "", "rank": 43, "time": 2, "location": {"lat": 30.39145452919747, "lng": 103.87173680975692}, "feature": {"sight_features": "", "sight_content": ""}}, {"title": "成都香米园汉陶艺术博物馆", "address": "忠义路120号", "image": "", "rank": 44, "time": 2.5, "location": {"lat": 30.82330101809891, "lng": 104.07236650840726}, "feature": {"sight_features": "", "sight_content": ""}}, {"title": "北大资源溪山樾", "address": "四川省成都市新津县", "image": "", "rank": 45, "time": 2, "location": {"lat": 30.416363953297463, "lng": 103.81743303794937}, "feature": {"sight_features": "", "sight_content": ""}}, {"title": "迎宾广场-1区", "address": "成都市新津县太康西路", "image": "", "rank": 46, "time": 2, "location": {"lat": 30.426638540324166, "lng": 103.8164712150534}, "feature": {"sight_features": "", "sight_content": ""}}, {"title": "新津县基督教堂", "address": "兴园2路与平岗路交叉口西北100米", "image": "", "rank": 47, "time": 2, "location": {"lat": 30.433435750324406, "lng": 103.8083944558911}, "feature": {"sight_features": "", "sight_content": ""}}, {"title": "朱祠堂", "address": "成都市新津县大新路", "image": "", "rank": 48, "time": 2, "location": {"lat": 30.480396639152982, "lng": 103.66131125750341}, "feature": {"sight_features": "", "sight_content": ""}}, {"title": "成都蜀江博物馆", "address": "四川省成都市新津县望江路71号", "image": "", "rank": 49, "time": 2.5, "location": {"lat": 30.415192858575395, "lng": 103.81092984504043}, "feature": {"sight_features": "", "sight_content": ""}}, {"title": "新津道教博物馆", "address": "四川省成都市新津县新蒲路", "image": "", "rank": 50, "time": 2.5, "location": {"lat": 30.314908035686393, "lng": 103.70299311286152}, "feature": {"sight_features": "", "sight_content": ""}}, {"title": "图腾广场", "address": "四川省成都市新津县五津东路百伦新宸百货(荣达大厦西北)", "image": "", "rank": 51, "time": 2, "location": {"lat": 30.41835308078397, "lng": 103.81758059540905}, "feature": {"sight_features": "", "sight_content": ""}}, {"title": "金三角广场", "address": "成都市新津县武阳西路310号", "image": "", "rank": 52, "time": 2, "location": {"lat": 30.420682049365556, "lng": 103.80790460989653}, "feature": {"sight_features": "", "sight_content": ""}}, {"title": "新津外滩群众文化生活广场", "address": "海林三巷附近", "image": "", "rank": 53, "time": 1.5, "location": {"lat": 30.41833227702251, "lng": 103.8134730799901}, "feature": {"sight_features": "", "sight_content": ""}}, {"title": "斑竹林318童乐园", "address": "成都市新津县万兴路294号斑竹林318房车营地内", "image": "", "rank": 54, "time": 2, "location": {"lat": 30.49383999413782, "lng": 103.820690203898}, "feature": {"sight_features": "特色1 二十多个儿童游乐项目畅玩", "sight_content": "斑竹林318童乐园坐落于斑竹林318房车营地景区内，是一个充满童趣的地方，园内设置碰碰车、章鱼船、海盗船、旋转木马、卡通飞机、卡通火车、丛林穿越、淘气堡等二十多个儿童游乐项目，集娱乐、益智、健身、教育为一体。\n让小朋友畅快的尽情游玩。"}}, {"title": "斑竹林", "address": "万兴路288号(兴义镇卫生院)", "image": "", "rank": 55, "time": 2, "location": {"lat": 30.493433658563173, "lng": 103.82045736310981}, "feature": {"sight_features": "", "sight_content": ""}}, {"title": "岳汉古器博物馆", "address": "公园路", "image": "", "rank": 56, "time": 2, "location": {"lat": 39.85630561225323, "lng": 116.5374093064604}, "feature": {"sight_features": "", "sight_content": ""}}, {"title": "文宝轩艺术馆", "address": "武阳中路2号", "image": "", "rank": 57, "time": 2, "location": {"lat": 30.418052014530147, "lng": 103.8186652436174}, "feature": {"sight_features": "", "sight_content": ""}}, {"title": "腾飞画院", "address": "武阳西路188号", "image": "", "rank": 58, "time": 2, "location": {"lat": 30.193565663311364, "lng": 103.86873807055953}, "feature": {"sight_features": "", "sight_content": ""}}, {"title": "津港湾水上世界", "address": "望江路86号", "image": "", "rank": 59, "time": 2, "location": {"lat": 23.119458184470286, "lng": 114.00163308948538}, "feature": {"sight_features": "", "sight_content": ""}}, {"title": "蓝剑水世界(兰湾蒂钒尼南)", "address": "瑞通路174号附近", "image": "", "rank": 60, "time": 2, "location": {"lat": 30.429277690876436, "lng": 103.82539557887898}, "feature": {"sight_features": "", "sight_content": ""}}]}