{"cityName": "新绛", "days": 2, "cityImage": "", "spots": [{"title": "新绛县龙泉村", "address": "运城市新绛县", "image": "", "rank": 1, "time": 2, "location": {"lat": 35.62263010308172, "lng": 111.23140649497044}, "feature": {"sight_features": "", "sight_content": ""}}, {"title": "新绛县图书馆", "address": "正平街40号", "image": "", "rank": 2, "time": 2, "location": {"lat": 30.521319010916727, "lng": 114.23722745572165}, "feature": {"sight_features": "", "sight_content": ""}}, {"title": "白台寺", "address": "运城市新绛县北20公里光马村西侧", "image": "", "rank": 3, "time": 2, "location": {"lat": 35.6718704704129, "lng": 111.08665174309174}, "feature": {"sight_features": "", "sight_content": ""}}, {"title": "龙香关帝庙", "address": "山西省新绛县店头乡龙香村 043109", "image": "", "rank": 4, "time": 2, "location": {"lat": 35.690502118042026, "lng": 111.29968368386719}, "feature": {"sight_features": "", "sight_content": ""}}, {"title": "乔沟头玉皇庙", "address": "山西省新绛县泽掌镇乔沟头村 043100", "image": "", "rank": 5, "time": 1.0, "location": {"lat": 35.77725135421285, "lng": 111.17385510260861}, "feature": {"sight_features": "", "sight_content": ""}}, {"title": "李毓秀之墓", "address": "山西省运城市新绛县新三线", "image": "", "rank": 6, "time": 2, "location": {"lat": 35.67617821783728, "lng": 111.26329100733486}, "feature": {"sight_features": "", "sight_content": ""}}, {"title": "童立方儿童乐园", "address": "运城市新绛县", "image": "", "rank": 7, "time": null, "location": {"lat": 35.62263010308172, "lng": 111.23140649497044}, "feature": {"sight_features": "", "sight_content": ""}}, {"title": "光村遗址", "address": "山西省运城市新绛县城西北约5公里处光村北约100米处", "image": "", "rank": 8, "time": 2, "location": {"lat": 35.75632737606214, "lng": 111.18106383364814}, "feature": {"sight_features": "", "sight_content": ""}}, {"title": "古城新绛", "address": "山西省新绛县境内 043100", "image": "", "rank": 9, "time": 1.5, "location": {"lat": 35.62263010308172, "lng": 111.23140649497044}, "feature": {"sight_features": "", "sight_content": ""}}, {"title": "段家庄休闲广场", "address": "顺城街西200米", "image": "", "rank": 10, "time": 2, "location": {"lat": 34.43114519546766, "lng": 112.4298685741526}, "feature": {"sight_features": "", "sight_content": ""}}, {"title": "新绛县水魔方水上乐园", "address": "山西省运城市新绛县三泉镇孝陵庄村", "image": "", "rank": 11, "time": 2, "location": {"lat": 35.66046298132093, "lng": 111.19745344462684}, "feature": {"sight_features": "", "sight_content": ""}}, {"title": "隋代花园绛州大堂", "address": "山西省运城新绛县绛州大堂", "image": "", "rank": 12, "time": 2, "location": {"lat": 35.62263010308172, "lng": 111.23140649497044}, "feature": {"sight_features": "", "sight_content": ""}}, {"title": "兰苑画廊", "address": "四府街90号", "image": "", "rank": 13, "time": 2, "location": {"lat": 34.26238309121626, "lng": 108.94221916586557}, "feature": {"sight_features": "", "sight_content": ""}}, {"title": "小黑马绘画艺术中心", "address": "西关路与799县道交叉口西150米", "image": "", "rank": 14, "time": 2, "location": {"lat": 35.66823467317453, "lng": 111.20078631437403}, "feature": {"sight_features": "", "sight_content": ""}}, {"title": "三官庙", "address": "山西省新绛县韩家巷", "image": "", "rank": 15, "time": 2, "location": {"lat": 35.620662553395846, "lng": 111.23704515865658}, "feature": {"sight_features": "", "sight_content": ""}}, {"title": "碧落碑", "address": "山西省新绛县北大街龙泉寺", "image": "", "rank": 16, "time": 2, "location": {"lat": 35.52643424953532, "lng": 111.03004399371898}, "feature": {"sight_features": "", "sight_content": ""}}, {"title": "稷益庙", "address": "山西省新绛县阳王镇阳王村", "image": "", "rank": 17, "time": 2, "location": {"lat": 35.50218184572951, "lng": 111.1110076530957}, "feature": {"sight_features": "", "sight_content": ""}}, {"title": "冯古庄村", "address": "运城市-新绛县-新苏线", "image": "", "rank": 18, "time": 2, "location": {"lat": 35.66625211428436, "lng": 111.20181149745254}, "feature": {"sight_features": "", "sight_content": ""}}]}