{"cityName": "新龙", "days": 2, "cityImage": "", "spots": [{"title": "措卡湖", "address": "新龙县措卡乡", "image": "", "rank": 1, "time": 3.5, "location": {"lat": 30.94546952526588, "lng": 100.31839824092819}, "feature": {"sight_features": "", "sight_content": ""}}, {"title": "雅砻江大峡谷", "address": "甘孜藏族自治州新龙县沙堆乡境内", "image": "", "rank": 2, "time": 2, "location": {"lat": 31.473097720738384, "lng": 100.11639826525634}, "feature": {"sight_features": "", "sight_content": ""}}, {"title": "拉日马草原", "address": "甘孜藏族自治州新龙县", "image": "", "rank": 3, "time": 2, "location": {"lat": 30.94546952526588, "lng": 100.31839824092819}, "feature": {"sight_features": "", "sight_content": ""}}, {"title": "波日桥", "address": "甘孜州新龙县乐安乡境内，距离县城36公里", "image": "", "rank": 4, "time": 2, "location": {"lat": 31.238572760830007, "lng": 100.39814201849019}, "feature": {"sight_features": "", "sight_content": ""}}, {"title": "赞多措那马", "address": "甘孜藏族自治州新龙县雄龙西乡西北部90公里的大草原上", "image": "", "rank": 5, "time": 2, "location": {"lat": 30.958348051248404, "lng": 100.20626941876488}, "feature": {"sight_features": "", "sight_content": ""}}, {"title": "嘎绒寺", "address": "甘孜藏族自治州新龙县雄龙西乡雄龙西扎呷神山主峰脚下", "image": "", "rank": 6, "time": 2, "location": {"lat": 30.958348051248404, "lng": 100.20626941876488}, "feature": {"sight_features": "", "sight_content": ""}}, {"title": "鲁木饶寺", "address": "甘孜州新龙县境内的大盖乡西部阿色沟", "image": "", "rank": 7, "time": 2, "location": {"lat": 31.318185448591663, "lng": 100.25340512582332}, "feature": {"sight_features": "", "sight_content": ""}}, {"title": "卡洼洛日山", "address": "甘孜藏族自治州新龙县大美国乡", "image": "", "rank": 8, "time": 2, "location": {"lat": 30.94546952526588, "lng": 100.31839824092819}, "feature": {"sight_features": "", "sight_content": ""}}, {"title": "雄龙扎呷神山", "address": "甘孜藏族自治州新龙县西部雄龙西乡境内", "image": "", "rank": 9, "time": 2, "location": {"lat": 30.958348051248404, "lng": 100.20626941876488}, "feature": {"sight_features": "", "sight_content": ""}}, {"title": "拉扎呷神山", "address": "甘孜藏族自治州新龙县和平乡竹庆村境内", "image": "", "rank": 10, "time": 2, "location": {"lat": 30.583602218386233, "lng": 100.31604370403396}, "feature": {"sight_features": "", "sight_content": ""}}, {"title": "嘎拉神山", "address": "甘孜藏族自治州新龙县皮察乡政府对岸", "image": "", "rank": 11, "time": 2, "location": {"lat": 30.78128423788776, "lng": 100.0530466983692}, "feature": {"sight_features": "", "sight_content": ""}}, {"title": "格日神山", "address": "甘孜藏族自治州新龙县南部61公里的和平乡境内", "image": "", "rank": 12, "time": 2, "location": {"lat": 30.583602218386233, "lng": 100.31604370403396}, "feature": {"sight_features": "", "sight_content": ""}}, {"title": "所登寺", "address": "甘孜藏族自治州新龙县通宵乡境内", "image": "", "rank": 13, "time": 2, "location": {"lat": 30.89301001459499, "lng": 100.07876692783256}, "feature": {"sight_features": "", "sight_content": ""}}, {"title": "红山", "address": "甘孜藏族自治州新龙县城西北部上瞻对区银多乡阿色1村境内", "image": "", "rank": 14, "time": 3.0, "location": {"lat": 31.410526963227674, "lng": 99.87630081065188}, "feature": {"sight_features": "", "sight_content": ""}}, {"title": "羌堆寺", "address": "甘孜藏族自治州新龙县吴亚乡", "image": "", "rank": 15, "time": 2, "location": {"lat": 30.916911449420407, "lng": 100.28763121522837}, "feature": {"sight_features": "", "sight_content": ""}}, {"title": "益西寺", "address": "甘孜藏族自治州新龙县城东南25公里的甲拉西乡呷乌村", "image": "", "rank": 16, "time": 2, "location": {"lat": 30.916343017247744, "lng": 100.32982916057655}, "feature": {"sight_features": "", "sight_content": ""}}, {"title": "竹巴龙矮岩羊自然保护区", "address": "甘孜藏族自治州巴塘县竹巴龙乡", "image": "", "rank": 17, "time": 2, "location": {"lat": 29.781020488288455, "lng": 99.01988528811265}, "feature": {"sight_features": "", "sight_content": ""}}, {"title": "皮察景区", "address": "甘孜藏族自治州新龙县城西北方向22公里的皮察沟", "image": "", "rank": 18, "time": 2, "location": {"lat": 30.94546952526588, "lng": 100.31839824092819}, "feature": {"sight_features": "", "sight_content": ""}}, {"title": "飘逸饮吧咖啡屋", "address": "甘孜藏族自治州新龙县中心街11号", "image": "", "rank": 19, "time": 2, "location": {"lat": 30.946902627819508, "lng": 100.31812183232277}, "feature": {"sight_features": "", "sight_content": ""}}, {"title": "布鲁曼山庄", "address": "217省道附近", "image": "", "rank": 20, "time": 2, "location": {"lat": 39.08362397662689, "lng": 117.74948306857745}, "feature": {"sight_features": "", "sight_content": ""}}, {"title": "新龙县田园山庄", "address": "博美乡供科村", "image": "", "rank": 21, "time": 2, "location": {"lat": 30.849586473776156, "lng": 100.17042276016896}, "feature": {"sight_features": "", "sight_content": ""}}, {"title": "措卡寺", "address": "四川省甘孜藏族自治州新龙县麻日乡", "image": "", "rank": 22, "time": 2, "location": {"lat": 30.75966350620682, "lng": 100.17575248581055}, "feature": {"sight_features": "", "sight_content": ""}}]}