{"cityName": "新乐", "days": 2, "cityImage": "", "spots": [{"title": "伏羲台", "address": "石家庄市新乐市伏羲大街与伏羲路交叉口北150米", "image": "", "rank": 1, "time": 2, "location": {"lat": 38.38779046807731, "lng": 114.72201162273005}, "feature": {"sight_features": "", "sight_content": ""}}, {"title": "鑫尚水上乐园", "address": "石家庄市新乐市邯邰镇无繁路民兵训练基地院内", "image": "", "rank": 2, "time": 2, "location": {"lat": 38.34067739223315, "lng": 114.75453321695537}, "feature": {"sight_features": "", "sight_content": ""}}, {"title": "会坡民俗馆", "address": "河北省石家庄市新乐市长寿路213号", "image": "", "rank": 3, "time": 2, "location": {"lat": 38.34882884718437, "lng": 114.67906522360386}, "feature": {"sight_features": "", "sight_content": ""}}, {"title": "星期六儿童乐园", "address": "育新路新大院小区沿街商铺(近玉成小区)", "image": "", "rank": 4, "time": 2, "location": {"lat": 38.01703729671557, "lng": 114.452783122946}, "feature": {"sight_features": "", "sight_content": ""}}, {"title": "人祖庙", "address": "石家庄市新乐市近郊伏羲台", "image": "", "rank": 5, "time": 2, "location": {"lat": 38.3880076463506, "lng": 114.72238537172055}, "feature": {"sight_features": "", "sight_content": ""}}, {"title": "新乐市图书馆少儿图书外借处", "address": "礼堂街与长寿路交叉口南100米", "image": "", "rank": 6, "time": 2, "location": {"lat": 38.3482879334125, "lng": 114.68892159155772}, "feature": {"sight_features": "", "sight_content": ""}}, {"title": "西里村苹果采摘园", "address": "东王镇西里村", "image": "", "rank": 7, "time": 2, "location": {"lat": 38.35778291808504, "lng": 114.92381007883196}, "feature": {"sight_features": "", "sight_content": ""}}, {"title": "特特乐儿童主题乐园", "address": "新兴路与礼堂街及交叉口365超市2楼", "image": "", "rank": 8, "time": 2, "location": {"lat": 36.817338478858844, "lng": 115.1756359107849}, "feature": {"sight_features": "", "sight_content": ""}}, {"title": "游乐场", "address": "新兴路与鲜虞街交叉口西北50米", "image": "", "rank": 9, "time": 2, "location": {"lat": 38.3555502606522, "lng": 114.6973240053318}, "feature": {"sight_features": "", "sight_content": ""}}, {"title": "东田村天主堂", "address": "河北省石家庄市新乐市S203", "image": "", "rank": 10, "time": null, "location": {"lat": 38.34929264795945, "lng": 114.69053218326928}, "feature": {"sight_features": "", "sight_content": ""}}, {"title": "何家庄村纪念堂", "address": "何家庄村东北", "image": "", "rank": 11, "time": null, "location": {"lat": 37.94711906284143, "lng": 114.77184861081301}, "feature": {"sight_features": "", "sight_content": ""}}, {"title": "魔法小镇儿童乐园", "address": "曲承线东50米", "image": "", "rank": 12, "time": 2, "location": {"lat": 38.43418835436954, "lng": 114.77024113442495}, "feature": {"sight_features": "", "sight_content": ""}}, {"title": "新乐市伏羲公园", "address": "石家庄市新乐市东名街附近", "image": "", "rank": 13, "time": 2, "location": {"lat": 38.342571189289075, "lng": 114.67380003133181}, "feature": {"sight_features": "", "sight_content": ""}}, {"title": "民俗度假村", "address": "河北省石家庄市新乐市无繁线锦绣家园西100米", "image": "", "rank": 14, "time": 3.0, "location": {"lat": 38.365428883252775, "lng": 114.69391357319196}, "feature": {"sight_features": "", "sight_content": ""}}, {"title": "清真寺(彭家庄回族乡)", "address": "河北省石家庄市新乐市", "image": "", "rank": 15, "time": 2, "location": {"lat": 38.34929264795945, "lng": 114.69053218326928}, "feature": {"sight_features": "", "sight_content": ""}}, {"title": "赵庄子村文化广场", "address": "河北省保定市定州市", "image": "", "rank": 16, "time": 2, "location": {"lat": 38.522198840134, "lng": 114.99649620776492}, "feature": {"sight_features": "", "sight_content": ""}}, {"title": "河北美术学院", "address": "石家庄市空港工业园区北环港路111号", "image": "", "rank": 17, "time": 2, "location": {"lat": 38.35122443510753, "lng": 114.72614496622904}, "feature": {"sight_features": "", "sight_content": ""}}, {"title": "梦幻水上乐园", "address": "南环路荣和世纪南行400米路东", "image": "", "rank": 18, "time": 2, "location": {"lat": 31.290644553892204, "lng": 121.62362402502758}, "feature": {"sight_features": "", "sight_content": ""}}, {"title": "绿苑休闲农庄", "address": "107国道", "image": "", "rank": 19, "time": 2, "location": {"lat": 23.102877208493197, "lng": 113.67228113407819}, "feature": {"sight_features": "", "sight_content": ""}}, {"title": "五谷农场", "address": "幸福路北50米", "image": "", "rank": 20, "time": 2, "location": {"lat": 22.810329995535078, "lng": 114.04108066768808}, "feature": {"sight_features": "", "sight_content": ""}}, {"title": "新乐市图书馆未成年人活动中心", "address": "礼堂街与长寿路交叉口南100米", "image": "", "rank": 21, "time": 2, "location": {"lat": 38.3482879334125, "lng": 114.68892159155772}, "feature": {"sight_features": "", "sight_content": ""}}, {"title": "河北美术学院(北区)-气味博物馆", "address": "石家庄市-新乐市-美术学院灰姑娘城堡西城堡806号", "image": "", "rank": 22, "time": 2, "location": {"lat": 38.34929264795945, "lng": 114.69053218326928}, "feature": {"sight_features": "", "sight_content": ""}}]}