{"cityName": "新宁", "days": 2, "cityImage": "", "spots": [{"title": "崀山玉女岩", "address": "邵阳市新宁县水庙镇中山村五组", "image": "", "rank": 1, "time": 0.5, "location": {"lat": 26.80594046479217, "lng": 111.18666709926357}, "feature": {"sight_features": "", "sight_content": ""}}, {"title": "辣椒峰景区", "address": "邵阳市新宁县崀山镇石田村", "image": "", "rank": 2, "time": 2.5, "location": {"lat": 26.355065899240486, "lng": 110.77204575707977}, "feature": {"sight_features": "", "sight_content": ""}}, {"title": "骆驼峰景区", "address": "邵阳市新宁县崀山镇石田村", "image": "", "rank": 3, "time": 2.5, "location": {"lat": 26.355065899240486, "lng": 110.77204575707977}, "feature": {"sight_features": "", "sight_content": ""}}, {"title": "崀山油菜花", "address": "邵阳市新宁县崀山镇黄背村", "image": "", "rank": 4, "time": 0.5, "location": {"lat": 26.28910709192498, "lng": 110.77001536294982}, "feature": {"sight_features": "", "sight_content": ""}}, {"title": "夫夷江漂流", "address": "邵阳市新宁县崀山镇水溪村", "image": "", "rank": 5, "time": 2, "location": {"lat": 26.317504783821104, "lng": 110.82465689042462}, "feature": {"sight_features": "", "sight_content": ""}}, {"title": "紫霞峒风景区", "address": "邵阳市新宁县崀山镇黄背村", "image": "", "rank": 6, "time": 1.0, "location": {"lat": 26.28910709192498, "lng": 110.77001536294982}, "feature": {"sight_features": "", "sight_content": ""}}, {"title": "玉女岩风景区", "address": "邵阳市新宁县水庙镇中山村五组", "image": "", "rank": 7, "time": 0.7, "location": {"lat": 26.80594046479217, "lng": 111.18666709926357}, "feature": {"sight_features": "", "sight_content": ""}}, {"title": "天一巷风景区", "address": "邵阳市新宁县崀山镇半山村", "image": "", "rank": 8, "time": 2.5, "location": {"lat": 26.327549636331927, "lng": 110.827294715147}, "feature": {"sight_features": "", "sight_content": ""}}, {"title": "八角寨索道", "address": "邵阳市新宁县崀山镇八角寨景区内", "image": "", "rank": 9, "time": 2, "location": {"lat": 26.283278254248664, "lng": 110.74308716770321}, "feature": {"sight_features": "", "sight_content": ""}}, {"title": "崀山脐橙果园", "address": "邵阳市新宁县崀山镇黄背村", "image": "", "rank": 10, "time": 1.0, "location": {"lat": 26.28910709192498, "lng": 110.77001536294982}, "feature": {"sight_features": "", "sight_content": ""}}, {"title": "鲤溪皮筏漂流", "address": "邵阳市新宁县", "image": "", "rank": 11, "time": null, "location": {"lat": 26.439723697953905, "lng": 110.86349072743869}, "feature": {"sight_features": "", "sight_content": ""}}, {"title": "莨山将军石", "address": "湖南省新宁县莨山镇 422702", "image": "", "rank": 12, "time": 2, "location": {"lat": 26.439723697953905, "lng": 110.86349072743869}, "feature": {"sight_features": "", "sight_content": ""}}, {"title": "林家寨一线天", "address": "湖南省新宁县崀山镇 422702", "image": "", "rank": 13, "time": 2, "location": {"lat": 26.377811570808923, "lng": 110.81868303931061}, "feature": {"sight_features": "", "sight_content": ""}}, {"title": "回家呷饭农家乐", "address": "崀山大道江口桥二桥北行200米左侧", "image": "", "rank": 14, "time": 2, "location": {"lat": 31.57478851967725, "lng": 114.13828985831115}, "feature": {"sight_features": "", "sight_content": ""}}, {"title": "新宁广场", "address": "邵阳市新宁县广场路13号", "image": "", "rank": 15, "time": 0.75, "location": {"lat": 26.439800969964583, "lng": 110.86227765567843}, "feature": {"sight_features": "", "sight_content": ""}}, {"title": "扶夷江漂流", "address": "218省道", "image": "", "rank": 16, "time": 2, "location": {"lat": 38.684744940323974, "lng": 111.4657298465704}, "feature": {"sight_features": "", "sight_content": ""}}, {"title": "紫云万峰山", "address": "湖南省新宁县紫云山林场 422700", "image": "", "rank": 17, "time": 2, "location": {"lat": 26.66070492343095, "lng": 111.10362424354021}, "feature": {"sight_features": "", "sight_content": ""}}, {"title": "八音岩", "address": "湖南省新宁县水庙镇 422704", "image": "", "rank": 18, "time": 2, "location": {"lat": 26.4670602844922, "lng": 110.72762447416838}, "feature": {"sight_features": "", "sight_content": ""}}, {"title": "白公渡大桥", "address": "湖南省新宁县境内 422700", "image": "", "rank": 19, "time": 2, "location": {"lat": 26.439723697953905, "lng": 110.86349072743869}, "feature": {"sight_features": "", "sight_content": ""}}, {"title": "白面寨战场遗址", "address": "湖南省新宁县崀山镇盆溪村 422702", "image": "", "rank": 20, "time": 2, "location": {"lat": 26.309921417903652, "lng": 110.79553442766544}, "feature": {"sight_features": "", "sight_content": ""}}, {"title": "放生晚眺", "address": "湖南省新宁县崀山镇犁头湾山顶 422702", "image": "", "rank": 21, "time": 2, "location": {"lat": 26.327549636331927, "lng": 110.827294715147}, "feature": {"sight_features": "", "sight_content": ""}}, {"title": "飞濂洞", "address": "湖南省新宁县崀山镇 422702", "image": "", "rank": 22, "time": 2, "location": {"lat": 26.377811570808923, "lng": 110.81868303931061}, "feature": {"sight_features": "", "sight_content": ""}}, {"title": "喊水岩", "address": "湖南省新宁县境内 422700", "image": "", "rank": 23, "time": 2, "location": {"lat": 26.439723697953905, "lng": 110.86349072743869}, "feature": {"sight_features": "", "sight_content": ""}}, {"title": "莨笏朝天", "address": "湖南省新宁县崀山镇 422702", "image": "", "rank": 24, "time": 2, "location": {"lat": 26.377811570808923, "lng": 110.81868303931061}, "feature": {"sight_features": "", "sight_content": ""}}, {"title": "石幕扁舟", "address": "湖南省新宁县境内 422700", "image": "", "rank": 25, "time": 2, "location": {"lat": 26.439723697953905, "lng": 110.86349072743869}, "feature": {"sight_features": "", "sight_content": ""}}, {"title": "夷江秀色", "address": "湖南省新宁县境内 422700", "image": "", "rank": 26, "time": 2, "location": {"lat": 26.439723697953905, "lng": 110.86349072743869}, "feature": {"sight_features": "", "sight_content": ""}}, {"title": "邵阳紫云山自然保护区", "address": "湖南省新宁县新宁县与东安交界处 422700", "image": "", "rank": 27, "time": 2, "location": {"lat": 26.439723697953905, "lng": 110.86349072743869}, "feature": {"sight_features": "", "sight_content": ""}}, {"title": "仙峒平湖景区", "address": "湖南省新宁县水庙镇 422704", "image": "", "rank": 28, "time": 2, "location": {"lat": 26.4670602844922, "lng": 110.72762447416838}, "feature": {"sight_features": "", "sight_content": ""}}, {"title": "回龙镇天然地下公园", "address": "湖南省新宁县回龙镇双狮村 422713", "image": "", "rank": 29, "time": 2, "location": {"lat": 26.715108126663633, "lng": 111.13357679179374}, "feature": {"sight_features": "", "sight_content": ""}}, {"title": "群螺观天", "address": "邵阳市新宁县崀山镇八角寨景区内", "image": "", "rank": 30, "time": 2, "location": {"lat": 26.283278254248664, "lng": 110.74308716770321}, "feature": {"sight_features": "", "sight_content": ""}}, {"title": "辣椒峰景区-骆驼峰景点-栈道", "address": "邵阳市新宁县城南10余公里处崀山国家地质公园辣椒峰景区骆驼峰景点内", "image": "", "rank": 31, "time": null, "location": {"lat": 26.354688657699874, "lng": 110.78011205816664}, "feature": {"sight_features": "", "sight_content": ""}}, {"title": "夷江水上乐园", "address": "金石镇北门犁头湾", "image": "", "rank": 32, "time": 2.5, "location": {"lat": 26.435055563728856, "lng": 110.85829205019984}, "feature": {"sight_features": "", "sight_content": ""}}, {"title": "刘光才墓", "address": "邵阳市新宁县城南10余公里处崀山国家地质公园紫霞峒景区内", "image": "", "rank": 33, "time": 2, "location": {"lat": 26.392499082645497, "lng": 110.82090332264903}, "feature": {"sight_features": "", "sight_content": ""}}, {"title": "丹霞广场", "address": "邵阳市新宁县城南10余公里处崀山国家地质公园内", "image": "", "rank": 34, "time": 1.5, "location": {"lat": 26.367357548669453, "lng": 110.79992000996035}, "feature": {"sight_features": "", "sight_content": ""}}, {"title": "鲤溪皮筏漂流", "address": "莨山风景名胜区东侧", "image": "", "rank": 35, "time": 2, "location": {"lat": 22.75835808349772, "lng": 113.30446383466176}, "feature": {"sight_features": "", "sight_content": ""}}, {"title": "亲子游乐园", "address": "金石镇崀之韵广场", "image": "", "rank": 36, "time": 2, "location": {"lat": 26.44828238767602, "lng": 110.8679906855843}, "feature": {"sight_features": "", "sight_content": ""}}, {"title": "卡奇乐儿童乐园", "address": "金石镇莨之韵广场", "image": "", "rank": 37, "time": 2, "location": {"lat": 26.435055563728856, "lng": 110.85829205019984}, "feature": {"sight_features": "", "sight_content": ""}}, {"title": "金舞鞋舞蹈艺术中心", "address": "解放路150号附近", "image": "", "rank": 38, "time": 2, "location": {"lat": 37.88729999778287, "lng": 112.56847016684736}, "feature": {"sight_features": "", "sight_content": ""}}, {"title": "万峰林场", "address": "078县道东200米", "image": "", "rank": 39, "time": 2, "location": {"lat": 28.133787486399736, "lng": 112.86534820660302}, "feature": {"sight_features": "", "sight_content": ""}}, {"title": "三渡水牌坊", "address": "湖南省新宁县一渡水镇三渡水村", "image": "", "rank": 40, "time": 2, "location": {"lat": 26.574104882961787, "lng": 111.22889322803486}, "feature": {"sight_features": "", "sight_content": ""}}, {"title": "三源桥神造碑", "address": "湖南省新宁县境内", "image": "", "rank": 41, "time": 2, "location": {"lat": 26.439723697953905, "lng": 110.86349072743869}, "feature": {"sight_features": "", "sight_content": ""}}, {"title": "扶夷江", "address": "湖南省新宁县回龙镇", "image": "", "rank": 42, "time": 2, "location": {"lat": 26.7436607005403, "lng": 111.1131574963888}, "feature": {"sight_features": "", "sight_content": ""}}, {"title": "遮茨塘", "address": "邵阳市-新宁县", "image": "", "rank": 43, "time": 2, "location": {"lat": 26.439723697953905, "lng": 110.86349072743869}, "feature": {"sight_features": "", "sight_content": ""}}, {"title": "老屋蒋家", "address": "邵阳市-新宁县", "image": "", "rank": 44, "time": 2, "location": {"lat": 26.439723697953905, "lng": 110.86349072743869}, "feature": {"sight_features": "", "sight_content": ""}}, {"title": "清风巷(丹霞巷谷)", "address": "邵阳市-新宁县-崀山镇八角寨景区内", "image": "", "rank": 45, "time": 2, "location": {"lat": 26.283278254248664, "lng": 110.74308716770321}, "feature": {"sight_features": "", "sight_content": ""}}, {"title": "崀山新宏基华天与会展中心", "address": "邵阳市-新宁县-金石镇崀山大道29号崀山新宏基华天与会展中心", "image": "", "rank": 46, "time": 4.5, "location": {"lat": 26.456271239547924, "lng": 110.86196148178311}, "feature": {"sight_features": "", "sight_content": ""}}]}