{"cityName": "新平", "days": 2, "cityImage": "", "spots": [{"title": "哀牢山自然保护区", "address": "玉溪市新平彝族傣族自治县戛洒镇", "image": "", "rank": 1, "time": 2.0, "location": {"lat": 24.01498563921987, "lng": 101.55347505252007}, "feature": {"sight_features": "", "sight_content": ""}}, {"title": "磨盘山国家森林公园", "address": "玉溪市新平彝族傣族自治县", "image": "", "rank": 2, "time": 2, "location": {"lat": 24.07626270527773, "lng": 101.9964277126142}, "feature": {"sight_features": "", "sight_content": ""}}, {"title": "新化古州野林公园", "address": "玉溪市新平县城西北部新化乡新化村，距县城30公里", "image": "", "rank": 3, "time": 1.5, "location": {"lat": 24.119552145389022, "lng": 101.87123276286643}, "feature": {"sight_features": "", "sight_content": ""}}, {"title": "大槟榔园", "address": "玉溪市新平彝族傣族自治县嘎洒镇", "image": "", "rank": 4, "time": 2, "location": {"lat": 24.054786394626703, "lng": 101.58203064048566}, "feature": {"sight_features": "", "sight_content": ""}}, {"title": "新平土司府", "address": "玉溪市新平彝族傣族自治县", "image": "", "rank": 5, "time": 2, "location": {"lat": 24.07626270527773, "lng": 101.9964277126142}, "feature": {"sight_features": "", "sight_content": ""}}, {"title": "石门峡", "address": "玉溪市嘎洒镇石门峡风景区", "image": "", "rank": 6, "time": 2, "location": {"lat": 23.97784701716291, "lng": 101.53201175453654}, "feature": {"sight_features": "", "sight_content": ""}}, {"title": "哀牢山红河谷旅游景区", "address": "玉溪市新平县", "image": "", "rank": 7, "time": 2, "location": {"lat": 24.07626270527773, "lng": 101.9964277126142}, "feature": {"sight_features": "", "sight_content": ""}}, {"title": "戛洒镇", "address": "玉溪市新平彝族傣族自治县", "image": "", "rank": 8, "time": 3.0, "location": {"lat": 24.07626270527773, "lng": 101.9964277126142}, "feature": {"sight_features": "", "sight_content": ""}}, {"title": "土司府", "address": "云南省楚雄彝族自治州楚雄市北 0.1 米", "image": "", "rank": 9, "time": 2, "location": {"lat": 25.03886857268845, "lng": 101.55247228396097}, "feature": {"sight_features": "", "sight_content": ""}}, {"title": "陇西世族庄园", "address": "云南省玉溪市新平县戛洒镇耀南村", "image": "", "rank": 10, "time": 2.0, "location": {"lat": 24.01774162167143, "lng": 101.55083011231973}, "feature": {"sight_features": "", "sight_content": ""}}, {"title": "南恩瀑布", "address": "云南省玉溪市新平彝族傣族自治县戛洒镇哀牢山国家级自然保护区", "image": "", "rank": 11, "time": 2, "location": {"lat": 23.97784701716291, "lng": 101.53201175453654}, "feature": {"sight_features": "", "sight_content": ""}}, {"title": "漠沙镇", "address": "云南省玉溪市新平彝族傣族自治县漠沙镇", "image": "", "rank": 12, "time": 2, "location": {"lat": 23.84724450476473, "lng": 101.7338922249665}, "feature": {"sight_features": "", "sight_content": ""}}, {"title": "悬崖幽谷", "address": "玉溪市新平彝族傣族自治县磨盘山国家森林公园内", "image": "", "rank": 13, "time": 2, "location": {"lat": 23.945851295116636, "lng": 101.99538352228976}, "feature": {"sight_features": "", "sight_content": ""}}, {"title": "杜鹃花海", "address": "玉溪市新平彝族傣族自治县磨盘山国家森林公园内", "image": "", "rank": 14, "time": 2, "location": {"lat": 23.945851295116636, "lng": 101.99538352228976}, "feature": {"sight_features": "", "sight_content": ""}}, {"title": "龙泉公园", "address": "新平县彝族傣族自治县045乡道", "image": "", "rank": 15, "time": 2, "location": {"lat": 24.06608012186699, "lng": 102.00949320693033}, "feature": {"sight_features": "", "sight_content": ""}}, {"title": "马鹿水库宏鑫垂钓园", "address": "218省道附近", "image": "", "rank": 16, "time": 2, "location": {"lat": 38.684744940323974, "lng": 111.4657298465704}, "feature": {"sight_features": "", "sight_content": ""}}, {"title": "哈尼梯田", "address": "云南省元阳县哀牢山南部 662400", "image": "", "rank": 17, "time": 4.5, "location": {"lat": 23.22619805192609, "lng": 102.84143280386179}, "feature": {"sight_features": "", "sight_content": ""}}, {"title": "土锅寨", "address": "云南省新平彝族傣族自治县嘎洒镇 653400", "image": "", "rank": 18, "time": 2, "location": {"lat": 24.054786394626703, "lng": 101.58203064048566}, "feature": {"sight_features": "", "sight_content": ""}}, {"title": "觉西园", "address": "云南省玉溪市新平彝族傣族自治县富春街52", "image": "", "rank": 19, "time": 2, "location": {"lat": 24.078705408765256, "lng": 101.99347195601263}, "feature": {"sight_features": "", "sight_content": ""}}, {"title": "麋鹿公园", "address": "玉溪市新平彝族傣族自治县富新路104号", "image": "", "rank": 20, "time": 2.5, "location": {"lat": 24.072104002984563, "lng": 101.99856199667465}, "feature": {"sight_features": "", "sight_content": ""}}, {"title": "宝贝家儿童游乐园", "address": "玉溪市新平彝族傣族自治县", "image": "", "rank": 21, "time": 2.0, "location": {"lat": 24.07626270527773, "lng": 101.9964277126142}, "feature": {"sight_features": "", "sight_content": ""}}, {"title": "坝达", "address": "云南省玉溪市新平彝族傣族自治县坝达", "image": "", "rank": 22, "time": 2.5, "location": {"lat": 23.987688881177657, "lng": 101.64874248439904}, "feature": {"sight_features": "", "sight_content": ""}}, {"title": "磨盘山国家森林公园敌军山景区", "address": "在磨盘山附近", "image": "", "rank": 23, "time": 2, "location": {"lat": 40.31876861726795, "lng": 116.12987445107045}, "feature": {"sight_features": "", "sight_content": ""}}, {"title": "喜洋洋儿童乐园", "address": "文林路与花街上段交叉口西南100米", "image": "", "rank": 24, "time": 2, "location": {"lat": 24.057624796103944, "lng": 101.5840187226295}, "feature": {"sight_features": "", "sight_content": ""}}, {"title": "情人谷山庄", "address": "情人谷附近", "image": "", "rank": 25, "time": 2, "location": {"lat": 38.8041378825981, "lng": 112.04330823075918}, "feature": {"sight_features": "", "sight_content": ""}}, {"title": "花腰傣文化博览馆", "address": "145乡道", "image": "", "rank": 26, "time": 2, "location": {"lat": 39.48254257102935, "lng": 119.25557427134856}, "feature": {"sight_features": "", "sight_content": ""}}, {"title": "岩腊画廊", "address": "文林路", "image": "", "rank": 27, "time": 2, "location": {"lat": 25.056522838172828, "lng": 102.70413016547133}, "feature": {"sight_features": "", "sight_content": ""}}, {"title": "峨山县大龙潭乡龙溪谷生态农庄", "address": "大平田村", "image": "", "rank": 28, "time": 2, "location": {"lat": 32.79687362939867, "lng": 118.57035297274706}, "feature": {"sight_features": "", "sight_content": ""}}, {"title": "小鱼勺", "address": "玉溪市-新平彝族傣族自治县-小矣勺路", "image": "", "rank": 29, "time": 2, "location": {"lat": 24.08999158274676, "lng": 101.8147422792119}, "feature": {"sight_features": "", "sight_content": ""}}, {"title": "扬武村", "address": "玉溪市-新平彝族傣族自治县", "image": "", "rank": 30, "time": 2, "location": {"lat": 24.07626270527773, "lng": 101.9964277126142}, "feature": {"sight_features": "", "sight_content": ""}}, {"title": "小丁苴彝寨", "address": "玉溪市-新平彝族傣族自治县-斗嘎--大丁苴", "image": "", "rank": 31, "time": 2, "location": {"lat": 24.003418323899464, "lng": 102.07434376272595}, "feature": {"sight_features": "", "sight_content": ""}}, {"title": "它代可下寨", "address": "玉溪市-新平彝族傣族自治县-它斗可路", "image": "", "rank": 32, "time": 2, "location": {"lat": 24.07626270527773, "lng": 101.9964277126142}, "feature": {"sight_features": "", "sight_content": ""}}, {"title": "它代可上寨", "address": "玉溪市-新平彝族傣族自治县-它斗可路", "image": "", "rank": 33, "time": 2, "location": {"lat": 24.07626270527773, "lng": 101.9964277126142}, "feature": {"sight_features": "", "sight_content": ""}}, {"title": "红河第一湾", "address": "新平县水塘镇大窝塘，观景台距戛洒镇18公里，距水塘镇15公里", "image": "", "rank": 34, "time": 0.75, "location": {"lat": 24.13449487064349, "lng": 101.47489849094333}, "feature": {"sight_features": "", "sight_content": ""}}]}