{"cityName": "新邵", "days": 2, "cityImage": "", "spots": [{"title": "潭府玫瑰园", "address": "邵阳市新邵县潭府乡下潭村", "image": "", "rank": 1, "time": 2, "location": {"lat": 27.382341191067795, "lng": 111.6613539330981}, "feature": {"sight_features": "", "sight_content": ""}}, {"title": "白云岩风景区", "address": "湖南省，邵阳", "image": "", "rank": 2, "time": null, "location": {"lat": 27.245270272808565, "lng": 111.474432885931}, "feature": {"sight_features": "", "sight_content": ""}}, {"title": "文仙山", "address": "湖南省邵东县境内 422800", "image": "", "rank": 3, "time": 2, "location": {"lat": 27.264507471565526, "lng": 111.75049070295837}, "feature": {"sight_features": "", "sight_content": ""}}, {"title": "雷公洞", "address": "湖南省新邵县坪上乡大元村 422911", "image": "", "rank": 4, "time": 2, "location": {"lat": 27.25540134276079, "lng": 111.56279334286471}, "feature": {"sight_features": "", "sight_content": ""}}, {"title": "龙山森林公园", "address": "湖南省邵阳市新邵县", "image": "", "rank": 5, "time": 2.5, "location": {"lat": 27.327131739160276, "lng": 111.46444938798804}, "feature": {"sight_features": "", "sight_content": ""}}, {"title": "杨家祠堂", "address": "邵阳市新邵县", "image": "", "rank": 6, "time": 2.0, "location": {"lat": 27.327131739160276, "lng": 111.46444938798804}, "feature": {"sight_features": "", "sight_content": ""}}, {"title": "张氏宗祠", "address": "湖南省邵阳市新邵县X034", "image": "", "rank": 7, "time": 2, "location": {"lat": 27.327131739160276, "lng": 111.46444938798804}, "feature": {"sight_features": "", "sight_content": ""}}, {"title": "刘家祠堂", "address": "邵阳市新邵县二零七国道", "image": "", "rank": 8, "time": 2, "location": {"lat": 27.327131739160276, "lng": 111.46444938798804}, "feature": {"sight_features": "", "sight_content": ""}}, {"title": "儿童乐园", "address": "内环西街与福康街交叉口西北50米", "image": "", "rank": 9, "time": 2, "location": {"lat": 27.315780952224685, "lng": 111.46383878817377}, "feature": {"sight_features": "", "sight_content": ""}}, {"title": "贝儿健儿童乐园", "address": "新邵县内环西路108号", "image": "", "rank": 10, "time": 2, "location": {"lat": 27.327131739160276, "lng": 111.46444938798804}, "feature": {"sight_features": "", "sight_content": ""}}, {"title": "龙潭大峡谷漂流", "address": "中国湖南省邵阳市新邵县003乡道", "image": "", "rank": 11, "time": 2, "location": {"lat": 27.327131739160276, "lng": 111.46444938798804}, "feature": {"sight_features": "", "sight_content": ""}}, {"title": "泉水水上乐园", "address": "酿溪镇新阳路原新阳中学旁", "image": "", "rank": 12, "time": 2, "location": {"lat": 27.308645660112898, "lng": 111.48218773910783}, "feature": {"sight_features": "", "sight_content": ""}}, {"title": "新邵剧院", "address": "大新街46号附近", "image": "", "rank": 13, "time": 2, "location": {"lat": 45.797220956142596, "lng": 126.6583620382261}, "feature": {"sight_features": "", "sight_content": ""}}, {"title": "辉耀生态园", "address": "行政学校旁边", "image": "", "rank": 14, "time": 2, "location": {"lat": 39.85642796481992, "lng": 116.27372547077559}, "feature": {"sight_features": "", "sight_content": ""}}, {"title": "白水石马", "address": "湖南省邵阳县金紫乡白水村白水小学内", "image": "", "rank": 15, "time": 2, "location": {"lat": 26.996528332196284, "lng": 111.28050768063707}, "feature": {"sight_features": "", "sight_content": ""}}, {"title": "涟水河", "address": "湖南省新邵县观音山", "image": "", "rank": 16, "time": 2, "location": {"lat": 27.560849363355146, "lng": 111.60125693517821}, "feature": {"sight_features": "", "sight_content": ""}}, {"title": "邵阳石门山", "address": "湖南省新邵县新田铺与龙口溪两乡交界处", "image": "", "rank": 17, "time": null, "location": {"lat": 27.327131739160276, "lng": 111.46444938798804}, "feature": {"sight_features": "", "sight_content": ""}}, {"title": "许家冲", "address": "邵阳市-新邵县", "image": "", "rank": 18, "time": 2, "location": {"lat": 27.327131739160276, "lng": 111.46444938798804}, "feature": {"sight_features": "", "sight_content": ""}}, {"title": "湖南省新邵县图书馆", "address": "邵阳市-新邵县-新阳路121号附近", "image": "", "rank": 19, "time": 2, "location": {"lat": 27.320694160011634, "lng": 111.47616724437853}, "feature": {"sight_features": "", "sight_content": ""}}, {"title": "长冲铺村", "address": "邵阳市-新邵县-二一七省道", "image": "", "rank": 20, "time": 2, "location": {"lat": 27.48145936938474, "lng": 111.30886952117203}, "feature": {"sight_features": "", "sight_content": ""}}, {"title": "晒谷滩度假村", "address": "湖南省邵阳市新邵县晒谷滩(古纯冲村附近)", "image": "", "rank": 21, "time": 2, "location": {"lat": 27.32844129488524, "lng": 111.42648391416441}, "feature": {"sight_features": "", "sight_content": ""}}]}