{"cityName": "新泰", "days": 2, "cityImage": "", "spots": [{"title": "莲花山国家森林公园", "address": "泰安市新泰市迈莱河路北首与莲花路交接处", "image": "", "rank": 1, "time": 3.5, "location": {"lat": 35.9146198665876, "lng": 117.77460624826666}, "feature": {"sight_features": "特色1 一方香火圣地与游览胜地 特色2 被誉为小岱峰，其景色以奇、险、幽著称", "sight_content": "莲花山东西锦延15公里，南北兼跨新泰、莱芜两市，大小山脉十余条，主峰海拔994米。新泰市莲花山省级森林公园，总经营面积1805公顷，有林地面积1360公顷，森林覆盖率为75.3％，主要林种为风景林和防护林，主要树种有赤松、油松、侧柏、麻栎、刺槐等。现有古树名木120余株，主要旅游景点60多处。\n\n\n莲花山因九峰环抱状似莲花而得名，古称新甫山，历史悠久，古迹众多，山因水而灵，水因山而秀，莲花山有秀水九条，潭瀑一百，雨季水量大恢宏壮观，旱季水量小潺潺灵动。通天河、青龙潭、子母泉瀑布、云谷飞瀑为游客津津乐道的水景。\n\n\n莲花山历史悠久，文化底蕴深厚，3000多年前，西周初期甫国(即吕国，封在河南新蔡)人东迁新泰，开发山林，新甫山即因甫人而得名。2500多年前的《诗经》中就有“徂徕之松，新甫之柏”的诗句，反映了鲁国征伐莲花山一带的史实。秦始皇封禅泰山，东巡途中曾在此暂住；汉武帝巡幸莲花山，求仙访道，建离宫、筑侯城，留下了众多遗迹和传说，侧面反映了当时莲花山一带方士仙道的流行。唐代以来，莲花山佛教兴起，逐渐成为一方香火圣地与游览胜地。。。\n\n\n莲花山子母泉瀑布，是山东著名的瀑布之一，它实际上是一处悬瀑，因水从石缝流出而俗称为泉。因有巨石相隔，瀑水分成两股，左边水流大好比为母泉，右边的水流小好比为子泉。子母泉两边的悬崖陡峭直立，抬头仰望，只能看到一线蓝天，所以，这里还被称为一线天！"}}, {"title": "和圣园风景区", "address": "泰安市新泰市宫里镇夏家隅村", "image": "", "rank": 2, "time": 2, "location": {"lat": 35.90380739830143, "lng": 117.39690755937319}, "feature": {"sight_features": "", "sight_content": ""}}, {"title": "清水湾温泉", "address": "泰安市新泰经济开发区铁西路中段通济花园东临清水湾温泉", "image": "", "rank": 3, "time": 2, "location": {"lat": 35.9146198665876, "lng": 117.77460624826666}, "feature": {"sight_features": "", "sight_content": ""}}, {"title": "新泰莲花山", "address": "泰安市新泰市迈莱河路北首", "image": "", "rank": 4, "time": 2, "location": {"lat": 35.9146198665876, "lng": 117.77460624826666}, "feature": {"sight_features": "", "sight_content": "莲花山东西锦延15公里，南北兼跨新泰、莱芜两市，大小山脉十余条，主峰海拔994米。新泰市莲花山省级森林公园，总经营面积1805公顷，有林地面积1360公顷，森林覆盖率为75.3％，主要林种为风景林和防护林，主要树种有赤松、油松、侧柏、麻栎、刺槐等。现有古树名木120余株，主要旅游景点60多处。\n\n\n莲花山因九峰环抱状似莲花而得名，古称新甫山，历史悠久，古迹众多，山因水而灵，水因山而秀，莲花山有秀水九条，潭瀑一百，雨季水量大恢宏壮观，旱季水量小潺潺灵动。通天河、青龙潭、子母泉瀑布、云谷飞瀑为游客津津乐道的水景。\n\n\n莲花山历史悠久，文化底蕴深厚，3000多年前，西周初期甫国(即吕国，封在河南新蔡)人东迁新泰，开发山林，新甫山即因甫人而得名。2500多年前的《诗经》中就有“徂徕之松，新甫之柏”的诗句，反映了鲁国征伐莲花山一带的史实。秦始皇封禅泰山，东巡途中曾在此暂住；汉武帝巡幸莲花山，求仙访道，建离宫、筑侯城，留下了众多遗迹和传说，侧面反映了当时莲花山一带方士仙道的流行。唐代以来，莲花山佛教兴起，逐渐成为一方香火圣地与游览胜地。。。\n\n\n莲花山子母泉瀑布，是山东著名的瀑布之一，它实际上是一处悬瀑，因水从石缝流出而俗称为泉。因有巨石相隔，瀑水分成两股，左边水流大好比为母泉，右边的水流小好比为子泉。子母泉两边的悬崖陡峭直立，抬头仰望，只能看到一线蓝天，所以，这里还被称为一线天！"}}, {"title": "海陆空游乐园", "address": "泰安市新泰市汶南镇借庄村环湖路东首路南7号", "image": "", "rank": 5, "time": 2, "location": {"lat": 35.893116836355254, "lng": 117.82111103943325}, "feature": {"sight_features": "", "sight_content": ""}}, {"title": "金树林生态园", "address": "汶南镇北鲍村", "image": "", "rank": 6, "time": 2, "location": {"lat": 35.84934705102469, "lng": 117.77380633146427}, "feature": {"sight_features": "", "sight_content": ""}}, {"title": "光明生态园", "address": "小协镇横山村光明水库大坝西首", "image": "", "rank": 7, "time": 2, "location": {"lat": 21.847461914082395, "lng": 111.6259891525386}, "feature": {"sight_features": "", "sight_content": ""}}, {"title": "红樱桃生态园", "address": "天宝镇年家峪村", "image": "", "rank": 8, "time": 2, "location": {"lat": 36.0133667754186, "lng": 117.3703010940327}, "feature": {"sight_features": "", "sight_content": ""}}, {"title": "新泰市博物馆", "address": "通天街3号", "image": "", "rank": 9, "time": 2.5, "location": {"lat": 36.194686192544445, "lng": 117.1383548654224}, "feature": {"sight_features": "", "sight_content": ""}}, {"title": "新泰市美术馆", "address": "向阳路311号", "image": "", "rank": 10, "time": null, "location": {"lat": 31.081077285791995, "lng": 121.44109718382799}, "feature": {"sight_features": "", "sight_content": ""}}, {"title": "黄山沟自摘苹果园", "address": "青云街道205国道金斗水库附近", "image": "", "rank": 11, "time": 2, "location": {"lat": 35.95381110790993, "lng": 117.80328127224738}, "feature": {"sight_features": "", "sight_content": ""}}, {"title": "杏山溶洞", "address": "山东省蒙阴县桃墟镇杏山村 276223", "image": "", "rank": 12, "time": 2, "location": {"lat": 35.621308872742134, "lng": 117.96198746327268}, "feature": {"sight_features": "", "sight_content": ""}}, {"title": "熊出没儿童乐园", "address": "青云路与金斗路交汇处青云超市3楼", "image": "", "rank": 13, "time": 2, "location": {"lat": 35.91231671599929, "lng": 117.764874207592}, "feature": {"sight_features": "", "sight_content": ""}}, {"title": "美加乐儿意成长主题乐园", "address": "山东省泰安市新泰市X26(二六县道)", "image": "", "rank": 14, "time": 2, "location": {"lat": 35.9146198665876, "lng": 117.77460624826666}, "feature": {"sight_features": "", "sight_content": ""}}, {"title": "青云新矿店儿童乐园", "address": "新建二路青云新矿店二楼西北", "image": "", "rank": 15, "time": 2, "location": {"lat": 37.05153245786117, "lng": 111.95070592936456}, "feature": {"sight_features": "", "sight_content": ""}}, {"title": "龙腾山庄", "address": "103省道南50米护林防火检查站附近", "image": "", "rank": 16, "time": 2, "location": {"lat": 41.88880661097969, "lng": 116.56596735579252}, "feature": {"sight_features": "", "sight_content": ""}}, {"title": "新泰奇石馆", "address": "山东省新泰市青龙路", "image": "", "rank": 17, "time": 1.0, "location": {"lat": 35.90226290532732, "lng": 117.77430049112192}, "feature": {"sight_features": "", "sight_content": ""}}, {"title": "盱眙龙虾啤酒广场", "address": "银河路", "image": "", "rank": 18, "time": 4.0, "location": {"lat": 40.66534210314294, "lng": 109.85880545916943}, "feature": {"sight_features": "", "sight_content": ""}}, {"title": "善伟大殿", "address": "新汶大街878号附近", "image": "", "rank": 19, "time": 2, "location": {"lat": 35.897701090428086, "lng": 117.66189568076015}, "feature": {"sight_features": "", "sight_content": ""}}, {"title": "新泰烈士陵园", "address": "明珠路东100米", "image": "", "rank": 20, "time": 3.0, "location": {"lat": 37.55448005654453, "lng": 121.34609900102805}, "feature": {"sight_features": "", "sight_content": ""}}, {"title": "锦鲤水族馆", "address": "山东省泰安市新泰市新安路", "image": "", "rank": 21, "time": 2, "location": {"lat": 35.92220307225875, "lng": 117.75281751934233}, "feature": {"sight_features": "", "sight_content": ""}}, {"title": "罗马广场", "address": "青龙路778号", "image": "", "rank": 22, "time": 2, "location": {"lat": 35.90028824758901, "lng": 117.78055556396426}, "feature": {"sight_features": "", "sight_content": ""}}, {"title": "徂徕山度假村", "address": "光华寺附近", "image": "", "rank": 23, "time": 2, "location": {"lat": 26.354639464776874, "lng": 119.58717014060633}, "feature": {"sight_features": "", "sight_content": ""}}, {"title": "岚鑫湖度假村", "address": "244省道附近", "image": "", "rank": 24, "time": 2, "location": {"lat": 41.647500974269505, "lng": 115.6109952071258}, "feature": {"sight_features": "", "sight_content": ""}}, {"title": "白天鹅度假村", "address": "西周路上", "image": "", "rank": 25, "time": 2, "location": {"lat": 28.04745978090501, "lng": 120.61911676128494}, "feature": {"sight_features": "", "sight_content": ""}}, {"title": "宾湖山庄", "address": "滨湖路附近", "image": "", "rank": 26, "time": 2, "location": {"lat": 39.19567610442392, "lng": 117.49159838424798}, "feature": {"sight_features": "", "sight_content": ""}}, {"title": "岚鑫湖公园", "address": "山东省泰安市新泰市", "image": "", "rank": 27, "time": 2, "location": {"lat": 35.9146198665876, "lng": 117.77460624826666}, "feature": {"sight_features": "", "sight_content": ""}}, {"title": "新泰市图书馆", "address": "府前大街21号附近", "image": "", "rank": 28, "time": 1.5, "location": {"lat": 23.031945933966394, "lng": 112.46680059434478}, "feature": {"sight_features": "", "sight_content": ""}}, {"title": "电影画社", "address": "金斗路80号", "image": "", "rank": 29, "time": 2, "location": {"lat": 35.92289331790734, "lng": 117.77012606152442}, "feature": {"sight_features": "", "sight_content": ""}}, {"title": "新泰市艺术研究院美术馆", "address": "杏山路278号", "image": "", "rank": 30, "time": 2, "location": {"lat": 31.24160360046874, "lng": 121.41425786975908}, "feature": {"sight_features": "", "sight_content": ""}}, {"title": "清音公园滑雪场", "address": "京沪高速青云山风景名胜区清音公园院内", "image": "", "rank": 31, "time": 2, "location": {"lat": 33.80355233924191, "lng": 119.05186867492014}, "feature": {"sight_features": "", "sight_content": ""}}, {"title": "私艺书画艺术馆", "address": "中心财富大街55号附近", "image": "", "rank": 32, "time": 2, "location": {"lat": 35.915251844734975, "lng": 117.77992529485235}, "feature": {"sight_features": "", "sight_content": ""}}, {"title": "花果山农家院", "address": "滨湖路铭流府邸转盘向北1188米再向东88米", "image": "", "rank": 33, "time": 2, "location": {"lat": 35.91572933322067, "lng": 117.80505564840936}, "feature": {"sight_features": "", "sight_content": ""}}, {"title": "新汶森林公园", "address": "龙溪路与新汶大街交叉口", "image": "", "rank": 34, "time": 2, "location": {"lat": 35.878093805515036, "lng": 117.69736733543279}, "feature": {"sight_features": "", "sight_content": ""}}, {"title": "云雀艺术馆", "address": "平阳路与新甫路交叉口", "image": "", "rank": 35, "time": 2, "location": {"lat": 35.91670016567938, "lng": 117.77135392059151}, "feature": {"sight_features": "", "sight_content": ""}}, {"title": "鱼的海洋鸟的世界", "address": "平阳路西200米", "image": "", "rank": 36, "time": 2, "location": {"lat": 32.244795524424326, "lng": 118.77146360799796}, "feature": {"sight_features": "", "sight_content": ""}}, {"title": "汶苑阁画廊", "address": "J23县道西100米", "image": "", "rank": 37, "time": 2, "location": {"lat": 22.526267027237505, "lng": 113.3829636090835}, "feature": {"sight_features": "", "sight_content": ""}}, {"title": "红木根雕艺术馆", "address": "正阳路与103省道交叉口西南150米", "image": "", "rank": 38, "time": 2, "location": {"lat": 35.968421330123476, "lng": 117.60629838045892}, "feature": {"sight_features": "", "sight_content": ""}}, {"title": "新泰文化艺术城", "address": "府前街1177", "image": "", "rank": 39, "time": 2, "location": {"lat": 39.892162999395026, "lng": 117.7610200062421}, "feature": {"sight_features": "", "sight_content": ""}}, {"title": "荣墨斋画廊", "address": "青云中学楼下", "image": "", "rank": 40, "time": 2, "location": {"lat": 31.266485228782226, "lng": 121.4756377915514}, "feature": {"sight_features": "", "sight_content": ""}}, {"title": "王加国根石艺术馆", "address": "青云路与顺河西路交叉口北100米", "image": "", "rank": 41, "time": 2, "location": {"lat": 35.91065853214694, "lng": 117.77930818861107}, "feature": {"sight_features": "", "sight_content": ""}}, {"title": "文森画廊(西张庄店)", "address": "幸运街与正阳路交叉口西南150米", "image": "", "rank": 42, "time": 2, "location": {"lat": 35.96438701650712, "lng": 117.59911371682063}, "feature": {"sight_features": "", "sight_content": ""}}, {"title": "小农场", "address": "新安路西50米", "image": "", "rank": 43, "time": 2, "location": {"lat": 43.32722346652004, "lng": 129.76403464271988}, "feature": {"sight_features": "", "sight_content": ""}}, {"title": "迷失部落真人密室逃脱", "address": "平阳路216号", "image": "", "rank": 44, "time": 2, "location": {"lat": 25.9621871907783, "lng": 111.6749561536376}, "feature": {"sight_features": "", "sight_content": ""}}, {"title": "一家草莓采摘园", "address": "滨湖路", "image": "", "rank": 45, "time": 2, "location": {"lat": 39.19567610442392, "lng": 117.49159838424798}, "feature": {"sight_features": "", "sight_content": ""}}, {"title": "山东海陆空游乐园", "address": "青云湖大坝向东1.8公里(青云湖环湖路)", "image": "", "rank": 46, "time": 2, "location": {"lat": 40.39375097142723, "lng": 117.2096584994806}, "feature": {"sight_features": "", "sight_content": ""}}, {"title": "峙山 Zhi Mountain", "address": "山东省新泰市新泰城西南13公里新汶办事处", "image": "", "rank": 47, "time": 2, "location": {"lat": 35.87061983899972, "lng": 117.67411577617192}, "feature": {"sight_features": "", "sight_content": ""}}, {"title": "楼德镇", "address": "山东省新泰市鲁中山区", "image": "", "rank": 48, "time": 2, "location": {"lat": 35.9146198665876, "lng": 117.77460624826666}, "feature": {"sight_features": "", "sight_content": ""}}, {"title": "泰安光化寺", "address": "山东省泰安市泰山区徂徕山东南", "image": "", "rank": 49, "time": 1.5, "location": {"lat": 36.199444601195346, "lng": 117.14141108581828}, "feature": {"sight_features": "", "sight_content": ""}}, {"title": "天宝镇", "address": "山东省新泰市鲁中腹地", "image": "", "rank": 50, "time": 2, "location": {"lat": 35.9146198665876, "lng": 117.77460624826666}, "feature": {"sight_features": "", "sight_content": ""}}, {"title": "礤石峪", "address": "山东省泰安市岱岳区徂徕山南麓", "image": "", "rank": 51, "time": 2, "location": {"lat": 36.0193685098373, "lng": 117.28914856232926}, "feature": {"sight_features": "", "sight_content": ""}}, {"title": "新泰市两县山庄园", "address": "泰安市-新泰市-国有土门林场检疫检查站南220米", "image": "", "rank": 52, "time": 2, "location": {"lat": 35.9146198665876, "lng": 117.77460624826666}, "feature": {"sight_features": "", "sight_content": ""}}, {"title": "两桥庄村", "address": "泰安市-新泰市-一二零县道", "image": "", "rank": 53, "time": 2, "location": {"lat": 35.9146198665876, "lng": 117.77460624826666}, "feature": {"sight_features": "", "sight_content": ""}}, {"title": "清音公园", "address": "山东省泰安市新泰市泰山区", "image": "", "rank": 54, "time": 2, "location": {"lat": 35.9146198665876, "lng": 117.77460624826666}, "feature": {"sight_features": "", "sight_content": ""}}]}