{"cityName": "新乡县", "days": null, "cityImage": "", "spots": [{"title": "京华园", "address": "新乡市新乡县冀源路与青年路交叉口", "image": "", "rank": 1, "time": 2.5, "location": {"lat": 35.19659239073482, "lng": 113.79217542406367}, "feature": {"sight_features": "", "sight_content": ""}}, {"title": "京华热带矿泉水疗养生苑", "address": "小冀镇香港路南段京华园风景区向西第一个十字路口左转100米处", "image": "", "rank": 2, "time": 2, "location": {"lat": 35.19412523896576, "lng": 113.79182142252321}, "feature": {"sight_features": "", "sight_content": ""}}, {"title": "五彩童年游乐场", "address": "儿童乐园(新乡人民公园西门北侧)", "image": "", "rank": 3, "time": 2, "location": {"lat": 35.30565441709189, "lng": 113.88982128420169}, "feature": {"sight_features": "", "sight_content": ""}}, {"title": "久忆垂钓园", "address": "黄河大道附近", "image": "", "rank": 4, "time": 2, "location": {"lat": 30.737141464210094, "lng": 111.31600818925575}, "feature": {"sight_features": "", "sight_content": ""}}, {"title": "八六温泉", "address": "南环路附近", "image": "", "rank": 5, "time": 2, "location": {"lat": 38.02445208545248, "lng": 114.78866638114692}, "feature": {"sight_features": "", "sight_content": ""}}, {"title": "真人密室逃脱", "address": "青龙路", "image": "", "rank": 6, "time": 2, "location": {"lat": 39.95282546202002, "lng": 116.43430837202824}, "feature": {"sight_features": "", "sight_content": ""}}, {"title": "光明寺", "address": "河南省新乡市新乡县冀源路", "image": "", "rank": 7, "time": 2, "location": {"lat": 35.19473671661659, "lng": 113.77844618078497}, "feature": {"sight_features": "", "sight_content": ""}}, {"title": "圣国寺", "address": "宏业大道北50米", "image": "", "rank": 8, "time": null, "location": {"lat": 38.549709257561084, "lng": 114.92479482378965}, "feature": {"sight_features": "", "sight_content": ""}}, {"title": "浮绿水族馆", "address": "河南省新乡市新乡县青龙路186", "image": "", "rank": 9, "time": 2, "location": {"lat": 35.20070838779371, "lng": 113.78697823801025}, "feature": {"sight_features": "", "sight_content": ""}}, {"title": "基督教会东北永康堂", "address": "新乡市新乡县", "image": "", "rank": 10, "time": 2, "location": {"lat": 35.19656440899276, "lng": 113.81159378076424}, "feature": {"sight_features": "", "sight_content": ""}}, {"title": "欢乐谷儿童乐园", "address": "河南省新乡市新乡县合大线", "image": "", "rank": 11, "time": 2, "location": {"lat": 35.30539972943268, "lng": 113.77388816245785}, "feature": {"sight_features": "", "sight_content": ""}}, {"title": "五岳石文化广场", "address": "河南省新乡市新乡县青龙路花仙温泉宾馆西南100米", "image": "", "rank": 12, "time": 2, "location": {"lat": 35.20684563559333, "lng": 113.81859195258545}, "feature": {"sight_features": "", "sight_content": ""}}, {"title": "淘气堡儿童游乐园", "address": "河南省新乡市新乡县中央大道", "image": "", "rank": 13, "time": 2, "location": {"lat": 35.204454676980724, "lng": 113.80728294736768}, "feature": {"sight_features": "", "sight_content": ""}}, {"title": "基督教堂于店堂", "address": "河南省新乡市新乡县", "image": "", "rank": 14, "time": 2, "location": {"lat": 35.19656440899276, "lng": 113.81159378076424}, "feature": {"sight_features": "", "sight_content": ""}}, {"title": "小太阳采摘园", "address": "青龙路527号县电视台旁边李庄村", "image": "", "rank": 15, "time": 2, "location": {"lat": 35.206585951697654, "lng": 113.81901989275413}, "feature": {"sight_features": "", "sight_content": ""}}, {"title": "回力水上乐园", "address": "西环路1号号", "image": "", "rank": 16, "time": 2, "location": {"lat": 39.904274418328264, "lng": 117.72246185917622}, "feature": {"sight_features": "", "sight_content": ""}}, {"title": "华宇温泉", "address": "007乡道附近", "image": "", "rank": 17, "time": 2, "location": {"lat": 42.90705169386021, "lng": 129.6381359064959}, "feature": {"sight_features": "", "sight_content": ""}}, {"title": "新乡县图书馆", "address": "小冀镇冀中路", "image": "", "rank": 18, "time": 1.5, "location": {"lat": 35.197969834193316, "lng": 113.78195659612467}, "feature": {"sight_features": "", "sight_content": ""}}, {"title": "世外桃源农家乐", "address": "S308锐捷化工北侧700米", "image": "", "rank": 19, "time": 2, "location": {"lat": 31.382008287955745, "lng": 118.47558682585357}, "feature": {"sight_features": "", "sight_content": ""}}, {"title": "中力温泉", "address": "冀源路与西环路交叉口东100米", "image": "", "rank": 20, "time": 2, "location": {"lat": 35.19473671661659, "lng": 113.77844618078497}, "feature": {"sight_features": "", "sight_content": ""}}, {"title": "百果生态园", "address": "七里营镇南环路北", "image": "", "rank": 21, "time": 2, "location": {"lat": 35.154586609806124, "lng": 113.7870495392135}, "feature": {"sight_features": "", "sight_content": ""}}, {"title": "绿尚草莓园", "address": "新飞大道与青龙路交叉口向西800米路北(惠达园食业有限公司北200米)", "image": "", "rank": 22, "time": 2, "location": {"lat": 23.32128661222331, "lng": 113.24099968675924}, "feature": {"sight_features": "", "sight_content": ""}}, {"title": "西明寺造像碑", "address": "河南省新乡县翟坡镇小宋佛村", "image": "", "rank": 23, "time": 2, "location": {"lat": 35.239802392426355, "lng": 113.8010177425375}, "feature": {"sight_features": "", "sight_content": ""}}]}