{"cityName": "新乡", "days": "", "cityImage": "", "spots": [{"title": "万仙山景区", "address": "新乡市辉县沙窑乡", "image": "", "rank": 1, "time": 2.5, "location": {"lat": 35.73291720829844, "lng": 113.63270773676267}, "feature": {"sight_features": "特色1 峰奇岭峻，潭长漳深，洞奇林密，气候宜人 特色2 著名的影视拍摄基地，欣赏雄奇苍茫的石壁景观，全长千余米的绝壁长廊堪称世界奇迹。 特色3 素有伏波胜景、城中碧玉之誊", "sight_content": "新乡万仙山为国家AAAA级旅游景区、国家地质公园、国家森林公园，是国内的休闲旅游胜地、避暑基地、影视基地、写生基地和拓展培训基地。景区由中华影视村郭亮村、清幽山乡南坪、人间仙境罗姐寨三个分景区组成，位于河南省新乡辉县市西北部太行山腹地，距郑州市150公里，距新乡市70公里。总面积64平方公里，海拔高达1672米。森林覆盖率达95%以上，空气清新，环境优美，夏季平均气温比山外低5度左右，是理想的避暑胜地，世外桃源。\n万仙山景区是南太行风光的典型代表，太行之魂的集中体现，景区内既有雄壮而苍茫的红崖绝壁，又有妙曼而又秀雅的山乡风韵，集雄、险、奇、秀、幽为一体，各类景点有200余处，主要有红岩绝壁大峡谷、影视村、绝壁长廊、天池、莲花盆、白龙洞、喊泉、日月星石、黑龙潭瀑布、五峰林农场、磨剑峰、丹分沟等。绝壁长廊长1200多米，完全由人工开凿，被誉为 “世界第八大奇迹”。\n优美的自然风光，古朴的风俗民情，吸引了众多的艺术名家、影视巨臂、中外游客、美院学生。导演谢晋称郭亮为“太行明珠”，作家张仃称万仙山为“华夏奇观”。先后有《清凉寺钟声》、《走出地平线》、《倒霉大叔的婚事》、《举起手来》等40多部影视剧在此拍摄，郭亮村被誉为“中华第一影视村”，影星濮存昕，郭达，倪萍，潘长江等艺术家都曾莅临景区。中央美院、广州美院等100多所艺术院校和30多个摄影家协-会把万仙山定为写生基地、采风基地。"}}, {"title": "八里沟景区", "address": "新乡市太行山南麓深山区八里沟风景区", "image": "", "rank": 2, "time": 4.5, "location": {"lat": 35.592382621378, "lng": 113.53849792484438}, "feature": {"sight_features": "特色1 荟萃太行山水精华 特色2 拥有北方十分罕见的瀑布群和清澈的山溪，是消夏避暑胜地。", "sight_content": "八里沟风景区位于历史名胜众多的河南省境内的新乡市辉县上八里镇，太行山南麓，河南、山西两省交界之处。距离郑州仅120公里、距洛阳仅160公里、距开封仅130公里、距少林寺仅140公里。八里沟山势独特，三级绝壁逐层下降，重恋叠嶂连绵，嶙峋怪石相望，既有泰山之雄浑，黄山之秀丽，又有嵩山之挺拔，华山之险峻，巍峨壮观，傲然屹立。风景区内四季水流不断，三溪九湾，飞瀑鸣涧，瀑潭连天，水质甘洌，水色清澈，游人赞为“中原九寨，北方水世界”。\n新乡八里沟2006年被评为国家AAAA级旅游风景区，总面积40平方公里，集生态观光、休闲、度假、娱乐、旅游接待、种养殖于一体，是一处保留完整的以原始自然风光为风景名胜区。\n八里沟风景区处处充满着神秘，步移景异，各有所奇。风景区主要包括桃花湾、山神庙、羊州地、红石河和一线天五大游览之地，称为八里沟五品：一品红艳欲滴桃花湾，二品古意昂然山神庙，三品清泉潺流羊州地，四品飘渺仙境红石河，五品人神洗练一线天。大小景点共150多处。\n八里沟风景区有北方十分罕见的瀑布群。仅渠瀑、帘瀑、沟瀑等大小瀑布就100多处，是华北地区少见的瀑布群体，其中八里沟大瀑布落差200米，四季流水，气势恢弘，被誉为“太行天瀑”。\n八里沟风景区有山体观音、马武神像、钟山九佛、石人迎客、老子布道等山体景观；有先人洞、龙凤洞、八宝洞等洞体景观；更有一线雄关、五彩泉等人间奇观。\n主要风景区红石河碧水横溢，红绿相映，色彩斑斓，明丽如画，因海拔1100米被誉为“太行天河”；太行主峰玉皇峰，东观日出，西望云海，南眺黄河九曲，北览千峰竞秀。八里沟山清水秀、风光古朴、原始天然。森林覆盖率达90%以上，有植物种类1700种，年平均气温14度，气候宜人。八里沟风景区大气负离子含量达5000个/立方厘米，是一处休闲度假的“天然氧吧”。\n八里沟风景区山体呈三级绝壁，剑峰千仞，沟壑奇幽，飞瀑鸣涧，潭瀑相连，林木葱茏，花草馥郁，猕猴嬉戏，群鹿呦呦，水瀑之声不绝于耳。八里沟独具“奇、险、秀、幽”之特点，是太行山水精华荟萃之地。\n八里沟的山，八里沟的水，甚至八里沟的每一块石头都引起世界的好奇。如今，八里沟风景区已经成为国内旅游度假的前卫。也已成为游客向往的一个世外桃源、人间天堂。"}}, {"title": "郭亮村", "address": "新乡市辉县市沙窑乡万仙山", "image": "", "rank": 3, "time": 2.5, "location": {"lat": 35.73344443906174, "lng": 113.63300922605792}, "feature": {"sight_features": "", "sight_content": ""}}, {"title": "宝泉", "address": "新乡市辉县薄壁镇", "image": "", "rank": 4, "time": 5.0, "location": {"lat": 35.462271402167424, "lng": 113.50356798252989}, "feature": {"sight_features": "特色1 以水为特色，展示太行秘境 特色2 高峡平湖、雄奇峡谷、超高瀑群 特色3 有“中原小九寨”之称", "sight_content": "【宝泉简介】\n宝泉位于河南省新乡市辉县市西北部深山区，处于两省（河南、山西）三县（辉县、修武、陵川）交界处的辉县市薄壁镇境内，总面积100平方公里，西邻修武县方庄镇界，北靠陵川县马圪当乡，平均海拔1150米，是国家4A级旅游景区、国家森林保护区、国家级重点生态公益林区和太行猕猴保护区，是中原较大的瀑布群集聚地，是一处以太行山水美景为特色，峡谷类地质地貌景观和悠久历史文化为内涵的生态旅游精品景区。 景区内旅游资源丰富多彩，历史文化灿烂厚重，集雄、奇、险、幽为 一体，山、水、林、洞为一身。\n宝泉，以山为脉，以水为魂，山水让人陶醉，这里山石雄奇，潭瀑灵动，仙雾缥缈，鸟语花香，置身此地，恍若与世隔绝。优美的自然风光，古朴的民俗风情，原汁原味山村民居，清新质朴的乡土气息，正是现代人梦寐以求寻找的休闲去处。\n景区坐拥高峡平湖、雄奇峡谷、超高瀑群等太行奇景，犹如一幅鬼斧神工的峡谷画卷，是乾隆御赐“泉盈水灵”之地，而自古“ 宝泉”就是钱币统称，因此景区也是一处吉祥福瑞之地。\n【景区活动介绍】\n一年四季，春夏秋冬，每个季节均有其独特的魅力。宝泉景区也利用自身的资源环境，结合时令特征，在春夏秋山水景区的旺季推出各色活动，丰富景区内涵，给游客带来不一样的体验。\n【春季】：郁金香文化节，每年的3月至4月。数百万盆精心培植的郁金香，在春天开放，人在景中走，犹如在花海中徜徉，是春季踏青赏花的不二之选。\n【夏季】：宝泉泼水节，每年6月至8月，充分展现宝泉水的优势，夏季戏水，清凉舒爽。\n【秋季】：太行秋趣文化节，每年9月中旬至10月中旬。秋天是丰收的季节，景区依托秋收为背景，举办各类与秋游相关的活动，丰富游玩内容，让游客感受秋季丰收的喜悦之情。\n【冬季】：冬季11月至次年2月，属于山水景区的淡季，但景区冬季冰挂、春节游玩，依然别有一番风趣。\n中原大地，四季分明，太行山水，四季景色不同。依托巍巍太行风情，宝泉景区以优美的风景及独特的历史文化内涵，作为中原大地上的一颗明珠，欢迎世界各地游客的光临。\n宝泉景区导览示意图：具体以景区现场为准。"}}, {"title": "潞王陵", "address": "新乡市凤泉区潞王坟乡上村", "image": "", "rank": 5, "time": 4.0, "location": {"lat": 35.42697350819584, "lng": 113.91862350195449}, "feature": {"sight_features": "", "sight_content": ""}}, {"title": "九莲山景区", "address": "新乡市辉县市上八里镇松树坪村", "image": "", "rank": 6, "time": 5.5, "location": {"lat": 35.60246004221239, "lng": 113.58316036776598}, "feature": {"sight_features": "特色1 九莲山是全国原创的帐篷客栈所在地 特色2 南太行的冷、险、奇、秀山水景观和非物质文化遗产项目有机融合 特色3 九莲山活跃着许多太行猕猴，集领秀、水澈、林茂、潭幽于一体", "sight_content": "辉县九莲山旅游区位于河南新乡辉县市境内，景区内奇石林立，松柏参天，溪瀑遍谷，春有新甫拥翠，绿树碧草；夏有三圈悬流，流泉飞瀑；秋有宫山夕照，彩霞天光；冬有苍山负雪，银装景象。四时、早晚、阴晴各有景色，是人们观赏、游览、休息以及进行传统文化活动的理想场所。\n景区把南太行冷、险、奇、秀的自然山水景观和非物质文化遗产项目有机融合，使游客在饱览自然风光的同时，领略博大精深的非物质文化遗产，接受传统民间文化的熏陶。景区致力于差异化经营和特色服务，游客可得到超值享受。 九莲山是集旅游观光、休闲度假、民俗信仰和非物质文化遗产保护、传承、研究于一体的旅游目的地。"}}, {"title": "关山国家地质公园", "address": "新乡市辉县市八里镇马头口村", "image": "", "rank": 7, "time": 3.0, "location": {"lat": 35.53211685048611, "lng": 113.6343597205955}, "feature": {"sight_features": "特色1 25亿年前山崩地裂形成的地质遗迹", "sight_content": "关山地质公园位于太行山南麓。河南省辉县市上八里境内，面积约34平方公里，是一座25亿年前山崩地裂形成的地质遗迹奇，景区内以一线天，柱状峰林，天生桥，大绝壁为主体，沟交错，崖台环抱，飞瀑流泉和清溪幽潭相互辉映，具有南太行特色的关山地质地貌公园。关山地质公园位于河南省辉县市境内，南太行的弧形转折端，因此处有“一夫当关，万夫莫开”楔状关隘，号称太行八径之三。适夕阳当关，紫霞劲射，辉煌耀目，人称紫霞关。此关始于春秋战国之前，至于明代，历史上此关一直为兵家必争要塞，关山由此得名。\n\n关山地质公园由盘古河、花山、百宝洞三大景区组成，西起山西省界，东到石门河，南自山前，北至八里沟，面积３４平方公里，是一座以石柱林、一线天为主，天生桥、大绝壁为辅，以沟谷交错，崖台环抱、飞瀑流泉与清溪幽潭相映成辉为特色的地质地貌型地质公园。行政区划隶属辉县市上八里镇管辖。"}}, {"title": "比干庙", "address": "新乡市卫辉市顿坊店村", "image": "", "rank": 8, "time": 1.5, "location": {"lat": 35.505036458236624, "lng": 114.12537649921529}, "feature": {"sight_features": "", "sight_content": ""}}, {"title": "齐王寨", "address": "新乡市辉县市三郊口乡境内", "image": "", "rank": 9, "time": 2, "location": {"lat": 35.79956154659933, "lng": 113.64975306315347}, "feature": {"sight_features": "特色1 齐王寨北毗三郊口水库，一眼望去，云雾缥缈，一望无际，如同巫山神女，安详地睡在群山怀抱之中。齐王瀑布落差达80余米，气势磅礴，谷底轰雷如黄河倒倾，远看如淑女浣纱，似白龙飞舞；近观则水气弥漫，云雾缭绕漾如青烟，绚丽壮观。", "sight_content": "齐王寨景区位于辉县市三郊口乡境内，西邻山西陵川县，西北毗邻山西壶关县， 距辉县市区45公里，辉陵公路贯穿其境，交通便利，四通八达。景区内高低错落50余座山峰，最高海拔1654米。\n齐王寨景区由齐王寨、三郊口水库、佛爷沟和天柱沟等多个景区组成。齐王寨北毗三郊口水库，一眼望去，云雾缥缈，一望无际，如同巫山神女，安详地睡在群山怀抱之中。齐王瀑布落差达80余米，气势磅礴，谷底轰雷如黄河倒倾，远看如淑女浣纱，似白龙飞舞；近观则水气弥漫，云雾缭绕漾如青烟，绚丽壮观。\n诸峰千姿百态，嵯峨峥嵘；奇峰兀立，绝壁万仞；峰峦叠嶂，峡幽谷深。地势高差悬殊，群山环绕形成的天然屏障，使境内气候温和，雨量充沛，植被茂密，自然环境十分优美，这里一年四季均有迷人胜景，登山俯视，北观群山起伏，南视黄河金带，东望层林染翠，西瞩秀云飘渺，风光秀美，如临人间仙境。"}}, {"title": "新乡市博物馆", "address": "新乡市人民东路核心区平原博物院", "image": "", "rank": 10, "time": 1.0, "location": {"lat": 35.3050189848721, "lng": 113.93342173238328}, "feature": {"sight_features": "", "sight_content": ""}}, {"title": "百泉景区", "address": "新乡市辉县市中心西北五华里的苏门山南麓", "image": "", "rank": 11, "time": 1.0, "location": {"lat": 35.467957818375645, "lng": 113.81157302990697}, "feature": {"sight_features": "", "sight_content": ""}}, {"title": "郭亮隧道", "address": "新乡市辉县西北50公里左右", "image": "", "rank": 12, "time": 2.0, "location": {"lat": 35.467957818375645, "lng": 113.362420274918}, "feature": {"sight_features": "", "sight_content": ""}}, {"title": "回龙天界山景区", "address": "新乡市辉县市上八里镇回龙村新乡天界山景区", "image": "", "rank": 13, "time": 3.0, "location": {"lat": 35.589560900853336, "lng": 113.61154389610024}, "feature": {"sight_features": "特色1 红岩绝壁鬼斧神工 特色2 游太行，到回龙，尽可感受回龙精神的红色通途 特色3 是国家森林公园、地质公园、国家太行猕猴保护区", "sight_content": "回龙天界山景区位于辉县市上八里西北部的太行山深处。回龙天界山包括红色景观、自然景观、人文景观等上百处。回龙大峡谷形若巨盆，貌比苍龙。回龙天界山内，一落千丈的红岩绝壁，绵延无际可谓鬼斧神工。青山、碧水、白云、蓝天与古树、林荫、山风、民宅相映成趣，组成独领太行风骚的奇特佳境。\n回龙天界山是国家森林公园、地质公园、国家太行猕猴保护区、国家级红色旅游景点，规划开发面积43平方公里，南距河南新乡65公里，距省会郑州130公里。回龙天界山景区分为太行亲水新传奇——龙吟峡、360度看太行——云峰画廊、祈福问道天下铁顶——老爷顶、休闲度假胜地——张沟、太行圣境——十字岭五部分，境内景观集聚奇、雄、绝、特、怪于一体，典型代表了南太行风光特色。\n回龙天界山境内九峰竞秀峰岳形胜、沟壑纵横千姿百态、太行山障百里横亘、红岩峡谷千尺跌崖、亲水乐园瀑飞溪喧、太行云海佳境升腾，一幅幅如诗如画的卷轴鬼斧神工、震撼人心。"}}, {"title": "五龙山野生动物王国", "address": "新乡市辉县市常村镇五龙山百鸟园", "image": "", "rank": 14, "time": 2, "location": {"lat": 35.483685690846166, "lng": 113.8959425041332}, "feature": {"sight_features": "特色1 有鸟类数百种三千余只 特色2 体验亲手摸喂动禽的乐趣", "sight_content": "五龙山野生动物王国位于河南辉县常村镇五龙山响水河乡村旅游区西山，占地200多亩，总投资3000多万， 与五龙山欢乐世界、响水河水上乐园、五龙山滑雪场隔河相望，是河南省首家融马戏表演、猛兽驯养、动物科普为一体的原生态、全方位、立体式、综合型野生动物园。\n\n\n五龙山野生动物王国由5大游客聚集区、6大马戏表演、30多种动物散养区组成；马戏广场、北部湾、柿树坡、神仙广场、莺歌燕舞区5大游客聚集区为您提供全方位的餐饮、购物、拍照、动物科普等服务；狮虎马戏表演、猛虎跳水、鹦鹉剧场、小猪赛跑跳水、孔雀东南飞、人虎拔河6大马戏表演让您领略令人捧腹的动物演艺；熊出没、袋鼠兄弟、盘羊领地、羊驼世家、金钱豹帝国、松尾猴乐园、东北虎部落、野狼谷、狐狸岭、小虎幼儿园、长颈鹿美人区、小熊猫竹林空间、细柳林梅花鹿散养区等30多个野生动物散养区融原始森林、非洲草原、侏罗纪、亚马逊等动物群落为一体，尽现原生态动物野性风貌；\n\n\n置身野生动物王国内，鸟鸣山涧，猿啼丛林，虎啸深山，鱼翔水岸，环境优美，气候宜人，游客可选择乘坐观光投食车体验野生动物散养区内车载观光、动物投食喂养的乐趣，也可沿步行游线透过玻璃或笼网近距离观看各种动物萌态，还可站在观光台上俯瞰生龙活虎的动物嬉戏玩耍，一派物竞天择、动物与自然的和谐景象。原生态、全方位、立体式的动物展现方式，全产业链条化的野生动物生态体系，完善的动物卡通玩具制品，一流的动物童话王国影视制作，五龙山野生动物王国必将与五龙山欢乐世界、响水河水上乐园、五龙山滑雪场共同把五龙山响水河乡村旅游区构建成为中原地区规模最大、项目最全、最具体验价值的综合型旅游目的地。"}}, {"title": "元润（天沐）温泉", "address": "新乡市牧野区和平大道110号", "image": "", "rank": 15, "time": 2, "location": {"lat": 35.313902224085815, "lng": 113.8951739516677}, "feature": {"sight_features": "", "sight_content": ""}}, {"title": "京华园", "address": "新乡市新乡县冀源路与青年路交叉口", "image": "", "rank": 16, "time": 2.5, "location": {"lat": 35.19659239073482, "lng": 113.79217542406367}, "feature": {"sight_features": "", "sight_content": ""}}, {"title": "五龙山响水河水上乐园", "address": "新乡市辉县市常村镇", "image": "", "rank": 17, "time": 2, "location": {"lat": 35.483685690846166, "lng": 113.8959425041332}, "feature": {"sight_features": "特色1 豫北地区规模较大的综合性水上乐园之一！ 特色2 五大主体工程组成的五龙山响水河游乐园。 特色3 集度假、休闲、游乐、创业为一体的综合性水上乐园。", "sight_content": "五龙山响水河水上乐园是常村镇人民政府在城镇化社区建设中的又一创举，该项目以南水北调调蓄灌溉工程为契机，斥资4.5亿，得天时、地利与人和，历时一载半，打造出豫北地区规模最大，集度假、休闲、游乐、创业为一体的综合性水上乐园。\n热情好客的常村人民，诚邀八方宾朋，欢聚响水河，重续佳话。这是一次绝妙的水上欢乐之旅，在这里，您将会体验到前所未有的畅快与欢乐。"}}, {"title": "新乡温泉会议中心", "address": "新乡市工业园区新长北线管委会东邻200米", "image": "", "rank": 18, "time": 2.5, "location": {"lat": 35.29772816918835, "lng": 114.04135769291776}, "feature": {"sight_features": "", "sight_content": ""}}, {"title": "白云寺", "address": "新乡市辉县市", "image": "", "rank": 19, "time": 1.5, "location": {"lat": 35.467957818375645, "lng": 113.81157302990697}, "feature": {"sight_features": "特色1 乾隆江南巡视时曾在此题词", "sight_content": "白云寺国家森林公园位于太行山东南麓的辉县市境内， 1992年由林业部批建并对外开放。1992年被林业部批准为 “国家森林公园”和“油松种子园”。1999年由国务院批 准为*太行山猕猴自然保护区。经营面积2591公顷， 森林覆盖率95%。\n北京、上海、河南的影视厂家先后在此拍摄了《双雄会 》、《清凉寺的钟声》、《香玉传》等10余部影视作品。\n主要景点：白云寺景区、唐银杏树、大佛殿景区、紫荆山景区、中湖景区、普照大禅师石塔、风水塔、五百罗汉碑、金沙、银沙泉、元极寺、龙浴寺、袁氏山庄、龙口风门等。河南省辉县市西35公里的白麓山下，境内林木茂密 ，翠竹葱笼，汩汩清泉，景色宜人，虽酷署盛夏亦无炎日蒸灼之苦。活化出一幅“深山藏古寺，钟声白云里”的太行水墨画。\n景区内的主体景点白云寺，始建于唐代，原名白茅寺， 又称梦觉寺。寺内有单檐悬山大5间。其它中殿、山门、东西陪殿及出厦阁楼等5 0余间。寺后有元代石塔2座，雕刻精致，寺东有宋代五百罗汉碑，纪事翔实。\n普照大禅师石塔坐落于白云寺，后为一石雕喇嘛塔，五层，高4.9米，是开山住侍佛光普照大师的迁化灵塔。整个石塔刻工精细，造型优美，为元代石雕艺术稀品，有较高的艺术价值，属省级重点文物保护单位。"}}, {"title": "新乡跑马岭地质公园", "address": "新乡市卫辉狮豹头乡境内", "image": "", "rank": 20, "time": 3.0, "location": {"lat": 35.65225973789916, "lng": 114.01499954796599}, "feature": {"sight_features": "特色1 全国独有的山顶万亩草原", "sight_content": "跑马岭地质公园位于南太行东南隅，河南省历史文化名城卫辉市狮豹头乡境内。跑马岭地质公园总面积132平方公里，是国家aa级风景区，国家水利风景名胜区，省级森林公园，具有优越的自然景观和丰富的人文景观，是河南省地质遗迹重点保护区。\n跑马岭地质公园内有一条沧河，沿沧河两岸有不少景点，从南向北依次是：塔岗湖风景区、奇峪山、青年洞（公仆苑）、小店河明清建筑群（云龟寨）、林坚出生地、娘娘坟、跑马岭休闲生态园、九风山、猿猴沟、罗圈千年银杏树、正面湖、青龙洞、青龙湖（皮定均司令部）、柳树岭等繁若璨星。跑马岭地质公园人文景观与自然景观交相辉映，这是其他地区所不具有的优势，其中卫辉市跑马岭休闲生态园又是跑马岭地质公园的核心景观，是跑马岭地质公园建设的重心。\n\n跑马岭地质公园有四大特色：一为全国独有的山顶万亩草原，东西绵延8公里，辽阔无际，一片“天苍苍，野茫茫，风吹草低现牛羊”的北国风光，另外还有待建的风力发电和风车提水景观；二是正在建设中的山洞宾馆和山洞餐厅，可以接待中型会议。其中待建的北山别墅依山而建，天然氧吧，是企业中高层管理人员商讨战略的幽静场所，更是拓展训练的理想基地；三是孝文化在全国独树一帜，清末“割肉疗亲、至孝通神”的真实故事就发生在跑马岭地质公园的白龙湖边，建设中的孝母祠更是青少年孝文化教育基地，为在全社会弘扬孝道提供了良好条件；四是地质景观资源丰富，有白龙湖、老君爷像、狮豹峡、百兽岩、幻象岩、龙盘石等等。跑马岭地质公园另有仙女观鱼、京娘洞、极目阁、牛梭树等众多景点，还有索道、攀岩、骑马、射箭等几十种项目供游客参与。"}}, {"title": "京华矿泉养生苑", "address": "新乡市新乡县小吉镇香港路南段", "image": "", "rank": 21, "time": 2, "location": {"lat": 35.194506914322844, "lng": 113.78959499746928}, "feature": {"sight_features": "", "sight_content": ""}}, {"title": "龙泉苑", "address": "新乡市新乡县七里营镇龙泉村", "image": "", "rank": 22, "time": 2, "location": {"lat": 35.21024302904709, "lng": 113.83323315022804}, "feature": {"sight_features": "", "sight_content": ""}}, {"title": "京华园温泉", "address": "河南省新乡市新乡县小冀镇京华村", "image": "", "rank": 23, "time": 2, "location": {"lat": 35.19577562524458, "lng": 113.78076184260996}, "feature": {"sight_features": "", "sight_content": ""}}, {"title": "秋沟景区", "address": "新乡市辉县市南寨镇境内", "image": "", "rank": 24, "time": 3.5, "location": {"lat": 35.79530275027, "lng": 113.67834943689355}, "feature": {"sight_features": "特色1 天然动物园，写生好去处 特色2 红岩绝壁裂纹横竖、似刀劈斧削，如仙似兽。", "sight_content": "秋沟景区位于辉县市南寨镇境内，距辉县市区50公里，总面积24平方公里，境内山高林密、峡谷壁垂、潭瀑繁多、怪石洞穴，古庙传说、神奇天然石缸（冰臼）；春桃花烂漫、夏冰穴奥秘、秋红叶山果、冬冰挂雪松。秋沟景区被誉为“人间仙境，世外桃源”，是休闲、度假、观光、避暑、写生绘画之胜地。\n秋沟景区三面环山，总面积14平方公里。秋沟景区内山高林密，峡谷壁垂，三步一潭、五步一瀑；怪石洞穴、古庙传说，景观奇丽，旅游景点繁多、主要有红色娘子水库、五龙峡、五龙潭、南天一柱、小南海、白龙洞、白龙潭、 石缸岭、一线天、观景台、桃花湾等景点。 秋沟景区内红岩绝壁，裂纹横竖，似刀劈斧削，如仙似兽，造型奇特，山区风貌，至今仍保留着原始自然特色。常年活动着太行猕猴、金钱豹、野獾、野猪、野兔、山鸡、苍鹰等几十种野生动物和飞禽，有“天然动物园”之誉；各种花草树木上百种，中草药近千种，又有“植物王国”之称。尤其是山桃树之多，面积之大，可谓太行山之最。故春赏桃花、秋观红叶，是秋沟景区的一大亮点。特别是新近发现的大量古海洋动植物化石和神奇的天然石缸、冰穴等；奥秘莫测，千古之谜，无人解晓，又是秋沟景区新的亮点、人文景观有古老寺庙和迷人的传说，是一处自然景观与人文景观相映生辉，淳朴的民风民俗与太行风情兼备的景区，被誉为“世外桃源”和“人间仙境”，成为人们回归自然、向往原始山野风光的目的地。\n同时，这里植被良好、花果众多，气候湿润，空气清新，环境优美，盛夏凉爽宜人，午休仍需盖被入寝，又是一处休闲、度假、观光、避暑、写生绘画之胜地。"}}, {"title": "新乡市人民公园", "address": "中国河南省新乡市红旗区健康路", "image": "", "rank": 25, "time": 2.5, "location": {"lat": 35.30576073086715, "lng": 113.8725969991838}, "feature": {"sight_features": "", "sight_content": ""}}, {"title": "爱丽丝欢乐园", "address": "新乡市凤泉区团结路与两泉路交会处南100米西", "image": "", "rank": 26, "time": 1.5, "location": {"lat": 35.397643893564315, "lng": 113.91610989222224}, "feature": {"sight_features": "特色1 大胆地开拓创新，打破传统单一的模式，融合“游乐、健身、益智”三项合一！", "sight_content": "爱丽丝欢乐园拥有三大主题园区：儿童拓展区、水世界、儿童嬉戏区；一座儿童特色主题餐厅；一座乐园火车站；一座大型水上欢乐世界；囊括丛林穿梭、迷藏小洞、木头乐园、几何爬网、大水寨、海盗船、童趣山丘、特色售卖车、儿童特色商店等。\n还有各种特色景观雕塑小品、绿植雕塑、喷泉广场、木栈道景观区、景观水系、林荫大道等，并有许多中原首发游乐项目。随着建设进度的推进，爱丽丝欢乐园将成为中部地区首席，大型户外儿童游乐益智游乐园。\n爱丽丝欢乐园的经营理念定位不拘泥于传统的儿童乐园项目，大胆地开拓创新，打破传统单一的模式，融合“游乐、健身、益智”三项合一，让孩子在玩耍中积累科学常识，逐渐学会发现问题、寻找办法、解决问题的自主成长能力。让孩子在自由和谐、解决问题空间当中培养受益终生的积极心态和良好习惯！让家长不再为孩子的成长而烦恼，让孩子未来全方位健康、快乐成长。"}}, {"title": "望京楼", "address": "新乡市卫辉市一中街", "image": "", "rank": 27, "time": null, "location": {"lat": 35.415411579420685, "lng": 114.0859756203098}, "feature": {"sight_features": "", "sight_content": ""}}, {"title": "平原博物院", "address": "河南省新乡市红旗区人民东路", "image": "", "rank": 28, "time": 3.5, "location": {"lat": 35.30636667583845, "lng": 113.92158418755938}, "feature": {"sight_features": "", "sight_content": ""}}, {"title": "香木河自然保护区", "address": "新乡市辉县市南寨镇三郊口", "image": "", "rank": 29, "time": 2, "location": {"lat": 35.799249610541025, "lng": 113.61404966182876}, "feature": {"sight_features": "特色1 有“天然动物园”之誉", "sight_content": "【香木河景区】\n香木河自然保护区位于河南省辉县市南寨镇境内，总面积47平方公里，西部、北部毗邻山西，海拔最高处蚂蚁山1600多米。凤凰古寨，历史悠久；石头民居，原始古朴；地陷遗迹，石林奇观；苇池海拔，豫北之最；油松山楂，漫山遍野；连翘野菊，时令怒放。一年四季，白天伴日，晚上数星。香木河，豫北最后一处原生态栖息处女地。香木河自然保护区常年活动着太行猕猴、金钱豹、野獾、野猪、野兔、山鸡、苍鹰等几十种野生动物和飞禽，有“天然动物 园”之誉；各种花草树木上百种，中草药近千种，又有“植物王国”之称。主要有苇池沟、凤凰寨、兵部寨、上腊江四大园区组成。\n相传在很久以前，有一只美丽的凤凰来到了一个地方，只见这里田地荒芜、人烟稀少，于是它摇身一变，变成了一个姑娘。她好不容易在一座破旧的屋子里找到一位老大爷，向他打听原因，老大爷叹了口气说：以前这里可好了，可以说风调雨顺，人们吃穿无忧，但自从龙王爷认为给他的供品太少就发了脾气，不给我们下雨了，从此田地龟裂、草木枯黄，能逃的都逃走了，只剩下我这个走不动的老头子了。听了老大爷的话，凤凰才明白是龙王连年不降雨水造成的。听到这里，凤凰立刻告别了老大爷，飞上天拔出三根羽毛一吹，天边马上飘来一大片乌云，很快就下起了大雨，大地喝饱了水，这里又恢复了生机。从此，这里在凤凰的帮助下，雨水充沛，草木茁壮成长，人们安居乐业。可是不久，这事被龙王知道了，他大发雷庭，大手一挥，把大地的水份吸走了。凤凰发现后，就飞上天与龙王进行博斗，凤凰似一道红光，而龙王像一道黑光，两道光在空中斗得天昏地暗，足足斗了三天三夜。后来凤凰的体力渐渐不支，一不留神被龙王打下了云层，凤凰负了重伤趴在了地上，龙王见凤凰一动不动，便降到了凤凰身边，可龙王万没想到，凤凰突然抬头给了他致命的一击，龙王躺在地上化成了一条河流，后来人们叫它——香木河。凤凰见龙王死后，也合上了双眼，化作一座山峰，它那金灿灿的羽毛变成了各种动物。人们为了纪念凤凰就把这座山称为——凤凰岭。\n香木河自然保护区的房子，很多是石头房子，墙体非常厚，给人的印象非常坚实，有种沉甸甸的硬磐之美。这样的房子，其门，自然也是非常地独到，单是超过半米的门框，就很有些与众不同了（我们看出墙体厚度也是从那近乎门洞的门框上看出来的），因为纵深大的缘故，实际上并不窄的门，便让人有了一种狭隘的感觉，远远看去，都会担心挤不进去。这种视觉上的错乱，是种奇特的失真体验。这里不多的那几栋青砖结构的房子，这种房子应该是当年的大户人家的，很气派，走这样的门，颇有些“一入侯门深似海”的迷茫感。"}}, {"title": "正阳商务温泉", "address": "新乡市和平路332号（市交警支队南邻）", "image": "", "rank": 30, "time": 2, "location": {"lat": 35.29092046679385, "lng": 113.89574794553262}, "feature": {"sight_features": "特色1 集洗浴、酒店、娱乐、休闲、健身、保健、住宿、棋牌、KTV于一体的大型综合性高档商务休闲酒店！", "sight_content": "新乡正阳温泉商务地处新乡繁华地段，集温泉洗浴、娱乐保健、餐饮、住宿为一体，有温泉桑拿、足疗保健、棋牌室、茶艺吧、美容美体、KTV休闲会所等多项娱乐设施。\n图示："}}, {"title": "香木河滑雪场", "address": "新乡市辉县市南寨镇三郊口", "image": "", "rank": 31, "time": 2, "location": {"lat": 35.799249610541025, "lng": 113.61404966182876}, "feature": {"sight_features": "", "sight_content": ""}}, {"title": "天梯", "address": "新乡市辉县市万仙山风景区郭亮", "image": "", "rank": 32, "time": 25.0, "location": {"lat": 35.73591135170793, "lng": 113.60852948463939}, "feature": {"sight_features": "", "sight_content": ""}}, {"title": "同盟山", "address": "新乡市获嘉县", "image": "", "rank": 33, "time": 1.0, "location": {"lat": 35.2658092841611, "lng": 113.66341666994346}, "feature": {"sight_features": "", "sight_content": ""}}, {"title": "陈桥驿风景名胜区", "address": "新乡市封丘县004县道", "image": "", "rank": 34, "time": 1.0, "location": {"lat": 35.0468575316508, "lng": 114.42560616803036}, "feature": {"sight_features": "", "sight_content": ""}}, {"title": "青龙湖", "address": "新乡市封丘县s227", "image": "", "rank": 35, "time": 1.0, "location": {"lat": 35.0468575316508, "lng": 114.42560616803036}, "feature": {"sight_features": "", "sight_content": ""}}, {"title": "九莲山", "address": "河南省西北部辉县市上八里镇松树坪村", "image": "", "rank": 36, "time": 5.5, "location": {"lat": 35.60246004221239, "lng": 113.58316036776598}, "feature": {"sight_features": "", "sight_content": ""}}, {"title": "南坪", "address": "河南新乡辉县万仙山景区南坪村", "image": "", "rank": 37, "time": 3.0, "location": {"lat": 35.71291603556719, "lng": 113.6203218545775}, "feature": {"sight_features": "", "sight_content": ""}}, {"title": "河南师范大学", "address": "中国河南省新乡市牧野区建设东路46号", "image": "", "rank": 38, "time": 2, "location": {"lat": 35.32970996377364, "lng": 113.91958115222137}, "feature": {"sight_features": "", "sight_content": ""}}, {"title": "御龙湾温泉度假村", "address": "新乡市南环路与劳动路交叉口向南500米路西", "image": "", "rank": 39, "time": 2, "location": {"lat": 35.264412074166174, "lng": 113.92940867378869}, "feature": {"sight_features": "特色1 御龙湾温泉水来自1400米的深井，温泉水的形状是大气降水渗入地壳断层深处，与地下热岩浆接触后经过几十年的演变、渗透，最终转移到地表形成。", "sight_content": "御龙湾温泉水来自1400米的深井，温泉水的形状是大气降水渗入地壳断层深处，与地下热岩浆接触后经过几十年的演变、渗透，最终转移到地表形成。"}}, {"title": "玲珑塔", "address": "新乡市原阳县东靳庄附近", "image": "", "rank": 40, "time": 0.25, "location": {"lat": 35.020492763180854, "lng": 113.80658421300302}, "feature": {"sight_features": "", "sight_content": ""}}, {"title": "学堂岗圣庙", "address": "新乡市长垣县满村乡学堂岗村东", "image": "", "rank": 41, "time": 1.0, "location": {"lat": 35.26224081722744, "lng": 114.73761377011567}, "feature": {"sight_features": "", "sight_content": ""}}, {"title": "八里沟一线天", "address": "新乡市辉县市上八里镇松树坪村八里沟内", "image": "", "rank": 42, "time": 1.5, "location": {"lat": 35.60246004221239, "lng": 113.58316036776598}, "feature": {"sight_features": "", "sight_content": ""}}, {"title": "罗姐寨", "address": "河南新乡辉县万仙山风景区", "image": "", "rank": 43, "time": 4.0, "location": {"lat": 35.467957818375645, "lng": 113.81157302990697}, "feature": {"sight_features": "", "sight_content": ""}}, {"title": "喊泉", "address": "河南新乡辉县郭亮", "image": "", "rank": 44, "time": 2, "location": {"lat": 35.73591135170793, "lng": 113.60852948463939}, "feature": {"sight_features": "", "sight_content": ""}}, {"title": "八里沟大瀑布", "address": "河南省新乡辉县市八里沟景区内", "image": "", "rank": 45, "time": 2, "location": {"lat": 35.60237935795242, "lng": 113.55970282525507}, "feature": {"sight_features": "", "sight_content": ""}}, {"title": "正面水库", "address": "河南省新乡市卫辉市", "image": "", "rank": 46, "time": 2, "location": {"lat": 35.40406888214502, "lng": 114.07160094452217}, "feature": {"sight_features": "", "sight_content": ""}}, {"title": "姜太公故里", "address": "", "image": "", "rank": 47, "time": 1.0, "location": {"lat": 35.50879643858618, "lng": 114.02161742933599}, "feature": {"sight_features": "", "sight_content": ""}}, {"title": "愚公泉", "address": "", "image": "", "rank": 48, "time": 1.0, "location": {"lat": 35.43320814602163, "lng": 113.90198173572081}, "feature": {"sight_features": "", "sight_content": ""}}, {"title": "吉森樱花源", "address": "新乡市凤泉区宝山大道与游览街交汇处北行300米路西", "image": "", "rank": 49, "time": 2, "location": {"lat": 35.39670355811649, "lng": 113.90798543213907}, "feature": {"sight_features": "", "sight_content": ""}}, {"title": "长垣星期八小镇", "address": "新乡市长垣县蒲北淇河路路东", "image": "", "rank": 50, "time": 2, "location": {"lat": 35.224050727685295, "lng": 114.65945948486542}, "feature": {"sight_features": "特色1 给孩子创造一个体验梦想的世界！ 特色2 是全国规模最大的星期8少年儿童社会角色扮演主题乐园！", "sight_content": "2017年4月28日防腐蚀之都建设集团携手上海童梦投资公司联合打造的长垣星期8小镇，是专为3-15岁孩子创建的角色扮演主题乐园。坐落在蒲北防腐建材博览城东区，营业面积13000多平方米，总投资1.5亿元，是全国规模最大的星期8少年儿童社会角色扮演主题乐园。\n\n\n长垣星期8小镇有50多个体验馆,涵盖8大社会领域、70多种角色扮演，充满童趣、体验真实、孩子在这里可以尽情尝尝做大人的滋味。\n\n\n长垣星期8小镇始终以“创新社会化教育、关注下一代成长”为己任，致力于对社会教育模式进行全新的探索；给担负未来的孩子创造一个体验梦想的世界。"}}, {"title": "万仙山滑雪场", "address": "新乡市辉县市万仙山风景区内郭亮村", "image": "", "rank": 51, "time": 2, "location": {"lat": 35.736090466851415, "lng": 113.61003659784436}, "feature": {"sight_features": "", "sight_content": ""}}, {"title": "灵泉峡", "address": "新乡市卫辉市狮豹头乡东拴马村", "image": "", "rank": 52, "time": 2, "location": {"lat": 35.6801233384332, "lng": 113.94014951334766}, "feature": {"sight_features": "", "sight_content": ""}}, {"title": "森林乐园(大商新玛特店)", "address": "解放大道与人民中路交叉口大商新玛特4楼", "image": "", "rank": 53, "time": 2, "location": {"lat": 35.309377315366234, "lng": 113.87214821742899}, "feature": {"sight_features": "", "sight_content": ""}}, {"title": "关山漂流", "address": "新乡市辉县市八里镇马头口村", "image": "", "rank": 54, "time": 2, "location": {"lat": 35.53211685048611, "lng": 113.6343597205955}, "feature": {"sight_features": "", "sight_content": ""}}, {"title": "龙溪温泉", "address": "新乡市辉县张村乡滑峪村村北龙溪温泉养生旅游度假村温泉检票处", "image": "", "rank": 55, "time": 2, "location": {"lat": 35.56262737422761, "lng": 113.91187243062312}, "feature": {"sight_features": "特色1 地热资源得天独厚，健康养生 特色2 集吃、住、疗、游、娱、购为一体的度假景区。 特色3 是中原大经济旅游圈内档次高，理念新，综合性强的旅游景区。", "sight_content": "龙溪温泉地热资源得天独厚，温泉处于火山断裂带，地热资源得天独厚，温泉中心分为私密窑洞温泉区、室内溶洞温泉、常年恒温游泳池、儿童戏水区、百花养颜区、养生理疗区、高山贵宾区组成。\n\n\n温泉区依山而建、弘扬“与树为邻、与山为伴、与水为缘、与田为友”的绿色生活理念，给客人营造一个全新的度假疗养胜地。"}}, {"title": "河南科技学院", "address": "河南省新乡红旗区河南科技学院", "image": "", "rank": 56, "time": 2, "location": {"lat": 35.285925033998396, "lng": 113.94443861853054}, "feature": {"sight_features": "", "sight_content": ""}}, {"title": "白龙洞", "address": "河南新乡辉县郭亮", "image": "", "rank": 57, "time": 1.5, "location": {"lat": 35.73591135170793, "lng": 113.60852948463939}, "feature": {"sight_features": "", "sight_content": ""}}, {"title": "丹分沟", "address": "新乡辉县万仙山景区", "image": "", "rank": 58, "time": 2, "location": {"lat": 35.73825664010591, "lng": 113.63248249653739}, "feature": {"sight_features": "", "sight_content": ""}}, {"title": "五龙山响水河主题乐园", "address": "新乡市辉县市区东北方向5公里处的常村镇", "image": "", "rank": 59, "time": 2, "location": {"lat": 35.483685690846166, "lng": 113.8959425041332}, "feature": {"sight_features": "特色1 具备目前国际流行项目的主题乐园。 特色2 规模大，水质好的互动亲水乐园，集度假休闲游乐的创业水上乐园。", "sight_content": "五龙山游乐园位于辉县常村镇五龙山响水河主题公园之内，依山而建，主要项目有悬挂过山车、摩天轮、旋转木马、青蛙跳、旋转的士高、奇幻世界、穿越丛林、碰碰车、飞行塔、5D影院、逍遥水母、家庭过山车、激流勇进、飞天梭、果虫滑车、超级秋千、大摆锤、五龙山小火车、自控小飞机、鬼屋等。\n悬挂式过山车又称为“外挂式”滑车，被誉为”过山车之王“。该设施一改传统的舱式滑车结构，采用吊挂开启式滑车结构。游客将切身感受到惊心动魄、飞越极限的感觉。\n\n\n超级秋千游艺机，集旋转、升降、倾斜变换为一体，刺激异常。当伞形转盘呵中间转台错位旋转时，塔身徐徐上升，同时转盘摇动，飞椅呈波浪状荡漾，游客犹如高空飞翔，体验海阔天空，惊心动魄流星锤又名大摆锤，是目前国际上流行的新型游乐项目。该设备造型美观，结构科学，气势磅礴。游客乘坐在高速旋转的摆锤上往复摆荡，令人目眩神迷，惊心动魄；游客往往情不自禁的发出惊呼与欢笑，极大的提高了整个游乐场欢乐气氛，使许多游客留连忘返，不愿离开。\n整个激流勇进项目中，较精彩刺激的部分当属跌落了。通常，由链条（或电梯）将游船提升至一定高度的陡坡上，然后船只从高处滑下，冲入水中，溅起水花。游客可以体验到一定程度的失重，并且在坡地的水池中被自己溅起的水花淋湿，整个过程刺激又有趣。"}}, {"title": "水竹园漂流", "address": "新乡市辉县市上八里镇石门店村", "image": "", "rank": 60, "time": 2, "location": {"lat": 35.546481856643375, "lng": 113.612399730624}, "feature": {"sight_features": "", "sight_content": ""}}]}