{"cityName": "新兴", "days": 2, "cityImage": "", "spots": [{"title": "国恩寺", "address": "云浮市新兴县新城镇中山路95号龙山温泉旅游度假区内", "image": "", "rank": 1, "time": 1.5, "location": {"lat": 22.594643163626536, "lng": 112.23485367231928}, "feature": {"sight_features": "", "sight_content": ""}}, {"title": "新兴天露山旅游度假区", "address": "云浮市新兴县里洞镇洛洞村", "image": "", "rank": 2, "time": 3.0, "location": {"lat": 22.49360131100415, "lng": 112.2331400979663}, "feature": {"sight_features": "特色1 山花烂漫，四季如春 特色2 山势巍峨，云雾缭绕、怪石遍布、奇景众多 特色3 深呼吸，享受天然大氧吧", "sight_content": "天露山旅游度假区位于中国禅都-广东省云浮市新兴县，天露山是粤中南部最高峰，海拔1251米。山上终年云雾缭绕、奇石遍布、山花烂漫，杜鹃花、梅花、禾雀花、石榴花、山茶花、桫椤以及各种珍稀花木等组成了一座绿色的宝库。山高密林的空气中含负离子达到10万/立方厘米，是天然的大氧吧。天露山历史文化底蕴深厚，拥有六祖生平潜身修佛的遗迹。天露山孕育了六祖慧能大师成为东方三大圣人，与孔子之于泰山、老子之于嵩山齐名于天下。\n天露山旅游度假区提供综合生态旅游服务，有无忧谷酒店、湖景酒店、温泉木屋别墅、半山观景别墅、童话木屋、云端玻璃桥桥、禅龙峡餐厅、禅龙峡漂流、机动游戏乐园、梅溪小镇、拓展基地、空中飞人、无忧谷原始森林探险栈道等，是您休闲旅游度假之选。\n【天露山旅游度假区--漂流特色】\n禅龙峡漂流：龙中漂流。\n禅龙峡漂流全长3.8公里，落差188米，最高落差20米，漂流峡谷奇石峥嵘，谷边遍布珍稀的桫椤植物和梅林。景区以打造禅漂为宗旨，以禅缘为主题，有回头一拜圣祖峰、平湖秋色、忘忧谷、佛在我心等创意美景，让人们在享受惊险刺激的龙中漂流之余，深深地感受禅宗文化的博大精深。\n【天露山旅游度假区--CS梅林水弹野战】\nCS野战场由一谷两岸的梅林石林天然碉堡构成，彩弹、水弹、迷彩战衣等先进装备一应俱全，\n还有专业教练进行培训指导。喜欢体验战争乐趣的朋友不妨自组团队，到这里展开刺激的丛林大作战！\n【天露山旅游度假区--玻璃桥】\n天露山云端玻璃桥桥身横跨于海拔600米的峭壁之间，总跨度188米，垂直高度80米，终年云雾缭绕，如漫步云端，切身体验“脚踏祥云,腾云驾雾”仙境，是美妙与刺激融合。\n【天露山旅游度假区--空中飞人】\n架于峡谷之间的空中飞人（也称滑索），是根据禅龙峡独特的山形优势而设计的，穿上背带式的安全带，滑轮挂到铁索上，以5米/秒的速度在高山峡谷间飞翔，翱翔于半空中，在森林大氧吧中享受双人高空挑战，体验空中版的速度与激情。\n【天露山旅游度假区--机动游戏】\n天露山游乐场提供综合性的游乐项目，满足不同年龄阶段的游客游玩需求，有丛林飞鼠、碰碰车、时空穿梭、激战海盗、花仙子乐园、豪华转马、自控飞机、豪华摇头飞椅、海盗船九个游乐项目。游客可在天露山大氧吧中上下翻腾，百转千回的互动娱乐项目中，感受欢乐和谐，品味浓郁的原始生态气息。\n【天露山旅游度假区--梅林小镇】\n天露山梅溪小镇因拥有梅林、溪流而得名。在保留原始旧村落的基础上，融入禅修与自然生态游元素复建而成。小镇依托粤中南第一峰天露山的秀丽景色，以“禅宗文化、财神文化、岭南建筑文化、南药养生文化”为主题特色，是集旅游观光、祈福禅修、住宿餐饮、休闲娱乐、特产购物等功能于一体的岭南山水特色小镇。\n【天露山旅游度假区--无忧谷栈道】\n原始粗犷的小石栈道，贴着溪流，指向山谷深处，体验着大自然山水的灵动、幽深，从心开始。"}}, {"title": "龙山温泉", "address": "云浮市新兴县六祖故里旅游度假区", "image": "", "rank": 3, "time": 0.7, "location": {"lat": 22.593676671904174, "lng": 112.23536849120686}, "feature": {"sight_features": "特色1 结合佛教禅宗文化，与秀丽山水融为一体", "sight_content": "‍‍‍‍‍‍\n龍山温泉酒店占地100多亩，依深山神谷，临长水竹溪。酒店结构布局遵循“山水融合、回归自然”的理念，别墅依山而建，保留原生态地形地貌和原始自然植被，运用现代建筑的风格，巧妙地融入东方园林建筑精髓，流露出浓郁的岭南地域特色文化气息，洋溢着亚热带地区浪漫情调。\n龍山温泉酒店位于广东省云浮市新兴县六祖镇龙山温泉度假区，地处“中国禅宗发祥地”——六祖故里，毗邻“中国佛教禅宗祖师”六祖创建及圆寂之所——国恩寺，是一家按照四星级标准建设的集天然温泉、养生SPA、高级会所、豪华别墅、娱乐休闲、商务会议等为一体的高端精品温泉酒店。温泉酒店充分结合佛教禅宗文化，与周边秀丽山水融为一体，主题上充分体现山水人合一的境界，是进行禅修悟道的天然道场。\n龍山温泉酒店拥有硫磺矿泉资源。酒店原始森林环绕，负离子丰富。\n\n周围小桥飞瀑、曲廊小径、亭台轩榭、别有洞天，环境自然清新、幽雅脱俗，鸟语花香、生机盎然。\n拥有大型SPA水疗池、露天日式温泉池、室内温泉池以及十余种纯中药温泉池、鲜花池等各类温泉泡池30多个。此外，酒店提供绿色、健康的原生态特色餐饮，餐厅设200多个餐位及多个豪华贵宾厅。还设有大型卡拉OK歌舞厅、网球场、乒乓球馆、桌球室、羽毛球馆以及可容纳300多人的多功能会议室，体育、娱乐、休闲、商务会议设施一应俱全。"}}, {"title": "云浮金水台旅游度假区", "address": "云浮市新兴县水台镇金水台旅游度假区", "image": "", "rank": 4, "time": 1.5, "location": {"lat": 22.61602921001878, "lng": 112.48067433814492}, "feature": {"sight_features": "特色1 拥有天然自涌温泉，刺激的水上游乐项目！", "sight_content": "【金水台太阳岛水上乐园】\n大阳岛水上乐园与江门电视台联手打造“广东第一大水上闯关”项目，电视台进行现场直播。全民挑战，大奖多多，智慧与体魄相结合，勇气与胆量的融洽，是挑战还是享受，快来体验吧！山地式大型树屋组合，沿山坡自然地形而建，形成三层阶梯式水面，池内设有水滑梯、水喷装置、互动戏水装置、大型水翻桶等水上游乐设施，通过楼梯、网桥、攀爬网等迂回曲折相互连通，使您充分体验水上运动的乐趣。\n全国最大的造浪池之一，3米高的浪潮，提供多种造浪模式，自动造出排浪、转浪、钻石浪、突起浪等多种浪群，犹如在大海中冲浪，让您体味冲浪弄潮的刺激痛快。拥有水上舞台，超大的LED大屏幕，每天上演劲歌热舞。\n28米的高台，独特的四叶浮圈，圈载4人飞驰而下。落入15米的旋涡中，最后飞旋而出，让您体验难以置信的滑行感受。\n【金水台温泉】\n\n金水台温泉以其一区同存含三种不同类型的天然地下温泉而名闻名遐迩，经广东省权威检测部门化验，为国内罕见的硅酸温泉和达到国家命名标准的优质氡温泉、硫化氢温泉。\n泉水从地下自动喷涌而出，无须加水稀释，原汁原味，含有国内公认的二十七种对人体健康必需的微量元素，对养生保健效果极佳。\n露天温泉区面积达三万多平方米，建有三大温泉浸泡体验区，设有加勒比海岸冲浪池、动感刺激温泉滑道、标准温泉游泳训练池、温泉水疗SPA、亲亲温泉鱼疗、泥疗以及温泉酒吧等功能各异的温泉池30多个。"}}, {"title": "金水台太阳岛水上乐园", "address": "云浮市新兴县水台镇金水台水上乐园", "image": "", "rank": 5, "time": 2, "location": {"lat": 22.61602921001878, "lng": 112.48067433814492}, "feature": {"sight_features": "特色1 在水中探寻远古大鱼海棠的奥秘，追逐最纯粹的自由。", "sight_content": "大阳岛水上乐园与江门电视台联手打造“广东第一大水上闯关”项目，电视台进行现场直播。全民挑战，大奖多多，智慧与体魄相结合，勇气与胆量的融洽，是挑战还是享受，快来体验吧！山地式大型树屋组合，沿山坡自然地形而建，形成三层阶梯式水面，池内设有水滑梯、水喷装置、互动戏水装置、大型水翻桶等水上游乐设施，通过楼梯、网桥、攀爬网等迂回曲折相互连通，使您充分体验水上运动的乐趣。\n全国最大的造浪池之一，3米高的浪潮，提供多种造浪模式，自动造出排浪、转浪、钻石浪、突起浪等多种浪群，犹如在大海中冲浪，让您体味冲浪弄潮的刺激痛快。拥有水上舞台，超大的LED大屏幕，每天上演劲歌热舞。\n28米的高台，独特的四叶浮圈，圈载4人飞驰而下。落入15米的旋涡中，最后飞旋而出，让您体验难以置信的滑行感受。"}}, {"title": "禅泉温泉", "address": "云浮市新兴县六祖故里旅游度假区禅泉度假酒店", "image": "", "rank": 6, "time": 2, "location": {"lat": 22.598793413646483, "lng": 112.23226878563888}, "feature": {"sight_features": "特色1 富含对人体有益的微量元素 特色2 高雅，大气，充满粤风禅韵的旅游度假酒店 特色3 原生态情景体验，尽享自然馈赠", "sight_content": "‍‍‍‍‍‍‍‍\n禅泉温泉会所以“高端中式禅文化”体验定位，融合东方养生与西方休闲文化，追求人与自然的和谐。设有动感水疗SPA(漩涡池)、亚洲最长无边际泡池(长生池)、最大“花洒”(太阳浴)、天然池中池(湿地泉)及名贵中草药泡池——禅家百草园等，共有25个特色温泉池、3个大小泳池及地热坊、养道SPA、露天休闲吧等，与原生态的溪流、小河、竹林相结合，在温泉公园营造湿地、密林、缓坡等景观；将瑜珈、太极、禅修等引入禅泉温泉空间，强调池与池之间的私密性和原生态情景体验，让您尽享天然之美。\n禅泉温泉拥有广东省独一无二、世界极其珍稀的温泉资源——硫磺高温矿泉。矿物质含量丰富，富含硫酸盐、钙、镁、钠等20多种矿物质，且含有氡等放射性微量元素；水质轻软舒适；温泉水源自地表更深处的岩层隙缝，最高水温可达72.8℃。\n养道SPA为您提供顶尖的泰式按摩、中式推拿、国际SPA、美肤、美体、保健、养生服务，让您畅享专业水疗的美妙体验。温泉区包括动感休闲区、禅家百草园、湿地温泉、云水禅心、地热坊及养道SPA。"}}, {"title": "翔顺龙山酒店温泉", "address": "云浮市新兴县六祖故里度假区", "image": "", "rank": 7, "time": 2, "location": {"lat": 22.59714929757261, "lng": 112.23225365458087}, "feature": {"sight_features": "特色1 南方的冬天，一池温泉一杯红酒", "sight_content": "‍‍‍‍‍‍\n龙山温泉水属硫氢化物泉，水温高达72.8℃,含有硫化氢、钾、钠、硫酸盐和氡等多种矿物元素。\n翔顺龙山温泉拥有景观欢乐池、儿童戏水池、游泳池、特色水疗池、热石床、湿蒸房等配套设施，能让您乐在其中，尽享休闲。\n翔顺龙山酒店内设有嘉年华卡拉OK歌舞厅、篮球场、健身房等能为客人提供周到的康乐服务；酒店配有多功能会议室3个，分别可容纳30人、60人和150人，会议设施齐全，是行政事务会议及商谈之理想场所。"}}, {"title": "禅域小镇", "address": "云浮市新兴县六祖大道", "image": "", "rank": 8, "time": 1.0, "location": {"lat": 22.636716741708543, "lng": 112.23077972208704}, "feature": {"sight_features": "特色1 打造禅宗文化情景体验大型实景音画大典。", "sight_content": "惠能，禅宗六祖，因缘得法；继承东山法脉，建立南宗，弘扬“直指人心，见性成佛”的顿教法门；立说《坛经》，对中国佛教和禅宗弘化影响意义深远，与孔子、老子并称“东方三圣”。\n\n大型实景音画大典《禅宗圣域▪六祖大典》，汇聚国家级创作团队，融合现代光影技术，在特色原生态禅境演艺场地，行云流水，亦真亦幻，穿越时空。\n以“禅域、禅脉、禅缘、禅音、禅法、禅境、禅圣、禅悟”八个篇章构成的史诗巨作，再现六祖惠能开悟弘法的传奇一生，打造禅宗文化情景体验大型实景音画大典。"}}, {"title": "青山绿水温泉", "address": "东成镇青山绿水温泉度假村内", "image": "", "rank": 9, "time": 2, "location": {"lat": 22.7077913351886, "lng": 112.36463158992989}, "feature": {"sight_features": "", "sight_content": ""}}, {"title": "乐园大酒家", "address": "新城镇县城竹围坊81号", "image": "", "rank": 10, "time": 2, "location": {"lat": 22.81443884730195, "lng": 112.24490754890567}, "feature": {"sight_features": "", "sight_content": ""}}, {"title": "百合山游乐场", "address": "广兴大道东62号", "image": "", "rank": 11, "time": 2, "location": {"lat": 22.71162694870883, "lng": 112.24652305794106}, "feature": {"sight_features": "", "sight_content": ""}}, {"title": "东成文化广场", "address": "东成镇", "image": "", "rank": 12, "time": null, "location": {"lat": 19.70992410404232, "lng": 109.46803331270283}, "feature": {"sight_features": "", "sight_content": ""}}, {"title": "北峰山水库", "address": "广东省云浮市新兴县西南部河头镇", "image": "", "rank": 13, "time": 2, "location": {"lat": 22.593480263190077, "lng": 112.10092856832311}, "feature": {"sight_features": "", "sight_content": ""}}, {"title": "童欢儿童游乐园", "address": "新城镇祥和街12号首层", "image": "", "rank": 14, "time": 2, "location": {"lat": 22.714486957666825, "lng": 112.23781129650773}, "feature": {"sight_features": "", "sight_content": ""}}, {"title": "环城农场(314乡道)", "address": "314乡道惠能中学斜对面", "image": "", "rank": 15, "time": 2, "location": {"lat": 22.71498279252508, "lng": 112.25915771415507}, "feature": {"sight_features": "", "sight_content": ""}}, {"title": "大湾农场", "address": "484县道西100米", "image": "", "rank": 16, "time": 2, "location": {"lat": 22.526267027237505, "lng": 113.3829636090835}, "feature": {"sight_features": "", "sight_content": ""}}, {"title": "象窝山生态园", "address": "云浮市新兴县太平镇", "image": "", "rank": 17, "time": 2, "location": {"lat": 22.64604005187071, "lng": 112.2673506906917}, "feature": {"sight_features": "", "sight_content": ""}}, {"title": "禅龙峡漂流基地", "address": "洛洞村", "image": "", "rank": 18, "time": 2, "location": {"lat": 23.589605813560937, "lng": 108.84645590956946}, "feature": {"sight_features": "", "sight_content": ""}}, {"title": "新兴幻炫车域", "address": "新兴县新城镇沿江北路63号第一卡", "image": "", "rank": 19, "time": 1.5, "location": {"lat": 22.718115581182513, "lng": 112.24301935204637}, "feature": {"sight_features": "", "sight_content": ""}}, {"title": "贝多乐游乐场", "address": "文华路新兴文化广场南侧（近童欢儿童游乐园）", "image": "", "rank": 20, "time": 2, "location": {"lat": 22.713349503857998, "lng": 112.23822081601375}, "feature": {"sight_features": "", "sight_content": ""}}, {"title": "贝贝乐儿童乐园", "address": "沿江北路（时代广场二楼）", "image": "", "rank": 21, "time": 2, "location": {"lat": 25.605352402143406, "lng": 115.8012375808062}, "feature": {"sight_features": "", "sight_content": ""}}, {"title": "家有宝贝", "address": "新城镇文泉路50号（泰基花园斜对面美宜佳隔壁）", "image": "", "rank": 22, "time": 2, "location": {"lat": 22.71471403437924, "lng": 112.22955649228805}, "feature": {"sight_features": "", "sight_content": ""}}, {"title": "新兴水上乐园", "address": "广东省云浮市新兴县船厂路", "image": "", "rank": 23, "time": 2.5, "location": {"lat": 22.739915622718183, "lng": 112.24507548891731}, "feature": {"sight_features": "", "sight_content": ""}}, {"title": "龙母庙", "address": "广兴大道东附近", "image": "", "rank": 24, "time": 1.5, "location": {"lat": 22.706329306838896, "lng": 112.25212680808339}, "feature": {"sight_features": "", "sight_content": ""}}, {"title": "惠能广场纪念堂", "address": "广东省云浮市新兴县S113(广兴大道东)", "image": "", "rank": 25, "time": 2, "location": {"lat": 22.706329306838896, "lng": 112.25212680808339}, "feature": {"sight_features": "", "sight_content": ""}}, {"title": "金台山森林公园", "address": "二环路西段附近", "image": "", "rank": 26, "time": 2, "location": {"lat": 31.118205253831373, "lng": 104.3306517220111}, "feature": {"sight_features": "", "sight_content": ""}}, {"title": "六祖兴隆寺", "address": "广东省云浮市新兴县X431", "image": "", "rank": 27, "time": 2, "location": {"lat": 22.701890082605544, "lng": 112.23149683218897}, "feature": {"sight_features": "", "sight_content": ""}}, {"title": "昇平公园", "address": "云浮市新兴县文泉路96号", "image": "", "rank": 28, "time": 2, "location": {"lat": 22.714863789414327, "lng": 112.22954531197769}, "feature": {"sight_features": "", "sight_content": ""}}, {"title": "新兴蓝精灵水上乐园", "address": "广东省云浮市新兴县鼎村路，即凌丰一号隔离", "image": "", "rank": 29, "time": 1.5, "location": {"lat": 22.689309357317846, "lng": 112.23828974389382}, "feature": {"sight_features": "", "sight_content": ""}}, {"title": "酷宝儿童乐园", "address": "云浮市新兴县环城南路65号", "image": "", "rank": 30, "time": null, "location": {"lat": 22.699412206407608, "lng": 112.23251852085872}, "feature": {"sight_features": "", "sight_content": ""}}, {"title": "新兴龙华古寺", "address": "广东省云浮市新兴县东城镇", "image": "", "rank": 31, "time": 1.5, "location": {"lat": 22.701890082605544, "lng": 112.23149683218897}, "feature": {"sight_features": "", "sight_content": ""}}, {"title": "报国古寺", "address": "广东省云浮市新兴县S113(合和大道)", "image": "", "rank": 32, "time": 2, "location": {"lat": 22.70182794689709, "lng": 112.39172030877786}, "feature": {"sight_features": "", "sight_content": ""}}, {"title": "河宁文化广场", "address": "广东省云浮市新兴县484县道", "image": "", "rank": 33, "time": 2, "location": {"lat": 22.563527525693438, "lng": 112.16630213016275}, "feature": {"sight_features": "", "sight_content": ""}}, {"title": "车岗镇文化广场", "address": "广东省云浮市新兴县车岗镇车岗文化广场", "image": "", "rank": 34, "time": 2, "location": {"lat": 22.795641962239298, "lng": 112.22816097018725}, "feature": {"sight_features": "", "sight_content": ""}}, {"title": "茂石化龙山度假村", "address": "云浮六祖镇", "image": "", "rank": 35, "time": 2, "location": {"lat": 22.588623451566676, "lng": 112.20230761455076}, "feature": {"sight_features": "", "sight_content": ""}}, {"title": "清江庙", "address": "广东省云浮市新兴县", "image": "", "rank": 36, "time": 2, "location": {"lat": 22.701890082605544, "lng": 112.23149683218897}, "feature": {"sight_features": "", "sight_content": ""}}, {"title": "南外中心广场", "address": "新城镇", "image": "", "rank": 37, "time": 2, "location": {"lat": 47.12716444609789, "lng": 131.12214996969064}, "feature": {"sight_features": "", "sight_content": ""}}, {"title": "侨苑度假村", "address": "六祖镇龙山旅游度假区内", "image": "", "rank": 38, "time": 2, "location": {"lat": 42.90763401213302, "lng": 125.14345242968848}, "feature": {"sight_features": "", "sight_content": ""}}, {"title": "悦天下生态度假区", "address": "水台林场", "image": "", "rank": 39, "time": 2, "location": {"lat": 23.33148758892327, "lng": 108.62024111362834}, "feature": {"sight_features": "", "sight_content": ""}}, {"title": "禅域小镇《六祖大典》实景演出", "address": "云浮市新兴县六祖大道禅域小镇内", "image": "", "rank": 40, "time": 2, "location": {"lat": 22.636716741708543, "lng": 112.23077972208704}, "feature": {"sight_features": "特色1 打造禅宗文化情景体验大型实景音画大典。", "sight_content": "惠能，禅宗六祖，因缘得法；继承东山法脉，建立南宗，弘扬“直指人心，见性成佛”的顿教法门；立说《坛经》，对中国佛教和禅宗弘化影响意义深远，与孔子、老子并称“东方三圣”。\n\n大型实景音画大典《禅宗圣域▪六祖大典》，汇聚国家级创作团队，融合现代光影技术，在特色原生态禅境演艺场地，行云流水，亦真亦幻，穿越时空。\n以“禅域、禅脉、禅缘、禅音、禅法、禅境、禅圣、禅悟”八个篇章构成的史诗巨作，再现六祖惠能开悟弘法的传奇一生，打造禅宗文化情景体验大型实景音画大典。"}}, {"title": "新兴县满氏家庭农场", "address": "水浪肥水坑村榕冚山(翔顺象窝度假区,风车山)", "image": "", "rank": 41, "time": 1.5, "location": {"lat": 23.835070787139205, "lng": 115.29553461757096}, "feature": {"sight_features": "", "sight_content": ""}}, {"title": "新兴县天绿农产品专业合作社", "address": "天堂镇天绿农产品专业合作社", "image": "", "rank": 42, "time": 2, "location": {"lat": 28.11466170280092, "lng": 119.57919106049292}, "feature": {"sight_features": "", "sight_content": ""}}, {"title": "尚洋画廊", "address": "体育路与沿江南路交叉口西南50米", "image": "", "rank": 43, "time": 2, "location": {"lat": 22.69264753409771, "lng": 112.23862462500139}, "feature": {"sight_features": "", "sight_content": ""}}, {"title": "薰衣草银衣秀", "address": "环城西路78号附近", "image": "", "rank": 44, "time": 2, "location": {"lat": 31.911169655678908, "lng": 120.26747301843729}, "feature": {"sight_features": "", "sight_content": ""}}, {"title": "新大地畜禽有限公司", "address": "113省道", "image": "", "rank": 45, "time": 2, "location": {"lat": 30.339048049978164, "lng": 114.30804465644788}, "feature": {"sight_features": "", "sight_content": ""}}, {"title": "新兴县天露山茶业食品旅游发展有...", "address": "里洞镇梧洞", "image": "", "rank": 46, "time": 2, "location": {"lat": 22.431813382522183, "lng": 112.23385750181414}, "feature": {"sight_features": "", "sight_content": ""}}, {"title": "佛手岭", "address": "广东省新兴县簕竹镇", "image": "", "rank": 47, "time": 2, "location": {"lat": 22.723715022433154, "lng": 112.13164353361528}, "feature": {"sight_features": "", "sight_content": ""}}, {"title": "天强果场农庄", "address": "云浮市-新兴县-六祖镇樟村(龙凤路龙山国恩寺往三宝寺方向)", "image": "", "rank": 48, "time": 2, "location": {"lat": 22.595236560161766, "lng": 112.23523360524474}, "feature": {"sight_features": "", "sight_content": ""}}, {"title": "禅泉多功能会议中心", "address": "云浮市-新兴县-S276(六祖大道", "image": "", "rank": 49, "time": 2, "location": {"lat": 22.636716741708543, "lng": 112.23077972208704}, "feature": {"sight_features": "", "sight_content": ""}}, {"title": "云浮藏佛坑", "address": "广东省新兴县集成镇寺田村东侧", "image": "", "rank": 50, "time": 1.5, "location": {"lat": 22.571713904804792, "lng": 112.22904697340297}, "feature": {"sight_features": "", "sight_content": ""}}, {"title": "神仙谷", "address": "广东省新兴县六祖镇留村", "image": "", "rank": 51, "time": 1.0, "location": {"lat": 22.591616411337846, "lng": 112.20350206174291}, "feature": {"sight_features": "", "sight_content": ""}}, {"title": "竹院庵", "address": "广东省新兴县六祖镇径口村", "image": "", "rank": 52, "time": 1.0, "location": {"lat": 22.60695380397276, "lng": 112.21011009139418}, "feature": {"sight_features": "", "sight_content": ""}}, {"title": "六祖故居", "address": "广东省新兴县集成镇夏卢村", "image": "", "rank": 53, "time": 2, "location": {"lat": 22.59757901865252, "lng": 112.22396826935646}, "feature": {"sight_features": "", "sight_content": ""}}]}