{"cityName": "新县", "days": 2, "cityImage": "", "spots": [{"title": "鄂豫皖苏区首府革命博物馆", "address": "信阳市新县首府路文博新村4号", "image": "", "rank": 1, "time": 1.0, "location": {"lat": 31.62257681531715, "lng": 114.88436171909045}, "feature": {"sight_features": "", "sight_content": ""}}, {"title": "银杏村", "address": "信阳市新县千斤乡杨高山村", "image": "", "rank": 2, "time": 4.0, "location": {"lat": 31.731389769068443, "lng": 114.7133199572767}, "feature": {"sight_features": "", "sight_content": ""}}, {"title": "大别山露营公园", "address": "信阳市新县新集镇香山湖风景区北100米", "image": "", "rank": 3, "time": 2, "location": {"lat": 31.581565524802908, "lng": 114.92359163518618}, "feature": {"sight_features": "", "sight_content": ""}}, {"title": "香山湖", "address": "G45大广高速014乡道入口与G45大广高速交叉口", "image": "", "rank": 4, "time": 2, "location": {"lat": 46.515285978951205, "lng": 125.0528009974096}, "feature": {"sight_features": "", "sight_content": ""}}, {"title": "小潢河", "address": "潢河路沿岸", "image": "", "rank": 5, "time": 2, "location": {"lat": 31.65924444136753, "lng": 114.88831336502882}, "feature": {"sight_features": "", "sight_content": ""}}, {"title": "盛龍山庄", "address": "沙窝镇339省道福瑞大酒店西北300米", "image": "", "rank": 6, "time": 2, "location": {"lat": 31.701371053210256, "lng": 115.12451942304544}, "feature": {"sight_features": "", "sight_content": ""}}, {"title": "中原马场", "address": "浒湾乡中原马场", "image": "", "rank": 7, "time": 2, "location": {"lat": 34.754450781329176, "lng": 113.61947551693957}, "feature": {"sight_features": "", "sight_content": ""}}, {"title": "毛主席像章展厅", "address": "河南新县县境内 465500", "image": "", "rank": 8, "time": 2, "location": {"lat": 31.649738468474663, "lng": 114.8855247552342}, "feature": {"sight_features": "", "sight_content": ""}}, {"title": "许世友事迹陈列室", "address": "河南新县田铺乡河铺村许家洼 465522", "image": "", "rank": 9, "time": 2, "location": {"lat": 31.48914322191314, "lng": 115.0022024204322}, "feature": {"sight_features": "", "sight_content": ""}}, {"title": "中国工农红军第二十五军司令部旧...", "address": "河南新县箭厂河乡方湾村 465531", "image": "", "rank": 10, "time": 2, "location": {"lat": 31.501923339182902, "lng": 114.84565696856532}, "feature": {"sight_features": "", "sight_content": ""}}, {"title": "首府路和航空路革命旧址", "address": "河南新县首府路27号 464000", "image": "", "rank": 11, "time": 2, "location": {"lat": 31.62697447294588, "lng": 114.88100475139966}, "feature": {"sight_features": "", "sight_content": ""}}, {"title": "大祠堂", "address": "信阳市新县二一三省道", "image": "", "rank": 12, "time": 2, "location": {"lat": 31.581590644340576, "lng": 114.85015181984559}, "feature": {"sight_features": "", "sight_content": ""}}, {"title": "茗香园", "address": "信阳市新县首府路398号", "image": "", "rank": 13, "time": 2, "location": {"lat": 31.62344962499813, "lng": 114.88221026212285}, "feature": {"sight_features": "", "sight_content": ""}}, {"title": "赛歌园度假村", "address": "河南省新县八里畈镇", "image": "", "rank": 14, "time": 2, "location": {"lat": 31.708111941781024, "lng": 114.99375901518108}, "feature": {"sight_features": "", "sight_content": ""}}, {"title": "金兰湖度假村", "address": "金兰水库附近", "image": "", "rank": 15, "time": 2, "location": {"lat": 28.985407992679747, "lng": 119.4863645941754}, "feature": {"sight_features": "", "sight_content": ""}}, {"title": "英雄山铁索桥", "address": "河南省信阳市新县滨河路", "image": "", "rank": 16, "time": 2, "location": {"lat": 31.627211210789294, "lng": 114.88445655769466}, "feature": {"sight_features": "", "sight_content": ""}}, {"title": "红安天台山", "address": "湖北省红安县境内 438400", "image": "", "rank": 17, "time": 7.5, "location": {"lat": 31.294296714037316, "lng": 114.62442561129834}, "feature": {"sight_features": "", "sight_content": ""}}, {"title": "鄂豫皖分局旧址群", "address": "信阳市新县首府路", "image": "", "rank": 18, "time": 1.0, "location": {"lat": 31.625693383689793, "lng": 114.88197671346992}, "feature": {"sight_features": "", "sight_content": ""}}, {"title": "许世友将军墓", "address": "信阳市新县田铺乡河铺村许世友将军故居不远处的许家坟山上", "image": "", "rank": 19, "time": 1.0, "location": {"lat": 31.48914322191314, "lng": 115.0022024204322}, "feature": {"sight_features": "", "sight_content": ""}}, {"title": "鄂豫皖革命根据地旧址", "address": "河南新县新集镇中原路62号 465550", "image": "", "rank": 20, "time": 2, "location": {"lat": 31.629095592496128, "lng": 114.90541664559962}, "feature": {"sight_features": "", "sight_content": ""}}, {"title": "张祠堂", "address": "信阳市新县零二二县道", "image": "", "rank": 21, "time": 2, "location": {"lat": 31.649738468474663, "lng": 114.8855247552342}, "feature": {"sight_features": "", "sight_content": ""}}, {"title": "考拉儿童乐园", "address": "河南省信阳市新县新集镇向阳路首府商厦", "image": "", "rank": 22, "time": 2, "location": {"lat": 31.62641654158019, "lng": 114.88118241197527}, "feature": {"sight_features": "", "sight_content": ""}}, {"title": "新县诚雨实儿童微乐园", "address": "河南省信阳市新县新集镇长潭路长潭小区C区附近", "image": "", "rank": 23, "time": 2, "location": {"lat": 31.6463790623946, "lng": 114.88428055988253}, "feature": {"sight_features": "", "sight_content": ""}}, {"title": "开心e乐儿童乐园", "address": "河南省信阳市新县S213(潢河北路)", "image": "", "rank": 24, "time": 2, "location": {"lat": 31.653136756570618, "lng": 114.88624716983041}, "feature": {"sight_features": "", "sight_content": ""}}, {"title": "胡祠堂", "address": "信阳市新县", "image": "", "rank": 25, "time": 2, "location": {"lat": 31.649738468474663, "lng": 114.8855247552342}, "feature": {"sight_features": "", "sight_content": ""}}, {"title": "王母观避暑山庄", "address": "王母观附近", "image": "", "rank": 26, "time": 2, "location": {"lat": 38.52214194535804, "lng": 114.08036320331405}, "feature": {"sight_features": "", "sight_content": ""}}, {"title": "清风园", "address": "014乡道附近", "image": "", "rank": 27, "time": 1.5, "location": {"lat": 47.886927740402655, "lng": 132.7138064036199}, "feature": {"sight_features": "", "sight_content": ""}}, {"title": "红四方面军将士纪念馆", "address": "将军石景区附近", "image": "", "rank": 28, "time": 2, "location": {"lat": 31.542745296192827, "lng": 114.8704766108227}, "feature": {"sight_features": "", "sight_content": ""}}, {"title": "名茗山庄", "address": "019县道附近", "image": "", "rank": 29, "time": 2, "location": {"lat": 39.85877177435227, "lng": 115.71171510734608}, "feature": {"sight_features": "", "sight_content": ""}}, {"title": "新县火车站广场", "address": "河南省信阳市新县京九路新县站", "image": "", "rank": 30, "time": 2, "location": {"lat": 31.648349358790725, "lng": 114.89532952182466}, "feature": {"sight_features": "", "sight_content": ""}}, {"title": "千斤乡余店村张洼文化广场", "address": "河南省信阳市新县千斤乡余店村张洼文化广场", "image": "", "rank": 31, "time": 2, "location": {"lat": 31.747700585783022, "lng": 114.66991173569457}, "feature": {"sight_features": "", "sight_content": ""}}, {"title": "许世友将军故里", "address": "信阳市新县田铺乡河铺村许家洼东头的半山坡上", "image": "", "rank": 32, "time": 2, "location": {"lat": 31.48914322191314, "lng": 115.0022024204322}, "feature": {"sight_features": "", "sight_content": ""}}, {"title": "鄂豫皖苏区首府革命馆", "address": "城关首府路文博新村4号", "image": "", "rank": 33, "time": 2, "location": {"lat": 29.65833125291544, "lng": 91.14510035237143}, "feature": {"sight_features": "", "sight_content": ""}}, {"title": "新县科技馆", "address": "金兰大道南段", "image": "", "rank": 34, "time": 2.5, "location": {"lat": 31.570932268788287, "lng": 114.84035373215663}, "feature": {"sight_features": "", "sight_content": ""}}, {"title": "人民检察博物馆", "address": "014乡道", "image": "", "rank": 35, "time": 2, "location": {"lat": 47.886927740402655, "lng": 132.7138064036199}, "feature": {"sight_features": "", "sight_content": ""}}, {"title": "新县清茶园", "address": "省道213号(近解放路)", "image": "", "rank": 36, "time": 2, "location": {"lat": 38.31075478654948, "lng": 116.85852551801001}, "feature": {"sight_features": "", "sight_content": ""}}, {"title": "新县国土资源规划勘测队", "address": "龙泉路88号", "image": "", "rank": 37, "time": 2, "location": {"lat": 30.876831397658652, "lng": 121.5471203222536}, "feature": {"sight_features": "", "sight_content": ""}}, {"title": "一品红农家乐", "address": "014乡道附近", "image": "", "rank": 38, "time": 2, "location": {"lat": 47.886927740402655, "lng": 132.7138064036199}, "feature": {"sight_features": "", "sight_content": ""}}, {"title": "自然农家乐", "address": "金兰大道南段附近", "image": "", "rank": 39, "time": 2, "location": {"lat": 31.570932268788287, "lng": 114.84035373215663}, "feature": {"sight_features": "", "sight_content": ""}}, {"title": "许世友将军生平事迹陈列室", "address": "许世友将军故里", "image": "", "rank": 40, "time": 2, "location": {"lat": 31.489420773064328, "lng": 115.0009647117446}, "feature": {"sight_features": "", "sight_content": ""}}, {"title": "文学艺术馆", "address": "新集镇首府路89号", "image": "", "rank": 41, "time": 1.0, "location": {"lat": 31.627739535783537, "lng": 114.8815629000537}, "feature": {"sight_features": "", "sight_content": ""}}, {"title": "钓鱼王渔具", "address": "潢河南路米兰春天婚纱摄影机构西南侧", "image": "", "rank": 42, "time": 2, "location": {"lat": 31.63703930752878, "lng": 114.88200628299239}, "feature": {"sight_features": "", "sight_content": ""}}, {"title": "新县大别山地质公园", "address": "信阳市-新县-大别山地质公园(213省道西)", "image": "", "rank": 43, "time": 2, "location": {"lat": 31.581590644340576, "lng": 114.85015181984559}, "feature": {"sight_features": "", "sight_content": ""}}, {"title": "天台寺茗圃禅茶", "address": "黄冈市-红安县-天台山森林公园内", "image": "", "rank": 44, "time": 2, "location": {"lat": 31.53944765364368, "lng": 114.6130283278015}, "feature": {"sight_features": "", "sight_content": ""}}, {"title": "毛铺村", "address": "信阳市新县", "image": "", "rank": 45, "time": 2, "location": {"lat": 31.649738468474663, "lng": 114.8855247552342}, "feature": {"sight_features": "", "sight_content": ""}}]}