{"cityName": "新源", "days": 2, "cityImage": "", "spots": [{"title": "巩乃斯草原", "address": "伊犁新源县境内", "image": "", "rank": 1, "time": 3.0, "location": {"lat": 43.43592700218544, "lng": 83.26702230149687}, "feature": {"sight_features": "", "sight_content": ""}}, {"title": "西域酒文化博物馆", "address": "伊犁新源县肖尔布拉克镇", "image": "", "rank": 2, "time": 2, "location": {"lat": 43.458167766323314, "lng": 82.95866513147513}, "feature": {"sight_features": "", "sight_content": ""}}, {"title": "河谷草原", "address": "新疆伊犁州新源县境内", "image": "", "rank": 3, "time": 2.0, "location": {"lat": 43.43592700218544, "lng": 83.26702230149687}, "feature": {"sight_features": "", "sight_content": ""}}, {"title": "那拉提国家湿地公园", "address": "伊犁哈萨克自治州新源县肖尔布拉克镇洪土拜村", "image": "", "rank": 4, "time": 2, "location": {"lat": 43.53156670379135, "lng": 82.82245573758225}, "feature": {"sight_features": "", "sight_content": ""}}, {"title": "那拉提国际滑雪场", "address": "伊犁哈萨克自治州新源县别斯托别乡哈木斯特村", "image": "", "rank": 5, "time": 2, "location": {"lat": 43.45122486111487, "lng": 83.26895514647623}, "feature": {"sight_features": "", "sight_content": ""}}, {"title": "野果林风景区", "address": "新疆维吾尔自治区伊犁哈萨克自治州新源县阿勒玛勒乡野果林改良场（也叫团结村）果3 队", "image": "", "rank": 6, "time": 2, "location": {"lat": 43.42911139103858, "lng": 83.56774129978086}, "feature": {"sight_features": "", "sight_content": ""}}, {"title": "塔吾萨尼", "address": "新疆伊犁那拉提", "image": "", "rank": 7, "time": 2, "location": {"lat": 43.79923810128996, "lng": 87.63347320573824}, "feature": {"sight_features": "", "sight_content": ""}}, {"title": "雪莲谷", "address": "新疆伊犁那拉提", "image": "", "rank": 8, "time": 2, "location": {"lat": 43.79923810128996, "lng": 87.63347320573824}, "feature": {"sight_features": "", "sight_content": ""}}, {"title": "辉龙水上乐园", "address": "环城西路加油站向西100米", "image": "", "rank": 9, "time": null, "location": {"lat": 32.312403815855646, "lng": 118.30679342391771}, "feature": {"sight_features": "", "sight_content": ""}}, {"title": "柳树湾农家乐", "address": "幸福路34号", "image": "", "rank": 10, "time": 2, "location": {"lat": 31.044303482955268, "lng": 110.33849899622571}, "feature": {"sight_features": "", "sight_content": ""}}, {"title": "新源县开合园果蔬菜专业合作社", "address": "现代农业科技示范园培训中心附近", "image": "", "rank": 11, "time": 2, "location": {"lat": 43.4496755467305, "lng": 83.28592821892096}, "feature": {"sight_features": "", "sight_content": ""}}, {"title": "十亩地庄园", "address": "卡普河路(新大桥桥头)", "image": "", "rank": 12, "time": 2, "location": {"lat": 22.018939432495344, "lng": 100.81566764220173}, "feature": {"sight_features": "", "sight_content": ""}}, {"title": "家美轩农家乐", "address": "218国道", "image": "", "rank": 13, "time": 2, "location": {"lat": 43.96627958653867, "lng": 81.26740497993002}, "feature": {"sight_features": "", "sight_content": ""}}, {"title": "天界台", "address": "新疆伊犁那拉提", "image": "", "rank": 14, "time": 2, "location": {"lat": 43.79923810128996, "lng": 87.63347320573824}, "feature": {"sight_features": "", "sight_content": ""}}, {"title": "国地绿苑图书楼", "address": "218国道", "image": "", "rank": 16, "time": 2, "location": {"lat": 43.96627958653867, "lng": 81.26740497993002}, "feature": {"sight_features": "", "sight_content": ""}}, {"title": "唐加勒克纪念馆", "address": "316省道", "image": "", "rank": 17, "time": 2, "location": {"lat": 39.27101965917406, "lng": 117.82159346542433}, "feature": {"sight_features": "", "sight_content": ""}}, {"title": "野果林风景旅游区", "address": "234乡道", "image": "", "rank": 18, "time": 2, "location": {"lat": 22.788337799364324, "lng": 114.29368289243355}, "feature": {"sight_features": "", "sight_content": ""}}, {"title": "星河旅游山庄", "address": "那拉提镇", "image": "", "rank": 19, "time": 2, "location": {"lat": 43.33469068099668, "lng": 84.01030034455533}, "feature": {"sight_features": "", "sight_content": ""}}, {"title": "福瑞达农家乐", "address": "那拉提镇迎宾路521号", "image": "", "rank": 20, "time": 2, "location": {"lat": 43.33077558441214, "lng": 84.0229605108534}, "feature": {"sight_features": "", "sight_content": ""}}, {"title": "中大鳄鱼", "address": "新源镇文化路(广进对面)", "image": "", "rank": 21, "time": 2, "location": {"lat": 43.43971987579974, "lng": 83.26706476862036}, "feature": {"sight_features": "", "sight_content": ""}}, {"title": "商贸城美食休闲街", "address": "新疆维吾尔自治区新源县文化路", "image": "", "rank": 22, "time": 2, "location": {"lat": 43.43971987579974, "lng": 83.26706476862036}, "feature": {"sight_features": "", "sight_content": ""}}, {"title": "巩乃斯郭勒牧场", "address": "伊犁哈萨克自治州-新源县-那拉提镇", "image": "", "rank": 23, "time": 2, "location": {"lat": 43.33469068099668, "lng": 84.01030034455533}, "feature": {"sight_features": "", "sight_content": ""}}, {"title": "则克台镇", "address": "中国新疆维吾尔自治区伊犁哈萨克自治州新源县则克台镇", "image": "", "rank": 24, "time": 2, "location": {"lat": 43.54303105790995, "lng": 83.28707286630178}, "feature": {"sight_features": "", "sight_content": ""}}, {"title": "哈萨克第一村", "address": "伊犁州新源县那拉提草原西北方向约3.42公里（218国道北侧）", "image": "", "rank": 25, "time": 2, "location": {"lat": 43.248674067422655, "lng": 84.03447463569029}, "feature": {"sight_features": "", "sight_content": ""}}, {"title": "空中草原", "address": "新疆维吾尔自治区伊犁哈萨克自治州新源县", "image": "", "rank": 26, "time": 4.0, "location": {"lat": 43.43592700218544, "lng": 83.26702230149687}, "feature": {"sight_features": "", "sight_content": ""}}, {"title": "杏花沟", "address": "新疆维吾尔自治区伊犁哈萨克自治州新源县218国道附近", "image": "", "rank": 27, "time": 1.5, "location": {"lat": 43.337986195171055, "lng": 83.99170699010803}, "feature": {"sight_features": "", "sight_content": ""}}, {"title": "那拉提国家森林公园", "address": "伊犁哈萨克自治州新源县那拉提镇", "image": "", "rank": 28, "time": 4.0, "location": {"lat": 43.33469068099668, "lng": 84.01030034455533}, "feature": {"sight_features": "", "sight_content": ""}}, {"title": "吐尔根", "address": "新疆维吾尔自治区伊犁哈萨克自治州新源县吐尔根乡", "image": "", "rank": 29, "time": 2, "location": {"lat": 43.58425657909841, "lng": 83.41296266627238}, "feature": {"sight_features": "", "sight_content": ""}}, {"title": "那拉提旅游风景区", "address": "伊犁哈萨克自治州新源县那拉提镇那拉提旅游风景区", "image": "", "rank": 30, "time": 1.0, "location": {"lat": 43.30012039673229, "lng": 84.21868755788464}, "feature": {"sight_features": "特色1 全国最美的六大草原之一，草原上有雪山、森林、野花。 特色2 独特的自然景观、悠久的历史文化和浓郁的民族风情。", "sight_content": "那拉提旅游风景区，地处天山腹地，在被誉为“塞外江南”的伊犁河谷东端。位于东经85°17-28，北纬43°01-15之间，总规划面积960平方公里，平均海拔1800米，年降雨量在880毫米左右，夏季平均气温在20摄氏度左右，三面环山，巩乃斯河蜿蜒流过，可谓是“三面青山列翠屏，腰围玉带河纵横”，大自然的恩赐，使其形成了风光秀丽、环境幽雅、植被丰富的天然地貌。它以独特的自然景观、悠久的历史文化和浓郁的民族风情构成了独具特色的边塞风光。在新疆浩瀚大漠中，那拉提尤如一块镶嵌在黄绸缎上的翡翠，格外耀眼。这里山峦起伏，绿草如茵，既有草原的辽阔，又有溪水的柔美。既有群山的的俊秀，又有松林如涛的气势。她以特有的原始的自然风貌，向世人展示天山深处一道宛如立体画卷般的风景长廊。\n这里居住全国十分之一的以热情好客、能歌善舞而著称的天山儿女——哈萨克族。至今仍保留着浓郁古朴的民俗风情和丰富的草原文化，2005年4月，那拉提草原被上海吉尼斯世界总部授予“哈萨克人口最多的草原”。\n风景区自南向北由高山草原观光区、哈萨克民俗风情区、旅游生活区组成，截至2005年9月，那拉提旅游风景区旅游接待设施投资达3.6亿元，景区内包括牧民在内从事接待的景点共有290多处，直接从业人数达到2000余人，游客日接待量可达6000人，其中大中型宾馆床位达3200个。那拉提景区各项事业的发展，对促进当地的经济发展起到了积极的作用。\n那拉提风景区是伊犁州旅游的龙头景区，新疆有名景区之一，2004年被评为自治区级风景名胜区 ，2005年10月被评定为全国六大美的草原之一，12月被国家旅游局授予国家aaaa级风景区。那拉提风景区的资源、交通、区位优势显示了新源旅游业已成为朝阳产业。2006年6月，那拉提旅游支线机场的通航，又为那拉提风景区今后的发展插上了腾飞的翅膀。"}}]}