{"cityName": "信宜", "days": 2, "cityImage": "", "spots": [{"title": "天马山生态旅游区", "address": "茂名市信宜市北界镇旺将村的西南边", "image": "", "rank": 1, "time": 5.0, "location": {"lat": 22.4618957292521, "lng": 110.70985109991338}, "feature": {"sight_features": "特色1 每立方厘米拥有十万个负氧离子 特色2 夏无酷暑、冬无严寒，四季如春，世外桃源 特色3 给人以“返朴归真，回归自然”的感受", "sight_content": "天马山位于中国南玉之都、中国长寿之乡的广东省信宜市北界镇旺将村，系国家AAA旅游景区、广东省森林生态旅游示范基地、广东最美乡村旅游示范区、海外华人最爱的自然风光景区、广东省休闲农业与乡村旅游示范点。\n规划总面积20平方公里，已开发4平方公里，天马山是一个把充满野趣的自然山水风光与少数民族风情相结合开发的景区，这里有海拔1080米的高山万亩大草原，有最高落差40多米的爆布和观瀑玻璃桥，有每立方厘米10万多个负氧离子，这里森林原始、民风淳朴……，这里被誉为广东人的“香格里拉”。"}}, {"title": "石根山", "address": "茂名市信宜市朱砂镇207国道与209县道交叉口石根山风景旅游区", "image": "", "rank": 2, "time": 5.0, "location": {"lat": 22.53750536282486, "lng": 110.95349267509806}, "feature": {"sight_features": "特色1 体验原生态文明，寻找登山健体之乐", "sight_content": "广东省茂名信宜市石根山风景旅游区，占地面积5000亩，位于茂名信宜市北部的朱砂镇，地处两广交界，北与广西岑溪水汶镇毗陵，距信宜前去32公里，洛湛铁路信宜站仅33公里往在建的包茂高速公路水汶出口只有五分钟车程。与风景区擦边而过的207国道，与广东信宜市区和广西岑溪市区相连，交通十分便利。\n石根山风景旅游区是由信宜市石根山风景旅游区开发有限公司投巨资开发，以4a级旅游景区为标准，倾力打造的一家观光旅游、户外运动、康体娱乐、养生祈福、休闲度假、会议培训等功能为一体的综合生态度假旅游区。旅游区综合工程分三期进行，第一期工程项目于2009年2月18日动工，其中的公路工程、路灯工程、栈道工程、安全保障工程等全部完工，接待中心、原生态餐厅、两广风情演艺厅等已全部投入试运营，热情周到地迎接八方游客。试业后，第二、第三期工程将继续分期进行，计划将其打造成为以“原生态”为主题的粤西旅游第一品牌。\n旅游区内的石根山属云开山脉粤西最高的石质山体，海拔988米，以石的奇、特、秀、清闻名于世，是一座一脚踏两省的省界大山。石根山在山脚仰望山体，尤如一根顶天石柱，直耸云天，故名石根山；山间风光引人入胜，不仅有种类丰富的林木花卉，云雾缭绕的高山平湖，还有形状奇特，惟妙惟肖的奇石遍布山中，如：金扁担、金牛押、石炮、石人、石龙、石柱、石室、石台、石鼓、石龟、石洞等，极具观赏价值，且有种种传说；顺着栈道登上海拔650米处，有一个云雾缭绕的高山平瑚，雅号仙人湖，面积800平方米，水深约2米，清澈见底，湖光山色，如诗如画，美不胜收。\n穿越旅游区核心景区，倘徉山间，寻幽探胜，这里森林生态原始，树种繁多：既有漫山枫树、也有无花果、八角树等食用和药用的树种。\n旅游区内山体险峻，山间风光无限，自古以来是两广闻名，令人流连忘返的人间仙境，一年四季各具特色：春，绿意盎然，山花怒放，漫步山野，可以欣赏野花争艳，感受鸟唱虫鸣；夏，云雾缠绕群山，飘渺神秘，站在山腰，可以观看茫茫云海，体验人间仙境；秋，日出日落，红叶醉人，远看枫叶成林，层林尽染，近看，色彩斑斓，赏心悦目；冬，寒风萧瑟，放眼两广林海，郁郁葱葱，韵味十足。在政坛、商场、学海苦战疲惫的人们驻足期间，品偿日月轮回，体验沧海变幻，笑傲人间沧桑，别有一番滋味上心头。\n户外运动归来，会到两广风情演艺厅，观看原汁原味两广风情表演，欣赏韵味十足的两广文化，大饱眼福；进入原生态农家餐厅，品尝绿色无味精美食，体会山区饮食文化，大饱口福。"}}, {"title": "甲门峡漂流", "address": "茂名市信宜市地洞镇安匣村", "image": "", "rank": 3, "time": 2, "location": {"lat": 22.36009314172976, "lng": 110.95358169717407}, "feature": {"sight_features": "特色1 被誉为“粤西第一漂”。 特色2 形成落差大，河流水流量大，时而奔腾直下，激流澎湃；时而回旋幽谷、心旷神怡。 特色3 山间高含量的负离子幽谷空气清新，清澈的溪水散发着自然灵气，让人置身于仙境一般，将让您领略“激情穿越、仙境畅游”的独特神韵。", "sight_content": "甲门峡位于信宜市池洞镇东安闸村，距市区10多公里。由专业的公司设计、施工，河道是一段天然峡谷，全程落差90多米，有大小落差10多处，最大落差达8米多。形成落差大，河流水流量大，时而奔腾直下，激流澎湃；时而回旋幽谷、心旷神怡。\n\n景区美丽奇妙的石头河道，九曲十八弯。水清见底，鱼虾戏游。清潭、急滩、溪涧、瀑布、叠恋层出。怪石嶙峋，宏伟俊秀，天生丽质，难得一见。两岸百年野芋，真花稀草，争芳斗艳。天鹤展翅，蝴蝶裙舞。原始森林，犹如一幅幅清幽的长廊画卷，给人“山穷水尽疑无路，柳暗花明又一景”的奇妙感觉。山间高含量的负离子幽谷空气清新，清澈的溪水散发着自然灵气，让人置身于仙境一般，将让您领略“激情穿越、仙境畅游”的独特神韵。"}}, {"title": "白石中学", "address": "广东省茂名市信宜市629县道", "image": "", "rank": 4, "time": 1.5, "location": {"lat": 22.418198458830847, "lng": 111.08461276085207}, "feature": {"sight_features": "", "sight_content": ""}}, {"title": "林洲顶森林公园", "address": "广东省信宜市思贺镇大坪村", "image": "", "rank": 5, "time": 2, "location": {"lat": 22.41691515525012, "lng": 111.58220050577391}, "feature": {"sight_features": "", "sight_content": ""}}, {"title": "康乐水上乐园", "address": "茂名市信宜市", "image": "", "rank": 6, "time": 2.5, "location": {"lat": 22.36009314172976, "lng": 110.95358169717407}, "feature": {"sight_features": "", "sight_content": ""}}, {"title": "鹿湖顶自然保护区", "address": "广东省茂名信宜市280省道附近", "image": "", "rank": 7, "time": 2, "location": {"lat": 22.45448319205089, "lng": 111.50489379695043}, "feature": {"sight_features": "", "sight_content": ""}}, {"title": "大仁山风景区", "address": "广东省茂名信宜市大仁山风景区", "image": "", "rank": 8, "time": 2, "location": {"lat": 22.415872763241854, "lng": 110.92639528939853}, "feature": {"sight_features": "", "sight_content": ""}}, {"title": "盛韦图书馆", "address": "蒲垌村附近", "image": "", "rank": 9, "time": 2, "location": {"lat": 22.441629598219798, "lng": 110.8842983360612}, "feature": {"sight_features": "", "sight_content": ""}}, {"title": "镇隆三叉海露天温泉", "address": "前进街", "image": "", "rank": 10, "time": 2, "location": {"lat": 40.07552617449867, "lng": 116.58039443423205}, "feature": {"sight_features": "", "sight_content": ""}}, {"title": "信宜市林业科学研究所", "address": "竹山路307号", "image": "", "rank": 11, "time": 5.0, "location": {"lat": 31.943178898199942, "lng": 118.85260655567988}, "feature": {"sight_features": "", "sight_content": ""}}, {"title": "百富广场", "address": "信宜人民南路137号", "image": "", "rank": 12, "time": null, "location": {"lat": 22.349085451714476, "lng": 110.94487173693338}, "feature": {"sight_features": "", "sight_content": ""}}, {"title": "玉都公园-欢乐世界游乐场", "address": "玉都公园", "image": "", "rank": 13, "time": 2, "location": {"lat": 22.36879899236993, "lng": 110.94213381662315}, "feature": {"sight_features": "", "sight_content": ""}}, {"title": "信宜市高城水库湿地公园", "address": "379乡道", "image": "", "rank": 14, "time": 5.0, "location": {"lat": 24.898889471096023, "lng": 114.97616313730867}, "feature": {"sight_features": "", "sight_content": ""}}, {"title": "潮州风吹岭石刻群", "address": "广东省饶平县风吹岭 515700", "image": "", "rank": 15, "time": 0.5, "location": {"lat": 23.593095948499077, "lng": 117.10953541766794}, "feature": {"sight_features": "", "sight_content": ""}}, {"title": "大沙六宵社文艺舞台", "address": "648县道附近", "image": "", "rank": 16, "time": 2, "location": {"lat": 25.54995686721413, "lng": 105.51409093932546}, "feature": {"sight_features": "", "sight_content": ""}}, {"title": "双山农村青年科技活动中心", "address": "广东省信宜市双山村648县道附近", "image": "", "rank": 17, "time": 2, "location": {"lat": 22.290940420033056, "lng": 110.99872595073255}, "feature": {"sight_features": "", "sight_content": ""}}, {"title": "街心公园", "address": "广东省茂名市信宜市水口镇邮政局水口支局东北100米", "image": "", "rank": 18, "time": 2, "location": {"lat": 22.259940815305303, "lng": 110.93051642312766}, "feature": {"sight_features": "", "sight_content": ""}}, {"title": "大成古庙", "address": "629县道附近", "image": "", "rank": 19, "time": 2, "location": {"lat": 22.418198458830847, "lng": 111.08461276085207}, "feature": {"sight_features": "", "sight_content": ""}}, {"title": "旺同公园", "address": "376乡道与G65包茂高速交叉口东南100米", "image": "", "rank": 20, "time": 2, "location": {"lat": 27.965161367921887, "lng": 109.65655062091317}, "feature": {"sight_features": "", "sight_content": ""}}, {"title": "淘金湾公园", "address": "茂名市信宜市林业街商铺51号", "image": "", "rank": 21, "time": 2, "location": {"lat": 22.357735963015575, "lng": 110.95079596195801}, "feature": {"sight_features": "", "sight_content": ""}}, {"title": "平坡村文化广场", "address": "广东省茂名市信宜市银湖东路", "image": "", "rank": 22, "time": 2, "location": {"lat": 22.337651302882147, "lng": 110.94458813998754}, "feature": {"sight_features": "", "sight_content": ""}}, {"title": "丁堡森林公园", "address": "广东省茂名市信宜市山背村水南山", "image": "", "rank": 23, "time": 2, "location": {"lat": 22.31131716685148, "lng": 110.9489829909987}, "feature": {"sight_features": "", "sight_content": ""}}, {"title": "九龙庙", "address": "405乡道附近", "image": "", "rank": 24, "time": 1.5, "location": {"lat": 47.186214122038976, "lng": 131.7008465681751}, "feature": {"sight_features": "", "sight_content": ""}}, {"title": "考拉大冒险儿童主题乐园", "address": "广东省茂名市信宜市新里七路", "image": "", "rank": 25, "time": 2, "location": {"lat": 22.3619814274373, "lng": 110.9417735017917}, "feature": {"sight_features": "", "sight_content": ""}}, {"title": "太尉庙", "address": "651县道附近", "image": "", "rank": 26, "time": 2, "location": {"lat": 24.172103561213664, "lng": 108.62050038166625}, "feature": {"sight_features": "", "sight_content": ""}}, {"title": "关帝庙", "address": "369省道附近", "image": "", "rank": 27, "time": 0.5, "location": {"lat": 22.314710722401447, "lng": 112.26017352880507}, "feature": {"sight_features": "", "sight_content": ""}}, {"title": "崑棠宝公园", "address": "381乡道文昌村附近", "image": "", "rank": 28, "time": 2, "location": {"lat": 22.381295908154105, "lng": 110.96077613617057}, "feature": {"sight_features": "", "sight_content": ""}}, {"title": "简坡村文化广场", "address": "648县道简坡村附近", "image": "", "rank": 29, "time": null, "location": {"lat": 32.08628758241037, "lng": 112.33370733724277}, "feature": {"sight_features": "", "sight_content": ""}}, {"title": "王京腰文化广场", "address": "370省道附近", "image": "", "rank": 30, "time": 2, "location": {"lat": 22.375769204243735, "lng": 111.1189981889822}, "feature": {"sight_features": "", "sight_content": ""}}, {"title": "松墩游击交通站纪念馆", "address": "339乡道附近", "image": "", "rank": 31, "time": 2, "location": {"lat": 34.01610990540846, "lng": 119.07269858308551}, "feature": {"sight_features": "", "sight_content": ""}}, {"title": "虎跳峡旅游区", "address": "广东省茂名市信宜市", "image": "", "rank": 32, "time": 2, "location": {"lat": 22.36009314172976, "lng": 110.95358169717407}, "feature": {"sight_features": "", "sight_content": ""}}, {"title": "梅岗公园", "address": "金湖东路与双思路交汇处", "image": "", "rank": 33, "time": 2, "location": {"lat": 22.354706977680888, "lng": 110.95705927764962}, "feature": {"sight_features": "", "sight_content": ""}}, {"title": "石泉庙", "address": "649县道附近", "image": "", "rank": 34, "time": 2, "location": {"lat": 22.525529912589803, "lng": 110.82329065757494}, "feature": {"sight_features": "", "sight_content": ""}}, {"title": "沙田庙", "address": "352省道附近", "image": "", "rank": 35, "time": 2, "location": {"lat": 34.68894666244106, "lng": 118.25389409887667}, "feature": {"sight_features": "", "sight_content": ""}}, {"title": "锡三公祠", "address": "207国道", "image": "", "rank": 36, "time": 2, "location": {"lat": 38.67484937592033, "lng": 114.04837902844483}, "feature": {"sight_features": "", "sight_content": ""}}, {"title": "信宜市梅岗公园公园管理处", "address": "双思路与金湖东路交叉口西南50米", "image": "", "rank": 37, "time": 5.0, "location": {"lat": 22.35442699802998, "lng": 110.95647782515422}, "feature": {"sight_features": "", "sight_content": ""}}, {"title": "古圣庙", "address": "280省道附近", "image": "", "rank": 38, "time": 2, "location": {"lat": 22.083450557944655, "lng": 111.03914655459893}, "feature": {"sight_features": "", "sight_content": ""}}, {"title": "镇隆古城", "address": "广东省信宜市镇隆镇八坊村", "image": "", "rank": 39, "time": 2, "location": {"lat": 22.21744478803808, "lng": 110.88653414211883}, "feature": {"sight_features": "", "sight_content": ""}}, {"title": "信宜科学馆", "address": "中兴路85号", "image": "", "rank": 40, "time": 1.5, "location": {"lat": 38.030603044555704, "lng": 115.06742399978079}, "feature": {"sight_features": "", "sight_content": ""}}, {"title": "太阳城游乐场", "address": "新城二路", "image": "", "rank": 41, "time": 2.5, "location": {"lat": 41.88994760717486, "lng": 123.91754051822423}, "feature": {"sight_features": "", "sight_content": ""}}, {"title": "木子轩画廊", "address": "中兴街33号", "image": "", "rank": 42, "time": 2, "location": {"lat": 38.85242581403802, "lng": 114.20441283154408}, "feature": {"sight_features": "", "sight_content": ""}}, {"title": "信宜高远艺术画廊", "address": "信宜银湖西路(实验学校往人民医院方向河堤水闸下50米)", "image": "", "rank": 43, "time": 5.0, "location": {"lat": 22.34360145872408, "lng": 110.94662628559574}, "feature": {"sight_features": "", "sight_content": ""}}, {"title": "淘金湾", "address": "淘金湾广场(近锦江桥)", "image": "", "rank": 44, "time": 2, "location": {"lat": 21.87893197989912, "lng": 111.98600619572282}, "feature": {"sight_features": "", "sight_content": ""}}, {"title": "文化馆交谊舞培训班", "address": "新里二路116附近", "image": "", "rank": 45, "time": 2, "location": {"lat": 22.360856130668658, "lng": 110.94212102565102}, "feature": {"sight_features": "", "sight_content": ""}}, {"title": "奇幻3D画馆", "address": "梅南西路城南车站对面(富丽宾馆路口往迎宾大道方向100米)", "image": "", "rank": 46, "time": 2, "location": {"lat": 22.35010223430466, "lng": 110.94491555527803}, "feature": {"sight_features": "", "sight_content": ""}}, {"title": "龙玄峡漂流", "address": "洪冠镇龙玄峡龙玄峡漂流景区", "image": "", "rank": 47, "time": 2, "location": {"lat": 22.489886969980446, "lng": 111.13300133638593}, "feature": {"sight_features": "", "sight_content": ""}}, {"title": "信宜市洪英龙狮武术团", "address": "沿江路附近", "image": "", "rank": 48, "time": 5.0, "location": {"lat": 23.121864282887806, "lng": 113.28399612328477}, "feature": {"sight_features": "", "sight_content": ""}}, {"title": "飞觅共享书吧", "address": "银湖西路车保姆旁栋4楼", "image": "", "rank": 49, "time": 2, "location": {"lat": 23.123723211571512, "lng": 113.00755557690684}, "feature": {"sight_features": "", "sight_content": ""}}, {"title": "大洪国皇宫旧址", "address": "广东省信宜市镇隆镇八坊村文明街", "image": "", "rank": 50, "time": 2, "location": {"lat": 22.21744478803808, "lng": 110.88653414211883}, "feature": {"sight_features": "", "sight_content": ""}}, {"title": "信宜市优质稻产品展示中心", "address": "广东省信宜市人民南路", "image": "", "rank": 51, "time": 5.0, "location": {"lat": 22.349222017979503, "lng": 110.94509542478684}, "feature": {"sight_features": "", "sight_content": ""}}, {"title": "远航步行街", "address": "广东省信宜市新城路", "image": "", "rank": 52, "time": 2, "location": {"lat": 22.357441155408097, "lng": 110.94195451664004}, "feature": {"sight_features": "", "sight_content": ""}}, {"title": "南山垌", "address": "茂名市-信宜市-二八零省道", "image": "", "rank": 53, "time": 2, "location": {"lat": 22.45448319205089, "lng": 111.50489379695043}, "feature": {"sight_features": "", "sight_content": ""}}, {"title": "石印风景旅游区", "address": "广东茂名信宜市647县道石印风景旅游区", "image": "", "rank": 54, "time": 2, "location": {"lat": 22.44828478253903, "lng": 111.38482933676516}, "feature": {"sight_features": "", "sight_content": ""}}, {"title": "信宜大田顶", "address": "广东省信宜市大成镇", "image": "", "rank": 55, "time": 5.0, "location": {"lat": 22.29259560125825, "lng": 111.15443742020403}, "feature": {"sight_features": "", "sight_content": ""}}, {"title": "大雾岭旅游区", "address": "广东省信宜市大成镇", "image": "", "rank": 56, "time": 2, "location": {"lat": 22.29259560125825, "lng": 111.15443742020403}, "feature": {"sight_features": "", "sight_content": ""}}, {"title": "太华山", "address": "广东省信宜市东镇镇庄垌村", "image": "", "rank": 57, "time": 1.5, "location": {"lat": 22.353977713284852, "lng": 110.94942883080283}, "feature": {"sight_features": "", "sight_content": ""}}, {"title": "镇隆古书院", "address": "广东省信宜市镇隆镇", "image": "", "rank": 58, "time": 2, "location": {"lat": 22.209329588344072, "lng": 110.88417133722149}, "feature": {"sight_features": "", "sight_content": ""}}, {"title": "茂名大雾岭", "address": "广东省茂名市大雾岭", "image": "", "rank": 59, "time": 5.0, "location": {"lat": 22.461675639792105, "lng": 110.70983096080215}, "feature": {"sight_features": "", "sight_content": ""}}]}