{"cityName": "新野", "days": 2, "cityImage": "", "spots": [{"title": "白河湿地公园", "address": "河南省新野县境内", "image": "", "rank": 1, "time": 3.0, "location": {"lat": 32.52663177881783, "lng": 112.36654962384021}, "feature": {"sight_features": "", "sight_content": ""}}, {"title": "南阳白河", "address": "河南省新野县城关镇", "image": "", "rank": 2, "time": 2.0, "location": {"lat": 32.52176480818497, "lng": 112.3682721399268}, "feature": {"sight_features": "", "sight_content": ""}}, {"title": "三里河景区", "address": "河南新野城北新区", "image": "", "rank": 3, "time": null, "location": {"lat": 32.52663177881783, "lng": 112.36654962384021}, "feature": {"sight_features": "", "sight_content": ""}}, {"title": "人文纪念公园", "address": "青浦区外青松公路7270号福寿园", "image": "", "rank": 4, "time": 1.0, "location": {"lat": 31.117877869038054, "lng": 121.13797319801571}, "feature": {"sight_features": "", "sight_content": ""}}, {"title": "梦世界水上乐园", "address": "汉华路华纺宾馆东300米", "image": "", "rank": 5, "time": null, "location": {"lat": 32.541219115331074, "lng": 112.39087915061137}, "feature": {"sight_features": "", "sight_content": ""}}, {"title": "建辉蔬菜专业合作社", "address": "王庄镇新都路220号", "image": "", "rank": 6, "time": 2, "location": {"lat": 32.4006662279744, "lng": 112.43743473197148}, "feature": {"sight_features": "", "sight_content": ""}}, {"title": "民康缘红蓝黑树莓采摘基地", "address": "黄太岗镇", "image": "", "rank": 7, "time": 2, "location": {"lat": 32.661699211011026, "lng": 112.46734893606421}, "feature": {"sight_features": "", "sight_content": ""}}, {"title": "正大剧场", "address": "书院路附近", "image": "", "rank": 8, "time": 2, "location": {"lat": 31.59803376132417, "lng": 120.13300024447663}, "feature": {"sight_features": "", "sight_content": ""}}, {"title": "新野县福晟生态园", "address": "244省道南100米", "image": "", "rank": 9, "time": 2, "location": {"lat": 41.64682715998161, "lng": 115.6109952071258}, "feature": {"sight_features": "", "sight_content": ""}}, {"title": "小神童室内主题乐园", "address": "解放路vivo号附近", "image": "", "rank": 10, "time": 2, "location": {"lat": 28.24289300842165, "lng": 117.04044538717197}, "feature": {"sight_features": "", "sight_content": ""}}, {"title": "佛甘露", "address": "河南省南阳市新野县朝阳路", "image": "", "rank": 11, "time": 2, "location": {"lat": 32.53593666429516, "lng": 112.37998170945284}, "feature": {"sight_features": "", "sight_content": ""}}, {"title": "白河滩湿地公园", "address": "滨河大道附近", "image": "", "rank": 12, "time": 2, "location": {"lat": 35.577103347384345, "lng": 110.70954352208794}, "feature": {"sight_features": "", "sight_content": ""}}, {"title": "王氏宗祠", "address": "河南省南阳市新野县上庄乡樊湾村小王庄", "image": "", "rank": 13, "time": 2, "location": {"lat": 32.68363396223322, "lng": 112.42780291883578}, "feature": {"sight_features": "", "sight_content": ""}}, {"title": "新野汉画砖博物馆", "address": "解放路92号", "image": "", "rank": 14, "time": 2, "location": {"lat": 38.92076255904043, "lng": 121.64484336929256}, "feature": {"sight_features": "", "sight_content": ""}}, {"title": "上庄法制文化广场", "address": "河南省南阳市新野县上庄乡爱家购物中心东1000米", "image": "", "rank": 15, "time": 2, "location": {"lat": 32.66039399848065, "lng": 112.38536067481263}, "feature": {"sight_features": "", "sight_content": ""}}, {"title": "恒辉生态园", "address": "城郊乡大桥路东头", "image": "", "rank": 16, "time": 2, "location": {"lat": 26.140546977757882, "lng": 113.12003097338352}, "feature": {"sight_features": "", "sight_content": ""}}, {"title": "八柏山庄园", "address": "244省道", "image": "", "rank": 17, "time": 2, "location": {"lat": 41.647500974269505, "lng": 115.6109952071258}, "feature": {"sight_features": "", "sight_content": ""}}, {"title": "红渠农庄", "address": "施南大道", "image": "", "rank": 18, "time": 2, "location": {"lat": 32.59670940173452, "lng": 112.55889578777277}, "feature": {"sight_features": "", "sight_content": ""}}, {"title": "段堡村垂钓", "address": "103省道东100米", "image": "", "rank": 19, "time": 2, "location": {"lat": 39.16211906866746, "lng": 117.46753263680507}, "feature": {"sight_features": "", "sight_content": ""}}, {"title": "新龙农家生态园", "address": "003乡道西50米", "image": "", "rank": 20, "time": 3.5, "location": {"lat": 22.60919886263197, "lng": 114.24644262262933}, "feature": {"sight_features": "", "sight_content": ""}}, {"title": "猴艺之乡大舞台", "address": "039县道附近", "image": "", "rank": 21, "time": 2, "location": {"lat": 36.68717095509474, "lng": 118.68402676181123}, "feature": {"sight_features": "", "sight_content": ""}}, {"title": "新野恒怡玫瑰湾生态农业庄园", "address": "高速连线大电视向北时埠口站牌右转即可", "image": "", "rank": 22, "time": 2, "location": {"lat": 33.62344112428859, "lng": 114.58192678750264}, "feature": {"sight_features": "", "sight_content": ""}}, {"title": "新野金府街", "address": "河南省新野县解放路", "image": "", "rank": 23, "time": 2, "location": {"lat": 32.550953051229946, "lng": 112.37557041495786}, "feature": {"sight_features": "", "sight_content": ""}}, {"title": "宇信凯旋城展示中心", "address": "河南省新野县103省道", "image": "", "rank": 24, "time": 2, "location": {"lat": 32.58132615649555, "lng": 112.44020133328111}, "feature": {"sight_features": "", "sight_content": ""}}]}