{"cityName": "新余", "days": "", "cityImage": "", "spots": [{"title": "仙女湖", "address": "新余市渝水区西南郊16公里处仙女湖风景区", "image": "", "rank": 1, "time": 1.0, "location": {"lat": 27.728166270496846, "lng": 114.79985629736592}, "feature": {"sight_features": "特色1 七仙女传说之乡", "sight_content": "仙女湖是人文荟萃的宝地。千百年来，在吴楚文化的交融熏陶下，这方灵山秀水文风绵绵，孕育了和谐、包容、卓越、创新的人文精神，涌现出了江西历史上第一个状元唐代的卢肇、北宋江南第一个宰相王钦若、明朝一代权臣严嵩、清代爱国名将张春发、现代国画大师傅抱石、当代医学巨子何大一等名家巨匠，成就了17世纪世界科技巨著《天工开物》，遗留下了万年古桥、昌山古庙、洪阳古洞、圣集古寺、习祖古墓、摩崖石刻、卢肇读书台等众多人文胜迹。\n\n\n仙女湖是爱情起源的圣地。1700年前，东晋文学家干宝在《搜神记》记载了“毛衣女下凡豫章新喻县”的神话故事，这是我国最早具有文字记述“仙女下凡”溯源地的史料佐证。这一“凡仙绝恋”千年传唱，逐步演绎成具有中国本土特色的“七夕情人节”，对后世文学及传统文化产生了深远影响，因而被列入江西省非物质文化遗产。每年的七夕，仙女湖都会举办盛大的水上集体婚礼以纪念这一文化传统。2015年8月，中国民间文艺家协会授予仙女湖“中国七仙女传说之乡”称号，仙女湖被推崇为“爱情圣地”和“演绎爱情经典的摇篮”。\n\n\n仙女湖是风景如画的胜地。汇聚奇峰、峡谷、岛屿、曲水、泉洞于一域，拥有仙女湖、大岗山、钟山峡、仰天岗国家森林公园、孔目江国家湿地公园等一批天然景致，森林覆盖率达97%以上，空气清新，气候适宜，是新余的“天然氧吧”和“城市绿肺”。仙女湖旅游资源十分丰富，以“群岛峡谷曲水、植物基因宝库、水下千年古城”三绝而著称，是长株潭、长三角、珠三角等地游客的重要旅游目的地。"}}, {"title": "昌坊度假村", "address": "新余市渝水区欧里镇昌坊村", "image": "", "rank": 2, "time": 2, "location": {"lat": 27.925989489647684, "lng": 114.8258934831402}, "feature": {"sight_features": "", "sight_content": ""}}, {"title": "中国洞都", "address": "新余市分宜县东北部洞村乡境内", "image": "", "rank": 3, "time": 2.5, "location": {"lat": 28.01027387268829, "lng": 114.827342072639}, "feature": {"sight_features": "", "sight_content": ""}}, {"title": "凯光新天地新余国家亚热带植物园", "address": "新余市渝水区龙盘隧道出口凯光新天地", "image": "", "rank": 4, "time": 2, "location": {"lat": 27.836104282667996, "lng": 114.88061826916287}, "feature": {"sight_features": "特色1 1200多种亚热带植物，是广大植物爱好者的朝圣之地", "sight_content": "‍‍‍‍‍‍\n凯光新天地旅游度假区是凯光集团旗下休闲旅游产业之一，位于新余市仰天岗国家森林公园西北面，总占地面积6200亩，总投资15亿元。并由哈佛归国博士、北大景观设计院俞孔坚院长亲自担纲领衔，集合深圳东部华侨城国家5A级景区设计人员、意大利设计专家倾情打造。\n景区以亚热带植物园为生态基地，以绿色低碳、尊重自然为核心理念，以展现亚热带植物为特色，利用反规划、低冲击开发的手法，形成集浪漫山水风光、植物科普教育、非遗文化体验、高端服务配套为一体的生态文化休闲旅游度假区。\n先后荣获全国5A乡村旅游景点、全国森林康养基地试点建设单位、江西省省级林业龙头企业、江西省优秀科普示范基地、江西省文化产业示范基地。\n亚热带植物园是集科学研究、植物种质保存和科学教育等综合功能为一体的重要场所，植物园得到了中国林科院亚热带林业实验中心和中科院北京植物研究所提供的植物资源和技术支持，并列入了中国林科院亚热带林业实验中心和中科院植物研究所的研究基地。亚热带植物园共有植物1200多种。\n亚热带植物园门票实行一票通，凭景区门票您可以游览七彩花海、热带植物观光馆、农耕文化科普体验园，还能畅玩海盗船、小摆锤、青蛙跳、飞椅、五彩魔幻球、儿童亲子乐园、梦幻飞碟、熊猫的士高、少儿拓展、小火车等近20项游乐项目。"}}, {"title": "百丈峰", "address": "新余市渝水区306乡道", "image": "", "rank": 5, "time": 2, "location": {"lat": 27.80683965044363, "lng": 114.95142389340262}, "feature": {"sight_features": "", "sight_content": ""}}, {"title": "5D动感奇遇馆", "address": "新余市北湖星城步步高3楼", "image": "", "rank": 6, "time": 2, "location": {"lat": 27.803393765086113, "lng": 114.94488906936222}, "feature": {"sight_features": "", "sight_content": ""}}, {"title": "3D互艺世界", "address": "新余分宜博物馆", "image": "", "rank": 7, "time": 2, "location": {"lat": 27.825908610495713, "lng": 114.69552732543775}, "feature": {"sight_features": "", "sight_content": ""}}, {"title": "大岗山瀑布", "address": "江西新余大岗山", "image": "", "rank": 8, "time": 2, "location": {"lat": 27.65837988381035, "lng": 114.60291631140859}, "feature": {"sight_features": "", "sight_content": ""}}, {"title": "孔目江国家湿地公园", "address": "新余市渝水区沿江路", "image": "", "rank": 9, "time": 2, "location": {"lat": 27.838442191453876, "lng": 114.94848270012994}, "feature": {"sight_features": "", "sight_content": ""}}, {"title": "仙女湖国际乡村俱乐部", "address": "新余市渝水区仙女湖风景名胜区新码头环湖路", "image": "", "rank": 10, "time": 2, "location": {"lat": 27.728166270496846, "lng": 114.79985629736592}, "feature": {"sight_features": "", "sight_content": ""}}, {"title": "仰天岗森林公园", "address": "新余市渝水区城北办事处仰天岗", "image": "", "rank": 11, "time": 2, "location": {"lat": 27.853532763588234, "lng": 114.9031499766857}, "feature": {"sight_features": "", "sight_content": ""}}, {"title": "凤凰山遗址", "address": "分宜县湖泽镇铁坑村", "image": "", "rank": 12, "time": 2, "location": {"lat": 27.857173359659146, "lng": 114.7554636892647}, "feature": {"sight_features": "", "sight_content": ""}}, {"title": "韩创大型3D魔幻城", "address": "新余市渝水区渝东大道3208号广成建材家居2楼", "image": "", "rank": 13, "time": 2, "location": {"lat": 27.828584425682674, "lng": 114.97528998435327}, "feature": {"sight_features": "", "sight_content": ""}}, {"title": "洪阳洞", "address": "新余市渝水区袁岭第三峰南麓", "image": "", "rank": 14, "time": 2, "location": {"lat": 27.80683965044363, "lng": 114.95142389340262}, "feature": {"sight_features": "", "sight_content": ""}}, {"title": "凯光欢乐谷水公园", "address": "新余市渝水区仰天岗龙盘隧道出口处（新余国家亚热带植物园北50米）", "image": "", "rank": 15, "time": 2, "location": {"lat": 27.836104282667996, "lng": 114.88061826916287}, "feature": {"sight_features": "", "sight_content": "“凯光欢乐谷水公园”是由新余市凯光投资有限公司投资建设的游乐主题度假区项目，项目占地面积3万平方米,总投资概算1亿元。水公园位于生态优美、环境宜人的新余凯光亚热带植物园内，是集绿色生态回归、游园嬉水、休闲度假等于一体的大型水上主题乐园。作为中部地区大型水上主题乐园之一，园内汇集有多项世界尖端水上娱乐项目如：儿童滑道组合、戏水小品、互动水寨、鼓风造浪池、巨龙传奇滑道、螺旋滑梯、旋风小喇叭等7大项目。\n结合绚丽的水上舞台演出、夜场星光派对等多彩表演，让游客在体验刺激享受愉悦的同时，感受独特的亚热带风情元素的丛林主题水上乐园，是目前新余乃至赣西地区环境最佳、游玩项目最丰富、最刺激、最好玩、最充满乐趣的大型水上狂欢乐园。\n凯光欢乐谷水公园七大游乐项目，今夏震撼来袭，清凉一夏！"}}, {"title": "抱石公园", "address": "新余市渝水区建设路西端龙虎山", "image": "", "rank": 16, "time": 2, "location": {"lat": 27.80683965044363, "lng": 114.95142389340262}, "feature": {"sight_features": "", "sight_content": ""}}, {"title": "新余欢乐大世界水上乐园", "address": "新余市仰天岗西大道2186号", "image": "", "rank": 17, "time": 2, "location": {"lat": 27.841252028628247, "lng": 114.92751336238007}, "feature": {"sight_features": "", "sight_content": ""}}, {"title": "新余欢乐大世界陆地欢乐园", "address": "新余市仰天岗西大道2186号", "image": "", "rank": 18, "time": 2, "location": {"lat": 27.841252028628247, "lng": 114.92751336238007}, "feature": {"sight_features": "", "sight_content": "陆地欢乐园，宏大震撼，惊现奇妙。让我们乘坐新余最大规模的摩天轮，换个角度看看秀美的新余。再乘坐“云霄跳跃”、“太空飞翔”穿梭在蓝天白云间，感受极速翻转带来的疯狂快感！陆地欢乐园旋转木马营造童真无邪，温馨浪漫的气氛，“激流勇进、海盗船、神州飞碟”等等园区超多游乐项目，尽情释放你的所有压力，“太空漫步”让你悠闲游览整个园区！"}}, {"title": "水北草原", "address": "新余市渝水区076乡道", "image": "", "rank": 19, "time": 2, "location": {"lat": 27.80683965044363, "lng": 114.95142389340262}, "feature": {"sight_features": "", "sight_content": ""}}, {"title": "新余今日百花欢乐大世界", "address": "新余市渝水区欧里镇兰花博览园（变电站斜对面）", "image": "", "rank": 20, "time": 2, "location": {"lat": 27.94388093741617, "lng": 114.84339512177515}, "feature": {"sight_features": "", "sight_content": ""}}, {"title": "罗坊会议纪念馆", "address": "新余市渝水区罗坊镇", "image": "", "rank": 21, "time": 2, "location": {"lat": 27.857808380050518, "lng": 115.12539874032697}, "feature": {"sight_features": "", "sight_content": ""}}, {"title": "傅抱石纪念馆", "address": "江苏省南京市鼓楼区汉曰路132号", "image": "", "rank": 22, "time": 0.5, "location": {"lat": 32.07240516055662, "lng": 118.7765189920351}, "feature": {"sight_features": "", "sight_content": ""}}, {"title": "欢乐世界儿童主题乐园", "address": "长青北路692号附近", "image": "", "rank": 23, "time": 2, "location": {"lat": 24.493783522149585, "lng": 118.12567705088712}, "feature": {"sight_features": "", "sight_content": ""}}, {"title": "仙女湖圣集寺", "address": "仙女湖风景区内", "image": "", "rank": 24, "time": 2, "location": {"lat": 31.212113194916512, "lng": 121.44419275808994}, "feature": {"sight_features": "", "sight_content": ""}}, {"title": "严嵩故里", "address": "江西省新余市分宜县城郊东南角", "image": "", "rank": 25, "time": 2, "location": {"lat": 27.820731344374416, "lng": 114.69847247035635}, "feature": {"sight_features": "", "sight_content": ""}}, {"title": "稻草人农业园", "address": "罗坊镇红军东路2号罗坊人民政府100米内", "image": "", "rank": 26, "time": 2, "location": {"lat": 27.857960345149426, "lng": 115.1253284901412}, "feature": {"sight_features": "", "sight_content": ""}}, {"title": "动感乐园", "address": "仙来中大道德克士附近", "image": "", "rank": 27, "time": 2, "location": {"lat": 27.823778129983207, "lng": 114.92869553243081}, "feature": {"sight_features": "", "sight_content": ""}}, {"title": "水魔方动漫水上乐园", "address": "惠兴路188号钢都现代城银河幼儿园正对面", "image": "", "rank": 28, "time": 2, "location": {"lat": 27.803651387805523, "lng": 114.92700425042739}, "feature": {"sight_features": "", "sight_content": ""}}, {"title": "彩色石村", "address": "江西省新余市渝水区赛维大道", "image": "", "rank": 29, "time": 2.5, "location": {"lat": 27.844112065926844, "lng": 114.98889570523002}, "feature": {"sight_features": "", "sight_content": ""}}, {"title": "天工大剧院", "address": "抱石大道179号", "image": "", "rank": 30, "time": 2, "location": {"lat": 27.806266422859885, "lng": 114.95195256775439}, "feature": {"sight_features": "", "sight_content": ""}}, {"title": "彩色水上游泳乐园", "address": "过盘龙隧道300米左侧", "image": "", "rank": 31, "time": 2, "location": {"lat": 31.3078442973568, "lng": 120.68941843781828}, "feature": {"sight_features": "", "sight_content": ""}}, {"title": "分宜县图书馆", "address": "天工北大道47附近", "image": "", "rank": 32, "time": 2, "location": {"lat": 27.819582612339754, "lng": 114.90406321890423}, "feature": {"sight_features": "", "sight_content": ""}}, {"title": "长治古城", "address": "山西省屯留县屯留县境内 046100", "image": "", "rank": 33, "time": 1.5, "location": {"lat": 36.34260975107634, "lng": 112.75036278967234}, "feature": {"sight_features": "", "sight_content": ""}}, {"title": "东湖百菜园", "address": "岭北东路118号(分宜县体育馆)", "image": "", "rank": 34, "time": 2, "location": {"lat": 27.827525966972804, "lng": 114.69980944270065}, "feature": {"sight_features": "", "sight_content": ""}}, {"title": "新余市科技馆", "address": "江西省新余市北湖西路26号", "image": "", "rank": 35, "time": null, "location": {"lat": 27.828311728778445, "lng": 114.921483820816}, "feature": {"sight_features": "", "sight_content": ""}}, {"title": "民间珍宝馆", "address": "江西省新余市渝水区仰天岗西大道", "image": "", "rank": 36, "time": 2, "location": {"lat": 27.840695270613672, "lng": 114.92234145464542}, "feature": {"sight_features": "", "sight_content": ""}}, {"title": "新余市规划展览馆", "address": "江西省新余市北湖中路560号", "image": "", "rank": 37, "time": 2, "location": {"lat": 27.828489251940233, "lng": 114.92280968381607}, "feature": {"sight_features": "", "sight_content": ""}}, {"title": "御景美食广场", "address": "新欣北大道与飞宇路交叉口东南50米", "image": "", "rank": 38, "time": 2, "location": {"lat": 27.83276604441816, "lng": 114.95585652444858}, "feature": {"sight_features": "", "sight_content": ""}}, {"title": "桥边沙场", "address": "江西省新余市分宜县X291", "image": "", "rank": 39, "time": 2, "location": {"lat": 27.820731344374416, "lng": 114.69847247035635}, "feature": {"sight_features": "", "sight_content": ""}}, {"title": "小贝勒儿童主题乐园", "address": "名仕公馆9栋104", "image": "", "rank": 40, "time": 2, "location": {"lat": 27.82602223024317, "lng": 114.91596686944355}, "feature": {"sight_features": "", "sight_content": ""}}, {"title": "江西省抗战博物馆", "address": "抱石公园内", "image": "", "rank": 41, "time": 2, "location": {"lat": 27.80805606595527, "lng": 114.9362193135831}, "feature": {"sight_features": "", "sight_content": ""}}, {"title": "Q秀儿童主题乐园", "address": "江西省新余市渝水区公园北路98号高能广场3层", "image": "", "rank": 42, "time": 2, "location": {"lat": 27.804964688185034, "lng": 114.93897107039326}, "feature": {"sight_features": "", "sight_content": ""}}, {"title": "公园一号早餐店", "address": "江西省新余市渝水区公园北路261", "image": "", "rank": 43, "time": 2, "location": {"lat": 27.808291343385633, "lng": 114.94012626073632}, "feature": {"sight_features": "", "sight_content": ""}}, {"title": "南湖公园", "address": "新余市渝水区解放东路198号", "image": "", "rank": 44, "time": 2.5, "location": {"lat": 27.811667814611333, "lng": 114.94993942983936}, "feature": {"sight_features": "", "sight_content": ""}}, {"title": "百花湖", "address": "江西省新余市渝水区解放东路13-3号", "image": "", "rank": 45, "time": 2.5, "location": {"lat": 27.811246197938605, "lng": 114.95430098628901}, "feature": {"sight_features": "", "sight_content": ""}}, {"title": "大成殿", "address": "魁星阁路406号附近", "image": "", "rank": 46, "time": 1.0, "location": {"lat": 27.800567633290648, "lng": 114.94753722785431}, "feature": {"sight_features": "", "sight_content": ""}}, {"title": "亲子欢乐城堡", "address": "新余市渝水区胜利北路160号步步高百货F5", "image": "", "rank": 47, "time": 2, "location": {"lat": 27.809930466426135, "lng": 114.94534410422153}, "feature": {"sight_features": "", "sight_content": ""}}, {"title": "花溪祠堂", "address": "江西省新余市渝水区南安乡花溪", "image": "", "rank": 48, "time": 2, "location": {"lat": 27.79043344740308, "lng": 115.23823475975392}, "feature": {"sight_features": "", "sight_content": ""}}, {"title": "金栗禅寺", "address": "江西省新余市分宜县分宜镇石门森林公园北350米", "image": "", "rank": 49, "time": 2, "location": {"lat": 27.80466793570312, "lng": 114.67303406898395}, "feature": {"sight_features": "", "sight_content": ""}}, {"title": "清风亭", "address": "江西省新余市分宜县钤山西路", "image": "", "rank": 50, "time": 2, "location": {"lat": 27.81939145486191, "lng": 114.67805986373423}, "feature": {"sight_features": "", "sight_content": ""}}, {"title": "开心岛趣味冲关乐园", "address": "新余市渝水区", "image": "", "rank": 51, "time": 2, "location": {"lat": 27.80683965044363, "lng": 114.95142389340262}, "feature": {"sight_features": "", "sight_content": ""}}, {"title": "开心宝儿童乐园", "address": "仙来东大道502号", "image": "", "rank": 52, "time": 7.5, "location": {"lat": 27.8255623091051, "lng": 114.94303470448502}, "feature": {"sight_features": "", "sight_content": ""}}, {"title": "嘻多哆儿童乐园", "address": "江西省新余市渝水区罗新北大道", "image": "", "rank": 53, "time": 2, "location": {"lat": 27.86157637626807, "lng": 115.11913556926255}, "feature": {"sight_features": "", "sight_content": ""}}, {"title": "抱石公园-游乐园", "address": "公园北路与白竹路交叉口西南100米", "image": "", "rank": 54, "time": 2, "location": {"lat": 27.80577204688566, "lng": 114.94011737290163}, "feature": {"sight_features": "", "sight_content": ""}}, {"title": "科普展示馆", "address": "北湖西路16", "image": "", "rank": 55, "time": 2, "location": {"lat": 27.8282298250278, "lng": 114.92162161998287}, "feature": {"sight_features": "", "sight_content": ""}}, {"title": "开心玩国儿童主题乐园(毛家店)", "address": "城北毛家路富民市场富佳超市2楼(毛家菜场2楼)", "image": "", "rank": 56, "time": 2, "location": {"lat": 36.656293630836586, "lng": 101.77240488175582}, "feature": {"sight_features": "", "sight_content": ""}}, {"title": "童话屋亲子乐园", "address": "江西省新余市渝水区长青北路凯光华府20栋106号店面(法院对面)", "image": "", "rank": 57, "time": 2, "location": {"lat": 27.84069445328881, "lng": 114.9286023520986}, "feature": {"sight_features": "", "sight_content": ""}}, {"title": "滨江公园", "address": "沿江路358号附近", "image": "", "rank": 58, "time": 3.5, "location": {"lat": 27.821775575634664, "lng": 114.9527384269736}, "feature": {"sight_features": "", "sight_content": ""}}, {"title": "基督教堂", "address": "307县道附近", "image": "", "rank": 59, "time": 2.0, "location": {"lat": 34.230589100612704, "lng": 117.37898801014482}, "feature": {"sight_features": "", "sight_content": ""}}, {"title": "基督教堂", "address": "303县道附近", "image": "", "rank": 60, "time": null, "location": {"lat": 31.672789553142973, "lng": 120.34790344096838}, "feature": {"sight_features": "", "sight_content": ""}}]}