{"cityName": "新沂", "days": 2, "cityImage": "", "spots": [{"title": "窑湾古镇", "address": "徐州市新沂市窑湾镇", "image": "", "rank": 1, "time": 4.5, "location": {"lat": 34.21492648993361, "lng": 118.09858819093556}, "feature": {"sight_features": "特色1 有“黄金水道金三角”、“苏北水域胜江南”之美誉及“小上海”之称。 特色2 穿越去千年古镇，看江南古韵。 特色3 “鸡鸣闻四县”、“东望与海、南瞰淮泗、西顾彭城、北瞻泰岱”。", "sight_content": "窑湾古镇国家4A级旅游景区，位于新沂市西南边缘，京杭大运河及骆马湖交汇处，与宿迁、睢宁、邳州三市县相连，是一座具有千年历史、闻名全国的水乡古镇。素有“东望于海，西顾彭城，南瞰淮泗，北瞻泰岱”之描述和“黄金水道金三角”、“苏北水域胜江南”之美誉及“小上海”之称。\n\n窑湾集古镇景观、水泊景观、名胜古迹、神话仙境于一体，具有很高的观赏、游览和历史研究价值。千年古镇窑湾历史文化悠久而灿烂。据典籍记载，这里，东周时属钟吾国辖地。秦汉时，作为军需品烧窑处。唐时，位于邳州、海州交界处，因周边窑多，故称窑湾。千年运河百道湾，黄金分割在窑湾；千年古槐，见证了古镇窑湾的兴衰；后院酱缸，雕琢着岁月久远的痕迹；老式建筑，散发出浓厚的文化气息。她像苏南的周庄有湖有水，水网相连；她又像山西的平遥，有着古老的街巷，文化相袭数千年。窑湾古镇人文历史景观厚重。古镇始建于唐朝初期，随着明清漕运和盐业的兴盛，昔日店铺栉比，商贾云集，街上行人如织，水上舟楫连绵。古镇中，城门、楼、店、院、宫、寺、庙、殿，自宋至清，代有营建。古老的街巷、宅院、会馆、作坊、商行、货栈、典当、码头等古镇昔日风貌仍基本犹存。\n\n总体布局为四大景区：西大街景区以千年古槐、吴家大院、赵信隆酱园店为核心景区，精华所在；南大街景区以马祖文化中心为民俗特色；运河大堤景区，以运河、骆马湖游船观光为特色；中心河水韵休闲区，以画舫琴韵、月影听琴、美食文化为特色，传承古镇千年古韵。四大景区古老建筑景观与人文景观相映成趣。清代乾隆皇帝第四次南巡微服私访窑湾，顺“望月楼”向西看到大运河船来船往，桅杆如同竹林，便吟诗道：“南通州，北通州，南北通州通南北”。纪晓岚接吟道：“东当铺，西当铺，东西当铺当东西”。形象赞美了昔日窑湾古镇的盛况。\n\n窑湾古窑湾自古是兵家必争之地，项羽、韩信、刘备、岳飞、徐达、刘伯温、臧圩青、臧位高等历史人物都曾率军驻扎窑湾，利用奇门遁甲八卦迷阵抵抗敌军。1945年10月，陈毅、粟裕指挥新四军消灭窑湾日伪军，将号称“小上海”的窑湾改设窑湾市。1948年11月，淮海战役在窑湾激战，华东野战军击败固守在窑湾的国民党六十三军。\n\n窑湾古镇以其独特的古老建筑风格，倚河傍湖的水域风光，丰厚而古老的历史文化遗存。古民居、古街道、古店铺、古码头、古遗存，铸就了窑湾古镇的文化品位与文化内涵，它是古运河文化在民间传承的真实写照。古老的街巷、宅院、会馆、作坊、商行、货栈、典当、码头等古镇昔日风貌仍基本犹存。古镇三面环水，碧波粼粼，景色秀丽；街巷独具一格，院舍青砖灰瓦，亭台楼阁交错，形胜之美称于江淮，自来为中国大运河第一古镇和游览胜地。为提升窑湾古镇旅游业的档次和品味，四年多来，古镇景区投入保护和开发资金7.2亿元，修建房屋813多间，疏通后河及护城河500多米，架设景观桥5座，新建停车场10万平方米；完成了吴家大院、赵信隆酱园店、东当典、西当典、中国典当博物馆、窑湾民俗博物馆、大清窑湾邮局等10个景点的建设，古镇景区实现了新的跨越，吸引了大批中外游客，旅游业的优势已逐步凸现。"}}, {"title": "马陵山风景名胜区", "address": "徐州市新沂市马陵山镇", "image": "", "rank": 2, "time": 4.5, "location": {"lat": 34.2078072321585, "lng": 118.38691699606626}, "feature": {"sight_features": "特色1 马陵山为丹霞地貌，拥有大片竹林，丘陵与湖泊错落，风景秀丽。", "sight_content": "马陵山位于新沂市南郊。北起山东兰山，南抵宿迁。江苏省风景名胜区马陵山位于新沂市区南10公里处，古称司吾山，亦称吾山。马陵山风景名胜区约60平方公里，规划面积28.9平方公里。总体布局为三大景区：三仙洞景区为核心景区，精华所在，面积 11.8平方公里。\n景区以其奇特的自在景观、丰富的历史文化内涵和种类繁多的动植物资源著称。清代乾隆皇帝六度南巡，三幸司吾山，写下了 “钟吾漫道才拳石，早具江山秀几分”的诗句，形象地赞美了马陵山的瑰美。它由峰山、斗山、虎山、奶奶山和黄花菜岭五座山组成，当地人称为“五姊妹山”。群山之中以峰山五华顶为主峰，形胜之美 ，称于江淮。黄巢湖景区以自然野趣和水上活动为特色，面积11.28平方公里；花厅景区以“花厅古文化遗址”的丰富历史文化内涵为主要内容，具有科普游览功能，面积6.82平方公里。"}}, {"title": "迎宾公园", "address": "徐州市新沂市迎宾大道东侧", "image": "", "rank": 3, "time": 0.75, "location": {"lat": 34.3584716274068, "lng": 118.35737089870707}, "feature": {"sight_features": "", "sight_content": ""}}, {"title": "人民公园", "address": "徐州市新沂市市府路54号", "image": "", "rank": 4, "time": 2.5, "location": {"lat": 34.375952845519045, "lng": 118.35214617419996}, "feature": {"sight_features": "", "sight_content": ""}}, {"title": "古墩村农民乐园", "address": "徐州市新沂市古墩村", "image": "", "rank": 5, "time": 1.0, "location": {"lat": 34.31669426427299, "lng": 118.13618935337894}, "feature": {"sight_features": "", "sight_content": ""}}, {"title": "踢球山水上乐园", "address": "徐州市新沂市时集镇踢球山万亩桃园", "image": "", "rank": 6, "time": 2, "location": {"lat": 34.275413896344446, "lng": 118.42515576857417}, "feature": {"sight_features": "", "sight_content": ""}}, {"title": "新沂水上乐园", "address": "徐州市新沂天翼国际酒店斜对面205国道新沂东与323省道交汇处", "image": "", "rank": 7, "time": 1.0, "location": {"lat": 34.35032185482885, "lng": 118.45781924117172}, "feature": {"sight_features": "", "sight_content": "新沂水上乐园现代化的配套设备，水上娱乐设施，优雅的环境，各种不同的玩水活动形成一个富有激情、充满动感、欢乐浪漫的水世界。数十项儿童戏水设施的儿童超炫戏水区，给小朋友一个不一样的玩水体验。"}}, {"title": "北马陵水上乐园", "address": "徐州市新沂市京沪高速孔圩村部队营房西侧", "image": "", "rank": 8, "time": 2, "location": {"lat": 34.4187501753516, "lng": 118.40611459508605}, "feature": {"sight_features": "", "sight_content": ""}}, {"title": "神山钓友垂钓园", "address": "大桥东路18号", "image": "", "rank": 9, "time": 2, "location": {"lat": 34.358802935203606, "lng": 118.37759067777009}, "feature": {"sight_features": "", "sight_content": ""}}, {"title": "沭东生态园", "address": "市府东路", "image": "", "rank": 10, "time": 2, "location": {"lat": 36.20885329371788, "lng": 117.10018586969328}, "feature": {"sight_features": "", "sight_content": ""}}, {"title": "动漫水世界水上乐园(体育场店)", "address": "幸福路体育场北门(网球场内)", "image": "", "rank": 11, "time": 2, "location": {"lat": 38.52721882703604, "lng": 114.98977143432737}, "feature": {"sight_features": "", "sight_content": ""}}, {"title": "江苏瑞诚农业科技有限公司(南门)", "address": "徐海西路164号附近", "image": "", "rank": 12, "time": 2, "location": {"lat": 34.384070829403356, "lng": 118.30040947012584}, "feature": {"sight_features": "", "sight_content": ""}}, {"title": "来洋垂钓中心", "address": "209县道附近", "image": "", "rank": 13, "time": 2, "location": {"lat": 39.67314235956417, "lng": 115.47328128939358}, "feature": {"sight_features": "", "sight_content": ""}}, {"title": "新沂市田园花卉", "address": "徐海西路南50米", "image": "", "rank": 14, "time": 4.5, "location": {"lat": 34.3836393221983, "lng": 118.30724682475945}, "feature": {"sight_features": "", "sight_content": ""}}, {"title": "马场", "address": "新沂5路", "image": "", "rank": 15, "time": 2, "location": {"lat": 34.37561095463685, "lng": 118.36153652101795}, "feature": {"sight_features": "", "sight_content": ""}}, {"title": "人民公社生态园", "address": "瓦窑镇邳新路人民公社生态园", "image": "", "rank": 16, "time": 2, "location": {"lat": 34.38361500443609, "lng": 118.27290961316619}, "feature": {"sight_features": "", "sight_content": ""}}, {"title": "窑湾水上乐园", "address": "江苏省徐州市新沂市X211", "image": "", "rank": 17, "time": 2, "location": {"lat": 34.37561095463685, "lng": 118.36153652101795}, "feature": {"sight_features": "", "sight_content": ""}}, {"title": "盛世水族馆", "address": "江苏省徐州市新沂市晏王线", "image": "", "rank": 18, "time": 2, "location": {"lat": 34.2522130770313, "lng": 118.13158515316555}, "feature": {"sight_features": "", "sight_content": ""}}, {"title": "禅堂古寺", "address": "徐州市新沂市", "image": "", "rank": 19, "time": 2, "location": {"lat": 34.37561095463685, "lng": 118.36153652101795}, "feature": {"sight_features": "", "sight_content": ""}}, {"title": "新沂市时集镇大周基督教堂", "address": "江苏省徐州市新沂市时集镇大周村沟北组", "image": "", "rank": 20, "time": 4.5, "location": {"lat": 34.19977515269743, "lng": 118.49170715628108}, "feature": {"sight_features": "", "sight_content": ""}}, {"title": "小海豚儿童乐园", "address": "其他瓦窑镇新街道通政路镇政府对面", "image": "", "rank": 21, "time": 2, "location": {"lat": 34.377645046326066, "lng": 118.24076051838841}, "feature": {"sight_features": "", "sight_content": ""}}, {"title": "开心城堡儿童乐园", "address": "建业路卫生局宿舍楼新沂市人民体育场2层", "image": "", "rank": 22, "time": 2, "location": {"lat": 34.371337375489674, "lng": 118.34911468415477}, "feature": {"sight_features": "", "sight_content": ""}}, {"title": "第一家多肉植物园", "address": "幸福路90号附近", "image": "", "rank": 23, "time": 2, "location": {"lat": 45.72180344756785, "lng": 126.65874989959615}, "feature": {"sight_features": "", "sight_content": ""}}, {"title": "新鑫水上乐园", "address": "墨冲路41号新安西路墨河街道今喜来对面", "image": "", "rank": 24, "time": 2, "location": {"lat": 34.380525126166184, "lng": 118.31505973093242}, "feature": {"sight_features": "", "sight_content": ""}}, {"title": "沭滨公园", "address": "临沭南路与花厅路交叉口南150米", "image": "", "rank": 25, "time": 2, "location": {"lat": 34.3636750210069, "lng": 118.3662572143882}, "feature": {"sight_features": "", "sight_content": ""}}, {"title": "酷客儿童乐园", "address": "江苏省徐州市新沂市公园路", "image": "", "rank": 26, "time": 2, "location": {"lat": 34.37614967429152, "lng": 118.3539659974343}, "feature": {"sight_features": "", "sight_content": ""}}, {"title": "碰碰车乐园", "address": "江苏省徐州市新沂市新安街道幸福路人民体育场", "image": "", "rank": 27, "time": 2, "location": {"lat": 34.371337375489674, "lng": 118.34911468415477}, "feature": {"sight_features": "", "sight_content": ""}}, {"title": "东进奥兰多水上乐园", "address": "北沟镇上海华联超市东行10米(原东进浴池)", "image": "", "rank": 28, "time": 2, "location": {"lat": 31.043622322058173, "lng": 121.69698512365295}, "feature": {"sight_features": "", "sight_content": ""}}, {"title": "咔咔乐儿童乐园", "address": "市府东路万恒东一号南门东侧", "image": "", "rank": 29, "time": 2, "location": {"lat": 34.37897699152866, "lng": 118.3811846184544}, "feature": {"sight_features": "", "sight_content": ""}}, {"title": "尚湖基督教堂", "address": "江苏省徐州市新沂市双塘镇尚湖村境内", "image": "", "rank": 30, "time": 2, "location": {"lat": 34.38965851067089, "lng": 118.50985764907641}, "feature": {"sight_features": "", "sight_content": ""}}, {"title": "新沂影剧院", "address": "江苏省徐州市新沂市南京路52号", "image": "", "rank": 31, "time": 4.5, "location": {"lat": 34.37663662305786, "lng": 118.36030458484157}, "feature": {"sight_features": "", "sight_content": ""}}, {"title": "Maling Shaolin Kung Fu Academy", "address": "江苏省新沂市 221400", "image": "", "rank": 32, "time": 2, "location": {"lat": 34.37561095463685, "lng": 118.36153652101795}, "feature": {"sight_features": "", "sight_content": ""}}, {"title": "新沂市名家文化艺术品收藏馆", "address": "江苏省新沂市安庆巷附近", "image": "", "rank": 33, "time": 4.5, "location": {"lat": 34.37367414226929, "lng": 118.36442071051884}, "feature": {"sight_features": "", "sight_content": ""}}, {"title": "新街口小鱼滩", "address": "江苏省徐州市新沂市坝头振兴南路草桥镇综合文化站附近", "image": "", "rank": 34, "time": 2, "location": {"lat": 34.34675553947562, "lng": 118.09897526179675}, "feature": {"sight_features": "", "sight_content": ""}}, {"title": "宝贝乐翻天儿童乐园", "address": "北沟街道罗马名城华联超市", "image": "", "rank": 35, "time": 2, "location": {"lat": 34.3834723007626, "lng": 118.37733927978667}, "feature": {"sight_features": "", "sight_content": ""}}, {"title": "沙河湿地公园景观带", "address": "323省道", "image": "", "rank": 36, "time": 2.0, "location": {"lat": 34.446399847459865, "lng": 118.679905964047}, "feature": {"sight_features": "", "sight_content": ""}}, {"title": "儿童乐园", "address": "徐州市新沂市公园路162号", "image": "", "rank": 37, "time": 2, "location": {"lat": 34.377327757490534, "lng": 118.35356182901202}, "feature": {"sight_features": "", "sight_content": ""}}, {"title": "新段教会", "address": "江苏省徐州市新沂市新安西路141", "image": "", "rank": 38, "time": 2, "location": {"lat": 34.38057953531258, "lng": 118.32409327830915}, "feature": {"sight_features": "", "sight_content": ""}}, {"title": "江苏省徐州市新沂市公园路", "address": "公园路与花厅路交叉口北150米", "image": "", "rank": 39, "time": null, "location": {"lat": 34.36761754732839, "lng": 118.35351033555757}, "feature": {"sight_features": "", "sight_content": ""}}, {"title": "顾宅", "address": "江苏省徐州市新沂市", "image": "", "rank": 40, "time": 2, "location": {"lat": 34.37561095463685, "lng": 118.36153652101795}, "feature": {"sight_features": "", "sight_content": ""}}, {"title": "七彩儿童乐园", "address": "江苏省徐州市新沂市X210(合窑线)", "image": "", "rank": 41, "time": 2, "location": {"lat": 34.1871300227069, "lng": 118.0787945024302}, "feature": {"sight_features": "", "sight_content": ""}}, {"title": "戚沟教会", "address": "港新线附近", "image": "", "rank": 42, "time": 2, "location": {"lat": 34.19148590529484, "lng": 118.24676924352092}, "feature": {"sight_features": "", "sight_content": ""}}, {"title": "沭滨平安法治文化公园", "address": "江苏省徐州市新沂市大桥路", "image": "", "rank": 43, "time": 2, "location": {"lat": 34.36351768348803, "lng": 118.36078020437179}, "feature": {"sight_features": "", "sight_content": ""}}, {"title": "新沂市林头基督教堂", "address": "江苏省徐州市新沂市X202(安潼线)", "image": "", "rank": 44, "time": 4.5, "location": {"lat": 34.31703904963791, "lng": 118.58798715995898}, "feature": {"sight_features": "", "sight_content": ""}}, {"title": "站前广场", "address": "环城西路与钟吾南路交叉口西北100米", "image": "", "rank": 45, "time": 2, "location": {"lat": 39.754319199493544, "lng": 118.4675874287618}, "feature": {"sight_features": "", "sight_content": ""}}, {"title": "站前广场", "address": "徐海路附近", "image": "", "rank": 46, "time": 2, "location": {"lat": 34.38565256054298, "lng": 118.3525394972675}, "feature": {"sight_features": "", "sight_content": ""}}, {"title": "大白鲨儿童主题乐园", "address": "南京路22号莱迪广场三楼", "image": "", "rank": 47, "time": 2, "location": {"lat": 34.38168312770264, "lng": 118.35781352257764}, "feature": {"sight_features": "", "sight_content": ""}}, {"title": "梦剧场", "address": "江苏省徐州市新沂市X307(振兴路)", "image": "", "rank": 48, "time": 2, "location": {"lat": 34.206920946732566, "lng": 118.36796713084168}, "feature": {"sight_features": "", "sight_content": ""}}, {"title": "金水湾度假村", "address": "徐州市新沂市窑湾镇308县道骆马湖", "image": "", "rank": 49, "time": 2, "location": {"lat": 34.22728398910302, "lng": 118.15567238627962}, "feature": {"sight_features": "", "sight_content": ""}}, {"title": "崇德广场", "address": "合窑线商场旅社旁", "image": "", "rank": 50, "time": 2, "location": {"lat": 34.1871300227069, "lng": 118.0787945024302}, "feature": {"sight_features": "", "sight_content": ""}}, {"title": "北斗公园", "address": "徐州市邳州市", "image": "", "rank": 51, "time": 2, "location": {"lat": 34.339753160806566, "lng": 117.963410663065}, "feature": {"sight_features": "", "sight_content": ""}}, {"title": "海星岛儿童乐园", "address": "苏果超市南100米", "image": "", "rank": 52, "time": 2, "location": {"lat": 37.869461583118685, "lng": 112.59042066262793}, "feature": {"sight_features": "", "sight_content": ""}}, {"title": "名人陶瓷艺术博物馆", "address": "江苏省徐州市新沂市徐海路168-120", "image": "", "rank": 53, "time": 2, "location": {"lat": 34.38512930605192, "lng": 118.34770742659029}, "feature": {"sight_features": "", "sight_content": ""}}, {"title": "基督教堂(草桥镇陈圩社区卫生服...", "address": "江苏省徐州市新沂市草桥镇陈圩合窑线基督教堂", "image": "", "rank": 54, "time": 2, "location": {"lat": 34.21467539914411, "lng": 118.09514905254485}, "feature": {"sight_features": "", "sight_content": ""}}, {"title": "徐州玉林度假村", "address": "银杏园大酒店附近", "image": "", "rank": 55, "time": 2.5, "location": {"lat": 32.12717378993638, "lng": 114.07668894693069}, "feature": {"sight_features": "", "sight_content": ""}}, {"title": "基督教堂(高场社区卫生服务站西)", "address": "江苏省徐州市新沂市草桥镇基督教堂", "image": "", "rank": 56, "time": 2, "location": {"lat": 34.21467539914411, "lng": 118.09514905254485}, "feature": {"sight_features": "", "sight_content": ""}}, {"title": "黄墩寺遗址", "address": "沙冲子附近", "image": "", "rank": 57, "time": 2, "location": {"lat": 34.41760664155035, "lng": 118.36472385179793}, "feature": {"sight_features": "", "sight_content": ""}}, {"title": "天下武林书画院", "address": "郯新路", "image": "", "rank": 58, "time": 2, "location": {"lat": 34.396739607892265, "lng": 118.34477128628515}, "feature": {"sight_features": "", "sight_content": ""}}, {"title": "钟吾博物馆", "address": "帛绣步行街", "image": "", "rank": 59, "time": 2, "location": {"lat": 34.37198712264887, "lng": 118.3607923647335}, "feature": {"sight_features": "", "sight_content": ""}}, {"title": "心连心工友图书室", "address": "北京西路", "image": "", "rank": 60, "time": 2, "location": {"lat": 31.709484244998613, "lng": 119.98522590060921}, "feature": {"sight_features": "", "sight_content": ""}}]}