{"cityName": "新郑", "days": 2, "cityImage": "", "spots": [{"title": "黄帝故里", "address": "郑州市新郑市轩辕路1号轩辕丘", "image": "", "rank": 1, "time": 2.5, "location": {"lat": 34.40660549432816, "lng": 113.73366434048484}, "feature": {"sight_features": "", "sight_content": ""}}, {"title": "始祖山", "address": "郑州市新郑市辛店镇", "image": "", "rank": 2, "time": 2.5, "location": {"lat": 34.387261490296176, "lng": 113.60316231313263}, "feature": {"sight_features": "", "sight_content": ""}}, {"title": "郑州园博园", "address": "郑州市新郑市029乡道与富航路交汇处", "image": "", "rank": 3, "time": 3.0, "location": {"lat": 34.430002292562115, "lng": 113.56907267274134}, "feature": {"sight_features": "特色1 园林园艺，各具特色。 特色2 郑州近郊景点，环境舒适，休闲放松。", "sight_content": "【景区介绍】\n第十一届中国（郑州）国际园林博览会于2017年9月29日开幕，会期八个月，这也是“国际郑”举办的一次历时最长、规模大的国际性园林盛会。园博会至今已经举办十届，分别在大连、南京、上海、广州、深圳、厦门、重庆、北京、武汉等城市举办。此次在郑州举办，国际参展城市数量创了历届之最。郑州园博园规划为“一园三区”，三区总面积6180亩，包括园博园（园博园A区）、双鹤湖中央公园（园博园B区）、苑陵故城遗址公园（园博园C区），三个园区采取差异化定位，同步规划，同步建设，同步开园，三区总面积6180亩，大约相当于13.6个人民公园。\n园博园A区位于郑州航空港经济综合实验区新港十一路以北、园博路以南、南水北调河以东、仓储二街以西的区域。以“绿色生态”为主题，主要承担包括园林博览、国内外造园艺术、主题景观等国内外主要城市园林展览的功能，与国家级文保项目苑陵故城有机结合。\n园博园B区（双鹤湖中央公园）位于郑州航空港经济综合实验区双鹤湖片区内，具体位置为人民东路以北、梅河东路以东、雁鸣路以西、志洋路以南的区域以“科技生态”为主题，建设一个完全不同于传统的崭新园博会展区，同时建设一座既先于城市又融于城市的中央公园\n园博园C区（苑陵故城遗址公园）位于郑州航空港经济综合实验区新港十一路以北、苑陵西路以东、雁鸣路以西、省道S102以南的区域。分内城和外城两部分，其中内城占地1500亩，是重点文物保护单位\n园内制高点楼阁建筑“轩辕阁”，主展馆“华夏馆”，园内九座车行、人行桥、园区主湖“同心湖”，均是一大看点郑州园博园室外展园众多，其中河南山水豫园规模大。豫园传承中国传统园林文化精神，结合优美的山水园林环境塑造，营造诗经园、李诫堂、百姓书院等多个景点。园博园汇聚东西南北园林精髓，同时又紧绕主题，尽显华夏特色。咱们就从东西南北四个方位各挑一个代表来说说吧:"}}, {"title": "新郑博物馆", "address": "郑州市新郑市轩辕路西段，黄帝故里西侧300米处", "image": "", "rank": 4, "time": 2.5, "location": {"lat": 34.40697570073658, "lng": 113.73137313053583}, "feature": {"sight_features": "", "sight_content": ""}}, {"title": "枣香村生态旅游观光园", "address": "郑州市新郑市郑新快速路与双湖大道交叉口东6.6公里处路南", "image": "", "rank": 5, "time": 2, "location": {"lat": 34.61798976101011, "lng": 113.74557026432416}, "feature": {"sight_features": "", "sight_content": ""}}, {"title": "新郑枣乡", "address": "河南新郑市国际机场工业区好想你大道6号好想你枣业股份有限公司。", "image": "", "rank": 6, "time": 2, "location": {"lat": 34.557075920081026, "lng": 113.8380670893807}, "feature": {"sight_features": "", "sight_content": ""}}, {"title": "后周皇陵", "address": "郑州市新郑市郭店镇附近，主要在陵上村、陵后村", "image": "", "rank": 7, "time": 1.5, "location": {"lat": 34.570026614437445, "lng": 113.710316073246}, "feature": {"sight_features": "", "sight_content": ""}}, {"title": "拉维斯薰衣草庄园", "address": "新郑市新村镇拉维斯农业庄园（原二十里铺村）", "image": "", "rank": 8, "time": 2, "location": {"lat": 34.475135634236814, "lng": 113.73201342204233}, "feature": {"sight_features": "", "sight_content": ""}}, {"title": "郑王陵博物馆", "address": "河南省郑州市新郑市文化路", "image": "", "rank": 9, "time": 2, "location": {"lat": 34.399854469734414, "lng": 113.74257467685528}, "feature": {"sight_features": "", "sight_content": ""}}, {"title": "拉维斯梦幻水世界", "address": "新郑市新村镇拉维斯农业公园（原二十里铺村）", "image": "", "rank": 10, "time": 3.0, "location": {"lat": 34.475135634236814, "lng": 113.73201342204233}, "feature": {"sight_features": "", "sight_content": ""}}, {"title": "郑韩故城", "address": "郑州市新郑市区周围，双洎河与黄水河交汇处。", "image": "", "rank": 11, "time": 1.0, "location": {"lat": 34.352889571005875, "lng": 113.77545710423445}, "feature": {"sight_features": "", "sight_content": ""}}, {"title": "千稼集景区", "address": "郑州市新郑市龙湖镇会盟大道与阳光路交叉", "image": "", "rank": 12, "time": 2.5, "location": {"lat": 34.58949907896627, "lng": 113.65403240465375}, "feature": {"sight_features": "特色1 千稼集是以“乡土的味道，年轮的烙印 ”为文化核心，运用经典历史场景还原再现的形式呈现民国初期至今的农村文化主题景区！", "sight_content": "千稼集，环泰山而建,全长2公里。2006年，在新郑泰山村党支部书记乔宗旺的主持下，在原有荒山荒沟的基础上别出心裁建设而成。规划为红色文化教育区、民国风情展示区、原味乡村体验区、轩辕文化街以及大型主题乐园五大主题篇章，总建筑面积为22万平方米。\n千稼集是以“乡土的味道，年轮的烙印 ”为文化核心，运用经典历史场景还原再现的形式呈现民国初期至今的农村文化主题景区。分为“红色文化教育基地”“民国风情街” “原味乡村民俗街”“轩辕文化街”“ 大型主题乐园 ”5个主题。营造出不同的场景和街区设置。以游客体验式为主，让游客留得住乡愁。\n红色文化教育基地：涵盖红色文化纪念品项、革命战争雕塑展示、红色文化博物馆、红色教育展馆等。 红色文化教育基地是以红色旅游为宗旨，红色旅游是以中国共产党领导人民在革命战争时期形成的纪念地、标志物为载体，以其所承载的革命历史、事迹和精神为内涵，组织接待旅游者开展缅怀学习、参观游览的主题性旅游活动。红色文化教育基地设有旅游纪念品、红色文化学习类、摄影等项目  ，以强烈的文化符号给游客留下深刻的印象。\n民国风情街：集中体现崇尚民主与科学，这一时期各行各业都渗透着民主化和科学化的将神追求，同事建筑也追求完美主义的浪漫气息，代表有中山公馆、上海滩演艺厅等。休闲类、手工点心类、部分农副产品加工类、茶馆类、棋牌类统一向民国区集中。当游客在乡村区品尝民俗小吃后，需要安静的休息场所，这时民国区将从动过渡到静，咖啡屋、果汁坊、棋牌室、茶馆等项目，可以让游客充分享受休闲时光，同时也能体验到民国风情、人文风貌。"}}, {"title": "龙湖镇西泰山旅游风景区", "address": "郑州市新郑市龙湖镇", "image": "", "rank": 13, "time": 2, "location": {"lat": 34.619939520905795, "lng": 113.69423858929638}, "feature": {"sight_features": "", "sight_content": ""}}, {"title": "龙泉国际滑雪场", "address": "郑州市新郑市大学南路与X023县道向西4公里（龙湖镇龙泉湿地公园内）", "image": "", "rank": 14, "time": 2, "location": {"lat": 34.59406299861594, "lng": 113.60817411497965}, "feature": {"sight_features": "", "sight_content": ""}}, {"title": "富沃庄园", "address": "郑州市新郑市辛店镇桃源新村（北靳楼村）", "image": "", "rank": 15, "time": null, "location": {"lat": 34.397136077845076, "lng": 113.5870123233521}, "feature": {"sight_features": "", "sight_content": ""}}, {"title": "新郑万开拉维斯黄帝文化艺术节", "address": "新村二十里铺郑新快速路向东50米", "image": "", "rank": 16, "time": 2, "location": {"lat": 27.855115878009787, "lng": 120.72109614867794}, "feature": {"sight_features": "", "sight_content": ""}}, {"title": "周世宗陵", "address": "新郑郭店镇陵后村陵上西侧", "image": "", "rank": 17, "time": 2, "location": {"lat": 34.570026614437445, "lng": 113.710316073246}, "feature": {"sight_features": "", "sight_content": ""}}, {"title": "好想你木本生态园", "address": "S1机场高速好想你木本生态园", "image": "", "rank": 18, "time": 2, "location": {"lat": 34.56618790159337, "lng": 113.82530534718711}, "feature": {"sight_features": "", "sight_content": ""}}, {"title": "皇家雅乐轩温泉", "address": "郑州市新郑市郭店镇郑新快速通道与黄金大道交汇口", "image": "", "rank": 19, "time": 2, "location": {"lat": 34.54155317860779, "lng": 113.71372995308236}, "feature": {"sight_features": "", "sight_content": ""}}, {"title": "龙湖锦艺城水上乐园", "address": "南龙湖郑新快速路与双湖大道交叉口(华南城北门对面)", "image": "", "rank": 20, "time": 2, "location": {"lat": 34.60373935239999, "lng": 113.69749851573785}, "feature": {"sight_features": "", "sight_content": ""}}, {"title": "孟庄镇", "address": "郑州市新郑市孟庄镇", "image": "", "rank": 21, "time": 1.0, "location": {"lat": 34.617773557002415, "lng": 113.7459130954356}, "feature": {"sight_features": "", "sight_content": ""}}, {"title": "郑州永昌果品大樱桃采摘园", "address": "泰山路", "image": "", "rank": 22, "time": 3.5, "location": {"lat": 37.99435711386382, "lng": 114.47185951809486}, "feature": {"sight_features": "", "sight_content": ""}}, {"title": "翰林华府水世界", "address": "大学南路泰山村(领军人物园)", "image": "", "rank": 23, "time": 2, "location": {"lat": 34.58597246660253, "lng": 113.64401380991124}, "feature": {"sight_features": "", "sight_content": ""}}, {"title": "郑工高尔夫学院", "address": "郑州工业应用技术学院东门", "image": "", "rank": 24, "time": 2, "location": {"lat": 34.418305521167916, "lng": 113.76438533880695}, "feature": {"sight_features": "", "sight_content": ""}}, {"title": "百合园生态园", "address": "107国道", "image": "", "rank": 25, "time": 2, "location": {"lat": 23.102877208493197, "lng": 113.67228113407819}, "feature": {"sight_features": "", "sight_content": ""}}, {"title": "新郑市图书馆", "address": "中华路南段536号", "image": "", "rank": 26, "time": 1.5, "location": {"lat": 36.10213070400923, "lng": 114.39555668361933}, "feature": {"sight_features": "", "sight_content": ""}}, {"title": "中原工学院图书馆", "address": "107国道", "image": "", "rank": 27, "time": 2, "location": {"lat": 23.102877208493197, "lng": 113.67228113407819}, "feature": {"sight_features": "", "sight_content": ""}}, {"title": "机床博物馆", "address": "龙湖镇商业路东段", "image": "", "rank": 28, "time": 2, "location": {"lat": 40.33375555191996, "lng": 120.35351147243664}, "feature": {"sight_features": "", "sight_content": ""}}, {"title": "王许村葡萄园", "address": "龙湖镇王许村王许小学南300米", "image": "", "rank": 29, "time": 2, "location": {"lat": 34.63431036347287, "lng": 113.64178636887378}, "feature": {"sight_features": "", "sight_content": ""}}, {"title": "人民影剧院", "address": "033县道附近", "image": "", "rank": 30, "time": 2, "location": {"lat": 40.226686186194485, "lng": 116.30243883443548}, "feature": {"sight_features": "", "sight_content": ""}}, {"title": "郑州农大藏獒基地", "address": "103省道附近", "image": "", "rank": 31, "time": 3.5, "location": {"lat": 39.16211906866746, "lng": 117.4666343312951}, "feature": {"sight_features": "", "sight_content": ""}}, {"title": "草莓釆摘", "address": "溱水路", "image": "", "rank": 32, "time": 2, "location": {"lat": 34.54832445587593, "lng": 113.379209674069}, "feature": {"sight_features": "", "sight_content": ""}}, {"title": "生态农业观光园", "address": "阳光路附近", "image": "", "rank": 33, "time": 2, "location": {"lat": 39.143806240047255, "lng": 117.24751780887668}, "feature": {"sight_features": "", "sight_content": ""}}, {"title": "鳄鱼漆", "address": "华南城一路", "image": "", "rank": 34, "time": 2, "location": {"lat": 34.61228443122603, "lng": 113.73990420052336}, "feature": {"sight_features": "", "sight_content": ""}}, {"title": "丽水湾温泉", "address": "郑韩路与阁老路", "image": "", "rank": 35, "time": 2, "location": {"lat": 34.41114331589258, "lng": 113.72653313590573}, "feature": {"sight_features": "", "sight_content": ""}}, {"title": "农场·农夫烤鸡(双湖大道)", "address": "双湖大道附近", "image": "", "rank": 36, "time": 2, "location": {"lat": 34.61798976101011, "lng": 113.74557026432416}, "feature": {"sight_features": "", "sight_content": ""}}, {"title": "宾悦龙城", "address": "郑新路", "image": "", "rank": 37, "time": 2, "location": {"lat": 30.335186491116268, "lng": 114.26699783122088}, "feature": {"sight_features": "", "sight_content": ""}}, {"title": "拉菲生态园", "address": "郭店镇前时村卫生所北侧260米", "image": "", "rank": 38, "time": 2, "location": {"lat": 34.51406674006658, "lng": 113.7196040527613}, "feature": {"sight_features": "", "sight_content": ""}}, {"title": "中达国际钓鱼", "address": "S10中国石化加油站附近(新建路)", "image": "", "rank": 39, "time": 2, "location": {"lat": 38.731330402251295, "lng": 113.27072052981504}, "feature": {"sight_features": "", "sight_content": ""}}, {"title": "李诫墓", "address": "河南新郑市龙湖镇于寨村西 451191", "image": "", "rank": 40, "time": 2, "location": {"lat": 34.61425191991988, "lng": 113.6297346653214}, "feature": {"sight_features": "", "sight_content": ""}}, {"title": "唐户遗址", "address": "河南新郑市观音寺镇唐户村 450000", "image": "", "rank": 41, "time": 2, "location": {"lat": 34.31245787372636, "lng": 113.69816085076324}, "feature": {"sight_features": "", "sight_content": ""}}, {"title": "古城寨城址", "address": "河南新密市曲梁乡古城寨村 452375", "image": "", "rank": 42, "time": 7.5, "location": {"lat": 34.53001736175291, "lng": 113.55088198616428}, "feature": {"sight_features": "", "sight_content": ""}}, {"title": "潮河憩园生态农庄", "address": "新郑市孟庄镇洪府村1号", "image": "", "rank": 43, "time": 2, "location": {"lat": 34.593235408615115, "lng": 113.79313162626208}, "feature": {"sight_features": "", "sight_content": ""}}, {"title": "水上乐园", "address": "郑州市水上乐园", "image": "", "rank": 44, "time": 2, "location": {"lat": 34.79290399581378, "lng": 113.6589643085138}, "feature": {"sight_features": "", "sight_content": ""}}, {"title": "郑州工业应用技术学院-音乐厅", "address": "外环西路与艺馨路交叉口东南200米", "image": "", "rank": 45, "time": 3.5, "location": {"lat": 34.42137447079485, "lng": 113.7632682806341}, "feature": {"sight_features": "", "sight_content": ""}}, {"title": "郑州大学西亚斯国际学院-歌剧院", "address": "河南省郑州市新郑市人民路168号(郑州大学西亚斯国际学院内)", "image": "", "rank": 46, "time": 3.5, "location": {"lat": 34.40585477112439, "lng": 113.77148896181366}, "feature": {"sight_features": "", "sight_content": ""}}, {"title": "恒昌始祖山蜜蜂博物馆", "address": "S88", "image": "", "rank": 47, "time": 2, "location": {"lat": 34.353072099986356, "lng": 113.55401437747757}, "feature": {"sight_features": "", "sight_content": ""}}, {"title": "龙湖河畔生态园", "address": "河南省郑州市新郑市双湖大道", "image": "", "rank": 48, "time": 2, "location": {"lat": 34.61798976101011, "lng": 113.74557026432416}, "feature": {"sight_features": "", "sight_content": ""}}, {"title": "红枣博览园", "address": "薛店镇中华古枣树遗址公园东侧500米", "image": "", "rank": 49, "time": 2, "location": {"lat": 34.520926017576464, "lng": 113.769701919544}, "feature": {"sight_features": "", "sight_content": ""}}, {"title": "始祖山塔陵园", "address": "中华路11号附近", "image": "", "rank": 50, "time": 2, "location": {"lat": 37.06897494611536, "lng": 115.02497799994231}, "feature": {"sight_features": "", "sight_content": ""}}, {"title": "儿童游乐区", "address": "郑州市新郑市迎宾大道1号郑州新郑国际机场T2航站楼F3", "image": "", "rank": 51, "time": 2, "location": {"lat": 34.531616185526175, "lng": 113.8596024611173}, "feature": {"sight_features": "", "sight_content": ""}}, {"title": "陈氏三宰相墓", "address": "后陈", "image": "", "rank": 52, "time": 2, "location": {"lat": 32.16721037217578, "lng": 120.01998476872409}, "feature": {"sight_features": "", "sight_content": ""}}, {"title": "梅河公园", "address": "河南省郑州市新郑市新郑综合保税区内", "image": "", "rank": 53, "time": 2, "location": {"lat": 34.40176637910559, "lng": 113.74643447195358}, "feature": {"sight_features": "", "sight_content": ""}}, {"title": "基督教新村瑞安堂", "address": "河南省郑州市新郑市育才路附近", "image": "", "rank": 54, "time": 2, "location": {"lat": 34.435352788415024, "lng": 113.73176557056907}, "feature": {"sight_features": "", "sight_content": ""}}, {"title": "酷贝儿童乐园", "address": "文化路与人民路交叉口向北10米路四发商贸城二楼", "image": "", "rank": 55, "time": 2, "location": {"lat": 34.095278447181826, "lng": 117.48478668627774}, "feature": {"sight_features": "", "sight_content": ""}}, {"title": "新郑市黄水河湿地文化园", "address": "河南省新郑市人民路与康庄大道交叉口东北角", "image": "", "rank": 56, "time": 2, "location": {"lat": 34.40215152975442, "lng": 113.76295436597702}, "feature": {"sight_features": "", "sight_content": ""}}, {"title": "文明始祖", "address": "郑州市新郑市轩辕路黄帝故里景区内", "image": "", "rank": 57, "time": 2, "location": {"lat": 34.40660453068814, "lng": 113.73366833704605}, "feature": {"sight_features": "", "sight_content": ""}}, {"title": "亿鑫水上乐园", "address": "乐天大道与轩辕路交叉口北行200米路西", "image": "", "rank": 58, "time": 2, "location": {"lat": 41.829963796421254, "lng": 123.4196110729932}, "feature": {"sight_features": "", "sight_content": ""}}, {"title": "白居易文化园", "address": "河南省郑州市新郑市乐天大道", "image": "", "rank": 59, "time": 2, "location": {"lat": 34.40176637910559, "lng": 113.74643447195358}, "feature": {"sight_features": "", "sight_content": ""}}, {"title": "申子园", "address": "新华路224号附近", "image": "", "rank": 60, "time": 2, "location": {"lat": 39.11910210725339, "lng": 117.2158680003861}, "feature": {"sight_features": "", "sight_content": ""}}]}