{"cityName": "忻州", "days": "3", "cityImage": "", "spots": [{"title": "五台山", "address": "忻州市五台县台怀镇", "image": "", "rank": 1, "time": 2.5, "location": {"lat": 38.997787814046234, "lng": 113.58592005571641}, "feature": {"sight_features": "特色1 中国佛教四大名山之首。 特色2 是一个融自然风光、历史文物、古建艺术、佛教文化、民俗风情、避暑休养为一体的旅游区。 特色3 世界五大佛教圣地之一。", "sight_content": "五台山(Mount Wutai)：国家AAAAA级旅游景区，国家重点风景名胜区，国家地质公园，国家自然与文化双重遗产，中华十大名山，中国佛教四大名山，世界五大佛教圣地。五台山是中国唯一一个青庙黄庙交相辉映的佛教道场。\n\n\n五台山位于中国山西省东北部，距省会太原市230公里。与四川峨嵋山、安徽九华山、浙江普陀山共称“中国佛教四大名山”，同时还位列中国十大避暑名山之首。这里的寺院林立，奇峰灵崖随处皆是，是一个锦绣而又充满佛教元素的圣地。\n现存寺院47处，台内39处，台外8处，其中多敕建寺院，多朝皇帝前来参拜。著名的有：显通寺、塔院寺、菩萨顶、南山寺、黛螺顶、广济寺、万佛阁等。五台山与浙江普陀山、安徽九华山、四川峨眉山、共称中国佛教四大名山;与尼泊尔蓝毗尼花园、印度鹿野苑、菩提伽耶、拘尸那迦并称世界五大佛教圣地。五台山是一个融自然风光、历史文物、古建艺术、佛教文化、民谷风情、避暑休养为一体的旅游风景区。五台山是我国佛教建筑较早地方之一，目前台内外尚有寺庙47座。其中佛光寺和南禅寺是我国现存较早的两座木结构建筑。显通寺、塔院寺、菩萨顶、殊像寺、罗喉寺被列为“五台山五大禅处”。\n山西五台山奇峰灵崖随处皆是，数量达五十余处。其中写字崖，用水洒湿以后，拿手帕仔细拭擦，崖面会显示出类似篆隶体字迹，水干字隐。有人曾除去表皮石层，结果下层仍能擦出字来。层层有字，字字不同。据载曾发现过“天之三宝日月星，地之三宝水火风，人之三宝精气神”的联句。山西五台山方圆约320公里，因五峰如五根擎天巨柱拔地而起、 巍然矗立，峰顶平坦如台，故名五台。又因山上气候多寒，盛夏仍不见炎暑，故又别称清凉山。是一个融自然风光、古建艺术、历史文物、佛教文化、民俗风情、避暑休养为一体的旅游区。1982年，五台山以山西五台山风景名胜区的名义，被国务院批准列入第一批国家风景名胜区名单，历年来获得了“国家重点风景名胜区”、“中华十大名山”之一、“国家地质公园”、“国家自然与文化双遗产”、“国家AAAAA级旅游景区”、“世界遗产”等荣誉。五台山九项特色旅游活动：佛国圣地采摘游、朝台登山健身游、佛教文艺欣赏游、镇海松涛红叶游、秋冬美景摄影游、金色世界生态游、银色五台踏雪游、寺庙法会祈福游、佛法禅宗探访游。五台山九大佛事活动：农历七月十五（公历9月3日）的盂兰盆会、农历七月二十四（公历9月12日）的龙树菩萨圣诞法会、农历七月三十（公历9月18日）的地藏菩萨圣诞法会、农历八月二十二（公历10月10日）的燃灯佛圣诞法会、农历九月十九（公历11月5日）的观世音菩萨出家纪念法会、农历九月三十（公历11月16日）的药师琉璃光佛圣诞法会、农历十一月十七日（公历2010公历1月1日）的阿弥陀佛圣诞法会、农历十二月初八（公历2010年 1月22日）的释迦牟尼佛成道法会、农历二○一○年正月初一（公历2010年2月14日）的弥勒菩萨圣诞法会。"}}, {"title": "雁门关", "address": "忻州市代县雁门关景区", "image": "", "rank": 2, "time": 3.5, "location": {"lat": 39.19770323830029, "lng": 112.85776411860444}, "feature": {"sight_features": "特色1 杨家将故事的发源地 特色2 也是历史上重要的古战场，长城上的重要关隘。 特色3 走一段这里的长城古关道，遥看关外衰草连天，是思古的好地方。", "sight_content": "雁门关，是世界文化遗产万里长城的重要组成部分，全国重点文物保护单位，是历史最为悠久，经历战事最为频繁、知名度最高、影响面最广的古关隘，被誉为“中华第一关”，2001年，雁门关被中华人民共和国国务院公布为第五批全国重点文物保护单位之一。\n雁门关景区是以雁门关军事防御体系历史遗存、遗址为主要景观资源的边塞文化、长城文化、关隘文化旅游区，景区规划面积30平方公里。关城、长城、隘城、兵堡、烽火台等不同等级、不同功能、不同形质的历史建筑遗存，形成了景区苍凉、凝重、雄浑、大气的边关特色旅游风情，展现了这座历史名关的历史作用和兴衰历程，以讲述着3000多年来它所见证的沧桑变迁和风云际会。随着近年来的大规模修复开发，雁门关景区已经成为集“吃、住、行、游、购、娱、”等功能为一体的首屈一指、中外闻名的边塞文化旅游目的地。\n镇边祠，位于关城天险门外东侧，占地面积3190平方米，建筑面积1510平方米，是雁门关最具规模的建筑群之一。初为明正德六年(公元1506年)为纪念战国时赵国的大将李牧而建，称武安君庙，俗称李牧祠。1856年（咸丰六年），僧人善全在李牧祠旧址上，兴建佛寺，改名护国镇边寺。虽为佛寺，但仍在过殿内塑李牧将军像，镇边寺遂成为以佛寺为主，兼祀李牧的复合建筑。1937年日军占领雁门关后，镇边寺现到毁灭性破坏，仅存地基。2009年以来按原样复建后改名镇边祠，成为展示姬幸、李牧、薛仁贵、杨家将等西周至明朝2600多年间守关名将展览馆。重建后的镇边祠不仅重现了历史上全盛时期的规模形制，而且赋予新的展示内容和文化内涵，成为全面了解雁门关军事文化的一大窗口。\n前腰铺驿站，位于当年雁关门关南古道中腰处，历史上馆驿、客饯、商铺林立，故名。与雁门关和新广武中间之“后腰铺”相对应。现已辟为景区集餐饮、住宿、休闲、咨询等为一体的现代化服务区。\n阜戈寨，也叫阜家坪。历史上战争时期是雁门关守军的后勤保障供给基地，和平时期是胡汉贸易的著名榷场。当年在阜家坪的平缓之地，北方游牧民族用草原的牛、马、羊等乳品、皮毛，与中原汉人的丝绸、棉麻、中药材、茶叶、工艺品等进行交易。这里的商行、客栈、饭店、酒肆、钱庄、当铺应有尽有，现已成为集中展示边关军需、贸易和民俗风情的主题村寨和影视拍摄基地。\n雁门关古道全长20公里，古称“关沟四十里”。关道北通塞外高原，南接中原腹地，在数千年的历史中，始终为中原汉民族北出和草原游牧民族南下之咽喉要津，战时为军防戍守之关卡，平日为商家营输之必经，行人往来之通衢。正是这条蜿蜒曲折，承载了3000多年历史沧桑的古关道造就了雁门关的历史使命，也成就了雁门关的千古辉煌。\n观音殿，位于关南古盘道西侧，关陵之南。明建清修的观音殿，1937年被侵华日军焚毁。2009年8月重建为纯石材建筑，殿内观音塑像为汉白玉石雕“四面观音”，即圣观音、如意观音、马头观音、如意观音和十一面观音，寓意护佑四方游人信众。雁门关驿站，位于雁门关镇边祠南侧的窑洞内。正北6孔，东侧3孔，东北角向上的台阶处2孔，一共11孔窑洞。这里曾经接待过22位皇帝、23位将军、3位公主，历代名人贤士更是不计其数。1948年毛泽东主席从延安赴河北西柏坡途中，登临雁门关时也曾在这里做短暂休息。\n天险门为关城南侧之门，是关南第一道城门，石基砖券，高12.5米。门洞上方额匾篆体书刻“天险”二字。门洞内的青石板为明代原物，600多年间清晰车辙仍然向人们诉说着多彩而辉煌的过往。\n天险门上建有关楼，又名雁楼。原建已毁于1937年，现存主体为1989年重建，2010年补修。雁楼面阔5间，进深4间，重檐歇山顶式，四周设有回廊。楼内空畅，历史上的主要功能是供兵丁巡察、了望，现为雁门关古代博物馆。"}}, {"title": "五爷庙", "address": "忻州市五台县五台山风景区", "image": "", "rank": 3, "time": 2.5, "location": {"lat": 39.00560508143135, "lng": 113.60205051184363}, "feature": {"sight_features": "", "sight_content": ""}}, {"title": "黛螺顶", "address": "忻州市五台县台怀镇五台山风景名胜区内", "image": "", "rank": 4, "time": 1.5, "location": {"lat": 38.98354625360706, "lng": 113.6026954969964}, "feature": {"sight_features": "特色1 来这里朝拜，等于转遍了五座台。 特色2 黛螺顶，始建于明代成化年间，供奉了五座文殊菩萨的法像，又名小朝台", "sight_content": "五台山客运索道公司，地处我国四大佛教圣地五台山之腹地。依山傍水，建筑古朴典雅。线路全长980米，高差298米，担负着迎送游客至黛螺顶朝拜“五方文殊”（小朝台）的任务，是五台山对外接待的重要窗口之一。五台山索道公司于2013年被评定为“客运索道安全服务质量3s等级”“客运索道安全生产标准化三级企业”。\n黛螺顶作为“小朝台”是香客游人来五台山的首选之地，交通十分便利，游客可通过南门的游客中心乘坐景区1路公交到达黛螺顶站。对于自驾游游客来说，可以通过南门、北门和西门直达黛螺顶停车场，即可乘索道上山，随着缆车的缓缓前行，乘客可以领略到黛螺顶的优美风景和五台山核心景区的高空全景风貌。黛螺顶亦名大螺顶，又名青峰。这处寺庙始建于时代成化年间，万历年间重修。清乾隆十五年，改名大螺顶，寺内还有乾隆十五年御制的大螺顶碑记。黛螺顶坐东面西，中轴线上由西向东依次有天王殿、旃檩殿、五文殊殿和大雄宝殿。登黛螺顶朝拜五方文殊菩萨又称“小朝台”。俗有“不登黛螺顶，不算朝台人”之说。"}}, {"title": "《又见五台山》情境体验剧", "address": "忻州市五台县台怀镇五台山风景区南门（南线游客中心东100米又见五台山风铃宫）", "image": "", "rank": 5, "time": 2, "location": {"lat": 38.983170174923195, "lng": 113.60863494570627}, "feature": {"sight_features": "特色1 一个不是雕塑的雕塑，这是一个不是建筑的建筑。 特色2 演出从室内情境体验区穿梭到360度全景旋转舞台区。 特色3 整场演出把佛教典故和仪规演绎得如高山流水般沁人心脾。", "sight_content": "‍\n《又见五台山》以五台山的佛教典故、仪规为创作基点，却又跳出单纯故事讲述的窠臼，打碎形式、打破空间，向无尽的时间发出探问，通过丰富和无穷变换的场景，用舞台语汇解构一天、一年、一生、一念。依山势而建的“又见五台山”剧场，犹如一部打开的经卷。进入主体剧场之前，观众首先要经过长达730米的经卷，经卷上刻《华严经》经文，由高到低排列形成渐开序列，形成七个“经折”空间。当我们走进剧场，会认识一个叫曹慧芬的女人，认识一个叫小刘的送快递的小伙子，会认识许许多多仿佛生活在我们身边的人。我们所期待的，是佛教在五台山怎么与今天的生活结合在一起，怎么样讲述人生的故事，而不仅仅是阐述佛理……\n\n“又见五台山”剧场设计\n依山势而建的“又见五台山”剧场，犹如一部打开的经卷。进入主体剧场之前，观众首先要经过长达730米的经卷，经卷上刻《华严经》经文，由高到低排列形成渐开序列，形成七个“经折”空间。出于大型情景剧演出的需要，剧场空间是一个长131米、宽75米、高21.5米的大空间。然而，当你走近它，你却不能完整地了解它的全部。长730米，徐徐展开的“经折”置于剧场之前，由高到低排列形成渐开的序列，成为剧场表演的前奏。而剧场就成为了正在被打开一本巨大经卷，预示蕴藏着知识和智慧的宝库。\n每一页被打开的“经折”空间都是独特的，通过当代装置艺术表现手法的运用，展现了一个个与宗教有关的小空间。这一多重演绎的“经折”借助于中国传统造园的方式，运用空问秩序建构内涵丰富的精神场所。让观众在一场场跌宕起伏的“经折”之间驻足凝思，展开自己与空间、与情景之间的对话，从而激发出观众的心理体验和精神感受。场地当中一石、一木的光影变幻，记录着一天的朝暮、一年的春夏秋冬，让人抛弃世间的杂念，开阔眼界和胸襟，感知佛陀的智慧。这不仅带来感官上的震撼，更多的将引发观者的思辨。\n这是一个不是雕塑的雕塑，这是一个不是建筑的建筑；这是一个没有形状的建筑，这是一个正在消隐的建筑；这是一个可以聆听的建筑，这是一个可以对话的建筑；这是一个映照历史的建筑，这是一个启迪智慧的建筑……出于大型情景剧演出的需要，剧场空间是一个长131米、宽75米、高21.5米的大空间。然而，当你走近它，你却不能完整地了解它的全部。长730米，徐徐展开的“经折”置于剧场之前，由高到低排列形成渐开的序列，成为剧场表演的前奏。而剧场就成为了正在被打开一本巨大经卷，预示蕴藏着知识和智慧的宝库。‍‍\n“经折”和剧场采用了不同材质的表皮，包括石材、玻璃和不锈钢等材料，通过反射和透视，将体量化解为不同尺度的起伏的图案。混合材料的应用，以不同的方向影射着周围的景象，蓝天、白云、山峦、树木，也包括接近她的人，一切尽在似有与似无之间，极大地消解着建筑物的轮廓线，破解建筑体量对周围环境的压力。\n每一页被打开的“经折”空间都是独特的，通过当代装置艺术表现手法的运用，展现了一个个与宗教有关的小空间。这一多重演绎的“经折”借助于中国传统造园的方式，运用空问秩序建构内涵丰富的精神场所。让观众在一场场跌宕起伏的“经折”之间驻足凝思，展开自己与空间、与情景之间的对话，从而激发出观众的心理体验和精神感受。场地当中一石、一木的光影变幻，记录着一天的朝暮、一年的春夏秋冬，让人抛弃世间的杂念，开阔眼界和胸襟，感知佛陀的智慧。这不仅带来感官上的震撼，更多的将引发观者的思辨。\n在“经折”被“掀起”的部分，形成游人穿越的通道，呈现出的是中国传统木构建筑的细部构建，隐喻着建筑所处的人文环境。出挑的杆件端头悬挂的铜铃，发出清脆、悠扬的声响，在很远的地方即可感知这座建筑的存在。在接近景区道路的一端，“经折”以高反光的不锈钢顶面直接插入碎石的地面，突出了“经折”构造的力度和纯度，对日空和月夜的映照成为首先映入观众眼帘的形象。同时，又将华严经镌刻在不同材质的表皮材料之上，附会了“经折”的创意，向游人传递着演出的主题和内容。\n场地内的石材，全部取自忻州当地。无论是在前往剧场通道一侧的“经折”之内，28块“顽固不化”的巨石，还是离开剧场的通道一侧的“经折”之内，组成28个经文的、被“点化”的黑色石块，以及通道另一侧铺满景观场地的各色鹅卵石，无不隐喻着建筑的地域性特征。‍‍"}}, {"title": "塔院寺", "address": "忻州市五台县五台山风景区台怀镇内", "image": "", "rank": 6, "time": 2.0, "location": {"lat": 38.99086049141592, "lng": 113.57551458235007}, "feature": {"sight_features": "", "sight_content": ""}}, {"title": "菩萨顶", "address": "忻州市五台县五台山风景区台怀镇内(显通寺东北约500米)", "image": "", "rank": 7, "time": 2.0, "location": {"lat": 39.01523172976449, "lng": 113.60307503287098}, "feature": {"sight_features": "", "sight_content": ""}}, {"title": "显通寺", "address": "忻州市五台县五台山景区台怀镇内", "image": "", "rank": 8, "time": 2.5, "location": {"lat": 38.997787814046234, "lng": 113.58592005571641}, "feature": {"sight_features": "", "sight_content": ""}}, {"title": "南山寺", "address": "五台山风景区内，距离台怀镇约2公里", "image": "", "rank": 9, "time": 1.0, "location": {"lat": 39.00560508143135, "lng": 113.60205051184363}, "feature": {"sight_features": "", "sight_content": ""}}, {"title": "罗睺寺", "address": "忻州市五台县五台山风景区台怀镇内（显通寺和广仁寺之间）", "image": "", "rank": 10, "time": 2.0, "location": {"lat": 39.01523172976449, "lng": 113.60307503287098}, "feature": {"sight_features": "", "sight_content": ""}}, {"title": "南台锦绣峰", "address": "忻州市五台县五台山风景区内", "image": "", "rank": 11, "time": null, "location": {"lat": 39.00560508143135, "lng": 113.60205051184363}, "feature": {"sight_features": "", "sight_content": ""}}, {"title": "普化寺", "address": "忻州市五台山台怀镇南面东山脚下", "image": "", "rank": 12, "time": 1.0, "location": {"lat": 39.00259749826686, "lng": 113.59943836338677}, "feature": {"sight_features": "", "sight_content": ""}}, {"title": "东台顶", "address": "忻州市五台县五台山风景区内", "image": "", "rank": 13, "time": 3.0, "location": {"lat": 39.00560508143135, "lng": 113.60205051184363}, "feature": {"sight_features": "", "sight_content": ""}}, {"title": "南禅寺", "address": "忻州市五台县阳白乡李家村", "image": "", "rank": 14, "time": 1.5, "location": {"lat": 38.78096609998321, "lng": 113.08298935743997}, "feature": {"sight_features": "", "sight_content": ""}}, {"title": "圆照寺", "address": "忻州市五台县五台山风景区内", "image": "", "rank": 15, "time": 1.5, "location": {"lat": 39.00560508143135, "lng": 113.60205051184363}, "feature": {"sight_features": "", "sight_content": ""}}, {"title": "碧山寺", "address": "忻州市五台县五台山风景区内", "image": "", "rank": 16, "time": 1.5, "location": {"lat": 39.00560508143135, "lng": 113.60205051184363}, "feature": {"sight_features": "", "sight_content": ""}}, {"title": "清凉寺", "address": "忻州市五台县台怀镇五台山风景名胜区内", "image": "", "rank": 17, "time": 1.0, "location": {"lat": 38.98354625360706, "lng": 113.6026954969964}, "feature": {"sight_features": "", "sight_content": ""}}, {"title": "芦芽山", "address": "忻州市宁武县东寨镇芦芽山游客服务中心", "image": "", "rank": 18, "time": 1.0, "location": {"lat": 38.745541753217076, "lng": 111.94032005163463}, "feature": {"sight_features": "特色1 国家级地质公园、国家级森林公园。 特色2 万年冰雪洞天，千顷高山草甸，百里亘古栈道。 特色3 芦芽山峰峦重叠，山峰尖峭，森林广茂。", "sight_content": "‍\n芦芽山风景名胜区位于吕梁山北端、晋西北腹地，是汾河、桑干河、阳武河、岚漪河、朱家川五条河流的源头区；景区平均海拔2000米以上，是山西省第二大旅游景区，同时也是地质公园、森林公园、自然保护区、水利旅游风景区。2009年，芦芽山旅游风景区被被列入国家自然与文化双遗产预备名录。也是国内毗卢佛道场和世界珍禽褐马鸡主要保护地。2010年9月，被评为国家4A级旅游景区。景区内约有82万亩原始次森林、66万亩草原、500多种动植物资源、100多个景点，是一处集山、石、林、草、洞、湖、泉、谷、庙、关十大景观于一体的“北方原始高原型山水形态旅游景区”。现已开发并对外开放的旅游景点包括：万年冰洞、芦芽山、悬崖栈道、石门悬棺、马仑草甸、情人谷、天池湖群、汾河源头、悬空村等景点。\n芦芽山因形似一“芦芽”而得名，海拔2736米，主峰绝顶约10平方米的石坪上，巍然托起一座石砌建筑——太子殿。据考证，芦芽山是中国的毗卢佛道场，太子殿即为佛顶。芦芽山峰峦重叠，山峰尖峭，森林广茂是世界罕见的生态基因库。不仅拥有珍贵树种落叶松、云杉，也是世界珍禽、国家一类保护动物、山西省鸟——褐马鸡的主要保护地。\n\n\n万年冰洞形成于新生代第四纪冰川期，距今已有300万年的历史。它的奇特在于以本地洞外的气候条件论，根本构不成结冰的环境，而洞内一年四季冰柱不化，愈往深处冰愈厚。它是全国迄今发现的规模较大的冰洞，也是世界上迄今永久冻土层以外发现的罕见的大冰洞。由冰形成的冰柱、冰帘、冰瀑、冰花、冰佛、冰床、冰钟、冰人、冰菩萨等，千奇百怪、不一而足。洞内大大小小的景致或玲珑剔透，或晶莹夺目，或婀娜多姿，或雄伟壮丽，无不令人惊叹。堪称一个冰的世界。更使人们奇叹不已的是：与冰洞相距不到二百米处，有一处千年不熄的地火，当地人称千年火山。这一冰一火，本是相克，却奇妙地共存于同一山上，可谓世界奇观，中华一绝。\n\n\n宁武城西70公里处小石门村西极为幽僻的山谷内，隐藏着被考古专家认为是长江以北迄今为止发现最早极具考古研究价值的一处崖葬群——石门悬棺。仅有10至20多米之高的陡直光滑的悬崖，悬挂的木棺，有嵌在岩洞里的，也有露在石壁外的，有用木桩支撑，也有用铁链吊捆的，既有一棺独悬，也有双棺并列的，距地面高度不一，但皆能看得非常清晰。石门悬棺则因包含了栈道、崖缝、桩崖、悬吊、洞穴等多种类型，在品种上名列华夏第一。\n\n悬崖栈道位于涔山乡张家崖村西的翔凤山上，创建年代可上溯到唐朝贞元年间。一座座悬空古刹由栈道相连，惊险绝伦，独具特色，是“中国华北地区罕见的水平联洞型栈道”，也是宁武县古十景之一。百里长空栈道如同一根丝线在群山间穿过，将罗汉殿、毗卢殿、大佛殿遗址、晓祖宝塔等名胜与此地优美的风光串联起来，形成一串视觉与心灵的传奇。\n马仑草原海拔2721米，面积6000多亩，与芦芽山南北相望，是华北地区较大的亚高山草甸之一。这里牧草肥沃，是历代帝王牧养战马的基地。马仑草原将草甸、森林、高山、峡谷、奇松、怪石、长城、将台、基塔融为一体。东南隅有怪松苑，正南面是奇石坡，西南隅坍塌的舍利塔群半掩半露隐没于草丛中，北齐长城纵贯草原东西......\n情人谷位于宁武县城西林溪山深处，是一条幽雅美丽的沟谷，相传是一对情人顶风热恋，终成眷属的宝地。整条沟谷全长十华里，一条四季不断的清溪自谷掌流出，在落差十数米的瀑布下，形成许多石潭；整条出谷由许多“S”型组成，每个“S”型都蕴藏着柳暗花明又一村的妙境，随季节变化各呈纷异，是一处回归自然、抒发情感的浪漫之境。\n\n\n天池湖泊群是指以天池为中心，由元池、琵琶海等15个蓝宝石般的湖泊组成的，是中国北方罕见的高山湖泊群。天池是天池湖群中面积较大的湖泊；唐王朝在大西北饲养官马，天池一带出产的楼烦马和西域出产的骏马齐名天下，为唐王朝的强盛壮大立下了不朽之功。历史上曾经有16位皇帝来到这里避暑狩猎，是她与天山天池、长白山天池齐名的重要原因。"}}, {"title": "殊像寺", "address": "忻州市五台县台怀镇南面的凤林谷口", "image": "", "rank": 19, "time": 1.5, "location": {"lat": 38.997787814046234, "lng": 113.58592005571641}, "feature": {"sight_features": "", "sight_content": ""}}, {"title": "北台叶斗峰", "address": "忻州市五台县五台山风景区内", "image": "", "rank": 20, "time": 3.0, "location": {"lat": 39.00560508143135, "lng": 113.60205051184363}, "feature": {"sight_features": "", "sight_content": ""}}, {"title": "万年冰洞", "address": "忻州市宁武县春景洼乡麻地沟村", "image": "", "rank": 21, "time": 3.0, "location": {"lat": 38.774851141442205, "lng": 112.14973350822261}, "feature": {"sight_features": "特色1 地质公园和森林公园 特色2 堪称一个冰的世界 特色3 洞内大大小小的景致或玲珑剔透，或雄伟壮丽，无不令人惊叹", "sight_content": "万年冰洞形成于新生代第四纪冰川期，距今已有300万年的历史。是全国迄今发现的最大的冰洞，也是世界上迄今永久冻土层以外发现的罕见的大冰洞。由冰形成的冰柱、冰帘、冰瀑、冰花、冰佛、冰床、冰钟、冰人、冰菩萨等，千奇百怪、不一而足。洞内大大小小的景致或玲珑剔透，或晶莹夺目，或婀娜多姿，或雄伟壮丽，无不令人惊叹。堪称一个冰的世界。\n\n万年冰洞形成于新生代第四纪冰川期，距今已有300万年的历是全国迄今发现的最大冰洞，也是世界上迄今永久冻土层以外发现的罕见大冰洞。2005年，宁武万年冰洞被评为国家地质公园，洞内大大小小的景致或玲珑剔透，或晶莹夺目，或婀娜多姿，或雄伟壮丽，无不令人惊叹，堪称一个冰的世界。"}}, {"title": "龙泉寺", "address": "忻州市五台县五台山台怀镇东沟北的山岭下", "image": "", "rank": 22, "time": 3.0, "location": {"lat": 39.00259749826686, "lng": 113.59943836338677}, "feature": {"sight_features": "", "sight_content": ""}}, {"title": "河边民俗博物馆", "address": "忻州市定襄县东北22公里处的河边村", "image": "", "rank": 23, "time": 1.0, "location": {"lat": 38.59576695379954, "lng": 113.11589278899858}, "feature": {"sight_features": "", "sight_content": ""}}, {"title": "大白塔", "address": "忻州市五台县五台山风景区塔院寺内", "image": "", "rank": 24, "time": 0.4, "location": {"lat": 39.01343368354903, "lng": 113.60251600657246}, "feature": {"sight_features": "", "sight_content": ""}}, {"title": "西台挂月峰", "address": "忻州市五台县五台山风景区内", "image": "", "rank": 25, "time": 2.5, "location": {"lat": 39.00560508143135, "lng": 113.60205051184363}, "feature": {"sight_features": "", "sight_content": ""}}, {"title": "佛母洞", "address": "忻州市五台县台怀镇", "image": "", "rank": 26, "time": 1.0, "location": {"lat": 38.997787814046234, "lng": 113.58592005571641}, "feature": {"sight_features": "", "sight_content": "洞分内外两洞，外洞大而明，内洞小而幽，中间有一个扁圆形孔穴相通。内洞中，可以容纳五至七人内洞的洞壁上山岩经水溶化，产生许多乳石及石笋，夹有各种色质，犹如人体心肝五脏，洞形又呈葫芦形状，后人称为母腹。\n佛教宣扬进入小洞就是投胎佛母，受其恩育，复出小洞就是洗掉人生一切烦恼，获得无上欢乐幸福。外洞为宽敞，明亮。"}}, {"title": "佛光寺", "address": "忻州市五台县豆村镇佛光村（县城东北方向约30公里）", "image": "", "rank": 27, "time": 2.5, "location": {"lat": 38.877590906673355, "lng": 113.39745757013077}, "feature": {"sight_features": "", "sight_content": ""}}, {"title": "偏关老牛湾景区", "address": "忻州市偏关县", "image": "", "rank": 28, "time": 3.5, "location": {"lat": 39.44223009038652, "lng": 111.51447352049172}, "feature": {"sight_features": "特色1 长城与黄河握手的地方", "sight_content": "特色一：黄河与长城握手处\n老牛湾村属于山西省偏关县，是黄河入晋第一村。深处晋蒙大峡谷之间，与内蒙古的清水河县和鄂尔多斯交界，可谓一鸡鸣两省三市，蜿蜒的黄河与古老的明长城在这亲密握手。2005年，被《中国国家地理》杂志评为“中国十大最美峡谷”之一。\n特色二：石头建筑博物馆\n老牛湾古村落依山就势，错落有致，所有建筑就地取材，全部采用当地的石头、石板堆砌而成。造型各异的石墙石院随形而就，石磨、石辗、石头桌椅随处可见，整个村庄可谓一个经典的“石头建筑博物馆”。\n特色三：明朝古军堡\n老牛湾堡东接滑石堡，西临黄河岸，首当西北之冲，今堡城尚存。古堡地势高耸，北侧悬崖易守难攻，在岸边之上建有一砖砌敌楼，楼南门匾上阴刻楷书“老牛湾墩”，并有题头和署款等小字，可辨出“万历岁丁丑夏”，人文历史和自然遗迹完美融合之处。\n老牛湾，不用看，大河参古堡，天下第一观。老牛湾的标志性建筑“望河楼”，屹立于此已有400多年，条石为基，城砖垒筑。史料记载：“望河楼，冬守河，夏守边，极为寇卫”。望河楼通过燃放狼烟，与20多个土墩相连，来保护一方平安,故而为“天下第一墩”。\n在老牛湾堡上，有几座庙宇，真武庙、观音庙和关帝庙，庙宇大概是民间文化在信仰上的演化，是百姓们祈雨求子求平安的重要场所。荣泰祥的对面还有一座禹王庙，东边供奉龙王，西边供奉河神，中间供着保护一方平安的马王爷。每逢旱季，老百姓就组织全村上下，找一只青羊，拉到村里所有的龙王庙前走一走，拜一拜，敲锣打鼓，烧香磕头，请龙王降雨。然后把这只羊杀了，来者有份儿。同时在长城黄河握手处还有散落的奶奶庙和痘王庙。\n石板街是一块天然的石板，朴实的老牛湾人世代居住在这里，农闲季节，或茶余饭后，这里是最热闹的地方。\n老牛湾的房子都是石板石砌成，层层叠叠，石片之间用黄泥粘连，起到保温的效果，这种石头当地人叫绵羊石，是建筑的重要石材。地板，外墙，灶台，炕板，甚至桌子都用这种石头。另外老牛湾保留了许多过去的石碾、石磨、石臼、石锁，因此这里被人称为“石头民俗博物馆”。\n特色四：徒步长城古迹，畅游黄河峡谷\n明长城遗址在老牛湾留下断壁残垣，沿着杨家川峡谷，黄河长城握手之处，在这里感受古时塞外风光、体验镇守三关的战士风范；\n得利于万家寨水利枢纽，高峡出平湖，举起黄河峡谷内河水平静悠扬，泛舟黄河或快艇激流，爽快的体验。（每年的7-9月，因万家寨大坝泄洪，老牛湾段黄河水位下降，游船项目可能无法进行，具体情况以景区实际情况为主）\n特色五：乾坤太极八卦湾，享自然天成之美\n乾坤湾景区位于老牛湾景区和万家寨的中间，被广大中外专家、学者誉为“太极图”的天然发源地，主景区东西长约760米，占地42亩。景区建设以黄河文化为依托，“八卦”文化为特色，天造地设，暗含着天地自然之理。\n乾坤湾景区主要有“一区八景”，“一区”即乾坤湾旅游观景区，“八景”即明门、八卦台、乾塔、坤阁、神牛犁河雕塑、人行景观步道、景观墙、三不猴观景亭。乾坤湾，优雅、美丽、壮阔，是感受黄河博大精深文化底蕴的好地方。\n特色六：品农家美味，享特色住宿\n作为老牛湾当年的地主老财家的院子，面临黄河背靠古堡，可谓霸气十足，院中的杏树和凉台让人眼前一亮，更有油坊内保留有硕大的油梁，体验古法榨油工艺。百年老院里，有历史的沉淀也有时尚的潮流，魏家大院修旧如旧，成为一个家庭式度假民宿。偏关当地大厨烹饪黄河鲤鱼、偏关炖羊肉、黄河小虾等特色美味，更有丰盛全鱼宴让人眼前一亮、赞不绝口；夜晚灯光亮起，满院子朦胧月色，对月小酌，尽享清闲的农家生活~亦或点燃篝火，燃放烟花，唱歌跳舞，满院子的欢声笑语！\n老牛湾地处晋西北高原，不管是冬季或者夏天，老牛湾的天空晴天里满天繁星，异常闪亮，景区特别采用高科技材料，打造观星胜地。\n星空酒店位于山西老牛湾景区东面，紧邻黄河，各房间有单独观景台及配套躺椅，青山峡谷、皓月繁星，满足您对星空的所用幻想。\n坐落于景区古堡口的旁边，土砖垒起来的小院内是满满的农家风格，在这里您可以体验农家种植乐趣，半室外就餐环境空气清新宜人。\n土灶台上架起大铁锅，炖野生黄河大鲤鱼、偏关炖羊肉、炖排骨，农家天然蔬菜，厨师为您烹制满满自然口味！"}}, {"title": "镇海寺", "address": "忻州市台怀镇以南约5公里处", "image": "", "rank": 29, "time": 3.5, "location": {"lat": 38.997787814046234, "lng": 113.58592005571641}, "feature": {"sight_features": "", "sight_content": ""}}, {"title": "灵应寺", "address": "忻州市五台县五台山风景区北台上", "image": "", "rank": 30, "time": 1.5, "location": {"lat": 39.00560508143135, "lng": 113.60205051184363}, "feature": {"sight_features": "", "sight_content": ""}}, {"title": "万佛阁", "address": "忻州市五台县五台山风景区内", "image": "", "rank": 31, "time": 2.0, "location": {"lat": 39.00560508143135, "lng": 113.60205051184363}, "feature": {"sight_features": "", "sight_content": ""}}, {"title": "凤凰山景区", "address": "忻州市定襄县汤头温泉开发区", "image": "", "rank": 32, "time": 3.0, "location": {"lat": 38.4799743058469, "lng": 112.96352861151779}, "feature": {"sight_features": "", "sight_content": ""}}, {"title": "狮子窝", "address": "五台山竹林岭（又称狮子岭）上", "image": "", "rank": 33, "time": 2.5, "location": {"lat": 29.820498063703052, "lng": 121.88335234279496}, "feature": {"sight_features": "", "sight_content": ""}}, {"title": "汾河源头", "address": "忻州市宁武县东寨镇思源大街", "image": "", "rank": 34, "time": 1.0, "location": {"lat": 38.82296977011547, "lng": 112.1060993708895}, "feature": {"sight_features": "特色1 国家4A级景区 特色2 汾河水的源头，是三晋人民的母亲河", "sight_content": "汾河源头是三晋人民的母亲河。源头有一水塘，塘上石壁刻有“汾源灵沼”四字，自古以来就有三晋第一圣境之美誉。晋北古刹雷鸣寺因汾水从石崖下龙口喷出时声如雷鸣而的得名，庙宇依山而筑，宏大巍峨。每年四月初八举行古庙会，盛况空前。\n\n汾河源头是三晋人民的母亲河。源头有一水塘，塘上石壁刻有“汾源灵沼”四字，自古以来就有三晋第一圣境之美誉。晋北古刹雷鸣寺因汾水从石崖下龙口喷出时声如雷鸣而的得名，庙宇依山而筑，宏大巍峨。每年四月初八举行古庙会，盛况空前。"}}, {"title": "中台翠岩峰", "address": "忻州市五台县五台山风景区内", "image": "", "rank": 35, "time": 3.0, "location": {"lat": 39.00560508143135, "lng": 113.60205051184363}, "feature": {"sight_features": "", "sight_content": ""}}, {"title": "金阁寺", "address": "忻州市五台县台怀镇五台山风景名胜区内", "image": "", "rank": 36, "time": 1.5, "location": {"lat": 38.98354625360706, "lng": 113.6026954969964}, "feature": {"sight_features": "", "sight_content": ""}}, {"title": "吉祥寺", "address": "忻州市五台县五台山风景区内", "image": "", "rank": 37, "time": 2, "location": {"lat": 39.00560508143135, "lng": 113.60205051184363}, "feature": {"sight_features": "", "sight_content": ""}}, {"title": "灵鹫峰", "address": "忻州市五台县五台山风景区内", "image": "", "rank": 38, "time": 0.3, "location": {"lat": 39.00560508143135, "lng": 113.60205051184363}, "feature": {"sight_features": "", "sight_content": ""}}, {"title": "悬崖栈道", "address": "忻州市宁武县", "image": "", "rank": 39, "time": 1.0, "location": {"lat": 39.02434238143123, "lng": 112.32639824212184}, "feature": {"sight_features": "特色1 中国华北地区罕见的水平联洞型栈道", "sight_content": "悬崖栈道位于涔山乡张家崖村西的翔凤山上，创建年代可上溯到唐朝贞元年间。一座座悬空古刹由栈道相连，惊险绝伦，独具特色，是“中国华北地区罕见的水平联洞型栈道”，也是宁武县古十景之一。百里长空栈道如同一根丝线在群山间穿过，将罗汉殿、毗卢殿、大佛殿遗址、晓祖宝塔等名胜与此地优美的风光串联起来，形成一串视觉与心灵的传奇。"}}, {"title": "晋忻梦幻乐园", "address": "忻州市忻府区云中河景区", "image": "", "rank": 40, "time": 2, "location": {"lat": 38.49145152249871, "lng": 112.7326476717338}, "feature": {"sight_features": "", "sight_content": ""}}, {"title": "石门悬棺", "address": "忻州市宁武县东寨镇思源大街红绿灯正北1公里", "image": "", "rank": 41, "time": 1.0, "location": {"lat": 38.82296977011547, "lng": 112.1060993708895}, "feature": {"sight_features": "特色1 长江以北迄今为止发现最早的一处崖葬群", "sight_content": "石门悬棺是长江以北迄今为止发现最早的一处崖葬群，因包含了栈道、崖缝、桩崖、悬吊、洞穴等多种类型，在品种上名列华夏第一，极具考古研究价值。\n芦芽山风景名胜区位于吕梁山北端、晋西北腹地，是汾河、桑干河、阳武河、岚漪河、朱家川五条河流的源头区；景区平均海拔2000米以上，是山西省第二大旅游景区，先后被命名为国家级地质公园、国家级森林公园、国家级自然保护区、国家级水利旅游风景区。2009年，芦芽山旅游风景区被被列入国家自然与文化双遗产预备名录。也是国内唯一毗卢佛道场和世界珍禽褐马鸡主要保护地。\n2010年9月，被评为国家4A级旅游景区。景区内约有82万亩原始次森林、66万亩草原、500多种动植物资源、100多个景点，是一处集山、石、林、草、洞、湖、泉、谷、庙、关十大景观于一体的“北方原始高原型山水形态旅游景区”。现已开发并对外开放的旅游景点包括：万年冰洞、芦芽山、悬崖栈道、石门悬棺、马仑草甸、情人谷、天池湖群、汾河源头等著名景点。"}}, {"title": "禹王洞", "address": "忻州市西张乡霸沟", "image": "", "rank": 42, "time": 1.0, "location": {"lat": 38.332622689537104, "lng": 112.81524241766232}, "feature": {"sight_features": "特色1 人称“华北第一洞”", "sight_content": "禹王洞位于山西省忻州市城东南20公里的系舟山腰，原名仙人洞，亦称仙登窑。相传大禹曾在此系舟治水，洞内有一石像，酷似禹王，后改称禹王洞。\n\n\n禹王洞是一个十分古老的洞。据地质部门提供的资料认为：大约四亿年以前，这里是一片汪洋。七千五年以前，华北发生造山运动、海床上升为陆地，形成现在的太行山脉，后由于碳酸盐岩侵蚀，形成繁多的洞穴。明万历《忻州志》上曾有这样的记载：“仙人洞，在福田寺左，相传通平山县，产玛璃，内有遗蜕二，长丈余，髑大如斗。”禹王洞究竟有多深，至今仍是个谜。\n\n\n目前已探明的洞深约2000余米，已整修出可供游人参观的有四层共三厅十洞，长约700余米。禹王洞是一天然石灰岩溶洞，色彩斑斓，奇洞怪石，造型奇特。禹王洞四周绿树成荫，花草遍地，小河流水，鸟兽虫鱼，是一个集登山、旅游、探险、避暑为一体，惊险奇特，人称“华北第一洞”的旅游胜地。"}}, {"title": "普济寺", "address": "忻州市五台县五台山风景区南台顶", "image": "", "rank": 43, "time": 1.5, "location": {"lat": 39.00560508143135, "lng": 113.60205051184363}, "feature": {"sight_features": "", "sight_content": ""}}, {"title": "东台望海峰", "address": "忻州市繁峙县台怀镇五台山风景名胜区内", "image": "", "rank": 44, "time": 1.5, "location": {"lat": 38.98354625360706, "lng": 113.6026954969964}, "feature": {"sight_features": "", "sight_content": ""}}, {"title": "古城楼", "address": "忻州市忻府区", "image": "", "rank": 45, "time": 1.0, "location": {"lat": 38.409879817619995, "lng": 112.75261366421904}, "feature": {"sight_features": "", "sight_content": ""}}, {"title": "马仑草原", "address": "忻州市宁武县东寨镇思源大街红绿灯正北1公里", "image": "", "rank": 46, "time": 1.0, "location": {"lat": 38.82296977011547, "lng": 112.1060993708895}, "feature": {"sight_features": "特色1 国家AAAA景区！<br> 华北地区最大的亚高山草甸之一！<br> 生物资源丰富，是世界罕见的生态基因库！<br>", "sight_content": "芦芽山 因形似“芦芽”而得名，海拔2754米，主峰绝顶约6平方米的石坪上，巍然托起一座石砌建筑—太子殿。据考证，芦芽山是中国唯一的毗卢佛道场，太子殿即为佛顶。芦芽山生物资源丰富，是世界罕见的生态基因库。不仅拥有珍贵树种落叶松、云杉，而且是世界珍禽—褐马鸡的主要保护地。芦芽山主峰绝顶周方仅约10平方米的石坪上，巍然托起一座正方体状石砌建筑，这便是太子殿，因其位居群杀之际，数十里外即可看到。\n\n\n\n\n马仑草原 是华北地区最大的亚高山草甸之一，面积6000多亩，东南偶有怪松苑，正南面是奇石坡，西南隅坍塌的舍利塔群半掩半露隐没于草丛中，北齐长城纵贯草原东西。\n\n\n\n\n芦芽山风景名胜区 位于吕梁山北端、晋西北腹地，是汾河、桑干河、阳武河、岚漪河、朱家川五条河流的源头区；景区平均海拔2000米以上，是山西省第二大旅游景区，先后被命名为国家级地质公园、国家级森林公园、国家级自然保护区、国家级水利旅游风景区。2009年，芦芽山旅游风景区被被列入国家自然与文化双遗产预备名录。也是国内唯一毗卢佛道场和世界珍禽褐马鸡主要保护地。2010年9月，被评为国家4A级旅游景区。景区内约有82万亩原始次森林、66万亩草原、500多种动植物资源、100多个景点，是一处集山、石、林、草、洞、湖、泉、谷、庙、关十大景观于一体的“北方原始高原型山水形态旅游景区”。现已开发并对外开放的旅游景点包括：万年冰洞、芦芽山、悬崖栈道、石门悬棺、马仑草甸、情人谷、天池湖群、汾河源头等著名景点。"}}, {"title": "望海寺", "address": "忻州市五台县五台山风景区内东台顶", "image": "", "rank": 47, "time": null, "location": {"lat": 39.00560508143135, "lng": 113.60205051184363}, "feature": {"sight_features": "", "sight_content": ""}}, {"title": "观音洞", "address": "忻州市五台县五台山风景区内", "image": "", "rank": 48, "time": 2.5, "location": {"lat": 39.00560508143135, "lng": 113.60205051184363}, "feature": {"sight_features": "", "sight_content": ""}}, {"title": "广化寺", "address": "忻州市五台县五台山风景区内", "image": "", "rank": 49, "time": 0.3, "location": {"lat": 39.00560508143135, "lng": 113.60205051184363}, "feature": {"sight_features": "", "sight_content": ""}}, {"title": "阿育王塔", "address": "忻州市代县仓街", "image": "", "rank": 50, "time": 1.5, "location": {"lat": 39.075620885809265, "lng": 112.96637802581577}, "feature": {"sight_features": "", "sight_content": ""}}, {"title": "梵仙山", "address": "忻州市五台县五台山风景区内", "image": "", "rank": 51, "time": 3.0, "location": {"lat": 39.00560508143135, "lng": 113.60205051184363}, "feature": {"sight_features": "", "sight_content": ""}}, {"title": "广宗寺", "address": "忻州市五台县五台山风景区内", "image": "", "rank": 52, "time": 4.0, "location": {"lat": 39.00560508143135, "lng": 113.60205051184363}, "feature": {"sight_features": "", "sight_content": ""}}, {"title": "法雷寺", "address": "忻州市五台县五台山风景区西台顶", "image": "", "rank": 53, "time": 1.5, "location": {"lat": 39.00560508143135, "lng": 113.60205051184363}, "feature": {"sight_features": "", "sight_content": ""}}, {"title": "忻州古城", "address": "忻州市忻府区", "image": "", "rank": 54, "time": 1.0, "location": {"lat": 38.409879817619995, "lng": 112.75261366421904}, "feature": {"sight_features": "", "sight_content": ""}}, {"title": "尊胜寺", "address": "忻州市五台县五台山风景区内", "image": "", "rank": 55, "time": 1.0, "location": {"lat": 39.00560508143135, "lng": 113.60205051184363}, "feature": {"sight_features": "", "sight_content": ""}}, {"title": "台怀镇", "address": "忻州市五台县最北端", "image": "", "rank": 56, "time": 3.0, "location": {"lat": 38.73418159056545, "lng": 113.26145109491867}, "feature": {"sight_features": "", "sight_content": ""}}, {"title": "干疗水疗馆", "address": "忻州市忻府区奇村镇疗养路", "image": "", "rank": 57, "time": 2, "location": {"lat": 38.5473256871976, "lng": 112.61431961629695}, "feature": {"sight_features": "", "sight_content": ""}}, {"title": "演教寺", "address": "忻州市五台县五台山风景区内中台顶", "image": "", "rank": 58, "time": 1.0, "location": {"lat": 39.00560508143135, "lng": 113.60205051184363}, "feature": {"sight_features": "", "sight_content": ""}}, {"title": "万家寨水利枢纽", "address": "忻州市偏关县", "image": "", "rank": 59, "time": 2, "location": {"lat": 39.44223009038652, "lng": 111.51447352049172}, "feature": {"sight_features": "", "sight_content": ""}}, {"title": "顿村温泉度假村", "address": "忻州市区北境的秦城乡顿村", "image": "", "rank": 60, "time": 2, "location": {"lat": 38.501386409440315, "lng": 112.70748967551965}, "feature": {"sight_features": "", "sight_content": ""}}]}