{"cityName": "习水", "days": 2, "cityImage": "", "spots": [{"title": "土城古镇", "address": "遵义市习水县土城镇380县道", "image": "", "rank": 1, "time": 3.0, "location": {"lat": 28.29436854818134, "lng": 105.98839822470927}, "feature": {"sight_features": "特色1 “十八帮文化”体验馆", "sight_content": "土城古城位于贵州省遵义市习水县西部，是国家AAAA旅游景区，2005年被评为中国历史文化名镇，“十八帮文化”体验馆，再现土城独有的商帮文化。"}}, {"title": "习水", "address": "遵义市习水县", "image": "", "rank": 2, "time": 1.0, "location": {"lat": 28.339117886481347, "lng": 106.20342803998653}, "feature": {"sight_features": "", "sight_content": ""}}, {"title": "《土城往事》演出", "address": "遵义市习水县土城镇团结街土城大桥", "image": "", "rank": 3, "time": null, "location": {"lat": 28.2796360089562, "lng": 106.01481703042678}, "feature": {"sight_features": "", "sight_content": ""}}, {"title": "飞鸽景区", "address": "遵义习水县飞鸽景区", "image": "", "rank": 4, "time": 2, "location": {"lat": 28.339117886481347, "lng": 106.20342803998653}, "feature": {"sight_features": "", "sight_content": ""}}, {"title": "女红军街", "address": "遵义市习水县土城镇", "image": "", "rank": 5, "time": 2, "location": {"lat": 28.278970943175025, "lng": 106.012500558331}, "feature": {"sight_features": "", "sight_content": ""}}, {"title": "杉王景区", "address": "遵义市习水县", "image": "", "rank": 6, "time": 2, "location": {"lat": 28.339117886481347, "lng": 106.20342803998653}, "feature": {"sight_features": "", "sight_content": ""}}, {"title": "飞鱼部落水世界", "address": "遵义市习水县土城镇水狮坝村水狮河旁", "image": "", "rank": 7, "time": 2, "location": {"lat": 28.279817727988878, "lng": 106.02866387087522}, "feature": {"sight_features": "特色1 1、国内首创“地上+空中”悬空式漂流河 特色2 2、拥有10000多平米9种模式的海啸造浪池及海浪池 特色3 3、乐园采用最先进的水循环处理系统，池水4小时循环一次，用水达到饮用级标准 特色4 4、配备专业救生员及管理团队，确保每一位游客的健康和安全", "sight_content": "飞鱼部落水世界是一个丛林部落主题水世界乐园，位于遵义市习水县土城镇水狮坝，南临水狮河，与土城古镇景区一水相连。园区有儿童戏水池、大型水寨、悬空漂流河（空中漂流）、海啸造浪池、大喇叭等水上娱乐项目，是集水上娱乐、文化体验、亲水休闲、特色美食、文艺表演等多功能于一体的水世界乐园。\n飞鱼部落水世界，总占地面积 7 万多平米。园区位于贵州省遵义市习水县土城镇水狮坝，南临水狮河，紧邻国家4A级旅游景区土城千年古镇，亦是位于贵遵仁习赤白酒与红色文化旅游线路上，距习水县城仅29 公里，地理位置得天独厚。\n主题围绕本地区“古鰼部部落”文化打造，是一座远离海岸大山里呈现的海滩度假胜地，是黔北少数民族部落风情与丛林生态完美融合的乐园典范；设施包括国内首创“地上+空中”悬空式漂流河；拥有10000多平米9种模式的海啸造浪池及海浪池；超级大喇叭、疯狂巨碗兽、激情大黄蜂、极速大回环、四彩竞速滑道，以及亲子类儿童戏水池、山体滑梯、大型互动水寨等十余种高科技游乐项目。\n乐园采用最先进的水循环处理系统，池水4小时循环一次，用水达到饮用级标准；配备专业救生员及管理团队，确保每一位游客的健康和安全。\n园区相应的配套服务设施有大型停车场、游客广场、特色树屋餐厅、泳衣超市、商店、休闲吧及海航舞台等。是集水上娱乐、文化体验、亲水休闲、特色美食、文艺表演等多功能于一体的国内首座以“古鰼部部落”为主题的精品水上乐园，我们定为每一位游客提供最好最放心最难忘的水上娱乐之旅。"}}, {"title": "中国女红军纪念馆", "address": "贵州省习水县土城镇团结街", "image": "", "rank": 8, "time": 2, "location": {"lat": 28.2796360089562, "lng": 106.01481703042678}, "feature": {"sight_features": "", "sight_content": ""}}, {"title": "青杠坡红军烈士纪念碑", "address": "贵州省习水县土城镇青杠坡村，距土城镇东北５公里左右", "image": "", "rank": 9, "time": 2, "location": {"lat": 28.267716544425273, "lng": 106.0394950098971}, "feature": {"sight_features": "", "sight_content": ""}}, {"title": "习水森林公园", "address": "贵州省习水县县辖区 564600", "image": "", "rank": 10, "time": 4.0, "location": {"lat": 28.339117886481347, "lng": 106.20342803998653}, "feature": {"sight_features": "", "sight_content": ""}}, {"title": "红军医院纪念馆", "address": "土城镇青杠坡村", "image": "", "rank": 11, "time": 2, "location": {"lat": 28.267716544425273, "lng": 106.0394950098971}, "feature": {"sight_features": "", "sight_content": ""}}, {"title": "赤水河公社", "address": "遵义市习水县", "image": "", "rank": 12, "time": 2, "location": {"lat": 28.339117886481347, "lng": 106.20342803998653}, "feature": {"sight_features": "", "sight_content": ""}}, {"title": "习水县蓝水世界", "address": "向阳村四组", "image": "", "rank": 13, "time": 2, "location": {"lat": 30.765231429188596, "lng": 121.37344295812444}, "feature": {"sight_features": "", "sight_content": ""}}, {"title": "习水中亚热带森林", "address": "贵州省习水县境内 564600", "image": "", "rank": 14, "time": 3.0, "location": {"lat": 28.339117886481347, "lng": 106.20342803998653}, "feature": {"sight_features": "", "sight_content": ""}}, {"title": "习水石林", "address": "贵州省习水县西部 564600", "image": "", "rank": 15, "time": 1.0, "location": {"lat": 28.339117886481347, "lng": 101.1315951323264}, "feature": {"sight_features": "", "sight_content": ""}}, {"title": "佳贝乐儿童乐园", "address": "东皇镇西城区广场三楼", "image": "", "rank": 16, "time": 2, "location": {"lat": 39.91812360584148, "lng": 116.37251358116619}, "feature": {"sight_features": "", "sight_content": ""}}, {"title": "贝儿健儿童成长乐园", "address": "贵州省遵义市习水县东皇镇赤水中路习水绿洲医院附近", "image": "", "rank": 17, "time": 2, "location": {"lat": 28.335235767802786, "lng": 106.20248410235357}, "feature": {"sight_features": "", "sight_content": ""}}, {"title": "四渡赤水战役旧址青杠坡战斗遗址", "address": "土城镇青杠坡村,距土城镇东北5公里左右青杠坡红军烈士纪念碑附近", "image": "", "rank": 18, "time": 2, "location": {"lat": 28.268043914051873, "lng": 106.04329277610039}, "feature": {"sight_features": "", "sight_content": ""}}, {"title": "连年有鱼水族馆", "address": "九龙中路与九龙北路交叉口东南150米", "image": "", "rank": 19, "time": 2, "location": {"lat": 28.325895216725083, "lng": 106.2210016984691}, "feature": {"sight_features": "", "sight_content": ""}}, {"title": "卡奇乐儿童乐园", "address": "贵州省遵义市习水县东皇镇赤水西路佳诚花园二期", "image": "", "rank": 20, "time": 2, "location": {"lat": 28.33401016172647, "lng": 106.20539271228878}, "feature": {"sight_features": "", "sight_content": ""}}, {"title": "仙源丽景休闲广场", "address": "320县道附近", "image": "", "rank": 21, "time": 2, "location": {"lat": 38.68910912130428, "lng": 114.13840990157136}, "feature": {"sight_features": "", "sight_content": ""}}, {"title": "潘家庄渡假村", "address": "贵州省遵义市习水县", "image": "", "rank": 22, "time": 2, "location": {"lat": 28.339117886481347, "lng": 106.20342803998653}, "feature": {"sight_features": "", "sight_content": ""}}, {"title": "东风乐园", "address": "双黄公路附近", "image": "", "rank": 23, "time": 2, "location": {"lat": 28.275749037624472, "lng": 106.12581976910515}, "feature": {"sight_features": "", "sight_content": ""}}, {"title": "红军长征四渡赤水太平阻击战战场...", "address": "古习路", "image": "", "rank": 24, "time": 2, "location": {"lat": 28.160883922428432, "lng": 106.17572966274848}, "feature": {"sight_features": "", "sight_content": ""}}, {"title": "飞龙湖度假村", "address": "贵州省遵义市习水县福星村", "image": "", "rank": 25, "time": 2, "location": {"lat": 28.691871108765465, "lng": 106.57863947171427}, "feature": {"sight_features": "", "sight_content": ""}}, {"title": "太平古镇", "address": "古蔺县太平镇", "image": "", "rank": 26, "time": 2.5, "location": {"lat": 28.116106903402187, "lng": 106.08397323010662}, "feature": {"sight_features": "", "sight_content": ""}}, {"title": "贵州省习水县档案馆", "address": "府东路", "image": "", "rank": 27, "time": 2, "location": {"lat": 40.052764939970075, "lng": 117.41601319795963}, "feature": {"sight_features": "", "sight_content": ""}}, {"title": "汇香坊香薰图书馆", "address": "红二路和赤水西路的交叉口附近", "image": "", "rank": 28, "time": 2, "location": {"lat": 28.334087331330633, "lng": 106.19762157373137}, "feature": {"sight_features": "", "sight_content": ""}}, {"title": "习水大剧院", "address": "丹霞中路与赤水中路交叉口西150米", "image": "", "rank": 29, "time": 2.0, "location": {"lat": 28.327719365664752, "lng": 106.21102872327688}, "feature": {"sight_features": "", "sight_content": ""}}, {"title": "土城房车露营地", "address": "G546桦林山庄西北侧", "image": "", "rank": 30, "time": 2, "location": {"lat": 28.286999780339848, "lng": 106.00047025960627}, "feature": {"sight_features": "", "sight_content": ""}}, {"title": "蔡家院子休闲庄", "address": "土城镇财政所东南100米", "image": "", "rank": 31, "time": 2, "location": {"lat": 32.2656487383315, "lng": 110.69992097227868}, "feature": {"sight_features": "", "sight_content": ""}}, {"title": "飞鸽林场", "address": "贵州省习水县大坡镇", "image": "", "rank": 32, "time": 2, "location": {"lat": 28.525438284007596, "lng": 106.50196193517145}, "feature": {"sight_features": "", "sight_content": ""}}, {"title": "习水县世外桃园", "address": "遵义市-习水县-大坡镇飞鸽子国家森林公园", "image": "", "rank": 33, "time": 2, "location": {"lat": 28.556210073039686, "lng": 106.51647515032492}, "feature": {"sight_features": "", "sight_content": ""}}, {"title": "野心城寨舞台", "address": "贵州省遵义市习水县土城镇四渡赤水演艺中心", "image": "", "rank": 34, "time": 2, "location": {"lat": 28.278970943175025, "lng": 106.012500558331}, "feature": {"sight_features": "", "sight_content": ""}}]}