{"cityName": "浠水", "days": 2, "cityImage": "", "spots": [{"title": "湖北三角山旅游度假区", "address": "湖北省浠水县绿杨乡三角山棋盘石路4号", "image": "", "rank": 1, "time": 4.5, "location": {"lat": 30.486904324864668, "lng": 115.58301155679439}, "feature": {"sight_features": "特色1 三角山素有黄州府“笔架山”之称，以雄、奇、幽、秀而闻名遐迩。<br> 三角山旅游风景区人文资源丰富，优美动人的传说比比皆是。<br> 三角山拥有丰富的珍稀动植物资源，是天然的标本库，科研欣赏价值高。", "sight_content": "三角山位于大别山南麓，著名诗人、学者、民主斗士闻一多先生故乡浠水县东北部。因其三柱奇峰，状如兽角，突兀苍穹而得名，素有黄州府“笔架山”之称，以雄、奇、幽、秀而闻名遐迩。方圆60平方公里，有大小山峰28座，主峰三角尖海拔1055米，登峰眺望，极目千里，风光无限。\n三角山自然景观奇特：奇峰凌云，巍峨峥嵘；悬崖绝壁，沟壑纵横；怪石林立，似人状物；石洞奇观，妙趣横生；虹松古树，仪态万千；奇花异草，四时飘香……境内有笔架飞瀑、老龙仙洞、神鼠过梁、鹰沟峡谷、金鞭溪、卧仙石、棋盘石、屏风寨、八仙洞等景观景点１２０多处。著名的景点“笔架飞瀑”，壮观奇特，载入了《中国名胜辞典》。主峰东南有老龙洞，进洞口是横的，上镌“松结龙源”四字，出洞口是竖的，上刻“津液龙涎”四字，洞有三泉，其间烟云出没，当地人常据此预测阴睛。令人惊奇的是，龙洞的泉水象海水一样，一日分子时和午时两次涨潮，故有“子午泉”之称，涨潮时，随泉水溢出的泡天中，夹杂芦苇的残渣，更为龙洞增添了神秘的遐想。\n三角山旅游风景区人文资源丰富，优美动人的传说比比皆是。历代名人多有到过此山，或吟咏奇景，或访古探幽，或朝佛览胜，留下了绚丽多彩的人文景观。角山宗教文化深厚，名山古寺，交相辉映。其中最负盛名的“三大名寺”－－紫云寺、金轮寺、龙洞寺，是鄂东地区重要的宗教活动中心。此外，还有白去庵、天然庵、慈姑堂、五丰庵、观音阁、清风客等宗教寺观。据史志载，兴盛时期三角山曾有“三十六寺庙、七十二庵观”、“三千和尚，八百道人，游者如潮，朝者如市”的盛况。\n三角云开千古秀，养在深山人未识。”直到1991年，三角山才开始正式开辟旅游服务业，次年5月，三角山避暑山庄建成接待旅客。1993年7月，经林业部门批准建立三角山省级森林公园。1995年6月，被确立为浠水县、黄冈市爱国主义教育基地。近年来，公园管理处不断加强基础设施建设，向大中城市引进开发资金2500多万元，兴建旅游避暑旅馆15栋，可同时接纳1000多名游客。在不断扩大旅游接待规模的同时，各项配套设施日臻完善，已形成了吃、住、行、游、购、娱一条龙的服务体系，进一步扩大了三角山的知名度。截止目前，三角山森林公园共接待了海内外游客50万人次，接待各类会议、团体活动3000多场次。"}}, {"title": "三角山四季滑雪场", "address": "黄冈市浠水县绿杨乡黄溪冲村村部(近三角山主游客中心)", "image": "", "rank": 2, "time": 2, "location": {"lat": 30.49253073043559, "lng": 115.5534152091233}, "feature": {"sight_features": "特色1 一年四季均可体验滑雪的乐趣 特色2 PVC雪垫为您营造媲美天然雪景的感官盛宴。", "sight_content": "湖北三角山昊宇四季滑雪场欢迎您！三角山四季滑雪场是四季开放、昼夜开业的旱冰滑雪场，将运动健身、休闲旅游与自然山水巧妙融合，突出了人与自然的和谐。这个项目是近几年国内外颇为流行的室外运动项目。为了让游客朋友一年四季随时能够体验到滑雪的乐趣，景区采用特殊工艺制成的PVC雪垫铺设滑雪场，它和天然雪场的滑雪效果极为相似，安全舒适。"}}, {"title": "三角山滑道", "address": "黄冈市浠水县东部大别山脉南麓", "image": "", "rank": 3, "time": 2, "location": {"lat": 30.457460842265274, "lng": 115.2715690328918}, "feature": {"sight_features": "", "sight_content": ""}}, {"title": "鱼一跳动物园", "address": "黄冈市浠水县城区马垅村路边200米", "image": "", "rank": 4, "time": 2, "location": {"lat": 30.3045497916949, "lng": 115.17426211060915}, "feature": {"sight_features": "", "sight_content": ""}}, {"title": "宾果农庄", "address": "官塘村三组南家仓(南家仓、泽生道山庄旁)", "image": "", "rank": 5, "time": 2, "location": {"lat": 30.631108213980564, "lng": 115.14028566839009}, "feature": {"sight_features": "", "sight_content": ""}}, {"title": "浠水绿杨黄龙源农家乐", "address": "绿杨乡朴树村七组30号", "image": "", "rank": 6, "time": 4.5, "location": {"lat": 30.61523366233196, "lng": 115.52352711877175}, "feature": {"sight_features": "", "sight_content": ""}}, {"title": "白莲河大水桥水上乐园", "address": "白莲镇", "image": "", "rank": 7, "time": 2, "location": {"lat": 26.51650359456441, "lng": 117.3961794004149}, "feature": {"sight_features": "", "sight_content": ""}}, {"title": "浠水图书馆", "address": "双桥路16号", "image": "", "rank": 8, "time": 1.5, "location": {"lat": 28.6000283713632, "lng": 121.39799789927014}, "feature": {"sight_features": "", "sight_content": ""}}, {"title": "惠风画廊", "address": "学堂路", "image": "", "rank": 9, "time": 2, "location": {"lat": 37.80937463084338, "lng": 112.59285184294828}, "feature": {"sight_features": "", "sight_content": ""}}, {"title": "胡家祠堂", "address": "黄冈市浠水县二零一省道", "image": "", "rank": 10, "time": 2, "location": {"lat": 30.529062757298682, "lng": 115.53975947328618}, "feature": {"sight_features": "", "sight_content": ""}}, {"title": "青龙寺", "address": "黄冈市浠水县双桥南路552号", "image": "", "rank": 11, "time": 1.5, "location": {"lat": 30.451472072354825, "lng": 115.2804904359634}, "feature": {"sight_features": "", "sight_content": ""}}, {"title": "儿童乐园", "address": "湖北省黄冈市浠水县车站大道308号", "image": "", "rank": 12, "time": 2, "location": {"lat": 30.464364740569167, "lng": 115.26988264665283}, "feature": {"sight_features": "", "sight_content": ""}}, {"title": "省容儿童乐园", "address": "湖北省黄冈市浠水县丽文大道547号", "image": "", "rank": 13, "time": 2, "location": {"lat": 30.44870591967317, "lng": 115.27029153106673}, "feature": {"sight_features": "", "sight_content": ""}}, {"title": "黄冈市何氏宗祠", "address": "湖北省黄冈市浠水县河西街", "image": "", "rank": 14, "time": 7.5, "location": {"lat": 30.478885031279873, "lng": 115.48405820580015}, "feature": {"sight_features": "", "sight_content": ""}}, {"title": "慈慧寺", "address": "湖北省黄冈市浠水县", "image": "", "rank": 15, "time": 2, "location": {"lat": 30.457460842265274, "lng": 115.2715690328918}, "feature": {"sight_features": "", "sight_content": ""}}, {"title": "渡家祠堂", "address": "黄冈市浠水县二零二省道", "image": "", "rank": 16, "time": 2, "location": {"lat": 30.457460842265274, "lng": 115.2715690328918}, "feature": {"sight_features": "", "sight_content": ""}}, {"title": "策湖水乡度假村", "address": "策湖养殖场策湖大道98号", "image": "", "rank": 17, "time": 2, "location": {"lat": 30.246387640798673, "lng": 115.18079996822941}, "feature": {"sight_features": "", "sight_content": ""}}, {"title": "浠水县芝麻湖生态农庄", "address": "巴河镇芝麻湖村1组", "image": "", "rank": 18, "time": 2, "location": {"lat": 30.739673082826553, "lng": 116.98032427290336}, "feature": {"sight_features": "", "sight_content": ""}}, {"title": "恩德寺", "address": "散花街附近", "image": "", "rank": 19, "time": 2, "location": {"lat": 30.232951590441168, "lng": 115.14661572458994}, "feature": {"sight_features": "", "sight_content": ""}}, {"title": "灵秀山家园度假村", "address": "浠水绿杨乡三角山4A级风景区内", "image": "", "rank": 20, "time": 2, "location": {"lat": 30.486904324864668, "lng": 115.58301155679439}, "feature": {"sight_features": "", "sight_content": ""}}, {"title": "补堰祠堂", "address": "黄冈市浠水县发展大道", "image": "", "rank": 21, "time": 2, "location": {"lat": 30.434143397842874, "lng": 115.26849221345228}, "feature": {"sight_features": "", "sight_content": ""}}, {"title": "金色阳光儿童城", "address": "新华正街246号", "image": "", "rank": 22, "time": 2, "location": {"lat": 30.463251179339544, "lng": 115.27070504248897}, "feature": {"sight_features": "", "sight_content": ""}}, {"title": "张家祠堂", "address": "湖北省黄冈市浠水县G45(大广高速公路)", "image": "", "rank": 23, "time": 2, "location": {"lat": 30.483515173162566, "lng": 115.06726783565603}, "feature": {"sight_features": "", "sight_content": ""}}, {"title": "艾家祠堂", "address": "黄冈市浠水县", "image": "", "rank": 24, "time": 2, "location": {"lat": 30.457460842265274, "lng": 115.2715690328918}, "feature": {"sight_features": "", "sight_content": ""}}, {"title": "爱儿玛儿童乐园", "address": "湖北省黄冈市浠水县双桥路", "image": "", "rank": 25, "time": 2, "location": {"lat": 30.449650168607427, "lng": 115.28071896351126}, "feature": {"sight_features": "", "sight_content": ""}}, {"title": "凯旋场广场", "address": "棉纺路与胡家坪路交叉口北50米", "image": "", "rank": 26, "time": 2, "location": {"lat": 30.47709594204959, "lng": 115.28025011091644}, "feature": {"sight_features": "", "sight_content": ""}}, {"title": "洪山寨渡假村", "address": "黄冈市浠水县洪山村", "image": "", "rank": 27, "time": 2, "location": {"lat": 30.425101440497382, "lng": 115.25897469621813}, "feature": {"sight_features": "", "sight_content": ""}}, {"title": "麦合儿童乐园", "address": "清泉路48号附近", "image": "", "rank": 28, "time": 2, "location": {"lat": 36.280127561444615, "lng": 120.0222240045129}, "feature": {"sight_features": "", "sight_content": ""}}, {"title": "乐贝儿儿童主题乐园", "address": "湖北省黄冈市浠水县灵宫路", "image": "", "rank": 29, "time": 2, "location": {"lat": 30.222685609639814, "lng": 115.139246017203}, "feature": {"sight_features": "", "sight_content": ""}}, {"title": "工人文化宫儿童乐园", "address": "湖北省黄冈市浠水县新华正街", "image": "", "rank": 30, "time": 2, "location": {"lat": 30.460384850034774, "lng": 115.27233847647638}, "feature": {"sight_features": "", "sight_content": ""}}, {"title": "晏公寺", "address": "鄂江左附近", "image": "", "rank": 31, "time": 2, "location": {"lat": 29.76345665586862, "lng": 116.02242971349004}, "feature": {"sight_features": "", "sight_content": ""}}, {"title": "浠水科技馆", "address": "双桥路153-3号", "image": "", "rank": 32, "time": 2.5, "location": {"lat": 28.60255798183524, "lng": 121.39649274077848}, "feature": {"sight_features": "", "sight_content": ""}}, {"title": "闻一多纪念馆", "address": "红烛路1号", "image": "", "rank": 33, "time": 2, "location": {"lat": 25.061440490176327, "lng": 102.70240808775841}, "feature": {"sight_features": "", "sight_content": ""}}, {"title": "尚一特欢乐水世界", "address": "城北丽文大道老转盘清泉派出所南50米", "image": "", "rank": 34, "time": 2, "location": {"lat": 36.656293630836586, "lng": 101.77240488175582}, "feature": {"sight_features": "", "sight_content": ""}}, {"title": "万源葡萄度假庄园", "address": "散花镇郭畈村内(浠散公路旁)", "image": "", "rank": 35, "time": 2, "location": {"lat": 30.425230637973755, "lng": 115.25908476738888}, "feature": {"sight_features": "", "sight_content": ""}}, {"title": "龙感湖农场", "address": "文化路43号附近", "image": "", "rank": 36, "time": 2, "location": {"lat": 39.6450466689546, "lng": 118.19246608166281}, "feature": {"sight_features": "", "sight_content": ""}}, {"title": "金藤葡萄休闲农场", "address": "马桥港村铁路桥往黄石方向2公里", "image": "", "rank": 37, "time": 2, "location": {"lat": 30.205207848941598, "lng": 115.04553290894361}, "feature": {"sight_features": "", "sight_content": ""}}, {"title": "语香生态园", "address": "重阳阁路52号", "image": "", "rank": 38, "time": 2, "location": {"lat": 30.447146093193574, "lng": 115.26732989954614}, "feature": {"sight_features": "", "sight_content": ""}}, {"title": "星期六儿童成长主题乐园", "address": "中心街126号附近", "image": "", "rank": 39, "time": 2, "location": {"lat": 30.80005344071353, "lng": 121.42077357142772}, "feature": {"sight_features": "", "sight_content": ""}}, {"title": "谈家小镇", "address": "202省道", "image": "", "rank": 40, "time": 2, "location": {"lat": 37.77792504283699, "lng": 114.12616671611477}, "feature": {"sight_features": "", "sight_content": ""}}, {"title": "马弯山", "address": "黄冈市-浠水县", "image": "", "rank": 41, "time": 2, "location": {"lat": 30.457460842265274, "lng": 115.2715690328918}, "feature": {"sight_features": "", "sight_content": ""}}, {"title": "望天湖鱼场", "address": "黄冈市-浠水县-巴河镇望天湖", "image": "", "rank": 42, "time": 2, "location": {"lat": 30.439920220023673, "lng": 115.0698881398286}, "feature": {"sight_features": "", "sight_content": ""}}]}