{"cityName": "休宁", "days": 2, "cityImage": "", "spots": [{"title": "齐云山", "address": "黄山市休宁县城西约15公里处", "image": "", "rank": 1, "time": 4.5, "location": {"lat": 29.795459004962712, "lng": 118.20543014115599}, "feature": {"sight_features": "特色1 一年多达260天云海，常年云雾缭绕。 特色2 悬崖上的月华天街，徽派建筑与道家文化相映生辉 特色3 摩崖石刻号称“江南第一”，丹霞地貌徽州独有 特色4 梦真桥拜学，太素宫求子，寿字崖添寿，皇家道场，祈福圣地 特色5 取法天地的道家仙山，横江、登封桥、八卦田构成一副天然太极图", "sight_content": "齐云山，古称白岳，坐落在徽文化发祥地素有“中国状元之乡” “中国罗经之乡”美誉的安徽省黄山市休宁县境内，系中国四大道教名山之一。齐云山系道家“桃源洞天”，为中国道教四大名山之一。素有“黄山白岳甲江南”之美誉。因最高峰“一石插天、与云并齐”而得名。\n仙山云海\n齐云山的云海一年多达260天，山环水曲的地形，造就了一个藏风纳气的格局，使得它的云海非常稳定的停留在离地面七八十米的高度。齐云山的云海持续的时间极长，游齐云山如同在云海穿行。\n云上天街\n\n月华街号称“中国道家第一村”，因半悬峭壁之上，所以被称为“天街”；又因云海持续的时间极长，游月华街如同在云海穿行，所以月华街又被称为“云上天街”。 “云上天街”上现有30户人家，大多从事旅游业，道士与山民杂居于此，徽派民居与道教建筑相映成趣。来云上天街，感受道民同居的仙境时光，漫步在幽静的天街里，仿佛已经忘记了时间。云来不知身处何时，云去不知梦归何处。\n天然太极\n齐云山生态环境良好。山下横江是钱塘江、富春江及新安江的源头，从黟县吉阳山一路奔腾而来，至齐云山下山水回环，与两岸的八卦田一起构成了一幅天然太极图，登封古桥横卧其上，联通阴阳，彰显了道家取法天地大道之理。\n摩崖石刻\n“名文重金石、道德托乾坤”，古往今来登临齐云山的文人雅士,如朱熹、唐伯虎、徐霞客、曾国藩、郁达夫等都曾留下佳句名篇，或镌刻丹崖之上，或立碑幽洞之中。齐云山石刻现存537件，被国务院列为全国重点文物保护单位。\n\n祈福圣地\n长久以来，这座闻名遐迩的道教圣地，不仅以天开神秀的美丽景色和源远流长的文化底蕴享誉江南，更以灵验的祈福体验让世人趋之若鹜。休宁的十九位状元、明清徽州2996位举人，来山拜学成功，让梦真桥成了读书人心目中的圣地；朱熹题写的寿字，则让每一位游山之人都享受着“添寿”的乐趣；嘉靖皇帝求子应验的事件，无疑让太素宫声名远播；小壶天内加官晋爵，则了却士人“治国平天下”的夙愿。"}}, {"title": "徽州大峡谷", "address": "黄山市休宁县源芳乡渔林村", "image": "", "rank": 2, "time": 2.0, "location": {"lat": 29.582662604092693, "lng": 118.36166817126637}, "feature": {"sight_features": "特色1 悬崖峭壁蜿蜒曲折，群山连绵、飞瀑流泉，景色宜人。 特色2 谷里清溪奔流、碧潭、翠池、银瀑交相辉的水彩画。 特色3 不经意间与珍稀动物擦肩而过。", "sight_content": "源芳翠谷：翠谷以峡谷风光见长，长约三里。谷里清溪奔流、碧潭、翠池、银瀑交相辉映，仿佛是一幅天然的水彩画。林中夹生的叶竹和形态各异的奇松怪石。\n\n以及乐于西息于此的珍稀动物使得谷中的任何一景，都有如一幅优美而出色的图画一般，让人在峡谷走如在画中游。在这里游客还能观飞瀑、闯深潭、走栈道、登山石，体验大自然带来的无穷魅力。"}}, {"title": "古城岩", "address": "黄山市休宁县万安镇东侧", "image": "", "rank": 3, "time": 2.0, "location": {"lat": 29.8256781908996, "lng": 118.22899111635212}, "feature": {"sight_features": "特色1 众多的古迹遗址和“寿山旭日”的奇特景观", "sight_content": "古城岩，座落在休宁县万安镇东侧，虽是低低的一面山峦，却以众多的古迹遗址、悠久的历史传承和“寿山旭日”的奇特景观而闻名于世。\n\n在今人眼里，古城岩简直化成了徽州历史、徽州风情、徽州传奇的一个文化符号古城岩景区内建有从全县各地原汁原味迁移而来的古牌坊、古民居、古祠堂、古庙、古门楼、古牌楼等，这些古建筑与古城岩原有的“汪王故宫”、“朱元璋避难洞”、“练心石”、“半亭”、“方竹丛”等遗址及气势宏伟的万寿塔和谐布局，互为映衬，历史文化与自然山水完美融合，充分显示了古徽州古朴隽逸的风貌，加之景区内特设了精彩趣味的石雕、木雕、墨坊、罗盘制作等游客参与节目及具有浓郁地方特色的民间艺术表演，更让游客如痴如醉，宛如走进了遥远的明清社会。"}}, {"title": "枧潭漂流", "address": "安徽省黄山市休宁县蓝田镇枧潭", "image": "", "rank": 4, "time": 2, "location": {"lat": 29.911969732148474, "lng": 118.10533953991069}, "feature": {"sight_features": "", "sight_content": "枧潭风景区位于休宁县的最北端，座落在黄山、宏村这两大世界文化遗产地的黄金线上。去黄山风景区十五分钟车程，距西递，宏村十二分钟时间，离情人谷不足二十公里，交通十分便捷。\n方圆四百亩的景区内古树参天，修竹幽幽，物产丰富，水源充沛，峡谷幽深中弥漫着原始的乡土气息。2012年人们发现了它，马上就把它增补为“黄山市百佳摄影点”，同时又被确定为“美好乡村建设示范点”。\n景区最刺激的就数卧龙潭漂流了，卧龙潭深9米左右，也是漂流的起点，漂流全程长约2公里，驾着无动力的小舟，利用船桨掌握好方向，在时而湍急时而平缓的水流中顺流而下，在与大自然抗争中演绎精彩的瞬间。一项勇敢者的运动。一条蜿蜒流动的河，延伸在峡谷坚硬的腹地。乘着橡皮艇顺流而下，天高水长，阳光普照，四面青山环绕，漂流其间，迎面而来的是一种期待---期待刺激！期待惊险！期待与自然的搏斗！期待\"有惊无险\"后的轻松！在忙碌的都市生活中，人们一直在寻找的就是这样的一种激动、一种区别于平凡生活的独特感受。就是这样一种感受，使都市人为之倾倒，使之成为生活的一部分。\n卧龙潭中的这三棵树，分别有800、700、600年的树龄。当地人说：这是黄龙的三只爪子。传说龙有五爪龙和四爪龙之分，真龙五爪。因我们卧龙潭里藏着黄龙，所以有五爪，还有两只爪子隐藏在左边的山中。\n卧龙潭的另一边，横卧着一条通往古黟——桃花源里的古道。古道那头还有个驿站。这古道走过了多少英雄豪杰、高官大贾、文人雅士！\n总的说，枧潭四季分明：春天青峰滴翠，山花烂漫；夏季清凉一片，处处飞瀑；深秋时节，红叶如霞，硕果累累；寒冬腊月，银装素裹，冰雕玉砌，确实是个踏青、避暑、採果、赏雪的绝好之处。"}}, {"title": "木梨硔", "address": "黄山市休宁县溪口镇境内", "image": "", "rank": 5, "time": 4.5, "location": {"lat": 29.69200646673152, "lng": 118.01904491705591}, "feature": {"sight_features": "", "sight_content": ""}}, {"title": "三溪大峡谷", "address": "黄山市休宁县三溪村", "image": "", "rank": 6, "time": 2, "location": {"lat": 29.436902013236136, "lng": 118.19542540008435}, "feature": {"sight_features": "", "sight_content": ""}}, {"title": "休宁大熊猫生态乐园", "address": "黄山市休宁县齐云西大道161号", "image": "", "rank": 7, "time": 1.0, "location": {"lat": 29.793487248455676, "lng": 118.19503342267858}, "feature": {"sight_features": "特色1 近距离接触野生放养的熊猫宝贝", "sight_content": "大熊猫生态乐园大熊猫能来休宁，和休宁的原生态环境是密切相关的。大熊猫的祖先是始熊猫，距今约300万年的更新世初期出现，体形比现在的熊猫小。距今约50—70万年前是大熊猫的鼎盛时期，其分布广泛，我国华东地区也发现了大熊猫祖先的化石。黄山也是大熊猫祖先生活过的地区之一。后来同期的动物相继灭绝，大熊猫却孑遗至今，并保持原有的古老特征，有很多科学价值，因而被誉为“活化石”，中国把它誉为“国宝”。如今大熊猫分布范围已十分狭窄，仅限于我国四川北部、陕西和甘肃南部。09年11月，休宁县依托皖南国家野生动物救护中心的资源优势，成功争取到与中国大熊猫研究中心的合作项目。国家林业局专家组实地考察后，认为休宁县气候环境与卧龙大熊猫基地极为相似，所处的纬度也很相近，且该县周边竹类资源丰富，特别是大熊猫爱吃的水竹笋和雷竹笋数量众多，是适合大熊猫生存的好地方。因此国家林业局一致通过该项目评审。经历这么多年，休宁仍保留了适合大熊猫生活的原生态环境。大熊猫能再次在休宁安家落户，回到祖先曾经生活过的地方，实属不易。\n生态乐园给大熊猫们提供的生活环境完全模拟大熊猫野外生活环境，活动场内绿草如茵，林木茂盛，山石奇异、流水潺潺。在这里，能够看到憨态可掬的大熊猫们引人发笑的行为举止，可以看到它们在林间悠闲地漫步，在水中嬉戏玩耍，轻灵地攀爬上树，津津有味地享受美餐。 在这里，没有铁制栏杆与玻璃笼子，可以近距离接触到野生放养状态的熊猫宝贝，体会人与动物之间的自然与和谐，体会大熊猫在野生环境下无忧无虑的快乐心情。2008年卧龙大熊猫保护基地受地震灾害影响，大熊猫的活动空间变小，该基地通过国家和四川省的林业主管部门，将部分大熊猫陆续借养外地。休宁极有可能成为大熊猫的第二故乡。"}}, {"title": "源芳大峡谷漂流", "address": "黄山市休宁县源芳乡渔林村", "image": "", "rank": 8, "time": 2, "location": {"lat": 29.582662604092693, "lng": 118.36166817126637}, "feature": {"sight_features": "特色1 险、绿、幽、趣", "sight_content": "源芳极速漂流堪称漂流之王，有破浪漂、s型漂、冲浪漂、跳台漂、漩涡漂、遨游漂等等，实为漂流一绝。其特点可以用“险、绿、幽、趣”四个字来概括。河道位于蜈蚣坑和上渔塘村之间，全程3.7公里，总体落差100多米。\n河道两旁险峰绝壁、柳树成荫，河道中怪石嶙峋、激流不断，特别是有多处河道狭窄、水流很急落差在5-8米的地方，需漂流游客紧抓橡皮艇拉手，飞驰前进。在“之”字形的河道中迂回，九曲十八弯，一波未停，一波又起，惊喜不断。乘上橡皮筏在这最清澈纯净的河水中激流勇进，让游客真正的体验到源芳极速漂流带来的惊险、刺激。"}}, {"title": "夹溪河漂流", "address": "黄山市休宁县蓝田镇儒村", "image": "", "rank": 9, "time": 2, "location": {"lat": 29.911969732148474, "lng": 118.10533953991069}, "feature": {"sight_features": "特色1 超长5公里顺流直下 特色2 惊险而有趣，还有美景与惬意 特色3 悬崖壁立,林木繁茂,享受漂流,享受黄山 特色4 一路漂来山鸟鸣翠，心旷神怡。一路佳景美不胜收", "sight_content": "景区是黄山新型特色小景区。皮筏艇冲浪漂流。皮筏冲浪漂流是旅游业的新兴产业，具有娱乐性和刺激性，同时也是新世纪体育健身游。黄山夹溪河皮筏漂流位于黄山脚下，距黄山市（屯溪）48公里，黄山景区（汤口镇）12公里，世界文化遗产西递、宏村20公里。翡翠谷20公里。起点于旅游黄金通道——屯黄公路儒村隧道口，汤口至宏村的宏儒公路儒村隧道口（宏村至儒村），交通十分便捷。\n\n夹溪河漂流全程约5公里，乘皮筏顺流而下，两岸风景秀丽，群山环绕，悬崖壁立，林木繁茂，竹海茫茫，茶园连绵。时而险峰、奇石、蓝天、白云倒映、水浅处清澈见底、水深处如翡翠碧玉，鱼虾嬉戏水其中，“荡舟清波上、人在画中游”的美妙遐想，您会油然而生。\n一路漂来山鸟鸣翠，心旷神怡。一路佳景美不胜收。夹溪河皮筏冲浪是黄山新型特色小景区。是黄山唯一的皮筏艇冲浪漂流。是您来游黄山，玩水最佳去处。"}}, {"title": "养生河漂流", "address": "黄山市休宁县岭南乡", "image": "", "rank": 10, "time": 2, "location": {"lat": 29.46116764291756, "lng": 118.16803298839778}, "feature": {"sight_features": "", "sight_content": ""}}, {"title": "见明堂民俗博物馆", "address": "黄山市休宁县（蓝田路）齐云丽庭2—26号", "image": "", "rank": 11, "time": 2, "location": {"lat": 29.796631744241573, "lng": 118.20519119189039}, "feature": {"sight_features": "", "sight_content": ""}}, {"title": "山越民俗风情园", "address": "黄山市休宁县海阳镇盐铺村。", "image": "", "rank": 12, "time": 2, "location": {"lat": 29.805343338549406, "lng": 118.17213749539023}, "feature": {"sight_features": "", "sight_content": ""}}, {"title": "颜公河漂流", "address": "黄山市休宁县山斗乡", "image": "", "rank": 13, "time": 2, "location": {"lat": 29.534728416965798, "lng": 118.16683146525314}, "feature": {"sight_features": "", "sight_content": ""}}, {"title": "自由家黄山齐云营地", "address": "黄山市休宁县东亭村326省道旁（齐云山脚下）", "image": "", "rank": 14, "time": 2, "location": {"lat": 29.812235326640106, "lng": 118.04321412952282}, "feature": {"sight_features": "特色1 由专业玩家全程带你深入山林，体验野奢", "sight_content": "‍‍‍‍自由家，一个这样的地方，它有山、有水、有林；有蓝天、有清风、有明月；有虫鸣、有鸟叫、有歌声；有平和、有静谧、有时光。‍‍\n\n\n让你来一次都市喧嚣、疲惫、压力的大逃离，换一场自然惬意、闲适、舒缓的真生活。\n\n\n‍‍这里没有钢筋水泥的高楼大厦，有的是拥月色沐朝阳的林间树屋，清新富氧的绿色自然纯粹。‍‍\n\n\n这里没有让人疏离的高科技，有的是让大家促膝相谈，一同寻欢的美好时光。\n\n\n让我们回归最初的生活，与爱人慢慢享受午后时光，跟朋友清茶一杯敞开心扉，陪孩子一起认真撒欢娱乐，和陌生人对酒当歌来一场夜色high趴。\n还有徒手攀岩、皮划艇、射箭、高空探险……，精彩的体验定让你留有独一无二的人生记忆。\n‍‍"}}, {"title": "登封桥", "address": "黄山市休宁县齐云山风景名胜区内", "image": "", "rank": 15, "time": 0.2, "location": {"lat": 29.82070838506045, "lng": 118.05145868137198}, "feature": {"sight_features": "", "sight_content": ""}}, {"title": "岭脚村", "address": "安徽省休宁县岭脚村", "image": "", "rank": 16, "time": 2.5, "location": {"lat": 29.60640081151104, "lng": 118.39116906767914}, "feature": {"sight_features": "", "sight_content": ""}}, {"title": "竹林野战真人CS", "address": "", "image": "", "rank": 17, "time": 2, "location": {"lat": 41.278548435650826, "lng": 123.18578683161256}, "feature": {"sight_features": "", "sight_content": ""}}, {"title": "中国状元博物馆", "address": "安徽省黄山市休宁县萝宁街萝宁路", "image": "", "rank": 18, "time": 2, "location": {"lat": 29.792936387021328, "lng": 118.18864570514845}, "feature": {"sight_features": "", "sight_content": ""}}, {"title": "小壶天艺术馆", "address": "安徽省休宁县326省道", "image": "", "rank": 19, "time": 2, "location": {"lat": 29.78782422453233, "lng": 118.14732199163453}, "feature": {"sight_features": "", "sight_content": ""}}, {"title": "玉虚宫", "address": "位于安徽省休宁县城西十五公里处的齐云山紫霄崖下", "image": "", "rank": 20, "time": 1.0, "location": {"lat": 29.812235326640106, "lng": 118.04321412952282}, "feature": {"sight_features": "", "sight_content": ""}}, {"title": "中国状元文化大观园", "address": "海阳镇瑯斯村", "image": "", "rank": 21, "time": 2, "location": {"lat": 39.977779935862884, "lng": 119.52488683186733}, "feature": {"sight_features": "", "sight_content": ""}}, {"title": "月华街", "address": "徽州休宁县城西十五公里处", "image": "", "rank": 22, "time": 2, "location": {"lat": 36.63449697952408, "lng": 101.77241422413312}, "feature": {"sight_features": "", "sight_content": ""}}, {"title": "齐云山石刻", "address": "安徽省休宁县齐云山", "image": "", "rank": 23, "time": 2, "location": {"lat": 29.812235326640106, "lng": 118.04321412952282}, "feature": {"sight_features": "", "sight_content": ""}}, {"title": "洞天福地", "address": "安徽休宁县齐云山", "image": "", "rank": 24, "time": 2, "location": {"lat": 29.812235326640106, "lng": 118.04321412952282}, "feature": {"sight_features": "", "sight_content": ""}}, {"title": "真仙洞府", "address": "位于徽州休宁县城西十五公里处", "image": "", "rank": 25, "time": 2, "location": {"lat": 36.63449697952408, "lng": 101.77241422413312}, "feature": {"sight_features": "", "sight_content": ""}}, {"title": "白际大峡谷", "address": "安徽省黄山市休宁县", "image": "", "rank": 26, "time": 2, "location": {"lat": 29.795459004962712, "lng": 118.20543014115599}, "feature": {"sight_features": "", "sight_content": ""}}, {"title": "方腊寨", "address": "位于齐云山独耸岩上", "image": "", "rank": 27, "time": 2, "location": {"lat": 30.467491354394124, "lng": 118.26730556029307}, "feature": {"sight_features": "", "sight_content": ""}}, {"title": "休宁中学", "address": "安徽省黄山市休宁县103省道 ‎", "image": "", "rank": 28, "time": 1.5, "location": {"lat": 29.957557778807566, "lng": 118.09948255205536}, "feature": {"sight_features": "", "sight_content": ""}}, {"title": "平鼻岭古道", "address": "安徽省黄山市休宁县汪村镇岭脚自然村", "image": "", "rank": 29, "time": 2, "location": {"lat": 29.588291079812723, "lng": 117.80705977355787}, "feature": {"sight_features": "", "sight_content": ""}}, {"title": "望仙亭", "address": "白云山景区入门处", "image": "", "rank": 30, "time": 2, "location": {"lat": 23.4900991997743, "lng": 111.33952016958631}, "feature": {"sight_features": "", "sight_content": ""}}, {"title": "太素宫", "address": "位于安徽省休宁县城西十五公里处的齐云山齐云岩", "image": "", "rank": 31, "time": 2, "location": {"lat": 29.812235326640106, "lng": 118.04321412952282}, "feature": {"sight_features": "", "sight_content": ""}}, {"title": "寿字崖", "address": "齐云山景区内", "image": "", "rank": 32, "time": 2, "location": {"lat": 30.467491354394124, "lng": 118.26730556029307}, "feature": {"sight_features": "", "sight_content": ""}}, {"title": "梦真桥", "address": "齐云山景区内", "image": "", "rank": 33, "time": 2, "location": {"lat": 30.467491354394124, "lng": 118.26730556029307}, "feature": {"sight_features": "", "sight_content": ""}}, {"title": "五城老街", "address": "安徽省黄山市休宁县五城镇", "image": "", "rank": 34, "time": 2, "location": {"lat": 29.608017083651625, "lng": 118.19225688161939}, "feature": {"sight_features": "", "sight_content": ""}}, {"title": "黄山野生动物园", "address": "三二六省道", "image": "", "rank": 35, "time": 2.0, "location": {"lat": 37.04107050186962, "lng": 114.59294494385392}, "feature": {"sight_features": "", "sight_content": ""}}, {"title": "石桥岩", "address": "安徽省齐云山景区内", "image": "", "rank": 36, "time": 0.3, "location": {"lat": 30.467491354394124, "lng": 118.26730556029307}, "feature": {"sight_features": "", "sight_content": ""}}, {"title": "齐云山太极漂流", "address": "黄山市休宁县齐云山风景区内", "image": "", "rank": 37, "time": 2, "location": {"lat": 29.82029402364743, "lng": 118.05115542241498}, "feature": {"sight_features": "", "sight_content": "齐云山太极漂流以打造“最具诗情画意的道家休闲养生观光漂流”为目标，齐云山太极漂流以横江竹筏游为主打特色，漂流竹筏四季皆宜。\n融合徽州原生态水乡田园风情、道家文化以及齐云山独特的自然资源禀赋，营造特色旅游的高等级漂流景观，漂流河道长约4公里，可畅游45分钟-1小时。沿途景观有水乡徽韵、田园风光、齐云仙境、登封古桥等。\n真正的浪漫需要一些新奇，一些惊喜，一些想像力。和心爱的他共度花前月下，或约上三二个闺蜜，共赴山高水长。这里瑞云缭绕,祥气笼罩,鸟儿在蓝天白云间鸣啭,牛羊在绿草红花中徜徉,人们在古桥流水边悠闲,阳光照耀着生命的年轮,雪山涤荡着灵魂的尘埃.只有聆听，只有感悟，只有凝视人与自然那种相处的和谐，那种柔情的倾诉，那种深深的依恋，把这些统统的加在一起，这就是横江太极漂流。\n两岸景观美不胜收，令人流连忘返。齐云美景、千峰叠翠、绿树繁荫、仙雾缭绕，粉墙黛瓦，山花野草遍布，历史悠久的登封古桥，气势雄伟，有“夸川如虹，卧波如龙”之势。船在水中漂，人在画中游。\n在奔波忙碌的工作之余带上您的亲人、朋友，徜徉于仙山圣水之中自由呼吸、修身养心，切身感受皖风徽韵、山水之乐。完美的旅程，一颗向往自然的心，体验到的必将是健康和生态。"}}, {"title": "黄山赛车梦想秀", "address": "黄山市休宁县齐云山镇齐云山风景区月华索道口", "image": "", "rank": 38, "time": 2, "location": {"lat": 29.82029402364743, "lng": 118.05115542241498}, "feature": {"sight_features": "", "sight_content": "中国汽车特技表演队成立于2007年1月，是由国内资深赛车人、赛车教练范建义老师发起创立的国内第一支专业汽车特技表演队。以“规范运作、展现特技、德艺双馨、共同发展”的优质运营理念的基础上，更加明晰了“将卓越的汽车特技表现展现给大众，将非凡的汽车特技精神保留给自己”的精神，实现了持续稳健的快速发展。\n目前已拥有经过特殊改装的表演车辆20辆，训练用车40辆，大型轿运车1辆，工具运输车1辆，进口技巧、越野摩托、漂移三轮摩托共8辆，并且拥有经过严格训练的表演队员二十余人，可靠的技术保障，扎实的专业技能足以提供各种各样不同层次和规模的汽车特技表演。"}}, {"title": "大熊猫乐园欢乐水世界", "address": "凤凰山公园南侧", "image": "", "rank": 39, "time": 2, "location": {"lat": 30.624817231628644, "lng": 119.71161505242863}, "feature": {"sight_features": "", "sight_content": ""}}, {"title": "龙源谷", "address": "山斗乡天井山", "image": "", "rank": 40, "time": 2, "location": {"lat": 29.553329356737773, "lng": 118.20613052840254}, "feature": {"sight_features": "", "sight_content": ""}}, {"title": "应桃小灶农家乐", "address": "齐云山景区东亭大队南坑组(近登封路街)", "image": "", "rank": 41, "time": 2, "location": {"lat": 29.812235326640106, "lng": 118.04321412952282}, "feature": {"sight_features": "", "sight_content": ""}}, {"title": "黄山市苗木示范基地", "address": "326省道南100米", "image": "", "rank": 42, "time": 2.0, "location": {"lat": 37.04035035416689, "lng": 114.59294494385392}, "feature": {"sight_features": "", "sight_content": ""}}, {"title": "润一家庭农场", "address": "东临溪镇上临溪村", "image": "", "rank": 43, "time": 2, "location": {"lat": 29.67928136015736, "lng": 118.30580736384192}, "feature": {"sight_features": "", "sight_content": ""}}, {"title": "璜源", "address": "镇政府往南20公里", "image": "", "rank": 44, "time": 2, "location": {"lat": 38.79520318989038, "lng": 116.9295478872232}, "feature": {"sight_features": "", "sight_content": ""}}, {"title": "龙田乡", "address": "黄山市南大门", "image": "", "rank": 45, "time": 2, "location": {"lat": 29.721889786591692, "lng": 118.34543725314781}, "feature": {"sight_features": "", "sight_content": ""}}, {"title": "婺源五龙山", "address": "江西省婺源县境内 333200", "image": "", "rank": 46, "time": 2.5, "location": {"lat": 29.254039048096878, "lng": 117.86844502242613}, "feature": {"sight_features": "", "sight_content": ""}}, {"title": "养生河", "address": "安徽省休宁县三溪村 245401", "image": "", "rank": 47, "time": 0.5, "location": {"lat": 29.436902013236136, "lng": 118.19542540008435}, "feature": {"sight_features": "", "sight_content": ""}}, {"title": "Qiyun Shan (斉雲山)", "address": "齐云山镇, Xiuning, Huangshan, Anhui, China", "image": "", "rank": 48, "time": 2, "location": {"lat": 29.825739416854617, "lng": 118.08790329791688}, "feature": {"sight_features": "", "sight_content": ""}}, {"title": "绿色氧吧古老村落", "address": "白际项山村项来寿(近浙江千岛湖)", "image": "", "rank": 49, "time": 2, "location": {"lat": 29.521307987732296, "lng": 118.43773541072387}, "feature": {"sight_features": "", "sight_content": ""}}, {"title": "海阳大戏楼", "address": "万宁街木工学校对面", "image": "", "rank": 50, "time": 2, "location": {"lat": 37.51418403056634, "lng": 122.09726112345422}, "feature": {"sight_features": "", "sight_content": ""}}, {"title": "万安古镇", "address": "县城东", "image": "", "rank": 51, "time": 2, "location": {"lat": 26.464072836340645, "lng": 114.79257715893954}, "feature": {"sight_features": "", "sight_content": ""}}, {"title": "松萝茶文化博览园", "address": "尧舜路3-08号", "image": "", "rank": 52, "time": 2, "location": {"lat": 33.34623214664579, "lng": 120.16376096227518}, "feature": {"sight_features": "", "sight_content": ""}}, {"title": "木梨硔八仙客栈", "address": "詹梨村", "image": "", "rank": 53, "time": 2, "location": {"lat": 29.651464230879636, "lng": 118.01375538340118}, "feature": {"sight_features": "", "sight_content": ""}}, {"title": "山水人家农家乐", "address": "白际乡政府往西100米", "image": "", "rank": 54, "time": 2, "location": {"lat": 29.538112503532023, "lng": 118.40421334401911}, "feature": {"sight_features": "", "sight_content": ""}}, {"title": "欣徽勤园家庭农场", "address": "万安镇海宁村齐云大道(海宁中学往南150米交叉口南侧)", "image": "", "rank": 55, "time": 2, "location": {"lat": 29.763446197679066, "lng": 118.25133121620804}, "feature": {"sight_features": "", "sight_content": ""}}, {"title": "春雨葡萄采摘园", "address": "齐云山镇典口村西北侧150米", "image": "", "rank": 56, "time": 2, "location": {"lat": 29.783974440729367, "lng": 118.13970400338685}, "feature": {"sight_features": "", "sight_content": ""}}, {"title": "番米粒休闲农场", "address": "东临溪镇上村", "image": "", "rank": 57, "time": 2, "location": {"lat": 29.533241469600952, "lng": 118.26114250090005}, "feature": {"sight_features": "", "sight_content": ""}}, {"title": "丁复先道院", "address": "黄山市-休宁县-齐云山月华街23号", "image": "", "rank": 58, "time": 2, "location": {"lat": 29.812195806288255, "lng": 118.04373829348265}, "feature": {"sight_features": "", "sight_content": ""}}, {"title": "新娘房农家乐", "address": "黄山市-休宁县", "image": "", "rank": 59, "time": 2, "location": {"lat": 29.795459004962712, "lng": 118.20543014115599}, "feature": {"sight_features": "", "sight_content": ""}}, {"title": "云岩湖老胡农家乐", "address": "黄山市-休宁县-渭桥乡鹤坞村云岩湖", "image": "", "rank": 60, "time": 2, "location": {"lat": 29.79173948997861, "lng": 117.98332211683551}, "feature": {"sight_features": "", "sight_content": ""}}]}