{"cityName": "修水", "days": 2, "cityImage": "", "spots": [{"title": "南崖马家洲景区", "address": "九江市修水县马家洲", "image": "", "rank": 1, "time": 12.0, "location": {"lat": 29.03117586795911, "lng": 114.55356797638683}, "feature": {"sight_features": "", "sight_content": ""}}, {"title": "黄庭坚纪念馆", "address": "九江市修水县义宁镇295乡道、311省道山谷公园附近", "image": "", "rank": 2, "time": 2, "location": {"lat": 29.04345580577588, "lng": 114.58746634326961}, "feature": {"sight_features": "", "sight_content": ""}}, {"title": "东浒寨风景区", "address": "九江市修水县征村乡潭坑村境内", "image": "", "rank": 3, "time": 2, "location": {"lat": 28.880971646366657, "lng": 114.51732005730787}, "feature": {"sight_features": "特色1 峭壁上体验蜘蛛人的惊险快乐 特色2 瀑布、攀岩、爬梯，惊险刺激的体验 特色3 古老茂盛的森林,争先恐后的流泉飞瀑", "sight_content": "‍‍\n巍峨将军百姓赞，好汉坡上出身汗；‍‍\n‍‍天王桥上流云淡，飞檐走壁仙草蔓；\n‍‍一线天中神仙叹，百丈梯上腿打颤；\n‍‍相约鹊桥永相爱，古寨归来不遗憾。‍‍\n‍‍峭壁上体验蜘蛛人的惊险快乐，化身崖壁上的精灵尽情舞蹈。\n‍‍‍‍‍‍‍‍‍‍‍‍‍‍‍‍‍‍‍‍‍‍‍‍‍‍‍‍‍‍‍‍‍‍‍‍东浒寨风景区位于赣、湘、鄂三省交界的修水县征村乡潭坑村境内，总占地面积14400余亩，投资达2亿余元。景区交通便利，距大广高速出入口20余公里。东浒寨又名“钟鼓寨”，本地口音“钟鼓”与“东浒”接近，‍‍‍‍‍‍而又得名“东浒寨”，沿用至今。\n\n\n景区内森林丰茂、飞瀑流泉，落差30多米的石窟瀑布，仿佛让人置身于水帘洞府之中，恍若隔世；引进于欧洲的飞拉达项目，是一项人人都能参与的绝壁极限运动，带您一家老小体验飞檐走壁的感觉；矗立在银子涧上空惊险刺激的玻璃鹊桥，更是男女表白的爱情圣地；这里四周群山环抱，湖面烟波浩淼，湖水碧绿如镜，山间云雾缭绕，风景如诗似画！\n\n\n主要景点包括：石窟瀑布、将军岩、好汉坡、天王桥、飞拉达、一线天、百丈梯、百里画廊、玻璃鹊桥、象鼻山、红岩寺、方竹林、东浒古寨、清心桥、梵音谷、吊兰谷、九镜湖等。\n‍‍‍‍‍‍‍‍‍‍‍‍‍‍‍‍‍‍‍‍‍‍‍‍‍‍‍‍‍‍‍‍‍‍‍‍‍‍‍‍‍‍‍‍\n飞拉达是意大利文（Via Ferrata，意为岩壁探险或铁道式攀登）的音译，英文则为Ironroad ，指的是在山面上建设，由铁扶手横梯、固定缆索、岩石塞、踏脚垫等构成的爬山径道，让爬山者不会攀岩也能攀上陡峭的岩壁。\n飞拉达在欧洲发明了近百年，起源于第一次世界大战，意大利为让其军队能快速地抄山路，攀越多洛米堤山（TheDolomites），而在山体上建立的。战后这些Via Ferrata径道成为方便登山者的恩物，许多欧洲国家也开始建立起来，推动户外探险运动。\n飞拉达线路的特点：保留了野外攀岩的惊险刺激，达到锻炼体能和意志的目的，同时大大降低了对攀爬者的专业技术要求，在安全有充分保障的前提下，让普通人也驰骋悬崖，会当凌绝顶，获得极大的精神享受。每一条玛格纳攀登线路都是唯一的。"}}, {"title": "长岭", "address": "九江市修水县", "image": "", "rank": 4, "time": 2, "location": {"lat": 29.03117586795911, "lng": 114.55356797638683}, "feature": {"sight_features": "", "sight_content": ""}}, {"title": "冰川蟒洞峡谷漂流", "address": "九江市修水县水源乡中段村", "image": "", "rank": 5, "time": 2, "location": {"lat": 28.972114631749466, "lng": 113.99928419215391}, "feature": {"sight_features": "", "sight_content": ""}}, {"title": "仙姑山水上乐园", "address": "九江市修水县良塘新区姜家渡桥头（修水汽车总站对面）", "image": "", "rank": 6, "time": 2, "location": {"lat": 29.015731165131328, "lng": 114.53493101163858}, "feature": {"sight_features": "", "sight_content": ""}}, {"title": "秋收起义纪念馆", "address": "城凤凰山路136号", "image": "", "rank": 7, "time": 2, "location": {"lat": 29.03948091935148, "lng": 114.57647018552561}, "feature": {"sight_features": "", "sight_content": ""}}, {"title": "马家洲游乐场淘沙堡", "address": "马家洲公园", "image": "", "rank": 8, "time": 2, "location": {"lat": 29.033831254705113, "lng": 114.57220370776162}, "feature": {"sight_features": "", "sight_content": ""}}, {"title": "太清天然温泉", "address": "白岭镇温泉村", "image": "", "rank": 9, "time": 2, "location": {"lat": 29.08550653497906, "lng": 113.99497519220031}, "feature": {"sight_features": "", "sight_content": ""}}, {"title": "青峰寨生态旅游景区", "address": "竹坪乡青峰寨", "image": "", "rank": 10, "time": 1.5, "location": {"lat": 32.46562341515959, "lng": 109.72807543109913}, "feature": {"sight_features": "", "sight_content": ""}}, {"title": "白岭温泉", "address": "西部27公里处,黄龙山脚下", "image": "", "rank": 11, "time": 2, "location": {"lat": 32.499964006232815, "lng": 119.92420934055623}, "feature": {"sight_features": "", "sight_content": ""}}, {"title": "修水县现代生态农业科普示范基地", "address": "306省道东50米", "image": "", "rank": 12, "time": 2, "location": {"lat": 44.29269479672118, "lng": 120.43549298921045}, "feature": {"sight_features": "", "sight_content": ""}}, {"title": "斯贝斯", "address": "幕阜大道62号", "image": "", "rank": 13, "time": 2, "location": {"lat": 29.03385009344202, "lng": 114.55955638005011}, "feature": {"sight_features": "", "sight_content": ""}}, {"title": "花海", "address": "承风路与山谷大道交叉口旁", "image": "", "rank": 14, "time": 2, "location": {"lat": 29.03256870410919, "lng": 114.5594556332906}, "feature": {"sight_features": "", "sight_content": ""}}, {"title": "垂钓园", "address": "义宁镇304省道修水茶叶生态科技园", "image": "", "rank": 15, "time": 2, "location": {"lat": 29.016485428836585, "lng": 114.53679654155495}, "feature": {"sight_features": "", "sight_content": ""}}, {"title": "工农军第一军师部", "address": "江西省修水县境内 332400", "image": "", "rank": 16, "time": 2, "location": {"lat": 29.03117586795911, "lng": 114.55356797638683}, "feature": {"sight_features": "", "sight_content": ""}}, {"title": "羽岭漂流", "address": "竹坪乡里", "image": "", "rank": 17, "time": 2, "location": {"lat": 32.46562341515959, "lng": 109.72807543109913}, "feature": {"sight_features": "", "sight_content": ""}}, {"title": "樊氏姑祠(南阳樊氏法英姑婆纪念...", "address": "江西省九江市修水县沙湾村", "image": "", "rank": 18, "time": 2, "location": {"lat": 28.95617592300529, "lng": 114.06129289468996}, "feature": {"sight_features": "", "sight_content": ""}}, {"title": "儿童乐园", "address": "311省道附近", "image": "", "rank": 19, "time": 2, "location": {"lat": 40.42605053578163, "lng": 117.19514906888342}, "feature": {"sight_features": "", "sight_content": ""}}, {"title": "滨江公园", "address": "三都大桥与滨河大道交叉口西南150米", "image": "", "rank": 20, "time": 3.5, "location": {"lat": 29.172741491185537, "lng": 114.70038888838154}, "feature": {"sight_features": "", "sight_content": ""}}, {"title": "石牛寨花海", "address": "石牛寨镇扩大村", "image": "", "rank": 21, "time": 2, "location": {"lat": 28.90918832821672, "lng": 114.02701385827118}, "feature": {"sight_features": "", "sight_content": ""}}, {"title": "王家祠堂", "address": "九江市修水县秀水大道", "image": "", "rank": 22, "time": 2, "location": {"lat": 29.036144163495734, "lng": 114.54662813154468}, "feature": {"sight_features": "", "sight_content": ""}}, {"title": "兰家祠堂", "address": "江西省九江市修水县鹦鹉街172号", "image": "", "rank": 23, "time": 2, "location": {"lat": 29.036825025289524, "lng": 114.57744665080106}, "feature": {"sight_features": "", "sight_content": ""}}, {"title": "李家祠堂", "address": "九江市修水县修万线", "image": "", "rank": 24, "time": 2, "location": {"lat": 29.03117586795911, "lng": 114.55356797638683}, "feature": {"sight_features": "", "sight_content": ""}}, {"title": "陈氏宗祠", "address": "江西省九江市修水县全丰镇黄沙段村药铺堤沙龙", "image": "", "rank": 25, "time": 2, "location": {"lat": 29.143693526496964, "lng": 114.08107257321606}, "feature": {"sight_features": "", "sight_content": ""}}, {"title": "政府广场", "address": "梯云路附近", "image": "", "rank": 26, "time": 2, "location": {"lat": 29.030368750459278, "lng": 114.55239912551188}, "feature": {"sight_features": "", "sight_content": ""}}, {"title": "屋背山上休闲广场", "address": "幕阜大道与散原路交叉口西100米", "image": "", "rank": 27, "time": 2, "location": {"lat": 29.034806756872612, "lng": 114.55532741193099}, "feature": {"sight_features": "", "sight_content": ""}}, {"title": "朱氏宗祠", "address": "333乡道附近", "image": "", "rank": 28, "time": 0.75, "location": {"lat": 32.440921927111795, "lng": 120.41879501689932}, "feature": {"sight_features": "", "sight_content": ""}}, {"title": "姚氏宗祠", "address": "江西省九江市修水县", "image": "", "rank": 29, "time": 2, "location": {"lat": 29.03117586795911, "lng": 114.55356797638683}, "feature": {"sight_features": "", "sight_content": ""}}, {"title": "星期六儿童水上主题乐园", "address": "江西省九江市修水县锦珠巷21", "image": "", "rank": 30, "time": 2, "location": {"lat": 29.034245128827077, "lng": 114.56162036272137}, "feature": {"sight_features": "", "sight_content": ""}}, {"title": "云霄殿", "address": "310省道附近", "image": "", "rank": 31, "time": 2, "location": {"lat": 40.608430802624056, "lng": 116.67471864625533}, "feature": {"sight_features": "", "sight_content": ""}}, {"title": "明禅寺", "address": "一组垄附近", "image": "", "rank": 32, "time": 2.0, "location": {"lat": 29.16161287837812, "lng": 114.71229076714721}, "feature": {"sight_features": "", "sight_content": ""}}, {"title": "东岳寺", "address": "马坳老街西50米", "image": "", "rank": 33, "time": 1.5, "location": {"lat": 29.058777604254804, "lng": 114.34495529634852}, "feature": {"sight_features": "", "sight_content": ""}}, {"title": "大洋洲公园", "address": "江西省九江市修水县311省道附近", "image": "", "rank": 34, "time": 2, "location": {"lat": 29.080620726994788, "lng": 114.61244489576346}, "feature": {"sight_features": "", "sight_content": ""}}, {"title": "渣津广场", "address": "津龙西大道31号", "image": "", "rank": 35, "time": 2, "location": {"lat": 29.009551809280676, "lng": 114.24657108031722}, "feature": {"sight_features": "", "sight_content": ""}}, {"title": "康达集团休闲山庄", "address": "313省道附近", "image": "", "rank": 36, "time": 2, "location": {"lat": 40.47363217982258, "lng": 116.99325005466613}, "feature": {"sight_features": "", "sight_content": ""}}, {"title": "山口影剧院", "address": "山口派出所附近", "image": "", "rank": 37, "time": 2, "location": {"lat": 30.545307666299593, "lng": 116.94773084837287}, "feature": {"sight_features": "", "sight_content": ""}}, {"title": "广场", "address": "沿江大道449号附近", "image": "", "rank": 38, "time": 2, "location": {"lat": 29.035448405825033, "lng": 114.57934772172462}, "feature": {"sight_features": "", "sight_content": ""}}, {"title": "茶博馆", "address": "宁红大道修水茶叶生态科技园附近", "image": "", "rank": 39, "time": 1.5, "location": {"lat": 29.016485428836585, "lng": 114.53679654155495}, "feature": {"sight_features": "", "sight_content": ""}}, {"title": "修水县历史博物馆", "address": "311省道", "image": "", "rank": 40, "time": 2, "location": {"lat": 40.42605053578163, "lng": 117.19514906888342}, "feature": {"sight_features": "", "sight_content": ""}}, {"title": "革命烈士纪念馆", "address": "广场东路26号", "image": "", "rank": 41, "time": 2, "location": {"lat": 29.038186320550537, "lng": 114.5786125606238}, "feature": {"sight_features": "", "sight_content": ""}}, {"title": "新城规划展厅", "address": "宁红南路", "image": "", "rank": 42, "time": 2, "location": {"lat": 29.031433266082907, "lng": 114.56228592176502}, "feature": {"sight_features": "", "sight_content": ""}}, {"title": "修水黄龙温泉", "address": "白岭镇下太清村", "image": "", "rank": 43, "time": 2, "location": {"lat": 29.096001524966926, "lng": 114.00113603458924}, "feature": {"sight_features": "", "sight_content": ""}}, {"title": "星期六儿童主题乐园", "address": "联盛建材城二楼", "image": "", "rank": 44, "time": 2, "location": {"lat": 29.031033357573012, "lng": 114.55555916037959}, "feature": {"sight_features": "", "sight_content": ""}}, {"title": "修水县城南快乐世界水上乐园", "address": "城南西班牙印象西侧", "image": "", "rank": 45, "time": 2, "location": {"lat": 39.415498968763885, "lng": 121.95863164286487}, "feature": {"sight_features": "", "sight_content": ""}}, {"title": "宁河大剧院", "address": "人民医院南院", "image": "", "rank": 46, "time": 2.0, "location": {"lat": 38.51801771085696, "lng": 114.98965192286403}, "feature": {"sight_features": "", "sight_content": ""}}, {"title": "港口剧院", "address": "238乡道附近", "image": "", "rank": 47, "time": 2, "location": {"lat": 24.6895599777985, "lng": 113.59842056863062}, "feature": {"sight_features": "", "sight_content": ""}}, {"title": "修水县文化馆", "address": "广场南路7号", "image": "", "rank": 48, "time": 2, "location": {"lat": 28.659587551226142, "lng": 121.42421185629753}, "feature": {"sight_features": "", "sight_content": ""}}, {"title": "羽岭漂流", "address": "竹坪乡", "image": "", "rank": 49, "time": 2, "location": {"lat": 32.46562341515959, "lng": 109.72807543109913}, "feature": {"sight_features": "", "sight_content": ""}}, {"title": "永修恒丰风生苗木基地", "address": "承风路110-10号", "image": "", "rank": 50, "time": 7.5, "location": {"lat": 29.03529557064197, "lng": 114.5600062927714}, "feature": {"sight_features": "", "sight_content": ""}}, {"title": "修水县港口镇宁河戏剧团", "address": "238乡道附近", "image": "", "rank": 51, "time": 2, "location": {"lat": 24.6895599777985, "lng": 113.59842056863062}, "feature": {"sight_features": "", "sight_content": ""}}, {"title": "南崖", "address": "江西省修水县境内", "image": "", "rank": 52, "time": 1.5, "location": {"lat": 29.03117586795911, "lng": 114.55356797638683}, "feature": {"sight_features": "", "sight_content": ""}}, {"title": "鹦鹉步行街", "address": "江西省修水县衙前大道", "image": "", "rank": 53, "time": 2, "location": {"lat": 29.037994352291747, "lng": 114.57904032921597}, "feature": {"sight_features": "", "sight_content": ""}}, {"title": "修水财富鑫都", "address": "江西省修水县304省道", "image": "", "rank": 54, "time": 2, "location": {"lat": 29.0199539681492, "lng": 114.32570101605403}, "feature": {"sight_features": "", "sight_content": ""}}, {"title": "修河温泉", "address": "九江市修水县义宁镇芦塘何家店修水温泉小镇内", "image": "", "rank": 55, "time": 2, "location": {"lat": 29.020590945447676, "lng": 114.56544127556272}, "feature": {"sight_features": "特色1 纯净自然，放松身心。", "sight_content": "修河温泉度假酒店，座落于风景秀丽、气候宜人的江西省九江市修水县温泉小镇内，是由北京尚达信资产管理有限公司按照五星温泉酒店标准设计、兴建的高端温泉度假综合体，占地1980亩，包含度假酒店、度假地产、九年制综合学校等。\n温泉中心由前厅部、男女宾部、康乐区、动感娱乐区、风味自助餐厅、室内水乐园、露天温泉区七大功能区组成，共占地3.6万平米，可同时容纳1500人游玩。\n室内海浪池、皮划艇滑梯、太空盆滑梯、大型水寨、SPA池、石板浴、海盐浴、矿砂浴及各个特色小泡池组成，占地8200平米，是江西省最大的室内恒温水乐园，以亚马逊景观为主题，融刺激、娱乐、亲子互动和养生于一体。\n室外中式、日式、欧式温泉泡池36个，温池水中偏硅酸含量全球稀有，有维持人体电解质平衡和生理机能、恢复血管弹性，增加皮肤弹性、促进骨骼发育等作用。\n大自然的美景使每个人都能回归自我，让您重归简单自然的生活，缓缓抬目，观山，观水，观自然，来感受内心的一份宁静，让人流连忘返。"}}]}