{"cityName": "修文", "days": 2, "cityImage": "", "spots": [{"title": "阳明洞", "address": "贵阳市修文县城东栖霞山", "image": "", "rank": 1, "time": 1.0, "location": {"lat": 26.844862447593908, "lng": 106.59849220313932}, "feature": {"sight_features": "", "sight_content": ""}}, {"title": "苏格兰牧场", "address": "贵阳市修文县久长镇清江村（贵遵高速公路扎佐出口4km）", "image": "", "rank": 2, "time": 2.5, "location": {"lat": 26.861966986469085, "lng": 106.7242010761641}, "feature": {"sight_features": "", "sight_content": ""}}, {"title": "中国阳明文化园", "address": "贵阳市修文县阳明大道306号", "image": "", "rank": 3, "time": 2, "location": {"lat": 26.852503413458365, "lng": 106.6138639468317}, "feature": {"sight_features": "", "sight_content": "阳明文化园由“阳明洞”遗迹景区、龙场驿站综合区、梦回顾里风情小镇、养心度假区等部分组成。其中“阳明洞”遗迹景区是整个阳明文化园的核心和灵魂。\n阳明文化园核心景区涵盖了知行合一牌坊、正心池、亲民台、阳明洞遗址、龙岗书院、游客服务中心等景点，主要以乡土石作景观的方式来呈现阳明心学的精神风貌与历史价值。"}}, {"title": "黔贵六广温泉", "address": "贵阳市修文县六广镇驿泉村阳明码头", "image": "", "rank": 4, "time": 2, "location": {"lat": 26.9811829849341, "lng": 106.45558676231882}, "feature": {"sight_features": "特色1 群山环抱、清静悠雅 特色2 地下1900多米的深热水层，含氡、氟、硫化氢等微量元素 特色3 温泉区有大型游泳池、儿童池、鱼疗池、红酒池、牛奶池等功能池", "sight_content": "‍‍‍‍‍‍‍‍‍‍‍‍‍‍黔贵六广温泉位于贵阳市修文县六广镇阳明码头，温泉区有大型游泳池、儿童池、鱼疗池、红酒池、牛奶池等各类功能池，大小泡池多达44个，泡池温度各不相同，还有免费干蒸房、石板浴等功能区，尽情享受。常泡温泉促进人体新陈代谢，增强体质;对关节炎，脊椎炎、神经炎、大脑皮层疲劳、妇科病、早期动脉硬化、早期高血压、轻型心脏病等、神经系统、消化系统、美容、减肥等30多种病均有疗效，对血压有双向调节作用。\n温泉酒店设有豪华客房、标准客房、单人客房、休息大厅、棋牌室、茶餐厅、多功能厅、儿童娱乐场等休息及娱乐场所，还提供六广河原生态河鲜自助大餐任您享用。\n常泡温泉促进人体新陈代谢，增强体质;对关节炎，脊椎炎、神经炎、大脑皮层疲劳、妇科病、早期动脉硬化、早期高血压、轻型心脏病等、神经系统、消化系统、美容、减肥等30多种病均有疗效，对血压有双向调节作用。"}}, {"title": "桃源河魔幻漂流", "address": "贵阳市修文县六屯乡桃源河", "image": "", "rank": 5, "time": 2, "location": {"lat": 26.971453394998534, "lng": 106.8431215442828}, "feature": {"sight_features": "", "sight_content": ""}}, {"title": "折溪村", "address": "修文县谷堡乡折溪村", "image": "", "rank": 6, "time": 2, "location": {"lat": 26.859608531355587, "lng": 106.55735798537606}, "feature": {"sight_features": "", "sight_content": ""}}, {"title": "王阳明纪念馆", "address": "贵阳市修文县195县道", "image": "", "rank": 7, "time": 2, "location": {"lat": 26.847506476329208, "lng": 106.65453038727479}, "feature": {"sight_features": "", "sight_content": ""}}, {"title": "龙岗书院", "address": "贵阳市修文县195县道", "image": "", "rank": 8, "time": 2, "location": {"lat": 26.847506476329208, "lng": 106.65453038727479}, "feature": {"sight_features": "", "sight_content": ""}}, {"title": "琼姐农家乐", "address": "兰海高速公路", "image": "", "rank": 9, "time": 2, "location": {"lat": 23.156395697731735, "lng": 108.25892522398226}, "feature": {"sight_features": "", "sight_content": ""}}, {"title": "阳明文化园游客中心", "address": "贵阳市修文县195县道", "image": "", "rank": 10, "time": 2, "location": {"lat": 26.847506476329208, "lng": 106.65453038727479}, "feature": {"sight_features": "", "sight_content": ""}}, {"title": "六广河名胜风景区", "address": "六广镇", "image": "", "rank": 11, "time": 2, "location": {"lat": 26.9811829849341, "lng": 106.45558676231882}, "feature": {"sight_features": "", "sight_content": ""}}, {"title": "修文农业嘉年华", "address": "贵阳市修文县六屯镇独山村修文农业嘉年华", "image": "", "rank": 12, "time": 1.5, "location": {"lat": 26.90303595328885, "lng": 106.8021162567161}, "feature": {"sight_features": "", "sight_content": ""}}, {"title": "圣泉山庄", "address": "阳明大道", "image": "", "rank": 13, "time": 2, "location": {"lat": 26.563463466280453, "lng": 106.78570101888323}, "feature": {"sight_features": "", "sight_content": ""}}, {"title": "修文扎佐如梦休闲山庄", "address": "扎佐红星村五组", "image": "", "rank": 14, "time": 1.0, "location": {"lat": 38.25454735620292, "lng": 106.24494979893093}, "feature": {"sight_features": "", "sight_content": ""}}, {"title": "修文线扎佐镇颤抖真人密室逃脱", "address": "扎佐镇利尔珍珠湾星城工行楼上(二楼)", "image": "", "rank": 15, "time": 2, "location": {"lat": 26.854408087526902, "lng": 106.7249601443198}, "feature": {"sight_features": "", "sight_content": ""}}, {"title": "德文猕猴桃生态园", "address": "谷堡乡话花塔村", "image": "", "rank": 16, "time": 2, "location": {"lat": 26.858406141178094, "lng": 106.53173068203294}, "feature": {"sight_features": "", "sight_content": ""}}, {"title": "绿之春科普生态植物园", "address": "长生路", "image": "", "rank": 17, "time": 2, "location": {"lat": 32.783368087389086, "lng": 119.44903484794422}, "feature": {"sight_features": "", "sight_content": ""}}, {"title": "修文县图书馆", "address": "阳明大道", "image": "", "rank": 18, "time": 2, "location": {"lat": 26.563463466280453, "lng": 106.78570101888323}, "feature": {"sight_features": "", "sight_content": ""}}, {"title": "修文县档案馆", "address": "玩易路1", "image": "", "rank": 19, "time": 2, "location": {"lat": 26.842859984000434, "lng": 106.60328385455851}, "feature": {"sight_features": "", "sight_content": ""}}, {"title": "贵长diy采摘猕猴桃", "address": "谷堡乡", "image": "", "rank": 20, "time": 2, "location": {"lat": 26.858406141178094, "lng": 106.53173068203294}, "feature": {"sight_features": "", "sight_content": ""}}, {"title": "修文县人口文化广场", "address": "河滨路与长征路交叉口东南100米", "image": "", "rank": 21, "time": 2, "location": {"lat": 26.84373023325723, "lng": 106.607834418745}, "feature": {"sight_features": "", "sight_content": ""}}, {"title": "港式休闲餐厅", "address": "文城逸都C6号铺(近千椒味火锅店)", "image": "", "rank": 22, "time": 2, "location": {"lat": 26.846245350663192, "lng": 106.60979549153708}, "feature": {"sight_features": "", "sight_content": ""}}, {"title": "TBB淘宝贝儿童乐园", "address": "八匹马金元国际风情广场2楼(波波美容院对面)", "image": "", "rank": 23, "time": 2, "location": {"lat": 26.89090149215161, "lng": 112.64331583038613}, "feature": {"sight_features": "", "sight_content": ""}}, {"title": "郝家祠堂", "address": "贵阳市修文县", "image": "", "rank": 24, "time": 2, "location": {"lat": 26.844862447593908, "lng": 106.59849220313932}, "feature": {"sight_features": "", "sight_content": ""}}, {"title": "龙冈广场", "address": "龙岗社区服务中心", "image": "", "rank": 25, "time": 2, "location": {"lat": 26.273203343526223, "lng": 117.63304172801982}, "feature": {"sight_features": "", "sight_content": ""}}, {"title": "革命公墓", "address": "中山路", "image": "", "rank": 26, "time": 2, "location": {"lat": 38.66222906049726, "lng": 114.96165161435523}, "feature": {"sight_features": "", "sight_content": ""}}, {"title": "猕猴馆", "address": "近郊贵阳森林野生动物园", "image": "", "rank": 27, "time": 2, "location": {"lat": 26.87008750614254, "lng": 106.70098091089189}, "feature": {"sight_features": "", "sight_content": ""}}, {"title": "棕熊馆", "address": "近郊森林野生动物园", "image": "", "rank": 28, "time": 2, "location": {"lat": 30.56256334807736, "lng": 113.95079547208209}, "feature": {"sight_features": "", "sight_content": ""}}, {"title": "白虎山", "address": "扎佐林场内", "image": "", "rank": 29, "time": 2, "location": {"lat": 26.83708461934006, "lng": 106.72534510685783}, "feature": {"sight_features": "", "sight_content": ""}}, {"title": "珍珠岛温泉", "address": "贵阳市修文县久长镇蚌壳堰湖畔", "image": "", "rank": 30, "time": 2, "location": {"lat": 26.96117436213712, "lng": 106.68111859993687}, "feature": {"sight_features": "", "sight_content": ""}}, {"title": "如梦缘休闲山庄", "address": "扎佐镇马鞍村清塘水库边", "image": "", "rank": 31, "time": 2, "location": {"lat": 26.88679774097774, "lng": 106.71905154611801}, "feature": {"sight_features": "", "sight_content": ""}}, {"title": "贵阳高尔夫球会", "address": "兰海高速公路贵阳高尔夫度假中心公司", "image": "", "rank": 32, "time": 0.75, "location": {"lat": 26.818458223570076, "lng": 106.71612586927641}, "feature": {"sight_features": "", "sight_content": ""}}, {"title": "修文猕猴桃山庄", "address": "谷堡乡072县道修文猕猴桃山庄", "image": "", "rank": 33, "time": 1.0, "location": {"lat": 26.858406141178094, "lng": 106.53173068203294}, "feature": {"sight_features": "", "sight_content": ""}}, {"title": "干坝精品弥猴桃园区", "address": "干坝村", "image": "", "rank": 34, "time": 2, "location": {"lat": 29.642634218919543, "lng": 109.49353587824116}, "feature": {"sight_features": "", "sight_content": ""}}, {"title": "修文县翠屏商业步行街", "address": "贵州省修文县翠屏东路", "image": "", "rank": 35, "time": 2, "location": {"lat": 26.84345022428136, "lng": 106.60764880636907}, "feature": {"sight_features": "", "sight_content": ""}}, {"title": "贵州森林野生动物园-露营基地", "address": "贵阳市-修文县-扎佐镇贵毕公路扎佐林场冷水沟分场内", "image": "", "rank": 36, "time": 2, "location": {"lat": 26.943017445456892, "lng": 106.57372833488262}, "feature": {"sight_features": "", "sight_content": ""}}, {"title": "龙昌坡", "address": "贵阳市-修文县-桃源河景区", "image": "", "rank": 37, "time": 2, "location": {"lat": 26.889086256224516, "lng": 106.80059589260708}, "feature": {"sight_features": "", "sight_content": ""}}]}