{"cityName": "岫岩", "days": 2, "cityImage": "", "spots": [{"title": "岫岩药山风景区", "address": "鞍山市岫岩满族自治县韭菜沟乡政府附近", "image": "", "rank": 1, "time": 3.0, "location": {"lat": 40.6111052659474, "lng": 123.40913557311914}, "feature": {"sight_features": "", "sight_content": ""}}, {"title": "清凉山", "address": "鞍山市岫岩东北部的汤沟镇", "image": "", "rank": 2, "time": 2.0, "location": {"lat": 40.61900407270617, "lng": 123.65526998120843}, "feature": {"sight_features": "", "sight_content": ""}}, {"title": "岫岩水巷风景区", "address": "鞍山市岫岩满族自治县小虎岭村", "image": "", "rank": 3, "time": 1.0, "location": {"lat": 40.24950305957788, "lng": 123.34979687887737}, "feature": {"sight_features": "", "sight_content": ""}}, {"title": "龙潭湾", "address": "鞍山市岫岩满族自治县龙潭镇境内", "image": "", "rank": 4, "time": 2, "location": {"lat": 40.150026737275645, "lng": 123.13293294016933}, "feature": {"sight_features": "", "sight_content": ""}}, {"title": "潇雅温泉", "address": "山城路", "image": "", "rank": 5, "time": 2, "location": {"lat": 30.956521712588465, "lng": 119.99380719126457}, "feature": {"sight_features": "", "sight_content": ""}}, {"title": "欢乐大世界", "address": "站前大街18号", "image": "", "rank": 6, "time": 2, "location": {"lat": 40.291850791651484, "lng": 123.29168737469202}, "feature": {"sight_features": "", "sight_content": ""}}, {"title": "岫岩满族自治县图书馆", "address": "309省道", "image": "", "rank": 7, "time": 3.0, "location": {"lat": 40.709016096764906, "lng": 116.52743651721413}, "feature": {"sight_features": "", "sight_content": ""}}, {"title": "金来温泉", "address": "中心街83号", "image": "", "rank": 8, "time": 2, "location": {"lat": 39.52283234148768, "lng": 115.97821987834931}, "feature": {"sight_features": "", "sight_content": ""}}, {"title": "辽宁岫岩满族自治县博物馆", "address": "阜昌路133号", "image": "", "rank": 9, "time": 2, "location": {"lat": 40.28360483626014, "lng": 123.29558600623244}, "feature": {"sight_features": "", "sight_content": ""}}, {"title": "中国玉雕会展中心", "address": "城东路中国玉雕会展中心", "image": "", "rank": 10, "time": 2, "location": {"lat": 40.303992102348204, "lng": 123.29170988982132}, "feature": {"sight_features": "", "sight_content": ""}}, {"title": "沟汤温泉", "address": "鞍山市岫岩满族自治县哈达碑镇沟汤村", "image": "", "rank": 11, "time": 2, "location": {"lat": 40.41172785062036, "lng": 123.14810137667166}, "feature": {"sight_features": "", "sight_content": ""}}, {"title": "清凉山林场", "address": "苏汤线北50米", "image": "", "rank": 12, "time": 2, "location": {"lat": 40.54998359225192, "lng": 123.62103816061423}, "feature": {"sight_features": "", "sight_content": ""}}, {"title": "水上乐园", "address": "辽宁省鞍山市岫岩满族自治县", "image": "", "rank": 13, "time": 2, "location": {"lat": 40.295892396362035, "lng": 123.28754677827435}, "feature": {"sight_features": "", "sight_content": ""}}, {"title": "岫岩满族自治县基督教会", "address": "城西路1005号附近", "image": "", "rank": 14, "time": 3.0, "location": {"lat": 40.60773635836276, "lng": 118.49141056724238}, "feature": {"sight_features": "", "sight_content": ""}}, {"title": "吉庆音乐厅", "address": "辽宁省鞍山市岫岩满族自治县阜昌街道城东路安华快运旁", "image": "", "rank": 15, "time": 2, "location": {"lat": 40.282025407041615, "lng": 123.30216319346454}, "feature": {"sight_features": "", "sight_content": ""}}, {"title": "芳佳音乐厅", "address": "辽宁省鞍山市岫岩满族自治县站前大街13-3-2号附近", "image": "", "rank": 16, "time": 2, "location": {"lat": 40.292979359145825, "lng": 123.29159941962328}, "feature": {"sight_features": "", "sight_content": ""}}, {"title": "宾馆音乐广场", "address": "中心街25号", "image": "", "rank": 17, "time": 2, "location": {"lat": 35.08239015457079, "lng": 111.03926399576143}, "feature": {"sight_features": "", "sight_content": ""}}, {"title": "金竹音乐厅", "address": "云龙碧水北侧路东", "image": "", "rank": 18, "time": 2, "location": {"lat": 40.29231938233067, "lng": 123.29161735986227}, "feature": {"sight_features": "", "sight_content": ""}}, {"title": "药山", "address": "辽宁省岫岩满族自治县韭菜沟镇、三家子镇、石庙子镇的交界处 114300", "image": "", "rank": 19, "time": 2.0, "location": {"lat": 40.72061366772728, "lng": 123.37453809816543}, "feature": {"sight_features": "", "sight_content": ""}}, {"title": "大营子基督教堂", "address": "辽宁省鞍山市岫岩满族自治县S309(桓盖线)", "image": "", "rank": 20, "time": 2, "location": {"lat": 40.29394943205184, "lng": 123.33471234231304}, "feature": {"sight_features": "", "sight_content": ""}}, {"title": "岫岩非物质文化遗产博物馆", "address": "锦丝路49号楼附近", "image": "", "rank": 21, "time": 3.0, "location": {"lat": 40.287324534130185, "lng": 123.28933278928929}, "feature": {"sight_features": "", "sight_content": ""}}, {"title": "岫岩油菜花景区", "address": "309省道", "image": "", "rank": 22, "time": 4.5, "location": {"lat": 40.709016096764906, "lng": 116.52743651721413}, "feature": {"sight_features": "", "sight_content": ""}}, {"title": "儿童乐园(岫岩满族自治县气象局...", "address": "水上乐园附近", "image": "", "rank": 23, "time": 2, "location": {"lat": 39.42255275325627, "lng": 118.92077057604848}, "feature": {"sight_features": "", "sight_content": ""}}, {"title": "北方蘑菇博览中心", "address": "S203", "image": "", "rank": 24, "time": 2, "location": {"lat": 40.36625457492593, "lng": 116.84299524674317}, "feature": {"sight_features": "", "sight_content": ""}}, {"title": "绿色生态园", "address": "312省道", "image": "", "rank": 25, "time": 2, "location": {"lat": 36.622905905946894, "lng": 114.42321002791304}, "feature": {"sight_features": "", "sight_content": ""}}, {"title": "岫岩科技馆", "address": "309省道县质量技术监督局南侧", "image": "", "rank": 26, "time": 2.5, "location": {"lat": 30.739799304225127, "lng": 116.83191869694055}, "feature": {"sight_features": "", "sight_content": ""}}, {"title": "影剧院", "address": "岫岩宾馆斜对面山城路", "image": "", "rank": 27, "time": 2, "location": {"lat": 40.28642346771084, "lng": 123.29516326815096}, "feature": {"sight_features": "", "sight_content": ""}}, {"title": "四海钓鱼俱乐部", "address": "析青线东50米", "image": "", "rank": 28, "time": 2, "location": {"lat": 40.69579565011982, "lng": 123.13851818791491}, "feature": {"sight_features": "", "sight_content": ""}}, {"title": "效圣寺", "address": "辽宁省岫岩满族自治县杨家堡镇松树秧村", "image": "", "rank": 29, "time": 2, "location": {"lat": 40.10992051455261, "lng": 123.28311049651333}, "feature": {"sight_features": "", "sight_content": ""}}, {"title": "仙人咀子村", "address": "鞍山市-岫岩满族自治县", "image": "", "rank": 30, "time": 2, "location": {"lat": 40.295892396362035, "lng": 123.28754677827435}, "feature": {"sight_features": "", "sight_content": ""}}, {"title": "东刘家堡子", "address": "鞍山市-岫岩满族自治县", "image": "", "rank": 31, "time": 2, "location": {"lat": 40.295892396362035, "lng": 123.28754677827435}, "feature": {"sight_features": "", "sight_content": ""}}]}