{"cityName": "西乌旗", "days": 2, "cityImage": "", "spots": [{"title": "蒙古汗城", "address": "锡林郭勒盟西乌珠穆沁旗巴拉格尔高勒镇南", "image": "", "rank": 1, "time": 3.0, "location": {"lat": 44.593802912006616, "lng": 117.61637700895868}, "feature": {"sight_features": "", "sight_content": ""}}, {"title": "成吉思汗瞭望山", "address": "锡林郭勒盟西乌珠穆沁旗巴彦乌拉镇西南20公里处", "image": "", "rank": 2, "time": 1.0, "location": {"lat": 44.593802912006616, "lng": 117.61637700895868}, "feature": {"sight_features": "", "sight_content": ""}}, {"title": "乌兰五台", "address": "锡林郭勒盟西乌珠穆沁旗巴拉嘎尔高勒镇西南约68公里处", "image": "", "rank": 3, "time": 2, "location": {"lat": 44.59311427272381, "lng": 117.63393549686359}, "feature": {"sight_features": "", "sight_content": ""}}, {"title": "游牧部落", "address": "锡林郭勒盟西乌珠穆沁旗巴彦乌拉镇以南35公里处的阿拉腾高勒苏木东部", "image": "", "rank": 4, "time": 2, "location": {"lat": 44.593802912006616, "lng": 117.61637700895868}, "feature": {"sight_features": "", "sight_content": ""}}, {"title": "白桦林景区", "address": "锡林郭勒盟西乌珠穆沁旗巴拉嘎尔高勒镇东南五十公里处", "image": "", "rank": 5, "time": null, "location": {"lat": 44.59311427272381, "lng": 118.08308825185256}, "feature": {"sight_features": "", "sight_content": ""}}, {"title": "哈布其盖旅游景区", "address": "锡林郭勒盟西乌珠穆沁旗巴拉嘎尔高勒镇（镇北五公里处铁路桥下东）", "image": "", "rank": 6, "time": 2, "location": {"lat": 44.59311427272381, "lng": 117.63393549686359}, "feature": {"sight_features": "", "sight_content": ""}}, {"title": "巴拉嘎尔高勒嘎查", "address": "锡林郭勒盟西乌珠穆沁旗", "image": "", "rank": 7, "time": 2, "location": {"lat": 44.593802912006616, "lng": 117.61637700895868}, "feature": {"sight_features": "", "sight_content": ""}}, {"title": "西乌旗赵氏牛羊育肥专业合作社", "address": "307省道附近", "image": "", "rank": 8, "time": 2, "location": {"lat": 40.264498296993764, "lng": 116.57268632168496}, "feature": {"sight_features": "", "sight_content": ""}}, {"title": "男儿三艺博物馆", "address": "罕乌拉街", "image": "", "rank": 9, "time": 2, "location": {"lat": 43.6718409159688, "lng": 111.96575594853967}, "feature": {"sight_features": "", "sight_content": ""}}, {"title": "西乌珠穆沁旗民族风情街", "address": "内蒙古自治区西乌珠穆沁旗巴棋路", "image": "", "rank": 10, "time": 3.0, "location": {"lat": 44.59289468667758, "lng": 117.61346326520652}, "feature": {"sight_features": "", "sight_content": ""}}, {"title": "瓦林辉特乌拉", "address": "赤峰市-巴林右旗", "image": "", "rank": 11, "time": 2, "location": {"lat": 43.540131553107535, "lng": 118.6703942570529}, "feature": {"sight_features": "", "sight_content": ""}}, {"title": "达尔罕乌拉", "address": "锡林郭勒盟-西乌珠穆沁旗", "image": "", "rank": 12, "time": 2, "location": {"lat": 44.593802912006616, "lng": 117.61637700895868}, "feature": {"sight_features": "", "sight_content": ""}}, {"title": "古若斯台国家级保护区半拉山景区", "address": "内蒙古西乌珠穆沁旗古若斯台国家级保护区半拉山景区", "image": "", "rank": 13, "time": 2, "location": {"lat": 44.341152018522976, "lng": 118.32081761862415}, "feature": {"sight_features": "", "sight_content": ""}}, {"title": "阿斯哈图国家地质公园", "address": "内蒙古自治区赤峰市克什克腾旗", "image": "", "rank": 14, "time": 2, "location": {"lat": 43.27075759189642, "lng": 117.55162041050815}, "feature": {"sight_features": "", "sight_content": ""}}]}