{"cityName": "西乡", "days": 2, "cityImage": "", "spots": [{"title": "樱桃沟", "address": "汉中市西乡县城关镇", "image": "", "rank": 1, "time": 2.0, "location": {"lat": 33.00608258083358, "lng": 107.73857084229054}, "feature": {"sight_features": "", "sight_content": ""}}, {"title": "午子山", "address": "汉中市西乡县堰口镇", "image": "", "rank": 2, "time": 2.0, "location": {"lat": 32.960399584173686, "lng": 107.85195022968992}, "feature": {"sight_features": "", "sight_content": ""}}, {"title": "滨河公园", "address": "陕西省汉中市西乡县河滨北路", "image": "", "rank": 3, "time": null, "location": {"lat": 32.98846760977987, "lng": 107.78016047221517}, "feature": {"sight_features": "", "sight_content": ""}}, {"title": "西乡茶园", "address": "陕西省汉中市西乡县罗镇", "image": "", "rank": 4, "time": 1.0, "location": {"lat": 32.903073190052574, "lng": 107.84296956767602}, "feature": {"sight_features": "", "sight_content": ""}}, {"title": "聚洋嗨欢乐水世界", "address": "堰口镇水东村一组", "image": "", "rank": 5, "time": 2, "location": {"lat": 32.99946072872991, "lng": 107.80836113788659}, "feature": {"sight_features": "", "sight_content": ""}}, {"title": "逃吧真人密室逃脱俱乐部", "address": "陕西省汉中市西乡县锦湖商务区三楼", "image": "", "rank": 6, "time": 2, "location": {"lat": 32.98939744189546, "lng": 107.77339281906241}, "feature": {"sight_features": "", "sight_content": ""}}, {"title": "西乡县图书馆", "address": "樱花大道", "image": "", "rank": 7, "time": 2, "location": {"lat": 29.561435238249402, "lng": 106.6384804561571}, "feature": {"sight_features": "", "sight_content": ""}}, {"title": "西乡五丰生态休闲观光园", "address": "城关镇五丰村", "image": "", "rank": 8, "time": 2.0, "location": {"lat": 32.9577282862976, "lng": 107.7485405692133}, "feature": {"sight_features": "", "sight_content": ""}}, {"title": "雨露农家乐", "address": "军营路", "image": "", "rank": 9, "time": 2, "location": {"lat": 33.61988169148628, "lng": 119.02329088173121}, "feature": {"sight_features": "", "sight_content": ""}}, {"title": "薛家祠堂", "address": "汉中市西乡县", "image": "", "rank": 10, "time": 1.5, "location": {"lat": 32.98939744189546, "lng": 107.77339281906241}, "feature": {"sight_features": "", "sight_content": ""}}, {"title": "开心乐儿童游乐园", "address": "其他汉白路中段聚豪商城3楼(秦巴茶市对面)", "image": "", "rank": 11, "time": 2, "location": {"lat": 32.99378518951453, "lng": 107.77656307934278}, "feature": {"sight_features": "", "sight_content": ""}}, {"title": "陈子润王慧君故居旧址", "address": "陕西省汉中市西乡县南河堤30号", "image": "", "rank": 12, "time": 2, "location": {"lat": 32.98815055776714, "lng": 107.77894619582682}, "feature": {"sight_features": "", "sight_content": ""}}, {"title": "冬园", "address": "环山路西50米", "image": "", "rank": 13, "time": 2, "location": {"lat": 39.28132165707622, "lng": 122.59766647833182}, "feature": {"sight_features": "", "sight_content": ""}}, {"title": "午子山风景名胜区", "address": "陕西省西乡县西乡城东南的堰口镇 723500", "image": "", "rank": 14, "time": 2.5, "location": {"lat": 32.960399584173686, "lng": 107.85195022968992}, "feature": {"sight_features": "", "sight_content": ""}}, {"title": "儿童街", "address": "金牛路96号附近", "image": "", "rank": 15, "time": 7.5, "location": {"lat": 46.41472247030044, "lng": 125.33691167427416}, "feature": {"sight_features": "", "sight_content": ""}}, {"title": "静海寺", "address": "东关正街东100米", "image": "", "rank": 16, "time": 1.0, "location": {"lat": 35.64107994512062, "lng": 111.48973710803644}, "feature": {"sight_features": "", "sight_content": ""}}, {"title": "清真女寺", "address": "忠烈祠巷19号", "image": "", "rank": 17, "time": 2, "location": {"lat": 32.98954613334448, "lng": 107.77183560646087}, "feature": {"sight_features": "", "sight_content": ""}}, {"title": "秋园", "address": "北樱花沟", "image": "", "rank": 18, "time": 1.5, "location": {"lat": 33.003509276333375, "lng": 107.76911920695466}, "feature": {"sight_features": "", "sight_content": ""}}, {"title": "中航广场", "address": "汉白路与莲花南路交叉口南100米", "image": "", "rank": 19, "time": 2, "location": {"lat": 32.988731722193826, "lng": 107.76679631826185}, "feature": {"sight_features": "", "sight_content": ""}}, {"title": "樱花山庄", "address": "汉中西乡樱桃沟秋园东侧", "image": "", "rank": 20, "time": 2, "location": {"lat": 33.009368057742016, "lng": 107.76329631428301}, "feature": {"sight_features": "", "sight_content": ""}}, {"title": "西乡县天主教会", "address": "东关正街与广庆寺街交叉口东北150米", "image": "", "rank": 21, "time": 2, "location": {"lat": 32.991181845617156, "lng": 107.77702636334175}, "feature": {"sight_features": "", "sight_content": ""}}, {"title": "站前广场", "address": "陕西省汉中市西乡县城关镇北环路第一中学西南200米", "image": "", "rank": 22, "time": 2, "location": {"lat": 32.997667559122306, "lng": 107.76986589825727}, "feature": {"sight_features": "", "sight_content": ""}}, {"title": "马桑湾度假村", "address": "汉中西乡县二一零国道", "image": "", "rank": 23, "time": 2, "location": {"lat": 33.011408745522196, "lng": 107.89745195405965}, "feature": {"sight_features": "", "sight_content": ""}}, {"title": "明珠水上乐园", "address": "城关镇中渡村", "image": "", "rank": 24, "time": 2, "location": {"lat": 32.98501770088682, "lng": 107.78347081695168}, "feature": {"sight_features": "", "sight_content": ""}}, {"title": "西乡县应红农林综合开发专业合作...", "address": "沙河镇青龙嘴村", "image": "", "rank": 25, "time": 2, "location": {"lat": 32.93153398787017, "lng": 107.5841608737227}, "feature": {"sight_features": "", "sight_content": ""}}, {"title": "西乡沃佳生态农业专业合作社", "address": "余家山村4组", "image": "", "rank": 26, "time": 2.0, "location": {"lat": 29.166302316002113, "lng": 120.84575251037434}, "feature": {"sight_features": "", "sight_content": ""}}, {"title": "黄柏垭河", "address": "汉中市-西乡县-环山西路", "image": "", "rank": 27, "time": 2, "location": {"lat": 32.98939744189546, "lng": 107.77339281906241}, "feature": {"sight_features": "", "sight_content": ""}}]}