{"cityName": "宣汉", "days": 2, "cityImage": "", "spots": [{"title": "观音山森林公园", "address": "达州市宣汉县柏树镇", "image": "", "rank": 1, "time": 2.5, "location": {"lat": 31.162687783071743, "lng": 107.6685880901288}, "feature": {"sight_features": "", "sight_content": ""}}, {"title": "百里峡盘龙洞", "address": "达州市宣汉县029县道附近百里峡地质公园内", "image": "", "rank": 2, "time": 2, "location": {"lat": 31.77957104529573, "lng": 108.49700008022455}, "feature": {"sight_features": "", "sight_content": ""}}, {"title": "项山公园", "address": "宣汉城东郊", "image": "", "rank": 3, "time": 2, "location": {"lat": 31.35975482366174, "lng": 107.73353356629586}, "feature": {"sight_features": "", "sight_content": ""}}, {"title": "犀牛山生态园", "address": "四川省达州市通川区北郊", "image": "", "rank": 4, "time": 2, "location": {"lat": 31.22093180410479, "lng": 107.51144711201394}, "feature": {"sight_features": "", "sight_content": ""}}, {"title": "鑫政休闲山庄", "address": "杨河路北50米", "image": "", "rank": 5, "time": 2, "location": {"lat": 35.694784878004164, "lng": 112.20813481257998}, "feature": {"sight_features": "", "sight_content": ""}}, {"title": "康乐餐厅", "address": "下城壕1号附近", "image": "", "rank": 6, "time": 2, "location": {"lat": 31.359070887813985, "lng": 107.73013797146815}, "feature": {"sight_features": "", "sight_content": ""}}, {"title": "白鹤林", "address": "四川省宣汉县黄石乡 636163", "image": "", "rank": 7, "time": 2, "location": {"lat": 31.397363865243353, "lng": 107.88635893741869}, "feature": {"sight_features": "", "sight_content": ""}}, {"title": "巴人文化遗址", "address": "四川省宣汉县普光镇进化村 636150", "image": "", "rank": 8, "time": 2, "location": {"lat": 31.538863066265645, "lng": 107.76317771100652}, "feature": {"sight_features": "", "sight_content": ""}}, {"title": "大中坝", "address": "四川省达县县境内 635000", "image": "", "rank": 9, "time": 2, "location": {"lat": 31.182047269377325, "lng": 107.42431518678606}, "feature": {"sight_features": "", "sight_content": ""}}, {"title": "七里溶洞", "address": "四川省宣汉县城南 636150", "image": "", "rank": 10, "time": 2, "location": {"lat": 31.35975482366174, "lng": 107.73353356629586}, "feature": {"sight_features": "", "sight_content": ""}}, {"title": "神龙洞", "address": "四川省宣汉县七里乡 636150", "image": "", "rank": 11, "time": 2, "location": {"lat": 31.207239230059717, "lng": 107.73585444188603}, "feature": {"sight_features": "", "sight_content": ""}}, {"title": "艾家祠堂", "address": "达州市宣汉县", "image": "", "rank": 12, "time": 2, "location": {"lat": 31.35975482366174, "lng": 107.73353356629586}, "feature": {"sight_features": "", "sight_content": ""}}, {"title": "宇翔水上乐园", "address": "东乡镇江口电站内", "image": "", "rank": 13, "time": 2, "location": {"lat": 27.70592169504263, "lng": 108.84540005923948}, "feature": {"sight_features": "", "sight_content": ""}}, {"title": "淘淘乐游乐场", "address": "昆甄东路与029县道交叉口西100米", "image": "", "rank": 14, "time": 2, "location": {"lat": 31.374862273704, "lng": 108.02002540043836}, "feature": {"sight_features": "", "sight_content": ""}}, {"title": "观音洞景点", "address": "达州市宣汉县029县道附近百里峡地质公园内", "image": "", "rank": 15, "time": 2, "location": {"lat": 31.77957104529573, "lng": 108.49700008022455}, "feature": {"sight_features": "", "sight_content": ""}}, {"title": "民歌广场", "address": "新桥街", "image": "", "rank": 16, "time": 2, "location": {"lat": 38.179462408336, "lng": 115.03377960361722}, "feature": {"sight_features": "", "sight_content": ""}}, {"title": "龙背河度假村", "address": "四川省达州市宣汉县东乡镇龙背沟", "image": "", "rank": 17, "time": 2, "location": {"lat": 31.385023572232768, "lng": 107.75362746131621}, "feature": {"sight_features": "", "sight_content": ""}}, {"title": "东门广场", "address": "达州市宣汉县衙墙街91号", "image": "", "rank": 18, "time": 2, "location": {"lat": 31.360080373055307, "lng": 107.73418805423088}, "feature": {"sight_features": "", "sight_content": ""}}, {"title": "明珠广场", "address": "红旗街东50米", "image": "", "rank": 19, "time": 1.5, "location": {"lat": 36.49461119328157, "lng": 115.23478185202018}, "feature": {"sight_features": "", "sight_content": ""}}, {"title": "园丁广场", "address": "兴南路与田坝街交叉口北150米", "image": "", "rank": 20, "time": 2, "location": {"lat": 31.36903364458488, "lng": 108.01730651801573}, "feature": {"sight_features": "", "sight_content": ""}}, {"title": "五宝滨河广场", "address": "集贤街附近", "image": "", "rank": 21, "time": 2, "location": {"lat": 39.23778439929661, "lng": 117.13607227651138}, "feature": {"sight_features": "", "sight_content": ""}}, {"title": "雪花啤酒广场", "address": "达州宣汉县西街", "image": "", "rank": 22, "time": 2, "location": {"lat": 31.35975482366174, "lng": 107.73353356629586}, "feature": {"sight_features": "", "sight_content": ""}}, {"title": "杨家河度假村", "address": "杨河路东50米", "image": "", "rank": 23, "time": 2, "location": {"lat": 35.6944184641668, "lng": 112.20858396533498}, "feature": {"sight_features": "", "sight_content": ""}}, {"title": "红原度假村(王维舟纪念馆服务部)", "address": "项山路161号附近", "image": "", "rank": 24, "time": 3.0, "location": {"lat": 31.36570666120261, "lng": 107.7434279796362}, "feature": {"sight_features": "", "sight_content": ""}}, {"title": "鱼禅寺", "address": "达州市宣汉县鱼禅寺317号", "image": "", "rank": 25, "time": 2, "location": {"lat": 31.365907552972747, "lng": 107.72699018516616}, "feature": {"sight_features": "", "sight_content": ""}}, {"title": "巴山大峡谷", "address": "达州市宣汉县渡口乡长路坝", "image": "", "rank": 26, "time": 2, "location": {"lat": 31.672556755572636, "lng": 108.28567144257744}, "feature": {"sight_features": "特色1 4A级景区，以雄、险、奇、秀、幽著称", "sight_content": "巴山大峡谷位于川渝结合部宣汉县境内，海拔452-2148米，峡谷全长140公里，是国家AAAA景区、国家地质公园。\n\n\n景区由“桃溪谷休闲体验区、罗盘顶养生养心区、巴人谷民俗休闲区、溪口湖生态观光区”四大板块和渡口风情小镇组成，以雄、险、奇、秀、幽而著称。"}}, {"title": "百里峡地质公园陈列室", "address": "青龙街", "image": "", "rank": 27, "time": 2, "location": {"lat": 41.13120759989339, "lng": 123.03678366150245}, "feature": {"sight_features": "", "sight_content": ""}}, {"title": "王维舟纪念馆", "address": "项山路158号", "image": "", "rank": 28, "time": 2, "location": {"lat": 31.36584514914011, "lng": 107.74440882379984}, "feature": {"sight_features": "", "sight_content": ""}}, {"title": "石膏艺术馆", "address": "巴人大道35附近", "image": "", "rank": 29, "time": 2, "location": {"lat": 31.36663925314265, "lng": 107.71875237093977}, "feature": {"sight_features": "", "sight_content": ""}}, {"title": "宣汉县文化馆艺术培训中心", "address": "兴南路93附近", "image": "", "rank": 30, "time": 2, "location": {"lat": 29.34365817918899, "lng": 105.90345087147483}, "feature": {"sight_features": "", "sight_content": ""}}, {"title": "清溪镇黄家巴岩生态农庄", "address": "清溪镇锣寨村五组", "image": "", "rank": 31, "time": 2, "location": {"lat": 31.415836632138827, "lng": 107.79515429160095}, "feature": {"sight_features": "", "sight_content": ""}}, {"title": "天丰菌业", "address": "石湾路132号", "image": "", "rank": 32, "time": 2, "location": {"lat": 31.369228349671314, "lng": 107.72664785118553}, "feature": {"sight_features": "", "sight_content": ""}}, {"title": "梧桐坪脆李专业合作社", "address": "峰城镇天宇街79号", "image": "", "rank": 33, "time": 2, "location": {"lat": 31.524106261756337, "lng": 107.98128083970795}, "feature": {"sight_features": "", "sight_content": ""}}, {"title": "达州朝阳寺", "address": "四川省宣汉县境内", "image": "", "rank": 34, "time": 1.5, "location": {"lat": 31.35975482366174, "lng": 107.73353356629586}, "feature": {"sight_features": "", "sight_content": ""}}, {"title": "达州龙王庙", "address": "四川省达县境内", "image": "", "rank": 35, "time": 1.0, "location": {"lat": 31.182047269377325, "lng": 107.42431518678606}, "feature": {"sight_features": "", "sight_content": ""}}, {"title": "巴人山寨露营地-2号房车", "address": "达州市-宣汉县-202省道巴山大峡谷内", "image": "", "rank": 36, "time": 2, "location": {"lat": 31.694570864240838, "lng": 108.30681534804398}, "feature": {"sight_features": "", "sight_content": ""}}, {"title": "巴人山寨露营地-3号木屋", "address": "达州市-宣汉县-202省道巴山大峡谷内", "image": "", "rank": 37, "time": 2, "location": {"lat": 31.694570864240838, "lng": 108.30681534804398}, "feature": {"sight_features": "", "sight_content": ""}}, {"title": "巴人山寨露营地", "address": "达州市-宣汉县-202省道巴山大峡谷内", "image": "", "rank": 38, "time": 2, "location": {"lat": 31.694570864240838, "lng": 108.30681534804398}, "feature": {"sight_features": "", "sight_content": ""}}, {"title": "巴人山寨露营地-1号房车", "address": "达州市-宣汉县-202省道巴山大峡谷内", "image": "", "rank": 39, "time": 2, "location": {"lat": 31.694570864240838, "lng": 108.30681534804398}, "feature": {"sight_features": "", "sight_content": ""}}, {"title": "巴人山寨露营地-2号木屋", "address": "达州市-宣汉县-202省道巴山大峡谷内", "image": "", "rank": 40, "time": 2, "location": {"lat": 31.694570864240838, "lng": 108.30681534804398}, "feature": {"sight_features": "", "sight_content": ""}}, {"title": "巴人山寨露营地-1号木屋", "address": "达州市-宣汉县-202省道巴山大峡谷内", "image": "", "rank": 41, "time": 2, "location": {"lat": 31.694570864240838, "lng": 108.30681534804398}, "feature": {"sight_features": "", "sight_content": ""}}, {"title": "了叶溪", "address": "达州市-宣汉县", "image": "", "rank": 42, "time": 2, "location": {"lat": 31.35975482366174, "lng": 107.73353356629586}, "feature": {"sight_features": "", "sight_content": ""}}, {"title": "玄祖殿", "address": "达州市-宣汉县", "image": "", "rank": 43, "time": null, "location": {"lat": 31.35975482366174, "lng": 107.73353356629586}, "feature": {"sight_features": "", "sight_content": ""}}]}