{"cityName": "宣威", "days": 2, "cityImage": "", "spots": [{"title": "普立特大桥", "address": "曲靖市宣威市杭瑞高速公路", "image": "", "rank": 1, "time": 1.0, "location": {"lat": 26.341935615193364, "lng": 104.62195903695444}, "feature": {"sight_features": "", "sight_content": ""}}, {"title": "尼珠河大峡谷", "address": "曲靖市宣威市", "image": "", "rank": 2, "time": 2.0, "location": {"lat": 26.225598378323756, "lng": 104.11157606909859}, "feature": {"sight_features": "", "sight_content": ""}}, {"title": "宛水公园", "address": "云南省曲靖市宣威市南门街", "image": "", "rank": 3, "time": 2, "location": {"lat": 26.22058640955942, "lng": 104.11087159635856}, "feature": {"sight_features": "", "sight_content": ""}}, {"title": "东山", "address": "云南省曲靖宣威市东山镇", "image": "", "rank": 4, "time": 2.0, "location": {"lat": 26.10949902746451, "lng": 104.273126653739}, "feature": {"sight_features": "", "sight_content": ""}}, {"title": "火腿广场", "address": "曲靖市宣威市振兴北路", "image": "", "rank": 5, "time": 2, "location": {"lat": 26.25816431066682, "lng": 104.10136663564198}, "feature": {"sight_features": "", "sight_content": ""}}, {"title": "浦在廷故居", "address": "宣威市西城下街27号", "image": "", "rank": 6, "time": 2, "location": {"lat": 26.225030956017658, "lng": 104.10738794423608}, "feature": {"sight_features": "", "sight_content": ""}}, {"title": "美奂山公园", "address": "西宁街道振兴北路", "image": "", "rank": 7, "time": 2, "location": {"lat": 26.25816431066682, "lng": 104.10136663564198}, "feature": {"sight_features": "", "sight_content": ""}}, {"title": "来宾龙洞", "address": "云南省曲靖宣威来宾镇", "image": "", "rank": 8, "time": 2.5, "location": {"lat": 26.317886014718955, "lng": 104.16468072520232}, "feature": {"sight_features": "", "sight_content": ""}}, {"title": "丽霖春韵休闲山庄", "address": "鸡田公路附近", "image": "", "rank": 9, "time": 2, "location": {"lat": 26.00593825722576, "lng": 104.16601540327436}, "feature": {"sight_features": "", "sight_content": ""}}, {"title": "温泉庄园", "address": "振兴北路171附近", "image": "", "rank": 10, "time": 2, "location": {"lat": 25.058870781087318, "lng": 100.53809444127107}, "feature": {"sight_features": "", "sight_content": ""}}, {"title": "可渡古驿道", "address": "云南省宣威市杨柳乡可渡村 655421", "image": "", "rank": 11, "time": 2, "location": {"lat": 26.623284130963793, "lng": 104.28332308601996}, "feature": {"sight_features": "", "sight_content": ""}}, {"title": "玉泉庄", "address": "宣威市G326", "image": "", "rank": 12, "time": 2, "location": {"lat": 26.225598378323756, "lng": 104.11157606909859}, "feature": {"sight_features": "", "sight_content": ""}}, {"title": "杜鹃花雕塑", "address": "曲靖市宣威市振兴街", "image": "", "rank": 13, "time": 2, "location": {"lat": 26.226870961391626, "lng": 104.10368656711228}, "feature": {"sight_features": "", "sight_content": ""}}, {"title": "宣威市博物馆", "address": "宣天一级公路东150米", "image": "", "rank": 14, "time": 2.5, "location": {"lat": 25.80003517978697, "lng": 103.97600254394978}, "feature": {"sight_features": "", "sight_content": ""}}, {"title": "老祠堂", "address": "曲靖市宣威市哨坡--以头田", "image": "", "rank": 15, "time": 2, "location": {"lat": 26.4342505377083, "lng": 104.19370771784854}, "feature": {"sight_features": "", "sight_content": ""}}, {"title": "美奂广场", "address": "曲靖市宣威市振兴花园212号", "image": "", "rank": 16, "time": 2, "location": {"lat": 26.24454072008342, "lng": 104.10168294068991}, "feature": {"sight_features": "", "sight_content": ""}}, {"title": "宣威牡丹园", "address": "云南省曲靖市宣威市宣倘线", "image": "", "rank": 17, "time": 1.0, "location": {"lat": 26.18186349667411, "lng": 104.12966207433197}, "feature": {"sight_features": "", "sight_content": ""}}, {"title": "欢乐谷", "address": "西宁路", "image": "", "rank": 18, "time": 4.5, "location": {"lat": 43.81691909146598, "lng": 126.50835610655763}, "feature": {"sight_features": "", "sight_content": ""}}, {"title": "金鹰艺术馆", "address": "民安巷71号", "image": "", "rank": 19, "time": 2, "location": {"lat": 26.23717081677242, "lng": 104.09967495838413}, "feature": {"sight_features": "", "sight_content": ""}}, {"title": "清真洪兴园", "address": "建设西街126号", "image": "", "rank": 20, "time": 2, "location": {"lat": 39.02815693640416, "lng": 106.38256279952498}, "feature": {"sight_features": "", "sight_content": ""}}, {"title": "鳄鱼防水", "address": "小大段附近", "image": "", "rank": 21, "time": 2, "location": {"lat": 24.8703135820751, "lng": 103.35987455758065}, "feature": {"sight_features": "", "sight_content": ""}}, {"title": "鸡场上村", "address": "曲靖市-宣威市-鸡场--孟家村", "image": "", "rank": 22, "time": 2, "location": {"lat": 26.397242215874005, "lng": 104.01676029714513}, "feature": {"sight_features": "", "sight_content": ""}}, {"title": "羊场镇鸡场办事处", "address": "曲靖市-宣威市-羊场镇", "image": "", "rank": 23, "time": 2, "location": {"lat": 26.010882736049666, "lng": 104.25876196441847}, "feature": {"sight_features": "", "sight_content": ""}}, {"title": "南翔鸡场", "address": "曲靖市-宣威市-窑坡街139附5附近", "image": "", "rank": 24, "time": 2, "location": {"lat": 26.22567238563907, "lng": 104.10167996266894}, "feature": {"sight_features": "", "sight_content": ""}}, {"title": "列租村", "address": "曲靖市-宣威市-仙山--三二六国道", "image": "", "rank": 25, "time": 2, "location": {"lat": 26.205657676320545, "lng": 104.11340960047438}, "feature": {"sight_features": "", "sight_content": ""}}, {"title": "列白棵", "address": "曲靖市-宣威市-养殖场--李家村果园", "image": "", "rank": 26, "time": 2, "location": {"lat": 26.322499167313868, "lng": 103.83060434486538}, "feature": {"sight_features": "", "sight_content": ""}}, {"title": "火木坟山", "address": "曲靖市-宣威市", "image": "", "rank": 27, "time": 2, "location": {"lat": 26.225598378323756, "lng": 104.11157606909859}, "feature": {"sight_features": "", "sight_content": ""}}, {"title": "火石梁子", "address": "曲靖市-宣威市", "image": "", "rank": 28, "time": 2, "location": {"lat": 26.225598378323756, "lng": 104.11157606909859}, "feature": {"sight_features": "", "sight_content": ""}}, {"title": "老火箐", "address": "曲靖市-宣威市", "image": "", "rank": 29, "time": 2, "location": {"lat": 26.225598378323756, "lng": 104.11157606909859}, "feature": {"sight_features": "", "sight_content": ""}}, {"title": "宣威市新乐恒丰种植养殖基地", "address": "曲靖市-宣威市-民安巷151号附近", "image": "", "rank": 30, "time": 2, "location": {"lat": 26.2371468810327, "lng": 104.09936223308365}, "feature": {"sight_features": "", "sight_content": ""}}, {"title": "刮爬山", "address": "曲靖市-宣威市", "image": "", "rank": 31, "time": 2, "location": {"lat": 26.225598378323756, "lng": 104.11157606909859}, "feature": {"sight_features": "", "sight_content": ""}}, {"title": "九龙桥", "address": "云南省曲靖宣威市", "image": "", "rank": 32, "time": 0.75, "location": {"lat": 26.225598378323756, "lng": 104.11157606909859}, "feature": {"sight_features": "", "sight_content": ""}}]}