{"cityName": "循化", "days": 2, "cityImage": "", "spots": [{"title": "孟达天池", "address": "海东地区循化撒拉族自治县孟达乡东部", "image": "", "rank": 1, "time": 3.5, "location": {"lat": 35.713963421311114, "lng": 102.4638765952044}, "feature": {"sight_features": "", "sight_content": ""}}, {"title": "丹斗寺", "address": "循化县境内，县城黄河北岸10公里处", "image": "", "rank": 2, "time": 2, "location": {"lat": 35.86694925347801, "lng": 102.2130535060412}, "feature": {"sight_features": "", "sight_content": ""}}, {"title": "撒拉庄园", "address": "黄河东路", "image": "", "rank": 3, "time": 3.0, "location": {"lat": 37.867111093812085, "lng": 112.48045183582607}, "feature": {"sight_features": "", "sight_content": ""}}, {"title": "清水湾生态园", "address": "海东市循化撒拉族自治县", "image": "", "rank": 4, "time": 2, "location": {"lat": 35.85666722386152, "lng": 102.49538532060429}, "feature": {"sight_features": "", "sight_content": ""}}, {"title": "循化博物馆", "address": "青海省海东市循化撒拉族自治县积石黄河大桥", "image": "", "rank": 5, "time": 2.5, "location": {"lat": 35.86294727067796, "lng": 102.4967200525751}, "feature": {"sight_features": "", "sight_content": ""}}, {"title": "海西西王母瑶池宫铁柱", "address": "青海省格尔木市境内 817000", "image": "", "rank": 6, "time": 2.5, "location": {"lat": 36.41237104695386, "lng": 94.93331021042529}, "feature": {"sight_features": "", "sight_content": ""}}, {"title": "海东循化撒拉族绿色家园", "address": "青海省循化撒拉族自治县境内 811100", "image": "", "rank": 7, "time": 2, "location": {"lat": 35.85666722386152, "lng": 102.49538532060429}, "feature": {"sight_features": "", "sight_content": ""}}, {"title": "吾曼寺", "address": "青海省海东市循化县道乡", "image": "", "rank": 8, "time": 2, "location": {"lat": 35.85666722386152, "lng": 102.49538532060429}, "feature": {"sight_features": "", "sight_content": ""}}, {"title": "烈士陵园", "address": "天池路31号", "image": "", "rank": 9, "time": 2, "location": {"lat": 42.902515787674794, "lng": 129.51323676601626}, "feature": {"sight_features": "", "sight_content": ""}}, {"title": "尕楞乡娘吉合农家院百货", "address": "青海省海东市循化撒拉族自治县尕楞藏族乡尕楞中心小学东150米", "image": "", "rank": 10, "time": 2, "location": {"lat": 35.768382446249824, "lng": 102.2861347977714}, "feature": {"sight_features": "", "sight_content": ""}}, {"title": "市政广场", "address": "青海省海东市循化撒拉族自治县黄河路", "image": "", "rank": 11, "time": 0.75, "location": {"lat": 35.851844068056174, "lng": 102.50199795587011}, "feature": {"sight_features": "", "sight_content": ""}}, {"title": "喷泉广场", "address": "青海省海东市循化撒拉族自治县积石大街", "image": "", "rank": 12, "time": 2, "location": {"lat": 35.853168018467684, "lng": 102.49516529504251}, "feature": {"sight_features": "", "sight_content": ""}}, {"title": "尕西木农家院", "address": "海东市循化撒拉族自治县积石镇黄河大桥下草村", "image": "", "rank": 13, "time": 2, "location": {"lat": 35.866215991236146, "lng": 102.48949996785224}, "feature": {"sight_features": "", "sight_content": ""}}, {"title": "喜饶嘉措大师故居", "address": "青海省海东市循化撒拉族自治县", "image": "", "rank": 14, "time": 2, "location": {"lat": 35.85666722386152, "lng": 102.49538532060429}, "feature": {"sight_features": "", "sight_content": ""}}, {"title": "报恩苑", "address": "循同路附近", "image": "", "rank": 15, "time": null, "location": {"lat": 35.87266246472866, "lng": 102.43320236743985}, "feature": {"sight_features": "", "sight_content": ""}}, {"title": "丁江清真寺", "address": "202省道附近", "image": "", "rank": 16, "time": 2, "location": {"lat": 37.77792504283699, "lng": 114.12616671611477}, "feature": {"sight_features": "", "sight_content": ""}}, {"title": "撒拉族民俗展厅", "address": "骆驼泉附近", "image": "", "rank": 17, "time": 2, "location": {"lat": 31.181310221520803, "lng": 121.42370663413816}, "feature": {"sight_features": "", "sight_content": ""}}, {"title": "波浪滩乐园", "address": "黄河路6号", "image": "", "rank": 18, "time": 2, "location": {"lat": 45.758786185783045, "lng": 126.67909147810676}, "feature": {"sight_features": "", "sight_content": ""}}, {"title": "积石宫", "address": "积石大街14号", "image": "", "rank": 19, "time": 2, "location": {"lat": 35.851368304847284, "lng": 102.49825502492882}, "feature": {"sight_features": "", "sight_content": ""}}, {"title": "旦麻古塔", "address": "青海省循化撒拉族自治县白庄乡道帏旦麻村", "image": "", "rank": 20, "time": 2, "location": {"lat": 35.702935982707665, "lng": 102.59035189472824}, "feature": {"sight_features": "", "sight_content": ""}}, {"title": "西宁孟达自然保护区", "address": "青海省循化撒拉族自治县孟达乡", "image": "", "rank": 21, "time": 1.0, "location": {"lat": 35.840184785081064, "lng": 102.64852014809395}, "feature": {"sight_features": "", "sight_content": ""}}, {"title": "孟达黄河桥", "address": "青海省海东地区循化撒拉族自治县孟达乡上游约2公里", "image": "", "rank": 22, "time": 2, "location": {"lat": 35.713963421311114, "lng": 102.4638765952044}, "feature": {"sight_features": "", "sight_content": ""}}]}