{"cityName": "逊克", "days": 2, "cityImage": "", "spots": [{"title": "中国民族博物馆(鄂伦春族分馆)", "address": "国防路", "image": "", "rank": 1, "time": 2, "location": {"lat": 42.38960069334583, "lng": 126.80861987145664}, "feature": {"sight_features": "", "sight_content": ""}}, {"title": "逊克农场石景山庄旅游度假区", "address": "黑龙江省黑河逊克县逊克农场", "image": "", "rank": 2, "time": 2, "location": {"lat": 49.24256235817428, "lng": 128.11421374827523}, "feature": {"sight_features": "", "sight_content": ""}}, {"title": "逊克大平台雾凇风景区", "address": "黑龙江省黑河市逊克县东南部山区克林乡", "image": "", "rank": 3, "time": 2, "location": {"lat": 48.73197812675334, "lng": 128.94188776782343}, "feature": {"sight_features": "", "sight_content": ""}}, {"title": "逊克县图书馆", "address": "国防路", "image": "", "rank": 4, "time": 2, "location": {"lat": 42.38960069334583, "lng": 126.80861987145664}, "feature": {"sight_features": "", "sight_content": ""}}, {"title": "逊别拉河自然保护区", "address": "黑龙江省逊克县境内", "image": "", "rank": 5, "time": 2, "location": {"lat": 49.569491435700485, "lng": 128.48558459529426}, "feature": {"sight_features": "", "sight_content": ""}}, {"title": "鸟语花香生态植物园", "address": "东直街76", "image": "", "rank": 6, "time": 2, "location": {"lat": 29.582608591619614, "lng": 120.93375615856301}, "feature": {"sight_features": "", "sight_content": ""}}, {"title": "南湖公园", "address": "黑河市逊克县", "image": "", "rank": 7, "time": 2.5, "location": {"lat": 49.569491435700485, "lng": 128.48558459529426}, "feature": {"sight_features": "", "sight_content": ""}}, {"title": "宝贝家儿童乐园", "address": "黑龙江省黑河市逊克县古槐路39号", "image": "", "rank": 8, "time": 2, "location": {"lat": 49.58622160034153, "lng": 128.48376465797512}, "feature": {"sight_features": "", "sight_content": ""}}, {"title": "逊克农场恩惠教堂", "address": "黑龙江省黑河市逊克县Y402", "image": "", "rank": 9, "time": 2, "location": {"lat": 49.569491435700485, "lng": 128.48558459529426}, "feature": {"sight_features": "", "sight_content": ""}}, {"title": "中国民族博物馆逊克鄂伦春族分馆", "address": "黑龙江省黑河市逊克县国防街99", "image": "", "rank": 10, "time": 2, "location": {"lat": 49.586133284784694, "lng": 128.48227782491534}, "feature": {"sight_features": "", "sight_content": ""}}, {"title": "府套子岛", "address": "黑龙江省黑河市逊克县", "image": "", "rank": 11, "time": 2, "location": {"lat": 49.569491435700485, "lng": 128.48558459529426}, "feature": {"sight_features": "", "sight_content": ""}}, {"title": "逊克沾河漂流", "address": "黑龙江省逊克县境内", "image": "", "rank": 12, "time": 2, "location": {"lat": 49.569491435700485, "lng": 128.48558459529426}, "feature": {"sight_features": "", "sight_content": ""}}, {"title": "库尔滨河", "address": "黑龙江省逊克县新兴乡", "image": "", "rank": 13, "time": 2, "location": {"lat": 49.36341391758281, "lng": 129.01513461636128}, "feature": {"sight_features": "", "sight_content": ""}}, {"title": "库尔滨水电站", "address": "黑龙江省逊克县奇克镇库尔滨河上游", "image": "", "rank": 14, "time": 2, "location": {"lat": 49.38941100142651, "lng": 128.96394749935078}, "feature": {"sight_features": "", "sight_content": ""}}]}