{"cityName": "旬邑", "days": 2, "cityImage": "", "spots": [{"title": "石门山国家森林公园", "address": "咸阳市旬邑县境内", "image": "", "rank": 1, "time": 3.5, "location": {"lat": 35.11796391971861, "lng": 108.3404670366517}, "feature": {"sight_features": "", "sight_content": ""}}, {"title": "旬邑县博物馆", "address": "咸阳市旬邑县", "image": "", "rank": 2, "time": 1.0, "location": {"lat": 35.11796391971861, "lng": 108.3404670366517}, "feature": {"sight_features": "", "sight_content": ""}}, {"title": "旬邑唐家民俗博物馆", "address": "咸阳市旬邑县太村镇唐家村", "image": "", "rank": 3, "time": 1.0, "location": {"lat": 35.173093254127764, "lng": 108.35154165779241}, "feature": {"sight_features": "", "sight_content": ""}}, {"title": "马栏山", "address": "咸阳市旬邑县马栏镇", "image": "", "rank": 4, "time": 2, "location": {"lat": 35.338883689891865, "lng": 108.70475372604378}, "feature": {"sight_features": "", "sight_content": ""}}, {"title": "秦直道文化园", "address": "咸阳市旬邑县旬邑石门森林公园内", "image": "", "rank": 5, "time": 2, "location": {"lat": 35.11796391971861, "lng": 108.3404670366517}, "feature": {"sight_features": "", "sight_content": ""}}, {"title": "马栏革命旧址", "address": "陕西旬邑县马栏镇", "image": "", "rank": 6, "time": 2, "location": {"lat": 35.338883689891865, "lng": 108.70475372604378}, "feature": {"sight_features": "", "sight_content": ""}}, {"title": "秦咸阳城遗址", "address": "陕西省咸阳市旬邑县", "image": "", "rank": 7, "time": 2, "location": {"lat": 35.11796391971861, "lng": 108.3404670366517}, "feature": {"sight_features": "", "sight_content": ""}}, {"title": "马家堡关中特区旧址", "address": "陕西省咸阳市旬邑县西新街", "image": "", "rank": 8, "time": 2, "location": {"lat": 35.23004044967079, "lng": 108.38778020576027}, "feature": {"sight_features": "", "sight_content": ""}}, {"title": "红26军军部旧址", "address": "马栏镇转角", "image": "", "rank": 9, "time": 2, "location": {"lat": 35.34064614028895, "lng": 108.70394491961005}, "feature": {"sight_features": "", "sight_content": ""}}, {"title": "旬邑县书香公园", "address": "迎宾大道附近", "image": "", "rank": 10, "time": 2, "location": {"lat": 40.09022363082665, "lng": 114.15469279026227}, "feature": {"sight_features": "", "sight_content": ""}}, {"title": "翠屏园", "address": "旬邑汽车站南侧", "image": "", "rank": 11, "time": 2, "location": {"lat": 35.11483285372209, "lng": 108.34281966734164}, "feature": {"sight_features": "", "sight_content": ""}}, {"title": "马家堡革命旧址", "address": "南环路马家堡革命旧址", "image": "", "rank": 12, "time": 2, "location": {"lat": 31.999709829376624, "lng": 119.58626496348131}, "feature": {"sight_features": "", "sight_content": ""}}, {"title": "水上剧场", "address": "马栏岔沟口马栏革命旧址内", "image": "", "rank": 13, "time": 2, "location": {"lat": 35.26655795516756, "lng": 108.6268936448311}, "feature": {"sight_features": "", "sight_content": ""}}, {"title": "旬邑大象犀牛化石馆", "address": "陕西省旬邑县东大街", "image": "", "rank": 14, "time": 2, "location": {"lat": 35.118064103928724, "lng": 108.3461177573944}, "feature": {"sight_features": "", "sight_content": ""}}, {"title": "旬邑县人口文化广场", "address": "北大街附近", "image": "", "rank": 15, "time": 2, "location": {"lat": 39.865658405513635, "lng": 116.29212178217878}, "feature": {"sight_features": "", "sight_content": ""}}, {"title": "图书馆", "address": "泰塔路", "image": "", "rank": 16, "time": 1.0, "location": {"lat": 35.12263099244392, "lng": 108.34665182966415}, "feature": {"sight_features": "", "sight_content": ""}}, {"title": "雅仕画廊", "address": "西大街7号", "image": "", "rank": 17, "time": 2, "location": {"lat": 37.93334737913937, "lng": 115.22073358362437}, "feature": {"sight_features": "", "sight_content": ""}}, {"title": "旬邑银虎家庭农场", "address": "武家堡村", "image": "", "rank": 18, "time": 2, "location": {"lat": 40.40791515921463, "lng": 115.46090501458585}, "feature": {"sight_features": "", "sight_content": ""}}, {"title": "旬邑县赤道坡苹果采摘园", "address": "东大街67号", "image": "", "rank": 19, "time": 2, "location": {"lat": 22.617509352603705, "lng": 114.14733733676542}, "feature": {"sight_features": "", "sight_content": ""}}, {"title": "魏洛村东盛红苹果观光采摘园", "address": "魏洛村", "image": "", "rank": 20, "time": 2, "location": {"lat": 35.08521435174891, "lng": 108.28227992515843}, "feature": {"sight_features": "", "sight_content": ""}}, {"title": "唐家大院", "address": "陕西省旬邑县太村镇唐家村", "image": "", "rank": 21, "time": 2, "location": {"lat": 35.173093254127764, "lng": 108.35154165779241}, "feature": {"sight_features": "", "sight_content": ""}}, {"title": "马栏革命烈士陵园", "address": "咸阳市-旬邑县-马栏革命旧址景区(306省道东)", "image": "", "rank": 22, "time": 2, "location": {"lat": 35.27964339335508, "lng": 108.65369668277313}, "feature": {"sight_features": "", "sight_content": ""}}, {"title": "马兰七孔桥", "address": "咸阳市-旬邑县-马栏岔沟口马栏革命旧址内", "image": "", "rank": 23, "time": 2, "location": {"lat": 35.26655795516756, "lng": 108.6268936448311}, "feature": {"sight_features": "", "sight_content": ""}}, {"title": "马兰医院旧址", "address": "咸阳市-旬邑县-马栏岔沟口马栏革命旧址内", "image": "", "rank": 24, "time": 2, "location": {"lat": 35.26655795516756, "lng": 108.6268936448311}, "feature": {"sight_features": "", "sight_content": ""}}]}