{"cityName": "旬阳", "days": 2, "cityImage": "", "spots": [{"title": "绿舟游乐", "address": "滨河西路", "image": "", "rank": 1, "time": 2, "location": {"lat": 31.78845753730818, "lng": 119.70188674421337}, "feature": {"sight_features": "", "sight_content": ""}}, {"title": "旬河漂流", "address": "陕西省旬阳县境内 725700", "image": "", "rank": 2, "time": 2, "location": {"lat": 32.83986422177221, "lng": 109.3715567433842}, "feature": {"sight_features": "", "sight_content": ""}}, {"title": "旬阳城", "address": "陕西省旬阳县旬阳县县城 725700", "image": "", "rank": 3, "time": 2, "location": {"lat": 32.83986422177221, "lng": 109.3715567433842}, "feature": {"sight_features": "", "sight_content": ""}}, {"title": "喜洋洋游乐园", "address": "滨河西路西50米", "image": "", "rank": 4, "time": 2, "location": {"lat": 31.78845753730818, "lng": 119.70143759145837}, "feature": {"sight_features": "", "sight_content": ""}}, {"title": "旬阳水族馆", "address": "陕西省安康市旬阳县祝尔慷大道34", "image": "", "rank": 5, "time": 2.0, "location": {"lat": 32.84229667152425, "lng": 109.37131419011685}, "feature": {"sight_features": "", "sight_content": ""}}, {"title": "旬阳城关清真寺", "address": "旬阳大道98号附近", "image": "", "rank": 6, "time": 2, "location": {"lat": 32.831726631638254, "lng": 109.3846147736025}, "feature": {"sight_features": "", "sight_content": ""}}, {"title": "祝尔慷广场", "address": "安康市旬阳县", "image": "", "rank": 7, "time": 2, "location": {"lat": 32.83986422177221, "lng": 109.3715567433842}, "feature": {"sight_features": "", "sight_content": ""}}, {"title": "县博物馆", "address": "人民路6号", "image": "", "rank": 8, "time": 2, "location": {"lat": 35.57996204093028, "lng": 118.8382123686966}, "feature": {"sight_features": "", "sight_content": ""}}, {"title": "红军纪念馆", "address": "进站路", "image": "", "rank": 9, "time": 2, "location": {"lat": 26.82031529226039, "lng": 100.26066159877969}, "feature": {"sight_features": "", "sight_content": ""}}, {"title": "鳄鱼漆", "address": "商贸大街363附近", "image": "", "rank": 10, "time": 2, "location": {"lat": 32.838817918368164, "lng": 109.36395818997372}, "feature": {"sight_features": "", "sight_content": ""}}, {"title": "石榴园农家乐", "address": "白柳镇白柳大桥十字路口", "image": "", "rank": 11, "time": 2, "location": {"lat": 32.84153303050523, "lng": 109.30664600738614}, "feature": {"sight_features": "", "sight_content": ""}}, {"title": "杏树湾农家乐", "address": "上岭街9号(宋家岭)", "image": "", "rank": 12, "time": 2, "location": {"lat": 23.05370791585815, "lng": 113.77303182548319}, "feature": {"sight_features": "", "sight_content": ""}}, {"title": "林中源农家乐", "address": "城关镇郭家湾", "image": "", "rank": 13, "time": 2, "location": {"lat": 32.114170357287755, "lng": 110.79285393723659}, "feature": {"sight_features": "", "sight_content": ""}}, {"title": "陈家那休闲山庄", "address": "城关镇刘店村八组", "image": "", "rank": 14, "time": null, "location": {"lat": 35.59321721323075, "lng": 114.54921839513807}, "feature": {"sight_features": "", "sight_content": ""}}]}