{"cityName": "溆浦", "days": 2, "cityImage": "", "spots": [{"title": "向警予同志纪念馆", "address": "怀化市溆浦县溆浦西路27", "image": "", "rank": 1, "time": 1.0, "location": {"lat": 27.913963373885736, "lng": 110.60155112895423}, "feature": {"sight_features": "", "sight_content": ""}}, {"title": "穿岩山国家森林公园", "address": "怀化市溆浦县统溪河乡溆水附近", "image": "", "rank": 2, "time": 2, "location": {"lat": 27.75132867908019, "lng": 110.5708955991478}, "feature": {"sight_features": "", "sight_content": ""}}, {"title": "思蒙漂流", "address": "怀化市溆浦县思蒙乡中心村", "image": "", "rank": 3, "time": 2, "location": {"lat": 27.834865492736444, "lng": 110.51921144163128}, "feature": {"sight_features": "", "sight_content": ""}}, {"title": "飞水洞", "address": "怀化市溆浦县小江乡曹家溪村", "image": "", "rank": 4, "time": 2, "location": {"lat": 27.909666430126126, "lng": 110.48607971651793}, "feature": {"sight_features": "", "sight_content": ""}}, {"title": "抗战古村阳雀坡", "address": "怀化市溆浦县横板桥乡", "image": "", "rank": 5, "time": 2, "location": {"lat": 27.389067250474376, "lng": 110.53577549904303}, "feature": {"sight_features": "", "sight_content": ""}}, {"title": "溆浦迪士尼水上乐园", "address": "城南三桥桥头旁", "image": "", "rank": 6, "time": 2, "location": {"lat": 30.94690800912379, "lng": 113.57718679692131}, "feature": {"sight_features": "", "sight_content": ""}}, {"title": "英雄山", "address": "湖南省溆浦县大华乡 419315", "image": "", "rank": 7, "time": 0.6, "location": {"lat": 27.431167115946554, "lng": 110.61352754551785}, "feature": {"sight_features": "", "sight_content": ""}}, {"title": "崇实书院遗址", "address": "湖南省溆浦县龙潭镇岩板村 419315", "image": "", "rank": 8, "time": 2, "location": {"lat": 27.414787758884792, "lng": 110.53968772374114}, "feature": {"sight_features": "", "sight_content": ""}}, {"title": "溆浦龙潭古镇", "address": "湖南省溆浦县龙潭镇 419315", "image": "", "rank": 9, "time": 2.5, "location": {"lat": 27.418948817011497, "lng": 110.55200796494199}, "feature": {"sight_features": "", "sight_content": ""}}, {"title": "招屈亭", "address": "湖南省溆浦县茅坪村 419300", "image": "", "rank": 10, "time": 2, "location": {"lat": 27.883729192007443, "lng": 110.62322896834432}, "feature": {"sight_features": "", "sight_content": ""}}, {"title": "溆浦抗日将士陵园", "address": "湖南省溆浦县龙潭镇 419315", "image": "", "rank": 11, "time": 2, "location": {"lat": 27.418948817011497, "lng": 110.55200796494199}, "feature": {"sight_features": "", "sight_content": ""}}, {"title": "溆浦森林公园", "address": "湖南省溆浦县岗东镇 419315", "image": "", "rank": 12, "time": 4.0, "location": {"lat": 27.913963373885736, "lng": 110.60155112895423}, "feature": {"sight_features": "", "sight_content": ""}}, {"title": "雷峰山林场", "address": "湖南省溆浦县雷峰山山腰 419300", "image": "", "rank": 13, "time": 2, "location": {"lat": 27.913963373885736, "lng": 110.60155112895423}, "feature": {"sight_features": "", "sight_content": ""}}, {"title": "龙泉舍利塔群", "address": "湖南省溆浦县岗车乡龙泉山 419309", "image": "", "rank": 14, "time": 2, "location": {"lat": 27.913963373885736, "lng": 110.60155112895423}, "feature": {"sight_features": "", "sight_content": ""}}, {"title": "七星瑶寨", "address": "湖南省怀化市溆浦县北斗溪镇坪溪村七星瑶寨", "image": "", "rank": 15, "time": 2, "location": {"lat": 27.584781111595, "lng": 110.5941999356463}, "feature": {"sight_features": "", "sight_content": ""}}, {"title": "观音殿", "address": "湖南省怀化市溆浦县江口镇下街大江口大桥飞山庙", "image": "", "rank": 16, "time": 2, "location": {"lat": 27.87020672238509, "lng": 110.39123427353348}, "feature": {"sight_features": "", "sight_content": ""}}, {"title": "灵翠山公园", "address": "湖南省怀化市溆浦县荆家湾路", "image": "", "rank": 17, "time": 2, "location": {"lat": 27.913341583390235, "lng": 110.59007454125414}, "feature": {"sight_features": "", "sight_content": ""}}, {"title": "黄茅祠堂", "address": "怀化市溆浦县", "image": "", "rank": 18, "time": 2, "location": {"lat": 27.913963373885736, "lng": 110.60155112895423}, "feature": {"sight_features": "", "sight_content": ""}}, {"title": "萌孩子游乐园", "address": "园艺路与警予南路交叉口西北50米", "image": "", "rank": 19, "time": 2, "location": {"lat": 27.907432376047982, "lng": 110.59917401854162}, "feature": {"sight_features": "", "sight_content": ""}}, {"title": "神潭太岁殿", "address": "湖南省怀化市溆浦县", "image": "", "rank": 20, "time": 2, "location": {"lat": 27.913963373885736, "lng": 110.60155112895423}, "feature": {"sight_features": "", "sight_content": ""}}, {"title": "金中荷园度假村", "address": "湖南省怀化市溆浦县S224", "image": "", "rank": 21, "time": 2, "location": {"lat": 27.913963373885736, "lng": 110.60155112895423}, "feature": {"sight_features": "", "sight_content": ""}}, {"title": "华亿锦湾度假村", "address": "湖南省怀化市溆浦县仲夏乡岩英坪村楠木铺组", "image": "", "rank": 22, "time": 2, "location": {"lat": 27.89582513618338, "lng": 110.52197872385558}, "feature": {"sight_features": "", "sight_content": ""}}, {"title": "欢乐游乐场", "address": "湖南省怀化市溆浦县低庄镇溆浦低庄汽车站东450米", "image": "", "rank": 23, "time": 2, "location": {"lat": 28.078406517243025, "lng": 110.73581563433126}, "feature": {"sight_features": "", "sight_content": ""}}, {"title": "屈原文化广场", "address": "怀化市溆浦县溆水北路1号", "image": "", "rank": 24, "time": 2, "location": {"lat": 27.91362635967269, "lng": 110.60509436814748}, "feature": {"sight_features": "", "sight_content": ""}}, {"title": "湘维文化广场", "address": "智德医院附近", "image": "", "rank": 25, "time": 2, "location": {"lat": 27.878130817838077, "lng": 110.38033262291894}, "feature": {"sight_features": "", "sight_content": ""}}, {"title": "慧源度假村", "address": "坨坪垴水东中学东南侧100米", "image": "", "rank": 26, "time": 2, "location": {"lat": 35.53675570186474, "lng": 112.9792154547401}, "feature": {"sight_features": "", "sight_content": ""}}, {"title": "迪乐尼欢乐儿童乐园", "address": "014县道沃3g专营店南50米", "image": "", "rank": 27, "time": 2, "location": {"lat": 22.574264161044397, "lng": 114.11945509525394}, "feature": {"sight_features": "", "sight_content": ""}}, {"title": "贝贝游乐场", "address": "卢峰镇屈原大道兆隆花园4栋一楼", "image": "", "rank": 28, "time": 2, "location": {"lat": 27.92895196129563, "lng": 110.58790496995667}, "feature": {"sight_features": "", "sight_content": ""}}, {"title": "思蒙", "address": "思蒙乡集镇旁", "image": "", "rank": 29, "time": 2, "location": {"lat": 27.838877448472317, "lng": 110.52418968996925}, "feature": {"sight_features": "", "sight_content": ""}}, {"title": "钓鱼俱乐部", "address": "308省道附近", "image": "", "rank": 30, "time": 2, "location": {"lat": 40.337133976011295, "lng": 116.52614205897426}, "feature": {"sight_features": "", "sight_content": ""}}, {"title": "溆龙生态农庄", "address": "水田垅明洞附近", "image": "", "rank": 31, "time": 2, "location": {"lat": 27.902740487906854, "lng": 110.57957300669325}, "feature": {"sight_features": "", "sight_content": ""}}, {"title": "溆浦葡萄园", "address": "覌音阁镇大湾桥村铺能田六组", "image": "", "rank": 32, "time": 2.5, "location": {"lat": 27.556309495988994, "lng": 112.85143791075168}, "feature": {"sight_features": "", "sight_content": ""}}, {"title": "溆浦县龙潭镇细珍家庭农场", "address": "龙潭镇圭洞村", "image": "", "rank": 33, "time": 2, "location": {"lat": 27.41847752923285, "lng": 110.5787525878645}, "feature": {"sight_features": "", "sight_content": ""}}, {"title": "圣人山", "address": "湖南省溆浦县让家溪乡", "image": "", "rank": 34, "time": 2, "location": {"lat": 28.239922725627736, "lng": 110.753423283796}, "feature": {"sight_features": "", "sight_content": ""}}, {"title": "木鳌瀑布", "address": "湖南省溆浦县大华乡", "image": "", "rank": 35, "time": 2, "location": {"lat": 27.431167115946554, "lng": 110.61352754551785}, "feature": {"sight_features": "", "sight_content": ""}}, {"title": "白羊洞", "address": "湖南省溆浦县油阳乡洞脑山下", "image": "", "rank": 36, "time": 2, "location": {"lat": 27.913963373885736, "lng": 110.60155112895423}, "feature": {"sight_features": "", "sight_content": ""}}, {"title": "大盛商业步行街", "address": "湖南省溆浦县朝阳路", "image": "", "rank": 37, "time": 2, "location": {"lat": 27.915287817618687, "lng": 110.59848851172582}, "feature": {"sight_features": "", "sight_content": ""}}, {"title": "溆浦县雪雁家庭农场", "address": "怀化市-溆浦县-北斗溪镇宝山村五组", "image": "", "rank": 38, "time": 2, "location": {"lat": 27.54247394150395, "lng": 110.39600325172161}, "feature": {"sight_features": "", "sight_content": ""}}, {"title": "老屋蒋家", "address": "怀化市-溆浦县", "image": "", "rank": 39, "time": 2, "location": {"lat": 27.913963373885736, "lng": 110.60155112895423}, "feature": {"sight_features": "", "sight_content": ""}}, {"title": "枫香冲", "address": "怀化市-溆浦县", "image": "", "rank": 40, "time": 2, "location": {"lat": 27.913963373885736, "lng": 110.60155112895423}, "feature": {"sight_features": "", "sight_content": ""}}, {"title": "下枫香坪", "address": "怀化市-溆浦县", "image": "", "rank": 41, "time": 2, "location": {"lat": 27.913963373885736, "lng": 110.60155112895423}, "feature": {"sight_features": "", "sight_content": ""}}, {"title": "武家院子", "address": "怀化市-溆浦县", "image": "", "rank": 42, "time": 2, "location": {"lat": 27.913963373885736, "lng": 110.60155112895423}, "feature": {"sight_features": "", "sight_content": ""}}, {"title": "梓坪节孝坊", "address": "湖南省溆浦县龙漠镇梓坪村 419300", "image": "", "rank": 43, "time": 2, "location": {"lat": 27.405296247007065, "lng": 110.55231934727574}, "feature": {"sight_features": "", "sight_content": ""}}, {"title": "溆浦县龙潭锦华抗日文化旅游区", "address": "怀化市-溆浦县-龙潭锦华抗日文化旅游区", "image": "", "rank": 44, "time": 2, "location": {"lat": 27.913963373885736, "lng": 110.60155112895423}, "feature": {"sight_features": "", "sight_content": ""}}, {"title": "溆浦枫香瑶寨", "address": "怀化市溆浦县枫香坪", "image": "", "rank": 45, "time": 2, "location": {"lat": 27.63272134337755, "lng": 110.60246496706448}, "feature": {"sight_features": "", "sight_content": ""}}]}