{"cityName": "徐闻", "days": 2, "cityImage": "", "spots": [{"title": "海安杏磊湾温泉", "address": "湛江市徐闻县海安经济开发区杏磊湾温泉度假村", "image": "", "rank": 1, "time": 1.0, "location": {"lat": 20.27992488977857, "lng": 110.20987252386057}, "feature": {"sight_features": "特色1 养生美容温泉", "sight_content": "海安杏磊湾温泉度假村是大陆最南端的亚热带生态滨海度假中心和温泉度假酒店；它由徐闻县海安旅游渡假中心有限公司投资兴建、由海南金银岛酒店管理有限公司管理的一家集滨海、旅游、休闲、度假为一体的四星级酒店。\n海安杏磊湾温泉度假村位于湛江市徐闻县海安经济开发区杏磊湾温泉度假村，是集旅游，休闲度假,现代商务为一体的综合性酒店，毗邻古代“海上丝绸之路”始发港——海安港，座落于徐闻县经济开发区地王路段、207国道边，紧靠海岸客运码头，距离徐闻县城和粤海铁路海岸北港仅10分钟车程，交通十分便利。\n\n温泉度假村共投入300多万元进行园林绿化建设，杏磊湾温泉度假村绿化面积达35265平方米，绿化率达98.6%，绿化覆盖面积38791平方米，绿化覆盖率达72.3%，2009年12月，杏磊湾温泉度假村度假村通过了市绿化委员会专家们的评审，被评为市园林式单位。此外，该度假村于今年9月还被省旅游局授于首批国民旅游休闲示范单位称号。\n\n海安杏磊湾温泉度假村为您提供120套各类豪华海景客房、中西餐厅、茶艺馆、大堂吧、会议中心、室外温泉游泳池、夜总会、网球场、SPA水疗中心、水上乐园等服务设施。将成为粤西第一个亚热带生态滨海度假中心和著名的温泉度假圣地。海安杏磊湾——您旅游、休闲度假、商务会议的最佳选择地。\n酒店环境优雅，风格时尚，拥有56间豪华客房，内部设施齐全，装饰高雅别致，有餐厅，咖啡厅，会议室，棋牌室，商场等多种服务设施，并设有大型停车场。于2006年开始营业，酒店本着“会馆式的管理、保姆式的服务”的理念，为您提供自然、热忱、健康、温馨的服务。"}}, {"title": "徐闻古港", "address": "湛江市徐闻县南山镇大汉三墩旅游区东北400米", "image": "", "rank": 2, "time": 2.0, "location": {"lat": 20.250743278775605, "lng": 110.14104121253783}, "feature": {"sight_features": "", "sight_content": ""}}, {"title": "白沙湾", "address": "湛江市徐闻县", "image": "", "rank": 3, "time": 1.5, "location": {"lat": 20.33172368670216, "lng": 110.18247274427223}, "feature": {"sight_features": "", "sight_content": ""}}, {"title": "大汉三墩景区", "address": "湛江市徐闻县南山镇南山下村(火车轮渡码头旁边)", "image": "", "rank": 4, "time": 2, "location": {"lat": 20.247486323616993, "lng": 110.13462072841592}, "feature": {"sight_features": "", "sight_content": ""}}, {"title": "新沙岛", "address": "雷州半岛徐闻县城东部约50公里的海面上", "image": "", "rank": 5, "time": 3.0, "location": {"lat": 20.33172368670216, "lng": 110.18247274427223}, "feature": {"sight_features": "", "sight_content": ""}}, {"title": "角尾珊瑚保护区", "address": "广东省徐闻县角尾乡 524100", "image": "", "rank": 6, "time": 2, "location": {"lat": 20.2852671115474, "lng": 109.9667102279026}, "feature": {"sight_features": "", "sight_content": ""}}, {"title": "菠萝的海", "address": "湛江市徐闻县曲界镇", "image": "", "rank": 7, "time": 2, "location": {"lat": 20.552417012965353, "lng": 110.3235804404118}, "feature": {"sight_features": "", "sight_content": ""}}, {"title": "徐闻登云塔", "address": "广东省湛江市徐闻县文塔路", "image": "", "rank": 8, "time": 2, "location": {"lat": 20.33344657050748, "lng": 110.1724542761941}, "feature": {"sight_features": "", "sight_content": ""}}, {"title": "童子笑娃娃游乐园", "address": "国贸广场3楼", "image": "", "rank": 9, "time": 2, "location": {"lat": 40.09229337856203, "lng": 113.3228305533299}, "feature": {"sight_features": "", "sight_content": ""}}, {"title": "湛江徐闻神州木兰园培植中心", "address": "G15沈海高速235乡道出口中国科学院华南植物园附近", "image": "", "rank": 10, "time": 1.5, "location": {"lat": 20.425568007450195, "lng": 110.11801465276395}, "feature": {"sight_features": "", "sight_content": ""}}, {"title": "北关剧场", "address": "贵生路附近", "image": "", "rank": 11, "time": 2, "location": {"lat": 20.341106370644283, "lng": 110.16979172471427}, "feature": {"sight_features": "", "sight_content": ""}}, {"title": "讨网港遗址", "address": "广东省徐闻县南山镇 524143", "image": "", "rank": 12, "time": 2, "location": {"lat": 20.29936290965643, "lng": 110.14731540581086}, "feature": {"sight_features": "", "sight_content": ""}}, {"title": "徐闻县基督迈陈堂", "address": "广东省湛江市徐闻县新华西二路", "image": "", "rank": 13, "time": 2, "location": {"lat": 20.33172368670216, "lng": 110.18247274427223}, "feature": {"sight_features": "", "sight_content": ""}}, {"title": "生态水族馆", "address": "城墙路南门塘社区旁", "image": "", "rank": 14, "time": 2, "location": {"lat": 30.592647750027215, "lng": 119.5591100718473}, "feature": {"sight_features": "", "sight_content": ""}}, {"title": "极悦游乐园", "address": "广东省湛江市徐闻县东方二路100号", "image": "", "rank": 15, "time": 2, "location": {"lat": 20.33537909436043, "lng": 110.18292081906046}, "feature": {"sight_features": "", "sight_content": ""}}, {"title": "南关戏台", "address": "文塔路南关武馆附近", "image": "", "rank": 16, "time": 2, "location": {"lat": 43.869873025193, "lng": 125.35660981703178}, "feature": {"sight_features": "", "sight_content": ""}}, {"title": "附城农场", "address": "376省道东100米", "image": "", "rank": 17, "time": 2, "location": {"lat": 20.386113515902807, "lng": 110.25127962258343}, "feature": {"sight_features": "", "sight_content": ""}}, {"title": "何郑氏节孝坊", "address": "广东省徐闻县曲界镇三河村 524100", "image": "", "rank": 18, "time": 2, "location": {"lat": 20.483809463432856, "lng": 110.35201294435306}, "feature": {"sight_features": "", "sight_content": ""}}, {"title": "杏磊湾温泉度假村-温泉水上游乐...", "address": "徐海大道杏磊段杏磊湾温泉度假村", "image": "", "rank": 19, "time": 2, "location": {"lat": 20.27992488977857, "lng": 110.20987252386057}, "feature": {"sight_features": "", "sight_content": ""}}, {"title": "公园", "address": "广东省湛江市徐闻县", "image": "", "rank": 20, "time": 2, "location": {"lat": 20.33172368670216, "lng": 110.18247274427223}, "feature": {"sight_features": "", "sight_content": ""}}, {"title": "徐闻县真武寺", "address": "广东省湛江市徐闻县包罗园村海港路", "image": "", "rank": 21, "time": 2, "location": {"lat": 20.32064821171122, "lng": 110.124551801619}, "feature": {"sight_features": "", "sight_content": ""}}, {"title": "启智儿童乐园", "address": "文塔路国城商行2层", "image": "", "rank": 22, "time": 2, "location": {"lat": 20.333631898283894, "lng": 110.17135314138508}, "feature": {"sight_features": "", "sight_content": ""}}, {"title": "西关南壇境邬王庙", "address": "广东省湛江市徐闻县文塔路", "image": "", "rank": 23, "time": 2, "location": {"lat": 20.33344657050748, "lng": 110.1724542761941}, "feature": {"sight_features": "", "sight_content": ""}}, {"title": "英利影剧院", "address": "690县道附近", "image": "", "rank": 24, "time": 2, "location": {"lat": 20.590554752635597, "lng": 110.16936763468314}, "feature": {"sight_features": "", "sight_content": ""}}, {"title": "徐闻县档案馆", "address": "红旗二路138号", "image": "", "rank": 25, "time": 2, "location": {"lat": 32.938781362184834, "lng": 117.3634127843337}, "feature": {"sight_features": "", "sight_content": ""}}, {"title": "中国科学院华南植物园", "address": "G15沈海高速出口", "image": "", "rank": 26, "time": 5.0, "location": {"lat": 24.684208635520125, "lng": 118.28177739591544}, "feature": {"sight_features": "", "sight_content": ""}}, {"title": "嘉年华宾馆", "address": "第二中学斜对面", "image": "", "rank": 27, "time": 2, "location": {"lat": 40.3301650311066, "lng": 116.63516526741324}, "feature": {"sight_features": "", "sight_content": ""}}, {"title": "金富浪虾苗场", "address": "望田附近", "image": "", "rank": 28, "time": 2, "location": {"lat": 20.643267426614205, "lng": 110.39547493848866}, "feature": {"sight_features": "", "sight_content": ""}}, {"title": "安乐境剧场", "address": "木棉路附近", "image": "", "rank": 29, "time": 2, "location": {"lat": 22.594175443418873, "lng": 114.12828814231368}, "feature": {"sight_features": "", "sight_content": ""}}, {"title": "边坡农场", "address": "边坡路东100米", "image": "", "rank": 30, "time": 2, "location": {"lat": 21.220074965406663, "lng": 110.41207788085102}, "feature": {"sight_features": "", "sight_content": ""}}, {"title": "涛声影剧院", "address": "海安镇政府附近G207", "image": "", "rank": 31, "time": 2, "location": {"lat": 32.53742185483451, "lng": 120.45486931599281}, "feature": {"sight_features": "", "sight_content": ""}}, {"title": "湛江徐闻包宅游村", "address": "广东省徐闻县龙塘镇", "image": "", "rank": 32, "time": 1.5, "location": {"lat": 20.32148250764789, "lng": 110.35813490179139}, "feature": {"sight_features": "", "sight_content": ""}}, {"title": "中国大陆南极村", "address": "湛江市徐闻县角尾乡", "image": "", "rank": 33, "time": 2, "location": {"lat": 20.2852671115474, "lng": 109.9667102279026}, "feature": {"sight_features": "", "sight_content": ""}}]}