{"cityName": "盱眙", "days": 2, "cityImage": "", "spots": [{"title": "铁山寺国家森林公园", "address": "淮安市盱眙县西南丘陵山区", "image": "", "rank": 1, "time": 4.0, "location": {"lat": 32.74005414452165, "lng": 118.48735390400003}, "feature": {"sight_features": "特色1 既可领略大自然风光，又可探求科学的奥密 特色2 漂流滑索景色好，南京美丽的后花园 特色3 既可领略大自然风光，又可探求科学的奥密", "sight_content": "铁山寺国家森林公园占地为70.58平方公里，其中23.73平方公里的次生林海和群山环抱着的9平方公里的纯净的天泉湖，构成了独特的小气候环境。\n这里繁衍生息着40多种野生动物，170多种鸟类，280多种树木，近千种植物和800多种中草药，其中绝大多数为南北地域边缘物种，是天然的动植物基因库。公园内自然景观和人文景观都颇具特色，让人既可以领略独特的大自然风光，使人心旷神怡，又可探求科学的奥密，还可以感受这里历史文化的厚重。\n铁山寺国家森林公园内的森林分布属暖温带--亚热带森林群落型区，由于山体气温偏高，降水量偏多，加之群山环抱，人为影响较小，基本上保留了较好的生态环境。\n主要以次生阔叶林为主，配有小面积的人工林，树种资源丰富，呈明显的北暖带向亚热带过渡性。区内高等物种533种，其中有木本植物74科290多种，主要有：黄檀、刺槐、栎类、黄连木、漆树、松类、柏类、淡竹、毛竹等。明显过渡带树种有大叶朴，原资料记载以它徐州为南缘，羽叶泡花木、红脉钓樟、钓耳茶等以长江为界，江北未有记载，自然保护区内不但有分布，而且长势良好。\n上层树种有栎类、刺槐、漆树、松类等；中层树种有黄檀、拐枣、牛鼻栓、大叶朴、椴树等；下层有江浙钓樟、山胡椒等，地层有叶获、花冠木、两面针等。区内还生长着许多化石树种，如木瓜、银杏、雪柳等，经专家鉴定，长达几百年乃至上千年的，现依旧枝繁叶茂，长势喜人。"}}, {"title": "第一山", "address": "淮安市盱眙县淮河北路淮河文化会馆对面", "image": "", "rank": 2, "time": 1.5, "location": {"lat": 33.02453037787346, "lng": 118.50179200464818}, "feature": {"sight_features": "", "sight_content": ""}}, {"title": "明祖陵", "address": "淮安市盱眙县明祖陵镇306乡道", "image": "", "rank": 3, "time": 2.0, "location": {"lat": 33.08316994588349, "lng": 118.46929958558924}, "feature": {"sight_features": "", "sight_content": ""}}, {"title": "都梁公园", "address": "淮安市盱眙县迎宾路", "image": "", "rank": 4, "time": 1.0, "location": {"lat": 32.908820451828795, "lng": 118.36109486462244}, "feature": {"sight_features": "", "sight_content": ""}}, {"title": "都梁射击场", "address": "淮安市盱眙县盱城镇都梁大道88号", "image": "", "rank": 5, "time": 2, "location": {"lat": 33.00071222176895, "lng": 118.53586290099672}, "feature": {"sight_features": "", "sight_content": ""}}, {"title": "东阳城遗址", "address": "江苏省淮安市盱眙县205省道", "image": "", "rank": 6, "time": 1.0, "location": {"lat": 32.97132727737082, "lng": 118.83200480813099}, "feature": {"sight_features": "", "sight_content": ""}}, {"title": "盱眙象山国家矿山公园", "address": "淮安市盱眙县山水大道盱眙象山国家矿山公园", "image": "", "rank": 7, "time": 3.0, "location": {"lat": 33.03461980986806, "lng": 118.51573721404606}, "feature": {"sight_features": "", "sight_content": ""}}, {"title": "铁山寺峡谷漂流", "address": "淮安市盱眙县铁山寺国家森林公园内", "image": "", "rank": 8, "time": 2, "location": {"lat": 33.01392022926355, "lng": 118.50923617168051}, "feature": {"sight_features": "", "sight_content": ""}}, {"title": "洪泽湖渔人湾风景区", "address": "淮安市洪泽区古堰景区渔人湾景区", "image": "", "rank": 9, "time": 2, "location": {"lat": 33.299624681470235, "lng": 118.87958364929754}, "feature": {"sight_features": "", "sight_content": ""}}, {"title": "古泗州遗址", "address": "盱眙县城淮河对岸", "image": "", "rank": 10, "time": 1.0, "location": {"lat": 33.018254741659845, "lng": 118.55144127023549}, "feature": {"sight_features": "", "sight_content": ""}}, {"title": "铁山寺滑雪场", "address": "淮安市盱眙县铁山寺国家森林公园", "image": "", "rank": 11, "time": 2, "location": {"lat": 33.01392022926355, "lng": 118.50923617168051}, "feature": {"sight_features": "", "sight_content": ""}}, {"title": "甘泉山", "address": "盱眙县城北部官滩镇境内", "image": "", "rank": 12, "time": 1.0, "location": {"lat": 33.104748210738826, "lng": 118.58820731308015}, "feature": {"sight_features": "", "sight_content": ""}}, {"title": "盱眙龙泉湖", "address": "淮安市盱眙县204县道", "image": "", "rank": 13, "time": 3.5, "location": {"lat": 32.90019262515559, "lng": 118.64355737994231}, "feature": {"sight_features": "", "sight_content": ""}}, {"title": "天鹅湖旅游度假区", "address": "淮安市盱眙县天鹅湖度假区内", "image": "", "rank": 14, "time": 2, "location": {"lat": 33.018254741659845, "lng": 118.55144127023549}, "feature": {"sight_features": "", "sight_content": ""}}, {"title": "天鹅湖旅游度假区水上乐园", "address": "淮安市盱眙县天鹅湖路天鹅湖旅游度假区", "image": "", "rank": 15, "time": 2, "location": {"lat": 32.98851376104977, "lng": 118.50920296222412}, "feature": {"sight_features": "", "sight_content": ""}}, {"title": "盱眙历史文化博物馆", "address": "江苏省淮安市盱眙县将军路", "image": "", "rank": 16, "time": 0.75, "location": {"lat": 33.00247425232882, "lng": 118.50752608904051}, "feature": {"sight_features": "", "sight_content": ""}}, {"title": "玉皇山游乐园", "address": "淮安市盱眙县河桥镇三元村", "image": "", "rank": 17, "time": 7.5, "location": {"lat": 32.907926178385566, "lng": 118.3468599022908}, "feature": {"sight_features": "", "sight_content": ""}}, {"title": "盱眙静铭游乐场", "address": "世纪大道都梁公园后", "image": "", "rank": 18, "time": 4.0, "location": {"lat": 33.00420720450881, "lng": 118.51509092185877}, "feature": {"sight_features": "", "sight_content": ""}}, {"title": "幻域密室逃脱", "address": "盱城东阳路1号五洲国际广场C003号", "image": "", "rank": 19, "time": 2, "location": {"lat": 33.00154057547575, "lng": 118.53523601669997}, "feature": {"sight_features": "", "sight_content": ""}}, {"title": "盱眙龙虾博物馆", "address": "人民路与迎宾路交叉口西南150米", "image": "", "rank": 20, "time": 2, "location": {"lat": 37.3240121261152, "lng": 115.73051397460088}, "feature": {"sight_features": "", "sight_content": ""}}, {"title": "都梁画廊", "address": "五墩西路与陵园路交叉口旁", "image": "", "rank": 21, "time": 2, "location": {"lat": 33.00463639035953, "lng": 118.51705342026233}, "feature": {"sight_features": "", "sight_content": ""}}, {"title": "江苏盱眙植物展示馆", "address": "龙泉村村委会附近", "image": "", "rank": 22, "time": 2, "location": {"lat": 36.94466912051578, "lng": 114.8953020920659}, "feature": {"sight_features": "", "sight_content": ""}}, {"title": "塔柏迷宫", "address": "旧铺镇大雨山", "image": "", "rank": 23, "time": 2, "location": {"lat": 32.79777902095178, "lng": 118.66559399806873}, "feature": {"sight_features": "", "sight_content": ""}}, {"title": "盱眙大剧院", "address": "东湖东路与都梁大道交叉口西南150米", "image": "", "rank": 24, "time": 2.0, "location": {"lat": 33.00244441293547, "lng": 118.53705465327272}, "feature": {"sight_features": "", "sight_content": ""}}, {"title": "仙墩湖生态有机大米", "address": "甘泉西路139号附近", "image": "", "rank": 25, "time": 2, "location": {"lat": 31.14321419690896, "lng": 120.67998414381846}, "feature": {"sight_features": "", "sight_content": ""}}, {"title": "破山沟垂钓园", "address": "331省道南50米", "image": "", "rank": 26, "time": 2, "location": {"lat": 38.76208403526126, "lng": 115.64385441420583}, "feature": {"sight_features": "", "sight_content": ""}}, {"title": "新安革命陈列馆", "address": "江苏省淮安市楚州区黄花塘乡黄花塘村 210008", "image": "", "rank": 27, "time": 7.5, "location": {"lat": 33.50401788596174, "lng": 119.3031065119466}, "feature": {"sight_features": "", "sight_content": ""}}, {"title": "盱眙影剧院", "address": "盱城镇淮河南路28号", "image": "", "rank": 28, "time": 4.0, "location": {"lat": 33.00802460353227, "lng": 118.50073698465161}, "feature": {"sight_features": "", "sight_content": ""}}, {"title": "新四军文化艺术馆", "address": "江苏省盱眙县军部大道", "image": "", "rank": 29, "time": 2, "location": {"lat": 32.90286659697955, "lng": 118.75087165647064}, "feature": {"sight_features": "", "sight_content": ""}}, {"title": "盱眙云山寺", "address": "江苏省淮安市盱眙县马坝镇云山村大云山", "image": "", "rank": 30, "time": 4.0, "location": {"lat": 32.98422291280431, "lng": 118.85341681826684}, "feature": {"sight_features": "", "sight_content": ""}}, {"title": "奇趣堡儿童乐园", "address": "207县道附近", "image": "", "rank": 31, "time": 2, "location": {"lat": 40.80625092671897, "lng": 116.81177482469313}, "feature": {"sight_features": "", "sight_content": ""}}, {"title": "国家森林公园", "address": "江苏省淮安市盱眙县盱城街道陡沟巷国家森林公园", "image": "", "rank": 32, "time": 3.0, "location": {"lat": 33.01392022926355, "lng": 118.50923617168051}, "feature": {"sight_features": "", "sight_content": ""}}, {"title": "盱眙县地质文化博物馆", "address": "象山公园地质博物馆3楼", "image": "", "rank": 33, "time": 2, "location": {"lat": 36.20376259357768, "lng": 113.09892451925441}, "feature": {"sight_features": "", "sight_content": ""}}, {"title": "曾山旧居", "address": "淮安市盱眙县", "image": "", "rank": 34, "time": 2, "location": {"lat": 33.018254741659845, "lng": 118.55144127023549}, "feature": {"sight_features": "", "sight_content": ""}}, {"title": "百寿亭", "address": "淮安市盱眙县铁山寺国家森林公园内", "image": "", "rank": 35, "time": 2, "location": {"lat": 33.01392022926355, "lng": 118.50923617168051}, "feature": {"sight_features": "", "sight_content": ""}}, {"title": "纪念墙", "address": "江苏省淮安市盱眙县军部大道黄花塘新四军军部纪念馆", "image": "", "rank": 36, "time": 1.5, "location": {"lat": 32.891530261158096, "lng": 118.75675085582996}, "feature": {"sight_features": "", "sight_content": ""}}, {"title": "悠游堂(苏宁广场店)", "address": "其他金源北路12号苏宁生活广场3楼(原苏宁电器)", "image": "", "rank": 37, "time": 2, "location": {"lat": 33.005364465099746, "lng": 118.52662052845214}, "feature": {"sight_features": "", "sight_content": ""}}, {"title": "盱眙县大云山汉王陵博物馆", "address": "马坝镇云山村大云山", "image": "", "rank": 38, "time": 2, "location": {"lat": 32.98422291280431, "lng": 118.85341681826684}, "feature": {"sight_features": "", "sight_content": ""}}, {"title": "明史雕塑园", "address": "淮安市盱眙县明祖陵镇明祖陵景区内", "image": "", "rank": 39, "time": 2, "location": {"lat": 33.09103717793728, "lng": 118.48352751688367}, "feature": {"sight_features": "", "sight_content": ""}}, {"title": "虾都雅园", "address": "金源北路西100米", "image": "", "rank": 40, "time": 2, "location": {"lat": 36.63529819664501, "lng": 117.02816929007726}, "feature": {"sight_features": "", "sight_content": ""}}, {"title": "彭康旧居", "address": "军部大道东200米", "image": "", "rank": 41, "time": 2, "location": {"lat": 32.90286659697955, "lng": 118.75266826749059}, "feature": {"sight_features": "", "sight_content": ""}}, {"title": "白鹭游乐园", "address": "江苏省淮安市盱眙县古桑街道131号", "image": "", "rank": 42, "time": 2, "location": {"lat": 32.95857218357402, "lng": 118.51692266111569}, "feature": {"sight_features": "", "sight_content": ""}}, {"title": "盱眙两可间铁山寺森林度假村", "address": "江苏省淮安市盱眙县铁山寺度假村", "image": "", "rank": 43, "time": 4.0, "location": {"lat": 32.73621618246782, "lng": 118.47748586256608}, "feature": {"sight_features": "", "sight_content": ""}}, {"title": "桂五影剧院", "address": "高庙街附近", "image": "", "rank": 44, "time": 2, "location": {"lat": 23.01867129332046, "lng": 113.3256794940705}, "feature": {"sight_features": "", "sight_content": ""}}, {"title": "八仙岛度假村", "address": "753乡道附近", "image": "", "rank": 45, "time": 2, "location": {"lat": 43.7890350234965, "lng": 94.91373218081863}, "feature": {"sight_features": "", "sight_content": ""}}, {"title": "第一山-戚大山森林公园", "address": "淮河北路96号", "image": "", "rank": 46, "time": 2, "location": {"lat": 30.93955364263356, "lng": 117.8205851382195}, "feature": {"sight_features": "", "sight_content": ""}}, {"title": "玉皇山水上乐园-二期", "address": "江苏省淮安市盱眙县河桥镇马槽山玉仇线南350米", "image": "", "rank": 47, "time": 2, "location": {"lat": 32.887817990020956, "lng": 118.34367671000432}, "feature": {"sight_features": "", "sight_content": ""}}, {"title": "顺安采摘园", "address": "维桥乡大桥居委会", "image": "", "rank": 48, "time": 2, "location": {"lat": 33.020724639161735, "lng": 118.63297022069337}, "feature": {"sight_features": "", "sight_content": ""}}, {"title": "黄花塘新四军军部纪念馆", "address": "黄花塘镇黄花塘村", "image": "", "rank": 49, "time": 2, "location": {"lat": 32.89182516085516, "lng": 118.7567910002049}, "feature": {"sight_features": "", "sight_content": ""}}, {"title": "地质博物馆", "address": "山口门线", "image": "", "rank": 50, "time": 2, "location": {"lat": 33.03657828696006, "lng": 118.52123092356187}, "feature": {"sight_features": "", "sight_content": ""}}, {"title": "盱眙经济开发区产品展示馆", "address": "东方大道", "image": "", "rank": 51, "time": 4.0, "location": {"lat": 31.627570891307233, "lng": 120.38091029623695}, "feature": {"sight_features": "", "sight_content": ""}}, {"title": "图书馆", "address": "东方大道3号", "image": "", "rank": 52, "time": 1.0, "location": {"lat": 30.809035706114713, "lng": 120.51325645856382}, "feature": {"sight_features": "", "sight_content": ""}}, {"title": "淮河文化博物馆", "address": "斩龙涧路", "image": "", "rank": 53, "time": 2, "location": {"lat": 33.017171877138495, "lng": 118.50366879212983}, "feature": {"sight_features": "", "sight_content": ""}}, {"title": "盱眙县林柴场", "address": "山口门线西50米", "image": "", "rank": 54, "time": null, "location": {"lat": 33.03657828696006, "lng": 118.52078177080689}, "feature": {"sight_features": "", "sight_content": ""}}, {"title": "鳄鱼漆", "address": "文明西路68附近", "image": "", "rank": 55, "time": 2, "location": {"lat": 32.98400376353459, "lng": 118.78903163141584}, "feature": {"sight_features": "", "sight_content": ""}}, {"title": "盱眙66轮滑俱乐部", "address": "五墩东路皇剑国际购物中心5楼（右边电梯直上)(国贸五墩加油站对面)", "image": "", "rank": 56, "time": 4.0, "location": {"lat": 33.000955312498384, "lng": 118.52774776262982}, "feature": {"sight_features": "", "sight_content": ""}}, {"title": "林云画廊", "address": "小康东路与燕山路交叉口西北150米", "image": "", "rank": 57, "time": 2, "location": {"lat": 33.011497604694, "lng": 118.54035119015523}, "feature": {"sight_features": "", "sight_content": ""}}, {"title": "瑞嘉画廊", "address": "盱城镇金源南路古桑新寓", "image": "", "rank": 58, "time": 2, "location": {"lat": 32.99293091849956, "lng": 118.51872761919046}, "feature": {"sight_features": "", "sight_content": ""}}, {"title": "穰满家农场", "address": "旧仇线天泉湖旅游度假区西侧", "image": "", "rank": 59, "time": 2, "location": {"lat": 32.7654745339745, "lng": 118.50016257008026}, "feature": {"sight_features": "", "sight_content": ""}}, {"title": "青年水库垂钓中心", "address": "盱城街道一山路青年水库垂钓中心", "image": "", "rank": 60, "time": 2, "location": {"lat": 33.02580513838225, "lng": 118.52317067866655}, "feature": {"sight_features": "", "sight_content": ""}}]}