{"cityName": "叙永", "days": 2, "cityImage": "", "spots": [{"title": "夫妻树", "address": "四川省泸州市叙永县合乐苗族乡", "image": "", "rank": 1, "time": 0.35, "location": {"lat": 28.166111538103408, "lng": 105.59485469156394}, "feature": {"sight_features": "", "sight_content": ""}}, {"title": "贝美嘉儿童乐园", "address": "四川省泸州市叙永县西外街3", "image": "", "rank": 2, "time": 2, "location": {"lat": 28.174775657347002, "lng": 105.44352392119859}, "feature": {"sight_features": "", "sight_content": ""}}, {"title": "泸州仙人洞", "address": "四川省叙永县境内 646400", "image": "", "rank": 3, "time": 2.0, "location": {"lat": 28.161714341910837, "lng": 105.45150761141588}, "feature": {"sight_features": "", "sight_content": ""}}, {"title": "李家祠堂", "address": "泸州市叙永县四八二乡道", "image": "", "rank": 4, "time": 2, "location": {"lat": 28.161714341910837, "lng": 105.45150761141588}, "feature": {"sight_features": "", "sight_content": ""}}, {"title": "鱼凫公园", "address": "四川省泸州市叙永县和平大道", "image": "", "rank": 5, "time": 2, "location": {"lat": 28.166561975062333, "lng": 105.45140523962169}, "feature": {"sight_features": "", "sight_content": ""}}, {"title": "水上公园", "address": "东外街南100米", "image": "", "rank": 6, "time": 1.5, "location": {"lat": 31.014270473226375, "lng": 121.26495119710651}, "feature": {"sight_features": "", "sight_content": ""}}, {"title": "鱼凫广场", "address": "四川省泸州市叙永县鱼凫路二段", "image": "", "rank": 7, "time": 2, "location": {"lat": 28.1669126515825, "lng": 105.45329688597414}, "feature": {"sight_features": "", "sight_content": ""}}, {"title": "天主堂(布店街)", "address": "布店街附近", "image": "", "rank": 8, "time": 2, "location": {"lat": 28.170463081074985, "lng": 105.4469719501178}, "feature": {"sight_features": "", "sight_content": ""}}, {"title": "童爱岛儿童成长乐园", "address": "四川省泸州市叙永县南大街453", "image": "", "rank": 9, "time": 2, "location": {"lat": 28.17103114070376, "lng": 105.44612505553073}, "feature": {"sight_features": "", "sight_content": ""}}, {"title": "洋人街游乐场", "address": "平安大道", "image": "", "rank": 10, "time": 2, "location": {"lat": 39.942900810607625, "lng": 116.44453913305763}, "feature": {"sight_features": "", "sight_content": ""}}, {"title": "叙永县图书馆", "address": "西大街287号", "image": "", "rank": 11, "time": 2, "location": {"lat": 31.3809443584992, "lng": 121.24174356139187}, "feature": {"sight_features": "", "sight_content": ""}}, {"title": "县木雕石刻艺术博物馆", "address": "泸州市叙永县鱼凫路1段", "image": "", "rank": 12, "time": 2, "location": {"lat": 28.163205553847703, "lng": 105.45584757416378}, "feature": {"sight_features": "", "sight_content": ""}}, {"title": "壹品游乐场", "address": "环城大道西侧水洞子B片区中广壹品城2-2", "image": "", "rank": 13, "time": 2, "location": {"lat": 28.179765290056615, "lng": 105.43994857543952}, "feature": {"sight_features": "", "sight_content": ""}}, {"title": "叙永县玫瑰香葡萄种植专业合作社", "address": "G76新松村", "image": "", "rank": 14, "time": null, "location": {"lat": 23.361421616315816, "lng": 116.04362675821203}, "feature": {"sight_features": "", "sight_content": ""}}, {"title": "马草湾商业街", "address": "四川省叙永县西外街", "image": "", "rank": 15, "time": null, "location": {"lat": 28.176914046866987, "lng": 105.44092238083236}, "feature": {"sight_features": "", "sight_content": ""}}, {"title": "叙永县新城商业街步行街", "address": "四川省叙永县丹霞街", "image": "", "rank": 16, "time": null, "location": {"lat": 28.163994666229613, "lng": 105.45460259549012}, "feature": {"sight_features": "", "sight_content": ""}}, {"title": "桃花坞玻璃桥", "address": "泸州市-叙永县-G76(厦蓉高速)", "image": "", "rank": 17, "time": 2, "location": {"lat": 28.161714341910837, "lng": 105.45150761141588}, "feature": {"sight_features": "", "sight_content": ""}}, {"title": "叙永县曾氏花卉园林园艺场", "address": "泸州市-叙永县-丹山路61号上农场叙永县体育中心大门右侧路口进20米", "image": "", "rank": 18, "time": 2, "location": {"lat": 28.183452481039104, "lng": 105.43983709572576}, "feature": {"sight_features": "", "sight_content": ""}}, {"title": "西湖村生育文化大院", "address": "泸州市-叙永县-321国道与511乡道交叉口西北200米", "image": "", "rank": 19, "time": 2, "location": {"lat": 28.124918682573757, "lng": 105.51509632285189}, "feature": {"sight_features": "", "sight_content": ""}}, {"title": "西湖村", "address": "泸州市叙永县", "image": "", "rank": 20, "time": 2, "location": {"lat": 28.161714341910837, "lng": 105.45150761141588}, "feature": {"sight_features": "", "sight_content": ""}}]}