{"cityName": "亚东", "days": 2, "cityImage": "", "spots": [{"title": "卓木拉日雪山", "address": "日喀则市亚东县帕里镇", "image": "", "rank": 1, "time": 2, "location": {"lat": 27.724467599920306, "lng": 89.16136794772339}, "feature": {"sight_features": "", "sight_content": ""}}, {"title": "帕里草原", "address": "日喀则市亚东县帕里镇", "image": "", "rank": 2, "time": 1.0, "location": {"lat": 27.724467599920306, "lng": 89.16136794772339}, "feature": {"sight_features": "", "sight_content": ""}}, {"title": "卓木拉日峰", "address": "日喀则市亚东县", "image": "", "rank": 3, "time": 2, "location": {"lat": 27.491108780091498, "lng": 88.91344078314533}, "feature": {"sight_features": "", "sight_content": ""}}, {"title": "多情错", "address": "日喀则市亚东县帕里镇", "image": "", "rank": 4, "time": 0.75, "location": {"lat": 27.724467599920306, "lng": 89.16136794772339}, "feature": {"sight_features": "", "sight_content": ""}}, {"title": "东嘎寺", "address": "日喀则市亚东县上亚东乡西边山坡处（距县城13公里）", "image": "", "rank": 5, "time": 2.0, "location": {"lat": 27.587246581448653, "lng": 89.03286793698335}, "feature": {"sight_features": "", "sight_content": ""}}, {"title": "康布温泉", "address": "日喀则市亚东县", "image": "", "rank": 6, "time": 2, "location": {"lat": 27.491108780091498, "lng": 88.91344078314533}, "feature": {"sight_features": "", "sight_content": ""}}, {"title": "噶举寺", "address": "日喀则市亚东县下亚东乡", "image": "", "rank": 7, "time": 2, "location": {"lat": 27.43215845443097, "lng": 88.93653314397744}, "feature": {"sight_features": "", "sight_content": ""}}, {"title": "曲美雄谷抗英英雄纪念碑", "address": "日喀则市亚东县", "image": "", "rank": 8, "time": null, "location": {"lat": 27.491108780091498, "lng": 88.91344078314533}, "feature": {"sight_features": "", "sight_content": ""}}, {"title": "嘎拉错", "address": "西藏自治区亚东县堆纳乡", "image": "", "rank": 9, "time": 2, "location": {"lat": 27.981480668716717, "lng": 89.24112468637024}, "feature": {"sight_features": "", "sight_content": ""}}, {"title": "岗巴拉山", "address": "西藏自治区日喀则地区亚东县", "image": "", "rank": 10, "time": 3.0, "location": {"lat": 27.491108780091498, "lng": 88.91344078314533}, "feature": {"sight_features": "", "sight_content": ""}}]}