{"cityName": "雅江", "days": 2, "cityImage": "", "spots": [{"title": "卡子拉山", "address": "甘孜藏族自治州理塘县", "image": "", "rank": 1, "time": null, "location": {"lat": 30.000030621750792, "lng": 100.27557457997872}, "feature": {"sight_features": "", "sight_content": ""}}, {"title": "高尔寺山黑石城", "address": "甘孜州雅江县高尔寺山上（318国道2913公桩左边的祝桑乡境内）", "image": "", "rank": 2, "time": 4.0, "location": {"lat": 30.153759849852765, "lng": 100.69278520798281}, "feature": {"sight_features": "", "sight_content": ""}}, {"title": "祝桑", "address": "甘孜藏族自治州雅江县祝桑乡", "image": "", "rank": 3, "time": 7.5, "location": {"lat": 29.880852233695894, "lng": 101.33167887405898}, "feature": {"sight_features": "", "sight_content": ""}}, {"title": "雅江县", "address": "四川省甘孜藏族自治州雅江县", "image": "", "rank": 4, "time": null, "location": {"lat": 30.037568967863947, "lng": 101.02050035294431}, "feature": {"sight_features": "", "sight_content": ""}}, {"title": "庆大沟森林公园", "address": "雅江县北25公里左右，在雅砻江与庆大河的交汇处", "image": "", "rank": 5, "time": 2, "location": {"lat": 29.41702737987175, "lng": 101.13929755320723}, "feature": {"sight_features": "", "sight_content": ""}}, {"title": "帕母岭", "address": "位于距离雅江县城约39公里处的八角楼乡境内", "image": "", "rank": 6, "time": 2, "location": {"lat": 30.078871703205287, "lng": 101.14320688957247}, "feature": {"sight_features": "", "sight_content": ""}}, {"title": "俄洛堆村", "address": "甘孜藏族自治州雅江县西俄洛乡俄洛堆村", "image": "", "rank": 7, "time": 7.5, "location": {"lat": 30.06824409414408, "lng": 100.69464608557556}, "feature": {"sight_features": "", "sight_content": ""}}, {"title": "德差乡", "address": "甘孜州雅江县德差乡下德差村", "image": "", "rank": 8, "time": 2, "location": {"lat": 29.681496381093762, "lng": 100.76016578508266}, "feature": {"sight_features": "", "sight_content": ""}}, {"title": "郭岗顶", "address": "位于距离雅江县约65公里外的西俄洛乡境内，在西俄洛乡政府对面的山顶平台上", "image": "", "rank": 9, "time": 2, "location": {"lat": 30.02552314563627, "lng": 100.72449278650075}, "feature": {"sight_features": "", "sight_content": ""}}, {"title": "世家豪生态馆", "address": "解放街43号附近", "image": "", "rank": 10, "time": 2, "location": {"lat": 32.35251918938823, "lng": 119.88834734249544}, "feature": {"sight_features": "", "sight_content": ""}}, {"title": "川陕苏烈士陵园", "address": "四川省通江县沙溪镇王坪村 636748", "image": "", "rank": 11, "time": 2.5, "location": {"lat": 32.1131019338255, "lng": 107.42476179809823}, "feature": {"sight_features": "", "sight_content": ""}}, {"title": "红四方面军烈士墓", "address": "四川省通江县沙溪镇王坪村 636748", "image": "", "rank": 12, "time": 1.5, "location": {"lat": 32.1131019338255, "lng": 107.42476179809823}, "feature": {"sight_features": "", "sight_content": ""}}, {"title": "王坪旅游景区", "address": "四川省通江县沙溪镇王坪村", "image": "", "rank": 13, "time": 3.5, "location": {"lat": 32.1131019338255, "lng": 107.42476179809823}, "feature": {"sight_features": "", "sight_content": ""}}, {"title": "相克宗", "address": "甘孜藏族自治州雅江县相克宗", "image": "", "rank": 14, "time": 2, "location": {"lat": 29.990202000513747, "lng": 100.91456254042376}, "feature": {"sight_features": "", "sight_content": ""}}, {"title": "河口镇", "address": "四川省甘孜藏族自治州雅江河口镇", "image": "", "rank": 15, "time": 2, "location": {"lat": 30.035897295815786, "lng": 101.02504012938145}, "feature": {"sight_features": "", "sight_content": ""}}, {"title": "高尔寺山", "address": "四川省甘孜藏族自治州雅江县(过新都桥向稻城亚丁方向)", "image": "", "rank": 16, "time": 1.0, "location": {"lat": 29.043266104185587, "lng": 100.30790988506227}, "feature": {"sight_features": "", "sight_content": ""}}]}