{"cityName": "牙克石", "days": 2, "cityImage": "", "spots": [{"title": "凤凰山滑雪场", "address": "呼伦贝尔市牙克石市迎宾西街四号林城宾馆东16公里处", "image": "", "rank": 1, "time": 2, "location": {"lat": 49.28638809709623, "lng": 120.74060332178927}, "feature": {"sight_features": "", "sight_content": ""}}, {"title": "绰源国家森林公园", "address": "呼伦贝尔市牙克石市 ‎", "image": "", "rank": 2, "time": null, "location": {"lat": 49.292023693206346, "lng": 120.718346837101}, "feature": {"sight_features": "", "sight_content": ""}}, {"title": "鹤翔园旅游度假村", "address": "呼伦贝尔市牙克石市图里河镇西北8公里处", "image": "", "rank": 3, "time": 2, "location": {"lat": 50.48860632002339, "lng": 121.6158675451707}, "feature": {"sight_features": "", "sight_content": ""}}, {"title": "喇嘛湖", "address": "呼伦贝尔市牙克石市滨洲铁路线巴林火车站北部喇嘛山国家森林公园内", "image": "", "rank": 4, "time": 0.5, "location": {"lat": 48.33438735231703, "lng": 122.33753155951918}, "feature": {"sight_features": "", "sight_content": ""}}, {"title": "大雁河生态园", "address": "呼伦贝尔市牙克石市乌尔其汉林业局莫怪林场2林班12.32小班", "image": "", "rank": 5, "time": 2, "location": {"lat": 49.58158219924905, "lng": 121.39783755919746}, "feature": {"sight_features": "", "sight_content": ""}}, {"title": "醒狮岩", "address": "呼伦贝尔市牙克石市滨洲铁路线巴林火车站北部喇嘛山国家森林公园内", "image": "", "rank": 6, "time": 0.3, "location": {"lat": 48.33438735231703, "lng": 122.33753155951918}, "feature": {"sight_features": "", "sight_content": ""}}, {"title": "喇嘛峰", "address": "呼伦贝尔市牙克石市滨洲铁路线巴林火车站北部喇嘛山国家森林公园内", "image": "", "rank": 7, "time": 0.5, "location": {"lat": 48.33438735231703, "lng": 122.33753155951918}, "feature": {"sight_features": "", "sight_content": ""}}, {"title": "保安寺", "address": "呼伦贝尔市牙克石市滨洲铁路线巴林火车站北部喇嘛山国家森林公园内", "image": "", "rank": 8, "time": 1.5, "location": {"lat": 48.33438735231703, "lng": 122.33753155951918}, "feature": {"sight_features": "", "sight_content": ""}}, {"title": "合欢岩", "address": "呼伦贝尔市牙克石市滨洲铁路线巴林火车站北部喇嘛山国家森林公园内", "image": "", "rank": 9, "time": 0.3, "location": {"lat": 48.33438735231703, "lng": 122.33753155951918}, "feature": {"sight_features": "", "sight_content": ""}}, {"title": "石雨谷", "address": "呼伦贝尔市牙克石市滨洲铁路线巴林火车站北部喇嘛山国家森林公园内", "image": "", "rank": 10, "time": 0.6, "location": {"lat": 48.33438735231703, "lng": 122.33753155951918}, "feature": {"sight_features": "", "sight_content": ""}}, {"title": "瀑布岩", "address": "呼伦贝尔市牙克石市滨洲铁路线巴林火车站北部喇嘛山国家森林公园内", "image": "", "rank": 11, "time": 0.3, "location": {"lat": 48.33438735231703, "lng": 122.33753155951918}, "feature": {"sight_features": "", "sight_content": ""}}, {"title": "剑龙岩", "address": "呼伦贝尔市牙克石市滨洲铁路线巴林火车站北部喇嘛山国家森林公园内", "image": "", "rank": 12, "time": 0.3, "location": {"lat": 48.33438735231703, "lng": 122.33753155951918}, "feature": {"sight_features": "", "sight_content": ""}}, {"title": "仙人台", "address": "呼伦贝尔市牙克石市滨洲铁路线巴林火车站北部喇嘛山国家森林公园内", "image": "", "rank": 13, "time": 0.3, "location": {"lat": 48.33438735231703, "lng": 122.33753155951918}, "feature": {"sight_features": "", "sight_content": ""}}, {"title": "凤凰山庄", "address": "呼伦贝尔市牙克石东南部迎宾西街4号", "image": "", "rank": 14, "time": 2, "location": {"lat": 49.28638809709623, "lng": 120.74060332178927}, "feature": {"sight_features": "", "sight_content": ""}}, {"title": "密室逃脱(牙克石分店)", "address": "建设路好泰尔宾馆南侧", "image": "", "rank": 15, "time": 2, "location": {"lat": 49.28857003054389, "lng": 120.72224979488078}, "feature": {"sight_features": "", "sight_content": ""}}, {"title": "乌尔其汉森林公园", "address": "呼伦贝尔市牙克石市乌尔其汉镇", "image": "", "rank": 16, "time": 2, "location": {"lat": 49.57682715468642, "lng": 121.40238097287363}, "feature": {"sight_features": "", "sight_content": ""}}, {"title": "呼伦贝尔北林场农家乐", "address": "呼伦贝尔呼伦贝尔牙克石市巴林镇北林街110号", "image": "", "rank": 17, "time": 10.5, "location": {"lat": 48.329468862175105, "lng": 122.3495819686134}, "feature": {"sight_features": "", "sight_content": ""}}, {"title": "牙克石市城市规划展馆", "address": "建设路西150米", "image": "", "rank": 18, "time": 2, "location": {"lat": 22.791813202530147, "lng": 113.16266145282067}, "feature": {"sight_features": "", "sight_content": ""}}, {"title": "云龙山庄", "address": "内蒙古自治区呼伦贝尔市牙克石市", "image": "", "rank": 19, "time": 2, "location": {"lat": 49.292023693206346, "lng": 120.718346837101}, "feature": {"sight_features": "", "sight_content": ""}}, {"title": "药王洞", "address": "呼伦贝尔市牙克石市滨洲铁路线巴林火车站北部喇嘛山国家森林公园内", "image": "", "rank": 20, "time": 0.3, "location": {"lat": 48.33438735231703, "lng": 122.33753155951918}, "feature": {"sight_features": "", "sight_content": ""}}, {"title": "观景亭", "address": "呼伦贝尔市牙克石市滨洲铁路线巴林火车站北部喇嘛山国家森林公园内", "image": "", "rank": 21, "time": 0.3, "location": {"lat": 48.33438735231703, "lng": 122.33753155951918}, "feature": {"sight_features": "", "sight_content": ""}}, {"title": "灵龟岩", "address": "呼伦贝尔市牙克石市滨洲铁路线巴林火车站北部喇嘛山国家森林公园内", "image": "", "rank": 22, "time": 0.3, "location": {"lat": 48.33438735231703, "lng": 122.33753155951918}, "feature": {"sight_features": "", "sight_content": ""}}, {"title": "一线天", "address": "呼伦贝尔市牙克石市滨洲铁路线巴林火车站北部喇嘛山国家森林公园内", "image": "", "rank": 23, "time": 2.5, "location": {"lat": 48.33438735231703, "lng": 122.33753155951918}, "feature": {"sight_features": "", "sight_content": ""}}, {"title": "喇嘛山生态园", "address": "呼伦贝尔市牙克石市滨洲铁路线巴林火车站北部喇嘛山国家森林公园内", "image": "", "rank": 24, "time": 0.4, "location": {"lat": 48.33438735231703, "lng": 122.33753155951918}, "feature": {"sight_features": "", "sight_content": ""}}, {"title": "怡人桥", "address": "呼伦贝尔市牙克石市滨洲铁路线巴林火车站北部喇嘛山国家森林公园内", "image": "", "rank": 25, "time": 0.25, "location": {"lat": 48.33438735231703, "lng": 122.33753155951918}, "feature": {"sight_features": "", "sight_content": ""}}, {"title": "冰冻草莓(取货点牙克石)", "address": "中央街六道街远大岭上人旁", "image": "", "rank": 26, "time": 2, "location": {"lat": 48.251510068651314, "lng": 126.51816096226482}, "feature": {"sight_features": "", "sight_content": ""}}, {"title": "春光农场第一公司", "address": "302县道附近", "image": "", "rank": 27, "time": 2, "location": {"lat": 39.16745502495015, "lng": 116.01802722522686}, "feature": {"sight_features": "", "sight_content": ""}}, {"title": "鲜果冰饮", "address": "林城路28号附近", "image": "", "rank": 28, "time": 2, "location": {"lat": 49.29537919584535, "lng": 120.7434840191275}, "feature": {"sight_features": "", "sight_content": ""}}, {"title": "雅鲁河源头第一漂", "address": "博克图镇", "image": "", "rank": 29, "time": 2, "location": {"lat": 48.759985622518776, "lng": 121.92235520452631}, "feature": {"sight_features": "", "sight_content": ""}}, {"title": "快乐小孩儿童成长乐园淘气堡", "address": "内蒙古自治区呼伦贝尔市牙克石市林城南路绿都大厦西北门(温州城东)", "image": "", "rank": 30, "time": 2, "location": {"lat": 49.28942970833333, "lng": 120.74401933060972}, "feature": {"sight_features": "", "sight_content": ""}}, {"title": "牙克石市门都公园", "address": "门都大桥西", "image": "", "rank": 31, "time": 2, "location": {"lat": 49.29542255895774, "lng": 120.7659509592798}, "feature": {"sight_features": "", "sight_content": ""}}, {"title": "呼伦贝尔天顺园度假村", "address": "呼伦贝尔黑山头新镇", "image": "", "rank": 32, "time": 2, "location": {"lat": 50.223459412168, "lng": 119.60432296059437}, "feature": {"sight_features": "", "sight_content": ""}}, {"title": "平安广场", "address": "免渡河镇五道街", "image": "", "rank": 33, "time": 2, "location": {"lat": 49.10056960096696, "lng": 121.05304961316897}, "feature": {"sight_features": "", "sight_content": ""}}, {"title": "辽代古城堡遗址", "address": "内蒙古自治区呼伦贝尔市牙克石市", "image": "", "rank": 34, "time": 2, "location": {"lat": 49.292023693206346, "lng": 120.718346837101}, "feature": {"sight_features": "", "sight_content": ""}}, {"title": "森茂广场", "address": "牙伊线北50米", "image": "", "rank": 35, "time": 2, "location": {"lat": 49.79694789456871, "lng": 121.26987934530285}, "feature": {"sight_features": "", "sight_content": ""}}, {"title": "黎明广场", "address": "乌尔其汉镇", "image": "", "rank": 36, "time": 2, "location": {"lat": 49.57682715468642, "lng": 121.40238097287363}, "feature": {"sight_features": "", "sight_content": ""}}, {"title": "林业休闲文化广场", "address": "内蒙古自治区呼伦贝尔市牙克石市新工街道青松北路青松小区A附近", "image": "", "rank": 37, "time": 2, "location": {"lat": 49.29942291736951, "lng": 120.73564100130461}, "feature": {"sight_features": "", "sight_content": ""}}, {"title": "动物园", "address": "301国道", "image": "", "rank": 38, "time": 2, "location": {"lat": 46.581947581787674, "lng": 125.17344702062245}, "feature": {"sight_features": "", "sight_content": ""}}, {"title": "锐锦运动俱乐部", "address": "兴安中路云顶斜对面", "image": "", "rank": 39, "time": 2, "location": {"lat": 39.918047380324104, "lng": 116.46548809185563}, "feature": {"sight_features": "", "sight_content": ""}}, {"title": "内蒙古自治区国有免渡河农场", "address": "平安路与301国道交叉口北50米", "image": "", "rank": 40, "time": 2, "location": {"lat": 46.581947581787674, "lng": 125.17344702062245}, "feature": {"sight_features": "", "sight_content": ""}}, {"title": "凤冠高级滑雪场", "address": "东南30公里处", "image": "", "rank": 41, "time": 2, "location": {"lat": 23.494386671660774, "lng": 116.51093198121578}, "feature": {"sight_features": "", "sight_content": ""}}, {"title": "温州城商业步行街", "address": "内蒙古自治区牙克石市林城路", "image": "", "rank": 42, "time": 3.0, "location": {"lat": 49.2938577632007, "lng": 120.74348987832519}, "feature": {"sight_features": "", "sight_content": ""}}, {"title": "夜巴黎美食文化街", "address": "内蒙古自治区牙克石市兴安东街", "image": "", "rank": 43, "time": 2, "location": {"lat": 49.29319923288521, "lng": 120.74956015535126}, "feature": {"sight_features": "", "sight_content": ""}}, {"title": "昆尼气林场", "address": "呼伦贝尔市-牙克石市", "image": "", "rank": 44, "time": null, "location": {"lat": 49.292023693206346, "lng": 120.718346837101}, "feature": {"sight_features": "", "sight_content": ""}}]}