{"cityName": "扬中", "days": 2, "cityImage": "", "spots": [{"title": "润禾农庄", "address": "红旗路", "image": "", "rank": 1, "time": 2, "location": {"lat": 38.03888277062057, "lng": 114.71848832389274}, "feature": {"sight_features": "", "sight_content": ""}}, {"title": "裕星鲜果采摘园", "address": "博联小区(北区)", "image": "", "rank": 2, "time": 2, "location": {"lat": 22.49802431427374, "lng": 114.14948392761134}, "feature": {"sight_features": "", "sight_content": ""}}, {"title": "滨江湿地公园", "address": "镇江市扬中市环岛公路与迎江大道交汇处南50米", "image": "", "rank": 3, "time": 0.75, "location": {"lat": 32.22143723457128, "lng": 119.80559851201942}, "feature": {"sight_features": "", "sight_content": ""}}, {"title": "煌廷壹号酒店有限公司", "address": "三茅镇煌廷壹号酒店有限公司", "image": "", "rank": 4, "time": 2, "location": {"lat": 34.269987237431565, "lng": 117.18675846423358}, "feature": {"sight_features": "", "sight_content": ""}}, {"title": "温泉商务宾馆", "address": "江洲南路39号(国美电器旁)", "image": "", "rank": 5, "time": 2, "location": {"lat": 32.480530457348586, "lng": 119.90862813129172}, "feature": {"sight_features": "", "sight_content": ""}}, {"title": "新坝镇中心阅览室", "address": "政前路47号附近", "image": "", "rank": 6, "time": 2, "location": {"lat": 32.134764210471026, "lng": 119.85286280028282}, "feature": {"sight_features": "", "sight_content": ""}}, {"title": "全红河垂钓中心", "address": "新坝镇环岛公路夹江附近", "image": "", "rank": 7, "time": 2, "location": {"lat": 29.743846302985492, "lng": 103.57841009994}, "feature": {"sight_features": "", "sight_content": ""}}, {"title": "和平渔庄", "address": "油坊镇环岛公路夹江附近", "image": "", "rank": 8, "time": 2, "location": {"lat": 29.743846302985492, "lng": 103.57841009994}, "feature": {"sight_features": "", "sight_content": ""}}, {"title": "江韵农业垂钓中心", "address": "油坊镇环岛公路夹江附近", "image": "", "rank": 9, "time": 2, "location": {"lat": 29.743846302985492, "lng": 103.57841009994}, "feature": {"sight_features": "", "sight_content": ""}}, {"title": "海萍家庭农场", "address": "翠竹南路翠竹南区旁", "image": "", "rank": 10, "time": 2, "location": {"lat": 22.56927849213449, "lng": 114.1364102587151}, "feature": {"sight_features": "", "sight_content": ""}}, {"title": "小飞鱼", "address": "扬子东路9号扬子商业广场B1", "image": "", "rank": 11, "time": 2, "location": {"lat": 32.24035129600106, "lng": 119.8333175565815}, "feature": {"sight_features": "", "sight_content": ""}}, {"title": "新坝大剧院", "address": "新政东路121号", "image": "", "rank": 12, "time": 2, "location": {"lat": 32.26828335295093, "lng": 119.76449802202124}, "feature": {"sight_features": "", "sight_content": ""}}, {"title": "扬中园博园", "address": "镇江市扬中市园博大道与扬中大道交叉口西100米", "image": "", "rank": 13, "time": 2, "location": {"lat": 32.20199208220187, "lng": 119.85281426169205}, "feature": {"sight_features": "", "sight_content": "扬中园博园，位于江苏扬中市，是为了举办第八届江苏园博会而建设，以江魂绿岛，水韵芳洲为主题，是涵盖园林花卉、休闲旅游、自然生态、文化艺术和商贸交流的综合展会。园博园内有河鲀主题景观核、湿地水脉和水上游览线、湿地网桥、景观湖、主展馆、滨江广场等组成。"}}, {"title": "河豚美食文化广场", "address": "三茅街道兴华社区666号", "image": "", "rank": 14, "time": 2, "location": {"lat": 39.941465780120225, "lng": 116.38692941282073}, "feature": {"sight_features": "", "sight_content": ""}}, {"title": "菠萝儿童乐园", "address": "开发区兴茂路十字路口处", "image": "", "rank": 15, "time": 2, "location": {"lat": 30.917720033092706, "lng": 121.64744533994799}, "feature": {"sight_features": "", "sight_content": ""}}, {"title": "扬中森林公园", "address": "扬中大道与005乡道交叉口东100米", "image": "", "rank": 16, "time": 4.0, "location": {"lat": 32.08522239745244, "lng": 119.87319569083157}, "feature": {"sight_features": "", "sight_content": ""}}, {"title": "扬中游乐园", "address": "扬中市其他扬中大道园博园游客服务中心旁", "image": "", "rank": 17, "time": 4.5, "location": {"lat": 32.13498355524866, "lng": 119.86121693956794}, "feature": {"sight_features": "", "sight_content": ""}}, {"title": "东狱庙", "address": "钢厂路与014乡道交叉口东北100米", "image": "", "rank": 18, "time": 2, "location": {"lat": 32.20931802318578, "lng": 119.86185638037911}, "feature": {"sight_features": "", "sight_content": ""}}, {"title": "镇江梓阳植物园", "address": "梓阳植物园梓阳书画院旁", "image": "", "rank": 19, "time": 2.5, "location": {"lat": 32.24898701061504, "lng": 119.74419384266406}, "feature": {"sight_features": "", "sight_content": ""}}, {"title": "王家祠堂", "address": "镇江市扬中市", "image": "", "rank": 20, "time": 2, "location": {"lat": 32.24296719412154, "lng": 119.80351961208618}, "feature": {"sight_features": "", "sight_content": ""}}, {"title": "大型儿童乐园", "address": "江苏省镇江市扬中市环城南路244号", "image": "", "rank": 21, "time": null, "location": {"lat": 32.23778200169217, "lng": 119.83985670416847}, "feature": {"sight_features": "", "sight_content": ""}}, {"title": "陈小姐的水族馆", "address": "镇江市扬中市江洲西路扬中雨润中央商场1层", "image": "", "rank": 22, "time": 2, "location": {"lat": 32.24432038439954, "lng": 119.83316001086285}, "feature": {"sight_features": "", "sight_content": ""}}, {"title": "美一水族馆", "address": "江苏省镇江市扬中市扬子河北路31号", "image": "", "rank": 23, "time": 2, "location": {"lat": 32.24205614669084, "lng": 119.83925454303596}, "feature": {"sight_features": "", "sight_content": ""}}, {"title": "卡尼迪儿童乐园", "address": "镇江市扬中市扬子东路9号扬子商业广场F3", "image": "", "rank": 24, "time": 2, "location": {"lat": 32.24018249292036, "lng": 119.8342307012002}, "feature": {"sight_features": "", "sight_content": ""}}, {"title": "步行街儿童乐园", "address": "江苏省镇江市扬中市港东南路28号", "image": "", "rank": 25, "time": 2, "location": {"lat": 32.26368877124904, "lng": 119.76136416826658}, "feature": {"sight_features": "", "sight_content": ""}}, {"title": "梦幻海洋乐园", "address": "三茅街道江州南路75号2楼", "image": "", "rank": 26, "time": 2, "location": {"lat": 32.23856426042462, "lng": 119.83898448904372}, "feature": {"sight_features": "", "sight_content": ""}}, {"title": "儿童游乐场", "address": "扬子东路与拥军路交叉口西北50米", "image": "", "rank": 27, "time": 2, "location": {"lat": 32.240617146683505, "lng": 119.83401579508151}, "feature": {"sight_features": "", "sight_content": ""}}, {"title": "港联社区人口文化园", "address": "江苏省镇江市扬中市三茅街道新扬南路凯悦国际西350米", "image": "", "rank": 28, "time": 2, "location": {"lat": 32.23769808800532, "lng": 119.8082378899129}, "feature": {"sight_features": "", "sight_content": ""}}, {"title": "美加乐儿童乐园", "address": "同心路49号(长江花城三期北门)", "image": "", "rank": 29, "time": 2, "location": {"lat": 32.2493273942931, "lng": 119.81848994347779}, "feature": {"sight_features": "", "sight_content": ""}}, {"title": "儿童成长主题乐园", "address": "江苏省镇江市扬中市经济开发区兴茂路兴隆中心幼儿园附近", "image": "", "rank": 30, "time": 2, "location": {"lat": 32.181681824334255, "lng": 119.85770950211099}, "feature": {"sight_features": "", "sight_content": ""}}, {"title": "扬中市西来桥镇影剧院", "address": "港北西路附近", "image": "", "rank": 31, "time": 2, "location": {"lat": 31.85262535995142, "lng": 121.85571268446802}, "feature": {"sight_features": "", "sight_content": ""}}, {"title": "文景广场", "address": "江苏省镇江市扬中市环城南路267号", "image": "", "rank": 32, "time": 2, "location": {"lat": 32.23582561493355, "lng": 119.83652308523449}, "feature": {"sight_features": "", "sight_content": ""}}, {"title": "久运水族馆", "address": "明珠大道218号", "image": "", "rank": 33, "time": 2, "location": {"lat": 30.504151793681302, "lng": 120.17391638361919}, "feature": {"sight_features": "", "sight_content": ""}}, {"title": "中国民间民族乐器陈列馆", "address": "中亚照明电器有限公司旁边", "image": "", "rank": 34, "time": 2, "location": {"lat": 32.269223557746336, "lng": 119.74706554841327}, "feature": {"sight_features": "", "sight_content": ""}}, {"title": "海澜水族馆", "address": "环城西路", "image": "", "rank": 35, "time": 2, "location": {"lat": 36.613902946668574, "lng": 114.48863807649496}, "feature": {"sight_features": "", "sight_content": ""}}, {"title": "油橙博物馆", "address": "镇江市扬中市拥军路11号", "image": "", "rank": 36, "time": 2, "location": {"lat": 32.241218279444674, "lng": 119.83488255120368}, "feature": {"sight_features": "", "sight_content": ""}}, {"title": "图书馆电子阅览室", "address": "文化北路46号", "image": "", "rank": 37, "time": 2, "location": {"lat": 39.94304658843219, "lng": 119.6107995132139}, "feature": {"sight_features": "", "sight_content": ""}}, {"title": "普济草莓园", "address": "经济开发区扬中大道普济大银杏树对面", "image": "", "rank": 38, "time": 2, "location": {"lat": 26.906222879310402, "lng": 100.1950300148519}, "feature": {"sight_features": "", "sight_content": ""}}, {"title": "鳄鱼漆", "address": "江洲南路396号", "image": "", "rank": 39, "time": 2, "location": {"lat": 32.48374614399372, "lng": 119.90863792905296}, "feature": {"sight_features": "", "sight_content": ""}}, {"title": "公园皇府爱丁堡奇趣4D蜡像馆", "address": "城北公园皇府售楼处2楼", "image": "", "rank": 40, "time": 2, "location": {"lat": 43.68468347905338, "lng": 126.50734848804676}, "feature": {"sight_features": "", "sight_content": ""}}, {"title": "甜蜜风健康规划中心", "address": "建设路20号", "image": "", "rank": 41, "time": 2, "location": {"lat": 24.82118658794554, "lng": 118.59429265190055}, "feature": {"sight_features": "", "sight_content": ""}}, {"title": "永鑫堂艺术收藏馆", "address": "宜禾路", "image": "", "rank": 42, "time": 2, "location": {"lat": 32.24533011692861, "lng": 119.7896502771649}, "feature": {"sight_features": "", "sight_content": ""}}, {"title": "丛林游乐园(中央店)", "address": "三茅街道江洲西路8号中央商场", "image": "", "rank": 43, "time": 2, "location": {"lat": 32.24453850846066, "lng": 119.8330737735339}, "feature": {"sight_features": "", "sight_content": ""}}, {"title": "茂平画廊", "address": "三茅街道新扬路天后宫路", "image": "", "rank": 44, "time": 2, "location": {"lat": 32.25073577455569, "lng": 119.8080772549216}, "feature": {"sight_features": "", "sight_content": ""}}, {"title": "长江画廊", "address": "江洲西路249-5号", "image": "", "rank": 45, "time": 2, "location": {"lat": 32.24705734580233, "lng": 119.8221947961468}, "feature": {"sight_features": "", "sight_content": ""}}, {"title": "左岸生态农庄", "address": "宜禾路与联中路交叉口东100米", "image": "", "rank": 46, "time": 2, "location": {"lat": 32.2487934045355, "lng": 119.7985462127997}, "feature": {"sight_features": "", "sight_content": ""}}, {"title": "众禾高尔夫俱乐部", "address": "迎江大道", "image": "", "rank": 47, "time": 2, "location": {"lat": 31.46630635964024, "lng": 118.24302835802126}, "feature": {"sight_features": "", "sight_content": ""}}, {"title": "江苏欣安新材料技术有限公司", "address": "兴旺西路南50米", "image": "", "rank": 48, "time": 2, "location": {"lat": 37.83904657285619, "lng": 114.70021673771807}, "feature": {"sight_features": "", "sight_content": ""}}, {"title": "油坊太平渔庄", "address": "油坊镇环岛公路夹江附近", "image": "", "rank": 49, "time": 2, "location": {"lat": 29.743846302985492, "lng": 103.57841009994}, "feature": {"sight_features": "", "sight_content": ""}}, {"title": "雅园渔场", "address": "油坊镇环岛公路夹江附近", "image": "", "rank": 50, "time": 2, "location": {"lat": 29.743846302985492, "lng": 103.57841009994}, "feature": {"sight_features": "", "sight_content": ""}}, {"title": "中国职业装博览馆", "address": "区", "image": "", "rank": 51, "time": 2, "location": {"lat": 29.358751814270608, "lng": 105.89780679639816}, "feature": {"sight_features": "", "sight_content": ""}}, {"title": "城西公园", "address": "扬子西路附近", "image": "", "rank": 52, "time": 2, "location": {"lat": 32.31599712291709, "lng": 119.46728617373643}, "feature": {"sight_features": "", "sight_content": ""}}, {"title": "中国IPFS俱乐部", "address": "镇江市-扬中市-金苇西路26东北60米", "image": "", "rank": 53, "time": 2, "location": {"lat": 32.23951459510264, "lng": 119.81656132736144}, "feature": {"sight_features": "", "sight_content": ""}}]}