{"cityName": "洋县", "days": 2, "cityImage": "", "spots": [{"title": "华阳古镇", "address": "汉中市洋县华阳镇", "image": "", "rank": 1, "time": 2.5, "location": {"lat": 33.59574869003101, "lng": 107.54970526725985}, "feature": {"sight_features": "特色1 古军事要冲，古经济政治重镇", "sight_content": "华阳古镇始于秦晋，是历史上有名的古道驿站（傥骆古道），古军事要冲，古经济政治重镇。古镇内明清建筑保存较为完好，古华阳县县城墙残垣轮廓尚在，宋元时期的华阳镇古塔和古戏楼风格独特，文武官员衙门，客栈，当铺，酒楼，茶楼等铺板门一条街600多米300余间为主体的明清建筑群至今保存完好。是深山中罕见的明清时期古镇风貌。\n\n华阳古镇旅游景区位于秦岭南坡陕西洋县北部深山区的华阳镇，北纬33°东经107°，海拔在800—2200，平均海拔1100米。华阳古镇旅游景区南距洋县县城75公里，背依太白，西接城固、留坝，东连佛坪、周至县，总面积29906公顷，规划旅游区面积15500公顷。是洋县华阳镇辖区内集自然保护区与秦岭珍稀动植物观赏、生态人文观光、红色、科考修学、探险、宗教休闲度假为一体的秦岭南坡山岳型综合性生态旅游区。长青自然保护区距洋县城80公里，区内服务设施齐全。全镇总面积56100公顷，其中林地48000公顷，河流约6500公顷，耕地557公顷（水田337公顷，旱地220公顷）。\n华阳古镇是最富特色的。从宏观地文结构看，古镇北、东、西皆高而南低，古镇位于南端小盆地中。这种地文结构使华阳冬无严寒，夏无酷暑，气候宜人，为宜居之所。二则其周边山地丰富的林特资源和众多溪流汇聚于此，具有富水之利，为乐居之所。形成山高不险而秀丽、水多无冲而清澈、林莽绵延而多彩，坝盆多丘利排水的大好地理格局。从微观地文结构看，华阳古镇镇区地形地貌为三山对峙，两河并流，青山为屏，盆地为基，负阴抱阳，背山面水，古街区象一叶小舟，系泊于青山秀水之间，这是风水观念中宅、村、城镇基址选择的基本原则和基本格局，是古人和现代人共同追求的居家繁衍，大福大贵的聚财宝地。同时，旅游区良好的植被，使白天的大气富含氧份，水分不易蒸发，有利鸟兽栖息繁衍。优美和幽静的森林环境有益于情绪稳定和身心陶醉，是天然氧吧，这是近年来方兴未艾的一种新健身法。"}}, {"title": "华阳景区", "address": "汉中市洋县华阳镇", "image": "", "rank": 2, "time": 2.5, "location": {"lat": 33.59574869003101, "lng": 107.54970526725985}, "feature": {"sight_features": "", "sight_content": ""}}, {"title": "蔡伦墓祠", "address": "汉中市洋县龙亭镇", "image": "", "rank": 3, "time": 1.0, "location": {"lat": 33.21292785041517, "lng": 107.66181222017555}, "feature": {"sight_features": "", "sight_content": ""}}, {"title": "朱鹮自然保护区", "address": "汉中市洋县城北3公里处", "image": "", "rank": 4, "time": 1.0, "location": {"lat": 33.22886258931486, "lng": 107.55246428058284}, "feature": {"sight_features": "", "sight_content": "朱鹮自然保护区建有朱鹮救护饲养中心、朱鹮宣教馆、朱鹮放飞大棚等。朱鹮珍贵美丽，属国家重点保护鸟类，有“东方宝石”之称。1981年5月在洋县境内发现了世界上仅幸存的七只野生朱鹮。"}}, {"title": "蔡伦纸文化博物馆", "address": "汉中市洋县龙亭镇", "image": "", "rank": 5, "time": 1.0, "location": {"lat": 33.21292785041517, "lng": 107.66181222017555}, "feature": {"sight_features": "", "sight_content": ""}}, {"title": "开明广场", "address": "陕西省汉中市洋县唐塔南街", "image": "", "rank": 6, "time": 2, "location": {"lat": 33.22343491348515, "lng": 107.5526947857767}, "feature": {"sight_features": "", "sight_content": ""}}, {"title": "长青自然保护区", "address": "汉中市洋县华阳镇", "image": "", "rank": 7, "time": 3.0, "location": {"lat": 33.59574869003101, "lng": 107.54970526725985}, "feature": {"sight_features": "", "sight_content": ""}}, {"title": "朱鹮梨园景区", "address": "汉中市洋县", "image": "", "rank": 8, "time": 2.5, "location": {"lat": 33.22886258931486, "lng": 107.55246428058284}, "feature": {"sight_features": "", "sight_content": ""}}, {"title": "枇杷山庄", "address": "陕西省汉中市洋县一零八国道", "image": "", "rank": 9, "time": 2, "location": {"lat": 33.30973244602924, "lng": 107.86794983504333}, "feature": {"sight_features": "", "sight_content": ""}}, {"title": "洋县开明寺唐舍利塔", "address": "洋县县城中心开明广场", "image": "", "rank": 10, "time": 2.5, "location": {"lat": 33.22352104801813, "lng": 107.55277934686758}, "feature": {"sight_features": "", "sight_content": ""}}, {"title": "华阳秦岭第一漂", "address": "汉中市洋县华阳镇华阳景区", "image": "", "rank": 11, "time": 2, "location": {"lat": 33.611655666417796, "lng": 107.54474152565591}, "feature": {"sight_features": "", "sight_content": ""}}, {"title": "古枫农家乐", "address": "华阳古镇姚家坪", "image": "", "rank": 12, "time": 2, "location": {"lat": 33.59964754118062, "lng": 107.55179711536871}, "feature": {"sight_features": "", "sight_content": ""}}, {"title": "华阳古镇山水人家农家乐", "address": "罗家坝停车场南50米(罗家坝停车场)", "image": "", "rank": 13, "time": 2, "location": {"lat": 31.01491277799678, "lng": 120.54856285646329}, "feature": {"sight_features": "", "sight_content": ""}}, {"title": "生态植物园", "address": "洋大路", "image": "", "rank": 14, "time": 2, "location": {"lat": 33.24078843438322, "lng": 107.554519334098}, "feature": {"sight_features": "", "sight_content": ""}}, {"title": "小海豚儿童乐园", "address": "武康南路尚都商城2楼西入口", "image": "", "rank": 15, "time": 2, "location": {"lat": 33.22800323814254, "lng": 107.55950133645635}, "feature": {"sight_features": "", "sight_content": ""}}, {"title": "傥滨公园", "address": "洋州镇西环北路", "image": "", "rank": 16, "time": 2, "location": {"lat": 33.231882122582086, "lng": 107.54679881146029}, "feature": {"sight_features": "", "sight_content": ""}}, {"title": "洋县基督教堂", "address": "陕西省汉中市洋县G108(南环路)", "image": "", "rank": 17, "time": 1.0, "location": {"lat": 33.21975335088938, "lng": 107.56582791441727}, "feature": {"sight_features": "", "sight_content": ""}}, {"title": "四大莲湖水上乐园", "address": "梨园景区四大莲湖水上乐园", "image": "", "rank": 18, "time": 2, "location": {"lat": 34.84545907246045, "lng": 113.6896829227331}, "feature": {"sight_features": "", "sight_content": ""}}, {"title": "红二十五军旧址", "address": "华阳镇华阳景区内", "image": "", "rank": 19, "time": 2, "location": {"lat": 33.611655666417796, "lng": 107.54474152565591}, "feature": {"sight_features": "", "sight_content": ""}}, {"title": "汉中油菜花海", "address": "陕西省汉中市洋县高速出口（洋县出口）", "image": "", "rank": 20, "time": 2.0, "location": {"lat": 33.22886258931486, "lng": 107.55246428058284}, "feature": {"sight_features": "", "sight_content": ""}}, {"title": "群富水族馆", "address": "东环路与和平路交叉口北150米", "image": "", "rank": 21, "time": 2, "location": {"lat": 36.60581243367594, "lng": 114.54664886948105}, "feature": {"sight_features": "", "sight_content": ""}}, {"title": "白云庵", "address": "朝阳路163号附近", "image": "", "rank": 22, "time": 0.5, "location": {"lat": 38.69699014257451, "lng": 115.78699950591579}, "feature": {"sight_features": "", "sight_content": ""}}, {"title": "船头广场", "address": "汉中市洋县华阳镇华阳古镇内", "image": "", "rank": 23, "time": 2, "location": {"lat": 33.59964754118062, "lng": 107.55179711536871}, "feature": {"sight_features": "", "sight_content": ""}}, {"title": "汉中天鹅湖度假村", "address": "汉中汉中洋县和平路（金虎实业有限公司院内）", "image": "", "rank": 24, "time": 2.5, "location": {"lat": 33.22607748494463, "lng": 107.56054445150946}, "feature": {"sight_features": "", "sight_content": ""}}, {"title": "橄榄园度假村", "address": "戚氏镇一零八国道旁", "image": "", "rank": 25, "time": 2, "location": {"lat": 36.02209115554082, "lng": 111.54826207133371}, "feature": {"sight_features": "", "sight_content": ""}}, {"title": "竹园休闲度假村", "address": "洋华路向北500米（陕西泰安金属构建公司斜对面）", "image": "", "rank": 26, "time": 2, "location": {"lat": 33.23650464129759, "lng": 107.55490677326448}, "feature": {"sight_features": "", "sight_content": ""}}, {"title": "祖师庙", "address": "陕西省汉中市洋县", "image": "", "rank": 27, "time": 1.5, "location": {"lat": 33.22886258931486, "lng": 107.55246428058284}, "feature": {"sight_features": "", "sight_content": ""}}, {"title": "舍利塔", "address": "陕西省汉中市洋县南唐塔路", "image": "", "rank": 28, "time": 2.0, "location": {"lat": 33.226117028999695, "lng": 107.55395872229026}, "feature": {"sight_features": "", "sight_content": ""}}, {"title": "牛头山庄北楼", "address": "陕西省汉中市洋县洋州街道巩家槽梨园大道朱鹮丽苑", "image": "", "rank": 29, "time": 2, "location": {"lat": 33.241980034485664, "lng": 107.56570216332385}, "feature": {"sight_features": "", "sight_content": ""}}, {"title": "洋县图书馆", "address": "唐塔路4号", "image": "", "rank": 30, "time": 1.5, "location": {"lat": 34.128982054485775, "lng": 108.90108235498015}, "feature": {"sight_features": "", "sight_content": ""}}, {"title": "街心农家乐", "address": "坪龙路北100米", "image": "", "rank": 31, "time": 2, "location": {"lat": 22.681387290039975, "lng": 114.1617135486507}, "feature": {"sight_features": "", "sight_content": ""}}, {"title": "黄金峡", "address": "陕西省洋县金水镇", "image": "", "rank": 32, "time": 2, "location": {"lat": 33.34715886671184, "lng": 107.8773027099453}, "feature": {"sight_features": "", "sight_content": ""}}, {"title": "正德厚生", "address": "汉中市-洋县-华阳镇华阳古镇内", "image": "", "rank": 33, "time": 2, "location": {"lat": 33.59964754118062, "lng": 107.55179711536871}, "feature": {"sight_features": "", "sight_content": ""}}, {"title": "华家沟村", "address": "汉中市-洋县", "image": "", "rank": 34, "time": 2, "location": {"lat": 33.22886258931486, "lng": 107.55246428058284}, "feature": {"sight_features": "", "sight_content": ""}}, {"title": "还村庙", "address": "汉中市-洋县", "image": "", "rank": 35, "time": 2, "location": {"lat": 33.22886258931486, "lng": 107.55246428058284}, "feature": {"sight_features": "", "sight_content": ""}}, {"title": "凉凤垭", "address": "汉中市-洋县", "image": "", "rank": 36, "time": 2, "location": {"lat": 33.22886258931486, "lng": 107.55246428058284}, "feature": {"sight_features": "", "sight_content": ""}}, {"title": "汉中油菜花海", "address": "陕西省汉中市洋县高速出口（洋县出口）", "image": "", "rank": 37, "time": 2.0, "location": {"lat": 33.22886258931486, "lng": 107.55246428058284}, "feature": {"sight_features": "", "sight_content": ""}}]}