{"cityName": "阳春", "days": 2, "cityImage": "", "spots": [{"title": "凌霄岩", "address": "阳春市河塱镇西北侧66公里罗阳峰林内", "image": "", "rank": 1, "time": 1.5, "location": {"lat": 22.56835380084104, "lng": 111.2187294500575}, "feature": {"sight_features": "", "sight_content": ""}}, {"title": "玉溪三洞", "address": "阳江市阳春市河朗镇玉溪三洞", "image": "", "rank": 2, "time": 3.0, "location": {"lat": 22.61819526081836, "lng": 111.82163425356136}, "feature": {"sight_features": "", "sight_content": ""}}, {"title": "崆峒岩风景区", "address": "阳江市阳春市河西", "image": "", "rank": 3, "time": 2.5, "location": {"lat": 22.176014807320136, "lng": 111.79753613029754}, "feature": {"sight_features": "特色1 省级文物保护单位，中国“第四崆峒山”", "sight_content": "崆峒岩（崆峒禅寺）位于阳春市区西边，建于明万历年间（约公元1577年），是省级文物保护单位，有中国“第四崆峒山”之称。洞内分五层，游览面积8000平方米，石钟乳形成的狮子岩、瀑布岩、冷西一柱观、和尚拜观音等景观，千姿百态。\n崆峒岩寺宇始建于明代万历丁丑年，清乾隆二十一年阳春县令姜山重修。崆峒岩又名“四崆峒山”，山下有岩，岩中有寺，寺外有峰，自然风景和人文景观俱全，以古雅清幽为特色，亦是广东省文物保护单位，崆峒岩是全国“四崆峒山”之一。\n岩洞历史悠久，文昌阁、玉帝殿等。岩洞分三层，可游览面积达1万平方米，钟乳、石幔、石柱千姿百态，山亭庙宇雄伟瑰丽。新开发的秀峰景区，在崆峒岩山顶游览面积三万多平方米，东、西、南、北、中五座山峰巍峨陡峭，石、洞、花、草及树木生于峰林之间，美景天成。诸峰顶端或半壁上建有凉亭12座，供游人观光休憩。并可统览阳春市区及饱览阳春风光。\n大洞通小洞，明室通暗室窦，多姿多态的钟乳石，或若飞禽，或似走兽，洞中还存有元、明、清各代摩崖石刻，为书法技术爱好者所珍爱。另有鼓钟石，左右击之一岩皆应，悦耳之声胜于真钟鼓。 在县城西四公里处。外观石林起伏，紫翠夺目，像是一座大自然石盆景瑰奇处。洞内广深约百米，上下层迭如巨厦，并有石柱支撑。\n岩洞中的玉皇殿、文昌殿建于明万历年间，岩内的山门、禅房、东西厢房、金刚塔、三宝殿、观音殿、韦佗殿、六祖殿等均建于清乾隆年间，形成明清两代的建筑群体，有佛塑像12尊。\n岩内保存明代到民国年间的摩岩石刻、碑刻50题，其中有清代书法大师、乾隆年间礼部尚书曹秀先等的作品。1994年，崆峒岩内增设一个高1.5米、宽1.55米的“四面佛”。\n崆峒岩有众多字碑、壁题，是古人智慧的结晶。特别在乾隆年间，由礼部尚书曹秀先所题的<岩亭>两字，一眼看去，端正大方，结构紧密，坚实有力，很值得人们欣赏。那仿效唐朝宰相大文学家韩愈笔法所刻于石壁上的<飞鱼跃>的草书，使人看了活泼有神，似飞似跃，龙为醒目。那碑文的正楷更令人陶醉，笔力铁划银钩，字法藏理入情，是学书法难得的榜样。除题字外，还有诗词、联句、游记等。<游崆峒岩石上韵>五言绝句四首，意象结构紧密，哲理景情自然，使人看了韵味无穷，怡情逸兴。<第四崆峒岩碑刻>、<修四崆峒岩碑刻>等石刻名篇，不仅记述了岩峒史迹、人物、景点，而且文章情理并茂，其字其文，其史其迹，其景其趣，读后余香长存。今人曹崇恩艺术大师铜塑的<中国第一尊四方佛>，由佛家赵朴初题字，其艺术形象亦很高，四尊一模样，既有佛的慈悲为怀之感，又有艺术高超之觉，使人看了叹为观止。"}}, {"title": "阳江春都温泉", "address": "阳春市马水镇河表水库", "image": "", "rank": 4, "time": 4.5, "location": {"lat": 22.1665631090535, "lng": 111.62145588432637}, "feature": {"sight_features": "特色1 粤西真正山沟里的温泉", "sight_content": "春都温泉度假村座落在阳春市马水镇河表水库库区内。距阳春市城区18公里，距开阳高速公路白沙出口48公里，从广州至度假村车程约为3小时，交通便利。春都温泉高山峡谷，奇岩怪洞；层林叠翠，古木参天；小桥流水，亭台楼榭；流泉飞瀑，曲径通幽；清溪潺潺，花果飘香；雾雨时节，烟霞缥缈；水天朦胧，宛若蓬莱。\n春都温泉风景区，它北靠钩髻顶，四面环山，一水奔流，东临河表水库，地处花岗岩侵入隆起断层上升山区，生态原始，景色优美，空气清新，环境脱俗怡人。春都温泉属世界珍稀高热氡温泉，其氡元素可溶于水中，进入人体后，很快蜕变完，对机体不发生毒害，在机体内主要是靠α射线起作用，调整神经功能，有清脂、催眠、镇静和镇痛作用．常浴氡泉，能减肥，对风湿、高血压、神经衰弱等十多种慢性病有显著疗效．氡泉能改善人体内分泌功能，能消退表皮褐斑，使皮肤白皙、细腻。令男人强身健体，青春长驻；令女人月经顺畅，艳若桃花．其水温高达79.4度，含氡量108.17马海，矿化度低，含多种人体必需的微量元素，水质清澈透明，无色无味无嗅，感观绝优，更可贵的是有悠久的浸浴使用历史和众口皆碑治病壮体的效果。春都温泉有四奇：山奇、水奇、石奇、景奇，令人叹为观止。\n春都温泉现已开放石景园和钓鱼台；建有露天温泉池46个，室内温泉50个；各类高级客房、豪华别墅、日式木屋共180套；中餐厅设有400个餐位；另有会议厅、茗茶  室、理疗中心、购物商场、娱乐中心等配套设施；是旅游，探险集会度假，休闲，娱乐的人间胜地。"}}, {"title": "玉溪第三洞", "address": "阳江市阳春市河朗镇三窿村", "image": "", "rank": 5, "time": 7.5, "location": {"lat": 22.55631093234122, "lng": 111.8722957225941}, "feature": {"sight_features": "特色1 千万年铸就的流光溢彩", "sight_content": "玉溪第三洞位于阳春北部河朗镇是玉溪三洞中最后一个景点，也是中国国家地质公园古河床，遗址非常经典的一个洞。\n阳春玉溪三洞原名三洞天，古名甘婪水，离凌霄岩约2公里，由漠阳江上游——甘婪水穿破三个大石山溶洞而成，总长3公里。\n洞内泛舟，清泉叮咚，溪水清莹如玉，故又名玉溪三洞。\n玉溪三洞内石钟乳琳琅满目。"}}, {"title": "阳春东湖公园", "address": "广东省阳江市阳春市东湖东路", "image": "", "rank": 6, "time": 2.5, "location": {"lat": 22.16555865623074, "lng": 111.80964654529745}, "feature": {"sight_features": "", "sight_content": ""}}, {"title": "鱼王石", "address": "黎湖桥石村", "image": "", "rank": 7, "time": 0.75, "location": {"lat": 27.048989244907638, "lng": 111.75036962934178}, "feature": {"sight_features": "", "sight_content": ""}}, {"title": "仙湖山庄", "address": "八甲镇鹅凰嶂仙家垌水库", "image": "", "rank": 8, "time": 2, "location": {"lat": 21.895784753864213, "lng": 111.45666945771461}, "feature": {"sight_features": "", "sight_content": ""}}, {"title": "白水瀑布", "address": "八甲镇鹅凰嶂双髻峰", "image": "", "rank": 9, "time": 2, "location": {"lat": 21.846996004053242, "lng": 111.42671688700344}, "feature": {"sight_features": "", "sight_content": ""}}, {"title": "马兰村", "address": "阳春市马兰村", "image": "", "rank": 10, "time": null, "location": {"lat": 22.122456222251028, "lng": 111.63349811344656}, "feature": {"sight_features": "", "sight_content": ""}}, {"title": "天然硫磺温泉", "address": "上合村天然硫磺温泉", "image": "", "rank": 11, "time": 2, "location": {"lat": 31.950158326393822, "lng": 119.03395227065937}, "feature": {"sight_features": "", "sight_content": ""}}, {"title": "头堡生态园林", "address": "新台北街", "image": "", "rank": 12, "time": 2, "location": {"lat": 22.187629433488166, "lng": 111.82564880244345}, "feature": {"sight_features": "", "sight_content": ""}}, {"title": "青山农场", "address": "松柏镇", "image": "", "rank": 13, "time": 2, "location": {"lat": 31.753018582802326, "lng": 110.66810289769147}, "feature": {"sight_features": "", "sight_content": ""}}, {"title": "鸿曦画廊", "address": "春城街道求知路45号", "image": "", "rank": 14, "time": 2, "location": {"lat": 22.159064119472024, "lng": 111.80676088976293}, "feature": {"sight_features": "", "sight_content": ""}}, {"title": "圭岗温泉", "address": "石桥路29号", "image": "", "rank": 15, "time": 2, "location": {"lat": 31.560990530028185, "lng": 121.6360782736519}, "feature": {"sight_features": "", "sight_content": ""}}, {"title": "独石仔古人洞", "address": "广东省阳春市陂面镇鹿村岗 529616", "image": "", "rank": 16, "time": 2, "location": {"lat": 22.335498806356583, "lng": 111.843470835213}, "feature": {"sight_features": "", "sight_content": ""}}, {"title": "莲花洞石林", "address": "广东省阳春市春湾镇 529600", "image": "", "rank": 17, "time": null, "location": {"lat": 22.40878171590404, "lng": 112.03383619141616}, "feature": {"sight_features": "", "sight_content": ""}}, {"title": "通真岩", "address": "广东省阳春市春湾镇 529616", "image": "", "rank": 18, "time": 2, "location": {"lat": 22.40878171590404, "lng": 112.03383619141616}, "feature": {"sight_features": "", "sight_content": ""}}, {"title": "新州沸泉", "address": "广东省阳东县马水镇 529627", "image": "", "rank": 19, "time": 2, "location": {"lat": 22.149134128314767, "lng": 111.65542655492132}, "feature": {"sight_features": "", "sight_content": ""}}, {"title": "松柏影剧院", "address": "松柏文化楼附近", "image": "", "rank": 20, "time": 2, "location": {"lat": 22.475325237149473, "lng": 111.9024124002473}, "feature": {"sight_features": "", "sight_content": ""}}, {"title": "阳江合水镇平北村", "address": "广东省阳春市合水镇 529619", "image": "", "rank": 21, "time": 4.5, "location": {"lat": 22.305684402208815, "lng": 111.94347112980536}, "feature": {"sight_features": "", "sight_content": ""}}, {"title": "阳江莲花垌", "address": "广东省阳春市春湾镇 529626", "image": "", "rank": 22, "time": 4.5, "location": {"lat": 22.40878171590404, "lng": 112.03383619141616}, "feature": {"sight_features": "", "sight_content": ""}}, {"title": "花滩森林公园", "address": "广东省阳春市西山 529600", "image": "", "rank": 23, "time": null, "location": {"lat": 22.176014807320136, "lng": 111.79753613029754}, "feature": {"sight_features": "", "sight_content": ""}}, {"title": "龙云山冼夫人文化纪念馆", "address": "广东省阳江市阳春市S113", "image": "", "rank": 24, "time": 2, "location": {"lat": 22.176014807320136, "lng": 111.79753613029754}, "feature": {"sight_features": "", "sight_content": ""}}, {"title": "李惟扬故居", "address": "岗美中学附近", "image": "", "rank": 25, "time": 2, "location": {"lat": 22.050640587199663, "lng": 111.78254795047869}, "feature": {"sight_features": "", "sight_content": ""}}, {"title": "亲子儿童乐园", "address": "广东省阳江市阳春市红旗路65号", "image": "", "rank": 26, "time": 2, "location": {"lat": 22.174439091184144, "lng": 111.7905400371576}, "feature": {"sight_features": "", "sight_content": ""}}, {"title": "金花坑春砂仁", "address": "广东省阳江市阳春市东湖东路101号", "image": "", "rank": 27, "time": 2, "location": {"lat": 22.165191411613797, "lng": 111.80727945099127}, "feature": {"sight_features": "", "sight_content": ""}}, {"title": "儿童乐园", "address": "阳江市阳春市东湖西路40号", "image": "", "rank": 28, "time": 2, "location": {"lat": 22.17458300822517, "lng": 111.79289449589847}, "feature": {"sight_features": "", "sight_content": ""}}, {"title": "阳春博物馆", "address": "春城镇公园路16号", "image": "", "rank": 29, "time": 2.5, "location": {"lat": 22.176157718668744, "lng": 111.79420153041505}, "feature": {"sight_features": "", "sight_content": ""}}, {"title": "铁屎迳铸钱遗址", "address": "铁迳", "image": "", "rank": 30, "time": 2, "location": {"lat": 22.575873663313747, "lng": 111.95546263071513}, "feature": {"sight_features": "", "sight_content": ""}}, {"title": "国鼎中央公园", "address": "春江花园对面", "image": "", "rank": 31, "time": 2, "location": {"lat": 38.923758405073315, "lng": 121.61455787936306}, "feature": {"sight_features": "", "sight_content": ""}}, {"title": "阳春市杜鹃红山茶主题公园", "address": "阳春市二陂水库碑头附近", "image": "", "rank": 32, "time": null, "location": {"lat": 22.176014807320136, "lng": 111.79753613029754}, "feature": {"sight_features": "", "sight_content": ""}}, {"title": "苏氏宗祠", "address": "松花南路38号", "image": "", "rank": 33, "time": null, "location": {"lat": 45.59080448810903, "lng": 126.59931837356429}, "feature": {"sight_features": "", "sight_content": ""}}, {"title": "文安庙", "address": "603县道附近", "image": "", "rank": 34, "time": 2, "location": {"lat": 31.959574063755383, "lng": 118.46892705829426}, "feature": {"sight_features": "", "sight_content": ""}}, {"title": "连华庵", "address": "长寿寺附近", "image": "", "rank": 35, "time": 2, "location": {"lat": 31.82042056699949, "lng": 120.38724431216751}, "feature": {"sight_features": "", "sight_content": ""}}, {"title": "长寿寺", "address": "春城街道长寿寺", "image": "", "rank": 36, "time": 1.0, "location": {"lat": 22.239016914108838, "lng": 111.81585787964245}, "feature": {"sight_features": "", "sight_content": ""}}, {"title": "学礼苏公祠", "address": "松花南路38号苏氏宗祠附近", "image": "", "rank": 37, "time": 2, "location": {"lat": 22.472358456691357, "lng": 111.8978798201371}, "feature": {"sight_features": "", "sight_content": ""}}, {"title": "擎山苑休闲山庄", "address": "长坡路与阳春大道交叉口东50米", "image": "", "rank": 38, "time": 2, "location": {"lat": 22.180022673907995, "lng": 111.81559463750096}, "feature": {"sight_features": "", "sight_content": ""}}, {"title": "绘昌罗公祠", "address": "209乡道附近", "image": "", "rank": 39, "time": 2, "location": {"lat": 30.655719436838748, "lng": 120.9231899675299}, "feature": {"sight_features": "", "sight_content": ""}}, {"title": "流动图书馆(阳春分馆)", "address": "县前路229号", "image": "", "rank": 40, "time": 2, "location": {"lat": 28.154201985546397, "lng": 120.68916350511486}, "feature": {"sight_features": "", "sight_content": ""}}, {"title": "精艺画廊", "address": "兴华路155号", "image": "", "rank": 41, "time": 2, "location": {"lat": 44.44086170181973, "lng": 125.18170650033923}, "feature": {"sight_features": "", "sight_content": ""}}, {"title": "唯逸堂艺术馆", "address": "城东大道20号52-53卡", "image": "", "rank": 42, "time": 2, "location": {"lat": 30.712103771197114, "lng": 111.32086301760474}, "feature": {"sight_features": "", "sight_content": ""}}, {"title": "索罗门自行车俱乐部", "address": "春城街道春城镇东湖盛世广场百爵珠宝对面", "image": "", "rank": 43, "time": 2, "location": {"lat": 28.691259179775223, "lng": 115.9054660260597}, "feature": {"sight_features": "", "sight_content": ""}}, {"title": "岗美华侨农场岗石队", "address": "S51罗阳高速附近", "image": "", "rank": 44, "time": 2, "location": {"lat": 21.841408258000016, "lng": 111.86569497101404}, "feature": {"sight_features": "", "sight_content": ""}}, {"title": "笆·笆莎时尚内衣艺术馆", "address": "安芬娜南路76号附近", "image": "", "rank": 45, "time": 2, "location": {"lat": 22.049385708137315, "lng": 111.61789246105765}, "feature": {"sight_features": "", "sight_content": ""}}, {"title": "名匠轩画廊", "address": "广场路43号首层", "image": "", "rank": 46, "time": 2, "location": {"lat": 29.813962955975427, "lng": 119.68647478920863}, "feature": {"sight_features": "", "sight_content": ""}}, {"title": "孔雀石博物馆", "address": "广场路39号", "image": "", "rank": 47, "time": 2, "location": {"lat": 30.2378680357304, "lng": 119.72887748668492}, "feature": {"sight_features": "", "sight_content": ""}}, {"title": "阳春市惠农农民专业合作社", "address": "113省道东50米", "image": "", "rank": 48, "time": 1.5, "location": {"lat": 30.339048049978164, "lng": 114.30849380920287}, "feature": {"sight_features": "", "sight_content": ""}}, {"title": "广东省阳春市粤剧团", "address": "红旗路55号", "image": "", "rank": 49, "time": 2, "location": {"lat": 39.937486065358584, "lng": 119.59501266253747}, "feature": {"sight_features": "", "sight_content": ""}}, {"title": "阳江春湾景区 Chunwan Scenic Ar...", "address": "广东省阳春市春湾镇", "image": "", "rank": 50, "time": 4.5, "location": {"lat": 22.40878171590404, "lng": 112.03383619141616}, "feature": {"sight_features": "", "sight_content": ""}}, {"title": "广东阳春巿岗美云山绿湖度假村", "address": "阳江市-阳春市-岗美镇云山绿湖旅游度假村(那排那马水库)", "image": "", "rank": 51, "time": 2, "location": {"lat": 22.055296511616305, "lng": 111.78067343032079}, "feature": {"sight_features": "", "sight_content": ""}}, {"title": "下坡茅", "address": "阳江市-阳春市", "image": "", "rank": 52, "time": 2, "location": {"lat": 22.176014807320136, "lng": 111.79753613029754}, "feature": {"sight_features": "", "sight_content": ""}}]}