{"cityName": "阳谷", "days": 2, "cityImage": "", "spots": [{"title": "蚩尤陵旅游区", "address": "聊城市阳谷县035乡道西150米", "image": "", "rank": 1, "time": 2, "location": {"lat": 36.12081551468669, "lng": 115.79839557041204}, "feature": {"sight_features": "", "sight_content": ""}}, {"title": "一泓温泉", "address": "聊城市阳谷县闫楼镇三孝寺村恒泰工矿实业区3号(寿郭路与黄河东路交叉口)", "image": "", "rank": 2, "time": 2, "location": {"lat": 36.13631349598705, "lng": 115.88116701213606}, "feature": {"sight_features": "特色1 将休闲、养生、道家养生文化与传统中医融为一体", "sight_content": "一泓温泉假日酒店位于聊城阳谷县。是一家健康、休闲、养生的高档度假村。\n温泉酒店将休闲、养生、道家养生文化与传统中医融为一体。\n由知名专家为您量身定制的健康管理计划，特有中医理疗、冥想瑜伽、泥疗，亲亲鱼疗等。\n彰显一泓温泉的真山水温泉养生文化特色，多种修生养性的SPA疗程，一应俱全。"}}, {"title": "水慕汤泉温泉水世界", "address": "聊城阳谷景阳冈大酒店南邻水慕汤泉温泉水世界", "image": "", "rank": 3, "time": 2, "location": {"lat": 36.1168727408794, "lng": 115.808763453286}, "feature": {"sight_features": "", "sight_content": "水慕汤泉温泉水世界集健康沐浴、温泉、中医养生、TPA水疗、特色餐饮、多媒体休息大厅\n大型演艺、棋牌网吧、健身游艺、商务客房为一体。"}}, {"title": "景阳冈艺术馆", "address": "运河东路177号", "image": "", "rank": 4, "time": 2, "location": {"lat": 32.39265763509397, "lng": 119.4981291799129}, "feature": {"sight_features": "", "sight_content": ""}}, {"title": "坡里教堂", "address": "定水镇坡里教堂", "image": "", "rank": 5, "time": 2, "location": {"lat": 36.27851618457023, "lng": 115.83649880748294}, "feature": {"sight_features": "", "sight_content": ""}}, {"title": "阳谷金地农业科技有限公司", "address": "十五里井村(阳谷县城)", "image": "", "rank": 6, "time": 2, "location": {"lat": 36.12081551468669, "lng": 115.79839557041204}, "feature": {"sight_features": "", "sight_content": ""}}, {"title": "探索者密室逃脱", "address": "博济桥广场东北角(中心广场)", "image": "", "rank": 7, "time": 2, "location": {"lat": 36.11826768376073, "lng": 115.79640771014903}, "feature": {"sight_features": "", "sight_content": ""}}, {"title": "丰源生态农业科技示范园(北门)", "address": "333省道南50米", "image": "", "rank": 8, "time": 2, "location": {"lat": 39.026009222835135, "lng": 115.37834791394636}, "feature": {"sight_features": "", "sight_content": ""}}, {"title": "富瑞农业", "address": "侨润街道祥光经济开发区", "image": "", "rank": 9, "time": 2, "location": {"lat": 26.655443026404118, "lng": 118.1922561315343}, "feature": {"sight_features": "", "sight_content": ""}}, {"title": "鲁坊垂钓园", "address": "022县道北50米", "image": "", "rank": 10, "time": 2, "location": {"lat": 40.43654043549832, "lng": 116.72934828736967}, "feature": {"sight_features": "", "sight_content": ""}}, {"title": "龙山文化遗址", "address": "山东省阳谷县城东20公里景阳冈村 252300", "image": "", "rank": 11, "time": 2.0, "location": {"lat": 36.11338279595247, "lng": 115.78482316229235}, "feature": {"sight_features": "", "sight_content": ""}}, {"title": "蚩尤冢", "address": "山东省阳谷县十五里元乡皇姑塚村 252300", "image": "", "rank": 12, "time": 2, "location": {"lat": 36.12081551468669, "lng": 115.79839557041204}, "feature": {"sight_features": "", "sight_content": ""}}, {"title": "耶酥圣心堂", "address": "山东省聊城市阳谷县博济桥街道狮子楼路耶酥圣心堂", "image": "", "rank": 13, "time": 2, "location": {"lat": 36.11908175979478, "lng": 115.78910627667578}, "feature": {"sight_features": "", "sight_content": ""}}, {"title": "景阳岗龙山文化城址", "address": "聊城市阳谷县张秋镇景阳冈旅游区内", "image": "", "rank": 14, "time": 2, "location": {"lat": 36.09158617029025, "lng": 115.98682958150962}, "feature": {"sight_features": "", "sight_content": ""}}, {"title": "阳谷法治广场", "address": "清河东路与黄山路交叉口东北100米", "image": "", "rank": 15, "time": 2, "location": {"lat": 36.11034177795912, "lng": 115.80576614196887}, "feature": {"sight_features": "", "sight_content": ""}}, {"title": "国泰广场", "address": "聊城市阳谷县", "image": "", "rank": 16, "time": 2, "location": {"lat": 36.12081551468669, "lng": 115.79839557041204}, "feature": {"sight_features": "", "sight_content": ""}}, {"title": "红星广场", "address": "运河东路与黄山路交叉口东北50米", "image": "", "rank": 17, "time": 2, "location": {"lat": 36.12459634678234, "lng": 115.80775917647163}, "feature": {"sight_features": "", "sight_content": ""}}, {"title": "科迪食文化广场", "address": "山东省聊城市阳谷县博济桥路", "image": "", "rank": 18, "time": 2, "location": {"lat": 36.11727448407692, "lng": 115.80596296250272}, "feature": {"sight_features": "", "sight_content": ""}}, {"title": "开心一乐儿童室内主题乐园", "address": "谷山路好乐家购物中心一楼", "image": "", "rank": 19, "time": 2, "location": {"lat": 36.11488647655837, "lng": 115.79525885285942}, "feature": {"sight_features": "", "sight_content": ""}}, {"title": "陈店基督教会", "address": "山东省聊城市阳谷县陈店村", "image": "", "rank": 20, "time": 2, "location": {"lat": 36.06405862456808, "lng": 115.96456589959777}, "feature": {"sight_features": "", "sight_content": ""}}, {"title": "七彩幻想儿童乐园", "address": "谷山路阳谷宝福邻购物中心三楼", "image": "", "rank": 21, "time": 2, "location": {"lat": 36.12387100761497, "lng": 115.79783500351957}, "feature": {"sight_features": "", "sight_content": ""}}, {"title": "真武庙", "address": "山东省聊城市阳谷县十五里园镇三合庄完全小学北250米", "image": "", "rank": 22, "time": 1.0, "location": {"lat": 36.062554132283566, "lng": 115.95210069074794}, "feature": {"sight_features": "", "sight_content": ""}}, {"title": "博戏馆", "address": "聊城市阳谷县紫荆街1号狮子楼旅游城内", "image": "", "rank": 23, "time": 2, "location": {"lat": 36.11840447370032, "lng": 115.78802719706329}, "feature": {"sight_features": "", "sight_content": ""}}, {"title": "欢乐童年游乐园", "address": "山东省聊城市阳谷县S254", "image": "", "rank": 24, "time": 2, "location": {"lat": 36.12081551468669, "lng": 115.79839557041204}, "feature": {"sight_features": "", "sight_content": ""}}, {"title": "香光缘念佛堂阿弥陀佛", "address": "山东省聊城市阳谷县狮子楼路", "image": "", "rank": 25, "time": 2, "location": {"lat": 36.12153774697087, "lng": 115.78947696334276}, "feature": {"sight_features": "", "sight_content": ""}}, {"title": "三山广场", "address": "黄山路与黄河东路交叉口西北50米", "image": "", "rank": 26, "time": 2, "location": {"lat": 32.78571204607238, "lng": 116.82276315011502}, "feature": {"sight_features": "", "sight_content": ""}}, {"title": "梦幻谷儿童乐园", "address": "山东省聊城市阳谷县谷山路262号", "image": "", "rank": 27, "time": 2, "location": {"lat": 36.11894921265229, "lng": 115.79647878228435}, "feature": {"sight_features": "", "sight_content": ""}}, {"title": "图书馆", "address": "谷山路", "image": "", "rank": 28, "time": 1.0, "location": {"lat": 28.25828167763225, "lng": 112.96119114329659}, "feature": {"sight_features": "", "sight_content": ""}}, {"title": "金水湖游乐园", "address": "南外环路金水湖东侧", "image": "", "rank": 29, "time": 2, "location": {"lat": 38.51926323821472, "lng": 102.2461484186057}, "feature": {"sight_features": "", "sight_content": ""}}, {"title": "曹顺国葡萄基地", "address": "齐庄往西北250米", "image": "", "rank": 30, "time": 2, "location": {"lat": 39.397895261469124, "lng": 118.88825992947243}, "feature": {"sight_features": "", "sight_content": ""}}, {"title": "秋霜梨采摘园", "address": "郭屯镇农电站向东1公里赵王河西", "image": "", "rank": 31, "time": 2, "location": {"lat": 27.855115878009787, "lng": 120.72109614867794}, "feature": {"sight_features": "", "sight_content": ""}}, {"title": "惠家庄葡萄园", "address": "惠庄村", "image": "", "rank": 32, "time": 2, "location": {"lat": 38.2020630606956, "lng": 116.30876308398852}, "feature": {"sight_features": "", "sight_content": ""}}, {"title": "四海钓场", "address": "侨润街道四海钓场", "image": "", "rank": 33, "time": 2, "location": {"lat": 36.13203891732896, "lng": 115.81521430372948}, "feature": {"sight_features": "", "sight_content": ""}}, {"title": "苏海森林动物世界", "address": "聊城市阳谷县北环与聊阳路交叉口向北3公里路西", "image": "", "rank": 34, "time": 2, "location": {"lat": 36.270539430799246, "lng": 115.89563338335691}, "feature": {"sight_features": "", "sight_content": ""}}, {"title": "阳谷紫石商业步行街", "address": "山东省阳谷县紫石街", "image": "", "rank": 35, "time": 2, "location": {"lat": 36.116987905884756, "lng": 115.7821145016881}, "feature": {"sight_features": "", "sight_content": ""}}, {"title": "Do Jump蹦床公园", "address": "聊城市-阳谷县-南外环路", "image": "", "rank": 36, "time": 2, "location": {"lat": 36.0943548338099, "lng": 115.7934765796937}, "feature": {"sight_features": "", "sight_content": ""}}]}