{"cityName": "扬州", "days": "", "cityImage": "", "spots": [{"title": "瘦西湖", "address": "扬州市蜀冈瘦西湖风景名胜区大虹桥路28号", "image": "", "rank": 1, "time": 3.5, "location": {"lat": 32.40812869612742, "lng": 119.43283361342758}, "feature": {"sight_features": "特色1 著名诗句”二十四桥明月夜“出处。 特色2 有“园林之盛，甲于天下”之誉。 特色3 四季花开不断的湖上园林。扬州必游之地。", "sight_content": "瘦西湖位于扬州市北郊，现有游览区面积100公顷左右，1988年被国务院列为“具有重要历史文化遗产和扬州园林特色的国家重点名胜区”。2010年被授予中国旅游界含金量较高荣誉——全国aaaaa级景区，成为国家5a级旅游景区。\n瘦西湖现有：冶春园、绿杨村、叶园、长春岭、 琴室、木樨书屋、棋室、月观、梅岭春深、湖上草堂、绿荫馆、吹台、二十四桥景区等景点。由历代挖湖后的泥堆积成岭，登高极目，全湖景色尽收眼底。文人雅士看中此地，构堂叠石代有增添，至清代成为瘦西湖最引人处。有“湖上蓬莱”之称。瘦西湖园林群景色怡人，融南秀北雄为一体，在清代康乾时期即已形成基本格局，有“园林之盛，甲于天下”之誉。所谓“两岸花柳全依水，一路楼台直到山”，其名园胜迹，散布在窈窕曲折的一湖碧水两岸，俨然一幅次第展开的国画长卷。\n隋唐时期，瘦西湖沿岸陆续建园。及至清代，由于康熙、乾隆两代帝王六次“南巡”，形成了“两岸花柳全依水，一路楼台直到山”的盛况。“天下西湖，三十有六”，惟扬州的西湖，以其清秀婉丽的风姿独异诸湖。一泓曲水宛如锦带，如飘如拂，时放时收，较之杭州西湖，另有一种清瘦的神韵。清代钱塘诗人汪沆有诗云：“垂杨不断接残芜，雁齿虹桥俨画图。也是销金一锅子，故应唤作瘦西湖。”瘦西湖由此得名，并蜚声中外。\n湖清瘦狭长，水面长约4km， 宽不及100m。原是纵横交错的河流，历次经营沟通，运用我国造园艺术的特点，因地制宜地建造了很多风景建筑。瘦西湖从乾隆御码头开始，沿湖过冶春、绿杨村、红园、西园曲水，经大虹桥、长堤春柳，至徐园、小金山、钓鱼台、莲性寺、白塔、凫庄、五亭桥等，再向北至蜀岗平山堂、观音山止。湖长十余里，犹如一幅山水画卷，既有天然景色，又有扬州独特风格的园林。\n瘦西湖园林以自然风光旖旎多姿著称于世。四时八节，风晨月夕，使瘦西湖幻化出无穷的天然之趣。丰富的历史文化，使瘦西湖如醇厚的佳酿，常看常新，品味其中，回味无穷。"}}, {"title": "个园", "address": "扬州市广陵区盐阜东路10号", "image": "", "rank": 2, "time": 1.5, "location": {"lat": 32.4063492349146, "lng": 119.44994324771321}, "feature": {"sight_features": "特色1 园林中遍植绿竹，假山叠石值得一看。", "sight_content": "个园美景，以竹石取胜，应合了庭园里各色竹子，竹子顶部的每三片竹叶都可以形成“个”字，在白墙上的影子也是“个”字！清代扬州盐商营造的历史最悠久、保存最完整、具有艺术价值的古典园林。1988年被国务院授予第三批“全国重点文物保护单位”。个园是以竹石取胜，连园名中的“个”字，也是取了竹字的半边，应合了庭园里各色竹子，主人的情趣和心智都在里面了。\n\n个园由清代嘉庆年间两淮盐业商总黄至筠在明代“寿芝园”的旧址上扩建而成。园虽不大，但处处体现出造园者独具匠心之处，值得一提的是个园的叠石艺术，采用分峰用石的手法，运用不同石料堆叠而成“春、夏、秋、冬”四景。\n个园是一处典型的私家住宅园林。从住宅进入园林，首先映入眼帘的是月洞形园门。门上石额书写“个园”二字，“个”者，竹叶之形，主人名“至筠”，“筠”亦借指竹，以为名“个园”，点明主题。园门两侧各种竹子枝叶扶疏，“月映竹成千个字”，与门额相辉映；白果峰穿插其间，如一根根茁壮的春笋。\n主人以春景作为游园的开篇，想是有“一年之计在于春”的含意吧。透过春景后的园门和两旁典雅的一排漏窗，又可瞥见园内景色，楼台、花树映现其间，引人入胜。进入园门向西拐，是与春景相接的一大片竹林。竹林茂密、幽深，呈现生机勃勃的春天景象。\n个园四季假山各具特色，表达出“春山艳冶而如笑，夏山苍翠而如滴，秋山明净而如妆，冬山惨淡而如睡”和“春山宜游，夏山宜看，秋山宜登，冬山宜居”的诗情画意。个园旨趣新颖，结构严密，是中国园林的孤例，也是扬州最富盛名的园景之一。"}}, {"title": "东关街历史街区", "address": "扬州市广陵区东关街与国庆路交叉口东100米", "image": "", "rank": 3, "time": 2.5, "location": {"lat": 32.4035458772972, "lng": 119.44834853444985}, "feature": {"sight_features": "特色1 建筑精致典雅，粉墙黛瓦，体量协调，疏朗有致 特色2 它东至古运河边，西至国庆路，全长1122米原街道路面为长条板石铺设", "sight_content": "【张玉良纪念馆】张玉良(1895—1977年)，中国著名女画家、雕塑家。1921年考得官费赴法留学，先后进了里昂中法大学和国立美专，与徐悲鸿同学，1923年又进入巴黎国立美术学院。张玉良的作品陈列于罗马美术展览会，曾获意大利政府美术奖金。1929年，张玉良归国后，曾任上海美专及上海艺大西洋画系主任，后任中央大学艺术系教授。1937年旅居巴黎，曾任巴黎中国艺术会会长，多次参加法、英、德、日及瑞士等国画展。曾为张大千雕塑头像，又作王济远像等。张女士是东方考入意大利罗马皇家画院之第一人。\n\n【街南书屋】街南书屋位于东关街309号，为清雍正、乾隆年间盐商马曰琯、马曰璐兄弟二人住宅园林遗址，因其在东关街南。\n原书屋东至薛家巷，北至东关街，南至韦家井，西至马坊巷，现存旧屋两进。街南书屋曾有12景，其中最负盛名的当数一块从太湖购来的小玲珑山石。\n【逸圃】“逸圃”位于东关街356号，清末1910年，由惠余钱庄老板李鹤生（1871～1937）修建，历时三年。占地面积3521平方米，建筑面积2363平方米。“逸”是安乐或超群之意，“圃”指瓜果菜园地，喻意逸圃是人杰地灵，舒适安逸的家园乐土。\n【武当行宫】武当行宫原名真武庙，始建年代已查考无据。真武庙于明宣德三年（1428）由扬州知府陈真重建，明嘉靖四十三年（1564），含山（今属安徽）人耿氏在该庙立“武当行宫”石碣，用以祈福。\n【李长乐故居】李长乐故居位于五福巷41号，李长乐（1837—1889），字汉春，安徽盱眙人。家贫，幼失学，七岁即喜挟弹追飞。同治元年（1862年）入淮军任营官，因作战骁勇，擢千总，赐花翎，同治四年(1865年)赐黄马褂。历任湖北、湖南、直隶提督。后驻芦台，扼天津大沽。光绪十五年(1889年)卒官，谥勤勇，葬于扬州二道山赵庄。\n【华氏园】华氏园为清末民初盐商华友梅所建，东园西宅，住宅较为完整，占地造型像一方官樱园子坐北朝南，有花厅三间，窗明几净，绿池萦绕。\n厅的东南以雪石叠山，厅的北面与层楼相接，有假山蹬道逐级上楼，这种建造手法就是明末造园大家计成在《园冶》一书中所说的“楼山”。华氏园修复前仅存花厅和北楼。\n【吴道台府】\n东关街位于扬州市中心，东至古运河边，西至国庆路，全长1122米，其东端的东关古渡在唐朝是扬州最繁华的码头，有了码头便发展出了商贸密集的街市东关街。现在的东关街依然维持着明清时的模样，走在石板路上，不时能看到青砖灰瓦的盐商大院，而美食与当地特产小玩意的集中，又给游客增添了逛街的乐趣。\n东关街的美食价格公道，你看见街上哪家店人气旺，过去买了吃便是，藕粉汤圆、四喜汤圆、饺面、黄桥烧饼、大煮干丝、狮子头等等扬州特产，在这都能吃到。有些饭店就开在老宅子里，比如江南一品仲涵公馆（东关街312号），原来是民国银行家胡仲涵故居，现在主营盐商私房菜，不过也就图个老宅子里吃饭的气氛，游客一多上菜会很慢。\n\n若要购物，街上琳琅满目的小商铺中不乏百年老字号。比如1830年的谢馥春（东关街243号），谢馥春鸭蛋粉被许多攻略称为“扬州必买手信”，很受姑娘们欢迎，注意百来块的才是用来擦脸的，二十来块的只能当固体香水，放在衣橱里，衣服都会变得芳香，很好闻。再比如1817年的四美酱园（东关街138号），买点酱菜回去，吃饭时和小伙伴们分享其乐无穷。\n写有“东关古渡”的牌坊西侧，是东门遗址，又叫双瓮城遗址，现在看到的城门是现代新建的。门前立着两门铁炮，登上城门，可以俯看东关街全景，城楼内以展览馆的形式介绍扬州和东关街的文化历史，穿过城下的门洞，可以透过玻璃地板，看到底下唐宋时期的城墙遗址。想要游览东关街的景点，了解它的底蕴，从东门遗址开始是不错的选择。\n在东关街的盐商宅院中，最值得一游的是个园，在园中钻假山很好玩，在个园的竹林里散步又很惬意。其他你还可以看看明清道观武当行宫等景点。东关街两边有很多叉出去的小巷，若要体味原汁原味的老扬州，就要到这些小巷中去，里面依然住着居民，和当地人聊聊天，能知道扬州人的祖祖辈辈都是生活在这样弯弯曲曲的巷陌里。\n长乐客栈也是东关街非常独特的地方，古色古香，即是酒店又是景点，涵盖民国初年钱业经纪人李鹤生的逸圃、清末民初盐商华友梅的华氏园、清代名将李长乐的将军府，住客若是细细参观这些景点，就可以消磨几小时，遗憾的是非住客若要参观可能会受到保安的阻拦，也有例外的情况，碰运气吧。长乐客栈价格较贵，运河国际青年旅舍、同福客栈、个园青年旅舍价钱都要便宜得多。\n住在东关街，晚上可以再出来逛逛，建筑都亮了灯，一直到晚上九、十点街上人流依然熙熙攘攘，十分热闹。东关街南边300米是东圈门历史街区，与东关街平行，合称“双东历史街区”，可一并游览。"}}, {"title": "扬州古运河", "address": "扬州市邗江区高桥路92号", "image": "", "rank": 4, "time": 2.0, "location": {"lat": 32.41348151025249, "lng": 119.45812047516036}, "feature": {"sight_features": "特色1 沿运河散步、游览东关街等景点，晚上可坐船看夜景。", "sight_content": "古运河扬州段是整个运河中最古老的一段。现在扬州境内的运河与2000多年前的古邗沟路线大部分吻合，与隋炀帝开凿的运河则完全契合，从瓜洲至宝应全长125公里。其中，古运河扬州城区段从瓜洲至湾头全长约30公里，构成有名的“扬州三湾”。这一段运河最为古老，可谓历史遗迹星列、人文景观众多。\n在这段运河的沿岸，有世界四大宗教活动的场所琼花观（西汉·道教）；高旻寺（隋代·佛教）、普哈丁墓园（宋代·伊斯兰教）和天主教堂（清代·天主教）；有反映扬州古港、水利和城池建筑的遗址水斗门、龙首关（钞关）、东关古渡（双瓮城）和古湾头闸；有古代帝王巡视扬州留下的遗迹：瓜洲古渡锦春园、高?寺行宫御园和龙衣庵；有体现“富比王侯”的扬州盐商住宅群落——全国重点文物保护单位个园以及汪氏小苑等；有唐代扬州鉴真大和尚东渡日本时的启航地文峰塔。\n\n在这条运河线上，留下了历代有名文人墨客大量的诗文名篇：“故人西辞黄鹤楼，烟花三月下扬州”（李白）；“嘹唳塞鸿经楚泽，浅深红树见扬州”（李绅）；“春风十里扬州路，卷上珠帘总不如”（杜牧）；“天下三分明月夜，二分无赖是扬州”（徐凝）；“沉舟侧畔千帆过，病树前头万木春”（刘禹锡）；“楼船夜雪瓜洲渡，铁马秋风大散关”（陆游）；“春风又绿江南岸，明月何时照我还”（王安石）……等等。这些千古名句，描绘了古代扬州曾经有过的“歌吹沸天”、极尽繁华的辉煌时代，而这一切无不与运河一脉相承。在运河绵延千里的岸线上，扬州与运河的兴衰息息相关！\n古运河扬州段从瓜洲至湾头全长30公里，沿岸有几十个景点，其旅游价值极高，它集长江和运河、天然和人工、历史和现实、经济和文化、新线和老线、城市和乡村于一体，构成一条色彩斑斓、风情万种、景色各异、内涵丰富的旅游线路。更为令人称奇的是，作为一条新开发的旅游线，与长江风情旅游线相呼应、相连接，从长江与运河交界的古镇瓜洲上船，经过古运河到东关古渡换船，就能非常自然地与我市已经形成多年的乾隆水上游览线自然连接，这就完全做足了“水”的文章，突出了古城扬州历史上“车马少于船”的特色，使游客感受“水”的经济、“水”的文化、“水”的生活方式，夜游扬州古运河也颇有一番风味。\n由南向北游，从白浪滔滔的长江，驶进宽阔的风平浪静的大运河，映入眼帘的是运河西岸的古寺塔影，婀娜多姿、风情万种的杨柳，富有水乡特色的小桥野渡，掩映于水杉翠竹荫下的农舍，细如羊肠的纤道，随风盘旋的风车，破浪前进的船队，或许还能看到巅簸在大河中的小小的渔船，以及不时上下潜水作业捕捉鱼儿的鱼鹰。如若在早上，面对眼前的水乡景色，谁又不会想起宋代词人柳永的佳句：“杨柳岸，晓风残月”，真是别有一番情趣。在这个历史的走廊中，人们慢慢地看、慢慢地品，走进扬州，阅读扬州，感受扬州。当来到“东关古渡”又换上小船沿着“乾隆水上旅游线”悠悠地向蜀岗瘦西湖风景区荡去，领略维扬春色。那一幕幕美丽的风光不时出现在游客的面前，赢得游客由衷的赞叹。"}}, {"title": "何园", "address": "扬州市广陵区徐凝门大街66号", "image": "", "rank": 5, "time": 1.5, "location": {"lat": 32.39151943719182, "lng": 119.4562302184859}, "feature": {"sight_features": "特色1 园林风格中西合璧，布局巧妙。", "sight_content": "何园原名寄啸山庄，是扬州私家园林中的压轴之作。全国重点文物保护单位，国家aaaa级旅游景区，并与北京颐和园、苏州拙政园同时被评为首批全国重点园林。何园原址为乾隆年间古园，名“双槐园”。\n\n\n片石山房“天下第一山”，是画坛巨匠石涛和尚叠石的“人间孤本”。有名学者余秋雨称在中国造园史上，能让人仰望的就是何园的“片石山房”了。中国当代古建园林专家童寯、刘敦桢、潘谷西、罗哲文、陈从周等都对何园独特的造园手法备加赞誉，称它为“江南园林中的孤例”。罗哲文先生还专门为何园题词“晚清第一园”。\n走进何园，宛如走进一幅历史人文的旖旎画卷；一位集官僚、盐商、隐者、教育家多重身份的传奇人物，曲折隐秘的心阶历程在此淋漓披露；一个由封建走向开明的世家大族兴衰荣辱的生存活剧在此栩栩上演；一部风云变幻的中国近代史丰富多彩的外传故事在此生动展现……\n何园是扬州大型私家园林中最后问世的一件压轴之作。同光以后，由于盐商和漕运的衰落，园林建造的中心已经转到苏州，此时的扬州园林已处于回光返照的状态，但仍能体现其豪放大气的一面。而何园集扬州园林的精髓于大成，并很好地融合了西洋建筑的元素，成为中国园林史上的一个奇葩！\n何园其建筑特色之冠――享有“天下第一廊”美誉的1500米复道回廊构成园林建筑四通八达之利与回环变化之美，被业内专家称为中国立交桥的雏形。把廊道建筑的功能和魅力发挥到极至，是中国园林中的少有精彩景观！\n这里有一千余米的复道回廊；有天下第一窗；天下第一戏亭；有一百多年前中国最现代化的玉绣楼；有完整的地下排水系统。何园是一首诗，用诗的意境造园，再经过游园让人进入诗的境界，令人向往。"}}, {"title": "马可波罗花世界", "address": "扬州市广陵区生态科技新城自在岛花海路1号", "image": "", "rank": 6, "time": 3.5, "location": {"lat": 32.423545020821216, "lng": 119.52447820796203}, "feature": {"sight_features": "特色1 1000万株来自世界各地的奇花异卉盛大绽放。 特色2 一场永不落幕的世界花卉艺术盛宴！ 特色3 集观赏、游览、餐饮、购物、娱乐、休闲为一体的综合性花卉文化主题乐园。", "sight_content": "“马可波罗花世界”乐园坐落于世界探险家马可波罗停驻过三年的名城扬州，面积约50公顷，是世界第一座花卉主题乐园。乐园以马可波罗魔幻东游奇旅为主线，由奥斯卡两届金像奖提名动漫团队爱尔兰Cartoon Saloon、《小王子》电影团队法国Amiko、荷兰国宝级花艺大师Niek Roozen和德国儿童游乐教育专家精心设计、联袂打造。旨在为您带来一场永不落幕的世界花卉艺术盛宴！\n世界花卉艺术奇迹（世界艺术花展）\n荷兰国宝级花艺大师Niek Roozen邀您开启花卉艺术之旅！来自欧洲美国的1000万株的奇花异卉，震撼夺目的十里艺术花海盛景，只在马可波罗花世界才能看到！荷兰梦幻花田、意大利鲜花地毯、欧洲风情花园、创意花雕、世界奇花异卉……\n这些花卉艺术都想看？“马可波罗花世界”乐园一站式颠覆你对花的想象！800亩的马可波罗花世界里不仅有威尼斯、地中海等环球七大主题花园，还有更为震撼的世界五大花卉奇迹。\n世界较大的艺术花海：五彩缤纷的花朵在这里争相开放远远望去，不见边际，如海洋一般广阔；风吹来时，花浪起伏，如同大海的波涛翻滚。\n世界首创的梦幻花丘：起伏的丘陵被色彩斑斓的鲜花所覆盖，如彩虹色的花带层层叠叠，不禁联想起彩虹那端的缤纷世界。让本平淡无奇的丘陵变得梦幻起来，漫步其间，从不同角度感受花开的魅力。\n\n\n来自奥斯卡的创意花雕：由鲜花搭建的哥特式教堂和扬州的标志建筑文昌阁，还有沙漠之战、趣游东方群组花雕，尽情享受感受园艺设计。\n世界较大的鲜花花毯：面积达13,000平米的奇迹花毯，以一千万株鲜花织就象征幸福与祥瑞的花之图腾。它与缀满鲜花的梦幻花桥一起，形成“花在桥上，桥在花中”的花海奇景。\n世界最长的水花溪：小溪蜿蜒着向远处延伸，河边繁花似锦，水中有嬉水的天鹅，树上有鸣叫的小鸟，一路走走停，沿途风景尽收眼底。\n别忘记魔法芳香体验馆内还有奇花异卉争奇斗艳的魔法芳香植物园哦。\n亲子欢乐时光\n你家有个对这个世界充满好奇的小朋友？带他来马可波罗花世界游乐场吧！德国儿童教育专家以欧盟标准打造花园里的主题游乐场。乐园所有游乐设备均选用欧盟标准供应商确保孩子们游乐安全。德国专家们在室外花园里为孩子们建设了中国规模较大的室外淘气堡和特色水乐园。让孩子不仅玩的开心，更能锻炼孩子们体能和探索思考能力。\n奇妙小镇：孩子们喜欢的淘气堡，大人们喜欢的精彩游戏，在这里所有人都可以体验威尼斯嘉年华的欢乐。\n神秘丛林：妙趣横生的树屋，繁复刺激的网绳，蜿蜒的植物藤蔓，打造精灵花园里的绿野迷踪。\n萌宠动物乐园：憨态可掬的小香猪、羊驼，温柔可爱的迷你兔、梅花鹿，在互动游戏中与小动物亲密接触。\n甜蜜旋转木马：华丽的旋转木马，永恒的欢乐时光，既能满足孩子的梦想，又散发着爱情的芬芳。\n花样美食，吃货的天堂\n不仅是玩的美美的，更要吃的美美的。“马可波罗花世界”的花宴团队为您准备了淮扬特色花宴，没有品尝过淮扬花宴的吃货不是真吃货哦！（所有美食均为马可波罗花世界官方运营哦，保证服务质量拒绝宰客）\n梦幻雪球、疯狂热狗、精灵糖果、超大图林根汉堡等各色轻餐厅也将激活你的味蕾。\n最后，别忘了带上一份特别小礼物，将快乐分享给朋友们！在魔法芳香体验馆，我们为您精心准备了源自世界芳香之都法国格拉斯的精油芳香产品、花特色食品和马可波罗特色纪念伴手礼。一定要小孩子们挑选一份喜欢的马可波罗及其小伙伴的纪念品哦！"}}, {"title": "大明寺", "address": "扬州市邗江区平山堂东路8号", "image": "", "rank": 7, "time": 1.5, "location": {"lat": 32.42600219241761, "lng": 119.4192618655624}, "feature": {"sight_features": "特色1 大明寺环境优美，依山面水，历来为游览胜地。 特色2 大明寺初建于南朝，后隋于此建“栖灵塔”，故又称“栖灵寺”。 特色3 君王圣贤，骚人墨客都曾游览于此，流连忘返，虔诚祈福。", "sight_content": "“扬州琼花，世间无双”，在大明寺平远楼大院南隅有一株康熙年间大明寺住持道宏禅师手植的琼花，已逾三百年之久，每年五月盛开，如今依然繁茂，风韵不减当年。 琼花的美，是一种独具风韵的美。它不以花色鲜艳迷人，不以浓香醉人，每到春夏之交，自然界一片姹紫嫣红，琼花却花开洁白如玉，风姿绰约，格外清秀淡雅。琼花枝条广展，树冠呈球形，树姿优美，树形潇洒别致。\n大明寺位于扬州城区西北郊蜀冈风景区之中峰，是集佛教庙宇、文物古迹和园林风光于一体的游览胜地。大明寺古有扬州第一名胜之说。大明寺因初建于南朝刘宋孝武帝大明年间（公元457年—464年）而得名。唐代鉴真大师曾主持此寺，传经讲律。\n\n隋仁寿元年（601），文帝杨坚六十寿辰，诏令在全国三十个州内立三十座塔，以供奉舍利（佛骨）其中一座建立在大明夺内，称“栖灵塔”。塔高九层，因寺从塔名，故“大明寺”与“栖灵寺”并称；又因大明寺在隋宫、唐城之西，亦称“西寺”。1500余年来，寺名多有变化，清代因讳“大明”二字，一度沿称“栖灵寺”，乾隆三十年皇帝亲笔题书“敕题法净寺”。1980年，大明寺恢复原名。寺内前院有一株高丈余的琼花树，树叶繁茂，春天花开白如玉盘，有“扬州琼花，世间无双”之誉。\n\n今大明寺内的鉴真纪念堂为唐代风格建筑，于1963年鉴真圆寂1200周年时奠基，1973年建成，正殿须弥座上供奉的以干漆夹贮制作的鉴真坐像，闭目冥思，神态坚毅安祥。平山堂位于大明寺大雄宝殿西侧的“仙人旧馆”内，为北宋文学家欧阳修在扬州任太守时建。今堂内还挂有“风流宛在”、“坐花载月”的匾额，堂北檐挂林肇元题“远山来与此堂平”匾额。"}}, {"title": "瘦西湖温泉度假村", "address": "扬州市瘦西湖景区东门万花园对面", "image": "", "rank": 8, "time": 2, "location": {"lat": 32.41523062219843, "lng": 119.42652045884587}, "feature": {"sight_features": "特色1 园林式布局，小型温泉多，小而精致。 特色2 隐于古城，坐拥瘦西湖的绝色美景。", "sight_content": "扬州锦泉花屿酒店管理有限公司旗下—扬州瘦西湖温泉度假村坐落于风景如画的瘦西湖畔，与瘦西湖东门仅一路之隔。度假村占地面积13万平方米，配备温泉、住宿、餐饮、商务会议、休闲娱乐等设施，距市区文昌阁仅5分钟车程。宋夹城、大明寺、观音山等扬州著名景点环抱四周，旅游资源丰富，是周末度假休闲胜地。\n瘦西湖温泉水采自地表以下2000多米，温泉出水温度达到70℃，经国家机构检测认证，富含多种优质微量元素和矿物质，其中偏硅酸、锂、锶更是达到了矿泉水命名标准，属于国内天然偏硅酸锂温泉。\n扬州瘦西湖温泉度假村隐于古城，坐拥瘦西湖的绝色美景，是八方宾客体验真温泉、感受古文化、品尝美食、亲近自然的度假胜地。我们真诚期待您的到来！\n度假村内有形态功能各异的温泉池四十个，分为公众区域和私密区域，公众区域又分为多个各有不同特色的主题空间，小桥流水、亭台楼阁，身处其间，仿佛人间仙境。私密区域则以严格的空间隔离，使您独拥二人世界、尽享天伦之乐"}}, {"title": "茱萸湾风景区", "address": "扬州市区东北郊湾头镇茱萸湾路1号", "image": "", "rank": 9, "time": 9.0, "location": {"lat": 32.42587824133675, "lng": 119.49800208041532}, "feature": {"sight_features": "特色1 美丽风景里的动物园。 特色2 落花逐流水，共到茱萸湾。", "sight_content": "茱萸湾景区位于扬州市东郊，面积约50公顷，三面环水，环境优雅，距今已有两千一百多年的历史。\n古代众多的文人墨客都曾在此留下了讴歌的篇章，如唐代诗人刘长卿赞道：“落花逐流水，共到茱萸湾”。\n环岛还建有8千米的运河风光带，有季节特征明显的植物林带（雪松林、柿子林、竹林等）及各类花卉观赏园。\n茱萸湾春有茱萸、春梅、桃花、樱花、牡丹、芍药、琼花，夏有荷花、紫薇、月季，秋有桂花、红枫，冬有腊梅等。为了重塑茱萸文化，茱萸湾于2011年重阳节举办了首届《中国.扬州茱萸文化节》，展示了茱萸的历史、文化以及数十种茱萸产品。\n到目前为止茱萸湾已形成国内较大规模的观赏性”茱萸林“，吴茱萸、食茱萸、山茱萸种类齐全，茱萸树共达1500余株，茱萸林面积达30余亩。\n鹤苑—2014全国动物园展区规划设计示范展区：\n2014年5月，被授予全国动物园展区规划设计示范展区之一鹤苑对外开放，广大的游客们可以观赏到我国所有的9种鹤，即丹顶鹤、灰鹤、蓑羽鹤、白鹤、白枕鹤、白头鹤、黑颈鹤、赤颈鹤、沙丘鹤。其中，最为有名的是丹顶鹤，丹顶鹤是有名的文化鸟类，千百年来，深受人们的喜爱。在人们的心目中，它是“吉祥、长寿、幸福、忠贞”的象征。数量最多分布最广的是灰鹤，个体最大的是黑颈鹤，最小的是蓑羽鹤。\n\n6只小山羊、4只小香猪很享受幼儿园的生活，相互之间也能和平共处，每天都和小朋友们打成一片，也服从保育员管理。可他们的毛病也不少，一是不讲卫生，随地大小便，二是破坏绿化，幼儿园的草坪补它们翻了个底朝天。吴园长开出的罚单是：限制活动范围，不得四处乱窜。\n3、小矮马：破坏公物\n从英国来扬州安家的小矮马是动物幼儿园的大明星，它们性格温驯、高贵优雅，主动配合大家的拍照需求，深受小朋友们喜爱。但它们也有个坏毛病：破坏公物。小矮马的展出空间是用木栏杆隔离的，它们闲来无事就用牙去咬木栏杆，本来圆柱形的栏杆有一部分被破坏的坑坑洼洼。保育员杨君想出了应对办法：在栏杆上刷一层辣椒油，小矮马被辣了以后老实多了。\n4、小羊驼：叛逆少年爱耍酷，不讲文明\n小羊驼爱臭美，边做发型边吃水果，如果小朋友们拿着水果逗它们，又长时间不喂给它们吃，这两个家伙就耐不住性子了，会向游客吐口水以表达心中不满。吴园长说小羊驼是不讲文明，但情有可原，希望广大游客互动过程中把握分寸，不要惹它们生气！\n5、小黇鹿：夜游古运河，逃跑遇险\n3只小黇鹿刚上幼儿园没几天，就跳出围栏，夜游古运河，因不善长时间游泳，被发现时已虚弱。保育员杨君分析说小黇鹿五个月大，特别活泼好动。目前逃跑的小黇鹿已被渔民送回，正在另一场地接受营养补给和专业驯化。"}}, {"title": "《春江花月夜·唯美扬州》演出", "address": "扬州市维扬区长春路瘦西湖东门万花园内", "image": "", "rank": 10, "time": 2.0, "location": {"lat": 32.417186019541056, "lng": 119.42683354436697}, "feature": {"sight_features": "特色1 力求原汁原味地再现江南园林风情。 特色2 实景演出，唯美扬州。", "sight_content": "《春江花月夜 唯美扬州》大型园林实景演出，突显了扬州的婉约韵味，以及内蕴的诗情画意。每一个细节都能寻到扬州传统文化的记载和传承。整场演出共有九部曲，四大幕：运河之功、英雄无畏、春江花月、繁华似锦。\n运河之功\n1、雄浑有力的号子打破了湖水的静谧，伴随着耀眼白光划破夜幕，数十只巨帆破水而出，绵延直至湖水尽头。\n在铿锵的呐喊声中，船工赤膊上阵，舞动桅杆搅起千潮万浪。\n运河之功\n2、惊涛骇浪间，一架巨型祥云机械臂从水中缓缓崛起，直冲云霄，四周雾霭升腾，犹如腾云驾雾。\n隋炀帝登顶俯瞰大隋功业，一时间，旌旗风帆照耀川陆，南来北往缔造城市繁华。\n英雄无畏\n风住沉香月影动，风雨飘摇疑云凄。黑夜收起风花雪月的唯美浪漫，晚风吹来萧瑟山林的冷寂凄清。\n战鼓有力的敲击从四面八方越逼越近，惊弓之鸟飞入天际，一时间水鼓齐鸣，水花四溅。\n清兵南下，国难当头，在危急存亡之时，兵部尚书史可法飞身上马踏水而来。\n面对着百人围攻，丝毫不为退缩，手起刀落，斩敌无数。\n然纵是壮士力挽狂澜，满目疮痍的扬州城亦是无法挽回，大炮轰城，\n熊熊烈火中，一道血光染红天际……天空流下了眼泪，化作一朵一朵洁白的初雪，\n落在饱经风霜的大地上，落在英雄忠贞壮勇的身体上，慢慢将一切掩埋……\n春江花月\n1、“春江潮水连海平，海上明月共潮生。滟滟随波千万里，何处春江无月明。”\n透过层叠起伏的喷泉，7位乐师曼妙的身影勾勒在夜色中，点缀在风景里，\n共同用一曲委婉悠长的《春江花月夜》描绘出人间的良辰美景。\n2、情至浓时，乐师们逐歌而起，脚踏水雾，腾空弹奏，婀娜多姿的身影投射在水幕上，\n幻化为一道传神剪影，镌刻成一幅风华绝代的“乐坊仕女图”。\n繁花似锦\n1、幽静的湖水中，盛开一池莲花，犹如璀璨星空盈盈点点。\n浩渺烟波中十二位身着旗袍的秋水伊人踏着水雾摇曳生姿。\n素雅的油纸伞下、流动的水韵中，少女们的身姿影影绰绰，\n举手提足间，旗袍上的花卉仿佛被赋予了生命，随着纤纤腰肢娇艳开放，风情万种。\n2、玉笛扬琴演绎的《茉莉花》响起, 身着霓裳羽衣的少女们自凭空升起的茉莉花中走出，\n幻化成亭亭玉立的花朵绚烂盛开，笑意盈盈倾国倾城。\n天空中，烟花盛开，万紫千红的光芒倾泻而下，云霞散彩，大气磅礴。\n天空大地，台上台下，百花齐放，千蕊吐艳，醉美扬州夜，不眠是今宵！"}}, {"title": "文昌阁", "address": "扬州市广陵区文昌中路与汶河北路交汇处", "image": "", "rank": 11, "time": 0.75, "location": {"lat": 32.403547349863494, "lng": 119.44040726041949}, "feature": {"sight_features": "", "sight_content": ""}}, {"title": "扬州八怪纪念馆", "address": "扬州市广陵区驼岭巷18号", "image": "", "rank": 12, "time": 1.5, "location": {"lat": 32.40472405404307, "lng": 119.43787570344146}, "feature": {"sight_features": "特色1 位于西方寺内，可以了解八怪生平，并欣赏大雄宝殿屋梁上的彩绘。 特色2 弘扬扬州八怪艺术成就的专业纪念馆 特色3 来扬州看看八怪的历史", "sight_content": "扬州八怪纪念馆是宣扬和弘扬扬州八怪艺术成就的专业纪念馆。扬州八怪纪念馆东邻扬州繁华的文昌商业圈，西接著名的扬州蜀冈风景区，是利用“扬州八怪”之一金农曾寄居的西方寺古建筑群而建。\n\n\n\n东西廊房陈列有扬州八怪书画，表现每位书画家的个性创作；金农寄居的方丈室恢复原貌，展现金农晚年创作生活的情境；精品陈列室陈列“扬州八怪”传人李亚如的画作精品；近六十幅的“扬州八怪”书画刻石，再现中国传统碑刻的神韵。“千年银杏”、“鹤池窥冰”、“莲池映月”和“竹泉幽境”等。\n现存古建筑明代的楠木大殿，今辟为主展厅。大殿构架多为楠木制成，其梁架很有特色。大殿内彩绘在扬州地区少见，因扬州梁架都精于雕镂，少施彩绘，但大殿内却遍施彩绘于梁架之上，甚至不用藻井，而以五彩遍装，从仅存的小片彩绘分明看出，梁檩枋的彩绘为宋代风格。"}}, {"title": "扬州天乐湖嬉乐谷", "address": "扬州市仪征市谢集乡四庄村江扬路", "image": "", "rank": 13, "time": 1.5, "location": {"lat": 32.39274764067492, "lng": 119.15055197102383}, "feature": null}, {"title": "冶春园", "address": "扬州市维扬区大虹桥路2-3号", "image": "", "rank": 14, "time": 1.5, "location": {"lat": 32.40762093638206, "lng": 119.4386796563305}, "feature": {"sight_features": "", "sight_content": ""}}, {"title": "朱自清故居", "address": "扬州市广陵区安乐巷27号", "image": "", "rank": 15, "time": 1.0, "location": {"lat": 32.3993912789681, "lng": 119.45623703033658}, "feature": {"sight_features": "", "sight_content": ""}}, {"title": "汪氏小苑", "address": "扬州市广陵区东圈门历史街区地官第18号", "image": "", "rank": 16, "time": 1.0, "location": {"lat": 32.4015754986913, "lng": 119.45444204345299}, "feature": null}, {"title": "汉广陵王墓博物馆", "address": "扬州市维扬区平山堂东路98号", "image": "", "rank": 17, "time": 2.5, "location": {"lat": 32.429996281700085, "lng": 119.43700099282401}, "feature": {"sight_features": "特色1 一座融文物与园林为一体的陵园式博物馆。 特色2 一睹“黄肠题凑式”木椁，帝王才能享有这种最高规格的葬制。 特色3 苑内地形起伏，林木葱郁，仿汉建筑古朴雄浑。", "sight_content": "上世纪七十年代末期，在距江苏省扬州市45公里处的高邮市天山乡神居山上，当地农民开山采石，发现了两座木椁墓。经过考古学家的考证，发现这两座墓分别是西汉西汉第一代广陵王刘胥及其王后的寝陵。刘胥是汉武帝刘彻的第六子，汉代扬州为江南重镇，汉武帝特派其子管理扬州。死后即安葬于此。由于当地开山凿石，造成山石松动，不利墓葬的就地保护。1982年江苏省政府决定将汉墓迁至扬州，用原墓构件、按原墓式样重建。1992年建成现在的汉广陵王墓博物馆。博物馆建成后，前来参观的中外来宾络绎不绝，2000年，喜爱中国传统文化的法国总统希拉克慕名参观“汉广陵王墓”，在对其作了很高的评价。\n\n刘胥的寝陵采用了一种特殊的葬制——“黄肠题凑”。所谓“黄肠题凑”是中国古代一种特殊葬制，是帝王陵墓中的重要组成部分之一。古人注解“黄肠题凑”是以皮后的柏木黄心累于棺外，称之为“黄肠”，木头皆向内，称之为“题凑”。棺椁周围用木头垒起一圈墙，上面盖上顶板，就像一间房子似的。天子以下的诸侯、大夫、士也可用题凑。但一般不能用柏木，而用松木及杂木等。但经天子特许，诸侯王和重臣死后也可用黄肠题凑，如汉霍光死，汉宣帝“赐给梓宫、便房、黄肠题凑各一具”据目前已发表的资料，已在北京大葆台刘建墓、石家庄张耳墓、扬州刘胥墓等7座汉代王陵出土了“黄肠题凑”。\n\n刘胥的寝陵属帝王级的“黄肠题凑”式木椁墓，规模宏大，结构严谨，是全国罕见的大型汉代墓葬之一，距今已有两千多年的历史。广陵王墓中的“黄肠题凑”是就地取材，全部以金丝楠木为构件的，共有856块，每块题凑大小尺寸都不相同，四面企口高低错落有序，全凭榫卯相连。据专家透露，当初出土时连世上最薄的刀片都无法插入楠木结构的“黄肠题凑”式木椁，规模宏大， 结构严谨，南北长16.65米，东西宽14.28米， 面积约237平方米，折合木材约545立方米， 在迄今我国发现的同类木椁中最为完整，极为珍贵。"}}, {"title": "卢氏盐商住宅", "address": "扬州市广陵区康山街22号", "image": "", "rank": 18, "time": 1.5, "location": {"lat": 32.38960933602479, "lng": 119.45850422139286}, "feature": {"sight_features": "特色1 气派的盐商住宅，砖石木雕很漂亮，在古宅内的餐厅用餐别有风味。", "sight_content": "明清时期，政府把盐业垄断管理机构盐运使司衙署设在扬州，使扬州成为全国最大的食盐集散地。拥有盐业垄断地位的盐商和盐文化也就成了扬州的一大特色。富甲天下的盐商们聚集在扬州，大肆购屋买房，建造园林，卢氏盐商住宅即是其中的佼佼者。\n卢氏盐商始建于清光绪20年，是扬州现存规模最大的盐商住宅建筑，也是反映扬州盐文化的重要遗迹。住宅构筑考究、豪华气派，原前后共有九进建筑，200多处房间。园中的门楼、住宅楼、意园、藏书楼等，为保存完好的原有建筑。旧馆后有装修考究的藏书楼一座，保存得相当完好。藏书楼西侧有一架在扬州罕见的百余年古紫藤。临街朝南的大门气派而考究。门楣上的砖雕异常精美。\n像古时有讲究的房子一样，卢氏古宅一进一进的往里延伸，让人想起“庭院深深深几许”的词句。前厅是很大的一个厅堂，据说以前可容百席，叫“百宴厅”。而宅院后，还有一园林，叫“意园”。虽然非常小巧玲珑，但是像麻雀虽小却五脏俱全一样，假山、楼阁、碧水、游鱼、回廊等一应俱全。坐在回廊上凭栏，感受着湖面的微风，观赏着水中的游鱼，享受着温暖的阳光，也是很惬意的事情。\n有趣的是，这个“卢氏古宅”的正门入口处，两侧的廊房被开辟成一个小小的“扬州饮食文化博物馆”。橱窗里陈列着一道道扬州名菜的模型，还有详细的介绍，热爱美食的你，当然是赶紧多拍几张照片回去，虽只是菜式的模型，可也十分逼真，能过过眼瘾。\n而宅院里面，新推出的上、下午茶点，以卢氏菜谱中的蒸饺、汤包和五丁包等为主，游客在古宅中品尝淮扬特色茶点，别有一番风味。菜式都是扬州经典名菜和小吃，还可以真正坐在正厅的厅堂里用餐，感受一番以前主人的排场。\n经典菜式：\n大煮干丝\n大煮干丝又称鸡汁煮干丝，是一道既清爽，又有营养的佳肴，此菜鲜香扑鼻，火腿和开洋的鲜味渗入到极细的豆腐干丝中，丝丝入扣，然而不见一滴油花，没有一毫豆腥，乃是脍不厌细的代表作。\n狮子头\n淮扬菜中扬州狮子头是必点之物，汤比较有油，狮子头很入味，肉是嫩而不硬，微甜入口。\n淮扬包子\n淮扬包子以皮薄馅多而闻名，馅料有甜、咸两种。甜馅有细豆沙、枣泥、五仁、水晶、椰蓉等；咸馅有鲜肉、虾肉、蟹油、菜肉、干菜、豌豆、萝卜丝、香菇、荠菜等。菜馅用大酵面膨松吸卤，隐隐透出青菜的绿色；成馅用嫩酵面，裹住卤汁，使卤汁溢口。\n文思豆腐\n文思豆腐是扬州传统名菜，系清代乾隆年间扬州僧人文思和尚所创制。清人俞樾《茶香室丛钞》：“文思字熙甫，工诗，又善为豆腐羹甜浆粥。至今效其法者，谓之文思豆腐。”《调鼎集》上又称之为“什锦豆腐羹”。此菜选料极严，刀工精细，软嫩清醇，入口即化。"}}, {"title": "凤凰岛生态旅游区", "address": "扬州市生态科技新城凤凰岛路88号", "image": "", "rank": 19, "time": 3.5, "location": {"lat": 32.49678781102642, "lng": 119.50163587087795}, "feature": {"sight_features": "特色1 适合郊游的大公园", "sight_content": "扬州凤凰岛生态旅游区内的休闲性项目有凤凰阁、凤凰台( 喝花坊 ) 、瓷韵山庄、水岸咖啡吧、乡村烧烤、露营地等；参与性项目有：越野车、跑马场、丛林飞鼠、激光战船、动力伞和有游轮、画舫、快艇、摩托艇等组成的水上俱乐部。\n敕赐护国禅寺\n\n原寺位于壁虎岛附近，始建于清乾隆年间，为乾隆下江南巡游时御笔所赐。 2005 年秋在旅游区大门西侧之邵伯湖高岸上重建。占地 11.15 亩，内设山门殿 ( 天王殿 ) 、圆通宝殿、东西配殿、都天庙、关帝庙和凤凰塔等。\n归江十坝遗址\n清康乾时期建成，地处邵伯湖南部的湖口。通过十个大坝调节水位，集灌溉、防洪、通航褚多功能，被誉为中国古代水利史上和四川都江堰、广西灵渠以及新疆坎儿井齐名的四个伟大的人工水利枢纽工程之一。景区内现有古东湾坝遗址。\n瓷韵山庄\n山庄主人陆履俊，号抱一。原为扬州著名画家，后赴瓷都景德镇专研青花瓷艺创作，其《瑞雪图》获全国首届陶瓷艺术展金奖，被誉为 “ 当代中国青花王 ” 。山庄由古今青花瓷展厅、制陶坊、绘画室及两座小型炉窑和供游人自娱的瓷吧组成。\n聚凤岛\n聚凤岛陆地面积约 250 亩，在凤凰岛生态旅游区的八个岛中是最小、最具原生态韵味的湿地小岛。它的形状从空中鸟瞰，像一只脖子埋在翅膀之中的天鹅静卧在碧波之上。其河、塘、荡、滩等地貌俱全。岛上杂树林立、藤蔓婆娑、野草丰茂，是白鹭、野鸭等候鸟的常年栖息地。聚凤岛是江、淮之间，河湖相连之处一个典型的平原- 湖泊湿地的活标本，它还原了大自然的本来面貌，是动植物的天然伊甸园。"}}, {"title": "五亭桥", "address": "扬州市维扬区大虹桥路28号蜀岗瘦西湖风景区内", "image": "", "rank": 20, "time": 0.4, "location": {"lat": 32.40812869612742, "lng": 119.43283361342758}, "feature": {"sight_features": "", "sight_content": ""}}, {"title": "二十四桥", "address": "扬州市维扬区大虹桥路28号瘦西湖风景区内", "image": "", "rank": 21, "time": 2.0, "location": {"lat": 32.40812869612742, "lng": 119.43283361342758}, "feature": {"sight_features": "", "sight_content": ""}}, {"title": "吴道台府", "address": "扬州市广陵区泰州路45号(近古运河)", "image": "", "rank": 22, "time": 1.5, "location": {"lat": 32.40005037577306, "lng": 119.45927717286044}, "feature": {"sight_features": "", "sight_content": ""}}, {"title": "扬州双博馆", "address": "扬州市邗江区文昌西路468号", "image": "", "rank": 23, "time": 3.5, "location": {"lat": 32.39849288206203, "lng": 119.37834312702314}, "feature": {"sight_features": "", "sight_content": ""}}, {"title": "琼花观", "address": "扬州市广陵区文昌中路360号", "image": "", "rank": 24, "time": 1.0, "location": {"lat": 32.401206796989236, "lng": 119.45572742431568}, "feature": {"sight_features": "", "sight_content": ""}}, {"title": "唐城遗址", "address": "扬州市邗江区平山堂路3号(瘦西湖北门正对面)", "image": "", "rank": 25, "time": 1.5, "location": {"lat": 32.42379173398308, "lng": 119.4191227333101}, "feature": {"sight_features": "特色1 在仿唐建筑间漫步，参观唐代出土文物，还可登城楼观景。", "sight_content": "唐城遗址博物馆：扬州唐城遗址为全国重点文保单位，保存完好，城廓明晰。成象苑为隋炀帝成象殿，前立唐代城阙高大巍峨，后耸庑殿或延和阁，门道，门楣条石，上下千层石阶皆是唐代宫城旧制，几百件唐代出土文物，风采依旧。让您感受大唐文化的风采，领略盛唐扬州的繁荣景象。唐代扬州是当时中国仅次于京城长安和洛阳的第三大城市和最大的商业城市，其时手工业发达,商业繁华，文化艺术繁荣，人文荟萃,是全国最大的贸易市场和货物集散地，又是中外交通的著名港口和国际大都会。扬州唐城遗址是目前国内保存最为完好的古城遗址之一，1957年被江苏省人民政府公布为文物保护单位。1996年，国务院指定公布扬州城遗址为全国重点文物保护单位。\n\n唐城遗址博物馆特色:\n\n扬州唐城遗址景区设在扬州城北的蜀冈东峰、唐子城内的西南角，在蜀冈——瘦西湖风景区内，冈峦起伏，山水相连，古朴典雅、风光优美，面积约7000平方米，主要建筑为仿唐式建筑，有唐城平桥、唐式城墙、延和阁展厅、唐式回廊等，建筑面积约1000平方米。现辟有“明月扬州”主题陈列馆、崔致远史料陈列馆、江苏历史文化遗产保护成果展扬州展馆及唐代扬州文化艺术、对外交往展四 个展馆，展览面积约600平方米。\n\n\n唐代扬州城以蜀冈上下分为子城和罗城，蜀冈上为子城，亦称“衙城”或“牙城”，为官衙府署所在地；蜀冈下为罗城，是居民和工商业区。唐子城遗址面积约三平方公里，保较为完整，城墙四至明确，夯土城墙长约6850多米，高出地面5-10米。子城的四周土城、城河、角楼、城门、城内道路等，至今历历在目保存完好。唐城遗址具有极高的史学价值、考古价值和研究价值，是一份重要的历史文化遗产，在国内外具有极大的影响。唐城考古科研被列为国家重要科研课题，1986年起，对扬州唐城遗址进行了全面的考古勘探，其成果分别被评为一九九三年和“八五”期间十大考古新发现。\n分别从城池与行政区域、手工业与商业、文化艺术、对外往来等方面，详尽直观的介绍了唐代扬州城的城市规模、范围、布局、商业繁荣、手工业发达、文化昌盛、对外交往频繁，展示了唐代扬州的繁华景象。展出了唐纪年题名八角石柱、唐三绝碑、唐咸通十四年经幢、唐独木舟、唐代金银器、铜器、陶瓷器等数百件出土文物，反映了唐代丰富历史文化内涵。"}}, {"title": "馥园", "address": "扬州市广陵区东关街243号馥园（谢馥春内）", "image": "", "rank": 26, "time": 1.0, "location": {"lat": 32.40318069466446, "lng": 119.45268521119763}, "feature": {"sight_features": "", "sight_content": ""}}, {"title": "史可法纪念馆", "address": "扬州市广陵区丰乐上街9号", "image": "", "rank": 27, "time": 1.0, "location": {"lat": 32.406928788517725, "lng": 119.44670038278831}, "feature": {"sight_features": "", "sight_content": ""}}, {"title": "东门遗址", "address": "扬州市广陵区东关街与泰州路交会处", "image": "", "rank": 28, "time": 1.5, "location": {"lat": 32.403885896722024, "lng": 119.45821630369724}, "feature": {"sight_features": "", "sight_content": ""}}, {"title": "高旻寺", "address": "扬州市邗江区高旻寺路东端", "image": "", "rank": 29, "time": 1.5, "location": {"lat": 32.329988679245474, "lng": 119.41169128448719}, "feature": {"sight_features": "", "sight_content": ""}}, {"title": "四望亭", "address": "扬州市广陵区四望亭路螃蟹巷9号", "image": "", "rank": 30, "time": 0.5, "location": {"lat": 32.40440920663734, "lng": 119.4355056517331}, "feature": {"sight_features": "", "sight_content": ""}}, {"title": "中国扬州佛教文化博物馆", "address": "扬州市广陵区丰乐上街3号", "image": "", "rank": 31, "time": 1.5, "location": {"lat": 32.40683100429635, "lng": 119.44431283047166}, "feature": {"sight_features": "", "sight_content": ""}}, {"title": "东圈门历史街区", "address": "扬州市广陵区东圈门", "image": "", "rank": 32, "time": 2.5, "location": {"lat": 32.4010207169191, "lng": 119.45051010004934}, "feature": {"sight_features": "", "sight_content": ""}}, {"title": "普哈丁园", "address": "扬州市广陵区文昌中路167号", "image": "", "rank": 33, "time": 1.0, "location": {"lat": 32.40102846643969, "lng": 119.46149081323036}, "feature": {"sight_features": "", "sight_content": ""}}, {"title": "隋炀帝陵", "address": "扬州市邗江区槐泗镇槐二村隋炀西路102号", "image": "", "rank": 34, "time": 1.0, "location": {"lat": 32.468583663418066, "lng": 119.43465811324039}, "feature": {"sight_features": "", "sight_content": ""}}, {"title": "观音山", "address": "扬州市邗江区平山堂东路18号", "image": "", "rank": 35, "time": 1.5, "location": {"lat": 32.4257767885287, "lng": 119.42298342940884}, "feature": {"sight_features": "", "sight_content": ""}}, {"title": "盂城驿", "address": "扬州市高邮市南门外馆驿巷13号", "image": "", "rank": 36, "time": 1.0, "location": {"lat": 32.77667806970873, "lng": 119.44450010381455}, "feature": {"sight_features": "特色1 全国规模最大、保存最完好的古代驿站", "sight_content": "盂城驿在高邮市区南门大街馆驿巷内，始建于明洪武八年（1375年），但绝大部分建筑为清代重建。盂城驿始建于明洪武八年（1375年），位于高邮市南门外。盂城驿是目前全国规模最大、保存最完好的古代驿站。盂城，高邮的别称，取宋代高邮籍词人秦少游“吾乡如覆盂，地处扬楚脊”诗句而名之。\n\n驿原规模宏大，除驿站本身的牌楼、照壁、鼓楼、厅房、库房、廊房、马房等外，临里运河堤有迎饯宾客的皇华厅，驿内有秦邮公馆，驿北有驿丞宅等房屋。由于历经战火、水灾等破坏，现尚有息厅、敞厅、后厅、秦邮公馆门楼、驿丞宅及监房等建筑；驿站东南有驿马饮水地的遗址。在国内像这样大规模的古驿实属少见，对研究我国古代邮政史、交通史、水利史具有科学、艺术、历史和文物价值．高邮市的文物、规划部门已经对该驿进行规划保护，并举办“古盂城驿”史料展览！"}}, {"title": "东关古渡", "address": "扬州市广陵区泰州路（近东门遗址）", "image": "", "rank": 37, "time": 1.0, "location": {"lat": 32.4033714155924, "lng": 119.45881223238611}, "feature": {"sight_features": "", "sight_content": ""}}, {"title": "钓鱼台", "address": "扬州市邗江区大虹桥路28号瘦西湖风景区小金山内", "image": "", "rank": 38, "time": 2, "location": {"lat": 32.40812869612742, "lng": 119.43283361342758}, "feature": {"sight_features": "", "sight_content": ""}}, {"title": "白塔", "address": "扬州市邗江区扬子江北路405号瘦西湖内", "image": "", "rank": 39, "time": 0.25, "location": {"lat": 32.41523062219843, "lng": 119.42652045884587}, "feature": {"sight_features": "", "sight_content": ""}}, {"title": "熙春台", "address": "扬州市邗江区大虹桥路28号瘦西湖风景区内", "image": "", "rank": 40, "time": 0.75, "location": {"lat": 32.40812869612742, "lng": 119.43283361342758}, "feature": {"sight_features": "", "sight_content": ""}}, {"title": "凫庄", "address": "扬州市邗江区大虹桥路28号瘦西湖内", "image": "", "rank": 41, "time": 0.3, "location": {"lat": 32.40812869612742, "lng": 119.43283361342758}, "feature": {"sight_features": "", "sight_content": ""}}, {"title": "徐园", "address": "扬州市邗江区大虹桥路28号瘦西湖景区内", "image": "", "rank": 42, "time": 0.4, "location": {"lat": 32.40812869612742, "lng": 119.43283361342758}, "feature": {"sight_features": "", "sight_content": ""}}, {"title": "小金山", "address": "扬州市邗江区大虹桥路28号瘦西湖风景区内", "image": "", "rank": 43, "time": 0.75, "location": {"lat": 32.40812869612742, "lng": 119.43283361342758}, "feature": {"sight_features": "", "sight_content": ""}}, {"title": "长堤春柳", "address": "扬州市邗江区大虹桥路28号瘦西湖内，瘦西湖入口处至小金山的一条长堤。", "image": "", "rank": 44, "time": 2, "location": {"lat": 32.40812869612742, "lng": 119.43283361342758}, "feature": {"sight_features": "", "sight_content": ""}}, {"title": "扬州大学", "address": "扬州市邗江区大学南路88号（荷花池校区）", "image": "", "rank": 45, "time": 1.5, "location": {"lat": 32.387614965646286, "lng": 119.43568376703098}, "feature": {"sight_features": "", "sight_content": ""}}, {"title": "玲珑花界", "address": "扬州市邗江区大虹桥路28号瘦西湖内", "image": "", "rank": 46, "time": 0.25, "location": {"lat": 32.40812869612742, "lng": 119.43283361342758}, "feature": {"sight_features": "", "sight_content": ""}}, {"title": "瓜洲古渡", "address": "扬州市邗江区瓜州镇", "image": "", "rank": 47, "time": 1.5, "location": {"lat": 32.26327482262057, "lng": 119.39351641976508}, "feature": {"sight_features": "", "sight_content": ""}}, {"title": "仙鹤寺", "address": "扬州市广陵区南门街111号", "image": "", "rank": 48, "time": 0.5, "location": {"lat": 32.39589199534107, "lng": 119.44014596041444}, "feature": {"sight_features": "", "sight_content": ""}}, {"title": "二分明月楼", "address": "广陵路263号", "image": "", "rank": 49, "time": 1.0, "location": {"lat": 32.394459445741845, "lng": 119.45212094777797}, "feature": {"sight_features": "", "sight_content": ""}}, {"title": "皮市街", "address": "扬州市广陵区皮市街", "image": "", "rank": 50, "time": 1.5, "location": {"lat": 32.39684938879607, "lng": 119.45450989875629}, "feature": {"sight_features": "", "sight_content": ""}}, {"title": "长乐客栈", "address": "扬州市广陵区东关街357号", "image": "", "rank": 51, "time": 0.15000000000000002, "location": {"lat": 32.403396146322116, "lng": 119.44997072777707}, "feature": {"sight_features": "", "sight_content": ""}}, {"title": "陆琴脚艺", "address": "扬州市邗江区梅岭东路58号（近梅岭中学）", "image": "", "rank": 52, "time": 2, "location": {"lat": 32.41274988698416, "lng": 119.45614500881845}, "feature": {"sight_features": "", "sight_content": ""}}, {"title": "石塔", "address": "扬州市广陵区文昌中路", "image": "", "rank": 53, "time": 0.5, "location": {"lat": 32.40126436917365, "lng": 119.46137939549963}, "feature": {"sight_features": "", "sight_content": ""}}, {"title": "大虹桥", "address": "扬州市邗江区大虹桥路与柳湖路交会处（瘦西湖景区南门外）", "image": "", "rank": 54, "time": 0.25, "location": {"lat": 32.41523062219843, "lng": 119.42652045884587}, "feature": {"sight_features": "", "sight_content": ""}}, {"title": "马可波罗纪念馆", "address": "扬州市泰州路99-1号（近东关街）", "image": "", "rank": 55, "time": 1.5, "location": {"lat": 32.40422635017276, "lng": 119.45940895338045}, "feature": {"sight_features": "", "sight_content": ""}}, {"title": "瘦西湖新天地", "address": "江苏省扬州市邗江区念四桥路", "image": "", "rank": 56, "time": 3.0, "location": {"lat": 32.4080083401552, "lng": 119.42522794813233}, "feature": {"sight_features": "", "sight_content": ""}}, {"title": "盆景园", "address": "扬州市邗江区大虹桥路，瘦西湖路12号。", "image": "", "rank": 57, "time": 1.0, "location": {"lat": 32.40698620543796, "lng": 119.43511395208328}, "feature": {"sight_features": "", "sight_content": ""}}, {"title": "1912街区", "address": "扬州市广陵区南通东路", "image": "", "rank": 58, "time": 2.0, "location": {"lat": 32.39007673922725, "lng": 119.46035798799919}, "feature": {"sight_features": "", "sight_content": ""}}, {"title": "栖灵塔", "address": "扬州市维扬区平山堂东路8号大明寺内", "image": "", "rank": 59, "time": 1.0, "location": {"lat": 32.4257838442235, "lng": 119.41944458808959}, "feature": {"sight_features": "", "sight_content": ""}}, {"title": "瘦西湖游船", "address": "扬州市邗江区御码头（瘦西湖景区外，天宁寺西侧、西园饭店门口）", "image": "", "rank": 60, "time": 1.5, "location": {"lat": 32.40801017494126, "lng": 119.4432093340171}, "feature": {"sight_features": "特色1 两岸花柳全依水，一路楼台直到山。 特色2 坐着船上徜徉在水道之上，游览古城扬州的名。 特色3 扬州因“州界多水，水扬波”而得名，自古以来依水而建、缘水而兴、因水而美。", "sight_content": "瘦西湖园林群景色怡人，融南秀北雄为一体，有“园林之盛，甲于天下”之誉。隋唐时期，瘦西湖沿岸陆续建园。及至清代，由于康熙、乾隆两代帝王六度“南巡”，形成了“两岸花柳全依水，一路楼台直到山”的盛况。荡舟湖上，沿岸美景纷至沓来，俨然一幅次第展开的国画长卷。\n瘦西湖水上游览线，又称乾隆水上游览线，从清代乾隆皇帝登船的御码头开始，沿湖过冶春茶社、绿杨村、西园曲水，经大虹桥、瘦西湖南大门、长堤春柳，徐园、小金山、钓鱼台、白塔、五亭桥等，再向西至二十四桥景区（近瘦西湖西门）。瘦西湖水上游览线船上配备瘦西湖景区电子讲解，船行水上，瘦西湖景色风光如山水画卷般呈现眼前。游船行至瘦西湖二十四桥景区上船，可根据自身情况自由安排瘦西湖景区内岸上游览时间。"}}]}