{"cityName": "阳原", "days": 2, "cityImage": "", "spots": [{"title": "三马坊易源温泉", "address": "张家口市阳原县三马坊乡澡洗塘村", "image": "", "rank": 1, "time": 2, "location": {"lat": 40.214766098069944, "lng": 114.59489873138895}, "feature": {"sight_features": "特色1 集温泉、洗浴、餐饮、住宿等于一体", "sight_content": "阳原三马坊温泉度假村位于阳原三马坊乡澡洗塘村，东临东方古人类发源地泥河湾，南连阳原县母亲河“桑干河”，西靠许愿灵山“竹林寺”，北接旅游圣地“向光洞”，地段优越，周边环境幽雅静谧。\n阳原三马坊温泉度假村集温泉、洗浴、餐饮、住宿、会议、娱乐于一体，营业面积达18000余平米，内饰清新雅致，客房布置温馨舒适、宽敞通透；房内配以欧式风格家具、电脑、液晶电视、24小时热水、独立卫浴等设施，打造惬意休眠空间。度假村附设雾气氤氲的温泉池，还设有垂钓、儿童水上乐园和400余平米的气垫游乐场等休闲、娱乐配套；入住于此，宾客泡汤之余，可于休息大厅的藤椅上饮茶谈天，尽享愉悦的度假时光。"}}, {"title": "开阳古堡", "address": "张家口市阳原县266乡道(近开阳村)", "image": "", "rank": 2, "time": 3.0, "location": {"lat": 40.08182549740492, "lng": 114.33742997778178}, "feature": {"sight_features": "", "sight_content": ""}}, {"title": "泥河湾温泉生态城", "address": "张家口市阳原县三马坊乡西窑头村", "image": "", "rank": 3, "time": 2, "location": {"lat": 40.24965530402788, "lng": 114.5871193984861}, "feature": {"sight_features": "特色1 集娱乐、酒店、餐饮于一体的休闲度假苑 特色2 缤纷多彩的水世界 特色3 感受温泉的魅力", "sight_content": "泥河湾温泉生态城坐落于拥有“远古人类的故乡”之称的阳原县泥河湾，是一家集娱乐、酒店、餐饮于一体的休闲度假苑。泥河湾温泉生态城假日酒店，设施齐全，环境优美，酒店餐饮有自助餐、特色炒菜、各种小吃。\n泥河湾温泉生态城还有多个售卖区，为您提供生活休闲用品。泥河湾温泉生态城动物园有凶猛的东北虎、健硕的美洲豹、慵懒的狮子、可爱的狗熊、傲慢的孔雀、造型迥异的羊驼.....每天都由饲养员精心照料。"}}, {"title": "阳原宾馆温泉", "address": "张家口市阳原县三马坊澡洗塘村", "image": "", "rank": 4, "time": 3.0, "location": {"lat": 40.21954017776619, "lng": 114.59620821917832}, "feature": {"sight_features": "", "sight_content": ""}}, {"title": "康路温泉度假村", "address": "张家口市阳原县化稍营高速出口西行二公里彩门再南行2公里路东", "image": "", "rank": 5, "time": 2, "location": {"lat": 40.10958838873102, "lng": 114.15752413604322}, "feature": {"sight_features": "", "sight_content": ""}}, {"title": "泥河湾遗址", "address": "张家口市阳原县大田洼乡官厅村", "image": "", "rank": 6, "time": 2, "location": {"lat": 40.21299444598204, "lng": 114.73859967478577}, "feature": {"sight_features": "", "sight_content": ""}}, {"title": "阳原县图书馆", "address": "广场街附近", "image": "", "rank": 7, "time": 2, "location": {"lat": 39.91870066831391, "lng": 116.36785380818071}, "feature": {"sight_features": "", "sight_content": ""}}, {"title": "许家窑侯家窑遗址", "address": "河北省阳原县侯家窑村 075800", "image": "", "rank": 8, "time": 2, "location": {"lat": 40.11392182058497, "lng": 113.9942819001419}, "feature": {"sight_features": "", "sight_content": ""}}, {"title": "爱就推门", "address": "河北省张家口市阳原县西宁路", "image": "", "rank": 9, "time": 2, "location": {"lat": 40.12460350396748, "lng": 114.15611437040978}, "feature": {"sight_features": "", "sight_content": ""}}, {"title": "好运来儿童乐园", "address": "平安大街附近", "image": "", "rank": 10, "time": 2, "location": {"lat": 39.13280270919063, "lng": 117.18857410675409}, "feature": {"sight_features": "", "sight_content": ""}}, {"title": "大千艺术画廊", "address": "龙泉路", "image": "", "rank": 11, "time": 2, "location": {"lat": 37.69756886512517, "lng": 114.99052607114223}, "feature": {"sight_features": "", "sight_content": ""}}, {"title": "阳原温泉宾馆", "address": "三马坊乡澡洗塘村", "image": "", "rank": 12, "time": 2, "location": {"lat": 40.214766098069944, "lng": 114.59489873138895}, "feature": {"sight_features": "", "sight_content": ""}}, {"title": "泥河湾博物馆", "address": "张家口市阳原县政府街4号", "image": "", "rank": 13, "time": 2, "location": {"lat": 40.10958838873102, "lng": 114.15752413604322}, "feature": {"sight_features": "", "sight_content": ""}}, {"title": "青禾艺术", "address": "平安大街与西宁路交叉口北150米", "image": "", "rank": 14, "time": null, "location": {"lat": 40.116059340100456, "lng": 114.16323798790054}, "feature": {"sight_features": "", "sight_content": ""}}, {"title": "高墙乡林场", "address": "张家口市-阳原县-高墙乡南大庄科村", "image": "", "rank": 15, "time": 2, "location": {"lat": 40.32252029571467, "lng": 114.65718778880702}, "feature": {"sight_features": "", "sight_content": ""}}, {"title": "开阳村", "address": "河北省张家口市阳原县", "image": "", "rank": 16, "time": 2, "location": {"lat": 40.10958838873102, "lng": 114.15752413604322}, "feature": {"sight_features": "", "sight_content": ""}}]}