{"cityName": "阳高", "days": 2, "cityImage": "", "spots": [{"title": "云林寺", "address": "大同市阳高县龙泉镇新华南街文物巷24号西门南侧", "image": "", "rank": 1, "time": 1.5, "location": {"lat": 40.37025999950885, "lng": 113.75420026290087}, "feature": {"sight_features": "", "sight_content": ""}}, {"title": "采凉山", "address": "大同市阳高县长城乡堡子湾村西", "image": "", "rank": 2, "time": 3.0, "location": {"lat": 40.35876614800775, "lng": 113.58736956867375}, "feature": {"sight_features": "", "sight_content": ""}}, {"title": "九龙温泉度假村", "address": "大同市阳高县罗文皂镇孤山庙村东1号(紧邻夏孤线)", "image": "", "rank": 3, "time": 2, "location": {"lat": 40.41544896111498, "lng": 113.7825110743024}, "feature": {"sight_features": "特色1 品味温泉洗浴文化，体验水上乐园激情", "sight_content": "九龙温泉位于大同阳高城东，距市区65公里，是极具自然风景与现代文化休闲的特色酒店。占地六万多平方米，背靠云门山，毗邻明代古长城及奇异怪坡，周边郁郁葱葱，一片美丽的田园风光。\n走进度假村，欧式风格建筑，蓝天净土、绿树成荫，遍地瓜果桃李，亭台楼阁、绿色蔬园，真可谓典雅宁静的自然氧吧。这里有舒适宽敞，装饰考究的三星级标准客户及豪华套间；有环境优雅、设施一流的温泉浴、桑拿浴、木桶浴；有格调丰富的水上乐园，有尽享特色乡土美食的宴会厅；有一流音响设备的KTV；有功能 齐全的会议厅。\n九龙温泉为碳酸泉，水质达到GB1165-89医疗热矿化水标准，泉水出版孤山村东的深水井，井深174米，出水温度43度，含有多种矿物质，如偏硼酸、偏硅酸、游离二氧化碳、锶、铁、锂，氟等微量元素，经常洗温泉对高血压、心脏病、风湿症皮肤病、关节炎、神经衰弱、消化系统等疾病有显著的辅助治疗效果。"}}, {"title": "边墙五堡", "address": "大同市阳高县长城乡", "image": "", "rank": 4, "time": 4.0, "location": {"lat": 40.35876614800775, "lng": 113.58736956867375}, "feature": {"sight_features": "", "sight_content": ""}}, {"title": "许家窑人遗址", "address": "大同市阳高县古城镇许家窑村", "image": "", "rank": 5, "time": 1.0, "location": {"lat": 40.11436432473272, "lng": 113.9758331429681}, "feature": {"sight_features": "", "sight_content": ""}}, {"title": "采凉山古长城", "address": "大同市阳高县采凉山下", "image": "", "rank": 6, "time": 1.0, "location": {"lat": 40.26575894731202, "lng": 113.52838045541101}, "feature": {"sight_features": "", "sight_content": ""}}, {"title": "玉安生态度假岛", "address": "大同市阳高县王官屯镇重兴镇村东", "image": "", "rank": 7, "time": 2, "location": {"lat": 40.25389969343844, "lng": 113.65945163925296}, "feature": {"sight_features": "特色1 园区依托天然的环山映水、杏花烂漫的优美环境。 特色2 以旅游休闲度假为主题，采用自然风光、融进人文设计元素。 特色3 包含大型室内水上乐园、温泉别墅、冲关乐园及多项户外游乐项目。", "sight_content": "‍‍玉安生态度假岛位于大同市区东北部，距市区45公里距阳高县城15公里，邻近机场，火车站，高速公路起点。三维交通十分便利，旅游区内青山绿水，山水相映，独立的地理位置，优越的自然、人文景观，发展迅猛的无公害水果、花卉、水产品，为发展农业生态旅游观光莫定了坚定基地。‍‍\n‍‍室内水上乐园‍‍\n\n位于玉安生态岛西侧，占地逾10000平方米，投资逾8000万元。‍‍室内水上乐园项目包含海浪池、环流河、竞速滑梯、冲天回旋、螺旋滑梯、惊险大喇叭、儿童戏水池、大水寨等多个项目。‍‍‍‍‍‍‍‍‍‍\n\n\n‍‍‍‍‍‍‍‍‍‍玉安深井温泉‍‍‍‍\n温泉馆位于游泳馆侧，利用阳高天然温泉资源，建造北方温泉乐园。泉眼位于王官屯村，深1350米。‍‍项目包含儿童戏水池、水疗池、泡泡池、中药池、月季浴、桃花浴、桂花浴、牛奶浴、红酒浴、鱼疗池等多种泡池。‍‍‍‍‍‍‍‍‍‍‍‍\n新增马战表演，每日2场，9：30和17：30"}}, {"title": "古城堡墓群", "address": "大同市阳高县城东南30公里处", "image": "", "rank": 8, "time": 1.5, "location": {"lat": 40.36739184247229, "lng": 113.75541420332299}, "feature": {"sight_features": "", "sight_content": ""}}, {"title": "云门山", "address": "大同市阳高县龙泉镇乳头山村", "image": "", "rank": 9, "time": 4.5, "location": {"lat": 40.437406417359135, "lng": 113.74268284092344}, "feature": {"sight_features": "", "sight_content": ""}}, {"title": "阳高城墙", "address": "大同市阳高县龙泉镇新华南街128号-236号", "image": "", "rank": 10, "time": 2, "location": {"lat": 40.36483779482645, "lng": 113.75416335781561}, "feature": {"sight_features": "", "sight_content": ""}}, {"title": "阳光99旅游度假区", "address": "大同市阳高县罗文皂镇孤山村东", "image": "", "rank": 11, "time": 2, "location": {"lat": 40.42486926556959, "lng": 113.8190051003573}, "feature": {"sight_features": "", "sight_content": ""}}, {"title": "守口堡长城", "address": "大同市阳高县龙泉镇守口堡村", "image": "", "rank": 12, "time": 2, "location": {"lat": 40.42416106998381, "lng": 113.67608030998892}, "feature": {"sight_features": "", "sight_content": ""}}, {"title": "阳高县衙", "address": "大同市阳高县龙泉镇府前街10号", "image": "", "rank": 13, "time": 2, "location": {"lat": 40.372592274078954, "lng": 113.76121213657602}, "feature": {"sight_features": "", "sight_content": ""}}, {"title": "豪浴温泉山庄", "address": "大同市阳高县夏孤线", "image": "", "rank": 14, "time": 2, "location": {"lat": 40.41544896111498, "lng": 113.7825110743024}, "feature": {"sight_features": "", "sight_content": ""}}, {"title": "六棱山", "address": "大同市阳高县友宰镇", "image": "", "rank": 15, "time": 2, "location": {"lat": 39.96135939130292, "lng": 113.90577180344712}, "feature": {"sight_features": "", "sight_content": ""}}, {"title": "阳高怪坡", "address": "大同市阳高县罗文皂镇许家园村", "image": "", "rank": 16, "time": 2, "location": {"lat": 40.444280832528534, "lng": 113.84795125270365}, "feature": {"sight_features": "", "sight_content": ""}}, {"title": "阳高民居", "address": "大同市阳高县龙泉镇桥儿南", "image": "", "rank": 17, "time": 2, "location": {"lat": 40.36938549537809, "lng": 113.75888797139108}, "feature": {"sight_features": "", "sight_content": ""}}, {"title": "大泉山森林公园", "address": "大同市阳高县大白登镇大泉山村", "image": "", "rank": 18, "time": 2, "location": {"lat": 40.26474834188877, "lng": 113.78912613678972}, "feature": {"sight_features": "", "sight_content": ""}}, {"title": "神泉大峡谷", "address": "大同市阳高县东小村镇神泉堡村", "image": "", "rank": 19, "time": 2.0, "location": {"lat": 40.03708408217105, "lng": 113.918310988654}, "feature": {"sight_features": "", "sight_content": ""}}, {"title": "阳光99养生度假温泉", "address": "大同市阳高县013乡道", "image": "", "rank": 20, "time": 2, "location": {"lat": 39.93769800774016, "lng": 114.01648810487401}, "feature": {"sight_features": "", "sight_content": ""}}, {"title": "净慈寺", "address": "大同市阳高县北许屯乡夏家场村", "image": "", "rank": 21, "time": 0.75, "location": {"lat": 40.38744831807783, "lng": 113.82572924947252}, "feature": {"sight_features": "", "sight_content": ""}}, {"title": "阳高长城", "address": "大同市阳高县长城乡", "image": "", "rank": 22, "time": 2, "location": {"lat": 40.35876614800775, "lng": 113.58736956867375}, "feature": {"sight_features": "", "sight_content": ""}}, {"title": "龙混山", "address": "大同市阳高县王官屯镇康窑村", "image": "", "rank": 23, "time": 2, "location": {"lat": 40.266798641829155, "lng": 113.63946658652142}, "feature": {"sight_features": "", "sight_content": ""}}, {"title": "释迦寺", "address": "大同市阳高县友宰镇秋林村", "image": "", "rank": 24, "time": 2, "location": {"lat": 39.94419547868902, "lng": 113.9412781740345}, "feature": {"sight_features": "", "sight_content": ""}}, {"title": "青云寺", "address": "大同市阳高县罗文皂镇许家园村", "image": "", "rank": 25, "time": 2, "location": {"lat": 40.444280832528534, "lng": 113.84795125270365}, "feature": {"sight_features": "", "sight_content": ""}}, {"title": "小龙门", "address": "大同市阳高县友宰镇东册田村", "image": "", "rank": 26, "time": 2, "location": {"lat": 39.99528458984973, "lng": 113.92003066070534}, "feature": {"sight_features": "", "sight_content": ""}}, {"title": "南瓮城惨案遗址", "address": "大同市阳高县龙泉镇大南街12号", "image": "", "rank": 27, "time": 2, "location": {"lat": 40.365545378982496, "lng": 113.76266311586738}, "feature": {"sight_features": "", "sight_content": ""}}, {"title": "五龙圣母庙", "address": "大同市阳高县罗文皂镇孤山村", "image": "", "rank": 28, "time": 2, "location": {"lat": 40.42486926556959, "lng": 113.8190051003573}, "feature": {"sight_features": "", "sight_content": ""}}, {"title": "栖隐寺", "address": "大同市阳高县006乡道", "image": "", "rank": 29, "time": 2, "location": {"lat": 40.36739184247229, "lng": 113.75541420332299}, "feature": {"sight_features": "", "sight_content": ""}}, {"title": "悬云观", "address": "大同市阳高县龙泉镇乳头山村", "image": "", "rank": 30, "time": 2, "location": {"lat": 40.437406417359135, "lng": 113.74268284092344}, "feature": {"sight_features": "", "sight_content": ""}}, {"title": "甸顶山", "address": "大同市阳高县友宰镇", "image": "", "rank": 31, "time": 2, "location": {"lat": 39.96135939130292, "lng": 113.90577180344712}, "feature": {"sight_features": "", "sight_content": ""}}, {"title": "辽代砖塔", "address": "大同市阳高县狮子屯乡杨塔村", "image": "", "rank": 32, "time": 2, "location": {"lat": 40.221713446360425, "lng": 113.93953745827828}, "feature": {"sight_features": "", "sight_content": ""}}, {"title": "镇边堡长城", "address": "大同市阳高县长城乡镇边堡村", "image": "", "rank": 33, "time": 2, "location": {"lat": 40.400012248446856, "lng": 113.63267633290033}, "feature": {"sight_features": "", "sight_content": ""}}, {"title": "圣泉寺", "address": "大同市阳高县友宰镇西团堡村", "image": "", "rank": 34, "time": 2.0, "location": {"lat": 39.942829995005134, "lng": 113.87436537466498}, "feature": {"sight_features": "", "sight_content": ""}}, {"title": "神泉堡石桥", "address": "大同市阳高县东小村镇神泉堡村", "image": "", "rank": 35, "time": 2, "location": {"lat": 40.03708408217105, "lng": 113.918310988654}, "feature": {"sight_features": "", "sight_content": ""}}, {"title": "杏泉峪", "address": "大同市阳高县王官屯镇两家营村", "image": "", "rank": 36, "time": 2, "location": {"lat": 40.18284278034285, "lng": 113.683455166463}, "feature": {"sight_features": "", "sight_content": ""}}, {"title": "云门山温泉度假村", "address": "罗文皂镇孤山庙村(九龙温泉旁)", "image": "", "rank": 37, "time": 2, "location": {"lat": 40.42318270195767, "lng": 113.82567543827756}, "feature": {"sight_features": "", "sight_content": ""}}, {"title": "阳高县鹏程小店种猪繁育示范园区", "address": "阳高互通附近", "image": "", "rank": 38, "time": 2, "location": {"lat": 40.28703281247569, "lng": 113.77467421660961}, "feature": {"sight_features": "", "sight_content": ""}}, {"title": "颐景垂钓园", "address": "北园街", "image": "", "rank": 39, "time": 2, "location": {"lat": 37.83247186062273, "lng": 112.56428578971408}, "feature": {"sight_features": "", "sight_content": ""}}, {"title": "清王万邦墓", "address": "山西省阳高县阳高县西北 038100", "image": "", "rank": 40, "time": 2, "location": {"lat": 40.36739184247229, "lng": 113.75541420332299}, "feature": {"sight_features": "", "sight_content": ""}}, {"title": "胜利休闲度假村", "address": "孤山村夏孤线九龙温泉北侧400米(九龙温泉北侧400米)", "image": "", "rank": 41, "time": 2, "location": {"lat": 36.837357215237674, "lng": 115.70957013704259}, "feature": {"sight_features": "", "sight_content": ""}}, {"title": "大同火山群国家地质公园秋林峪园...", "address": "大同市阳高县", "image": "", "rank": 42, "time": 2.5, "location": {"lat": 40.36739184247229, "lng": 113.75541420332299}, "feature": {"sight_features": "", "sight_content": ""}}, {"title": "洪门寺遗址", "address": "大同市阳高县", "image": "", "rank": 43, "time": 2, "location": {"lat": 40.36739184247229, "lng": 113.75541420332299}, "feature": {"sight_features": "", "sight_content": ""}}, {"title": "小龙门旅游度假村", "address": "小龙门生态旅游园区附近", "image": "", "rank": 44, "time": 2, "location": {"lat": 39.99342271737466, "lng": 113.8761143943573}, "feature": {"sight_features": "", "sight_content": ""}}, {"title": "神泉古域火山温泉", "address": "大同市阳高县古城镇南侧一公里处", "image": "", "rank": 45, "time": null, "location": {"lat": 40.1354763444987, "lng": 113.96908928323337}, "feature": {"sight_features": "特色1 火山岩原石打造的神泉泡池 特色2 精品养生美食 特色3 大型休闲娱乐园区", "sight_content": "神泉古域坐落于大同市天镇县与阳高县的交界之处，分为滨湖休闲区、神泉养生度假区、绿色农业区、许家窑文化体验区。\n滨湖休闲区是集水上娱乐项目、垂钓、野营、烧烤等休闲服务功能于一体的大型休闲娱乐园区。山光水色，尽收眼底，为蜗居城市的朋友们提供放松休憩之所，尽情享受大自然的拥抱。\n神泉养生度假区各具特色的神泉共有83处（设有标准游泳池、金汤药泡池、桃花源仙谷泡池、火山神泉泡池、热带雨林泡池、玛雅文化动感水疗区、南亚风情区、儿童主题戏水区、凤凰阁温泉区、戏水休闲区、成人溶洞区、汤院区等），各种泡池形态各异、功能齐全，神泉泡池均采用大同火山群中的火山岩原石打造，火山岩含有三十多种矿物元素。可以有效的调节关节炎、风湿等身体问题。\n绿色农业区连续7年对土地进行全面连续改良，从未使用过无机肥，由果蔬采摘、日光温室、禽渔牧养殖、黑枸杞等药材种植区所组成，采用纯天然、无公害技术手段，供应绿色种植和生态养殖的农渔牧产品，打造精品养生美食。\n许家窑文化体验区包含许家窑景观大门文化、许家窑生活场景、丛林繁茂和溪水、人类发展历程长廊。利用遗址地形地貌挖掘许家窑人类文化，重现许家窑人生活场景，了解人类起源和发展，传播许家窑文化，让世人熟知这块人类文明进程中不可复制的净土。"}}, {"title": "八里台农场", "address": "202省道附近", "image": "", "rank": 46, "time": 2, "location": {"lat": 37.77792504283699, "lng": 114.12616671611477}, "feature": {"sight_features": "", "sight_content": ""}}, {"title": "坤圣水山庄", "address": "天大高速出口往北500米坤圣水山庄", "image": "", "rank": 47, "time": 2, "location": {"lat": 39.11561489646398, "lng": 121.81382132629886}, "feature": {"sight_features": "", "sight_content": ""}}, {"title": "日新大接杏采摘园", "address": "202省道东50米", "image": "", "rank": 48, "time": 2, "location": {"lat": 37.77792504283699, "lng": 114.12661586886976}, "feature": {"sight_features": "", "sight_content": ""}}, {"title": "大同赵武灵王墓", "address": "山西省灵丘县新华西街", "image": "", "rank": 49, "time": 2.5, "location": {"lat": 39.44370153640049, "lng": 114.21992052659685}, "feature": {"sight_features": "", "sight_content": ""}}, {"title": "北唐窑村", "address": "大同市-阳高县", "image": "", "rank": 50, "time": 2, "location": {"lat": 40.36739184247229, "lng": 113.75541420332299}, "feature": {"sight_features": "", "sight_content": ""}}, {"title": "滴滴水村", "address": "大同市-阳高县-阳西线", "image": "", "rank": 51, "time": 2, "location": {"lat": 40.10534742899343, "lng": 113.70420550003139}, "feature": {"sight_features": "", "sight_content": ""}}, {"title": "明代古堡", "address": "阳高县友宰镇大辛庄村", "image": "", "rank": 52, "time": 2, "location": {"lat": 39.98580553081259, "lng": 113.88442676827519}, "feature": {"sight_features": "", "sight_content": ""}}, {"title": "高山屯古戏台", "address": "阳高县大白登镇高山屯", "image": "", "rank": 53, "time": 2, "location": {"lat": 40.28343343570859, "lng": 113.82594563599868}, "feature": {"sight_features": "", "sight_content": ""}}, {"title": "谢家屯村龙王庙", "address": "阳高县龙泉镇谢家屯村", "image": "", "rank": 54, "time": 2, "location": {"lat": 40.42081545746184, "lng": 113.78431997504003}, "feature": {"sight_features": "", "sight_content": ""}}, {"title": "李培仁烈士故居遗址纪念碑", "address": "阳高县培仁学校", "image": "", "rank": 55, "time": 2, "location": {"lat": 40.369011595052065, "lng": 113.75905260743512}, "feature": {"sight_features": "", "sight_content": ""}}, {"title": "城隍庙", "address": "阳高县正门堡村", "image": "", "rank": 56, "time": null, "location": {"lat": 40.034552102216956, "lng": 113.55018019127274}, "feature": {"sight_features": "", "sight_content": ""}}, {"title": "土长城", "address": "大同市阳高县长城乡", "image": "", "rank": 57, "time": 2, "location": {"lat": 40.35876614800775, "lng": 113.58736956867375}, "feature": {"sight_features": "", "sight_content": ""}}]}