{"cityName": "阳曲", "days": 2, "cityImage": "", "spots": [{"title": "汾河二库国家水利风景区", "address": "太原市阳曲县汾河二库景区", "image": "", "rank": 1, "time": 2, "location": {"lat": 38.02759946057478, "lng": 112.42682525881366}, "feature": {"sight_features": "", "sight_content": ""}}, {"title": "玛雅奇迹乐园沙雕馆", "address": "太原市阳曲县西凌井韩庄", "image": "", "rank": 2, "time": 2, "location": {"lat": 38.06462081944815, "lng": 112.67940895159992}, "feature": {"sight_features": "", "sight_content": ""}}, {"title": "青龙古镇", "address": "太原市阳曲县侯村乡青龙镇村", "image": "", "rank": 3, "time": 2, "location": {"lat": 38.031412888039206, "lng": 112.63764257826959}, "feature": {"sight_features": "特色1 全国传统古村落，山西省十大新锐景区之一。 特色2 新春灯会1.28-2.25灯展、民俗活动等你来", "sight_content": "三晋首邑、古道遗风，青龙古镇！\n自古山西就是中原屏障，太原是山西要地，青龙古镇是太原北寨门户，咽喉要道，《史记》、《山西通志》、清康熙《阳曲县志》、清雍正三十一年《重修龙王庙碑记》，均有记载“离城（太原）五十里许，曰青龙镇”。\n青龙古镇，原名青蒿嘴，“以其地产青蒿”而得名，于春秋时期初创，明清初具规模，康乾之后达到辉煌，是一处集军事重镇、商贸集镇、农耕老镇、民俗名镇于一体的历史文化古镇。\n古镇位于太原城北十八公里、阳曲县城南四公里处，坐落在太原通往大同、内蒙古的交通要道左侧，随着明清之际晋商的崛起和鼎盛，翻开了全新的一页。明代万历年间，原居住在青蒿嘴以北两公里处王家庄的王氏先人，在生意日益红火、字号不断增多，秉承“官道通，百业兴”的古训，合族迁居紧邻纵贯三晋南北千古驿道的青蒿嘴，买房置地，大兴土木，广开店铺，再图发展。清嘉庆年间，村中王氏族人王绳中（出生于乾隆八年），为大清捐银百万两，获皇家偿赐 “百万绅中”匾额一块和绣有“青龙”图案的大旗一面，示意满汉一家，从此菁蒿嘴便更名为“青龙镇”；王家成为当地官宦云集（三——五品官员多达130多位），商铺遍布全国各地的官商富贾，发迹后的王家便在家乡依其南北5华里上下起伏、左右弯曲的地形，仿北京颐和园昆明湖东文西武构筑手法，东建文昌祠、西设龙王庙，北筑凤头寨，形成东文西武、南龙北凤、龙凤呈祥的龙状总体布局。\n青龙古镇历经三百余年，至清道光年间，已经变为形如巨龙、构建雄伟、店铺林立、客栈遍布、商贾云集、百业俱兴的商贸集镇，古镇内堡寨相连、地道相通、庭院重深、栋宇连绵、亭台相望、楼阁高耸，成为历史上闻名北方横扼太原南北的军事重镇。"}}, {"title": "柳林河", "address": "太原市阳曲县", "image": "", "rank": 4, "time": 1.5, "location": {"lat": 38.06462081944815, "lng": 112.67940895159992}, "feature": {"sight_features": "", "sight_content": ""}}, {"title": "青草坡乡村庄园", "address": "太原市阳曲县黄寨镇上安村", "image": "", "rank": 5, "time": 2, "location": {"lat": 38.114374158396025, "lng": 112.67203871421275}, "feature": {"sight_features": "", "sight_content": ""}}, {"title": "悬泉寺", "address": "太原市阳曲县西凌井乡官山", "image": "", "rank": 6, "time": 1.0, "location": {"lat": 38.14226574683987, "lng": 112.42866355480251}, "feature": {"sight_features": "", "sight_content": ""}}, {"title": "板寺山圣母堂圣地", "address": "太原市阳曲县", "image": "", "rank": 7, "time": 2, "location": {"lat": 38.06462081944815, "lng": 112.67940895159992}, "feature": {"sight_features": "", "sight_content": ""}}, {"title": "开化古寺", "address": "山西省太原市阳曲县开花古寺(阳曲县高村乡辛庄小学校西北)", "image": "", "rank": 8, "time": 2.5, "location": {"lat": 38.19467335791799, "lng": 112.70660232933689}, "feature": {"sight_features": "", "sight_content": ""}}, {"title": "水蜜桃采摘", "address": "黄寨镇碧山村", "image": "", "rank": 9, "time": 2, "location": {"lat": 38.10554297287935, "lng": 112.6432436927854}, "feature": {"sight_features": "", "sight_content": ""}}, {"title": "阳曲县图书馆", "address": "商贸新街148号", "image": "", "rank": 10, "time": 2, "location": {"lat": 38.061363723663646, "lng": 112.67716240540086}, "feature": {"sight_features": "", "sight_content": ""}}, {"title": "阳曲县农家乐绿色产品示范基地", "address": "圪针沟小学附近", "image": "", "rank": 11, "time": 2, "location": {"lat": 38.107105230702345, "lng": 113.3734471439344}, "feature": {"sight_features": "", "sight_content": ""}}, {"title": "兴华剧场", "address": "013乡道附近", "image": "", "rank": 12, "time": 2, "location": {"lat": 40.115696897150926, "lng": 116.62995365726826}, "feature": {"sight_features": "", "sight_content": ""}}, {"title": "西沟果岭(邓家坪农业示范园)", "address": "泥屯镇西沟村北2公里处", "image": "", "rank": 13, "time": 2, "location": {"lat": 38.128098563610195, "lng": 112.64497735145353}, "feature": {"sight_features": "", "sight_content": ""}}, {"title": "支前纪念馆", "address": "侯村乡店子底村", "image": "", "rank": 14, "time": 2, "location": {"lat": 37.9773208390806, "lng": 112.69798492680003}, "feature": {"sight_features": "", "sight_content": ""}}, {"title": "兴国寺", "address": "南窑街与正大街交叉口东北100米", "image": "", "rank": 15, "time": 1.0, "location": {"lat": 38.058672831178086, "lng": 112.5468710702162}, "feature": {"sight_features": "", "sight_content": ""}}, {"title": "天才宝贝游乐园", "address": "文明街12号", "image": "", "rank": 16, "time": 2, "location": {"lat": 37.94356845580007, "lng": 112.56757270035475}, "feature": {"sight_features": "", "sight_content": ""}}, {"title": "北家庄能仁寺", "address": "山西省太原市阳曲县", "image": "", "rank": 17, "time": 2, "location": {"lat": 38.06462081944815, "lng": 112.67940895159992}, "feature": {"sight_features": "", "sight_content": ""}}, {"title": "思萌特儿童主题乐园（阳曲店）", "address": "新阳西大街新阳广场星宇购物中心三层", "image": "", "rank": 18, "time": 2, "location": {"lat": 38.065819945865506, "lng": 112.68146627692973}, "feature": {"sight_features": "", "sight_content": ""}}, {"title": "辰鑫农家生态园", "address": "S50平临高速", "image": "", "rank": 19, "time": 2, "location": {"lat": 38.047273815687824, "lng": 112.55533849795326}, "feature": {"sight_features": "", "sight_content": ""}}, {"title": "话剧院", "address": "东北街", "image": "", "rank": 20, "time": 1.5, "location": {"lat": 40.14901503662648, "lng": 116.15205917282631}, "feature": {"sight_features": "", "sight_content": ""}}, {"title": "龙王沟生态农庄", "address": "黄寨村阳曲县市容环卫局东北100米", "image": "", "rank": 21, "time": 2, "location": {"lat": 38.074293652662476, "lng": 112.67300361560171}, "feature": {"sight_features": "", "sight_content": ""}}, {"title": "梁山农场", "address": "北五公里城晋驿村(城晋驿村)", "image": "", "rank": 22, "time": 3.5, "location": {"lat": 38.09763677890076, "lng": 112.72028027128621}, "feature": {"sight_features": "", "sight_content": ""}}, {"title": "圣母天主教堂", "address": "山西省太原市迎泽区解放路367号", "image": "", "rank": 23, "time": 2, "location": {"lat": 37.8924634375546, "lng": 112.5688951398739}, "feature": {"sight_features": "", "sight_content": ""}}, {"title": "阳曲县步行街", "address": "山西省阳曲县新安东街", "image": "", "rank": 24, "time": 2, "location": {"lat": 38.0674720821419, "lng": 112.68822317556892}, "feature": {"sight_features": "", "sight_content": ""}}, {"title": "青草坡莱芠小镇", "address": "太原市阳曲县黄寨镇上安村", "image": "", "rank": 25, "time": 2, "location": {"lat": 38.114374158396025, "lng": 112.67203871421275}, "feature": {"sight_features": "", "sight_content": ""}}, {"title": "不二寺", "address": "中国山西省太原市阳曲县 ‎", "image": "", "rank": 26, "time": 2, "location": {"lat": 38.06462081944815, "lng": 112.67940895159992}, "feature": {"sight_features": "", "sight_content": ""}}]}