{"cityName": "阳山", "days": 2, "cityImage": "", "spots": [{"title": "广东第一峰", "address": "清远市阳山县称架瑶族乡南岭自然保护区内", "image": "", "rank": 1, "time": 5.5, "location": {"lat": 24.935847182531468, "lng": 112.72551338960793}, "feature": {"sight_features": "特色1 拥有天然温泉 特色2 一幅纯天然的水墨画", "sight_content": "广东第一峰是广东的最高峰之一，主峰石坑崆海拔1902米，这里原始森林茂密，高山峡谷、山泉飞瀑，共同勾画了一幅奇秀的山水画。\n这里的璀璨星空与日出日落更是吸引了无数游客前往。\n整个风景区主要分为石坑崆游览区、太平洞瑶寨、秤架大河谷、天泉瀑布、天泉高山温泉和第一峰漂流等，除了饱览自然美景，还能泡温泉、玩漂流，晚上则可围坐篝火四周，观赏瑶族风情舞蹈，或是与他们一起载歌载舞。"}}, {"title": "贤令山", "address": "清远市阳山县陵园路16号", "image": "", "rank": 2, "time": 1.0, "location": {"lat": 24.48633626887974, "lng": 112.65237119907647}, "feature": {"sight_features": "", "sight_content": ""}}, {"title": "神峰关生态旅游度假区", "address": "清远市阳山县阳城镇畔水村岩心", "image": "", "rank": 3, "time": 2, "location": {"lat": 24.480447012206323, "lng": 112.57094270165913}, "feature": {"sight_features": "特色1 由罕见的黄腊钟乳石构造而成的地下溶洞，如游仙境！ 特色2 游览天然玉面观音的观音洞、百米飞瀑大瀑布、200多米长的绝壁空中栈道！", "sight_content": "‍\n清远神峰关生态旅游度假区座‍落于阳山县城西8公里的清连高速公路旁，是阳山国家地质公园的核心景区。度假区以地心探险、七星营地为主题，目前对游客开放的项目有：神笔仙洞、蜂蛹石林、裂谷漂流和神农山庄餐厅。\n‍\n神笔仙洞景点，是由罕见的黄腊钟乳石构造而成的地下溶洞，经高科技灯光技术打造出如梦如幻的场景，人入其中，如游仙境。全程游玩约需一小时。\n‍\n蜂蛹石林景点，由四大园林石之一‍的英石组成，成片蛹巢状的英石构成一幅百蛹成蜂、展翅离巢后的独特石林奇观。有天然玉面观音的观音洞、百米飞瀑大瀑布、200多米长的绝壁空中栈道。\n\n‍‍\n裂谷漂流，为目‍前世界最长的地心溶洞漂流（地心漂流的后半程）之一，奇特之处在于眨眼之间通过80多米的山洞，在此，游客可体验如飞箭洞穿山峰的感觉，还可在百米高的瀑布下戏水。游程约需一小时。\n神农山庄餐厅，采用当地原生态有机蔬菜为主要原材料烹饪，天珍食材，吃货首选！\n‍‍\n二期将陆续开放的还有阳山关古驿道有‍氧登山运动、帐篷露营、地心徒步探险、地心漂流、连江画廊游船观光、汽车营地、梯田观光、农家乐民宿、石窝汤泉度假酒店、天际无边泳池、90度攀登项目等。"}}, {"title": "神笔山生态旅游风景区", "address": "清远市阳山县阳城镇畔水管理区领头堂", "image": "", "rank": 4, "time": 2, "location": {"lat": 24.47712053787858, "lng": 112.64460435352107}, "feature": {"sight_features": "", "sight_content": ""}}, {"title": "北山寺", "address": "广东省清远市阳山县北山古寺(386县道北)", "image": "", "rank": 5, "time": 1.0, "location": {"lat": 24.490659123868397, "lng": 112.6552695072441}, "feature": {"sight_features": "", "sight_content": ""}}, {"title": "小江银杏园", "address": "清远市阳山县小江镇茶山村", "image": "", "rank": 6, "time": 2, "location": {"lat": 24.635829413942446, "lng": 112.58329219977213}, "feature": {"sight_features": "", "sight_content": ""}}, {"title": "鸣翠谷山谷漂流", "address": "清远市阳山县畔水村管理区山口围", "image": "", "rank": 7, "time": 2, "location": {"lat": 24.478886403179633, "lng": 112.60674046008448}, "feature": {"sight_features": "", "sight_content": ""}}, {"title": "广东南岭国家级自然保护区", "address": "广东清远阳山县323国道广东南岭国家级自然保护区", "image": "", "rank": 8, "time": 2, "location": {"lat": 24.761317490555783, "lng": 112.9051452966151}, "feature": {"sight_features": "", "sight_content": ""}}, {"title": "石林瀑布", "address": "清远市阳山县X830神笔洞旅游度假区地心漂流西南侧（神峰关生态旅游度假区）", "image": "", "rank": 9, "time": 7.5, "location": {"lat": 24.470943635879568, "lng": 112.64751954084923}, "feature": {"sight_features": "", "sight_content": ""}}, {"title": "地心漂流", "address": "清远市阳山县阳城镇畔水管理区领头堂", "image": "", "rank": 10, "time": 2, "location": {"lat": 24.47712053787858, "lng": 112.64460435352107}, "feature": {"sight_features": "", "sight_content": ""}}, {"title": "峰云户外皮划艇基地", "address": "清远市阳山县阳城镇水口五爱村民委员会码头", "image": "", "rank": 11, "time": 2, "location": {"lat": 24.40779144252384, "lng": 112.71947717183731}, "feature": {"sight_features": "", "sight_content": ""}}, {"title": "龙凤温泉", "address": "石螺镇龙凤温泉", "image": "", "rank": 12, "time": 2, "location": {"lat": 46.567678067125456, "lng": 125.14047256094527}, "feature": {"sight_features": "", "sight_content": ""}}, {"title": "清远市食用菌菌种生产供应基地", "address": "水口镇S260附近", "image": "", "rank": 13, "time": 5.0, "location": {"lat": 25.706951797685647, "lng": 118.45242387629925}, "feature": {"sight_features": "", "sight_content": ""}}, {"title": "阳山县省级现代农业蔬菜种植园区", "address": "S262附近", "image": "", "rank": 14, "time": 2, "location": {"lat": 35.02583793520684, "lng": 115.10203033651838}, "feature": {"sight_features": "", "sight_content": ""}}, {"title": "凯记果场鸡", "address": "松荣路附近", "image": "", "rank": 15, "time": 2, "location": {"lat": 24.489506789720814, "lng": 112.64420839482528}, "feature": {"sight_features": "", "sight_content": ""}}, {"title": "韩愈纪念馆", "address": "阳山大道北贤令山牌坊旁(386县道附近)", "image": "", "rank": 16, "time": 2, "location": {"lat": 24.489557844003937, "lng": 112.65293736959853}, "feature": {"sight_features": "", "sight_content": ""}}, {"title": "岭背镇荷花观赏基地", "address": "260省道莲塘村莲花公交站岭背桥南往北左手边", "image": "", "rank": 17, "time": 2, "location": {"lat": 27.14816972816354, "lng": 113.89005773404463}, "feature": {"sight_features": "", "sight_content": ""}}, {"title": "龙宝洞", "address": "云南省蒙自市期路白乡 661107", "image": "", "rank": 18, "time": 2, "location": {"lat": 23.202597823594825, "lng": 103.53203840173309}, "feature": {"sight_features": "", "sight_content": ""}}, {"title": "石坑崆景区", "address": "广东省阳山县秤架镇 513100", "image": "", "rank": 19, "time": 2, "location": {"lat": 24.81943474222456, "lng": 112.87871409428155}, "feature": {"sight_features": "", "sight_content": ""}}, {"title": "智尚儿童乐园", "address": "阳城镇北门路107号城市广场2层", "image": "", "rank": 20, "time": 2, "location": {"lat": 24.48256103454846, "lng": 112.6501112079396}, "feature": {"sight_features": "", "sight_content": ""}}, {"title": "秤架影剧院", "address": "清远市阳山县", "image": "", "rank": 21, "time": 2, "location": {"lat": 24.470943635879568, "lng": 112.64751954084923}, "feature": {"sight_features": "", "sight_content": ""}}, {"title": "影院牛杂店", "address": "广东省清远市阳山县阳城大街32号3楼", "image": "", "rank": 22, "time": 2, "location": {"lat": 24.482032199706804, "lng": 112.65126224092477}, "feature": {"sight_features": "", "sight_content": ""}}, {"title": "大江古庙", "address": "260省道附近", "image": "", "rank": 23, "time": 2, "location": {"lat": 36.10888534051102, "lng": 115.51603658929373}, "feature": {"sight_features": "", "sight_content": ""}}, {"title": "阳山县天府园", "address": "广东省清远市阳山县S114附近", "image": "", "rank": 24, "time": 2, "location": {"lat": 24.470943635879568, "lng": 112.64751954084923}, "feature": {"sight_features": "", "sight_content": ""}}, {"title": "石门古庙", "address": "广东省清远市阳山县X830", "image": "", "rank": 25, "time": 1.0, "location": {"lat": 24.470943635879568, "lng": 112.64751954084923}, "feature": {"sight_features": "", "sight_content": ""}}, {"title": "阳山人民武装起义纪念馆", "address": "934乡道阳山人民武装起义纪念馆附近", "image": "", "rank": 26, "time": 1.0, "location": {"lat": 24.688599910070437, "lng": 112.62332763449021}, "feature": {"sight_features": "", "sight_content": ""}}, {"title": "学发公祠", "address": "广东省清远市阳山县七拱镇和平村委会大禾岗村", "image": "", "rank": 27, "time": 2, "location": {"lat": 24.262006042498445, "lng": 112.60210552075637}, "feature": {"sight_features": "", "sight_content": ""}}, {"title": "观音古廟", "address": "广东省清远市阳山县朝阳路", "image": "", "rank": 28, "time": 2, "location": {"lat": 24.470943635879568, "lng": 112.64751954084923}, "feature": {"sight_features": "", "sight_content": ""}}, {"title": "水口连江画廊", "address": "城水口镇", "image": "", "rank": 29, "time": 2, "location": {"lat": 25.706951797685647, "lng": 118.45242387629925}, "feature": {"sight_features": "", "sight_content": ""}}, {"title": "宝德齐画廊", "address": "连江大道117号", "image": "", "rank": 30, "time": 2, "location": {"lat": 24.477148129403133, "lng": 112.6406358185421}, "feature": {"sight_features": "", "sight_content": ""}}, {"title": "高雅画廊", "address": "阳城镇景龙新街28号", "image": "", "rank": 31, "time": 2, "location": {"lat": 24.47687500211588, "lng": 112.64264559446457}, "feature": {"sight_features": "", "sight_content": ""}}, {"title": "阳山县图书馆", "address": "沿江二路(近花溪船闸)", "image": "", "rank": 32, "time": 2, "location": {"lat": 26.415879456429906, "lng": 106.67644077730033}, "feature": {"sight_features": "", "sight_content": ""}}, {"title": "阳山县阳禺粤乐社", "address": "北门路附近", "image": "", "rank": 33, "time": null, "location": {"lat": 36.0941829338393, "lng": 111.45868830635577}, "feature": {"sight_features": "", "sight_content": ""}}, {"title": "清远羊角山水度假森林", "address": "广东省佛冈县羊角山省级森林公园", "image": "", "rank": 34, "time": 5.0, "location": {"lat": 23.835974583902086, "lng": 113.57884570016752}, "feature": {"sight_features": "", "sight_content": ""}}]}