{"cityName": "阳城", "days": "", "cityImage": "", "spots": [{"title": "海会寺", "address": "晋城市阳城县北留镇大桥村海会寺景区管理处", "image": "", "rank": 1, "time": 1.0, "location": {"lat": 35.50684193336167, "lng": 112.57323903185058}, "feature": {"sight_features": "", "sight_content": ""}}, {"title": "寻梦剧场", "address": "晋城市阳城县北留镇皇城村（皇城相府景区出口10米处）", "image": "", "rank": 2, "time": 2, "location": {"lat": 35.52027462945718, "lng": 112.58965586507946}, "feature": {"sight_features": "", "sight_content": ""}}, {"title": "相府庄园春秋楼", "address": "晋城市阳城县相府庄园内", "image": "", "rank": 3, "time": 2, "location": {"lat": 35.53194390157827, "lng": 112.58418183384414}, "feature": {"sight_features": "", "sight_content": ""}}, {"title": "蜞河风景区", "address": "新阳西街与新阳东街交叉口", "image": "", "rank": 4, "time": 2, "location": {"lat": 35.49229083367111, "lng": 112.42027020133781}, "feature": {"sight_features": "", "sight_content": ""}}, {"title": "东坡头森林公园", "address": "山西省晋城市阳城县", "image": "", "rank": 5, "time": 2, "location": {"lat": 35.492181320425026, "lng": 112.42145378711842}, "feature": {"sight_features": "", "sight_content": ""}}, {"title": "智和农庄", "address": "西河乡西峰村", "image": "", "rank": 6, "time": 2, "location": {"lat": 37.28575504354557, "lng": 111.78112592171735}, "feature": {"sight_features": "", "sight_content": ""}}, {"title": "晋豫边抗日纪念馆", "address": "盘亭南路", "image": "", "rank": 7, "time": 2, "location": {"lat": 27.8435429086031, "lng": 116.770155242178}, "feature": {"sight_features": "", "sight_content": ""}}, {"title": "蔡节宽胜农家乐", "address": "蔡节村27号(近006乡道)", "image": "", "rank": 8, "time": 2, "location": {"lat": 35.3521049275898, "lng": 112.56823699727937}, "feature": {"sight_features": "", "sight_content": ""}}, {"title": "阳城中寺毛国农家乐", "address": "中寺村9号", "image": "", "rank": 9, "time": 2, "location": {"lat": 35.354701580730975, "lng": 112.13528697877386}, "feature": {"sight_features": "", "sight_content": ""}}, {"title": "阳城皇城相府窦艳芳农家乐", "address": "上庄村B区03号(近003乡道)", "image": "", "rank": 10, "time": 2, "location": {"lat": 35.215855075521475, "lng": 113.07461926918968}, "feature": {"sight_features": "", "sight_content": ""}}, {"title": "阳城磨滩之利农家乐", "address": "磨滩村67号", "image": "", "rank": 11, "time": 2, "location": {"lat": 35.341072929197175, "lng": 112.60034198705323}, "feature": {"sight_features": "", "sight_content": ""}}, {"title": "阳城磨滩战兵农家乐", "address": "磨滩村48号(近006乡道)", "image": "", "rank": 12, "time": 2, "location": {"lat": 35.341072929197175, "lng": 112.60034198705323}, "feature": {"sight_features": "", "sight_content": ""}}, {"title": "阳城磨滩秋白农家乐", "address": "磨滩村41号(近006乡道)", "image": "", "rank": 13, "time": 2, "location": {"lat": 35.341072929197175, "lng": 112.60034198705323}, "feature": {"sight_features": "", "sight_content": ""}}, {"title": "阳城泥河元引顺农家乐", "address": "阳城泥河村9号(近蟒河大道)", "image": "", "rank": 14, "time": 2, "location": {"lat": 35.38129855124955, "lng": 112.44379620550824}, "feature": {"sight_features": "", "sight_content": ""}}, {"title": "阳城磨滩樊向前农家乐", "address": "阳城磨滩村20号(近006乡道)", "image": "", "rank": 15, "time": 2, "location": {"lat": 35.34195490903416, "lng": 112.5990939712082}, "feature": {"sight_features": "", "sight_content": ""}}, {"title": "世纪花园小区1205", "address": "北留镇皇城村世纪花园小区1205号", "image": "", "rank": 16, "time": 2, "location": {"lat": 35.52543871285127, "lng": 112.59237168158539}, "feature": {"sight_features": "", "sight_content": ""}}, {"title": "金圪坨农家乐05号", "address": "北留镇郭峪村郭峪新区入口左侧第一排第三栋05号", "image": "", "rank": 17, "time": 2, "location": {"lat": 34.79824979654108, "lng": 112.177460086873}, "feature": {"sight_features": "", "sight_content": ""}}, {"title": "农家书屋", "address": "阳云线西50米妇女之家附近", "image": "", "rank": 18, "time": 2, "location": {"lat": 35.52356935475345, "lng": 112.3005928964148}, "feature": {"sight_features": "", "sight_content": ""}}, {"title": "北冬虫夏草采摘棚", "address": "相府庄园内", "image": "", "rank": 19, "time": 2, "location": {"lat": 35.53194390157827, "lng": 112.58418183384414}, "feature": {"sight_features": "", "sight_content": ""}}, {"title": "快乐魔方作文", "address": "凤城镇南关大千建材院内二楼", "image": "", "rank": 20, "time": 2, "location": {"lat": 43.869873025193, "lng": 125.35660981703178}, "feature": {"sight_features": "", "sight_content": ""}}, {"title": "阳南纪念亭", "address": "山西省晋城市阳城县璧索线", "image": "", "rank": 21, "time": 2, "location": {"lat": 35.42755322866404, "lng": 112.29473739345653}, "feature": {"sight_features": "", "sight_content": ""}}, {"title": "迪斯科游乐场", "address": "骏马岭森林公园", "image": "", "rank": 22, "time": 2, "location": {"lat": 35.48825629001025, "lng": 112.41828241114261}, "feature": {"sight_features": "", "sight_content": ""}}, {"title": "孔圣庙", "address": "东华路与南城东街交叉口西150米", "image": "", "rank": 23, "time": 1.5, "location": {"lat": 35.48541916230604, "lng": 112.43794729880733}, "feature": {"sight_features": "", "sight_content": ""}}, {"title": "润湖公园", "address": "山西省晋城市阳城县慎言路", "image": "", "rank": 24, "time": 2, "location": {"lat": 35.50247365788966, "lng": 112.52772961259586}, "feature": {"sight_features": "", "sight_content": ""}}, {"title": "正乙祠戏楼", "address": "山西省晋城市阳城县北留镇皇城相府生态文化旅游区附近", "image": "", "rank": 25, "time": 1.5, "location": {"lat": 35.52011810916178, "lng": 112.588903067096}, "feature": {"sight_features": "", "sight_content": ""}}, {"title": "光明寺", "address": "安泰路附近", "image": "", "rank": 26, "time": 2, "location": {"lat": 39.95462575990624, "lng": 117.10423173171016}, "feature": {"sight_features": "", "sight_content": ""}}, {"title": "小勇士", "address": "西池路与新阳街交叉口西池鑫城一层", "image": "", "rank": 27, "time": 2, "location": {"lat": 35.48798085750816, "lng": 112.4291310653289}, "feature": {"sight_features": "", "sight_content": ""}}, {"title": "阳城王国庆农家乐", "address": "天官王府上庄村A区10号(紧邻003乡道)", "image": "", "rank": 28, "time": 2, "location": {"lat": 35.215855075521475, "lng": 113.07461926918968}, "feature": {"sight_features": "", "sight_content": ""}}, {"title": "阳城横河小龙农家乐", "address": "横河村6号", "image": "", "rank": 29, "time": 2, "location": {"lat": 35.36184243912887, "lng": 112.15982352004978}, "feature": {"sight_features": "", "sight_content": ""}}, {"title": "东方影剧院", "address": "北留镇北留村", "image": "", "rank": 30, "time": 1.5, "location": {"lat": 35.4787362681924, "lng": 112.57773018480708}, "feature": {"sight_features": "", "sight_content": ""}}, {"title": "晋城蜡像馆", "address": "北留镇皇城村", "image": "", "rank": 31, "time": 3.5, "location": {"lat": 35.518601891157644, "lng": 112.58864031093772}, "feature": {"sight_features": "", "sight_content": ""}}, {"title": "红豆阁", "address": "晋城市阳城县蟒河镇蟒河风景区内(紧邻核心景区)晋城明秀苑酒店内", "image": "", "rank": 32, "time": 2, "location": {"lat": 35.26793553692713, "lng": 112.46258126760395}, "feature": {"sight_features": "", "sight_content": ""}}, {"title": "开心王国儿童成长乐园", "address": "商业街与迎宾北路交叉口西200米", "image": "", "rank": 33, "time": 2, "location": {"lat": 28.462879383553062, "lng": 110.40768853555433}, "feature": {"sight_features": "", "sight_content": ""}}, {"title": "梦幻水城", "address": "山西省晋城市阳城县骏马岭一号公馆东北", "image": "", "rank": 34, "time": 12.0, "location": {"lat": 35.48263785598616, "lng": 112.42235311310347}, "feature": {"sight_features": "", "sight_content": ""}}, {"title": "骏马岭森林公园", "address": "府南路与金阳街交叉口西50米", "image": "", "rank": 35, "time": 2, "location": {"lat": 35.489253022364096, "lng": 112.41822072899475}, "feature": {"sight_features": "", "sight_content": ""}}, {"title": "芳香养生园", "address": "晋城市阳城县相府庄园内", "image": "", "rank": 36, "time": 2, "location": {"lat": 35.53194390157827, "lng": 112.58418183384414}, "feature": {"sight_features": "", "sight_content": ""}}, {"title": "运动休闲广场", "address": "商业街附近(北留卫生所西南)", "image": "", "rank": 37, "time": 2, "location": {"lat": 35.48306824415306, "lng": 112.58108573048024}, "feature": {"sight_features": "", "sight_content": ""}}, {"title": "工人疗养院", "address": "泽州县其他东土线", "image": "", "rank": 38, "time": 2, "location": {"lat": 35.33282894388788, "lng": 112.71228414851802}, "feature": {"sight_features": "", "sight_content": ""}}, {"title": "美韵森林公园", "address": "析城大道附近", "image": "", "rank": 39, "time": 2, "location": {"lat": 35.498485503268604, "lng": 112.4096884777355}, "feature": {"sight_features": "", "sight_content": ""}}, {"title": "劝头村红砂岭", "address": "晋城市阳城县横河镇劝头村", "image": "", "rank": 40, "time": 2, "location": {"lat": 35.33574967586508, "lng": 112.15943245442398}, "feature": {"sight_features": "", "sight_content": ""}}, {"title": "城市规划建设展览厅", "address": "新阳东街", "image": "", "rank": 41, "time": 2, "location": {"lat": 35.49035460393678, "lng": 112.42397060020812}, "feature": {"sight_features": "", "sight_content": ""}}, {"title": "阳城县规划建设展厅", "address": "滨河东路", "image": "", "rank": 42, "time": 2, "location": {"lat": 38.024623223067096, "lng": 115.06593737422962}, "feature": {"sight_features": "", "sight_content": ""}}, {"title": "孙文龙纪念馆", "address": "河北镇孤堆底村孤山脚下", "image": "", "rank": 43, "time": 2, "location": {"lat": 35.397248399890586, "lng": 112.38029230037951}, "feature": {"sight_features": "", "sight_content": ""}}, {"title": "采摘园", "address": "西河乡西沟村", "image": "", "rank": 44, "time": 2, "location": {"lat": 35.54250415434839, "lng": 112.37536335374121}, "feature": {"sight_features": "", "sight_content": ""}}, {"title": "阳城小沟背文胜农家乐", "address": "横河村10号", "image": "", "rank": 46, "time": 2, "location": {"lat": 35.361766248894455, "lng": 112.15982970308661}, "feature": {"sight_features": "", "sight_content": ""}}, {"title": "阳城磨滩雷廷农家乐", "address": "磨滩村43号(近006乡道)", "image": "", "rank": 47, "time": 2, "location": {"lat": 35.341072929197175, "lng": 112.60034198705323}, "feature": {"sight_features": "", "sight_content": ""}}, {"title": "蟒河后庄时海团农家乐", "address": "后庄村", "image": "", "rank": 48, "time": 2, "location": {"lat": 38.7148145374902, "lng": 114.15326218753422}, "feature": {"sight_features": "", "sight_content": ""}}, {"title": "小沟背翠雨春农家乐", "address": "横河村8号", "image": "", "rank": 49, "time": 2, "location": {"lat": 35.36179839547708, "lng": 112.15976050391825}, "feature": {"sight_features": "", "sight_content": ""}}, {"title": "横河国社农家乐", "address": "横河村7号", "image": "", "rank": 50, "time": 2, "location": {"lat": 35.36181491644872, "lng": 112.15989201584492}, "feature": {"sight_features": "", "sight_content": ""}}, {"title": "阳城磨滩小鹏农家乐", "address": "磨滩村(近006乡道)", "image": "", "rank": 51, "time": 2, "location": {"lat": 42.011747549379294, "lng": 118.25427947194045}, "feature": {"sight_features": "", "sight_content": ""}}, {"title": "皇城相府古城新区农家乐4号", "address": "800米古城新区农家乐4号", "image": "", "rank": 52, "time": 2, "location": {"lat": 26.883161684001312, "lng": 100.2324803392115}, "feature": {"sight_features": "", "sight_content": ""}}, {"title": "山水漂流", "address": "中国山西省晋城市阳城县凤城镇", "image": "", "rank": 53, "time": 2, "location": {"lat": 35.483127532591055, "lng": 112.44328255890917}, "feature": {"sight_features": "", "sight_content": ""}}, {"title": "皇城相府金圪坨徐小仙农家乐", "address": "郭峪村新小区1号", "image": "", "rank": 54, "time": 2, "location": {"lat": 41.09617549712437, "lng": 122.07769391573403}, "feature": {"sight_features": "", "sight_content": ""}}, {"title": "迷域真人密室逃脱", "address": "南河口天美超市对面三楼", "image": "", "rank": 55, "time": 2, "location": {"lat": 42.438237566986494, "lng": 119.35109226941151}, "feature": {"sight_features": "", "sight_content": ""}}, {"title": "三利生态园", "address": "八芹线马寨中心小学东南130米", "image": "", "rank": 56, "time": 2, "location": {"lat": 35.594661396559374, "lng": 112.38949546997331}, "feature": {"sight_features": "", "sight_content": ""}}, {"title": "鲜果采摘园", "address": "相府庄园内", "image": "", "rank": 57, "time": 2, "location": {"lat": 35.53194390157827, "lng": 112.58418183384414}, "feature": {"sight_features": "", "sight_content": ""}}, {"title": "北留剧场", "address": "商业街附近商业中街", "image": "", "rank": 58, "time": 2, "location": {"lat": 35.48380407167561, "lng": 112.57916711070762}, "feature": {"sight_features": "", "sight_content": ""}}, {"title": "阳城县人民剧团有限公司", "address": "荣泽路", "image": "", "rank": 59, "time": 2, "location": {"lat": 35.496340081786606, "lng": 112.42311419795526}, "feature": {"sight_features": "", "sight_content": ""}}, {"title": "《天朝国风》实景体验剧", "address": "晋城市阳城县北留镇相府庄园春秋楼", "image": "", "rank": 60, "time": 2, "location": {"lat": 35.53194390157827, "lng": 112.58418183384414}, "feature": {"sight_features": "特色1 游客可以身穿汉服，身临其境感受 特色2 场景是按照古代帝王宫殿规模修建装饰而成", "sight_content": "皇城相府春秋楼实景体验剧《天朝国风》着重表现的是宫廷礼乐汉舞、皇室贵族生活、帝国君臣秩序等情景，场景是按照古代帝王宫殿规模修建装饰而成。\n游客可以身穿汉服，在演员的指导下，一起学汉礼、赏汉乐、观汉舞、玩汉戏，共同营造一个标准化的汉代宫廷情境，形成流动、互动、立体的观赏体验效果，让游客身临其境的去感受泱泱大国的文化与魅力，从而达到以礼修身、以乐养性的目的。"}}]}