{"cityName": "沿河", "days": 2, "cityImage": "", "spots": [{"title": "乌江三峡", "address": "铜仁市沿河土家族自治县境内", "image": "", "rank": 1, "time": 1.0, "location": {"lat": 28.570101680094822, "lng": 108.5104775397904}, "feature": {"sight_features": "", "sight_content": ""}}, {"title": "麻阳河自然保护区", "address": "贵州省铜仁市沿河土家族自治县", "image": "", "rank": 2, "time": 1.0, "location": {"lat": 28.570101680094822, "lng": 108.5104775397904}, "feature": {"sight_features": "", "sight_content": ""}}, {"title": "土司墓", "address": "云南省丽江市古城区境内 674100", "image": "", "rank": 3, "time": 2, "location": {"lat": 26.883161684001312, "lng": 100.2324803392115}, "feature": {"sight_features": "", "sight_content": ""}}, {"title": "黔东特区革命委员会", "address": "贵州省沿河土家族自治县谯家镇 565305", "image": "", "rank": 4, "time": 2, "location": {"lat": 28.33093315277147, "lng": 108.48192453714807}, "feature": {"sight_features": "", "sight_content": ""}}, {"title": "贝贝乐儿童乐园", "address": "铜仁市沿河土家族自治县", "image": "", "rank": 5, "time": 2, "location": {"lat": 28.570101680094822, "lng": 108.5104775397904}, "feature": {"sight_features": "", "sight_content": ""}}, {"title": "报恩寺", "address": "326国道附近", "image": "", "rank": 6, "time": 2, "location": {"lat": 28.504838334466942, "lng": 108.62811511625138}, "feature": {"sight_features": "", "sight_content": ""}}, {"title": "黔东特区革命委员会旧址", "address": "贵州省铜仁市沿河土家族自治县", "image": "", "rank": 7, "time": 2, "location": {"lat": 28.570101680094822, "lng": 108.5104775397904}, "feature": {"sight_features": "", "sight_content": ""}}, {"title": "沿河土家族自治县城乡建设档案馆", "address": "潦源街", "image": "", "rank": 8, "time": 2, "location": {"lat": 28.569709983094626, "lng": 108.51139435039359}, "feature": {"sight_features": "", "sight_content": ""}}, {"title": "沿河土家族自治县民族风情街", "address": "贵州省沿河土家族自治县环西路", "image": "", "rank": 9, "time": 2, "location": {"lat": 28.271139008825568, "lng": 108.11515476346445}, "feature": {"sight_features": "", "sight_content": ""}}, {"title": "牛舌嘴", "address": "铜仁市-沿河土家族自治县", "image": "", "rank": 10, "time": 2, "location": {"lat": 28.570101680094822, "lng": 108.5104775397904}, "feature": {"sight_features": "", "sight_content": ""}}, {"title": "谯家岩", "address": "铜仁市-沿河土家族自治县", "image": "", "rank": 11, "time": 2, "location": {"lat": 28.570101680094822, "lng": 108.5104775397904}, "feature": {"sight_features": "", "sight_content": ""}}, {"title": "思州温泉", "address": "铜仁市沿河土家族自治县滨江大道", "image": "", "rank": 12, "time": 2, "location": {"lat": 28.570101680094822, "lng": 108.5104775397904}, "feature": {"sight_features": "", "sight_content": "思州温泉位于铜仁市沿河土家族自治县滨江大道，出水温泉高达45度以上，温泉根据原地形量身定做，布局精巧细致、古朴典雅，70多个功能各异、形状不同的温泉池,其中有中式游泳池、功能水疗池、儿童戏水池、SPA保健按摩池、亲亲鱼疗池、激情造浪池、五彩滑梯、螺旋太空盆滑梯、水秋千，异国风情的芬兰浴、韩式汗蒸、舒心石板浴等。"}}]}