{"cityName": "盐津", "days": 2, "cityImage": "", "spots": [{"title": "五尺道风景区", "address": "昭通市盐津县豆沙古镇", "image": "", "rank": 1, "time": 2, "location": {"lat": 28.041327066796285, "lng": 104.12757722582033}, "feature": {"sight_features": "", "sight_content": ""}}, {"title": "万年生态园", "address": "G213观音滩西北侧120米", "image": "", "rank": 2, "time": 7.5, "location": {"lat": 27.77085260338003, "lng": 112.7019120328842}, "feature": {"sight_features": "", "sight_content": ""}}, {"title": "盐津悬棺墓葬", "address": "云南省盐津县豆沙乡石门村 657504", "image": "", "rank": 3, "time": 2, "location": {"lat": 28.04084247584874, "lng": 104.12738508276334}, "feature": {"sight_features": "", "sight_content": ""}}, {"title": "观音阁", "address": "昭通市盐津县西南部的豆沙古镇五尺道景区内", "image": "", "rank": 4, "time": 1.0, "location": {"lat": 28.04270221799241, "lng": 104.12286536638804}, "feature": {"sight_features": "", "sight_content": ""}}, {"title": "盐(津)大(关)游击队成立遗址", "address": "昭通市盐津县摩崖社区袁滋街199号", "image": "", "rank": 5, "time": 2, "location": {"lat": 28.03989083232793, "lng": 104.12913973842386}, "feature": {"sight_features": "", "sight_content": ""}}, {"title": "盐津金铭儿童游乐园", "address": "云南省昭通市盐津县盐医段", "image": "", "rank": 6, "time": 2, "location": {"lat": 28.065055327518408, "lng": 104.24541155274726}, "feature": {"sight_features": "", "sight_content": ""}}, {"title": "新区广场", "address": "津民路18号对面", "image": "", "rank": 7, "time": 2, "location": {"lat": 28.11355787942709, "lng": 104.24233648230957}, "feature": {"sight_features": "", "sight_content": ""}}, {"title": "僰人悬棺", "address": "昭通市盐津县豆沙乡石门村关河南岸", "image": "", "rank": 8, "time": 2.0, "location": {"lat": 28.04084247584874, "lng": 104.12738508276334}, "feature": {"sight_features": "", "sight_content": ""}}, {"title": "五尺道", "address": "云南省盐津县豆沙镇", "image": "", "rank": 9, "time": 2, "location": {"lat": 28.045185178693668, "lng": 104.12974132284404}, "feature": {"sight_features": "", "sight_content": ""}}, {"title": "鸦到溪", "address": "昭通市-盐津县", "image": "", "rank": 10, "time": 2, "location": {"lat": 28.114384038516498, "lng": 104.24157884245965}, "feature": {"sight_features": "", "sight_content": ""}}]}