{"cityName": "延吉", "days": 2, "cityImage": "", "spots": [{"title": "帽儿山国家森林公园", "address": "延边朝鲜族自治州龙井市南", "image": "", "rank": 1, "time": 3.0, "location": {"lat": 42.7715348683491, "lng": 129.43263477701413}, "feature": {"sight_features": "", "sight_content": ""}}, {"title": "延吉公园", "address": "延边朝鲜族自治州延吉市公园路151号", "image": "", "rank": 2, "time": 1.0, "location": {"lat": 42.916893418557, "lng": 129.50684800375473}, "feature": {"sight_features": "", "sight_content": ""}}, {"title": "延边大学", "address": "延边朝鲜族自治州延吉市公园路977号", "image": "", "rank": 3, "time": 1.5, "location": {"lat": 42.91438408835629, "lng": 129.49892280669806}, "feature": {"sight_features": "", "sight_content": ""}}, {"title": "和平雪场", "address": "延边朝鲜族自治州安图县二道白河镇", "image": "", "rank": 4, "time": 2, "location": {"lat": 42.31907556825952, "lng": 128.11766907842824}, "feature": {"sight_features": "", "sight_content": ""}}, {"title": "延边州博物馆", "address": "延边朝鲜族自治州延吉市长白山西路8229号", "image": "", "rank": 5, "time": 1.0, "location": {"lat": 42.89583824002676, "lng": 129.43382315990468}, "feature": {"sight_features": "", "sight_content": ""}}, {"title": "青年湖公园", "address": "延边朝鲜族自治州延吉市延河路", "image": "", "rank": 6, "time": 2.0, "location": {"lat": 42.907723432166776, "lng": 129.49923789274553}, "feature": {"sight_features": "", "sight_content": ""}}, {"title": "延吉大桥", "address": "延边朝鲜族自治州延吉市河南街", "image": "", "rank": 7, "time": null, "location": {"lat": 42.897965139086416, "lng": 129.51588359086242}, "feature": {"sight_features": "", "sight_content": ""}}, {"title": "延吉海兰江高尔夫球会", "address": "延吉市海兰江畔", "image": "", "rank": 8, "time": 2, "location": {"lat": 42.91271700987995, "lng": 129.52052013726063}, "feature": {"sight_features": "", "sight_content": ""}}, {"title": "7D互动电影体验馆", "address": "延边朝鲜族自治州延吉市光华路500号南滨广场内", "image": "", "rank": 9, "time": 2, "location": {"lat": 42.89808681761689, "lng": 129.52128923230265}, "feature": {"sight_features": "", "sight_content": ""}}, {"title": "梦都美水上乐园", "address": "延边朝鲜族自治州延吉市依兰镇春兴村5队", "image": "", "rank": 10, "time": 2, "location": {"lat": 43.040651500381756, "lng": 129.60398899014527}, "feature": {"sight_features": "特色1 在冬夏都能和家人一起玩水世界 特色2 让您充分享受惊险刺激水上的乐趣。", "sight_content": "梦都美水上乐园冬夏皆宜，室内温度保持在28度左右，水温30度左右，老人孩子也可游玩。这里有惊险刺激十米冲天回旋滑梯，彩虹滑梯、敞开回旋滑梯也都有着极强的冲击力。\n巨兽碗也不甘落后！已经彻底开放的巨兽碗，吸引着一批又一批的游客，现在，让我们大喊一声：”快到碗里来！在潮水的推动下急速前行，乘坐在浮筏中顺着曲折回旋的滑道疾驰而下，超长水上滑道将让您充分享受征服的乐趣。\n伏跌宕的彩色竞速道，伴随着紧张的心情，从高塔上俯冲直下，加速冲入底部的水池，溅起巨大的水花。在彩虹上空展翅翱翔，体验风驰电掣的加速快感，这里有不用在梦想中也能实现的刺激！"}}, {"title": "梦都美滑雪场", "address": "延边朝鲜族自治州延吉市依兰镇春兴村5队", "image": "", "rank": 11, "time": 2, "location": {"lat": 43.040651500381756, "lng": 129.60398899014527}, "feature": {"sight_features": "", "sight_content": ""}}, {"title": "青年广场", "address": "延吉市延吉大桥西北角(青年湖公园附近)", "image": "", "rank": 12, "time": 2, "location": {"lat": 42.906899410576386, "lng": 129.51593859949864}, "feature": {"sight_features": "", "sight_content": ""}}, {"title": "布尔哈通河", "address": "延边朝鲜族自治州延吉市布尔哈通河", "image": "", "rank": 13, "time": 2, "location": {"lat": 42.90302448049431, "lng": 129.52785439930872}, "feature": {"sight_features": "", "sight_content": ""}}, {"title": "梦都美温泉", "address": "延边朝鲜族自治州延吉市依兰镇春兴村5队", "image": "", "rank": 14, "time": 2, "location": {"lat": 43.040651500381756, "lng": 129.60398899014527}, "feature": {"sight_features": "特色1 富含对人体有益的微量元素 特色2 空气清新，远离城市喧嚣 特色3 给身体一次深度的呼吸", "sight_content": "延吉市梦都美民俗旅游度假村有限公司是广州梦都美集团的全资子公司，成立于2006年5月，注册资金是壹亿零捌佰捌拾万元。\n开发建设梦都美度假村规划总投资为30亿元人民币，占地面积500公顷，是延边州十大重点项目之一。司主要建设经营项目有滑雪场、雪上乐园、豪华酒店、室内外温泉、水上乐园、大型露营地、低密度住宅别墅、攀岩、垂钓、登山、旅游小镇、体育公园等集运动、休闲、娱乐、购物于一体的综合性旅游项目。\n现已建成滑雪场、豪华酒店、室内外温泉等项目。梦都美度假区坐落于长白山脚下美丽富饶的吉林省延边朝鲜族自治州延吉市依兰镇春兴村5队，离延吉市区10公里，从延吉高速北出口驱车仅需10分钟。"}}, {"title": "松涛园", "address": "延边朝鲜族自治州延吉市延新桥西北角", "image": "", "rank": 15, "time": 1.0, "location": {"lat": 42.905809645215975, "lng": 129.5030180719248}, "feature": {"sight_features": "", "sight_content": ""}}, {"title": "浴池山", "address": "延边朝鲜族自治州延吉市东约10公里", "image": "", "rank": 16, "time": 1.5, "location": {"lat": 42.91271700987995, "lng": 129.52052013726063}, "feature": {"sight_features": "", "sight_content": ""}}, {"title": "延吉市博物馆", "address": "延边朝鲜族自治州延吉市长白路北侧延川街西侧", "image": "", "rank": 17, "time": 1.0, "location": {"lat": 42.91407110604017, "lng": 129.51585496725565}, "feature": {"sight_features": "", "sight_content": ""}}, {"title": "清水公园", "address": "延边朝鲜族自治州延吉市财政局西侧", "image": "", "rank": 18, "time": 1.0, "location": {"lat": 42.90362339289271, "lng": 129.4760225010611}, "feature": {"sight_features": "", "sight_content": ""}}, {"title": "海兰湖风景区", "address": "延边朝鲜族自治州延吉市河龙村与龙井市龙河村境内", "image": "", "rank": 19, "time": 1.5, "location": {"lat": 42.90693313263943, "lng": 129.63682122200913}, "feature": {"sight_features": "", "sight_content": ""}}, {"title": "古长城", "address": "延边朝鲜族自治州延吉市境内", "image": "", "rank": 20, "time": 1.5, "location": {"lat": 42.91271700987995, "lng": 129.52052013726063}, "feature": {"sight_features": "", "sight_content": ""}}, {"title": "小河龙千年古松", "address": "延边朝鲜族自治州延吉市小营镇河龙村（近延吉高尔夫球场）", "image": "", "rank": 21, "time": 0.5, "location": {"lat": 42.9200273225079, "lng": 129.6774056965766}, "feature": {"sight_features": "", "sight_content": ""}}, {"title": "虎雕广场", "address": "延边朝鲜族自治州延吉市西南部帽儿山国家森林公园内", "image": "", "rank": 22, "time": 0.4, "location": {"lat": 42.8580625780197, "lng": 129.48589325717433}, "feature": {"sight_features": "", "sight_content": ""}}, {"title": "朝阳游园", "address": "延边朝鲜族自治州延吉市朝阳街", "image": "", "rank": 23, "time": 1.0, "location": {"lat": 42.921607409314326, "lng": 129.53259107802552}, "feature": {"sight_features": "", "sight_content": ""}}, {"title": "师恩纪念碑", "address": "延边朝鲜族自治州延吉市小营乡卧龙村", "image": "", "rank": 24, "time": 1.0, "location": {"lat": 42.93601991887895, "lng": 129.45874567774717}, "feature": {"sight_features": "", "sight_content": ""}}, {"title": "迎春游园", "address": "延边朝鲜族自治州延吉市解放路与迎春路交汇", "image": "", "rank": 25, "time": 1.0, "location": {"lat": 42.91158195938138, "lng": 129.53767839772183}, "feature": {"sight_features": "", "sight_content": ""}}, {"title": "董存瑞纪念馆", "address": "延边朝鲜族自治州延吉市", "image": "", "rank": 26, "time": 1.0, "location": {"lat": 42.91271700987995, "lng": 129.52052013726063}, "feature": {"sight_features": "", "sight_content": ""}}, {"title": "天池大桥", "address": "延吉市金达莱广场北侧", "image": "", "rank": 27, "time": 1.5, "location": {"lat": 42.89916301245187, "lng": 129.48127215713936}, "feature": {"sight_features": "", "sight_content": ""}}, {"title": "青杨公园", "address": "延边朝鲜族自治州延吉市青杨街（北大市场东侧）", "image": "", "rank": 28, "time": 1.0, "location": {"lat": 42.93222027997982, "lng": 129.51852844841952}, "feature": {"sight_features": "", "sight_content": ""}}, {"title": "丹虹游园", "address": "延边朝鲜族自治州延吉市丹虹街", "image": "", "rank": 29, "time": 1.0, "location": {"lat": 42.92561058291385, "lng": 129.53090091261527}, "feature": {"sight_features": "", "sight_content": ""}}, {"title": "亲水湾水上乐园", "address": "延边长白山西路新体育场向西两公里道北", "image": "", "rank": 30, "time": 2, "location": {"lat": 42.89720781674674, "lng": 129.4670606998697}, "feature": {"sight_features": "", "sight_content": ""}}, {"title": "延吉道尹公署楼", "address": "吉林省延吉市河南街光华路", "image": "", "rank": 31, "time": 2, "location": {"lat": 42.897965139086416, "lng": 129.51588359086242}, "feature": {"sight_features": "", "sight_content": ""}}, {"title": "延大学府广场", "address": "公园路延边大学向西三百米", "image": "", "rank": 32, "time": 2, "location": {"lat": 42.91843505352553, "lng": 129.49190170562872}, "feature": {"sight_features": "", "sight_content": ""}}, {"title": "夫妻肺片", "address": "人民路1188号", "image": "", "rank": 33, "time": 2, "location": {"lat": 34.30242147279762, "lng": 117.78683487578415}, "feature": {"sight_features": "", "sight_content": ""}}, {"title": "延边国贸农业园", "address": "延边朝鲜族自治州延吉市依兰镇兴农村境内", "image": "", "rank": 34, "time": 1.5, "location": {"lat": 42.982813046154455, "lng": 129.4925721568444}, "feature": {"sight_features": "", "sight_content": ""}}, {"title": "第五街宾馆", "address": "新华街(延吉第伍街宾馆附近)", "image": "", "rank": 35, "time": 4.5, "location": {"lat": 42.911028589593066, "lng": 129.5174715731226}, "feature": {"sight_features": "", "sight_content": ""}}, {"title": "中国朝鲜民俗园", "address": "延边朝鲜族自治州延吉市延南路", "image": "", "rank": 36, "time": 2, "location": {"lat": 42.88318262787009, "lng": 129.49972963236814}, "feature": {"sight_features": "", "sight_content": ""}}, {"title": "富港浴乐宫", "address": "延边朝鲜族自治州延吉市河南街18-16明大公寓10号楼", "image": "", "rank": 37, "time": 2, "location": {"lat": 42.89518778349487, "lng": 129.51832027689724}, "feature": {"sight_features": "", "sight_content": ""}}, {"title": "王隅沟抗日游击根据地", "address": "延边朝鲜族自治州延吉市依兰乡古成子村", "image": "", "rank": 38, "time": 2, "location": {"lat": 42.91271700987995, "lng": 129.52052013726063}, "feature": {"sight_features": "", "sight_content": ""}}, {"title": "mr.c密室逃脱", "address": "局子街152号", "image": "", "rank": 39, "time": 2, "location": {"lat": 42.92393578442423, "lng": 129.5191501257782}, "feature": {"sight_features": "", "sight_content": ""}}, {"title": "Mr.C全机械密室逃脱", "address": "鑫田大厦6楼618(延边医院东面)", "image": "", "rank": 40, "time": 2, "location": {"lat": 42.918593205746134, "lng": 129.5206023986894}, "feature": {"sight_features": "", "sight_content": ""}}, {"title": "勇敢者转盘时空穿梭", "address": "公园区延新桥西侧游乐大世界内", "image": "", "rank": 41, "time": 2, "location": {"lat": 42.90680621718017, "lng": 129.49821468234592}, "feature": {"sight_features": "", "sight_content": ""}}, {"title": "梦幻儿童乐园", "address": "百货大楼对面金石盟旁3楼(原全有家具)", "image": "", "rank": 42, "time": 2, "location": {"lat": 23.095566048272474, "lng": 109.61990191205139}, "feature": {"sight_features": "", "sight_content": ""}}, {"title": "高尔夫玛斯特", "address": "志浩平价购物广场附近", "image": "", "rank": 43, "time": 2, "location": {"lat": 29.575704537729287, "lng": 115.98646835386866}, "feature": {"sight_features": "", "sight_content": ""}}, {"title": "碧水园林", "address": "滨河路", "image": "", "rank": 44, "time": 2, "location": {"lat": 39.008473205380874, "lng": 117.67714324450333}, "feature": {"sight_features": "", "sight_content": ""}}, {"title": "天河超市儿童乐园", "address": "太平街天和超市二楼", "image": "", "rank": 45, "time": null, "location": {"lat": 36.518021311045544, "lng": 117.86723187685875}, "feature": {"sight_features": "", "sight_content": ""}}, {"title": "园艺农场", "address": "园艺胡同附近", "image": "", "rank": 46, "time": 2, "location": {"lat": 42.91558324058609, "lng": 129.48140688320314}, "feature": {"sight_features": "", "sight_content": ""}}, {"title": "延金大剧院", "address": "南滨国际广场4楼", "image": "", "rank": 47, "time": 2, "location": {"lat": 42.898412103838226, "lng": 129.52131350631413}, "feature": {"sight_features": "", "sight_content": ""}}, {"title": "延吉市少年儿童图书馆", "address": "丰收胡同58", "image": "", "rank": 48, "time": 1.5, "location": {"lat": 42.908729062948375, "lng": 129.5220136132896}, "feature": {"sight_features": "", "sight_content": ""}}, {"title": "韩食料理实训基地", "address": "园林胡同附近", "image": "", "rank": 49, "time": 2, "location": {"lat": 42.91640261976705, "lng": 129.49631946522842}, "feature": {"sight_features": "", "sight_content": ""}}, {"title": "长白山火山温泉会馆", "address": "长白山保护开发区池北区长白山北山门", "image": "", "rank": 50, "time": 4.5, "location": {"lat": 42.456034383310985, "lng": 128.13899419367547}, "feature": {"sight_features": "", "sight_content": ""}}, {"title": "王牌密室逃脱", "address": "青杨街86号二楼", "image": "", "rank": 51, "time": 2, "location": {"lat": 42.91927406402735, "lng": 129.52458434087941}, "feature": {"sight_features": "", "sight_content": ""}}, {"title": "欢乐剧场", "address": "铁北路816号欢乐宫1层", "image": "", "rank": 52, "time": 2, "location": {"lat": 42.89391217789342, "lng": 129.5025258481155}, "feature": {"sight_features": "", "sight_content": ""}}, {"title": "德意楼大戏院", "address": "长白山路1188号南滨国际广场B区3层左岸电影城旁", "image": "", "rank": 53, "time": 2, "location": {"lat": 42.89979899639222, "lng": 129.52114688501493}, "feature": {"sight_features": "", "sight_content": ""}}, {"title": "人参文化博物馆", "address": "延边州质量技术监督局办公大楼内", "image": "", "rank": 54, "time": 2, "location": {"lat": 42.92400256152127, "lng": 129.53432754210172}, "feature": {"sight_features": "", "sight_content": ""}}, {"title": "悠乐堡儿童乐园", "address": "天池路吉祥小区", "image": "", "rank": 55, "time": 2, "location": {"lat": 42.899739623487434, "lng": 129.46898916596902}, "feature": {"sight_features": "", "sight_content": ""}}, {"title": "爱宝儿童乐园游艺游乐场", "address": "吉林省延边朝鲜族自治州延吉市南滨国际广场C区三楼（延吉六中对面）", "image": "", "rank": 56, "time": 2, "location": {"lat": 42.89808681761689, "lng": 129.52128923230265}, "feature": {"sight_features": "", "sight_content": ""}}, {"title": "河南街白玉基督教堂", "address": "长白山西路2445-4号", "image": "", "rank": 57, "time": 2, "location": {"lat": 42.89962921611531, "lng": 129.50569780349838}, "feature": {"sight_features": "", "sight_content": ""}}, {"title": "延吉市延南基督教会", "address": "南新胡同295", "image": "", "rank": 58, "time": 1.5, "location": {"lat": 42.889219889009, "lng": 129.5040269327922}, "feature": {"sight_features": "", "sight_content": ""}}, {"title": "延吉市建工街延新基督教堂", "address": "吉林省延边朝鲜族自治州延吉市南新胡同295", "image": "", "rank": 59, "time": 1.5, "location": {"lat": 42.889219889009, "lng": 129.5040269327922}, "feature": {"sight_features": "", "sight_content": ""}}, {"title": "游乐大世界", "address": "延西街与滨河路交汇处西侧", "image": "", "rank": 60, "time": null, "location": {"lat": 42.90917422940403, "lng": 129.50272254917473}, "feature": {"sight_features": "", "sight_content": ""}}]}