{"cityName": "焉耆", "days": 2, "cityImage": "", "spots": [{"title": "相思湖景区", "address": "巴音郭楞蒙古自治州焉耆县四十里城子乡和库高速南侧", "image": "", "rank": 1, "time": 3.0, "location": {"lat": 41.96558700130207, "lng": 86.48790209735589}, "feature": {"sight_features": "", "sight_content": ""}}, {"title": "焉耆七个星千佛洞", "address": "位于焉耆县七个星镇东南8公里处的霍拉山东麓的山前地带", "image": "", "rank": 2, "time": 2, "location": {"lat": 42.11033270493521, "lng": 86.0310689914126}, "feature": {"sight_features": "", "sight_content": ""}}, {"title": "乡都酒堡生态旅游景区", "address": "巴音郭愣蒙古自治州焉耆县", "image": "", "rank": 3, "time": 2, "location": {"lat": 42.06485085872785, "lng": 86.58122202627663}, "feature": {"sight_features": "", "sight_content": ""}}, {"title": "若合兰阅览室", "address": "325省道", "image": "", "rank": 4, "time": 2, "location": {"lat": 40.38011571404755, "lng": 115.90477371737859}, "feature": {"sight_features": "", "sight_content": ""}}, {"title": "焉耆回族自治县图书馆", "address": "新华路", "image": "", "rank": 5, "time": 2, "location": {"lat": 39.14651100379498, "lng": 117.01963610637686}, "feature": {"sight_features": "", "sight_content": ""}}, {"title": "星期天儿童乐园", "address": "集贸大世界C区三楼(集贸大世界)", "image": "", "rank": 6, "time": 2, "location": {"lat": 40.72695727460574, "lng": 120.9469765584508}, "feature": {"sight_features": "", "sight_content": ""}}, {"title": "小袁大肉野生活鱼店", "address": "206省道附近", "image": "", "rank": 7, "time": 2, "location": {"lat": 40.08163878542396, "lng": 117.10435023437643}, "feature": {"sight_features": "", "sight_content": ""}}, {"title": "涌金门步行街", "address": "新疆维吾尔自治区焉耆回族自治县建设路", "image": "", "rank": 8, "time": 2, "location": {"lat": 42.06891379845085, "lng": 86.57563661369197}, "feature": {"sight_features": "", "sight_content": ""}}, {"title": "锡克沁千佛洞", "address": "巴音郭楞蒙古自治州焉耆县七个星镇", "image": "", "rank": 9, "time": 2, "location": {"lat": 42.024901047301825, "lng": 86.31172390000391}, "feature": {"sight_features": "", "sight_content": ""}}]}