{"cityName": "砚山", "days": 2, "cityImage": "", "spots": [{"title": "一家人农庄", "address": "平远镇车白泥村", "image": "", "rank": 1, "time": 2, "location": {"lat": 23.766862887757735, "lng": 103.74358160497121}, "feature": {"sight_features": "", "sight_content": ""}}, {"title": "听湖风景区", "address": "云南省文山壮族苗族自治州砚山县听湖风景区(323国道北)", "image": "", "rank": 2, "time": 2, "location": {"lat": 23.63859835628551, "lng": 104.39638526823182}, "feature": {"sight_features": "", "sight_content": ""}}, {"title": "老干书协书画作品展示室", "address": "砚华东路56", "image": "", "rank": 3, "time": 2, "location": {"lat": 23.374976044516895, "lng": 104.24815201336564}, "feature": {"sight_features": "", "sight_content": ""}}, {"title": "砚山县图书馆", "address": "振江路189号", "image": "", "rank": 4, "time": 2, "location": {"lat": 23.61309422751566, "lng": 104.34462113277917}, "feature": {"sight_features": "", "sight_content": ""}}, {"title": "文化馆", "address": "嘉禾二路41", "image": "", "rank": 5, "time": 2, "location": {"lat": 23.617473663939023, "lng": 104.3497371614196}, "feature": {"sight_features": "", "sight_content": ""}}, {"title": "砚山清真寺", "address": "新丰路95砚山县粮食局附近", "image": "", "rank": 6, "time": 1.0, "location": {"lat": 23.61629242689328, "lng": 104.34445692163368}, "feature": {"sight_features": "", "sight_content": ""}}, {"title": "尚品水族生活馆", "address": "云南省文山壮族苗族自治州砚山县文化路46号", "image": "", "rank": 7, "time": 2, "location": {"lat": 23.620797390676284, "lng": 104.35094282883253}, "feature": {"sight_features": "", "sight_content": ""}}, {"title": "平远清真寺", "address": "商贸街商贸大街", "image": "", "rank": 8, "time": 1.0, "location": {"lat": 31.07084356199226, "lng": 106.15040816822847}, "feature": {"sight_features": "", "sight_content": ""}}, {"title": "商贸大街清真寺", "address": "文山壮族苗族自治州砚山县", "image": "", "rank": 9, "time": 2, "location": {"lat": 23.611486576699626, "lng": 104.34355089069662}, "feature": {"sight_features": "", "sight_content": ""}}, {"title": "松山清真寺", "address": "云南省文山壮族苗族自治州砚山县平远松山脚", "image": "", "rank": 10, "time": 1.0, "location": {"lat": 23.761057240683783, "lng": 103.74091051240259}, "feature": {"sight_features": "", "sight_content": ""}}, {"title": "啊猛清真寺", "address": "云南省文山壮族苗族自治州砚山县阿猛镇中心小学北", "image": "", "rank": 11, "time": 2, "location": {"lat": 23.756660440768027, "lng": 104.59036096548184}, "feature": {"sight_features": "", "sight_content": ""}}, {"title": "成达清真寺", "address": "云南省文山壮族苗族自治州砚山县稼依镇小石桥村老新线西", "image": "", "rank": 12, "time": 2, "location": {"lat": 23.639324151785118, "lng": 103.98236280836522}, "feature": {"sight_features": "", "sight_content": ""}}, {"title": "龙城山庄", "address": "206省道附近", "image": "", "rank": 13, "time": 2, "location": {"lat": 40.08163878542396, "lng": 117.10435023437643}, "feature": {"sight_features": "", "sight_content": ""}}, {"title": "书院街", "address": "云南省文山壮族苗族自治州砚山县", "image": "", "rank": 14, "time": 2, "location": {"lat": 23.611486576699626, "lng": 104.34355089069662}, "feature": {"sight_features": "", "sight_content": ""}}]}