{"cityName": "盐源", "days": 2, "cityImage": "", "spots": [{"title": "洛洼码头", "address": "凉山彝族自治州盐源县022乡道", "image": "", "rank": 1, "time": 1.5, "location": {"lat": 27.725291115215466, "lng": 100.87741356971517}, "feature": {"sight_features": "", "sight_content": ""}}, {"title": "末代王妃府", "address": "凉山彝族自治州盐源县泸沽湖景区", "image": "", "rank": 2, "time": 1.0, "location": {"lat": 27.4281548677411, "lng": 101.5154291291499}, "feature": {"sight_features": "", "sight_content": ""}}, {"title": "达祖码头", "address": "凉山彝族自治州盐源县泸沽湖镇泸沽湖风景区内", "image": "", "rank": 3, "time": 2.0, "location": {"lat": 27.722705732671724, "lng": 100.82644864589481}, "feature": {"sight_features": "", "sight_content": ""}}, {"title": "洼垮湖湾", "address": "凉山彝族自治州盐源县泸沽湖", "image": "", "rank": 4, "time": 0.4, "location": {"lat": 27.71973254967949, "lng": 100.78668120445606}, "feature": {"sight_features": "", "sight_content": ""}}, {"title": "黑喇嘛寺", "address": "凉山彝族自治州盐源县泸沽湖走婚桥旁边", "image": "", "rank": 5, "time": 0.5, "location": {"lat": 27.71453368639737, "lng": 100.88410962162844}, "feature": {"sight_features": "", "sight_content": ""}}, {"title": "摩梭博物馆", "address": "凉山州盐源县泸沽湖镇博树村原摩梭土司府遗址旁", "image": "", "rank": 6, "time": 2.5, "location": {"lat": 27.713736556962676, "lng": 100.86424120309427}, "feature": {"sight_features": "", "sight_content": ""}}, {"title": "盐源公母山", "address": "盐源县城西南5公里处", "image": "", "rank": 7, "time": 1.0, "location": {"lat": 36.59828759801125, "lng": 101.77241422413312}, "feature": {"sight_features": "", "sight_content": ""}}, {"title": "后龙山", "address": "四川省凉山市盐源县泸沽湖镇", "image": "", "rank": 8, "time": 2, "location": {"lat": 27.754484375618695, "lng": 100.87755957220797}, "feature": {"sight_features": "", "sight_content": ""}}, {"title": "落洼堡", "address": "四川省凉山市盐源县泸沽湖", "image": "", "rank": 9, "time": 2, "location": {"lat": 27.71973254967949, "lng": 100.78668120445606}, "feature": {"sight_features": "", "sight_content": ""}}, {"title": "《情迷摩梭》演出", "address": "凉山州盐源县泸沽湖镇博树村（草海五支落）", "image": "", "rank": 10, "time": 2, "location": {"lat": 27.709795969127885, "lng": 100.8460680074298}, "feature": {"sight_features": "", "sight_content": ""}}, {"title": "博树码头", "address": "泸沽湖镇博树", "image": "", "rank": 11, "time": 2, "location": {"lat": 27.708871841937974, "lng": 100.85681763510804}, "feature": {"sight_features": "", "sight_content": ""}}, {"title": "黑娃俄岛", "address": "云南省宁蒗彝族自治县泸沽湖西北半湖的中央 674309", "image": "", "rank": 12, "time": 1.0, "location": {"lat": 27.578843737946354, "lng": 100.8152391504736}, "feature": {"sight_features": "", "sight_content": ""}}, {"title": "阿陆", "address": "凉山彝族自治州盐源县泸沽湖镇泸沽湖风景区内", "image": "", "rank": 13, "time": 2, "location": {"lat": 27.722705732671724, "lng": 100.82644864589481}, "feature": {"sight_features": "", "sight_content": ""}}, {"title": "大悲海螺经堂", "address": "丽江市宁蒗彝族自治县泸沽湖风景区内", "image": "", "rank": 14, "time": 2, "location": {"lat": 27.287727826051697, "lng": 100.85859038623477}, "feature": {"sight_features": "", "sight_content": ""}}, {"title": "梅雨影剧院", "address": "政府街与粮贸街交叉口北50米", "image": "", "rank": 15, "time": 2, "location": {"lat": 27.45380881946868, "lng": 101.40492881723463}, "feature": {"sight_features": "", "sight_content": ""}}, {"title": "泸沽湖环湖公路", "address": "云南省丽江市宁蒗彝族自治县", "image": "", "rank": 16, "time": 2, "location": {"lat": 27.287727826051697, "lng": 100.85859038623477}, "feature": {"sight_features": "", "sight_content": ""}}, {"title": "郁金香", "address": "园林街81", "image": "", "rank": 17, "time": 2, "location": {"lat": 27.431598479447434, "lng": 101.52047637184253}, "feature": {"sight_features": "", "sight_content": ""}}, {"title": "杨二车纳姆博物馆", "address": "宁蒗彝族自治县泸沽湖小落水娅口", "image": "", "rank": 18, "time": 2, "location": {"lat": 27.578843737946354, "lng": 100.8152391504736}, "feature": {"sight_features": "", "sight_content": ""}}, {"title": "丽江泸沽湖海门农家乐", "address": "海门村5组30号", "image": "", "rank": 19, "time": 1.5, "location": {"lat": 27.722482491801216, "lng": 100.90962747902147}, "feature": {"sight_features": "", "sight_content": ""}}, {"title": "泸沽湖泽翁园", "address": "丽江布树村5组09号(五支落)", "image": "", "rank": 20, "time": 2, "location": {"lat": 26.860657438064884, "lng": 100.23246452903453}, "feature": {"sight_features": "", "sight_content": ""}}, {"title": "洼夸古寨", "address": "泸沽湖洼夸", "image": "", "rank": 21, "time": 2, "location": {"lat": 27.71973254967949, "lng": 100.78668120445606}, "feature": {"sight_features": "", "sight_content": ""}}, {"title": "星空小栈", "address": "泸沽湖镇达祖村", "image": "", "rank": 22, "time": 2, "location": {"lat": 27.75051728482088, "lng": 100.8070752170524}, "feature": {"sight_features": "", "sight_content": ""}}, {"title": "马尔他", "address": "凉山彝族自治州-盐源县", "image": "", "rank": 23, "time": 2, "location": {"lat": 27.4281548677411, "lng": 101.5154291291499}, "feature": {"sight_features": "", "sight_content": ""}}, {"title": "盐源县林产品总公司乌木天然林保...", "address": "凉山彝族自治州-盐源县-307省道附近", "image": "", "rank": 24, "time": 2, "location": {"lat": 27.56837199464049, "lng": 101.05674140030733}, "feature": {"sight_features": "", "sight_content": ""}}, {"title": "乌木子拉达", "address": "凉山彝族自治州-盐源县", "image": "", "rank": 25, "time": 2, "location": {"lat": 27.4281548677411, "lng": 101.5154291291499}, "feature": {"sight_features": "", "sight_content": ""}}]}