{"cityName": "叶城", "days": 2, "cityImage": "", "spots": [{"title": "加满清真寺", "address": "新疆叶城县内", "image": "", "rank": 1, "time": 1.0, "location": {"lat": 37.88916684442745, "lng": 77.42009762186518}, "feature": {"sight_features": "", "sight_content": ""}}, {"title": "棋盘千佛洞", "address": "新疆叶城县棋盘乡西南棋盘河谷的砂崖上", "image": "", "rank": 2, "time": 2, "location": {"lat": 37.7288037723815, "lng": 76.91747215342816}, "feature": {"sight_features": "", "sight_content": ""}}, {"title": "核桃七仙园", "address": "喀什地区叶城县萨依巴格乡17村", "image": "", "rank": 3, "time": 2, "location": {"lat": 37.84602194955105, "lng": 77.29745053177196}, "feature": {"sight_features": "", "sight_content": ""}}, {"title": "中华民族大舞台(塔克拉玛干旅游)", "address": "叶城县G315的2731里程碑处", "image": "", "rank": 4, "time": 1.5, "location": {"lat": 37.88916684442745, "lng": 77.42009762186518}, "feature": {"sight_features": "", "sight_content": ""}}, {"title": "叶城县农场", "address": "536县道附近", "image": "", "rank": 5, "time": 2, "location": {"lat": 22.793592069034464, "lng": 107.16935232911183}, "feature": {"sight_features": "", "sight_content": ""}}, {"title": "阿曼尼沙汗纪念陵", "address": "新疆维吾尔自治区喀什市解放北路 844000", "image": "", "rank": 6, "time": 2, "location": {"lat": 39.47337765337588, "lng": 75.99621745292569}, "feature": {"sight_features": "", "sight_content": ""}}, {"title": "昆仑影剧院", "address": "新城南路", "image": "", "rank": 7, "time": 2, "location": {"lat": 21.597646332626365, "lng": 110.29167884947358}, "feature": {"sight_features": "", "sight_content": ""}}, {"title": "特拉木坎力冰川", "address": "新疆维吾尔自治区喀什市喀喇昆仑山脉的特拉木坎力峰 844000", "image": "", "rank": 8, "time": 2, "location": {"lat": 39.47364953291228, "lng": 76.00031273791514}, "feature": {"sight_features": "", "sight_content": ""}}, {"title": "喀喇昆仑山", "address": "新疆维吾尔自治区喀什地区叶城县", "image": "", "rank": 9, "time": 2, "location": {"lat": 37.88916684442745, "lng": 77.42009762186518}, "feature": {"sight_features": "", "sight_content": ""}}, {"title": "叶城县图书馆", "address": "妇幼保健院南侧", "image": "", "rank": 10, "time": 2, "location": {"lat": 37.88916684442745, "lng": 77.42009762186518}, "feature": {"sight_features": "", "sight_content": ""}}]}