{"cityName": "宜城", "days": 2, "cityImage": "", "spots": [{"title": "宜城市启月家庭农场", "address": "石河村250省道旁", "image": "", "rank": 1, "time": 2, "location": {"lat": 34.132194006766184, "lng": 118.00159637266647}, "feature": {"sight_features": "", "sight_content": ""}}, {"title": "宜城市科技馆", "address": "自忠路126号", "image": "", "rank": 2, "time": 2.5, "location": {"lat": 31.225774569606692, "lng": 121.48569175338535}, "feature": {"sight_features": "", "sight_content": ""}}, {"title": "张自忠将军殉国处", "address": "湖北省宜城市峪山镇 441109", "image": "", "rank": 3, "time": 2, "location": {"lat": 31.96300972546257, "lng": 112.36120154581707}, "feature": {"sight_features": "", "sight_content": ""}}, {"title": "振兴广场", "address": "自忠路与振兴大道交叉口", "image": "", "rank": 4, "time": 2, "location": {"lat": 31.718179104830813, "lng": 112.26788400728728}, "feature": {"sight_features": "", "sight_content": ""}}, {"title": "育才书画院", "address": "京忠路161号", "image": "", "rank": 5, "time": 2, "location": {"lat": 31.71558879153177, "lng": 112.26724432393362}, "feature": {"sight_features": "", "sight_content": ""}}, {"title": "美联画艺", "address": "朝阳西路63号", "image": "", "rank": 6, "time": 2, "location": {"lat": 30.428289369125224, "lng": 120.30800833323572}, "feature": {"sight_features": "", "sight_content": ""}}, {"title": "汉江垂钓园", "address": "鄢城街道207国道汉江垂钓园(旧)", "image": "", "rank": 7, "time": 2, "location": {"lat": 31.746741118847503, "lng": 112.22558312151747}, "feature": {"sight_features": "", "sight_content": ""}}, {"title": "老龚农家乐", "address": "万洋政府路21号", "image": "", "rank": 8, "time": 2, "location": {"lat": 33.631180639652136, "lng": 113.36351238804514}, "feature": {"sight_features": "", "sight_content": ""}}, {"title": "邹家大院", "address": "S306金色田园农家养生菜馆东南160米", "image": "", "rank": 9, "time": 2, "location": {"lat": 31.588973367752498, "lng": 120.33894042167469}, "feature": {"sight_features": "", "sight_content": ""}}, {"title": "郭家祠堂", "address": "襄阳市宜城市", "image": "", "rank": 10, "time": 2, "location": {"lat": 31.725469730972, "lng": 112.2646114416873}, "feature": {"sight_features": "", "sight_content": ""}}, {"title": "楚都公园", "address": "情侣路与自忠路交叉口西50米", "image": "", "rank": 11, "time": 2, "location": {"lat": 31.710078891538764, "lng": 112.25796576764311}, "feature": {"sight_features": "", "sight_content": ""}}, {"title": "孩皮吧儿童乐园", "address": "襄阳市宜城市襄沙大道宜城新天地商业广场2层", "image": "", "rank": 12, "time": 2, "location": {"lat": 31.713734167817282, "lng": 112.26077987314471}, "feature": {"sight_features": "", "sight_content": ""}}, {"title": "紫盖山广场", "address": "襄阳市宜城市皇城街2411号", "image": "", "rank": 13, "time": 2, "location": {"lat": 31.711852437915027, "lng": 112.2666913782651}, "feature": {"sight_features": "", "sight_content": ""}}, {"title": "沃特主题动漫水上乐园", "address": "楚都公园(英皇KTV对面)", "image": "", "rank": 14, "time": 2, "location": {"lat": 37.88547513442066, "lng": 116.55811340424417}, "feature": {"sight_features": "", "sight_content": ""}}, {"title": "云水间农家乐", "address": "207国道西50米", "image": "", "rank": 15, "time": 2, "location": {"lat": 38.67484937592033, "lng": 114.04792987568985}, "feature": {"sight_features": "", "sight_content": ""}}, {"title": "富亿城市果园生态农庄", "address": "开发区宋玉三路", "image": "", "rank": 16, "time": 2, "location": {"lat": 31.682372835594002, "lng": 112.26187904605487}, "feature": {"sight_features": "", "sight_content": ""}}, {"title": "新世纪剧场", "address": "皇城街18附近", "image": "", "rank": 17, "time": 2, "location": {"lat": 40.620734466882496, "lng": 115.06332124448274}, "feature": {"sight_features": "", "sight_content": ""}}, {"title": "襄樊市花鼓戏剧团", "address": "皇城街世纪春天商务酒店附近", "image": "", "rank": 18, "time": 2, "location": {"lat": 31.711968509317085, "lng": 112.26668400497347}, "feature": {"sight_features": "", "sight_content": ""}}, {"title": "楚皇城", "address": "湖北省宜城市郑集镇皇城村", "image": "", "rank": 19, "time": 1.0, "location": {"lat": 31.65594835276596, "lng": 112.3237866829534}, "feature": {"sight_features": "", "sight_content": ""}}, {"title": "襄阳古城墙", "address": "湖北省襄阳市襄阳区汉江南岸", "image": "", "rank": 20, "time": 2.0, "location": {"lat": 32.04231022173386, "lng": 112.16964035088324}, "feature": {"sight_features": "", "sight_content": ""}}, {"title": "宜城步行街", "address": "湖北省宜城市自忠路", "image": "", "rank": 21, "time": 3.0, "location": {"lat": 31.718179104830813, "lng": 112.26788400728728}, "feature": {"sight_features": "", "sight_content": ""}}, {"title": "汉居街商贸市场", "address": "湖北省宜城市振兴大道230号", "image": "", "rank": 22, "time": 2, "location": {"lat": 31.715251975270554, "lng": 112.27754653528497}, "feature": {"sight_features": "", "sight_content": ""}}, {"title": "莺河一水库", "address": "襄阳市-宜城市", "image": "", "rank": 23, "time": 2, "location": {"lat": 31.725469730972, "lng": 112.2646114416873}, "feature": {"sight_features": "", "sight_content": ""}}]}