{"cityName": "伊川", "days": null, "cityImage": "", "spots": [{"title": "天室山滑雪场", "address": "河南省洛阳市伊川县葛寨乡张棉村", "image": "", "rank": 1, "time": 2, "location": {"lat": 34.2563569280804, "lng": 112.39477339482767}, "feature": {"sight_features": "", "sight_content": ""}}, {"title": "波斯湾水上乐园", "address": "洛阳市伊川县伊龙路与洛栾快道交叉口向南1000米", "image": "", "rank": 2, "time": 2, "location": {"lat": 34.41761466739295, "lng": 112.44020284333267}, "feature": {"sight_features": "", "sight_content": ""}}, {"title": "伊滨公园", "address": "洛阳市伊川县杜康大道47号", "image": "", "rank": 3, "time": 2, "location": {"lat": 34.43199659354215, "lng": 112.44286840234024}, "feature": {"sight_features": "", "sight_content": ""}}, {"title": "鹤鸣峡风景区", "address": "洛阳市伊川县南庄村东2公里处", "image": "", "rank": 4, "time": 2, "location": {"lat": 34.272254496017034, "lng": 112.3035058146242}, "feature": {"sight_features": "", "sight_content": ""}}, {"title": "任记兄弟农家乐", "address": "兴华南路113号", "image": "", "rank": 5, "time": 2, "location": {"lat": 37.9149234484483, "lng": 115.22266441765701}, "feature": {"sight_features": "", "sight_content": ""}}, {"title": "逃8密室", "address": "文化北路373号", "image": "", "rank": 6, "time": 2, "location": {"lat": 34.436622405851146, "lng": 112.43115874118705}, "feature": {"sight_features": "", "sight_content": ""}}, {"title": "玉龙秀水龙门脆枣采摘园", "address": "龙门石窟东山", "image": "", "rank": 7, "time": 2.5, "location": {"lat": 22.53669920983504, "lng": 113.99642713148037}, "feature": {"sight_features": "", "sight_content": ""}}, {"title": "西梅山庄", "address": "江左镇魏村北2公里", "image": "", "rank": 8, "time": 2, "location": {"lat": 34.480559974324485, "lng": 112.72564379657092}, "feature": {"sight_features": "", "sight_content": ""}}, {"title": "伊川凤山生态园", "address": "文化北路(凤山驾校对面)", "image": "", "rank": 9, "time": 2, "location": {"lat": 34.41140196935251, "lng": 112.46302489847496}, "feature": {"sight_features": "", "sight_content": ""}}, {"title": "洛阳大唐牡丹园", "address": "伊河东岸红双喜大酒店北100米", "image": "", "rank": 10, "time": 2.5, "location": {"lat": 31.834158064147005, "lng": 120.4838674344146}, "feature": {"sight_features": "", "sight_content": ""}}, {"title": "源头葡萄园", "address": "白元乡源头村", "image": "", "rank": 11, "time": 2, "location": {"lat": 34.364689835062606, "lng": 112.42133137682319}, "feature": {"sight_features": "", "sight_content": ""}}, {"title": "河南馨香公主食品有限公司食用菌...", "address": "323省道(崔周线)", "image": "", "rank": 12, "time": 2, "location": {"lat": 34.50505838773543, "lng": 112.33226318896594}, "feature": {"sight_features": "", "sight_content": ""}}, {"title": "永辉(-洛阳市人民路店)", "address": "杜康大道欧美商城(人民东路)", "image": "", "rank": 13, "time": 2, "location": {"lat": 34.42300031183394, "lng": 112.44456924321317}, "feature": {"sight_features": "", "sight_content": ""}}, {"title": "平泉庄遗址", "address": "河南伊川县城关镇梁村沟村 471300", "image": "", "rank": 14, "time": 2, "location": {"lat": 34.5370409599509, "lng": 112.43382894353579}, "feature": {"sight_features": "", "sight_content": ""}}, {"title": "洛阳烟云涧青铜工艺博物馆", "address": "河南省洛阳市伊川县X026(白梁线)", "image": "", "rank": 15, "time": 2.5, "location": {"lat": 34.29302298709352, "lng": 112.34951491272562}, "feature": {"sight_features": "", "sight_content": ""}}, {"title": "伊川教堂", "address": "河南省洛阳市伊川县文化北路199", "image": "", "rank": 16, "time": 0.5, "location": {"lat": 34.43376660924675, "lng": 112.42957747196395}, "feature": {"sight_features": "", "sight_content": ""}}, {"title": "淘气堡儿童乐园", "address": "杜康大道太阳绿城负一楼172号（艳琪儿童乐园内）", "image": "", "rank": 17, "time": 2, "location": {"lat": 34.4212532109031, "lng": 112.43636314332863}, "feature": {"sight_features": "", "sight_content": ""}}, {"title": "清真塔西烧烤", "address": "文化北路224号附近", "image": "", "rank": 18, "time": 2, "location": {"lat": 23.75162936844985, "lng": 107.98574019156807}, "feature": {"sight_features": "", "sight_content": ""}}, {"title": "葛寨乡文化广场", "address": "河南省洛阳市伊川县凯旋路附近", "image": "", "rank": 19, "time": 2, "location": {"lat": 34.3177891263102, "lng": 112.37876683928452}, "feature": {"sight_features": "", "sight_content": ""}}, {"title": "科迪食文化广场", "address": "河南省洛阳市伊川县文化北路132号", "image": "", "rank": 20, "time": 2, "location": {"lat": 34.43116281506011, "lng": 112.42833614759668}, "feature": {"sight_features": "", "sight_content": ""}}, {"title": "龙门壹号高尔夫", "address": "滨河大道与常付线交叉口向东100米", "image": "", "rank": 21, "time": 3.5, "location": {"lat": 34.53747202554594, "lng": 112.47579068124674}, "feature": {"sight_features": "", "sight_content": ""}}, {"title": "二程文化园", "address": "洛阳市伊川县鹤鸣西路", "image": "", "rank": 22, "time": 2, "location": {"lat": 34.420995183457435, "lng": 112.42379773568561}, "feature": {"sight_features": "", "sight_content": "二程文化园位于洛阳市伊川县城西，荆山公园脚下，地理位置优越，景色宜人。全园建筑面积300余亩，是在北宋思想家、哲学家、教育家、理学奠基人程颢、程颐墓园基础上升级扩建的集旅游、休闲、教育、拓展训练为一体的综合性文化园林，同时也是儒学文化园林。"}}, {"title": "洛阳盛鼎青铜文化工艺", "address": "文化北路125号", "image": "", "rank": 23, "time": 2.5, "location": {"lat": 32.91244482485377, "lng": 120.0509845696358}, "feature": {"sight_features": "", "sight_content": ""}}, {"title": "乐悠悠儿童乐园", "address": "河南省洛阳市伊川县S322", "image": "", "rank": 24, "time": 2, "location": {"lat": 34.42764579642734, "lng": 112.43240745501544}, "feature": {"sight_features": "", "sight_content": ""}}, {"title": "伊川县高山镇大觉寺", "address": "河南省洛阳市伊川县X037(古马线)", "image": "", "rank": 25, "time": 2, "location": {"lat": 34.42880922072716, "lng": 112.34096014993028}, "feature": {"sight_features": "", "sight_content": ""}}, {"title": "伊川VR主题乐园", "address": "河南省洛阳市伊川县人民东路108", "image": "", "rank": 26, "time": 2, "location": {"lat": 34.424125267587684, "lng": 112.440926384404}, "feature": {"sight_features": "", "sight_content": ""}}, {"title": "艳琪儿童乐园", "address": "杜康大道太阳绿城B1层", "image": "", "rank": 27, "time": 2, "location": {"lat": 34.4212532109031, "lng": 112.43636314332863}, "feature": {"sight_features": "", "sight_content": ""}}, {"title": "中溪影剧院", "address": "河南省洛阳市伊川县鸣皋镇中国邮政南50米", "image": "", "rank": 28, "time": 2, "location": {"lat": 34.33887847101343, "lng": 112.28547711678485}, "feature": {"sight_features": "", "sight_content": ""}}, {"title": "北大门绿地广场", "address": "河南省洛阳市伊川县洛栾线", "image": "", "rank": 29, "time": 2, "location": {"lat": 34.19446338448352, "lng": 112.15197831260727}, "feature": {"sight_features": "", "sight_content": ""}}, {"title": "瑶湾村文体娱乐广场", "address": "河南省洛阳市伊川县杜康大道", "image": "", "rank": 30, "time": 2, "location": {"lat": 34.42243160272605, "lng": 112.43687077217909}, "feature": {"sight_features": "", "sight_content": ""}}, {"title": "万寿寺", "address": "河南省洛阳市伊川县S243", "image": "", "rank": 31, "time": 1.0, "location": {"lat": 34.42764579642734, "lng": 112.43240745501544}, "feature": {"sight_features": "", "sight_content": ""}}, {"title": "洛阳万安山南山公园", "address": "河南省洛阳市伊川县郑卢高速兵马沟", "image": "", "rank": 32, "time": 2.5, "location": {"lat": 34.499582917742536, "lng": 112.62220674226778}, "feature": {"sight_features": "", "sight_content": ""}}, {"title": "救恩堂", "address": "河南省洛阳市伊川县宁洛高速公路", "image": "", "rank": 33, "time": 2, "location": {"lat": 34.558920454880244, "lng": 112.39117407598826}, "feature": {"sight_features": "", "sight_content": ""}}, {"title": "基督教会(窑底)", "address": "郭木线西50米", "image": "", "rank": 34, "time": 2, "location": {"lat": 34.0856258112549, "lng": 112.4300017560292}, "feature": {"sight_features": "", "sight_content": ""}}, {"title": "南府店广场", "address": "人民东路附近", "image": "", "rank": 35, "time": 2, "location": {"lat": 38.067918425672914, "lng": 114.65286299664115}, "feature": {"sight_features": "", "sight_content": ""}}, {"title": "夏堡村文化娱乐广场", "address": "金山大道附近", "image": "", "rank": 36, "time": 2, "location": {"lat": 26.03387036910777, "lng": 119.35128440853116}, "feature": {"sight_features": "", "sight_content": ""}}, {"title": "伊川县植物科普园", "address": "河南省洛阳市伊川县新周城路志远桥附近", "image": "", "rank": 37, "time": 2, "location": {"lat": 34.43818016996568, "lng": 112.4648332602293}, "feature": {"sight_features": "", "sight_content": ""}}, {"title": "藏真阁书法美术馆", "address": "文化北路85号", "image": "", "rank": 38, "time": 2, "location": {"lat": 32.24499434298093, "lng": 119.83065813120396}, "feature": {"sight_features": "", "sight_content": ""}}, {"title": "慈善书画院", "address": "238省道", "image": "", "rank": 39, "time": 2, "location": {"lat": 32.02406130021086, "lng": 119.88529029655679}, "feature": {"sight_features": "", "sight_content": ""}}, {"title": "开国伟人纪念馆", "address": "322省道", "image": "", "rank": 40, "time": 2, "location": {"lat": 37.241368479814305, "lng": 113.95062838725721}, "feature": {"sight_features": "", "sight_content": ""}}, {"title": "美通别克伊川展厅", "address": "洛栾线", "image": "", "rank": 41, "time": 2, "location": {"lat": 34.19446338448352, "lng": 112.15197831260727}, "feature": {"sight_features": "", "sight_content": ""}}, {"title": "保隆酒庄", "address": "野狐岭路口、振兴路八一路口、保隆酒庄", "image": "", "rank": 42, "time": 2, "location": {"lat": 30.930587499245174, "lng": 121.58455743165322}, "feature": {"sight_features": "", "sight_content": ""}}, {"title": "天野香秀苑水上乐园", "address": "瓦子西村", "image": "", "rank": 43, "time": 2, "location": {"lat": 34.09645625463213, "lng": 114.56046662639487}, "feature": {"sight_features": "", "sight_content": ""}}, {"title": "伊川县电视台经济生活频道红卫剧...", "address": "文化北路389", "image": "", "rank": 44, "time": 2, "location": {"lat": 34.43792406382064, "lng": 112.43196968109635}, "feature": {"sight_features": "", "sight_content": ""}}, {"title": "伊川县图书馆", "address": "人民中路410附近", "image": "", "rank": 45, "time": 2, "location": {"lat": 27.852606847601294, "lng": 113.15613861307408}, "feature": {"sight_features": "", "sight_content": ""}}, {"title": "南省林川市豫剧", "address": "243省道附近", "image": "", "rank": 46, "time": 2, "location": {"lat": 32.14968473714547, "lng": 119.36607869484463}, "feature": {"sight_features": "", "sight_content": ""}}, {"title": "荷塘园", "address": "320省道西50米", "image": "", "rank": 47, "time": 2, "location": {"lat": 39.62797427091192, "lng": 115.8321529931715}, "feature": {"sight_features": "", "sight_content": ""}}, {"title": "伊川程园 Yichuan Chengyuan", "address": "河南伊川县荆山西路", "image": "", "rank": 48, "time": 2, "location": {"lat": 34.425900694025415, "lng": 112.42558904670305}, "feature": {"sight_features": "", "sight_content": ""}}, {"title": "豫西艺宝斋展览馆", "address": "河南省伊川县人民东路", "image": "", "rank": 49, "time": 2, "location": {"lat": 34.42300031183394, "lng": 112.44456924321317}, "feature": {"sight_features": "", "sight_content": ""}}]}