{"cityName": "宜川", "days": 2, "cityImage": "", "spots": [{"title": "壶口瀑布", "address": "延安市宜川县壶口乡", "image": "", "rank": 1, "time": 2.5, "location": {"lat": 36.14345538895065, "lng": 110.42252271086454}, "feature": {"sight_features": "特色1 这里是世界上的金黄色瀑布 特色2 黄河水在这里呼啸而下，溅起巨大的浪涛，激起水雾烟云，气势磅礴，让人无不震撼。", "sight_content": "黄河自青藏高原的巴颜喀拉山北麓发源，流经青海、四川、甘肃、宁夏 、内蒙、陕西、山西、河南、山东九省区，全长5464公里，被称之为中华民族的“母亲河”。\n滚滚黄河像一条巨龙奔腾而来，承载着华夏五千年的厚重历史，穿行在西北黄土高原的秦晋大峡谷中，当流经陕西宜川县壶口乡境内时，由于受到河床走势的影响，河水由四、五百米突然收缩为四、五十米，滔滔河水倾泻而下，冲入约五十米的石槽中，形成雄浑壮观的瀑布群，因形似茶壶而得名。这就是中国著名的河瀑奇观—壶口瀑布。\n壶口瀑布是黄河上唯一的大瀑布，也是世界罕见的金黄色大瀑布。站在壶口岸边，目睹巨浪翻滚，耳闻涛声如雷，人们方能领悟到黄河在奔腾、黄河在怒吼、黄河在咆哮的浩大气势。它的雄壮，它的百折不挠，勇往直前，无所畏惧，正是中华民族精神的真实写照！由于季节的更替和水量的变化，壶口季季有美景，形成了独特的八大景观:水底冒烟、旱地行船、霓虹戏水、晴空洒雨、旱天鸣雷、冰峰倒挂、山飞海立、十里龙槽。\n\n\n壶口瀑布是黄河中游流经秦晋大峡谷时形成的一个天然瀑布。西临陕西省宜川县，东濒山西省吉县，距陕西省宜川县城40公里。瀑布宽达50米，深约50米，最大瀑面3万平方米，是中国仅次于贵州省黄果树瀑布的第二大瀑布，也是世界上最大的黄色瀑布。  以壶口瀑布为中心的风景区，集黄河峡谷、黄土高原、古塬村寨为一体，展现了黄河流域壮美的自然景观和丰富多彩的历史文化积淀。瀑布景区面积约100平方公里，为陕西省和山西省共有的著名风景名胜区，1988年被定为国家重点风景名胜区，1991年被评为“中国旅游胜地四十佳”。\n\n\n要想感受到黄河的咆哮，那么必须走近瀑布，沿着凹进石崖边上一道被水冲刷的石槽绕到瀑布内，让铺天盖地的洪流从头顶越过，甚至被黄河飞腾起的水雾打湿衣衫，一定要瞪大眼睛去欣赏惊涛骇浪扑面而来的视觉冲击，黄河的怒吼声如雷贯耳,咆哮出黄河的雄浑。"}}, {"title": "第二战区司令长官部秋林旧址", "address": "延安市宜川县秋林镇秋林街", "image": "", "rank": 2, "time": 2, "location": {"lat": 36.08868837477321, "lng": 110.27313927276086}, "feature": {"sight_features": "", "sight_content": ""}}, {"title": "恒欣水上乐园", "address": "环城东路原林业招待所院内", "image": "", "rank": 3, "time": 2, "location": {"lat": 31.86631245304718, "lng": 117.29805556868116}, "feature": {"sight_features": "", "sight_content": ""}}, {"title": "宜川战役烈士陵园", "address": "陕西省延安市宜川县革命路", "image": "", "rank": 4, "time": 2.5, "location": {"lat": 36.07028322378662, "lng": 110.1864221399657}, "feature": {"sight_features": "", "sight_content": ""}}, {"title": "人口文化苑", "address": "东大街与渭清路交叉口西南150米", "image": "", "rank": 5, "time": 2, "location": {"lat": 31.909199228140412, "lng": 121.30903625505988}, "feature": {"sight_features": "", "sight_content": ""}}, {"title": "森森水族馆", "address": "朝阳小区5号楼", "image": "", "rank": 6, "time": 2, "location": {"lat": 38.87015143576551, "lng": 115.47104711375971}, "feature": {"sight_features": "", "sight_content": ""}}, {"title": "每日抢鲜儿童乐园", "address": "南大街9号附近", "image": "", "rank": 7, "time": 2, "location": {"lat": 40.240432762508746, "lng": 116.13647383722832}, "feature": {"sight_features": "", "sight_content": ""}}, {"title": "石沟坪广场", "address": "迎宾大道石沟坪广场附近", "image": "", "rank": 8, "time": 2, "location": {"lat": 36.05590721709774, "lng": 110.18323827664499}, "feature": {"sight_features": "", "sight_content": ""}}, {"title": "法治文化广场", "address": "河滨路与迎宾大道交叉口东北100米", "image": "", "rank": 9, "time": 2, "location": {"lat": 36.056824739704794, "lng": 110.17886836169502}, "feature": {"sight_features": "", "sight_content": ""}}, {"title": "冰峰倒挂", "address": "延安市宜川县壶口乡黄河壶口瀑布景区内", "image": "", "rank": 10, "time": 0.2, "location": {"lat": 36.1510136273519, "lng": 110.45542740993223}, "feature": {"sight_features": "", "sight_content": ""}}, {"title": "黄河冰桥", "address": "延安市宜川县壶口乡黄河壶口瀑布景区内", "image": "", "rank": 11, "time": 0.2, "location": {"lat": 36.1510136273519, "lng": 110.45542740993223}, "feature": {"sight_features": "", "sight_content": ""}}, {"title": "晴空洒雨", "address": "延安市宜川县壶口乡黄河壶口瀑布景区内", "image": "", "rank": 12, "time": 0.2, "location": {"lat": 36.1510136273519, "lng": 110.45542740993223}, "feature": {"sight_features": "", "sight_content": ""}}, {"title": "十里龙槽", "address": "延安市宜川县壶口乡黄河壶口瀑布景区内", "image": "", "rank": 13, "time": 0.2, "location": {"lat": 36.1510136273519, "lng": 110.45542740993223}, "feature": {"sight_features": "", "sight_content": ""}}, {"title": "旱地行船", "address": "延安市宜川县壶口乡黄河壶口瀑布景区内", "image": "", "rank": 14, "time": 0.2, "location": {"lat": 36.1510136273519, "lng": 110.45542740993223}, "feature": {"sight_features": "", "sight_content": ""}}, {"title": "旱天惊雷", "address": "延安市宜川县壶口乡黄河壶口瀑布景区内", "image": "", "rank": 15, "time": 0.2, "location": {"lat": 36.1510136273519, "lng": 110.45542740993223}, "feature": {"sight_features": "", "sight_content": ""}}, {"title": "霓虹戏水", "address": "延安市宜川县壶口乡黄河壶口瀑布景区内", "image": "", "rank": 16, "time": 0.2, "location": {"lat": 36.1510136273519, "lng": 110.45542740993223}, "feature": {"sight_features": "", "sight_content": ""}}, {"title": "水底冒烟", "address": "延安市宜川县壶口乡黄河壶口瀑布景区内", "image": "", "rank": 17, "time": 0.2, "location": {"lat": 36.1510136273519, "lng": 110.45542740993223}, "feature": {"sight_features": "", "sight_content": ""}}, {"title": "黄河涸瘦", "address": "延安市宜川县壶口乡黄河壶口瀑布景区内", "image": "", "rank": 18, "time": 0.2, "location": {"lat": 36.1510136273519, "lng": 110.45542740993223}, "feature": {"sight_features": "", "sight_content": ""}}, {"title": "山飞海立", "address": "延安市宜川县壶口乡黄河壶口瀑布景区内", "image": "", "rank": 19, "time": 0.2, "location": {"lat": 36.1510136273519, "lng": 110.45542740993223}, "feature": {"sight_features": "", "sight_content": ""}}, {"title": "黄河大合唱", "address": "延安市宜川县壶口乡黄河壶口瀑布景区内", "image": "", "rank": 20, "time": 2, "location": {"lat": 36.1510136273519, "lng": 110.45542740993223}, "feature": {"sight_features": "", "sight_content": ""}}, {"title": "《志丹归来》", "address": "延安市宜川县延壶路壶口窑洞山庄内", "image": "", "rank": 21, "time": 2, "location": {"lat": 36.19104571311529, "lng": 110.41846767086028}, "feature": {"sight_features": "", "sight_content": "《志丹归来》演出让你置身原汁原味陕北小镇，随机一身行装，定格一个角色，在人民英雄刘志丹的带领下，参与激动人心的誓师大会，重温入党誓词，感知先驱壮志。"}}, {"title": "大禹治水纪念馆", "address": "陕西省延安宜川县壶口瀑布", "image": "", "rank": 22, "time": 2, "location": {"lat": 36.157685871270694, "lng": 110.45028547775242}, "feature": {"sight_features": "", "sight_content": ""}}, {"title": "黄河壶口瀑布国家地质公园", "address": "延安市宜川县壶口乡", "image": "", "rank": 23, "time": 2, "location": {"lat": 36.14345538895065, "lng": 110.42252271086454}, "feature": {"sight_features": "", "sight_content": ""}}, {"title": "蟒头山", "address": "陕西省延安市宜川县", "image": "", "rank": 24, "time": 2, "location": {"lat": 36.056397437854244, "lng": 110.17541306458482}, "feature": {"sight_features": "", "sight_content": ""}}]}