{"cityName": "宜都", "days": 2, "cityImage": "", "spots": [{"title": "三峡九凤谷", "address": "宜昌市宜都市五眼泉镇", "image": "", "rank": 1, "time": 4.5, "location": {"lat": 30.36604235951087, "lng": 111.33958097897376}, "feature": {"sight_features": "特色1 带孩子赏幽静清溪，探险峻奇峰 特色2 集峡谷游乐、儿童自然探索、素质教育、观光休闲等功能于一体的旅游度假区 特色3 综合性娱乐型休闲旅游区", "sight_content": "三峡九凤谷是以自然生态为基底，结合秀美的峡谷资源、瀑布资源、山体资源，以主题化的生态花海为媒介；以游戏化互动体验式的项目为脉络、满足欢乐、动感、激情、冒险、挑战、亲子、休闲等特介，打造集峡谷探险，儿童自然探索、素质教育、观光休闲等功能于一体的综合性娱乐型休闲旅游区。\n丑溪河位于五眼泉镇弭水桥村，狭长的盆地依偎着延绵起伏的梁山遗脉，溪水两岸错落有致分布的民居，郁郁葱葱的林木串起纯然一色的美景，令人充满无限遐想。据说，丑溪原名扭溪，是渔洋河的重要支流。早年因盛产鱼虾，沿河两岸有成片的柳树而闻名。历经岁月变迁，这方神奇的净土，静卧群山之间，不亲身走进其间，难以体味它的风情。走在山涧小路上，一边是潺潺的山谷水声，一边是绿树成荫的山坡，甚为惬意。站在高山俯瞰，山路像腰带一样缠绕山脚，蜿蜒伸向远方。徜徉在林中小道，感觉时间的步履仿佛也已停驻，那些回归童年的野趣让我们无比兴奋。"}}, {"title": "天龙湾国际高尔夫俱乐部", "address": "宜都市青林寺天龙湾", "image": "", "rank": 2, "time": 2, "location": {"lat": 30.477768025270546, "lng": 111.35775947015522}, "feature": {"sight_features": "", "sight_content": ""}}, {"title": "三峡湿地—杨守敬书院", "address": "宜昌宜都市五眼泉镇石门村二组", "image": "", "rank": 3, "time": 2, "location": {"lat": 30.384897737559513, "lng": 111.34072606158361}, "feature": {"sight_features": "特色1 品湿地三宝，游守敬书院", "sight_content": "三峡湿地·杨守敬书院风景名胜区（简称三峡湿地）位于长江、清江、渔洋河三水交汇的宜都市境内的高坝洲库区，她西连巴蜀群山，东接江汉平原，北望中原大地，南通武陵余脉，系鄂西生态文化旅游的核心景观带。杨守敬书院作为三峡湿地---宜都天龙湾国家湿地公园配套的重要文化旅游项目，是镶嵌在三峡湿地---宜都天龙湾国家湿地公园内的一颗璀璨明珠。\n景区总占地1239.5公顷，其中杨守敬书院占地320余亩，水域面积1000亩，于2005年9月破土动工兴建，历时十年，已完成主体及配套建筑8300余平米，景观漫游步道5公里。景区分为“一院四区\"四大功能板块,即杨守敬书院、湿地宣教展示区、生态养疗度假区、水上游乐区、问道养生区。\n杨守敬书院:分为书院讲学区、藏书区、祭祀区，主要承担杨守敬文化及中国传统文化的教育、传承、藏书、学术交流、祭祀中国古代历史文化名人等功能。湿地宣教展示区: 分为湿地宣教展示、湿地石林奇观两大区域，主要承担湿地保护知识，三峡湿地及清江流域动植物保护宣传与标本陈列、湿地石林奇观展示等功能。生态养疗度假区:主要承担学术会议、培训拓展、养疗休闲、度假娱乐等接待服务功能。水上游乐区:主要承担水上极限运动和水上休闲娱乐运动服务接待功能。问道养生区:主要承担民间香客及信众敬奉祭祀、问道养生、传经诵法、答疑解惑，传承民间宗教传统文化的功能。三峡湿地、瞻守敬故里，住清水山庄，品湿地三宝，游守敬书院，赏湿地石林。"}}, {"title": "正国民俗博物馆", "address": "宜昌市宜都市红春社区一组清江古镇民俗红村", "image": "", "rank": 4, "time": 2, "location": {"lat": 30.38843399478368, "lng": 111.44887352276058}, "feature": {"sight_features": "", "sight_content": ""}}, {"title": "宜都市奥陶纪石林景区", "address": "宜昌市宜都市潘家湾土家族乡沈家冲村三组", "image": "", "rank": 5, "time": 2, "location": {"lat": 30.220765586260615, "lng": 111.1895709125904}, "feature": {"sight_features": "", "sight_content": ""}}, {"title": "三峡龙宫温泉", "address": "昌市宜都市聂家河镇古潮音洞", "image": "", "rank": 6, "time": 2, "location": {"lat": 30.289958062920306, "lng": 111.3097013659313}, "feature": {"sight_features": "", "sight_content": ""}}, {"title": "西湖公园", "address": "湖北省宜昌市宜都市枝城大道280", "image": "", "rank": 7, "time": 1.5, "location": {"lat": 30.302895045830706, "lng": 111.50858681219664}, "feature": {"sight_features": "", "sight_content": ""}}, {"title": "奥陶纪石林", "address": "湖北省宜都市潘家湾乡 443306", "image": "", "rank": 8, "time": 2, "location": {"lat": 30.22444220514984, "lng": 111.2232996470651}, "feature": {"sight_features": "", "sight_content": ""}}, {"title": "长江公路大桥", "address": "沪渝高速", "image": "", "rank": 9, "time": 2, "location": {"lat": 31.23744522200775, "lng": 118.42266764826077}, "feature": {"sight_features": "", "sight_content": ""}}, {"title": "箭楼子农家乐", "address": "五眼泉镇广播电视站附近", "image": "", "rank": 10, "time": 2, "location": {"lat": 30.360647158036436, "lng": 111.33600105634693}, "feature": {"sight_features": "", "sight_content": ""}}, {"title": "宜都剧场", "address": "城乡路", "image": "", "rank": 11, "time": 2, "location": {"lat": 46.339182843000245, "lng": 132.2294038664332}, "feature": {"sight_features": "", "sight_content": ""}}, {"title": "杨柳岸垂钓", "address": "五眼泉镇袁家塝村", "image": "", "rank": 12, "time": 2, "location": {"lat": 30.391517237723846, "lng": 111.40939550905587}, "feature": {"sight_features": "", "sight_content": ""}}, {"title": "宜昌优利可柠檬专业合作社", "address": "实验幼儿园旁", "image": "", "rank": 13, "time": 0.75, "location": {"lat": 32.34539188591647, "lng": 118.84214155699725}, "feature": {"sight_features": "", "sight_content": ""}}, {"title": "郑家祠堂", "address": "宜昌市宜都市二二四县道", "image": "", "rank": 14, "time": 2, "location": {"lat": 30.255552689762883, "lng": 111.39191859807093}, "feature": {"sight_features": "", "sight_content": ""}}, {"title": "徐家祠堂", "address": "宜昌市宜都市三一八国道", "image": "", "rank": 15, "time": 1.5, "location": {"lat": 30.566194513145494, "lng": 111.3995181728548}, "feature": {"sight_features": "", "sight_content": ""}}, {"title": "贺炳炎广场", "address": "湖北省宜昌市宜都市松鹤路77", "image": "", "rank": 16, "time": 2, "location": {"lat": 30.13658418383556, "lng": 111.48902031683272}, "feature": {"sight_features": "", "sight_content": ""}}, {"title": "矿泉水立方", "address": "湖北省宜都市聂家河镇快乐河旅游区", "image": "", "rank": 17, "time": 2, "location": {"lat": 30.27593903847727, "lng": 111.36922492066738}, "feature": {"sight_features": "", "sight_content": ""}}, {"title": "龙山休闲山庄", "address": "湖北省宜昌市宜都市S254(清江大道)", "image": "", "rank": 18, "time": 2, "location": {"lat": 30.383233176473492, "lng": 111.46656885673028}, "feature": {"sight_features": "", "sight_content": ""}}, {"title": "艾家祠堂", "address": "宜昌市宜都市", "image": "", "rank": 19, "time": 2, "location": {"lat": 30.38440427431352, "lng": 111.456515837124}, "feature": {"sight_features": "", "sight_content": ""}}, {"title": "西湖广场", "address": "西湖大道与254省道交叉口北100米", "image": "", "rank": 20, "time": 2, "location": {"lat": 30.25146167943186, "lng": 120.1787592085105}, "feature": {"sight_features": "", "sight_content": ""}}, {"title": "清水湾度假村", "address": "宜昌五眼泉乡石门村", "image": "", "rank": 21, "time": 2, "location": {"lat": 30.392021206739077, "lng": 111.33743448334751}, "feature": {"sight_features": "", "sight_content": ""}}, {"title": "陆逊广场", "address": "城乡路与城河大道交叉口东南50米", "image": "", "rank": 22, "time": 2, "location": {"lat": 30.397713161930803, "lng": 111.46697259205699}, "feature": {"sight_features": "", "sight_content": ""}}, {"title": "三峡龙宫水上乐园", "address": "宜昌市宜都市聂家河镇三二五省道62.8公里处（古潮音洞度假山寨内）", "image": "", "rank": 23, "time": 2, "location": {"lat": 30.289624742908114, "lng": 111.30981394606934}, "feature": {"sight_features": "特色1 观光休闲旅游度假乐园", "sight_content": "三峡龙宫水上乐园拥有古潮音洞风景区独特的天然泉水资源，是少有的使用天然泉水作为泳池用水的综合性水上乐园。\n有25米标准泳池、水上滑道池、水上滑道等水上游乐设施。"}}, {"title": "杨守敬纪念馆", "address": "园林大道27号", "image": "", "rank": 24, "time": 2, "location": {"lat": 41.09262000013881, "lng": 122.99941770870225}, "feature": {"sight_features": "", "sight_content": ""}}, {"title": "宜都市科技馆", "address": "长江大道58号", "image": "", "rank": 25, "time": 2.5, "location": {"lat": 29.610189646195355, "lng": 105.10838963610698}, "feature": {"sight_features": "", "sight_content": ""}}, {"title": "九洲水上乐园", "address": "国际商贸城旁(国贸大厦后)", "image": "", "rank": 26, "time": 2, "location": {"lat": 40.83467201287033, "lng": 111.67160885455307}, "feature": {"sight_features": "", "sight_content": ""}}, {"title": "潮音水立方水上娱乐城", "address": "聂家河镇", "image": "", "rank": 27, "time": 2, "location": {"lat": 30.27593903847727, "lng": 111.36922492066738}, "feature": {"sight_features": "", "sight_content": ""}}, {"title": "迷城", "address": "宜华大道地中海风情街九州丽景苑水上乐园旁", "image": "", "rank": 28, "time": 0.4, "location": {"lat": 23.069025171362085, "lng": 113.28913766469996}, "feature": {"sight_features": "", "sight_content": ""}}, {"title": "江南春农家乐", "address": "杨守敬大道", "image": "", "rank": 29, "time": 2, "location": {"lat": 30.383720010040825, "lng": 111.44402123032806}, "feature": {"sight_features": "", "sight_content": ""}}, {"title": "天峡世界鲟鱼博览园", "address": "红花套镇荆门山大道369号", "image": "", "rank": 30, "time": 2, "location": {"lat": 30.52759657917231, "lng": 111.41339627613615}, "feature": {"sight_features": "", "sight_content": ""}}, {"title": "潘家湾土家族乡民俗文化博物馆", "address": "潘家湾土家族乡石林路134号", "image": "", "rank": 31, "time": 2, "location": {"lat": 30.226932125457488, "lng": 111.22029568289734}, "feature": {"sight_features": "", "sight_content": ""}}, {"title": "古潮音洞度假山寨", "address": "湖北省宜都市聂家河镇", "image": "", "rank": 32, "time": 2, "location": {"lat": 30.27593903847727, "lng": 111.36922492066738}, "feature": {"sight_features": "", "sight_content": ""}}, {"title": "宜都商业街", "address": "湖北省宜都市五宜大道", "image": "", "rank": 33, "time": 2, "location": {"lat": 30.37521253659589, "lng": 111.45765344852691}, "feature": {"sight_features": "", "sight_content": ""}}, {"title": "廖家夹河", "address": "宜昌市-宜都市-三峡天龙湾国际高尔夫俱乐部", "image": "", "rank": 34, "time": 2, "location": {"lat": 30.470775880066775, "lng": 111.3553694618713}, "feature": {"sight_features": "", "sight_content": ""}}, {"title": "东西冲", "address": "宜昌市-宜都市-东溪冲路", "image": "", "rank": 35, "time": 1.5, "location": {"lat": 30.132311415433197, "lng": 111.48071957327628}, "feature": {"sight_features": "", "sight_content": ""}}, {"title": "纸坊乡韵农庄", "address": "宜昌市-宜都市", "image": "", "rank": 36, "time": 2, "location": {"lat": 30.38440427431352, "lng": 111.456515837124}, "feature": {"sight_features": "", "sight_content": ""}}]}