{"cityName": "宜丰", "days": 2, "cityImage": "", "spots": [{"title": "天宝古村", "address": "宜春市宜丰县境北23公里处（即现辛会村、辛联村）", "image": "", "rank": 1, "time": 4.0, "location": {"lat": 28.534489391859175, "lng": 114.77629415976243}, "feature": {"sight_features": "", "sight_content": ""}}, {"title": "九天大峡谷漂流", "address": "宜春市宜丰县九天生态旅游度假区", "image": "", "rank": 2, "time": 2, "location": {"lat": 28.400373307264914, "lng": 114.80951713474946}, "feature": {"sight_features": "特色1 18公里长的大峡谷，常年烟雨弥漫，蜿蜒崎岖的峡谷恰似九天之外降下的一条巨龙！", "sight_content": "九天生态旅游景区位于宜丰县西北部国家级官山自然保护区西麓，海拔1480米，山势雄伟壮观；18公里长的大峡谷，常年烟雨弥漫，蜿蜒崎岖的峡谷恰似九天之外降下的一条巨龙，游戏于丛林山峦间，敬待天下宾客的莅临。\n九天大峡谷漂流上游拥有一座容量达50万立方的中型水库。九天生态旅游景区是江西水质较好，水量最较足，植物较完好的自然生态旅游区。\n景区距离大广武吉高速和昌铜高速天宝互通枢纽仅3公里，交通畅通便利，九天旅游区周边还有曹洞宗祖庭洞山古寺、临济宗祖庭黄檗山古寺、天宝古村古树群、潭山温泉、东方禅文化园和中国竹博园等景点，被誉为“江西西部后花园”，是展现于赣、鄂、湘地区的旅游名片。"}}, {"title": "洞山", "address": "江西省宜春市宜丰县", "image": "", "rank": 3, "time": 2.5, "location": {"lat": 28.400373307264914, "lng": 114.80951713474946}, "feature": {"sight_features": "", "sight_content": ""}}, {"title": "瀚道民间艺术博物馆", "address": "宜春市宜丰县渊明北大道", "image": "", "rank": 4, "time": 1.0, "location": {"lat": 28.403147947047437, "lng": 114.80677633546988}, "feature": {"sight_features": "", "sight_content": ""}}, {"title": "九天丛林野战", "address": "宜春市宜丰县黄岗山垦殖场", "image": "", "rank": 5, "time": 2, "location": {"lat": 28.594613413537807, "lng": 114.78064700870286}, "feature": {"sight_features": "", "sight_content": ""}}, {"title": "开心王国儿童乐园", "address": "江西省宜春市宜丰县永和东大道新昌镇卫生院东150米", "image": "", "rank": 6, "time": 2, "location": {"lat": 28.393415346280037, "lng": 114.80909774914429}, "feature": {"sight_features": "", "sight_content": ""}}, {"title": "四教堂", "address": "宜春市奉新县", "image": "", "rank": 7, "time": 2, "location": {"lat": 28.69402895145841, "lng": 115.40655109852699}, "feature": {"sight_features": "", "sight_content": ""}}, {"title": "公园路早餐店", "address": "江西省宜春市宜丰县公园路1号", "image": "", "rank": 8, "time": 2, "location": {"lat": 28.39202221582716, "lng": 114.79362009163628}, "feature": {"sight_features": "", "sight_content": ""}}, {"title": "崇文塔", "address": "宜春市宜丰县", "image": "", "rank": 9, "time": 1.0, "location": {"lat": 28.400373307264914, "lng": 114.80951713474946}, "feature": {"sight_features": "", "sight_content": ""}}, {"title": "洞山禅林", "address": "党洞线附近", "image": "", "rank": 10, "time": 2, "location": {"lat": 28.529891936057744, "lng": 114.87611996120448}, "feature": {"sight_features": "", "sight_content": ""}}, {"title": "白泽湖乐园", "address": "解放路白泽湖路路口附近", "image": "", "rank": 11, "time": 2, "location": {"lat": 28.392379525654047, "lng": 114.79397217439605}, "feature": {"sight_features": "", "sight_content": ""}}, {"title": "七彩开心农庄", "address": "邓石段", "image": "", "rank": 12, "time": 2, "location": {"lat": 28.329964173806232, "lng": 114.7599131536576}, "feature": {"sight_features": "", "sight_content": ""}}, {"title": "天成画廊", "address": "东郊路20号", "image": "", "rank": 13, "time": 2, "location": {"lat": 29.873537775028616, "lng": 121.58348375606342}, "feature": {"sight_features": "", "sight_content": ""}}, {"title": "真如生态园", "address": "中国江西省宜春市宜丰县新庄镇", "image": "", "rank": 14, "time": 2, "location": {"lat": 28.473538906512672, "lng": 115.09183539109421}, "feature": {"sight_features": "", "sight_content": ""}}, {"title": "青沐山恐龙水上乐园", "address": "宜春市宜丰县G45（大广高速）西侧", "image": "", "rank": 15, "time": 2, "location": {"lat": 28.573752903643292, "lng": 114.75868741489136}, "feature": {"sight_features": "", "sight_content": "宜丰青沐山恐龙水上乐园占地面积约200亩，是一个以大型恐龙乐园和水上乐园为主的主题公园，园内有108只大小恐龙和千人海啸池及中型水寨等项目，是一家大小的休闲避暑寓教于乐的好去处。"}}, {"title": "官山自然保护区", "address": "江西省宜丰县境内", "image": "", "rank": 16, "time": 2, "location": {"lat": 28.400373307264914, "lng": 114.80951713474946}, "feature": {"sight_features": "", "sight_content": ""}}, {"title": "鑫源商业步行街", "address": "江西省宜丰县新昌镇站前路", "image": "", "rank": 17, "time": 2, "location": {"lat": 28.39305170041015, "lng": 114.79560849986501}, "feature": {"sight_features": "", "sight_content": ""}}, {"title": "金鼎商业街", "address": "江西省宜丰县城北路楼子下路路口", "image": "", "rank": 18, "time": 2, "location": {"lat": 28.3939777074256, "lng": 114.78951596462706}, "feature": {"sight_features": "", "sight_content": ""}}, {"title": "醉爱青岛扎啤美食广场", "address": "江西省宜丰县解放路104号", "image": "", "rank": 19, "time": 2, "location": {"lat": 28.392060983535526, "lng": 114.79538858569319}, "feature": {"sight_features": "", "sight_content": ""}}]}