{"cityName": "伊金霍洛旗", "days": 2, "cityImage": "", "spots": [{"title": "成吉思汗陵", "address": "鄂尔多斯市伊金霍洛旗伊金霍洛镇", "image": "", "rank": 1, "time": 3.5, "location": {"lat": 39.349413834184006, "lng": 109.8073675559219}, "feature": {"sight_features": "", "sight_content": ""}}, {"title": "苏泊罕大草原旅游景区", "address": "鄂尔多斯市伊金霍洛旗境内", "image": "", "rank": 2, "time": 5.0, "location": {"lat": 39.570092815192666, "lng": 109.75459043995566}, "feature": {"sight_features": "特色1 曾是成吉思汗西征之时屯兵休军之地 特色2 是内蒙古富有游牧草原文化特色的旅游景区。 特色3 打造呼包鄂黄金旅游线路上的核心景点。", "sight_content": "苏泊罕大草原旅游景区坐落于鄂尔多斯伊金霍洛旗西部美丽的苏泊罕153平方公里的草原上，是国家AAAA级旅游景区。景区以原伊克昭盟七旗会盟历史文化为依托，围绕“激情苏泊罕，浪漫大草原”主题，计划总投资10亿元，分三期工程规划建设四大主题功能区，即：七旗会盟区、游牧时代区、那达慕娱乐区和宗教信仰区。\n\n\n苏泊罕大草原旅游景区以 “游牧文化活态博物馆” 为定位，以“游牧草原休闲度假地”为目标，创作《鄂尔多斯婚礼》草原实景演艺，形成“吃蒙古餐、住蒙古包、骑蒙古马，乘越野车看草原、参加鄂尔多斯婚礼、七旗会盟那达慕、体验游牧生活”七大亮点，打造了会盟浩特、游牧部落、苏泊罕驿站、阿冬谷草原、沙领地、草原狂欢篝火、安达敖包等十几类娱乐项目，是内蒙古富有游牧草原文化特色的旅游景区。\n\n\n苏泊罕大草原旅游景区作为内蒙古呼包鄂黄金旅游线路上的核心景点，打造游牧草原文化基地，争创国家AAAAA级旅游景区，争创国家文化产业示范基地。"}}, {"title": "成吉思汗陵旅游景区", "address": "鄂尔多斯市伊金霍洛旗", "image": "", "rank": 3, "time": 3.5, "location": {"lat": 39.61448231394889, "lng": 109.78744317923602}, "feature": {"sight_features": "", "sight_content": ""}}, {"title": "陶亥召", "address": "鄂尔多斯市伊金霍洛旗纳林陶亥镇", "image": "", "rank": 4, "time": 1.0, "location": {"lat": 39.570092815192666, "lng": 109.75459043995566}, "feature": {"sight_features": "", "sight_content": ""}}, {"title": "万舟滑雪场", "address": "鄂尔多斯市伊金霍洛旗蒙古源流文化产业园", "image": "", "rank": 5, "time": 2, "location": {"lat": 39.570092815192666, "lng": 109.75459043995566}, "feature": {"sight_features": "", "sight_content": ""}}, {"title": "源流文化产业园", "address": "鄂尔多斯市伊金霍洛旗阿勒腾席热镇西南方向", "image": "", "rank": 6, "time": 2, "location": {"lat": 39.57192713449467, "lng": 109.75953396070257}, "feature": {"sight_features": "", "sight_content": ""}}, {"title": "鄂尔多斯市图书馆", "address": "内蒙古自治区鄂尔多斯市康巴什新区伊金霍洛东街22号", "image": "", "rank": 7, "time": 1.5, "location": {"lat": 39.82256774676348, "lng": 110.00738531105527}, "feature": {"sight_features": "", "sight_content": ""}}, {"title": "鄂尔多斯国际赛车场", "address": "中国内蒙古自治区鄂尔多斯市康巴什新区鄂尔多斯国际赛车场", "image": "", "rank": 8, "time": 3.0, "location": {"lat": 39.62990299477309, "lng": 109.88156216348419}, "feature": {"sight_features": "", "sight_content": ""}}, {"title": "爸爸去哪儿亲子嘉年华主题乐园", "address": "阿勒腾席热镇蒙古源流文化产业园内", "image": "", "rank": 9, "time": 2, "location": {"lat": 40.28708250379432, "lng": 116.54683503214261}, "feature": {"sight_features": "", "sight_content": ""}}, {"title": "伊景园城市沙山", "address": "鄂尔多斯市伊金霍洛旗文明东街辅路", "image": "", "rank": 10, "time": 2.5, "location": {"lat": 39.58021665374067, "lng": 109.79302029282523}, "feature": {"sight_features": "", "sight_content": ""}}, {"title": "汇能农场", "address": "川杨线", "image": "", "rank": 11, "time": 2, "location": {"lat": 39.48468839551371, "lng": 110.47337060705314}, "feature": {"sight_features": "", "sight_content": ""}}, {"title": "儿童乐园", "address": "鄂尔多斯市伊金霍洛旗丽景广场3楼", "image": "", "rank": 12, "time": 2, "location": {"lat": 39.583645602687135, "lng": 109.75547022869416}, "feature": {"sight_features": "", "sight_content": ""}}, {"title": "哈喽贝比亲子俱乐部伊旗no.1", "address": "京典佳园小区北伊金霍洛旗购物中心1楼", "image": "", "rank": 13, "time": 2, "location": {"lat": 39.58282495301467, "lng": 109.75729302082821}, "feature": {"sight_features": "", "sight_content": ""}}, {"title": "草原度假村", "address": "鄂尔多斯伊金霍洛旗成吉思汗陵", "image": "", "rank": 14, "time": 2.0, "location": {"lat": 39.37855067081848, "lng": 109.79069369772388}, "feature": {"sight_features": "", "sight_content": ""}}, {"title": "阿勒腾浩特度假村", "address": "内蒙古自治区鄂尔多斯市伊金霍洛旗", "image": "", "rank": 15, "time": 2, "location": {"lat": 39.570092815192666, "lng": 109.75459043995566}, "feature": {"sight_features": "", "sight_content": ""}}, {"title": "金华3D魔画展", "address": "札萨克街供电局对面(丽景广场2楼东侧)", "image": "", "rank": 16, "time": 4.5, "location": {"lat": 39.583645602687135, "lng": 109.75547022869416}, "feature": {"sight_features": "", "sight_content": ""}}, {"title": "嬉水广场", "address": "内蒙古自治区鄂尔多斯市伊金霍洛旗阿勒腾席热镇柴家泰康东街南500米", "image": "", "rank": 17, "time": 2, "location": {"lat": 39.57192713449467, "lng": 109.75953396070257}, "feature": {"sight_features": "", "sight_content": ""}}, {"title": "朱开沟遗址", "address": "内蒙古自治区伊金霍洛旗纳林塔乡朱开沟村 017200", "image": "", "rank": 18, "time": 2, "location": {"lat": 39.65086140824602, "lng": 110.43880450452104}, "feature": {"sight_features": "", "sight_content": ""}}, {"title": "红黄蓝游乐园", "address": "丽景广场3楼", "image": "", "rank": 19, "time": 2, "location": {"lat": 39.583645602687135, "lng": 109.75547022869416}, "feature": {"sight_features": "", "sight_content": ""}}, {"title": "新庙", "address": "鄂尔多斯市伊金霍洛旗", "image": "", "rank": 20, "time": 2, "location": {"lat": 39.61448231394889, "lng": 109.78744317923602}, "feature": {"sight_features": "", "sight_content": ""}}, {"title": "碧丽斯休闲广场", "address": "纬八路与经八路交叉口东南50米", "image": "", "rank": 21, "time": 2, "location": {"lat": 34.48531140060103, "lng": 119.77198655276949}, "feature": {"sight_features": "", "sight_content": ""}}, {"title": "公园路与苏布尔嘎街交叉口", "address": "伊金霍洛旗", "image": "", "rank": 22, "time": 2, "location": {"lat": 39.570092815192666, "lng": 109.75459043995566}, "feature": {"sight_features": "", "sight_content": ""}}, {"title": "沙山公园", "address": "内蒙古自治区鄂尔多斯市伊金霍洛旗文明东街辅路", "image": "", "rank": 23, "time": 2, "location": {"lat": 39.58021665374067, "lng": 109.79302029282523}, "feature": {"sight_features": "", "sight_content": ""}}, {"title": "转龙湾龙泉山庄度假村", "address": "814乡道附近", "image": "", "rank": 24, "time": 2, "location": {"lat": 40.16042060925846, "lng": 116.50231684091642}, "feature": {"sight_features": "", "sight_content": ""}}, {"title": "红海度假村", "address": "210国道附近", "image": "", "rank": 25, "time": 2, "location": {"lat": 30.75468488618663, "lng": 107.2576735785458}, "feature": {"sight_features": "", "sight_content": ""}}, {"title": "体育公园", "address": "纳林陶亥街阿勒腾席热路交汇", "image": "", "rank": 26, "time": 1.0, "location": {"lat": 39.571115526196344, "lng": 109.76119747787986}, "feature": {"sight_features": "", "sight_content": ""}}, {"title": "蒙古历史博物馆", "address": "伊金霍洛镇成吉思汗陵", "image": "", "rank": 27, "time": 2, "location": {"lat": 39.37855067081848, "lng": 109.79069369772388}, "feature": {"sight_features": "", "sight_content": ""}}, {"title": "七彩金童儿童游乐场", "address": "伊金霍洛街任军诊所旁", "image": "", "rank": 28, "time": 2, "location": {"lat": 39.58296519855038, "lng": 109.73043134779061}, "feature": {"sight_features": "", "sight_content": ""}}, {"title": "美好农场草莓采摘", "address": "阿勒腾席热镇迎宾大道南4.5公里(博龙加气站旁)", "image": "", "rank": 29, "time": 2, "location": {"lat": 39.22921059564794, "lng": 109.77710925320865}, "feature": {"sight_features": "", "sight_content": ""}}, {"title": "小海子草莓采摘园", "address": "包府公路48公里处，小海子村内", "image": "", "rank": 30, "time": 2, "location": {"lat": 39.57692933000941, "lng": 110.1794692463354}, "feature": {"sight_features": "", "sight_content": ""}}, {"title": "神东煤海", "address": "乌兰木伦镇", "image": "", "rank": 31, "time": 2, "location": {"lat": 39.38255185962385, "lng": 110.0501639424819}, "feature": {"sight_features": "", "sight_content": ""}}, {"title": "淘气宝依屋", "address": "鄂尔多斯市伊金霍洛旗", "image": "", "rank": 32, "time": 2, "location": {"lat": 39.61448231394889, "lng": 109.78744317923602}, "feature": {"sight_features": "", "sight_content": ""}}, {"title": "极泰来农庄", "address": "伊金霍洛镇龙虎区", "image": "", "rank": 33, "time": 2, "location": {"lat": 39.349413834184006, "lng": 109.8073675559219}, "feature": {"sight_features": "", "sight_content": ""}}, {"title": "赛马场", "address": "伊克淖路", "image": "", "rank": 34, "time": 1.0, "location": {"lat": 39.5395706139112, "lng": 109.77292838395836}, "feature": {"sight_features": "", "sight_content": ""}}, {"title": "悦海国际温泉", "address": "鄂尔多斯市柳沟街与通格朗北路十字路口处（伊金霍洛农村商业银行对面）", "image": "", "rank": 35, "time": 2, "location": {"lat": 39.598831530231536, "lng": 109.75656078326125}, "feature": {"sight_features": "特色1 集餐饮、住宿、洗浴、娱乐于一体 特色2 整体设计独具匠心、气势恢宏", "sight_content": "悦海国际温泉于2013年投入运营，温泉整体设计独具匠心、气势恢宏。地下一层是男女浴区，包含美体、助浴区、汗蒸房、湿蒸房；夹层有男女更衣区、SPA房、餐饮、住宿、洗浴、娱乐于一体的大型温泉酒店。"}}, {"title": "金辉商业街", "address": "内蒙古自治区伊金霍洛旗公园街", "image": "", "rank": 36, "time": 2, "location": {"lat": 39.57764632080783, "lng": 109.74134887775529}, "feature": {"sight_features": "", "sight_content": ""}}, {"title": "成吉思汗守陵达尔扈特民俗展览", "address": "内蒙古自治区伊金霍洛旗布拉格路", "image": "", "rank": 37, "time": 2, "location": {"lat": 39.368984217205096, "lng": 109.79725722352579}, "feature": {"sight_features": "", "sight_content": ""}}, {"title": "苏布尔嘎苏木", "address": "鄂尔多斯市-伊金霍洛旗-苏泊罕大草原旅游景区西北100米", "image": "", "rank": 38, "time": 2, "location": {"lat": 39.675572794328694, "lng": 109.36497837757528}, "feature": {"sight_features": "", "sight_content": ""}}]}