{"cityName": "宜兰", "days": "1", "cityImage": "", "spots": [{"title": "台湾传统艺术中心", "address": "宜兰县五结乡五滨路二段201号", "image": "", "rank": 1, "time": 2.0, "location": {"lat": 44.000520578143416, "lng": 119.10892783718455}, "feature": {"sight_features": "特色1 以传承台湾传统艺术为核心的文化园区，丰富的手作童玩、传统表演、历史街屋等你来寻宝！ 特色2 考试、求智慧，必到文昌祠点心灯、抽好签", "sight_content": "--走游台湾古文化\n宜兰国立传统艺术中心位于冬山河亲水公园旁，占地二十四公顷，可以在这里游玩一整天，你将走入一个充满怀旧风味的古都，感受似剧场般地魅力，深度体验欣赏台湾丰富多元的工艺、民俗技艺、戏剧、音乐、舞蹈。复原的旧式建筑加深了传统体验的深度，同时结合民俗技艺与表演艺术，仿佛穿越时空，让人最真实的感受台湾传统艺术的精髓，这里是一个动态博物馆，每日都有精彩的传统艺阵演出，让你绝对尽兴，另有付费手作体验课程，亲自挽袖创作，把独一无二的传统手作艺品带回家。\n\n\n▲宜兰第一位举人黄纘绪故居，重现传统民居生活的情境氛围。配上湖面的古早味游船造景，美的如一幅画\n\n\n\n\n\n▲文昌祠签盒，来这里抽签解签，感受神秘的魅力与文字的洗礼\n\n\n\n\n▲文昌街，传统闽南街屋建筑带有日治西洋风格，再现传统繁华热闹的街道情境\n\n\n\n\n▲文昌街上的民俗表演\n\n\n▲园区内有需多传统文艺手作体验店家，彷彿穿越时空回到童年无忧时光"}}, {"title": "兰阳博物馆", "address": "宜兰县头城镇青云路三段750号", "image": "", "rank": 2, "time": 1.5, "location": {"lat": 31.214143644198504, "lng": 121.61693030601151}, "feature": {"sight_features": "", "sight_content": ""}}, {"title": "龟山岛", "address": "台湾宜兰县头城镇海岸以东约10公里处", "image": "", "rank": 3, "time": 4.5, "location": {"lat": 24.9018405664831, "lng": 121.8380614714044}, "feature": {"sight_features": "", "sight_content": ""}}, {"title": "南方澳", "address": "宜兰县苏澳镇江夏路85号", "image": "", "rank": 4, "time": 1.5, "location": {"lat": 32.19471592052375, "lng": 119.43048944567383}, "feature": {"sight_features": "", "sight_content": ""}}, {"title": "冬山河亲水公园", "address": "台湾宜兰县协和路40巷20之36号 ‎", "image": "", "rank": 5, "time": 2.0, "location": {"lat": 24.086956718804895, "lng": 121.97387097871568}, "feature": {"sight_features": "", "sight_content": ""}}, {"title": "宜兰几米广场", "address": "台湾宜兰县宜兰市宜兴路一段240号", "image": "", "rank": 6, "time": 1.5, "location": {"lat": 24.75191078537131, "lng": 121.76733424947295}, "feature": {"sight_features": "", "sight_content": ""}}, {"title": "丢丢当森林", "address": "台湾宜兰县宜兰市宜兴路一段236号", "image": "", "rank": 7, "time": 2.0, "location": {"lat": 24.75191078537131, "lng": 121.76733424947295}, "feature": {"sight_features": "", "sight_content": ""}}, {"title": "太平山国家森林游乐区", "address": "267台湾宜兰县大同乡", "image": "", "rank": 8, "time": 2.5, "location": {"lat": 24.548028809019186, "lng": 121.51148270727515}, "feature": {"sight_features": "", "sight_content": ""}}, {"title": "罗东林业文化园", "address": "265台湾宜兰县中正北路118号", "image": "", "rank": 9, "time": 2.0, "location": {"lat": 24.682786526713592, "lng": 121.78226151789009}, "feature": {"sight_features": "", "sight_content": ""}}, {"title": "五峰旗风景区", "address": "262台湾宜兰县礁溪乡五峰路", "image": "", "rank": 10, "time": 1.5, "location": {"lat": 24.81682342958267, "lng": 121.75043705815784}, "feature": {"sight_features": "", "sight_content": ""}}, {"title": "罗东", "address": "宜兰县", "image": "", "rank": 11, "time": 3.5, "location": {"lat": 31.211883015985016, "lng": 121.39369436652443}, "feature": {"sight_features": "", "sight_content": ""}}, {"title": "大溪蜜月湾", "address": "261台湾宜兰县头城镇滨海路五段", "image": "", "rank": 12, "time": 2, "location": {"lat": 24.9018405664831, "lng": 121.8380614714044}, "feature": {"sight_features": "", "sight_content": ""}}, {"title": "武荖坑风景区", "address": "宜兰县苏澳镇武荖坑路75号", "image": "", "rank": 13, "time": 1.0, "location": {"lat": 29.52824065682828, "lng": 120.80936170682102}, "feature": {"sight_features": "", "sight_content": ""}}, {"title": "五峰旗瀑布", "address": "宜兰县礁溪乡五峰路95号", "image": "", "rank": 14, "time": 2.0, "location": {"lat": 36.561620032816236, "lng": 116.75381465436662}, "feature": {"sight_features": "", "sight_content": ""}}, {"title": "金车兰花园", "address": "264台湾宜兰县员山乡员山路二段175巷25号 ‎", "image": "", "rank": 15, "time": 2.0, "location": {"lat": 24.741022319032737, "lng": 121.676115236187}, "feature": {"sight_features": "", "sight_content": ""}}, {"title": "宜兰设治纪念馆", "address": "台湾宜兰县第3号旧城南路力行三巷", "image": "", "rank": 16, "time": 1.5, "location": {"lat": 24.086956718804895, "lng": 121.97387097871568}, "feature": {"sight_features": "", "sight_content": ""}}, {"title": "豆腐岬", "address": "宜兰县苏澳镇造船路20号", "image": "", "rank": 17, "time": 2, "location": {"lat": 31.211883015985016, "lng": 121.39369436652443}, "feature": {"sight_features": "", "sight_content": ""}}, {"title": "北关海潮公园", "address": "宜兰县头城镇滨海路四段‎10号", "image": "", "rank": 18, "time": 2.0, "location": {"lat": 39.11012042376985, "lng": 117.36242054275989}, "feature": {"sight_features": "", "sight_content": ""}}, {"title": "林美石磐步道", "address": "262台湾宜兰县林美村", "image": "", "rank": 19, "time": 2, "location": {"lat": 24.086956718804895, "lng": 121.97387097871568}, "feature": {"sight_features": "", "sight_content": ""}}, {"title": "明池国家森林游乐区", "address": "267台湾宜兰县大同乡英士村明池山庄1号", "image": "", "rank": 20, "time": 2.0, "location": {"lat": 24.548028809019186, "lng": 121.51148270727515}, "feature": {"sight_features": "", "sight_content": ""}}, {"title": "白米木屐村", "address": "宜兰县永春路126之1号", "image": "", "rank": 21, "time": 2.0, "location": {"lat": 43.901913469303224, "lng": 125.34354150360409}, "feature": {"sight_features": "", "sight_content": ""}}, {"title": "大里天公庙", "address": "261台湾宜兰县头城镇滨海路七段33号 ‎", "image": "", "rank": 22, "time": 1.5, "location": {"lat": 24.9018405664831, "lng": 121.8380614714044}, "feature": {"sight_features": "", "sight_content": ""}}, {"title": "珊瑚法界博物馆", "address": "宜兰县南安路220号", "image": "", "rank": 23, "time": 2.0, "location": {"lat": 31.291940485828867, "lng": 121.17039060946287}, "feature": {"sight_features": "", "sight_content": ""}}, {"title": "吴沙故居", "address": "宜兰县礁溪乡北门巷39号", "image": "", "rank": 24, "time": 1.0, "location": {"lat": 31.371744238471912, "lng": 119.8274198386541}, "feature": {"sight_features": "", "sight_content": ""}}, {"title": "栖兰国家森林游乐区", "address": "267台湾宜兰县大同乡泰雅路四段6号", "image": "", "rank": 25, "time": 2.0, "location": {"lat": 24.548028809019186, "lng": 121.51148270727515}, "feature": {"sight_features": "", "sight_content": ""}}, {"title": "南雅奇石风景区", "address": "224台湾新北市瑞芳区北部滨海公路", "image": "", "rank": 26, "time": 2.0, "location": {"lat": 25.09237290164146, "lng": 121.815922419508}, "feature": {"sight_features": "", "sight_content": ""}}, {"title": "南方澳渔港", "address": "270台湾宜兰县苏澳镇", "image": "", "rank": 27, "time": null, "location": {"lat": 31.211883015985016, "lng": 121.39369436652443}, "feature": {"sight_features": "", "sight_content": ""}}, {"title": "利泽老街", "address": "宜兰县五结乡利泽路", "image": "", "rank": 28, "time": 1.5, "location": {"lat": 31.211883015985016, "lng": 121.39369436652443}, "feature": {"sight_features": "", "sight_content": ""}}, {"title": "外澳沙滩", "address": "台湾宜兰县头城镇滨海路二段", "image": "", "rank": 29, "time": 2.5, "location": {"lat": 24.9018405664831, "lng": 121.8380614714044}, "feature": {"sight_features": "", "sight_content": ""}}, {"title": "苏澳冷泉", "address": "台湾宜兰县冷泉路6-4号", "image": "", "rank": 30, "time": 2, "location": {"lat": 24.086956718804895, "lng": 121.97387097871568}, "feature": {"sight_features": "", "sight_content": ""}}, {"title": "礁溪温泉", "address": "台湾宜兰县礁溪乡公园路16号", "image": "", "rank": 31, "time": 0.7, "location": {"lat": 24.81682342958267, "lng": 121.75043705815784}, "feature": {"sight_features": "", "sight_content": ""}}, {"title": "鸠之泽温泉", "address": "宜兰县大同乡太平村烧水巷25号", "image": "", "rank": 32, "time": 2, "location": {"lat": 31.211883015985016, "lng": 121.39369436652443}, "feature": {"sight_features": "", "sight_content": ""}}, {"title": "翠峰湖", "address": "272台湾宜兰县大同乡", "image": "", "rank": 33, "time": 2.0, "location": {"lat": 24.548028809019186, "lng": 121.51148270727515}, "feature": {"sight_features": "", "sight_content": ""}}, {"title": "菌宝贝博物馆", "address": "宜兰市梅洲一路22号", "image": "", "rank": 34, "time": 2, "location": {"lat": 24.75191078537131, "lng": 121.76733424947295}, "feature": {"sight_features": "", "sight_content": ""}}, {"title": "宜兰县史馆", "address": "宜兰市县政北路3号", "image": "", "rank": 35, "time": 2, "location": {"lat": 24.75191078537131, "lng": 121.76733424947295}, "feature": {"sight_features": "", "sight_content": ""}}, {"title": "汤围沟温泉公园", "address": "台湾宜兰县礁溪乡德阳路99-11号", "image": "", "rank": 36, "time": 2, "location": {"lat": 24.81682342958267, "lng": 121.75043705815784}, "feature": {"sight_features": "", "sight_content": ""}}, {"title": "宜农牧场", "address": "宜兰县冬山乡柯林村长春路239巷17号", "image": "", "rank": 37, "time": 2, "location": {"lat": 40.615823217325875, "lng": 115.09378703241285}, "feature": {"sight_features": "", "sight_content": ""}}, {"title": "礁溪温泉公园", "address": "台湾宜兰县礁溪乡公园路16号", "image": "", "rank": 38, "time": 0.75, "location": {"lat": 24.81682342958267, "lng": 121.75043705815784}, "feature": {"sight_features": "", "sight_content": ""}}, {"title": "苏澳港", "address": "台湾宜兰苏澳镇", "image": "", "rank": 39, "time": 2, "location": {"lat": 24.546819998315307, "lng": 121.86671638231529}, "feature": {"sight_features": "", "sight_content": ""}}, {"title": "罗东运动公园", "address": "宜兰县罗东镇公正路666号", "image": "", "rank": 40, "time": 2, "location": {"lat": 23.03968619734336, "lng": 113.12287910130708}, "feature": {"sight_features": "", "sight_content": ""}}, {"title": "Tangweigou Jiaosi Hot Spring P...", "address": "宜兰县No. 99-11, Deyang Rd., Jiaoxi Township", "image": "", "rank": 41, "time": 2, "location": {"lat": 31.211883015985016, "lng": 121.39369436652443}, "feature": {"sight_features": "", "sight_content": ""}}, {"title": "三星青葱文化馆", "address": "宜兰县三星乡中山路 31 号", "image": "", "rank": 42, "time": 2, "location": {"lat": 30.28314000358424, "lng": 104.12636548914867}, "feature": {"sight_features": "", "sight_content": ""}}, {"title": "梅花湖", "address": "台湾宜兰县冬山乡大埤路1号", "image": "", "rank": 43, "time": 2, "location": {"lat": 24.64948345797994, "lng": 121.7713142261692}, "feature": {"sight_features": "", "sight_content": ""}}, {"title": "Fushan Botanical Garden", "address": "宜兰县No. 134-2, Dahu Rd., Yuanshan Township", "image": "", "rank": 44, "time": 2, "location": {"lat": 31.211883015985016, "lng": 121.39369436652443}, "feature": {"sight_features": "", "sight_content": ""}}, {"title": "宜兰四围堡车站餐厅", "address": "宜蘭縣礁溪鄉礁溪路7段72號", "image": "", "rank": 45, "time": 1.5, "location": {"lat": 41.11952262510786, "lng": 121.40879964316638}, "feature": {"sight_features": "", "sight_content": ""}}, {"title": "咖啡城堡二館", "address": "頭城鎮外澳里石空路102號", "image": "", "rank": 46, "time": 2, "location": {"lat": 25.007658615570715, "lng": 118.14019668173854}, "feature": {"sight_features": "", "sight_content": ""}}, {"title": "Jiaosi Hot Spring Park", "address": "宜兰县No. 60, Ln. 70, Gongyuan Rd., Jiaoxi Township", "image": "", "rank": 47, "time": 2, "location": {"lat": 31.211883015985016, "lng": 121.39369436652443}, "feature": {"sight_features": "", "sight_content": ""}}, {"title": "麒麟太子酒店温泉", "address": "宜兰县礁溪乡礁溪路五段67号", "image": "", "rank": 48, "time": 2, "location": {"lat": 43.68405040474655, "lng": 124.03272838864919}, "feature": {"sight_features": "", "sight_content": ""}}, {"title": "石城力代咖啡", "address": "宜兰县头城镇石城里石城路1之2号", "image": "", "rank": 49, "time": 2, "location": {"lat": 21.607246031925772, "lng": 110.28975711886962}, "feature": {"sight_features": "", "sight_content": ""}}, {"title": "冠翔世纪温泉会馆", "address": "宜兰县礁溪乡仁爱路66巷6号", "image": "", "rank": 50, "time": 2, "location": {"lat": 39.43805429773979, "lng": 117.02563160935055}, "feature": {"sight_features": "特色1 58℃来自大自然最纯净的献礼 特色2 礁溪温泉pH值为7.8，透明无色无味，属于碳酸氢钠泉，俗称『美人汤』 特色3 与情人伴侣静静享受一场甜蜜约会，彻底放松身心灵", "sight_content": "景点介绍：\n【冠翔世纪温泉会馆】\n位于礁溪温泉的中心位置，交通便利闹中取静，全馆提供58℃极上原汤温泉，占地400坪的户外温泉区。\n【极上原汤】\n58℃来自大自然最纯净的献礼，迷人的温度轻拂着，给身心最舒畅轻盈，给每一吋肌肤最贴心的柔软。\n占地400坪的广大空间，提供多样化的户外温泉SPA设备，各式温泉水疗设施、石板床、五行汤、气泡床、SPA冲瀑区、蒸气室、烤箱、儿童滑水道戏水区、温泉鱼足汤、男女裸汤，冠翔世纪的用心成就您每一次的放松。\n\n\n【景观汤屋】\n\n繁星夜语，月光呢喃，仰望那片广阔天空，徜徉于58度C纯正碳酸氢钠泉水中，享受这一刻的宁静，来杯名叫恣意的茶，\n静谧于温泉的怀抱，烛光美艳，杯影摇曳，潺潺流泉温暖了然于心，八坪大的享受空间，冷热双池设计，给您最尊贵的原汤享乐之旅，这美好的体验，值得您来尝鲜。"}}, {"title": "Yilan Museum of Literature", "address": "宜兰县No. 8, Ln. Lixing 1st, Jiucheng S. Rd., Yilan City", "image": "", "rank": 51, "time": 2, "location": {"lat": 31.211883015985016, "lng": 121.39369436652443}, "feature": {"sight_features": "", "sight_content": ""}}, {"title": "Crioz Candied Fruits Museum", "address": "宜兰县No.33 Meizhou 2nd Road, Yilan City", "image": "", "rank": 52, "time": 2, "location": {"lat": 31.211883015985016, "lng": 121.39369436652443}, "feature": {"sight_features": "", "sight_content": ""}}, {"title": "南澳自然田", "address": "台湾宜兰县南澳乡苏花路二段427巷13号", "image": "", "rank": 53, "time": 4.5, "location": {"lat": 24.46844772646767, "lng": 121.64048953740239}, "feature": {"sight_features": "", "sight_content": ""}}, {"title": "花泉农场", "address": "宜兰县员山乡尚德村八甲路15-1号", "image": "", "rank": 54, "time": 2, "location": {"lat": 32.09426780451056, "lng": 121.16027359277547}, "feature": {"sight_features": "", "sight_content": ""}}, {"title": "宜兰文学馆", "address": "台湾宜兰县宜兰市旧城南路县府二巷19号", "image": "", "rank": 55, "time": 1.5, "location": {"lat": 24.75191078537131, "lng": 121.76733424947295}, "feature": {"sight_features": "", "sight_content": ""}}, {"title": "四围堡车站", "address": "礁溪鄉礁溪路7段72號", "image": "", "rank": 56, "time": 2, "location": {"lat": 41.11952262510786, "lng": 121.40879964316638}, "feature": {"sight_features": "", "sight_content": ""}}, {"title": "恐龙嬷香草美食餐厅", "address": "宜兰县宜兰市农权路二段89号", "image": "", "rank": 57, "time": 2, "location": {"lat": 44.000520578143416, "lng": 119.10892783718455}, "feature": {"sight_features": "", "sight_content": ""}}, {"title": "Yilan Distillery Chia Chi Lan ...", "address": "宜兰县No. 3, Jiucheng W. Rd., Yilan City", "image": "", "rank": 58, "time": 2, "location": {"lat": 31.211883015985016, "lng": 121.39369436652443}, "feature": {"sight_features": "", "sight_content": ""}}, {"title": "Cing Han Bridge", "address": "宜兰县Yilan City", "image": "", "rank": 59, "time": 2, "location": {"lat": 31.211883015985016, "lng": 121.39369436652443}, "feature": {"sight_features": "", "sight_content": ""}}, {"title": "跑马古道", "address": "宜兰县礁溪市五峰路", "image": "", "rank": 60, "time": 2, "location": {"lat": 31.211883015985016, "lng": 121.39369436652443}, "feature": {"sight_features": "", "sight_content": ""}}]}