{"cityName": "依兰", "days": 2, "cityImage": "", "spots": [{"title": "依兰东山怪坡", "address": "哈尔滨市依兰县依愚公路北50米", "image": "", "rank": 1, "time": 2, "location": {"lat": 46.397571972177246, "lng": 129.77153674976418}, "feature": {"sight_features": "", "sight_content": ""}}, {"title": "财神庙", "address": "哈尔滨市依兰县乾德街", "image": "", "rank": 2, "time": 1.5, "location": {"lat": 46.331260289051535, "lng": 129.57451969721257}, "feature": {"sight_features": "", "sight_content": ""}}, {"title": "五国城遗址", "address": "哈尔滨市依兰县北大坑巷与坑沿巷交叉口东北100米", "image": "", "rank": 3, "time": 2, "location": {"lat": 46.32582648555518, "lng": 129.56332229208144}, "feature": {"sight_features": "", "sight_content": ""}}, {"title": "靖边营遗址", "address": "黑龙江省哈尔滨市依兰县", "image": "", "rank": 4, "time": 2, "location": {"lat": 46.331260289051535, "lng": 129.57451969721257}, "feature": {"sight_features": "", "sight_content": ""}}, {"title": "依兰县城建档案馆", "address": "通河街", "image": "", "rank": 5, "time": 2, "location": {"lat": 45.78987240751184, "lng": 126.68523305004794}, "feature": {"sight_features": "", "sight_content": ""}}, {"title": "百乐门二人转剧场", "address": "通江路897号", "image": "", "rank": 6, "time": 2, "location": {"lat": 46.31841751556159, "lng": 129.5711544210941}, "feature": {"sight_features": "", "sight_content": ""}}, {"title": "牡丹江莲花湖水库", "address": "黑龙江省海林市牡丹江下游", "image": "", "rank": 7, "time": 2.5, "location": {"lat": 44.599871973195235, "lng": 129.38742683358007}, "feature": {"sight_features": "", "sight_content": ""}}, {"title": "老五山庄", "address": "依丹旅游公路北50米", "image": "", "rank": 8, "time": 2, "location": {"lat": 46.44542166146901, "lng": 129.3664748360169}, "feature": {"sight_features": "", "sight_content": ""}}, {"title": "佳依山庄", "address": "哈富公路附近", "image": "", "rank": 9, "time": 2, "location": {"lat": 46.64436874389403, "lng": 129.97428451357095}, "feature": {"sight_features": "", "sight_content": ""}}, {"title": "剧院粮油店", "address": "哈尔滨市依兰县", "image": "", "rank": 10, "time": 2, "location": {"lat": 46.331260289051535, "lng": 129.57451969721257}, "feature": {"sight_features": "", "sight_content": ""}}, {"title": "比目鱼儿童游乐广场", "address": "通江路巴黎广场院内东侧二楼", "image": "", "rank": 11, "time": 2, "location": {"lat": 29.29973978704021, "lng": 117.22672763581654}, "feature": {"sight_features": "", "sight_content": ""}}, {"title": "东山公园", "address": "黑龙江省哈尔滨市依兰县林业局221国道东山公园", "image": "", "rank": 12, "time": null, "location": {"lat": 46.342506771951086, "lng": 129.59699159107058}, "feature": {"sight_features": "", "sight_content": ""}}, {"title": "依兰县图书馆", "address": "中央大街78号(中共依兰县粮食委员会西南)", "image": "", "rank": 13, "time": 2, "location": {"lat": 46.32167259733192, "lng": 129.5670860960496}, "feature": {"sight_features": "", "sight_content": ""}}, {"title": "神墨书画馆(依兰分校)", "address": "通江路401附近", "image": "", "rank": 14, "time": 2, "location": {"lat": 46.33132415847846, "lng": 129.57020264844016}, "feature": {"sight_features": "", "sight_content": ""}}, {"title": "吕厚民摄影艺术馆", "address": "五国城路与花园东巷交叉口旁", "image": "", "rank": 15, "time": 2, "location": {"lat": 46.33000039748435, "lng": 129.56173501319446}, "feature": {"sight_features": "", "sight_content": ""}}, {"title": "依兰影剧院", "address": "五国城路与大众街交叉口西北50米", "image": "", "rank": 16, "time": 2, "location": {"lat": 46.32035653590584, "lng": 129.56575728211547}, "feature": {"sight_features": "", "sight_content": ""}}, {"title": "和兴二人转剧场", "address": "夹信子路附近", "image": "", "rank": 17, "time": 2, "location": {"lat": 49.235608550372355, "lng": 119.75731674154365}, "feature": {"sight_features": "", "sight_content": ""}}, {"title": "黑龙江省依兰县民俗馆", "address": "黑龙江省依兰县宏伟巷", "image": "", "rank": 18, "time": 2, "location": {"lat": 46.32315096422174, "lng": 129.56226300483425}, "feature": {"sight_features": "", "sight_content": ""}}, {"title": "依兰县达连河镇步行街", "address": "黑龙江省依兰县依达公路", "image": "", "rank": 19, "time": 2, "location": {"lat": 46.225041873178995, "lng": 129.4534382581326}, "feature": {"sight_features": "", "sight_content": ""}}]}