{"cityName": "宜良", "days": 2, "cityImage": "", "spots": [{"title": "九乡", "address": "昆明市宜良县九乡彝族回族乡境内", "image": "", "rank": 1, "time": 0.25, "location": {"lat": 25.104327436432772, "lng": 103.38953049703285}, "feature": {"sight_features": "特色1 溶洞规模庞大数量众多，还是电影《神话》的拍摄地。 特色2 人文景观、民族风情融为一体的综合性风景名胜区。 特色3 有大小溶洞上百座，被称为溶洞之乡。", "sight_content": "九乡风景名胜区位于宜良县九乡彝族回族乡境内，距昆明90公里，距宜良县城47公里。是国家级风景名胜区、国家AAAA旅游区、国家地质公园、国际洞穴协会会员、ISO9001质量管理体系、ISO14001环境管理体系认证景区，九乡风景区是云南新兴的以溶洞景观为主体，洞外有山水峡谷风光、民族风情、人文景观、配套齐全的大型综合性风景旅游区。九乡溶洞有雄、险、奇、美等特点，具体有五个方面 ：数量多，九张溶洞有大小66个，成群连片；体量宏大，洞穴粗犷、宏大、空阔、雄伟壮观；类型齐全，几乎集中了省内所有溶洞风景区的景观类 ；钟乳石千姿百态，无奇不有；溶洞各有特点：卧龙洞空旷雄伟、幽深苍茫；神女宫尺度宜人、层次丰富；白象洞空阔宏大、气热雄浑；老枯坑是 垂直溶蚀和水平溶蚀相结合的典型，科考价值大；三脚洞气魄雄浑、粗犷、空阔、幽深；大沙坝溶洞在半山坡密林中，洞中钟乳石密集饱满，琳琅满目，形象生动。\n九乡风景区是以溶洞景观为主体，洞外自然风光、人文景观、民族风情为一体的综合性风景名胜区。拥有上百座大、小溶洞，是独具特色的国际观光型喀斯特地质公园。包括叠虹桥景区、大沙坝景区、阿路龙景区、三脚洞景区、马蹄湾景区和马蹄峡景区。现已开发的叠虹桥风景区共有八大景域：\n一、清幽迷人──荫翠峡。有滇中第一幽峡的美誉，峡长1000米，可划船游览。两岸古崖苍苍，浓荫摇曳，一泓碧水，清幽迷人，如诗如画的景致使人流连忘返。许多诗人作家在荫翠峡留下了许多美丽动人的诗篇，荫翠峡又名情人谷。\n二、惊心动魄──聚仙谷。峡长700米，是目前国内所发现的最为壮观的地下大峡谷。两岸刀劈斧削一般，峡底到洞顶将近百米，峡中最窄处仅只三四米宽，游人走过无不感到惊心动魄。\n三、地下广场──雄狮厅。雄狮大厅总面积15000 平方米，为世界上最大的一个地下广场大厅，可容上万人在这里聚会，更为神奇的是，整个大厅顶部由一个完整的板块构成，板块上嵌有几个窝形的漩涡。整个顶部板块可谓天衣无缝。\n四、玲珑剔透──神女宫。为典型的喀斯特地下风光特征，其中的钟乳石玲珑剔透，美妙绝伦，或依或偎，或坐或卧，宛如一群仙女，在此轻歌漫舞，给人一种如临仙境的感觉。\n五、惊天动地──雌雄瀑。两条瀑布由三十多米高的崖上訇然而下，震耳欲聋。那雄浑壮丽的气势惊天动地，如同黄河倒悬一般。雌雄两条瀑布尤如两位浪漫的情侣难分难舍。使人产生许多联想，给客人留下深刻的记忆。\n六、天地奇观──神田。神田景观奇伟壮丽，充满田园风味，为世界上罕见的一大奇观。神田，科学名为边石盆，在九乡则称为边石湖群，九乡的边石湖群以其独特和田体的博大，被国际洞穴专家誉为世界之最。\n七、浓郁风情──彝家寨。在深达100 米的地下世界中，蕴藏着独特的彝家风情的景观，密枝林、土司城堡等，反映了古彝先民们淳厚的民族风情特征。\n八、风吹石弯——地下倒石林。蝙蝠洞的特点是钟乳石倒悬垂挂，如同石林倒长一般。这些钟乳石还有一个与众不同的特点，就是石体倾斜幅度大，不规则，细究起来，是因为空气流向不同而造成的。于是，在九乡，又添了一个风吹石弯的神奇景致。\n九乡风景区是云南十大影视基地之一，先后拍摄过《神话》、《大兵小将》、《千机变》、《浙江版西游记》、《如来神掌》、《九乡英烈》等多部影视作品。"}}, {"title": "地下倒石林", "address": "昆明市宜良县九乡风景区内", "image": "", "rank": 2, "time": 2.0, "location": {"lat": 25.076736487053942, "lng": 103.39111430037528}, "feature": {"sight_features": "", "sight_content": "地下倒石林整个景观似乎摆脱了地心引力的作用变得旁逸斜出，生长方式颇为奇特，远远看去，如同石林倒悬，因而得名。但是为什么这里的钟乳石会弯曲呢？那是由于洞内外的温差不同而形成不同流向的风，再加上这些钟乳石本身具有毛细吸管可以输送水分，形成水滴在碳酸钙即将沉淀的时候，被风吹离了垂直的方向，因而形成旁逸斜出之态。"}}, {"title": "惊魂峡", "address": "昆明市宜良县九乡风景区内", "image": "", "rank": 3, "time": 1.0, "location": {"lat": 25.076736487053942, "lng": 103.39111430037528}, "feature": {"sight_features": "", "sight_content": "惊魂峡的穹顶呈洞桥形造型，伟岸苍穹，而是以虚空立于地下。洞桥顶部，绿树苍虬，青葱繁翠；洞峡之下，激流逝涛，跌岩轰鸣其立体多元的景观构成，不但能看到、能触摸，而且还可以用双耳聆听。在荫翠峡听到的是静；惊魂峡听到的是激越；下面雌雄瀑听到的则是雄浑。"}}, {"title": "雌雄飞瀑", "address": "昆明市宜良县九乡风景区内", "image": "", "rank": 4, "time": 0.25, "location": {"lat": 25.076736487053942, "lng": 103.39111430037528}, "feature": {"sight_features": "", "sight_content": "进入景区，展现在眼前的是两条白色的瀑布从30多米高的悬崖上坠下，它是由两条一高一矮、一胖一瘦的地下瀑布组成，雌雄难辨，因此而得名。"}}, {"title": "三脚洞", "address": "昆明市宜良县九乡风景区叠虹桥景区北约10公里处的麦田河上游", "image": "", "rank": 5, "time": 2.0, "location": {"lat": 25.086136689023498, "lng": 103.3969926930543}, "feature": {"sight_features": "", "sight_content": ""}}, {"title": "大沙坝景区", "address": "昆明市宜良县九乡风景区内", "image": "", "rank": 6, "time": 2.0, "location": {"lat": 25.076736487053942, "lng": 103.39111430037528}, "feature": {"sight_features": "", "sight_content": ""}}, {"title": "巴江", "address": "昆明市宜良县", "image": "", "rank": 7, "time": 1.0, "location": {"lat": 24.925286989651802, "lng": 103.14755798426482}, "feature": {"sight_features": "", "sight_content": ""}}, {"title": "阿路龙景区", "address": "昆明市宜良县九乡风景区", "image": "", "rank": 8, "time": 2.0, "location": {"lat": 25.086136689023498, "lng": 103.3969926930543}, "feature": {"sight_features": "", "sight_content": ""}}, {"title": "马蹄河", "address": "昆明市宜良县", "image": "", "rank": 9, "time": 2.5, "location": {"lat": 24.925286989651802, "lng": 103.14755798426482}, "feature": {"sight_features": "", "sight_content": ""}}, {"title": "岩泉风景区", "address": "昆明市宜良县", "image": "", "rank": 10, "time": 2, "location": {"lat": 24.925286989651802, "lng": 103.14755798426482}, "feature": {"sight_features": "", "sight_content": ""}}, {"title": "雌雄双瀑", "address": "小马嘶村东九乡风景区内", "image": "", "rank": 11, "time": 3.5, "location": {"lat": 25.07203887828426, "lng": 103.37930709133235}, "feature": {"sight_features": "", "sight_content": ""}}, {"title": "乡鸭湖欢乐王国", "address": "昆明市宜良县东城区南盘江边乡鸭湖", "image": "", "rank": 12, "time": 2, "location": {"lat": 24.925286989651802, "lng": 103.14755798426482}, "feature": {"sight_features": "特色1 “吉祥三宝”--多多、炫炫、涛涛", "sight_content": "乡鸭湖欢乐王国位于昆明宜良东城区南盘江边乡鸭湖范围，周边有丰富的旅游水域资源。\n乡鸭湖欢乐王国是专为儿童及青少年打造的游乐项目，融入先进的技术设备，互动性强、主题特色鲜明，园区分为三大主题园区，梦幻水岸游玩区、欢乐雨林游玩区、未来世界游玩区，各显非凡创意。"}}, {"title": "柴石滩漂流", "address": "昆明市宜良县柴石滩听涛苑附近", "image": "", "rank": 13, "time": 2, "location": {"lat": 25.00540790215032, "lng": 103.33814586870886}, "feature": {"sight_features": "", "sight_content": ""}}, {"title": "万家花园", "address": "昆明市宜良县(城南1公里)", "image": "", "rank": 14, "time": 2, "location": {"lat": 24.925286989651802, "lng": 103.14755798426482}, "feature": {"sight_features": "", "sight_content": ""}}, {"title": "昆明正己运动阳宗海户外基地", "address": "柳树湾春城高尔夫旁", "image": "", "rank": 15, "time": 2.0, "location": {"lat": 36.71265491745987, "lng": 118.48614089691738}, "feature": {"sight_features": "", "sight_content": ""}}, {"title": "清潭苑家庭农场", "address": "汤池镇乌纳村委会大龙潭村", "image": "", "rank": 16, "time": 2, "location": {"lat": 40.73717254697183, "lng": 117.44150501617928}, "feature": {"sight_features": "", "sight_content": ""}}, {"title": "匡州天然温泉", "address": "发达路2号", "image": "", "rank": 17, "time": 2, "location": {"lat": 31.484363840901516, "lng": 121.15702809671372}, "feature": {"sight_features": "", "sight_content": ""}}, {"title": "九乡地质公园博物馆", "address": "风老段九乡地质公园博物馆", "image": "", "rank": 18, "time": 2.5, "location": {"lat": 25.074127850240348, "lng": 103.38781398432256}, "feature": {"sight_features": "", "sight_content": ""}}, {"title": "农夫温泉", "address": "电汤段", "image": "", "rank": 19, "time": 2, "location": {"lat": 44.97485663870472, "lng": 81.03114554648644}, "feature": {"sight_features": "", "sight_content": ""}}, {"title": "宜良小马街温泉", "address": "城狗街", "image": "", "rank": 20, "time": 2.5, "location": {"lat": 24.793891198378972, "lng": 103.1490269832648}, "feature": {"sight_features": "", "sight_content": ""}}, {"title": "雄蜂生态园", "address": "汇东东路", "image": "", "rank": 21, "time": 2, "location": {"lat": 24.937145899219427, "lng": 103.17280495942802}, "feature": {"sight_features": "", "sight_content": ""}}, {"title": "新华小学绿化基地", "address": "兴隆街附近", "image": "", "rank": 22, "time": 2, "location": {"lat": 40.2420239978553, "lng": 116.13532573900687}, "feature": {"sight_features": "", "sight_content": ""}}, {"title": "永祥山庄温泉泳池", "address": "宜良汤池镇永祥山庄温泉泳池", "image": "", "rank": 23, "time": 2, "location": {"lat": 24.96193768058451, "lng": 103.05078811486158}, "feature": {"sight_features": "", "sight_content": ""}}, {"title": "灵恩寺", "address": "云南省昆明市宜良县", "image": "", "rank": 24, "time": 2, "location": {"lat": 24.925286989651802, "lng": 103.14755798426482}, "feature": {"sight_features": "", "sight_content": ""}}, {"title": "丰都鬼城", "address": "乡鸭湖大道与盘江大道交叉口东50米乡鸭湖花卉广场附近", "image": "", "rank": 25, "time": 1.0, "location": {"lat": 24.918396406003165, "lng": 103.17625745023068}, "feature": {"sight_features": "", "sight_content": ""}}, {"title": "快乐宝贝游乐园", "address": "汤池", "image": "", "rank": 26, "time": 2, "location": {"lat": 24.965882049998136, "lng": 103.04634275841975}, "feature": {"sight_features": "", "sight_content": ""}}, {"title": "云海谷俱乐部", "address": "阳宗海风景名胜区云南华侨城", "image": "", "rank": 27, "time": 2, "location": {"lat": 24.91954911363182, "lng": 103.01237225580793}, "feature": {"sight_features": "", "sight_content": ""}}, {"title": "春城湖畔高尔夫俱乐部", "address": "昆明市宜良县汤池镇昆石高速阳宗海湖畔 ‎", "image": "", "rank": 28, "time": 2, "location": {"lat": 24.965038059619886, "lng": 103.0463840804732}, "feature": {"sight_features": "", "sight_content": ""}}, {"title": "华侨城温泉水公园", "address": "昆明市宜良县阳宗海风景名胜区华侨城", "image": "", "rank": 29, "time": null, "location": {"lat": 24.96596356002854, "lng": 103.00880279125502}, "feature": {"sight_features": "特色1 拥有65个特色泡池", "sight_content": "云南华侨城温泉水公园以其纯净的蓝白色调建筑群落再现爱琴海之滨自然，浪漫的美妙时光，风车，教堂，婚礼中心和园林式汤屋与阳宗海美景相映成趣。静静躺在充满神秘色彩和异国情调的主题温泉泡池中，欣赏着阳宗海优美的风光，昆明人与生俱来的休闲气质便让人陶醉于这柔软浪漫的悠然时光里。\n云南华侨城毗邻小镇汤池，“汤池”之名便是得意于周边丰富的地热水资源，泡汤文化在此已有拜年文化传承，其高温碳酸泉水沸如汤，泉水温度最高可达72°c，含有丰富的矿物质和微量元素，具有较高的美容，理疗之功效，未来这里必将成为云南天然温泉之旅的又一全新目的地。\n借鉴希腊圣托里尼岛建筑及装饰风格，营造出具有浓郁爱琴海青岛的休闲空间：5000平方米大幅玻璃全景休息厅将室外景观纳入室内；玻璃穹顶之下的360°全景餐厅沉浸在傍晚温馨浪漫的余晖之中；纯正的欧式水疗厅内，温泉仿若赋予生命的精灵，簇拥着从池中满溢而出，让您感受视觉愉悦的同时亦能体会欧式温泉别具一格的特色-在水疗池中畅游戏水的无尽乐趣。"}}, {"title": "石林狮山生态园", "address": "桂花大道与起春路交汇处口西南100米", "image": "", "rank": 30, "time": 2.5, "location": {"lat": 31.909199228140412, "lng": 121.30903625505988}, "feature": {"sight_features": "", "sight_content": ""}}, {"title": "青龙园", "address": "梨仙段附近", "image": "", "rank": 31, "time": 2, "location": {"lat": 24.903542632674135, "lng": 103.06003814455926}, "feature": {"sight_features": "", "sight_content": ""}}, {"title": "嘟嘟岛游乐园", "address": "迎宾路19号附近", "image": "", "rank": 32, "time": 2, "location": {"lat": 39.519987349696976, "lng": 118.09215769519663}, "feature": {"sight_features": "", "sight_content": ""}}, {"title": "儿童乐园", "address": "乡鸭湖大道南150米", "image": "", "rank": 33, "time": 2, "location": {"lat": 24.91930773898628, "lng": 103.16822792666967}, "feature": {"sight_features": "", "sight_content": ""}}, {"title": "儿童乐园", "address": "昆明市宜良县", "image": "", "rank": 34, "time": 2, "location": {"lat": 24.925286989651802, "lng": 103.14755798426482}, "feature": {"sight_features": "", "sight_content": ""}}, {"title": "玉泉广场", "address": "蓬莱大道与G78汕昆高速出口交叉口西南100米", "image": "", "rank": 35, "time": 2, "location": {"lat": 24.93598610693934, "lng": 103.14670127030023}, "feature": {"sight_features": "", "sight_content": ""}}, {"title": "宜良公园", "address": "云南省昆明市宜良县东环路", "image": "", "rank": 36, "time": 3.0, "location": {"lat": 24.91301775869087, "lng": 103.160498455115}, "feature": {"sight_features": "", "sight_content": ""}}, {"title": "土主生态红桃园", "address": "云南省昆明市宜良县G5601(昆明绕城高速)", "image": "", "rank": 37, "time": 2, "location": {"lat": 24.925286989651802, "lng": 103.14755798426482}, "feature": {"sight_features": "", "sight_content": ""}}, {"title": "万福寺", "address": "汤池医院", "image": "", "rank": 38, "time": 2.0, "location": {"lat": 40.06726218809932, "lng": 124.30740579945328}, "feature": {"sight_features": "", "sight_content": ""}}, {"title": "龙苑度假山庄", "address": "小白龙线附近", "image": "", "rank": 39, "time": 2, "location": {"lat": 24.932154159851727, "lng": 103.09142044753997}, "feature": {"sight_features": "", "sight_content": ""}}, {"title": "泽中朝度假村", "address": "阳宗海宾馆附近", "image": "", "rank": 40, "time": 2, "location": {"lat": 24.91954911363182, "lng": 103.01237225580793}, "feature": {"sight_features": "", "sight_content": ""}}, {"title": "温泉山庄", "address": "汤高段附近", "image": "", "rank": 41, "time": null, "location": {"lat": 36.401435042543234, "lng": 113.5181692082722}, "feature": {"sight_features": "", "sight_content": ""}}, {"title": "宜良农资展示厅", "address": "匡远镇营盘路19", "image": "", "rank": 42, "time": 2.5, "location": {"lat": 22.986310140454766, "lng": 114.72616210169197}, "feature": {"sight_features": "", "sight_content": ""}}, {"title": "宜良县革命遗址胜利六大队成立地...", "address": "孙小段北50米", "image": "", "rank": 43, "time": 2, "location": {"lat": 24.745870444908693, "lng": 103.16183340627192}, "feature": {"sight_features": "", "sight_content": ""}}, {"title": "双龙温泉", "address": "昆明市宜良县电汤段附近", "image": "", "rank": 44, "time": 2, "location": {"lat": 24.925286989651802, "lng": 103.14755798426482}, "feature": {"sight_features": "", "sight_content": ""}}, {"title": "毛家营温泉(毛家营乡村温泉SPA)", "address": "近郊宜良县小沈段", "image": "", "rank": 45, "time": 2, "location": {"lat": 24.85341287746688, "lng": 103.18591320410334}, "feature": {"sight_features": "", "sight_content": ""}}, {"title": "晶都会展中心", "address": "324国道", "image": "", "rank": 46, "time": 2, "location": {"lat": 23.154734358898722, "lng": 114.20469410313481}, "feature": {"sight_features": "", "sight_content": ""}}, {"title": "宜良县图书馆", "address": "匡山东路201号", "image": "", "rank": 47, "time": 2, "location": {"lat": 36.68388376742882, "lng": 116.95120117233766}, "feature": {"sight_features": "", "sight_content": ""}}, {"title": "园林火山石温泉", "address": "阳宗海柏联度假胜地柏联SPA温泉度假酒店", "image": "", "rank": 48, "time": 2, "location": {"lat": 29.863099278109367, "lng": 106.42218555453563}, "feature": {"sight_features": "", "sight_content": ""}}, {"title": "昆明宜良农家温泉住宿", "address": "宜良汤池社区高保路28号", "image": "", "rank": 49, "time": 2.0, "location": {"lat": 24.965687335975424, "lng": 103.05005865934703}, "feature": {"sight_features": "", "sight_content": ""}}, {"title": "金凯瑞温泉", "address": "324国道阳宗海管委会汤池东街金凯瑞温泉", "image": "", "rank": 50, "time": 2, "location": {"lat": 24.95790787856059, "lng": 102.91072106343461}, "feature": {"sight_features": "", "sight_content": ""}}, {"title": "东街天然温泉住宿", "address": "汤池东街老农贸市场右侧", "image": "", "rank": 51, "time": 2, "location": {"lat": 23.714798015406892, "lng": 108.18038583788075}, "feature": {"sight_features": "", "sight_content": ""}}, {"title": "宜良本能博物馆", "address": "324国道与东环路交叉口", "image": "", "rank": 52, "time": 2.5, "location": {"lat": 23.267696543521044, "lng": 116.48667148743448}, "feature": {"sight_features": "", "sight_content": ""}}, {"title": "如意画廊", "address": "汇东西路北200米", "image": "", "rank": 53, "time": 2, "location": {"lat": 24.933525118130536, "lng": 103.14795552038507}, "feature": {"sight_features": "", "sight_content": ""}}, {"title": "黑骑士", "address": "清远街201号附近", "image": "", "rank": 54, "time": 2, "location": {"lat": 28.47895267417061, "lng": 119.92305467640239}, "feature": {"sight_features": "", "sight_content": ""}}, {"title": "金英汇马术俱乐部", "address": "匡远街道玮一路中段人工湖生态园内", "image": "", "rank": 55, "time": 2, "location": {"lat": 24.933917787915373, "lng": 103.16680085607935}, "feature": {"sight_features": "", "sight_content": ""}}, {"title": "宜良剧团", "address": "寿山路56号附近", "image": "", "rank": 56, "time": 2.5, "location": {"lat": 31.915419569587247, "lng": 120.27530390239845}, "feature": {"sight_features": "", "sight_content": ""}}, {"title": "云南昆明春城湖畔", "address": "中国云南省昆明市宜良县汤池镇", "image": "", "rank": 57, "time": 2, "location": {"lat": 24.965038059619886, "lng": 103.0463840804732}, "feature": {"sight_features": "", "sight_content": ""}}, {"title": "宜良樱花谷", "address": "昆明市宜良县山后社区山后村委会石子坡", "image": "", "rank": 58, "time": 2.0, "location": {"lat": 24.93205449682033, "lng": 103.2214181149325}, "feature": {"sight_features": "", "sight_content": ""}}, {"title": "九乡风景区", "address": "云南省彝良县九乡乡", "image": "", "rank": 59, "time": 3.0, "location": {"lat": 27.63169016554663, "lng": 104.0544430302079}, "feature": {"sight_features": "", "sight_content": ""}}, {"title": "南盘江", "address": "云南省沾益县马雄山东麓", "image": "", "rank": 60, "time": 2, "location": {"lat": 25.908327312840292, "lng": 103.92529673635367}, "feature": {"sight_features": "", "sight_content": ""}}]}