{"cityName": "义马", "days": 2, "cityImage": "", "spots": [{"title": "永芳葡萄采摘园", "address": "义马连银社区教堂西墙", "image": "", "rank": 1, "time": 2, "location": {"lat": 34.75302800947253, "lng": 111.88051478020587}, "feature": {"sight_features": "", "sight_content": ""}}, {"title": "生态公园", "address": "千秋路2号院2号楼", "image": "", "rank": 2, "time": 1.5, "location": {"lat": 37.603419988419255, "lng": 114.60755913034814}, "feature": {"sight_features": "", "sight_content": ""}}, {"title": "义马体育公园", "address": "河南省三门峡市义马市滨河路", "image": "", "rank": 3, "time": 1.0, "location": {"lat": 34.75619947181489, "lng": 111.86405755107651}, "feature": {"sight_features": "", "sight_content": ""}}, {"title": "清风寺", "address": "三门峡市义马市", "image": "", "rank": 4, "time": 1.0, "location": {"lat": 34.75302800947253, "lng": 111.88051478020587}, "feature": {"sight_features": "", "sight_content": ""}}, {"title": "义马市千秋六月童真儿童乐园", "address": "客都购物广场1楼", "image": "", "rank": 5, "time": 2, "location": {"lat": 35.303938831133124, "lng": 111.67907962310646}, "feature": {"sight_features": "", "sight_content": ""}}, {"title": "连银教堂", "address": "河南省三门峡市义马市连银小区24号北", "image": "", "rank": 6, "time": 2, "location": {"lat": 34.75766516725194, "lng": 111.88298354742537}, "feature": {"sight_features": "", "sight_content": ""}}, {"title": "贝迪儿童乐园", "address": "珠江路文化城3楼(近亚西良楼上)", "image": "", "rank": 7, "time": 2, "location": {"lat": 34.749869849872795, "lng": 111.88164367714704}, "feature": {"sight_features": "", "sight_content": ""}}, {"title": "611密室逃脱", "address": "香山街北段怡苑小区对面新新娘6楼", "image": "", "rank": 8, "time": 2, "location": {"lat": 34.75054929162922, "lng": 111.8847085985301}, "feature": {"sight_features": "", "sight_content": ""}}, {"title": "鸿庆寺石窟", "address": "河南省义马市常村镇石佛村", "image": "", "rank": 9, "time": 2, "location": {"lat": 34.7139839540394, "lng": 111.98511067556605}, "feature": {"sight_features": "", "sight_content": ""}}, {"title": "银杏公园", "address": "河南省三门峡市义马市银杏路", "image": "", "rank": 10, "time": 2.0, "location": {"lat": 34.75861111962186, "lng": 111.87792606135334}, "feature": {"sight_features": "", "sight_content": ""}}]}