{"cityName": "易门", "days": 2, "cityImage": "", "spots": [{"title": "龙泉国家森林公园", "address": "云南省玉溪市易门县龙泉公园", "image": "", "rank": 1, "time": 7.5, "location": {"lat": 24.671674038493897, "lng": 102.1490711543632}, "feature": {"sight_features": "", "sight_content": ""}}, {"title": "易门县南屯湖生态旅游园二期公园", "address": "文昌路南200米", "image": "", "rank": 2, "time": 2.5, "location": {"lat": 32.39874430235553, "lng": 119.45024605841589}, "feature": {"sight_features": "", "sight_content": ""}}, {"title": "易门奇石馆", "address": "云南省易门县西环路", "image": "", "rank": 3, "time": 1.0, "location": {"lat": 24.681058788754235, "lng": 102.16338218879395}, "feature": {"sight_features": "", "sight_content": ""}}, {"title": "乐宝儿童乐园", "address": "云南省玉溪市易门县兴文街32", "image": "", "rank": 4, "time": 2.0, "location": {"lat": 24.674167521698852, "lng": 102.17022099313067}, "feature": {"sight_features": "", "sight_content": ""}}, {"title": "绿汁公园", "address": "绿汁镇中心学校旁", "image": "", "rank": 5, "time": 2, "location": {"lat": 24.681155864552466, "lng": 101.97204322033357}, "feature": {"sight_features": "", "sight_content": ""}}, {"title": "易门县图书馆", "address": "易兴路454号", "image": "", "rank": 6, "time": 2, "location": {"lat": 24.679830217695944, "lng": 102.16605242887061}, "feature": {"sight_features": "", "sight_content": ""}}, {"title": "金三峡漂流", "address": "096乡道", "image": "", "rank": 7, "time": 2, "location": {"lat": 39.832704427000266, "lng": 119.30762972819352}, "feature": {"sight_features": "", "sight_content": ""}}, {"title": "娱乐圈重庆风味火锅", "address": "易兴路668号", "image": "", "rank": 8, "time": 2, "location": {"lat": 24.683742398969727, "lng": 102.16584908304563}, "feature": {"sight_features": "", "sight_content": ""}}, {"title": "木子樱花馆", "address": "龙泉街道西环路808号", "image": "", "rank": 9, "time": 2, "location": {"lat": 24.684979446727706, "lng": 102.16297345754127}, "feature": {"sight_features": "", "sight_content": ""}}, {"title": "易门野生菌美食文化城", "address": "云南省易门县易兴路", "image": "", "rank": 10, "time": 2, "location": {"lat": 24.69298982174945, "lng": 102.16526353517541}, "feature": {"sight_features": "", "sight_content": ""}}]}