{"cityName": "沂南", "days": 2, "cityImage": "", "spots": [{"title": "竹泉村", "address": "临沂市沂南县铜井镇竹泉村", "image": "", "rank": 1, "time": 4.5, "location": {"lat": 35.65325566741179, "lng": 118.44524859730588}, "feature": {"sight_features": "特色1 CCTV中国十大最美乡村、国家水利风景区。 特色2 古朴雅致的明清院落，绿色休闲的生态环境。 特色3 竹林、泉水、古村落交相辉映的避暑胜地。", "sight_content": "竹泉村旅游度假区位于山东省临沂市沂南县铜井镇，这里泉依山出，竹因泉生，村民绕泉而居，砌石为房，竹林隐茅舍，家家临清泉，田园瓜果香，居者乐而寿，是中国北方难得一见的桃花源式的生活环境，被山东省旅游局授予“山东省逍遥游示范点”称号。\n\n景区以竹泉古村为依托，是一处以生态观光、休闲度假、商务会议为核心，集观光、休闲、住宿、餐饮、会议、度假、娱乐、拓展于一体的综合性旅游度假区。在竹泉村旅游度假区里您可以欣赏到竹林、泉水、古村落的美景；您可以入住星级装修标准的生态民居套房；您可以品尝到蒙山全羊、蒙山全蝎、沂蒙光棍鸡等富有特色的地方美食；您可以体验滑草、漂流、cs野战、拓展、采摘等户外项目的乐趣。\n\n\n来到竹泉村融入山水之中，体验真正的回归自然…… 进入竹泉村，参观凤凰迎宾区：感受凤凰叠瀑的秀美，在动听的瀑布水声中漫步走过凤仪桥，眺望威仪的凤凰阁，穿过竹林掩映的古村牌坊，福寿广场上传来阵阵丝竹之声，古戏台上感受人生、神庙里祈福平安；深入梅竹幽静区：游览梅缘休闲庭院、沏一杯茗茶感受惬意，曲折蜿蜒的磨盘路掩映在茂密的竹林中，或漫步或静坐，满眼的绿色让我们忘记了时间的存在。到达景区的生命之源，千年来流淌不息的古泉---竹泉，泉水四季喷涌不息，清澈甘甜，喝一口益寿延年。游览昔日的驸马府邸。前往田园闹市丽水民俗街，街道两旁，店铺林立，作坊之内，叫卖声声。石磨煎饼、芝麻火烧、农家豆腐香飘四溢，老人又回到了儿童时代，青少年见到了真实的历史，他乡的游客领落了纯朴的沂蒙风情。穿行于古村民宅中，感受原始民俗的古朴气息。\n\n在这里，白天您可以观竹林，饮泉水，住进别致的生态房，彻底的放松心境，摆脱尘世的烦扰。晚上皎洁的明月升起，天空中点点繁星闪烁，在村民的打麦场上生起篝火，伴着烧烤的香气，在火堆旁载歌载舞……竹泉村旅游度假区还为您准备了多项好玩的娱乐设施。险中有奇，绝处逢生的激情漂流；健康时尚，激情无限的动感滑草；童趣盎然，充满乐趣的水上挑战者；磨练意志，陶冶情操的拓展训练；自然清新，闲情雅趣的田园采摘；发掘潜能，增强合作的高空拓展；风驰电掣，扣人心弦的滑行龙；身临其境，硝烟弥漫的真人cs；让您放松身心，感受快乐。"}}, {"title": "智圣汤泉", "address": "临沂市沂南县朝阳路北首", "image": "", "rank": 2, "time": 2, "location": {"lat": 35.54849307819557, "lng": 118.48325438350012}, "feature": {"sight_features": "特色1 交通便捷，位于沂南县城区内，县城内打车15分钟可达。 特色2 涵盖温泉，餐饮，住宿项目，无论情侣、家庭出行，还是带老人放松都非常适合。 特色3 “2011最美中国最佳休闲景区”“品牌山东•最值得体验温泉品牌”，度假放松好去处。", "sight_content": "山东智圣汤泉旅游度假村，由山东晨始置业有限责任公司投资兴建，项目总投资6.6亿元，占地500余亩，建筑面积近10万平方米，国家aaaa级旅游景区，是集温泉沐浴、水上娱乐，休闲养生、生态旅游、商务洽谈、会议接待于一体的综合性温泉旅游度假景区。\n\n\n度假村位于山东省沂南县城，距蒙山国家森林公园、孟良崮国家森林公园、山东地下大峡谷、沂水天然地下画廊、沂南竹泉旅游区、诸葛亮文化旅游区等景区均只需半小时车程；离京沪、日东、长深高速公路、胶新铁路、205、206国道等交通干线均在20公里左右，交通十分便利。\n\n\n度假村包括客房接待中心、餐饮中心、温泉接待中心、水上乐园接待中心、国际会议中心、文化中心、餐饮文化会馆、spa疗养会馆八大主题。其中客房接待中心，设有近200间客房和24栋贵宾别墅，可同时容纳500人入住；餐饮中心，设有两个各能容纳100多人的大型多功能餐厅和16个特色包房，能同时容纳500人就餐；国际会议中心，设有能同时容纳1500人的大、中、小各型会议室11处，可分别接待30-500人规模不等的会议同时召开；温泉接待中心，温泉水日出水量达10000多立方，水温高达78℃，富含偏硅酸、氟、碘、溴、锂、锶等30多种有益人体健康的矿物质微量元素。设有动感温泉区、先天八卦养生区、孔明文化区、生态温泉区、室内大型spa水疗、泳池区等60多个功能各异、大小不一的各类温泉池。可同时容纳2000人沐浴，日接待量可达6000余人。水上乐园接待中心，由室内热带雨林馆、五彩水寨、温泉漂流、火山温泉组成，可同时接待4000人，日接待量8000人；度假村影剧院，设有200人的大型多功能影视、演艺大厅和近30个大中型ktv休闲包房、餐饮文化会馆、spa疗养会馆。\n\n\n智圣汤泉水上乐园的水源全部是天然涌出的泉水，出水口水温高达80℃，富含偏硅酸、氟、碘、溴、锂、锶、等30多种有益人体健康的矿物质微量元素，是水量丰富的、自然涌出的、天然高温的、有益健康的。水上乐园主要由沸波池海、热带雨林馆、火山温泉、温泉漂流、五彩水寨、温泉竞技池、泡泡浴（周六周日开放）等项目组成。\n\n\n度假村投入运营先后被评为“山东省老年人明星旅游景区”、被临沂市住房和建设局授予“临沂城市建设精品工程金奖”、被山东省旅游行业协会授予“品牌山东·最值得体验温泉品牌”等荣誉称号。先后承接“全国旅游工作会议临沂分会场会议”、“山东省老年体协工作会议”、“观世博、游临沂暨智圣汤泉开园仪式”、“临沂市委理论学习中心组读书会”及各地游客等共计100余万人次，大大提高了智圣汤泉的社会知名度和公众认可度。"}}, {"title": "沂蒙红色影视基地", "address": "临沂市沂南县马牧池乡常山庄村", "image": "", "rank": 3, "time": 2.5, "location": {"lat": 35.677060160971955, "lng": 118.3141933547935}, "feature": {"sight_features": "特色1 当年沂蒙革命根据地中心 特色2 电视剧《永不磨灭的番号》的取景地。", "sight_content": "沂蒙红色影视基地暨红嫂家乡旅游区，位于沂南县马牧池乡常山庄村，总占地1129亩。由《中国红嫂革命纪念馆》、《常山古村》、《沂州古县城》、《沂蒙党性教育基地培训中心》组成，总投资2.6亿元。沂蒙红色影视基地是红嫂乳汁救伤员的真实发生地，这里是当年沂蒙革命根据地中心。沂蒙红色影视基地至今保留着抗战时期的古村风貌。\n随着电视剧《沂蒙》的拍摄和热播，很多红色影视剧相继在这里拍摄完成。到目前为止，沂蒙红色影视基地陆续拍摄了电视剧《沂蒙》、《娘》、《反抗之真心英雄》、《地道英雄》、《平原枪声》、《岛城风云》、《永不磨灭的番号》、《干得漂亮》、《战雷神》；电影《沂蒙六姐妹》、《斗牛》、《诱杀》、《一个农民的1978——2008》等30余部红色影视剧。\n前来沂蒙红色影视基地近距离观看明星大腕，深层次感受红色文化的游客络绎不绝。2011年沂蒙红色影视基地被确定为《山东省党员领导干部党性教育基地》。现已成为红色旅游、爱国教育、写生拍客、影视拍摄的基地。"}}, {"title": "颐尚温泉", "address": "临沂市沂南县张庄镇松山", "image": "", "rank": 4, "time": 2, "location": {"lat": 35.46163475049848, "lng": 118.39955683999874}, "feature": {"sight_features": "", "sight_content": ""}}, {"title": "诸葛亮文化旅游区", "address": "山东省临沂市沂南县汉街", "image": "", "rank": 5, "time": 1.0, "location": {"lat": 35.575621408840924, "lng": 118.44909849128086}, "feature": {"sight_features": "", "sight_content": ""}}, {"title": "孟良崮国家森林公园", "address": "临沂市沂南县孙祖镇", "image": "", "rank": 6, "time": 1.0, "location": {"lat": 35.52670238334332, "lng": 118.3420777181118}, "feature": {"sight_features": "", "sight_content": ""}}, {"title": "沂南北寨汉墓博物馆", "address": "临沂市沂南县界湖镇北寨村", "image": "", "rank": 7, "time": 2.5, "location": {"lat": 35.55294365831311, "lng": 118.43197139752931}, "feature": {"sight_features": "", "sight_content": ""}}, {"title": "智圣冰雪时代滑雪场", "address": "临沂市沂南县日兰（日东）高速高里出口北500米。", "image": "", "rank": 8, "time": 2, "location": {"lat": 35.349801687478795, "lng": 118.38954083596933}, "feature": {"sight_features": "", "sight_content": ""}}, {"title": "马泉休闲园", "address": "临沂市沂南县铜井镇沂蒙泉乡大道中段", "image": "", "rank": 9, "time": 2, "location": {"lat": 35.63785278937578, "lng": 118.47821409099555}, "feature": {"sight_features": "特色1 马泉休闲园的“慢”休闲或许是你喜欢这里的理由", "sight_content": "‍‍\n沂蒙马泉休闲园为国家AAAA级旅游度假景区，位于临沂市沂南县铜井镇泉乡大道(距离竹泉村5分钟车程)，是由山东吉利旅游开发有限公司投资12亿兴建，占地面积10000亩，景区种植大樱桃、板栗、甜柿、葡萄等优质林果15万余株，均得到产品有机认证。\n\n\n已先后建成：大观音寺、百鸟园、圣山楼、别墅度假群、普渡湖、吉利湖、盛坛、月池咖啡屋等一些列景点。\n\n\n漫步园区可以在大观音寺上香祈福，在普渡湖喂食锦鲤、前往采摘园采摘有机樱桃、葡萄、柿子等瓜果，欣赏传统戏曲大舞台、在吉利湖观赏水上飞人、孔雀东南飞等表演，也可以前往桂花园品桂，到应季花海打call拍照，一个乡村旅游与休闲农业新亮点生动地展现在广袤的沂南大地上。"}}, {"title": "布拉格香草园", "address": "临沂市沂南县张庄镇下峪村", "image": "", "rank": 10, "time": 1.5, "location": {"lat": 35.45943543147144, "lng": 118.3541434451115}, "feature": {"sight_features": "", "sight_content": "布拉格香草园占地面积1000亩，该项目依山而建，梯田层次分明，柿子树点缀其间，景观小品精致，国家AAA级旅游景区，山东省最美齐鲁田园，临沂市自然教育基地，香草园根据季节特色种植各种名贵花草，4.5至5月5号盛开日本芝樱、二月兰4.5号至5.15号，樱花花期，4.5号5.5号。海棠花花期4.5号至5.5号，西洋滨菊花期5.1号至6.15号。蓝花鼠尾草花期，5.1至6.1号。虞美人花期，5至6月。矢车菊5月至6月。 金鸡菊5月到6月，薰衣草花期6月至7月，迷迭香、千日红花期9至11月，格桑花花期9至11月，百日草9到11月，福禄考花期8到10月，等等\n园内根据季节特色种植各种名贵花草，四季皆有花可赏。"}}, {"title": "诸葛亮故里纪念馆", "address": "临沂市沂南县砖埠镇", "image": "", "rank": 11, "time": 2, "location": {"lat": 35.38423106882239, "lng": 118.4557250026719}, "feature": {"sight_features": "", "sight_content": ""}}, {"title": "汶河漂流", "address": "山东沂南县县城西部，丹山子水库下方（山东省临沂市沂南县城西约4公里处）", "image": "", "rank": 12, "time": null, "location": {"lat": 35.57229810794577, "lng": 118.40551540285325}, "feature": {"sight_features": "", "sight_content": ""}}, {"title": "沂蒙红嫂纪念馆", "address": "山青线", "image": "", "rank": 13, "time": 2, "location": {"lat": 39.30008197457163, "lng": 122.5337875665849}, "feature": {"sight_features": "", "sight_content": ""}}, {"title": "六棵树仙果农园", "address": "湖头镇水由村沂南北高速路出口东3公里", "image": "", "rank": 14, "time": 2, "location": {"lat": 35.59279129271083, "lng": 118.70481462927873}, "feature": {"sight_features": "", "sight_content": ""}}, {"title": "知名水上乐园", "address": "临沂北外环路", "image": "", "rank": 15, "time": 2, "location": {"lat": 35.29117756306783, "lng": 117.96862451807547}, "feature": {"sight_features": "", "sight_content": ""}}, {"title": "田源农家生态园", "address": "205国道西50米", "image": "", "rank": 16, "time": 2, "location": {"lat": 37.34066223973322, "lng": 118.07044385440943}, "feature": {"sight_features": "", "sight_content": ""}}, {"title": "博山潜水电泵(沂南总代理)", "address": "汉街117附近", "image": "", "rank": 17, "time": 2, "location": {"lat": 30.564379874319428, "lng": 114.34393582350829}, "feature": {"sight_features": "", "sight_content": ""}}, {"title": "宇轩画廊", "address": "铜鲁线东50米", "image": "", "rank": 18, "time": 2, "location": {"lat": 35.64611479851532, "lng": 118.44253906444699}, "feature": {"sight_features": "", "sight_content": ""}}, {"title": "袁氏小流域桃园", "address": "圈里村界湖街道卧龙源联小学西北1000米", "image": "", "rank": 19, "time": 2, "location": {"lat": 35.55730223812388, "lng": 118.45310188680307}, "feature": {"sight_features": "", "sight_content": ""}}, {"title": "大樱桃园", "address": "历山村附近", "image": "", "rank": 20, "time": 2, "location": {"lat": 35.347063255128155, "lng": 112.0160589658432}, "feature": {"sight_features": "", "sight_content": ""}}, {"title": "岭上砚文化博物馆", "address": "205国道附近", "image": "", "rank": 21, "time": 2, "location": {"lat": 37.34066223973322, "lng": 118.07089300716441}, "feature": {"sight_features": "", "sight_content": ""}}, {"title": "徐公砚故砚斋", "address": "山东省临沂市沂南县205国道附近", "image": "", "rank": 22, "time": 2, "location": {"lat": 35.43209682090975, "lng": 118.27710038443813}, "feature": {"sight_features": "", "sight_content": ""}}, {"title": "墨绿森林生态水族馆", "address": "山东省临沂市沂南县永兴路17号", "image": "", "rank": 23, "time": 2, "location": {"lat": 35.55453575994497, "lng": 118.45817497015366}, "feature": {"sight_features": "", "sight_content": ""}}, {"title": "蒙山温泉庄园", "address": "朝阳路与北环路交汇处", "image": "", "rank": 24, "time": 1.0, "location": {"lat": 38.21116297479111, "lng": 115.23210741236434}, "feature": {"sight_features": "", "sight_content": ""}}, {"title": "维多利亚温泉度假村", "address": "二二七省道", "image": "", "rank": 25, "time": 2.0, "location": {"lat": 31.228081134040913, "lng": 120.66770235845375}, "feature": {"sight_features": "", "sight_content": ""}}, {"title": "沂南玉树祥石", "address": "山东省沂南县金波路", "image": "", "rank": 26, "time": 2.5, "location": {"lat": 35.56967195597818, "lng": 118.45757220715647}, "feature": {"sight_features": "", "sight_content": ""}}, {"title": "卧龙山收藏馆", "address": "山东省沂南县汉街", "image": "", "rank": 27, "time": 2, "location": {"lat": 35.575621408840924, "lng": 118.44909849128086}, "feature": {"sight_features": "", "sight_content": ""}}, {"title": "美佳儿童乐园", "address": "山东省临沂市沂南县S227", "image": "", "rank": 28, "time": 2, "location": {"lat": 35.55609766694983, "lng": 118.47149154086414}, "feature": {"sight_features": "", "sight_content": ""}}, {"title": "福园", "address": "文化路北50米", "image": "", "rank": 29, "time": 2, "location": {"lat": 39.94102248596893, "lng": 119.61003805736195}, "feature": {"sight_features": "", "sight_content": ""}}, {"title": "崇文堂", "address": "汉街诸葛亮公园南50米路西", "image": "", "rank": 30, "time": 2, "location": {"lat": 35.56389162019419, "lng": 118.45903644513774}, "feature": {"sight_features": "", "sight_content": ""}}, {"title": "临沂山城鹿业度假村", "address": "临沂市沂南县铜井镇山旺庄西山", "image": "", "rank": 31, "time": 3.0, "location": {"lat": 35.63785278937578, "lng": 118.47821409099555}, "feature": {"sight_features": "", "sight_content": ""}}, {"title": "智胜温泉度假村超市", "address": "366省道智胜汤泉度假村内", "image": "", "rank": 32, "time": 2, "location": {"lat": 26.441618561013954, "lng": 113.16349670357172}, "feature": {"sight_features": "", "sight_content": ""}}, {"title": "卧龙山公园", "address": "人民路西", "image": "", "rank": 33, "time": 2, "location": {"lat": 23.756373442789307, "lng": 109.2227335041744}, "feature": {"sight_features": "", "sight_content": ""}}, {"title": "大青山烈士陵园", "address": "双堠镇大青山烈士陵园", "image": "", "rank": 34, "time": 2, "location": {"lat": 35.497510809699435, "lng": 118.2023267920255}, "feature": {"sight_features": "", "sight_content": ""}}, {"title": "山东战邮纪念馆", "address": "336省道附近", "image": "", "rank": 35, "time": 2, "location": {"lat": 31.893686636307606, "lng": 121.10505712819689}, "feature": {"sight_features": "", "sight_content": ""}}, {"title": "金龙泉山庄", "address": "229省道附近", "image": "", "rank": 36, "time": 2, "location": {"lat": 39.64350034548962, "lng": 117.03562195777462}, "feature": {"sight_features": "", "sight_content": ""}}, {"title": "树化玉展厅", "address": "金波路", "image": "", "rank": 37, "time": 2, "location": {"lat": 30.642267209892264, "lng": 120.56802819633866}, "feature": {"sight_features": "", "sight_content": ""}}, {"title": "寿山石展厅", "address": "金波路", "image": "", "rank": 38, "time": 2, "location": {"lat": 30.642267209892264, "lng": 120.56802819633866}, "feature": {"sight_features": "", "sight_content": ""}}, {"title": "沙漠玫瑰展厅", "address": "金波路", "image": "", "rank": 39, "time": 2, "location": {"lat": 30.642267209892264, "lng": 120.56802819633866}, "feature": {"sight_features": "", "sight_content": ""}}, {"title": "战工会纪念馆", "address": "山青线", "image": "", "rank": 40, "time": 2, "location": {"lat": 39.30008197457163, "lng": 122.5337875665849}, "feature": {"sight_features": "", "sight_content": ""}}, {"title": "孔明奇石博物馆", "address": "祥和路3号", "image": "", "rank": 41, "time": 2, "location": {"lat": 31.64194993895271, "lng": 120.13872199962583}, "feature": {"sight_features": "", "sight_content": ""}}, {"title": "阳光宝贝乐园沂南店", "address": "东方购物广场", "image": "", "rank": 42, "time": 2, "location": {"lat": 39.629824741249344, "lng": 118.21325993094669}, "feature": {"sight_features": "", "sight_content": ""}}, {"title": "花海人间", "address": "铜鲁线花海人间", "image": "", "rank": 43, "time": 2, "location": {"lat": 35.64611479851532, "lng": 118.44208991169201}, "feature": {"sight_features": "", "sight_content": ""}}, {"title": "沂南县智圣家庭农场", "address": "张庄镇新庄村(沂新线)", "image": "", "rank": 44, "time": 2, "location": {"lat": 35.28694957146508, "lng": 118.40995711936262}, "feature": {"sight_features": "", "sight_content": ""}}, {"title": "花山桂花盆景园", "address": "229省道西50米", "image": "", "rank": 45, "time": 2, "location": {"lat": 39.64350034548962, "lng": 117.03517280501963}, "feature": {"sight_features": "", "sight_content": ""}}, {"title": "恒丰合作社", "address": "S336与高界线交叉口西北100米", "image": "", "rank": 46, "time": 2, "location": {"lat": 35.580164174267075, "lng": 118.4016985593346}, "feature": {"sight_features": "", "sight_content": ""}}, {"title": "林家院子樱桃采摘园", "address": "双堠镇青家洼村", "image": "", "rank": 47, "time": 2, "location": {"lat": 38.27317109620555, "lng": 111.92667205290287}, "feature": {"sight_features": "", "sight_content": ""}}, {"title": "沂南商业街", "address": "山东省沂南县人民路9号", "image": "", "rank": 48, "time": 1.5, "location": {"lat": 35.55664441384492, "lng": 118.46005849043512}, "feature": {"sight_features": "", "sight_content": ""}}]}