{"cityName": "应县", "days": 2, "cityImage": "", "spots": [{"title": "卧羊场", "address": "应县南部恒山山脉", "image": "", "rank": 1, "time": 2, "location": {"lat": 39.56007785237528, "lng": 113.19749353921925}, "feature": {"sight_features": "", "sight_content": ""}}, {"title": "大同永镇寺", "address": "山西省应县南河种镇小石口村", "image": "", "rank": 2, "time": 2.5, "location": {"lat": 39.476370187690954, "lng": 113.33475753075544}, "feature": {"sight_features": "", "sight_content": ""}}, {"title": "龙潭湖", "address": "山西省朔州市应县县城东8公里", "image": "", "rank": 3, "time": 0.5, "location": {"lat": 39.56007785237528, "lng": 113.19749353921925}, "feature": {"sight_features": "", "sight_content": ""}}, {"title": "应县图书馆", "address": "金城镇金城西街", "image": "", "rank": 4, "time": 2, "location": {"lat": 39.56000908398714, "lng": 113.18478007735361}, "feature": {"sight_features": "", "sight_content": ""}}, {"title": "大同镇子梁水库游乐场", "address": "山西省大同县境内 037300", "image": "", "rank": 5, "time": 2.5, "location": {"lat": 40.00162748889317, "lng": 113.58386582098244}, "feature": {"sight_features": "", "sight_content": ""}}, {"title": "祇园", "address": "山西省朔州市应县金城镇佛宫寺释迦塔只园", "image": "", "rank": 6, "time": 2.0, "location": {"lat": 39.571184471894384, "lng": 113.1953416807091}, "feature": {"sight_features": "", "sight_content": ""}}, {"title": "大同跑马梁", "address": "山西省大同市城区境内 037000", "image": "", "rank": 7, "time": 2.5, "location": {"lat": 40.10254286655904, "lng": 113.2969658727473}, "feature": {"sight_features": "", "sight_content": ""}}, {"title": "大同文殊寺", "address": "山西省大同县境内 037305", "image": "", "rank": 8, "time": 1.0, "location": {"lat": 40.00162748889317, "lng": 113.58386582098244}, "feature": {"sight_features": "", "sight_content": ""}}, {"title": "地藏殿", "address": "朔州市应县辽代文化城佛宫寺内", "image": "", "rank": 9, "time": null, "location": {"lat": 39.571184471894384, "lng": 113.1953416807091}, "feature": {"sight_features": "", "sight_content": ""}}, {"title": "楞严寺", "address": "朔州市应县", "image": "", "rank": 10, "time": 2, "location": {"lat": 39.56007785237528, "lng": 113.19749353921925}, "feature": {"sight_features": "", "sight_content": ""}}, {"title": "归元寺", "address": "山西省朔州市应县应繁线", "image": "", "rank": 11, "time": 2, "location": {"lat": 39.56007785237528, "lng": 113.19749353921925}, "feature": {"sight_features": "", "sight_content": ""}}, {"title": "应县文殊寺", "address": "山西省朔州市应县东下线", "image": "", "rank": 12, "time": 2, "location": {"lat": 39.45271021221348, "lng": 113.25903869547162}, "feature": {"sight_features": "", "sight_content": ""}}, {"title": "清宁公园", "address": "山西省朔州市应县四中对面", "image": "", "rank": 13, "time": 2, "location": {"lat": 39.55241751093398, "lng": 113.19980958731561}, "feature": {"sight_features": "", "sight_content": ""}}, {"title": "小画家乐园", "address": "塔西街与大同北路交叉口东150米", "image": "", "rank": 14, "time": 2, "location": {"lat": 39.570956059448065, "lng": 113.18626205237717}, "feature": {"sight_features": "", "sight_content": ""}}, {"title": "Ying Xian Wooden Pagoda", "address": "76km (47 miles) south of Datong, Datong, China", "image": "", "rank": 15, "time": 2, "location": {"lat": 40.00918602800984, "lng": 116.35586062474077}, "feature": {"sight_features": "", "sight_content": ""}}, {"title": "宏福野生渔行", "address": "塔南路与金城东街交叉口北150米", "image": "", "rank": 16, "time": 2, "location": {"lat": 39.56091350858918, "lng": 113.19565231475445}, "feature": {"sight_features": "", "sight_content": ""}}, {"title": "北曹山文化剧场", "address": "应济线附近", "image": "", "rank": 17, "time": 2, "location": {"lat": 39.45587130026287, "lng": 113.13686285797606}, "feature": {"sight_features": "", "sight_content": ""}}, {"title": "大丽丽姥爷的大结李", "address": "南河种镇北河种", "image": "", "rank": 18, "time": 2, "location": {"lat": 39.47291564306418, "lng": 113.26685120010204}, "feature": {"sight_features": "", "sight_content": ""}}]}