{"cityName": "盈江", "days": 2, "cityImage": "", "spots": [{"title": "中国榕树王（独树成林）", "address": "德宏市盈江县铜壁关老刀弄寨旁", "image": "", "rank": 1, "time": 2, "location": {"lat": 24.662423553880416, "lng": 97.63030588697087}, "feature": {"sight_features": "特色1 打破“独树不成林”的俗语", "sight_content": "中国榕树王位于盈江县铜壁关老刀弄寨旁的亚热带雨林之中，距离县城约30公里。树高约40米，由下垂的气生根长成的新树干已达100多根。\n每年仍有10多条气生根在增加，树冠覆面积达5.5亩，远远看去，犹如一片小树林，故又叫“独树成林”据专家考证，此树约有300年的树龄，是中国目前发现的最大、气生根最多的榕树。"}}, {"title": "允燕山", "address": "德宏傣族景颇族自治州盈江县城以东1公里的允燕山", "image": "", "rank": 2, "time": 1.5, "location": {"lat": 24.711534266142955, "lng": 97.93842653538563}, "feature": {"sight_features": "", "sight_content": ""}}, {"title": "槟榔江风光", "address": "云南省德宏傣族景颇族自治州盈江县新城乡", "image": "", "rank": 3, "time": 3.0, "location": {"lat": 24.862566244799755, "lng": 98.09658272084408}, "feature": {"sight_features": "", "sight_content": ""}}, {"title": "盈湖公园", "address": "云南省德宏傣族景颇族自治州盈江县诗密娃底路 ‎", "image": "", "rank": 4, "time": 2, "location": {"lat": 24.717458017326486, "lng": 97.94282500027985}, "feature": {"sight_features": "", "sight_content": ""}}, {"title": "乐园寺", "address": "广母路与040乡道交叉口东南200米", "image": "", "rank": 5, "time": 2, "location": {"lat": 24.704622220682474, "lng": 97.95108725323908}, "feature": {"sight_features": "", "sight_content": ""}}, {"title": "铜壁关自然保护区", "address": "云南省西南部盈江、陇川、瑞丽县的西部", "image": "", "rank": 6, "time": 2, "location": {"lat": 24.02281689310535, "lng": 97.8624855842082}, "feature": {"sight_features": "", "sight_content": ""}}, {"title": "铜壁关遗址", "address": "云南省德宏傣族景颇族自治州盈江县", "image": "", "rank": 7, "time": 2, "location": {"lat": 24.711534266142955, "lng": 97.93842653538563}, "feature": {"sight_features": "", "sight_content": ""}}, {"title": "盈江县神护关草果种植专业合作社", "address": "318省道附近", "image": "", "rank": 8, "time": 2, "location": {"lat": 39.54871980361448, "lng": 115.77642274814633}, "feature": {"sight_features": "", "sight_content": ""}}, {"title": "盈江县文林蔬菜种植专业合作社", "address": "318省道附近", "image": "", "rank": 9, "time": 2, "location": {"lat": 39.54871980361448, "lng": 115.77642274814633}, "feature": {"sight_features": "", "sight_content": ""}}, {"title": "凤凰温泉", "address": "233省道凤凰温泉度假村", "image": "", "rank": 10, "time": 6.0, "location": {"lat": 24.752547820364263, "lng": 98.11990426797783}, "feature": {"sight_features": "", "sight_content": ""}}, {"title": "落水洞", "address": "云南省盈江县西南的坝尾山 679300", "image": "", "rank": 11, "time": 1.5, "location": {"lat": 24.711534266142955, "lng": 97.93842653538563}, "feature": {"sight_features": "", "sight_content": ""}}, {"title": "盈江四关", "address": "云南省盈江县平原镇 679300", "image": "", "rank": 12, "time": 2, "location": {"lat": 24.714421385015097, "lng": 97.93880966807534}, "feature": {"sight_features": "", "sight_content": ""}}, {"title": "卡场景颇文化园", "address": "德宏傣族景颇族自治州盈江县", "image": "", "rank": 13, "time": 2, "location": {"lat": 24.711534266142955, "lng": 97.93842653538563}, "feature": {"sight_features": "", "sight_content": ""}}, {"title": "金蓝湾水上乐园", "address": "云南省德宏傣族景颇族自治州盈江县平原镇棒腮路多源小区附近", "image": "", "rank": 14, "time": 2, "location": {"lat": 24.703741317835455, "lng": 97.94026626506945}, "feature": {"sight_features": "", "sight_content": ""}}, {"title": "梦幻游乐园", "address": "云南省德宏傣族景颇族自治州盈江县永盛路202", "image": "", "rank": 15, "time": 2, "location": {"lat": 24.709691579061907, "lng": 97.94503358498561}, "feature": {"sight_features": "", "sight_content": ""}}, {"title": "弄璋镇弄璋青莲寺", "address": "芒线街东50米", "image": "", "rank": 16, "time": 2, "location": {"lat": 24.498402522112183, "lng": 97.75921404722092}, "feature": {"sight_features": "", "sight_content": ""}}, {"title": "莲花池度假村", "address": "云南省德宏傣族景颇族自治州盈江县", "image": "", "rank": 17, "time": 2, "location": {"lat": 24.711534266142955, "lng": 97.93842653538563}, "feature": {"sight_features": "", "sight_content": ""}}, {"title": "山神庙", "address": "318省道附近", "image": "", "rank": 18, "time": 2, "location": {"lat": 39.54871980361448, "lng": 115.77642274814633}, "feature": {"sight_features": "", "sight_content": ""}}, {"title": "盈江农场(芒线分场)", "address": "芒线街附近", "image": "", "rank": 19, "time": 2, "location": {"lat": 24.498402522112183, "lng": 97.75876489446608}, "feature": {"sight_features": "", "sight_content": ""}}, {"title": "云南农垦盈江农场", "address": "永盛路272号", "image": "", "rank": 20, "time": 2, "location": {"lat": 24.709395730689163, "lng": 97.95123509366495}, "feature": {"sight_features": "", "sight_content": ""}}, {"title": "盈江凯棒亚湖", "address": "云南省盈江县铜壁关乡", "image": "", "rank": 21, "time": 2, "location": {"lat": 24.618236219856495, "lng": 97.6626779995554}, "feature": {"sight_features": "", "sight_content": ""}}, {"title": "马嘉里事件纪念碑", "address": "云南省盈江县芒允乡", "image": "", "rank": 22, "time": 2, "location": {"lat": 24.547417575808083, "lng": 97.76535907583964}, "feature": {"sight_features": "", "sight_content": ""}}, {"title": "槟榔江", "address": "云南省腾冲县胆扎村,猴桥村", "image": "", "rank": 23, "time": 3.0, "location": {"lat": 25.46381292083184, "lng": 98.26441466813381}, "feature": {"sight_features": "", "sight_content": ""}}]}