{"cityName": "营山", "days": 2, "cityImage": "", "spots": [{"title": "太蓬山", "address": "南充市营山县", "image": "", "rank": 1, "time": 1.0, "location": {"lat": 31.083002970198866, "lng": 106.57240802851658}, "feature": {"sight_features": "", "sight_content": "太蓬山位于营山县境内，曾是川北佛教圣地。早在一千多年前唐昭宗年间，即建有“太蓬寺”三重大殿，香火鼎盛，被誉为“太蓬仙迹”，现列营山县十景之首。太蓬山有大太蓬和小太蓬之分，有十二峰、三个游览区、三十二个景点，以朝阳洞、透明岩和天子读书台极为有名。"}}, {"title": "朗池湿地公园", "address": "四川省南充市营山县西林路", "image": "", "rank": 2, "time": 1.5, "location": {"lat": 31.08741816028944, "lng": 106.5683783566599}, "feature": {"sight_features": "", "sight_content": ""}}, {"title": "新感觉音乐茶座", "address": "中街01号老供销社处", "image": "", "rank": 3, "time": 2, "location": {"lat": 31.034449630925906, "lng": 121.37807879036976}, "feature": {"sight_features": "", "sight_content": ""}}, {"title": "烂祠堂", "address": "南充市营山县二零四省道", "image": "", "rank": 4, "time": 2, "location": {"lat": 31.083002970198866, "lng": 106.57240802851658}, "feature": {"sight_features": "", "sight_content": ""}}, {"title": "李家祠堂", "address": "南充市营山县营山--永乐", "image": "", "rank": 5, "time": 2, "location": {"lat": 31.083002970198866, "lng": 106.57240802851658}, "feature": {"sight_features": "", "sight_content": ""}}, {"title": "魏家祠堂", "address": "南充市营山县东盐路", "image": "", "rank": 6, "time": 2, "location": {"lat": 31.083002970198866, "lng": 106.57240802851658}, "feature": {"sight_features": "", "sight_content": ""}}, {"title": "营山县海乐堡儿童乐园有限公司", "address": "四川省南充市营山县朗池镇翠屏公园玉林串串对面", "image": "", "rank": 7, "time": 2, "location": {"lat": 31.080356577338076, "lng": 106.57415859509102}, "feature": {"sight_features": "", "sight_content": ""}}, {"title": "清水湖湿地公园", "address": "南充市营山县清水乡", "image": "", "rank": 8, "time": 2.5, "location": {"lat": 31.179758536504803, "lng": 106.52991770628422}, "feature": {"sight_features": "", "sight_content": ""}}, {"title": "毛家祠堂", "address": "南充市营山县营山--三仙洞", "image": "", "rank": 9, "time": 2, "location": {"lat": 31.083002970198866, "lng": 106.57240802851658}, "feature": {"sight_features": "", "sight_content": ""}}, {"title": "方家祠堂", "address": "南充市营山县", "image": "", "rank": 10, "time": 2, "location": {"lat": 31.083002970198866, "lng": 106.57240802851658}, "feature": {"sight_features": "", "sight_content": ""}}, {"title": "翠屏苑休闲广场", "address": "南充营山县大南街4号", "image": "", "rank": 11, "time": null, "location": {"lat": 31.081698973091076, "lng": 106.57306780426958}, "feature": {"sight_features": "", "sight_content": ""}}, {"title": "银河山庄", "address": "营山县带河乡婚姻家庭学校附近", "image": "", "rank": 12, "time": 2, "location": {"lat": 31.05823322079074, "lng": 106.78450352891655}, "feature": {"sight_features": "", "sight_content": ""}}, {"title": "绥山广场", "address": "模范街46号附近", "image": "", "rank": 13, "time": 2, "location": {"lat": 30.795330401047156, "lng": 106.09437910816355}, "feature": {"sight_features": "", "sight_content": ""}}, {"title": "营山县图书馆", "address": "正东街2号", "image": "", "rank": 14, "time": 2, "location": {"lat": 30.88032352581346, "lng": 104.02476078185512}, "feature": {"sight_features": "", "sight_content": ""}}, {"title": "营山县会展中心", "address": "郎池镇北坝横街46号", "image": "", "rank": 15, "time": 2, "location": {"lat": 28.518204952406506, "lng": 120.05292283387567}, "feature": {"sight_features": "", "sight_content": ""}}, {"title": "营山城市规划展览馆", "address": "近南北干道", "image": "", "rank": 16, "time": 1.5, "location": {"lat": 29.849672531803794, "lng": 103.83163949104994}, "feature": {"sight_features": "", "sight_content": ""}}, {"title": "营山县图书馆", "address": "正东街2号", "image": "", "rank": 17, "time": 2, "location": {"lat": 30.88032352581346, "lng": 104.02476078185512}, "feature": {"sight_features": "", "sight_content": ""}}, {"title": "儿童游乐园", "address": "新北路", "image": "", "rank": 18, "time": 2, "location": {"lat": 38.09837479316882, "lng": 114.32616641424654}, "feature": {"sight_features": "", "sight_content": ""}}, {"title": "弘韵画廊", "address": "建安街18号", "image": "", "rank": 19, "time": 2, "location": {"lat": 45.30539624527774, "lng": 130.97379402061478}, "feature": {"sight_features": "", "sight_content": ""}}, {"title": "营山县商业步行街", "address": "四川省营山县营渠东路", "image": "", "rank": 20, "time": 2, "location": {"lat": 31.080617568589, "lng": 106.60016242858693}, "feature": {"sight_features": "", "sight_content": ""}}]}