{"cityName": "伊宁市", "days": 2, "cityImage": "", "spots": [{"title": "汉人街", "address": "伊犁哈萨克自治州伊宁市新华东路", "image": "", "rank": 1, "time": 1.5, "location": {"lat": 43.90872297402344, "lng": 81.35977159326728}, "feature": {"sight_features": "", "sight_content": ""}}, {"title": "喀赞其民俗村", "address": "伊犁哈萨克自治州伊宁市伊犁洲政府东", "image": "", "rank": 2, "time": 1.5, "location": {"lat": 43.915299436243146, "lng": 81.28424240527833}, "feature": {"sight_features": "", "sight_content": ""}}, {"title": "可克达拉草原之夜风情园", "address": "伊犁哈萨克自治州伊宁市华东百盛", "image": "", "rank": 3, "time": 2, "location": {"lat": 43.93019299312731, "lng": 81.31326792498258}, "feature": {"sight_features": "特色1 世界著名东方小夜曲《草原之夜》原创地", "sight_content": "霍尔果斯市可克达拉草原之夜旅游景区总面积5.6平方公里，核心景区1200亩。这里是“世界著名东方小夜曲”《草原之夜》的原创地；词作者张加毅骨灰安放地；红色军垦文化基地；历史上的成吉思汗西征大军集结地；中亚帝国都城——察合台汗国·阿力麻里古城旧址。\n景区以名扬海内外的《草原之夜》音乐文化、神秘而深厚的历史文化、激情昂扬的屯垦文化为内涵，形成以音乐歌舞为主旋律，以原创文化展示和屯垦纪念为主题内容，以民俗风情演艺、特色林果采摘、苇湖垂钓等水上游乐为体验方式，立体地呈现一个集文化参观游览、民俗风情演艺、休闲观光农业、原生态度假康养为一体的旅游度假胜地。景区分东、西两个功能区：东区为生活服务区，西区为参观游览区。主要旅游项目有：草原之夜军垦文化博览馆、“印象草原之夜”篝火演艺、原创地文化走廊、浪漫爱情体验基地、民俗骑马、射箭娱乐、绿色餐饮中心、生态度假酒店、休闲采摘垂钓、名优特产品展销九大部分。景区先后被国家和自治区评定为AAA级景区，全国乡村4星级旅游园区，“中国最令人向往的地方”；“中国最佳历史文化旅游胜地”“自治区文化产业示范基地”“自治区休闲观光农业示范点”等认证。"}}, {"title": "阿勒玛滑雪场", "address": "伊犁市伊宁市巴彦岱镇苏阿拉木图村阿勒玛景区内", "image": "", "rank": 4, "time": 2, "location": {"lat": 44.13210571723889, "lng": 81.28167810587293}, "feature": {"sight_features": "", "sight_content": ""}}, {"title": "迷途伊犁旗舰店", "address": "伊宁市斯大林街四巷口新时代广场1单元15楼", "image": "", "rank": 5, "time": 2, "location": {"lat": 43.94112615774714, "lng": 81.30818646915515}, "feature": {"sight_features": "", "sight_content": ""}}, {"title": "紫苏丽人薰衣草创意产业园", "address": "伊犁哈萨克自治州伊宁市开发区深圳路999号", "image": "", "rank": 6, "time": 1.5, "location": {"lat": 43.94929812230842, "lng": 81.27577048601373}, "feature": {"sight_features": "", "sight_content": ""}}, {"title": "伊宁城市海景公园", "address": "伊宁市西南郊", "image": "", "rank": 7, "time": 1.0, "location": {"lat": 43.915299436243146, "lng": 81.28424240527833}, "feature": {"sight_features": "", "sight_content": ""}}, {"title": "汉家公主纪念馆", "address": "伊犁哈萨克自治州伊宁市江苏路25号", "image": "", "rank": 8, "time": 1.5, "location": {"lat": 43.93509637862795, "lng": 81.32508282217712}, "feature": {"sight_features": "", "sight_content": ""}}, {"title": "快乐星滑雪场", "address": "伊犁哈萨克自治州伊宁市巴彦岱干沟北山坡", "image": "", "rank": 9, "time": 2, "location": {"lat": 43.96949402532924, "lng": 81.26261543063396}, "feature": {"sight_features": "", "sight_content": ""}}, {"title": "六星农家大院", "address": "工人街三巷内", "image": "", "rank": 10, "time": 2, "location": {"lat": 43.93773952145255, "lng": 81.31151823578315}, "feature": {"sight_features": "", "sight_content": ""}}, {"title": "伊犁师范学院图书馆", "address": "赛依拉木街", "image": "", "rank": 11, "time": 2, "location": {"lat": 43.94231018915064, "lng": 81.3138364491551}, "feature": {"sight_features": "", "sight_content": ""}}, {"title": "红果果儿童游乐园", "address": "中和商务酒店南侧", "image": "", "rank": 12, "time": 2, "location": {"lat": 43.93042125646983, "lng": 81.30949454983875}, "feature": {"sight_features": "", "sight_content": ""}}, {"title": "蓝魔水族", "address": "西部建材市场南区美都花卉市场三楼", "image": "", "rank": 13, "time": 2, "location": {"lat": 29.67409022778377, "lng": 106.56979143193556}, "feature": {"sight_features": "", "sight_content": ""}}, {"title": "春驿水上乐园", "address": "环城西路城市海景公园", "image": "", "rank": 14, "time": 2, "location": {"lat": 43.907127833659395, "lng": 81.28499175179238}, "feature": {"sight_features": "", "sight_content": ""}}, {"title": "塔什库勒克乡阿依墩村", "address": "塔什库勒克乡", "image": "", "rank": 15, "time": 2, "location": {"lat": 43.89935881967135, "lng": 81.30901335659232}, "feature": {"sight_features": "", "sight_content": ""}}, {"title": "唐布拉布隆温泉", "address": "唐布拉百里风景区中心", "image": "", "rank": 16, "time": 2, "location": {"lat": 43.79795222078118, "lng": 82.51291726868608}, "feature": {"sight_features": "", "sight_content": ""}}, {"title": "巴彦岱良繁场", "address": "铁巴路", "image": "", "rank": 17, "time": 2, "location": {"lat": 25.234333962023275, "lng": 105.62189424794798}, "feature": {"sight_features": "", "sight_content": ""}}, {"title": "加玛力丁白杏子休闲庄", "address": "葡萄园休闲庄附近", "image": "", "rank": 18, "time": 2, "location": {"lat": 42.81795878203449, "lng": 93.50730824387122}, "feature": {"sight_features": "", "sight_content": ""}}, {"title": "哈力艾山农家乐", "address": "新华西路", "image": "", "rank": 19, "time": 2, "location": {"lat": 30.68009487708951, "lng": 104.06884108238249}, "feature": {"sight_features": "", "sight_content": ""}}, {"title": "酷米咔动漫水世界", "address": "西环路原天马国际钢材市场(原检测站内)", "image": "", "rank": 20, "time": 2, "location": {"lat": 43.94679653853163, "lng": 81.29988612624295}, "feature": {"sight_features": "", "sight_content": ""}}, {"title": "伊犁砍图书馆", "address": "英阿亚提路309号附近", "image": "", "rank": 21, "time": 2, "location": {"lat": 43.93277769140874, "lng": 81.35857722145688}, "feature": {"sight_features": "", "sight_content": ""}}, {"title": "卡赞其民族手工业基地", "address": "新光街西50米", "image": "", "rank": 22, "time": 2, "location": {"lat": 41.12813378780924, "lng": 123.0100934866647}, "feature": {"sight_features": "", "sight_content": ""}}, {"title": "汇香坊香薰图书馆", "address": "二十二巷附近", "image": "", "rank": 23, "time": 2, "location": {"lat": 23.100931760317003, "lng": 113.27528273950196}, "feature": {"sight_features": "", "sight_content": ""}}, {"title": "新疆机场陈列馆", "address": "新疆维吾尔自治区伊宁市青年公寓附近", "image": "", "rank": 24, "time": 2, "location": {"lat": 43.95773397939864, "lng": 81.33850697503343}, "feature": {"sight_features": "", "sight_content": ""}}, {"title": "三区革命政府旧址", "address": "新疆维吾尔自治区伊宁县解放路 835100", "image": "", "rank": 25, "time": 2, "location": {"lat": 43.96458622366543, "lng": 81.26943859996555}, "feature": {"sight_features": "", "sight_content": ""}}, {"title": "动物园", "address": "313省道", "image": "", "rank": 26, "time": 2, "location": {"lat": 40.47363217982258, "lng": 116.99325005466613}, "feature": {"sight_features": "", "sight_content": ""}}, {"title": "伊宁市图书馆", "address": "斯大林东路4号", "image": "", "rank": 27, "time": 1.5, "location": {"lat": 43.9228442996457, "lng": 81.33716176253223}, "feature": {"sight_features": "", "sight_content": ""}}, {"title": "伊犁丝路花都樱花园", "address": "伊犁哈萨克自治州察布查尔锡伯自治县伊犁河南岸景观大道8号", "image": "", "rank": 28, "time": 1.0, "location": {"lat": 43.733034725947206, "lng": 81.5795203756223}, "feature": {"sight_features": "", "sight_content": ""}}, {"title": "拜图拉清真寺", "address": "新疆维吾尔自治区伊犁哈萨克自治州伊宁市解放南路55", "image": "", "rank": 29, "time": 2, "location": {"lat": 43.91848162347211, "lng": 81.33057376320518}, "feature": {"sight_features": "", "sight_content": ""}}, {"title": "御极鹿苑圣玛依拉展览中心", "address": "伊犁御极鹿苑生物制品有限公司旁", "image": "", "rank": 31, "time": 2, "location": {"lat": 43.96958939903495, "lng": 81.26146020974814}, "feature": {"sight_features": "", "sight_content": ""}}, {"title": "伊宁市图书馆(合作区分馆)", "address": "吉林路599号", "image": "", "rank": 32, "time": 2, "location": {"lat": 43.945724140322746, "lng": 81.29419999995638}, "feature": {"sight_features": "", "sight_content": ""}}, {"title": "三区革命历史纪念馆", "address": "公园街1巷", "image": "", "rank": 33, "time": 2, "location": {"lat": 43.92784148486768, "lng": 81.3002663309958}, "feature": {"sight_features": "", "sight_content": ""}}, {"title": "伊宁市城建档案馆", "address": "飞机场路198号", "image": "", "rank": 34, "time": 2, "location": {"lat": 43.94494457261694, "lng": 81.33163531966193}, "feature": {"sight_features": "", "sight_content": ""}}, {"title": "卡奇乐儿童乐园", "address": "萨依布依街道阿合买提江路105", "image": "", "rank": 35, "time": 2, "location": {"lat": 43.92183673417469, "lng": 81.31275142410759}, "feature": {"sight_features": "", "sight_content": ""}}, {"title": "库尔干农家乐", "address": "西环路与山东路路口处", "image": "", "rank": 36, "time": 2, "location": {"lat": 43.93044738690455, "lng": 81.28594630919339}, "feature": {"sight_features": "", "sight_content": ""}}, {"title": "忠芝野生蓝梅", "address": "家园新天地底商附近", "image": "", "rank": 37, "time": 2, "location": {"lat": 38.18773326477943, "lng": 115.20823644450519}, "feature": {"sight_features": "", "sight_content": ""}}, {"title": "鳄鱼漆", "address": "昆仑路与飞机场路交叉口西北50米", "image": "", "rank": 38, "time": 2, "location": {"lat": 43.94050047536383, "lng": 81.32920960238656}, "feature": {"sight_features": "", "sight_content": ""}}, {"title": "伊犁丝绸之路博物馆", "address": "八达赛里斯广场", "image": "", "rank": 39, "time": 2, "location": {"lat": 43.96335513779314, "lng": 81.28514322604374}, "feature": {"sight_features": "", "sight_content": ""}}, {"title": "穆恩回民农家乐", "address": "胜利街九巷胜利街百货商店斜对面", "image": "", "rank": 40, "time": 2, "location": {"lat": 43.9269666516458, "lng": 81.33907560242125}, "feature": {"sight_features": "", "sight_content": ""}}, {"title": "紫薇格格薰衣草", "address": "上海城东方明珠107号", "image": "", "rank": 41, "time": 2, "location": {"lat": 43.95057934543123, "lng": 81.30064636219603}, "feature": {"sight_features": "", "sight_content": ""}}, {"title": "远香薰衣草厂家第四直销点", "address": "解放西路551", "image": "", "rank": 42, "time": 2, "location": {"lat": 43.942274051069845, "lng": 81.3053348844612}, "feature": {"sight_features": "", "sight_content": ""}}, {"title": "福乐智慧图书馆", "address": "自由街139号", "image": "", "rank": 43, "time": 2, "location": {"lat": 31.842403309322233, "lng": 120.47341222905864}, "feature": {"sight_features": "", "sight_content": ""}}, {"title": "李罗农家乐庭园特色小吃", "address": "新华西路262号附近", "image": "", "rank": 44, "time": 2, "location": {"lat": 30.805073281700917, "lng": 121.28995955179221}, "feature": {"sight_features": "", "sight_content": ""}}, {"title": "纳家园农家乐", "address": "解放西路六巷与解放路六巷交叉口西南50米", "image": "", "rank": 45, "time": 2, "location": {"lat": 43.93451781532304, "lng": 81.32112566172087}, "feature": {"sight_features": "", "sight_content": ""}}, {"title": "八号院农家乐", "address": "市实验小学北侧", "image": "", "rank": 46, "time": 2, "location": {"lat": 38.41998228773714, "lng": 112.73545901225106}, "feature": {"sight_features": "", "sight_content": ""}}, {"title": "仁和步行街", "address": "新疆维吾尔自治区伊宁市吉林路", "image": "", "rank": 47, "time": 2, "location": {"lat": 43.948873818836255, "lng": 81.28888502332347}, "feature": {"sight_features": "", "sight_content": ""}}, {"title": "祥和名品城", "address": "新疆维吾尔自治区伊宁市新华西路", "image": "", "rank": 48, "time": 2, "location": {"lat": 43.917033805812025, "lng": 81.30084800124065}, "feature": {"sight_features": "", "sight_content": ""}}, {"title": "赛里木社区陶艺馆", "address": "新疆维吾尔自治区伊宁市黎光街附近", "image": "", "rank": 49, "time": 2, "location": {"lat": 43.94397155507921, "lng": 81.32001499499172}, "feature": {"sight_features": "", "sight_content": ""}}, {"title": "苹果商业街", "address": "新疆维吾尔自治区伊宁市福州路", "image": "", "rank": 50, "time": 2, "location": {"lat": 43.943389176549054, "lng": 81.28281637061346}, "feature": {"sight_features": "", "sight_content": ""}}, {"title": "新疆山野龙途自驾游俱乐部", "address": "伊犁哈萨克自治州-伊宁市-X693(重庆路)", "image": "", "rank": 51, "time": 2, "location": {"lat": 43.9487352266552, "lng": 81.26780881029744}, "feature": {"sight_features": "", "sight_content": ""}}, {"title": "伊犁海尔巴格赛乃木演艺广场", "address": "伊犁哈萨克自治州-伊宁市-伊犁街与胜利街交叉口北150米", "image": "", "rank": 52, "time": 2, "location": {"lat": 43.91109571955683, "lng": 81.33510721170882}, "feature": {"sight_features": "", "sight_content": ""}}, {"title": "汉宾乡果园民俗风情园", "address": "伊犁哈萨克自治州-伊宁市-发展乡街", "image": "", "rank": 53, "time": 2, "location": {"lat": 43.92335535290111, "lng": 81.30649974425499}, "feature": {"sight_features": "", "sight_content": ""}}, {"title": "九大队四队", "address": "伊犁哈萨克自治州-伊宁市-阿拉木图亚村四组--阿拉木图亚村五组", "image": "", "rank": 54, "time": 2, "location": {"lat": 43.96326196016412, "lng": 81.15992563626084}, "feature": {"sight_features": "", "sight_content": ""}}, {"title": "伊宁市潘津镇昌潘蔬菜种植专业合...", "address": "伊犁哈萨克自治州-伊宁市-下潘津村东北角", "image": "", "rank": 55, "time": 1.0, "location": {"lat": 43.98086049099589, "lng": 81.38498036476311}, "feature": {"sight_features": "", "sight_content": ""}}, {"title": "阿依乐宴艺大剧院", "address": "伊宁市重庆北路与佛山路交汇处", "image": "", "rank": 56, "time": 2, "location": {"lat": 43.965226316719765, "lng": 81.28313002404329}, "feature": {"sight_features": "", "sight_content": "阿依乐宴艺大剧院打造的《天马飞歌》是一部以哈萨克为主的多民族主题原创歌舞剧，主要讲述草原上哈萨克族的由来、丝绸之路的风采以及秀美伊犁的国际、开放、包容、和谐。"}}, {"title": "拜都拉清真寺", "address": "伊犁哈萨克自治州伊宁市新华路", "image": "", "rank": 57, "time": 2, "location": {"lat": 43.915299436243146, "lng": 81.28424240527833}, "feature": {"sight_features": "", "sight_content": ""}}]}