{"cityName": "印江", "days": 2, "cityImage": "", "spots": [{"title": "印江欢乐岛", "address": "铜仁市印江县官庄西路城中", "image": "", "rank": 1, "time": 3.0, "location": {"lat": 28.007812307461574, "lng": 108.41356045787684}, "feature": {"sight_features": "", "sight_content": ""}}, {"title": "梵净山避暑山庄乐园", "address": "549县道附近", "image": "", "rank": 2, "time": 2, "location": {"lat": 22.003402898447018, "lng": 107.10042256260692}, "feature": {"sight_features": "", "sight_content": ""}}, {"title": "释迦殿", "address": "梵净山景区内红云金顶之上", "image": "", "rank": 3, "time": 2, "location": {"lat": 27.72747349774481, "lng": 109.2023727450514}, "feature": {"sight_features": "", "sight_content": ""}}, {"title": "红二六军会师地", "address": "贵州省松桃苗族自治县木黄镇 555200", "image": "", "rank": 4, "time": 2, "location": {"lat": 28.09078528459734, "lng": 108.70146299628693}, "feature": {"sight_features": "", "sight_content": ""}}, {"title": "峩岑武圣宫", "address": "铜仁市印江土家族苗族自治县", "image": "", "rank": 5, "time": 2, "location": {"lat": 27.99982325199269, "lng": 108.41659167842938}, "feature": {"sight_features": "", "sight_content": ""}}, {"title": "九道拐景区", "address": "新寨乡上槽村九一组", "image": "", "rank": 6, "time": 2, "location": {"lat": 27.977307678219912, "lng": 108.36693664663542}, "feature": {"sight_features": "", "sight_content": ""}}, {"title": "滨江广场", "address": "市印江土家族苗族自治县县府路与振兴路交叉口北150米", "image": "", "rank": 7, "time": 2, "location": {"lat": 28.001165102014554, "lng": 108.4206685463579}, "feature": {"sight_features": "", "sight_content": ""}}, {"title": "郎溪镇张家村文化广场", "address": "303省道朗溪镇张家村人口学校附近", "image": "", "rank": 8, "time": 2, "location": {"lat": 31.43236190011681, "lng": 119.50808316942144}, "feature": {"sight_features": "", "sight_content": ""}}, {"title": "中心广场", "address": "铜仁市印江土家族苗族自治县解放路", "image": "", "rank": 9, "time": 1.0, "location": {"lat": 28.006232222034967, "lng": 108.40727093771521}, "feature": {"sight_features": "", "sight_content": ""}}, {"title": "民族陈列馆", "address": "解放路", "image": "", "rank": 10, "time": 2, "location": {"lat": 38.31075478654948, "lng": 116.85852551801001}, "feature": {"sight_features": "", "sight_content": ""}}, {"title": "印江土家族苗族自治县档案馆", "address": "县府路", "image": "", "rank": 11, "time": 2, "location": {"lat": 31.74572480376606, "lng": 119.58448015350085}, "feature": {"sight_features": "", "sight_content": ""}}, {"title": "印江土家族苗族自治县图书馆", "address": "解放路", "image": "", "rank": 12, "time": 2, "location": {"lat": 38.31075478654948, "lng": 116.85852551801001}, "feature": {"sight_features": "", "sight_content": ""}}, {"title": "九方文化馆", "address": "市印江土家族苗族自治县峨岭镇文昌广场体育馆旁", "image": "", "rank": 13, "time": 2, "location": {"lat": 28.005767199846257, "lng": 108.40827513188515}, "feature": {"sight_features": "", "sight_content": ""}}, {"title": "印江云上居生态农业观光园", "address": "市印江土家族苗族自治县周家坝隧道西北660米", "image": "", "rank": 14, "time": 2, "location": {"lat": 27.979023694717164, "lng": 108.37173332317563}, "feature": {"sight_features": "", "sight_content": ""}}, {"title": "印江自治县杜鹃花海乡村旅游专业...", "address": "585县道坪所村内", "image": "", "rank": 15, "time": 2, "location": {"lat": 36.76309249848862, "lng": 111.51434164924285}, "feature": {"sight_features": "", "sight_content": ""}}, {"title": "重庆心连心艺术团", "address": "西环路", "image": "", "rank": 16, "time": 1.5, "location": {"lat": 39.04489408100302, "lng": 117.25170447040091}, "feature": {"sight_features": "", "sight_content": ""}}, {"title": "天桥", "address": "贵州省铜仁地区梵净山", "image": "", "rank": 17, "time": 2.0, "location": {"lat": 27.72747349774481, "lng": 109.2023727450514}, "feature": {"sight_features": "", "sight_content": ""}}]}