{"cityName": "沂水", "days": 2, "cityImage": "", "spots": [{"title": "地下大峡谷", "address": "临沂市沂水县姚店子镇", "image": "", "rank": 1, "time": 3.0, "location": {"lat": 35.69553228786072, "lng": 118.53050318542569}, "feature": {"sight_features": "特色1 北方罕见喀斯特峡谷溶洞，惊险有趣。 特色2 暗河漫长而曲折，水量充沛，四季长流，地下河瀑布分外壮观。 特色3 1000米暗河漂流带来新奇体验。", "sight_content": "山东地下大峡谷是一座风貌奇特的溶洞王国，是“沂蒙地下地质奇观核心景区”、“全省重点探险项目”、“中国十大漂流胜地”、“国家地质公园”、国家aaaa级旅游区。洞穴沿290-320度方向延伸，由一条西北/东南走向的巨大喀斯特裂隙发育而成，形成于约0.65亿年至2.3亿年前。洞体长度6100米，目前已开发3100米。\n景观特点：一是气势雄伟壮丽，峡谷深切近百米、两壁如削、宽处百余米、窄处仅可容身，成具体而微之地下三峡。二是地下暗河漫长而曲折，水量充沛，四季长流，地下河瀑布分外壮观。\n三是利用暗河水势开发的“1000米漂流”项目，洞内分九大景段，有“一河”、“九泉”、“九宫”、“十二瀑”、“十二峡”等景观一百余处。该旅游区是集休闲、游憩、娱乐、度假、溶洞漂流为一体的旅游项目。"}}, {"title": "天上王城景区", "address": "临沂市沂水县沂蒙山腹地的沂水县城西北40公里处", "image": "", "rank": 2, "time": 3.0, "location": {"lat": 35.79618058471814, "lng": 118.63461726384591}, "feature": {"sight_features": "特色1 沂蒙一大崮，千古纪王城。 特色2 登纪王崮赏沂蒙山崮群风光，去纪王宫探寻古纪国的历史遗存。 观赏大型古装马战演出《王城之战》，再现古代沙场的壮烈场景。 特色3 悬崖哨壁、陡哨如削，周边自然风光秀美利用密林、哨壁、古树、名木、泉水等资源建成奇菌风貌观赏区还可以亲身体验纵马奔驰、驰骋沙场的英雄气概。古城处处可见岁月长河留下的片片痕迹。", "sight_content": "‍\n国家AAAA级景区天上王城，位于沂蒙山腹地沂水县城西北40公里处。景区以纪王崮为中心，以春秋时期纪王迁都至此的历史故事为主题建设而成。千古王城在崮顶、群崮争辉耀险峰、地下冰宫北国风是王城美景的集中体现。天上王城景区八大景观:崖壁之巅，饱览沂蒙群崮争辉；大型马战，演绎春秋诸侯争霸；地下冰宫，见证冰雪童话神奇；天上人家，探寻千年石头部落；乡村游戏，体验朴素休闲之乐。空中索道，尽赏沂蒙壮美梯田。王城食府，品尝沂蒙绿色美食，天城宾馆，推窗可见繁星点点。\n‍\n漫步古城，你处处可见岁月长河留下的片片痕迹，静静的旗杆座、默默的古城墙、传奇的胭粉泉、险峻的走马泉、祥瑞环绕的纪元台、历尽沧桑的大殿遗址、雕廊画栋的后宫楼台、跨越千年依然挺拔伫立的六大山门，每一处，每一地都渗透出千年历史的沧桑与厚重，游客在这里可以尽情的领略中华文明千年的积淀；感悟让您心动，体验让您行动，王城的演武场上正在上演着千年前的纪国保卫战，游人可以在观赏完大型马战表演和特技表演后跃上战马、提起兵刃体验下狼烟滚滚,金戈铁马,挽弓擒敌,疆场厮杀的快意；王城御射场上疾声 划过的箭矢带给您不一样的成就与感受。祭祀祖先、骧祈天地之所的《祭天盟誓》，热闹喜庆、游客参与的《比武招亲》，倾情奉献、古典优雅的《开城迎宾》则让你感受不一样的纪国春秋。\n登上崮顶，游客便可以近距离的观赏一下古城墙的原始风貌。这些用巨石垒成的城墙历来引起人们的注意。这些巨石无论从颜色还是质地，跟崮顶的石头和岩层差异非常大，并且非常坚硬，历经数千年风雨，仍然巍然不动。据说这就是当年姬王为了抵御外敌而建造的防御城墙。这些石块都是由巨石切割而成，小的有数百公斤，大的有五六吨重。有人曾论证说，古人在冬季泼水成冰形成滑道，然后用绳子将巨石运上来。只有这样，在没有起重机等现代设备的古代，古人才能够完成这样的工程。还有人说是用木块做滑轮运来的，这种运输方式在我国古代就曾出现过，三国时期诸葛亮制造的“木牛流马”能够在山道上运送粮草，显然就是利用了这个原理。\n天上王城有六大城门：朝阳门、水西门、凳子门、卡拉门、塔子门、走马门。走马门是地势平缓的山门，此门通向下面的一个村子—深门峪，当年纪王就是从此门向山上运输粮草，因此该门是山上山下沟通的通道。而运输粮草的马就在此休息，原先这里并排有6个饮马槽，六匹马一起在泉边饮水甚是壮观，该泉因此也就被称作了走马泉。充分享受崮顶清净与远古文化氛围之余，我们还可走进群崮美景映衬中的特色酒店，尽情品尝农家炒公鸡、大锅全羊、沂蒙全蝎、沂蒙小豆沫等时令菜蔬，体验崮乡深处的美味佳肴。更可走进依崮而建，景色秀美、环境幽静的坡地错层建筑—天城宾馆，卸去身心的疲惫。\n地下冰宫是在原纪国藏兵洞的基础上扩建出的一个大型地下宫殿，全长200多米，除去两端通道之外，8000立方米的主体空间内设有精美的冰雕、冰灯艺术展，2道长100多米的滑冰道，可适合各年龄段的游客游玩。冰宫内冰雕、冰灯、滑道都将每4个月将修复、更新一次，让各个时期来的游客都能亲身体验到冰天雪地的北国风情，并且定期更新，保证常来常新。"}}, {"title": "萤火虫水洞", "address": "临沂市沂水县院东头乡", "image": "", "rank": 3, "time": 2.0, "location": {"lat": 35.723525329503715, "lng": 118.43732862299747}, "feature": {"sight_features": "特色1 生活着萤火虫", "sight_content": "萤火虫水洞是按照国家5A级标准建成，由蝴蝶谷、萤火虫水洞两大主题旅游区构成，另外还有崖瀑漂流、滑道车、梦幻昆虫园等60余处景点构成，是集休闲观光、科普教育、科考探险等多功能于一体的大型综合性生态旅游区。\n背湖依山自然形成，三面环山，植被丰富，中间谷底贯穿一条溪流，为原始生态蝴蝶谷，有丝带凤蝶、枯叶蝶、麝香凤蝶等世界著名种类多达50种，蝴蝶谷每一处建筑都巧妙地利用了这里的原始山水及植被，使原始的生态资源得以充分利用和保护，园内的小桥、流水、幽谷、鲜花和那翩翩起舞的彩蝶以及各类粗犷的原始植被，蝴蝶谷构成了一个幽静、自然的世外桃源。\n旅游区内有一处特大型地下暗湖岩溶洞穴，是一处著名的地下萤火虫水洞神秘世界。该溶洞形成于约0.65亿年至2.3亿年前，全长1200米，萤光湖面积2.5万平方米，体积24万立方米，洞体规模宏大，各种岩溶景观千姿百态，洞中地下湖水量充沛，碧水长流，清冽甘美，幽深莫测。洞内不但有大量的钟乳、奇石等奇特景观，而且还生活着一种萤火虫，这种萤火虫仅在阴湿的岩洞中寄居生存，布满在洞顶犹如晴朗夜空中闪烁的星星，星星点点，成千上万，形成了一种奇妙的景观。\n游人进入暗黑的溶洞乘上一叶由绳索牵引的轻舟，破水前行，前边豁然开朗，满天繁星闪烁，熠熠生辉，犹如进入一个童话世界，使人浮想联翩，流连忘返！该旅游区可与新西兰的怀托摩萤火虫洞相媲美，另外该旅游区内还有江南韵味的南国风情、梦幻奇异的昆虫园、浪漫温馨的梁祝旅游区、绚丽多彩的蝶谷彩虹、千米崖瀑漂流、巨莽滑道车等50余处著名景点，被评为“中外旅游特色品牌”、“国家AAAA级旅游区”等。"}}, {"title": "天谷·天然地下画廊", "address": "临沂市沂水县院东头镇", "image": "", "rank": 4, "time": 1.75, "location": {"lat": 35.72899444267988, "lng": 118.41732682854614}, "feature": {"sight_features": "特色1 洞内钟乳遍布，石笋林立", "sight_content": "沂水地下画廊旅游风景区位于沂蒙生态乡、“红嫂故里”――山东省沂水县院东头乡留虎峪。景区规划面积20平方千米，总投资1.2亿元，其中一期工程投资6000万元。景区由三部分组成：包括百万年绘就的“天然地下画廊”；按三星级标准规划建设的度假村――“怡然居”；生态山林。是一处集地下奇观、会议、餐饮、居住、商务、科普、健身等为一体的休闲游乐中心。\n\n“天然地下画廊”全长6600米，一期开发2800米，由全国著名学者、国画大师范曾亲笔题写洞名。洞内钟乳遍布，石笋林立，月奶石、石花、石盾令人叹为观止。石乳、石笋、石柱、石幔、石帘、石旗等各类象形钟乳石，参差错落、千姿百态，108处景观向人们展示着一幅幅神秘画卷。\n\n“怡然居”酒店依山而设，具有浓郁的沂蒙民居特色，建筑面积8000平方米，一期工程能容纳150个床位、150人的会议、400人的就餐；建筑风格质朴大方，石房、草屋、亭台、长廊错落有致。\n\n“生态谷”位于九顶莲花山麓，有千亩成片的栗园、密密匝匝的松林，高达85%的森林覆盖率，是人们理想的“天然氧吧”。 景区自开业以来，先后被上级有关部门命名为沂蒙山国家地质公园画廊园区、山东十佳乡村游景区、畅游山东自驾游目的地、沂蒙十大餐饮名店等荣誉称号。"}}, {"title": "雪山彩虹谷旅游区", "address": "临沂市沂水县沂河山庄东2.5公里雪山彩虹谷内", "image": "", "rank": 5, "time": 1.0, "location": {"lat": 35.79301659153626, "lng": 118.88368215561053}, "feature": {"sight_features": "特色1 极具特色的滑草项目 特色2 在这里可以晴天观彩虹的美景，体验浓浓的雨中风情 特色3 集休闲、观光、娱乐、游玩、度假、表演于一体高档旅游区。", "sight_content": "雪山彩虹谷旅游区是国家4A级旅游区，位于山东省沂水县城东2.5公里处，总面积350公顷，2003年投资开发。现已建成雪莲湖、彩虹谷、情人谷、欢乐谷、野战谷、滑草、摸鱼池等项目，是一处集观光、休闲、度假、娱乐、参与、表演于一体的旅游区。\n\n\n主体景观彩虹谷为您营造出浓浓的雨中风情，走过彩虹门，头上彩虹环绕，脚下溪流淙淙，游道旁缀以亭、台、楼、榭，让您天天见彩虹，日日沐祥雨。\n独具特色的滑草项目，108米的滑草道，几秒内飞驰而下，尽享惊险刺激。总长度约1公里左右的漂流道，乡野美景一 一掠过，一路漂荡，一路欢叫。在欢乐谷，原始攀爬设施和遨游太空，激光炮碰碰车、高空飞翔、彩虹跳跃、狂牛等省内独有的项目，让您置身于欢乐的海洋，忘却了时间与年龄。一万五千平方米，热血沸腾，玩滑雪，寻刺激。\n\n\n返璞归真的摸鱼项目，既可以让您体验儿时的乐趣，又可拿到烧烤房去烧烤，享受胜利的喜悦。野战谷将带您跨越时空，回到“战火纷飞”的年代，按实战要求设置的战壕与阵地，“沙漠行动”、“攻克城市”、“密林枪战”等战术组合与全新的娱乐，让您亲历战争的惊险与刺激。999朵玫瑰长廊引领大家进入情人谷，宋式月老祠与拜月亭隔谷相对，房前山花烂漫，屋后泉水潺潺，让对对情侣在扑鼻的幽径上尽享爱的芬芳。"}}, {"title": "东方瑞海温泉", "address": "临沂市沂水县长安路与新南环路交界处", "image": "", "rank": 6, "time": 1.5, "location": {"lat": 35.82586586913232, "lng": 118.65729067457886}, "feature": {"sight_features": "", "sight_content": "★东方瑞海国际温泉度假村的整个室内温泉拥有大大小小11个不同功能的温泉池，大型多功能机械水疗池，针穴躺椅浴、瀑布按摩泉、动感三色彩虹滑梯、童乐泉、隆洞温泉谷、国际标准游泳池，还有特色玉石、玛瑙蒸气浴、特色干湿蒸房、亲亲鱼疗等。 ★东方瑞海国际温泉度假村先后被评为2010年“品牌山东”最值得体验温泉品牌、山东旅游十佳休闲度假胜地。"}}, {"title": "东皋公园", "address": "山东省临沂市沂水县正阳路", "image": "", "rank": 7, "time": 2, "location": {"lat": 35.795371156394, "lng": 118.63700101273702}, "feature": {"sight_features": "", "sight_content": ""}}, {"title": "灵泉山", "address": "临沂市沂水县龙家圈镇", "image": "", "rank": 8, "time": 3.5, "location": {"lat": 35.790055469533144, "lng": 118.60369747051445}, "feature": {"sight_features": "", "sight_content": ""}}, {"title": "雪山彩虹谷森林滑雪场", "address": "临沂市沂水县沂河山庄东2.5公里雪山彩虹谷景区内", "image": "", "rank": 9, "time": 2, "location": {"lat": 35.792437484341356, "lng": 118.69603470261409}, "feature": {"sight_features": "", "sight_content": ""}}, {"title": "雪山梅园", "address": "临沂市沂水县雪山风景区（雪山彩虹谷）东南处", "image": "", "rank": 10, "time": 2, "location": {"lat": 35.796384023246794, "lng": 118.70339748496383}, "feature": {"sight_features": "", "sight_content": ""}}, {"title": "四门洞", "address": "山东省沂水县院东头乡", "image": "", "rank": 11, "time": 2, "location": {"lat": 35.723525329503715, "lng": 118.43732862299747}, "feature": {"sight_features": "", "sight_content": ""}}, {"title": "淄博齐长城遗址", "address": "山东省沂水县境内", "image": "", "rank": 12, "time": 3.5, "location": {"lat": 35.79618058471814, "lng": 118.63461726384591}, "feature": {"sight_features": "", "sight_content": ""}}, {"title": "灵泉寺景区", "address": "山东省沂水县龙家圈乡", "image": "", "rank": 13, "time": 2, "location": {"lat": 35.79162425061039, "lng": 118.61481519684506}, "feature": {"sight_features": "", "sight_content": ""}}, {"title": "沂水颐高水上乐园", "address": "新汽车站东20米", "image": "", "rank": 14, "time": 1.0, "location": {"lat": 39.3208591710094, "lng": 115.86517364910763}, "feature": {"sight_features": "", "sight_content": ""}}, {"title": "天主教临沂教区王庄天主堂", "address": "山东临沂", "image": "", "rank": 15, "time": 2, "location": {"lat": 35.11067124236514, "lng": 118.36353300501388}, "feature": {"sight_features": "", "sight_content": ""}}, {"title": "龙家圈水上乐园", "address": "龙家圈水果批发市场东门对过", "image": "", "rank": 16, "time": 2, "location": {"lat": 36.566979275041675, "lng": 113.67621149403406}, "feature": {"sight_features": "", "sight_content": ""}}, {"title": "九重山庄", "address": "329省道附近", "image": "", "rank": 17, "time": 2, "location": {"lat": 37.006006509118556, "lng": 114.74389772886998}, "feature": {"sight_features": "", "sight_content": ""}}, {"title": "寨里草莓", "address": "寨里村西外环路", "image": "", "rank": 18, "time": 2, "location": {"lat": 35.79194634384998, "lng": 118.58366202733534}, "feature": {"sight_features": "", "sight_content": ""}}, {"title": "深山剧场", "address": "沂河山庄东25公里雪山彩虹谷内", "image": "", "rank": 19, "time": 2, "location": {"lat": 35.79301659153626, "lng": 118.88368215561053}, "feature": {"sight_features": "", "sight_content": ""}}, {"title": "茉莉书吧", "address": "二小路与鑫华路交叉口南200米", "image": "", "rank": 20, "time": 2, "location": {"lat": 31.28001131899166, "lng": 121.29674374185112}, "feature": {"sight_features": "", "sight_content": ""}}, {"title": "天谷穿越漂流", "address": "临沂市沂水县天谷旅游区内", "image": "", "rank": 21, "time": 2, "location": {"lat": 35.79618058471814, "lng": 118.63461726384591}, "feature": {"sight_features": "", "sight_content": ""}}, {"title": "剧院五交化", "address": "正阳路21号", "image": "", "rank": 22, "time": 2, "location": {"lat": 31.783152050937417, "lng": 118.86392656873338}, "feature": {"sight_features": "", "sight_content": ""}}, {"title": "观音宫", "address": "临沂市沂水县姚店子镇永富庄山东地下大峡谷内", "image": "", "rank": 23, "time": 2, "location": {"lat": 35.73004952721933, "lng": 118.55273060813394}, "feature": {"sight_features": "", "sight_content": ""}}, {"title": "大雄宝殿", "address": "临沂市沂水县城西南8公里山东地下大峡谷景区卧龙寺内", "image": "", "rank": 24, "time": 2, "location": {"lat": 35.79618058471814, "lng": 118.63461726384591}, "feature": {"sight_features": "", "sight_content": ""}}, {"title": "野战接待广场", "address": "沂河山庄东2.5公里雪山彩虹谷野战谷内", "image": "", "rank": 25, "time": 2, "location": {"lat": 35.799219904709595, "lng": 118.70607333046779}, "feature": {"sight_features": "", "sight_content": ""}}, {"title": "石泉庄园", "address": "227省道附近", "image": "", "rank": 26, "time": 3.0, "location": {"lat": 31.228081134040913, "lng": 120.66770235845375}, "feature": {"sight_features": "", "sight_content": ""}}, {"title": "飞马中空艺术玻璃展厅", "address": "山东省沂水县爱玛电动车旁", "image": "", "rank": 27, "time": 2, "location": {"lat": 35.79333734034319, "lng": 118.63265106083043}, "feature": {"sight_features": "", "sight_content": ""}}, {"title": "农具展示", "address": "临沂市沂水县夏蔚镇王庄村沂蒙山根据地景区附近沂蒙风情园内", "image": "", "rank": 28, "time": 2, "location": {"lat": 35.8711796312133, "lng": 118.32475683920073}, "feature": {"sight_features": "", "sight_content": ""}}, {"title": "恩泽亭", "address": "临沂市沂水县夏蔚镇王庄村沂蒙山根据地景区圣母堂内", "image": "", "rank": 29, "time": 2, "location": {"lat": 35.8707176209261, "lng": 118.32389933921854}, "feature": {"sight_features": "", "sight_content": ""}}, {"title": "儿童乐园", "address": "临沂市沂水县九州商业大厦3层", "image": "", "rank": 30, "time": 2, "location": {"lat": 35.79317350550993, "lng": 118.63607440521365}, "feature": {"sight_features": "", "sight_content": ""}}, {"title": "圣母堂", "address": "临沂市沂水县夏蔚镇王庄村沂蒙山根据地景区内", "image": "", "rank": 31, "time": 1.5, "location": {"lat": 35.8707176209261, "lng": 118.32389933921854}, "feature": {"sight_features": "", "sight_content": ""}}, {"title": "海盗船", "address": "临沂市沂水县城西南8公里山东地下大峡谷景区内", "image": "", "rank": 32, "time": 2, "location": {"lat": 35.79618058471814, "lng": 118.63461726384591}, "feature": {"sight_features": "", "sight_content": ""}}, {"title": "华迈儿童主题乐园", "address": "长安中路57号附近", "image": "", "rank": 33, "time": 2, "location": {"lat": 32.94248167018255, "lng": 119.85129120266599}, "feature": {"sight_features": "", "sight_content": ""}}, {"title": "娃娃鱼观赏区", "address": "临沂市沂水县院东头镇沂水地下萤光湖旅游区萤火虫水洞内", "image": "", "rank": 34, "time": 2, "location": {"lat": 35.72119004203057, "lng": 118.45833666514547}, "feature": {"sight_features": "", "sight_content": ""}}, {"title": "模树石博物馆", "address": "229省道附近", "image": "", "rank": 35, "time": 2, "location": {"lat": 39.64350034548962, "lng": 117.03562195777462}, "feature": {"sight_features": "", "sight_content": ""}}, {"title": "财神阁", "address": "临沂市沂水县黄山铺圣水坊村云水禅苑内", "image": "", "rank": 36, "time": 2, "location": {"lat": 35.85498493055755, "lng": 118.49583940564396}, "feature": {"sight_features": "", "sight_content": ""}}, {"title": "洞天祠", "address": "临沂市沂水县院东头镇沂水地下萤光湖旅游区内", "image": "", "rank": 37, "time": 2, "location": {"lat": 35.72119004203057, "lng": 118.45833666514547}, "feature": {"sight_features": "", "sight_content": ""}}, {"title": "麦幼优儿童乐园", "address": "临沂市沂水县沂蒙山路银座商城沂水店3层", "image": "", "rank": 38, "time": 2, "location": {"lat": 35.790101629862015, "lng": 118.6316120510335}, "feature": {"sight_features": "", "sight_content": ""}}, {"title": "小P孩儿童成长主题乐园", "address": "长安南路信合家园西门向南100路东", "image": "", "rank": 39, "time": 2, "location": {"lat": 35.7685067472006, "lng": 118.64154946411047}, "feature": {"sight_features": "", "sight_content": ""}}, {"title": "沂蒙观复文化博物馆", "address": "山东省临沂市沂水县中心南街", "image": "", "rank": 40, "time": 2, "location": {"lat": 35.7826813745793, "lng": 118.63188856294406}, "feature": {"sight_features": "", "sight_content": ""}}, {"title": "沂水县龙興寺", "address": "山东省临沂市沂水县圣水坊村附近", "image": "", "rank": 41, "time": 2, "location": {"lat": 35.857050135861265, "lng": 118.49725590587381}, "feature": {"sight_features": "", "sight_content": ""}}, {"title": "儿童乐园", "address": "临沂市沂水县", "image": "", "rank": 42, "time": 2, "location": {"lat": 35.79618058471814, "lng": 118.63461726384591}, "feature": {"sight_features": "", "sight_content": ""}}, {"title": "小飞龙-终点站", "address": "临沂市沂水县城西南8公里山东地下大峡谷景区小飞龙内", "image": "", "rank": 43, "time": 2, "location": {"lat": 35.79618058471814, "lng": 118.63461726384591}, "feature": {"sight_features": "", "sight_content": ""}}, {"title": "碧霞行宫", "address": "临沂市沂水县龙家圈乡肖家沟灵泉寺森林公园灵泉寺内", "image": "", "rank": 44, "time": 2, "location": {"lat": 35.89787853800607, "lng": 118.46960765497236}, "feature": {"sight_features": "", "sight_content": ""}}, {"title": "水上挑战者", "address": "临沂市沂水县沂河山庄东2.5公里雪山彩虹谷内", "image": "", "rank": 45, "time": 2, "location": {"lat": 35.79301659153626, "lng": 118.88368215561053}, "feature": {"sight_features": "", "sight_content": ""}}, {"title": "怡园", "address": "县府前街与阳西街交叉口南150米", "image": "", "rank": 46, "time": 1.5, "location": {"lat": 35.79573318228246, "lng": 118.63389161265495}, "feature": {"sight_features": "", "sight_content": ""}}, {"title": "大众日报诞生地陈列室", "address": "临沂市沂水县夏蔚镇王庄村沂蒙山根据地景区中共中央山东分局旧址内", "image": "", "rank": 47, "time": 2, "location": {"lat": 35.86935677003107, "lng": 118.32366862382118}, "feature": {"sight_features": "", "sight_content": ""}}, {"title": "淘气堡儿童游乐场", "address": "山东省临沂市沂水县杨庄镇中国邮政", "image": "", "rank": 48, "time": 2, "location": {"lat": 36.01872121936275, "lng": 118.84321823543912}, "feature": {"sight_features": "", "sight_content": ""}}, {"title": "沂水县基督教会", "address": "山东省临沂市沂水县S335(鑫华路)", "image": "", "rank": 49, "time": 2, "location": {"lat": 35.77391641052217, "lng": 118.63695051628939}, "feature": {"sight_features": "", "sight_content": ""}}, {"title": "王庄烈士陵园", "address": "临沂市沂水县夏蔚镇王庄村沂蒙山根据地景区沂蒙山根据地广场内", "image": "", "rank": 50, "time": 2, "location": {"lat": 35.84860048750558, "lng": 118.31050790013366}, "feature": {"sight_features": "", "sight_content": ""}}, {"title": "沂水跋山碧波山庄旅游度假村", "address": "山东省临沂市沂水县跋山水库加油站向北50米", "image": "", "rank": 51, "time": 1.0, "location": {"lat": 35.908558357147804, "lng": 118.55818971851475}, "feature": {"sight_features": "", "sight_content": ""}}, {"title": "跋山烈士陵园", "address": "山东省临沂市沂水县", "image": "", "rank": 52, "time": 2, "location": {"lat": 35.79618058471814, "lng": 118.63461726384591}, "feature": {"sight_features": "", "sight_content": ""}}, {"title": "丽水庄园", "address": "青援路附近", "image": "", "rank": 53, "time": 3.0, "location": {"lat": 35.82308951108682, "lng": 118.64769380732412}, "feature": {"sight_features": "", "sight_content": ""}}, {"title": "天然地下迷宫", "address": "阔老山", "image": "", "rank": 54, "time": 2, "location": {"lat": 35.72790216249148, "lng": 118.49827961842621}, "feature": {"sight_features": "", "sight_content": ""}}, {"title": "峙密河山庄", "address": "佟家庄村附近", "image": "", "rank": 55, "time": 2, "location": {"lat": 39.24966378346033, "lng": 116.7371794102801}, "feature": {"sight_features": "", "sight_content": ""}}, {"title": "冰雪海盗船", "address": "沂河山庄东2.5公里雪山彩虹谷内", "image": "", "rank": 56, "time": 2, "location": {"lat": 35.79301659153626, "lng": 118.88368215561053}, "feature": {"sight_features": "", "sight_content": ""}}, {"title": "沂水博物馆", "address": "正阳路6号", "image": "", "rank": 57, "time": 2.5, "location": {"lat": 38.705371325449676, "lng": 115.79674435103719}, "feature": {"sight_features": "", "sight_content": ""}}, {"title": "沂水县档案馆", "address": "正阳路11号", "image": "", "rank": 58, "time": 2, "location": {"lat": 31.783312251021936, "lng": 118.8638565835477}, "feature": {"sight_features": "", "sight_content": ""}}, {"title": "沂水县书画院", "address": "文昌路", "image": "", "rank": 59, "time": 2, "location": {"lat": 32.40026860918857, "lng": 119.45024605841589}, "feature": {"sight_features": "", "sight_content": ""}}, {"title": "广艺书画学屋", "address": "向阳路11附近", "image": "", "rank": 60, "time": 2, "location": {"lat": 39.39050823709484, "lng": 115.73902816632615}, "feature": {"sight_features": "", "sight_content": ""}}]}