{"cityName": "伊通", "days": null, "cityImage": "", "spots": [{"title": "伊通满族自治县博物馆", "address": "中国吉林省伊通满族自治县伊通镇人民大路1129号", "image": "", "rank": 1, "time": 2.0, "location": {"lat": 43.3485630314981, "lng": 125.32458064424297}, "feature": {"sight_features": "", "sight_content": ""}}, {"title": "牧情谷旅游风景区", "address": "四平市伊通满族自治县085乡道", "image": "", "rank": 2, "time": 3.0, "location": {"lat": 43.35110366682136, "lng": 125.31148460753519}, "feature": {"sight_features": "", "sight_content": ""}}, {"title": "大孤山", "address": "四平市伊通满族自治县城西15公里处", "image": "", "rank": 3, "time": 3.5, "location": {"lat": 43.35110366682136, "lng": 125.31148460753519}, "feature": {"sight_features": "", "sight_content": ""}}, {"title": "吉林伊通火山群国家级自然保护区", "address": "四平市伊通满族自治县环山路", "image": "", "rank": 4, "time": null, "location": {"lat": 43.310265493901944, "lng": 125.12706212701453}, "feature": {"sight_features": "", "sight_content": ""}}, {"title": "志广鹿业发展基地", "address": "001省道附近", "image": "", "rank": 5, "time": null, "location": {"lat": 31.952255473806265, "lng": 118.61276777892672}, "feature": {"sight_features": "", "sight_content": ""}}, {"title": "嘉悦生态园", "address": "206省道东50米", "image": "", "rank": 6, "time": 2, "location": {"lat": 40.08163878542396, "lng": 117.10479938713142}, "feature": {"sight_features": "", "sight_content": ""}}, {"title": "宝德寺", "address": "吉林省四平市伊通满族自治县", "image": "", "rank": 7, "time": 2, "location": {"lat": 43.35110366682136, "lng": 125.31148460753519}, "feature": {"sight_features": "", "sight_content": ""}}, {"title": "伊通县南山保雍寺", "address": "伊通满族自治县城南5公里处", "image": "", "rank": 8, "time": 2, "location": {"lat": 43.35110366682136, "lng": 125.31148460753519}, "feature": {"sight_features": "", "sight_content": ""}}, {"title": "报国普乐寺", "address": "四平市伊通满族自治县", "image": "", "rank": 9, "time": 2, "location": {"lat": 43.35110366682136, "lng": 125.31148460753519}, "feature": {"sight_features": "", "sight_content": ""}}, {"title": "花雨香水族馆", "address": "伊通公园正门西行50米道南", "image": "", "rank": 10, "time": 2, "location": {"lat": 30.289266841765667, "lng": 120.13786207781199}, "feature": {"sight_features": "", "sight_content": ""}}, {"title": "中宫格五天练字", "address": "吉林省四平市伊通满族自治县伊通镇人民大路华侨国际双语幼儿园附近", "image": "", "rank": 11, "time": 2, "location": {"lat": 43.3445394717492, "lng": 125.31322340810407}, "feature": {"sight_features": "", "sight_content": ""}}, {"title": "福德山庄", "address": "环山路附近", "image": "", "rank": 12, "time": 1.5, "location": {"lat": 39.28132165707622, "lng": 122.59811563108681}, "feature": {"sight_features": "", "sight_content": ""}}, {"title": "吉森绿色生态园", "address": "206省道", "image": "", "rank": 13, "time": 2, "location": {"lat": 40.08163878542396, "lng": 117.10435023437643}, "feature": {"sight_features": "", "sight_content": ""}}, {"title": "伊通火山博物馆", "address": "人民大路888号", "image": "", "rank": 14, "time": 2, "location": {"lat": 43.3481038514685, "lng": 125.33134809168376}, "feature": {"sight_features": "", "sight_content": ""}}, {"title": "童话故事亲子儿童乐园", "address": "小孤山镇赫尔苏小区", "image": "", "rank": 15, "time": 2, "location": {"lat": 43.24327590029996, "lng": 124.96118871834224}, "feature": {"sight_features": "", "sight_content": ""}}, {"title": "金童年幼儿园(福安街)", "address": "人民大路2116附近", "image": "", "rank": 16, "time": 2, "location": {"lat": 43.34816500405703, "lng": 125.31820916861334}, "feature": {"sight_features": "", "sight_content": ""}}, {"title": "民俗博物馆", "address": "营城子镇中心", "image": "", "rank": 17, "time": 1.5, "location": {"lat": 38.99046389524409, "lng": 121.39157940950632}, "feature": {"sight_features": "", "sight_content": ""}}, {"title": "旭日藏獒山庄", "address": "206省道附近", "image": "", "rank": 18, "time": 2, "location": {"lat": 40.08163878542396, "lng": 117.10435023437643}, "feature": {"sight_features": "", "sight_content": ""}}, {"title": "四平抗日烈士纪念碑", "address": "吉林省伊通满族自治县营城子镇", "image": "", "rank": 19, "time": 2, "location": {"lat": 43.20124692761894, "lng": 125.53014387538124}, "feature": {"sight_features": "", "sight_content": ""}}, {"title": "伊通满族自治县民俗馆", "address": "吉林省伊通满族自治县中华西路", "image": "", "rank": 20, "time": 2, "location": {"lat": 43.350916443669234, "lng": 125.2995777889836}, "feature": {"sight_features": "", "sight_content": ""}}, {"title": "小门楼屯", "address": "四平市-伊通满族自治县", "image": "", "rank": 21, "time": 2, "location": {"lat": 43.35110366682136, "lng": 125.31148460753519}, "feature": {"sight_features": "", "sight_content": ""}}]}