{"cityName": "义乌", "days": 2, "cityImage": "", "spots": [{"title": "横店影视城", "address": "金华市东阳市横店镇", "image": "", "rank": 1, "time": 2.5, "location": {"lat": 29.16191366309188, "lng": 120.31845170814276}, "feature": {"sight_features": "特色1 大型影视拍摄基地（中国好莱坞） 特色2 《扶摇》《延禧攻略》拍摄地 特色3 追寻明星住的酒店，吃明星吃的横店美食，体验影视特技微视频拍摄。", "sight_content": "首先要告诉大家的是，横店影视城不是一个景点或一座城哦，它是由6个大景点 + 1个夜游主题公园 + N个小景点组成的，统称为横店影视城！ 所有景点都分布在方圆20平方公里的横店镇区内，集中于镇南与镇北两端，南北相距6公里。 镇南：明清民居博览城、秦王宫、清明上河图、梦幻谷（夜游）、大智禅寺。 镇北：明清宫苑、广州街/香港街、屏岩洞府、华夏文化园。\n\n\n每个景点都有鲜明的特色，且每个景区里有2-3台免费观看的表演秀。进景区后看演出都是免费的，不需要再买票。\n\n\n秦王宫景区是《军师联盟》《扶摇》《天将雄狮》《武媚娘传奇》等大片诞生地，黄尘古道，金戈铁马，燕赵建筑，秦汉文化，巍巍城墙与王宫大殿交相辉映。欣赏大型多媒体梦幻情景剧——《梦回秦汉》，或体验轨道4D电影秀《龙帝惊临》。\n梦幻谷景区包括梦文化村、水世界、儿童梦工厂、江南水乡四大区域，是一个以火山爆发、暴雨山洪等各种自然现象及自然风貌展示为主，配以各种游乐设施和演艺活动等内容的大型夜间影视体验主题公园。\n\n\n“一朝步入画上，仿佛梦回千年”，清明上河图景区是依照北宋知名画家张择端的巨作《清明上河图》为蓝本，结合北宋时期的社会背景、民俗、民风及宋时的古建特色，按影视拍摄的需要建造而成的影视基地。\n\n\n明清宫苑是集影视拍摄、旅游观光、节庆典礼等功能于一体的特大景区，始建于1998年，是按照北京故宫1：1比例修建的，占地1500亩，是横店影视城目前规模较大的影视基地。汇聚了京城宫殿、皇家园林、王府衙门、胡同民宅等四大建筑系列。\n\n\n广州街·香港街景区为拍摄历史巨片《鸦片战争》而建，以逼真的实景建筑，艺术地再现了1840年前后的羊城旧貌和香江风韵，是中国好莱坞——横店影视城发源地。"}}, {"title": "佛堂古镇", "address": "金华市义乌市佛堂镇建设中路139号附近", "image": "", "rank": 2, "time": 2.5, "location": {"lat": 29.205770330124878, "lng": 120.02376450043003}, "feature": {"sight_features": "", "sight_content": ""}}, {"title": "异国风情街", "address": "金华市义乌市宾王商贸区", "image": "", "rank": 3, "time": 4.5, "location": {"lat": 29.316963509964864, "lng": 120.09469032558256}, "feature": {"sight_features": "", "sight_content": ""}}, {"title": "稠州公园", "address": "金华市义乌市稠江街道稠州中路221号", "image": "", "rank": 4, "time": 2.5, "location": {"lat": 29.304070026501954, "lng": 120.08340999967024}, "feature": {"sight_features": "", "sight_content": ""}}, {"title": "奇趣海洋世界", "address": "金华市义乌市江东街道江滨中路(丹溪桥头)义乌乐园内", "image": "", "rank": 5, "time": 4.0, "location": {"lat": 29.322033965560912, "lng": 120.06853429219272}, "feature": {"sight_features": "", "sight_content": ""}}, {"title": "义乌博物馆", "address": "金华市义乌市城中北路126号", "image": "", "rank": 6, "time": 2.5, "location": {"lat": 29.32225505312715, "lng": 120.08952995927709}, "feature": {"sight_features": "", "sight_content": ""}}, {"title": "钓鱼矶公园", "address": "金华市义乌市江东南路", "image": "", "rank": 7, "time": 1.5, "location": {"lat": 29.283639755614008, "lng": 120.06594615364641}, "feature": {"sight_features": "", "sight_content": ""}}, {"title": "世纪商城步行街", "address": "金华市义乌市城中路", "image": "", "rank": 8, "time": 2, "location": {"lat": 29.31114987541007, "lng": 120.08158099305928}, "feature": {"sight_features": "", "sight_content": ""}}, {"title": "骆宾王公园", "address": "金华市义乌市稠城街道城中中路48号", "image": "", "rank": 9, "time": 2, "location": {"lat": 29.314751026164345, "lng": 120.08519400027684}, "feature": {"sight_features": "", "sight_content": ""}}, {"title": "德胜岩", "address": "金华市义乌市后宅", "image": "", "rank": 10, "time": 3.5, "location": {"lat": 29.39802896248565, "lng": 120.03215532561111}, "feature": {"sight_features": "", "sight_content": ""}}, {"title": "松瀑山", "address": "金华市义乌市赤岸镇乔溪村", "image": "", "rank": 11, "time": 3.0, "location": {"lat": 29.13477938138491, "lng": 120.07361208445913}, "feature": {"sight_features": "", "sight_content": ""}}, {"title": "铜山岩", "address": "金华市义乌市", "image": "", "rank": 12, "time": 2, "location": {"lat": 29.31114987541007, "lng": 120.08158099305928}, "feature": {"sight_features": "", "sight_content": ""}}, {"title": "古月桥", "address": "金华市义乌市赤岸镇雅治街村（佛王线）", "image": "", "rank": 13, "time": 0.75, "location": {"lat": 29.169562824467278, "lng": 120.07153852046132}, "feature": {"sight_features": "", "sight_content": ""}}, {"title": "鬼狱", "address": "金华市义乌市北苑乐购超市旁神采飞扬游乐园内", "image": "", "rank": 14, "time": 2, "location": {"lat": 29.470305965345627, "lng": 120.11694822419622}, "feature": {"sight_features": "", "sight_content": ""}}, {"title": "双林寺", "address": "金华市义乌市佛堂镇云黄山", "image": "", "rank": 15, "time": 1.5, "location": {"lat": 29.21282108577141, "lng": 120.07760556987365}, "feature": {"sight_features": "", "sight_content": ""}}, {"title": "朱丹溪陵园", "address": "金华市义乌市赤岸镇东朱村（稠岭线 ‎）", "image": "", "rank": 16, "time": 2.5, "location": {"lat": 29.19148326637285, "lng": 120.16795791596995}, "feature": {"sight_features": "", "sight_content": ""}}, {"title": "密室探险鬼屋", "address": "金华市义乌市稠城街道三挺路夜市51号二楼", "image": "", "rank": 17, "time": 2, "location": {"lat": 29.319486300682428, "lng": 120.09504600964912}, "feature": {"sight_features": "", "sight_content": ""}}, {"title": "齐庐山风景区", "address": "金华市义乌市苏溪镇", "image": "", "rank": 18, "time": 3.0, "location": {"lat": 29.423428215595646, "lng": 120.18862174899904}, "feature": {"sight_features": "", "sight_content": ""}}, {"title": "海洋世界", "address": "江滨中路义乌乐园内(近丹溪桥头)", "image": "", "rank": 19, "time": 2.5, "location": {"lat": 29.322033965560912, "lng": 120.06853429219272}, "feature": {"sight_features": "特色1 馆内展示海洋生物1000多种，10000余尾！ 特色2 以海洋生物展览为主的集科普教育、欣赏娱乐、旅游休闲为一体。 特色3 典型地反映出东阳木雕浓郁的地方特色和封建士大夫传统风水意识的。", "sight_content": "义乌海洋世界是一个集海洋生物展示、科普教育、休闲娱乐、旅游购物于一体的大型海洋文化儿童主题公园，是一座现代化水族馆。"}}, {"title": "佛云山景区", "address": "金华市义乌市双溪村", "image": "", "rank": 20, "time": 2, "location": {"lat": 29.435864680064466, "lng": 120.24515132870596}, "feature": {"sight_features": "", "sight_content": ""}}, {"title": "滴水岩景区", "address": "金华市义乌市苏溪镇", "image": "", "rank": 21, "time": 2.5, "location": {"lat": 29.423428215595646, "lng": 120.18862174899904}, "feature": {"sight_features": "", "sight_content": ""}}, {"title": "黄山八面厅", "address": "金华市义乌市杨横线上溪镇黄山五村", "image": "", "rank": 22, "time": 2.0, "location": {"lat": 29.361159346468654, "lng": 119.90621173254308}, "feature": {"sight_features": "", "sight_content": ""}}, {"title": "福劳尔花卉乐园", "address": "金华市义乌市佛堂镇前王村", "image": "", "rank": 23, "time": 2, "location": {"lat": 29.165091318563288, "lng": 120.08704269055814}, "feature": {"sight_features": "", "sight_content": ""}}, {"title": "圣寿寺", "address": "浙江省金华市义乌市夏演乡伏龙山腰", "image": "", "rank": 24, "time": 1.0, "location": {"lat": 29.30361986867796, "lng": 119.97577889890883}, "feature": {"sight_features": "", "sight_content": ""}}, {"title": "马畈农业奇幻乐园", "address": "义乌市大陈镇马畈村", "image": "", "rank": 25, "time": 2, "location": {"lat": 29.473760024015622, "lng": 120.14572544569037}, "feature": {"sight_features": "", "sight_content": ""}}, {"title": "巧溪度假村", "address": "金华义乌市苏溪镇巧溪水库", "image": "", "rank": 26, "time": 2, "location": {"lat": 29.42650148465311, "lng": 120.19414868503723}, "feature": {"sight_features": "", "sight_content": ""}}, {"title": "陈望道故居", "address": "浙江省金华市义乌市", "image": "", "rank": 27, "time": 2, "location": {"lat": 29.31114987541007, "lng": 120.08158099305928}, "feature": {"sight_features": "", "sight_content": ""}}, {"title": "双林铁塔", "address": "浙江省金华市义乌市", "image": "", "rank": 28, "time": 2, "location": {"lat": 29.31114987541007, "lng": 120.08158099305928}, "feature": {"sight_features": "", "sight_content": ""}}, {"title": "祝公岩", "address": "金华市义乌市华溪村", "image": "", "rank": 29, "time": 2, "location": {"lat": 29.356635947329377, "lng": 120.21249613130955}, "feature": {"sight_features": "", "sight_content": ""}}, {"title": "吴晗故居", "address": "浙江省金华市义乌市苦竹塘村328号", "image": "", "rank": 30, "time": 2, "location": {"lat": 29.26064532130418, "lng": 119.93276710495232}, "feature": {"sight_features": "", "sight_content": ""}}, {"title": "冯雪峰故居", "address": "浙江省金华市义乌市", "image": "", "rank": 31, "time": 2, "location": {"lat": 29.31114987541007, "lng": 120.08158099305928}, "feature": {"sight_features": "", "sight_content": ""}}, {"title": "“不忘国耻”纪念碑", "address": "浙江省金华市义乌市稠江街道崇山村", "image": "", "rank": 32, "time": 2, "location": {"lat": 29.273701223880618, "lng": 120.01624767800139}, "feature": {"sight_features": "", "sight_content": ""}}, {"title": "十里长廊", "address": "金华市义乌市义乌江", "image": "", "rank": 33, "time": 3.5, "location": {"lat": 29.28617136599333, "lng": 120.0682680407278}, "feature": {"sight_features": "", "sight_content": ""}}, {"title": "蟹钳形山古墓群", "address": "浙江省金华市义乌市乔亭村", "image": "", "rank": 34, "time": null, "location": {"lat": 29.149179395906653, "lng": 120.05712218665875}, "feature": {"sight_features": "", "sight_content": ""}}, {"title": "中华养生丹溪文化园", "address": "金华市义乌市赤岸镇东朱村", "image": "", "rank": 35, "time": 2, "location": {"lat": 29.147282531529154, "lng": 120.0783552902622}, "feature": {"sight_features": "特色1 享誉“四大国粹”的中华养生丹溪文化园", "sight_content": "享誉“四大国粹”的中华养生丹溪文化园，提到丹溪，义乌人民便会从内心发出由衷的心声：丹溪是义乌的，也是中华的，还是国际的。丹溪之美，美在名声；丹溪之亮，亮在人文；丹溪人是国粹，中华养生是灵魂；丹溪不仅是山水的，而且是文化的，走进这个文化园，我们的眼福，口福、心福，将会一起享福，一齐饱腹，留下难忘的回忆！\n丹溪文化园选址于朱丹溪家乡赤岸东朱村，筹建于九十年代初，1992年完成首期，公开发山地112亩。这里不仅有茂林修竹，绿树成荫，曲径通幽，小桥流水，一派生机盎然的湖光山色，更有寓寄后人敬仰，充满人文底气的各式亭榭、碑廊、石坊、场馆的文化园林。过来的二十年中，义务市委、市政府采用政府与民间融资方式，先后在文化园建有丹溪墓，纪念馆，百草园，鹤望轩、春香桥、颐寿亭、爱仙亭，钟鼓楼等人文景观十二处，处处都有鉴赏的品位和浓郁的文化特色。\n2014年开始第二期建设工程：即中华中医医药养生研究，投资1.2个亿，改造新增拜师亭，正义堂、养生堂、药膳厅、国医馆、药王谷、山鸡场、动物药园、娱乐场、疗养院、3D电影院等欣赏观光景点十余个。争创全国三A级旅游景区，力争2020年创建义乌国际旅游养生5A级风景名胜景区！\n2015年，本园被中国管理科学研究院评为“2015产学研结合十佳示范养生文化园”，被浙江省卫纪委，旅游局，农业厅评为“浙江省中医药文化养生旅游示范基地” 浙江省人民政府颁发“文保单位”，中国科学院湖州农业中心颁发“青钱柳叶种植研究示范基地”，金华市委市政府颁发的爱国主义教育基地。"}}, {"title": "龙山景区", "address": "大陈蕰草塘村旁", "image": "", "rank": 36, "time": 2.0, "location": {"lat": 32.37600342616535, "lng": 118.82702476946851}, "feature": {"sight_features": "", "sight_content": "龙山景区位于浙江省义乌市大陈镇红旗村龙山，是一个以禅宗文化和自然风光为主的旅游景区。主景点为唐朝古刹（瑞安寺）、灵岩洞、龙泉、飞来峰、龙凰古道等，是集修身养性、祈福、观景、探奇为一体的多功能景区。\n龙山之行，在于游古刹，品甘泉，览奇景、踏古道。风景各异，妙不可言。"}}, {"title": "戚家军纪念馆", "address": "浙江省金华市义乌市稠岭线东朱乔亭村 ‎", "image": "", "rank": 37, "time": 2, "location": {"lat": 29.19148326637285, "lng": 120.16795791596995}, "feature": {"sight_features": "", "sight_content": ""}}, {"title": "福田湿地公园", "address": "金华市义乌市银海路", "image": "", "rank": 38, "time": 0.75, "location": {"lat": 29.345684479800738, "lng": 120.11270904593665}, "feature": {"sight_features": "", "sight_content": ""}}, {"title": "巧溪漂流", "address": "义乌市苏溪镇翁界村巧溪水库下", "image": "", "rank": 39, "time": 2, "location": {"lat": 29.42650148465311, "lng": 120.19414868503723}, "feature": {"sight_features": "", "sight_content": ""}}, {"title": "绣湖公园", "address": "浙江省金华市义乌市北门街前街", "image": "", "rank": 40, "time": 2, "location": {"lat": 29.314578604827187, "lng": 120.08078441525873}, "feature": {"sight_features": "", "sight_content": ""}}, {"title": "义乌金海岸剧院", "address": "金华市义乌市车站路1号义乌剧院", "image": "", "rank": 41, "time": 2, "location": {"lat": 29.317780946254196, "lng": 120.08085605332653}, "feature": {"sight_features": "", "sight_content": ""}}, {"title": "七一农业生态园", "address": "工商东街9号", "image": "", "rank": 42, "time": 2, "location": {"lat": 29.315473574473348, "lng": 119.9943578726466}, "feature": {"sight_features": "", "sight_content": ""}}, {"title": "桃花坞", "address": "金华市义乌市上溪镇上新塘村", "image": "", "rank": 43, "time": 2, "location": {"lat": 29.3257727713347, "lng": 119.88168185939706}, "feature": {"sight_features": "", "sight_content": ""}}, {"title": "马溪漂流", "address": "金华义乌市赤岸镇前川村88号", "image": "", "rank": 44, "time": 2, "location": {"lat": 29.09126767618446, "lng": 119.97568733193332}, "feature": {"sight_features": "", "sight_content": ""}}, {"title": "嘉庚东魁杨梅园", "address": "新和村东南侧立山黄村委会以北500米", "image": "", "rank": 45, "time": 2, "location": {"lat": 41.156116121101775, "lng": 123.03548413861611}, "feature": {"sight_features": "", "sight_content": ""}}, {"title": "枫坑综合素质基地", "address": "金华市义乌市赤岸枫坑山庄", "image": "", "rank": 46, "time": 2, "location": {"lat": 29.090561709984474, "lng": 119.99714714718638}, "feature": {"sight_features": "", "sight_content": ""}}, {"title": "嵩溪古村", "address": "金华市浦江县嵩溪村", "image": "", "rank": 47, "time": 2, "location": {"lat": 29.53940031076386, "lng": 120.01690667671988}, "feature": {"sight_features": "", "sight_content": ""}}, {"title": "天龙风景区", "address": "金华市义乌市赤岸镇赤岸镇前川村88号", "image": "", "rank": 48, "time": 2, "location": {"lat": 29.09126767618446, "lng": 119.97568733193332}, "feature": {"sight_features": "特色1 景区地理位置优越，景色优美 特色2 石质完整，光源充足，展现着五代近三个世纪的艺术杰作。", "sight_content": "义乌天龙风景区位于义乌市赤岸镇前川村，四周山岚环抱，鸟语花香连绵不绝，春回大地，生生不息，浓郁的大自然气息，将人置身于返璞归真的世外桃花源。\n距义乌约30公里，义乌第一高峰大寒山2公里路程。景区地理位置优越，景色优美，景区内有太平天国古城遗产地、朱一新读书处，景区内森林茂盛、小桥流水峡谷险峻、夜听风涛、耳闻鸟鸣，处处可见森林、小溪、峡谷、田园交叉相映的曼妙景色。"}}, {"title": "中国箱包博物馆", "address": "金华市义乌市上溪镇四通路西路一号", "image": "", "rank": 49, "time": 0.5, "location": {"lat": 29.272594416989527, "lng": 119.92865967667036}, "feature": {"sight_features": "", "sight_content": ""}}, {"title": "开心农庄", "address": "山景村稠意路", "image": "", "rank": 50, "time": 2, "location": {"lat": 19.61473394725151, "lng": 110.71216699889025}, "feature": {"sight_features": "", "sight_content": ""}}, {"title": "小华荷花园", "address": "廿三里街道华盛路向北一直到头", "image": "", "rank": 51, "time": 2, "location": {"lat": 29.360092450881066, "lng": 120.16868864528172}, "feature": {"sight_features": "", "sight_content": ""}}, {"title": "佳多拉农场", "address": "佛堂镇八节桥村8号", "image": "", "rank": 52, "time": 2, "location": {"lat": 29.175352090795258, "lng": 120.03758405709438}, "feature": {"sight_features": "", "sight_content": ""}}, {"title": "开心草莓园", "address": "商城大道思古塘村玫瑰先生旁", "image": "", "rank": 53, "time": 2, "location": {"lat": 29.338944170296116, "lng": 120.10539750832547}, "feature": {"sight_features": "", "sight_content": ""}}, {"title": "禾润农庄", "address": "福田街道洛店村", "image": "", "rank": 54, "time": 2, "location": {"lat": 22.53273937263378, "lng": 114.07566320740297}, "feature": {"sight_features": "", "sight_content": ""}}, {"title": "华溪森林公园水果园", "address": "廿三里联五村华溪森林售票处外100米", "image": "", "rank": 55, "time": 2, "location": {"lat": 29.331664051924033, "lng": 120.18360882606841}, "feature": {"sight_features": "", "sight_content": ""}}, {"title": "缘梦春天生态游乐园", "address": "商城大道和口岸路交口", "image": "", "rank": 56, "time": 2, "location": {"lat": 29.35120391031891, "lng": 120.10669993902631}, "feature": {"sight_features": "", "sight_content": ""}}, {"title": "现摘草莓", "address": "沈宅公交站往前200米", "image": "", "rank": 57, "time": 2, "location": {"lat": 28.902622265507468, "lng": 105.45063014659402}, "feature": {"sight_features": "", "sight_content": ""}}, {"title": "状元纪念馆", "address": "佛王线", "image": "", "rank": 58, "time": 2, "location": {"lat": 29.169562824467278, "lng": 120.07153852046132}, "feature": {"sight_features": "", "sight_content": ""}}, {"title": "道浣山生态园", "address": "稠佛路", "image": "", "rank": 59, "time": 2, "location": {"lat": 29.313945901646157, "lng": 120.07071823368345}, "feature": {"sight_features": "", "sight_content": ""}}, {"title": "红飞轩画廊", "address": "香山路", "image": "", "rank": 60, "time": 2, "location": {"lat": 38.98387774227332, "lng": 121.59310226368115}, "feature": {"sight_features": "", "sight_content": ""}}]}