{"cityName": "伊吾", "days": 2, "cityImage": "", "spots": [{"title": "伊吾胡杨林", "address": "哈密地区伊吾县淖毛湖镇东10公里处", "image": "", "rank": 1, "time": 4.5, "location": {"lat": 43.76590976492273, "lng": 95.07425514353442}, "feature": {"sight_features": "", "sight_content": ""}}, {"title": "喀尔里克冰川", "address": "伊吾县盐池乡南10公里处", "image": "", "rank": 2, "time": 1.0, "location": {"lat": 43.27155367369412, "lng": 94.30311559229558}, "feature": {"sight_features": "", "sight_content": ""}}, {"title": "拉甫却克古城", "address": "哈密市五堡乡四堡村内", "image": "", "rank": 3, "time": 1.0, "location": {"lat": 42.88305029060471, "lng": 92.84427421911154}, "feature": {"sight_features": "", "sight_content": ""}}, {"title": "伊吾烈士陵园", "address": "伊吾县陵园路600号", "image": "", "rank": 4, "time": 1.0, "location": {"lat": 43.25387678659702, "lng": 94.70316791582147}, "feature": {"sight_features": "", "sight_content": ""}}, {"title": "伊吾焕彩湖", "address": "哈密地区伊吾县伊吾县盐池乡", "image": "", "rank": 5, "time": 1.0, "location": {"lat": 43.33716113086275, "lng": 94.30311559229558}, "feature": {"sight_features": "", "sight_content": ""}}, {"title": "伊水园", "address": "哈密地区伊吾县陵园路", "image": "", "rank": 6, "time": 2, "location": {"lat": 43.255281493343915, "lng": 94.7044335564206}, "feature": {"sight_features": "", "sight_content": ""}}, {"title": "伊吾苇子峡野杏林", "address": "哈密伊吾县", "image": "", "rank": 7, "time": 2, "location": {"lat": 43.260676527466494, "lng": 94.70382567128537}, "feature": {"sight_features": "", "sight_content": ""}}, {"title": "伊吾蝴蝶谷", "address": "哈密伊吾县伊淖公路苇子峡乡河谷林内", "image": "", "rank": 8, "time": 2, "location": {"lat": 43.461496585816015, "lng": 94.85454851973496}, "feature": {"sight_features": "", "sight_content": ""}}, {"title": "喀尔里克度假村", "address": "新疆维吾尔自治区哈密地区伊吾县s302", "image": "", "rank": 9, "time": 2, "location": {"lat": 43.570381595835784, "lng": 94.91156968445064}, "feature": {"sight_features": "", "sight_content": ""}}, {"title": "广东佛山律师爱心图书室", "address": "振兴西路727号", "image": "", "rank": 10, "time": 2, "location": {"lat": 43.255034585427104, "lng": 94.68963223402423}, "feature": {"sight_features": "", "sight_content": ""}}, {"title": "伊吾县博物馆", "address": "顺德路793号", "image": "", "rank": 11, "time": 2, "location": {"lat": 43.261234057291695, "lng": 94.70644980134112}, "feature": {"sight_features": "", "sight_content": ""}}, {"title": "伊吾县图书馆", "address": "脞利巷196号", "image": "", "rank": 12, "time": 2, "location": {"lat": 43.258898368883116, "lng": 94.69332573750145}, "feature": {"sight_features": "", "sight_content": ""}}, {"title": "幻彩湖", "address": "伊吾县盐池乡政府以北2公里处", "image": "", "rank": 13, "time": 3.0, "location": {"lat": 43.350274064402264, "lng": 94.30311559229558}, "feature": {"sight_features": "", "sight_content": ""}}, {"title": "伊吾盐湖", "address": "新疆维吾尔自治区哈密地区伊吾县", "image": "", "rank": 14, "time": 2, "location": {"lat": 43.570381595835784, "lng": 94.91156968445064}, "feature": {"sight_features": "", "sight_content": ""}}]}