{"cityName": "黟县", "days": 2, "cityImage": "", "spots": [{"title": "宏村景区", "address": "黄山市黟县宏村镇宏村景区", "image": "", "rank": 1, "time": 2.5, "location": {"lat": 30.008690976338208, "lng": 117.9968430690096}, "feature": {"sight_features": "特色1 《卧虎藏龙》取景地，徽派古村中的代表。 特色2 可拍摄南湖、月沼美景，欣赏精致的徽派三雕。", "sight_content": "宏村，古称弘村，位于黄山西南麓，距黄山市黟县县城11公里，是古黟桃花源里一座奇特的牛形古村落。整个村落占地30公顷，枕雷岗面南湖，山水明秀，享有“中国画里的乡村”之美称。山因水青，水因山活，南宋绍兴年间，古宏村人为防火灌田，独运匠心开仿生学之先河，建造出堪称“中国一绝”的人工水系，围绕牛形做活了一篇水文章。九曲十弯的水圳是“牛肠”，傍泉眼挖掘的“月沼”是“牛胃”，“南湖”是“牛肚”，“牛肠”两旁民居为“牛身”，村中两个古树，白果树和红杨树是“牛角”。湖光山色与层楼叠院和谐共处，自然景观与人文内涵交相辉映，是宏村区别于其他民居建筑布局的特色，成为当今世界历史文化遗产一大奇迹。\n全村现完好保存明清民居140余幢，承志堂“三雕”精湛，富丽堂皇，被誉为“民间故宫”。景点还有：南湖风光、南湖书院、月沼春晓、牛肠水圳、双溪映碧、亭前大树、雷岗夕照、树人堂、明代祠堂乐叙堂等。村周围有闻名遐迩的雉山木雕楼、奇墅湖、塔川秋色、木坑竹海、万村明祠“爱敬堂”等景观。\n宏村的建筑主要是住宅和私家园林，也有书院和祠堂等公共设施，建筑组群比较完整。各类建筑都注重雕饰，木雕、砖雕和石雕等细腻精美，具有极高的艺术价值。村内街巷大都傍水而建，民居也都围绕着月沼布局。住宅多为二进院落，有些人家还将圳水引入宅内，形成水院，开辟了鱼池。比较典型的建筑有南湖书院、乐叙堂、承志堂、德义堂、松鹤堂、碧园等。\n\n南湖位于宏村南首，建于明万历丁未年（1607年），宏村村落经永乐年间到万历年间，楼舍连栋，高低错落，人口繁衍，光靠月塘蓄水已不够用，又在万历年丁末年将村南百亩良田，凿深数丈，周围四旁砌石立岸，仿西湖平湖秋月式样，建成南湖。湖成大弓形，湖堤分上下层，上层宽4米，原来古树参天，苍翠欲滴，躯干青藤盘绕，禽鸟鸣唱，还有垂柳，枝叶婀娜，像临镜梳妆的少女，把秀发洒向湖面水中。湖面绿荷摇曳，鸭群戏水，另有一番景致。整个湖面倒影浮光，水天一色，远峰近宅，跌落湖中，加之树荫水深和日光的相互作用，明暗协调，动静相宜，显得幽深、雅静、清新、明丽。南湖历史上大修三次，1986年重建中堤，造“画桥”可东西划舟，情趣无穷。\n在皖南众多风格独特的徽派民居村落中，宏村是代表性的。从整个外观上说，宏村是古黟桃花源里一座奇特的牛形古村落，既有山林野趣，又有水乡风貌。村中各户皆有水道相连，汩汩清泉从各户潺潺流过，层楼叠院与湖光山色交辉相映，处处是景，步步入画。闲庭兴步其间，悠然之情浓烈得让人心醉。"}}, {"title": "西递", "address": "黄山市黟县西递镇西递村", "image": "", "rank": 2, "time": 0.5, "location": {"lat": 29.90807991339602, "lng": 117.99893905032465}, "feature": {"sight_features": "特色1 青山云外深，白屋烟中出。双溪左右环，群木高下密。 特色2 曲径如弯弓，连墙若比栉。自入桃源来，墟落此第一。 特色3 履福堂悬挂的楹联：几百年人家无非积善，第一等好事只是读书。读书是人生的修行，能够荡涤社会浮躁的尘埃，为你的心灵找到一处超凡脱俗的栖息之所。", "sight_content": "西递村坐落于黄山南麓，距黄山风景区仅40公里，具有“桃花源里人家”之称，始建于北宋皇佑年间，发展于明朝景泰中叶，鼎盛于清朝初期，至今已近960余年历史。据史料记载，西递始祖为唐昭宗李晔(yè)之子，因遭变乱，逃匿民间，改为胡姓，繁衍生息，形成聚居村落。故自古文风昌盛，到明清年间，一部分读书人弃儒从贾，他们经商成功，大兴土木，建房、修祠、铺路、架桥，将故里建设得非常舒适、气派、堂皇。历经数百年社会的动荡，风雨的侵袭，虽半数以上的古民居、祠堂、书院、牌坊已毁，但仍保留下数百幢古民居，从整体上保留下明清村落的基本面貌和特征。我国首批五A级旅游景区。\n乃取村中三条溪水东向西流之意；又因位于徽州府之西，曾设“铺递所”，故改名西递。至今尚保存古朴典雅的明清民居中124幢，大量的砖、木、石雕等艺术佳作点缀其间。整理开放有凌云阁、胡文光刺史牌坊、瑞玉庭、桃李园、东园、西园、大夫第、敬爱堂、履福堂、青云轩、膺福堂、笃敬堂、仰高堂、尚德堂、枕石小筑、仁堂、追慕堂等民居古建筑。\n西递村是一个古朴典雅，底蕴深厚的古村落。她既有古徽州精湛的“三雕”建筑艺术，又有浓郁内涵的人文景观，从而形成了底蕴深厚的徽州地域文化的显著持征。村前矗立明万历陆年胡文光刺史牌楼，全用本地黑色黟县青建成，雕琢精绝，巍峨高耸，为我国石坊建筑中之瑰宝。\n漫步村中，随处可见那粉墙青瓦，鳞次栉比，青石铺路，巷贯街连，镶嵌漏窗，镂空门罩和那层层叠叠的飞檐翘角，突兀多资的马头墙。民宅厅堂雕梁画栋，描金飞彩，拦板斗拱，窗扇、菱花门全是精美细做的木雕佳品。天花板上饰有绚丽的彩绘，厢房板壁配有典雅的书画。厅堂挂有内涵丰富，寓意深刻的古楹联，不仅予人以美学之享受且晓人以处世哲理。"}}, {"title": "南湖", "address": "黄山市黟县", "image": "", "rank": 3, "time": 0.75, "location": {"lat": 29.93104733070446, "lng": 117.94447724144334}, "feature": {"sight_features": "", "sight_content": ""}}, {"title": "月沼", "address": "黄山市黟县宏村镇宏村景区内", "image": "", "rank": 4, "time": 0.5, "location": {"lat": 30.00742778955539, "lng": 117.99883239710383}, "feature": {"sight_features": "", "sight_content": ""}}, {"title": "木坑竹海", "address": "黄山市黟县宏村木坑", "image": "", "rank": 5, "time": 2.0, "location": {"lat": 30.00922497298683, "lng": 117.99683924222812}, "feature": {"sight_features": "特色1 距宏村仅5公里，竹海包围着小村。 特色2 据说是《卧虎藏龙》取景地。", "sight_content": "木坑竹海，又称皖南大竹海，距宏村5公里，与塔川景区相距3公里，为黄山入黟第一处景点，主体景区面积6平方公里，四面环竹，郁郁葱葱，山势险要，形如金斗，环境优美，风水绝佳。早在1963年中央新闻纪录片《白云深处一山村》报道了这里的环境和乡村状况，每年吸引众多名人、摄影家、影视家来此采风创作，以木坑竹海为创作体裁的作品，有六幅荣获国际大奖，其中，香港国际摄影大师陈复礼创作的《翠竹堆青》获国际金奖，并被英国皇家影视协会收藏，《卧虎藏龙》中竹海精美配景，更是此片荣膺国际四项金奖的关键所在。它是独特的绿色氧吧，更是旅游观光、休闲养生的绝佳去处。\n塔川，地处宏村东郊，风水独特，形如蝙蝠。蝙蝠的右翅上坐落几十户徽派古民居，依山而建，状如宝塔，一条山溪从村中穿过，故名塔川。景区内古树林立，树大如冠，随季节变化，树叶由青绿色逐渐变成黄色、红色、橙色、紫色……五彩缤纷，魏然壮观，塔川红叶历来被众多的画家、摄影家所赞叹，被誉为“中国三大红叶之一”，近年来，以塔川为题材的摄影、绘画作品获国内外大奖共100余项，优美的自然风光和深厚的文化底蕴使之成为“中国画里乡村”。\n它分布塔川至协里面积约6平方公里的山间村落之中,每年10月26日－11月26日为红叶摄影最佳季节。村中木雕楼——“积余堂”为明末清初建筑，其建造十分精美，红漆粉彩，雕梁画栋，其窗栏板分别雕有《岳母刺字》、《唐妇乳姑》、《苏武牧羊》、《一诺千金》四个典故画面，以示中国传统文化教育中的“忠、孝、节、义”；更为精彩的是回廊上的十六扇莲花门主栏板上，分别雕刻有十六幅精美画面，它是房主人选用唐诗宋词中最具代表意义的作品之一，用木雕形式反映徽商对美好生活的向往和追求，其“诗教”形式及雕刻技艺堪称“徽州一绝”。"}}, {"title": "塔川", "address": "黄山市黟县宏村镇塔川村", "image": "", "rank": 6, "time": 1.5, "location": {"lat": 30.025404274404004, "lng": 118.01699555600685}, "feature": {"sight_features": "特色1 村落由南向北层层错落，远看如塔。 特色2 以秋色著称的徽派小村，是摄影胜地，11月下旬可赏红叶、黄叶。 特色3 塔川秋色与四川九寨沟、新疆喀那斯和北京香山并列为中国四大秋色。", "sight_content": "塔川又名塔上，创建于北宋天圣年间（公元1023年），是吴氏聚居地，村中的吴姓村民为吴国被流放的国君的新太子吴鸿之后。塔川因坐落在黄山余脉黄堆山南面川中坡地上，村落由南向北层层高出，远看如塔，故名塔川。\n\n\n塔川红叶是一种乌桕树，经过霜降，由绿变黄，由黄变红，中间呈七彩颜色，是摄影发烧友的最佳素材，观赏最佳时间只有一个多月，从10月到11月下旬。清晨的时候，整个村子笼罩在薄薄的雾气里，影影绰绰，朦朦胧胧。塔川秋色最美的是从宏村到斜里的那段。\n\n\n溪水汇入奇墅湖，冲出一大片丰沃的泽地，阳光暖暖地照下来，遍地粉色小花，指甲盖大小，牛马悠闲啃草，山上一路白茶花盛开，蓝色的浆果色调艳丽，矮枝桑树一蓬蓬地向着太阳，枝头顶着一簇绿叶，很是好看。\n\n\n塔川历史悠久，古迹众多，风景如画。村中有一“绩余堂”为代表的明清古建筑。特别是遍布全村的古老乌桕树婀娜多姿，每到秋天，整个塔川是姹紫嫣红，十分美丽。人称塔川是“天人合一的画里乡村”。\n塔川秋色，是众多画家、摄影家创作的基地。这里的秋色被誉为全国四大秋色之一。每到秋天，村落田野中错落有致的乌桕树叶子红了，形成一幅迷人的田园风光画卷，塔川秋色也因此得名，并名扬四海。塔川乌桕树经过霜降，由绿变黄，由黄变红，中间呈七彩颜色。塔川的清晨最美，薄薄的雾气笼罩在树上，似有似无，农家的小屋若隐若现，红枫丛中忽露出飞檐翘角，粉墙黛瓦在金黄叶子的掩映下，就如中国山水画般诗情画意。"}}, {"title": "南屏景区", "address": "黄山市黟县碧阳镇南屏村", "image": "", "rank": 7, "time": 2.5, "location": {"lat": 29.905836901236043, "lng": 117.91023496458432}, "feature": {"sight_features": "特色1 走进乡村回归自然好去处。 特色2 重峦叠嶂，清溪回流。 特色3 以祠堂为特色的徽派古村，《菊豆》的取景地，游人不多，很清静。", "sight_content": "南屏村位于安徽黟县城西南四公里处，因村南有尤如屏障的南屏山而得名。\n这个规模宏大的古村庄始建于元、明年间，聚居着叶、程、李诸姓家庭的上千号人口，至今仍较好地保存着8幢代表着宗族势力的古祠堂，并依序排列在一条约200米长的轴线上。宗祠规模宏大，家祠小巧玲珑，组成了一个全国罕见的古祠堂建筑群，是现代人了解中国封建宗法制度的博物馆。\n同时这个村的300多幢明清民居古建筑，沿着72条巷弄分布排列，组成了一个如迷宫似的飘荡。不要说古祠堂、古民居，单就这些层层叠叠、回还往复的巷弄，就要迷倒无数游人。"}}, {"title": "卢村", "address": "黄山市黟县宏村镇卢村", "image": "", "rank": 8, "time": 2.5, "location": {"lat": 30.0126944325939, "lng": 117.98737125576321}, "feature": {"sight_features": "特色1 距宏村仅2公里的徽派古村，村内的木雕楼雕刻精细，令人赞叹。", "sight_content": "卢村木雕楼——卢村最具典型、最有特色的是木雕楼之一，它体现出徽派民居的精华。卢村木雕楼是由七家里民居组成的木雕楼群，主要包括志诚堂、思济堂、思成堂、玻璃厅等宅院。\n\n卢村木雕楼是卢氏三十三代传人卢邦燮于清道光年间所建。卢邦燮早年经商，家富百万，后转入仕途，累官至奉政大夫、朝政大夫。志诚堂的砖雕、石雕、木雕装饰精致优美，取材既热闹喜庆，又朴实优美，既是主人真实情趣的反映，又是古代民俗生活劳作的再现。"}}, {"title": "南湖书院", "address": "黄山市黟县宏村南湖北畔", "image": "", "rank": 9, "time": 0.5, "location": {"lat": 30.008137154669093, "lng": 117.99714118157446}, "feature": {"sight_features": "", "sight_content": ""}}, {"title": "承志堂", "address": "黄山市黟县宏村内", "image": "", "rank": 10, "time": 1.5, "location": {"lat": 30.00922497298683, "lng": 117.99683924222812}, "feature": {"sight_features": "", "sight_content": ""}}, {"title": "汪氏宗祠", "address": "黄山市黟县宏村镇宏村风景区乐叙堂", "image": "", "rank": 11, "time": 1.0, "location": {"lat": 30.009046458060535, "lng": 117.99621170576158}, "feature": {"sight_features": "", "sight_content": ""}}, {"title": "打鼓岭", "address": "黄山市黟县美溪乡打鼓岭", "image": "", "rank": 12, "time": 2.5, "location": {"lat": 30.071580546116248, "lng": 117.83403281834666}, "feature": {"sight_features": "特色1 拥有幽远的传说和别致的风景", "sight_content": "打鼓岭是黄山山脉自东向西延伸的余脉，与棠棣岭、 殷溪岭、方家岭等同为新安江和青弋江的分水岭，打鼓河便是由此汇入 青弋江的源流之一，几十户人家的村庄散落于山坞谷边，因岭而得名，属美溪乡。其地以出产茶叶、香菇、木耳及各种优质杂木而闻名。在峦峰姐妹间，它更以幽远的传说和别致的风景而独树一帜。这 里山峦重叠，林木繁茂，涧流飞泻；空气湿润，土壤肥厚，植物资源颇丰。\n\n“打鼓岭”地名由来有二说：一说此地山高谷狭，莽莽丛林间群峰叠起，一道白练，在峭壁悬崖间飞珠溅玉，蒸云腾雾。那瀑 布在山崖间三番冲折，泻入深潭，訇然有声，水声几经山谷回响，像无数面锣鼓在敲打，因而这山叫打鼓岭，岭上的人家叫打鼓村，岭下的小河叫打鼓河。另一说在打鼓潭附近的古道上，有一段石板路 ，当人负重一步一步蹬道而上时，瀑布声中便清晰传来时轻时重节奏感很强的鼓音。"}}, {"title": "画桥", "address": "黄山市黟县宏村镇宏村内的南湖上", "image": "", "rank": 13, "time": 0.15000000000000002, "location": {"lat": 30.006812311716782, "lng": 117.99831099992483}, "feature": {"sight_features": "", "sight_content": ""}}, {"title": "赛金花故居", "address": "黄山市黟县赛金花景区", "image": "", "rank": 14, "time": 2.0, "location": {"lat": 29.93104733070446, "lng": 117.94447724144334}, "feature": {"sight_features": "特色1 省重点文物保护单位", "sight_content": "“归园—赛金花故居”与黄山为邻。2003年，被授予省重点文物保护单位，2007年荣获了国家4A级景区。归园运用了传统的徽州园林造园方法，其叠石假山、曲水流觞、古樟千秋、名竹荟萃等艺术精品比比皆是；闲憩水榭，喜看红鲤碧波嬉戏；徐行花径，绿野仙踪，俯仰可拾妙联，真可谓名人雅士音韵尚存。听一曲江南丝竹，令您心清耳悦，流连忘返。\n赛金花（1872-1936），清末侠妓，16岁嫁于状元洪均，17岁以公使夫人的身份随夫出使德、俄、荷、奥四国。她以会说洋文的小脚女人惊艳洋邦，并成为德国皇后和宰相的座上客。光绪二十六年，她以流利的德语与德国故交八国联军统帅瓦德西斡旋，为保护老北京城立下了汗马功劳，被京城百姓奉为“护国娘娘”、“平康女侠”。\n\n赛金花三度成为人妻，三度沦落于烟花柳巷之间。从八大胡同到中南海，她在哪条路上，走来走去。她的人生无处不传奇。\n“归园—赛金花故居”通过赛金花故居、书斋、陈列馆以及从国内外收集的大量图片资料，再现了赛金花扑朔迷离的一生。"}}, {"title": "水圳", "address": "黄山市黟县宏村内", "image": "", "rank": 15, "time": 20.0, "location": {"lat": 30.00922497298683, "lng": 117.99683924222812}, "feature": {"sight_features": "", "sight_content": ""}}, {"title": "秀里景区", "address": "黄山市黟县宏村镇龙川乡秀里影视村", "image": "", "rank": 16, "time": 3.5, "location": {"lat": 29.959059489524613, "lng": 117.95974295544431}, "feature": {"sight_features": "特色1 徽文化的发祥地和古徽商的主要聚集地之一", "sight_content": "黄山•秀里景区位于素有“世外桃源”之称的黟县。著名风景区黄山、宏村、西递、齐云山环列其左右。经过历年精心打造，现在是安徽省首个影视基地，安徽省文化产业基地，也是黄山市“百村千幢”古民居重点保护工程和重点旅游目的地。\n秀里景区紧依皖南最佳摄影路线——218省道。景区青山环抱、绿水潺缓、农田苍翠，徽派民居错落有致、商业老街古朴沧桑。徽州园林建筑中传统元素亭、台、楼、榭、廊、桥精巧布局其间，景随步移。大景开阔雄浑，小景细微自然，深得徽派建筑和徽派园林所蕴含的徽文化精髓。\n目前，秀里景区是一个风景优美、文化独特、配套齐全集山水、园林、建筑为一体，以影视、休闲、度假为主导的旅游综合体。\n在这里您可以领略徽州园林建筑的深远博大；也可尽赏江南烟雨、小桥流水的画境；当然还可以很小资地在有浓郁的民国风情酒吧或大户人家中温馨、浪漫一回；甚至你索性再放飞一下自己的思绪，随着电影中武侠们的刀光剑影去享受一下穿越时空的快乐。黄山秀里之旅，将是您一段难忘的心灵时空之旅。"}}, {"title": "胡文光牌坊", "address": "黄山市黟县西递镇西递村口", "image": "", "rank": 17, "time": 1.0, "location": {"lat": 29.90702250954594, "lng": 117.9982453644372}, "feature": {"sight_features": "", "sight_content": ""}}, {"title": "碧山", "address": "黄山市黟县", "image": "", "rank": 18, "time": 2, "location": {"lat": 29.93104733070446, "lng": 117.94447724144334}, "feature": {"sight_features": "", "sight_content": ""}}, {"title": "树人堂", "address": "黄山市黟县宏村内", "image": "", "rank": 19, "time": 1.0, "location": {"lat": 30.00922497298683, "lng": 117.99683924222812}, "feature": {"sight_features": "", "sight_content": ""}}, {"title": "德义堂", "address": "黄山市黟县宏村内", "image": "", "rank": 20, "time": 1.0, "location": {"lat": 30.00922497298683, "lng": 117.99683924222812}, "feature": {"sight_features": "", "sight_content": ""}}, {"title": "《宏村阿菊》实景演出", "address": "黄山市黟县宏村奇墅湖国际旅游度假村", "image": "", "rank": 21, "time": 2, "location": {"lat": 29.98641122274263, "lng": 117.99284731008707}, "feature": {"sight_features": "特色1 大型实景演出，了解当地民俗特色 特色2 古徽州文化为前景的文艺演出", "sight_content": "《宏村阿菊》以古徽州文化为背景，艺术再现徽州女人贤惠、勤劳、持家、教子、耕耘劳作以及忠贞如一、保卫家园的新形象、新身份。全剧融入多种全新的剧场艺术元素，气势恢宏，新锐震撼。高空特技、高台跳水、时尚跑酷、水上摩托艇等多种新奇表演纷呈并现，电影特技、水火特效场景、3d立体成像技术等现代高科技手段变幻迭出，营造出强烈的视觉效果和艺术冲击力。\n《宏村阿菊》由国际化团队主创并制作，集合了全球高端的演出制作人及策划制作公司。其中，美国泛美亚娱乐策划制作公司担任创意策划，国际著名演出制作人angelo bonello担任总导演；国际著名舞台机械设计制作公司show canada工业公司担任舞台及特型道具设计，该公司还承担了2012年伦敦奥运会开幕式演出舞台机械的设计及制作；演出设备由2008年北京奥运会开幕式演出设备提供厂商——北京星光影视设备科技股份有限公司承制；中央电视台著名服装设计师程钧担任服装设计；诸多国内著名音响、水火特效、道具设计师和厂家共同参与创作制作。\n\n《宏村阿菊》是北京中坤投资集团斥资2.3亿元倾力打造的国内一流的大型实景文化演出，演出场地位于黟县奇墅湖国际度假村内，与世界文化遗产地宏村毗邻。来自全球的180多位优秀专业演职员参与演出，并特别邀请了俄罗斯国家大马戏团著名特技演员及美国著名水上摩托艇特技演员。  《宏村阿菊》大型实景文化演出是推进“文化与旅游、文化与科技、文化与市场、文化与资本”结合的又一文化产业精品工程。"}}, {"title": "敬修堂", "address": "黄山市黟县宏村内（月沼西侧）", "image": "", "rank": 22, "time": 1.0, "location": {"lat": 30.009182975786413, "lng": 117.99586018713755}, "feature": {"sight_features": "", "sight_content": ""}}, {"title": "屏山村", "address": "黄山市黟县屏山村", "image": "", "rank": 23, "time": 1.5, "location": {"lat": 29.94194481520328, "lng": 117.98037741927305}, "feature": {"sight_features": "特色1 黟县中共地下党组织最早的活动地区之一", "sight_content": "黟县屏山村依山傍水，吉阳溪水自北向南穿村而过，村中房舍沿溪流两岸建造。为了方便两岸住户的往来，明朝成化年间，在小溪上建了八座石拱桥，俗称为“长宁八古桥”。沿溪而建的民宅、古朴的石桥、桥下潺潺的溪水，构成了典型的“小桥、流水、人家”的山乡风韵。屏山村，古称九都、长宁里，位于黟县城东三姑尖山下，距县城四公里。因村庄北向有山状如屏障而得村名。又由于屏山村为舒姓聚族而居的村落，所以又称舒村。屏山舒姓是伏羲九世孙叔子的后裔，唐末从庐江迁居长宁里，至今已1100多年历史。\n\n溪畔有小街，多为前店后坊、前店后居的小商号。村内保存有光裕堂、成道堂等7座祠堂，其中舒庆余堂是中国皖南极为少见的明代宗族祠堂。另外，还存有明清民居200余幢，有“三女食桃、化鲤成仙”的三姑庙、\"沉湖殉情，化为鸳鸯\"的长宁湖、御前侍卫贴墙牌坊、舒绣文故居、玉兰庭、葫芦井、小绣楼等名胜古迹。九都舒村，四季皆景。春风细雨，桃花水涨；夏日纳凉，柳垂扬郁；秋夜赏月，水映桥动；冬季踏雪，竹翠笋萌。\n庆余堂是建于明万历年间的一座舒氏宗祠，占地480平方米，坐北朝南，体型高大，梁柱雄伟，步架规矩，雕刻精美，是安徽省重点文物保护单位。庆余堂的大门正面是水平型高墙，用水磨砖砌成的双柱三楼大型贴墙牌坊，高约十米，砖柱宽五十厘米，呈梭形，砖雕月梁，简朴大方，两层楼檐，层层挑起，承以斗拱，整个牌坊型大门主从疏密，互为烘托，相得益彰。"}}, {"title": "桃花源漂流", "address": "黄山市黟县县城附近，往屯溪方向的路边", "image": "", "rank": 24, "time": 2, "location": {"lat": 29.93104733070446, "lng": 117.94447724144334}, "feature": {"sight_features": "", "sight_content": ""}}, {"title": "敬德堂", "address": "黄山市黟县宏村镇宏村，南湖以北", "image": "", "rank": 25, "time": 0.75, "location": {"lat": 30.006812311716782, "lng": 117.99831099992483}, "feature": {"sight_features": "", "sight_content": ""}}, {"title": "敬爱堂", "address": "黄山市黟县西递镇西递景区内", "image": "", "rank": 26, "time": 0.5, "location": {"lat": 29.90702842489198, "lng": 117.99956148261909}, "feature": {"sight_features": "", "sight_content": ""}}, {"title": "桃园居", "address": "黄山市黟县宏村镇宏村内", "image": "", "rank": 27, "time": 2, "location": {"lat": 30.006812311716782, "lng": 117.99831099992483}, "feature": {"sight_features": "", "sight_content": ""}}, {"title": "红白古树", "address": "黄山市黟县宏村镇宏村村口", "image": "", "rank": 28, "time": 0.15000000000000002, "location": {"lat": 30.00922497298683, "lng": 117.99683924222812}, "feature": {"sight_features": "", "sight_content": ""}}, {"title": "守拙园", "address": "黄山市黟县碧阳镇陶村（赤岭村）", "image": "", "rank": 29, "time": 2, "location": {"lat": 29.895005594212364, "lng": 117.89208411067618}, "feature": {"sight_features": "", "sight_content": "陶渊明故居·守拙园景区坐落在有“世外桃源”之美誉的黟县陶村，由黄山市守拙文化旅游发展有限公司投资开发，于2013年4月开工建设，在距黟县县城6公里的陶渊明后裔居住地—赤岭村（陶村）遗址，恢复建成以徽派建筑为特色，且初见规模的“守拙园景区”。陶村为东晋著名诗人陶渊明次子陶俟之后裔陶庚四迁居地。村中至今仍保留大量历史古迹和文化遗址，如保存完整的《陶氏宗谱》、陶氏祖茔、陶家池塘、陶岭古栈道、陶氏宗祠等。\n守拙园景区修复了陶渊明故居、水口园林、停车场、旅游接待、名人名言、陶氏源流文化展厅等设施，如今守拙园、文昌阁、“心远地自偏”古匾额、桃花源记大型石碑刻、归园田居诗碑刻及桃花源文化馆、居住展馆、陶氏宗祠、五柳堂、聚贤堂、陶公亭等初步完工了，再现了陶渊明笔下的《桃花源记》中的生产生活场景，体现桃花源文化的深刻内涵。陶渊明的《归园田居》中有着“开荒南野际，守拙归园田”的诗句，此处仿佛看到了陶渊明愿做“拙官”，不做“巧官”的志向，表现出他一生要坚守自己纯真的本性。守拙是基础，要以拙立身，以拙创业，以拙求进。守拙园也是取自‘开荒南野际，守拙归园田’之意。\n陶渊明故居·守拙园景区目前一期项目投资4671万元，主要依托对陶渊明文化的研究，展示以及衍生产业打造，在陶渊明后裔居住地建设陶渊明文化展示区，陶渊明故居生活展示区，桃源文化研究中心和管理区等四大功能区，打造集桃源文化研究、休闲养生、非遗展示、旅游观光为一体的综合服务项目。日前，电视连续剧《搭错车》正在景区内连续拍摄，景区将成为徽州又一处新的影视拍摄基地。\n该项目区总占地500亩，计划总投资1亿元。目前已建成100亩葡萄园基地，明年挂果后就可开展采摘活动。整个项目建成后，将再现陶渊明时代生产生活场景，在满足都市人崇尚回归自然和返璞归真的休闲、度假、寻幽访古及乡村养生需求的同时，带动农家乐休闲、度假市场开发，促进农业结构的调整，增加农民收入。陶渊明故居·守拙园景区将力争打造成黄山（黟县）旅游的一张集文化、旅游、生态“三位一体”的旅游文化的闪亮“名片”。"}}, {"title": "关麓景区", "address": "黄山市黟县碧阳镇关麓村", "image": "", "rank": 30, "time": 2, "location": {"lat": 29.90152427829294, "lng": 117.87701643081972}, "feature": {"sight_features": "特色1 赏俗称“八大家”的楼院", "sight_content": "关麓景区，位于安徽省黄山市黟县西南，是黟县古时聚族而居的又一大村落，以神奇的连体古民居著称。汪姓族人自宋代开始，在这块土地上繁衍生息了近千年，清朝中叶，汪氏在沿江一带经商发财，回乡大兴土木，使村庄整体面貌发生了变化，连片楼房，飞檐翘首，画栋雕梁，造型精美。尤以俗称“八大家”的楼院最具观赏价值。\n“八大家”为关麓村核心建筑，系同宗兄弟八人所建的八座豪华住宅，以清代著名书画家汪曙故居“武亭山房”为首。外观上八座宅院自成单元，而实际楼与楼之间相互沟通，如同连体，实为宗族观念和势力的生动写照。\n关麓村边有古泉，终年清澈甘甜，盛夏清凉彻骨，隆冬热气蒸腾，村人长期饮用，多益寿延年者。游千年古村、品长寿甘泉，吃粗茶淡饭，听民俗歌谣，使关麓游览充满古朴鲜活的情趣。"}}, {"title": "瑞玉庭", "address": "黄山市黟县西递镇西递景区内", "image": "", "rank": 31, "time": 0.5, "location": {"lat": 29.90702842489198, "lng": 117.99956148261909}, "feature": {"sight_features": "", "sight_content": ""}}, {"title": "西递石林景区", "address": "黟县县城东南13公里黟县石林景区", "image": "", "rank": 32, "time": 3.0, "location": {"lat": 29.93104733070446, "lng": 117.94447724144334}, "feature": {"sight_features": "特色1 岩石以“瘦、皱、漏、透”为显著特征", "sight_content": "西递石林所处的这座山叫做大周山，关于大周山名称的由来，有很多传说和故事。相传，东周列国，诸侯争霸，天下大乱，民不聊生。就在秦王朝将要吞并六国的前夕，周王朝有一支脉为躲避战乱，辗转来到这里，见这里山势奇特、兰草丛生，且山下有大小两池碧水，如日月辉映天地，认定这是块让他们子孙能永远休养生息的宝地。从此便世代在此定居。\n无独有偶，就在他们定居大周山下不久，另一支避乱的中原士族家庭，从“桃源洞”进入，在那儿定居，并将他们的居住地取名为樵贵谷。樵贵谷和桃源洞因与陶渊明创作的《桃花源记》有一定的联系，因而，在后来的史书上多有记载。\n沿着石阶上行，我们现在站立的这个地方称之为“天台”，俯看两池清水，古人称其为“日月池”。日池在上，月池在下。从天台上俯瞰日池，水平如镜、水天一色，让人恍惚来到了仙境瑶池，细细聆听，耳畔也似乎能听见仙乐飘飘，仿佛仙女们正羽衣霓裳、轻歌曼舞。从“阴阳五行学”理论来说，日为阳，月为阴，阴生水，所以“月池”又称“天井”，因而从不干涸。方圆百里，每逢久旱不雨，地方官员便会带领百姓来“月池”边焚香祈雨。"}}, {"title": "汪大燮故居", "address": "黄山市黟县宏村镇宏村内", "image": "", "rank": 33, "time": 0.5, "location": {"lat": 30.006812311716782, "lng": 117.99831099992483}, "feature": {"sight_features": "", "sight_content": ""}}, {"title": "惇仁堂", "address": "黄山市黟县西递镇西递景区内", "image": "", "rank": 34, "time": 0.5, "location": {"lat": 29.90702842489198, "lng": 117.99956148261909}, "feature": {"sight_features": "", "sight_content": ""}}, {"title": "膺福堂", "address": "黄山市黟县西递镇西递景区内", "image": "", "rank": 35, "time": 2.0, "location": {"lat": 29.90702842489198, "lng": 117.99956148261909}, "feature": {"sight_features": "", "sight_content": ""}}, {"title": "尚德堂", "address": "黄山市黟县西递镇西递景区内，前边溪上游", "image": "", "rank": 36, "time": 2.0, "location": {"lat": 29.90702842489198, "lng": 117.99956148261909}, "feature": {"sight_features": "", "sight_content": ""}}, {"title": "西园、东园", "address": "黄山市黟县西递镇西递景区内", "image": "", "rank": 37, "time": 1.0, "location": {"lat": 29.90702842489198, "lng": 117.99956148261909}, "feature": {"sight_features": "", "sight_content": ""}}, {"title": "追慕堂", "address": "黄山市黟县西递镇西递景区内", "image": "", "rank": 38, "time": 0.5, "location": {"lat": 29.90702842489198, "lng": 117.99956148261909}, "feature": {"sight_features": "", "sight_content": ""}}, {"title": "水榭碧园", "address": "黄山市黟县宏村镇宏村水圳源头附近", "image": "", "rank": 39, "time": 1.5, "location": {"lat": 30.006812311716782, "lng": 117.99831099992483}, "feature": {"sight_features": "", "sight_content": ""}}, {"title": "冒华居", "address": "黄山市黟县宏村镇宏村内，月沼西南畔", "image": "", "rank": 40, "time": 0.75, "location": {"lat": 30.009182975786413, "lng": 117.99586018713755}, "feature": {"sight_features": "", "sight_content": ""}}, {"title": "青云轩", "address": "黄山市黟县西递镇西递景区内", "image": "", "rank": 41, "time": 1.0, "location": {"lat": 29.90702842489198, "lng": 117.99956148261909}, "feature": {"sight_features": "", "sight_content": ""}}, {"title": "五里村", "address": "碧阳镇五里村紧邻黟县县城", "image": "", "rank": 42, "time": 1.0, "location": {"lat": 29.925627469597273, "lng": 117.92954908100882}, "feature": {"sight_features": "", "sight_content": ""}}, {"title": "旷古斋", "address": "安徽省黄山黟县西递村内", "image": "", "rank": 43, "time": 2, "location": {"lat": 29.906942616923832, "lng": 117.99443752463593}, "feature": {"sight_features": "", "sight_content": ""}}, {"title": "黄姑河景区", "address": "黄山市黟县美溪乡黄姑村", "image": "", "rank": 44, "time": 1.0, "location": {"lat": 30.131200902853607, "lng": 117.79347010792509}, "feature": {"sight_features": "", "sight_content": ""}}, {"title": "乐山书屋", "address": "黄山市黟县宏村镇宏村月沼西边", "image": "", "rank": 45, "time": null, "location": {"lat": 30.009182975786413, "lng": 117.99586018713755}, "feature": {"sight_features": "", "sight_content": ""}}, {"title": "奇墅湖", "address": "黄山市黟县宏村西南方向3公里处（协里古村附近）", "image": "", "rank": 46, "time": 1.5, "location": {"lat": 30.010358193121686, "lng": 118.02535455557393}, "feature": {"sight_features": "", "sight_content": ""}}, {"title": "桃李园", "address": "安徽省黄山市黟县西递村内", "image": "", "rank": 47, "time": 2, "location": {"lat": 29.906942616923832, "lng": 117.99443752463593}, "feature": {"sight_features": "", "sight_content": ""}}, {"title": "龙池湾", "address": "黄山市黟县宏村镇龙池湾景区", "image": "", "rank": 48, "time": 2.0, "location": {"lat": 30.01353359166613, "lng": 117.98618112762357}, "feature": {"sight_features": "", "sight_content": ""}}, {"title": "敦厚堂", "address": "黄山市黟县宏村镇宏村后街27号", "image": "", "rank": 49, "time": 0.25, "location": {"lat": 30.009352910756995, "lng": 117.99765577588585}, "feature": {"sight_features": "", "sight_content": ""}}, {"title": "敬修堂百年老牡丹", "address": "黄山市黟县宏村镇宏村月沼北侧西首敬修堂内", "image": "", "rank": 50, "time": 0.15000000000000002, "location": {"lat": 30.009200943124586, "lng": 117.99597072452887}, "feature": {"sight_features": "", "sight_content": ""}}, {"title": "十三楼", "address": "黄山市黟县宏村镇宏村雷岗山畔", "image": "", "rank": 51, "time": 1.5, "location": {"lat": 29.93471402095042, "lng": 117.94551000891492}, "feature": {"sight_features": "", "sight_content": ""}}, {"title": "居善堂", "address": "黄山市黟县宏村镇宏村上水圳6号", "image": "", "rank": 52, "time": 0.25, "location": {"lat": 30.01034523866459, "lng": 117.99444873538467}, "feature": {"sight_features": "", "sight_content": ""}}, {"title": "耕心堂", "address": "黄山市黟县宏村镇宏村月沼西畔", "image": "", "rank": 53, "time": 0.4, "location": {"lat": 30.009182975786413, "lng": 117.99586018713755}, "feature": {"sight_features": "", "sight_content": ""}}, {"title": "三立堂", "address": "黄山市黟县宏村镇宏村内茶行弄16号（za桃源居隔壁）", "image": "", "rank": 54, "time": 0.25, "location": {"lat": 30.009148924050393, "lng": 117.99439627434288}, "feature": {"sight_features": "", "sight_content": ""}}, {"title": "松鹤堂", "address": "黄山市黟县宏村镇宏村上水圳07号", "image": "", "rank": 55, "time": 0.25, "location": {"lat": 30.010188868717535, "lng": 117.99446661166431}, "feature": {"sight_features": "", "sight_content": ""}}, {"title": "梓路寺", "address": "黄山市黟县宏村西南方向5km的梓岭山湾里", "image": "", "rank": 56, "time": 2, "location": {"lat": 30.00918588007746, "lng": 117.99683924222812}, "feature": {"sight_features": "", "sight_content": ""}}, {"title": "培德堂", "address": "黄山市黟县宏村镇宏村内月沼北东侧。", "image": "", "rank": 57, "time": 0.25, "location": {"lat": 30.009182975786413, "lng": 117.99586018713755}, "feature": {"sight_features": "", "sight_content": ""}}, {"title": "务本堂", "address": "黄山市黟县宏村镇宏村中街东面", "image": "", "rank": 58, "time": 0.25, "location": {"lat": 30.007527296755697, "lng": 117.9929927618141}, "feature": {"sight_features": "", "sight_content": ""}}, {"title": "协里", "address": "安徽省黄山黟县协里（宏村东面5km 左右）", "image": "", "rank": 59, "time": 3.0, "location": {"lat": 30.010358193121686, "lng": 118.02535455557393}, "feature": {"sight_features": "", "sight_content": ""}}, {"title": "清溪", "address": "黄山市黟县际联镇塔川村", "image": "", "rank": 60, "time": null, "location": {"lat": 30.024042106916912, "lng": 118.01420765767018}, "feature": {"sight_features": "", "sight_content": ""}}]}