{"cityName": "宜兴", "days": 2, "cityImage": "", "spots": [{"title": "宜兴竹海", "address": "无锡宜兴市湖滏镇竹海村", "image": "", "rank": 1, "time": 2.0, "location": {"lat": 31.17657032174801, "lng": 119.71408422568223}, "feature": {"sight_features": "特色1 登上山顶俯看满山竹海，蔚为壮观。", "sight_content": "宜兴竹海风景区位于苏、浙、皖三省交界的宜兴南部山区，是国家风景名胜区、省级森林公园。宜兴盛产竹，自古就有“竹的海洋”之称。竹海绵延苏、浙、皖三省，纵横八百余里，形成了一片翡翠的海洋。宜兴竹海风景区位于竹的海洋中心，万亩翠竹随山势起伏，好似波涛翻滚，绵流不绝，素有“中国竹海”之称，是我国竹风景、竹风情和竹文化的代表性景区。\n宜兴竹海风景区内山清水秀，一日之内，四季之间，奇趣天成。主要景点有“太湖源”、“苏南峰”、“竹报平安”、“镜湖秀色”、“索桥凌波”、“寂照禅寺”、“竹林飞瀑”、“翡翠长廊”、“悬空栈道”等等，或气势宏大，或清幽深邃，或曲折迷离，各具特色。\n新建成的缆车索道全长1500米，上、下站落差400米，96个吊厢，每天可接待游客5000人左右，是目前华东地区之最，坐缆车至“苏南峰”顶，途中可空中饱览竹海全景，在风中，可欣赏竹海的气势磅礴和惊涛骇浪。山顶上天风拂动，林幽壑奇，白鸟争鸣，山巅经常白云缭绕，奇花异草满山遍地，加上“玉女峰”、“冒龙池”、“目莲救母”等美丽的传说故事，让人大有“疑是天仙寄居处”之感。\n有远大志向的年轻人和学子们入“凌云门”、步“凌云道”、进“凌云阁”、园“凌云梦”，又别有一番滋味。\n宜兴竹海风景区被誉为天然活氧吧，也是影视拍摄的好去处，曾在景区内拍摄过《三国演义》、《飞侠小白龙》、《大宋开国》等影视作品。每8—11月，镜湖中可观察到15亿年前地腔肠动物“桃花水母”，其珍稀程度，被誉为“水中大熊猫”。宜兴竹海，是集自然生态的山水文化、寂照寺的宗教文化、清风洞的溶洞文化、竹种园的竹文化、三省交界的地域文化、陶都地方风情文化为一体的综合性游览胜地。"}}, {"title": "善卷洞", "address": "无锡市宜兴城西南25公里的螺岩山中", "image": "", "rank": 2, "time": 2.0, "location": {"lat": 31.342956624267874, "lng": 119.83160603216115}, "feature": {"sight_features": "特色1 宜兴三洞之首，洞中钟乳石造型各异。 特色2 山清水秀，风光旖旎，洞景巧夺天工，素有“万古灵迹”。 特色3 梁祝化蝶千古传奇,来到景区就进入了梁祝传说的发源地。", "sight_content": "“桃之夭夭，灼灼其华。之子于归，宜其室家。桃之夭夭，有蕡其实。之子于归，宜其家室。桃之夭夭，其叶蓁蓁。之子于归，宜其家人。”这是《诗经》里描写桃花盛开、新娘出嫁的一首诗，充满欢乐、喜庆的气息。\n1）洞中瀑布:飞流直下三千尺，疑是银河落九天。善卷飞瀑也是洞内奇景。2）狮象大场:“狮象大场”这几个字，由中国教育家、学者、丹阳人吕凤梓先生所题写。3）上洞美景:上洞因终年冬暖夏凉，四季如春，气温保持在23℃，云雾弥漫，故称云雾大场。4）荷花倒影:“倒影荷花”是上洞一大景观。做事要有始有终，要开花结果，这“荷花”结莲藕。5）熟悉的地方:曾经是“西游记”和“智取威虎山”剧景地，唐僧在黑风洞就是被捆在这棵石柱上的。6）水洞:善卷洞在古代以干洞和大小水洞著称。明朝进士都穆称“尤号胜绝”。储南强先生破除迷信，凿通水洞。经疏通后可以洞中划船，水中行舟，也使善卷洞跻身于世界三大奇洞之列。船儿转弯，豁然开朗。天光山色，突然映入眼帘，生活就是这样，山穷水复疑无路，柳暗花明又一村。善卷水洞能让你有个豁然开朗的境界。7）砥柱峰:“砥柱峰”由储南强先生题写，这个景观，在古代叫“玉树灵根”。也是善卷洞的当家宝贝。又叫“小须弥山”，上面有一尊接引佛。这实际上是个大钟乳石，有七米多高。根据地质学家测算，大约要30—50年才长一厘米，竖着长又比横着长要快。当年储南强修洞，用“修地补天”的方针，挖去砥柱峰周围的淤泥乱石，才使这玉树灵根更加高大雄伟。8）地质善卷:善卷洞开始形成要从三叠纪时算起，距今约2亿1千万年。那时这里还是一片汪洋大海。由于富含碳酸钙，并逐步沉积，形成石灰岩沉积地层，地壳变动，水的冲刷，先形成上洞。而后地壳再变动，再形成中洞，最后形成下洞和水洞。约在100万年前基本定形。善卷洞总的形成于青龙群石灰岩生成以后，所以洞的规模大。国内石灰岩溶洞很多很多，但像善卷洞的地质地貌这么丰富，地层这么分明的并不多见。漫游善卷洞，我们看到了一个地质的善卷。\n拜斗坛：拜斗坛，南北朝梁武帝在南京蒋山求雨，即现在的紫金山，夜有神人托梦，在阳羡国山有水神，十分灵验。于是梁武帝派大臣专程到宜兴来，筑坛求雨，果然灵验。这也是百姓对统治者的美好愿望吧。善权寺：据史书记载，宜兴善权寺是南北朝齐建元二年，公元480年，“祝英台故宅”所建。过去洞是庙产。储南强先生当年就是先从和尚手里买下山洞和山地的产权，再进行整修的。这就给善卷洞罩上了佛都溶洞的光环，善卷寺因避齐东昏侯萧宝卷讳，改“卷”为“权”，沿用至今。英台古迹：宜兴是留有梁祝文化实物性历史遗迹最多的地方。这些遗迹大都有数百年或上千年以上的历史，这决不是今天的某些商业炒作所能伪造出来的。有记载，有实物，今天能看到，才是具有说服力的证据。万古灵迹：原江苏省国画院院长钱松岩先生题写，这是组成“人文善卷”的重要部分，也是其他一些年轻溶洞所难以企及的。竹林深处：螺湖竹林为游客提供休息场所,调节心情,呼吸大自然的纯净空气,更提供宜兴特产茶叶，为你的心情带来一股清香。英台故宅：善卷风景区是宜兴梁祝文化的发源地，国内有多家梁祝文化的研究机构，“华夏梁祝文化研究会”就设在善卷风景区。"}}, {"title": "张公洞", "address": "无锡市宜兴市湖父镇张阳村", "image": "", "rank": 3, "time": 3.5, "location": {"lat": 31.243776809960618, "lng": 119.7869229093484}, "feature": {"sight_features": "特色1 宜兴三洞之一 特色2 可赏钟乳石，还可在洞灵观祈福。", "sight_content": "“稀奇古怪，说也不信。真正绝妙，到者方知。”这是中国国画大师徐悲鸿先生游览张公洞风景区后的赞誉。1919年开发，1934年11月11日开放以来，共接待海内外游客近亿人次。张公洞景区是国家AAAA级风景区，是中国最早开放的国家级名胜风景区，是中国道教五十八福地。\n今天的张公洞风景区，已是面目一新。张公洞内新增裸眼3D光影秀。张公洞溶洞内五百米“地下河探险”的惊险、一千五百米“竹林漂流”的刺激、及拥有三千年道教文化史的“洞灵观”和让您亲自制作的陶艺馆（作品免费带走），彻底颠覆了传统的溶洞旅游理念。\n张公洞风景区热忱欢迎各位到此，游万古溶洞，做一回神仙；探地下暗河，寻新奇惊险；坐皮筏漂流，历刺激游程；拜道教神仙，获长寿健康。"}}, {"title": "陶祖圣境", "address": "无锡市宜兴市湖父镇竹海村", "image": "", "rank": 4, "time": 2.0, "location": {"lat": 31.188569589037222, "lng": 119.72673072426193}, "feature": {"sight_features": "特色1 欣赏漫山的竹林与慕蠡洞中的钟乳石，在范蠡陶坊亲手制作陶器。 特色2 洞天府地，风光秀丽 特色3 无锡市公众推介的旅游景区,宜兴十佳景区", "sight_content": "宜兴陶祖圣境慕蠡洞风景区位于苏、浙、皖三省交界处的江苏省宜兴市，距市区35公里。景区面积20万平方米，是我国著名风景名胜旅游胜地，一批国家重点风景名胜区－－太湖风景名胜区的重要景点，无锡市学生教育实践基地和爱国主义教育基地，无锡市公众推介的旅游景区，宜兴十佳景区。2004年8月正式通过ISO9001质量管理体系和ISO14000环境管理体系认证，为跻身国家AAAA级景区迈出了坚实的步伐。\n\n竹尖上的长廊：走在长廊内，体感温度骤降，茂密的竹子遮挡住了烈日，从竹叶的缝隙中透出丝丝微光。再次走在这透明的长廊上，说实话还是有点害怕！\n一望无际的竹海让人心旷神怡。竹尖上的长廊就像一个天然的过滤系统，为身体做个天然的过滤。是的！这里虽然娱乐活动不多，但绝对是踏青和亲子度假休闲的好去处。\n慕蠡洞风景区集宜兴陶、茶、竹及洞风光于一体其品尤佳，广受广大旅客称赞。它以独特的成因和优越的地理条件造就了群山叠翠，奇异怪石；以一流的生态条件形成了一流的山水风光，景色秀丽；以典型的地质地貌构造了喀斯特黄龙洞穴，巧夺天工，组成了一幅绝好的山水画卷，具有较高的观赏、游览、教育、科研、历史和文化价值。\n\n范蠡陶坊也称“华夏爱情陶吧”景区内有优美的自然风光，浪漫的爱情故事，深厚的陶祖文化，新颖的范蠡文化陈列馆，奇妙的范蠡陶坊，古朴的范蠡古窑，罕见的石林奇观，旖旎的竹林长廊，幽雅的范蠡山庄，是宜兴洞天世界中的一颗璀璨明珠。漫步陶祖圣境，亲近古老的紫砂制作工艺，可以充分发挥自己的想像力，创造属于自己的佳作，体验一回当艺术家的感觉，然后把你的作品带回家，留做永恒的纪念。\n深氧自行车公园：相同的自行车道，不同的是两边的风景，与速度为伴的不是我也不是车，是两旁的茶园，绿油油的茶树，让眼睛更加放松，在这种天然的绿化带中骑车真的是一种全新的踏青方式。"}}, {"title": "龙背山森林公园", "address": "无锡市宜兴市人民南路南端", "image": "", "rank": 5, "time": 1.5, "location": {"lat": 31.33271738958711, "lng": 119.82336964051652}, "feature": {"sight_features": "", "sight_content": ""}}, {"title": "灵谷洞", "address": "无锡市宜兴市湖滏镇", "image": "", "rank": 6, "time": 1.5, "location": {"lat": 31.234408565930046, "lng": 119.80341222774722}, "feature": {"sight_features": "特色1 宜兴三洞之一，该溶洞以“洞中有山”见长，风貌更为原始。 特色2 洞中有洞、形状奇异，色彩绚丽。 特色3 洞通道险峻，曲折、幽邃，越深越大。 特色4 灵谷洞与善卷洞、张公洞并称为“宜兴三奇。", "sight_content": "灵谷洞是著名石灰岩溶奇洞、宜兴“三奇”之一。位于宜兴城西南28公里的王家坞灵谷山(石牛山)南麓，今阳羡茶场内。距张公洞仅6公里。全洞面积8160平方米，游程1113米，有上、下两个洞口，洞内有大小高低与钟乳、石笋各有异趣的石厅七个，分隔贯穿，脉络相承。洞中有石钟乳、石笋、石花、石柱、石幔等，形状奇异，色彩绚丽。其中高26米、宽7米的大石幔，如银河直泻，瑰丽奇特，为阳羡诸洞所仅见。洞外，群山四合，茶园翠绿，可领略山林风光。灵谷洞当年为唐代诗人陆龟蒙探茶发现。陆曾雇人开挖，因工程力不能及而作罢，留下“龟蒙先生志未酬，唐宋至今未穿心”的遗憾。然宋以后陆续有人入洞探幽，今石壁上尚存宋、元、明、清游人的遗墨。\n\n灵谷洞的入口处掩映在翠竹深处，入洞通道险峻，曲折、幽邃，越深越大。整个石洞有6个大石厅。第三石厅下有7条伏道相连，上有5条天河汇集，犹如“百川汇海”。厅内巨岩倒挂，壁下一泓清池，称作“天府灵泉”。第四石厅为全洞精华。深谷底部，有一个17米高、5米多宽、2米多厚的大石幔，色雪白，似飞瀑，自穹顶飞泻而下，瑰丽奇伟，蔚为壮观。大石瀑顶部深处有一大石鼓，以石叩之，声音洪亮，百米以外也能听到。此洞发现较早，洞内岩壁上至今还保存有宋、明、清各代游人的题诗墨迹。曾经湮没了100多年的灵谷洞，在本世纪80年代初又被重新发现。如今，灵谷洞与善卷洞、张公洞并称为“宜兴三奇”。\n\n灵谷洞，坐落在宜兴县西南的石牛山南麓，阳羡茶场境内，距县城30公里。唐代诗人陆龟蒙在宜兴探茶时，发现了灵谷洞，曾雇人开凿，因工程艰巨而作罢。前人有诗写道“虎势打步倒退行，底石根深存陷阱；龟蒙先生志未酬，唐宋至今未穿心。”这就是说从唐代起就有人陆续探过灵谷洞，今洞内石壁上，留有古代题刻多处。中有落款为“大观丁亥年三月灵现”的诗写道：“仙人四海通天下，世见高山此地来，灵谷本是真仙洞，万古传来今一逢。”还有落款为“越州人诸李乡人咸淳三年三月末日”的写道：“从来无晓亦无（昏），罕遇神仙一洞门；六六从来三十六，曹溪一派道混沦。”其它还有明永乐、万历，清道光、咸丰年间的题刻。据说清代官府怕太平军驻扎到灵谷洞中，故把洞门封闭至今，与世隔绝了一百多年。1979年开始组织人员考查，经过两年的开发整理，于1987年正式对外开放。"}}, {"title": "中国宜兴陶瓷博物馆", "address": "宜兴市丁蜀镇丁山北路150号", "image": "", "rank": 7, "time": 1.5, "location": {"lat": 31.26509721574849, "lng": 119.83839700173174}, "feature": {"sight_features": "特色1 国家较早成立的陶瓷博物馆", "sight_content": "宜兴，素以陶都驰名中外。中国紫砂博物馆、宜兴陶瓷博物馆，是国家较早成立的陶瓷博物馆，馆区占地面积40000平方米，目前已成为我国影响和规模较大的集展示、研究、传播、保护和陶艺交流于一体的专业陶瓷博物馆，在国际上享有一定的声誉。馆内丰富的藏品，充分展示了宜兴悠久的制陶历史和灿烂的陶瓷文化。从新石器时代中期至今的七千多年漫长岁月中，陶瓷是宜兴引以为豪的生命赞歌。\n\n\n无数能工巧匠孕育了巧夺天工的艺术珍品，汉代的陶器、两晋的青瓷、宋明的均陶和明清的紫砂，以及当代的彩釉陶、美术陶、精陶等，充分展示了陶都宜兴的风采。多年来，我馆多次承办了国内外的大型活动，接待了无数的国内外重要宾客和近百万中外游客。近年来，宜兴陶瓷博物馆经过了建馆近五十年来规模较大的装饰改造，展区面貌焕然一新，作为中台办海峡两岸交流基地和宜兴的重要窗口，必将为进一步弘扬祖国的陶瓷文化，扩大交往，促进发展发挥更大的作用。"}}, {"title": "宜园", "address": "无锡市宜兴市宜城镇氿南风光西侧", "image": "", "rank": 8, "time": 1.5, "location": {"lat": 31.353995251526833, "lng": 119.82788902362196}, "feature": {"sight_features": "", "sight_content": ""}}, {"title": "团氿风景区", "address": "无锡市宜兴市团氿南路", "image": "", "rank": 9, "time": 2.5, "location": {"lat": 31.369372068733185, "lng": 119.81001512627962}, "feature": {"sight_features": "", "sight_content": ""}}, {"title": "玉女潭景区", "address": "无锡市宜兴市莲子山上，距城区23公里", "image": "", "rank": 10, "time": 1.5, "location": {"lat": 31.342956624267874, "lng": 119.83160603216115}, "feature": {"sight_features": "特色1 荆溪十景之首，浪漫山水桃花源", "sight_content": "﻿玉女潭属国家风景名胜，始建于唐，盛于明，素有“江南园林第一园”的美称；相传天庭玉女曾在此修炼，故而得名。玉女潭景区坐落于“紫砂之都”宜兴市西南，规划总面积20万平方米，由银环集团共同打造，是国内首个以明文化为主题，集自然养生、休闲度假、观光旅游、户外运动等于一体的景区。\n玉女潭，是整个景区的中心，被历代文人称为“玉潭凝碧”和“玉阳洞天”。玉女潭谷深林茂，溪流不断，植被丰富，环境清幽，集自然景观与人文景观于一体，留有许多珍贵的文物古迹。1924年，大文豪郭沫若留下了“天下第一潭”的题字。仙居谷地质地貌独特，由奇异天成的地表太湖石点缀，有三大奇洞：三珠洞、飞云洞、石硖洞，布满大自然鬼斧神工的石林。\n著名画家沈石田(沈周)、文徵明、唐寅(唐伯虎)、仇十洲(仇英)都曾在此长住，吟诗作画，留下了不少传世之作。吴中才子文徵明写的《玉潭仙居记》更是山庄鼎盛时期的绚丽画卷，文中称：“其中台榭楼阁祠宇杠梁凡三百有一，林壑岩窦可名者二十有三”，足见当时盛况。"}}, {"title": "龙池山自行车公园", "address": "无锡市宜兴市张渚镇省庄村", "image": "", "rank": 11, "time": 1.5, "location": {"lat": 31.240300866488976, "lng": 119.7138059090759}, "feature": {"sight_features": "", "sight_content": "龙池山自行车公园以低碳出行、慢节奏生活、公益性健身活动与休闲观光相结合，充分利用现有茶园、竹海、水库等生态旅游资源，打造集自行车运动、山水风光以及阳羡茶文化等特色为一体的自行车健身运动主题公园。\n公园景观包括“一线、二区和十八个景点”。其中“一线”指绿道（自行车专业道路），总长度约12公里，宽度为3至5米，是宜南山区245公里绿道网络的首期示范工程。“二区”是指林场和龙池山两个服务区，区内设施完善，提供包括自行车租赁、停车、淋浴和运动装备及纪念品销售等服务项目。\n公园通过绿道串联起沿线景观资源悉心打造“龙池山慢游十八景”，分别是“竹篁幽径、三潭映碧、雷池翠览、花谷探奇、茂竹人家、静园滋味、御园问茶、平湖云影、茶韵松涛、茗香山房、茶洲叠翠、檫木春华、田园芳华、金家农舍、碧水花堤、湖畔炊歌、龙池烟雨、澄光佛音”。"}}, {"title": "龙池山", "address": "无锡市宜兴市茗岭镇龙池山风景区", "image": "", "rank": 12, "time": 3.0, "location": {"lat": 31.222491815611594, "lng": 119.70639001351458}, "feature": {"sight_features": "特色1 以稀、奇、古、怪为特色 特色2 连绵起伏，植被葱郁，山顶终日云雾朦胧。", "sight_content": "龙池山建景始于宋代，重建于明代龙池晓云石、澄光禅寺、龙池古栈道、禹门祖塔、龙池、凭虚阁、涅槃窟、老虎亭、拜经台、分宾亭、洗心池、一步登天等步步皆景的古景观，形成道道风景线。\n宜兴龙池山风景区是苏南地区的风水宝地。龙池山建景始于宋代，重建于明代。位于宜兴城西南35公里的茗岭乡境内，1982年被列为森林自然保护区，总面积达一千八百多亩。龙池山也是一处佛事圣地，山上有龙池庵，建于宋咸淳二年（1266），名禹门禅院；明永乐年间赐大藏经一部，慈仁太后赐金观音一尊，金篮一只；明成祖赐雨过天晴青瓷碗等，均为禅院珍藏；清康熙年间，敕赐“澄光寺”。旧时龙池庵分上、中、下三庵，为江浙八大寺之一，蔚然江南巨刹。\n龙池山的特色主要为稀、奇、古、怪四个方面。稀者，稀有树种、稀有植物；奇者，山巅有池，池内有龙；古者，江浙八大寺之一的澄光寺，元末明初“开临济之祖庭，辟禹门之禅院”；怪者，白云岩石壁横空，壁立千仞，晨雾飘渺，忽如玉带回环腰际，忽如飞絮冉冉四益，忽拂扫青岩，忽隐没层峦，变化万千，更有那可预报天气的晓云石，构成了荆溪十景之一的“龙池晓云”。\n龙池山山上古景观众多。龙池晓云石、澄光禅寺、龙池古栈道、禹门祖塔、龙池、凭虚阁、涅磐窟、老虎亭、拜经台、分宾亭、洗心池、一步登天等步步皆景的古景观，形成道道风景线。景区浓荫蔽日，满目青翠，鸟语花香；泉石交错，松柏亭亭；山崖峥嵘，洞穴奥妙；怪石嶙峋，千姿百态。迂徊起伏的山形地貌，丰富多彩的森林植物，使得龙池山幽雅绝佳。放眼远眺，满目苍山横秀，层峦叠嶂。近可观竹海翠波连绵汹涌，远可观太湖烟波浩渺，水天一色，恰似蓬莱仙境。龙池山还是著名的佛事圣地。山上龙池庵，建于宋咸淳二年（1266年），名禹门禅院。清康熙年，敕赐为“澄光寺”。旧时澄光寺分上、中、下三庵，蔚然江南巨刹。相传唐宰相陆希声、大德禅师鉴真和尚和清乾隆皇帝，当年均到澄光寺幽居了很长时间，并有诗文记载，广为流传。 ‍\n宜兴市龙池山自行车公园，施工于2012年4月，位于宜兴市张渚镇阳羡茶产业园内，东北起宜兴林场大门，西南至龙池山澄光寺，总区域面积约6.33平方公里。公园规划以低碳出行、慢节奏生活、公益性健身活动与休闲观光相结合，充分利用现有茶园、竹海、水库等生态旅游资源，打造集自行车运动、山水风光以及阳羡茶文化等特色为一体的自行车健身运动主题公园。\n温馨提示：1、游客在租赁自行车时必须对自行车进行全面检查，测试好刹车制动效果。 2、正确掌握先后刹、再前刹的操作方式。3、骑行时必须佩戴好安全防护帽。4、园内绿道有较多坡陡急转路段，请下车推行。5、骑行或步行过程中请与路边陡坡、水库围坝保持一定的安全距离。6、本公园倡导“以人为本，绿色低碳，慢节奏生活”理念，为了您的安全，敬请慢行。7、小孩骑行时，家长务必陪同在旁，并务必切记慢行，保证安全。8、凡自带及不在公园售票窗口办理租赁的各种车辆，如发生意外，后果自负。\n安全告知：1、骑行时必须佩戴好头盔（安全防护帽）；2、正确掌握先后刹，再前刹的操作方式；3、公园内绿道有较多坡陡急转路段，请减速或下车推行；4、骑行过程中严禁嬉戏打闹、互相追逐，严禁单手或双手脱把骑行。5、骑行或步行过程中请与路边陡坡、水库围坝保持一定的安全距离；6、公园倡导“以人为本、绿色低碳、慢节奏生活”理念，为了您的安全，敬请慢行；7、未满14周岁小孩及55周岁以上的老人不得骑行，酒后的、身体不适者（如心脏病患者、高度近视、大病初愈者不得骑行；8、14周岁以上未成年人骑行时，务必有家长陪同，切记慢行，保证安全；9、游客在景区内严禁吸烟，严禁携带易燃物品，注意防火。"}}, {"title": "大觉寺", "address": "无锡市宜兴市西渚镇横山村", "image": "", "rank": 13, "time": 1.0, "location": {"lat": 31.241452073017303, "lng": 119.58833672547897}, "feature": {"sight_features": "", "sight_content": ""}}, {"title": "云湖景区", "address": "无锡市宜兴市西渚镇", "image": "", "rank": 14, "time": 1.5, "location": {"lat": 31.294519516997862, "lng": 119.57237564305906}, "feature": {"sight_features": "", "sight_content": ""}}, {"title": "华东百畅生态休闲度假园", "address": "无锡市宜兴市张渚竹园华东百畅", "image": "", "rank": 15, "time": 2, "location": {"lat": 31.342956624267874, "lng": 119.83160603216115}, "feature": {"sight_features": "特色1 千姿百态的奇峰秀水、美丽如画的自然生态 特色2 华东百畅生态区，休闲度假的绝好去处", "sight_content": "华东百畅生态旅游度假区地处中国经济活力最强，发展速度最快的沪、宁、杭大三角的地理中心，位于苏、浙、皖三省交界的宜南山区，这里景色优美、风光迷人，是宜南山区风景旅游线的重要节点。景区距宁杭高速、锡宜高速鲸塘出口8公里，总面积12000亩，毗邻佛教圣地大觉寺，太极洞、善卷洞、张公洞、竹海等国家5A级、4A级景区都在30分钟车程内。\n景区属亚热带北缘的南北过渡地区，四季分明，寒暑明显，阳光充足，雨水充沛，年平均气温16.5度，年平均降水1240毫米，年平均日照190天。景区森林覆盖率达88％，大气质量优于国家一级质量标准，是名副其实的天然“氧吧”。\n景区群峰竞秀，层峦叠嶂，沟壑纵横，飞瀑流泉，既有雄伟的石壁景观，又有妙曼的山乡风韵。春天绿树红英，花团簇锦；夏天翠漫峰峦，山丹点缀；秋天云高天蓝，红叶尽染；冬天雪填沟壑，冰挂高悬，可谓步步皆美景、处处是乐园，时时有惊喜，是融自然景观、人文景观于一体，具有旅游、休闲、度假、养生等多功能的生态型旅游区。景区那千姿百态的奇峰秀水、美丽如画的自然生态、悠静闲适的田园风光，无不充满诗情画意，令游人心旷神怡、流连忘返，实为城市人休闲度假的绝好去处。"}}, {"title": "周王庙", "address": "无锡市宜兴市宜城镇东庙巷", "image": "", "rank": 16, "time": 1.0, "location": {"lat": 31.368856136160485, "lng": 119.82797005077896}, "feature": {"sight_features": "", "sight_content": ""}}, {"title": "玉女山庄", "address": "无锡市宜兴市湖滏镇的莲子山上，距城区23公里", "image": "", "rank": 17, "time": 2, "location": {"lat": 31.234408565930046, "lng": 119.80341222774722}, "feature": {"sight_features": "", "sight_content": ""}}, {"title": "宜兴国家森林公园", "address": "无锡市宜兴市东南部", "image": "", "rank": 18, "time": 1.5, "location": {"lat": 31.342956624267874, "lng": 119.83160603216115}, "feature": {"sight_features": "", "sight_content": ""}}, {"title": "任肪公园", "address": "无锡市宜兴市宜城镇九滨公园内", "image": "", "rank": 19, "time": 0.75, "location": {"lat": 31.353995251526833, "lng": 119.82788902362196}, "feature": {"sight_features": "", "sight_content": ""}}, {"title": "宜兴规划展示馆", "address": "无锡市宜兴市解放东路与荆邑大道交叉口西南侧", "image": "", "rank": 20, "time": 1.5, "location": {"lat": 31.365627228619047, "lng": 119.84291872312642}, "feature": {"sight_features": "", "sight_content": ""}}, {"title": "滆湖", "address": "无锡市宜兴市太湖上游", "image": "", "rank": 21, "time": 1.0, "location": {"lat": 31.342956624267874, "lng": 119.83160603216115}, "feature": {"sight_features": "", "sight_content": ""}}, {"title": "徐悲鸿纪念馆", "address": "无锡市宜兴市公园路1号", "image": "", "rank": 22, "time": 2, "location": {"lat": 31.485275102265174, "lng": 119.89192654076105}, "feature": {"sight_features": "", "sight_content": ""}}, {"title": "东坡书院", "address": "无锡市宜兴市丁蜀镇东北隅的蜀山山麓", "image": "", "rank": 23, "time": 1.0, "location": {"lat": 31.28914055667643, "lng": 119.8766029636309}, "feature": {"sight_features": "", "sight_content": ""}}, {"title": "世纪大桥", "address": "无锡市宜兴市城区和团氿公园之间", "image": "", "rank": 24, "time": 1.0, "location": {"lat": 31.378944400924304, "lng": 119.81033889444983}, "feature": {"sight_features": "", "sight_content": ""}}, {"title": "阳羡湖深氧公园", "address": "无锡市宜兴湖滏镇", "image": "", "rank": 25, "time": 2, "location": {"lat": 31.234408565930046, "lng": 119.80341222774722}, "feature": {"sight_features": "", "sight_content": ""}}, {"title": "阳羡茶文化博物馆", "address": "无锡宜兴市西渚镇横山村香林路", "image": "", "rank": 26, "time": 2, "location": {"lat": 31.24865229039685, "lng": 119.58972728983215}, "feature": {"sight_features": "特色1 无锡八大博览园之一", "sight_content": "宜兴阳羡茶文化博物馆坐落在风景秀丽的云湖景区内，是无锡八大博览园之一。她位于香林路东侧，南邻星云大师祖庭大觉寺，北接挂联山，依山望湖，景色宜人。\n宜兴阳羡茶文化博物馆将茶文化收藏展示、科普宣传、社会研究、文化传播、茶艺表演等集于一体，另有学术交流、贵宾接待、休闲品茗、商务活动等配套设施。同时通过山水园林式布局的茶文化廊将整个核心区域相互衔接，从而成为展示阳羡茶文化的重要窗口，又成为具有山水生态园林特色的旅游景观。\n宜兴阳羡茶文化博物馆共有两部分组成，第一部分为主楼，共分7个专业展厅和1个临时展厅，通过文字和展品等形式，采用声、光、电等高科技手段，详细介绍和展现“阳羡御茶”的形成、传承和发展的历史，以及在此基础上形成的阳羡茶文化。第二部分为风情茶苑，共设置了三个各具代表性的风情茶馆，供游客休憩品茶。"}}, {"title": "文峰塔", "address": "无锡市宜兴市人民南路南端龙背山内", "image": "", "rank": 27, "time": 2.0, "location": {"lat": 31.33271738958711, "lng": 119.82336964051652}, "feature": {"sight_features": "", "sight_content": ""}}, {"title": "云湖茶博园景区", "address": "无锡宜兴市西渚镇香林路", "image": "", "rank": 28, "time": 2.5, "location": {"lat": 31.24865229039685, "lng": 119.58972728983215}, "feature": {"sight_features": "", "sight_content": ""}}, {"title": "太平天国辅王府", "address": "无锡市宜兴市宜城镇和平街通贞观巷9号", "image": "", "rank": 29, "time": 1.5, "location": {"lat": 31.353995251526833, "lng": 119.82788902362196}, "feature": {"sight_features": "", "sight_content": ""}}, {"title": "横山水库", "address": "无锡市宜兴市横山水库", "image": "", "rank": 30, "time": 3.0, "location": {"lat": 31.234921134846115, "lng": 119.57236822934368}, "feature": {"sight_features": "", "sight_content": ""}}, {"title": "寂照寺", "address": "无锡市宜兴市湖滏镇竹海村宜兴竹海景区内", "image": "", "rank": 31, "time": 0.75, "location": {"lat": 31.17657032174801, "lng": 119.71408422568223}, "feature": {"sight_features": "", "sight_content": ""}}, {"title": "碧鲜庵", "address": "无锡市宜兴市涌金南路善卷洞风景区内", "image": "", "rank": 32, "time": 2, "location": {"lat": 31.30427655764246, "lng": 119.67658934176372}, "feature": {"sight_features": "", "sight_content": ""}}, {"title": "东氿公园", "address": "无锡市宜兴市太湖大道南侧", "image": "", "rank": 33, "time": 1.0, "location": {"lat": 31.36014246041972, "lng": 119.89960635431665}, "feature": {"sight_features": "", "sight_content": ""}}, {"title": "宜兴城市美术馆", "address": "无锡市宜兴市绿园路1号（宜能国际大酒店院内）", "image": "", "rank": 34, "time": 1.0, "location": {"lat": 31.354943977347123, "lng": 119.81146250126984}, "feature": {"sight_features": "", "sight_content": ""}}, {"title": "东风巷历史文化街区", "address": "无锡市宜兴市解放东路之北和东仓桥之间", "image": "", "rank": 35, "time": 0.75, "location": {"lat": 31.365627228619047, "lng": 119.84291872312642}, "feature": {"sight_features": "", "sight_content": ""}}, {"title": "云海间度假酒店温泉", "address": "无锡市宜兴云湖度假区", "image": "", "rank": 36, "time": 2, "location": {"lat": 31.237797163243744, "lng": 119.55207778238282}, "feature": {"sight_features": "", "sight_content": ""}}, {"title": "天一度假村", "address": "无锡市宜兴市和桥镇钟溪村", "image": "", "rank": 37, "time": 2, "location": {"lat": 31.513716596196932, "lng": 119.91656273858062}, "feature": {"sight_features": "", "sight_content": ""}}, {"title": "善卷洞国山碑", "address": "无锡市宜兴市涌金南路善卷 洞风景区内", "image": "", "rank": 38, "time": 2.0, "location": {"lat": 31.30427655764246, "lng": 119.67658934176372}, "feature": {"sight_features": "", "sight_content": ""}}, {"title": "吴冠中艺术馆", "address": "无锡市宜兴市陶都路2-1号", "image": "", "rank": 39, "time": 1.0, "location": {"lat": 31.331260606696098, "lng": 119.83553941824344}, "feature": {"sight_features": "", "sight_content": ""}}, {"title": "范蠡文化陈列馆", "address": "无锡市宜兴市湖滏镇陶祖圣境风景区内", "image": "", "rank": 40, "time": 1.0, "location": {"lat": 31.190411497433697, "lng": 119.73358018789409}, "feature": {"sight_features": "", "sight_content": ""}}, {"title": "历史名人馆", "address": "无锡市宜兴市人民南路南端龙背山内", "image": "", "rank": 41, "time": 1.0, "location": {"lat": 31.33271738958711, "lng": 119.82336964051652}, "feature": {"sight_features": "", "sight_content": ""}}, {"title": "黄塔顶", "address": "无锡市宜兴市张渚镇岭下村", "image": "", "rank": 42, "time": 1.0, "location": {"lat": 31.190459913044517, "lng": 119.67575235189294}, "feature": {"sight_features": "", "sight_content": ""}}, {"title": "茗岭山", "address": "无锡宜兴市张渚镇", "image": "", "rank": 43, "time": 1.0, "location": {"lat": 31.25180215279011, "lng": 119.65965828612192}, "feature": {"sight_features": "", "sight_content": ""}}, {"title": "宜兴丁蜀太湖绿道骑行", "address": "无锡市宜兴丁蜀太湖绿道，丁蜀现代农业产业园内（近G25丁山收费站）", "image": "", "rank": 44, "time": 3.5, "location": {"lat": 31.257400987260237, "lng": 119.89295040545406}, "feature": {"sight_features": "", "sight_content": ""}}, {"title": "金兰蛋糕DIY私家烘焙", "address": "无锡宜兴市和桥镇鹅洲东路105号（汇金购物中心旁）", "image": "", "rank": 45, "time": 2, "location": {"lat": 31.487641653275034, "lng": 119.90379598923212}, "feature": {"sight_features": "", "sight_content": ""}}, {"title": "瀛园", "address": "无锡市宜兴市大众路宜城镇南大街", "image": "", "rank": 46, "time": 1.5, "location": {"lat": 31.368046133433058, "lng": 119.824769062162}, "feature": {"sight_features": "", "sight_content": ""}}, {"title": "阳山荡公园水上项目", "address": "宜兴芳桥阳山荡公园（碧桂园正对面）", "image": "", "rank": 47, "time": 1.0, "location": {"lat": 31.411922288903686, "lng": 119.94275335853784}, "feature": {"sight_features": "", "sight_content": ""}}, {"title": "芙蓉山庄", "address": "无锡市宜兴市芙蓉寺", "image": "", "rank": 48, "time": 2, "location": {"lat": 31.342956624267874, "lng": 119.83160603216115}, "feature": {"sight_features": "", "sight_content": ""}}, {"title": "竹尖玻璃栈道", "address": "无锡市宜兴市湖父镇竹海村", "image": "", "rank": 49, "time": 1.5, "location": {"lat": 31.188569589037222, "lng": 119.72673072426193}, "feature": {"sight_features": "特色1 渺渺茫茫，一望无际，风景优美，环境幽静 特色2 来这里放松心情", "sight_content": "这里郁郁葱葱，翠绿如海，渺渺茫茫，一望无际，风景优美，环境幽静，翠林面积6万亩。\n“竹尖长廊”总长400米，低错落，蜿蜒起伏，分防水木板栈道、竹杆栈道和玻璃栈道三类，栈道宽度分别为1.2——4米。 徒步崎岖而幽深的竹竿栈道，在透明和干净的玻璃栈道上，如同进入原始竹林一样，潇洒飘逸，曲径清幽，虑心有节，挺拔坚韧，冬不落叶，四季长青，仿佛到了天上人间，既剌激震撼，又松散浪漫，令人叹为观止，流连忘返。\n走在空中看竹、站在竹尖观海，“竹尖长廊”是集徒步、观光、休闲、科普教育于一体的“竹海大观园”。"}}, {"title": "徐大宗祠", "address": "无锡宜兴市宜城镇溪隐村", "image": "", "rank": 50, "time": 0.5, "location": {"lat": 31.3615940363667, "lng": 119.8376771122723}, "feature": {"sight_features": "", "sight_content": ""}}, {"title": "宜兴竹海镜湖", "address": "Unnamed Road, 宜兴市无锡市江苏省中国", "image": "", "rank": 51, "time": 3.5, "location": {"lat": 31.342956624267874, "lng": 119.83160603216115}, "feature": {"sight_features": "", "sight_content": ""}}, {"title": "宜兴竹海国际氡泉", "address": "无锡宜兴市宜兴竹海国际会议中心酒店", "image": "", "rank": 52, "time": 3.5, "location": {"lat": 31.342956624267874, "lng": 119.83160603216115}, "feature": {"sight_features": "特色1 温泉来自地下1803米，含氡量全国罕见", "sight_content": "春生、夏长、秋收、冬藏。先人总结为“春日洗浴，升阳固脱;夏日浴泉，暑温可祛;秋日泡泉;肺润肠蠕;冬日洗池，丹田温灼。”\n\n\n竹海国际会议中心的温泉来自于地下1803米，常年出水温度在40度，含有氡、硒、锂、锶、锌、碘化物、偏硅酸等40多种微量元素，PH值为8.28，属弱碱性水。达到医药用理疗矿水标准。其中含氡量每升达49贝可，在全国实属罕见。\n\n\n氡泉可以治疗高血压、关节炎、痛风等30多种慢性病。\n\n氡泉可以调节神经功能，改善睡眠，有减肥、美容等功效，更能延缓衰老。"}}, {"title": "炫宇摩托艇俱乐部", "address": "无锡市宜兴芳桥阳山荡公园（碧桂园正对面）", "image": "", "rank": 53, "time": 2, "location": {"lat": 31.411922288903686, "lng": 119.94275335853784}, "feature": {"sight_features": "", "sight_content": ""}}, {"title": "兰山旅游度假区", "address": "无锡市宜兴市东南、太湖之滨", "image": "", "rank": 54, "time": 2, "location": {"lat": 31.342956624267874, "lng": 119.83160603216115}, "feature": {"sight_features": "", "sight_content": ""}}, {"title": "LOST IN真人密室逃脱", "address": "无锡市宜兴市王府综合楼7楼", "image": "", "rank": 55, "time": 2, "location": {"lat": 31.342956624267874, "lng": 119.83160603216115}, "feature": {"sight_features": "", "sight_content": ""}}, {"title": "富陶温泉", "address": "无锡市宜兴市阳羡生态旅游区阳岭路1号", "image": "", "rank": 56, "time": 2, "location": {"lat": 31.280993763252525, "lng": 119.66781903954431}, "feature": {"sight_features": "特色1 温泉四周竹林环抱", "sight_content": "富陶温泉位于宜兴阳羡生态旅游景区，四周竹林环抱，山水风光旖旎。温泉水源取自于地下2008米，出口水温53℃，日出水量 435吨。\n\n\n水质清澈，晶莹爽滑，经国土资源局检测，富陶温泉水中富含氡、偏硅酸、锌、锶、硒、锂等多种微量元素，其中氡、偏硅酸二种元素均达到国家理疗热矿水水质标准。\n经常侵泡含氡和偏硅酸的温泉水对于各类皮炎关节炎、皮肤病、心血管系统疾病等有一定的疗效，还有松弛神经、缓解压力等功效，浸泡后肤凝脂滑让人流连忘返。\n富陶温泉拥有39个温泉池，其中各具特色的露天竹林泡池共有36个，有加料区、原汤区、情侣区、亲子区，贴心的满足各位来宾不同的需要，让来宾在户外温泉泡汤的同时享受秀竹美景环抱带来的无限惬意。"}}, {"title": "宜兴美术馆", "address": "无锡市宜兴市公园路1号", "image": "", "rank": 57, "time": 1.0, "location": {"lat": 31.485275102265174, "lng": 119.89192654076105}, "feature": {"sight_features": "", "sight_content": ""}}, {"title": "潘汉年故居", "address": "无锡市宜兴市陆平村", "image": "", "rank": 58, "time": 0.75, "location": {"lat": 31.37188454557279, "lng": 119.71574629838425}, "feature": {"sight_features": "", "sight_content": ""}}, {"title": "合家欢乐园", "address": "无锡市宜兴市庆源大道（红星美凯龙国际家居广场旁）", "image": "", "rank": 59, "time": 2, "location": {"lat": 31.38490448153886, "lng": 119.8767191738215}, "feature": {"sight_features": "", "sight_content": ""}}, {"title": "宜兴竹林漂流", "address": "无锡市宜兴市湖父镇张阳村", "image": "", "rank": 60, "time": 3.5, "location": {"lat": 31.243776809960618, "lng": 119.7869229093484}, "feature": {"sight_features": "", "sight_content": ""}}]}