{"cityName": "弋阳", "days": 2, "cityImage": "", "spots": [{"title": "龟峰风景名胜区", "address": "上饶市弋阳县弋江镇杨桥路22号", "image": "", "rank": 1, "time": 4.0, "location": {"lat": 28.40564598502716, "lng": 117.44195807235822}, "feature": {"sight_features": "", "sight_content": ""}}, {"title": "叠山书院", "address": "上饶市弋阳县建设路", "image": "", "rank": 2, "time": 1.0, "location": {"lat": 28.411563124792366, "lng": 117.45031819390613}, "feature": {"sight_features": "", "sight_content": ""}}, {"title": "方志敏博物馆", "address": "江西省上饶市弋阳县广场北路", "image": "", "rank": 3, "time": 1.0, "location": {"lat": 28.413775066761414, "lng": 117.44149118345939}, "feature": {"sight_features": "", "sight_content": ""}}, {"title": "南岩寺景区", "address": "上饶市弋阳县南岩镇龟峰风景区", "image": "", "rank": 4, "time": 1.5, "location": {"lat": 28.322075456658037, "lng": 117.42978796136396}, "feature": {"sight_features": "特色1 国家级重点文物保护单位，名扬江南的千年古刹。", "sight_content": "佛陀山（南岩寺）又名南岩佛窟或南岩佛洞。在江西弋阳国家重点风景名胜区龟峰二景区（南岩景区）内，其三面红岩环绕，寺随岩架立，不瓦而栋，不檐而藩，岩下洞穴宽70米，高30米，进深30米，可置千余人。据中央美院金维诺教授和中国社科院世界宗教研究所丁明夷教授所考，该洞为我国最大的在自然洞窟中开凿的佛教石窟。\n南岩寺起于晋代，唐太和年间（827-835）僧人神曜重修，并在石壁上始凿石龛；宋嘉定年间（1208-1224）邑人王元长建殿门、堂庑，钟楼及架桥设亭，又续凿石为诸佛像。元至正年间（1341-1368）僧人嗣正再修；明崇祯年间（1628-1644）重修；明代邑人范有韬赠匾曰：“自然天地”；清康熙五年（1666）僧人园修增修。时俱规模如清弋知县刘临孙在《游南岩记》中所云：“就壁断石，成之如画，悬空空，令人肃肃生悸矣”。道光八年（1828）僧人空凡又重修堂房和厢房，后经民国年间再度重修，香火一直鼎盛，是名扬江南的千年古刹。\n南岩寺洞内现存石龛40余座，摩崖石刻10余处，依岩环列成半圆形，龛内雕有释迦牟尼、文珠、普贤、观音及十八罗汉等佛雕，体现了我国古代劳动人民高超的石雕技艺。虽然建国后因僧人返俗和文革期间遭受破坏。但1999年经省文化厅批准，弋阳县人民政府找回了被损的36尊佛像头，对该寺进行了整体修复，使得这座千年名刹得以重现昔日的辉煌。南岩寺现为省级重点文物保护单位（1959年批），正在申报国家级重点文物保护单位。2000年元旦正式对外开放，有“中华第一佛洞”之称誉，为龟峰风景名胜区的现佛教文化的主要景点之。"}}, {"title": "狮子峰", "address": "江西省上饶市弋阳县龟峰景区", "image": "", "rank": 5, "time": 0.5, "location": {"lat": 28.384082001230794, "lng": 117.4555063762417}, "feature": {"sight_features": "", "sight_content": ""}}, {"title": "老人峰", "address": "江西省上饶市弋阳县龟峰景区", "image": "", "rank": 6, "time": 2, "location": {"lat": 28.384082001230794, "lng": 117.4555063762417}, "feature": {"sight_features": "", "sight_content": ""}}, {"title": "仙人桥", "address": "江西省上饶市弋阳县龟峰景区", "image": "", "rank": 7, "time": 2, "location": {"lat": 28.384082001230794, "lng": 117.4555063762417}, "feature": {"sight_features": "", "sight_content": ""}}, {"title": "山泉水上乐园", "address": "上饶市弋阳县文星大道双岩寺景区内", "image": "", "rank": 8, "time": 2, "location": {"lat": 28.376795706286828, "lng": 117.43008239446935}, "feature": {"sight_features": "", "sight_content": "山泉水上乐园是一家大型标准水上乐园，位于双岩寺景区，环境优美，设有儿童戏水池，海浪池，标准游泳池，教练池等，让你游得放心，玩得开心。"}}, {"title": "阿沃里儿童乐园", "address": "上饶市弋阳县南岩镇东湖邓家", "image": "", "rank": 9, "time": 1.0, "location": {"lat": 28.345298256694317, "lng": 117.43246767946208}, "feature": {"sight_features": "", "sight_content": "弋阳县阿沃里儿童乐园是整个弋阳县中的大型游乐场，是一个集益智、健身、娱乐为一体的儿童游乐中心，乐园内设有高档四人蹦床、卡丁车、音乐旋转木马、自控飞机、滑滑梯、大型攀爬组合、多功能大象鼻子、秋千、双人滑索、轮胎拓展等能满足不同年龄层次的顾客娱乐需求。"}}, {"title": "樱花园", "address": "沿河路(近河边)", "image": "", "rank": 10, "time": 2.5, "location": {"lat": 40.64228347726066, "lng": 122.5173173722121}, "feature": {"sight_features": "", "sight_content": ""}}, {"title": "遂昌湖山红星坪温泉度假村", "address": "湖山乡红星坪村", "image": "", "rank": 11, "time": 2, "location": {"lat": 28.57403782544827, "lng": 118.97330403271394}, "feature": {"sight_features": "", "sight_content": ""}}, {"title": "弋阳腔剧团", "address": "胜利路134号", "image": "", "rank": 12, "time": 4.0, "location": {"lat": 39.15315264285657, "lng": 117.21360671299362}, "feature": {"sight_features": "", "sight_content": ""}}, {"title": "体育公园", "address": "凤凰大道与南岩北路交叉口西200米", "image": "", "rank": 13, "time": 1.0, "location": {"lat": 28.380642822927683, "lng": 117.45425081373251}, "feature": {"sight_features": "", "sight_content": ""}}, {"title": "公园路与方志敏大道交叉口", "address": "弋阳县", "image": "", "rank": 14, "time": 2, "location": {"lat": 28.384082001230794, "lng": 117.4555063762417}, "feature": {"sight_features": "", "sight_content": ""}}, {"title": "欢乐岛主题乐园", "address": "杨家桥西路25号附近", "image": "", "rank": 15, "time": 2.5, "location": {"lat": 28.40558590460413, "lng": 117.44073598700047}, "feature": {"sight_features": "", "sight_content": ""}}, {"title": "天主堂", "address": "弋江镇解放路287号", "image": "", "rank": 16, "time": 0.4, "location": {"lat": 28.4043800476055, "lng": 117.44105560499911}, "feature": {"sight_features": "", "sight_content": ""}}, {"title": "雪岭山庄", "address": "中畈乡中畈派出所附近", "image": "", "rank": 17, "time": 2, "location": {"lat": 28.55515453516996, "lng": 117.37617458317213}, "feature": {"sight_features": "", "sight_content": ""}}, {"title": "芳墩剧场", "address": "上饶市弋阳县", "image": "", "rank": 18, "time": 2, "location": {"lat": 28.384082001230794, "lng": 117.4555063762417}, "feature": {"sight_features": "", "sight_content": ""}}, {"title": "上海度假村", "address": "Z805附近", "image": "", "rank": 19, "time": 2.0, "location": {"lat": 23.100931760317003, "lng": 113.27528273950196}, "feature": {"sight_features": "", "sight_content": ""}}, {"title": "龙头山春辉度假村", "address": "204省道附近", "image": "", "rank": 20, "time": 2, "location": {"lat": 38.05803661623474, "lng": 114.77437992974008}, "feature": {"sight_features": "", "sight_content": ""}}, {"title": "弋阳博物馆", "address": "望江路", "image": "", "rank": 21, "time": 2.5, "location": {"lat": 47.338729111571375, "lng": 123.92954807921213}, "feature": {"sight_features": "", "sight_content": ""}}, {"title": "弋阳县城市规划展览馆", "address": "方志敏大道与公园路交汇处", "image": "", "rank": 22, "time": 2, "location": {"lat": 28.363614556839494, "lng": 117.4586983000567}, "feature": {"sight_features": "", "sight_content": ""}}, {"title": "东方龟王龟展馆", "address": "金归大酒店旁", "image": "", "rank": 23, "time": 2, "location": {"lat": 28.345799268140734, "lng": 117.41283078839336}, "feature": {"sight_features": "", "sight_content": ""}}, {"title": "彭家农场", "address": "683县道东150米(港口村)", "image": "", "rank": 24, "time": 2, "location": {"lat": 28.22153229638064, "lng": 117.36737514980624}, "feature": {"sight_features": "", "sight_content": ""}}, {"title": "弋阳县文化馆", "address": "广场北路18号", "image": "", "rank": 25, "time": 2, "location": {"lat": 38.433864319774315, "lng": 115.35088854076143}, "feature": {"sight_features": "", "sight_content": ""}}, {"title": "上饶圭峰", "address": "江西省弋阳县南信江南岸", "image": "", "rank": 26, "time": 2.0, "location": {"lat": 28.384082001230794, "lng": 117.4555063762417}, "feature": {"sight_features": "", "sight_content": ""}}, {"title": "弋阳卧佛", "address": "上饶市弋阳县南岩镇679县道", "image": "", "rank": 27, "time": 4.0, "location": {"lat": 28.37445031022474, "lng": 117.419452615119}, "feature": {"sight_features": "特色1 山是一尊佛，佛是一座山", "sight_content": "弋阳卧佛位于上饶市弋阳县龙门岩安家落户，该卧佛全长416米，佛身高差68米，系利用山势雕琢而成，自然山体展示着令人震撼的释迦牟尼涅盘群图的艺术神韵。山底岩洞相传为神禹所凿，因石骨盘绕如巨龙而名龙门岩。"}}, {"title": "老鹰戏小鸡", "address": "弋阳龟峰景区内", "image": "", "rank": 28, "time": 2, "location": {"lat": 28.31917298987524, "lng": 117.40865498289263}, "feature": {"sight_features": "", "sight_content": ""}}]}