{"cityName": "宜阳", "days": 2, "cityImage": "", "spots": [{"title": "灵山寺", "address": "洛阳市宜阳县锦屏镇城西7公里洛阳南岸", "image": "", "rank": 1, "time": 1.0, "location": {"lat": 34.523572906866676, "lng": 112.21844967746274}, "feature": {"sight_features": "特色1 独特的坐南向北寺庙 特色2 寺里香火旺盛，烧香拜佛、求子祈福的好去处", "sight_content": "灵山寺始建于公元1163年，距今已有800多年，明清两代几经重修，大悲阁.大雄宝殿梁柱仍为金代建筑。灵山寺原名报恩寺，传说凤凰山为周灵王逝安之处，因而得名灵山。寺又因山得名灵山寺。\n\n灵山寺又名“凤凰寺”、“报忠寺”、“报恩寺”，位于河南宜阳县城西8公里凤凰山北麓，前临临洛河，依山建寺。山溪萦绕寺前，潺潺东流，风景幽美。\n灵山寺始建于宋真宗年是（约998-1022年间），距今约有千年。始建者为憨体老祖，据《宜阳县志》中“报恩寺图”所示，寺内主体建筑有山门、前殿、毗庐殿、大雄殿、藏经后楼，以及左右配殿六座。毗庐殿和大雄宝殿面宽、进深各三间，单檐歇山顶，斗拱等保留有金朝遗构。后遭天灾人祸，寺院毁坏，民国八年，心空法师募资重修灵山寺。现存建筑有山门阁、中佛殿、天王殿、大雄宝殿、藏经楼、东西祖师楼等。\n\n灵山寺最独特的建筑为山门阁楼，此阁楼坐南朝北，下部为一砖筑平台，风格独特。灵山寺大雄殿内有明朝佛像三尊，即“三世佛”，栩栩如生，为河南省现存最早的泥塑作品，被列为河南省重点保护文物。灵山寺镇寺之宝为七级四面石砖塔，为明成化十七年所建造。寺门有千年银杏树，苍老挺拔。"}}, {"title": "洛阳花果山国家森林公园", "address": "河南省洛阳市宜阳县城文化路13号", "image": "", "rank": 2, "time": 2.5, "location": {"lat": 34.4310876555888, "lng": 111.83907014846854}, "feature": {"sight_features": "", "sight_content": "花果山又名女儿山，俗名石鸡山，地处洛阳市宜阳县西南部。山与嵩县、洛宁毗邻，距洛阳市区90公里。花果山山清水秀，风景宜人，实地状况与《西游记》描写的内容有许多吻合之处，因而文化底蕴丰厚、西游文化色彩浓郁。园内主要风景点有水帘洞、扬船沟、石院墙、石帘山、龙潭瀑、唐僧石、人云梯、南天门等200多处，集中分布在花山觅圣区、岳顶风光区、七峡飞瀑区、石院墙自然保护区及山麓名胜区内。"}}, {"title": "洛阳灵山莲花温泉度假区", "address": "洛阳市宜阳县锦屏镇灵山风景区", "image": "", "rank": 3, "time": 2.5, "location": {"lat": 34.51273041663007, "lng": 112.11055197126842}, "feature": {"sight_features": "特色1 汇聚山水灵气，感受灵山生态", "sight_content": "洛阳灵山莲花温泉度假区是由洛阳灵山国诚旅游发展有限公司投资兴建的综合型健康休闲旅游度假区，占地面积1500余亩，是洛阳市首家温泉一站式旅游胜地，集温泉养生、休闲度假、观光旅游、商务会议为一体的大型休闲度假区。\n生活在都市的人们压力较大，渴望自己的心灵得到放松，渴望自己紧张、焦躁的情绪能够在一个合适的场所得到释放和缓解。洛阳灵山莲花温泉度假区，依托灵山寺千年文化古韵和浓厚的温泉养生文化底蕴，并契合精品莲花观赏特色，让人们在最淳朴的乡间，亲近大自然沉淀内心，回归最初的自己。\n泡温泉，赏山景，听泉语，闻花香。此间，青山绕水，空气清新，环境幽雅，温泉之水取之自然，清澈透明，润肤养颜，为尘世之人洗却尘嚣，拂去沧桑，涤荡身心。躺于汤池里，尽情欣赏四周满目秀色，以及那朴素淡雅的充满着无尽古朴韵味的京派建筑，一切美景尽收眼底。温泉水滋润了肌肤，调节经络血脉，是大自然赐予人类的健康养身之道 。"}}, {"title": "洛阳七彩花海", "address": "洛阳市宜阳县A319与S247交叉口东50米", "image": "", "rank": 4, "time": 2.0, "location": {"lat": 34.54104694255354, "lng": 112.17946537426293}, "feature": {"sight_features": "", "sight_content": ""}}, {"title": "光武庙", "address": "洛阳市宜阳县三乡镇", "image": "", "rank": 5, "time": 0.35, "location": {"lat": 34.470895127239146, "lng": 111.82968396978809}, "feature": {"sight_features": "", "sight_content": ""}}, {"title": "龙潭寺", "address": "洛阳市宜阳县张坞乡岳社村东南", "image": "", "rank": 6, "time": 1.0, "location": {"lat": 34.426250102007806, "lng": 111.84722024529265}, "feature": {"sight_features": "", "sight_content": ""}}, {"title": "五花寺塔", "address": "洛阳市宜阳县三乡镇", "image": "", "rank": 7, "time": 0.35, "location": {"lat": 34.470895127239146, "lng": 111.82968396978809}, "feature": {"sight_features": "", "sight_content": ""}}, {"title": "玖玖温泉四合院", "address": "锦屏镇灵山村莲花水城东门北侧河堤路向西1200米", "image": "", "rank": 8, "time": 2, "location": {"lat": 25.671008243565097, "lng": 114.76351176552939}, "feature": {"sight_features": "", "sight_content": ""}}, {"title": "宜阳农场", "address": "323省道附近", "image": "", "rank": 9, "time": 3.5, "location": {"lat": 34.446399847459865, "lng": 118.679905964047}, "feature": {"sight_features": "", "sight_content": ""}}, {"title": "宜阳县图书馆采编部", "address": "文化北路与红旗中路交叉口西北50米", "image": "", "rank": 10, "time": 2, "location": {"lat": 34.521532559478, "lng": 112.18277109542099}, "feature": {"sight_features": "", "sight_content": ""}}, {"title": "同力垂钓园", "address": "河南省洛阳市宜阳县寻村", "image": "", "rank": 11, "time": 2, "location": {"lat": 34.55050319424674, "lng": 112.23491766559721}, "feature": {"sight_features": "", "sight_content": ""}}, {"title": "前村影剧院", "address": "河南省洛阳市宜阳县前村", "image": "", "rank": 12, "time": 2, "location": {"lat": 34.35033009871397, "lng": 112.10248943587557}, "feature": {"sight_features": "", "sight_content": ""}}, {"title": "红榴紫葡现代农业科技生态园", "address": "龙山线马窑村龙凤祥酒店西北100米", "image": "", "rank": 13, "time": 2, "location": {"lat": 40.67390881253705, "lng": 114.77180192767226}, "feature": {"sight_features": "", "sight_content": ""}}, {"title": "花果山避暑山庄", "address": "花果山乡花果山村4队", "image": "", "rank": 14, "time": 2, "location": {"lat": 28.55187270819725, "lng": 112.20534118237559}, "feature": {"sight_features": "", "sight_content": ""}}, {"title": "莲花水城清凉水世界", "address": "灵山大道北100米灵山莲花公园内", "image": "", "rank": 15, "time": 2, "location": {"lat": 34.51426038825563, "lng": 112.1093142904283}, "feature": {"sight_features": "", "sight_content": ""}}, {"title": "淘气堡游乐园", "address": "河南省洛阳市宜阳县S319(安虎线)", "image": "", "rank": 16, "time": 2, "location": {"lat": 34.443696548944196, "lng": 111.86902838839566}, "feature": {"sight_features": "", "sight_content": ""}}, {"title": "石陵镇影剧院", "address": "246省道东50米", "image": "", "rank": 17, "time": 2, "location": {"lat": 41.45829374987228, "lng": 114.52727494836084}, "feature": {"sight_features": "", "sight_content": ""}}, {"title": "洛阳花果山连云宫度假村", "address": "宜阳宜阳县木柴乡花山村花果山（花果山景区门口）", "image": "", "rank": 18, "time": 2.5, "location": {"lat": 34.35227366513451, "lng": 111.8492214444942}, "feature": {"sight_features": "", "sight_content": ""}}, {"title": "锦龙广场", "address": "河南省洛阳市宜阳县城关镇锦龙大道水晶城附近", "image": "", "rank": 19, "time": 2, "location": {"lat": 34.52533161208096, "lng": 112.19837954891128}, "feature": {"sight_features": "", "sight_content": ""}}, {"title": "宜阳县锦屏生态文化广场", "address": "丰源路与文明东路交叉口东100米", "image": "", "rank": 20, "time": 2, "location": {"lat": 34.52426485407487, "lng": 112.19708374680636}, "feature": {"sight_features": "", "sight_content": ""}}, {"title": "龙王渔村度假村", "address": "八官线龙王村南", "image": "", "rank": 21, "time": 2, "location": {"lat": 34.349567509688946, "lng": 111.43686704709401}, "feature": {"sight_features": "", "sight_content": ""}}, {"title": "宜阳财富广场", "address": "李贺大道与锦屏路交叉口西南角", "image": "", "rank": 22, "time": 2, "location": {"lat": 34.540077011091626, "lng": 112.17662046137386}, "feature": {"sight_features": "", "sight_content": ""}}, {"title": "宜阳县盛世祥龙度假村凤之巢", "address": "洛阳宜阳县家鑫购物广场西3公里", "image": "", "rank": 23, "time": 2, "location": {"lat": 34.539573859731405, "lng": 112.146394077252}, "feature": {"sight_features": "", "sight_content": ""}}, {"title": "义络煤业休闲广场", "address": "丰源路与华兴路交叉口西100米", "image": "", "rank": 24, "time": 2, "location": {"lat": 34.518460587278234, "lng": 112.19579985353758}, "feature": {"sight_features": "", "sight_content": ""}}, {"title": "金税文化广场", "address": "河南省洛阳市宜阳县s319", "image": "", "rank": 25, "time": 2, "location": {"lat": 34.54104694255354, "lng": 112.17946537426293}, "feature": {"sight_features": "", "sight_content": ""}}, {"title": "凤凰岭生态体育公园", "address": "河南省洛阳市宜阳县Y001", "image": "", "rank": 26, "time": 2, "location": {"lat": 34.54104694255354, "lng": 112.17946537426293}, "feature": {"sight_features": "", "sight_content": ""}}, {"title": "伯特利堂", "address": "洛阳市宜阳县", "image": "", "rank": 27, "time": 2, "location": {"lat": 34.54104694255354, "lng": 112.17946537426293}, "feature": {"sight_features": "", "sight_content": ""}}, {"title": "爱乐堡儿童乐园", "address": "道北50米", "image": "", "rank": 28, "time": 2, "location": {"lat": 41.20783012676974, "lng": 118.51884433602535}, "feature": {"sight_features": "", "sight_content": ""}}, {"title": "儿童智慧城", "address": "河南省洛阳市宜阳县锦屏镇安虎线灵山莲花公园", "image": "", "rank": 29, "time": 2, "location": {"lat": 34.51426038825563, "lng": 112.1093142904283}, "feature": {"sight_features": "", "sight_content": ""}}, {"title": "香鹿山镇革命老区历史纪念馆", "address": "河南省洛阳市宜阳县后庄村洛宜路香鹿山镇后庄小学", "image": "", "rank": 30, "time": null, "location": {"lat": 34.56979591503456, "lng": 112.28015262377286}, "feature": {"sight_features": "", "sight_content": ""}}, {"title": "信望爱基督教会", "address": "319省道附近", "image": "", "rank": 31, "time": 2, "location": {"lat": 37.11504268647356, "lng": 113.10986967570672}, "feature": {"sight_features": "", "sight_content": ""}}, {"title": "金丰园购物广场儿童游乐场(贠庄...", "address": "丰李镇贠庄村万福豪酒店西50米", "image": "", "rank": 32, "time": 2, "location": {"lat": 34.56573499953762, "lng": 112.34167715313411}, "feature": {"sight_features": "", "sight_content": ""}}, {"title": "东矿教会", "address": "南环路北50米", "image": "", "rank": 33, "time": 2, "location": {"lat": 23.013443933901662, "lng": 113.98317679912766}, "feature": {"sight_features": "", "sight_content": ""}}, {"title": "家鑫哈尔滨啤酒广场", "address": "锦屏路与李贺大道交叉口向北100米路西", "image": "", "rank": 34, "time": 2, "location": {"lat": 31.531854366152213, "lng": 121.72764301601296}, "feature": {"sight_features": "", "sight_content": ""}}, {"title": "蔡龙章烈士纪念碑", "address": "平莲线北50米", "image": "", "rank": 35, "time": 2, "location": {"lat": 34.39603609659401, "lng": 112.2443413341598}, "feature": {"sight_features": "", "sight_content": ""}}, {"title": "花果山流沙河漂流", "address": "洛阳市宜阳县花果山乡穆册村", "image": "", "rank": 36, "time": 2, "location": {"lat": 34.32511259749553, "lng": 111.90230981074338}, "feature": {"sight_features": "", "sight_content": "花果山流沙河漂流位于宜阳县花果山乡穆册村，漂流河道全程6.5公里，分为上下站，落差124米，漂流时长约2.5小时。流沙河漂流始终以安全为基础，险、惊、奇、趣为特点，乘坐橡皮艇漂流于河道中，两岸山高林密，绿茵遍野。置身其中，充分感受透心凉，心飞扬的畅爽。"}}, {"title": "香鹿山生态园", "address": "锦屏路", "image": "", "rank": 37, "time": 2, "location": {"lat": 31.222165830094696, "lng": 121.40809554501952}, "feature": {"sight_features": "", "sight_content": ""}}, {"title": "宜阳县一滴墨画廊", "address": "向荣市场与育新街交叉口", "image": "", "rank": 38, "time": 2, "location": {"lat": 34.52465238528608, "lng": 112.18148356760811}, "feature": {"sight_features": "", "sight_content": ""}}, {"title": "迪尼斯欢乐城水上乐园", "address": "锦龙大桥南迪尼斯欢乐城旁边", "image": "", "rank": 39, "time": 2, "location": {"lat": 34.53586190374699, "lng": 112.19810029896553}, "feature": {"sight_features": "", "sight_content": ""}}, {"title": "姜公庙", "address": "解放中路与向荣南路交叉口", "image": "", "rank": 40, "time": 2, "location": {"lat": 34.518401601270895, "lng": 112.19199323363394}, "feature": {"sight_features": "", "sight_content": ""}}, {"title": "灵山国际水城水上乐园", "address": "灵山大道莲花公园内", "image": "", "rank": 41, "time": 1.0, "location": {"lat": 44.61850992214026, "lng": 129.6697733156755}, "feature": {"sight_features": "", "sight_content": ""}}, {"title": "消夏戏水游乐场", "address": "矿口水晶城广场消夏戏水游乐场(黑暴舞蹈艺术学校对面)", "image": "", "rank": 42, "time": 2, "location": {"lat": 40.41654531492876, "lng": 115.53933297849107}, "feature": {"sight_features": "", "sight_content": ""}}, {"title": "盐镇后河生态漂流", "address": "城北盐镇乡政府后河水库", "image": "", "rank": 43, "time": 2, "location": {"lat": 36.656293630836586, "lng": 101.77240488175582}, "feature": {"sight_features": "", "sight_content": ""}}, {"title": "李学武牡丹瓷艺术馆", "address": "灵山大道16号", "image": "", "rank": 44, "time": 2, "location": {"lat": 32.20614463038883, "lng": 114.52457591399845}, "feature": {"sight_features": "", "sight_content": ""}}, {"title": "宜阳官庄胜利舞台", "address": "李贺大道附近S318", "image": "", "rank": 45, "time": 3.5, "location": {"lat": 34.540077011091626, "lng": 112.17662046137386}, "feature": {"sight_features": "", "sight_content": ""}}, {"title": "锦屏影剧院", "address": "人民北路与红旗中路交叉口向北180米路东", "image": "", "rank": 46, "time": 3.5, "location": {"lat": 34.52288979191596, "lng": 112.18758910312542}, "feature": {"sight_features": "", "sight_content": ""}}, {"title": "洛阳灵山莲花公园", "address": "洛阳市宜阳县安虎线", "image": "", "rank": 47, "time": 2.5, "location": {"lat": 34.443696548944196, "lng": 111.86902838839566}, "feature": {"sight_features": "", "sight_content": ""}}]}