{"cityName": "益阳", "days": "2", "cityImage": "", "spots": [{"title": "益阳奥林匹克公园", "address": "益阳市赫山区康富南路30号", "image": "", "rank": 1, "time": 2.0, "location": {"lat": 28.55772518978575, "lng": 112.35893277211548}, "feature": {"sight_features": "", "sight_content": ""}}, {"title": "山乡巨变第一村", "address": "益阳市赫山区谢林港镇清溪村", "image": "", "rank": 2, "time": 3.0, "location": {"lat": 28.558847789742074, "lng": 112.31734645066378}, "feature": {"sight_features": "", "sight_content": ""}}, {"title": "茶马古道风景区", "address": "益阳市安化县江南镇高城村", "image": "", "rank": 3, "time": null, "location": {"lat": 28.236212453234362, "lng": 111.37022635843363}, "feature": {"sight_features": "", "sight_content": ""}}, {"title": "白鹿寺", "address": "益阳市赫山区会龙路58号", "image": "", "rank": 4, "time": 1.5, "location": {"lat": 28.588593480985416, "lng": 112.34140705709629}, "feature": {"sight_features": "", "sight_content": ""}}, {"title": "湖南梓山湖国际高尔夫俱乐部", "address": "益阳市龙洲南路", "image": "", "rank": 5, "time": 2, "location": {"lat": 28.55884605487708, "lng": 112.36681698487892}, "feature": {"sight_features": "", "sight_content": ""}}, {"title": "罗溪瀑布", "address": "益阳市桃江县罗溪村", "image": "", "rank": 6, "time": 1.0, "location": {"lat": 28.371185799494267, "lng": 112.04525093976497}, "feature": {"sight_features": "", "sight_content": ""}}, {"title": "栖霞寺", "address": "益阳市资阳区会龙路58号", "image": "", "rank": 7, "time": 1.5, "location": {"lat": 28.588593480985416, "lng": 112.34140705709629}, "feature": {"sight_features": "", "sight_content": ""}}, {"title": "桃花江竹海风景区", "address": "益阳市桃江县桃花江镇崆峒村", "image": "", "rank": 8, "time": 1.0, "location": {"lat": 28.51079254216218, "lng": 112.20389074416406}, "feature": {"sight_features": "", "sight_content": ""}}, {"title": "响水洞漂流", "address": "益阳市安化县大福镇新桥黄皮村（宁乡沩山密印寺往安化方向1公里处）", "image": "", "rank": 9, "time": 2, "location": {"lat": 28.208937421248503, "lng": 111.95220056271442}, "feature": {"sight_features": "特色1 松林成荫，瀑布清泉！ 特色2 山泉漂流，自然、野性，刺激！ 特色3 漂流河道两岸峡谷幽深、杜鹃遍野！", "sight_content": "响水洞漂流坐落在宁乡沩山密印寺旁1公里处，位于世界黑茶文化中心的益阳安化新桥黄皮村境内的高落差原始次森林大峡谷内。\n响水洞漂流按AAAA级景区标准建造，以漂流为核心，以休闲洗浴、棋牌茶艺、垂钓野餐、写生创意、彩弾野战、拓展训练等为补充的户外活动基地。将逐步形成春季花香浴（赏花）、夏季漂流浴（漂流）、秋季森林浴（野战）、冬季温泉浴（泡澡）的“四季浴歌”新品牌。\n漂流河道两岸峡谷幽深、杜鹃遍野，松林成荫，瀑布清泉,河道蜿蜓曲折，水流湍急、水潭重叠、刺激无比，有一种原始、野性水世界的别样意境。\n响水洞漂流河道全长约4.8公里，漂流时长约2小时，总落差约200米，最大落差20米，属于大落差、强刺激的双人自助漂流。\n这里群山叠翠，峡谷幽深，植被茂密。途经响水洞、仙人桥、二水合金等奇异景观，给您带来有惊无险的动感世界和无与伦比的美妙意境。"}}, {"title": "云梦方舟国际度假区", "address": "益阳市资阳区云梦方舟国际度假区", "image": "", "rank": 10, "time": 2, "location": {"lat": 28.59723454973666, "lng": 112.33043548238085}, "feature": {"sight_features": "", "sight_content": ""}}, {"title": "华天恒温游泳", "address": "益阳市赫山区康富北路2号", "image": "", "rank": 11, "time": 2, "location": {"lat": 28.57289308327017, "lng": 112.35986172511423}, "feature": {"sight_features": "", "sight_content": ""}}, {"title": "龙泉洞", "address": "益阳市安化县马路镇环狮路18号", "image": "", "rank": 12, "time": 2.5, "location": {"lat": 28.37119540109665, "lng": 111.04046090132235}, "feature": {"sight_features": "", "sight_content": ""}}, {"title": "益阳现代农业嘉年华", "address": "益阳市赫山区沧水铺镇碧云峰村", "image": "", "rank": 13, "time": 1.0, "location": {"lat": 28.448717695732192, "lng": 112.42030572857114}, "feature": {"sight_features": "特色1 享受农趣、感受自然。 特色2 各种神奇水科技等你探秘。 特色3 为你开启一场益阳传统农耕文化之旅。", "sight_content": "益阳现代农业嘉年华位于赫山区沧水铺镇碧云峰村，园区总面积为533亩。整个园区分为五大功能:分别为综合服务区、农业嘉年华主题场馆区、乐活采摘区、奇趣乐园区、七彩花田区。\n一、综合服务区面积140.90亩，主要建设包括游客服务中心、办公中心、主题广场、生态停车场、生态餐厅、音乐喷泉等。\n二、 农业嘉年华主题场馆面积为63亩，分别以蔬菜、花卉、水文化、农耕文化为主题设计的蔬益芳田、花彩天地、水舞湘情、归园田居主题场馆。\n描绘海的故事，唤醒孩子热爱海洋的意识，孩子在游玩中既得到陶怡，又受到教益。\n\\"}}, {"title": "北峰山森林公园", "address": "益阳市赫山区 ‎", "image": "", "rank": 14, "time": 1.0, "location": {"lat": 28.584983567572916, "lng": 112.38059794000806}, "feature": {"sight_features": "", "sight_content": ""}}, {"title": "红岩风景区", "address": "益阳市安化县", "image": "", "rank": 15, "time": 1.0, "location": {"lat": 28.380053748765423, "lng": 111.21949270431685}, "feature": {"sight_features": "", "sight_content": ""}}, {"title": "梓山湖", "address": "湖南省益阳市赫山区朝阳街道", "image": "", "rank": 16, "time": 1.0, "location": {"lat": 28.55835705474522, "lng": 112.36185423410762}, "feature": {"sight_features": "", "sight_content": ""}}, {"title": "碧翠园休闲生态农庄", "address": "益阳市赫山区谢林港镇高桥村19号", "image": "", "rank": 17, "time": 2, "location": {"lat": 28.544495233966433, "lng": 112.30102222195869}, "feature": {"sight_features": "", "sight_content": ""}}, {"title": "裴公亭", "address": "", "image": "", "rank": 18, "time": 1.0, "location": {"lat": 28.205532651347465, "lng": 112.96912148225135}, "feature": {"sight_features": "", "sight_content": ""}}, {"title": "碧云峰", "address": "湖南省益阳市赫山区沧水铺镇", "image": "", "rank": 19, "time": 2, "location": {"lat": 28.448286095179842, "lng": 112.43406997431948}, "feature": {"sight_features": "", "sight_content": ""}}, {"title": "周立波故居", "address": "益阳市赫山区谢林港镇邓石桥村清溪组", "image": "", "rank": 20, "time": null, "location": {"lat": 28.546387841952942, "lng": 112.32314885927296}, "feature": {"sight_features": "", "sight_content": ""}}, {"title": "羞女山", "address": "益阳市桃江县修山镇", "image": "", "rank": 21, "time": 1.0, "location": {"lat": 28.62330794055689, "lng": 112.05456679818869}, "feature": {"sight_features": "", "sight_content": ""}}, {"title": "甜甜湾乐园", "address": "益阳市赫山区益阳大道666号海洋城3-4层", "image": "", "rank": 22, "time": 2, "location": {"lat": 28.57127869200534, "lng": 112.37724854772874}, "feature": {"sight_features": "", "sight_content": ""}}, {"title": "罗文花海涂鸦村", "address": "益阳市南县乌嘴乡罗文村", "image": "", "rank": 23, "time": 2, "location": {"lat": 29.360579922859802, "lng": 112.45505765726448}, "feature": {"sight_features": "", "sight_content": ""}}, {"title": "柘溪", "address": "益阳市安化县资水中游，距县城15公里", "image": "", "rank": 24, "time": 1.0, "location": {"lat": 28.49839822063343, "lng": 111.90447215279794}, "feature": {"sight_features": "", "sight_content": ""}}, {"title": "迷失空间", "address": "益阳市赫山区环保东路27号", "image": "", "rank": 25, "time": 2, "location": {"lat": 28.580984261304398, "lng": 112.36864451287902}, "feature": {"sight_features": "", "sight_content": ""}}, {"title": "胭脂湖", "address": "益阳市沅江市三眼塘", "image": "", "rank": 26, "time": 1.0, "location": {"lat": 28.765714775472762, "lng": 112.35939638938562}, "feature": {"sight_features": "", "sight_content": ""}}, {"title": "云梦方舟洞庭湖湿地体验馆", "address": "益阳市资阳区长春镇碑石仓村西南方向云梦方舟国际度假区（云梦方舟水上乐园正东200米）", "image": "", "rank": 27, "time": 2, "location": {"lat": 28.58489259692837, "lng": 112.34712578764893}, "feature": {"sight_features": "", "sight_content": ""}}, {"title": "皇家湖游乐园", "address": "益阳市资阳区皇家湖", "image": "", "rank": 28, "time": 2, "location": {"lat": 28.61827744995821, "lng": 112.36500428341128}, "feature": {"sight_features": "", "sight_content": ""}}, {"title": "永乐健康黑茶博物馆", "address": "十洲路", "image": "", "rank": 29, "time": 2, "location": {"lat": 28.587017507055986, "lng": 112.3933281938944}, "feature": {"sight_features": "", "sight_content": ""}}, {"title": "益阳博物馆", "address": "康复南路38号(康富南路与江海路交汇处东150米)益阳大剧院旁", "image": "", "rank": 30, "time": 2.5, "location": {"lat": 28.585539323349632, "lng": 112.35716863307468}, "feature": {"sight_features": "", "sight_content": ""}}, {"title": "益阳古城墙", "address": "湖南省益阳市资阳区资江东路362号", "image": "", "rank": 31, "time": 2.0, "location": {"lat": 28.595072474008816, "lng": 112.34375645478391}, "feature": {"sight_features": "", "sight_content": ""}}, {"title": "皇家湖旅游生态区", "address": "湖南益阳市资阳区北部", "image": "", "rank": 32, "time": 2, "location": {"lat": 28.59723454973666, "lng": 112.33043548238085}, "feature": {"sight_features": "", "sight_content": ""}}, {"title": "三阳水上乐园", "address": "益阳城际干道顺德城", "image": "", "rank": 33, "time": 2, "location": {"lat": 28.416219998614274, "lng": 112.48761737017503}, "feature": {"sight_features": "", "sight_content": ""}}, {"title": "会龙公园", "address": "湖南益阳市", "image": "", "rank": 34, "time": 1.5, "location": {"lat": 28.559711178489888, "lng": 112.36151595471031}, "feature": {"sight_features": "", "sight_content": ""}}, {"title": "益阳海洋城", "address": "益阳大道与教育路交汇处", "image": "", "rank": 35, "time": 1.0, "location": {"lat": 28.588668822431046, "lng": 112.37713342358953}, "feature": {"sight_features": "", "sight_content": ""}}, {"title": "林芳生态旅游村", "address": "湖南省益阳市赫山区沧水铺镇", "image": "", "rank": 36, "time": 2, "location": {"lat": 28.448286095179842, "lng": 112.43406997431948}, "feature": {"sight_features": "", "sight_content": ""}}, {"title": "青云洞", "address": "湖南省益阳市安化县马路镇和奎溪镇", "image": "", "rank": 37, "time": 2.5, "location": {"lat": 28.37119540109665, "lng": 111.04046090132235}, "feature": {"sight_features": "", "sight_content": ""}}, {"title": "湖南桃花江国家森林公园", "address": "湖南省桃江县桃花江镇 413400", "image": "", "rank": 38, "time": 2.5, "location": {"lat": 28.519881106594035, "lng": 112.188002543072}, "feature": {"sight_features": "", "sight_content": ""}}, {"title": "德昌公园", "address": "湖南省益阳市南县南洲西路", "image": "", "rank": 39, "time": 3.0, "location": {"lat": 29.382770940725123, "lng": 112.402842140361}, "feature": {"sight_features": "", "sight_content": ""}}, {"title": "秦汉桃源村", "address": "湖南省益阳市安化县奎溪镇达坳村", "image": "", "rank": 40, "time": 2, "location": {"lat": 28.22080326619148, "lng": 110.82928253498562}, "feature": {"sight_features": "", "sight_content": ""}}, {"title": "天鹅岛", "address": "湖南省安化县柘溪水库马辔区域", "image": "", "rank": 41, "time": 2.0, "location": {"lat": 28.380053748765423, "lng": 111.21949270431685}, "feature": {"sight_features": "", "sight_content": ""}}, {"title": "猎鹰真人CS俱乐部", "address": "益阳市赫山区金山南路鹿角园市场", "image": "", "rank": 42, "time": 2, "location": {"lat": 28.552666287271556, "lng": 112.34884858939608}, "feature": {"sight_features": "", "sight_content": ""}}, {"title": "《洞庭之夜·铁花焰火》", "address": "益阳市资阳区皇家湖《洞庭之夜·铁花焰火》演艺中心", "image": "", "rank": 43, "time": 2, "location": {"lat": 28.61827744995821, "lng": 112.36500428341128}, "feature": {"sight_features": "", "sight_content": ""}}, {"title": "飞羽农场", "address": "319国道白鹿铺公交站右行400米(白鹿铺公交站)", "image": "", "rank": 44, "time": 2, "location": {"lat": 28.902622265507468, "lng": 105.45063014659402}, "feature": {"sight_features": "", "sight_content": ""}}, {"title": "飞羽家庭农场有限责任公司", "address": "白鹿铺村(319国道)", "image": "", "rank": 45, "time": 2, "location": {"lat": 28.634205278054395, "lng": 112.31491590724283}, "feature": {"sight_features": "", "sight_content": ""}}, {"title": "胡林翼陈列馆", "address": "华联商业街茶业市场内", "image": "", "rank": 46, "time": 2, "location": {"lat": 28.58327782065686, "lng": 112.3948532651243}, "feature": {"sight_features": "", "sight_content": ""}}, {"title": "珠峰公园7d电影，水上乐园", "address": "金山北路-栖霞路秀峰公园", "image": "", "rank": 47, "time": 2, "location": {"lat": 28.573920984692553, "lng": 112.34941373301974}, "feature": {"sight_features": "", "sight_content": ""}}, {"title": "凤凰湖农场", "address": "021县道与312乡道交叉口西200米", "image": "", "rank": 48, "time": 2, "location": {"lat": 44.68008804841708, "lng": 126.65533258265752}, "feature": {"sight_features": "", "sight_content": ""}}, {"title": "七彩儿童美术馆", "address": "资江西路339号", "image": "", "rank": 49, "time": 2, "location": {"lat": 28.594446927223537, "lng": 112.3352224293741}, "feature": {"sight_features": "", "sight_content": ""}}, {"title": "雪界山", "address": "湖南省会同县罗溪乡 422328", "image": "", "rank": 50, "time": 2, "location": {"lat": 26.893383817273584, "lng": 109.74158556791785}, "feature": {"sight_features": "", "sight_content": ""}}, {"title": "湘北明珠", "address": "湖南省南县康富北路 413000", "image": "", "rank": 51, "time": 2, "location": {"lat": 29.373934801575526, "lng": 112.43327313780695}, "feature": {"sight_features": "", "sight_content": ""}}, {"title": "水上乐园", "address": "金山北路附近", "image": "", "rank": 52, "time": 2, "location": {"lat": 30.89816200762822, "lng": 121.20393055335668}, "feature": {"sight_features": "", "sight_content": ""}}, {"title": "益阳市花鼓戏剧院", "address": "康富南路与梓山西路交叉口东100米益阳市艺术团附近", "image": "", "rank": 53, "time": 1.0, "location": {"lat": 28.559751632234953, "lng": 112.3594914687357}, "feature": {"sight_features": "", "sight_content": ""}}, {"title": "太阳山农家乐", "address": "羊角塘镇", "image": "", "rank": 54, "time": 2, "location": {"lat": 26.60646287745331, "lng": 112.08209504893951}, "feature": {"sight_features": "", "sight_content": ""}}, {"title": "智立方密室逃脱", "address": "世纪城1号楼", "image": "", "rank": 55, "time": 2, "location": {"lat": 22.733346034346585, "lng": 114.47876943625828}, "feature": {"sight_features": "", "sight_content": ""}}, {"title": "安谰阁", "address": "万子湖村", "image": "", "rank": 56, "time": 2, "location": {"lat": 28.789572877946632, "lng": 112.43478430686078}, "feature": {"sight_features": "", "sight_content": ""}}, {"title": "农家乐酒楼", "address": "永兴路", "image": "", "rank": 57, "time": 2, "location": {"lat": 39.13022132708221, "lng": 117.06791200117846}, "feature": {"sight_features": "", "sight_content": ""}}, {"title": "金盆农场(三分场)", "address": "零零五县道", "image": "", "rank": 58, "time": 2, "location": {"lat": 41.94218328379205, "lng": 126.45811314187574}, "feature": {"sight_features": "", "sight_content": ""}}, {"title": "袁氏葡萄园", "address": "009县道与202省道交叉口西150米", "image": "", "rank": 59, "time": 2, "location": {"lat": 44.321504872459506, "lng": 125.34496535219758}, "feature": {"sight_features": "", "sight_content": ""}}, {"title": "金盆农场", "address": "401乡道附近", "image": "", "rank": 60, "time": 2, "location": {"lat": 47.37847367944935, "lng": 133.7966669840186}, "feature": {"sight_features": "", "sight_content": ""}}]}