{"cityName": "宜章", "days": 2, "cityImage": "", "spots": [{"title": "莽山国家森林公园", "address": "郴州市宜章县169县道附近", "image": "", "rank": 1, "time": 3.0, "location": {"lat": 25.405713969356206, "lng": 112.95547924076412}, "feature": {"sight_features": "", "sight_content": ""}}, {"title": "莽山森林温泉", "address": "郴州市宜章县莽山国家森林公园内", "image": "", "rank": 2, "time": 2, "location": {"lat": 24.953005190435714, "lng": 112.94719270930187}, "feature": {"sight_features": "特色1 闲心对定水，清静两无尘 特色2 格调新颖，恬静幽雅，依山而建，浑然天成", "sight_content": "湖南省郴州市aaaa级国家森林公园莽山门口，森林覆盖率达99%，酒店以其深厚的文化底蕴、独特的建筑风格、引领温泉沐浴潮流，是您休闲疗养，避暑观光，旅游度假的全新选择。\n\n泉园区环境优美宁静，空气清新，双瀑环拥入目、凉亭相映成趣，置身其中会使您心情豁然开朗。林泉相依是莽山森林温泉最具诱惑之处。温泉让森林平添几分浪漫，森林又让温泉多了几许惬意。呼吸着森林里清新的空气，享受温泉水掠过肌肤时的温润，这独特的雅趣享受是莽山森林温泉给您的超然意境：“闲心对定水，清静两无尘”。这里没有城市的喧嚣、污染，对久居都市、快节奏生活的城市人来说，夜色中尽情享受森林原野的宁静与舒适，确有一洗尘嚣、令人陶醉的愉悦。\n温泉区设有60多种不同功能特色的室内外温泉池，格调新颖，恬静幽雅，依山而建，浑然天成；超大豪华型空中spa馆—诺亚方舟，让您体验在悬崖上泡温泉，装修风格极具瑶家风情的铜鼓温泉及神秘的时光隧道、悠久的竹签文化、奇妙的梦幻星空，不同的意境，不同的感受。"}}, {"title": "天台山景区", "address": "郴州市宜章县169县道附近", "image": "", "rank": 3, "time": 2.5, "location": {"lat": 25.405713969356206, "lng": 112.95547924076412}, "feature": {"sight_features": "", "sight_content": ""}}, {"title": "猴王寨风景区", "address": "郴州市宜章县", "image": "", "rank": 4, "time": 1.5, "location": {"lat": 25.405713969356206, "lng": 112.95547924076412}, "feature": {"sight_features": "", "sight_content": ""}}, {"title": "猛坑石风景区", "address": "郴州市宜章县", "image": "", "rank": 5, "time": 1.0, "location": {"lat": 25.405713969356206, "lng": 112.95547924076412}, "feature": {"sight_features": "", "sight_content": ""}}, {"title": "宜章年关暴动指挥部旧址", "address": "湖南省郴州市宜章县", "image": "", "rank": 6, "time": 2, "location": {"lat": 25.405713969356206, "lng": 112.95547924076412}, "feature": {"sight_features": "", "sight_content": ""}}, {"title": "长成温泉水上乐园", "address": "郴州市宜章县五岭乡用口村", "image": "", "rank": 7, "time": 2, "location": {"lat": 25.455657367312696, "lng": 113.06101401356777}, "feature": {"sight_features": "", "sight_content": ""}}, {"title": "珠江源漂流", "address": "郴州市宜章县莽山国家森林公园内", "image": "", "rank": 8, "time": 2, "location": {"lat": 24.953005190435714, "lng": 112.94719270930187}, "feature": {"sight_features": "", "sight_content": ""}}, {"title": "莽山自然博物馆", "address": "湖南省郴州市宜章县088县道 ‎", "image": "", "rank": 9, "time": 1.5, "location": {"lat": 25.03506695753412, "lng": 112.83987405895947}, "feature": {"sight_features": "", "sight_content": ""}}, {"title": "崖子石景区", "address": "湖南省宜章县境内莽山国家森林公园", "image": "", "rank": 10, "time": 2, "location": {"lat": 24.98585022766175, "lng": 112.85361530539186}, "feature": {"sight_features": "", "sight_content": ""}}, {"title": "龙门山生态农庄", "address": "白石渡镇金钗坪村桃李湾", "image": "", "rank": 11, "time": 2, "location": {"lat": 25.40743646582091, "lng": 113.03147849646065}, "feature": {"sight_features": "", "sight_content": ""}}, {"title": "太平洋温泉", "address": "五岭镇用口村吊钟岭", "image": "", "rank": 12, "time": 2, "location": {"lat": 25.455657367312696, "lng": 113.06101401356777}, "feature": {"sight_features": "", "sight_content": ""}}, {"title": "塘岭火龙果种植园", "address": "栗源镇塘岭村", "image": "", "rank": 13, "time": null, "location": {"lat": 25.192963920887244, "lng": 112.99002228018914}, "feature": {"sight_features": "", "sight_content": ""}}, {"title": "钓鱼休闲山庄", "address": "莽山乡永安村", "image": "", "rank": 14, "time": 2, "location": {"lat": 24.98585022766175, "lng": 112.85361530539186}, "feature": {"sight_features": "", "sight_content": ""}}, {"title": "洞江温泉", "address": "一六镇", "image": "", "rank": 15, "time": 2, "location": {"lat": 25.17031111983812, "lng": 112.8550123150866}, "feature": {"sight_features": "", "sight_content": ""}}, {"title": "金利温泉", "address": "一六镇国道旁", "image": "", "rank": 16, "time": 2, "location": {"lat": 25.17031111983812, "lng": 112.8550123150866}, "feature": {"sight_features": "", "sight_content": ""}}, {"title": "鑫旺温泉", "address": "107国道", "image": "", "rank": 17, "time": 2, "location": {"lat": 23.102877208493197, "lng": 113.67228113407819}, "feature": {"sight_features": "", "sight_content": ""}}, {"title": "金福温泉", "address": "107国道", "image": "", "rank": 18, "time": 2, "location": {"lat": 23.102877208493197, "lng": 113.67228113407819}, "feature": {"sight_features": "", "sight_content": ""}}, {"title": "人和温泉", "address": "107国道", "image": "", "rank": 19, "time": 2, "location": {"lat": 23.102877208493197, "lng": 113.67228113407819}, "feature": {"sight_features": "", "sight_content": ""}}, {"title": "湘南起义纪念馆", "address": "中厦街26号", "image": "", "rank": 20, "time": 2, "location": {"lat": 25.404436846098424, "lng": 112.95700600080838}, "feature": {"sight_features": "", "sight_content": ""}}, {"title": "汤湖里露天温泉", "address": "一六镇汤湖里村", "image": "", "rank": 21, "time": 2, "location": {"lat": 25.164343237122758, "lng": 112.88879360850721}, "feature": {"sight_features": "", "sight_content": ""}}, {"title": "大众温泉住宿", "address": "一六镇汤湖里村", "image": "", "rank": 22, "time": 2, "location": {"lat": 25.164343237122758, "lng": 112.88879360850721}, "feature": {"sight_features": "", "sight_content": ""}}, {"title": "绿色休闲农庄", "address": "莽山瑶族乡街道赵家村入口县道旁变电站旁", "image": "", "rank": 23, "time": 2, "location": {"lat": 26.01420207406279, "lng": 112.3595329632638}, "feature": {"sight_features": "", "sight_content": ""}}, {"title": "艮岩", "address": "湖南省宜章县江田镇石门村 424200", "image": "", "rank": 24, "time": 2, "location": {"lat": 25.405713969356206, "lng": 112.95547924076412}, "feature": {"sight_features": "", "sight_content": ""}}, {"title": "宜章红色森林公园", "address": "城北街宜章县水利局附近", "image": "", "rank": 25, "time": 2, "location": {"lat": 25.412942303087778, "lng": 112.96242396969333}, "feature": {"sight_features": "", "sight_content": ""}}, {"title": "东升湖公园", "address": "郴州市宜章县玉溪镇长冲村", "image": "", "rank": 26, "time": 2, "location": {"lat": 25.407632375118258, "lng": 112.98079495695984}, "feature": {"sight_features": "", "sight_content": ""}}, {"title": "八角寨", "address": "湖南省新宁县崀山镇黄背村 422702", "image": "", "rank": 27, "time": 1.5, "location": {"lat": 26.287977493154226, "lng": 110.76989151536581}, "feature": {"sight_features": "", "sight_content": ""}}, {"title": "腊元古村", "address": "笆篱镇对江水村西南侧400米", "image": "", "rank": 28, "time": 2, "location": {"lat": 25.092819304207694, "lng": 112.90276543738766}, "feature": {"sight_features": "", "sight_content": ""}}, {"title": "卡奇乐儿童乐园", "address": "湖南省郴州市宜章县民主西路22号", "image": "", "rank": 29, "time": 2, "location": {"lat": 25.402042048602123, "lng": 112.95218858868208}, "feature": {"sight_features": "", "sight_content": ""}}, {"title": "星火广场", "address": "郴州市宜章县府前街7号", "image": "", "rank": 30, "time": 2, "location": {"lat": 25.405332446696974, "lng": 112.95726655432145}, "feature": {"sight_features": "", "sight_content": ""}}, {"title": "阳光财富广场", "address": "宜章大道与文明南路交叉口东150米", "image": "", "rank": 31, "time": 2, "location": {"lat": 25.38994349681296, "lng": 112.95184010453418}, "feature": {"sight_features": "", "sight_content": ""}}, {"title": "宜章县红色文化广场", "address": "民主西路7号附近", "image": "", "rank": 32, "time": 2, "location": {"lat": 36.04954840445985, "lng": 103.8432112179995}, "feature": {"sight_features": "", "sight_content": ""}}, {"title": "牛过缸生态度假村", "address": "湖南省郴州市宜章县S353", "image": "", "rank": 33, "time": 2, "location": {"lat": 25.405713969356206, "lng": 112.95547924076412}, "feature": {"sight_features": "", "sight_content": ""}}, {"title": "粤客收购物广场", "address": "107国道附近", "image": "", "rank": 34, "time": 2, "location": {"lat": 23.102877208493197, "lng": 113.67228113407819}, "feature": {"sight_features": "", "sight_content": ""}}, {"title": "熊熊仔儿童游艺乐园", "address": "湖南省郴州市宜章县文明南路44号", "image": "", "rank": 35, "time": 2.5, "location": {"lat": 25.397820587911205, "lng": 112.95574573746646}, "feature": {"sight_features": "", "sight_content": ""}}, {"title": "宜人广场", "address": "郴州市宜章县东昇华城19栋2单元", "image": "", "rank": 36, "time": 1.5, "location": {"lat": 25.409063418078617, "lng": 112.97039390954818}, "feature": {"sight_features": "", "sight_content": ""}}, {"title": "泰山广场", "address": "湖南省郴州市宜章县宜章大道", "image": "", "rank": 37, "time": 0.75, "location": {"lat": 25.395157232833128, "lng": 112.94774758722538}, "feature": {"sight_features": "", "sight_content": ""}}, {"title": "水上乐园", "address": "湖南省郴州市宜章县莽山国家森林公园", "image": "", "rank": 38, "time": 2, "location": {"lat": 24.98642287852338, "lng": 112.89250285299065}, "feature": {"sight_features": "", "sight_content": ""}}, {"title": "龙泉庵", "address": "郴州市宜章县", "image": "", "rank": 39, "time": 1.0, "location": {"lat": 25.405713969356206, "lng": 112.95547924076412}, "feature": {"sight_features": "", "sight_content": ""}}, {"title": "金钟温泉", "address": "107国道", "image": "", "rank": 40, "time": 2, "location": {"lat": 23.102877208493197, "lng": 113.67228113407819}, "feature": {"sight_features": "", "sight_content": ""}}, {"title": "汤湖里水上乐园", "address": "一六镇汤湖里村", "image": "", "rank": 41, "time": 2, "location": {"lat": 25.164343237122758, "lng": 112.88879360850721}, "feature": {"sight_features": "", "sight_content": ""}}, {"title": "汤方英家庭住宿", "address": "丛树坝小区", "image": "", "rank": 42, "time": 2, "location": {"lat": 24.988395989489373, "lng": 112.8866850285606}, "feature": {"sight_features": "", "sight_content": ""}}, {"title": "新坪山果场", "address": "油站西北200米", "image": "", "rank": 43, "time": 2, "location": {"lat": 30.919434531973316, "lng": 112.29232240868623}, "feature": {"sight_features": "", "sight_content": ""}}, {"title": "莽山漂流", "address": "莽山瑶族自治乡莽山森林公园", "image": "", "rank": 44, "time": 2, "location": {"lat": 24.993136368498288, "lng": 112.86379449739347}, "feature": {"sight_features": "", "sight_content": ""}}, {"title": "云琳红农庄", "address": "梅田镇竹坪村云琳红农庄(宜凤高速梅田下高速右转5分钟)", "image": "", "rank": 45, "time": 2, "location": {"lat": 25.30494814426223, "lng": 112.84270684741813}, "feature": {"sight_features": "", "sight_content": ""}}, {"title": "闯王纸浆湖", "address": "湖南省宜章县莽山", "image": "", "rank": 46, "time": 2, "location": {"lat": 24.98585022766175, "lng": 112.85361530539186}, "feature": {"sight_features": "", "sight_content": ""}}, {"title": "湘粤古道", "address": "湖南省临武县南关街", "image": "", "rank": 47, "time": 2, "location": {"lat": 25.282527010968707, "lng": 112.57041115183141}, "feature": {"sight_features": "", "sight_content": ""}}, {"title": "猴王寨", "address": "湖南省宜章县客店镇", "image": "", "rank": 48, "time": 1.5, "location": {"lat": 25.405713969356206, "lng": 112.95547924076412}, "feature": {"sight_features": "", "sight_content": ""}}, {"title": "宜章女人街", "address": "湖南省宜章县文明南路13号", "image": "", "rank": 49, "time": 2.0, "location": {"lat": 25.404285894643923, "lng": 112.9588034203027}, "feature": {"sight_features": "", "sight_content": ""}}, {"title": "中南第一险", "address": "郴州市-宜章县-莽山国家森林公园", "image": "", "rank": 50, "time": 2, "location": {"lat": 24.98585022766175, "lng": 112.85361530539186}, "feature": {"sight_features": "", "sight_content": ""}}, {"title": "倒水窝", "address": "郴州市-宜章县", "image": "", "rank": 51, "time": null, "location": {"lat": 25.405713969356206, "lng": 112.95547924076412}, "feature": {"sight_features": "", "sight_content": ""}}, {"title": "邓中夏故居", "address": "郴州市宜章县邓家湾村", "image": "", "rank": 52, "time": 2, "location": {"lat": 25.475250822813564, "lng": 113.04885367973067}, "feature": {"sight_features": "", "sight_content": ""}}]}