{"cityName": "仪征", "days": 2, "cityImage": "", "spots": [{"title": "扬州天乐湖嬉乐谷", "address": "扬州市仪征市谢集乡四庄村江扬路", "image": "", "rank": 1, "time": 1.5, "location": {"lat": 32.39274764067492, "lng": 119.15055197102383}, "feature": {"sight_features": "特色1 生态立园，健康生活，低碳环保的生态旅游胜地。", "sight_content": "仪征江扬天乐湖旅游度假区位于扬州市西郊的山水生态名镇——月塘镇，与扬州新城西区一脉相承，即将延伸的文昌西路穿园而过。项目总占地3000余亩，规划建设用地20万平方米，总投资15亿人民币。\n项目由生态农业、休闲娱乐、观光旅游、养身度假四大板块组成。公司秉承“生态立园，健康生活”的理念，走低碳环保可持续发展道路，打造一片集休闲、观光、娱乐、度假为一体的神态旅游胜地！\n本度假区内设置以下项目：动物骑乘 跑马道内骑乘大马（身高1.5米（不含）以上）\n可爱动物区：各类特色动物观赏天乐湖秀：皮划艇、竹筏、双人/四人电动车、双人/四人小蜜蜂、情侣船、水上自行车、健身广场\n海盗船游戏区：(攀网\\蹦蹦床儿童滑滑梯跷跷板秋千)儿童水上游乐区：碰碰船、水上步行球（悠波球）、射箭场/飞碟打靶、卡丁车、运动类活动：水上高尔夫、沙滩排球、团体康乐活动：攀岩、速降、高空滑锁，等你来体验。"}}, {"title": "红山体育公园", "address": "扬州市仪征市锦绣大道与四零五乡道交叉口西北侧", "image": "", "rank": 2, "time": 2.5, "location": {"lat": 32.33030559046391, "lng": 119.0753482663398}, "feature": {"sight_features": "特色1 依托独特的山坡、森林、水库资源，因地生势，借物造景，围绕“健身、运动、励志、益智、养心”主题，着力打造融户外康体运动和生态休闲于一体的体育主题公园。 特色2 是集运动、商务、休闲、旅游度假为一体的综合性体育主题公园。 特色3 度假村地理位置优越，距宁、镇、扬主城仅1小时和半小时车程，依托独特的山坡、森林、水库资源，因地生势，借物造景，围绕“运动、励志、益智、养心”主题，着力打造集户外康体和生态休闲于一体的度假村。", "sight_content": "依托独特的山坡、森林、水库资源，因地生势，借物造景，围绕“健身、运动、励志、益智、养心”主题，着力打造融户外康体运动和生态休闲于一体的体育主题公园。\n是集运动、商务、休闲、旅游度假为一体的综合性体育主题公园。\n度假村地理位置优越，距宁、镇、扬主城仅1小时和半小时车程，依托独特的山坡、森林、水库资源，因地生势，借物造景，围绕“运动、励志、益智、养心”主题，着力打造集户外康体和生态休闲于一体的度假村。\n户外双人动力滑翔伞、越野卡丁车、马术、射箭、真人CS镭战、垂钓、游船、飞碟打靶等娱乐健身项目丰富多彩，红山体育公园（度假村）在自然山水中给您一个全新的户外生活。"}}, {"title": "扬州芍药园", "address": "扬州市仪征市宁通高速十五里墩收费站旁", "image": "", "rank": 3, "time": 2.5, "location": {"lat": 32.305678821230835, "lng": 119.09994778871332}, "feature": {"sight_features": "", "sight_content": ""}}, {"title": "天乐湖温泉", "address": "扬州仪征市谢集乡四庄村江扬路", "image": "", "rank": 4, "time": 2, "location": {"lat": 32.39274764067492, "lng": 119.15055197102383}, "feature": {"sight_features": "特色1 东南亚风情温泉主题精品酒店 特色2 风光秀美，自然曲折的脉脉清流，高低起伏的秀山坡岗", "sight_content": "江扬温泉养生庄园属于地质遗迹类型自然保护区，位于扬州西郊月塘镇马集出口，仪征市谢集乡境内。风光秀美，自然曲折的脉脉清流，高低起伏的秀山坡岗，鳞次栉比的楼阁亭台，四季芬芳的佳木鲜花，集北方妙景之雄，兼南方佳境之秀。\n1991年获国家级鉴定地下蕴藏着丰富的矿泉水资源，天乐湖温泉泉井深度2530米，是华东地区真正的温泉，温泉养生会所是天乐湖的核心休闲项目之一，共有室内和室外两大温泉区域，水温常年恒温在55度，温泉度假区设计精细，布局优雅，注重品味。室内大泡池2个，室外泡池30多个，间距私密，玲珑雅致，分布在风景优美的湖边，所有温泉池都具有观景功能。\n温泉酒店客房设施齐备，环境优美，设有标准间和观光湖景套房，装饰精典高雅、宽敞舒适，既蕴含着浓郁的欧州风情，又充分与中国山水环境结合，让您充分领略到多元的酒店文化氛围。酒店秉承游客至上无微不至的服务理念， 配置和管理与国际化标准接轨，让人宾至如归，流连忘返。\n温泉度假区拥有一流的影吧、棋牌、台球、保健、按摩、SPA以及大型泳池等康乐设施，为您的商务接待、休闲娱乐提供优质高效的超值享受。会议室宽敞、明亮，流光溢彩又不失幽雅富丽，配备了全套视听和会议设备，并能根据客人要求调整室内布局，满足不同需求的会务要求。\n餐饮中心可承接大型婚宴寿宴和会议用餐，菜品以本地特色淮扬菜为主，选料结合扬仪地区自产原料和度假区自产有机食材，制定出具有养生、健康的品种，让客人感受到与城市酒店不同的风味，给人以全新的自然、生态、健康的味觉体验。代表菜品有清炖蟹粉狮子头、拆烩鲢鱼头、扒烧整猪头等，另可根据客人特殊需要制作出粤系、川系菜肴。温泉区配套完善，综合了住宿、特色餐饮、会议、休闲度假多种功能。"}}, {"title": "仪征博物馆", "address": "江苏省仪征市解放西路201号", "image": "", "rank": 5, "time": 1.5, "location": {"lat": 32.27578959883963, "lng": 119.17989607450771}, "feature": {"sight_features": "", "sight_content": ""}}, {"title": "扬子公园", "address": "扬州市仪征市仪征物价局西南侧鼓楼西路", "image": "", "rank": 6, "time": 1.5, "location": {"lat": 32.274552662180874, "lng": 119.18317605741629}, "feature": {"sight_features": "", "sight_content": ""}}, {"title": "石柱山", "address": "扬州市仪征市陈集镇和谢集乡的交界处", "image": "", "rank": 7, "time": null, "location": {"lat": 32.431951015024005, "lng": 119.14223004362684}, "feature": {"sight_features": "", "sight_content": ""}}, {"title": "润德菲尔庄园", "address": "扬州市仪征市西郊新集庙山", "image": "", "rank": 8, "time": 2, "location": {"lat": 32.27809048316069, "lng": 119.19146705795117}, "feature": {"sight_features": "", "sight_content": ""}}, {"title": "白沙公园", "address": "扬州市仪征市环东路18号", "image": "", "rank": 9, "time": 1.0, "location": {"lat": 32.2927334953612, "lng": 119.1629810275684}, "feature": {"sight_features": "", "sight_content": ""}}, {"title": "扬州西郊森林公园", "address": "扬州市仪征市刘集镇境内", "image": "", "rank": 10, "time": 2.5, "location": {"lat": 32.47042385838011, "lng": 119.29064816083289}, "feature": {"sight_features": "", "sight_content": ""}}, {"title": "滨江公园", "address": "扬州市仪征市长江堤边", "image": "", "rank": 11, "time": 3.5, "location": {"lat": 32.236835430588556, "lng": 119.20735131279237}, "feature": {"sight_features": "", "sight_content": ""}}, {"title": "天宁寺塔", "address": "扬州市仪征市工农南路", "image": "", "rank": 12, "time": 1.5, "location": {"lat": 32.26991189573992, "lng": 119.19235497635455}, "feature": {"sight_features": "", "sight_content": ""}}, {"title": "东岳庙", "address": "扬州市仪征市前进路", "image": "", "rank": 13, "time": 2.5, "location": {"lat": 32.2713326508147, "lng": 119.19449342675667}, "feature": {"sight_features": "", "sight_content": ""}}, {"title": "仪征鼓楼", "address": "扬州市仪征市国庆路（鼓楼东路口）", "image": "", "rank": 14, "time": 0.5, "location": {"lat": 32.271258110698675, "lng": 119.1897733801664}, "feature": {"sight_features": "", "sight_content": ""}}, {"title": "翔宇生态园", "address": "扬州市仪征市陈集镇杨庄村", "image": "", "rank": 15, "time": 3.0, "location": {"lat": 32.46778450645454, "lng": 119.16407189564411}, "feature": {"sight_features": "", "sight_content": ""}}, {"title": "龙山风景区", "address": "扬州市仪征市青山镇西北处", "image": "", "rank": 16, "time": 1.0, "location": {"lat": 32.28158583496791, "lng": 119.07022842978063}, "feature": {"sight_features": "", "sight_content": ""}}, {"title": "捺山地质公园", "address": "扬州市仪征市月塘镇环山路1号", "image": "", "rank": 17, "time": 3.0, "location": {"lat": 32.42709179993559, "lng": 119.14080936088654}, "feature": {"sight_features": "特色1 玄武岩地质公园", "sight_content": "仪征•捺山地质公园位于扬州市西郊的山水生态名镇——月塘镇，与扬州新城西区一脉相承，S333省道从景区门口旁穿过，扬州市东西向的主干道文昌西路\n和扬冶路均直达捺山。\n国顶级的玄武岩地质公园，世界一流的矿坑花园。\n入口广场、主题雕塑、游客接待中心、地方特产购物中心、地心之旅、虫洞探秘、大石柱、时间简史（地质博物馆）、白龙潭、白龙潭茶坊、天籁谷、雨花石\n溪、飞来石、黑沙谷等景点组成，打造一个融观光、赏奇、探胜、休闲、科普、拓展运动为一体的地质公园。\n有道是“山不在高，有特则灵”。特色是旅游的灵魂，是形象、是召唤！随着仪征捺山地质公园建成开业，将会给中国乃至世界各地游客一个“不一样的扬州”\n的心理体验和游赏召唤。\n利用捺山良好的山林缓坡在其四周的环线上建设五个功能区。五个功能区分别为：一是汽车房车营地区；二是生态养生公社区；三是茶山度假区；四是温泉度\n假区；五是生态保育区。"}}, {"title": "铜山森林公园", "address": "扬州市仪征市马集镇铜山卫生院东侧500米", "image": "", "rank": 18, "time": 2.5, "location": {"lat": 32.348281318215605, "lng": 119.12222985624408}, "feature": {"sight_features": "", "sight_content": ""}}, {"title": "地藏寺", "address": "扬州市仪征市陈集镇孔雀山公园处", "image": "", "rank": 19, "time": 1.0, "location": {"lat": 32.48239793864004, "lng": 119.19907848138472}, "feature": {"sight_features": "", "sight_content": ""}}, {"title": "康大葡萄庄园", "address": "扬州市仪征市枣林湾生态园汉金大道", "image": "", "rank": 20, "time": 2.5, "location": {"lat": 32.337404251008174, "lng": 119.07261894381051}, "feature": {"sight_features": "", "sight_content": ""}}, {"title": "白龙庙", "address": "扬州市仪征市刘集镇白羊山上（扬州西郊森林公园内）", "image": "", "rank": 21, "time": 0.75, "location": {"lat": 32.432715666543565, "lng": 119.25099093697554}, "feature": {"sight_features": "", "sight_content": ""}}, {"title": "扬州枣林湾园博园", "address": "扬州市仪征市枣林湾旅游度假区", "image": "", "rank": 22, "time": 3.5, "location": {"lat": 32.27809048316069, "lng": 119.19146705795117}, "feature": {"sight_features": "", "sight_content": "2018年9月28日至10月28日第十届江苏省园艺博览会在扬州枣林湾园博园举办\n利用枣林湾现有地形地貌、水系、植被等自然要素，传承以《园冶》文化和扬州园林为代表的传统造园技艺，广泛运用生态、环保、海绵等绿色科技，通过江苏地景园和“百变空间、花样生活”意境的营造，突出江苏特色表达、彰显地理微景观特色、植物季相特征、建筑文化特质和城市林荫路绿化风貌特点，建设的融示范性、文化性、参与性于一体的区域郊野公园和大地景观。"}}, {"title": "石柱山金陵大酒店空中温泉", "address": "扬州市仪征市月塘镇环山西路3号", "image": "", "rank": 23, "time": null, "location": {"lat": 32.42709179993559, "lng": 119.14080936088654}, "feature": {"sight_features": "", "sight_content": ""}}, {"title": "青马车寨生态农场", "address": "枣林湾生态园沙河渠桥与长山路交叉口南100米青马车寨越野基地有限公司内", "image": "", "rank": 24, "time": 2, "location": {"lat": 32.337404251008174, "lng": 119.07261894381051}, "feature": {"sight_features": "", "sight_content": ""}}, {"title": "澄虚阁城市书房", "address": "仪征市解放东路东园湿地公园内", "image": "", "rank": 25, "time": 2.0, "location": {"lat": 32.279733501660296, "lng": 119.20718779064717}, "feature": {"sight_features": "", "sight_content": ""}}, {"title": "曹庄农家乐", "address": "万年村曹庄组胥浦河边", "image": "", "rank": 26, "time": 2, "location": {"lat": 32.290881921461036, "lng": 119.14783032721006}, "feature": {"sight_features": "", "sight_content": ""}}, {"title": "梦幻宫游乐园", "address": "城郊新集镇环镇北路50号(新集镇新农贸市场内)", "image": "", "rank": 27, "time": null, "location": {"lat": 30.85878449646539, "lng": 114.45881077986712}, "feature": {"sight_features": "", "sight_content": ""}}, {"title": "枣林湾草莓", "address": "铜八路西50米", "image": "", "rank": 28, "time": 2, "location": {"lat": 32.3203773955893, "lng": 119.13069800621875}, "feature": {"sight_features": "", "sight_content": ""}}, {"title": "聚艺轩画廊", "address": "328国道辅路北50米", "image": "", "rank": 29, "time": 2, "location": {"lat": 32.492055943419466, "lng": 119.87634689895036}, "feature": {"sight_features": "", "sight_content": ""}}, {"title": "亚迪斯美术馆", "address": "振兴路53号附近", "image": "", "rank": 30, "time": 2, "location": {"lat": 41.53341713342407, "lng": 121.25872550154928}, "feature": {"sight_features": "", "sight_content": ""}}, {"title": "长江垂钓", "address": "渡江路", "image": "", "rank": 31, "time": 2, "location": {"lat": 32.07824853616521, "lng": 118.74037005902491}, "feature": {"sight_features": "", "sight_content": ""}}, {"title": "仪征资福寺", "address": "江苏省仪征市境内 211400", "image": "", "rank": 32, "time": 2.0, "location": {"lat": 32.27809048316069, "lng": 119.19146705795117}, "feature": {"sight_features": "", "sight_content": ""}}, {"title": "亮剑真人cs野战乐园", "address": "扬子公园内扬子公园-仪征动物园附近", "image": "", "rank": 33, "time": 2, "location": {"lat": 32.27359662875699, "lng": 119.17916207177042}, "feature": {"sight_features": "", "sight_content": ""}}, {"title": "欢乐海洋儿童亲子乐园", "address": "南辅道新城镇卫生院东100米", "image": "", "rank": 34, "time": 2, "location": {"lat": 32.290712854682, "lng": 119.24220523959632}, "feature": {"sight_features": "", "sight_content": ""}}, {"title": "江扬·天乐湖欢乐谷-充气攀岩", "address": "江扬·天乐湖欢乐谷内", "image": "", "rank": 35, "time": 2, "location": {"lat": 22.545116225379555, "lng": 113.98573092243758}, "feature": {"sight_features": "", "sight_content": ""}}, {"title": "鼓楼市民广场", "address": "鼓楼东路与工农南路路口附近", "image": "", "rank": 36, "time": 2, "location": {"lat": 32.274599365606925, "lng": 119.1909213768793}, "feature": {"sight_features": "", "sight_content": ""}}, {"title": "廉政广场", "address": "扬州市仪征市365省道", "image": "", "rank": 37, "time": 2, "location": {"lat": 32.27809048316069, "lng": 119.19146705795117}, "feature": {"sight_features": "", "sight_content": ""}}, {"title": "江苏省演艺集团青年扬剧院", "address": "人民街48号", "image": "", "rank": 38, "time": 2, "location": {"lat": 41.221126811783144, "lng": 123.09211306733788}, "feature": {"sight_features": "", "sight_content": ""}}, {"title": "马集镇人口文化艺术团", "address": "振兴路19-1", "image": "", "rank": 39, "time": 2, "location": {"lat": 35.72512350966123, "lng": 117.95369970382406}, "feature": {"sight_features": "", "sight_content": ""}}, {"title": "孩子王儿童乐园", "address": "江苏省扬州市仪征市国庆路257", "image": "", "rank": 40, "time": 2, "location": {"lat": 32.277943845213805, "lng": 119.1878600972268}, "feature": {"sight_features": "", "sight_content": ""}}, {"title": "海乐迪儿童乐园", "address": "江苏省扬州市仪征市陈集镇丁桥西山路陈集客运站", "image": "", "rank": 41, "time": 2, "location": {"lat": 32.48374177910025, "lng": 119.19662481108764}, "feature": {"sight_features": "", "sight_content": ""}}, {"title": "清净庵", "address": "扬天公路与155乡道交叉口西南200米", "image": "", "rank": 42, "time": 2, "location": {"lat": 32.50835003685827, "lng": 119.30822889796868}, "feature": {"sight_features": "", "sight_content": ""}}, {"title": "卞家祠堂", "address": "扬州市仪征市", "image": "", "rank": 43, "time": 2, "location": {"lat": 32.27809048316069, "lng": 119.19146705795117}, "feature": {"sight_features": "", "sight_content": ""}}, {"title": "江扬·天乐湖欢乐谷-晃桥滑索", "address": "月塘镇四庄村江扬路9号", "image": "", "rank": 44, "time": 2, "location": {"lat": 32.38625636261275, "lng": 119.13366060431606}, "feature": {"sight_features": "", "sight_content": ""}}, {"title": "护国庵", "address": "江苏省扬州市仪征市朱公线", "image": "", "rank": 45, "time": 2, "location": {"lat": 32.57437096828166, "lng": 119.28606364428984}, "feature": {"sight_features": "", "sight_content": ""}}, {"title": "庙山汉墓", "address": "庙山路附近", "image": "", "rank": 46, "time": 2, "location": {"lat": 29.204454293710686, "lng": 121.32105367917744}, "feature": {"sight_features": "", "sight_content": ""}}, {"title": "马家祠堂", "address": "扬州市仪征市三零四县道", "image": "", "rank": 47, "time": 2, "location": {"lat": 32.40739952579011, "lng": 119.07655166784166}, "feature": {"sight_features": "", "sight_content": ""}}, {"title": "爱国基督教堂", "address": "马爱路与002乡道交叉口南150米", "image": "", "rank": 48, "time": 2, "location": {"lat": 32.387469463139, "lng": 119.19574218370371}, "feature": {"sight_features": "", "sight_content": ""}}, {"title": "东林寺", "address": "扬州市仪征市刘集镇通扬路68号", "image": "", "rank": 49, "time": 1.5, "location": {"lat": 32.438003631189495, "lng": 119.26833256225238}, "feature": {"sight_features": "", "sight_content": ""}}, {"title": "五一公园", "address": "江苏省扬州市仪征市南辅道", "image": "", "rank": 50, "time": 1.0, "location": {"lat": 32.290712854682, "lng": 119.24220523959632}, "feature": {"sight_features": "", "sight_content": ""}}, {"title": "真州镇城北基督教(恩德)堂", "address": "石桥河北路105号", "image": "", "rank": 51, "time": 2, "location": {"lat": 32.28999223104423, "lng": 119.19429283244138}, "feature": {"sight_features": "", "sight_content": ""}}, {"title": "真州墓园", "address": "江苏省扬州市仪征市S333", "image": "", "rank": 52, "time": 2, "location": {"lat": 32.27809048316069, "lng": 119.19146705795117}, "feature": {"sight_features": "", "sight_content": ""}}, {"title": "柳隐寺", "address": "江苏省扬州市仪征市X201", "image": "", "rank": 53, "time": 2, "location": {"lat": 32.27809048316069, "lng": 119.19146705795117}, "feature": {"sight_features": "", "sight_content": ""}}, {"title": "仪征建鑫游乐园", "address": "扬子东路1号", "image": "", "rank": 54, "time": 2.5, "location": {"lat": 32.31518558076375, "lng": 119.46895450313633}, "feature": {"sight_features": "", "sight_content": ""}}, {"title": "无双亭", "address": "扬州芍药园内", "image": "", "rank": 55, "time": 2, "location": {"lat": 32.40067693609037, "lng": 119.41941890822997}, "feature": {"sight_features": "", "sight_content": ""}}, {"title": "仪征市月塘水库水上乐园", "address": "扬冶线附近", "image": "", "rank": 56, "time": 2.5, "location": {"lat": 32.42106336996569, "lng": 119.33790124677742}, "feature": {"sight_features": "", "sight_content": ""}}, {"title": "街心公园", "address": "扬州市仪征市古镇街76号", "image": "", "rank": 57, "time": 2, "location": {"lat": 32.54448243663605, "lng": 119.24970011687299}, "feature": {"sight_features": "", "sight_content": ""}}, {"title": "大仪烈士陵园", "address": "江苏省扬州市仪征市333省道附近", "image": "", "rank": 58, "time": 2, "location": {"lat": 32.43349635156484, "lng": 119.20285496673172}, "feature": {"sight_features": "", "sight_content": ""}}, {"title": "圆通寺", "address": "建设路与203县道交叉口西50米", "image": "", "rank": 59, "time": 2.0, "location": {"lat": 32.45825576980134, "lng": 119.12582886247316}, "feature": {"sight_features": "", "sight_content": ""}}, {"title": "童乐城儿童亲子乐园", "address": "江苏省扬州市仪征市国庆路400号-39-、41", "image": "", "rank": 60, "time": 2, "location": {"lat": 32.27907185940508, "lng": 119.18754550524737}, "feature": {"sight_features": "", "sight_content": ""}}]}