{"cityName": "永昌", "days": 2, "cityImage": "", "spots": [{"title": "骊靬古城", "address": "金昌市永昌县焦家庄乡者来寨村", "image": "", "rank": 1, "time": 2.5, "location": {"lat": 38.26991444141269, "lng": 101.84741888228226}, "feature": {"sight_features": "", "sight_content": ""}}, {"title": "圣容寺塔", "address": "甘肃省金昌市永昌县城关镇御山圣容寺附近", "image": "", "rank": 2, "time": 2, "location": {"lat": 38.32683433652199, "lng": 101.9352972770678}, "feature": {"sight_features": "", "sight_content": ""}}, {"title": "津香苑农家乐", "address": "城关镇北环路北海子四社", "image": "", "rank": 3, "time": 2, "location": {"lat": 38.258393500897526, "lng": 101.97899625948249}, "feature": {"sight_features": "", "sight_content": ""}}, {"title": "风华一代儿童乐园", "address": "环城西路16号", "image": "", "rank": 4, "time": 2, "location": {"lat": 40.862689031953266, "lng": 122.75352285710979}, "feature": {"sight_features": "", "sight_content": ""}}, {"title": "金昌火车站广场", "address": "甘肃省金昌市永昌县河西堡镇金昌火车站东", "image": "", "rank": 5, "time": 2, "location": {"lat": 38.376723087754364, "lng": 102.0704540756404}, "feature": {"sight_features": "", "sight_content": ""}}, {"title": "永昌县博物馆", "address": "312国道(永昌县粮食局西)", "image": "", "rank": 6, "time": 2, "location": {"lat": 38.254477935444434, "lng": 101.97323087004145}, "feature": {"sight_features": "", "sight_content": ""}}, {"title": "永昌县图书馆", "address": "东大街1号", "image": "", "rank": 7, "time": 2, "location": {"lat": 22.61729942596652, "lng": 114.14733751642652}, "feature": {"sight_features": "", "sight_content": ""}}, {"title": "东润苑农家乐", "address": "永皇路西50米", "image": "", "rank": 8, "time": 2, "location": {"lat": 38.135969149374645, "lng": 102.02787498555247}, "feature": {"sight_features": "", "sight_content": ""}}, {"title": "永昌影剧院", "address": "楼外楼酒店附近北街", "image": "", "rank": 9, "time": 2, "location": {"lat": 49.428990444023775, "lng": 127.33187318969534}, "feature": {"sight_features": "", "sight_content": ""}}, {"title": "香盛缘餐庄", "address": "北京路与金河路交叉口东北100米", "image": "", "rank": 10, "time": 2, "location": {"lat": 38.39136012728757, "lng": 102.09073491612213}, "feature": {"sight_features": "", "sight_content": ""}}, {"title": "民族度假村", "address": "甘肃省金昌市永昌县城关镇北海子公园", "image": "", "rank": 11, "time": 2, "location": {"lat": 38.265046047061816, "lng": 101.98706298457222}, "feature": {"sight_features": "", "sight_content": ""}}, {"title": "北海子公园", "address": "金昌市永昌县环城北路", "image": "", "rank": 12, "time": 1.5, "location": {"lat": 38.25634802230842, "lng": 101.98522639266893}, "feature": {"sight_features": "", "sight_content": ""}}, {"title": "永光书画社", "address": "G312", "image": "", "rank": 13, "time": 2, "location": {"lat": 32.19917404861056, "lng": 114.51769299297756}, "feature": {"sight_features": "", "sight_content": ""}}, {"title": "永昌县城关清真寺", "address": "城关镇", "image": "", "rank": 14, "time": 2, "location": {"lat": 33.8523792245012, "lng": 113.47977737169182}, "feature": {"sight_features": "", "sight_content": ""}}, {"title": "金教育文化广场", "address": "甘肃省金昌市永昌县玉河路", "image": "", "rank": 15, "time": 2, "location": {"lat": 38.377925797027856, "lng": 102.07891463403523}, "feature": {"sight_features": "", "sight_content": ""}}, {"title": "豹子头森林公园", "address": "甘肃省金昌市永昌县", "image": "", "rank": 16, "time": 2, "location": {"lat": 38.252940956889034, "lng": 101.97946358316133}, "feature": {"sight_features": "", "sight_content": ""}}, {"title": "河西堡清真寺", "address": "永河路与车站路交叉口北100米", "image": "", "rank": 17, "time": 2, "location": {"lat": 38.374788673196, "lng": 102.07575343765744}, "feature": {"sight_features": "", "sight_content": ""}}, {"title": "伊洋画廊", "address": "车站路东200米", "image": "", "rank": 18, "time": 2, "location": {"lat": 39.79105851691385, "lng": 116.27734233441993}, "feature": {"sight_features": "", "sight_content": ""}}, {"title": "南坝滑雪场", "address": "金昌市永昌县南坝乡云庄寺路口处", "image": "", "rank": 19, "time": 2, "location": {"lat": 38.046286933209196, "lng": 102.08582128738938}, "feature": {"sight_features": "", "sight_content": ""}}]}