{"cityName": "永仁", "days": 2, "cityImage": "", "spots": [{"title": "永仁方山", "address": "楚雄州永仁县城东北", "image": "", "rank": 1, "time": 2.0, "location": {"lat": 26.055565754520842, "lng": 101.67249299666791}, "feature": {"sight_features": "", "sight_content": ""}}, {"title": "天元山庄", "address": "108国道", "image": "", "rank": 2, "time": 2, "location": {"lat": 36.13357010619177, "lng": 111.55186297208911}, "feature": {"sight_features": "", "sight_content": ""}}, {"title": "肥牛食府", "address": "217省道附近", "image": "", "rank": 3, "time": 2, "location": {"lat": 39.08362397662689, "lng": 117.74948306857745}, "feature": {"sight_features": "", "sight_content": ""}}, {"title": "向老倌农家乐", "address": "方山胜境景区内", "image": "", "rank": 4, "time": 2, "location": {"lat": 37.90102023915963, "lng": 111.25037044293047}, "feature": {"sight_features": "", "sight_content": ""}}, {"title": "福山草堂", "address": "云南省永仁县位于方山脚下 651400", "image": "", "rank": 5, "time": 2, "location": {"lat": 26.055565754520842, "lng": 101.67249299666791}, "feature": {"sight_features": "", "sight_content": ""}}, {"title": "夏氏故居", "address": "中和镇中和村", "image": "", "rank": 6, "time": 2, "location": {"lat": 45.51387840169817, "lng": 128.7856197135954}, "feature": {"sight_features": "", "sight_content": ""}}, {"title": "夏家大院", "address": "中和街8", "image": "", "rank": 7, "time": 2, "location": {"lat": 22.732806573848475, "lng": 114.28647789834733}, "feature": {"sight_features": "", "sight_content": ""}}, {"title": "方山胜境", "address": "楚雄彝族自治州永仁县", "image": "", "rank": 8, "time": 1.0, "location": {"lat": 26.055565754520842, "lng": 101.67249299666791}, "feature": {"sight_features": "", "sight_content": ""}}, {"title": "宜就影剧院", "address": "026乡道附近", "image": "", "rank": 9, "time": 2, "location": {"lat": 45.75376621177619, "lng": 120.29702071223088}, "feature": {"sight_features": "", "sight_content": ""}}, {"title": "麦拉山", "address": "云南省楚雄永仁县", "image": "", "rank": 10, "time": 2, "location": {"lat": 26.055565754520842, "lng": 101.67249299666791}, "feature": {"sight_features": "", "sight_content": ""}}, {"title": "永仁县图书馆", "address": "建设路18号", "image": "", "rank": 11, "time": 2, "location": {"lat": 26.055565754520842, "lng": 101.67249299666791}, "feature": {"sight_features": "", "sight_content": ""}}, {"title": "永仁县植物园", "address": "环城西路68号", "image": "", "rank": 12, "time": 2, "location": {"lat": 33.388887953139765, "lng": 120.13521809879768}, "feature": {"sight_features": "", "sight_content": ""}}, {"title": "震宇农家乐", "address": "方山胜境景区内", "image": "", "rank": 13, "time": 2, "location": {"lat": 37.90102023915963, "lng": 111.25037044293047}, "feature": {"sight_features": "", "sight_content": ""}}, {"title": "江底河大桥", "address": "云南省楚雄州永仁县江底河大桥", "image": "", "rank": 14, "time": 2, "location": {"lat": 25.870894728409688, "lng": 101.55098337222275}, "feature": {"sight_features": "", "sight_content": ""}}]}