{"cityName": "永兴", "days": 2, "cityImage": "", "spots": [{"title": "板梁古村", "address": "郴州市永兴县高亭乡境内", "image": "", "rank": 1, "time": 3.5, "location": {"lat": 26.079615676500598, "lng": 112.91160347004298}, "feature": {"sight_features": "特色1 保存古民居300多栋，湖南建筑风格之大全", "sight_content": "板梁古村地处永兴县高亭乡境内，现有人口1886人，耕地面积1260亩，一个自然村布局，辖19个村民小组，村民以种粮、种烤烟为业，生活传统古朴。板梁古村历史久远，初建于宋末元初，强盛于明清时代，是原金陵县的重要集镇，也是桂阳、耒阳、常宁往返的商埠之地。板梁人杰地灵，是当地刘姓的主要开源地之一，据族谱记载，从板梁迁徙开发的刘姓村庄有400多个，约八万多人。在历朝为官者数百人，历史底蕴厚重，传奇故事多多。开国大将黄克诚从板梁暴动走向革命道路。\n板梁古村连片保存的古民居有300多栋，栋栋雕梁画栋、刻檐飘顶，集湖南建筑风格之大全。各种石雕、砖雕样样齐全；人物、花鸟、山水栩栩如生，且栋于栋之间各不相同。尤以下片原清三品官员刘绍苏建居、中片刘绍连建居雕刻齐全、保存完好、美不胜收，为湘南地方所少见。一个图腾一个意境，一组雕刻一个故事，有待专家学者考究。\n\n板梁七层古塔始建于清道光九年，古塔雄伟壮观，高约21米，底角直径8米，六角形风格，砖石结构，塔内石阶盘旋而上直至塔顶，塔外角爪风铃清脆，其灰浆配置精良、灰缝结构严实，历经数百年无风化，是湘南较为古老的民间古塔。据说，郴州市南塔就是参照板梁古塔修建的。"}}, {"title": "便江风景区", "address": "郴州市永兴县城上游", "image": "", "rank": 2, "time": 3.0, "location": {"lat": 26.132968478532568, "lng": 113.1225331638553}, "feature": {"sight_features": "", "sight_content": ""}}, {"title": "永兴银楼", "address": "郴州市永兴县永兴大道中国白银第一坊内", "image": "", "rank": 3, "time": 3.0, "location": {"lat": 26.11909469526554, "lng": 113.11604441659941}, "feature": {"sight_features": "", "sight_content": ""}}, {"title": "龙华山公园", "address": "郴州市永兴县", "image": "", "rank": 4, "time": 2.5, "location": {"lat": 26.132968478532568, "lng": 113.1225331638553}, "feature": {"sight_features": "", "sight_content": ""}}, {"title": "悦来温泉旅游度假山庄", "address": "湖南省郴州市永兴县悦来乡玉泉村", "image": "", "rank": 5, "time": 2, "location": {"lat": 26.103307932976634, "lng": 112.84300868166261}, "feature": {"sight_features": "", "sight_content": ""}}, {"title": "中国白银第一坊", "address": "郴州市永兴县", "image": "", "rank": 6, "time": 2, "location": {"lat": 26.132968478532568, "lng": 113.1225331638553}, "feature": {"sight_features": "", "sight_content": ""}}, {"title": "人民公园", "address": "湖南省郴州市永兴县龙山路迎宾大道", "image": "", "rank": 7, "time": 2.5, "location": {"lat": 26.123898701013292, "lng": 113.11158975011928}, "feature": {"sight_features": "", "sight_content": ""}}, {"title": "黄克诚大将故居", "address": "郴州市永兴县马田镇下青村", "image": "", "rank": 8, "time": 2, "location": {"lat": 26.134683635230182, "lng": 112.93195559465342}, "feature": {"sight_features": "", "sight_content": ""}}, {"title": "龙山湖", "address": "永兴大道附近", "image": "", "rank": 9, "time": 3.5, "location": {"lat": 24.99506498313444, "lng": 109.99929843686053}, "feature": {"sight_features": "", "sight_content": ""}}, {"title": "城关镇药场", "address": "人民西路", "image": "", "rank": 10, "time": 2, "location": {"lat": 38.068096142457165, "lng": 114.64707710966499}, "feature": {"sight_features": "", "sight_content": ""}}, {"title": "福满堂农庄", "address": "郴永大道皂角树下西南侧", "image": "", "rank": 11, "time": 2, "location": {"lat": 25.993442800717823, "lng": 113.17745754437915}, "feature": {"sight_features": "", "sight_content": ""}}, {"title": "悦来温泉", "address": "湖南省永兴县悦来乡 423301", "image": "", "rank": 12, "time": 2, "location": {"lat": 26.120410735556742, "lng": 112.8339965394334}, "feature": {"sight_features": "", "sight_content": ""}}, {"title": "爱乐乐海鲜主题儿童乐园", "address": "幸福家园大门旁", "image": "", "rank": 13, "time": 2, "location": {"lat": 39.897864448606924, "lng": 116.43671397220088}, "feature": {"sight_features": "", "sight_content": ""}}, {"title": "生源缤纷儿童乐园", "address": "郴州市永兴县大桥路生源百货(永兴城管东)2层", "image": "", "rank": 14, "time": 2, "location": {"lat": 26.13080876878527, "lng": 113.12470664188344}, "feature": {"sight_features": "", "sight_content": ""}}, {"title": "儿童乐园", "address": "湖南省郴州市永兴县龙山路", "image": "", "rank": 15, "time": 2, "location": {"lat": 26.123898701013292, "lng": 113.11158975011928}, "feature": {"sight_features": "", "sight_content": ""}}, {"title": "龙潭水库活鱼馆夜市广场", "address": "郴州永兴县411乡道", "image": "", "rank": 16, "time": 2, "location": {"lat": 26.345439010054537, "lng": 113.289483152999}, "feature": {"sight_features": "", "sight_content": ""}}, {"title": "永兴曹氏冰糖橙", "address": "便江镇茶元村永兴曹氏冰糖橙", "image": "", "rank": 17, "time": 3.0, "location": {"lat": 26.132968478532568, "lng": 113.1225331638553}, "feature": {"sight_features": "", "sight_content": ""}}, {"title": "怡天下生态农业有限公司", "address": "便江镇戴家南街69号", "image": "", "rank": 18, "time": 2, "location": {"lat": 26.138756556225058, "lng": 113.12314993470908}, "feature": {"sight_features": "", "sight_content": ""}}, {"title": "太湖仙生态馆", "address": "二中对面", "image": "", "rank": 19, "time": 2, "location": {"lat": 28.12913364896428, "lng": 120.97935434655655}, "feature": {"sight_features": "", "sight_content": ""}}, {"title": "资兴市湖西农家", "address": "清江镇毛坪一组", "image": "", "rank": 20, "time": 9.0, "location": {"lat": 29.904375156254392, "lng": 119.48952822136684}, "feature": {"sight_features": "", "sight_content": ""}}, {"title": "龙华山", "address": "湖南省永兴县永兴县城东", "image": "", "rank": 21, "time": 2.5, "location": {"lat": 26.132968478532568, "lng": 113.1225331638553}, "feature": {"sight_features": "", "sight_content": ""}}, {"title": "注江风景区", "address": "湖南省永兴县黄泥乡", "image": "", "rank": 22, "time": 2, "location": {"lat": 26.20978545192952, "lng": 113.15871257635948}, "feature": {"sight_features": "", "sight_content": ""}}, {"title": "龙王岭", "address": "湖南省永兴县境内", "image": "", "rank": 23, "time": 2, "location": {"lat": 26.132968478532568, "lng": 113.1225331638553}, "feature": {"sight_features": "", "sight_content": ""}}, {"title": "钉板垅里", "address": "郴州市-永兴县", "image": "", "rank": 24, "time": 2, "location": {"lat": 26.132968478532568, "lng": 113.1225331638553}, "feature": {"sight_features": "", "sight_content": ""}}, {"title": "湖南长鹿国际生态旅游度假区", "address": "郴州市永兴县便江镇周家村下山组（原碧塘乡政府办公楼）", "image": "", "rank": 25, "time": 2, "location": {"lat": 26.10113147039086, "lng": 113.09852604253282}, "feature": {"sight_features": "", "sight_content": ""}}, {"title": "安陵书院", "address": "湖南省郴州市永兴县", "image": "", "rank": 26, "time": 2, "location": {"lat": 26.132968478532568, "lng": 113.1225331638553}, "feature": {"sight_features": "", "sight_content": ""}}]}