{"cityName": "永德", "days": 2, "cityImage": "", "spots": [{"title": "永德大雪山", "address": "临沧地区东北部永德县境内", "image": "", "rank": 1, "time": 1.0, "location": {"lat": 24.024871282776907, "lng": 99.26507564260625}, "feature": {"sight_features": "", "sight_content": ""}}, {"title": "忙肺村千亩古茶园", "address": "临沧市永德县037乡道", "image": "", "rank": 2, "time": 2, "location": {"lat": 24.05121406880797, "lng": 99.12037650127624}, "feature": {"sight_features": "", "sight_content": ""}}, {"title": "鑫智趣儿童乐园", "address": "永德县康德小区北区15-1-1", "image": "", "rank": 3, "time": 1.5, "location": {"lat": 24.028036807236635, "lng": 99.26695322598594}, "feature": {"sight_features": "", "sight_content": ""}}, {"title": "缘发温泉", "address": "明朗线", "image": "", "rank": 4, "time": 2, "location": {"lat": 23.913321947427, "lng": 99.21762508307543}, "feature": {"sight_features": "", "sight_content": ""}}, {"title": "勐底橄榄坡果园", "address": "313省道", "image": "", "rank": 5, "time": null, "location": {"lat": 40.47363217982258, "lng": 116.99325005466613}, "feature": {"sight_features": "", "sight_content": ""}}, {"title": "温泉山庄", "address": "313省道附近", "image": "", "rank": 6, "time": 2, "location": {"lat": 40.47363217982258, "lng": 116.99325005466613}, "feature": {"sight_features": "", "sight_content": ""}}, {"title": "永德县图书馆", "address": "永德北路62号", "image": "", "rank": 7, "time": 2, "location": {"lat": 24.033891654794978, "lng": 99.26086699146283}, "feature": {"sight_features": "", "sight_content": ""}}, {"title": "忙海水库", "address": "Z002县道", "image": "", "rank": 8, "time": 2, "location": {"lat": 36.06504680178999, "lng": 113.80945833160084}, "feature": {"sight_features": "", "sight_content": ""}}, {"title": "柔爽温泉山庄", "address": "明朗线东侧", "image": "", "rank": 9, "time": 2, "location": {"lat": 23.913321947427, "lng": 99.21762508307543}, "feature": {"sight_features": "", "sight_content": ""}}, {"title": "佳艺画廊", "address": "德党镇永福路", "image": "", "rank": 10, "time": 2, "location": {"lat": 24.031004631140306, "lng": 99.26148592395901}, "feature": {"sight_features": "", "sight_content": ""}}, {"title": "大雪山小郭火龙果种植基地", "address": "大雪山乡团山村训房组", "image": "", "rank": 11, "time": 2, "location": {"lat": 24.0321037027881, "lng": 99.74796791427144}, "feature": {"sight_features": "", "sight_content": ""}}, {"title": "永德大雪山自然保护区", "address": "云南省永德县城东部", "image": "", "rank": 12, "time": 1.0, "location": {"lat": 24.024871282776907, "lng": 99.26507564260625}, "feature": {"sight_features": "", "sight_content": ""}}]}