{"cityName": "永寿", "days": 2, "cityImage": "", "spots": [{"title": "云集生态园", "address": "甘井镇红崖村西北侧", "image": "", "rank": 1, "time": 2, "location": {"lat": 34.76096938416326, "lng": 108.03268609943157}, "feature": {"sight_features": "", "sight_content": ""}}, {"title": "云集生态园度假山庄", "address": "咸阳市永寿甘井镇", "image": "", "rank": 2, "time": 2, "location": {"lat": 34.743305674644525, "lng": 108.04568342673666}, "feature": {"sight_features": "", "sight_content": ""}}, {"title": "云影垂钓", "address": "甘井镇红岩村云集生态园西侧50米", "image": "", "rank": 3, "time": 2, "location": {"lat": 29.831361157892797, "lng": 106.44233697164435}, "feature": {"sight_features": "", "sight_content": ""}}, {"title": "美井公园", "address": "吴店路与312国道交叉口西北200米", "image": "", "rank": 4, "time": 2, "location": {"lat": 39.754319199493544, "lng": 118.4675874287618}, "feature": {"sight_features": "", "sight_content": ""}}, {"title": "鲁卡奇游乐园", "address": "监军镇槐花茗居三楼", "image": "", "rank": 5, "time": 2, "location": {"lat": 34.69331797981141, "lng": 108.15382945331974}, "feature": {"sight_features": "", "sight_content": ""}}, {"title": "槐树林风情度假山庄", "address": "312国道东150米", "image": "", "rank": 6, "time": 2, "location": {"lat": 31.33241303413939, "lng": 120.9998938442122}, "feature": {"sight_features": "", "sight_content": ""}}, {"title": "阳光欢乐谷", "address": "永寿商业步行街", "image": "", "rank": 7, "time": 2, "location": {"lat": 34.69803553561666, "lng": 108.14846878644317}, "feature": {"sight_features": "", "sight_content": ""}}, {"title": "永寿图书馆", "address": "解放街", "image": "", "rank": 8, "time": 1.5, "location": {"lat": 38.692251641850724, "lng": 115.78727025878972}, "feature": {"sight_features": "", "sight_content": ""}}, {"title": "槐乡农家乐", "address": "312国道东50米", "image": "", "rank": 9, "time": 2, "location": {"lat": 31.33241303413939, "lng": 120.99899553870222}, "feature": {"sight_features": "", "sight_content": ""}}, {"title": "蓝溪书院", "address": "甘井镇云集生态园内", "image": "", "rank": 10, "time": 2, "location": {"lat": 41.11511747872475, "lng": 122.0901817115776}, "feature": {"sight_features": "", "sight_content": ""}}, {"title": "永寿商业步行街", "address": "陕西省永寿县312国道附近", "image": "", "rank": 11, "time": 2, "location": {"lat": 34.743994770054464, "lng": 108.10678139213329}, "feature": {"sight_features": "", "sight_content": ""}}]}