{"cityName": "永福", "days": 2, "cityImage": "", "spots": [{"title": "芷欣园世纪花海", "address": "桂林市永福县罗锦镇水洞头", "image": "", "rank": 1, "time": 2, "location": {"lat": 25.060598031260255, "lng": 110.12279064581982}, "feature": {"sight_features": "", "sight_content": ""}}, {"title": "桂林天坑", "address": "桂林市永福县罗锦镇金钟山旅游度假区", "image": "", "rank": 2, "time": 3.0, "location": {"lat": 24.974266973322532, "lng": 110.15330010306559}, "feature": {"sight_features": "", "sight_content": ""}}, {"title": "长寿宫", "address": "罗锦镇金钟山旅游度假区", "image": "", "rank": 3, "time": 2.5, "location": {"lat": 24.974266973322532, "lng": 110.15330010306559}, "feature": {"sight_features": "", "sight_content": ""}}, {"title": "百寿烈士陵园", "address": "三零六省道", "image": "", "rank": 4, "time": 2, "location": {"lat": 29.592322046559442, "lng": 121.17626372275363}, "feature": {"sight_features": "", "sight_content": ""}}, {"title": "登云山葡萄园", "address": "464乡道附近", "image": "", "rank": 5, "time": 2, "location": {"lat": 26.791852753957524, "lng": 116.03178799259486}, "feature": {"sight_features": "", "sight_content": ""}}, {"title": "永福县心连心果蔬专业合作社", "address": "103县道北50米", "image": "", "rank": 6, "time": 2, "location": {"lat": 46.254557719998765, "lng": 123.67756811420162}, "feature": {"sight_features": "", "sight_content": ""}}, {"title": "湾里全生态农家乐", "address": "G72泉南高速附近", "image": "", "rank": 7, "time": 2, "location": {"lat": 25.58394574322308, "lng": 110.5134837720405}, "feature": {"sight_features": "", "sight_content": ""}}, {"title": "顶呱呱儿童乐园", "address": "桂林市永福县凤城路丰景大厦1层", "image": "", "rank": 8, "time": 2, "location": {"lat": 24.990934902227128, "lng": 109.99615463617}, "feature": {"sight_features": "", "sight_content": ""}}, {"title": "福寿广场", "address": "滨江路与连江路交叉口东北100米", "image": "", "rank": 9, "time": 1.5, "location": {"lat": 23.697614127147723, "lng": 113.05117729335527}, "feature": {"sight_features": "", "sight_content": ""}}, {"title": "永福剧院", "address": "凤阁路9-7号", "image": "", "rank": 10, "time": 2.0, "location": {"lat": 31.192495723704006, "lng": 121.24188345900048}, "feature": {"sight_features": "", "sight_content": ""}}, {"title": "圣园山庄", "address": "龙福路东50米", "image": "", "rank": 11, "time": 2, "location": {"lat": 23.109278480662695, "lng": 113.26618362962144}, "feature": {"sight_features": "", "sight_content": ""}}, {"title": "清真寺", "address": "139县道与450乡道交叉口", "image": "", "rank": 12, "time": null, "location": {"lat": 22.912204365885064, "lng": 115.91413278778657}, "feature": {"sight_features": "", "sight_content": ""}}, {"title": "和平农场", "address": "137县道附近", "image": "", "rank": 13, "time": 3.5, "location": {"lat": 46.59889953007789, "lng": 132.32697494084152}, "feature": {"sight_features": "", "sight_content": ""}}, {"title": "陈胜国佛手种植基地", "address": "永福镇龙福路91号", "image": "", "rank": 14, "time": 2, "location": {"lat": 24.998540536949474, "lng": 109.98874700771674}, "feature": {"sight_features": "", "sight_content": ""}}, {"title": "大驿沟假日山庄", "address": "龙江乡双江村", "image": "", "rank": 15, "time": 2, "location": {"lat": 25.115115842037245, "lng": 109.92213604171548}, "feature": {"sight_features": "", "sight_content": ""}}, {"title": "罗镇橘子园", "address": "罗锦镇泗陂头", "image": "", "rank": 16, "time": 2, "location": {"lat": 25.030614567688303, "lng": 110.08516800580242}, "feature": {"sight_features": "", "sight_content": ""}}, {"title": "永福县文艺工作团", "address": "凤阁路", "image": "", "rank": 17, "time": null, "location": {"lat": 31.192625398106983, "lng": 121.24136109614302}, "feature": {"sight_features": "", "sight_content": ""}}, {"title": "在志冲", "address": "桂林市-永福县", "image": "", "rank": 18, "time": 2, "location": {"lat": 24.98557797308376, "lng": 109.98959083099726}, "feature": {"sight_features": "", "sight_content": ""}}, {"title": "猫鼻拱", "address": "桂林市-永福县", "image": "", "rank": 19, "time": 2, "location": {"lat": 24.98557797308376, "lng": 109.98959083099726}, "feature": {"sight_features": "", "sight_content": ""}}]}