{"cityName": "永顺", "days": 2, "cityImage": "", "spots": [{"title": "不二门野溪温泉", "address": "湘西土家族苗族自治州永顺县城南一公里处", "image": "", "rank": 1, "time": 2, "location": {"lat": 28.98577448568191, "lng": 109.86358578664593}, "feature": {"sight_features": "特色1 园内绿树成荫，奇石天造，风景如画", "sight_content": "野溪温泉是不二门国家森林公园内一处纯天然温泉，园区占地面积16537.7平方米。园内绿树成荫，奇石天造，风景如画，有大大小小室内外泡池29个，似珠如玉，缀落其间。\n温泉水温常年保持在39.8—41摄氏度之间，富含硒、锶、硫磺等多种矿物质,属含偏硅酸和锶的硫酸重碳酸——钙镁型矿泉水；另外还含有Se、Li、Co、Fe、Cu、Mo、Zn等多种微量元素，钙镁比值3.93，各项指标均达到人体健康最佳标准。\n据《永顺县志》记载：“凡经常沐浴，皮肤会变白、变嫩，凡经常饮用能使人强身、长寿。”沐于泉中，赏自然风光，心神俱爽，享天地精气，叹造物神奇，悦为天人！犹如徜徉母亲怀抱，不由地心生博爱和感恩！实为休闲、疗养、观光圣地。"}}, {"title": "老司城", "address": "永顺县老司城村", "image": "", "rank": 2, "time": 2.5, "location": {"lat": 28.99963263764631, "lng": 109.98294250425911}, "feature": {"sight_features": "特色1 一座天然的土家族“露天博物馆”", "sight_content": "老司城位于猛洞河漂流景区上游，这里是自唐、宋、元、明、清朝代以来留下的众多古文化遗址，也是湘西历代土家族土司王经营了八百多年的历代古都。千年祖师殿、彭氏宗祠、摆手堂、古墓葬、石坊、石碑等地上地下文物遍布，是一座天然的土家族“露天博物馆”，是一处寻幽觅古揽胜的旅游胜地。这座古城，本名福石城，因是土司王朝八百年统治的古都，亦称司城、老司城。土司时期，福石城是古溪州政治、经济、文化的中心，十分繁华。\n百姓流传，老司城分内罗城、外罗城，有纵横交错的八街十巷，人户稠密，市店兴隆，史书有“城内三千户，城外八百家”，“五溪之巨镇，万里之边城”的记载。清贡生彭施铎作《竹枝词》赞“福石城中锦作窝，土王宫畔水生波，红灯万点人千叠，一片缠绵摆手歌”。　老司城留存遗址很多，现成为游客、专家、学者了解研究土家族历史和文化的珍贵的人文景观。\n主要有祖师殿、彭氏宗祠、土司德政碑、翼南牌坊、土司地宫、土司古墓群等。老司城是800多年土司辖制的政治、经济、文化和军事中心，2001年被国务院确定为全国重点文物保护单位，2015年7月4日，在德国波恩召开的联合国第39届世界遗产大会上，老司城遗址成功列入《世界遗产名录》，这是湖南省首个世界文化遗产，也是中国第48处世界文化遗产。"}}, {"title": "不二门国家森林公园", "address": "永顺县不二门国家森林公园", "image": "", "rank": 3, "time": 2.5, "location": {"lat": 28.989764398006336, "lng": 109.850875246074}, "feature": {"sight_features": "", "sight_content": ""}}, {"title": "小溪", "address": "永顺县东南部小溪自然保护区", "image": "", "rank": 4, "time": 2.5, "location": {"lat": 29.089340527165938, "lng": 109.78796550987443}, "feature": {"sight_features": "", "sight_content": ""}}, {"title": "酉阳宫", "address": "永顺县芙蓉镇（原王村）", "image": "", "rank": 5, "time": 0.75, "location": {"lat": 28.799754587079175, "lng": 109.99138732883011}, "feature": {"sight_features": "", "sight_content": ""}}, {"title": "马拉河人体漂流", "address": "湘西马拉河芙蓉镇", "image": "", "rank": 6, "time": 2, "location": {"lat": 28.95092997671766, "lng": 109.62547464011126}, "feature": {"sight_features": "", "sight_content": ""}}, {"title": "天下第一漂-猛洞河", "address": "猛洞河支流司河", "image": "", "rank": 7, "time": 2, "location": {"lat": 28.982526363416756, "lng": 109.98964499881949}, "feature": {"sight_features": "", "sight_content": ""}}, {"title": "马拉河景区", "address": "湖南省湘西土家族苗族自治州永顺县S10(张花高速公路)", "image": "", "rank": 8, "time": 2, "location": {"lat": 28.892199457348912, "lng": 109.87396121438444}, "feature": {"sight_features": "", "sight_content": ""}}, {"title": "贞节牌坊", "address": "芙蓉镇(近车场)", "image": "", "rank": 9, "time": 2, "location": {"lat": 22.590007385248125, "lng": 114.13967639424317}, "feature": {"sight_features": "", "sight_content": ""}}, {"title": "洞天度假村", "address": "230省道附近", "image": "", "rank": 10, "time": 2, "location": {"lat": 36.0895617983312, "lng": 111.58252815779157}, "feature": {"sight_features": "", "sight_content": ""}}, {"title": "火龙山温泉", "address": "润雅乡麻阳村", "image": "", "rank": 11, "time": 2, "location": {"lat": 29.156757763189333, "lng": 110.209686727332}, "feature": {"sight_features": "", "sight_content": ""}}, {"title": "工农红军第四分校", "address": "湖南省永顺县塔卧乡 416700", "image": "", "rank": 12, "time": 2, "location": {"lat": 28.98577448568191, "lng": 109.86358578664593}, "feature": {"sight_features": "", "sight_content": ""}}, {"title": "彭继双葡萄园", "address": "湖南省湘西土家族苗族自治州永顺县S229", "image": "", "rank": 13, "time": 2, "location": {"lat": 28.98577448568191, "lng": 109.86358578664593}, "feature": {"sight_features": "", "sight_content": ""}}, {"title": "铜柱馆", "address": "湘西土家族苗族自治州永顺县芙蓉镇河畔街社区15号", "image": "", "rank": 14, "time": 2, "location": {"lat": 28.74732078210038, "lng": 109.94941465606006}, "feature": {"sight_features": "", "sight_content": ""}}, {"title": "翼南广场", "address": "湘西土家族苗族自治州永顺县芙蓉镇景区内", "image": "", "rank": 15, "time": null, "location": {"lat": 28.755279254139705, "lng": 109.9567943499069}, "feature": {"sight_features": "", "sight_content": ""}}, {"title": "湘潭文化休闲广场", "address": "凤凰中路", "image": "", "rank": 16, "time": 1.5, "location": {"lat": 23.431769043621728, "lng": 113.34989840439147}, "feature": {"sight_features": "", "sight_content": ""}}, {"title": "湘鄂川黔革命根据地纪念馆", "address": "塔卧镇", "image": "", "rank": 17, "time": 2, "location": {"lat": 29.19455189152545, "lng": 109.9403628374731}, "feature": {"sight_features": "", "sight_content": ""}}, {"title": "古镇烟酒行", "address": "新车站", "image": "", "rank": 18, "time": 2, "location": {"lat": 36.812203363177886, "lng": 117.85570185614654}, "feature": {"sight_features": "", "sight_content": ""}}, {"title": "观景台茶餐厅", "address": "芙蓉镇瀑布边", "image": "", "rank": 19, "time": 2, "location": {"lat": 22.590007385248125, "lng": 114.13967639424317}, "feature": {"sight_features": "", "sight_content": ""}}, {"title": "小溪保护区", "address": "湖南省永顺县抚志乡", "image": "", "rank": 20, "time": 2, "location": {"lat": 28.908265362079835, "lng": 109.93119032794769}, "feature": {"sight_features": "", "sight_content": ""}}, {"title": "培英古塔", "address": "湖南省吉首市境内", "image": "", "rank": 21, "time": 2, "location": {"lat": 28.267493127592708, "lng": 109.70444880967267}, "feature": {"sight_features": "", "sight_content": ""}}, {"title": "永顺县西岐月林家庭农场", "address": "湘西土家族苗族自治州-永顺县-勺哈下基湖二组9号", "image": "", "rank": 22, "time": 2, "location": {"lat": 28.98577448568191, "lng": 109.86358578664593}, "feature": {"sight_features": "", "sight_content": ""}}, {"title": "椿木堂", "address": "湘西土家族苗族自治州-永顺县", "image": "", "rank": 23, "time": 2, "location": {"lat": 28.98577448568191, "lng": 109.86358578664593}, "feature": {"sight_features": "", "sight_content": ""}}, {"title": "椿木溶", "address": "湘西土家族苗族自治州-永顺县", "image": "", "rank": 24, "time": 2, "location": {"lat": 28.98577448568191, "lng": 109.86358578664593}, "feature": {"sight_features": "", "sight_content": ""}}, {"title": "椿木塔", "address": "湘西土家族苗族自治州-永顺县", "image": "", "rank": 25, "time": 2, "location": {"lat": 28.98577448568191, "lng": 109.86358578664593}, "feature": {"sight_features": "", "sight_content": ""}}, {"title": "杉木河林场", "address": "湘西土家族苗族自治州-永顺县-万坪镇", "image": "", "rank": 26, "time": 2, "location": {"lat": 29.220672125232156, "lng": 109.83045589227922}, "feature": {"sight_features": "", "sight_content": ""}}, {"title": "芙蓉镇景区-王村古街", "address": "湘西土家族苗族自治州-永顺县-芙蓉路", "image": "", "rank": 27, "time": 2, "location": {"lat": 28.752391452245384, "lng": 109.95689544251404}, "feature": {"sight_features": "", "sight_content": ""}}, {"title": "溪洲铜柱民俗风光馆", "address": "永顺县芙蓉镇（原王村）", "image": "", "rank": 28, "time": 2, "location": {"lat": 28.799754587079175, "lng": 109.99138732883011}, "feature": {"sight_features": "", "sight_content": ""}}, {"title": "芙蓉镇", "address": "湘西土家族苗族自治州永顺县芙蓉镇", "image": "", "rank": 29, "time": 7.5, "location": {"lat": 28.799754587079175, "lng": 109.99138732883011}, "feature": {"sight_features": "特色1 醉人王村，夜色芙蓉初上浓妆。 特色2 谢晋执导，刘晓庆、姜文主演的电影《芙蓉镇》取景地，品尝电影《芙蓉镇》里的米豆腐。 古镇中有一条落差几十米的大瀑布，瀑布周边有很多具有当地特色的土家吊脚楼。 特色3 古镇还没有完全的商业化，保留了缓慢、悠闲的生活节奏，来这里可以放松一下你的心灵。", "sight_content": "芙蓉镇位于酉水之滨，距县城51公里。原为西汉酉阳县治所，因得酉水舟楫之便，上通川黔，下达洞庭，自古为永顺通商口岸，素有“楚蜀通津”之称。芙蓉镇不仅是一个具有悠久历史的千年古镇，也是融自然景色与古朴的民族风情为一体的旅游胜地，又是猛洞河风景区的门户、一个寻幽访古的景点。\n胡绩伟先生游览猛洞河和芙蓉镇以后芙蓉镇是一座具有两千年历史的古镇，因小说《芙蓉镇》改编的同名电影《芙蓉镇》在此拍摄而得名。\n芙蓉镇四周是青山绿水，镇区内是曲折幽深的大街小巷，临水依依的土家吊脚木楼以及青石板铺就的五里长街。这里处处透析着淳厚古朴的土家族民风民俗，享有酉阳雄镇、湘西“四大名镇”、“小南京”之美誉。作词赞道：“武陵山秀水幽幽，三峡落溪州。\n悬崖壁峭绿油油，悠悠荡华舟。烹鲜鱼，戏灵猴，龙洞神仙游，芙蓉古镇吊脚楼，土家情意稠。”芙蓉镇不仅景观秀丽，民族风情浓郁，还有记载土家族政治军事历史的国家重点保护文物\"溪州铜柱\"和电影《芙蓉镇》外景拍摄现场等人文景观。\n\n五里长街：从码头开始绵亘而上的石阶，那是一条长达五里贯穿古镇的青石板路，它没有名字，于是人们就直接管它叫五里长街。踏上古街，似乎踩在被悠长岁月遗落的碎片上面。不知不觉走到挂有“土家观瀑吊脚楼”牌匾的民俗博物馆前，从手摇脚踏的棉花机、阉猪鸣号的羊角到世代相传的雕花牙床，近百件散发着乡土气息的民间用具，展示着土家族古老丰富的历史。"}}]}