{"cityName": "永城", "days": 2, "cityImage": "", "spots": [{"title": "芒砀山", "address": "商丘市永城市芒山镇芒砀山景区", "image": "", "rank": 1, "time": null, "location": {"lat": 34.19774585804859, "lng": 116.50665949409075}, "feature": {"sight_features": "特色1 展示汉代400余年的辉煌历史和历代帝王的是非功过 特色2 是一座著名的汉文化旅游胜地 特色3 欣赏\"敦煌前的敦煌\"，研磨石碑神像的奥秘", "sight_content": "芒砀山位于豫鲁苏皖四省结合部的河南省永城市境内，连霍高速、济祁高速、永登高速纵贯其间，是中原“一线五点”旅游开发的重点景区。古老、秀美、神奇的芒砀十三峰，峰峰有历史，洞洞有传奇。夫子庙、汉梁王陵、刘邦斩蛇碑、陈胜王陵、孔夫子避雨处等景点等名胜古迹散落其间， “四神壁画”、“金缕玉衣”等中华瑰宝交相生辉。\n\n\n\n汉梁王陵景区\n\n芒砀山西汉梁国王陵墓群从公元前144年梁孝王刘武首葬芒砀山后，历代梁国国王皆择山而葬所形成的，前后历经八代九王约150余年。西汉梁国王陵墓群“斩山为廓，穿石为藏”，其中梁孝王王后陵墓室内有中国早期的冰柜、坐便厕所、神秘相思道等，构筑绝妙，气势恢宏；梁共王陵出土的四神云气图更是早于敦煌壁画600余年，被中内外考古专家赞誉为“敦煌前之敦煌”、“敦煌外之敦煌”。\n芒山寺，又名碧霞元君祠，位于汉梁王陵景区的山顶之上，坐北朝南，属仿清代建筑，现在寺内大殿供奉的是横三世佛，分别是释迦牟尼佛、药师佛和阿弥陀佛。现在的芒山寺香火鼎盛，每逢初一十五，当地的善男信女便会蜂拥至此，上香摆供，络绎不绝。\n\n刘邦斩蛇处\n\n秦末，泗水亭长刘邦送徒骊山，途经芒砀山遇白蛇挡道，挥剑斩之，隐匿于芒砀山泽之间的“密云洞”，后响应陈胜起义自此起兵，反秦灭项成就帝业。后人立碑以示纪念，入夜偶然光照竟呈现人像，宛如刘邦神武形象再现，一时轰动大江南北成“天下奇观”，至今仍为未解之谜。\n夫子山景区\n\n夫子山景区位于芒砀群山西部。春秋末年孔子携弟子周游列国途经芒砀山，在此避雨晒书、演礼讲学而得名，是全国唯一用“夫子”命名的山体。景区内有文庙、观音阁、夫子避雨处、郭塔和大型文化休闲景观园林——夫子苑。\n夫子苑休闲区以儒文化体验和游山嬉水等体验型产品为主，目前开放的1800余米的悬崖栈道，300余米的玻璃栈道惊险刺激，深受游客喜爱。\n陈胜园景区\n\n陈胜园景区位于芒砀山主峰西南，为秦末农民起义领袖陈胜的魂归之处。公元前209年，陈胜与吴广在大泽乡揭竿而起，建立了我国初个农民政权——“张楚”政权。后因战事失利，被车夫庄贾杀害，部下吕臣杀庄贾并把陈胜安葬于此。刘邦称帝后，曾派30户丁役守冢，至今当地人仍承认其为守墓人后裔。\n大汉雄风景区\n大汉雄风景区位于风光秀丽的“赤帝峰”，为芒砀山主峰，因刘邦芒砀斩蛇起义后隐匿于此而得名，又名“紫气岩”，为永城古八景之首，名曰“芒山王气”，顶立刘邦铜像一尊。区内有刘邦隐匿的密云洞、高祖庙、汉代礼制基址、张飞寨等景点。\n地质公园景区\n芒砀山地质公园是集科普教育、观光休闲为一体的省级地质文化园林，由地质博物馆、奇石馆、地质文化长廊等景观组成。其中地质博物馆有馆藏矿石、矿物标本近千件，5D影院、地震体验、火山体验、海底船舱、电子翻书等高新设备近百部。园内的寒武湖生态园，湖水清澈，山水相映。"}}, {"title": "淮海战役陈官庄纪念馆", "address": "商丘市永城市陈官庄乡004乡道旁，311国道北侧", "image": "", "rank": 2, "time": 2.5, "location": {"lat": 33.98879718334487, "lng": 116.5432722958968}, "feature": {"sight_features": "", "sight_content": ""}}, {"title": "芒山镇", "address": "商丘市永城市芒山镇", "image": "", "rank": 3, "time": 4.5, "location": {"lat": 34.18071981558925, "lng": 116.51456185262812}, "feature": {"sight_features": "", "sight_content": ""}}, {"title": "刘邦斩蛇碑", "address": "商丘市永城芒山镇柿园村芒砀山汉兴源景区内", "image": "", "rank": 4, "time": 0.35, "location": {"lat": 34.19774585804859, "lng": 116.50665949409075}, "feature": {"sight_features": "", "sight_content": ""}}, {"title": "汉梁王陵", "address": "商丘市永城芒山镇柿园村芒砀山景区内", "image": "", "rank": 5, "time": null, "location": {"lat": 34.19774585804859, "lng": 116.50665949409075}, "feature": {"sight_features": "特色1 全国重点文物保护单位。", "sight_content": "汉梁王陵景区位于芒砀山，是芒砀山内的主要景点之一，已发现汉墓大小约18座，其中更以汉高祖刘邦之孙梁孝王刘武及王后墓的规模较为宏大、较为出名。"}}, {"title": "芒砀山地质公园", "address": "商丘市永城市芒砀山地质公园", "image": "", "rank": 6, "time": 2, "location": {"lat": 34.19774585804859, "lng": 116.50665949409075}, "feature": {"sight_features": "", "sight_content": ""}}, {"title": "崇法寺塔", "address": "永城县城关东北隅", "image": "", "rank": 7, "time": 1.0, "location": {"lat": 33.93480147585089, "lng": 116.45556614759954}, "feature": {"sight_features": "", "sight_content": ""}}, {"title": "芒砀山大汉雄风景区", "address": "商丘市永城市歌风路与英风路交汇处北50米", "image": "", "rank": 8, "time": 2.0, "location": {"lat": 33.93480147585089, "lng": 116.45556614759954}, "feature": {"sight_features": "特色1 景区规划以汉文化为主题，旨将景区打造成集夫教文化、养生文化、旅游观光、休闲度假、户外运动集于一体的复合型景区！", "sight_content": "永城芒砀山大汉雄风景区地处豫、皖、苏、鲁四省的结合之处。被称为河南省的东大门，素有“豫东门户”之称.景区是新颁布的国家AAAAA级景区，具有品牌新生优势，同属级别的并且经营较好的景区河南仅有13家。景区其得天独厚的文化资源，优越的地理位置，迷人的自然风光正吸引各界人士前来观光、游览.景区规划以汉文化为主题，旨将景区打造成集夫教文化、养生文化、旅游观光、休闲度假、户外运动集于一体的复合型景区。\n景区总占地面积为176.5公顷，计划投入资金5.6亿元，目前已投资1.2亿元，景区建设在不段完善。景区最高主峰海拔156.8米，作为景区标志性建筑的“汉高祖刘邦像”就坐落在主峰之上 ，塑像高达39.9米，被益为“亚洲第一高历史人物铜塑雕像”。除了顶峰高大的刘邦雕像外，还存有三国英雄张飞屯兵的山寨“张飞寨”，南坡有高祖庙遗址，水浒108将中的三位地煞樊瑞、项充、李衮聚义的“三星道观”遗址以及汉代礼制建筑遗址也汇聚于此。"}}, {"title": "芒砀山溪谷生态园", "address": "商丘市永城市芒砀山溪谷景区（连霍高速芒砀山出口北1公里）", "image": "", "rank": 9, "time": 2, "location": {"lat": 34.16914338604573, "lng": 116.49376057076444}, "feature": {"sight_features": "", "sight_content": ""}}, {"title": "永城造律台遗址", "address": "河南省商丘市永城市311国道", "image": "", "rank": 10, "time": 1.0, "location": {"lat": 33.96632916215828, "lng": 116.44508453565479}, "feature": {"sight_features": "", "sight_content": ""}}, {"title": "欧蓓莎动漫水世界", "address": "商丘市永城市欧蓓莎动漫水乐园", "image": "", "rank": 11, "time": 2, "location": {"lat": 33.93480147585089, "lng": 116.45556614759954}, "feature": {"sight_features": "", "sight_content": ""}}, {"title": "汉兴园", "address": "河南省永城市芒砀山", "image": "", "rank": 12, "time": 2, "location": {"lat": 34.19774585804859, "lng": 116.50665949409075}, "feature": {"sight_features": "", "sight_content": ""}}, {"title": "梁孝王陵寝遗址", "address": "商丘市永城市梁孝王陵内", "image": "", "rank": 13, "time": 2, "location": {"lat": 33.93480147585089, "lng": 116.45556614759954}, "feature": {"sight_features": "", "sight_content": ""}}, {"title": "天成生态园", "address": "汉兴大道西100米", "image": "", "rank": 14, "time": 2, "location": {"lat": 22.922982721656073, "lng": 114.01689136012689}, "feature": {"sight_features": "", "sight_content": ""}}, {"title": "地质博物馆", "address": "商丘市永城市S201芒砀山地质公园内", "image": "", "rank": 15, "time": 2, "location": {"lat": 33.93480147585089, "lng": 116.45556614759954}, "feature": {"sight_features": "", "sight_content": ""}}, {"title": "超级妈妈", "address": "201省道山城步行街附近", "image": "", "rank": 16, "time": 2, "location": {"lat": 35.90336961329157, "lng": 114.19062058560844}, "feature": {"sight_features": "", "sight_content": ""}}, {"title": "陈京庄垂钓园", "address": "高庄镇陈京庄", "image": "", "rank": 17, "time": 2, "location": {"lat": 33.94394027209108, "lng": 116.59220001195608}, "feature": {"sight_features": "", "sight_content": ""}}, {"title": "碰碰车(金博大店)", "address": "欧亚路与雪枫路交叉口西北角金博大广场4楼西北", "image": "", "rank": 18, "time": 2, "location": {"lat": 33.94817410161379, "lng": 116.45932505400603}, "feature": {"sight_features": "", "sight_content": ""}}, {"title": "陈寔公园", "address": "太丘镇", "image": "", "rank": 19, "time": 2, "location": {"lat": 34.1217043534836, "lng": 116.31274763934927}, "feature": {"sight_features": "", "sight_content": ""}}, {"title": "佛教居士林", "address": "车站南路40号", "image": "", "rank": 20, "time": 1.0, "location": {"lat": 27.678491935436252, "lng": 120.5713646001708}, "feature": {"sight_features": "", "sight_content": ""}}, {"title": "儿童乐园", "address": "河南省商丘市永城市中原路先帅新天地1层", "image": "", "rank": 21, "time": 2, "location": {"lat": 33.918582519201536, "lng": 116.45937809265824}, "feature": {"sight_features": "", "sight_content": ""}}, {"title": "童爱岛儿童乐园", "address": "芒山路和开源路交叉路口先帅旗舰店二楼南头", "image": "", "rank": 22, "time": 2, "location": {"lat": 26.120615500271636, "lng": 119.25078947548445}, "feature": {"sight_features": "", "sight_content": ""}}, {"title": "鲁雨亭纪念馆", "address": "河南省商丘市永城市芒山镇夫子山景区", "image": "", "rank": 23, "time": 2, "location": {"lat": 34.182806602146236, "lng": 116.49440322750932}, "feature": {"sight_features": "", "sight_content": ""}}, {"title": "白果寺", "address": "河南省永城市S201鱼山东峰", "image": "", "rank": 24, "time": 2, "location": {"lat": 33.93480147585089, "lng": 116.45556614759954}, "feature": {"sight_features": "", "sight_content": ""}}, {"title": "景观照壁", "address": "商丘市永城市S201(汉兴大道)大汉雄风景区内", "image": "", "rank": 25, "time": 2, "location": {"lat": 33.93480147585089, "lng": 116.45556614759954}, "feature": {"sight_features": "", "sight_content": ""}}, {"title": "鲁雨亭故居", "address": "凤城路附近", "image": "", "rank": 26, "time": 2, "location": {"lat": 39.1917100889242, "lng": 117.15307385452554}, "feature": {"sight_features": "", "sight_content": ""}}, {"title": "大雄宝殿", "address": "商丘市永城市芒砀山保安山顶芒山寺内", "image": "", "rank": 27, "time": 2, "location": {"lat": 34.19774585804859, "lng": 116.50665949409075}, "feature": {"sight_features": "", "sight_content": ""}}, {"title": "观音阁", "address": "商丘市永城市夫子山景区内", "image": "", "rank": 28, "time": 1.0, "location": {"lat": 34.182806602146236, "lng": 116.49440322750932}, "feature": {"sight_features": "", "sight_content": ""}}, {"title": "画说汉朝博物馆", "address": "商丘市永城市芒山镇汉兴大道芒砀山旅游区内", "image": "", "rank": 29, "time": 2, "location": {"lat": 34.19774585804859, "lng": 116.50665949409075}, "feature": {"sight_features": "", "sight_content": ""}}, {"title": "张寨民俗博物馆", "address": "311国道南50米", "image": "", "rank": 30, "time": 2, "location": {"lat": 34.26980642533405, "lng": 117.14276864732531}, "feature": {"sight_features": "", "sight_content": ""}}, {"title": "古法造纸体验馆", "address": "商丘市永城市芒山镇汉高祖斩蛇处内", "image": "", "rank": 31, "time": 2, "location": {"lat": 34.18315858338198, "lng": 116.51282333233057}, "feature": {"sight_features": "", "sight_content": ""}}, {"title": "爱乐儿儿童主题乐园", "address": "商丘市永城市", "image": "", "rank": 32, "time": 2, "location": {"lat": 33.93480147585089, "lng": 116.45556614759954}, "feature": {"sight_features": "", "sight_content": ""}}, {"title": "清风苑", "address": "东外环路与李集三巷交叉口东南100米", "image": "", "rank": 33, "time": 2, "location": {"lat": 33.93199833470518, "lng": 116.48326828695023}, "feature": {"sight_features": "", "sight_content": ""}}, {"title": "碰碰车乐园", "address": "沱滨路南200米", "image": "", "rank": 34, "time": 2, "location": {"lat": 33.91948653844694, "lng": 116.44968084066106}, "feature": {"sight_features": "", "sight_content": ""}}, {"title": "人民广场", "address": "商丘市永城市东城区东方大道与雪枫路交叉口西南角", "image": "", "rank": 35, "time": 1.5, "location": {"lat": 33.93431830523539, "lng": 116.45818296814335}, "feature": {"sight_features": "", "sight_content": ""}}, {"title": "科迪食文化广场", "address": "河南省商丘市永城市演集镇芒砀路联想专卖店(皇沟大剧院北)", "image": "", "rank": 36, "time": 2, "location": {"lat": 33.93111252486148, "lng": 116.4514840677011}, "feature": {"sight_features": "", "sight_content": ""}}, {"title": "永城市东城区水世界儿童水上乐园", "address": "永城市东城区中原路蒲公英酒店东20米", "image": "", "rank": 37, "time": 7.5, "location": {"lat": 33.94356571531028, "lng": 116.46714419531754}, "feature": {"sight_features": "", "sight_content": ""}}, {"title": "永城市尚德纪念园", "address": "河南省商丘市永城市滦裴线", "image": "", "rank": 38, "time": 7.5, "location": {"lat": 34.127854492681934, "lng": 116.47883750371723}, "feature": {"sight_features": "", "sight_content": ""}}, {"title": "中宫格", "address": "河南省商丘市永城市演集镇明珠一巷第七小学西200米", "image": "", "rank": 39, "time": 2, "location": {"lat": 33.9443487991806, "lng": 116.4531103159794}, "feature": {"sight_features": "", "sight_content": ""}}, {"title": "红都度假村", "address": "商丘永城市芒砀路上", "image": "", "rank": 40, "time": 2, "location": {"lat": 33.92812308799125, "lng": 116.44572949026518}, "feature": {"sight_features": "", "sight_content": ""}}, {"title": "芒砀山旅游区刘邦斩蛇处", "address": "商丘市永城市芒山镇029县道北侧", "image": "", "rank": 41, "time": 2, "location": {"lat": 34.1829820904966, "lng": 116.5142795753928}, "feature": {"sight_features": "", "sight_content": ""}}, {"title": "亚伟画廊", "address": "201省道", "image": "", "rank": 42, "time": 2, "location": {"lat": 38.686331107748025, "lng": 113.87626234527481}, "feature": {"sight_features": "", "sight_content": ""}}, {"title": "薛滦家庭农场", "address": "薛湖镇张路口村(近永城市芒砀山旅游区)", "image": "", "rank": 43, "time": 2, "location": {"lat": 34.19774585804859, "lng": 116.50665949409075}, "feature": {"sight_features": "", "sight_content": ""}}, {"title": "动漫水世界", "address": "芒山路新城派出所向北30米右拐向东100米路南", "image": "", "rank": 44, "time": 2, "location": {"lat": 39.017138962402576, "lng": 117.6406151511103}, "feature": {"sight_features": "", "sight_content": ""}}, {"title": "神童王国室内游乐园", "address": "永城文化路南端神火雅苑东门南20米路西(临大风车国际幼儿园)", "image": "", "rank": 45, "time": 2, "location": {"lat": 33.94645518536774, "lng": 116.47571415384888}, "feature": {"sight_features": "", "sight_content": ""}}, {"title": "沁园艺术蛋糕", "address": "中山街第二人民医院对面", "image": "", "rank": 46, "time": 2, "location": {"lat": 28.46519096754309, "lng": 119.92264329258707}, "feature": {"sight_features": "", "sight_content": ""}}, {"title": "和谐公园游乐场", "address": "上河美食街南", "image": "", "rank": 47, "time": 2, "location": {"lat": 33.919792217663556, "lng": 116.45674563710703}, "feature": {"sight_features": "", "sight_content": ""}}, {"title": "亿丰侏罗纪公园", "address": "中原路与商业路交汇处", "image": "", "rank": 48, "time": 2, "location": {"lat": 32.240170599137954, "lng": 119.84584715417368}, "feature": {"sight_features": "", "sight_content": ""}}, {"title": "草莓园农家饭庄", "address": "010乡道附近", "image": "", "rank": 49, "time": 2, "location": {"lat": 37.55366481954672, "lng": 112.36885737069535}, "feature": {"sight_features": "", "sight_content": ""}}, {"title": "亮点生态水族", "address": "胜利街100号农村信用社斜对面", "image": "", "rank": 50, "time": null, "location": {"lat": 25.614230451024135, "lng": 110.67970891846845}, "feature": {"sight_features": "", "sight_content": ""}}, {"title": "卡卡兔儿童乐园", "address": "淮海路与牌坊街交叉口华丽港购物广场一楼", "image": "", "rank": 51, "time": 2, "location": {"lat": 33.93913884343723, "lng": 116.3788981348664}, "feature": {"sight_features": "", "sight_content": ""}}, {"title": "百果园", "address": "建设路与芒砀路交叉口北200米", "image": "", "rank": 52, "time": 2, "location": {"lat": 33.95534219784178, "lng": 116.4504163696194}, "feature": {"sight_features": "", "sight_content": ""}}, {"title": "凯通农场生态产品直供点", "address": "和谐路与育才街交叉口西50米", "image": "", "rank": 53, "time": 2, "location": {"lat": 37.654627605341, "lng": 114.5712202075192}, "feature": {"sight_features": "", "sight_content": ""}}, {"title": "永城市玉泉农场(奶油草莓採摘基...", "address": "薛湖镇薛滦新城", "image": "", "rank": 54, "time": 7.5, "location": {"lat": 34.113530470945356, "lng": 116.46745346393851}, "feature": {"sight_features": "", "sight_content": ""}}, {"title": "永城市自助图书馆", "address": "东方大道", "image": "", "rank": 55, "time": 7.5, "location": {"lat": 31.627570891307233, "lng": 120.38091029623695}, "feature": {"sight_features": "", "sight_content": ""}}, {"title": "亿丰广场冰雪大世界", "address": "中原路亿丰广场冰雪大世界(建设路四馆两中心)", "image": "", "rank": 56, "time": 2, "location": {"lat": 33.95792180694933, "lng": 116.46923332425564}, "feature": {"sight_features": "", "sight_content": ""}}, {"title": "天御汤泉", "address": "芒砀路与永兴街交叉口向北100米(新城汽车站对面)", "image": "", "rank": 57, "time": 2, "location": {"lat": 34.272724469532555, "lng": 108.96739103850439}, "feature": {"sight_features": "", "sight_content": ""}}, {"title": "窦双楼", "address": "商丘市-永城市", "image": "", "rank": 58, "time": 2, "location": {"lat": 33.93480147585089, "lng": 116.45556614759954}, "feature": {"sight_features": "", "sight_content": ""}}, {"title": "庞老家", "address": "商丘市-永城市", "image": "", "rank": 59, "time": 2, "location": {"lat": 33.93480147585089, "lng": 116.45556614759954}, "feature": {"sight_features": "", "sight_content": ""}}, {"title": "夫子山景区", "address": "商丘市永城市文风路北50米芒砀山景区内", "image": "", "rank": 60, "time": 2, "location": {"lat": 34.19774585804859, "lng": 116.50665949409075}, "feature": {"sight_features": "特色1 是全国唯一用“夫子”命名的山体！", "sight_content": "夫子山景区位于芒砀群山西部。春秋末年孔子携弟子周游列国途经芒砀山，在此避雨晒书、演礼讲学而得名，是全国唯一用“夫子”命名的山体。景区内有文庙、观音阁、夫子避雨处、郭塔和大型文化休闲景观园林——夫子苑。孔子避雨处位于芒砀山中夫子山南麓，是天然悬崖处的一个崖洞，因当年孔子周游列国时曾在此避雨而得名。洞中至今仍存有一座屈膝盘腿、坐北朝南的孔子雕像，此处的“石崖滴翠”是永城古八景之一。夫子苑亭台楼阁散布，林木花草葱郁，曲径通幽，溪流潺潺，山势峭拔，湖光明媚。登临芒山最高塔可远眺芒砀全景，景区内的文化碑林、曲水流觞、郭塔、状元桥、芒山书院等文化小品尽显了儒家文化精粹，还有高空玻璃栈道、滑道漂流、游船等游乐设施。夫子苑休闲区以儒文化体验和游山嬉水等体验型产品为主，目前开放的1800余米的悬崖栈道，300余米的玻璃栈道、400余米的水上玻璃漂流滑道惊险刺激，深受游客喜爱。"}}]}