{"cityName": "永丰", "days": 2, "cityImage": "", "spots": [{"title": "西阳宫", "address": "吉安市永丰县沙溪镇欧阳修中学内", "image": "", "rank": 1, "time": 1.5, "location": {"lat": 26.88793207929425, "lng": 115.59974560056001}, "feature": {"sight_features": "", "sight_content": ""}}, {"title": "吉安欧阳修纪念馆", "address": "吉安市永丰县永叔路永叔公园内", "image": "", "rank": 2, "time": 1.0, "location": {"lat": 27.319373191426987, "lng": 115.44351850731918}, "feature": {"sight_features": "", "sight_content": ""}}, {"title": "何章德家庭农场(梁坊店)", "address": "瑶田镇7组32号梁坊桥往南280米处", "image": "", "rank": 3, "time": 2, "location": {"lat": 27.13820848345385, "lng": 115.5686290379084}, "feature": {"sight_features": "", "sight_content": ""}}, {"title": "艳阳天山庄", "address": "331省道", "image": "", "rank": 4, "time": 2, "location": {"lat": 38.76243571351783, "lng": 115.64385441420583}, "feature": {"sight_features": "", "sight_content": ""}}, {"title": "中共苏区第一次反围剿纪念馆", "address": "上三段", "image": "", "rank": 5, "time": 2, "location": {"lat": 26.7604014796925, "lng": 115.5862958327062}, "feature": {"sight_features": "", "sight_content": ""}}, {"title": "藤田新桥河东农家乐", "address": "永丰藤田新桥沿江路", "image": "", "rank": 6, "time": 2, "location": {"lat": 27.083899404260645, "lng": 115.67320087212094}, "feature": {"sight_features": "", "sight_content": ""}}, {"title": "三坊影剧院", "address": "227省道附近", "image": "", "rank": 7, "time": 2, "location": {"lat": 31.228081134040913, "lng": 120.66770235845375}, "feature": {"sight_features": "", "sight_content": ""}}, {"title": "沙溪基督教堂", "address": "永叔大道西50米", "image": "", "rank": 8, "time": 2.5, "location": {"lat": 26.904609695193948, "lng": 115.61205114997426}, "feature": {"sight_features": "", "sight_content": ""}}, {"title": "蟠龙寺", "address": "吉安市永丰县", "image": "", "rank": 9, "time": 0.75, "location": {"lat": 27.324342103714045, "lng": 115.44740243988527}, "feature": {"sight_features": "", "sight_content": ""}}, {"title": "快乐小孩儿童乐园", "address": "江西省吉安市永丰县欧阳修大道41号-10", "image": "", "rank": 10, "time": 2, "location": {"lat": 27.331792553987395, "lng": 115.43318055688654}, "feature": {"sight_features": "", "sight_content": ""}}, {"title": "永丰县藤田李氏大祠", "address": "江西省吉安市永丰县S215", "image": "", "rank": 11, "time": 2, "location": {"lat": 27.324342103714045, "lng": 115.44740243988527}, "feature": {"sight_features": "", "sight_content": ""}}, {"title": "金华山金山禅寺", "address": "江西省吉安市永丰县腾田镇金华山,金山禅寺", "image": "", "rank": 12, "time": 2, "location": {"lat": 27.062637970571263, "lng": 115.80565265626761}, "feature": {"sight_features": "", "sight_content": ""}}, {"title": "江西省永丰中学植物园", "address": "永丰中学内", "image": "", "rank": 13, "time": 2, "location": {"lat": 40.09011635597041, "lng": 116.25807904591139}, "feature": {"sight_features": "", "sight_content": ""}}, {"title": "潭陂文化广场", "address": "江西省吉安市永丰县浪田潭陂村", "image": "", "rank": 14, "time": 2, "location": {"lat": 26.733059952494617, "lng": 115.40147758309311}, "feature": {"sight_features": "", "sight_content": ""}}, {"title": "田园山庄", "address": "水藤段", "image": "", "rank": 15, "time": 2, "location": {"lat": 27.070432413673405, "lng": 115.70939422991985}, "feature": {"sight_features": "", "sight_content": ""}}]}