{"cityName": "永新", "days": 2, "cityImage": "", "spots": [{"title": "永新三湾公园", "address": "江西省吉安市永新县335省道", "image": "", "rank": 1, "time": 1.0, "location": {"lat": 27.011975188768744, "lng": 114.44657547831737}, "feature": {"sight_features": "", "sight_content": ""}}, {"title": "三湾改编景区", "address": "吉安市永新县三湾乡三湾村", "image": "", "rank": 2, "time": 2, "location": {"lat": 26.849152722198355, "lng": 113.98080365383558}, "feature": {"sight_features": "", "sight_content": ""}}, {"title": "贺子珍纪念馆", "address": "江西省吉安市永新县湘赣大道西段(近三湾广场)", "image": "", "rank": 3, "time": 2, "location": {"lat": 26.956885983266694, "lng": 114.251952303117}, "feature": {"sight_features": "", "sight_content": ""}}, {"title": "阿育塔", "address": "江西省吉安市永新县龙源口镇磨溪岭(近龙源口纪念碑)", "image": "", "rank": 4, "time": 4.5, "location": {"lat": 26.82238506488415, "lng": 114.1342401628072}, "feature": {"sight_features": "", "sight_content": ""}}, {"title": "龙源口纪念碑", "address": "江西省吉安市永新县南乡龙源口镇龙源口村(近秋溪街道)", "image": "", "rank": 5, "time": 2, "location": {"lat": 26.821225677343794, "lng": 114.13550357470993}, "feature": {"sight_features": "", "sight_content": ""}}, {"title": "梅田洞", "address": "吉安市永新县846县道", "image": "", "rank": 6, "time": 2, "location": {"lat": 26.941249271166075, "lng": 114.32715537267418}, "feature": {"sight_features": "", "sight_content": ""}}, {"title": "革命烈士纪念馆", "address": "公园路33号", "image": "", "rank": 7, "time": 2, "location": {"lat": 43.886101180459086, "lng": 125.37131597114579}, "feature": {"sight_features": "", "sight_content": ""}}, {"title": "湘赣革命纪念馆", "address": "民主街", "image": "", "rank": 8, "time": 2, "location": {"lat": 38.895309965986584, "lng": 121.65428280850668}, "feature": {"sight_features": "", "sight_content": ""}}, {"title": "化肥种子", "address": "文竹镇文竹街17号", "image": "", "rank": 9, "time": 2, "location": {"lat": 23.3681950857883, "lng": 103.39626319262447}, "feature": {"sight_features": "", "sight_content": ""}}, {"title": "高潭古庙", "address": "江白段附近", "image": "", "rank": 10, "time": 7.5, "location": {"lat": 26.826839147774752, "lng": 114.31749858844512}, "feature": {"sight_features": "", "sight_content": ""}}, {"title": "少儿乐园", "address": "319国道与856县道交叉口西150米", "image": "", "rank": 11, "time": 2, "location": {"lat": 25.761668573925817, "lng": 116.38626783390552}, "feature": {"sight_features": "", "sight_content": ""}}, {"title": "儿童主题乐园之欢乐世界", "address": "市政广场", "image": "", "rank": 12, "time": 2, "location": {"lat": 46.670777592264436, "lng": 131.15462304643557}, "feature": {"sight_features": "", "sight_content": ""}}, {"title": "井冈山革命遗址三湾改编旧址", "address": "毛泽东同志旧居(三湾旅游购物中心西北)附近", "image": "", "rank": 13, "time": 6.0, "location": {"lat": 26.850848099763205, "lng": 113.97773593243527}, "feature": {"sight_features": "", "sight_content": ""}}, {"title": "永新县图书馆文化馆", "address": "湘赣大道", "image": "", "rank": 14, "time": 2, "location": {"lat": 26.956885983266694, "lng": 114.251952303117}, "feature": {"sight_features": "", "sight_content": ""}}, {"title": "贺子珍故居", "address": "土城古镇女红军街", "image": "", "rank": 15, "time": 2, "location": {"lat": 28.27849719170682, "lng": 106.01110663790891}, "feature": {"sight_features": "", "sight_content": ""}}, {"title": "雾庄乡村旅游合作社", "address": "烟阁乡烟阁村黄竹岭", "image": "", "rank": 16, "time": null, "location": {"lat": 26.873367889768534, "lng": 114.18395817030891}, "feature": {"sight_features": "", "sight_content": ""}}, {"title": "吉安禾山", "address": "江西省永新县龙门镇西北", "image": "", "rank": 17, "time": 6.0, "location": {"lat": 27.141619469246983, "lng": 114.14112693486153}, "feature": {"sight_features": "", "sight_content": ""}}, {"title": "永新县新世纪步行街", "address": "江西省永新县湘赣大道", "image": "", "rank": 18, "time": 2, "location": {"lat": 26.956885983266694, "lng": 114.251952303117}, "feature": {"sight_features": "", "sight_content": ""}}]}