{"cityName": "永康", "days": 2, "cityImage": "", "spots": [{"title": "方岩风景名胜区", "address": "金华市永康市永康方岩镇", "image": "", "rank": 1, "time": 4.5, "location": {"lat": 28.90825822666609, "lng": 120.20581208794434}, "feature": {"sight_features": "特色1 欣赏方岩壮丽的丹霞地貌景观，在香火旺盛的胡公祠祈福许愿。 每年农历八月十三和九月初九，去方岩庙会看丰富多彩的民俗节目。", "sight_content": "方岩风景名胜区位于永康以东，包含方岩（南岩）、石鼓寮、五峰、灵岩四个核心景区。除了不错的丹霞地貌景观，方岩也是许多当地百姓心中祈福许愿的灵地，方岩山顶的胡公祠常年香火不断。飞桥为上方岩唯一通道，地势险要。其不仅风景秀丽，而且历史悠久，人文古迹也有很多可供参观。"}}, {"title": "五峰景区", "address": "金华市永康市五峰景区", "image": "", "rank": 2, "time": 2.5, "location": {"lat": 28.93424879996893, "lng": 120.1940686585926}, "feature": {"sight_features": "", "sight_content": ""}}, {"title": "白云风景区", "address": "金华市永康市", "image": "", "rank": 3, "time": 2, "location": {"lat": 28.894203967254516, "lng": 120.0545507107813}, "feature": {"sight_features": "", "sight_content": ""}}, {"title": "胡公祠", "address": "金华市永康市方岩景区方岩山顶", "image": "", "rank": 4, "time": 2.5, "location": {"lat": 28.927158759708608, "lng": 120.20181197752669}, "feature": {"sight_features": "", "sight_content": ""}}, {"title": "岩下老街", "address": "金华永康市方岩镇下岩村", "image": "", "rank": 5, "time": 0.5, "location": {"lat": 28.90825822666609, "lng": 120.20581208794434}, "feature": {"sight_features": "", "sight_content": ""}}, {"title": "石鼓寮风景区", "address": "金华市永康市橙麓村", "image": "", "rank": 6, "time": 2, "location": {"lat": 28.940982922925894, "lng": 120.19956145273329}, "feature": {"sight_features": "", "sight_content": ""}}, {"title": "九狮沟", "address": "金华市永康市唐先镇石桥头村", "image": "", "rank": 7, "time": 2, "location": {"lat": 29.03594878520711, "lng": 120.12794011498904}, "feature": {"sight_features": "", "sight_content": ""}}, {"title": "飞凤山公园", "address": "浙江省金华市永康市飞凤路", "image": "", "rank": 8, "time": 2, "location": {"lat": 28.907757488893346, "lng": 120.0263002197058}, "feature": {"sight_features": "", "sight_content": ""}}, {"title": "扑扑熊儿童游乐场", "address": "江南街道南都路158-160号", "image": "", "rank": 9, "time": 2, "location": {"lat": 28.881390186745364, "lng": 120.04761532243279}, "feature": {"sight_features": "", "sight_content": ""}}, {"title": "大陈景区", "address": "金华市永康市新石线", "image": "", "rank": 10, "time": 2, "location": {"lat": 28.799619230215885, "lng": 120.0574708926881}, "feature": {"sight_features": "", "sight_content": ""}}, {"title": "永康飞龙山", "address": "金华市永康市童大线", "image": "", "rank": 11, "time": 2, "location": {"lat": 28.97499829275236, "lng": 120.01344016067331}, "feature": {"sight_features": "", "sight_content": ""}}, {"title": "龙川文化园", "address": "金华市永康市龙山镇里麻车村", "image": "", "rank": 12, "time": null, "location": {"lat": 29.01823205651381, "lng": 120.22444527352131}, "feature": {"sight_features": "", "sight_content": ""}}, {"title": "光瑶生态观光园", "address": "金华市永康市前仓镇光瑶村", "image": "", "rank": 13, "time": 2, "location": {"lat": 28.78652213823472, "lng": 120.09892236051668}, "feature": {"sight_features": "", "sight_content": ""}}, {"title": "永康动物乐园", "address": "金华市永康市芝英镇杜山头村溪边毛竹园（杜山头小学对面）", "image": "", "rank": 14, "time": 2, "location": {"lat": 28.932466880803126, "lng": 120.11581758094951}, "feature": {"sight_features": "", "sight_content": ""}}, {"title": "唐先施爸爸葡萄园", "address": "唐先镇三村鸟苑小区", "image": "", "rank": 15, "time": 2, "location": {"lat": 39.94645320966395, "lng": 116.34260123207432}, "feature": {"sight_features": "", "sight_content": ""}}, {"title": "上山门杨梅采摘基地杨梅大户", "address": "江南街道上山门村", "image": "", "rank": 16, "time": 2, "location": {"lat": 28.829350048291232, "lng": 120.02137678956325}, "feature": {"sight_features": "", "sight_content": ""}}, {"title": "永祥拱瑞杨梅采摘", "address": "拱瑞下村113号", "image": "", "rank": 17, "time": 2, "location": {"lat": 28.815682300099994, "lng": 120.00004748552448}, "feature": {"sight_features": "", "sight_content": ""}}, {"title": "拱瑞竹妃杨梅采摘", "address": "江南街道拱瑞下村6号", "image": "", "rank": 18, "time": 2, "location": {"lat": 28.815682300099994, "lng": 120.00004748552448}, "feature": {"sight_features": "", "sight_content": ""}}, {"title": "金顺帆跑马场", "address": "西溪影视基地向内500米", "image": "", "rank": 19, "time": 2, "location": {"lat": 29.009946317491785, "lng": 120.24631463164607}, "feature": {"sight_features": "", "sight_content": ""}}, {"title": "炳飞葡萄园", "address": "上考村革新桥小区70号(上考村村委会旁)", "image": "", "rank": 20, "time": 2, "location": {"lat": 38.94607838960502, "lng": 116.9204537207149}, "feature": {"sight_features": "", "sight_content": ""}}, {"title": "英英葡萄园", "address": "唐先镇岩前村村牌路口-大永线", "image": "", "rank": 21, "time": 2, "location": {"lat": 29.026306792629168, "lng": 120.1307081904171}, "feature": {"sight_features": "", "sight_content": ""}}, {"title": "永康市城市规划展示馆", "address": "花园大道418号", "image": "", "rank": 22, "time": 1.5, "location": {"lat": 28.894854689880226, "lng": 120.065546114847}, "feature": {"sight_features": "", "sight_content": ""}}, {"title": "景德镇名家陶瓷艺术馆", "address": "文博路", "image": "", "rank": 23, "time": 3.5, "location": {"lat": 40.070739632382114, "lng": 116.34922605644762}, "feature": {"sight_features": "", "sight_content": ""}}, {"title": "永康市图书馆(古山分馆)", "address": "华溪西路75号", "image": "", "rank": 24, "time": 2, "location": {"lat": 32.22446728594629, "lng": 120.19155268115037}, "feature": {"sight_features": "", "sight_content": ""}}, {"title": "少年儿童图书馆", "address": "桃源路口", "image": "", "rank": 25, "time": 2, "location": {"lat": 38.82117731456209, "lng": 115.4476988977243}, "feature": {"sight_features": "", "sight_content": ""}}, {"title": "盘龙谷绿色葡萄园", "address": "新石线", "image": "", "rank": 26, "time": 2, "location": {"lat": 41.46782503943578, "lng": 122.50200261881001}, "feature": {"sight_features": "", "sight_content": ""}}, {"title": "包公纪念馆", "address": "217省道辅路", "image": "", "rank": 27, "time": 2, "location": {"lat": 39.08362397662689, "lng": 117.74948306857745}, "feature": {"sight_features": "", "sight_content": ""}}, {"title": "华艺演出会展有限公司华艺大舞台", "address": "下园朱14号", "image": "", "rank": 28, "time": 2, "location": {"lat": 28.900192171916515, "lng": 120.02738711996571}, "feature": {"sight_features": "", "sight_content": ""}}, {"title": "五金城广场", "address": "金华市永康市望春东路", "image": "", "rank": 29, "time": 2, "location": {"lat": 28.901554756426506, "lng": 120.05761883192757}, "feature": {"sight_features": "", "sight_content": ""}}, {"title": "童话乐园·儿童游乐中心", "address": "时代广场二楼童装区（侧门电梯直达）", "image": "", "rank": 30, "time": 2, "location": {"lat": 33.24249226190039, "lng": 119.3392734713253}, "feature": {"sight_features": "", "sight_content": ""}}, {"title": "飞神赛车场", "address": "东城街道城南路580号永康市体育馆", "image": "", "rank": 31, "time": 2, "location": {"lat": 28.889830221135526, "lng": 120.03573979721563}, "feature": {"sight_features": "", "sight_content": ""}}, {"title": "银剑卡丁车", "address": "东城街道长城村科源路5街49号", "image": "", "rank": 32, "time": 2, "location": {"lat": 28.91476997398461, "lng": 120.0796764955482}, "feature": {"sight_features": "", "sight_content": ""}}, {"title": "龙山镇桥下影剧院", "address": "象尚线", "image": "", "rank": 33, "time": 2, "location": {"lat": 29.022236738098336, "lng": 120.21652130534922}, "feature": {"sight_features": "", "sight_content": ""}}, {"title": "地藏殿", "address": "金华市永康市灵岩景区", "image": "", "rank": 34, "time": 2.5, "location": {"lat": 28.90000877372454, "lng": 120.18707019033289}, "feature": {"sight_features": "", "sight_content": ""}}, {"title": "永康广电剧院", "address": "广电路168号", "image": "", "rank": 35, "time": 2, "location": {"lat": 28.883743654590035, "lng": 120.06097512229489}, "feature": {"sight_features": "", "sight_content": ""}}, {"title": "西朱休闲广场", "address": "浙江省金华市永康市大永线", "image": "", "rank": 36, "time": 2, "location": {"lat": 29.026306792629168, "lng": 120.1307081904171}, "feature": {"sight_features": "", "sight_content": ""}}, {"title": "三江广场", "address": "金华市永康市解放街12号", "image": "", "rank": 37, "time": 0.75, "location": {"lat": 28.902427349615753, "lng": 120.03574933456545}, "feature": {"sight_features": "", "sight_content": ""}}, {"title": "永康市儿童乐园", "address": "龙川公园内", "image": "", "rank": 38, "time": 3.5, "location": {"lat": 28.89649201848137, "lng": 120.04694627257393}, "feature": {"sight_features": "", "sight_content": ""}}, {"title": "城隍庙(下里溪卫生室西)", "address": "330国道附近", "image": "", "rank": 39, "time": 2.5, "location": {"lat": 28.527675407142485, "lng": 119.95716603929063}, "feature": {"sight_features": "", "sight_content": ""}}, {"title": "溪口农庄", "address": "溪心路附近", "image": "", "rank": 40, "time": 2.0, "location": {"lat": 28.878875249094648, "lng": 120.04729366528063}, "feature": {"sight_features": "", "sight_content": ""}}, {"title": "绿地生态庄园", "address": "浙江省金华市永康市花街镇大屋村加油站对面三三零国道旁", "image": "", "rank": 41, "time": 2, "location": {"lat": 28.93252494150471, "lng": 119.94437740273261}, "feature": {"sight_features": "", "sight_content": ""}}, {"title": "靠山屯农庄", "address": "双舟线附近", "image": "", "rank": 42, "time": 2, "location": {"lat": 29.015605526291633, "lng": 119.99514803744412}, "feature": {"sight_features": "", "sight_content": ""}}, {"title": "上范农庄", "address": "王赵线附近", "image": "", "rank": 43, "time": 2, "location": {"lat": 28.866513650110992, "lng": 120.01988427382334}, "feature": {"sight_features": "", "sight_content": ""}}, {"title": "楼龙农庄", "address": "金华金华永康市湖石线天表村", "image": "", "rank": 44, "time": 2, "location": {"lat": 28.864018288334513, "lng": 120.14117070168834}, "feature": {"sight_features": "", "sight_content": ""}}, {"title": "金苹峰农庄", "address": "龙山边附近", "image": "", "rank": 45, "time": 2, "location": {"lat": 28.96045913376186, "lng": 119.99145755227462}, "feature": {"sight_features": "", "sight_content": ""}}, {"title": "雕塑公园", "address": "华丰西路与南苑路交叉口西北200米", "image": "", "rank": 46, "time": 2.5, "location": {"lat": 28.898961193107343, "lng": 120.02301460442277}, "feature": {"sight_features": "", "sight_content": ""}}, {"title": "贝贝乐儿童乐园", "address": "金华市永康市解放街46号太平洋南龙百货F4", "image": "", "rank": 47, "time": 2, "location": {"lat": 28.90322717121467, "lng": 120.03549450685169}, "feature": {"sight_features": "", "sight_content": ""}}, {"title": "慈恩禅寺", "address": "西城街道龙川西路168号", "image": "", "rank": 48, "time": 2, "location": {"lat": 25.099228534063894, "lng": 117.03839977215345}, "feature": {"sight_features": "", "sight_content": ""}}, {"title": "新桃公园", "address": "浙江省金华市永康市新桃路10号", "image": "", "rank": 49, "time": 2, "location": {"lat": 28.905703674314843, "lng": 120.04575037102518}, "feature": {"sight_features": "", "sight_content": ""}}, {"title": "陈氏宗祠", "address": "浙江省金华市永康市芝英镇天河南路柿后幼儿园", "image": "", "rank": 50, "time": 2, "location": {"lat": 28.944438426288713, "lng": 120.14054343471365}, "feature": {"sight_features": "", "sight_content": ""}}, {"title": "下畈祠堂", "address": "金华市永康市双金线", "image": "", "rank": 51, "time": 2, "location": {"lat": 28.950107916382816, "lng": 119.95359000453122}, "feature": {"sight_features": "", "sight_content": ""}}, {"title": "观音佛堂", "address": "浙江省金华市永康市高圳路99号附近", "image": "", "rank": 52, "time": 2, "location": {"lat": 28.891507714475747, "lng": 120.05856820251226}, "feature": {"sight_features": "", "sight_content": ""}}, {"title": "回龙庙", "address": "诚信路附近", "image": "", "rank": 53, "time": 2, "location": {"lat": 39.0188851135942, "lng": 117.35159816400976}, "feature": {"sight_features": "", "sight_content": ""}}, {"title": "林氏宗祠", "address": "浙江省金华市永康市东城街道皇城北路蓝太阳幼儿园附近", "image": "", "rank": 54, "time": 2, "location": {"lat": 28.93002497484967, "lng": 120.06985605263154}, "feature": {"sight_features": "", "sight_content": ""}}, {"title": "大祠堂", "address": "金华市永康市", "image": "", "rank": 55, "time": 2, "location": {"lat": 28.894203967254516, "lng": 120.0545507107813}, "feature": {"sight_features": "", "sight_content": ""}}, {"title": "大福庙", "address": "浙江省金华市永康市东城街道九铃中路人民小学南150米", "image": "", "rank": 56, "time": 2, "location": {"lat": 28.915844124179507, "lng": 120.045297935862}, "feature": {"sight_features": "", "sight_content": ""}}, {"title": "有高公祠", "address": "舟山镇白岩下村", "image": "", "rank": 57, "time": 2, "location": {"lat": 28.84035216549328, "lng": 120.20704026111854}, "feature": {"sight_features": "", "sight_content": ""}}, {"title": "尖山", "address": "永康市", "image": "", "rank": 58, "time": 7.5, "location": {"lat": 28.894203967254516, "lng": 120.0545507107813}, "feature": {"sight_features": "", "sight_content": ""}}, {"title": "淘气堡儿童乐园", "address": "红星街36号附近", "image": "", "rank": 59, "time": 2, "location": {"lat": 38.09460759632792, "lng": 114.50053639707644}, "feature": {"sight_features": "", "sight_content": ""}}, {"title": "永康市一原锡雕博物馆", "address": "浙江省金华市永康市金山西路金山大厦25层", "image": "", "rank": 60, "time": 2, "location": {"lat": 28.898307919438924, "lng": 120.06952097120184}, "feature": {"sight_features": "", "sight_content": ""}}]}