{"cityName": "永胜", "days": 2, "cityImage": "", "spots": [{"title": "羊坪水库", "address": "丽江市永胜县羊坪彝族乡", "image": "", "rank": 1, "time": 2.0, "location": {"lat": 26.748911998119464, "lng": 100.8620543169581}, "feature": {"sight_features": "", "sight_content": ""}}, {"title": "梓里古镇", "address": "丽江市永胜县", "image": "", "rank": 2, "time": 2, "location": {"lat": 26.68995024541884, "lng": 100.75758141133471}, "feature": {"sight_features": "", "sight_content": ""}}, {"title": "大湾箐休闲山庄", "address": "308省道", "image": "", "rank": 3, "time": 2, "location": {"lat": 40.337133976011295, "lng": 116.52614205897426}, "feature": {"sight_features": "", "sight_content": ""}}, {"title": "他留山古墓群", "address": "东南30公里", "image": "", "rank": 4, "time": 2, "location": {"lat": 23.494386671660774, "lng": 116.51093198121578}, "feature": {"sight_features": "", "sight_content": ""}}, {"title": "银河洞", "address": "永胜县", "image": "", "rank": 5, "time": 3.5, "location": {"lat": 26.68995024541884, "lng": 100.75758141133471}, "feature": {"sight_features": "", "sight_content": ""}}, {"title": "天添旺农家乐", "address": "凤鸣南路附近", "image": "", "rank": 6, "time": 2, "location": {"lat": 34.69204403861215, "lng": 113.58909944727229}, "feature": {"sight_features": "", "sight_content": ""}}, {"title": "水上人家", "address": "永北镇220省道水上人家", "image": "", "rank": 7, "time": null, "location": {"lat": 26.642319982847834, "lng": 100.75559770843024}, "feature": {"sight_features": "", "sight_content": ""}}, {"title": "程海永联庄园", "address": "程海镇海西路金兰村", "image": "", "rank": 8, "time": 2, "location": {"lat": 26.527972733158016, "lng": 100.70306156113782}, "feature": {"sight_features": "", "sight_content": ""}}, {"title": "凤庆凤山公园", "address": "云南省凤庆县凤山镇 675900", "image": "", "rank": 9, "time": 2, "location": {"lat": 24.597036187843063, "lng": 99.92452252573818}, "feature": {"sight_features": "", "sight_content": ""}}, {"title": "兴文土林", "address": "云南省永胜县梁官镇兴文村 674208", "image": "", "rank": 10, "time": 2.5, "location": {"lat": 26.705039254208117, "lng": 100.70733426505728}, "feature": {"sight_features": "", "sight_content": ""}}, {"title": "凤凰公园", "address": "永北镇永北镇", "image": "", "rank": 11, "time": 3.5, "location": {"lat": 26.6584108736308, "lng": 100.76346984617105}, "feature": {"sight_features": "", "sight_content": ""}}, {"title": "他留民俗博物馆", "address": "六永线南50米", "image": "", "rank": 12, "time": 2, "location": {"lat": 26.605416540180745, "lng": 100.86488669938267}, "feature": {"sight_features": "", "sight_content": ""}}, {"title": "毛泽东祖先纪念园", "address": "丽江市永胜县", "image": "", "rank": 13, "time": 2, "location": {"lat": 26.68995024541884, "lng": 100.75758141133471}, "feature": {"sight_features": "", "sight_content": ""}}, {"title": "梦幻海贝儿童乐园", "address": "云南省丽江市永胜县田家巷48", "image": "", "rank": 14, "time": 2, "location": {"lat": 26.689578627974203, "lng": 100.7571539772889}, "feature": {"sight_features": "", "sight_content": ""}}, {"title": "民主广场", "address": "丽江市永胜县辕门路15号", "image": "", "rank": 15, "time": 2, "location": {"lat": 26.689010270816258, "lng": 100.75665957022069}, "feature": {"sight_features": "", "sight_content": ""}}, {"title": "边屯文化博物馆", "address": "程海镇北弯存(近毛氏宗祠)", "image": "", "rank": 16, "time": 2, "location": {"lat": 32.41455068085609, "lng": 119.88578382560397}, "feature": {"sight_features": "", "sight_content": ""}}, {"title": "法利鳄鱼", "address": "吉庆路与有余巷交叉口东南50米", "image": "", "rank": 17, "time": 2, "location": {"lat": 26.690663141080563, "lng": 100.75674371719269}, "feature": {"sight_features": "", "sight_content": ""}}, {"title": "香樟苑休闲园", "address": "凤鸣南路", "image": "", "rank": 18, "time": 2, "location": {"lat": 34.69204403861215, "lng": 113.58909944727229}, "feature": {"sight_features": "", "sight_content": ""}}, {"title": "程海湿地", "address": "云南省永胜县南部", "image": "", "rank": 19, "time": 2, "location": {"lat": 26.68995024541884, "lng": 100.75758141133471}, "feature": {"sight_features": "", "sight_content": ""}}, {"title": "他尔波忍", "address": "丽江市-宁蒗彝族自治县", "image": "", "rank": 20, "time": 2, "location": {"lat": 27.287727826051697, "lng": 100.85859038623477}, "feature": {"sight_features": "", "sight_content": ""}}, {"title": "他谷坪", "address": "丽江市-永胜县", "image": "", "rank": 21, "time": 2, "location": {"lat": 26.68995024541884, "lng": 100.75758141133471}, "feature": {"sight_features": "", "sight_content": ""}}, {"title": "小凉山彝族风情", "address": "云南省永胜县羊坪乡小凉山彝族村 674200", "image": "", "rank": 22, "time": 2, "location": {"lat": 26.74113569701563, "lng": 100.8221457723848}, "feature": {"sight_features": "", "sight_content": ""}}, {"title": "玉水村", "address": "云南省丽江市永胜县玉水村", "image": "", "rank": 23, "time": 2, "location": {"lat": 26.587847249735038, "lng": 100.8752095816387}, "feature": {"sight_features": "", "sight_content": ""}}]}