{"cityName": "永济", "days": 2, "cityImage": "", "spots": [{"title": "神潭大峡谷", "address": "运城永济市永济电机厂南2公里处水峪口村", "image": "", "rank": 1, "time": 7.5, "location": {"lat": 34.84037674661764, "lng": 110.43812974233722}, "feature": {"sight_features": "特色1 被誉为中条奇峡、梦幻水乡。 特色2 自古被誉为“九洲太平”。", "sight_content": "神潭大峡谷景区是山西永济市东南方向中条山北麓的一个山谷，它的范围包括整个水峪口村以及村后的深山、峡谷和森林。\n景区位于山西永济市南中条山内，原名水谷，距今已有千年以上历史。山势巍峨，溪流山泉遍布，自然植被独特，万亩天然柏林郁郁葱葱，为中条山区所罕见。整个景区林木密布，山花烂漫。\n主峰“九洲疙瘩”海拨1778.3米，突兀于群山之中，山坡陡峭，山顶平缓，云雾天九个峰顶平浮于云海之上，亦真亦幻，自古被寓为“九洲太平”。据考证，景区内有关王庙、娘娘庙、牡丹庙、柏神庙、香花寺、玉皇庙、观音庙、药王庙、龙王庙、庵院、唐朝的罗成点将台、呼延瓒练武馆、清朝孟家园古堡、尚书孟世芳避暑山庄等遗址。\n景区以两瀑三溪一百零八潭为代表，与千年神龟、娥皇女英沐浴潭、关公圣像、关公试刀台、北宋摩崖石刻、天梯、一线天等景点组成高山峡谷自然景观。奇峰、怪石、翠海、叠瀑等组合成神妙、奇幻、幽美的自然风光，被誉为“梦幻水乡”“人间仙境”。 集观光、休闲、餐饮、娱乐为一体的自然风景度假区。"}}, {"title": "普救寺", "address": "运城市永济县境内的峨眉塬头", "image": "", "rank": 2, "time": 2.5, "location": {"lat": 34.87282971471371, "lng": 110.45457767130965}, "feature": {"sight_features": "特色1 历史名剧《西厢记》故事的发生地", "sight_content": "普救寺位于山西省西南部永济县境内的峨眉塬头。南向紧邻古蒲州城址，东连西厢村。寺址高耸，松柏满垣，西临黄河湾，水势汹涌澎湃；东近中条山，犹如屏障峙立，视线广阔而开朗。塬头之下一条宽阔的坡底长街，是当年通向长安的古驿道。这里是我国历史名剧《西厢记》故事的发生地。寺内有座方形砖塔，原名舍利塔，俗称莺莺塔。这座塔同北京天坛的回音壁、河南宝轮寺塔、四川潼南县大佛寺内的“石琴”，并称为我国现存的四大回音建筑；和缅甸掸邦的摇头塔、匈牙利索尔诺克的音乐塔、摩洛哥马拉克斯的香塔、法国巴黎的钟塔、意大利的比萨斜塔，并称为世界六大奇塔。\n\n\n普救寺的建筑富丽堂皇，“红墙匝绕，古塔高耸，绿树丛中，殿宇隐现”。普救寺的建筑由寺院和园林两部分组成，寺院部分在前，园林部分在后。山门上悬挂着中国佛教协会会长赵朴初题写的寺名横匾。\n普救寺的寺院建筑，大致分布在三条轴线上。目前至后，西轴线上的建筑有大钟楼、塔院回廊、莺莺塔、大雄宝殿，最后为花园；中轴线上有天王殿、菩萨洞、弥陀殿、罗汉堂、十王堂、藏经阁；东轴线上有前门、僧舍、枯木堂、正法堂、斋堂、香积厨等。大雄宝殿内供着三尊石佛。这三尊石佛都是立像，其中释迦牟尼佛像高三点九米，均是八十年代修复普救寺时在塔后三十三米处的地下出土的。从佛像的艺术风格看，这当是南北朝时期的作品。\n这里是我国历史名剧《西厢记》故事的发生地。寺内有座方形砖塔，原名舍利塔，俗称莺莺塔。塔内外呈四方形，塔檐呈微凹的曲线形式，这些都说明莺莺塔保留了某些唐塔的特征。塔内外呈四方形，塔檐呈微凹的曲线形式，这些都说明莺莺塔保留了某些唐塔的特征。回廊围绕着的莺莺塔，是用砖砌筑的。全塔十三层，高三十六点七六米。七层以上突然收缩，使整个塔显得更为灵巧。更为引人注目的是，莺莺塔具有奇特的回声效应。在塔的附近以石相击，人们在一定位置便可听到“咯哇、咯哇”的回声，类似青蛙鸣叫。莺莺塔还具有收音机、窃听器和扩大器的效能。在莺莺塔下，人们可以听到从塔内传来的二点五公里外蒲州镇上的唱戏声、锣鼓声，附近村镇上的汽车声、拖拉机声，人们在家里的说话声、嬉笑声，以及鸡鸣狗叫声。另外，塔下的鸟叫声，通过莺莺塔的“扩音”之后，声音变大，可以传播到很远的地方。"}}, {"title": "五老峰", "address": "永济市市区东南16公里的中条山脉", "image": "", "rank": 3, "time": 1.5, "location": {"lat": 34.80612993144822, "lng": 110.50231854972236}, "feature": {"sight_features": "特色1 奇特的喀斯特地质 特色2 史称东华山，为北方道教名山，海拔1809.3米，奇峰险峻，丹霞地貌 特色3 五老峰在中条山上，因五峰相倚，形同五位老人而得名", "sight_content": "山西运城永济五老峰风景名胜区，位于山西省永济市市区东南16公里的中条山脉，地处晋、秦、豫三省交汇之黄河金三角。是河洛文化早期传播的圣地，也是我国北方道教全真派的发祥地之一。《七鉴道书》称之为“道家天下第五十二福地”，是我国北方道教文化名山。它与晋北佛教圣地五台山南北对峙，齐名天下，有“晋北拜佛五台山，晋南问道五老峰”之说；与西岳华山遥遥相对，历史上素有“东华山”之称誉。1992年国家林业部以林造字〔1992〕200文件批准建立五老峰国家森林公园，1994年1月10日国务院批准为“五老峰风景名胜区”，2011年8月23日被国家旅游局评定为国家4A级旅游景区。\n五老峰风景秀美宜人，生态环境优美，动植物种类繁多。奇特的喀斯特地质、地貌造就了许多罕见奇观，具有雄、险、奇、秀、仙之特点。《水经注》称：“奇峰霞举，孤标秀出，罩络群峰之表，翠柏荫峰，清泉灌顶”。山中有9泉、12洞、36峰，盛时曾有64观庵庙宇，嶙峋翠巍，秀甲三晋。目前，景区内配套设施完善，有可容纳百余人住宿、餐饮、会议的三星级宾馆——云峰阁；有惊险刺激的盘山滑道、高空滑索和铁索天桥；有轻松便捷的登山观光索道；有集消暑纳凉、餐饮、娱乐于一体的秀丽景点“北方水乡”——锦绣谷。\n\n\n\n五老峰，这里层层峰峦，森森古木，各种生物覆盖着整个山野。花红草绿，山光水色，风光旖旎非凡，故有“北有五台观庙宇，南在五老看风光”之说。游人往西南远眺，见有四座山峰仙态神姿，隐现于云烟苍茫之中，将海拔高1809．3米的玉柱峰环抱其中，“有偃蹇伛偻之状”，犹如五位老人抱拳作揖恭迎贵宾之势。主峰玉柱峰，石壁如削，形同玉柱，直插云霄，又名“云峰”、“灵峰”。游客需穿过80余米的惊险铁索天桥到达玉柱峰，顶上有3000多平方米的坦地，北高南低，有七大人文景点：南天门、灵官庙、玉皇殿、秀士殿、千子堂、祖师庙、后土娘娘庙等建筑遗址。以玉柱峰为中心，左有东锦屏峰，峰腰有药师洞；右有西锦屏峰，峰下有雷公洞；北为太乙峰，有三清殿、五老殿；南为棋盘峰。“四峰帮立不敢前，俨然商皓翌帝子”。还有五指峰、笔架峰等大小山峰31座，或作仙女弄姿，或像猿猴仰视，或如椽笔耸天，或若笔架横列，珠辉玉映，惟妙惟肖，共占地有50平方公里。这里的山奇水秀，无处不绿，还有松涛、云海、奇峰、怪石、松翠、流泉、飞瀑等景观，呈现出千姿百态的自然风光，游人到此，恰似至身于神奇的图画之中。\n从众多的碑石上看，五老峰曾有千年的繁荣纪事，又有许多民间传闻轶事，宋代杨业在此屯兵练武，兵围普救寺的孙飞虎在此安营扎寨，道教八仙中的张果老、吕洞宾等人物都有许多传奇的趣闻，更增添了五峰山的神秘色彩。据史籍记载，早在晋代张僧鉴的《浔阳记》中就有“五老峰横隐苍空，其形势如河中府虞乡县五老山”的记载。北魏郦道元的《水经注》中有“奇峰霞举，孤标峰出，罩络群峰之表，翠柏荫峰，清泉灌顶”的描写。历代文人墨客都有文章诗赋予以赞美和记述，如碑文记述“条山秀甲三晋，五老峰嶙峋翠巍秀丽更甲条山”，誉为三晋第一胜景。据考察，在山上的古建筑遗址中，有南北朝的石雕佛像，有唐代的细绳纹砖，宋代的方形花砖，明代的彩塑人像，以及大量的碑竭石刻，说明古代五老山早就成为游客的留连忘返之所，更是佛道之士修炼、禅坐、栖居之地。《七鉴道书》称之为“道家天下第五十二福地”。"}}, {"title": "蒲津渡遗址", "address": "运城市永济市蒲州镇西厢村", "image": "", "rank": 4, "time": 2.5, "location": {"lat": 34.84985900086509, "lng": 110.33905051448679}, "feature": {"sight_features": "特色1 被国务院公布为全国重点文物保护单位", "sight_content": "蒲津渡遗址（黄河大铁牛）位于山西省永济市区西18公里的蒲州故城西门外，黄河东岸侧，东与《西厢记》故事发生地普救寺相依，西与鹳雀楼相望，处于旅游黄金线上。2001年被国务院公布为全国重点文物保护单位。\n\n蒲津渡遗址（黄河大铁牛）于1989年发掘出土。1991年，在国家文物局的指导下，省、地、市文物部门组成了联合考古发掘队，对遗址进行了全面科学地清理发掘，完整出土了唐开元十二年（724年）铸造的铁牛四尊、铁人四尊、铁山两座、铁镦柱四个、七星铁柱一组、明代护岸石堤70余米、明正德16年（1521年）记事碑一通。\n\n四尊铁牛，是迄今发现的历史最早、体积最大、分量最重、数量最多、工艺最精的渡口铁牛，是中华古代文明成就的重大发现。联合国副秘书长冀朝铸1991年8月30日亲临蒲津渡遗址，题写了中英文：“蒲津古渡，重放异彩”。1994年元月31日江泽民主席视察时连声称赞：国宝！国宝！并作亲笔题写：“蒲津渡遗址”。同时嘱咐文化部门尽快拿出保护方案。国家文物局组织有关专家多次论证后确定了“铁牛顶升保护方案”。山西省考古所于1999年开始实施了此项工程，即把铁牛、铁人、铁山、铁柱等文物原地垂直顶升12.2米，在地表上建成4米高的2268平方米的展示平台，恢复原貌。工程于2005年元月竣工，正式向游人开放。我国著名桥梁专家、英国剑桥大学《二十世纪世界建筑》特约作者唐寰澄先生见到气势磅礴的铁牛后，十分激动，他在向国外宣传报导铁牛时指出：蒲津渡铁牛不同于扬军阵，耀帝威的秦兵马佣；亦不同于宣佛法、炫珍宝的释迦舍利；也不同于讲五行，为厌胜的镇水石犀。这是一个具体的工程建设，是具有实际功能的艺术珍品，是实用技术同雕塑艺术有机结合的典范，是中国古代劳动人民对世界桥梁、冶金、雕塑事业的伟大贡献，是世界桥梁史上唯我独尊的永世无价之宝。"}}, {"title": "永济海纳象牙温泉", "address": "运城市永济河东大道南端", "image": "", "rank": 5, "time": 2.5, "location": {"lat": 34.86988679567226, "lng": 110.44131182072488}, "feature": {"sight_features": "", "sight_content": ""}}, {"title": "雪花山水上大世界", "address": "运城市永济市关铝大道南500米", "image": "", "rank": 6, "time": 2, "location": {"lat": 34.87282971471371, "lng": 110.45457767130965}, "feature": {"sight_features": "特色1 雪花山水上大世界占地30000余平米，共分为冲浪区、儿童区、滑梯区、水疗区、休闲区五个区域。 特色2 冲浪区有海啸冲浪、山洪暴发、幽洞漂流；儿童区有魔幻水屋、动感精灵；滑梯区有超级浪摆、炫彩滑梯、蛟龙入海；水疗区有浪涌按摩、热带雨林、保健泡池、矿物盐疗；休闲区有沙滩风情、绿荫长廊、水帘长廊。 特色3 比基尼之夜更有超炫巨屏、急速光幕、激情篝火，与您共享五彩浪漫的消夏之夜。", "sight_content": "雪花山水上大世界占地30000余平米，共分为冲浪区、儿童区、滑梯区、水疗区、休闲区五个区域。\n冲浪区有海啸冲浪、山洪暴发、幽洞漂流；儿童区有魔幻水屋、动感精灵；滑梯区有超级浪摆、炫彩滑梯、蛟龙入海；水疗区有浪涌按摩、热带雨林、保健泡池、矿物盐疗；休闲区有沙滩风情、绿荫长廊、水帘长廊。\n比基尼之夜更有超炫巨屏、急速光幕、激情篝火，与您共享五彩浪漫的消夏之夜。"}}, {"title": "五老峰国际滑雪场", "address": "运城市永济市五老峰景区正门西侧", "image": "", "rank": 7, "time": 2, "location": {"lat": 34.87282971471371, "lng": 110.45457767130965}, "feature": {"sight_features": "", "sight_content": ""}}, {"title": "柳隐山大峡谷风景区", "address": "运城市永济市虞乡镇南二公里", "image": "", "rank": 8, "time": 2, "location": {"lat": 34.83826707354905, "lng": 110.6654718812257}, "feature": {"sight_features": "", "sight_content": ""}}, {"title": "永济唐铁牛博物馆", "address": "山西省永济市蒲州镇", "image": "", "rank": 9, "time": 2.5, "location": {"lat": 34.87729774177103, "lng": 110.31409197173993}, "feature": {"sight_features": "", "sight_content": ""}}, {"title": "永济五老峰索道", "address": "运城市永济市五老峰景区内", "image": "", "rank": 10, "time": 2, "location": {"lat": 34.87282971471371, "lng": 110.45457767130965}, "feature": {"sight_features": "", "sight_content": ""}}, {"title": "王官谷", "address": "永济市虞乡镇王官峪村", "image": "", "rank": 11, "time": 2, "location": {"lat": 34.84310257581737, "lng": 110.69313729515221}, "feature": {"sight_features": "特色1 谷幽壑深，林荫层次，奇峰异石 特色2 分东，西两涧瀑布", "sight_content": "王官峪谷幽壑深，飞瀑流泉，林荫层次，奇峰异石。分东，西两涧瀑布：东瀑布称水珠垂帘，落差48.64米，崖石绿苔覆盖，水从石出，落地珍珠。\n西瀑布称石崖喷雪，落差220米。主峰天柱峰，双鹤峰，百二盘，黄沙洞。"}}, {"title": "神潭梦回三国实景演绎", "address": "运城永济市永济电机厂南2公里处水峪口村", "image": "", "rank": 12, "time": 2, "location": {"lat": 34.84037674661764, "lng": 110.43812974233722}, "feature": {"sight_features": "", "sight_content": ""}}, {"title": "柳园游乐场", "address": "永济市河东大道柳园公园内", "image": "", "rank": 13, "time": 2, "location": {"lat": 34.86456304067816, "lng": 110.43752779679804}, "feature": {"sight_features": "", "sight_content": ""}}, {"title": "舜帝山森林公园自然文化风景区", "address": "山西省运城市永济市城区主街舜都大道南端", "image": "", "rank": 14, "time": 2, "location": {"lat": 34.87310732262226, "lng": 110.45591099833064}, "feature": {"sight_features": "", "sight_content": ""}}, {"title": "红艺人演绎中心", "address": "运城市永济市水峪村神潭大峡谷景区内", "image": "", "rank": 15, "time": 2, "location": {"lat": 34.76724441839841, "lng": 110.6294870569542}, "feature": {"sight_features": "", "sight_content": ""}}, {"title": "紫韵花海薰衣草庄园", "address": "运城市永济市城东街道新街村", "image": "", "rank": 16, "time": 2, "location": {"lat": 34.88049455632626, "lng": 110.53931544360853}, "feature": {"sight_features": "", "sight_content": ""}}, {"title": "杨贵妃故里景区", "address": "韩阳镇独头村", "image": "", "rank": 17, "time": 1.5, "location": {"lat": 34.704608977011354, "lng": 110.27868992406634}, "feature": {"sight_features": "", "sight_content": ""}}, {"title": "雪花山滑雪场嬉雪乐园", "address": "关铝大道南500米", "image": "", "rank": 18, "time": 2, "location": {"lat": 44.57338246104403, "lng": 129.6114277565649}, "feature": {"sight_features": "", "sight_content": ""}}, {"title": "虞乡农场", "address": "821县道附近", "image": "", "rank": 19, "time": 2, "location": {"lat": 26.32211191469647, "lng": 114.54191955901226}, "feature": {"sight_features": "", "sight_content": ""}}, {"title": "永济市绿丰葡萄种植专业合作社", "address": "涑水西街附近", "image": "", "rank": 20, "time": 2.5, "location": {"lat": 34.89488186741374, "lng": 110.45027002689764}, "feature": {"sight_features": "", "sight_content": ""}}, {"title": "永济市水上玻璃店", "address": "舜都大道北376号附近", "image": "", "rank": 21, "time": null, "location": {"lat": 34.88791360229108, "lng": 110.45295865528901}, "feature": {"sight_features": "", "sight_content": ""}}, {"title": "永济市图书馆", "address": "舜都大道13号永济市图书馆附近", "image": "", "rank": 22, "time": 1.5, "location": {"lat": 34.87183669644544, "lng": 110.45710595755732}, "feature": {"sight_features": "", "sight_content": ""}}, {"title": "杨贵妃故里", "address": "山西省运城市永济市", "image": "", "rank": 23, "time": 1.5, "location": {"lat": 34.87282971471371, "lng": 110.45457767130965}, "feature": {"sight_features": "", "sight_content": ""}}, {"title": "神医扁鹊之庙", "address": "336省道附近", "image": "", "rank": 24, "time": 2, "location": {"lat": 31.893686636307606, "lng": 121.10505712819689}, "feature": {"sight_features": "", "sight_content": ""}}, {"title": "关帝庙", "address": "中山西街附近", "image": "", "rank": 25, "time": 0.5, "location": {"lat": 33.64466123588556, "lng": 116.98405833038282}, "feature": {"sight_features": "", "sight_content": ""}}, {"title": "中华神医扁鹊庙", "address": "山西永济虞乡镇扁鹊庙", "image": "", "rank": 26, "time": 2, "location": {"lat": 34.853079430526535, "lng": 110.6654718812257}, "feature": {"sight_features": "", "sight_content": ""}}, {"title": "永济人民剧院", "address": "舜都大道南36号", "image": "", "rank": 27, "time": 2.5, "location": {"lat": 34.86902730187474, "lng": 110.45657433496667}, "feature": {"sight_features": "", "sight_content": ""}}, {"title": "南山广场", "address": "山西省运城市永济市中山西街1号", "image": "", "rank": 28, "time": 2, "location": {"lat": 34.85791173461825, "lng": 110.45702927730068}, "feature": {"sight_features": "", "sight_content": ""}}, {"title": "运城永济锦绣度假村", "address": "运城五老峰（枫林山庄度假村）", "image": "", "rank": 29, "time": 1.0, "location": {"lat": 34.83196073296049, "lng": 110.59764937145944}, "feature": {"sight_features": "", "sight_content": ""}}, {"title": "舜都广场", "address": "运城市永济市舜都大道13号", "image": "", "rank": 30, "time": 2, "location": {"lat": 34.87183669644544, "lng": 110.45710595755732}, "feature": {"sight_features": "", "sight_content": ""}}, {"title": "秀水山庄", "address": "山西省运城市永济市城东街道雪花山风景区", "image": "", "rank": 31, "time": 2, "location": {"lat": 34.86099125650609, "lng": 110.51942758573655}, "feature": {"sight_features": "", "sight_content": ""}}, {"title": "蒲园", "address": "银杏东街", "image": "", "rank": 32, "time": 2, "location": {"lat": 34.86861485998159, "lng": 110.46266905668224}, "feature": {"sight_features": "", "sight_content": ""}}, {"title": "开张基督教会", "address": "鸿运加油站(开张镇)附近", "image": "", "rank": 33, "time": 2, "location": {"lat": 34.95330516506422, "lng": 110.57702081937244}, "feature": {"sight_features": "", "sight_content": ""}}, {"title": "永济市基督教会", "address": "涑水西街289号", "image": "", "rank": 34, "time": 2.5, "location": {"lat": 34.88702126479936, "lng": 110.4325919664446}, "feature": {"sight_features": "", "sight_content": ""}}, {"title": "麒麟岛水上乐园", "address": "山西省运城市永济市市府西街", "image": "", "rank": 35, "time": 2, "location": {"lat": 34.872984478642195, "lng": 110.44260561960851}, "feature": {"sight_features": "", "sight_content": ""}}, {"title": "曾家营九龙口菩萨寺", "address": "运城市永济市", "image": "", "rank": 36, "time": 2, "location": {"lat": 34.87282971471371, "lng": 110.45457767130965}, "feature": {"sight_features": "", "sight_content": ""}}, {"title": "鑫大空中游乐园", "address": "舜都大道鑫大购物中心4楼", "image": "", "rank": 37, "time": 2, "location": {"lat": 34.87310732262226, "lng": 110.45591099833064}, "feature": {"sight_features": "", "sight_content": ""}}, {"title": "星期六儿童成长乐园", "address": "山西省运城市永济市河东大道辅路", "image": "", "rank": 38, "time": 2, "location": {"lat": 34.86988679567226, "lng": 110.44131182072488}, "feature": {"sight_features": "", "sight_content": ""}}, {"title": "晋南民俗博览园", "address": "雪花山风景区", "image": "", "rank": 39, "time": 2, "location": {"lat": 34.86099125650609, "lng": 110.51942758573655}, "feature": {"sight_features": "", "sight_content": ""}}, {"title": "舜帝山欢乐谷", "address": "舜都大道南侧舜帝山公园广场东侧", "image": "", "rank": 40, "time": null, "location": {"lat": 34.87310732262226, "lng": 110.45591099833064}, "feature": {"sight_features": "", "sight_content": ""}}, {"title": "柳宗元葡萄园", "address": "于乡镇东阳朝村", "image": "", "rank": 41, "time": 2, "location": {"lat": 34.89261774311445, "lng": 110.62132483929383}, "feature": {"sight_features": "", "sight_content": ""}}, {"title": "消费时代广场", "address": "银杏西街与康乐路交汇处向北200米", "image": "", "rank": 42, "time": 2, "location": {"lat": 21.614610853148488, "lng": 110.28820210352386}, "feature": {"sight_features": "", "sight_content": ""}}, {"title": "运城快乐向前冲", "address": "永济电机厂南2公里处水峪口村神潭大峡谷水上乐园内", "image": "", "rank": 43, "time": 1.0, "location": {"lat": 34.84037674661764, "lng": 110.43812974233722}, "feature": {"sight_features": "", "sight_content": ""}}, {"title": "干樊小农场", "address": "014乡道附近", "image": "", "rank": 44, "time": 2, "location": {"lat": 47.886927740402655, "lng": 132.7138064036199}, "feature": {"sight_features": "", "sight_content": ""}}, {"title": "金禾农场", "address": "卿头镇伍冢村", "image": "", "rank": 45, "time": 2, "location": {"lat": 35.0006873551747, "lng": 110.70371029441141}, "feature": {"sight_features": "", "sight_content": ""}}, {"title": "翠丰园生态农庄", "address": "东姚温村", "image": "", "rank": 46, "time": 2, "location": {"lat": 34.84392125160298, "lng": 110.39157314768849}, "feature": {"sight_features": "", "sight_content": ""}}, {"title": "樱花园", "address": "康乐路", "image": "", "rank": 47, "time": 2.5, "location": {"lat": 38.17597078069687, "lng": 115.19161698140071}, "feature": {"sight_features": "", "sight_content": ""}}, {"title": "吉尔特庄园", "address": "河东大道", "image": "", "rank": 48, "time": 2, "location": {"lat": 22.932969874922495, "lng": 113.23079482028784}, "feature": {"sight_features": "", "sight_content": ""}}, {"title": "未来星少儿电视艺术团", "address": "河东大道", "image": "", "rank": 49, "time": 2, "location": {"lat": 22.932969874922495, "lng": 113.23079482028784}, "feature": {"sight_features": "", "sight_content": ""}}, {"title": "老班长大锅台", "address": "中山西街庄子村往西200米", "image": "", "rank": 50, "time": 2, "location": {"lat": 34.8511632890541, "lng": 110.42084778700391}, "feature": {"sight_features": "", "sight_content": ""}}, {"title": "东街女人坊", "address": "山西省永济市市府东街14号", "image": "", "rank": 51, "time": 2, "location": {"lat": 34.87294086759505, "lng": 110.45919980080271}, "feature": {"sight_features": "", "sight_content": ""}}, {"title": "Supercool极限蹦床主题公园", "address": "运城市-永济市-涑水东街91号汽配城东100米", "image": "", "rank": 52, "time": 2, "location": {"lat": 34.88541530055564, "lng": 110.46145450092087}, "feature": {"sight_features": "", "sight_content": ""}}, {"title": "伍姓湖湿地", "address": "运城市-永济市", "image": "", "rank": 53, "time": 2, "location": {"lat": 34.87282971471371, "lng": 110.45457767130965}, "feature": {"sight_features": "", "sight_content": ""}}, {"title": "西伍姓村", "address": "运城市-永济市", "image": "", "rank": 54, "time": 2, "location": {"lat": 34.87282971471371, "lng": 110.45457767130965}, "feature": {"sight_features": "", "sight_content": ""}}, {"title": "东伍姓村", "address": "运城市-永济市", "image": "", "rank": 55, "time": 2, "location": {"lat": 34.87282971471371, "lng": 110.45457767130965}, "feature": {"sight_features": "", "sight_content": ""}}, {"title": "伍姓湖", "address": "运城市-永济市-伍姓湖", "image": "", "rank": 56, "time": 2, "location": {"lat": 34.87282971471371, "lng": 110.45457767130965}, "feature": {"sight_features": "", "sight_content": ""}}, {"title": "伍姓湖农场", "address": "运城市-永济市-古干线", "image": "", "rank": 57, "time": 2, "location": {"lat": 34.92657126720632, "lng": 110.52691521728099}, "feature": {"sight_features": "", "sight_content": ""}}, {"title": "伍姓屯", "address": "运城市-永济市", "image": "", "rank": 58, "time": 2, "location": {"lat": 34.87282971471371, "lng": 110.45457767130965}, "feature": {"sight_features": "", "sight_content": ""}}, {"title": "运城莺莺塔", "address": "山西省永济市蒲州镇西厢村", "image": "", "rank": 59, "time": 1.0, "location": {"lat": 34.84985900086509, "lng": 110.33905051448679}, "feature": {"sight_features": "", "sight_content": ""}}, {"title": "蒲州故城", "address": "山西省永济市西约13公里处", "image": "", "rank": 60, "time": 2, "location": {"lat": 34.87282971471371, "lng": 110.45457767130965}, "feature": {"sight_features": "", "sight_content": ""}}]}