{"cityName": "永春", "days": 2, "cityImage": "", "spots": [{"title": "牛姆林生态旅游区", "address": "泉州市永春县下洋镇牛姆林", "image": "", "rank": 1, "time": 7.5, "location": {"lat": 25.433429537824065, "lng": 117.94872213472253}, "feature": {"sight_features": "特色1 寻找野趣与野生猕猴近距离接触。 特色2 原始森林景观，空气清新，游客寥寥，游山的好去处。", "sight_content": "牛姆林，又称姆林山，因“势若牛姆，孕崽怀宝”而得名。它位于永春县下洋镇境内。1958年划为森林禁伐区，1984年建立省级自然保护区，1998年规划建设生态旅游区，面积1000公顷。牛姆林是在闽南地区保留较完好的特色原始森林群体，被誉为闽南的西双版纳。\n牛姆林是避暑胜地。它位于南亚热带北缘，海拔490—1105米，属亚热带季风山地气候，年平均气温17—18℃，最低气温-4—5℃，夏季月平均气温25—28℃，常年云雾缭绕，四季如春，堪与庐山媲美。这里动植物种类繁多，现已查明，区内有维管束植物 135 科 760 种，共中宿轴木兰、钟萼木、水松、半枫荷、闽楠、闽鄂山茶、白桂木、红豆杉、红豆树、青檀等被列入国家珍稀濒危植物名录，百日青、青钱柳、深山含笑、黄檀列为全省珍贵树种，其中有牛姆林“镇山之宝”之称的青钱柳单株之高大在全省尚属罕见，群落之大更是全省数一。还有野生脊椎动物 54 科 118 种，其中蟒蛇、穿山甲、苏门羚、大灵猫、小灵猫、鹰类、白鹇等 11 种动物属国家重点保护对象，另有野生蝶类 73 种，其中金斑喙凤蝶属国家一级保护。\n牛姆林是名人仙迹荟萃胜地。宋朝永春进士陈知柔诗：“霜后绿筠仍旧色，云中金磬出新声”。都是描写臼尖牛姆林的旖旎风光。1929年8月朱德率三千红军进驻福鼎村时，也到牛姆林一带勘查，称它是：绿涛奔牛，仙泉流韵。牛姆林是天然陈列馆。这里动植物种类繁多，现已查明，区内有维管束植物135科760种，共中宿轴木兰、钟萼木、水松、半枫荷、闽楠、闽鄂山茶、白桂木、红豆杉、红豆树、青檀等被列入国家珍稀濒危植物名录，百日青、青钱柳、深山含笑、黄檀列为全省珍贵树种，其中有牛姆林“镇山之宝”之称的青钱柳单株之高大在全省尚属罕见，群落之大更是全省数一。还有野生脊椎动物54科118种，其中蟒蛇、穿山甲、苏门羚、大灵猫、小灵猫、鹰类、白鹇等11种动物属国家重点保护对象，另有野生蝶类73种，其中金斑喙凤蝶属国家一级保护。\n牛姆林是回归自然的乐园。牛姆林虽然没有寺院香火，但它那独特的森林景观，魅力无穷，当你踏进牛姆林，仿佛置身于大自然的摇篮，走进一个神奇的森林世界；穿行林中，那透过树冠的道道晨曦，让人心旷神怡，清新的空气和无尽的芳菲，沁人肺腑，令人流连忘返。正如诗人笔下的“海上蓬莱岛，人间桃花源，山中牛姆林，快活胜神仙。”毓秀流韵的牛姆林，春天，山花烂漫，百鸟欢唱，处处蒸腾着向上的生机；夏天，流水淙淙，蝉声不绝，绿树掩映着沁人的凉爽；秋天，山红涧碧，清风徐徐，霜叶吟唱着大自然的妙语；冬天，群鸟栖息，百兽云集，臼山涌动着神奇的乐园。可谓“松涛竹舞花竞开，蝶飞鸟欢春常在”。"}}, {"title": "永春东溪大峡谷", "address": "泉州市永春县呈祥乡东溪大峡谷生态旅游区", "image": "", "rank": 2, "time": 3.0, "location": {"lat": 25.43548064424213, "lng": 118.1515644190651}, "feature": {"sight_features": "", "sight_content": ""}}, {"title": "北溪文苑风景区", "address": "泉州市永春县岵山镇北溪村", "image": "", "rank": 3, "time": 3.0, "location": {"lat": 25.251579864648715, "lng": 118.25097509825994}, "feature": {"sight_features": "特色1 泉州十佳生态旅游自然景区", "sight_content": "北溪文苑旅游风景区位于永春县岵山镇北溪村，是泉州十佳生态旅游自然景区，全国农业旅游示范点。傍依泉三高速，距泉州市区、晋江机场60分钟车程，距厦门市、厦门国际机场90分钟车程，交通极为便利。\n北溪文苑旅游景区占地方圆3.4平方公里，建筑面积20000平米，内有三大壮观瀑布：九叠泉瀑布、石门溪瀑布、双溪瀑布，其形如仙人解佩，如白练垂天，亦似玉龙饮涧。激石泉响，吼声如雷，银注幽潭，飞珠似玉，如烟似雾；三大瀑布鬼斧神工，各具特色，蔚为壮观。山间石径、沿山木栈道，曲折通幽，景色醉人。\n景区半山处分别建有各色亭台楼榭，以便游人观赏美景，分别取名为醉春亭，悦色亭，云从亭，游心亭，晤对亭。登高望远，溪桥流连，翠峰群峦秀美，峭壁奇峻，植被苍翠，瀑布飞悬，莲塘相连，田园交错，村居如画。春天的北溪，粉红、深红花瓣，纯白单瓣等各种娇艳的桃花绽放山谷，到处弥漫着桃花的清香，沁人心脾，木栈道蜿蜒其间，爬满缤纷的落英，缓缓舒展桃花浴的浪漫与闲逸。北溪生态资源丰富，森林树木种类繁多，现有杉、松、黄桐、重阳木、米槠、木荷、枫香、闽粤栲、桂花等50多个树种，种有芦柑、龙眼、早钟6号枇杷、文旦柚等名优水果500多亩。"}}, {"title": "清源洞", "address": "泉州市丰泽区清源山景区内", "image": "", "rank": 4, "time": 0.4, "location": {"lat": 24.947257987184898, "lng": 118.61969596725633}, "feature": {"sight_features": "", "sight_content": ""}}, {"title": "乌髻岩", "address": "泉州市永春县锦斗镇洪内村", "image": "", "rank": 5, "time": 1.0, "location": {"lat": 25.422989213555283, "lng": 118.10043501101438}, "feature": {"sight_features": "", "sight_content": ""}}, {"title": "留安山", "address": "泉州市永春县城东南隅，大路头街与留安山西路交叉口附近。", "image": "", "rank": 6, "time": 2.5, "location": {"lat": 25.32538530120569, "lng": 118.31428798049767}, "feature": {"sight_features": "", "sight_content": ""}}, {"title": "中国永春拳第一村（大羽村）", "address": "泉州市永春县五里街镇大羽村", "image": "", "rank": 7, "time": 2, "location": {"lat": 25.337541163535224, "lng": 118.27907319899218}, "feature": {"sight_features": "", "sight_content": ""}}, {"title": "百丈岩风景区", "address": "泉州市永春县蓬壶镇观山村", "image": "", "rank": 8, "time": 3.5, "location": {"lat": 25.361336888124008, "lng": 118.18945105130908}, "feature": {"sight_features": "", "sight_content": ""}}, {"title": "云河谷", "address": "泉州市永春县外山乡境内", "image": "", "rank": 9, "time": 2, "location": {"lat": 25.330619021437684, "lng": 118.48853518377122}, "feature": {"sight_features": "", "sight_content": ""}}, {"title": "通仙桥", "address": "泉州市永春县东平乡东美村湖洋溪上", "image": "", "rank": 10, "time": 0.4, "location": {"lat": 25.290531479860952, "lng": 118.39124471847764}, "feature": {"sight_features": "", "sight_content": ""}}, {"title": "雪山风雅颂", "address": "泉州市永春县呈祥乡雪山山腰处", "image": "", "rank": 11, "time": 2, "location": {"lat": 25.465457138473393, "lng": 118.13895718272848}, "feature": {"sight_features": "", "sight_content": ""}}, {"title": "岵山古镇", "address": "泉州市永春县三四七县道", "image": "", "rank": 12, "time": 2, "location": {"lat": 25.286671061932644, "lng": 118.26381667555486}, "feature": {"sight_features": "", "sight_content": ""}}, {"title": "永春文庙", "address": "泉州市永春县桃城镇桃城路40号", "image": "", "rank": 13, "time": 1.0, "location": {"lat": 25.327763299596597, "lng": 118.30154181582414}, "feature": {"sight_features": "", "sight_content": ""}}, {"title": "灵应宫戏剧场", "address": "203省道附近", "image": "", "rank": 14, "time": 2, "location": {"lat": 38.70057735317822, "lng": 114.30841754306506}, "feature": {"sight_features": "", "sight_content": ""}}, {"title": "苏庄宫戏台", "address": "345县道附近", "image": "", "rank": 15, "time": 2, "location": {"lat": 25.436910139993294, "lng": 118.5042940486326}, "feature": {"sight_features": "", "sight_content": ""}}, {"title": "永春县长隆梦幻水上游乐园", "address": "桃城镇德风居委会奔达厂内", "image": "", "rank": 16, "time": 1.0, "location": {"lat": 25.350024906016873, "lng": 118.33446577455106}, "feature": {"sight_features": "", "sight_content": ""}}, {"title": "荔枝公园", "address": "泉州市永春县", "image": "", "rank": 17, "time": 1.0, "location": {"lat": 25.327974202083116, "lng": 118.30048613527391}, "feature": {"sight_features": "", "sight_content": ""}}, {"title": "大善寺", "address": "福建省泉州市永春县s206", "image": "", "rank": 18, "time": 2.5, "location": {"lat": 25.327974202083116, "lng": 118.30048613527391}, "feature": {"sight_features": "", "sight_content": ""}}, {"title": "天龙寺", "address": "福建省泉州市永春县桃城镇环翠村草埔乾", "image": "", "rank": 19, "time": null, "location": {"lat": 25.350024906016873, "lng": 118.33446577455106}, "feature": {"sight_features": "", "sight_content": ""}}, {"title": "孩子跳儿童成长乐园(时代广场店)", "address": "城东街77号时代广场第3楼", "image": "", "rank": 20, "time": 2, "location": {"lat": 25.32584538674886, "lng": 118.30512345780654}, "feature": {"sight_features": "", "sight_content": ""}}, {"title": "廉政文化公园", "address": "福建省泉州市永春县", "image": "", "rank": 21, "time": 1.0, "location": {"lat": 25.327974202083116, "lng": 118.30048613527391}, "feature": {"sight_features": "", "sight_content": ""}}, {"title": "郑文存故居", "address": "永春县五里街镇", "image": "", "rank": 22, "time": 2, "location": {"lat": 25.371102631264133, "lng": 118.29552073629795}, "feature": {"sight_features": "", "sight_content": ""}}, {"title": "真武殿", "address": "溪滨路与真武路交叉口西北150米", "image": "", "rank": 23, "time": 1.0, "location": {"lat": 25.32927558582548, "lng": 118.28063862210557}, "feature": {"sight_features": "", "sight_content": ""}}, {"title": "李开藻故居", "address": "福建省泉州市永春县东平镇太山村46号", "image": "", "rank": 24, "time": 2, "location": {"lat": 25.315726799579316, "lng": 118.34572940006566}, "feature": {"sight_features": "", "sight_content": ""}}, {"title": "永春县特色产品展示馆", "address": "福建省泉州市永春县桃城镇湖滨路特色产品展示馆", "image": "", "rank": 25, "time": 2, "location": {"lat": 25.3269380098456, "lng": 118.29906062054873}, "feature": {"sight_features": "", "sight_content": ""}}, {"title": "天马岩", "address": "福建省泉州市德化县", "image": "", "rank": 26, "time": 2, "location": {"lat": 25.49730859417917, "lng": 118.247550069555}, "feature": {"sight_features": "", "sight_content": ""}}, {"title": "龙船邱公园", "address": "福建省泉州市永春县蓬壶镇汤城村113号", "image": "", "rank": 27, "time": 2, "location": {"lat": 25.388348674922387, "lng": 118.19290007555077}, "feature": {"sight_features": "", "sight_content": ""}}, {"title": "昭显岩公园", "address": "福建省泉州市永春县美普路", "image": "", "rank": 28, "time": 2, "location": {"lat": 25.393349079295337, "lng": 118.16243362108803}, "feature": {"sight_features": "", "sight_content": ""}}, {"title": "这一村农家乐", "address": "东平镇东平镇鸿安村168号往云峰岩方向上来100米", "image": "", "rank": 29, "time": 2, "location": {"lat": 25.302829140703235, "lng": 118.34909802776086}, "feature": {"sight_features": "", "sight_content": ""}}, {"title": "义烈祠", "address": "八二三中路72号附近", "image": "", "rank": 30, "time": 2, "location": {"lat": 25.329944072489788, "lng": 118.28955128777925}, "feature": {"sight_features": "", "sight_content": ""}}, {"title": "桃源殿", "address": "泉州市永春县桃城路1号", "image": "", "rank": 31, "time": 2, "location": {"lat": 25.326649572193656, "lng": 118.3035318401045}, "feature": {"sight_features": "", "sight_content": ""}}, {"title": "淘气堡儿童乐园", "address": "桃源南路附近", "image": "", "rank": 32, "time": 2, "location": {"lat": 33.7103812763709, "lng": 118.6942931577219}, "feature": {"sight_features": "", "sight_content": ""}}, {"title": "永春丘峰岩", "address": "福建省泉州市永春县锦斗镇丘岩尖附近", "image": "", "rank": 33, "time": 7.5, "location": {"lat": 25.44207545349968, "lng": 118.05737248076268}, "feature": {"sight_features": "", "sight_content": ""}}, {"title": "永春香都广场", "address": "福建省泉州市永春县石鼓镇桃源南路金色家园东500米", "image": "", "rank": 34, "time": 7.5, "location": {"lat": 25.326012644190964, "lng": 118.2845079078003}, "feature": {"sight_features": "", "sight_content": ""}}, {"title": "无极殿", "address": "普济寺附近", "image": "", "rank": 35, "time": 2, "location": {"lat": 39.08653366529601, "lng": 115.31067430370821}, "feature": {"sight_features": "", "sight_content": ""}}, {"title": "永春展览城广场", "address": "福建省泉州市永春县八二三中路24号", "image": "", "rank": 36, "time": 7.5, "location": {"lat": 25.331008712247172, "lng": 118.29368633805733}, "feature": {"sight_features": "", "sight_content": ""}}, {"title": "仙夹镇尾池角基督教堂", "address": "福建省泉州市永春县X347", "image": "", "rank": 37, "time": 2, "location": {"lat": 25.327974202083116, "lng": 118.30048613527391}, "feature": {"sight_features": "", "sight_content": ""}}, {"title": "普济寺风景区", "address": "蓬壶镇美山村", "image": "", "rank": 38, "time": 2, "location": {"lat": 25.39482121869989, "lng": 118.16106624469545}, "feature": {"sight_features": "", "sight_content": ""}}, {"title": "图书馆", "address": "环城路", "image": "", "rank": 39, "time": 1.0, "location": {"lat": 37.35144421170158, "lng": 111.19625655224671}, "feature": {"sight_features": "", "sight_content": ""}}, {"title": "欢乐堡儿童游乐场", "address": "环城路63号", "image": "", "rank": 40, "time": 2, "location": {"lat": 34.2765493592658, "lng": 117.20744983572321}, "feature": {"sight_features": "", "sight_content": ""}}, {"title": "生态科普馆", "address": "下洋镇溪塔村牛姆林生态旅游区", "image": "", "rank": 41, "time": 1.0, "location": {"lat": 25.45913860994733, "lng": 117.93575546030063}, "feature": {"sight_features": "", "sight_content": ""}}, {"title": "福建海峡蓝天生态庄园", "address": "泉南高速公路", "image": "", "rank": 42, "time": 2, "location": {"lat": 24.070019205563664, "lng": 109.39297377350167}, "feature": {"sight_features": "", "sight_content": ""}}, {"title": "乐翻天儿童城", "address": "桃城镇金龙城7号楼d栋2楼(新华都旁)", "image": "", "rank": 43, "time": 2, "location": {"lat": 25.32649066192014, "lng": 118.30926306249356}, "feature": {"sight_features": "", "sight_content": ""}}, {"title": "水世界生活馆(永春旗舰店)", "address": "服务大厦旁", "image": "", "rank": 44, "time": 2, "location": {"lat": 22.526953063242754, "lng": 113.38328749762654}, "feature": {"sight_features": "", "sight_content": ""}}, {"title": "山边人生态馆", "address": "溪滨路98号附近", "image": "", "rank": 45, "time": 2, "location": {"lat": 28.409652856581626, "lng": 121.16226437579687}, "feature": {"sight_features": "", "sight_content": ""}}, {"title": "江山美人茗茶", "address": "S203泉州华亿艺品有限公司西北侧", "image": "", "rank": 46, "time": 2.5, "location": {"lat": 25.039387460304518, "lng": 118.79999178850979}, "feature": {"sight_features": "", "sight_content": ""}}, {"title": "福建永春县高甲戏剧团", "address": "八二三东路180号", "image": "", "rank": 47, "time": null, "location": {"lat": 25.32843483108356, "lng": 118.29996865470709}, "feature": {"sight_features": "", "sight_content": ""}}, {"title": "泉州天沐温泉度假区", "address": "泉州市永春县蓬壶镇观山路372号", "image": "", "rank": 48, "time": 1.5, "location": {"lat": 25.39259340792735, "lng": 118.1529521932809}, "feature": {"sight_features": "", "sight_content": "泉州天沐度假区占地约1100亩，以温泉养生度假为主题，集养生度假、休闲娱乐、梦幻科技于一体。项目分为三期开发，一期项目即将开放体验，含五星级温泉酒店、温泉公馆、温泉别墅及温泉会所等，是令人向往旅游度假胜地。"}}, {"title": "牛魔洞", "address": "泉州市永春县下洋镇牛姆林景区内", "image": "", "rank": 49, "time": 2.0, "location": {"lat": 25.48309776645872, "lng": 117.96927334180002}, "feature": {"sight_features": "", "sight_content": ""}}, {"title": "火云洞", "address": "泉州市永春县下洋镇牛姆林景区内", "image": "", "rank": 50, "time": 2.0, "location": {"lat": 25.48309776645872, "lng": 117.96927334180002}, "feature": {"sight_features": "", "sight_content": ""}}, {"title": "摩云洞", "address": "泉州市永春县下洋镇牛姆林景区内", "image": "", "rank": 51, "time": 2.0, "location": {"lat": 25.48309776645872, "lng": 117.96927334180002}, "feature": {"sight_features": "", "sight_content": ""}}, {"title": "射击中心", "address": "泉州市永春县下洋镇牛姆林景区内", "image": "", "rank": 52, "time": 0.3, "location": {"lat": 25.48309776645872, "lng": 117.96927334180002}, "feature": {"sight_features": "", "sight_content": ""}}, {"title": "高空滑索", "address": "泉州市永春县下洋镇牛姆林景区内", "image": "", "rank": 53, "time": 2, "location": {"lat": 25.48309776645872, "lng": 117.96927334180002}, "feature": {"sight_features": "", "sight_content": ""}}, {"title": "黑龙沟瀑布", "address": "泉州市永春县下洋镇牛姆林景区内", "image": "", "rank": 54, "time": 2.0, "location": {"lat": 25.48309776645872, "lng": 117.96927334180002}, "feature": {"sight_features": "", "sight_content": ""}}, {"title": "旱地滑雪", "address": "泉州市永春县下洋镇牛姆林景区内", "image": "", "rank": 55, "time": 0.3, "location": {"lat": 25.48309776645872, "lng": 117.96927334180002}, "feature": {"sight_features": "", "sight_content": ""}}, {"title": "飞来瀑", "address": "泉州市永春县下洋镇牛姆林景区内", "image": "", "rank": 56, "time": 0.25, "location": {"lat": 25.48309776645872, "lng": 117.96927334180002}, "feature": {"sight_features": "", "sight_content": ""}}, {"title": "赏兰轩", "address": "泉州市永春县下洋镇牛姆林景区内", "image": "", "rank": 57, "time": 2.0, "location": {"lat": 25.48309776645872, "lng": 117.96927334180002}, "feature": {"sight_features": "", "sight_content": ""}}, {"title": "永春白鹤拳史馆", "address": "福建省永春县大羽小学北200米", "image": "", "rank": 58, "time": null, "location": {"lat": 25.353659885798876, "lng": 118.29205311264069}, "feature": {"sight_features": "", "sight_content": ""}}]}