{"cityName": "永安", "days": 2, "cityImage": "", "spots": [{"title": "桃源洞", "address": "三明市永安城北9公里二零五国道旁桃源洞", "image": "", "rank": 1, "time": 2.5, "location": {"lat": 26.0155348863618, "lng": 117.43736935534011}, "feature": {"sight_features": "特色1 迂回曲折的桃花涧，冠绝全国的一线天，带你探索幽深洞穴、悬崖峭壁。 特色2 由桃源洞、百丈岩、修竹湾、葛里、栟榈潭五大景区组成明代大旅行家徐霞客也曾游览此地，并都留有诗句桃源洞奇、绝、秀、幽、险桃源洞鳞隐石林", "sight_content": "国家重点风景名胜区桃源洞位于福建省永安市城北9公里205国道旁。景区规划总面积28.78平方公里，分别由桃源洞、百丈岩、修竹湾、葛里、栟榈潭五大景区组成，分布在沙溪河的两岸。古时桃源洞一带山上有许多栟榈树，所以历史上又称为栟榈山。据有关记载，唐代就有头陀僧结庐于葛里，五代后晋时期建有栟榈寺。明代万历年间( 公元1605年)当地安砂人两郡司马陈源湛捐资建有亭、台、楼、阁十余处，取“世外桃源”之意改名为桃源洞，并在入口120米高的峭壁上36米高处刻有“桃源洞口”四个大字。南宋宰相李纲和左正言邓肃曾在此隐居、读书，明代大旅行家徐霞客也曾游览此地，并都留有诗句。从此桃源洞名闻遐尔。 桃源洞景区，面积为0.74平方公里，是五大景区中的主要部分,也是目前开发较为完善的游览区。这里丹霞地貌和丰富的植被形成奇峰峭壁、绿海林涛和碧水丹山。主要景点有：桃源洞雕塑、桃源洞口、锁洞桥、观音大仕殿、一线天、古井、望象台、跨虹桥、仙人棋盘、阆风台、古寨门等20余处，其中“一线天”堪称全国之冠。桃源洞，区内有百丈岩、葛里、修竹湾、拼榈潭等几十处景点；鳞隐石林，被誉为“东南奇秀”，堪称我国第二大石林，也是国家级重点风景名胜区，与之相连的还有洪云山石林、十八洞、石洞寒泉等六个景片；在永安境内还有堪称“天然生物种质基因库”的省级自然保护区天宝岩；槐南安贞堡堪称清代建筑艺术瑰宝，还有甘乳岩、九龙湖、普禅山等自然风光以及抗战文化遗址等等。\n\n[桃源洞雕塑]\n大门右侧雕塑，由厦门大学艺术学院蒋志强教授设计制作，于2000年5月开始施工，至7月完工。雕塑规格为宽4米×高3米×厚2米，重达30吨，两块石头的中央，下部空间象似“桃源洞口”；上部两块石头的夹缝象似“一线天”。作品采用自然石头为基本造型，与桃源洞的主题呼应，玲珑凸兀的造型，衬出桃源洞的古灵精怪，给桃源洞增添了许多神秘色彩。作品整体的艺术造型别具匠心，构造简单而又让人遐想，凌乱而又不失秩序。作品的正面是国家风景名胜区的标志，背面镌刻上桃源洞的简介，体现了桃源洞独特的自然风景。\n[一线天]\n一道大山裂缝，就象用刀劈出一样，绝壁裂处，直透崖端，高90米，全长120米，共206个台阶。著名旅行家徐霞客于明崇祯三年(公元1630年)记叙了这一奇观：“上辟山巅，远透山北，中不能容肩，盖之乃受，累级斜上，直贯其中。余所见‘一线天’数处，武夷、黄山、浮盖，未曾见若此之大而逼、远而整者”。每当午时，晴空丽日，阳光直射，翘首仰望，只见天光一线，壮丽无比。从地质学角度分析，一线天的形成是由于地壳运动，岩石逐渐上升，经挤压形成一条缝隙。这条缝隙称为地质节理。岩层表面这一节理缝隙最容易受流水侵蚀，形成了与节理走向完全一致的平直狭窄的深沟，即形成“一线天”这一奇特的丹霞地貌景观。桃源洞风景区“一线天”达6条之多， 这在国内同为丹霞地貌景观的景区中为数不多，也是桃源洞佳绝的景观。\n[桃源洞口]\n特殊地貌形成两边悬崖对峙，这条小涧叫桃花涧，从景区深处流出，我们的游路也将沿着高山峡谷的缝隙向内延伸。桃源洞本没有“洞”，无论是步行，还是泛舟游览，都给人一种洞口的感觉右壁的悬崖高达120米，“桃源洞口”四个大字刻在36米高处，是明万历年间，辞官回永安的名士陈源湛于公元1605年所题，每字两米见方。下面小字每字也有50公分见方，是陈源湛写的一首七律《桃源洞》诗：\n介破巉岩一涧流，探奇乘涨弄扁舟。\n悬崖高削千寻玉，幽壑寒生六月秋。\n点岫烟云闲去住，忘机鸥鸟自沉浮。\n武陵人远桃空在, 临眺踌躇意未休。\n这座丹崖赤壁气势雄伟，是桃源洞景区引人注目的景观之一。这种景观是由于砾砂岩重力崩塌及风化片状剥落作用而产生悬空面,再加上流水的长期侵蚀，便形成了向内凹的巨大岩壁。"}}, {"title": "永安葛里栟榈山风景区", "address": "三明市永安市城北9公里二零五国道旁（桃源洞景区对面）", "image": "", "rank": 2, "time": 2.5, "location": {"lat": 26.01553513572461, "lng": 117.4373691900519}, "feature": {"sight_features": "", "sight_content": ""}}, {"title": "桃源洞风景名胜区", "address": "福建省永安市桃源洞风景区（205国道旁）", "image": "", "rank": 3, "time": 2, "location": {"lat": 26.02794134613058, "lng": 117.42616942507597}, "feature": {"sight_features": "", "sight_content": ""}}, {"title": "永安市博物馆", "address": "大同路123号", "image": "", "rank": 4, "time": 2.5, "location": {"lat": 31.35294088615194, "lng": 121.58562852982128}, "feature": {"sight_features": "", "sight_content": ""}}, {"title": "永安蝴蝶山公园", "address": "巴溪湾的中心部位", "image": "", "rank": 5, "time": 2.5, "location": {"lat": 25.952638121979344, "lng": 117.36857178257569}, "feature": {"sight_features": "", "sight_content": ""}}, {"title": "福建(永安)林改陈列馆", "address": "纵一路与205国道交汇处", "image": "", "rank": 6, "time": 2, "location": {"lat": 25.858518263073083, "lng": 117.26575668809247}, "feature": {"sight_features": "", "sight_content": ""}}, {"title": "福建鳞隐石林", "address": "新湖路1", "image": "", "rank": 7, "time": 2, "location": {"lat": 31.5120771355936, "lng": 120.12458020325354}, "feature": {"sight_features": "", "sight_content": ""}}, {"title": "永安北陵", "address": "福建省永安市永安市", "image": "", "rank": 8, "time": 2.5, "location": {"lat": 25.948143989823954, "lng": 117.37144258732353}, "feature": {"sight_features": "", "sight_content": ""}}, {"title": "萃园书院", "address": "永安吉山", "image": "", "rank": 9, "time": 2, "location": {"lat": 25.96318818190887, "lng": 117.33076731384517}, "feature": {"sight_features": "", "sight_content": ""}}, {"title": "永安国家地质公园", "address": "福建省,永安市,贡川镇龙大村, 366011", "image": "", "rank": 10, "time": 3.0, "location": {"lat": 26.061058567862357, "lng": 117.4640236850843}, "feature": {"sight_features": "", "sight_content": ""}}, {"title": "三明九龙湖", "address": "福建省永安市安砂镇", "image": "", "rank": 11, "time": 2.5, "location": {"lat": 26.03849323012007, "lng": 117.14387455162364}, "feature": {"sight_features": "", "sight_content": ""}}, {"title": "三明地质博物馆", "address": "国家地质公园桃源洞景区往北2公里205国道旁(距离桃源洞2公里)", "image": "", "rank": 12, "time": 2.5, "location": {"lat": 26.03176855914674, "lng": 117.4373691900519}, "feature": {"sight_features": "", "sight_content": ""}}, {"title": "五一村葡萄采摘园", "address": "小陶镇五一村村部旁", "image": "", "rank": 13, "time": 2, "location": {"lat": 25.75005775502382, "lng": 117.18581270071634}, "feature": {"sight_features": "", "sight_content": ""}}, {"title": "桂溪影剧院", "address": "017乡道附近", "image": "", "rank": 14, "time": 2, "location": {"lat": 34.943788746231824, "lng": 110.87425136319153}, "feature": {"sight_features": "", "sight_content": ""}}, {"title": "纤城影剧院", "address": "汶州警务室附近", "image": "", "rank": 15, "time": 2, "location": {"lat": 31.58311665158211, "lng": 120.3071660047353}, "feature": {"sight_features": "", "sight_content": ""}}, {"title": "桃源洞磷隐石林风景名胜区", "address": "福建省永安市解放路588号", "image": "", "rank": 16, "time": 2, "location": {"lat": 25.977846269277293, "lng": 117.37777952665444}, "feature": {"sight_features": "", "sight_content": ""}}, {"title": "激情漂流", "address": "龟山漂流码头", "image": "", "rank": 17, "time": 2, "location": {"lat": 28.253107634611556, "lng": 120.74486013732606}, "feature": {"sight_features": "", "sight_content": ""}}, {"title": "永安高尔夫沙龙", "address": "205国道", "image": "", "rank": 18, "time": 2.5, "location": {"lat": 37.34066223973322, "lng": 118.07089300716441}, "feature": {"sight_features": "", "sight_content": ""}}, {"title": "关公庙", "address": "福建省三明市永安市", "image": "", "rank": 19, "time": 1.5, "location": {"lat": 25.948143989823954, "lng": 117.37144258732353}, "feature": {"sight_features": "", "sight_content": ""}}, {"title": "宝宝乐儿童乐园", "address": "新安路1号五洲小区348号", "image": "", "rank": 20, "time": 2, "location": {"lat": 25.967005597724704, "lng": 117.36697871860177}, "feature": {"sight_features": "", "sight_content": ""}}, {"title": "和之园", "address": "新安路东50米", "image": "", "rank": 21, "time": 2, "location": {"lat": 40.210494285535106, "lng": 122.14465369827833}, "feature": {"sight_features": "", "sight_content": ""}}, {"title": "省立实小旧址", "address": "福建省三明市永安市泉南高速公路", "image": "", "rank": 22, "time": 2, "location": {"lat": 26.15765419863755, "lng": 117.24970382760048}, "feature": {"sight_features": "", "sight_content": ""}}, {"title": "竹天下文化广场", "address": "永安市泉三高速闽台(永安)文化创意产业园内", "image": "", "rank": 23, "time": 2, "location": {"lat": 25.948143989823954, "lng": 117.37144258732353}, "feature": {"sight_features": "", "sight_content": ""}}, {"title": "超级星光游乐场", "address": "含笑大道1188号（诚上广场大润发超市旁）", "image": "", "rank": 24, "time": 2, "location": {"lat": 25.965978961210155, "lng": 117.37744387987425}, "feature": {"sight_features": "", "sight_content": ""}}, {"title": "宝应寺", "address": "三明市永安市", "image": "", "rank": 25, "time": 1.0, "location": {"lat": 25.948143989823954, "lng": 117.37144258732353}, "feature": {"sight_features": "", "sight_content": ""}}, {"title": "贝之乐儿童乐园", "address": "永安市中山路388号海航乐万家超市三楼", "image": "", "rank": 26, "time": 2, "location": {"lat": 25.97730354799872, "lng": 117.36542110625479}, "feature": {"sight_features": "", "sight_content": ""}}, {"title": "糖果屋儿童乐园", "address": "燕江中路489", "image": "", "rank": 27, "time": 2, "location": {"lat": 25.97802962645708, "lng": 117.36941127153212}, "feature": {"sight_features": "", "sight_content": ""}}, {"title": "城南公园", "address": "福建省三明市永安市石门路", "image": "", "rank": 28, "time": 1.5, "location": {"lat": 25.95121443632671, "lng": 117.37457794484058}, "feature": {"sight_features": "", "sight_content": ""}}, {"title": "永安崇福寺", "address": "福建省三明市永安市大湖镇新湖路68号", "image": "", "rank": 29, "time": 2.5, "location": {"lat": 26.05587521715115, "lng": 117.33712295365555}, "feature": {"sight_features": "", "sight_content": ""}}, {"title": "八仙岩景区", "address": "福建省三明市永安市泉三高速公路", "image": "", "rank": 30, "time": 2, "location": {"lat": 25.746534285734164, "lng": 117.65129265585665}, "feature": {"sight_features": "", "sight_content": ""}}, {"title": "建福公园", "address": "建福水泥厂生活小区", "image": "", "rank": 31, "time": 2, "location": {"lat": 26.033456953356886, "lng": 117.34424699527244}, "feature": {"sight_features": "", "sight_content": ""}}, {"title": "永安山地自行车公园", "address": "205国道东150米", "image": "", "rank": 32, "time": 2.5, "location": {"lat": 23.57151036371276, "lng": 114.61811631795476}, "feature": {"sight_features": "", "sight_content": ""}}, {"title": "南门广场", "address": "三明市永安市燕江中路751号", "image": "", "rank": 33, "time": 2, "location": {"lat": 25.975992876357065, "lng": 117.3691060228284}, "feature": {"sight_features": "", "sight_content": ""}}, {"title": "淘淘鱼儿童城堡", "address": "大风车儿童百货3楼", "image": "", "rank": 34, "time": 2, "location": {"lat": 32.54255191652843, "lng": 119.24932086396464}, "feature": {"sight_features": "", "sight_content": ""}}, {"title": "欢乐海洋儿童乐园", "address": "燕江南路1399号佳洁广场3层", "image": "", "rank": 35, "time": 2, "location": {"lat": 25.95869648663535, "lng": 117.3677819806936}, "feature": {"sight_features": "", "sight_content": ""}}, {"title": "燕郡海洋主题儿童乐园", "address": "燕东街道东门路与解放路交汇处(老水校旧址)", "image": "", "rank": 36, "time": 2, "location": {"lat": 25.97752702139161, "lng": 117.37390705345541}, "feature": {"sight_features": "", "sight_content": ""}}, {"title": "天心岛文川公园", "address": "205国道附近", "image": "", "rank": 37, "time": 2, "location": {"lat": 37.34066223973322, "lng": 118.07089300716441}, "feature": {"sight_features": "", "sight_content": ""}}, {"title": "春谷山庄", "address": "福建省三明市永安市上吉山村168", "image": "", "rank": 38, "time": 2, "location": {"lat": 25.95243248108775, "lng": 117.33717771179279}, "feature": {"sight_features": "", "sight_content": ""}}, {"title": "虎形山登山公园", "address": "福建省三明市永安市广新路", "image": "", "rank": 39, "time": 2, "location": {"lat": 25.970791269254125, "lng": 117.3610493875088}, "feature": {"sight_features": "", "sight_content": ""}}, {"title": "临水宫", "address": "福建福建省永安市贡川镇四桥路（会清桥头）", "image": "", "rank": 40, "time": 2, "location": {"lat": 26.089763238578623, "lng": 117.44699221146838}, "feature": {"sight_features": "", "sight_content": ""}}, {"title": "张赤男烈士纪念碑", "address": "651县道北50米", "image": "", "rank": 41, "time": 2, "location": {"lat": 24.17251565567308, "lng": 108.62050038166625}, "feature": {"sight_features": "", "sight_content": ""}}, {"title": "永安市档案馆", "address": "巴溪大道1111号", "image": "", "rank": 42, "time": 1.0, "location": {"lat": 25.94857766505593, "lng": 117.37264417694277}, "feature": {"sight_features": "", "sight_content": ""}}, {"title": "永安市规划建设展览馆", "address": "永安城乡规划局", "image": "", "rank": 43, "time": 2.5, "location": {"lat": 25.947504381793085, "lng": 117.37041330887054}, "feature": {"sight_features": "", "sight_content": ""}}, {"title": "图书馆", "address": "文体休闲广场", "image": "", "rank": 44, "time": 1.0, "location": {"lat": 22.224931329587022, "lng": 113.5097535936875}, "feature": {"sight_features": "", "sight_content": ""}}, {"title": "陶然生态采摘园", "address": "大湖镇新湖路1号农业现代科技园(原大湖职专)", "image": "", "rank": 45, "time": 2, "location": {"lat": 26.058514835692293, "lng": 117.33500809108851}, "feature": {"sight_features": "", "sight_content": ""}}, {"title": "热西温泉", "address": "洪田镇井垄村8号", "image": "", "rank": 46, "time": 2, "location": {"lat": 25.90724019396141, "lng": 117.28293949384775}, "feature": {"sight_features": "", "sight_content": ""}}, {"title": "开心玩国儿童未来主题乐园", "address": "含笑大道1001-1号", "image": "", "rank": 47, "time": 2, "location": {"lat": 25.96789278938053, "lng": 117.37948958508264}, "feature": {"sight_features": "", "sight_content": ""}}, {"title": "志成动漫水上乐园", "address": "龙岭坡顶(5路车终点站)第一个路口左拐80米", "image": "", "rank": 48, "time": 2, "location": {"lat": 49.61641248350022, "lng": 116.82026918375314}, "feature": {"sight_features": "", "sight_content": ""}}, {"title": "鱼头葡萄采摘园", "address": "瑶田村", "image": "", "rank": 49, "time": 2, "location": {"lat": 26.085101392031344, "lng": 117.36093250269082}, "feature": {"sight_features": "", "sight_content": ""}}, {"title": "蜜蜂生态馆", "address": "五四路812号附近", "image": "", "rank": 50, "time": 2, "location": {"lat": 23.100931760317003, "lng": 113.27528273950196}, "feature": {"sight_features": "", "sight_content": ""}}, {"title": "吉山口生态农业园", "address": "城西大道永安市绿农饲料有限公司东南侧", "image": "", "rank": 51, "time": 2, "location": {"lat": 25.93629763561601, "lng": 117.34685246213206}, "feature": {"sight_features": "", "sight_content": ""}}, {"title": "大湖影剧院", "address": "石林路", "image": "", "rank": 52, "time": 2, "location": {"lat": 32.416069560891835, "lng": 119.16526204085157}, "feature": {"sight_features": "", "sight_content": ""}}, {"title": "吴坊村", "address": "三明市-永安市", "image": "", "rank": 53, "time": 2, "location": {"lat": 25.948143989823954, "lng": 117.37144258732353}, "feature": {"sight_features": "", "sight_content": ""}}, {"title": "天天温泉农家乐", "address": "三明市-永安市-205国道附近", "image": "", "rank": 54, "time": 2, "location": {"lat": 25.842227638643486, "lng": 117.24901441585064}, "feature": {"sight_features": "", "sight_content": ""}}]}