{"cityName": "永靖", "days": 2, "cityImage": "", "spots": [{"title": "黄河三峡风景名胜区", "address": "临夏回族自治州永靖县境内", "image": "", "rank": 1, "time": 4.5, "location": {"lat": 35.963330304471256, "lng": 103.29250749454934}, "feature": {"sight_features": "", "sight_content": ""}}, {"title": "刘家峡", "address": "临夏州永靖县刘家峡镇", "image": "", "rank": 2, "time": 5.0, "location": {"lat": 35.98070840105318, "lng": 103.34440754454108}, "feature": {"sight_features": "", "sight_content": "刘家峡位于青海与甘肃交界处，距离甘肃省会兰州市西南约80公里。刘家峡水库有一个很大的水利发电站，可供应陕、甘、青三省的用电。"}}, {"title": "抱龙山凤凰岭滑雪场", "address": "临夏回族自治州永靖县抱龙山风景度假区（兰州市西固区岸门口向刘兰公路7公里处）", "image": "", "rank": 3, "time": 2, "location": {"lat": 35.963330304471256, "lng": 103.29250749454934}, "feature": {"sight_features": "", "sight_content": ""}}, {"title": "太极岛湿地乐园", "address": "临夏州永靖县太极镇环湖路入口向前100米", "image": "", "rank": 4, "time": 2, "location": {"lat": 35.96560843526405, "lng": 103.25633604191833}, "feature": {"sight_features": "", "sight_content": ""}}, {"title": "刘家峡水上公园", "address": "刘家峡水上公园", "image": "", "rank": 5, "time": 2, "location": {"lat": 35.90799024157863, "lng": 103.32279135046113}, "feature": {"sight_features": "", "sight_content": ""}}, {"title": "下滩垂钓场", "address": "环湖路太极宾馆后面", "image": "", "rank": 6, "time": 2, "location": {"lat": 29.552721263001526, "lng": 115.97719527185501}, "feature": {"sight_features": "", "sight_content": ""}}, {"title": "永靖县高尔夫训练中心", "address": "太极镇黄河明珠大酒店", "image": "", "rank": 7, "time": 2, "location": {"lat": 38.46220422097184, "lng": 106.30465581748219}, "feature": {"sight_features": "", "sight_content": ""}}, {"title": "刘家峡草莓采摘园", "address": "刘家峡草莓采摘园", "image": "", "rank": 8, "time": 2, "location": {"lat": 40.21238141341787, "lng": 116.43239094340872}, "feature": {"sight_features": "", "sight_content": ""}}, {"title": "大毛老字号垂钓塘", "address": "太极镇环湖路大毛老字号垂钓塘", "image": "", "rank": 9, "time": 2, "location": {"lat": 35.96560843526405, "lng": 103.25633604191833}, "feature": {"sight_features": "", "sight_content": ""}}, {"title": "东湾休闲垂钓", "address": "东湾兰永公路", "image": "", "rank": 10, "time": 2, "location": {"lat": 27.166837535309227, "lng": 99.31464243384998}, "feature": {"sight_features": "", "sight_content": ""}}, {"title": "临夏刘家峡水上度假村", "address": "甘肃省永靖县县城西南 731500", "image": "", "rank": 11, "time": 1.5, "location": {"lat": 35.963330304471256, "lng": 103.29250749454934}, "feature": {"sight_features": "", "sight_content": ""}}, {"title": "三官宝殿", "address": "309国道附近", "image": "", "rank": 12, "time": 2, "location": {"lat": 36.73046791589426, "lng": 118.90798977630351}, "feature": {"sight_features": "", "sight_content": ""}}, {"title": "三圣社", "address": "春明路附近", "image": "", "rank": 13, "time": 2, "location": {"lat": 43.90761866408353, "lng": 125.3007883526753}, "feature": {"sight_features": "", "sight_content": ""}}, {"title": "文化广场", "address": "黄河南路附近", "image": "", "rank": 14, "time": 1.5, "location": {"lat": 31.369233266706875, "lng": 120.98400825808224}, "feature": {"sight_features": "", "sight_content": ""}}, {"title": "水上度假村", "address": "刘家峡水库房213国道祁家渡口北岸的水面上", "image": "", "rank": 15, "time": 2, "location": {"lat": 35.90824548223904, "lng": 103.32732964918571}, "feature": {"sight_features": "", "sight_content": ""}}, {"title": "枣园新村润泽园", "address": "枣园新村", "image": "", "rank": 16, "time": 2, "location": {"lat": 32.68977900874858, "lng": 110.54905632450772}, "feature": {"sight_features": "", "sight_content": ""}}, {"title": "龙汇世界", "address": "临夏回族自治州永靖县刘家峡镇", "image": "", "rank": 17, "time": 1.0, "location": {"lat": 35.98070840105318, "lng": 103.34440754454108}, "feature": {"sight_features": "", "sight_content": ""}}, {"title": "太极湖·太极岛", "address": "临夏回族自治州永靖县", "image": "", "rank": 18, "time": 1.0, "location": {"lat": 35.963330304471256, "lng": 103.29250749454934}, "feature": {"sight_features": "", "sight_content": ""}}, {"title": "佛教居士林", "address": "甘肃省临夏回族自治州永靖县", "image": "", "rank": 19, "time": 1.0, "location": {"lat": 35.963330304471256, "lng": 103.29250749454934}, "feature": {"sight_features": "", "sight_content": ""}}, {"title": "白塔寺", "address": "临夏回族自治州永靖县", "image": "", "rank": 20, "time": 1.0, "location": {"lat": 35.963330304471256, "lng": 103.29250749454934}, "feature": {"sight_features": "", "sight_content": ""}}, {"title": "甘肃省永靖县三塬镇东风村鑫海园...", "address": "甘肃省临夏回族自治州永靖县X367", "image": "", "rank": 21, "time": 2, "location": {"lat": 35.963330304471256, "lng": 103.29250749454934}, "feature": {"sight_features": "", "sight_content": ""}}, {"title": "临夏刘家峡大川枣园度假村", "address": "临夏永靖县刘家峡大川村", "image": "", "rank": 22, "time": 1.5, "location": {"lat": 35.94349696461336, "lng": 103.35109258323101}, "feature": {"sight_features": "", "sight_content": ""}}, {"title": "永靖县鸟岛渔庄度假村", "address": "甘肃省临夏回族自治州永靖县环湖路", "image": "", "rank": 23, "time": 2, "location": {"lat": 35.96560843526405, "lng": 103.25633604191833}, "feature": {"sight_features": "", "sight_content": ""}}, {"title": "西北大成殿", "address": "北山路附近", "image": "", "rank": 24, "time": 2, "location": {"lat": 40.477608834205874, "lng": 124.08008394699814}, "feature": {"sight_features": "", "sight_content": ""}}, {"title": "太极湖景区", "address": "环湖路", "image": "", "rank": 25, "time": 2, "location": {"lat": 38.92161273435989, "lng": 121.66159739676581}, "feature": {"sight_features": "", "sight_content": ""}}, {"title": "源祥动植物园", "address": "川南路", "image": "", "rank": 26, "time": 2, "location": {"lat": 35.94110137534764, "lng": 103.32698763643059}, "feature": {"sight_features": "", "sight_content": ""}}, {"title": "刘家峡银河农家乐(临夏)", "address": "刘家峡太极岛西侧", "image": "", "rank": 27, "time": 2, "location": {"lat": 35.956194105792704, "lng": 103.28741983259862}, "feature": {"sight_features": "", "sight_content": ""}}, {"title": "刘家峡鑫秋佳邸农家乐(临夏)", "address": "刘家峡枣园新村", "image": "", "rank": 28, "time": 2, "location": {"lat": 35.93750275744932, "lng": 103.34461571157182}, "feature": {"sight_features": "", "sight_content": ""}}, {"title": "荷香楼", "address": "太极镇大川村枣园新村", "image": "", "rank": 31, "time": 2, "location": {"lat": 35.94345867855007, "lng": 103.35162549848327}, "feature": {"sight_features": "", "sight_content": ""}}, {"title": "湿地公园", "address": "环湖路刘家峡黄河明珠园东南侧70米", "image": "", "rank": 32, "time": 2, "location": {"lat": 35.959386346187905, "lng": 103.2683740624812}, "feature": {"sight_features": "", "sight_content": ""}}, {"title": "山水涧", "address": "兰永公路", "image": "", "rank": 33, "time": 2, "location": {"lat": 27.166837535309227, "lng": 99.31464243384998}, "feature": {"sight_features": "", "sight_content": ""}}, {"title": "岗沟寺 Ganggou Temple", "address": "甘肃省永靖县太极湖西南岸", "image": "", "rank": 34, "time": 2, "location": {"lat": 35.963330304471256, "lng": 103.29250749454934}, "feature": {"sight_features": "", "sight_content": ""}}, {"title": "盐锅峡水库", "address": "甘肃省临夏回族自治州永靖县", "image": "", "rank": 35, "time": 2, "location": {"lat": 35.963330304471256, "lng": 103.29250749454934}, "feature": {"sight_features": "", "sight_content": ""}}]}