{"cityName": "永宁", "days": 2, "cityImage": "", "spots": [{"title": "欢乐大本营", "address": "银川市永宁县G109国道与观湖路交叉路口向西50米处", "image": "", "rank": 1, "time": 2, "location": {"lat": 38.30829115479569, "lng": 106.25923382491293}, "feature": {"sight_features": "特色1 宁夏较大的旅游大本营基地。 特色2 展示中心等专区一应俱全。", "sight_content": "‍‍欢乐大本营位于银川城南永宁县境内，是目前宁夏最大的旅游大本营基地。2300亩澳洲草地创建了独一无二的优美环境。目前，营地设有户外特色BBQ、帐篷露营、草坪婚礼、儿童乐园、真人CS、皮划艇、企业拓展、亲子拓展、别墅酒店、有氧棋牌茶艺、服务中心、等场地一应俱全，是家庭出游、朋友聚会、企业活动及亲子游乐的不二选择。欢乐大本营将为您开启健康时尚、简单快乐的全新旅居生活方式。\n帐篷露营\n100顶豪华帐篷在2300亩的草地上与您一同呼吸，白天和家人、朋友一起账下娱乐；夜晚篝火燃起，草地电影放映，躺在帐篷里入眠，让身心与自然结合，那种放松的感觉是无与伦比的美妙。\n自助烧烤\n澳洲草地上的BBQ，尽情享受最原始的烧烤乐趣，做健康的吃货。\n您可选择营地为您精心准备的半成品烧烤食材、烧烤炉、烤碳，也可自带。\n儿童乐园\n从视觉、触觉、形态、动态、力学、美学、趣味性、寓教性等全方面匠心构造，在充分保障孩子安全性的前提下，尽情享受悠波球、碰碰足球、蹦极床、跳跳床、草地卡丁车等多个时尚刺激的娱乐项目，给您和孩子一个理想的亲子场地。\n草坪婚礼\n2300亩高尔夫草地、干净平整的湖面、热气球、婚礼篷房，让您的婚礼仪式尽显浪漫；6栋豪装别墅、西式自助，再添高贵典雅。\n企业拓展\n环境、规模、娱乐、格调、距离、费用、时间，7个因素让中阿欢乐大本营独一无二。7大营地专区、20多个娱乐项目，15公里的距离，2300亩的场地，配备专业拓展老师，把碎片化的时间揉起来，为您私人订制有意义的拓展活动。\n\n\n别墅酒店\n六套豪装别墅与文化城特有的蓝天草地和谐对称，方寸之间尽显新古典主义风格的纯粹高贵，让欧洲贵族居住文化在大西北应运而生，将最休闲生态的空间呈现，带给您洒脱与自然的全新居留体验。\n服务中心\n内设贵宾接待室、特色茶餐厅、豪华（休闲房、商务房、亲子房）、露天观景台，再加上诚挚专业的服务，给您提供独一无二的体验。\n2300亩澳洲草地创建了独一无二的优美环境。目前，营地设有水上乐园、企业拓展、亲子广场、别墅酒店、帐篷烧烤、服务中心、展示中心等专区一应俱全。\n是家庭出游、朋友聚会、企业拓展及亲子游乐的不二选择。欢乐大本营将为您开启健康时尚、简单快乐的全新旅居生活方式。"}}, {"title": "西夏王玉泉国际酒庄", "address": "银川市永宁县玉泉营葡萄小镇葡萄博览路东", "image": "", "rank": 2, "time": 2, "location": {"lat": 38.28300154152117, "lng": 106.2596045753596}, "feature": {"sight_features": "特色1 世界酒文化历史", "sight_content": "玉泉国际酒庄隶属于宁夏农垦集团，座落于宁夏贺兰山东麓核心区玉泉葡萄小镇，距离宁夏首府银川38公里。酒庄建筑风格巧妙地将宋朝建筑文化风格和当地西夏文化特色融为一体,采用世界先进葡萄酒酿造技术，使玉泉国际酒庄完美体现出人与葡萄酒的和谐。\n酒庄北面傍湖，四面葡萄园环绕，自然风景秀丽，空气清新怡人，地理位置得天独厚。酒庄集葡萄种植、葡萄酒生产加工、葡萄采摘、葡萄酒自酿体验、葡萄酒窖、世界葡萄酒文化展览、葡萄酒品鉴、个性化葡萄酒定制、中、西餐饮、住宿、会议培训、商务接待、观光旅游和休闲度假等功能于一体，是目前西北最大、功能最全、最具西夏神韵的中式酒庄之一。"}}, {"title": "永宁县海子湖金马休闲度假村", "address": "银川市永宁县望湖镇靖益村村部", "image": "", "rank": 3, "time": 2, "location": {"lat": 38.28183029456537, "lng": 106.14673105882682}, "feature": {"sight_features": "", "sight_content": ""}}, {"title": "回族博物馆", "address": "回乡文化园内", "image": "", "rank": 4, "time": 2, "location": {"lat": 45.78393075112261, "lng": 126.67457921766567}, "feature": {"sight_features": "", "sight_content": ""}}, {"title": "巴格斯酒庄", "address": "宁夏银川市永宁县", "image": "", "rank": 5, "time": 2.5, "location": {"lat": 38.28300154152117, "lng": 106.2596045753596}, "feature": {"sight_features": "", "sight_content": ""}}, {"title": "垂钓区", "address": "宁和北街", "image": "", "rank": 6, "time": 2, "location": {"lat": 38.2908190882526, "lng": 106.26306807040591}, "feature": {"sight_features": "", "sight_content": ""}}, {"title": "小任果业现代农业基地", "address": "109国道附近", "image": "", "rank": 7, "time": 2, "location": {"lat": 39.790711104970946, "lng": 109.99633110015151}, "feature": {"sight_features": "", "sight_content": ""}}, {"title": "董洋现代农业休闲观光园", "address": "109国道附近", "image": "", "rank": 8, "time": 2, "location": {"lat": 39.790711104970946, "lng": 109.99633110015151}, "feature": {"sight_features": "", "sight_content": ""}}, {"title": "原生态野钓中心", "address": "一零九国道与观湖路交界向西800米汉延渠桥处北侧", "image": "", "rank": 9, "time": 2, "location": {"lat": 35.83643632895759, "lng": 112.2298969633392}, "feature": {"sight_features": "", "sight_content": ""}}, {"title": "逍遥垂钓", "address": "望洪镇北渠路逍遥垂钓", "image": "", "rank": 10, "time": 2, "location": {"lat": 38.20167231041171, "lng": 106.23925121826728}, "feature": {"sight_features": "", "sight_content": ""}}, {"title": "观湖垂钓", "address": "李银路", "image": "", "rank": 11, "time": 2, "location": {"lat": 38.406168613875195, "lng": 106.26046986275226}, "feature": {"sight_features": "", "sight_content": ""}}, {"title": "永福休闲垂钓中心", "address": "杨和镇迎宾大道永福休闲垂钓中心", "image": "", "rank": 12, "time": 2, "location": {"lat": 24.98557797308376, "lng": 109.98959083099726}, "feature": {"sight_features": "", "sight_content": ""}}, {"title": "银川鹤泉湖旅游度假村", "address": "宁夏银川市109国道与观湖路交叉路口下车向东", "image": "", "rank": 13, "time": 3.5, "location": {"lat": 38.44252756902537, "lng": 106.30333821979069}, "feature": {"sight_features": "", "sight_content": ""}}, {"title": "宁夏西夏王葡萄酒业", "address": "宁夏回族自治区永宁县玉泉营农场 750100", "image": "", "rank": 14, "time": 2, "location": {"lat": 38.271798337262844, "lng": 106.05490283447661}, "feature": {"sight_features": "", "sight_content": ""}}, {"title": "玉海清真大寺", "address": "金玉路东100米", "image": "", "rank": 15, "time": 2, "location": {"lat": 31.907785906205174, "lng": 120.99142343140595}, "feature": {"sight_features": "", "sight_content": ""}}, {"title": "亲子游乐园", "address": "宁夏回族自治区银川市永宁县望通路与红旗路交叉口东100米", "image": "", "rank": 16, "time": 2, "location": {"lat": 38.388479213943796, "lng": 106.27022753747296}, "feature": {"sight_features": "", "sight_content": ""}}, {"title": "西滩北大寺", "address": "中西滩公路西50米", "image": "", "rank": 17, "time": 2, "location": {"lat": 38.3059478099319, "lng": 106.05737916363188}, "feature": {"sight_features": "", "sight_content": ""}}, {"title": "儿童乐园", "address": "永宁商业步行街4-45号附近", "image": "", "rank": 18, "time": 2, "location": {"lat": 38.29142926936752, "lng": 106.26291827796211}, "feature": {"sight_features": "", "sight_content": ""}}, {"title": "水上乐园", "address": "滨河大道", "image": "", "rank": 19, "time": 2, "location": {"lat": 35.577103347384345, "lng": 110.70954352208794}, "feature": {"sight_features": "", "sight_content": ""}}, {"title": "正台寺", "address": "胜通路附近", "image": "", "rank": 20, "time": 2, "location": {"lat": 38.352222796889855, "lng": 106.31210972484116}, "feature": {"sight_features": "", "sight_content": ""}}, {"title": "望远清真寺", "address": "109国道与望通路口东北方向500米", "image": "", "rank": 21, "time": 2, "location": {"lat": 38.411677302631446, "lng": 106.29120804116725}, "feature": {"sight_features": "", "sight_content": ""}}, {"title": "儿童乐园", "address": "中心街与望通路交叉口南200米", "image": "", "rank": 22, "time": 2, "location": {"lat": 38.38601854055231, "lng": 106.27708279248075}, "feature": {"sight_features": "", "sight_content": ""}}, {"title": "普度寺", "address": "宁夏回族自治区银川市永宁县万寿路", "image": "", "rank": 23, "time": 1.5, "location": {"lat": 38.28300154152117, "lng": 106.2596045753596}, "feature": {"sight_features": "", "sight_content": ""}}, {"title": "徕龙公园", "address": "宁夏回族自治区银川市永宁县109国道与G0601银川绕城高速出口交叉口西北50米", "image": "", "rank": 24, "time": 2, "location": {"lat": 38.159758409469426, "lng": 106.20927269729665}, "feature": {"sight_features": "", "sight_content": ""}}, {"title": "长滩湿地公园", "address": "双庆路北150米", "image": "", "rank": 25, "time": 3.0, "location": {"lat": 38.69590013474816, "lng": 116.97382678692934}, "feature": {"sight_features": "", "sight_content": ""}}, {"title": "明心清真寺", "address": "宁夏回族自治区银川市兴庆区六盘山路", "image": "", "rank": 26, "time": 2, "location": {"lat": 38.43177597815308, "lng": 106.28130147949472}, "feature": {"sight_features": "", "sight_content": ""}}, {"title": "美加乐儿童成长主题乐园", "address": "宁夏回族自治区银川市永宁县宁昌街", "image": "", "rank": 27, "time": 2, "location": {"lat": 38.295535075673605, "lng": 106.26751432425641}, "feature": {"sight_features": "", "sight_content": ""}}, {"title": "盛达欢乐世界开心玩国主题乐园", "address": "宁夏回族自治区银川市永宁县红旗路望远人家A区东门南240米", "image": "", "rank": 28, "time": 2, "location": {"lat": 38.386380284744284, "lng": 106.26631445040029}, "feature": {"sight_features": "", "sight_content": ""}}, {"title": "利民广场", "address": "杨和北街与宁朔街交汇处", "image": "", "rank": 29, "time": 2, "location": {"lat": 38.289931162279736, "lng": 106.26024275764475}, "feature": {"sight_features": "", "sight_content": ""}}, {"title": "永宁·三沙源产业展示馆", "address": "宁夏回族自治区银川市永宁县三沙源国际生态文化旅游度假区", "image": "", "rank": 30, "time": 2, "location": {"lat": 38.389986322072296, "lng": 106.21538387417256}, "feature": {"sight_features": "", "sight_content": ""}}, {"title": "头圣寺", "address": "109国道附近", "image": "", "rank": 31, "time": 2, "location": {"lat": 39.790711104970946, "lng": 109.99633110015151}, "feature": {"sight_features": "", "sight_content": ""}}, {"title": "洪家渠关帝庙", "address": "洪家渠关帝庙(东门)附近", "image": "", "rank": 32, "time": 2, "location": {"lat": 38.40990599803353, "lng": 106.30702687780797}, "feature": {"sight_features": "", "sight_content": ""}}, {"title": "中阿文化城生态公园", "address": "杨和镇109国道观湖路往西100米", "image": "", "rank": 33, "time": 2, "location": {"lat": 38.30829115479569, "lng": 106.25833551940295}, "feature": {"sight_features": "", "sight_content": ""}}, {"title": "宁和广场", "address": "宁夏回族自治区银川市永宁县北环路", "image": "", "rank": 34, "time": 2, "location": {"lat": 38.293268752664645, "lng": 106.26504309657811}, "feature": {"sight_features": "", "sight_content": ""}}, {"title": "学政广场", "address": "石油化工学院附近", "image": "", "rank": 35, "time": 2, "location": {"lat": 21.68169530832819, "lng": 110.92978010455901}, "feature": {"sight_features": "", "sight_content": ""}}, {"title": "白鸽清真寺", "address": "宁夏回族自治区银川市永宁县福银高速公路", "image": "", "rank": 36, "time": 2, "location": {"lat": 38.295488171969055, "lng": 106.23622717607307}, "feature": {"sight_features": "", "sight_content": ""}}, {"title": "庙清湖", "address": "宁夏回族自治区银川市永宁县", "image": "", "rank": 37, "time": 2, "location": {"lat": 38.28300154152117, "lng": 106.2596045753596}, "feature": {"sight_features": "", "sight_content": ""}}, {"title": "海澜金沙生态园", "address": "广夏路", "image": "", "rank": 38, "time": 2, "location": {"lat": 31.205401076800772, "lng": 121.69952617572022}, "feature": {"sight_features": "", "sight_content": ""}}, {"title": "永宁县图书馆", "address": "宁和北街", "image": "", "rank": 39, "time": null, "location": {"lat": 38.2908190882526, "lng": 106.26306807040591}, "feature": {"sight_features": "", "sight_content": ""}}, {"title": "桃园农庄", "address": "北方石材向东800米向南转800米到", "image": "", "rank": 40, "time": 2, "location": {"lat": 38.851451021719804, "lng": 117.4693566461431}, "feature": {"sight_features": "", "sight_content": ""}}, {"title": "天赐画廊", "address": "望远大道与望通路交叉口西南150米", "image": "", "rank": 41, "time": 2, "location": {"lat": 38.386638266273096, "lng": 106.27536796678764}, "feature": {"sight_features": "", "sight_content": ""}}, {"title": "多肉植物批发零售", "address": "望远镇板桥园7队", "image": "", "rank": 42, "time": 2, "location": {"lat": 38.372180210671985, "lng": 106.25957960246643}, "feature": {"sight_features": "", "sight_content": ""}}, {"title": "金沙万锦葡萄园", "address": "胜利乡金沙万锦葡萄园", "image": "", "rank": 43, "time": 2, "location": {"lat": 27.465354872613517, "lng": 106.22644163900851}, "feature": {"sight_features": "", "sight_content": ""}}, {"title": "文工团", "address": "迎宾大道", "image": "", "rank": 44, "time": 2, "location": {"lat": 40.09022363082665, "lng": 114.15469279026227}, "feature": {"sight_features": "", "sight_content": ""}}, {"title": "北苑商贸步行街", "address": "宁夏回族自治区永宁县宁和北街", "image": "", "rank": 46, "time": 2, "location": {"lat": 38.2908190882526, "lng": 106.26306807040591}, "feature": {"sight_features": "", "sight_content": ""}}, {"title": "庆丰商业街", "address": "宁夏回族自治区永宁县望远镇望远大道", "image": "", "rank": 47, "time": 2, "location": {"lat": 38.38545392106402, "lng": 106.2748086242856}, "feature": {"sight_features": "", "sight_content": ""}}, {"title": "永宁县商业广场", "address": "宁夏回族自治区永宁县杨和南街19号", "image": "", "rank": 48, "time": 2, "location": {"lat": 38.28305425428585, "lng": 106.25916362593054}, "feature": {"sight_features": "", "sight_content": ""}}, {"title": "中华回族第一街", "address": "宁夏回族自治区永宁县利民纳家户大寺对面", "image": "", "rank": 49, "time": 2, "location": {"lat": 38.28898299600159, "lng": 106.24840881412766}, "feature": {"sight_features": "", "sight_content": ""}}, {"title": "纳家古街", "address": "宁夏回族自治区银川市永宁县", "image": "", "rank": 50, "time": 2, "location": {"lat": 38.28300154152117, "lng": 106.2596045753596}, "feature": {"sight_features": "", "sight_content": ""}}]}