{"cityName": "攸县", "days": 2, "cityImage": "", "spots": [{"title": "酒埠江旅游区", "address": "株洲市攸县酒埠江镇", "image": "", "rank": 1, "time": 3.0, "location": {"lat": 27.18714101278597, "lng": 113.55031161763583}, "feature": {"sight_features": "", "sight_content": ""}}, {"title": "白龙洞", "address": "株洲市攸县B44县道旁（酒埠江风景名胜区国家地质公园附近）", "image": "", "rank": 2, "time": 1.5, "location": {"lat": 27.225625910742917, "lng": 113.81143049725748}, "feature": {"sight_features": "", "sight_content": ""}}, {"title": "酒埠江国家地质公园", "address": "株洲市攸县酒埠江镇", "image": "", "rank": 3, "time": 3.0, "location": {"lat": 27.18714101278597, "lng": 113.55031161763583}, "feature": {"sight_features": "", "sight_content": ""}}, {"title": "宝宁寺", "address": "株洲市攸县酒埠江镇政府东南1.5公里处", "image": "", "rank": 4, "time": 1.0, "location": {"lat": 27.222331201179763, "lng": 113.70577368965036}, "feature": {"sight_features": "", "sight_content": ""}}, {"title": "皮佳洞仙境乐园(暗河漂流)", "address": "株洲市攸县峦山镇皮家村皮佳洞", "image": "", "rank": 5, "time": 2, "location": {"lat": 27.151426770808506, "lng": 113.66434053288127}, "feature": {"sight_features": "", "sight_content": ""}}, {"title": "漕泊仙人桥", "address": "湖南省攸县漕泊乡七里村 412308", "image": "", "rank": 6, "time": 2, "location": {"lat": 27.20441522022484, "lng": 113.7942847025875}, "feature": {"sight_features": "", "sight_content": ""}}, {"title": "龙泉山庄", "address": "酒埠江镇官田村", "image": "", "rank": 7, "time": 2, "location": {"lat": 27.222978859476846, "lng": 113.61554585947735}, "feature": {"sight_features": "", "sight_content": ""}}, {"title": "株洲文昌阁", "address": "湖南省株洲市荷塘区仙庾镇", "image": "", "rank": 8, "time": 0.75, "location": {"lat": 27.924716568944202, "lng": 113.23713258215028}, "feature": {"sight_features": "", "sight_content": ""}}, {"title": "东冲苏维埃兵工厂", "address": "湖南省攸县漕泊乡东冲村 412308", "image": "", "rank": 9, "time": 2, "location": {"lat": 27.19702580295193, "lng": 113.81003213830788}, "feature": {"sight_features": "", "sight_content": ""}}, {"title": "车站广场", "address": "永佳路尽头近攸县站", "image": "", "rank": 10, "time": 2, "location": {"lat": 27.017038311039553, "lng": 113.36120708441888}, "feature": {"sight_features": "", "sight_content": ""}}, {"title": "攸县剧院", "address": "株洲市攸县望岳西路108号", "image": "", "rank": 11, "time": 2.0, "location": {"lat": 26.998208122059815, "lng": 113.35010102495295}, "feature": {"sight_features": "", "sight_content": ""}}, {"title": "银湖山庄", "address": "B43县道附近", "image": "", "rank": 12, "time": 2, "location": {"lat": 27.252369361185007, "lng": 113.62005598733965}, "feature": {"sight_features": "", "sight_content": ""}}, {"title": "东方歌剧院", "address": "望岳西路189号望岳南路", "image": "", "rank": 13, "time": 2.5, "location": {"lat": 26.998957528516033, "lng": 113.35077031588865}, "feature": {"sight_features": "", "sight_content": ""}}, {"title": "快乐时光儿童游乐园", "address": "湖南省株洲市攸县S212", "image": "", "rank": 14, "time": 2, "location": {"lat": 27.00577156521266, "lng": 113.3515783416946}, "feature": {"sight_features": "", "sight_content": ""}}, {"title": "周家祠堂", "address": "株洲市攸县一零六国道", "image": "", "rank": 15, "time": 2, "location": {"lat": 27.236104918658068, "lng": 113.45340368406556}, "feature": {"sight_features": "", "sight_content": ""}}, {"title": "陈家祠堂", "address": "株洲市攸县三一五省道", "image": "", "rank": 16, "time": 1.5, "location": {"lat": 27.19139885499819, "lng": 113.6093065042886}, "feature": {"sight_features": "", "sight_content": ""}}, {"title": "周家祠堂", "address": "株洲市攸县B四九县道", "image": "", "rank": 17, "time": 2, "location": {"lat": 27.065813140308876, "lng": 113.46971988910585}, "feature": {"sight_features": "", "sight_content": ""}}, {"title": "攸县证果寺", "address": "湖南省株洲市攸县证果寺", "image": "", "rank": 18, "time": 2, "location": {"lat": 27.00577156521266, "lng": 113.3515783416946}, "feature": {"sight_features": "", "sight_content": ""}}, {"title": "咔咔龙儿童乐园", "address": "湖南省株洲市攸县滨江大道", "image": "", "rank": 19, "time": 2, "location": {"lat": 26.99713237702259, "lng": 113.34966153739805}, "feature": {"sight_features": "", "sight_content": ""}}, {"title": "海洋儿童乐园", "address": "湖南省株洲市攸县黄丰桥镇阁前黄兰大道多喜爱", "image": "", "rank": 20, "time": 2, "location": {"lat": 27.27046002492388, "lng": 113.71964211368527}, "feature": {"sight_features": "", "sight_content": ""}}, {"title": "奥贝乐儿童游乐园", "address": "湖南省株洲市攸县平安东路", "image": "", "rank": 21, "time": 2, "location": {"lat": 27.27212885200289, "lng": 113.72048047347168}, "feature": {"sight_features": "", "sight_content": ""}}, {"title": "致成儿童乐园", "address": "湖南省株洲市攸县皇图岭镇万家盛购物中心", "image": "", "rank": 22, "time": 2, "location": {"lat": 27.354593226032488, "lng": 113.49681764490724}, "feature": {"sight_features": "", "sight_content": ""}}, {"title": "孔圣庙", "address": "湖南省株洲市攸县鹏江村", "image": "", "rank": 23, "time": 1.5, "location": {"lat": 27.36838203110809, "lng": 113.56453594582214}, "feature": {"sight_features": "", "sight_content": ""}}, {"title": "酒埠江国际地质公园博物馆", "address": "酒埠江国家地质公园内", "image": "", "rank": 24, "time": 2, "location": {"lat": 27.21624293046716, "lng": 113.59080018729706}, "feature": {"sight_features": "", "sight_content": ""}}, {"title": "符家祠堂", "address": "株洲市攸县", "image": "", "rank": 25, "time": 2, "location": {"lat": 27.00577156521266, "lng": 113.3515783416946}, "feature": {"sight_features": "", "sight_content": ""}}, {"title": "苏家祠堂", "address": "株洲市攸县一六八乡道", "image": "", "rank": 26, "time": 2, "location": {"lat": 27.170411678072735, "lng": 113.41178295661454}, "feature": {"sight_features": "", "sight_content": ""}}, {"title": "文化广场", "address": "攸州公园东门附近", "image": "", "rank": 27, "time": 1.5, "location": {"lat": 27.023033556326602, "lng": 113.35014508177932}, "feature": {"sight_features": "", "sight_content": ""}}, {"title": "游鸭坡广场", "address": "大巷路与建设南路交叉口东50米", "image": "", "rank": 28, "time": 2, "location": {"lat": 27.003708060940912, "lng": 113.35620892603761}, "feature": {"sight_features": "", "sight_content": ""}}, {"title": "攸县博物馆", "address": "攸县城关镇中街珍珠巷附8号", "image": "", "rank": 29, "time": 2.5, "location": {"lat": 27.001539772282705, "lng": 113.3517486322962}, "feature": {"sight_features": "", "sight_content": ""}}, {"title": "峦山月亮湾农家乐", "address": "皮家洞景区，s315路39.4公里处", "image": "", "rank": 30, "time": 2, "location": {"lat": 39.786477381815, "lng": 116.30364872529633}, "feature": {"sight_features": "", "sight_content": ""}}, {"title": "果美大学生葡萄", "address": "联星街道胜利社区虎形组", "image": "", "rank": 31, "time": 2, "location": {"lat": 27.047649036891418, "lng": 113.35401084162494}, "feature": {"sight_features": "", "sight_content": ""}}, {"title": "攸县文化馆", "address": "交通南路35附近", "image": "", "rank": 32, "time": 2.5, "location": {"lat": 31.16099893615505, "lng": 120.65993695647276}, "feature": {"sight_features": "", "sight_content": ""}}, {"title": "沁宝轩画廊", "address": "百花路63号附近", "image": "", "rank": 33, "time": 2, "location": {"lat": 29.467449236520544, "lng": 121.87628740352073}, "feature": {"sight_features": "", "sight_content": ""}}, {"title": "攸县雏鹰艺术团", "address": "106国道附近", "image": "", "rank": 34, "time": 2, "location": {"lat": 39.1725896711994, "lng": 116.39041588203045}, "feature": {"sight_features": "", "sight_content": ""}}, {"title": "灵龟寺", "address": "湖南省攸县洣水北岸", "image": "", "rank": 35, "time": 2, "location": {"lat": 26.815763892421593, "lng": 113.48535428565411}, "feature": {"sight_features": "", "sight_content": ""}}, {"title": "酒埠江水库", "address": "湖南省攸县东部", "image": "", "rank": 36, "time": 2, "location": {"lat": 27.00577156521266, "lng": 113.3515783416946}, "feature": {"sight_features": "", "sight_content": ""}}, {"title": "灵龟峰", "address": "湖南省攸县城关镇文化路", "image": "", "rank": 37, "time": 2, "location": {"lat": 27.010505673149538, "lng": 113.3611632614829}, "feature": {"sight_features": "", "sight_content": ""}}, {"title": "攸县步行商业街", "address": "湖南省攸县建设路", "image": "", "rank": 38, "time": 1.5, "location": {"lat": 27.01395965404543, "lng": 113.34757118047702}, "feature": {"sight_features": "", "sight_content": ""}}, {"title": "上高枧", "address": "株洲市-攸县-B三九县道", "image": "", "rank": 39, "time": 2, "location": {"lat": 27.356820254888245, "lng": 113.52738050282235}, "feature": {"sight_features": "", "sight_content": ""}}, {"title": "高枧镇", "address": "株洲市-攸县-高枧镇卫生院东北(039县道北)", "image": "", "rank": 40, "time": 2, "location": {"lat": 27.339140315476932, "lng": 113.56491575657809}, "feature": {"sight_features": "", "sight_content": ""}}, {"title": "湖南省株洲市攸县沙陵陂乡", "address": "株洲市-攸县-沙陵陂乡", "image": "", "rank": 41, "time": 2, "location": {"lat": 27.091732386699114, "lng": 113.42853836118461}, "feature": {"sight_features": "", "sight_content": ""}}, {"title": "基督教攸州堂", "address": "株洲市-攸县-工业路95号", "image": "", "rank": 42, "time": 2, "location": {"lat": 26.996074372485626, "lng": 113.33644046734734}, "feature": {"sight_features": "", "sight_content": ""}}, {"title": "酒仙湖", "address": "湖南省株洲市攸县酒埠江风景名胜区酒埠江镇政府", "image": "", "rank": 43, "time": 4.0, "location": {"lat": 27.222331201179763, "lng": 113.57102786319817}, "feature": {"sight_features": "", "sight_content": ""}}]}