{"cityName": "右玉", "days": 2, "cityImage": "", "spots": [{"title": "右玉杀虎口", "address": "朔州市右玉县杀虎口村", "image": "", "rank": 1, "time": 1.5, "location": {"lat": 40.25029079399698, "lng": 112.32803373755705}, "feature": {"sight_features": "", "sight_content": ""}}, {"title": "右玉南山滑雪场", "address": "朔州市右玉县南山游乐场", "image": "", "rank": 2, "time": 2, "location": {"lat": 39.98177004112816, "lng": 112.5072863396135}, "feature": {"sight_features": "", "sight_content": ""}}, {"title": "牛心山滑雪场", "address": "朔州市右玉县牛心山公园", "image": "", "rank": 3, "time": 2, "location": {"lat": 39.99485955543098, "lng": 112.47350008124718}, "feature": {"sight_features": "", "sight_content": ""}}, {"title": "桃花源农庄", "address": "朔州市右玉县新城镇邓村东", "image": "", "rank": 4, "time": 2, "location": {"lat": 40.000616993148896, "lng": 112.49873501642998}, "feature": {"sight_features": "", "sight_content": ""}}, {"title": "右玉县邓家村冰上乐园", "address": "中国山西省朔州市右玉县新城镇", "image": "", "rank": 5, "time": 2, "location": {"lat": 40.000616993148896, "lng": 112.49873501642998}, "feature": {"sight_features": "", "sight_content": ""}}, {"title": "右卫古城墙遗址", "address": "山西省朔州市右玉县", "image": "", "rank": 6, "time": 2, "location": {"lat": 39.99485955543098, "lng": 112.47350008124718}, "feature": {"sight_features": "", "sight_content": ""}}, {"title": "右玉", "address": "朔州市右玉县正和东街与迎宾南路交叉口东100米", "image": "", "rank": 7, "time": 1.5, "location": {"lat": 39.98946111786444, "lng": 112.47543369194216}, "feature": {"sight_features": "", "sight_content": ""}}, {"title": "滨河公园", "address": "玉羊街附近", "image": "", "rank": 8, "time": 2.0, "location": {"lat": 36.33153557188895, "lng": 117.5521158754037}, "feature": {"sight_features": "", "sight_content": ""}}, {"title": "鑫宇生态度假村", "address": "朔州市右玉县", "image": "", "rank": 9, "time": 2, "location": {"lat": 39.99485955543098, "lng": 112.47350008124718}, "feature": {"sight_features": "", "sight_content": ""}}, {"title": "皇家园渡假村", "address": "朔州右玉玉林西街98号（玉林西街与109国道交叉口往西500米）", "image": "", "rank": 10, "time": 2, "location": {"lat": 39.99188206423451, "lng": 112.45419801109318}, "feature": {"sight_features": "", "sight_content": ""}}, {"title": "右玉县图书馆", "address": "迎宾北路附近", "image": "", "rank": 11, "time": 2, "location": {"lat": 39.9811133105861, "lng": 119.59930805855385}, "feature": {"sight_features": "", "sight_content": ""}}, {"title": "右玉县道情剧团", "address": "迎宾北路附近", "image": "", "rank": 12, "time": 2, "location": {"lat": 39.9811133105861, "lng": 119.59930805855385}, "feature": {"sight_features": "", "sight_content": ""}}, {"title": "桃花园农庄", "address": "新城镇109国道桃花源农庄", "image": "", "rank": 13, "time": null, "location": {"lat": 36.183760571869534, "lng": 103.46001856536974}, "feature": {"sight_features": "", "sight_content": ""}}, {"title": "红寺洼村", "address": "朔州市-右玉县", "image": "", "rank": 14, "time": 2, "location": {"lat": 39.99485955543098, "lng": 112.47350008124718}, "feature": {"sight_features": "", "sight_content": ""}}, {"title": "红石转湾山", "address": "朔州市-右玉县", "image": "", "rank": 15, "time": 2, "location": {"lat": 39.99485955543098, "lng": 112.47350008124718}, "feature": {"sight_features": "", "sight_content": ""}}, {"title": "三十二长城", "address": "朔州市右玉县右卫镇三十二村", "image": "", "rank": 16, "time": 2, "location": {"lat": 40.142104501258615, "lng": 112.2403476744727}, "feature": {"sight_features": "", "sight_content": ""}}, {"title": "杀虎关", "address": "山西省右玉县县城西北35公里", "image": "", "rank": 17, "time": 2, "location": {"lat": 39.99485955543098, "lng": 112.47350008124718}, "feature": {"sight_features": "", "sight_content": ""}}]}