{"cityName": "元氏", "days": 2, "cityImage": "", "spots": [{"title": "无极山滑雪场", "address": "石家庄市元氏县苏村乡岳庄庄西南", "image": "", "rank": 1, "time": 2, "location": {"lat": 37.78179574590957, "lng": 114.33768469769898}, "feature": {"sight_features": "", "sight_content": ""}}, {"title": "福瑞锶温泉", "address": "石家庄市元氏县马村乡张掖村西红旗大街1298号碧桂园英伦商业街2号楼", "image": "", "rank": 2, "time": 2, "location": {"lat": 37.91908561447334, "lng": 114.47317540271777}, "feature": {"sight_features": "", "sight_content": "福瑞锶温泉集温泉、休闲、养生于一体，温泉区共有二十多个室内外原汤泡池，包含五间专属静雅温泉汤屋、中药养生泡池、花香养颜泡池、动感水上冲浪池、水疗健身池等项目。\n\n\n在体验温泉养生的同时，碧桂园福瑞锶还提供特色餐饮、中式泰式养生理疗、温泉地热石板浴、盐疗能量房、人参灵芝能量房、玛瑙能量房、线上冲浪、休闲大厅等设施与服务。"}}, {"title": "蟠龙湖真人cs", "address": "石家庄市元氏县蟠龙湖风景区兴凯山庄", "image": "", "rank": 3, "time": 2, "location": {"lat": 37.816277664487124, "lng": 114.41315143162616}, "feature": {"sight_features": "", "sight_content": ""}}, {"title": "侏罗纪恐龙公园", "address": "石家庄市元氏县红旗北大街1135号", "image": "", "rank": 4, "time": 2, "location": {"lat": 37.90128556449891, "lng": 114.48019288167306}, "feature": {"sight_features": "", "sight_content": ""}}, {"title": "圈圈王国", "address": "石家庄市元氏县南因镇兴丰农庄", "image": "", "rank": 5, "time": 2, "location": {"lat": 37.80150425553352, "lng": 114.622740905789}, "feature": {"sight_features": "", "sight_content": ""}}, {"title": "豪林水世界", "address": "南因镇孟村村南", "image": "", "rank": 6, "time": 2, "location": {"lat": 34.34061346568564, "lng": 111.56042057442819}, "feature": {"sight_features": "", "sight_content": ""}}, {"title": "馨智慧研学园", "address": "石家庄市元氏县姬村镇小南佐附近龙华山庄", "image": "", "rank": 7, "time": 2, "location": {"lat": 37.84219531270551, "lng": 114.40282456358517}, "feature": {"sight_features": "", "sight_content": ""}}, {"title": "又见南山休闲生态园", "address": "苏阳乡沟北村南红旗大街西300米", "image": "", "rank": 8, "time": 2, "location": {"lat": 37.73079865625959, "lng": 114.47099116748042}, "feature": {"sight_features": "", "sight_content": ""}}, {"title": "元氏县梅村生态樱桃园", "address": "411乡道东100米", "image": "", "rank": 9, "time": 2, "location": {"lat": 35.37720857982394, "lng": 113.08436330673442}, "feature": {"sight_features": "", "sight_content": ""}}, {"title": "常山郡故城", "address": "河北省元氏县故城村 051130", "image": "", "rank": 10, "time": 2, "location": {"lat": 37.8300437501976, "lng": 114.46750596398317}, "feature": {"sight_features": "", "sight_content": ""}}, {"title": "蟠龙湖农家院", "address": "生财路061县附近", "image": "", "rank": 11, "time": 2, "location": {"lat": 37.817541165482936, "lng": 114.41733123907935}, "feature": {"sight_features": "", "sight_content": ""}}, {"title": "战狼军团真人CS俱乐部", "address": "河北省石家庄市元氏县封龙山旅游景区(北龙池旧址)", "image": "", "rank": 12, "time": 2, "location": {"lat": 37.882328754561776, "lng": 114.34172477462837}, "feature": {"sight_features": "", "sight_content": ""}}, {"title": "元氏毛泽东文化收藏博物馆", "address": "河北省石家庄市元氏县槐阳镇长春路文化馆元氏会堂", "image": "", "rank": 13, "time": 2, "location": {"lat": 37.75839256109228, "lng": 114.54632149371591}, "feature": {"sight_features": "", "sight_content": ""}}, {"title": "毛泽东纪念馆", "address": "石家庄市元氏县S033(长春路)", "image": "", "rank": 14, "time": 1.0, "location": {"lat": 37.758650084291, "lng": 114.5404555174137}, "feature": {"sight_features": "", "sight_content": ""}}, {"title": "南吴会文化公园", "address": "东大街与新开路交叉口东南50米", "image": "", "rank": 15, "time": 2, "location": {"lat": 23.494386671660774, "lng": 116.51093198121578}, "feature": {"sight_features": "", "sight_content": ""}}, {"title": "双龙寺", "address": "河北省石家庄市元氏县封龙山上", "image": "", "rank": 16, "time": 1.5, "location": {"lat": 37.909655657381144, "lng": 114.32765135457659}, "feature": {"sight_features": "", "sight_content": ""}}, {"title": "宝宝乐儿童乐园", "address": "长春路和昌盛街交叉口西北角儿童城3楼", "image": "", "rank": 17, "time": 2, "location": {"lat": 37.75861562035438, "lng": 114.53482058079713}, "feature": {"sight_features": "", "sight_content": ""}}, {"title": "常山水上乐园", "address": "红旗北大街东50米", "image": "", "rank": 18, "time": 2.5, "location": {"lat": 43.38354310388797, "lng": 128.2467564309074}, "feature": {"sight_features": "", "sight_content": ""}}, {"title": "儿童乐园", "address": "槐阳大街与常山路交叉口北国商场三楼", "image": "", "rank": 19, "time": 2, "location": {"lat": 37.77209404430571, "lng": 114.54375338378837}, "feature": {"sight_features": "", "sight_content": ""}}, {"title": "卧佛寺", "address": "河北省石家庄市元氏县南佐镇封龙山风景区", "image": "", "rank": 20, "time": 2.0, "location": {"lat": 37.93954170045791, "lng": 114.30631110647474}, "feature": {"sight_features": "", "sight_content": ""}}, {"title": "奶奶古庙", "address": "河北省石家庄市元氏县胜利路81-1号", "image": "", "rank": 21, "time": 2, "location": {"lat": 37.917230267525944, "lng": 114.48555765485035}, "feature": {"sight_features": "", "sight_content": ""}}, {"title": "骑者岭", "address": "田家庄村南", "image": "", "rank": 22, "time": 2, "location": {"lat": 38.10497682600856, "lng": 114.44579192646707}, "feature": {"sight_features": "", "sight_content": ""}}, {"title": "嘉惠街游园", "address": "嘉惠街与嘉明胡同交叉口东南50米", "image": "", "rank": 23, "time": 2.5, "location": {"lat": 37.7765798701064, "lng": 114.5210945408759}, "feature": {"sight_features": "", "sight_content": ""}}, {"title": "星期六儿童成长主题乐园", "address": "河北省石家庄市元氏县槐阳大街与常山路交叉口元氏北国商城三楼", "image": "", "rank": 24, "time": 2, "location": {"lat": 37.77209404430571, "lng": 114.54375338378837}, "feature": {"sight_features": "", "sight_content": ""}}, {"title": "常山广场", "address": "石家庄市元氏县常山路106-3号", "image": "", "rank": 25, "time": 0.75, "location": {"lat": 37.771647930358775, "lng": 114.53094192846956}, "feature": {"sight_features": "", "sight_content": ""}}, {"title": "元氏县蟠龙湖度假村", "address": "河北省石家庄市元氏县蟠龙湖附近", "image": "", "rank": 26, "time": 2, "location": {"lat": 37.816277664487124, "lng": 114.41315143162616}, "feature": {"sight_features": "", "sight_content": ""}}, {"title": "芳菲园博物馆", "address": "河北省石家庄市元氏县芳菲园博物馆(元许线北)", "image": "", "rank": 27, "time": 2, "location": {"lat": 37.75717776778478, "lng": 114.53047974309824}, "feature": {"sight_features": "", "sight_content": ""}}, {"title": "蟠龙湖吉达度假村会议中心", "address": "蟠龙湖", "image": "", "rank": 28, "time": 2, "location": {"lat": 30.006655310641666, "lng": 106.26820881592413}, "feature": {"sight_features": "", "sight_content": ""}}, {"title": "中华糕饼研究院中华糕饼河北博物...", "address": "107国道", "image": "", "rank": 29, "time": 2, "location": {"lat": 23.102877208493197, "lng": 113.67228113407819}, "feature": {"sight_features": "", "sight_content": ""}}, {"title": "二军名烟名酒门市", "address": "人民路与嘉惠街交口", "image": "", "rank": 30, "time": 2, "location": {"lat": 37.760556185924905, "lng": 114.52039974198767}, "feature": {"sight_features": "", "sight_content": ""}}, {"title": "山水龙庭开心农场", "address": "姬村镇城郎村村北城廊新天附近", "image": "", "rank": 31, "time": 2, "location": {"lat": 37.89758149522303, "lng": 114.42515446318941}, "feature": {"sight_features": "", "sight_content": ""}}, {"title": "墨缘斋画廊(嘉惠街)", "address": "嘉惠街266号", "image": "", "rank": 32, "time": 2, "location": {"lat": 37.77057058425154, "lng": 114.5203333096003}, "feature": {"sight_features": "", "sight_content": ""}}, {"title": "蟠龙寺", "address": "河北省元氏县蟠龙山", "image": "", "rank": 33, "time": 0.75, "location": {"lat": 37.7723385538555, "lng": 114.53256551866185}, "feature": {"sight_features": "", "sight_content": ""}}, {"title": "青岛多彩啤酒花园", "address": "河北省元氏县复兴西路与乐凯北大街交口东行200米", "image": "", "rank": 34, "time": 0.75, "location": {"lat": 37.7723385538555, "lng": 114.53256551866185}, "feature": {"sight_features": "", "sight_content": ""}}, {"title": "大拇指亲子乐园", "address": "石家庄市-元氏县-蟠龙路槐阳公园西行100米路南", "image": "", "rank": 35, "time": 2, "location": {"lat": 37.76292458402522, "lng": 114.52780149462704}, "feature": {"sight_features": "", "sight_content": ""}}, {"title": "后黄家营村", "address": "石家庄市-元氏县", "image": "", "rank": 36, "time": 2, "location": {"lat": 37.7723385538555, "lng": 114.53256551866185}, "feature": {"sight_features": "", "sight_content": ""}}]}