{"cityName": "沅陵", "days": 2, "cityImage": "", "spots": [{"title": "凤凰山", "address": "怀化市沅陵县凤凰山省级森林公园", "image": "", "rank": 1, "time": 5.5, "location": {"lat": 28.458820973968635, "lng": 110.40420796102651}, "feature": {"sight_features": "", "sight_content": ""}}, {"title": "龙兴讲寺", "address": "怀化市沅陵县", "image": "", "rank": 2, "time": 1.5, "location": {"lat": 28.45901810262646, "lng": 110.40043076601941}, "feature": {"sight_features": "", "sight_content": ""}}, {"title": "凤滩水力发电厂", "address": "怀化市沅陵县辰州东街二号", "image": "", "rank": 3, "time": 2, "location": {"lat": 28.463862709082598, "lng": 110.41824266680109}, "feature": {"sight_features": "特色1 汇张家界之神奇，漓江之秀丽，西湖之温馨", "sight_content": "凤滩大坝是混凝土空腹重力拱坝（坝高112.5米），大坝空腹高40米，长256米，空腹内安装有4台10万千瓦水轮发电机组、4台共72万伏安主变压器、220千伏开关站、600吨重型行车。六回高压输电线从坝体内引出，三回220千伏线分别送往常德、益阳、吉首，三回110千伏线分别送管理方式沅陵、古丈、张家界。\n由于大坝的建成，使凤滩上游形成了一个蓄水13．9亿立方米的人工湖，上游100公里变成深水航道、下游45公里也因枯水季节流量增加而改善通航条件。更为显著的是，由于水路交通运输的开通，使因交通闭塞而长期沉睡于深山老林的猛洞河旅游区得到了合理的开发，形成了一个以库区上游永顺县城“不二门”为中心，以猛洞河为轴线，向四周辐射的水陆旅游自然风景区。水道全程175公里，沿途风光集三峡之雄伟，汇张家界之神奇，溶漓江之秀丽，怀西湖之温馨，四季鸟语猿啭，古木参天，深洞吞宝，河谷幽深，千姿百态的画景，令中外游客流连忘返。"}}, {"title": "沅江", "address": "湖南省怀化市沅陵县", "image": "", "rank": 4, "time": 2, "location": {"lat": 28.45901810262646, "lng": 110.40043076601941}, "feature": {"sight_features": "", "sight_content": ""}}, {"title": "黔中郡遗址", "address": "怀化市沅陵县窑头村", "image": "", "rank": 5, "time": 1.0, "location": {"lat": 28.425357777783365, "lng": 110.38556365802056}, "feature": {"sight_features": "", "sight_content": ""}}, {"title": "大别溪漂流", "address": "怀化沅陵县五强溪镇", "image": "", "rank": 6, "time": 2, "location": {"lat": 28.804024655379717, "lng": 111.02448717076614}, "feature": {"sight_features": "", "sight_content": ""}}, {"title": "酉水风情画廊", "address": "怀化市沅陵县明溪口镇四叶溪村白河谷度假区", "image": "", "rank": 7, "time": 2, "location": {"lat": 28.637404775558295, "lng": 110.35705213733004}, "feature": {"sight_features": "特色1 一条沅江三百里，被称为水上丝绸之路。", "sight_content": "酉水风情画廊位于怀化市沅陵县明溪口镇四叶溪村白河谷度假区。\n在这能欣赏到体验花船、酉水号子等两岸村寨民俗特色表演。还可前往参观大型的户外拓展基地“湘西排帮”，里面有野外射击场、烽火台、烧烤、摸鱼池、情人湖、彩云谷等众多户外项目。"}}, {"title": "酉水", "address": "湖南怀化市沅陵县明溪口镇高滩和凤滩电站之间酉水河段", "image": "", "rank": 8, "time": 2, "location": {"lat": 28.70294820934825, "lng": 110.31684649797214}, "feature": {"sight_features": "", "sight_content": ""}}, {"title": "朝慕思生态观光园", "address": "怀化沅陵县城南苦藤铺镇", "image": "", "rank": 9, "time": null, "location": {"lat": 28.45901810262646, "lng": 110.40043076601941}, "feature": {"sight_features": "", "sight_content": ""}}, {"title": "借母溪国家级自然保护区", "address": "怀化市沅陵县228省道", "image": "", "rank": 10, "time": 2, "location": {"lat": 28.713908203018168, "lng": 110.44324580322184}, "feature": {"sight_features": "", "sight_content": ""}}, {"title": "兰溪农家山庄", "address": "国道旁", "image": "", "rank": 11, "time": 3.0, "location": {"lat": 28.220527153247783, "lng": 117.04109343105479}, "feature": {"sight_features": "", "sight_content": ""}}, {"title": "白岩界红军指挥部", "address": "湖南省沅陵县白岩界村 419600", "image": "", "rank": 12, "time": 2, "location": {"lat": 28.552698015295128, "lng": 110.37893467449494}, "feature": {"sight_features": "", "sight_content": ""}}, {"title": "板溪群", "address": "湖南省沅陵县境内 419600", "image": "", "rank": 13, "time": 2, "location": {"lat": 28.45901810262646, "lng": 110.40043076601941}, "feature": {"sight_features": "", "sight_content": ""}}, {"title": "秦人避难处", "address": "湖南省沅陵县境内 419600", "image": "", "rank": 14, "time": 2, "location": {"lat": 28.45901810262646, "lng": 110.40043076601941}, "feature": {"sight_features": "", "sight_content": ""}}, {"title": "睡佛山", "address": "湖南省沅陵县麻溪铺镇 419612", "image": "", "rank": 15, "time": 2, "location": {"lat": 28.31778706544645, "lng": 110.37287744176523}, "feature": {"sight_features": "", "sight_content": ""}}, {"title": "齐眉界林场", "address": "湖南省沅陵县雪峰山脉北部 419600", "image": "", "rank": 16, "time": 2, "location": {"lat": 28.45901810262646, "lng": 110.40043076601941}, "feature": {"sight_features": "", "sight_content": ""}}, {"title": "壶头山", "address": "湖南省沅陵县高坪乡水田村 419600", "image": "", "rank": 17, "time": 2, "location": {"lat": 28.740412890795564, "lng": 110.83529268752359}, "feature": {"sight_features": "", "sight_content": ""}}, {"title": "鸡公岩", "address": "湖南省桃源县九龙桥 415700", "image": "", "rank": 18, "time": 2, "location": {"lat": 28.908694006999355, "lng": 111.49540733144599}, "feature": {"sight_features": "", "sight_content": ""}}, {"title": "鹿鸣塔", "address": "湖南省沅陵县鹿鸣山顶 419600", "image": "", "rank": 19, "time": 2, "location": {"lat": 28.45901810262646, "lng": 110.40043076601941}, "feature": {"sight_features": "", "sight_content": ""}}, {"title": "木马岭墓群", "address": "湖南省沅陵县太常乡木马岭 419615", "image": "", "rank": 20, "time": 2, "location": {"lat": 28.42807380356288, "lng": 110.36929592285067}, "feature": {"sight_features": "", "sight_content": ""}}, {"title": "龙吟塔", "address": "湖南省沅陵县沅陵镇高明村 419600", "image": "", "rank": 21, "time": 2, "location": {"lat": 28.460272136022585, "lng": 110.40412816993793}, "feature": {"sight_features": "", "sight_content": ""}}, {"title": "怀化悬棺墓", "address": "湖南省沅陵县官庄镇宁乡铺村 419500", "image": "", "rank": 22, "time": 3.5, "location": {"lat": 28.583353293936046, "lng": 111.03540028106408}, "feature": {"sight_features": "", "sight_content": ""}}, {"title": "九龙山", "address": "沅陵县", "image": "", "rank": 23, "time": 3.5, "location": {"lat": 28.45901810262646, "lng": 110.40043076601941}, "feature": {"sight_features": "", "sight_content": ""}}, {"title": "借母溪沟谷原始次森林", "address": "湖南省沅陵县桐车坪乡借母溪村 419628", "image": "", "rank": 24, "time": 2.5, "location": {"lat": 28.765324814595196, "lng": 110.44303241523954}, "feature": {"sight_features": "", "sight_content": ""}}, {"title": "杨家坪革命纪念地", "address": "湖南省资兴市龙溪乡中堂村 423406", "image": "", "rank": 25, "time": 2, "location": {"lat": 25.843690184179582, "lng": 113.50959883900413}, "feature": {"sight_features": "", "sight_content": ""}}, {"title": "朝阳庵", "address": "湖南省怀化市沅陵县G56(杭瑞高速)", "image": "", "rank": 26, "time": 2, "location": {"lat": 28.45901810262646, "lng": 110.40043076601941}, "feature": {"sight_features": "", "sight_content": ""}}, {"title": "3861游乐园", "address": "湖南省怀化市沅陵县沅陵镇迎宾南路南方医院附近", "image": "", "rank": 27, "time": 2, "location": {"lat": 28.4472734546425, "lng": 110.42000854768729}, "feature": {"sight_features": "", "sight_content": ""}}, {"title": "抗日阵亡将士纪念碑", "address": "怀化市沅陵县沅陵镇城东南沅水之畔凤凰山森林公园内", "image": "", "rank": 28, "time": 2, "location": {"lat": 28.458594156544947, "lng": 110.42249470250741}, "feature": {"sight_features": "", "sight_content": ""}}, {"title": "贝儿健儿童成长乐园", "address": "湖南省怀化市沅陵县建设东街209号", "image": "", "rank": 29, "time": 2, "location": {"lat": 28.463195110420074, "lng": 110.40783073731652}, "feature": {"sight_features": "", "sight_content": ""}}, {"title": "龙舟广场", "address": "怀化市沅陵县滨江大道9栋", "image": "", "rank": 30, "time": 2, "location": {"lat": 28.456160844075608, "lng": 110.4088346619948}, "feature": {"sight_features": "", "sight_content": ""}}, {"title": "南华山庄", "address": "凤郑公路与412乡道交叉口东100米", "image": "", "rank": 31, "time": null, "location": {"lat": 28.45712754172311, "lng": 110.42277737320043}, "feature": {"sight_features": "", "sight_content": ""}}, {"title": "麻将湾", "address": "004县道附近", "image": "", "rank": 32, "time": 2, "location": {"lat": 40.57432358393056, "lng": 116.56266536439895}, "feature": {"sight_features": "", "sight_content": ""}}, {"title": "少帅纪念馆", "address": "412乡道", "image": "", "rank": 33, "time": 2, "location": {"lat": 47.23297679025574, "lng": 134.04293914636108}, "feature": {"sight_features": "", "sight_content": ""}}, {"title": "沅陵县档案馆", "address": "虎溪路", "image": "", "rank": 34, "time": 2, "location": {"lat": 27.881708171408352, "lng": 120.69831086388261}, "feature": {"sight_features": "", "sight_content": ""}}, {"title": "博物馆", "address": "县城西北角的虎溪山麓", "image": "", "rank": 35, "time": 2, "location": {"lat": 37.636853106921144, "lng": 121.3561577715862}, "feature": {"sight_features": "", "sight_content": ""}}, {"title": "酉水休闲农庄", "address": "004县道附近", "image": "", "rank": 36, "time": 2, "location": {"lat": 40.57432358393056, "lng": 116.56266536439895}, "feature": {"sight_features": "", "sight_content": ""}}, {"title": "沅陵图书馆", "address": "辰州中街邮政储蓄银行旁", "image": "", "rank": 37, "time": 1.5, "location": {"lat": 40.0380039728844, "lng": 116.32637382542663}, "feature": {"sight_features": "", "sight_content": ""}}, {"title": "虎溪书院", "address": "湖南省沅陵县县城西郊虎溪山上", "image": "", "rank": 38, "time": 2, "location": {"lat": 28.45901810262646, "lng": 110.40043076601941}, "feature": {"sight_features": "", "sight_content": ""}}, {"title": "新寨碑", "address": "湖南省沅陵县北明溪口镇", "image": "", "rank": 39, "time": 2, "location": {"lat": 28.637404775558295, "lng": 110.35705213733004}, "feature": {"sight_features": "", "sight_content": ""}}, {"title": "剿匪纪念堂 Bandit Eradicating ...", "address": "湖南省辰溪县老城公园路", "image": "", "rank": 40, "time": 2, "location": {"lat": 28.012605313812955, "lng": 110.19048661755465}, "feature": {"sight_features": "", "sight_content": ""}}, {"title": "怀化凤凰寺", "address": "湖南省沅陵县凤凰山", "image": "", "rank": 41, "time": null, "location": {"lat": 28.45901810262646, "lng": 110.40043076601941}, "feature": {"sight_features": "", "sight_content": ""}}, {"title": "文化南路商业街", "address": "湖南省沅陵县滨江大道", "image": "", "rank": 42, "time": 2, "location": {"lat": 28.456160844075608, "lng": 110.4088346619948}, "feature": {"sight_features": "", "sight_content": ""}}, {"title": "沅陵县尤家巷步行街", "address": "湖南省沅陵县尤家巷", "image": "", "rank": 43, "time": 2, "location": {"lat": 28.45994118060974, "lng": 110.40788616276646}, "feature": {"sight_features": "", "sight_content": ""}}, {"title": "小辰龙关", "address": "怀化市-沅陵县", "image": "", "rank": 44, "time": 2, "location": {"lat": 28.45901810262646, "lng": 110.40043076601941}, "feature": {"sight_features": "", "sight_content": ""}}, {"title": "沅陵五强溪水库", "address": "湖南沅陵县", "image": "", "rank": 45, "time": 2.5, "location": {"lat": 28.45901810262646, "lng": 110.40043076601941}, "feature": {"sight_features": "", "sight_content": ""}}]}