{"cityName": "沅江", "days": 2, "cityImage": "", "spots": [{"title": "安谰阁", "address": "万子湖村", "image": "", "rank": 1, "time": 2, "location": {"lat": 28.789572877946632, "lng": 112.43478430686078}, "feature": {"sight_features": "", "sight_content": ""}}, {"title": "农家乐酒楼", "address": "永兴路", "image": "", "rank": 2, "time": 2, "location": {"lat": 39.13022132708221, "lng": 117.06791200117846}, "feature": {"sight_features": "", "sight_content": ""}}, {"title": "袁氏葡萄园", "address": "009县道与202省道交叉口西150米", "image": "", "rank": 3, "time": 2, "location": {"lat": 44.321504872459506, "lng": 125.34496535219758}, "feature": {"sight_features": "", "sight_content": ""}}, {"title": "湖南根固农业科技有限公司(北门)", "address": "202省道南50米", "image": "", "rank": 4, "time": 2, "location": {"lat": 37.77756852425197, "lng": 114.12616671611477}, "feature": {"sight_features": "", "sight_content": ""}}, {"title": "斯贝斯", "address": "琼湖西路200附近", "image": "", "rank": 5, "time": 2, "location": {"lat": 28.844861654018985, "lng": 112.36011341953837}, "feature": {"sight_features": "", "sight_content": ""}}, {"title": "沅江市南嘴开德家庭农场", "address": "南嘴镇鲤羊村", "image": "", "rank": 6, "time": 2, "location": {"lat": 29.056738728542495, "lng": 112.31208645239593}, "feature": {"sight_features": "", "sight_content": ""}}, {"title": "洞庭湖风景区", "address": "湖南省岳阳市岳阳楼区西北部 414000", "image": "", "rank": 7, "time": 2, "location": {"lat": 29.377995036881128, "lng": 113.13648070435137}, "feature": {"sight_features": "", "sight_content": ""}}, {"title": "范蠡祠", "address": "湖南省沅江市新湾镇 413102", "image": "", "rank": 8, "time": 3.0, "location": {"lat": 28.935751864359336, "lng": 112.32239430600077}, "feature": {"sight_features": "", "sight_content": ""}}, {"title": "千山红农场", "address": "湖南省沅江市北汀镇 413100", "image": "", "rank": 9, "time": 2, "location": {"lat": 28.8502335885833, "lng": 112.36053222034666}, "feature": {"sight_features": "", "sight_content": ""}}, {"title": "周维寅别墅", "address": "湖南省沅江市三眼塘镇 413100", "image": "", "rank": 10, "time": 2, "location": {"lat": 28.769902338157713, "lng": 112.36125281767058}, "feature": {"sight_features": "", "sight_content": ""}}, {"title": "福寿宫", "address": "湖南省益阳市沅江市琼湖西路361号", "image": "", "rank": 11, "time": 2, "location": {"lat": 28.843449507268907, "lng": 112.3748184085453}, "feature": {"sight_features": "", "sight_content": ""}}, {"title": "洞庭湖博物馆", "address": "湖南省沅江市南洞庭湖畔 413100", "image": "", "rank": 12, "time": 2, "location": {"lat": 28.8502335885833, "lng": 112.36053222034666}, "feature": {"sight_features": "", "sight_content": ""}}, {"title": "杨么活动遗址", "address": "湖南省沅江市南大膳镇 413116", "image": "", "rank": 13, "time": 2, "location": {"lat": 29.039126771412363, "lng": 112.6897654727655}, "feature": {"sight_features": "", "sight_content": ""}}, {"title": "蓼叶湖公园", "address": "金竹路与白沙大道交界", "image": "", "rank": 14, "time": 2, "location": {"lat": 28.845050384555584, "lng": 112.35734084539632}, "feature": {"sight_features": "", "sight_content": ""}}, {"title": "天主堂", "address": "湖南省益阳市沅江市人园路11", "image": "", "rank": 15, "time": 0.4, "location": {"lat": 28.84696475682351, "lng": 112.37747294624167}, "feature": {"sight_features": "", "sight_content": ""}}, {"title": "魁星楼", "address": "湖南省益阳市沅江市琼湖街道沅江大道梅园小区附近", "image": "", "rank": 16, "time": 0.75, "location": {"lat": 28.84863244427873, "lng": 112.37909503536493}, "feature": {"sight_features": "", "sight_content": ""}}, {"title": "甘露寺", "address": "益阳市沅江市", "image": "", "rank": 17, "time": 2.5, "location": {"lat": 28.8502335885833, "lng": 112.36053222034666}, "feature": {"sight_features": "", "sight_content": ""}}, {"title": "佛恩寺", "address": "湖南省益阳市沅江市S204", "image": "", "rank": 18, "time": 2, "location": {"lat": 28.8502335885833, "lng": 112.36053222034666}, "feature": {"sight_features": "", "sight_content": ""}}, {"title": "知青之家渡假村", "address": "益阳三眼塘镇株木山村", "image": "", "rank": 19, "time": 2, "location": {"lat": 28.785213826120753, "lng": 112.31846371364992}, "feature": {"sight_features": "", "sight_content": ""}}, {"title": "森林公园", "address": "湖南省益阳市沅江市", "image": "", "rank": 20, "time": 2.5, "location": {"lat": 28.8502335885833, "lng": 112.36053222034666}, "feature": {"sight_features": "", "sight_content": ""}}, {"title": "京华画馆", "address": "琼湖东路", "image": "", "rank": 21, "time": null, "location": {"lat": 28.84300868064652, "lng": 112.38507399334576}, "feature": {"sight_features": "", "sight_content": ""}}, {"title": "沅江市美世界水上乐园", "address": "美世界广场", "image": "", "rank": 22, "time": 2, "location": {"lat": 28.8460784947296, "lng": 112.36771433459154}, "feature": {"sight_features": "", "sight_content": ""}}, {"title": "城南游泳培训基地——水上乐园", "address": "城南实验学校内", "image": "", "rank": 23, "time": 2, "location": {"lat": 30.839624309800698, "lng": 120.09833981986598}, "feature": {"sight_features": "", "sight_content": ""}}, {"title": "东方画廊(沅江加盟店)", "address": "新法院往南300米东方名居小区正门对面附近", "image": "", "rank": 24, "time": 1.5, "location": {"lat": 28.251546550681127, "lng": 113.11907324137115}, "feature": {"sight_features": "", "sight_content": ""}}, {"title": "真心网吧", "address": "三眼塘镇三眼塘乡莲子塘村", "image": "", "rank": 25, "time": null, "location": {"lat": 28.737587903875703, "lng": 112.31576543566165}, "feature": {"sight_features": "", "sight_content": ""}}, {"title": "金雁子水稻种植统防统治专业合作...", "address": "202省道东50米", "image": "", "rank": 26, "time": 2, "location": {"lat": 37.77792504283699, "lng": 114.12661586886976}, "feature": {"sight_features": "", "sight_content": ""}}, {"title": "沅江剧院", "address": "沿河路", "image": "", "rank": 27, "time": 2.0, "location": {"lat": 40.64228347726066, "lng": 122.5173173722121}, "feature": {"sight_features": "", "sight_content": ""}}, {"title": "草尾剧院", "address": "草尾镇共和街", "image": "", "rank": 28, "time": 2, "location": {"lat": 29.042845558739074, "lng": 112.4346300237878}, "feature": {"sight_features": "", "sight_content": ""}}, {"title": "迷城密室逃脱", "address": "琼湖中路西领公寓院内", "image": "", "rank": 29, "time": 2, "location": {"lat": 28.843923969182534, "lng": 112.37183933103437}, "feature": {"sight_features": "", "sight_content": ""}}, {"title": "苏湖", "address": "湖南省新化县琅塘镇新佃桥村", "image": "", "rank": 30, "time": 2, "location": {"lat": 28.023750525427335, "lng": 111.11020704787448}, "feature": {"sight_features": "", "sight_content": ""}}, {"title": "茅竹湖 Maozhu Lake", "address": "湖南省沅江市境内", "image": "", "rank": 31, "time": 2, "location": {"lat": 28.8502335885833, "lng": 112.36053222034666}, "feature": {"sight_features": "", "sight_content": ""}}]}