{"cityName": "原平", "days": 2, "cityImage": "", "spots": [{"title": "新康力温泉度假村", "address": "忻州市原平市大营开发区王董堡内(108国道西侧)", "image": "", "rank": 1, "time": 2, "location": {"lat": 38.895792602598505, "lng": 112.75819474652198}, "feature": {"sight_features": "", "sight_content": ""}}, {"title": "芳草园温泉", "address": "忻州市原平市大营开发区108国道旁", "image": "", "rank": 2, "time": 2, "location": {"lat": 38.95700545632616, "lng": 112.8052183450528}, "feature": {"sight_features": "", "sight_content": ""}}, {"title": "兄弟连真人cs野战基地", "address": "滨河东路左拐五十米处", "image": "", "rank": 3, "time": 2, "location": {"lat": 38.024623223067096, "lng": 115.06593737422962}, "feature": {"sight_features": "", "sight_content": ""}}, {"title": "原平市范亭文体广场", "address": "公园西巷与前进西街交叉口东南150米", "image": "", "rank": 4, "time": 2, "location": {"lat": 38.73722917247645, "lng": 112.70380104804475}, "feature": {"sight_features": "", "sight_content": ""}}, {"title": "牛卧河生态公园", "address": "山西省忻州市原平市G108(京原南路)", "image": "", "rank": 5, "time": 2, "location": {"lat": 38.72192805126103, "lng": 112.72328616770912}, "feature": {"sight_features": "", "sight_content": ""}}, {"title": "一泉山庄未来水世界", "address": "大营一泉山庄", "image": "", "rank": 6, "time": 2, "location": {"lat": 38.95309603050676, "lng": 112.79975355827949}, "feature": {"sight_features": "", "sight_content": ""}}, {"title": "寿宁寺", "address": "忻州市原平市城东北", "image": "", "rank": 7, "time": 1.5, "location": {"lat": 38.73647589760487, "lng": 112.71748713403183}, "feature": {"sight_features": "", "sight_content": ""}}, {"title": "天牙山动漫水世界", "address": "天牙山风景区", "image": "", "rank": 8, "time": 2, "location": {"lat": 38.727588754409254, "lng": 112.8093329283395}, "feature": {"sight_features": "", "sight_content": ""}}, {"title": "明月生态园", "address": "长原线", "image": "", "rank": 9, "time": 2, "location": {"lat": 38.724426631221505, "lng": 112.99931834359522}, "feature": {"sight_features": "", "sight_content": ""}}, {"title": "大营温泉景区", "address": "崞阳镇北5公里大营村", "image": "", "rank": 10, "time": 2, "location": {"lat": 38.955538094360726, "lng": 112.81037693810491}, "feature": {"sight_features": "", "sight_content": ""}}, {"title": "山西省原平农场", "address": "铝厂大道", "image": "", "rank": 11, "time": 2, "location": {"lat": 38.77197481191428, "lng": 112.75815791599608}, "feature": {"sight_features": "", "sight_content": ""}}, {"title": "老三垂钓园", "address": "310省道南50米", "image": "", "rank": 12, "time": 2, "location": {"lat": 40.608088476676365, "lng": 116.67471864625533}, "feature": {"sight_features": "", "sight_content": ""}}, {"title": "土圣寺", "address": "山西省忻州市原平市", "image": "", "rank": 13, "time": 2, "location": {"lat": 38.73647589760487, "lng": 112.71748713403183}, "feature": {"sight_features": "", "sight_content": ""}}, {"title": "大风车儿童游乐城", "address": "北城街道大十字街亚达新天地三楼", "image": "", "rank": 14, "time": 2, "location": {"lat": 38.73613872553268, "lng": 112.72692117353154}, "feature": {"sight_features": "", "sight_content": ""}}, {"title": "同福寺", "address": "山西省忻州市原平市王东社村", "image": "", "rank": 15, "time": 2, "location": {"lat": 38.71320397124733, "lng": 113.01403796510544}, "feature": {"sight_features": "", "sight_content": ""}}, {"title": "鑫鑫儿童乐园", "address": "永兴南路与永兴南路三巷交叉口西北50米", "image": "", "rank": 16, "time": 2.5, "location": {"lat": 38.7282564561514, "lng": 112.73668558374693}, "feature": {"sight_features": "", "sight_content": ""}}, {"title": "蛋蛋堂儿童成长主题乐园", "address": "山西省忻州市原平市前进西街943", "image": "", "rank": 17, "time": 2, "location": {"lat": 38.736530920095575, "lng": 112.71600726553469}, "feature": {"sight_features": "", "sight_content": ""}}, {"title": "碧水山庄", "address": "沿沟乡", "image": "", "rank": 18, "time": 2, "location": {"lat": 39.02042759193304, "lng": 112.74599256332208}, "feature": {"sight_features": "", "sight_content": ""}}, {"title": "柳香园度假村", "address": "大营", "image": "", "rank": 19, "time": 2, "location": {"lat": 40.76533093113927, "lng": 117.26232190344383}, "feature": {"sight_features": "", "sight_content": ""}}, {"title": "儿童乐园", "address": "前进西街悦城时尚天地二楼(市政府往西30米路北)", "image": "", "rank": 20, "time": 2, "location": {"lat": 38.73657280569173, "lng": 112.71595793059608}, "feature": {"sight_features": "", "sight_content": ""}}, {"title": "儿童淘气堡", "address": "忻州市原平市", "image": "", "rank": 21, "time": 2, "location": {"lat": 38.73647589760487, "lng": 112.71748713403183}, "feature": {"sight_features": "", "sight_content": ""}}, {"title": "原平市老干部休养所", "address": "幸福西街155", "image": "", "rank": 22, "time": 2, "location": {"lat": 38.74081072272649, "lng": 112.71355884403668}, "feature": {"sight_features": "", "sight_content": ""}}, {"title": "原平市博物馆", "address": "忻州市原平市前进西街1940号", "image": "", "rank": 23, "time": 2.5, "location": {"lat": 38.73434209069082, "lng": 112.70579984517737}, "feature": {"sight_features": "", "sight_content": ""}}, {"title": "杨子琴行", "address": "京原北路93号", "image": "", "rank": 24, "time": 2, "location": {"lat": 38.73795020097537, "lng": 112.72759473930074}, "feature": {"sight_features": "", "sight_content": ""}}, {"title": "舞迪世界", "address": "京原南路", "image": "", "rank": 25, "time": 2, "location": {"lat": 38.72192805126103, "lng": 112.72328616770912}, "feature": {"sight_features": "", "sight_content": ""}}, {"title": "青华园苗木花卉专业合作社", "address": "108国道附近", "image": "", "rank": 26, "time": 2, "location": {"lat": 36.13357010619177, "lng": 111.55186297208911}, "feature": {"sight_features": "", "sight_content": ""}}, {"title": "开心核桃", "address": "工程路饲料公司家属楼", "image": "", "rank": 27, "time": 2, "location": {"lat": 38.729015803134594, "lng": 112.72971756355018}, "feature": {"sight_features": "", "sight_content": ""}}, {"title": "锦农合作社", "address": "新原乡二广高速西平地泉村中国石化西90米", "image": "", "rank": 28, "time": 2, "location": {"lat": 39.941222085709676, "lng": 116.62336278974153}, "feature": {"sight_features": "", "sight_content": ""}}, {"title": "黄秋葵采摘基地", "address": "G108京昆线中国石化南60米", "image": "", "rank": 29, "time": 2, "location": {"lat": 39.94080718865663, "lng": 116.62417126470052}, "feature": {"sight_features": "", "sight_content": ""}}, {"title": "钓鱼岛", "address": "建设街永祥鲜花东侧50米", "image": "", "rank": 30, "time": 2, "location": {"lat": 38.093296108711115, "lng": 114.62444471286672}, "feature": {"sight_features": "", "sight_content": ""}}, {"title": "忻州市林泉寺", "address": "山西省原平市闫庄镇水油沟村", "image": "", "rank": 31, "time": 7.5, "location": {"lat": 38.64636686590849, "lng": 112.58384920568669}, "feature": {"sight_features": "", "sight_content": ""}}, {"title": "忻州宋氏牌楼 Xinzhou Arch of F...", "address": "山西省原平市阳武村", "image": "", "rank": 32, "time": 7.5, "location": {"lat": 38.82106078666458, "lng": 112.62040546095749}, "feature": {"sight_features": "", "sight_content": ""}}, {"title": "忻州普济桥", "address": "山西省原平市崞阳镇", "image": "", "rank": 33, "time": 7.5, "location": {"lat": 38.89458417802084, "lng": 112.7559215547849}, "feature": {"sight_features": "", "sight_content": ""}}, {"title": "原平商汇街", "address": "山西省原平市京原南路商汇街路口", "image": "", "rank": 34, "time": 2, "location": {"lat": 38.73057843329741, "lng": 112.72565518888139}, "feature": {"sight_features": "", "sight_content": ""}}, {"title": "滹沱河水利风景区", "address": "忻州市原平市新城西路东50米", "image": "", "rank": 35, "time": 2, "location": {"lat": 38.727464877389295, "lng": 112.78445730098782}, "feature": {"sight_features": "", "sight_content": ""}}]}