{"cityName": "原阳", "days": 2, "cityImage": "", "spots": [{"title": "玲珑塔", "address": "新乡市原阳县东靳庄附近", "image": "", "rank": 1, "time": 0.25, "location": {"lat": 35.020492763180854, "lng": 113.80658421300302}, "feature": {"sight_features": "", "sight_content": ""}}, {"title": "格林湾水上乐园", "address": "新乡市原阳县福宁集秦庄和王欠庄中间的地段", "image": "", "rank": 2, "time": 2, "location": {"lat": 35.17756895025409, "lng": 114.00128778750913}, "feature": {"sight_features": "", "sight_content": ""}}, {"title": "金福华温泉假日庄园", "address": "新乡市原阳县新原路福宁集段路东中国邮政南100米路东金福华温泉假日庄园检票处", "image": "", "rank": 3, "time": 2, "location": {"lat": 35.102023907764135, "lng": 114.1316198797131}, "feature": {"sight_features": "", "sight_content": ""}}, {"title": "黄河漂流", "address": "新乡市原阳县陡门乡周庄村", "image": "", "rank": 4, "time": 2, "location": {"lat": 34.94759603916388, "lng": 114.22773884416223}, "feature": {"sight_features": "", "sight_content": ""}}, {"title": "有马镇马术中心", "address": "黄河富景生态世界东500米-郑州有马镇马术中心(黄河富景生态世界)", "image": "", "rank": 5, "time": 2, "location": {"lat": 34.91388598273869, "lng": 113.75767956183601}, "feature": {"sight_features": "", "sight_content": ""}}, {"title": "原阳县职工文化艺术馆", "address": "黄河大道(嵩山少林寺原阳文武专修院)", "image": "", "rank": 6, "time": 2, "location": {"lat": 35.062460559905155, "lng": 113.96637810827202}, "feature": {"sight_features": "", "sight_content": ""}}, {"title": "恒升1号庄园", "address": "中国郑州平原新区黄河大道与郑新大道(新107)交汇", "image": "", "rank": 7, "time": 2, "location": {"lat": 34.43796000534304, "lng": 113.73645735197645}, "feature": {"sight_features": "", "sight_content": ""}}, {"title": "印象温泉商务", "address": "新郑一级路附近", "image": "", "rank": 8, "time": 2, "location": {"lat": 34.40176637910559, "lng": 113.74643447195358}, "feature": {"sight_features": "", "sight_content": ""}}, {"title": "牧药园饲料销售有限公司", "address": "解放路附近", "image": "", "rank": 9, "time": 2, "location": {"lat": 38.31075478654948, "lng": 116.85852551801001}, "feature": {"sight_features": "", "sight_content": ""}}, {"title": "龙源温泉", "address": "师寨镇37县道中国邮政东南侧110米", "image": "", "rank": 10, "time": 2, "location": {"lat": 39.90792247753632, "lng": 116.41384632446074}, "feature": {"sight_features": "", "sight_content": ""}}, {"title": "原华温泉", "address": "037县道附近", "image": "", "rank": 11, "time": 2, "location": {"lat": 30.4472599655496, "lng": 118.06864912983106}, "feature": {"sight_features": "", "sight_content": ""}}, {"title": "新乡县七里营镇天忠家庭农场", "address": "107国道加油站东北侧", "image": "", "rank": 12, "time": 2.5, "location": {"lat": 24.09701218694945, "lng": 108.252842276359}, "feature": {"sight_features": "", "sight_content": ""}}, {"title": "韩庄垂钓园", "address": "韩庄村", "image": "", "rank": 13, "time": 2, "location": {"lat": 39.038273935580435, "lng": 116.26077281350858}, "feature": {"sight_features": "", "sight_content": ""}}, {"title": "黄河富景生态世界", "address": "河南郑州市惠济区花园口镇八堡村 450045", "image": "", "rank": 14, "time": 2, "location": {"lat": 34.8779734765601, "lng": 113.74684468316472}, "feature": {"sight_features": "", "sight_content": ""}}, {"title": "同盟古镇田居十里景观示范区", "address": "河南省新乡市原阳县S230", "image": "", "rank": 15, "time": 2, "location": {"lat": 35.07116386446907, "lng": 113.94662374129375}, "feature": {"sight_features": "", "sight_content": ""}}, {"title": "圣唐中心广场", "address": "原阳县黄河大道与原新路交汇处，销售热线：0373--7523666", "image": "", "rank": 16, "time": 2, "location": {"lat": 35.07717425976893, "lng": 113.96723874603533}, "feature": {"sight_features": "", "sight_content": ""}}, {"title": "动漫水世界", "address": "中医院南侧", "image": "", "rank": 17, "time": 2, "location": {"lat": 39.90220615050265, "lng": 117.75014496343316}, "feature": {"sight_features": "", "sight_content": ""}}, {"title": "娄师德纪念馆", "address": "祝楼乡娄师德纪念馆", "image": "", "rank": 18, "time": 2, "location": {"lat": 35.04593751870153, "lng": 113.6952272867983}, "feature": {"sight_features": "", "sight_content": ""}}, {"title": "水牛稻大闸蟹生态园", "address": "新乡市原阳县太平镇水牛赵村“水牛稻生态基地”", "image": "", "rank": 19, "time": 2, "location": {"lat": 35.02702407274991, "lng": 114.12901973710937}, "feature": {"sight_features": "", "sight_content": ""}}, {"title": "十二丞相馆", "address": "河南原阳县原阳县 453000", "image": "", "rank": 20, "time": 2, "location": {"lat": 35.07116386446907, "lng": 113.94662374129375}, "feature": {"sight_features": "", "sight_content": ""}}, {"title": "公园-世纪西区", "address": "人和街与民生东路交叉口东北150米", "image": "", "rank": 21, "time": 2, "location": {"lat": 35.062913549988004, "lng": 113.94928739050378}, "feature": {"sight_features": "", "sight_content": ""}}, {"title": "天然度假村", "address": "雁李村", "image": "", "rank": 22, "time": 2, "location": {"lat": 35.01464312992792, "lng": 114.09476042567167}, "feature": {"sight_features": "", "sight_content": ""}}, {"title": "凤湖世纪游乐园", "address": "河南省新乡市原阳县s311", "image": "", "rank": 23, "time": 2, "location": {"lat": 35.07116386446907, "lng": 113.94662374129375}, "feature": {"sight_features": "", "sight_content": ""}}, {"title": "白衣大祠", "address": "张庄村附近", "image": "", "rank": 24, "time": 2, "location": {"lat": 39.73884429449585, "lng": 116.1003949522852}, "feature": {"sight_features": "", "sight_content": ""}}, {"title": "观音寺", "address": "河南省新乡市原阳县北干道", "image": "", "rank": 25, "time": 2.0, "location": {"lat": 35.064154555387276, "lng": 113.97818629557354}, "feature": {"sight_features": "", "sight_content": ""}}, {"title": "天冰冷饮", "address": "泰丰路附近太平镇完全小学附近", "image": "", "rank": 26, "time": 2, "location": {"lat": 35.037014284237415, "lng": 114.1118152642195}, "feature": {"sight_features": "", "sight_content": ""}}, {"title": "光亮甘薯种植", "address": "路寨乡李庄村88号", "image": "", "rank": 27, "time": 2, "location": {"lat": 35.07155717599114, "lng": 114.18956263054831}, "feature": {"sight_features": "", "sight_content": ""}}, {"title": "星海岸温泉", "address": "劳动就业局对面", "image": "", "rank": 28, "time": 2, "location": {"lat": 38.408372411296554, "lng": 112.75466774756427}, "feature": {"sight_features": "", "sight_content": ""}}, {"title": "花园温泉", "address": "鑫源花园十字路口", "image": "", "rank": 29, "time": 2, "location": {"lat": 35.41516728251375, "lng": 116.56952836908837}, "feature": {"sight_features": "", "sight_content": ""}}, {"title": "书坊斋", "address": "文源路与黄河大道交叉口东南100米", "image": "", "rank": 30, "time": 2, "location": {"lat": 35.08015125013402, "lng": 113.95618755090572}, "feature": {"sight_features": "", "sight_content": ""}}, {"title": "太阳雨温泉", "address": "西干道附近", "image": "", "rank": 31, "time": 2, "location": {"lat": 24.51484745848381, "lng": 117.73018906719487}, "feature": {"sight_features": "", "sight_content": ""}}, {"title": "新乡市大自然草莓基地", "address": "朗公庙崔庄林场(近229省道)", "image": "", "rank": 32, "time": 2.5, "location": {"lat": 35.216359704129516, "lng": 113.91386478421032}, "feature": {"sight_features": "", "sight_content": ""}}, {"title": "伊龙湾庄园", "address": "城关镇富康路新中医院东288米", "image": "", "rank": 33, "time": 2, "location": {"lat": 25.536542697263027, "lng": 113.7071516390988}, "feature": {"sight_features": "", "sight_content": ""}}, {"title": "原阳县金堤农业观光旅游", "address": "荒庄村", "image": "", "rank": 34, "time": 2, "location": {"lat": 36.98594530477176, "lng": 113.80463200648569}, "feature": {"sight_features": "", "sight_content": ""}}, {"title": "老八农庄生态地锅鹅", "address": "G107加气站向西1公里新阳工业园老八农家院", "image": "", "rank": 35, "time": 2, "location": {"lat": 45.764867796054624, "lng": 126.62288425082153}, "feature": {"sight_features": "", "sight_content": ""}}, {"title": "飞越丛林冒险乐园", "address": "黄河北岸原阳国营林场(原阳国营林场)", "image": "", "rank": 36, "time": 2, "location": {"lat": 35.02646106126935, "lng": 114.14610954040259}, "feature": {"sight_features": "", "sight_content": ""}}, {"title": "风湖生态公园", "address": "新乡市平原区", "image": "", "rank": 37, "time": 2, "location": {"lat": 35.3096399303368, "lng": 113.93360046733228}, "feature": {"sight_features": "", "sight_content": ""}}, {"title": "博浪沙森林公园", "address": "新乡市原阳县平原新区黄河北岸", "image": "", "rank": 38, "time": 2, "location": {"lat": 35.07116386446907, "lng": 113.94662374129375}, "feature": {"sight_features": "", "sight_content": ""}}, {"title": "鹿岛森林公园", "address": "新乡市原阳县平原新区黄河北岸", "image": "", "rank": 39, "time": 4.5, "location": {"lat": 35.07116386446907, "lng": 113.94662374129375}, "feature": {"sight_features": "", "sight_content": ""}}]}