{"cityName": "元江", "days": 2, "cityImage": "", "spots": [{"title": "红河谷热海温泉", "address": "玉溪市元江哈尼族彝族傣族自治县（元江至墨江323国道292公里处，近昆胡路）", "image": "", "rank": 1, "time": 2, "location": {"lat": 23.549112750069277, "lng": 101.92562938081859}, "feature": {"sight_features": "特色1 含多种对人体有益的矿物质。 特色2 享受健康温泉，品尝特色长街宴。 特色3 无火之炊、水上长街宴。", "sight_content": "元江红河谷热海”是元江县一个集温泉养生、度假休闲、旅游观光为一体的旅游文化开发项目，“无火之炊、水上长街宴”等项目已投入营业。15个用天然石材打磨出的小滚锅，不需要用火、用电，把各种时鲜食材放在滚锅里烫熟，就变成了美食。\n160多米长的草木棚依河而建，构成了独特“无火之炊、水上长街宴”，在享受温泉的同时，可品尝沸水煮的元江风味美食。“热海”的地热温泉温度高达94℃，每天的温泉出水量在1500方左右。\n除了美食长街宴，另有哈尼梯田温泉养生区、树屋洞穴精品酒店区、温泉热区生态氧吧区等功能区，是目前云南省首家树屋特色空中透明温泉度假休闲酒店。"}}, {"title": "那诺梯田", "address": "玉溪市元江县那诺哈尼族彝族乡", "image": "", "rank": 2, "time": 3.5, "location": {"lat": 23.603000905474538, "lng": 102.00441463673134}, "feature": {"sight_features": "", "sight_content": ""}}, {"title": "那诺集市", "address": "云南省玉溪市元江县那诺乡", "image": "", "rank": 3, "time": 2, "location": {"lat": 23.39648967728166, "lng": 102.12904827309495}, "feature": {"sight_features": "", "sight_content": ""}}, {"title": "牛角寨瀑布景区", "address": "河池市环江毛南族自治县明伦镇八面村牛角", "image": "", "rank": 4, "time": 2, "location": {"lat": 25.078460899554052, "lng": 108.39515725288324}, "feature": {"sight_features": "", "sight_content": ""}}, {"title": "那诺乡", "address": "云南省玉溪市元江县", "image": "", "rank": 5, "time": 2, "location": {"lat": 23.603000905474538, "lng": 102.00441463673134}, "feature": {"sight_features": "", "sight_content": ""}}, {"title": "江东公园", "address": "云南省玉溪市元江哈尼族彝族傣族自治县 澧江路", "image": "", "rank": 6, "time": 1.0, "location": {"lat": 23.600981300203994, "lng": 102.00435628100881}, "feature": {"sight_features": "", "sight_content": ""}}, {"title": "元江梯田", "address": "云南省元江县", "image": "", "rank": 7, "time": 2.5, "location": {"lat": 23.603000905474538, "lng": 102.00441463673134}, "feature": {"sight_features": "", "sight_content": ""}}, {"title": "天成温泉山庄", "address": "环东北路", "image": "", "rank": 8, "time": 2, "location": {"lat": 23.263208926327064, "lng": 116.48440331273441}, "feature": {"sight_features": "", "sight_content": ""}}, {"title": "元江县哀牢山果蔬专业合作社", "address": "323国道附近", "image": "", "rank": 9, "time": 2, "location": {"lat": 24.97631276438632, "lng": 113.87824165692972}, "feature": {"sight_features": "", "sight_content": ""}}, {"title": "观音滩生态园", "address": "玉溪市元江哈尼族彝族傣族自治县", "image": "", "rank": 10, "time": 2, "location": {"lat": 23.603000905474538, "lng": 102.00441463673134}, "feature": {"sight_features": "", "sight_content": ""}}, {"title": "元江县图书馆", "address": "凤凰路", "image": "", "rank": 11, "time": 2, "location": {"lat": 39.967235147563706, "lng": 116.46376010598681}, "feature": {"sight_features": "", "sight_content": ""}}, {"title": "裕林度假村", "address": "G8511昆磨高速308县道入口附近联络线附近", "image": "", "rank": 12, "time": 2, "location": {"lat": 23.645287151245505, "lng": 101.9777488868292}, "feature": {"sight_features": "", "sight_content": ""}}, {"title": "马安山休闲山庄", "address": "玉溪市附近", "image": "", "rank": 13, "time": 2, "location": {"lat": 24.35771094244625, "lng": 102.55356029311}, "feature": {"sight_features": "", "sight_content": ""}}, {"title": "翠竹园山庄", "address": "澧江路50号(瑞江木业有限公司附近)", "image": "", "rank": 14, "time": 2, "location": {"lat": 30.8739258260316, "lng": 104.19556908304989}, "feature": {"sight_features": "", "sight_content": ""}}, {"title": "文化馆", "address": "凤凰路", "image": "", "rank": 15, "time": 2, "location": {"lat": 39.967235147563706, "lng": 116.46376010598681}, "feature": {"sight_features": "", "sight_content": ""}}, {"title": "鳄鱼漆", "address": "澧江路91号", "image": "", "rank": 16, "time": 2, "location": {"lat": 24.347379558211685, "lng": 102.55168445154467}, "feature": {"sight_features": "", "sight_content": ""}}, {"title": "佳艺画廊", "address": "红旗路9号", "image": "", "rank": 17, "time": null, "location": {"lat": 38.98819454844982, "lng": 117.39041580369}, "feature": {"sight_features": "", "sight_content": ""}}]}