{"cityName": "于都", "days": 2, "cityImage": "", "spots": [{"title": "于都屏山牧场", "address": "赣州市于都县靖石乡", "image": "", "rank": 1, "time": 2, "location": {"lat": 25.677192745223724, "lng": 115.51970110267874}, "feature": {"sight_features": "", "sight_content": ""}}, {"title": "屏山旅游区", "address": "赣州市于都县靖石", "image": "", "rank": 2, "time": 1.5, "location": {"lat": 25.95789394275063, "lng": 115.4214992615303}, "feature": {"sight_features": "特色1 享受一个靠谱又有爱的悠闲假期。 特色2 悠闲度过一个轻松愉快的下午。 特色3 体验生活乐趣的好去处。", "sight_content": "屏山旅游区座落在于都县南部的靖石乡境内，距县城55公里，离厦蓉高速出口32公里，离宁安高速出口9公里，交通便利，有县城直达景区公共汽车。\n屏山海拔1312米，为县内较高峰。山麓四周百余里，皆山石层垒而成，山高如屏、坑沟纵横，有奇珍异兽；山腰是遮天蔽日的原始森林；山顶是连绵起伏的 5万亩天然草场，把南方的高山雄姿与北国草原风光融为一体。\n屏山旅游区休闲项目特色鲜明，功能突出，知识性、趣味性、体验性强。建有游客接待中心、奶牛饲养小区、牛奶加工生产车间、登山森林小道、盘山公路，山顶建有金莲山寺庙和高山风电以及专为游客而备的仿欧式度假村。"}}, {"title": "天华山景观区", "address": "赣州市于都县银坑镇银坑村", "image": "", "rank": 3, "time": 2, "location": {"lat": 26.218691727628226, "lng": 115.63024453146184}, "feature": {"sight_features": "", "sight_content": ""}}, {"title": "长征第一渡口", "address": "赣州市于都县", "image": "", "rank": 4, "time": 2, "location": {"lat": 25.95789394275063, "lng": 115.4214992615303}, "feature": {"sight_features": "", "sight_content": ""}}, {"title": "中共红军长征出发地纪念馆", "address": "利井巷", "image": "", "rank": 5, "time": 2, "location": {"lat": 25.961048701910183, "lng": 115.4213781699476}, "feature": {"sight_features": "", "sight_content": ""}}, {"title": "中央红军长征出发地纪念园", "address": "江西省赣州市于都县于都县贡江镇中央红军长征出发地纪念园", "image": "", "rank": 6, "time": 2, "location": {"lat": 25.91677120086168, "lng": 115.37016173046588}, "feature": {"sight_features": "", "sight_content": ""}}, {"title": "长征源大剧院", "address": "文化馆附近广场东路", "image": "", "rank": 7, "time": 2, "location": {"lat": 37.98188574771287, "lng": 115.22630694858466}, "feature": {"sight_features": "", "sight_content": ""}}, {"title": "乐兴园葡萄基地", "address": "323国道潭头村委会附近", "image": "", "rank": 8, "time": 2, "location": {"lat": 23.151343917949006, "lng": 114.61030814495608}, "feature": {"sight_features": "", "sight_content": ""}}, {"title": "百盛祥农业", "address": "宽田乡山下村", "image": "", "rank": 9, "time": 2, "location": {"lat": 25.99578084703537, "lng": 115.66517619761308}, "feature": {"sight_features": "", "sight_content": ""}}, {"title": "清风仙境", "address": "江西省于都县", "image": "", "rank": 10, "time": 3.5, "location": {"lat": 25.95789394275063, "lng": 115.4214992615303}, "feature": {"sight_features": "", "sight_content": ""}}, {"title": "温泉休闲山庄", "address": "507县道附近", "image": "", "rank": 11, "time": 2, "location": {"lat": 41.75775733960388, "lng": 116.00007557774602}, "feature": {"sight_features": "", "sight_content": ""}}, {"title": "长江大剧院", "address": "广场东路", "image": "", "rank": 12, "time": 2, "location": {"lat": 37.98188574771287, "lng": 115.22630694858466}, "feature": {"sight_features": "", "sight_content": ""}}, {"title": "真君庵", "address": "江西省赣州市于都县于都县贡江镇渡江大道阳光水岸", "image": "", "rank": 13, "time": 2, "location": {"lat": 25.962564550816822, "lng": 115.40509146705688}, "feature": {"sight_features": "", "sight_content": ""}}, {"title": "贝贝康儿童乐园", "address": "江西省赣州市于都县红旗大道", "image": "", "rank": 14, "time": 2, "location": {"lat": 25.964122244860352, "lng": 115.42617000911264}, "feature": {"sight_features": "", "sight_content": ""}}, {"title": "仙娘庙", "address": "文教路29-2", "image": "", "rank": 15, "time": 2, "location": {"lat": 25.963102636597437, "lng": 115.42258380822977}, "feature": {"sight_features": "", "sight_content": ""}}, {"title": "峡山清补凉", "address": "江西省赣州市于都县贡江镇杨公路名门世家", "image": "", "rank": 16, "time": 2, "location": {"lat": 25.969451956009067, "lng": 115.41533966688775}, "feature": {"sight_features": "", "sight_content": ""}}, {"title": "重光宝塔", "address": "渡江大道北50米", "image": "", "rank": 17, "time": 2, "location": {"lat": 31.093212184626186, "lng": 118.20743330132413}, "feature": {"sight_features": "", "sight_content": ""}}, {"title": "源华寺", "address": "447县道", "image": "", "rank": 18, "time": 7.5, "location": {"lat": 34.67032547030588, "lng": 104.66739758436613}, "feature": {"sight_features": "", "sight_content": ""}}, {"title": "金溪湾度假村", "address": "江西省赣州市于都县于宁公路", "image": "", "rank": 19, "time": 2, "location": {"lat": 25.95789394275063, "lng": 115.4214992615303}, "feature": {"sight_features": "", "sight_content": ""}}, {"title": "上蕉百湾湖度假景区", "address": "赣州市于都县梓山镇联星村上蕉水库", "image": "", "rank": 20, "time": 2, "location": {"lat": 25.918578102997394, "lng": 115.55533733858698}, "feature": {"sight_features": "", "sight_content": ""}}, {"title": "江西省于都县博物馆", "address": "交通巷12号", "image": "", "rank": 21, "time": 2, "location": {"lat": 29.047835074484173, "lng": 111.68932608780464}, "feature": {"sight_features": "", "sight_content": ""}}, {"title": "集雅画苑", "address": "红军大道48附近", "image": "", "rank": 22, "time": 2, "location": {"lat": 25.964403552914206, "lng": 115.4112534502938}, "feature": {"sight_features": "", "sight_content": ""}}, {"title": "于都县图书馆", "address": "解放路34附近", "image": "", "rank": 23, "time": 2, "location": {"lat": 36.09015809381816, "lng": 111.52688190433159}, "feature": {"sight_features": "", "sight_content": ""}}, {"title": "鳄鱼漆", "address": "杨公路与雩山大道交叉口西北50米", "image": "", "rank": 24, "time": 2, "location": {"lat": 25.96942911556346, "lng": 115.41760304104317}, "feature": {"sight_features": "", "sight_content": ""}}, {"title": "大峰生态农业", "address": "雩山大道10-1号", "image": "", "rank": 25, "time": 2, "location": {"lat": 25.981586492220693, "lng": 115.42085131376616}, "feature": {"sight_features": "", "sight_content": ""}}, {"title": "精雕画廊", "address": "450县道与568乡道交叉口南100米", "image": "", "rank": 26, "time": 2, "location": {"lat": 37.47725172035777, "lng": 112.31161770292178}, "feature": {"sight_features": "", "sight_content": ""}}, {"title": "岭背镇", "address": "江西省于都县县中北部", "image": "", "rank": 27, "time": 2, "location": {"lat": 25.95789394275063, "lng": 115.4214992615303}, "feature": {"sight_features": "", "sight_content": ""}}, {"title": "长兴步行街", "address": "江西省于都县长征大道", "image": "", "rank": 28, "time": 3.0, "location": {"lat": 25.96474775391155, "lng": 115.42230422231786}, "feature": {"sight_features": "", "sight_content": ""}}, {"title": "扶秋塘", "address": "赣州市-于都县", "image": "", "rank": 29, "time": 2, "location": {"lat": 25.95789394275063, "lng": 115.4214992615303}, "feature": {"sight_features": "", "sight_content": ""}}, {"title": "犁头子", "address": "赣州市-于都县", "image": "", "rank": 30, "time": 2, "location": {"lat": 25.95789394275063, "lng": 115.4214992615303}, "feature": {"sight_features": "", "sight_content": ""}}, {"title": "蛇运下", "address": "赣州市-于都县", "image": "", "rank": 31, "time": 2, "location": {"lat": 25.95789394275063, "lng": 115.4214992615303}, "feature": {"sight_features": "", "sight_content": ""}}, {"title": "秤驼岭下", "address": "赣州市-于都县", "image": "", "rank": 32, "time": 2, "location": {"lat": 25.95789394275063, "lng": 115.4214992615303}, "feature": {"sight_features": "", "sight_content": ""}}, {"title": "草箕窝", "address": "赣州市-于都县-于银大道", "image": "", "rank": 33, "time": 2, "location": {"lat": 25.97097281228546, "lng": 115.41540129423893}, "feature": {"sight_features": "", "sight_content": ""}}, {"title": "大字小西湖", "address": "赣州市-于都县-X450", "image": "", "rank": 34, "time": 2, "location": {"lat": 25.95789394275063, "lng": 115.4214992615303}, "feature": {"sight_features": "", "sight_content": ""}}, {"title": "红军长征出发地", "address": "江西省于都县县东门", "image": "", "rank": 35, "time": 2, "location": {"lat": 25.95789394275063, "lng": 115.4214992615303}, "feature": {"sight_features": "", "sight_content": ""}}, {"title": "青云嶂", "address": "江西省赣州市于都县 ‎", "image": "", "rank": 36, "time": 2, "location": {"lat": 25.95789394275063, "lng": 115.4214992615303}, "feature": {"sight_features": "", "sight_content": ""}}]}