{"cityName": "岳池", "days": 2, "cityImage": "", "spots": [{"title": "岳池翠湖", "address": "广安市岳池县花园镇境内，南距岳池县城区8公里", "image": "", "rank": 1, "time": 1.0, "location": {"lat": 30.59304298552104, "lng": 106.46356683294343}, "feature": {"sight_features": "", "sight_content": ""}}, {"title": "银城花海", "address": "广安市岳池县大石乡银城花海（广岳大道旁）", "image": "", "rank": 2, "time": 1.0, "location": {"lat": 30.509404902948372, "lng": 106.53309748950132}, "feature": {"sight_features": "", "sight_content": ""}}, {"title": "广安玉龙彩钢大棚", "address": "203省道附近", "image": "", "rank": 3, "time": 3.0, "location": {"lat": 38.70057735317822, "lng": 114.30841754306506}, "feature": {"sight_features": "", "sight_content": ""}}, {"title": "九尺鹅肠火锅", "address": "邮政巷30号附近", "image": "", "rank": 4, "time": 2, "location": {"lat": 30.20012660344094, "lng": 103.52000686834275}, "feature": {"sight_features": "", "sight_content": ""}}, {"title": "市民阅览室", "address": "环城东路81号附近", "image": "", "rank": 5, "time": null, "location": {"lat": 28.02331865359626, "lng": 120.67173636205754}, "feature": {"sight_features": "", "sight_content": ""}}, {"title": "汇香坊香薰图书馆", "address": "兴华街与邮政巷交叉口东100米", "image": "", "rank": 6, "time": 2, "location": {"lat": 30.47310529373628, "lng": 106.5023175686259}, "feature": {"sight_features": "", "sight_content": ""}}, {"title": "岳池影剧院", "address": "大东街", "image": "", "rank": 7, "time": 1.0, "location": {"lat": 41.321377692963104, "lng": 117.73454666169341}, "feature": {"sight_features": "", "sight_content": ""}}, {"title": "天琦影剧院", "address": "四川省广安市岳池县", "image": "", "rank": 8, "time": 2, "location": {"lat": 30.544119864579894, "lng": 106.44641061972047}, "feature": {"sight_features": "", "sight_content": ""}}, {"title": "补家祠堂", "address": "广安市岳池县", "image": "", "rank": 9, "time": 2, "location": {"lat": 30.544119864579894, "lng": 106.44641061972047}, "feature": {"sight_features": "", "sight_content": ""}}, {"title": "周家祠堂", "address": "广安市岳池县四二县道", "image": "", "rank": 10, "time": 2, "location": {"lat": 30.40987265061959, "lng": 106.59249252276977}, "feature": {"sight_features": "", "sight_content": ""}}, {"title": "刘家祠堂", "address": "广安市岳池县龙孔--古匠", "image": "", "rank": 11, "time": 2, "location": {"lat": 30.544119864579894, "lng": 106.44641061972047}, "feature": {"sight_features": "", "sight_content": ""}}, {"title": "吴家祠堂", "address": "广安市岳池县一五二县道", "image": "", "rank": 12, "time": 2, "location": {"lat": 30.544119864579894, "lng": 106.44641061972047}, "feature": {"sight_features": "", "sight_content": ""}}, {"title": "文庙", "address": "中南街72号", "image": "", "rank": 13, "time": 1.5, "location": {"lat": 30.62657921232063, "lng": 103.67910515085873}, "feature": {"sight_features": "", "sight_content": ""}}, {"title": "千佛寺", "address": "广安市岳池县银城大道", "image": "", "rank": 14, "time": 0.4, "location": {"lat": 30.528602862437534, "lng": 106.45140690783133}, "feature": {"sight_features": "", "sight_content": ""}}, {"title": "农家文化主题公园", "address": "滨河东路674号附近", "image": "", "rank": 15, "time": 2, "location": {"lat": 29.47922664022537, "lng": 106.239690341835}, "feature": {"sight_features": "", "sight_content": ""}}, {"title": "向家祠堂", "address": "广安市岳池县金山桥--岳池", "image": "", "rank": 16, "time": 2, "location": {"lat": 30.544119864579894, "lng": 106.44641061972047}, "feature": {"sight_features": "", "sight_content": ""}}, {"title": "川主庙", "address": "四川省广安市岳池县中华街", "image": "", "rank": 17, "time": 2, "location": {"lat": 30.544119864579894, "lng": 106.44641061972047}, "feature": {"sight_features": "", "sight_content": ""}}, {"title": "财富大广场", "address": "广安市岳池县小坪街42号", "image": "", "rank": 18, "time": 2, "location": {"lat": 30.496632181217723, "lng": 106.21113478480711}, "feature": {"sight_features": "", "sight_content": ""}}, {"title": "岳池县秦溪镇周家坝村生育文化茶...", "address": "广安岳池县兴盛街106号", "image": "", "rank": 19, "time": 2, "location": {"lat": 30.3691318879467, "lng": 106.59749198236607}, "feature": {"sight_features": "", "sight_content": ""}}, {"title": "岳池县规划展览馆", "address": "近外安街", "image": "", "rank": 20, "time": 2, "location": {"lat": 30.545664052006302, "lng": 106.4587980317199}, "feature": {"sight_features": "", "sight_content": ""}}, {"title": "岳池县图书馆电子阅览室", "address": "大东街", "image": "", "rank": 21, "time": 2, "location": {"lat": 41.321377692963104, "lng": 117.73454666169341}, "feature": {"sight_features": "", "sight_content": ""}}, {"title": "品味图书馆", "address": "银城南路483号", "image": "", "rank": 22, "time": 2, "location": {"lat": 30.534888397056953, "lng": 106.4424442415717}, "feature": {"sight_features": "", "sight_content": ""}}, {"title": "花园镇农家乐协会", "address": "翠湖路", "image": "", "rank": 23, "time": 2, "location": {"lat": 34.271112771075245, "lng": 117.31019556129232}, "feature": {"sight_features": "", "sight_content": ""}}, {"title": "美源草莓", "address": "广岳大道红庙段(李家院子中桥北150米)", "image": "", "rank": 24, "time": 2, "location": {"lat": 30.459797658618815, "lng": 106.644813587893}, "feature": {"sight_features": "", "sight_content": ""}}, {"title": "丽江东安住宿楼", "address": "环城东路63号", "image": "", "rank": 25, "time": null, "location": {"lat": 40.86040749743248, "lng": 122.76504144957931}, "feature": {"sight_features": "", "sight_content": ""}}, {"title": "金果生态园", "address": "花园镇响水滩1组(响水滩村内)", "image": "", "rank": 26, "time": 2, "location": {"lat": 28.609543291725306, "lng": 106.44611907050124}, "feature": {"sight_features": "", "sight_content": ""}}, {"title": "岳池县川剧团", "address": "禹王宫小南街", "image": "", "rank": 27, "time": 2, "location": {"lat": 31.322869137049363, "lng": 118.38333978991528}, "feature": {"sight_features": "", "sight_content": ""}}, {"title": "辣妹子高空杂技歌舞团", "address": "新中巷", "image": "", "rank": 28, "time": 2, "location": {"lat": 34.60721133336073, "lng": 119.16772263079599}, "feature": {"sight_features": "", "sight_content": ""}}, {"title": "长滩寺河", "address": "四川省岳池县境内", "image": "", "rank": 29, "time": 3.0, "location": {"lat": 30.544119864579894, "lng": 106.44641061972047}, "feature": {"sight_features": "", "sight_content": ""}}, {"title": "米粉一条街", "address": "四川省岳池县环城西路", "image": "", "rank": 30, "time": 2, "location": {"lat": 30.541447401292388, "lng": 106.44370416355794}, "feature": {"sight_features": "", "sight_content": ""}}, {"title": "神龙山名胜风景区", "address": "四川省广安市广安区公园街188号", "image": "", "rank": 31, "time": 2, "location": {"lat": 30.451071789882388, "lng": 106.64563070365269}, "feature": {"sight_features": "", "sight_content": ""}}]}