{"cityName": "余干", "days": 2, "cityImage": "", "spots": [{"title": "大明花海生态旅游区", "address": "江西省上饶市余干县大塘乡、三塘乡大明花海生态旅游区", "image": "", "rank": 1, "time": 2.5, "location": {"lat": 28.772585212128167, "lng": 116.53559445054314}, "feature": {"sight_features": "", "sight_content": ""}}, {"title": "林充湖", "address": "江西省上饶市余干县内", "image": "", "rank": 2, "time": 2, "location": {"lat": 28.707866244418767, "lng": 116.70160096198632}, "feature": {"sight_features": "", "sight_content": ""}}, {"title": "琵琶洲水上乐园", "address": "休闲广场斜对面老人民医院内", "image": "", "rank": 3, "time": 2, "location": {"lat": 40.02914882621874, "lng": 116.43909796183787}, "feature": {"sight_features": "", "sight_content": ""}}, {"title": "禾斛岭市民公园", "address": "上饶市余干县691县道", "image": "", "rank": 4, "time": 2, "location": {"lat": 28.577988521507475, "lng": 116.59260012228883}, "feature": {"sight_features": "", "sight_content": ""}}, {"title": "清凉水上乐园", "address": "沙窝大街727号", "image": "", "rank": 5, "time": 2, "location": {"lat": 28.696579395282996, "lng": 116.68328675840769}, "feature": {"sight_features": "", "sight_content": ""}}, {"title": "余干民间书法美术馆", "address": "德胜东大道350号附近", "image": "", "rank": 6, "time": 2, "location": {"lat": 28.70316260448952, "lng": 116.70908703970254}, "feature": {"sight_features": "", "sight_content": ""}}, {"title": "神爱世人", "address": "创业路52号附近", "image": "", "rank": 7, "time": 2, "location": {"lat": 41.99404247600011, "lng": 121.64117861248998}, "feature": {"sight_features": "", "sight_content": ""}}, {"title": "儿童成长主题乐园", "address": "上饶市余干县", "image": "", "rank": 8, "time": 2, "location": {"lat": 28.707866244418767, "lng": 116.70160096198632}, "feature": {"sight_features": "", "sight_content": ""}}, {"title": "大型益智儿童乐园", "address": "江西省上饶市余干县玉亭镇紫阳路中英文状元小区附近", "image": "", "rank": 9, "time": 2, "location": {"lat": 28.7082871010538, "lng": 116.70900342158968}, "feature": {"sight_features": "", "sight_content": ""}}, {"title": "鄱阳湖民间民俗博物馆", "address": "昌万公路与195乡道交叉口东北100米", "image": "", "rank": 10, "time": 2, "location": {"lat": 42.85646580255288, "lng": 124.414086267546}, "feature": {"sight_features": "", "sight_content": ""}}, {"title": "儿童乐园余干城最大游乐园", "address": "紫阳路280-286号附近", "image": "", "rank": 11, "time": 2, "location": {"lat": 30.538639908538215, "lng": 114.31954800018137}, "feature": {"sight_features": "", "sight_content": ""}}, {"title": "主题乐园", "address": "江西省上饶市余干县玉亭镇沿湖路中港城时尚购物广场附近", "image": "", "rank": 12, "time": 2.5, "location": {"lat": 28.695319460831023, "lng": 116.69910904453634}, "feature": {"sight_features": "", "sight_content": ""}}, {"title": "海洋之星儿童乐园", "address": "三星街北189号", "image": "", "rank": 13, "time": 2, "location": {"lat": 43.93467717628339, "lng": 125.33246561248396}, "feature": {"sight_features": "", "sight_content": ""}}, {"title": "寺昌源村", "address": "余干县", "image": "", "rank": 14, "time": 2, "location": {"lat": 28.707866244418767, "lng": 116.70160096198632}, "feature": {"sight_features": "", "sight_content": ""}}, {"title": "枝叶园", "address": "永安大道东50米", "image": "", "rank": 15, "time": 2, "location": {"lat": 23.23669225657971, "lng": 113.10114592719589}, "feature": {"sight_features": "", "sight_content": ""}}, {"title": "梅家坳度假村", "address": "江西省上饶市余干县东梅村梅家坳", "image": "", "rank": 16, "time": 2, "location": {"lat": 28.536395913304617, "lng": 116.88641497968213}, "feature": {"sight_features": "", "sight_content": ""}}, {"title": "蓝带多彩扎啤广场", "address": "世纪大道与华林岗路交叉口东南50米", "image": "", "rank": 17, "time": 2, "location": {"lat": 28.705477853721536, "lng": 116.70423104151858}, "feature": {"sight_features": "", "sight_content": ""}}, {"title": "揭家教堂", "address": "昌万公路与687县道交叉口西南200米", "image": "", "rank": 18, "time": 2, "location": {"lat": 31.909199228140412, "lng": 121.30903625505988}, "feature": {"sight_features": "", "sight_content": ""}}, {"title": "白马寺", "address": "208省道附近", "image": "", "rank": 19, "time": 1.5, "location": {"lat": 39.82817275160928, "lng": 115.96548677323707}, "feature": {"sight_features": "", "sight_content": ""}}, {"title": "五一广场", "address": "世纪大道附近", "image": "", "rank": 20, "time": 1.5, "location": {"lat": 35.36022836725064, "lng": 111.24461191295032}, "feature": {"sight_features": "", "sight_content": ""}}, {"title": "余干县博物馆", "address": "上饶市余干县东山大街86号", "image": "", "rank": 21, "time": 2, "location": {"lat": 28.69693877262694, "lng": 116.69666550263469}, "feature": {"sight_features": "", "sight_content": ""}}, {"title": "文化馆文化大舞台", "address": "东山大道108号", "image": "", "rank": 22, "time": 2, "location": {"lat": 30.707150539361866, "lng": 111.30312537075062}, "feature": {"sight_features": "", "sight_content": ""}}, {"title": "余干县纪念馆", "address": "环山路111号", "image": "", "rank": 23, "time": 2, "location": {"lat": 41.28706181054414, "lng": 123.77853431435487}, "feature": {"sight_features": "", "sight_content": ""}}, {"title": "浪之翼水上乐园", "address": "昌万公路浪之翼水上乐园(平国汽车检测中心隔壁)", "image": "", "rank": 24, "time": 2, "location": {"lat": 29.50131835229176, "lng": 106.49540537573094}, "feature": {"sight_features": "", "sight_content": ""}}, {"title": "鳄鱼防水", "address": "玉丰路与紫阳路交叉口北50米", "image": "", "rank": 25, "time": 2, "location": {"lat": 31.70139578417206, "lng": 120.17980330990306}, "feature": {"sight_features": "", "sight_content": ""}}, {"title": "干越水上乐园", "address": "干越壹号玉亭学校对面", "image": "", "rank": 26, "time": 2, "location": {"lat": 28.717713279446002, "lng": 116.70023454498401}, "feature": {"sight_features": "", "sight_content": ""}}, {"title": "天弓画廊", "address": "德胜西大道", "image": "", "rank": 27, "time": 2, "location": {"lat": 28.700556693916486, "lng": 116.68802206181716}, "feature": {"sight_features": "", "sight_content": ""}}, {"title": "中大鳄鱼", "address": "迎宾大道115-117号附近", "image": "", "rank": 28, "time": 2, "location": {"lat": 30.432779446326478, "lng": 111.74413867563237}, "feature": {"sight_features": "", "sight_content": ""}}, {"title": "城西葡萄园", "address": "沙窝大街树港村与丰溪大道交界处", "image": "", "rank": 29, "time": 2, "location": {"lat": 28.697155252380224, "lng": 116.68247918175449}, "feature": {"sight_features": "", "sight_content": ""}}, {"title": "余干县图书馆", "address": "东山大街(文化馆旁)", "image": "", "rank": 30, "time": 2, "location": {"lat": 23.125303590304686, "lng": 113.30065303045231}, "feature": {"sight_features": "", "sight_content": ""}}, {"title": "戈场里", "address": "上饶市-余干县", "image": "", "rank": 31, "time": 2, "location": {"lat": 28.707866244418767, "lng": 116.70160096198632}, "feature": {"sight_features": "", "sight_content": ""}}]}