{"cityName": "玉环", "days": 2, "cityImage": "", "spots": [{"title": "大鹿岛", "address": "台州市玉环县大孤山镇大鹿岛村", "image": "", "rank": 1, "time": 4.5, "location": {"lat": 28.179738010608965, "lng": 121.28442605522312}, "feature": {"sight_features": "特色1 省级海岛森林公园", "sight_content": "玉环大鹿岛东南两侧的海岸，由于长年受海浪的侵蚀，海蚀陡崖，海蚀洞穴到处可见，形成了千佛龛、海狮观涛、五百罗汉、将军洞等七十多处景点。岛上气候湿润，空气新鲜，冬暖夏凉，鸟语花香，是休闲、度假、观光、避暑的好地方。据《玉环厅志》载：大鹿山“危峰嵃峻，盘蹬嵚岖，共三十六湾。顶有龙潭……东有虎头山，岩石直矗如虎牙。南有狮子岩，作回首观潮状；又南有罗汉岩。折而西有将军洞、龙游洞。稍北有蟹山、鲤鱼山。”小鹿山有五虎礁、石碑礁；并有南宋兵寮、元朝巡检司址等。主峰高115.5米。\n玉环大鹿岛上树高林密，尽管面积只有2平方公里，是个弹丸小岛，但置身其中，有如进入绿色海洋。这里有日本柳杉、北美鹅掌楸、台湾相思树等珍贵树种，还有一株伟岸挺拔的美国红杉，那是1972年美国总统尼克松访华时赠送给杭州植物园的美国红杉的后代。\n\n\n\n玉环大鹿岛的森林，四周浩瀚的大海和沿岸的礁滩岩雕，组成了独具风韵的山海形胜。目前已形成20处名胜景观，77个景点。其中龙游洞、索桥风月、八仙过海、五百罗汉、寿星岩、渔翁老洞、乱石穿空、千佛龛为岛上八大景观。玉环大鹿岛上还有刘海粟、沙孟海、陆俨少、朱屺赡、钱君等名家巨匠所书的摩崖题刻。玉环大鹿岛四周海天辽阔，烟波浩淼，岩礁上生长着众多的海螺、藤壶、牡蛎、观音手等海生贝类，可供观光者拾取，烹煮品尝，别具情趣。‍‍\n\n\n\n\n\n1963年，经省人民政府批准，在大鹿山建立苗圃（后改林场），专事海岛适宜树种培植，5名垦荒队员因而上山，在仅长有4株马尾松和1棵野桃树的荒岛碎石间栽种木麻黄、马尾松、黑松等。现岛上树木茂盛，荆草蒙茸，四季常绿，苍翠欲滴，犹如镶嵌在万顷碧波的一颗绿宝石，故有“东海碧玉”之美称。据统计，玉环大鹿岛上森林覆盖率已达87.5%,林木蓄积量达3300多立方米，有银杏、香樟、黑松、木麻黄、红杉、柳杉、北美鹅掌楸等204科534属近1000种植物，基本形成以木麻黄为主并与其他常绿阔叶、落叶混交的层林，构成良好的植被。\n\n\n\n\n环岛道路掩映于高大茂密的林间，曲径通幽。漫步岛上，有挺拔的美国红杉、日本扁柏迎风而立，枝杈相交；有杜鹃花、栀子花遍布远野；有白玉兰、美人蕉点缀绿荫丛中。良好的生态环境，也为鸟类和昆虫提供了栖息和繁衍的场所。玉环大鹿岛上有10多种数千羽的鸟类，70多种昆虫；斑鸠、黄莺、雀鹰等成群出现。放养的山黄关，也常出没于林间或昂立于岩崖。1992年11月，林业部批复建立14个国家级森林公园，玉环大鹿岛是唯一的海岛森林公园。"}}, {"title": "玉环漩门湾湿地公园", "address": "台州市玉环市019乡道漩门湾国家湿地公园", "image": "", "rank": 2, "time": 2.5, "location": {"lat": 28.22997149895964, "lng": 121.2407432352551}, "feature": {"sight_features": "", "sight_content": ""}}, {"title": "白马岙", "address": "台州市玉环县白马岙村", "image": "", "rank": 3, "time": 7.5, "location": {"lat": 28.165603092658184, "lng": 121.38505735835211}, "feature": {"sight_features": "", "sight_content": ""}}, {"title": "漩门湾水上乐园", "address": "台州市玉环县滨江北线玉环观光农业园内", "image": "", "rank": 4, "time": 2, "location": {"lat": 28.179738010608965, "lng": 121.28442605522312}, "feature": {"sight_features": "特色1 适合各种人群游玩的大型水上动感主题乐园。 特色2 冲浪池、水帘洞漂流、宝贝水城、大喇叭滑梯、冲天回旋滑梯、组合滑梯6个项目已经全部开放。 特色3 在水上乐园入口处设立水质检测板，实时公布余氯、PH值、水温等重要信息，消除游客用水卫生隐患。", "sight_content": "漩门湾水上乐园位于玉环观光农业园内，是该县首个大型水上乐园。总规划面积约49014平方米，一共可容纳3000多名游客。\n该乐园以水上游乐为主，共设音乐喷泉广场、冲天回旋滑梯、冲浪池、宝贝水城、大喇叭滑梯、主题花果山、表演舞台等各类游玩设施。\n\n\n漩门湾水上乐园位于玉环观光农业园内，是该县首个大型水上乐园。总规划面积约49014平方米，一共可容纳3000多名游客。\n\n\n该乐园以水上游乐为主，共设音乐喷泉广场、冲天回旋滑梯、冲浪池、宝贝水城、大喇叭滑梯、主题花果山、表演舞台等各类游玩设施。"}}, {"title": "坎门后沙", "address": "台州市玉环县海港东路", "image": "", "rank": 5, "time": 2, "location": {"lat": 28.07780526470698, "lng": 121.27777229834763}, "feature": {"sight_features": "", "sight_content": ""}}, {"title": "玉环世界名柚园", "address": "玉环县019乡道", "image": "", "rank": 6, "time": 2, "location": {"lat": 28.179738010608965, "lng": 121.28442605522312}, "feature": {"sight_features": "", "sight_content": ""}}, {"title": "玉环县烈士陵园", "address": "浙江省玉环县城关中青山麓", "image": "", "rank": 7, "time": 2, "location": {"lat": 28.179738010608965, "lng": 121.28442605522312}, "feature": {"sight_features": "", "sight_content": ""}}, {"title": "三合潭文化遗址", "address": "玉环县城关镇南山村", "image": "", "rank": 8, "time": 2, "location": {"lat": 28.120060950103902, "lng": 121.22913741103625}, "feature": {"sight_features": "", "sight_content": ""}}, {"title": "星光灿烂演艺大剧场", "address": "榴岛大道客运中心二楼", "image": "", "rank": 9, "time": 2, "location": {"lat": 36.99443280669847, "lng": 115.29484031445014}, "feature": {"sight_features": "", "sight_content": ""}}, {"title": "南排山", "address": "玉环县黄坎路", "image": "", "rank": 10, "time": 2, "location": {"lat": 28.07858715045815, "lng": 121.28891543683915}, "feature": {"sight_features": "", "sight_content": ""}}, {"title": "高誉农场", "address": "玉城街道长治路60号(南一路)", "image": "", "rank": 11, "time": 2, "location": {"lat": 28.13396367334203, "lng": 121.23910280812316}, "feature": {"sight_features": "", "sight_content": ""}}, {"title": "香蜜海湾大舞台", "address": "玉环清港农业观光园玉环观光国际酒店附近", "image": "", "rank": 12, "time": 2, "location": {"lat": 28.248695364775802, "lng": 121.27221619882107}, "feature": {"sight_features": "", "sight_content": ""}}, {"title": "担水农家乐", "address": "南兴东路天天快递东", "image": "", "rank": 13, "time": 2, "location": {"lat": 39.87470306603679, "lng": 116.45469595186557}, "feature": {"sight_features": "", "sight_content": ""}}, {"title": "24小时自助图书馆", "address": "广陵路与玉兴东路交叉口东北50米", "image": "", "rank": 14, "time": 2, "location": {"lat": 28.138033050150582, "lng": 121.23900600941637}, "feature": {"sight_features": "", "sight_content": ""}}, {"title": "玉环县自留地垂钓中心", "address": "金湾路", "image": "", "rank": 15, "time": 2, "location": {"lat": 31.870615886827068, "lng": 120.41163707695162}, "feature": {"sight_features": "", "sight_content": ""}}, {"title": "利优桃园", "address": "019乡道漩门湾国家湿地公园", "image": "", "rank": 16, "time": 2, "location": {"lat": 28.22997149895964, "lng": 121.2407432352551}, "feature": {"sight_features": "", "sight_content": ""}}, {"title": "天一枇杷园", "address": "019乡道漩门湾国家湿地公园", "image": "", "rank": 17, "time": 2, "location": {"lat": 28.22997149895964, "lng": 121.2407432352551}, "feature": {"sight_features": "", "sight_content": ""}}, {"title": "圣恩文旦", "address": "019乡道漩门湾国家湿地公园", "image": "", "rank": 18, "time": 2, "location": {"lat": 28.22997149895964, "lng": 121.2407432352551}, "feature": {"sight_features": "", "sight_content": ""}}, {"title": "鼎发文旦", "address": "019乡道漩门湾国家湿地公园", "image": "", "rank": 19, "time": 2, "location": {"lat": 28.22997149895964, "lng": 121.2407432352551}, "feature": {"sight_features": "", "sight_content": ""}}, {"title": "樟农火龙果园", "address": "019乡道漩门湾国家湿地公园", "image": "", "rank": 20, "time": 2, "location": {"lat": 28.22997149895964, "lng": 121.2407432352551}, "feature": {"sight_features": "", "sight_content": ""}}, {"title": "青和文旦", "address": "019乡道漩门湾国家湿地公园", "image": "", "rank": 21, "time": 2, "location": {"lat": 28.22997149895964, "lng": 121.2407432352551}, "feature": {"sight_features": "", "sight_content": ""}}, {"title": "才根文旦", "address": "019乡道漩门湾国家湿地公园", "image": "", "rank": 22, "time": 2, "location": {"lat": 28.22997149895964, "lng": 121.2407432352551}, "feature": {"sight_features": "", "sight_content": ""}}, {"title": "竹排摸鱼垂钓", "address": "019乡道漩门湾国家湿地公园", "image": "", "rank": 23, "time": 2, "location": {"lat": 28.22997149895964, "lng": 121.2407432352551}, "feature": {"sight_features": "", "sight_content": ""}}, {"title": "里澳公园", "address": "浙江省台州市玉环市", "image": "", "rank": 24, "time": 2, "location": {"lat": 28.14186298682908, "lng": 121.23851297084417}, "feature": {"sight_features": "", "sight_content": ""}}, {"title": "长生寺", "address": "浙江省台州市玉环市坎鲜线", "image": "", "rank": 25, "time": 0.25, "location": {"lat": 28.099125410258594, "lng": 121.22104129069797}, "feature": {"sight_features": "", "sight_content": ""}}, {"title": "鹿顶景区", "address": "大鹿岛", "image": "", "rank": 26, "time": 2, "location": {"lat": 40.120801680113864, "lng": 124.3959755589051}, "feature": {"sight_features": "", "sight_content": ""}}, {"title": "东青大庙", "address": "狮城线与014乡道交叉口西100米", "image": "", "rank": 27, "time": 2, "location": {"lat": 47.886927740402655, "lng": 132.7138064036199}, "feature": {"sight_features": "", "sight_content": ""}}, {"title": "玉环市九华寺", "address": "浙江省台州市玉环市桔场村", "image": "", "rank": 28, "time": 2, "location": {"lat": 28.161150876235226, "lng": 121.36497216522389}, "feature": {"sight_features": "", "sight_content": ""}}, {"title": "杨袁二府", "address": "浙江省台州市玉环市大麦屿街道玉大线杨袁二府", "image": "", "rank": 29, "time": 2, "location": {"lat": 28.10144933107616, "lng": 121.15766480304032}, "feature": {"sight_features": "", "sight_content": ""}}, {"title": "玉环县龙潭寺", "address": "玉大线南山村", "image": "", "rank": 30, "time": 2, "location": {"lat": 28.114435603441603, "lng": 121.208675638357}, "feature": {"sight_features": "", "sight_content": ""}}, {"title": "后湾教堂", "address": "浙江省台州市玉环市中段村上高林49号", "image": "", "rank": 31, "time": 2, "location": {"lat": 28.179636015944865, "lng": 121.25846002434773}, "feature": {"sight_features": "", "sight_content": ""}}, {"title": "天宁寺", "address": "浙江省台州市玉环市玉城街道谢家山头(漩后线北300米)", "image": "", "rank": 32, "time": 1.5, "location": {"lat": 28.184551128382953, "lng": 121.25653574884426}, "feature": {"sight_features": "", "sight_content": ""}}, {"title": "纪恩诗摩崖石刻", "address": "浙江省台州市玉环市深浦二号隧道东面", "image": "", "rank": 33, "time": 2, "location": {"lat": 28.18694474216789, "lng": 121.28200239653509}, "feature": {"sight_features": "", "sight_content": ""}}, {"title": "普渡院", "address": "浙江省台州市玉环市济理路", "image": "", "rank": 34, "time": 2, "location": {"lat": 28.22512391930471, "lng": 121.32363225436332}, "feature": {"sight_features": "", "sight_content": ""}}, {"title": "西来禅寺", "address": "浙江省台州市玉环市清芳路", "image": "", "rank": 35, "time": 2, "location": {"lat": 28.295256491648406, "lng": 121.33322104045853}, "feature": {"sight_features": "", "sight_content": ""}}, {"title": "娘娘宫", "address": "玉升路与群兴路交叉口西北100米", "image": "", "rank": 36, "time": 2, "location": {"lat": 28.253526051037475, "lng": 121.29656075423536}, "feature": {"sight_features": "", "sight_content": ""}}, {"title": "陈参墓", "address": "浙江省台州市玉环市楚门镇东西龙头岭隧道灵山寺附近", "image": "", "rank": 37, "time": 2, "location": {"lat": 28.25098425226654, "lng": 121.33318365298321}, "feature": {"sight_features": "", "sight_content": ""}}, {"title": "玉峰休闲农庄", "address": "浙江省台州市玉环市玉峰村西北方向550米左右", "image": "", "rank": 38, "time": 2, "location": {"lat": 28.12056929053231, "lng": 121.21523370156092}, "feature": {"sight_features": "", "sight_content": ""}}, {"title": "玉环金升寺", "address": "玉环市大麦屿街道后张村", "image": "", "rank": 39, "time": 2, "location": {"lat": 28.090976607858554, "lng": 121.193079190725}, "feature": {"sight_features": "", "sight_content": ""}}, {"title": "日出休闲农庄", "address": "龙盐线西50米", "image": "", "rank": 40, "time": 2, "location": {"lat": 28.182094244071397, "lng": 121.36145596569617}, "feature": {"sight_features": "", "sight_content": ""}}, {"title": "古家具文化陈列馆", "address": "浙江省台州市玉环市S76(七六省道)", "image": "", "rank": 41, "time": 2, "location": {"lat": 28.099040165598765, "lng": 121.28137040806665}, "feature": {"sight_features": "", "sight_content": ""}}, {"title": "庆澜公园", "address": "浙江省台州市玉环市榴榕路21-23附近", "image": "", "rank": 42, "time": 2, "location": {"lat": 28.100708402249325, "lng": 121.1770677648741}, "feature": {"sight_features": "", "sight_content": ""}}, {"title": "玉环县楚门考拉大冒险儿童乐园", "address": "玉环市楚门镇环保中路268号", "image": "", "rank": 43, "time": 2, "location": {"lat": 28.230005013487013, "lng": 121.29768399544466}, "feature": {"sight_features": "", "sight_content": ""}}, {"title": "圣训诗石刻", "address": "浙江省台州市玉环市西双线", "image": "", "rank": 44, "time": 2, "location": {"lat": 28.119115568657577, "lng": 121.20863560177872}, "feature": {"sight_features": "", "sight_content": ""}}, {"title": "灵真寺", "address": "东升路与环峰路交叉口西北150米", "image": "", "rank": 45, "time": 2, "location": {"lat": 28.1031543083293, "lng": 121.1715238775115}, "feature": {"sight_features": "", "sight_content": ""}}, {"title": "玉峰寺", "address": "浙江省台州市玉环市玉城街道玉峰村", "image": "", "rank": 46, "time": 1.0, "location": {"lat": 28.12056929053231, "lng": 121.22017438186417}, "feature": {"sight_features": "", "sight_content": ""}}, {"title": "五显庙", "address": "浙江省台州市玉环市北大街82号附近", "image": "", "rank": 47, "time": 0.75, "location": {"lat": 28.22346117707826, "lng": 121.30542795491452}, "feature": {"sight_features": "", "sight_content": ""}}, {"title": "阿尔法泡泡体验馆", "address": "台州市玉环市泰安路56号杭州大厦·锦盛购物中心F3", "image": "", "rank": 48, "time": 2, "location": {"lat": 28.135824257474475, "lng": 121.23857396578826}, "feature": {"sight_features": "", "sight_content": ""}}, {"title": "法治文化广场", "address": "浙江省台州市玉环市绕城路", "image": "", "rank": 49, "time": 2, "location": {"lat": 28.137992246600255, "lng": 121.26952100202071}, "feature": {"sight_features": "", "sight_content": ""}}, {"title": "玉环县航海学会", "address": "兴港西路516号附近", "image": "", "rank": 50, "time": 2, "location": {"lat": 32.191874254489875, "lng": 119.68991832176543}, "feature": {"sight_features": "", "sight_content": ""}}, {"title": "蝴蝶山庄", "address": "玉谭路", "image": "", "rank": 51, "time": null, "location": {"lat": 30.797356635343565, "lng": 106.07192124583771}, "feature": {"sight_features": "", "sight_content": ""}}, {"title": "漩门湾国家湿地公园-低碳艺术公...", "address": "019乡道漩门湾国家湿地公园", "image": "", "rank": 52, "time": 2, "location": {"lat": 28.22997149895964, "lng": 121.2407432352551}, "feature": {"sight_features": "", "sight_content": ""}}, {"title": "石峰山庄", "address": "石峰山村附近", "image": "", "rank": 53, "time": 2, "location": {"lat": 28.080191126941966, "lng": 121.22319008508734}, "feature": {"sight_features": "", "sight_content": ""}}, {"title": "亲子游乐园泡泡鱼", "address": "浙江省台州市玉环县双郏塘宝山路清港镇政府西南200米", "image": "", "rank": 54, "time": 2, "location": {"lat": 28.25399413566309, "lng": 121.29350340107722}, "feature": {"sight_features": "", "sight_content": ""}}, {"title": "壳业村休闲公园", "address": "404县道附近", "image": "", "rank": 55, "time": 2, "location": {"lat": 41.448738161331605, "lng": 115.7422165319541}, "feature": {"sight_features": "", "sight_content": ""}}, {"title": "天主堂", "address": "台州市玉环市西大线附近", "image": "", "rank": 56, "time": 0.4, "location": {"lat": 28.151764381007812, "lng": 121.17574750879758}, "feature": {"sight_features": "", "sight_content": ""}}, {"title": "渝汇广场", "address": "台州市玉环市解放路259号", "image": "", "rank": 57, "time": 2, "location": {"lat": 28.091459972461916, "lng": 121.28503729115715}, "feature": {"sight_features": "", "sight_content": ""}}, {"title": "里黄公园", "address": "浙江省台州市玉环市昌贸东路", "image": "", "rank": 58, "time": 2, "location": {"lat": 28.085565586015235, "lng": 121.28323429677884}, "feature": {"sight_features": "", "sight_content": ""}}, {"title": "徐斌图书馆", "address": "振兴路142号", "image": "", "rank": 59, "time": 2, "location": {"lat": 28.096674948479937, "lng": 121.28782742807023}, "feature": {"sight_features": "", "sight_content": ""}}, {"title": "郑高金贝雕艺术馆", "address": "农业展览馆附近", "image": "", "rank": 60, "time": 2, "location": {"lat": 39.947097699539874, "lng": 116.47046174715918}, "feature": {"sight_features": "", "sight_content": ""}}]}