{"cityName": "榆林", "days": "", "cityImage": "", "spots": [{"title": "红石峡", "address": "榆林市榆阳区榆阳镇北岳庙村", "image": "", "rank": 1, "time": 2.5, "location": {"lat": 38.324732000343054, "lng": 109.73909294695858}, "feature": {"sight_features": "", "sight_content": ""}}, {"title": "镇北台", "address": "榆林市榆阳区(市区以北约7公里)", "image": "", "rank": 2, "time": 2.0, "location": {"lat": 38.28241962673043, "lng": 109.72755916953271}, "feature": {"sight_features": "", "sight_content": ""}}, {"title": "波浪谷", "address": "榆林市靖边县龙洲乡", "image": "", "rank": 3, "time": 2.5, "location": {"lat": 37.53553947534687, "lng": 108.99612903190473}, "feature": {"sight_features": "", "sight_content": ""}}, {"title": "统万城遗址", "address": "榆林市靖边县红墩界镇白城则村", "image": "", "rank": 4, "time": 2.5, "location": {"lat": 37.99144202996443, "lng": 108.87685683222433}, "feature": {"sight_features": "", "sight_content": ""}}, {"title": "高家堡古城", "address": "榆林市神木市神王路附近", "image": "", "rank": 5, "time": 2.0, "location": {"lat": 38.36652358749791, "lng": 110.38102594686524}, "feature": {"sight_features": "", "sight_content": ""}}, {"title": "府谷老城", "address": "榆林市府谷县（距离府谷新县城约1公里）", "image": "", "rank": 6, "time": 6.0, "location": {"lat": 39.033795629849784, "lng": 111.0736281151979}, "feature": {"sight_features": "", "sight_content": ""}}, {"title": "白云山", "address": "榆林市佳县城南5公里处的黄河之滨，佳吴线附近", "image": "", "rank": 7, "time": 4.5, "location": {"lat": 37.71837655215721, "lng": 110.7088611099344}, "feature": {"sight_features": "特色1 黄河大峡谷、黄土风光一览无余", "sight_content": "白云山位于陕北佳县城南5公里的黄河之滨，因山上建有古迹白云观，山下黄河峡谷风貌奇异而闻名。白云观始建于宋代，主建于明清。明万历四十六年，万历皇帝朱翊钧给白云山亲颁圣旨一道，亲赐御制《道藏》4726卷，从此声名大震，当地官民信士大兴土木，营造道观，后历代皆有扩建修葺。"}}, {"title": "红碱淖", "address": "榆林市神木市尔林兔镇", "image": "", "rank": 8, "time": 4.5, "location": {"lat": 38.98345434203646, "lng": 109.82447459679953}, "feature": {"sight_features": "特色1 国家AAAA级风景名胜区 特色2 全球最大沙漠淡水湖 特色3 全球最大遗鸥繁殖与栖息地 特色4 一颗大漠明珠", "sight_content": "红碱淖位于榆林神木县尔林兔镇东北角，在榆林以北140公里处，是陕西省非常大的内陆淡水湖泊，有“沙海明珠”之称。湖面面积54平方公里，景观别致。在这里可以尽情享受阳光、沙滩和湖水，还可观赏沙鸥、天鹅和湖中自在的鱼群，十分惬意。湖西南岸有一个半岛，名为红石岛，岛上有许多野生的沙生植物，值得一去。\n\n\n红碱淖景区位于陕西省神木县境内，处于黄土高原与内蒙古高原过渡地带、毛乌素沙漠与鄂尔多斯盆地交汇处，海拔高度1100米，大陆性季风气候。湖面41.8平方公里，大致呈三角形状，沿岸有七条季节性河流注入，平均水深8.2米，最深水位12米。红碱淖是全国最大的沙漠淡水湖，具有独特的自然景观。1995年被陕西省人民政府评定为省级风景名胜区，2012年被国家评为“AAAA”级景区，2013年10月年被评为国家级水利风景名胜区，2017年5月被评为国家级自然保护区，是陕西省十大自然风景名胜区和十大诚信单位，年接待游客25万人次。\n\n\n红碱淖水域辽阔，烟波浩渺，蓝天白云，碧水黄沙，交相辉映，景色壮观。环湖四周自然生态良好，环境优雅，红碱淖湿地是全球最大的珍稀濒危鸟类——遗鸥繁殖与栖息地，每年四月至八月份，有占全球总量90%、多达20000多只的遗鸥在这里繁衍生息，规模壮观，另外还有白天鹅、鸬鹚、白鹭、金雕、鱼鹰、鸳鸯等53种受国家保护的各类珍禽，百鸟戏水，和乐齐鸣，构成非常完美的乐章。红碱淖还有非常丰富的渔业资源，有鲤鱼、草鱼、鲫鱼、鲢鱼等17种淡水野生鱼类，是纯天然、无污染的绿色美味，以本土之水炖大淖之鱼，被誉为“神湖水煮鱼”，以其独特的鲜嫩、可口而驰名。\n\n\n\n景区规划面积112平方公里。湖东区为综合游览服务区，设施完备，功能齐全，拥有大型生态停车场、游客服务中心、三星级宾馆、特色集装箱酒店、3D影院、餐饮、娱乐、购物一条街，晚间有“大漠之夜篝火晚会”和特色“湖滨舞会”等大型娱乐活动；湖南区为红碱淖水产品繁殖与养殖基地；湖西区为为自然湿地保护区，可观赏美丽的草原湿地风光；湖北区是大漠娱乐中心有滑沙、沙地摩托、沙地越野车、水陆两用娱乐车、太空球、弹跳飞人、沙漠骆驼、风味野餐、海滨浴场等游乐项目；湖区为水上娱乐区，有快艇、摩托艇、牵引升降伞、游湖画舫、水上滑翔机等游乐项目。红碱淖景区交通便利，通往景区的旅游专线有锦大路、麻瑶路和环湖观光路，包茂高速、210国道在景区西侧横穿而过并与环湖公路相连；即将建成通车的西包铁路红碱淖站距景区只有八公里；榆林市机场距离景区90公里，内蒙古鄂尔多斯机场距离景区60公里。红碱淖美丽而神奇、自然而朴实，是避暑、休闲、度假、旅游、会议、商务、庆典、聚会的极好去处。塞外神湖红碱淖欢迎您！"}}, {"title": "二郎山", "address": "榆林市神木县城西1公里处", "image": "", "rank": 9, "time": 1.0, "location": {"lat": 38.82903586595584, "lng": 110.33126976909105}, "feature": {"sight_features": "", "sight_content": ""}}, {"title": "榆林明长城", "address": "榆林市境内，多个县均有分布", "image": "", "rank": 10, "time": 2.0, "location": {"lat": 38.290883835484046, "lng": 109.74161603381395}, "feature": {"sight_features": "", "sight_content": ""}}, {"title": "李自成行宫", "address": "榆林市米脂县行宫路13号", "image": "", "rank": 11, "time": 2.0, "location": {"lat": 37.761397514329296, "lng": 110.19045141746625}, "feature": {"sight_features": "", "sight_content": ""}}, {"title": "香炉寺", "address": "榆林市佳县县城东200米香炉峰峰顶", "image": "", "rank": 12, "time": 1.5, "location": {"lat": 38.025611678571785, "lng": 110.4974774187358}, "feature": {"sight_features": "", "sight_content": ""}}, {"title": "毛乌素沙漠", "address": "榆林市靖边县", "image": "", "rank": 13, "time": 2, "location": {"lat": 37.60506319395491, "lng": 108.80060049853356}, "feature": {"sight_features": "", "sight_content": ""}}, {"title": "姜氏庄园", "address": "榆林市米脂县刘家峁村", "image": "", "rank": 14, "time": 1.0, "location": {"lat": 37.81613018167349, "lng": 110.34032716920977}, "feature": {"sight_features": "", "sight_content": ""}}, {"title": "杨家沟革命纪念馆", "address": "榆林市米脂县杨家沟扶风寨", "image": "", "rank": 15, "time": 1.0, "location": {"lat": 37.838554842286, "lng": 109.91801608468957}, "feature": {"sight_features": "", "sight_content": ""}}, {"title": "吴堡古城", "address": "榆林市吴堡县宋家川镇北黄河西岸山巅", "image": "", "rank": 16, "time": 1.5, "location": {"lat": 37.457380883053, "lng": 110.73692815355953}, "feature": {"sight_features": "", "sight_content": ""}}, {"title": "新明楼", "address": "榆林市榆阳区南大街32号", "image": "", "rank": 17, "time": 0.4, "location": {"lat": 38.29418258688413, "lng": 109.76335138811979}, "feature": {"sight_features": "", "sight_content": ""}}, {"title": "河滨公园", "address": "陕西省榆林市榆阳区榆阳西路", "image": "", "rank": 18, "time": 1.5, "location": {"lat": 38.284203747499326, "lng": 109.74403253761886}, "feature": {"sight_features": "", "sight_content": ""}}, {"title": "波罗堡", "address": "榆林市横山县黄云山", "image": "", "rank": 19, "time": 1.5, "location": {"lat": 37.851606404345645, "lng": 109.46699149652117}, "feature": {"sight_features": "", "sight_content": ""}}, {"title": "罗兀城遗址", "address": "榆林市镇川镇石崖底村", "image": "", "rank": 20, "time": 1.0, "location": {"lat": 37.87336798903316, "lng": 110.06741128610393}, "feature": {"sight_features": "", "sight_content": ""}}, {"title": "易马城遗址", "address": "榆林市区以北大约5公里处，红石峡景区附近", "image": "", "rank": 21, "time": 0.3, "location": {"lat": 38.33117600958955, "lng": 109.73386337699152}, "feature": {"sight_features": "", "sight_content": ""}}, {"title": "神湖", "address": "榆林市神木市", "image": "", "rank": 22, "time": 1.5, "location": {"lat": 38.848544495220935, "lng": 110.50542966826288}, "feature": {"sight_features": "", "sight_content": ""}}, {"title": "白云观", "address": "榆林市佳县", "image": "", "rank": 23, "time": 1.0, "location": {"lat": 38.025611678571785, "lng": 110.4974774187358}, "feature": {"sight_features": "", "sight_content": ""}}, {"title": "大漠绿淘沙高尔夫俱乐部", "address": "榆林市空港区沙地公园内", "image": "", "rank": 24, "time": 2, "location": {"lat": 38.290883835484046, "lng": 109.74161603381395}, "feature": {"sight_features": "", "sight_content": ""}}, {"title": "红石峡沙地植物园", "address": "榆林市榆阳区北红石峡景区旁", "image": "", "rank": 25, "time": 0.5, "location": {"lat": 38.28241962673043, "lng": 109.72755916953271}, "feature": {"sight_features": "", "sight_content": ""}}, {"title": "戴兴寺", "address": "榆林市解放上巷19号", "image": "", "rank": 26, "time": 1.0, "location": {"lat": 38.274085507447595, "lng": 109.78459528127775}, "feature": {"sight_features": "", "sight_content": ""}}, {"title": "笔架山", "address": "榆林市清涧城西", "image": "", "rank": 27, "time": 2.5, "location": {"lat": 37.09485288782833, "lng": 110.12755916227111}, "feature": {"sight_features": "", "sight_content": ""}}, {"title": "接引寺", "address": "榆林市横山县204省道", "image": "", "rank": 28, "time": 1.5, "location": {"lat": 38.05416323466322, "lng": 109.33839211243078}, "feature": {"sight_features": "", "sight_content": ""}}, {"title": "建安堡", "address": "榆林市榆阳区榆西路", "image": "", "rank": 29, "time": 2, "location": {"lat": 38.38240299547031, "lng": 109.81298397307208}, "feature": {"sight_features": "", "sight_content": ""}}, {"title": "五里墩长城", "address": "陕西省榆林横山县五里墩", "image": "", "rank": 30, "time": 2, "location": {"lat": 37.967957551796886, "lng": 109.3366375097697}, "feature": {"sight_features": "", "sight_content": ""}}, {"title": "孤山堡", "address": "榆林市府谷县孤山镇", "image": "", "rank": 31, "time": 1.0, "location": {"lat": 39.105624958310166, "lng": 110.91862185861898}, "feature": {"sight_features": "", "sight_content": ""}}, {"title": "金刚寺", "address": "榆阳区", "image": "", "rank": 32, "time": 1.5, "location": {"lat": 38.28241962673043, "lng": 109.72755916953271}, "feature": {"sight_features": "", "sight_content": ""}}, {"title": "圣都游乐园", "address": "榆林市榆阳区榆阳中路", "image": "", "rank": 33, "time": 2, "location": {"lat": 38.2868186926606, "lng": 109.75813618295615}, "feature": {"sight_features": "", "sight_content": "圣都游乐园位于榆林榆溪滨河公园内，是全开放式的主题公园，有室外大型游乐设施20余项，室内项目10余项，如摩天轮、6环冲锋过山车、水上游乐设施飞舟冲浪、3D狩猎、儿童耍戏、愤怒的小鸟等。为了和乐园的设备相对应，园内还有许多景观小品，当你走进园内，每个角落景色都各不相同。"}}, {"title": "秦长城遗址", "address": "榆林市榆阳区红石桥乡", "image": "", "rank": 34, "time": 1.5, "location": {"lat": 38.13581305470738, "lng": 109.1861453848022}, "feature": {"sight_features": "", "sight_content": ""}}, {"title": "将军庙", "address": "陕西省榆林市子洲县", "image": "", "rank": 35, "time": 2, "location": {"lat": 37.617025887547484, "lng": 110.04239845246695}, "feature": {"sight_features": "", "sight_content": ""}}, {"title": "城隍山", "address": "榆林市榆阳区驼峰北路", "image": "", "rank": 36, "time": 2, "location": {"lat": 38.301937069965284, "lng": 109.76504983141531}, "feature": {"sight_features": "", "sight_content": ""}}, {"title": "杏花滩公园", "address": "榆林市神木市东兴街", "image": "", "rank": 37, "time": 2, "location": {"lat": 38.835055366017045, "lng": 110.50718912896016}, "feature": {"sight_features": "", "sight_content": ""}}, {"title": "宝山寺", "address": "横山县波罗镇烂泥湾村旁", "image": "", "rank": 38, "time": 0.75, "location": {"lat": 38.06429183349494, "lng": 109.44438172250155}, "feature": {"sight_features": "", "sight_content": ""}}, {"title": "庵禅寺", "address": "榆林市靖边县", "image": "", "rank": 39, "time": 2, "location": {"lat": 37.60506319395491, "lng": 108.80060049853356}, "feature": {"sight_features": "", "sight_content": ""}}, {"title": "扶苏墓-蒙恬墓", "address": "扶苏墓：榆林市绥德县进士巷13号 蒙恬墓：榆林市绥德县文化大街175号第一中学校内", "image": "", "rank": 40, "time": 1.0, "location": {"lat": 37.51187829872766, "lng": 110.27103831493582}, "feature": {"sight_features": "", "sight_content": ""}}, {"title": "府谷文庙", "address": "榆林市府谷县府谷老城文庙街", "image": "", "rank": 41, "time": 1.0, "location": {"lat": 39.033795629849784, "lng": 111.0736281151979}, "feature": {"sight_features": "", "sight_content": ""}}, {"title": "沙城印象鸳鸯湖温泉水世界", "address": "榆林市榆阳区新建北路鸳鸯湖公园内", "image": "", "rank": 42, "time": 2, "location": {"lat": 38.30092198335147, "lng": 109.75698235174895}, "feature": {"sight_features": "", "sight_content": ""}}, {"title": "绥德党氏庄园", "address": "榆林市绥德县307国道", "image": "", "rank": 43, "time": 2, "location": {"lat": 37.526363232674626, "lng": 110.35053242375251}, "feature": {"sight_features": "", "sight_content": ""}}, {"title": "龙眼山", "address": "神木县东侧", "image": "", "rank": 44, "time": 1.0, "location": {"lat": 38.82903586595584, "lng": 110.33126976909105}, "feature": {"sight_features": "", "sight_content": ""}}, {"title": "佛堂寺", "address": "榆林佳县城北40公里的朱家乡崖畔村与泥河沟村交界处", "image": "", "rank": 45, "time": 2, "location": {"lat": 38.1851291417695, "lng": 110.47970468855999}, "feature": {"sight_features": "", "sight_content": ""}}, {"title": "清涧革命纪念馆", "address": "清涧县折家坪镇", "image": "", "rank": 46, "time": 1.5, "location": {"lat": 37.191607941113205, "lng": 110.0450635722031}, "feature": {"sight_features": "", "sight_content": ""}}, {"title": "双水村", "address": "榆林市绥德县满堂川乡郭家沟村", "image": "", "rank": 47, "time": 2, "location": {"lat": 37.53647240330112, "lng": 110.42817387626846}, "feature": {"sight_features": "", "sight_content": ""}}, {"title": "贺家川革命烈士纪念塔", "address": "神木县", "image": "", "rank": 48, "time": 2, "location": {"lat": 38.82903586595584, "lng": 110.33126976909105}, "feature": {"sight_features": "", "sight_content": ""}}, {"title": "白草寺", "address": "清涧县城东58.5公里处", "image": "", "rank": 49, "time": 1.0, "location": {"lat": 36.605707645661155, "lng": 101.8095690383313}, "feature": {"sight_features": "", "sight_content": ""}}, {"title": "榆林市体校体育场", "address": "榆阳路和建榆路十字路口东北角", "image": "", "rank": 50, "time": 2.5, "location": {"lat": 38.29002525956726, "lng": 109.73074493083863}, "feature": {"sight_features": "", "sight_content": ""}}, {"title": "高西沟生态园", "address": "榆林市米脂县高渠道便民服务中心高西沟村", "image": "", "rank": 51, "time": 2, "location": {"lat": 37.87377637437517, "lng": 110.1912620384771}, "feature": {"sight_features": "", "sight_content": ""}}, {"title": "榆林鼓楼", "address": "陕西省榆林市榆阳区", "image": "", "rank": 52, "time": 1.0, "location": {"lat": 38.28241962673043, "lng": 109.72755916953271}, "feature": {"sight_features": "", "sight_content": ""}}, {"title": "阳崖沟滑雪场", "address": "榆林市神木市崖阳沟路阳崖沟朝阳小区往东800米", "image": "", "rank": 53, "time": 2, "location": {"lat": 38.84681873617789, "lng": 110.51859882524255}, "feature": {"sight_features": "", "sight_content": ""}}, {"title": "绥德县博物馆", "address": "榆林市绥德县名州镇进士巷13号", "image": "", "rank": 54, "time": 2, "location": {"lat": 37.51187829872766, "lng": 110.27103831493582}, "feature": {"sight_features": "", "sight_content": ""}}, {"title": "万佛洞", "address": "榆林市米脂县银州镇王沙沟村", "image": "", "rank": 55, "time": 1.0, "location": {"lat": 37.813597350072435, "lng": 110.15746583407216}, "feature": {"sight_features": "", "sight_content": ""}}, {"title": "榆林民俗博物馆", "address": "陕西省榆林市北大街田丰年巷3号（凯歌楼向北10米）", "image": "", "rank": 56, "time": 1.0, "location": {"lat": 38.300439508475804, "lng": 109.75974096263107}, "feature": {"sight_features": "", "sight_content": ""}}, {"title": "麻镇大庙", "address": "榆林市府谷县麻镇政府东北方向300米", "image": "", "rank": 57, "time": 2, "location": {"lat": 39.37975558313909, "lng": 111.0663042366632}, "feature": {"sight_features": "", "sight_content": ""}}, {"title": "榆林市展览馆（新建北路）", "address": "陕西省榆林市钟楼下巷", "image": "", "rank": 58, "time": 2.5, "location": {"lat": 38.29454120586659, "lng": 109.75707704482767}, "feature": {"sight_features": "", "sight_content": ""}}, {"title": "文昌阁", "address": "陕西省榆林市榆阳区南大街", "image": "", "rank": 59, "time": 0.75, "location": {"lat": 38.305482735810145, "lng": 109.76693082206845}, "feature": {"sight_features": "", "sight_content": ""}}, {"title": "佛庙", "address": "绥德县", "image": "", "rank": 60, "time": 2.0, "location": {"lat": 37.50890728893263, "lng": 110.26942648535928}, "feature": {"sight_features": "", "sight_content": ""}}]}