{"cityName": "郁南", "days": 2, "cityImage": "", "spots": [{"title": "大王山森林公园", "address": "云浮市郁南县都城镇二环路", "image": "", "rank": 1, "time": 2, "location": {"lat": 23.250998601067934, "lng": 111.5342267623346}, "feature": {"sight_features": "", "sight_content": ""}}, {"title": "南江第一湾", "address": "云浮市郁南县南江口镇振兴路36号", "image": "", "rank": 2, "time": 0.75, "location": {"lat": 23.131181043485736, "lng": 111.82964686921606}, "feature": {"sight_features": "", "sight_content": ""}}, {"title": "兰寨当铺", "address": "云浮市郁南县连滩镇西坝村", "image": "", "rank": 3, "time": 2, "location": {"lat": 22.96676270074581, "lng": 111.76742358574798}, "feature": {"sight_features": "", "sight_content": ""}}, {"title": "广东非物质文化遗产博览馆", "address": "兰寨村民俗广场", "image": "", "rank": 4, "time": 2, "location": {"lat": 28.608578220127512, "lng": 115.92376060076464}, "feature": {"sight_features": "", "sight_content": ""}}, {"title": "荣事泰现代农业有限公司", "address": "一环路东50米", "image": "", "rank": 5, "time": 2, "location": {"lat": 22.966622949268693, "lng": 113.022995433719}, "feature": {"sight_features": "", "sight_content": ""}}, {"title": "连滩影剧院", "address": "建设路附近", "image": "", "rank": 6, "time": 2, "location": {"lat": 39.08959553212996, "lng": 117.0126917080218}, "feature": {"sight_features": "", "sight_content": ""}}, {"title": "南江口镇", "address": "云浮市郁南县", "image": "", "rank": 7, "time": 2, "location": {"lat": 23.240174042652985, "lng": 111.54155382446162}, "feature": {"sight_features": "", "sight_content": ""}}, {"title": "武定狮子山风景区", "address": "云南省武定县武定县城以西 651600", "image": "", "rank": 8, "time": 2.0, "location": {"lat": 25.536089587806806, "lng": 102.4105318203669}, "feature": {"sight_features": "", "sight_content": ""}}, {"title": "狮子名山", "address": "云浮市郁南县", "image": "", "rank": 9, "time": 2, "location": {"lat": 23.240174042652985, "lng": 111.54155382446162}, "feature": {"sight_features": "", "sight_content": ""}}, {"title": "林新元故居", "address": "云浮市S352", "image": "", "rank": 10, "time": 2, "location": {"lat": 22.920911970342857, "lng": 112.05151269959146}, "feature": {"sight_features": "", "sight_content": ""}}, {"title": "华玄古刹", "address": "广东省云浮市郁南县Z259", "image": "", "rank": 11, "time": 2, "location": {"lat": 23.240174042652985, "lng": 111.54155382446162}, "feature": {"sight_features": "", "sight_content": ""}}, {"title": "城中公园", "address": "都城镇城中路", "image": "", "rank": 12, "time": 2, "location": {"lat": 23.247312491358628, "lng": 111.54795169913214}, "feature": {"sight_features": "", "sight_content": ""}}, {"title": "杨氏祖祠", "address": "城中路28号", "image": "", "rank": 13, "time": 2, "location": {"lat": 30.8788601657086, "lng": 121.55011461975576}, "feature": {"sight_features": "", "sight_content": ""}}, {"title": "诚君谢公祠", "address": "352省道附近", "image": "", "rank": 14, "time": 2, "location": {"lat": 34.68894666244106, "lng": 118.25389409887667}, "feature": {"sight_features": "", "sight_content": ""}}, {"title": "大湾镇文化广场", "address": "广东省云浮市罗定市", "image": "", "rank": 15, "time": 2, "location": {"lat": 22.774296060762723, "lng": 111.57648048166133}, "feature": {"sight_features": "", "sight_content": ""}}, {"title": "郁南县图书馆", "address": "工业大道", "image": "", "rank": 16, "time": 2, "location": {"lat": 22.653704101695602, "lng": 113.61369443205918}, "feature": {"sight_features": "", "sight_content": ""}}, {"title": "郁南县博物馆", "address": "河堤东路22号", "image": "", "rank": 17, "time": 2, "location": {"lat": 33.31799622395536, "lng": 108.32184920580465}, "feature": {"sight_features": "", "sight_content": ""}}, {"title": "小苹果托教乐园", "address": "北郊五路40号附近", "image": "", "rank": 18, "time": 2, "location": {"lat": 23.24569103936663, "lng": 111.54004871358013}, "feature": {"sight_features": "", "sight_content": ""}}, {"title": "张老师托教乐园(分园)", "address": "新生东路103附近", "image": "", "rank": 19, "time": 2, "location": {"lat": 23.242737235917236, "lng": 111.54099148521256}, "feature": {"sight_features": "", "sight_content": ""}}, {"title": "谭主任托教乐园", "address": "北郊五路32附近", "image": "", "rank": 20, "time": 2, "location": {"lat": 23.24569103936663, "lng": 111.54004871358013}, "feature": {"sight_features": "", "sight_content": ""}}, {"title": "状元进士馆", "address": "蓝寨村", "image": "", "rank": 21, "time": 2, "location": {"lat": 27.975236327184984, "lng": 120.77009066451537}, "feature": {"sight_features": "", "sight_content": ""}}, {"title": "十德文化馆", "address": "连滩镇象山庙", "image": "", "rank": 22, "time": 2, "location": {"lat": 22.939675730393496, "lng": 111.74374550654727}, "feature": {"sight_features": "", "sight_content": ""}}, {"title": "云浮大湾古民居建筑群", "address": "广东省郁南县大湾镇五星村", "image": "", "rank": 23, "time": 1.5, "location": {"lat": 22.821051504541124, "lng": 111.656723642501}, "feature": {"sight_features": "", "sight_content": ""}}, {"title": "天池庵", "address": "广东省郁南县连滩镇上桥村", "image": "", "rank": 24, "time": 0.5, "location": {"lat": 22.939675730393496, "lng": 111.74374550654727}, "feature": {"sight_features": "", "sight_content": ""}}, {"title": "大湾古民居建筑群", "address": "广东省郁南县大湾镇五星村", "image": "", "rank": 25, "time": 2, "location": {"lat": 22.821051504541124, "lng": 111.656723642501}, "feature": {"sight_features": "", "sight_content": ""}}, {"title": "半山刘秋风坑果场", "address": "云浮市-郁南县-s352", "image": "", "rank": 26, "time": 2, "location": {"lat": 23.240174042652985, "lng": 111.54155382446162}, "feature": {"sight_features": "", "sight_content": ""}}, {"title": "光二大屋", "address": "云浮市郁南县352省道附近", "image": "", "rank": 27, "time": 2, "location": {"lat": 23.01628369136913, "lng": 111.76087709092242}, "feature": {"sight_features": "", "sight_content": ""}}, {"title": "兰寨村", "address": "广东省云浮连滩", "image": "", "rank": 28, "time": 2, "location": {"lat": 22.920911970342857, "lng": 112.05151269959146}, "feature": {"sight_features": "", "sight_content": ""}}]}