{"cityName": "郓城", "days": 2, "cityImage": "", "spots": [{"title": "水浒好汉城", "address": "菏泽市郓城县西门街南段水浒好汉城", "image": "", "rank": 1, "time": 4.5, "location": {"lat": 35.590760167075906, "lng": 115.93831820759658}, "feature": {"sight_features": "特色1 水浒故事的发源地。 特色2 水浒文化的一个缩影，重拾义气，体验豪爽。 特色3 水浒情景剧表演于一体的综合性人文景观。", "sight_content": "水浒好汉城是山东郓城的一个4A景点，郓城始建于春秋时期鲁成公四年（前587年），是水浒英雄的首领宋江、晁盖、吴用等人的故里，素有“水浒一百单八将、七十二名在郓城”之说。郓城是全国闻名的武术之乡、书画之乡、戏曲之乡、古筝之乡，同时在2011年获得了由亚洲旅游文化联合会等联合主办的第十七届亚洲金旅奖中郓城获得“中国好汉之乡”殊荣。\n\n\n郓城处于中国东部季风区域，地处鲁西南大平原，现存有八百里梁山泊的遗存——宋江湖；有七星聚义、智取生辰纲的黄泥岗；有宋江得天书的九天玄女庙；有全国闻名的宋江武校；还有以“好汉郓城”为旅游主题形象的主题旅游区——水浒好汉城。\n\n\n水浒好汉城，国家AAAA级旅游景区，是集郓城县衙、晁家庄等原汁原味的古代建筑群和宋江武校的武术教学与交流，以及狗娃艺术团的武术舞蹈于一体的综合性人文景观，包括水浒文化博物馆、宋江武馆、九天玄女庙、郓城酒楼、及时雨茶楼、孙二娘客栈、古筝坊、大刀馆、忠义庙、乌龙院、寅宾馆、明伦堂、明清戏楼等十几个景点，北方传统四合院和浙派、徽派的古代建筑荟萃，雕梁画栋勾心斗角，令人赏心悦目；而深藏在每一栋房屋里的水浒英雄的传奇故事，则令人浮想联翩，流连忘返。到好汉之乡做水浒好汉，来水浒好汉城重拾义气，体验豪爽！"}}, {"title": "唐塔", "address": "菏泽市郓城县唐塔路", "image": "", "rank": 2, "time": 1.5, "location": {"lat": 35.607403694530205, "lng": 115.95432080161243}, "feature": {"sight_features": "", "sight_content": ""}}, {"title": "宋江故里——水堡", "address": "菏泽市水堡乡", "image": "", "rank": 3, "time": 2, "location": {"lat": 35.62776734490642, "lng": 115.74989568223324}, "feature": {"sight_features": "", "sight_content": ""}}, {"title": "黄泥岗", "address": "郓城东南16公里处黄堆集", "image": "", "rank": 4, "time": 2, "location": {"lat": 35.54448614063533, "lng": 116.10016953868697}, "feature": {"sight_features": "", "sight_content": ""}}, {"title": "艺达温泉养生基地", "address": "菏泽市郓城县郓州街道大樊庄村", "image": "", "rank": 5, "time": 2, "location": {"lat": 35.6111570972129, "lng": 115.91729517722115}, "feature": {"sight_features": "", "sight_content": ""}}, {"title": "水浒国际马术俱乐部", "address": "育才路西段西环路十字路口向西288米路北(水浒怡情园内)", "image": "", "rank": 6, "time": 2, "location": {"lat": 23.32128661222331, "lng": 113.24099968675924}, "feature": {"sight_features": "", "sight_content": ""}}, {"title": "广丰合作社种植基地", "address": "220国道国家电网旁", "image": "", "rank": 7, "time": 2, "location": {"lat": 28.45127542271025, "lng": 117.96334372324931}, "feature": {"sight_features": "", "sight_content": ""}}, {"title": "山东省郓城县前进种鸡场", "address": "光明路附近", "image": "", "rank": 8, "time": 2, "location": {"lat": 39.91629389090759, "lng": 116.48112671224156}, "feature": {"sight_features": "", "sight_content": ""}}, {"title": "晨曦图书城", "address": "243乡道附近", "image": "", "rank": 9, "time": 2, "location": {"lat": 22.64748049529289, "lng": 114.51064289675948}, "feature": {"sight_features": "", "sight_content": ""}}, {"title": "农民合作社", "address": "李集乡沿黄路", "image": "", "rank": 10, "time": 2, "location": {"lat": 35.81256702380033, "lng": 115.7896892832399}, "feature": {"sight_features": "", "sight_content": ""}}, {"title": "春来苗木种植家庭农场", "address": "张营镇吴店村", "image": "", "rank": 11, "time": 2, "location": {"lat": 35.62152844301311, "lng": 116.06231974414283}, "feature": {"sight_features": "", "sight_content": ""}}, {"title": "晁家庄地下迷宫3D画展", "address": "菏泽市郓城县西门街南段(宋江武校)郓城水浒好汉城晁家庄内", "image": "", "rank": 12, "time": 2, "location": {"lat": 35.59090841547111, "lng": 115.93960928641113}, "feature": {"sight_features": "", "sight_content": ""}}, {"title": "勾栏广场", "address": "山东省菏泽市郓城县", "image": "", "rank": 13, "time": null, "location": {"lat": 35.6059023196872, "lng": 115.95045057628886}, "feature": {"sight_features": "", "sight_content": ""}}, {"title": "科迪食文化广场（全国连锁郓城00...", "address": "金河路西段水浒小区", "image": "", "rank": 14, "time": 2, "location": {"lat": 35.59656863273043, "lng": 115.93353604587521}, "feature": {"sight_features": "", "sight_content": ""}}, {"title": "宋金河公园", "address": "金河路与东溪路交汇处宋金河东岸", "image": "", "rank": 15, "time": 2, "location": {"lat": 28.06831516885481, "lng": 120.6961588634409}, "feature": {"sight_features": "", "sight_content": ""}}, {"title": "儿童乐园", "address": "菏泽市郓城县", "image": "", "rank": 16, "time": 2, "location": {"lat": 35.6059023196872, "lng": 115.95045057628886}, "feature": {"sight_features": "", "sight_content": ""}}, {"title": "大佛寺", "address": "菏泽市郓城县西门街南段(宋江武校)郓城水浒好汉城内", "image": "", "rank": 17, "time": 1.5, "location": {"lat": 35.590760167075906, "lng": 115.93831820759658}, "feature": {"sight_features": "", "sight_content": ""}}, {"title": "胜利公园", "address": "山东省菏泽市郓城县胜利街", "image": "", "rank": 18, "time": 1.5, "location": {"lat": 35.60600844739385, "lng": 115.94891247693364}, "feature": {"sight_features": "", "sight_content": ""}}, {"title": "郓城儿童乐园", "address": "山东省菏泽市郓城县富裕巷", "image": "", "rank": 19, "time": 4.5, "location": {"lat": 35.6059023196872, "lng": 115.95045057628886}, "feature": {"sight_features": "", "sight_content": ""}}, {"title": "图书馆", "address": "临城路", "image": "", "rank": 20, "time": 1.0, "location": {"lat": 29.997574223358843, "lng": 122.21044175138611}, "feature": {"sight_features": "", "sight_content": ""}}, {"title": "齐鲁丹青画廊", "address": "胜利街", "image": "", "rank": 21, "time": 2, "location": {"lat": 39.81196788892508, "lng": 116.4029139949128}, "feature": {"sight_features": "", "sight_content": ""}}, {"title": "湖西革命烈士陵园", "address": "胜利街25号(近中医院)", "image": "", "rank": 22, "time": 2, "location": {"lat": 39.81096830150573, "lng": 116.40291933623736}, "feature": {"sight_features": "", "sight_content": ""}}, {"title": "奥兰多水上乐园", "address": "坝头十字路口向南", "image": "", "rank": 23, "time": 2, "location": {"lat": 40.38939454485135, "lng": 116.90056531757148}, "feature": {"sight_features": "", "sight_content": ""}}, {"title": "平安农家乐", "address": "李清浮桥", "image": "", "rank": 24, "time": 2, "location": {"lat": 35.83326263517893, "lng": 115.76091125326126}, "feature": {"sight_features": "", "sight_content": ""}}, {"title": "飞雪潜水电泵", "address": "东门街东50米", "image": "", "rank": 25, "time": 2, "location": {"lat": 36.49893019514548, "lng": 112.34828324873581}, "feature": {"sight_features": "", "sight_content": ""}}, {"title": "石氏珍品收藏馆", "address": "西门街宋江武校北50米", "image": "", "rank": 26, "time": 2, "location": {"lat": 35.59127530853964, "lng": 115.93960928641113}, "feature": {"sight_features": "", "sight_content": ""}}, {"title": "华通农机专业合作社", "address": "聊商路西50米", "image": "", "rank": 27, "time": 2, "location": {"lat": 35.50400389281512, "lng": 116.02234052896358}, "feature": {"sight_features": "", "sight_content": ""}}, {"title": "水浒文化街", "address": "山东省郓城县西门街", "image": "", "rank": 28, "time": 2, "location": {"lat": 35.61487301143869, "lng": 115.9410644622864}, "feature": {"sight_features": "", "sight_content": ""}}]}