{"cityName": "云林县", "days": null, "cityImage": "", "spots": [{"title": "剑湖山世界", "address": "云林县古坑乡永光村大湖口67号", "image": "", "rank": 1, "time": 2, "location": {"lat": 28.57549257009531, "lng": 112.45252757979645}, "feature": {"sight_features": "特色1 复合式游乐园区", "sight_content": "剑湖山世界全园占地面积有60多公顷，综合休闲、游乐、文化、科技四大功能的复合式游乐园区。四大主题园区、丰富的世界级游乐设施，带给您最High的惊艳快感。\n摩天广场--拥有台湾最大最好玩的户外机械游乐设施。是最适合青少年追求刺激的育乐场所，超人气的“擎天飞梭”与“狂飙飞碟”不但创造游乐新风潮，全亚洲独一无二，超酷骇机械巨兽“飞天潜艇G5”更让人又爱又怕。剑湖山世界主题乐园创造云霄飞车的新体验—“冲疯飞车”，是亚洲第一座“无底盘式”云霄飞车”，以每小时90公里的高速，带领您回旋、俯冲、翻转、直速四合一的惊喜体验，一路惊声尖叫120秒，让您High到最高点！\n奔浪水乐园--在夏威夷情境体验下尽享双世界级水游具，水上巨霸「龙卷风Tornado」、涡轮巨怪「海碗Cannon Bowl」，让您承着橡皮艇飞至7层楼高，以钟摆状向下墬落，引发直冲云霄的惊声尖叫！感受360度离心力狂飙的超High快感！再到有如神鬼奇航的神秘「大船坞」，体验水战迷宫的畅快乐趣，还有沙滩、棕榈树、草裙舞…尽享夏威夷风情，百分百的激High乐趣。"}}, {"title": "北港朝天宫", "address": "台湾云林县北港镇中山路178号", "image": "", "rank": 2, "time": 2.5, "location": {"lat": 23.98487399040968, "lng": 121.61584350526923}, "feature": {"sight_features": "", "sight_content": ""}}, {"title": "西螺大桥", "address": "台湾云林县西螺镇西螺大桥", "image": "", "rank": 3, "time": 2, "location": {"lat": 23.783036480612324, "lng": 120.46092466247053}, "feature": {"sight_features": "", "sight_content": ""}}, {"title": "云林布袋戏馆", "address": "云林县虎尾镇林森路一段498号", "image": "", "rank": 4, "time": 2, "location": {"lat": 30.863464844407584, "lng": 104.00963008316725}, "feature": {"sight_features": "", "sight_content": ""}}, {"title": "斗六市", "address": "云林县", "image": "", "rank": 5, "time": 2, "location": {"lat": 42.91839667877623, "lng": 124.79951829879514}, "feature": {"sight_features": "", "sight_content": ""}}, {"title": "西螺老街", "address": "云林县西螺镇延平路与大同街交叉口", "image": "", "rank": 6, "time": 2, "location": {"lat": 34.27692223336484, "lng": 117.19854133998076}, "feature": {"sight_features": "", "sight_content": ""}}, {"title": "古坑绿色隧道", "address": "云林县古坑乡湳仔綠色隧道", "image": "", "rank": 7, "time": null, "location": {"lat": 42.91839667877623, "lng": 124.79951829879514}, "feature": {"sight_features": "", "sight_content": ""}}, {"title": "台湾寺庙艺术馆", "address": "台湾云林县斗六市大学路三段310号", "image": "", "rank": 8, "time": 2, "location": {"lat": 23.70845565303383, "lng": 120.57941949996413}, "feature": {"sight_features": "", "sight_content": ""}}, {"title": "蜜蜂故事馆1号馆", "address": "云林古坑乡湳子路88号", "image": "", "rank": 9, "time": 2, "location": {"lat": 23.63682862687393, "lng": 120.58335119363755}, "feature": {"sight_features": "", "sight_content": ""}}, {"title": "雲林月老寶殿", "address": "民治路74號 北港鎮, 雲林縣 651 Taiwan", "image": "", "rank": 10, "time": 2, "location": {"lat": 31.29975848592383, "lng": 121.5583549594531}, "feature": {"sight_features": "", "sight_content": ""}}, {"title": "公業福德宮", "address": "龍潭北路36之1號 斗六市, 雲林縣 640 Taiwan", "image": "", "rank": 11, "time": 2, "location": {"lat": 30.21917620791727, "lng": 121.19247028007858}, "feature": {"sight_features": "", "sight_content": ""}}, {"title": "Gukeng Caoling Penglai Waterfa...", "address": "云林县Gukeng TownshipRiver Zhuhao", "image": "", "rank": 12, "time": 2, "location": {"lat": 42.91839667877623, "lng": 124.79951829879514}, "feature": {"sight_features": "", "sight_content": ""}}, {"title": "良作工场农业文创馆", "address": "大埤乡丰田工业区丰田路57号 631", "image": "", "rank": 13, "time": 2, "location": {"lat": 22.692530208924943, "lng": 114.33628036004154}, "feature": {"sight_features": "", "sight_content": ""}}, {"title": "善修宫", "address": "Douliu斗六市永乐街1号", "image": "", "rank": 14, "time": 2, "location": {"lat": 38.952205986375795, "lng": 115.33425018629208}, "feature": {"sight_features": "", "sight_content": ""}}, {"title": "真一寺", "address": "Douliu斗六市永乐街2号", "image": "", "rank": 15, "time": 2, "location": {"lat": 41.12525129924333, "lng": 122.96421554386265}, "feature": {"sight_features": "", "sight_content": ""}}, {"title": "San Tiao Lun Bikeway", "address": "云林县Sihu Township", "image": "", "rank": 16, "time": 2, "location": {"lat": 42.91839667877623, "lng": 124.79951829879514}, "feature": {"sight_features": "", "sight_content": ""}}, {"title": "Yunlin 228 Memorial Park", "address": "云林县Gukeng Township", "image": "", "rank": 17, "time": 2, "location": {"lat": 42.91839667877623, "lng": 124.79951829879514}, "feature": {"sight_features": "", "sight_content": ""}}, {"title": "Gukeng Caolingyoucing Valley T...", "address": "云林县Gukeng Township", "image": "", "rank": 18, "time": 2, "location": {"lat": 42.91839667877623, "lng": 124.79951829879514}, "feature": {"sight_features": "", "sight_content": ""}}, {"title": "Gukeng Recreation Farm", "address": "云林县古坑乡永光村大湖口", "image": "", "rank": 19, "time": 2, "location": {"lat": 42.91839667877623, "lng": 124.79951829879514}, "feature": {"sight_features": "", "sight_content": ""}}, {"title": "麦寮拱范宫", "address": "云林县麥寮鄉麥豐村中正路3號", "image": "", "rank": 20, "time": 1.0, "location": {"lat": 42.91839667877623, "lng": 124.79951829879514}, "feature": {"sight_features": "", "sight_content": ""}}, {"title": "北港工艺坊", "address": "云林县北港镇共和街2号 651", "image": "", "rank": 21, "time": 2, "location": {"lat": 38.69488993143963, "lng": 115.79613301101898}, "feature": {"sight_features": "", "sight_content": ""}}, {"title": "She Huang Dong", "address": "云林县Zhanghu Vil., Gukeng Township", "image": "", "rank": 22, "time": 2, "location": {"lat": 42.91839667877623, "lng": 124.79951829879514}, "feature": {"sight_features": "", "sight_content": ""}}, {"title": "湖光山舍", "address": "云林县古坑鄉大湖口1號之12 646", "image": "", "rank": 23, "time": 2, "location": {"lat": 28.57549257009531, "lng": 112.45252757979645}, "feature": {"sight_features": "", "sight_content": ""}}, {"title": "Caoling Mountain Spa (草嶺山莊...", "address": "Taiwan", "image": "", "rank": 24, "time": 2, "location": {"lat": 26.89925516628971, "lng": 109.29361902550278}, "feature": {"sight_features": "", "sight_content": ""}}, {"title": "云林科技大学", "address": "云林县斗六市大学路三段123号", "image": "", "rank": 25, "time": 0.9, "location": {"lat": 34.75863525251158, "lng": 113.64985982855994}, "feature": {"sight_features": "", "sight_content": ""}}, {"title": "大同酱油黑金酿造馆", "address": "云林县斗六市斗工二路39号", "image": "", "rank": 26, "time": 2.5, "location": {"lat": 30.085006097121724, "lng": 120.21859374889246}, "feature": {"sight_features": "", "sight_content": ""}}, {"title": "福禄寿酒博物馆", "address": "云林县古坑乡中山路11号", "image": "", "rank": 27, "time": 2, "location": {"lat": 41.800934878617554, "lng": 123.4055175129319}, "feature": {"sight_features": "", "sight_content": ""}}, {"title": "荷兰古井", "address": "云林县古坑乡麻园村麻园32号", "image": "", "rank": 28, "time": 2, "location": {"lat": 25.059431055344028, "lng": 102.68649856089357}, "feature": {"sight_features": "", "sight_content": ""}}, {"title": "颜思齐开拓台湾纪念碑", "address": "云林县北港镇北辰路一号", "image": "", "rank": 29, "time": 2, "location": {"lat": 25.328929192281564, "lng": 110.31368179101747}, "feature": {"sight_features": "", "sight_content": ""}}, {"title": "马蹄蛤主题馆", "address": "云林县口湖乡港西村5-3号", "image": "", "rank": 31, "time": 2, "location": {"lat": 40.114660014436176, "lng": 116.95836715301796}, "feature": {"sight_features": "", "sight_content": ""}}, {"title": "永丰米粮行(广合商行)", "address": "云林县西螺镇延平路57号", "image": "", "rank": 32, "time": 2, "location": {"lat": 26.059093592658883, "lng": 119.3077694943197}, "feature": {"sight_features": "", "sight_content": ""}}, {"title": "虎尾持法妈祖宫", "address": "云林县虎尾镇顶溪里西园46号", "image": "", "rank": 33, "time": 2, "location": {"lat": 23.94603050472276, "lng": 117.34569099802333}, "feature": {"sight_features": "", "sight_content": ""}}, {"title": "云林斗六市云中街文创聚落", "address": "云林县斗六市斗六云中街14号、16号", "image": "", "rank": 34, "time": 2, "location": {"lat": 22.73781629627012, "lng": 108.33265179817998}, "feature": {"sight_features": "", "sight_content": ""}}, {"title": "虎尾合同厅舍", "address": "云林县虎尾镇林森路1段491号", "image": "", "rank": 35, "time": 2, "location": {"lat": 30.863464844407584, "lng": 104.00963008316725}, "feature": {"sight_features": "", "sight_content": ""}}, {"title": "云林斗六行启纪念馆", "address": "云林县斗六市府前街101号", "image": "", "rank": 36, "time": 2, "location": {"lat": 32.78749271225436, "lng": 119.44620001314466}, "feature": {"sight_features": "", "sight_content": ""}}, {"title": "柚子艺术馆", "address": "云林县斗六市民生南路200号", "image": "", "rank": 37, "time": 2, "location": {"lat": 22.95892748227672, "lng": 112.12452728402864}, "feature": {"sight_features": "", "sight_content": ""}}, {"title": "北港義民廟", "address": "旌義街20號 北港鎮, 雲林縣 651 Taiwan", "image": "", "rank": 38, "time": 2, "location": {"lat": 39.89514726587152, "lng": 116.05193579058329}, "feature": {"sight_features": "", "sight_content": ""}}, {"title": "他里霧漫畫館", "address": "南昌路19號 斗南鎮, 雲林縣 630 Taiwan", "image": "", "rank": 39, "time": 2, "location": {"lat": 43.84798724121611, "lng": 126.5756215842636}, "feature": {"sight_features": "", "sight_content": ""}}, {"title": "Honey Museum", "address": "中国,云林县,No. 88, Nanzi Rd., Gukeng Township,", "image": "", "rank": 40, "time": 4.5, "location": {"lat": 42.91839667877623, "lng": 124.79951829879514}, "feature": {"sight_features": "", "sight_content": ""}}, {"title": "媽祖廟朝天宮", "address": "湖北里早知19號 大林鎮, 嘉義縣 622 Taiwan", "image": "", "rank": 41, "time": 2, "location": {"lat": 26.898160258611764, "lng": 112.63008146721047}, "feature": {"sight_features": "", "sight_content": ""}}, {"title": "华山小天梯与情人桥", "address": "古坑乡华山村2邻华山19号之16附近", "image": "", "rank": 42, "time": 1.5, "location": {"lat": 41.09237853352556, "lng": 120.97529249019374}, "feature": {"sight_features": "", "sight_content": ""}}, {"title": "玉凤宫", "address": "东势西路261号", "image": "", "rank": 43, "time": 2, "location": {"lat": 37.65788854703465, "lng": 120.5398821081168}, "feature": {"sight_features": "", "sight_content": ""}}]}