{"cityName": "云龙", "days": 2, "cityImage": "", "spots": [{"title": "诺邓村", "address": "大理白族自治州大理市云龙县诺邓村", "image": "", "rank": 1, "time": 2.5, "location": {"lat": 25.59049645052399, "lng": 100.22852747157891}, "feature": {"sight_features": "", "sight_content": ""}}, {"title": "云龙天池", "address": "大理白族自治州云龙县天池路与Z001交叉口西150米", "image": "", "rank": 2, "time": 4.0, "location": {"lat": 25.871993554977838, "lng": 99.33527902666279}, "feature": {"sight_features": "", "sight_content": ""}}, {"title": "千年白族村", "address": "大理白族自治州云龙县城西北面的山谷中", "image": "", "rank": 3, "time": 2, "location": {"lat": 25.891945073901653, "lng": 99.37741602286651}, "feature": {"sight_features": "", "sight_content": ""}}, {"title": "太极图", "address": "大理白族自治州云龙县诺邓镇庄坪村", "image": "", "rank": 4, "time": 1.0, "location": {"lat": 25.891945073901653, "lng": 99.37741602286651}, "feature": {"sight_features": "", "sight_content": ""}}, {"title": "宝丰古镇", "address": "大理白族自治州云龙县", "image": "", "rank": 5, "time": 3.5, "location": {"lat": 25.891945073901653, "lng": 99.37741602286651}, "feature": {"sight_features": "", "sight_content": ""}}, {"title": "古盐井遗址", "address": "大理白族自治州云龙县诺邓村", "image": "", "rank": 6, "time": 0.25, "location": {"lat": 25.922500330182338, "lng": 99.38476163140908}, "feature": {"sight_features": "", "sight_content": ""}}, {"title": "玉皇阁", "address": "大理州云龙县诺邓镇诺邓村", "image": "", "rank": 7, "time": 1.0, "location": {"lat": 25.920550702292278, "lng": 99.38622472674525}, "feature": {"sight_features": "", "sight_content": ""}}, {"title": "河东村", "address": "大理白族自治州云龙县河东村", "image": "", "rank": 8, "time": 4.0, "location": {"lat": 25.73323659863355, "lng": 99.65912314939675}, "feature": {"sight_features": "", "sight_content": ""}}, {"title": "棂星门坊", "address": "大理白族自治州云龙县诺邓村", "image": "", "rank": 9, "time": 2, "location": {"lat": 25.922500330182338, "lng": 99.38476163140908}, "feature": {"sight_features": "", "sight_content": ""}}, {"title": "诺邓文庙", "address": "大理白族自治州云龙县诺邓村", "image": "", "rank": 10, "time": 2, "location": {"lat": 25.922500330182338, "lng": 99.38476163140908}, "feature": {"sight_features": "", "sight_content": ""}}, {"title": "诺邓龙王庙", "address": "大理白族自治州云龙县诺邓村", "image": "", "rank": 11, "time": 0.5, "location": {"lat": 25.922500330182338, "lng": 99.38476163140908}, "feature": {"sight_features": "", "sight_content": ""}}, {"title": "尹家村", "address": "大理白族自治洲云龙县尹家村", "image": "", "rank": 12, "time": 4.0, "location": {"lat": 25.86857727151987, "lng": 99.36572015968981}, "feature": {"sight_features": "", "sight_content": ""}}, {"title": "虎头山古建筑群", "address": "大理云龙县石门镇南", "image": "", "rank": 13, "time": 2, "location": {"lat": 25.89242888595519, "lng": 99.37416969946645}, "feature": {"sight_features": "", "sight_content": ""}}, {"title": "黄霞昌家庭生态博物馆", "address": "云龙县白族古村诺邓村内", "image": "", "rank": 14, "time": 2, "location": {"lat": 25.922500330182338, "lng": 99.38476163140908}, "feature": {"sight_features": "", "sight_content": ""}}, {"title": "云龙县", "address": "云南省大理白族自治州云龙县", "image": "", "rank": 15, "time": null, "location": {"lat": 25.891945073901653, "lng": 99.37741602286651}, "feature": {"sight_features": "", "sight_content": ""}}, {"title": "万寿宫遗址", "address": "大理白族自治州云龙县诺邓村", "image": "", "rank": 16, "time": 2, "location": {"lat": 25.922500330182338, "lng": 99.38476163140908}, "feature": {"sight_features": "", "sight_content": ""}}, {"title": "盐局旧址", "address": "大理白族自治州云龙县诺邓村", "image": "", "rank": 17, "time": 2, "location": {"lat": 25.922500330182338, "lng": 99.38476163140908}, "feature": {"sight_features": "", "sight_content": ""}}, {"title": "贡爷家风", "address": "大理白族自治州云龙县诺邓村", "image": "", "rank": 18, "time": 2, "location": {"lat": 25.922500330182338, "lng": 99.38476163140908}, "feature": {"sight_features": "", "sight_content": ""}}, {"title": "进士家雕", "address": "大理白族自治州云龙县诺邓村", "image": "", "rank": 19, "time": 2, "location": {"lat": 25.922500330182338, "lng": 99.38476163140908}, "feature": {"sight_features": "", "sight_content": ""}}, {"title": "彩凤桥", "address": "云龙县白石乡顺荡村", "image": "", "rank": 20, "time": 2, "location": {"lat": 26.19760669358958, "lng": 99.4402831254866}, "feature": {"sight_features": "", "sight_content": ""}}, {"title": "通京古桥", "address": "云南大理州长新乡包罗村", "image": "", "rank": 21, "time": 2, "location": {"lat": 26.09694149502844, "lng": 99.44246133488986}, "feature": {"sight_features": "", "sight_content": ""}}, {"title": "大慈寺火葬墓群", "address": "大理云龙县白石乡顺荡村南", "image": "", "rank": 22, "time": 2, "location": {"lat": 26.28188353754548, "lng": 99.3836868492905}, "feature": {"sight_features": "", "sight_content": ""}}, {"title": "虎头寺", "address": "云南省大理白族自治州云龙县", "image": "", "rank": 23, "time": 2, "location": {"lat": 25.891945073901653, "lng": 99.37741602286651}, "feature": {"sight_features": "", "sight_content": ""}}, {"title": "天池水库", "address": "大理白族自治州云龙县 ‎", "image": "", "rank": 24, "time": 2, "location": {"lat": 25.891945073901653, "lng": 99.37741602286651}, "feature": {"sight_features": "", "sight_content": ""}}, {"title": "双龟戏水", "address": "大理白族自治州云龙县天池", "image": "", "rank": 25, "time": 2, "location": {"lat": 25.891945073901653, "lng": 99.37741602286651}, "feature": {"sight_features": "", "sight_content": ""}}, {"title": "提举衙门", "address": "大理白族自治州云龙县诺邓村", "image": "", "rank": 26, "time": 2, "location": {"lat": 25.922500330182338, "lng": 99.38476163140908}, "feature": {"sight_features": "", "sight_content": ""}}, {"title": "兆春亭", "address": "大理白族自治州云龙县石门镇南虎头山上", "image": "", "rank": 27, "time": 2, "location": {"lat": 25.89242888595519, "lng": 99.37416969946645}, "feature": {"sight_features": "", "sight_content": ""}}, {"title": "张仙祠", "address": "大理白族自治州云龙县石门镇虎头山上", "image": "", "rank": 28, "time": 2, "location": {"lat": 25.89242888595519, "lng": 99.37416969946645}, "feature": {"sight_features": "", "sight_content": ""}}, {"title": "龙池虎泉", "address": "大理白族自治州云龙县石门镇虎头山上", "image": "", "rank": 29, "time": 2, "location": {"lat": 25.89242888595519, "lng": 99.37416969946645}, "feature": {"sight_features": "", "sight_content": ""}}, {"title": "蟠龙栈道", "address": "大理白族自治州云龙县石门镇虎头山上", "image": "", "rank": 30, "time": 2, "location": {"lat": 25.89242888595519, "lng": 99.37416969946645}, "feature": {"sight_features": "", "sight_content": ""}}, {"title": "黄家古榕", "address": "大理白族自治州云龙县诺邓村", "image": "", "rank": 31, "time": 2, "location": {"lat": 25.922500330182338, "lng": 99.38476163140908}, "feature": {"sight_features": "", "sight_content": ""}}, {"title": "道长月台", "address": "大理白族自治州云龙县诺邓村", "image": "", "rank": 32, "time": 2, "location": {"lat": 25.922500330182338, "lng": 99.38476163140908}, "feature": {"sight_features": "", "sight_content": ""}}, {"title": "普陀岩", "address": "大理白族自治州云龙县石门镇南虎头山隔岸山上", "image": "", "rank": 33, "time": 2, "location": {"lat": 25.89242888595519, "lng": 99.37416969946645}, "feature": {"sight_features": "", "sight_content": ""}}, {"title": "银匠旧居", "address": "大理白族自治州云龙县诺邓村", "image": "", "rank": 34, "time": 2, "location": {"lat": 25.922500330182338, "lng": 99.38476163140908}, "feature": {"sight_features": "", "sight_content": ""}}, {"title": "诺邓南山", "address": "大理白族自治州云龙县诺邓村", "image": "", "rank": 35, "time": 2, "location": {"lat": 25.922500330182338, "lng": 99.38476163140908}, "feature": {"sight_features": "", "sight_content": ""}}, {"title": "白羊村遗址", "address": "云南省宾川县白羊村 671600", "image": "", "rank": 36, "time": 2, "location": {"lat": 25.84708990835548, "lng": 100.59933753868225}, "feature": {"sight_features": "", "sight_content": ""}}, {"title": "蟠龙寺", "address": "沿江路16号附近", "image": "", "rank": 37, "time": 0.75, "location": {"lat": 23.391154138127124, "lng": 113.08545803116469}, "feature": {"sight_features": "", "sight_content": ""}}, {"title": "金鸡寺", "address": "兰坪白族普米族自治县其他兰坪县傈僳族自治州兰坪白族普米族自治县", "image": "", "rank": 38, "time": 2, "location": {"lat": 26.459207904687954, "lng": 99.42328466998799}, "feature": {"sight_features": "", "sight_content": ""}}, {"title": "城皇庙", "address": "大理白族自治州云龙县", "image": "", "rank": 39, "time": 2, "location": {"lat": 25.891945073901653, "lng": 99.37741602286651}, "feature": {"sight_features": "", "sight_content": ""}}, {"title": "腾龙广场", "address": "人民路转盘", "image": "", "rank": 40, "time": 2, "location": {"lat": 23.37490057686854, "lng": 103.40661159663834}, "feature": {"sight_features": "", "sight_content": ""}}, {"title": "表村傈僳族乡民族广场", "address": "表村街子16附近", "image": "", "rank": 41, "time": 2, "location": {"lat": 30.818669982645396, "lng": 103.5676864993875}, "feature": {"sight_features": "", "sight_content": ""}}, {"title": "蟠龙公园", "address": "虎山路200号附近", "image": "", "rank": 42, "time": 2, "location": {"lat": 36.20625546989912, "lng": 117.14169682242812}, "feature": {"sight_features": "", "sight_content": ""}}, {"title": "宝丰天然温泉", "address": "石石段", "image": "", "rank": 43, "time": 2, "location": {"lat": 25.81091160730398, "lng": 99.37322345139172}, "feature": {"sight_features": "", "sight_content": ""}}, {"title": "漕涧镇隽唐温泉", "address": "漕涧镇分水岭方向,有路,标", "image": "", "rank": 44, "time": 2, "location": {"lat": 25.741046250556593, "lng": 99.12396868936533}, "feature": {"sight_features": "", "sight_content": ""}}, {"title": "河口温泉", "address": "227省道附近", "image": "", "rank": 45, "time": 0.7, "location": {"lat": 31.228081134040913, "lng": 120.66770235845375}, "feature": {"sight_features": "", "sight_content": ""}}, {"title": "佳艺画廊", "address": "人民路与新云路交叉口东南50米", "image": "", "rank": 46, "time": null, "location": {"lat": 25.893018554179335, "lng": 99.3761514234039}, "feature": {"sight_features": "", "sight_content": ""}}, {"title": "云龙县白族吹吹腔艺术团", "address": "虎山路200号", "image": "", "rank": 47, "time": 2, "location": {"lat": 36.20625546989912, "lng": 117.14169682242812}, "feature": {"sight_features": "", "sight_content": ""}}, {"title": "小竹坪", "address": "大理白族自治州-云龙县", "image": "", "rank": 48, "time": 2, "location": {"lat": 25.891945073901653, "lng": 99.37741602286651}, "feature": {"sight_features": "", "sight_content": ""}}, {"title": "红旗坝", "address": "云龙县民建乡红旗坝", "image": "", "rank": 49, "time": 2, "location": {"lat": 25.690912404437334, "lng": 98.88539864435934}, "feature": {"sight_features": "", "sight_content": ""}}]}