{"cityName": "云梦", "days": 2, "cityImage": "", "spots": [{"title": "中心广场", "address": "黄香大道东50米", "image": "", "rank": 1, "time": 1.0, "location": {"lat": 31.044675526749128, "lng": 113.76512070517198}, "feature": {"sight_features": "", "sight_content": ""}}, {"title": "开心游乐水上乐园", "address": "建设东路上丁字口(民鑫野鱼村对面)", "image": "", "rank": 2, "time": 2, "location": {"lat": 31.03065978634217, "lng": 113.76699264360049}, "feature": {"sight_features": "", "sight_content": ""}}, {"title": "童年阳光亲子乐园", "address": "孝感市云梦县文化路孝商城市广场2层", "image": "", "rank": 3, "time": 2, "location": {"lat": 31.022843221905358, "lng": 113.75482123724566}, "feature": {"sight_features": "", "sight_content": ""}}, {"title": "农家野生鱼馆", "address": "老316国道", "image": "", "rank": 4, "time": null, "location": {"lat": 26.297698208697987, "lng": 118.8318521786658}, "feature": {"sight_features": "", "sight_content": ""}}, {"title": "海浪谷水上世界", "address": "清明河大桥西南岸(楚王号餐饮对面)", "image": "", "rank": 5, "time": 2, "location": {"lat": 29.50268309883491, "lng": 106.66842977859555}, "feature": {"sight_features": "", "sight_content": ""}}, {"title": "野猪湖", "address": "白水湖附近(近王母湖)", "image": "", "rank": 6, "time": 2, "location": {"lat": 31.529220975313443, "lng": 104.26527447709728}, "feature": {"sight_features": "", "sight_content": ""}}, {"title": "云梦县三兴家庭农场牛羊肉直销店", "address": "安平路14附近", "image": "", "rank": 7, "time": 2, "location": {"lat": 30.874805658306176, "lng": 103.8081568837278}, "feature": {"sight_features": "", "sight_content": ""}}, {"title": "欢乐谷儿童游乐园", "address": "湖北省孝感市云梦县梦泽大道9号", "image": "", "rank": 8, "time": 2, "location": {"lat": 31.019079209966073, "lng": 113.75363417951426}, "feature": {"sight_features": "", "sight_content": ""}}, {"title": "老祠堂", "address": "孝感市云梦县", "image": "", "rank": 9, "time": 2, "location": {"lat": 31.027218220752015, "lng": 113.7594122018257}, "feature": {"sight_features": "", "sight_content": ""}}, {"title": "贝百佳儿童乐园", "address": "城关镇万维广场商业步行街4号楼", "image": "", "rank": 10, "time": 2, "location": {"lat": 25.753976258187457, "lng": 112.7385335194958}, "feature": {"sight_features": "", "sight_content": ""}}, {"title": "嘻多哆儿童乐园", "address": "湖北省孝感市云梦县梦泽大道98号", "image": "", "rank": 11, "time": 2, "location": {"lat": 31.02752651195069, "lng": 113.75607791634903}, "feature": {"sight_features": "", "sight_content": ""}}, {"title": "和平农家乐", "address": "楚王城大道南19", "image": "", "rank": 12, "time": 2, "location": {"lat": 31.0072802641417, "lng": 113.7738300959897}, "feature": {"sight_features": "", "sight_content": ""}}, {"title": "小苹果儿童乐园", "address": "水岸名城", "image": "", "rank": 13, "time": 2, "location": {"lat": 32.54717823816096, "lng": 120.44442227623392}, "feature": {"sight_features": "", "sight_content": ""}}, {"title": "孝武生态观光园", "address": "044乡道附近", "image": "", "rank": 14, "time": 2, "location": {"lat": 43.70740185696125, "lng": 127.37331368185131}, "feature": {"sight_features": "", "sight_content": ""}}, {"title": "云梦县祥山博物馆", "address": "龙岗大道1号", "image": "", "rank": 15, "time": 2, "location": {"lat": 22.6129069530924, "lng": 114.13732251580764}, "feature": {"sight_features": "", "sight_content": ""}}, {"title": "永兴农家乐", "address": "车站路南50米", "image": "", "rank": 16, "time": 2, "location": {"lat": 41.722234403072676, "lng": 83.01615849545696}, "feature": {"sight_features": "", "sight_content": ""}}, {"title": "云梦县楚剧团", "address": "建设路46号", "image": "", "rank": 17, "time": 2, "location": {"lat": 31.027959974634143, "lng": 113.74963387685791}, "feature": {"sight_features": "", "sight_content": ""}}, {"title": "鼻舒堂(云梦店)", "address": "孝感市-云梦县-建设路56号", "image": "", "rank": 18, "time": 2, "location": {"lat": 31.028438846851326, "lng": 113.74717521467711}, "feature": {"sight_features": "", "sight_content": ""}}]}