{"cityName": "云霄", "days": 2, "cityImage": "", "spots": [{"title": "金汤湾海水温泉度假村", "address": "漳州市云霄县陈岱镇岱南村海水温泉度假地1号（与东山岛交界处的八尺门大桥旁", "image": "", "rank": 1, "time": 2, "location": {"lat": 23.785092672646424, "lng": 117.41987365091137}, "feature": {"sight_features": "特色1 古罗马式建筑风格的温泉度假村。 特色2 环境清幽，实力演绎着海与泉的神奇。", "sight_content": "金汤湾海水温泉补水系统丰富，日出水量2000吨以上，出水温度高达65度。该温泉不仅矿化度高（每公升矿物质含量高达21克），更因含有珍稀的医疗级氡气放射能，被海内外温泉专家誉为“温泉贵族”。北纬23°，穿过神秘的巴哈马、华丽的迪拜、隽美的突尼斯以及风情万种的夏威夷……完美的黄金回归线，拥享适宜人类居住的资源与温度。金汤湾，倾卧23°的优雅，在这条绵延古老的地脉之上，演绎着海与泉的神奇。\n金汤湾海水温泉富含多种有益人体的矿物质及微量元素，并含有氡气放射能。其中锂、锶、氟、铁、氡、偏硅酸、偏硼酸、偏砷酸均达到医疗价值浓度。锶、氟、偏硅酸、偏砷酸的含量更是达到矿泉命名浓度，是世界罕见且独特的高品质复合型医疗级温泉。经专家研究，浸泡金汤湾海水温泉可舒缓神经、减轻疲劳、促进新陈代谢并对于软化皮肤角质、增强皮肤弹性等皮肤保养方面功效显著。如结合各项疗法，对于骨骼关节、心肺血管、消化系统等方面的疾病有显著疗效。"}}, {"title": "漳州云霄乌山风景名胜区", "address": "漳州市云霄县532县道", "image": "", "rank": 2, "time": 4.0, "location": {"lat": 23.979452098009194, "lng": 117.24476543078985}, "feature": {"sight_features": "", "sight_content": ""}}, {"title": "内洞村", "address": "漳州市云霄县", "image": "", "rank": 3, "time": 2, "location": {"lat": 23.964072828247573, "lng": 117.34644831448325}, "feature": {"sight_features": "", "sight_content": ""}}, {"title": "佳园温泉", "address": "火田镇佳园村国道324线398公里处旁", "image": "", "rank": 4, "time": 2, "location": {"lat": 24.042412989158073, "lng": 117.42485018977396}, "feature": {"sight_features": "", "sight_content": ""}}, {"title": "竹塔红树林自然保护区", "address": "云霄县竹塔红树林自然保护区", "image": "", "rank": 5, "time": 2, "location": {"lat": 23.964072828247573, "lng": 117.34644831448325}, "feature": {"sight_features": "", "sight_content": ""}}, {"title": "绥阳文化体育公园", "address": "云陵镇", "image": "", "rank": 6, "time": 2, "location": {"lat": 23.97190123184433, "lng": 117.35009750544675}, "feature": {"sight_features": "", "sight_content": ""}}, {"title": "大山海景旅游度假景区", "address": "漳州市云霄陈岱镇大山顶村(近201省道)", "image": "", "rank": 7, "time": 2, "location": {"lat": 23.82822046811464, "lng": 117.42397818125977}, "feature": {"sight_features": "特色1 登山望海、纵览六县", "sight_content": "大山海景旅游度假景区登山望海、纵览六县、坐落云霄，靠近东山，可以看到东山、漳浦、诏安海景、平和、常山区以及八尺门景色；\n集高山木屋别墅群、集装箱海景房、生态观光、休闲娱乐、户外拓展、住宿用餐为一体的大型旅游度假山庄。"}}, {"title": "金山温泉", "address": "云霄324国道金山温泉站", "image": "", "rank": 8, "time": 2, "location": {"lat": 24.033588268740527, "lng": 117.4005062739532}, "feature": {"sight_features": "", "sight_content": ""}}, {"title": "世坂葡萄园(勤友)", "address": "世板村", "image": "", "rank": 9, "time": 2, "location": {"lat": 28.864818830744255, "lng": 119.08610257752991}, "feature": {"sight_features": "", "sight_content": ""}}, {"title": "小鲤鱼游乐园", "address": "陈政路附近", "image": "", "rank": 10, "time": 2, "location": {"lat": 23.953966471447746, "lng": 117.33422057629225}, "feature": {"sight_features": "", "sight_content": ""}}, {"title": "大夫第教堂", "address": "民安路9号", "image": "", "rank": 11, "time": 2, "location": {"lat": 40.76049741412857, "lng": 120.86639578652651}, "feature": {"sight_features": "", "sight_content": ""}}, {"title": "陈政故居", "address": "福建省漳州市云霄县火田镇火田村", "image": "", "rank": 12, "time": 2, "location": {"lat": 24.01782852483784, "lng": 117.38128568011531}, "feature": {"sight_features": "", "sight_content": ""}}, {"title": "贝倍多儿童乐园", "address": "福建省漳州市云霄县宏华路66号", "image": "", "rank": 13, "time": 2, "location": {"lat": 23.95077263546785, "lng": 117.34587330912652}, "feature": {"sight_features": "", "sight_content": ""}}, {"title": "红脚丫淘乐堡儿童乐园", "address": "陈政路149号", "image": "", "rank": 14, "time": 2, "location": {"lat": 23.954131581074428, "lng": 117.33380457460395}, "feature": {"sight_features": "", "sight_content": ""}}, {"title": "白塔岩", "address": "漳州市云霄县", "image": "", "rank": 15, "time": 2, "location": {"lat": 23.964072828247573, "lng": 117.34644831448325}, "feature": {"sight_features": "", "sight_content": ""}}, {"title": "凤塔庙", "address": "福建省漳州市云霄县", "image": "", "rank": 16, "time": 2, "location": {"lat": 23.964072828247573, "lng": 117.34644831448325}, "feature": {"sight_features": "", "sight_content": ""}}, {"title": "红脚丫淘乐堡儿童乐园", "address": "陈政路149号", "image": "", "rank": 17, "time": 2, "location": {"lat": 23.954131581074428, "lng": 117.33380457460395}, "feature": {"sight_features": "", "sight_content": ""}}, {"title": "王爹庙", "address": "福岐北路东200米", "image": "", "rank": 18, "time": 2, "location": {"lat": 24.516036188213725, "lng": 117.75096869360074}, "feature": {"sight_features": "", "sight_content": ""}}, {"title": "宝山灵风寺", "address": "福建省漳州市云霄县云漳路云霄烈士陵园(益民大厦东南)", "image": "", "rank": 19, "time": 2, "location": {"lat": 23.957071309203705, "lng": 117.34629400985094}, "feature": {"sight_features": "", "sight_content": ""}}, {"title": "顶关帝庙", "address": "红旗路53号", "image": "", "rank": 20, "time": 2, "location": {"lat": 39.93722709271738, "lng": 119.59473017060714}, "feature": {"sight_features": "", "sight_content": ""}}, {"title": "阳霞天后宫", "address": "福建省漳州市云霄县莆美镇阳下村境内", "image": "", "rank": 21, "time": 2, "location": {"lat": 23.947378518659313, "lng": 117.36378780538047}, "feature": {"sight_features": "", "sight_content": ""}}, {"title": "英济宫", "address": "福建省漳州市云霄县G324(福昆线)", "image": "", "rank": 22, "time": 2, "location": {"lat": 23.964072828247573, "lng": 117.34644831448325}, "feature": {"sight_features": "", "sight_content": ""}}, {"title": "青峰寺", "address": "福建省漳州市云霄县火田镇圆峰村", "image": "", "rank": 23, "time": 2, "location": {"lat": 24.07058953328138, "lng": 117.37316792139391}, "feature": {"sight_features": "", "sight_content": ""}}, {"title": "广思亭寺祖师公庙", "address": "江辉路56号", "image": "", "rank": 24, "time": 2, "location": {"lat": 30.21317088342568, "lng": 120.2134688773309}, "feature": {"sight_features": "", "sight_content": ""}}, {"title": "云霄县甘露寺", "address": "533县道附近", "image": "", "rank": 25, "time": 2, "location": {"lat": 22.617851056095045, "lng": 106.78554617975914}, "feature": {"sight_features": "", "sight_content": ""}}, {"title": "常山生态度假园", "address": "福建省漳州市云霄县常山华侨开发区管委会", "image": "", "rank": 26, "time": 2, "location": {"lat": 23.858212943635962, "lng": 117.39392100107538}, "feature": {"sight_features": "", "sight_content": ""}}, {"title": "开心乐园儿童游乐场", "address": "福建省漳州市云霄县荷中村", "image": "", "rank": 27, "time": 2, "location": {"lat": 23.969894674485186, "lng": 117.44422449356593}, "feature": {"sight_features": "", "sight_content": ""}}, {"title": "福锦·中心广场", "address": "福建省漳州市云霄县将军大道与人和路交汇处", "image": "", "rank": 28, "time": 2, "location": {"lat": 23.941655474411842, "lng": 117.3445550835199}, "feature": {"sight_features": "", "sight_content": ""}}, {"title": "云锦画苑", "address": "绥阳路195号", "image": "", "rank": 29, "time": 2, "location": {"lat": 45.77857915381677, "lng": 126.67700037648976}, "feature": {"sight_features": "", "sight_content": ""}}, {"title": "云霄县图书馆", "address": "江陵路", "image": "", "rank": 30, "time": 2, "location": {"lat": 23.970159921137135, "lng": 117.34751189742705}, "feature": {"sight_features": "", "sight_content": ""}}, {"title": "云霄县图书馆", "address": "江陵路", "image": "", "rank": 31, "time": 2, "location": {"lat": 23.970159921137135, "lng": 117.34751189742705}, "feature": {"sight_features": "", "sight_content": ""}}, {"title": "云锦画苑", "address": "绥阳路195号", "image": "", "rank": 32, "time": 2, "location": {"lat": 45.77857915381677, "lng": 126.67700037648976}, "feature": {"sight_features": "", "sight_content": ""}}, {"title": "台湾严选噜啦啦", "address": "君宝路新华都广场前", "image": "", "rank": 33, "time": 2, "location": {"lat": 24.894587745257617, "lng": 118.57293090106674}, "feature": {"sight_features": "", "sight_content": ""}}, {"title": "顶方养生温泉", "address": "火田镇佳园村顶枋国道324旁", "image": "", "rank": 34, "time": 2, "location": {"lat": 24.042000730997334, "lng": 117.4163705846102}, "feature": {"sight_features": "", "sight_content": ""}}, {"title": "艺成画廊", "address": "江滨路137号", "image": "", "rank": 35, "time": 2, "location": {"lat": 23.963575420646837, "lng": 117.35065584993123}, "feature": {"sight_features": "", "sight_content": ""}}, {"title": "福运画廊", "address": "陈政路32号附近", "image": "", "rank": 36, "time": 2, "location": {"lat": 23.95471756385465, "lng": 117.33922709366297}, "feature": {"sight_features": "", "sight_content": ""}}, {"title": "华侨经济开发区侨区艺术团", "address": "华园小区附近G324", "image": "", "rank": 37, "time": 2, "location": {"lat": 29.079524688892914, "lng": 119.67303279349409}, "feature": {"sight_features": "", "sight_content": ""}}, {"title": "漳州红树林保护区 Mangrove Rese...", "address": "福建省云霄县东厦镇", "image": "", "rank": 38, "time": 4.0, "location": {"lat": 23.94301639758788, "lng": 117.39714431527811}, "feature": {"sight_features": "", "sight_content": ""}}, {"title": "天窗坪", "address": "漳州市-云霄县", "image": "", "rank": 39, "time": 2, "location": {"lat": 23.964072828247573, "lng": 117.34644831448325}, "feature": {"sight_features": "", "sight_content": ""}}, {"title": "天窗坪仙境山庄", "address": "漳州市-云霄县-天窗坪", "image": "", "rank": 40, "time": 2, "location": {"lat": 23.885426249072726, "lng": 117.32790084970954}, "feature": {"sight_features": "", "sight_content": ""}}]}