{"cityName": "云县", "days": 2, "cityImage": "", "spots": [{"title": "小淘气游乐园", "address": "爱华镇滨河东路", "image": "", "rank": 1, "time": 2, "location": {"lat": 24.450982126878934, "lng": 100.14505652836492}, "feature": {"sight_features": "", "sight_content": ""}}, {"title": "云县图书馆", "address": "云兴商业街", "image": "", "rank": 2, "time": 1.5, "location": {"lat": 24.45103112157446, "lng": 100.13852811732755}, "feature": {"sight_features": "", "sight_content": ""}}, {"title": "保石洞寺", "address": "云南省凤庆县洛党乡箐头村 675900", "image": "", "rank": 3, "time": 2, "location": {"lat": 24.489593231501797, "lng": 100.04952009800277}, "feature": {"sight_features": "", "sight_content": ""}}, {"title": "洛克故居", "address": "云南省玉龙纳西族自治县东大街1号 674100", "image": "", "rank": 4, "time": 0.75, "location": {"lat": 26.876549693567064, "lng": 100.24231202352331}, "feature": {"sight_features": "", "sight_content": ""}}, {"title": "回龙寺", "address": "临沧市云县月牙地--鱼塘垭口", "image": "", "rank": 5, "time": 0.5, "location": {"lat": 24.57258056915488, "lng": 100.23163245828499}, "feature": {"sight_features": "", "sight_content": ""}}, {"title": "星期六儿童乐园", "address": "云南省临沧市云县草皮街118", "image": "", "rank": 6, "time": 2, "location": {"lat": 24.44444090689714, "lng": 100.1473660718303}, "feature": {"sight_features": "", "sight_content": ""}}, {"title": "云州古街", "address": "临沧市云县河滨东路上段", "image": "", "rank": 7, "time": 2, "location": {"lat": 24.449650723838452, "lng": 100.1428534969838}, "feature": {"sight_features": "", "sight_content": ""}}, {"title": "天成广场", "address": "临沧市云县草皮街99号", "image": "", "rank": 8, "time": 2, "location": {"lat": 24.44471502207434, "lng": 100.14976593721978}, "feature": {"sight_features": "", "sight_content": ""}}, {"title": "云海阳光广场", "address": "云南省临沧市云县爱华镇滨河西路国税局附近(云县公安局南)", "image": "", "rank": 9, "time": 2, "location": {"lat": 24.600826858707034, "lng": 99.91853262459962}, "feature": {"sight_features": "", "sight_content": ""}}, {"title": "三江半岛·时代广场", "address": "滨河东路南100米", "image": "", "rank": 10, "time": 9.0, "location": {"lat": 43.737083611093254, "lng": 127.33738873323531}, "feature": {"sight_features": "", "sight_content": ""}}, {"title": "云雾山庄", "address": "云南省临沧市云县", "image": "", "rank": 11, "time": 2, "location": {"lat": 24.442807275329113, "lng": 100.12953102441054}, "feature": {"sight_features": "", "sight_content": ""}}, {"title": "云州山庄", "address": "临沧市云县312省道附近", "image": "", "rank": 12, "time": 2, "location": {"lat": 24.45758961112086, "lng": 100.1341888283088}, "feature": {"sight_features": "", "sight_content": ""}}, {"title": "澜沧江高峡百里长湖旅游区", "address": "普洱市景东彝族自治县云县漫湾", "image": "", "rank": 13, "time": 2, "location": {"lat": 24.61649111981747, "lng": 100.50622421916124}, "feature": {"sight_features": "", "sight_content": ""}}, {"title": "大老朴温泉山庄", "address": "313省道", "image": "", "rank": 14, "time": 2, "location": {"lat": 40.47363217982258, "lng": 116.99325005466613}, "feature": {"sight_features": "", "sight_content": ""}}, {"title": "天天动漫水世界", "address": "爱华镇吊树根村", "image": "", "rank": 15, "time": 2, "location": {"lat": 24.466103520009263, "lng": 100.10513218439432}, "feature": {"sight_features": "", "sight_content": ""}}, {"title": "三源休闲农庄", "address": "312省道", "image": "", "rank": 16, "time": 2, "location": {"lat": 36.622905905946894, "lng": 114.42321002791304}, "feature": {"sight_features": "", "sight_content": ""}}, {"title": "漫湾百里长湖", "address": "云南省云县漫湾镇", "image": "", "rank": 17, "time": 2, "location": {"lat": 24.66744470018824, "lng": 100.35751593944323}, "feature": {"sight_features": "", "sight_content": ""}}, {"title": "大邦赶", "address": "临沧市-云县-栗丙线", "image": "", "rank": 18, "time": 2, "location": {"lat": 24.442807275329113, "lng": 100.12953102441054}, "feature": {"sight_features": "", "sight_content": ""}}]}