{"cityName": "郧西", "days": 2, "cityImage": "", "spots": [{"title": "五龙河风景区", "address": "十堰市郧西县安家乡五龙河旅游区（银福高速郧西出口18公里百度地图）", "image": "", "rank": 1, "time": 7.5, "location": {"lat": 33.066850210447356, "lng": 110.57469948205323}, "feature": {"sight_features": "特色1 被称为“岭南麓动植物基因库”", "sight_content": "五龙河因孕育道教传说中“五龙捧圣”之五龙而得名。它因五龙而祥瑞、因道仙而扬名、因古猿而神圣、因奇秀而清雅。其山谷之幽深，河水之清澈，群山之奇丽，五龙之美名，仙道之灵气，令人心旷神怡，叹为观止。是当之无愧的休闲度假、科学探险、摄影绘画、吟诗写作、修道养生、返璞归真的人间天堂，素有“中国小九寨”和“纯天然氧吧”之美誉。\n五龙河旅游风景区不仅有神奇秀丽的自然景观，而且有丰厚久远的文化背景。古猿人头骨化石“郧西人”，它的遗址就在五龙河东坡神雾岭白龙洞。他们的生活年代，比闻名世界的北京猿人还要早40万年，仅次于中国目前发现的*早的云南元谋人。而历史文化中的五龙捧圣、封神大战、闻仲归天、老庄问道、商山四皓、织女下凡等传说，更为五龙河增添了神秘飘渺的文化背景。\n五龙河旅游风景区物产丰富，被称为“秦岭南麓动植物基因库”。据不完全调查，全景区共有植物种类达1745种，其中有400多种是名贵珍稀中药材；动物有100多种，其中娃娃鱼、锦鸡鸟更是国家一级保护动物；矿产资源丰富，其中大理石的品质、规模享誉海内外.五龙河旅游风景区由天乐谷、飞龙谷、织女谷、封神谷、忘忧谷五大峡谷组成。每个峡谷都具有自己特别的风景、蕴含自己独有的文化、印证自己独特的传说。"}}, {"title": "龙潭河", "address": "十堰市郧西县羊尾镇龙潭河", "image": "", "rank": 2, "time": 2.5, "location": {"lat": 32.84752492147298, "lng": 110.1872276882453}, "feature": {"sight_features": "特色1 被誉为“汉江画廊”", "sight_content": "龙潭河景区位于湖北省郧西县汉江之滨羊尾镇境内，是国家4A级旅游景区和省级森林公园、地质公园。\n龙潭河集原生态的山、水、瀑、潭、洞、溪为一体，境内茂林修竹，翠碧晶莹。葱岭峻峭，如诗如画；谷壑幽深，若梦若影；溪泉淌露流，飞珠溅玉；瀑布狂泻，震撼山岳；现存的清代古建筑，黛青鸳瓦、金碧辉煌。\n龙潭河景区由汉江沙滩激情区、民俗故居体验区、瀑布奇观探险区、仙道文化养生区四大片区组成。有沙滩沐浴、大龙潭、小龙潭、金娃望杏、龙女出浴、龙宫、银河飞泻、天鹅戏水、苍天回宫、龙潭泻月、鹊桥相会、天光一线、龙泉眼、串龙洞、月老庙、龙王庙、玉皇殿、龙王招婿、谭仙阁、蔡伦造纸、贡爷故居、皇家豆坊等80多处景点景观和参与项目。现景区的古居文化、古风民俗、传统工艺等非常丰富。"}}, {"title": "上津古城", "address": "十堰市郧西县上津镇", "image": "", "rank": 3, "time": 2.5, "location": {"lat": 33.14867064418591, "lng": 110.04971968369533}, "feature": {"sight_features": "", "sight_content": ""}}, {"title": "夹河关", "address": "湖北省十堰市郧西县", "image": "", "rank": 4, "time": 2, "location": {"lat": 32.99916700753649, "lng": 110.43247261847287}, "feature": {"sight_features": "", "sight_content": ""}}, {"title": "郧西天河樱花谷风景区", "address": "郧西县悬鼓路265号", "image": "", "rank": 5, "time": 2.5, "location": {"lat": 32.98305443319738, "lng": 110.42616139794293}, "feature": {"sight_features": "", "sight_content": ""}}, {"title": "悬鼓观", "address": "湖北十堰市郧西县城西南2公里处", "image": "", "rank": 6, "time": 2, "location": {"lat": 32.99916700753649, "lng": 110.43247261847287}, "feature": {"sight_features": "", "sight_content": ""}}, {"title": "天河渔人垂钓俱乐部", "address": "小河东路9附近", "image": "", "rank": 7, "time": 2, "location": {"lat": 35.41135122082882, "lng": 116.59759166228798}, "feature": {"sight_features": "", "sight_content": ""}}, {"title": "留春园", "address": "十堰市郧西县小河东路106号", "image": "", "rank": 8, "time": 2, "location": {"lat": 33.00052066021487, "lng": 110.42861495056201}, "feature": {"sight_features": "", "sight_content": ""}}, {"title": "鲍家祠堂", "address": "十堰市郧西县", "image": "", "rank": 9, "time": 2, "location": {"lat": 32.99916700753649, "lng": 110.43247261847287}, "feature": {"sight_features": "", "sight_content": ""}}, {"title": "郧西影剧院", "address": "康富大道40号", "image": "", "rank": 10, "time": 2.5, "location": {"lat": 32.994060887958454, "lng": 110.43114052123211}, "feature": {"sight_features": "", "sight_content": ""}}, {"title": "鲁卡奇儿童乐园", "address": "西县天河路与城西路交叉口远洋新城负一楼(体育广场西侧)", "image": "", "rank": 11, "time": 2, "location": {"lat": 32.99022390490685, "lng": 110.42627560670886}, "feature": {"sight_features": "", "sight_content": ""}}, {"title": "郧西县革命烈士陵园", "address": "城关镇福银高速公路革命烈士陵园", "image": "", "rank": 12, "time": 2, "location": {"lat": 33.02774864489257, "lng": 110.40226053627302}, "feature": {"sight_features": "", "sight_content": ""}}, {"title": "郧西县天河广场", "address": "湖北省十堰市郧西县城关镇郧西天河景区天河广场", "image": "", "rank": 13, "time": 2, "location": {"lat": 32.99082249965256, "lng": 110.42746222247396}, "feature": {"sight_features": "", "sight_content": ""}}, {"title": "腾达农业观光园", "address": "湖北省十堰市郧西县城关镇四堰坪5组", "image": "", "rank": 14, "time": 2, "location": {"lat": 33.01383634014555, "lng": 110.44215644978573}, "feature": {"sight_features": "", "sight_content": ""}}, {"title": "星期六儿童成长主题乐园", "address": "七夕大道与小河东路交叉口东北角华联超市二楼", "image": "", "rank": 15, "time": 2, "location": {"lat": 32.989530273414786, "lng": 110.42908817431145}, "feature": {"sight_features": "", "sight_content": ""}}, {"title": "郧西剧场", "address": "湖北省十堰市郧西县人民路172", "image": "", "rank": 16, "time": 1.5, "location": {"lat": 32.99866385876592, "lng": 110.43145707331416}, "feature": {"sight_features": "", "sight_content": ""}}, {"title": "科学技术馆", "address": "人民街1号", "image": "", "rank": 17, "time": 2, "location": {"lat": 28.732861878040897, "lng": 115.58021304677796}, "feature": {"sight_features": "", "sight_content": ""}}, {"title": "天人憩农家乐", "address": "天丰路", "image": "", "rank": 18, "time": 2, "location": {"lat": 31.312833778147866, "lng": 121.10344857923207}, "feature": {"sight_features": "", "sight_content": ""}}, {"title": "东方鳄鱼", "address": "城关镇南正街", "image": "", "rank": 19, "time": 2.5, "location": {"lat": 32.997564602082136, "lng": 110.43256172858283}, "feature": {"sight_features": "", "sight_content": ""}}, {"title": "名家画廊", "address": "城关镇城隍街", "image": "", "rank": 20, "time": 2, "location": {"lat": 32.995666204235974, "lng": 110.43888246935455}, "feature": {"sight_features": "", "sight_content": ""}}, {"title": "五龙河", "address": "湖北省十堰市郧西五龙河大峡谷", "image": "", "rank": 21, "time": 7.5, "location": {"lat": 32.99916700753649, "lng": 110.43247261847287}, "feature": {"sight_features": "", "sight_content": ""}}, {"title": "青树凹", "address": "十堰市-郧西县-三零一省道", "image": "", "rank": 22, "time": 2, "location": {"lat": 32.99916700753649, "lng": 110.43247261847287}, "feature": {"sight_features": "", "sight_content": ""}}, {"title": "糖梨沟", "address": "十堰市-郧西县", "image": "", "rank": 23, "time": null, "location": {"lat": 32.99916700753649, "lng": 110.43247261847287}, "feature": {"sight_features": "", "sight_content": ""}}, {"title": "糖梨沟口", "address": "十堰市-郧西县", "image": "", "rank": 24, "time": 2, "location": {"lat": 32.99916700753649, "lng": 110.43247261847287}, "feature": {"sight_features": "", "sight_content": ""}}, {"title": "涧池", "address": "湖北省十堰市郧西县涧池乡政府(两桥路东)", "image": "", "rank": 25, "time": 4.0, "location": {"lat": 32.87251073816458, "lng": 110.3431748452866}, "feature": {"sight_features": "", "sight_content": ""}}]}