{"cityName": "玉屏", "days": 2, "cityImage": "", "spots": [{"title": "茶花泉玉屏现代农业科技展示馆", "address": "铜仁市玉屏侗族自治县朱家场镇茅坡村", "image": "", "rank": 1, "time": 2, "location": {"lat": 27.314791622616337, "lng": 108.93019790209812}, "feature": {"sight_features": "", "sight_content": "玉屏现代农业科技展示馆位朱家场镇茅坡村，分为现代农业展示区、热带植物展示区、热带果树展示区以及创意农业展示区。馆内通过降温系统、加温系统、循环系统、灌溉系统及计算机智能控制系统等现代化智能设备，实现温室内部温度、相对湿度、光照进行调节，在温室内创造出适宜作物生长的环境。馆内多处引用玉屏特色文化元素，馆内构筑物、小品设计多采用钢结构、玻璃、防腐木，同时结合当地侗族民居特色元素，使农业也可以是一种具设计感、时尚感、与室外空间形成鲜明的对比。"}}, {"title": "玉屏侗族自治县图书馆", "address": "东市路", "image": "", "rank": 2, "time": 2, "location": {"lat": 41.819451165453344, "lng": 126.9314694039491}, "feature": {"sight_features": "", "sight_content": ""}}, {"title": "凯乐休闲山庄", "address": "市玉屏侗族自治县大龙镇供电局对面", "image": "", "rank": 3, "time": 2, "location": {"lat": 27.322262252107024, "lng": 109.00844416931521}, "feature": {"sight_features": "", "sight_content": ""}}, {"title": "玉屏风光", "address": "贵州省玉屏侗族自治县湘黔铁路玉屏站 554001", "image": "", "rank": 4, "time": 1.5, "location": {"lat": 27.244628108314572, "lng": 108.93986596275626}, "feature": {"sight_features": "", "sight_content": ""}}, {"title": "大龙开发区规划展馆", "address": "铜仁市玉屏侗族自治县", "image": "", "rank": 5, "time": 2, "location": {"lat": 27.248557881455984, "lng": 108.92056352699828}, "feature": {"sight_features": "", "sight_content": ""}}, {"title": "滨江公园", "address": "835县道附近", "image": "", "rank": 6, "time": 3.5, "location": {"lat": 27.372146438228352, "lng": 108.94486008594919}, "feature": {"sight_features": "", "sight_content": ""}}, {"title": "玉屏侗族自治县商务中心", "address": "贵州省玉屏侗族自治县中山路124号", "image": "", "rank": 7, "time": 2, "location": {"lat": 27.244739739094808, "lng": 108.9234896074785}, "feature": {"sight_features": "", "sight_content": ""}}, {"title": "汉泥垅", "address": "铜仁市-玉屏侗族自治县", "image": "", "rank": 8, "time": 2, "location": {"lat": 27.248557881455984, "lng": 108.92056352699828}, "feature": {"sight_features": "", "sight_content": ""}}]}