{"cityName": "余庆", "days": 2, "cityImage": "", "spots": [{"title": "飞龙湖", "address": "遵义市余庆县樱桃井附近", "image": "", "rank": 1, "time": 1.0, "location": {"lat": 27.275546581713506, "lng": 107.55641895287128}, "feature": {"sight_features": "", "sight_content": ""}}, {"title": "大乌江风景名胜区", "address": "遵义市余庆县大乌江镇", "image": "", "rank": 2, "time": 2, "location": {"lat": 27.425156618042593, "lng": 107.71363511461388}, "feature": {"sight_features": "", "sight_content": ""}}, {"title": "红渡景区", "address": "遵义市余庆县大乌江镇红渡村", "image": "", "rank": 3, "time": 2, "location": {"lat": 27.37873680498206, "lng": 107.71579496804236}, "feature": {"sight_features": "", "sight_content": ""}}, {"title": "红军强渡乌江指挥部旧址", "address": "遵义市余庆县大乌江镇红渡村回龙场", "image": "", "rank": 4, "time": 0.5, "location": {"lat": 27.37873680498206, "lng": 107.71579496804236}, "feature": {"sight_features": "", "sight_content": ""}}, {"title": "都市第三地生态园", "address": "遵义市余庆县县城内", "image": "", "rank": 5, "time": 2, "location": {"lat": 27.221379027996527, "lng": 107.91146020727803}, "feature": {"sight_features": "", "sight_content": ""}}, {"title": "二龙茶场", "address": "遵义市余庆县松烟镇二龙村", "image": "", "rank": 6, "time": 2, "location": {"lat": 27.65403344595103, "lng": 107.6080170715844}, "feature": {"sight_features": "", "sight_content": ""}}, {"title": "河滨广场", "address": "河滨南路与204省道交叉口东50米", "image": "", "rank": 7, "time": 2, "location": {"lat": 27.221391797588602, "lng": 107.91518718700715}, "feature": {"sight_features": "", "sight_content": ""}}, {"title": "玉笏山公园", "address": "希望路东50米", "image": "", "rank": 8, "time": 2, "location": {"lat": 40.180175608433366, "lng": 117.02638818650532}, "feature": {"sight_features": "", "sight_content": ""}}, {"title": "凤冈超越画室儿童乐园", "address": "河滨南路附近", "image": "", "rank": 9, "time": 2, "location": {"lat": 31.84268210438009, "lng": 119.69933641354848}, "feature": {"sight_features": "", "sight_content": ""}}, {"title": "余庆县图书馆", "address": "中华中路98号", "image": "", "rank": 10, "time": 2, "location": {"lat": 26.587229200428496, "lng": 106.7193842946483}, "feature": {"sight_features": "", "sight_content": ""}}, {"title": "余庆影剧院", "address": "白泥镇中华中路155号电影院旁欧罗巴鞋店", "image": "", "rank": 11, "time": 2, "location": {"lat": 27.225568458448272, "lng": 107.9010941506626}, "feature": {"sight_features": "", "sight_content": ""}}, {"title": "香港金鳄鱼", "address": "构中路与022县道交叉口东南200米", "image": "", "rank": 12, "time": 1.5, "location": {"lat": 23.494386671660774, "lng": 116.51093198121578}, "feature": {"sight_features": "", "sight_content": ""}}, {"title": "蚂蟥坪", "address": "遵义市-余庆县", "image": "", "rank": 13, "time": null, "location": {"lat": 27.221379027996527, "lng": 107.91146020727803}, "feature": {"sight_features": "", "sight_content": ""}}, {"title": "蚂蟥田", "address": "遵义市-余庆县", "image": "", "rank": 14, "time": 2, "location": {"lat": 27.221379027996527, "lng": 107.91146020727803}, "feature": {"sight_features": "", "sight_content": ""}}, {"title": "余庆廻龙溪风景区", "address": "遵义余庆县", "image": "", "rank": 15, "time": null, "location": {"lat": 27.221379027996527, "lng": 107.91146020727803}, "feature": {"sight_features": "", "sight_content": ""}}]}