{"cityName": "榆树", "days": null, "cityImage": "", "spots": [{"title": "青鼎山", "address": "长春市榆树市青顶医院附近", "image": "", "rank": 1, "time": 1.5, "location": {"lat": 44.77287863704551, "lng": 126.77054648148464}, "feature": {"sight_features": "", "sight_content": ""}}, {"title": "五棵树沿江旅游区", "address": "长春市榆树市五棵树镇南1.5公里的松花江畔", "image": "", "rank": 2, "time": 1.5, "location": {"lat": 44.58291260101124, "lng": 126.3788470220992}, "feature": {"sight_features": "", "sight_content": ""}}, {"title": "花园山旅游区", "address": "长春市榆树市土桥镇东南部", "image": "", "rank": 3, "time": 1.5, "location": {"lat": 44.71269078404057, "lng": 126.95778306211709}, "feature": {"sight_features": "", "sight_content": ""}}, {"title": "雷劈山旅游区", "address": "榆树市大岭镇北部兴农村", "image": "", "rank": 4, "time": 1.5, "location": {"lat": 45.172529070302204, "lng": 126.66148252429649}, "feature": {"sight_features": "", "sight_content": ""}}, {"title": "榆树市博物馆", "address": "三盛路", "image": "", "rank": 5, "time": 2.5, "location": {"lat": 44.836032772692526, "lng": 126.55021214784567}, "feature": {"sight_features": "", "sight_content": ""}}, {"title": "榆树市书画院", "address": "榆西大街", "image": "", "rank": 6, "time": 1.0, "location": {"lat": 44.83055732810295, "lng": 126.54251656037228}, "feature": {"sight_features": "", "sight_content": ""}}, {"title": "小乡展览馆", "address": "六家村", "image": "", "rank": 7, "time": 2, "location": {"lat": 38.36337484956154, "lng": 114.9832218529219}, "feature": {"sight_features": "", "sight_content": ""}}, {"title": "景野花卉基地", "address": "第二实验中学附近", "image": "", "rank": 8, "time": 2, "location": {"lat": 37.76049088269411, "lng": 114.52362798160057}, "feature": {"sight_features": "", "sight_content": ""}}, {"title": "龙德山庄", "address": "土桥镇亮营", "image": "", "rank": 9, "time": 2, "location": {"lat": 44.71269078404057, "lng": 126.95778306211709}, "feature": {"sight_features": "", "sight_content": ""}}, {"title": "佰金大戏院", "address": "健康路1号", "image": "", "rank": 10, "time": 2, "location": {"lat": 39.48590686259792, "lng": 115.99754186213984}, "feature": {"sight_features": "", "sight_content": ""}}, {"title": "市府广场", "address": "榆树市政府前", "image": "", "rank": 11, "time": 0.75, "location": {"lat": 44.84456911872754, "lng": 126.53972008501462}, "feature": {"sight_features": "", "sight_content": ""}}, {"title": "环城乡西良基督教会", "address": "吉林省长春市榆树市环城乡西良小学西200米", "image": "", "rank": 12, "time": 2, "location": {"lat": 44.88504753887445, "lng": 126.4695970328034}, "feature": {"sight_features": "", "sight_content": ""}}, {"title": "榆树沙玛基督教会", "address": "市场街榆树商业步行街路口附近", "image": "", "rank": 13, "time": 2, "location": {"lat": 44.83052429742019, "lng": 126.56690055050818}, "feature": {"sight_features": "", "sight_content": ""}}, {"title": "榆树天主教堂", "address": "富裕路与光荣路交叉口东南200米", "image": "", "rank": 14, "time": 2.0, "location": {"lat": 44.830259160782134, "lng": 126.5474463720788}, "feature": {"sight_features": "", "sight_content": ""}}, {"title": "榆树市回族烈士墓", "address": "历家窝棚", "image": "", "rank": 15, "time": 2, "location": {"lat": 44.82647413442355, "lng": 126.58849032093157}, "feature": {"sight_features": "", "sight_content": ""}}, {"title": "哆啦A梦儿童乐园", "address": "工农大街附近", "image": "", "rank": 16, "time": 2, "location": {"lat": 37.605997144798565, "lng": 114.60847469140866}, "feature": {"sight_features": "", "sight_content": ""}}, {"title": "新发基督教会", "address": "吉林省长春市榆树市青山乡新发小学附近", "image": "", "rank": 17, "time": 1.5, "location": {"lat": 45.05699456792727, "lng": 126.92826532894146}, "feature": {"sight_features": "", "sight_content": ""}}, {"title": "榆树市富岭冰雪乐园", "address": "吉林省长春市榆树市秀水镇富岭村", "image": "", "rank": 18, "time": 2, "location": {"lat": 44.70624757739176, "lng": 126.51149534745045}, "feature": {"sight_features": "", "sight_content": ""}}, {"title": "烈士陵园", "address": "迎宾路90号", "image": "", "rank": 19, "time": 2, "location": {"lat": 40.4185324092602, "lng": 116.35428286070578}, "feature": {"sight_features": "", "sight_content": ""}}, {"title": "西部新城水景公园", "address": "吉林省长春市榆树市隆兴路", "image": "", "rank": 20, "time": 2, "location": {"lat": 44.84543972769254, "lng": 126.53960936347069}, "feature": {"sight_features": "", "sight_content": ""}}, {"title": "吉海休闲度假村", "address": "长春近郊近榆陶公路", "image": "", "rank": 21, "time": 2, "location": {"lat": 44.816321227111246, "lng": 126.23852624333637}, "feature": {"sight_features": "", "sight_content": ""}}, {"title": "玉玄宫", "address": "紫御华府北门左侧", "image": "", "rank": 22, "time": 2, "location": {"lat": 27.557316773617035, "lng": 115.16470695181968}, "feature": {"sight_features": "", "sight_content": ""}}, {"title": "榆树影剧院", "address": "吉林省长春市榆树市向阳路289号", "image": "", "rank": 23, "time": 2.0, "location": {"lat": 44.828861272607014, "lng": 126.55547669513436}, "feature": {"sight_features": "", "sight_content": ""}}, {"title": "元利农家院", "address": "同心路243号", "image": "", "rank": 24, "time": 2, "location": {"lat": 45.14038966104648, "lng": 126.42914697097504}, "feature": {"sight_features": "", "sight_content": ""}}, {"title": "吉林农业博物馆", "address": "三盛路北50米农业博物馆", "image": "", "rank": 25, "time": 4.5, "location": {"lat": 44.840263996015686, "lng": 126.534103725356}, "feature": {"sight_features": "", "sight_content": ""}}, {"title": "禾丰米业股份有限公司城发绿色食...", "address": "029乡道附近", "image": "", "rank": 26, "time": 2, "location": {"lat": 31.686081170072438, "lng": 118.75696665396602}, "feature": {"sight_features": "", "sight_content": ""}}, {"title": "二人转剧场", "address": "五棵树大街", "image": "", "rank": 27, "time": 2, "location": {"lat": 44.80403394974596, "lng": 126.15814857918618}, "feature": {"sight_features": "", "sight_content": ""}}, {"title": "建华商业街", "address": "吉林省榆树市建华路", "image": "", "rank": 28, "time": 2, "location": {"lat": 44.83051365416488, "lng": 126.56052577486345}, "feature": {"sight_features": "", "sight_content": ""}}, {"title": "榆树商业步行街", "address": "吉林省榆树市市场街", "image": "", "rank": 29, "time": 2, "location": {"lat": 44.83199260276199, "lng": 126.56746583080968}, "feature": {"sight_features": "", "sight_content": ""}}, {"title": "湛江寺", "address": "吉林省长春市榆树市西32 公里", "image": "", "rank": 30, "time": 2, "location": {"lat": 44.84543972769254, "lng": 126.25215160027774}, "feature": {"sight_features": "", "sight_content": ""}}]}