{"cityName": "玉树", "days": "", "cityImage": "", "spots": [{"title": "可可西里自然保护区", "address": "海西藏族自治州曲麻莱县格尔木市", "image": "", "rank": 1, "time": 4.0, "location": {"lat": 36.41237104695386, "lng": 94.93331021042529}, "feature": {"sight_features": "", "sight_content": ""}}, {"title": "文成公主庙", "address": "青海省玉树县结古镇东南", "image": "", "rank": 2, "time": 2.5, "location": {"lat": 33.00743495768875, "lng": 96.98506299183599}, "feature": {"sight_features": "", "sight_content": ""}}, {"title": "结古寺", "address": "玉树藏族自治州玉树县结古镇", "image": "", "rank": 3, "time": 1.0, "location": {"lat": 33.00743495768875, "lng": 96.98506299183599}, "feature": {"sight_features": "", "sight_content": ""}}, {"title": "唐蕃古道", "address": "玉树县境内，唐蕃古道的走向和沿线所经站点与青康公路基本一致", "image": "", "rank": 4, "time": 1.0, "location": {"lat": 32.92269390860562, "lng": 96.6721195275255}, "feature": {"sight_features": "", "sight_content": ""}}, {"title": "通天河", "address": "玉树藏族自治州玉树市", "image": "", "rank": 5, "time": 1.0, "location": {"lat": 32.99955565088557, "lng": 97.01537640110074}, "feature": {"sight_features": "", "sight_content": ""}}, {"title": "尕尔寺", "address": "玉树市囊谦县白扎乡巴麦村", "image": "", "rank": 6, "time": 1.0, "location": {"lat": 31.767688681229693, "lng": 96.64209515829836}, "feature": {"sight_features": "", "sight_content": ""}}, {"title": "三江源自然保护区", "address": "玉树藏族自治州称多县214国道西100米", "image": "", "rank": 7, "time": 1.0, "location": {"lat": 34.03396984481442, "lng": 97.5535894101127}, "feature": {"sight_features": "", "sight_content": ""}}, {"title": "当卡寺", "address": "玉树县结古镇代格村（结古镇东面约十公里）。", "image": "", "rank": 8, "time": 1.0, "location": {"lat": 33.00743495768875, "lng": 96.98506299183599}, "feature": {"sight_features": "", "sight_content": ""}}, {"title": "长江源头", "address": "玉树县格拉丹东大冰峰", "image": "", "rank": 9, "time": 1.0, "location": {"lat": 32.576840729730286, "lng": 97.21823934294382}, "feature": {"sight_features": "", "sight_content": ""}}, {"title": "索南达杰保护站", "address": "玉树藏族自治州治多县109国道旁", "image": "", "rank": 10, "time": 2.5, "location": {"lat": 34.622796159826876, "lng": 92.8092215574847}, "feature": {"sight_features": "", "sight_content": ""}}, {"title": "新寨玛尼城（嘉那玛尼堆）", "address": "玉树市结古镇以东9公里的新寨村", "image": "", "rank": 11, "time": 1.0, "location": {"lat": 32.99955565088557, "lng": 97.01537640110074}, "feature": {"sight_features": "", "sight_content": ""}}, {"title": "勒巴沟岩画", "address": "", "image": "", "rank": 12, "time": 1.0, "location": {"lat": 29.45199760853414, "lng": 97.94182172956796}, "feature": {"sight_features": "", "sight_content": ""}}, {"title": "澜沧江源头", "address": "", "image": "", "rank": 13, "time": 1.0, "location": {"lat": 24.853658866841272, "lng": 99.82700834554217}, "feature": {"sight_features": "", "sight_content": ""}}, {"title": "达那寺", "address": "玉树市囊谦县吉尼赛乡", "image": "", "rank": 14, "time": 1.0, "location": {"lat": 32.070065581547794, "lng": 96.01106460580685}, "feature": {"sight_features": "", "sight_content": ""}}, {"title": "可可西里藏羚羊观景台", "address": "青海玉树藏族自治州可可西里", "image": "", "rank": 15, "time": 2, "location": {"lat": 33.01097958514274, "lng": 97.01318076277326}, "feature": {"sight_features": "", "sight_content": ""}}, {"title": "隆宝滩自然保护区", "address": "玉树州首府结古镇西北约八十公里的结隆乡", "image": "", "rank": 16, "time": 1.0, "location": {"lat": 33.00743495768875, "lng": 96.98506299183599}, "feature": {"sight_features": "", "sight_content": ""}}, {"title": "巴塘天葬台", "address": "玉树市结古镇20多公里的文成公主庙的东南山坡上", "image": "", "rank": 17, "time": 1.0, "location": {"lat": 32.90128999343049, "lng": 97.08290207209936}, "feature": {"sight_features": "", "sight_content": ""}}, {"title": "嘎尔寺", "address": "玉树市囊谦县香达镇70公里的白扎多境内", "image": "", "rank": 18, "time": 1.0, "location": {"lat": 32.21004675825097, "lng": 96.48207013980132}, "feature": {"sight_features": "", "sight_content": ""}}, {"title": "结古镇", "address": "青海省玉树藏族自治州玉树市", "image": "", "rank": 19, "time": 2, "location": {"lat": 32.99955565088557, "lng": 97.01537640110074}, "feature": {"sight_features": "", "sight_content": ""}}, {"title": "可可西里自然保护区不冻泉", "address": "玉树藏族自治州可可西里国家级自然保护区109国道北50米", "image": "", "rank": 20, "time": 1.0, "location": {"lat": 35.64528105824346, "lng": 94.07336198640118}, "feature": {"sight_features": "", "sight_content": ""}}, {"title": "唐僧晒经台", "address": "玉树直门达通天河大桥旁", "image": "", "rank": 21, "time": 1.0, "location": {"lat": 33.01265314732298, "lng": 97.25871236205175}, "feature": {"sight_features": "", "sight_content": ""}}, {"title": "格萨尔王登基台", "address": "玉树州曲玛莱县麻多乡扎加滩", "image": "", "rank": 22, "time": 1.5, "location": {"lat": 35.031480242309094, "lng": 96.3803887373801}, "feature": {"sight_features": "", "sight_content": ""}}, {"title": "藏娘古塔", "address": "玉树市玉树县仲达乡", "image": "", "rank": 23, "time": 1.0, "location": {"lat": 33.1765448303301, "lng": 96.9355773490041}, "feature": {"sight_features": "", "sight_content": ""}}, {"title": "尕朵觉卧神山", "address": "榆树市称多县尕朵乡境内", "image": "", "rank": 24, "time": 1.0, "location": {"lat": 33.67880339258062, "lng": 96.70512401432086}, "feature": {"sight_features": "", "sight_content": ""}}, {"title": "贡萨寺", "address": "治多县嘉吉阿尼噶宝山坡上", "image": "", "rank": 25, "time": 1.0, "location": {"lat": 33.85795326771854, "lng": 95.61979357436996}, "feature": {"sight_features": "", "sight_content": ""}}, {"title": "班庆寺", "address": "玉树市巴塘乡政府所在地", "image": "", "rank": 26, "time": 2, "location": {"lat": 32.73255004935172, "lng": 97.16246163055719}, "feature": {"sight_features": "", "sight_content": ""}}, {"title": "格萨尔遗迹", "address": "玉树市治多县", "image": "", "rank": 27, "time": null, "location": {"lat": 32.99955565088557, "lng": 97.01537640110074}, "feature": {"sight_features": "", "sight_content": ""}}, {"title": "桑周寺", "address": "玉树市玉树县仲达乡", "image": "", "rank": 28, "time": 1.0, "location": {"lat": 33.1765448303301, "lng": 96.9355773490041}, "feature": {"sight_features": "", "sight_content": ""}}, {"title": "泞吉湖", "address": "玉树县结古镇上拉秀乡境内", "image": "", "rank": 29, "time": 1.0, "location": {"lat": 32.857179194400956, "lng": 96.5896879932869}, "feature": {"sight_features": "", "sight_content": ""}}, {"title": "尕藏寺", "address": "", "image": "", "rank": 30, "time": 1.0, "location": {"lat": 34.838538724099706, "lng": 103.62383213345677}, "feature": {"sight_features": "", "sight_content": ""}}, {"title": "吉然寺", "address": "", "image": "", "rank": 31, "time": 1.0, "location": {"lat": 32.84737881706986, "lng": 97.1548502789881}, "feature": {"sight_features": "", "sight_content": ""}}, {"title": "格萨尔王广场", "address": "青海省玉树藏族自治州玉树市胜利路42号-44号", "image": "", "rank": 32, "time": 2, "location": {"lat": 33.00560165597454, "lng": 97.01637223264558}, "feature": {"sight_features": "", "sight_content": ""}}, {"title": "囊谦县然察大峡谷", "address": "玉树市囊谦县吉尼赛乡境内", "image": "", "rank": 33, "time": 1.0, "location": {"lat": 32.070065581547794, "lng": 96.01106460580685}, "feature": {"sight_features": "", "sight_content": ""}}, {"title": "玉树草原", "address": "青海省西南青藏高原腹地的三江源头", "image": "", "rank": 34, "time": 10.5, "location": {"lat": 36.62715857923451, "lng": 101.78646183586761}, "feature": {"sight_features": "", "sight_content": ""}}, {"title": "玉树禅古寺", "address": "青海省玉树市结古镇禅古村(镇南4公里处)", "image": "", "rank": 35, "time": 4.0, "location": {"lat": 33.00743495768875, "lng": 96.98506299183599}, "feature": {"sight_features": "", "sight_content": ""}}, {"title": "玉树地震灾后重建展览馆", "address": "青海省玉树藏族自治州玉树市胜利路", "image": "", "rank": 36, "time": 4.0, "location": {"lat": 33.005835551686616, "lng": 97.0157356334742}, "feature": {"sight_features": "", "sight_content": ""}}, {"title": "公主乐园", "address": "214国道", "image": "", "rank": 37, "time": 2, "location": {"lat": 28.319159428535947, "lng": 99.13023574560108}, "feature": {"sight_features": "", "sight_content": ""}}, {"title": "巴颜喀拉牦牛乳业综合开发基地", "address": "214国道附近", "image": "", "rank": 38, "time": 2, "location": {"lat": 28.319159428535947, "lng": 99.13023574560108}, "feature": {"sight_features": "", "sight_content": ""}}, {"title": "玉树州图书馆", "address": "格萨路与胜利路交叉口西北50米", "image": "", "rank": 39, "time": 2, "location": {"lat": 33.007047777032625, "lng": 97.01322704347312}, "feature": {"sight_features": "", "sight_content": ""}}, {"title": "天下足球", "address": "红卫路西50米", "image": "", "rank": 40, "time": 2, "location": {"lat": 44.92730046209972, "lng": 127.15702587946686}, "feature": {"sight_features": "", "sight_content": ""}}, {"title": "藏娘佛塔及桑周寺", "address": "青海省玉树县仲达乡 815000", "image": "", "rank": 41, "time": 1.5, "location": {"lat": 33.204758414801454, "lng": 97.03945287520972}, "feature": {"sight_features": "", "sight_content": ""}}, {"title": "禅古度假村", "address": "214国道附近", "image": "", "rank": 42, "time": 2, "location": {"lat": 28.319159428535947, "lng": 99.13023574560108}, "feature": {"sight_features": "", "sight_content": ""}}, {"title": "雪域使者度假村", "address": "扎西科路540号", "image": "", "rank": 43, "time": 2, "location": {"lat": 33.01120211301008, "lng": 96.97266008765972}, "feature": {"sight_features": "", "sight_content": ""}}, {"title": "香巴拉度假村", "address": "214国道热水沟公路路口附近", "image": "", "rank": 44, "time": 2, "location": {"lat": 32.786261383156244, "lng": 97.0752636447039}, "feature": {"sight_features": "", "sight_content": ""}}, {"title": "尕朵觉悟雪山", "address": "青海省称多县杂朵镇 815100", "image": "", "rank": 45, "time": 2, "location": {"lat": 33.37422569894356, "lng": 97.11500000927667}, "feature": {"sight_features": "", "sight_content": ""}}, {"title": "拉斯通古藏村旅游景区", "address": "青海省称多县", "image": "", "rank": 46, "time": 2, "location": {"lat": 33.37422569894356, "lng": 97.11500000927667}, "feature": {"sight_features": "", "sight_content": ""}}, {"title": "巴塘热水沟", "address": "青海省玉树县巴塘乡 815000", "image": "", "rank": 47, "time": 2.5, "location": {"lat": 32.84233272341681, "lng": 97.15779750617983}, "feature": {"sight_features": "", "sight_content": ""}}, {"title": "乔美博物馆", "address": "青海省玉树藏族自治州囊谦县G214(西景线)", "image": "", "rank": 48, "time": 2, "location": {"lat": 32.209194368698284, "lng": 96.48691827128273}, "feature": {"sight_features": "", "sight_content": ""}}, {"title": "甘珠尔石刻经文城", "address": "治多县江庆村境内村东头", "image": "", "rank": 49, "time": 2, "location": {"lat": 34.21602636909296, "lng": 95.42488085368012}, "feature": {"sight_features": "", "sight_content": ""}}, {"title": "土登寺", "address": "青海省玉树藏族自治州称多县", "image": "", "rank": 50, "time": 2, "location": {"lat": 33.37422569894356, "lng": 97.11500000927667}, "feature": {"sight_features": "", "sight_content": ""}}, {"title": "翡翠公园", "address": "玉树藏族自治州称多县", "image": "", "rank": 51, "time": 2, "location": {"lat": 33.37422569894356, "lng": 97.11500000927667}, "feature": {"sight_features": "", "sight_content": ""}}, {"title": "尕朵觉悟", "address": "玉树藏族自治州称多县尕朵乡", "image": "", "rank": 52, "time": 2, "location": {"lat": 33.67880339258062, "lng": 96.70512401432086}, "feature": {"sight_features": "", "sight_content": ""}}, {"title": "尼宗寺", "address": "214国道西50米", "image": "", "rank": 53, "time": 2, "location": {"lat": 28.319159428535947, "lng": 99.12978659284624}, "feature": {"sight_features": "", "sight_content": ""}}, {"title": "烈士陵园", "address": "玉树藏族自治州玉树市", "image": "", "rank": 54, "time": 2, "location": {"lat": 32.99955565088557, "lng": 97.01537640110074}, "feature": {"sight_features": "", "sight_content": ""}}, {"title": "格萨尔王北大营度假村", "address": "文成公主庙沟口禅古寺", "image": "", "rank": 55, "time": 2, "location": {"lat": 34.29930198744647, "lng": 108.96637128208944}, "feature": {"sight_features": "", "sight_content": ""}}, {"title": "治多县烟瘴挂大峡谷", "address": "曲麻莱县莫曲村附近", "image": "", "rank": 56, "time": 2, "location": {"lat": 34.13229866699674, "lng": 95.80375001399207}, "feature": {"sight_features": "", "sight_content": ""}}, {"title": "曲麻莱县革命公墓", "address": "玉树县黄河路71号", "image": "", "rank": 57, "time": 2, "location": {"lat": 32.92269390860562, "lng": 96.6721195275255}, "feature": {"sight_features": "", "sight_content": ""}}, {"title": "藏娘佛塔及桑周寺", "address": "青海省玉树藏族自治州玉树市", "image": "", "rank": 58, "time": 1.5, "location": {"lat": 32.99955565088557, "lng": 97.01537640110074}, "feature": {"sight_features": "", "sight_content": ""}}, {"title": "囊谦县图书馆", "address": "香达南街", "image": "", "rank": 59, "time": 2, "location": {"lat": 32.205213748565306, "lng": 96.48442097118533}, "feature": {"sight_features": "", "sight_content": ""}}, {"title": "曲麻莱县图书馆", "address": "黄河路53-1", "image": "", "rank": 60, "time": 2, "location": {"lat": 34.946116636070705, "lng": 113.08782493150866}, "feature": {"sight_features": "", "sight_content": ""}}]}