{"cityName": "榆社", "days": 2, "cityImage": "", "spots": [{"title": "云竹湖", "address": "晋中市榆社县云竹镇云竹湖", "image": "", "rank": 1, "time": 2.5, "location": {"lat": 37.05338329512264, "lng": 112.82893866078979}, "feature": {"sight_features": "", "sight_content": ""}}, {"title": "史前生命文化博览园", "address": "晋中市榆社县郝北镇赵家村", "image": "", "rank": 2, "time": 7.5, "location": {"lat": 36.9198958920006, "lng": 112.93969255450565}, "feature": {"sight_features": "", "sight_content": ""}}, {"title": "崇圣寺", "address": "中国山西省晋中市榆社县河峪乡上赤峪禅隐山崇圣寺", "image": "", "rank": 3, "time": 2.5, "location": {"lat": 37.1169100031018, "lng": 112.79101205483641}, "feature": {"sight_features": "", "sight_content": ""}}, {"title": "榆社云湖度假村", "address": "晋中榆社县其他云竹村水库", "image": "", "rank": 4, "time": 2.5, "location": {"lat": 37.053655374477266, "lng": 112.82351167650894}, "feature": {"sight_features": "", "sight_content": ""}}, {"title": "响堂寺石窟", "address": "城西南五公里的庙岭山", "image": "", "rank": 5, "time": 7.5, "location": {"lat": 36.59828759801125, "lng": 101.77241422413312}, "feature": {"sight_features": "", "sight_content": ""}}, {"title": "榆社县洋山生态园", "address": "社城镇双峰村", "image": "", "rank": 6, "time": 2, "location": {"lat": 37.234449835321016, "lng": 112.9650971831925}, "feature": {"sight_features": "", "sight_content": ""}}, {"title": "云竹湖休闲垂钓园", "address": "云簇镇云竹湖休闲垂钓园", "image": "", "rank": 7, "time": 2, "location": {"lat": 37.05633986064112, "lng": 112.79941714735753}, "feature": {"sight_features": "", "sight_content": ""}}, {"title": "鞋都广场", "address": "山西省晋中市榆社县裕丰街25", "image": "", "rank": 8, "time": 2, "location": {"lat": 37.071601255944834, "lng": 112.97930465288401}, "feature": {"sight_features": "", "sight_content": ""}}, {"title": "滨河游乐场", "address": "漳源大道附近", "image": "", "rank": 9, "time": 2, "location": {"lat": 37.06663291055199, "lng": 112.96878030585124}, "feature": {"sight_features": "", "sight_content": ""}}, {"title": "水木恬园", "address": "其他榆社云竹镇向阳村", "image": "", "rank": 10, "time": 2, "location": {"lat": 37.054626926893754, "lng": 112.77384641749036}, "feature": {"sight_features": "", "sight_content": ""}}, {"title": "古地质博物馆", "address": "迎春南路与迎春北路交叉口", "image": "", "rank": 11, "time": 2, "location": {"lat": 28.603258020201054, "lng": 112.33736595969314}, "feature": {"sight_features": "", "sight_content": ""}}, {"title": "福祥寺", "address": "山西省晋中市榆次区岩良村", "image": "", "rank": 12, "time": 2, "location": {"lat": 37.703940486801216, "lng": 112.71450350211099}, "feature": {"sight_features": "", "sight_content": ""}}, {"title": "晋中禅山寺", "address": "山西省榆社县城西", "image": "", "rank": 13, "time": 6.0, "location": {"lat": 37.07636966870016, "lng": 112.98159856583429}, "feature": {"sight_features": "", "sight_content": ""}}, {"title": "黑芽沟", "address": "晋中市-榆社县-一零二省道", "image": "", "rank": 14, "time": 2, "location": {"lat": 37.07636966870016, "lng": 112.98159856583429}, "feature": {"sight_features": "", "sight_content": ""}}]}