{"cityName": "玉山", "days": 2, "cityImage": "", "spots": [{"title": "三清山外双溪索道", "address": "上饶市玉山县三清山外双溪服务区游客服务中心", "image": "", "rank": 1, "time": null, "location": {"lat": 28.908486461403648, "lng": 118.07738723326437}, "feature": {"sight_features": "", "sight_content": ""}}, {"title": "欧月庄园滑草场", "address": "上饶市玉山县双明镇窑山欧月庄园", "image": "", "rank": 2, "time": 2, "location": {"lat": 28.85094837874796, "lng": 118.26329250710351}, "feature": {"sight_features": "", "sight_content": ""}}, {"title": "漏底村", "address": "玉山县双明镇漏底村", "image": "", "rank": 3, "time": 2, "location": {"lat": 28.806368901104044, "lng": 118.2281939690259}, "feature": {"sight_features": "", "sight_content": ""}}, {"title": "三清山360°极限飞球", "address": "上饶市玉山县三清乡三清山金沙服务区广场", "image": "", "rank": 4, "time": 4.5, "location": {"lat": 28.929582642871896, "lng": 118.10087519508701}, "feature": {"sight_features": "", "sight_content": ""}}, {"title": "九洲影院", "address": "玉山县玉华路", "image": "", "rank": 5, "time": 2, "location": {"lat": 28.69016316433282, "lng": 118.25201743268521}, "feature": {"sight_features": "", "sight_content": ""}}, {"title": "梵雅瑜伽会所", "address": "玉山县三清大道炜达广场", "image": "", "rank": 6, "time": 2, "location": {"lat": 28.68224530454175, "lng": 118.24904673636469}, "feature": {"sight_features": "", "sight_content": ""}}, {"title": "方志敏清贫事迹陈列馆", "address": "中国工农红军北上抗日先遣队纪念馆附近", "image": "", "rank": 7, "time": 2, "location": {"lat": 28.89485290482545, "lng": 117.97732774752535}, "feature": {"sight_features": "", "sight_content": ""}}, {"title": "三清湖风景区", "address": "上饶市玉山县城东北面的双明镇", "image": "", "rank": 8, "time": 1.0, "location": {"lat": 28.85094837874796, "lng": 118.26329250710351}, "feature": {"sight_features": "特色1 环境清幽，美若西子，是旅游娱乐、休闲度假的胜地。", "sight_content": "玉山县三清湖位于信江上游，地处国家级著名风景名胜区三清山脚下，大坝筑在双明镇，离县城12公里。三清湖截信江之源的金沙溪而成，湖面形状宛如一条逶迤的玉龙，龙头东临与浙江界毗邻的茗坞，龙尾西至三清山深处的张岭。三清湖水利风景区的水体景观众多，类型有河流(山涧、小溪、河流)、瀑布、湖泊，属于自然河湖型水利风景区。\n\n\n三清湖的前身是玉山县的“七一水库”，始建于1958年7月1日，主坝长430米，最大坝高54米，控制流域面积324平方公里，正常蓄水位94米，总库容2.49亿立方米。景区面积54.8平方公里，湖面最宽处3公里。湖上游水流湍急，下游平静清澈，既可轻舸漫游，又可竹排漂流，两岸林木葱绿、怪石玲珑。湖畔有少华山，山上有许多古建筑和摩崖石刻。湖西南岸边有天梁溶洞群，洞内钟乳嶙峋，暗溪潜流，瀑布轰鸣。主要景点有灵霄天梁、少华山、少华禅寺、罗汉洞等。三清湖环境清幽，美若西子，是旅游娱乐、休闲度假的胜地。\n\n\n三清湖风景区分为四个功能区，分别是综合服务区、探险拓展区、科普修学区、生态保护区。在三清湖旅游开发总体规划的指导下，通过走招商引资之路，经过近十年的开发，目前，景区建设已初具规模，年接待游客已达十余万人次。既增加了景区的收入，又促进了周边经济的发展，为景区的和谐、可持续发展铺平了道路。"}}, {"title": "普罗旺斯新风尚农场", "address": "上饶市玉山县六都高铁站西侧一公里", "image": "", "rank": 9, "time": 2.5, "location": {"lat": 28.687749687317275, "lng": 118.2515628900973}, "feature": {"sight_features": "", "sight_content": "新风尚农场于2015年4月9号开工建设，占地千余亩，总投资2千万，由玉山县丰润农业开发有限公司投资建设，农场位于玉山六都高铁站西侧一公里。观赏区有荷花、薰衣草、格桑花、马鞭草、玫瑰、冰岛虞美人等草本植物。娱乐区、极限滑草、滑沙、草地悠波球、沙滩卡丁车、皇家马车、篝火晚会、户外烧烤、露营、亲子活动、钓小龙虾、摸鱼、私家厨房、棋牌室、KTV.餐饮区、农场秉承绿色生态和健康环保的理念建有生态餐厅700平方，充分利用自然景观、形成可游、可览、可居和生产休闲康乐教育于一体的特色乡村旅游景区。中国玉山普罗旺斯新风尚农场欢迎您的到来。"}}, {"title": "三清山开元度假村", "address": "三清山东部金沙服务区10号区", "image": "", "rank": 10, "time": null, "location": {"lat": 28.924181702321903, "lng": 118.10876998270292}, "feature": {"sight_features": "", "sight_content": ""}}, {"title": "麦可将水上乐园", "address": "汪应辰路66号", "image": "", "rank": 11, "time": 2, "location": {"lat": 28.680296722984952, "lng": 118.24041179711051}, "feature": {"sight_features": "", "sight_content": ""}}, {"title": "南清天门峰", "address": "江西省玉山县境内 334700", "image": "", "rank": 12, "time": 2, "location": {"lat": 28.687749687317275, "lng": 118.2515628900973}, "feature": {"sight_features": "", "sight_content": ""}}, {"title": "三清山石鼓岭", "address": "江西省玉山县三清山东麓 334700", "image": "", "rank": 13, "time": 4.5, "location": {"lat": 28.908486461403648, "lng": 118.07738723326437}, "feature": {"sight_features": "", "sight_content": ""}}, {"title": "玉屏峰", "address": "江西省玉山县三清山之南 334700", "image": "", "rank": 14, "time": 1.5, "location": {"lat": 28.908486461403648, "lng": 118.07738723326437}, "feature": {"sight_features": "", "sight_content": ""}}, {"title": "柳州公园", "address": "江西省上饶市玉山县武安西路", "image": "", "rank": 15, "time": 3.0, "location": {"lat": 28.669751837478326, "lng": 118.24964000696735}, "feature": {"sight_features": "", "sight_content": ""}}, {"title": "天梁景区", "address": "上饶市玉山县天梁风景区", "image": "", "rank": 16, "time": 2, "location": {"lat": 28.820123498881873, "lng": 118.23000265955945}, "feature": {"sight_features": "特色1 内“天梁耸立，气贯灵霄”而得名", "sight_content": "天梁风景区位于三清山东部进山旅游线中，距玉山县城20公里，距三清山28公里。与三清湖跨路相连，水天一色。因区内“天梁耸立，气贯灵霄”而得名。景区东西窄，南北长，面积约3平方公里。是一处以岩溶奇特地貌景观为主体，以灵动的水体景观为特色，以文化遗存为内涵，集山水林洞石多种旅游资源源于一体，具有“雄、奇、险、秀、幽、奥”之特点，交通便利，清幽凉爽，如诗如画，可供人们休闲娱乐、旅游观光、地质考察、文化体验的综合精品景区。"}}, {"title": "五天门", "address": "江西省玉山县三清山以东 334700", "image": "", "rank": 17, "time": 2, "location": {"lat": 28.908486461403648, "lng": 121.08401577416741}, "feature": {"sight_features": "", "sight_content": ""}}, {"title": "南清园", "address": "江西省玉山县三清山 334700", "image": "", "rank": 18, "time": 2.5, "location": {"lat": 28.908486461403648, "lng": 118.07738723326437}, "feature": {"sight_features": "", "sight_content": ""}}, {"title": "八都吴氏沙场", "address": "江西省上饶市玉山县仙岩镇波溪路仙岩中心小学东150米", "image": "", "rank": 19, "time": 2, "location": {"lat": 28.575511920266955, "lng": 118.39645434965388}, "feature": {"sight_features": "", "sight_content": ""}}, {"title": "金沙索道-上站", "address": "上饶市玉山县上饶地区的玉山和德兴两县交界处三清山风景名胜区金沙索道站内", "image": "", "rank": 20, "time": 2, "location": {"lat": 28.900892521932292, "lng": 118.071774573728}, "feature": {"sight_features": "", "sight_content": ""}}, {"title": "南部索道-上站", "address": "上饶市玉山县上饶地区的玉山和德兴两县交界处三清山风景名胜区南部索道内", "image": "", "rank": 21, "time": 3.0, "location": {"lat": 28.91340457861265, "lng": 118.0824080100801}, "feature": {"sight_features": "", "sight_content": ""}}, {"title": "淘宝宝乐园", "address": "江西省上饶市玉山县紫湖镇玉紫线山水人家附近", "image": "", "rank": 22, "time": 2, "location": {"lat": 28.909286150365784, "lng": 118.16162094924599}, "feature": {"sight_features": "", "sight_content": ""}}, {"title": "地质公园石碑", "address": "江西省上饶市玉山县三清山景区内", "image": "", "rank": 23, "time": 2, "location": {"lat": 28.88498948272772, "lng": 118.07089430888787}, "feature": {"sight_features": "", "sight_content": ""}}, {"title": "乐思儿童体验馆", "address": "瑾山路12号附近", "image": "", "rank": 24, "time": 2, "location": {"lat": 28.681891554751083, "lng": 118.257678044668}, "feature": {"sight_features": "", "sight_content": ""}}, {"title": "青山庙", "address": "江西省上饶市玉山县", "image": "", "rank": 25, "time": 2, "location": {"lat": 28.687749687317275, "lng": 118.2515628900973}, "feature": {"sight_features": "", "sight_content": ""}}, {"title": "万柳洲", "address": "上饶市玉山县万柳洲a区29-2号", "image": "", "rank": 26, "time": 2, "location": {"lat": 28.672293764361633, "lng": 118.24780985322028}, "feature": {"sight_features": "", "sight_content": ""}}, {"title": "玉山县安息日会教堂", "address": "江西省上饶市玉山县玉紫路府后园B区430号", "image": "", "rank": 27, "time": 2, "location": {"lat": 28.69626905799139, "lng": 118.26507635859143}, "feature": {"sight_features": "", "sight_content": ""}}, {"title": "金沙索道站", "address": "上饶市玉山县上饶地区的玉山和德兴两县交界处三清山风景名胜区内", "image": "", "rank": 28, "time": 2, "location": {"lat": 28.900892521932292, "lng": 118.071774573728}, "feature": {"sight_features": "", "sight_content": ""}}, {"title": "黄家驷园", "address": "黄家驷路附近", "image": "", "rank": 29, "time": 2, "location": {"lat": 28.678012332634044, "lng": 118.26039417468165}, "feature": {"sight_features": "", "sight_content": ""}}, {"title": "三清山田园牧歌度假村", "address": "三清山金沙服务区索道站35公里处", "image": "", "rank": 30, "time": 4.5, "location": {"lat": 28.929582642871896, "lng": 118.10087519508701}, "feature": {"sight_features": "", "sight_content": ""}}, {"title": "三清山阿山哥农家乐", "address": "二零二省道交警大队旁", "image": "", "rank": 31, "time": 4.5, "location": {"lat": 18.79827511086841, "lng": 110.39758493416474}, "feature": {"sight_features": "", "sight_content": ""}}, {"title": "三清山森林别墅木屋度假村", "address": "三清山东部金沙服务区田园牧歌旅游区,近磐石桥景点", "image": "", "rank": 32, "time": 4.5, "location": {"lat": 28.924181702321903, "lng": 118.10876998270292}, "feature": {"sight_features": "", "sight_content": ""}}, {"title": "三清山景泰赏石博物馆", "address": "新建路与芳苑路交叉口西南100米", "image": "", "rank": 33, "time": 4.5, "location": {"lat": 28.68731518672396, "lng": 118.24955651665668}, "feature": {"sight_features": "", "sight_content": ""}}, {"title": "三清公园", "address": "冰溪镇新建路319号", "image": "", "rank": 34, "time": 2.5, "location": {"lat": 28.68659574493646, "lng": 118.25184259099233}, "feature": {"sight_features": "", "sight_content": ""}}, {"title": "三清山玉灵观", "address": "三清乡金沙街66号三清山", "image": "", "rank": 35, "time": 4.5, "location": {"lat": 28.92975998928883, "lng": 118.10398890164468}, "feature": {"sight_features": "", "sight_content": ""}}, {"title": "玉山站广场", "address": "金山大道与101乡道交叉口南50米", "image": "", "rank": 36, "time": 2, "location": {"lat": 28.66755585502722, "lng": 118.24283675037626}, "feature": {"sight_features": "", "sight_content": ""}}, {"title": "玉帘瀑布", "address": "上饶市玉山县三清山东北部鹅公岭", "image": "", "rank": 37, "time": 1.0, "location": {"lat": 28.908486461403648, "lng": 118.07738723326437}, "feature": {"sight_features": "", "sight_content": "三清山玉帘瀑布景区位于三清山东北部鹅公岭——下西坑大断裂带附近的裂谷中，峡谷长约3公里，环型游线总长约10公里。景区内水落飞花激浪、山含奇石峭壁、林蕴异树珍草。玉帘瀑布是江西省七大最美瀑布群之一。\n她由翠帘、玉帘、虹帘、珠帘、雾帘、青帘、莺帘、风帘、晶帘九大瀑布组成，飞流直下，水质清冽，水声如乐。\n\n景区沿线的寒武纪海相沉积层理构造丰富，特征典型，种类多样。峡谷中滚落的巨石遍布蜿蜒的水流中，如军中战阵，气势磅礴。两岸山体由岩浆岩、沉积岩、变质岩、石灰岩、花岗岩，硅晶石，水纹石交织而成，是天然地质博物馆。\n山林中有载入世界自然保护联盟濒危物种红色名录与中国物种红色名录的野生银杏、金荞麦、南方红豆杉、楤木等等，炎炎夏季满山黄灿灿的忽地笑，使行程充满美感与诗意。\n玉帘之美，不仅在水，更在仙界传说。围绕着玉帘瀑布的“龙生九子”神话传说，颇有趣味。相传玉帘是三清脚下玉帘谷中的女王，生有九位美貌非凡的女儿，九位仙女经常幻化为九帘瀑布悬于谷中，且性情各异、样貌殊同。因而，龙王性格迥异的九位太子，囚牛、睚眦、嘲风、蒲牢、狻猊、赑屃、狴犴、负屃、螭吻，为了能追求玉帘女王九位美貌非凡的女儿，颇费了一番心力，通过了“北斗七星阵、巨石阵、枯木阵”等种种难关，才得以抱得美人归。因此，每一处瀑布边上，都有龙太子化身的石像守候旁边，这是仙界的爱情，也是人间对爱情追求的期许与守望。"}}, {"title": "中国工农红军北上抗日先遣队纪念...", "address": "656县道", "image": "", "rank": 38, "time": 2, "location": {"lat": 25.350854963793136, "lng": 105.67365568938241}, "feature": {"sight_features": "", "sight_content": ""}}, {"title": "泳乐动漫水世界", "address": "金山大道半岛酒店往前150米(近明阳瓷砖店和金航羽毛球馆)", "image": "", "rank": 39, "time": 2, "location": {"lat": 31.246905953317324, "lng": 121.49521572144616}, "feature": {"sight_features": "", "sight_content": ""}}, {"title": "江西省世外桃源生态农业开发有限...", "address": "十七都村雨薇家庭农场(海螺墩对面)", "image": "", "rank": 40, "time": 2, "location": {"lat": 28.724940752087804, "lng": 118.27468573744214}, "feature": {"sight_features": "", "sight_content": ""}}, {"title": "利春美术馆", "address": "三清大道炜达万盛广场6楼", "image": "", "rank": 41, "time": 2, "location": {"lat": 28.67925465984422, "lng": 118.2542425354327}, "feature": {"sight_features": "", "sight_content": ""}}, {"title": "三清山紫梦园", "address": "三清山南部玉坑街道前段", "image": "", "rank": 42, "time": 4.5, "location": {"lat": 27.162592279304295, "lng": 118.09515530751686}, "feature": {"sight_features": "", "sight_content": ""}}, {"title": "玲子画廊", "address": "冰溪镇瑾山小学", "image": "", "rank": 43, "time": 2, "location": {"lat": 28.68222446277996, "lng": 118.25798629371212}, "feature": {"sight_features": "", "sight_content": ""}}, {"title": "玉山县图书馆", "address": "三清山大道", "image": "", "rank": 44, "time": 2, "location": {"lat": 28.67834043296196, "lng": 118.250640595339}, "feature": {"sight_features": "", "sight_content": ""}}, {"title": "玉山县博物馆", "address": "三清大道(玉山宾馆旁)", "image": "", "rank": 46, "time": 2, "location": {"lat": 28.68105856367435, "lng": 118.26390956034456}, "feature": {"sight_features": "", "sight_content": ""}}, {"title": "紫湖文化中心", "address": "649县道紫湖镇附近", "image": "", "rank": 47, "time": 2, "location": {"lat": 28.951524167789415, "lng": 118.23250264379288}, "feature": {"sight_features": "", "sight_content": ""}}, {"title": "怀玉山", "address": "江西省玉山县境内", "image": "", "rank": 48, "time": 2, "location": {"lat": 28.687749687317275, "lng": 118.2515628900973}, "feature": {"sight_features": "", "sight_content": ""}}, {"title": "三清彩瀑", "address": "江西省玉山县三清山", "image": "", "rank": 49, "time": 2, "location": {"lat": 28.908486461403648, "lng": 118.07738723326437}, "feature": {"sight_features": "", "sight_content": ""}}, {"title": "西华台", "address": "江西省玉山县三清山北麓", "image": "", "rank": 50, "time": 2.5, "location": {"lat": 28.908486461403648, "lng": 118.07738723326437}, "feature": {"sight_features": "", "sight_content": ""}}, {"title": "玉山就业商业街", "address": "江西省玉山县解放路", "image": "", "rank": 51, "time": 2, "location": {"lat": 28.679572102611367, "lng": 118.25897339761973}, "feature": {"sight_features": "", "sight_content": ""}}, {"title": "坞畈青", "address": "上饶市-玉山县", "image": "", "rank": 52, "time": 2, "location": {"lat": 28.687749687317275, "lng": 118.2515628900973}, "feature": {"sight_features": "", "sight_content": ""}}, {"title": "倒石垄", "address": "上饶市-玉山县", "image": "", "rank": 53, "time": 2, "location": {"lat": 28.687749687317275, "lng": 118.2515628900973}, "feature": {"sight_features": "", "sight_content": ""}}]}