{"cityName": "玉田", "days": 2, "cityImage": "", "spots": [{"title": "农福缘生态园", "address": "唐山市玉田县027省道附近", "image": "", "rank": 1, "time": 2, "location": {"lat": 39.8776960503609, "lng": 117.77634446942847}, "feature": {"sight_features": "", "sight_content": ""}}, {"title": "旭升公园游乐场", "address": "旭升路与027省道交叉口东北100米(三中南300米)", "image": "", "rank": 2, "time": 2.5, "location": {"lat": 39.8776960503609, "lng": 117.77634446942847}, "feature": {"sight_features": "", "sight_content": ""}}, {"title": "玉田书画院", "address": "北城西街62号", "image": "", "rank": 3, "time": 1.0, "location": {"lat": 39.89503041731501, "lng": 117.76020147026142}, "feature": {"sight_features": "", "sight_content": ""}}, {"title": "和众采摘园", "address": "西环路吉祥药业西行1500米", "image": "", "rank": 4, "time": 2, "location": {"lat": 33.628202030092986, "lng": 114.64634309794465}, "feature": {"sight_features": "", "sight_content": ""}}, {"title": "幸福采摘园", "address": "杨家套乡小定府庄村(净觉寺)", "image": "", "rank": 5, "time": 2, "location": {"lat": 39.80880617952424, "lng": 117.92455248824693}, "feature": {"sight_features": "", "sight_content": ""}}, {"title": "唐山玉田般若寺", "address": "河北省唐山市玉田县", "image": "", "rank": 6, "time": 2, "location": {"lat": 39.90659234818871, "lng": 117.74543440564399}, "feature": {"sight_features": "", "sight_content": ""}}, {"title": "海清垂钓", "address": "北环路", "image": "", "rank": 7, "time": 2, "location": {"lat": 38.0818836383811, "lng": 114.69308879219136}, "feature": {"sight_features": "", "sight_content": ""}}, {"title": "麻山寺", "address": "唐山市玉田县郭新线北50米", "image": "", "rank": 8, "time": 2, "location": {"lat": 39.970491276028504, "lng": 117.62776133799176}, "feature": {"sight_features": "", "sight_content": ""}}, {"title": "源境采摘园", "address": "六里屯村北(林南仓镇东六村德顺加油站往北0.8公里)", "image": "", "rank": 9, "time": 2, "location": {"lat": 39.85839213448382, "lng": 117.66515091894516}, "feature": {"sight_features": "", "sight_content": ""}}, {"title": "快乐一站垂钓", "address": "203省道", "image": "", "rank": 10, "time": 2, "location": {"lat": 38.70057735317822, "lng": 114.30841754306506}, "feature": {"sight_features": "", "sight_content": ""}}, {"title": "儿童乐园", "address": "玉田镇丽景家园南行150米路西", "image": "", "rank": 11, "time": 2, "location": {"lat": 39.87838728936136, "lng": 117.7581130563745}, "feature": {"sight_features": "", "sight_content": ""}}, {"title": "沧州正宗麻辣火锅鸡", "address": "旭升路东50米", "image": "", "rank": 12, "time": 1.0, "location": {"lat": 31.03670976013605, "lng": 117.01988681895317}, "feature": {"sight_features": "", "sight_content": ""}}, {"title": "王清任纪念馆", "address": "203省道", "image": "", "rank": 13, "time": 2, "location": {"lat": 38.70057735317822, "lng": 114.30841754306506}, "feature": {"sight_features": "", "sight_content": ""}}, {"title": "东环农家院", "address": "河北省唐山市玉田县玉田镇新世纪机动车检测服务公司南", "image": "", "rank": 14, "time": 2, "location": {"lat": 39.89087953321803, "lng": 117.81462534192242}, "feature": {"sight_features": "", "sight_content": ""}}, {"title": "代官屯农家乐种子站", "address": "264省道", "image": "", "rank": 15, "time": 2, "location": {"lat": 39.87568999240048, "lng": 117.7208952143668}, "feature": {"sight_features": "", "sight_content": ""}}, {"title": "锦绣林生态园", "address": "东外环东蒙各庄超运站对面", "image": "", "rank": 16, "time": 2, "location": {"lat": 37.24201056890253, "lng": 112.19694792660647}, "feature": {"sight_features": "", "sight_content": ""}}, {"title": "金锐磨具切割片", "address": "027省道昌升五金机电城旁", "image": "", "rank": 17, "time": 2, "location": {"lat": 39.75836321670464, "lng": 117.85388861749159}, "feature": {"sight_features": "", "sight_content": ""}}, {"title": "迪士尼儿童乐园", "address": "河北省唐山市玉田县彩亭桥镇中国邮政南50米", "image": "", "rank": 18, "time": 2, "location": {"lat": 39.843781410372856, "lng": 117.63079409374942}, "feature": {"sight_features": "", "sight_content": ""}}, {"title": "植福醒世阁", "address": "027省道附近", "image": "", "rank": 19, "time": 2, "location": {"lat": 39.677583950110716, "lng": 117.94029645381832}, "feature": {"sight_features": "", "sight_content": ""}}, {"title": "六一儿童乐园", "address": "河北省唐山市玉田县散水头镇珠王线红星加油站南50米", "image": "", "rank": 20, "time": 2, "location": {"lat": 39.79507035039989, "lng": 117.80155530576934}, "feature": {"sight_features": "", "sight_content": ""}}, {"title": "宏祥广场", "address": "唐山市玉田县", "image": "", "rank": 21, "time": 2, "location": {"lat": 39.90659234818871, "lng": 117.74543440564399}, "feature": {"sight_features": "", "sight_content": ""}}, {"title": "儿童水上主题俱乐部", "address": "河北省唐山市玉田县玉田镇北环路供销大厦北方购物东50米", "image": "", "rank": 22, "time": 2, "location": {"lat": 39.905506885583314, "lng": 117.75679189869827}, "feature": {"sight_features": "", "sight_content": ""}}, {"title": "儿童乐园", "address": "旭升路东100米", "image": "", "rank": 23, "time": 2, "location": {"lat": 31.03670976013605, "lng": 117.02033597170816}, "feature": {"sight_features": "", "sight_content": ""}}, {"title": "百姓商城年货广场", "address": "河北省唐山市玉田县玉田镇光明街玉花园新区(南区)", "image": "", "rank": 24, "time": 2, "location": {"lat": 39.90311669951449, "lng": 117.77116536357005}, "feature": {"sight_features": "", "sight_content": ""}}, {"title": "净觉寺", "address": "唐山市玉田县蛮子营村东", "image": "", "rank": 25, "time": 1.0, "location": {"lat": 39.818584357676244, "lng": 117.92575519625694}, "feature": {"sight_features": "", "sight_content": ""}}, {"title": "旭宇艺术馆", "address": "北城西街62号", "image": "", "rank": 26, "time": 2, "location": {"lat": 39.89503041731501, "lng": 117.76020147026142}, "feature": {"sight_features": "", "sight_content": ""}}, {"title": "江浩故居", "address": "唐山市玉田县散水头镇北刘家桥村迎春大街42号", "image": "", "rank": 27, "time": 2, "location": {"lat": 39.79115091738177, "lng": 117.7974951049999}, "feature": {"sight_features": "", "sight_content": ""}}, {"title": "花海", "address": "唐自头镇燕山口村", "image": "", "rank": 28, "time": 2, "location": {"lat": 39.97779137819012, "lng": 117.70947415811297}, "feature": {"sight_features": "", "sight_content": ""}}, {"title": "西塞密室逃脱", "address": "凤凰春城2期步行街西口东行50米", "image": "", "rank": 29, "time": 2, "location": {"lat": 39.986356582322344, "lng": 116.3202933750907}, "feature": {"sight_features": "", "sight_content": ""}}, {"title": "欢乐岛", "address": "开发区庞大汽车园内", "image": "", "rank": 30, "time": 3.0, "location": {"lat": 29.87783255673761, "lng": 121.52741826344044}, "feature": {"sight_features": "", "sight_content": ""}}, {"title": "天香草莓采摘园", "address": "窝洛沽镇西左撇村(杨喜庄村西)", "image": "", "rank": 31, "time": 2, "location": {"lat": 39.6995730647124, "lng": 117.8548537883722}, "feature": {"sight_features": "", "sight_content": ""}}, {"title": "中国水泥工业博物馆", "address": "玉星路与豪门街交叉口", "image": "", "rank": 32, "time": 2, "location": {"lat": 39.891006009497254, "lng": 117.73129829374898}, "feature": {"sight_features": "", "sight_content": ""}}, {"title": "佳友农家乐", "address": "203省道附近", "image": "", "rank": 33, "time": 2, "location": {"lat": 38.70057735317822, "lng": 114.30841754306506}, "feature": {"sight_features": "", "sight_content": ""}}, {"title": "玉田县农合种植农民专业合作社", "address": "玉田镇北环路幸福小区43号县政府对面", "image": "", "rank": 34, "time": 2, "location": {"lat": 39.9061007528168, "lng": 117.74681223921147}, "feature": {"sight_features": "", "sight_content": ""}}]}