{"cityName": "玉溪", "days": "2", "cityImage": "", "spots": [{"title": "抚仙湖景区", "address": "玉溪市江川区澄川线", "image": "", "rank": 1, "time": null, "location": {"lat": 24.575194071226957, "lng": 102.84157921688022}, "feature": {"sight_features": "", "sight_content": ""}}, {"title": "映月潭温泉", "address": "玉溪市红塔区大营街汇溪公园旁", "image": "", "rank": 2, "time": 2, "location": {"lat": 24.345492903308717, "lng": 102.50147127019855}, "feature": {"sight_features": "特色1 全新的露天日式温泉。 特色2 日式风清新独特，小木屋里的闲情逸致，传统温泉文化和新休闲理念融合。 特色3 一个别具一格的休闲的好去处,28个形态各异的温泉可供选择,一个繁华都市中的绿洲。", "sight_content": "映月潭温泉占地80多亩，设有室内、外泡池；男女独立干、湿蒸房，以玉石浴、酒浴、贵妃百花浴、五行池等45种SPA水疗为主，并配有推拿按摩、餐饮、带泡池客房，会议室等服务设施。是一个以温泉服务为主、集生态旅游、休闲观光、餐饮娱乐为一体的心灵疗养基地。\n映月潭温泉始终秉承自然风格，倡导健康、休闲与生态平衡的理念，将最传统的温泉文化和最新潮的健康休闲理念融合起来，并配以最体贴、最真诚的服务奉献给广大游客。\n映月潭温泉水源自地下2000多米，出水口水温51摄氏度，泉水富含氟、镭、锶、钙等多种矿物质，为偏硅酸温矿泉，达到或超过了国家医疗矿泉水标准，是珍贵的复合型医疗矿泉，具有促进人体新陈代谢、增强免疫力、吞肿祛毒、润肤驱疾等多种功效。氟是人体必要的微量元素之一，可以抑制细菌发酵，在温泉水中发挥着清洁和自洁作用，映月潭温泉水是一股珍奇之泉。"}}, {"title": "禄充风景区", "address": "玉溪市澄江县抚仙湖", "image": "", "rank": 3, "time": 3.5, "location": {"lat": 24.632787903313762, "lng": 102.92890081133946}, "feature": {"sight_features": "", "sight_content": ""}}, {"title": "月亮湾湿地公园", "address": "玉溪市澄江县澄阳路", "image": "", "rank": 4, "time": null, "location": {"lat": 24.753065174689294, "lng": 102.98746542043277}, "feature": {"sight_features": "", "sight_content": ""}}, {"title": "秀山历史文化公园", "address": "玉溪市通海县秀山镇文献里46号", "image": "", "rank": 5, "time": 1.0, "location": {"lat": 24.11168761913891, "lng": 102.7641048168757}, "feature": {"sight_features": "", "sight_content": "位于通海县城南，是玉溪重要的风景区之一，秀山上林木茂盛，有众多古建筑群和楹联，隐隐透出浓浓的文化气息。山上珍稀的宋柏、元杉、明玉兰被誉为秀山“三绝”，且秀山素有“匾山联海”和“碑林”之称，至今保留的匾联、碑刻形成了以人文景观和珍稀古木为特色的景区登上秀山，可一览杞麓湖、通海县城以及坝子的景色。"}}, {"title": "玉溪汇龙温泉文化庄园", "address": "玉溪市红塔区大营街汇龙生态园", "image": "", "rank": 6, "time": 7.5, "location": {"lat": 24.339034207238875, "lng": 102.49769172702085}, "feature": {"sight_features": "特色1 含有偏硅酸、钙、镁、钠等矿物质", "sight_content": "﻿玉溪汇龙温泉文化庄园位于玉溪红塔区“云南第一村”大营街汇龙生态园内，由汇龙集团投资2亿元经过两年的精雕细琢建造而成，温泉水采自地岩深处2000米，日出水量6000余吨，属独一无二的偏硅酸类型温泉，水温高达56℃以上，含有偏硅酸、钙、镁、钠等矿物质，对皮肤病、风湿性关节炎、多种心血管病有特殊疗效。是一种具有特殊功效的天然地下高温泉水。\n温泉庄园占地面积50多亩，按国际五星级酒店标准设计装修，主楼共有3层，一层拥有接待大厅及收银台，男、女更衣室700余个，室内温泉汤池、干蒸房等等，可同时容纳1000余人沐浴温泉。二楼设有自助餐厅、休息大厅、健身房、棋牌室、水果吧、多功能的儿童游乐区等等。三楼设有国际五星级酒店标准豪华房。\n露天温泉区包含大型的SPA水疗池、儿童水寨、养生中药区，美容养颜区、溶洞温泉、盐屋、沙浴、泡泡浴、地热熏蒸、鱼疗等等：共有30余个风格各异的汤池，其中运用高科技技术开发了纳米温泉、碳酸钙、温泉最为体现庄园现代与原生态的结合，对皮肤病、风湿性关节炎、多种心血管病有特殊疗效。另附有豪华别墅、豪华汤屋、豪华客房等等。"}}, {"title": "红塔集团烟草工业园区", "address": "云南省玉溪市红塔区红塔区东南", "image": "", "rank": 7, "time": 2.5, "location": {"lat": 24.359801443672627, "lng": 102.55156461758968}, "feature": {"sight_features": "", "sight_content": ""}}, {"title": "玉溪映月潭休闲文化中心", "address": "玉溪市红塔区大营街", "image": "", "rank": 8, "time": 7.5, "location": {"lat": 24.359828930543785, "lng": 102.50747066283311}, "feature": {"sight_features": "", "sight_content": ""}}, {"title": "元江世界第一高桥", "address": "地处国道213线高速公路旁，离县城3.8公里", "image": "", "rank": 9, "time": 3.5, "location": {"lat": 25.401697317483794, "lng": 102.77565943139237}, "feature": {"sight_features": "", "sight_content": ""}}, {"title": "九龙池", "address": "玉溪市州城西北10公里处", "image": "", "rank": 10, "time": 3.0, "location": {"lat": 24.3548836654533, "lng": 102.4247103152095}, "feature": {"sight_features": "", "sight_content": ""}}, {"title": "哀牢山自然保护区", "address": "玉溪市新平彝族傣族自治县戛洒镇", "image": "", "rank": 11, "time": 2.0, "location": {"lat": 24.01498563921987, "lng": 101.55347505252007}, "feature": {"sight_features": "", "sight_content": ""}}, {"title": "江川孤山风景区", "address": "玉溪市江川区江城镇抚仙湖", "image": "", "rank": 12, "time": 2.0, "location": {"lat": 24.497613601045163, "lng": 102.89573031805523}, "feature": {"sight_features": "", "sight_content": ""}}, {"title": "云南玉溪红塔高尔夫球会", "address": "云南省玉溪市红塔区秀山路延长线上。", "image": "", "rank": 13, "time": null, "location": {"lat": 24.352930441773488, "lng": 102.53421717040057}, "feature": {"sight_features": "", "sight_content": ""}}, {"title": "玉溪溶洞", "address": "玉溪市红塔区大营街玉泉寺旁。", "image": "", "rank": 14, "time": 2.0, "location": {"lat": 24.346768679904, "lng": 102.50185295392147}, "feature": {"sight_features": "", "sight_content": ""}}, {"title": "玉龙泉水疗", "address": "玉溪市红塔区东风南路52号", "image": "", "rank": 15, "time": 2, "location": {"lat": 24.336613267342493, "lng": 102.53728514063152}, "feature": {"sight_features": "", "sight_content": ""}}, {"title": "星云湖", "address": "云南省玉溪市江川县城北1公里处", "image": "", "rank": 16, "time": 2.0, "location": {"lat": 24.357607112234625, "lng": 102.76972833382203}, "feature": {"sight_features": "", "sight_content": ""}}, {"title": "磨盘山国家森林公园", "address": "玉溪市新平彝族傣族自治县", "image": "", "rank": 17, "time": 2, "location": {"lat": 24.07626270527773, "lng": 101.9964277126142}, "feature": {"sight_features": "", "sight_content": ""}}, {"title": "漠沙大沐浴旅游文化生态村", "address": "玉溪市漠沙大沐浴花腰傣文化生态旅游村", "image": "", "rank": 18, "time": 2, "location": {"lat": 23.867782269858235, "lng": 101.73182153015647}, "feature": {"sight_features": "", "sight_content": ""}}, {"title": "澄江动物化石群", "address": "玉溪市澄江县城以东5公里的帽天山", "image": "", "rank": 19, "time": 2.0, "location": {"lat": 24.66431553178561, "lng": 102.97789089853073}, "feature": {"sight_features": "", "sight_content": ""}}, {"title": "杞麓湖", "address": "玉溪市通海县", "image": "", "rank": 20, "time": 2.0, "location": {"lat": 24.117891201573585, "lng": 102.73242289127867}, "feature": {"sight_features": "", "sight_content": ""}}, {"title": "新化古州野林公园", "address": "玉溪市新平县城西北部新化乡新化村，距县城30公里", "image": "", "rank": 21, "time": 1.5, "location": {"lat": 24.119552145389022, "lng": 101.87123276286643}, "feature": {"sight_features": "", "sight_content": ""}}, {"title": "玉泉寺", "address": "玉溪市红塔区大营街玉溪映月潭休闲文化中心内", "image": "", "rank": 22, "time": 2.5, "location": {"lat": 24.359828930543785, "lng": 102.50747066283311}, "feature": {"sight_features": "", "sight_content": ""}}, {"title": "聂耳故居", "address": "玉溪市红塔区北门街3号", "image": "", "rank": 23, "time": 0.5, "location": {"lat": 24.360207307861604, "lng": 102.55041606662265}, "feature": {"sight_features": "", "sight_content": ""}}, {"title": "帽天山国家地质公园", "address": "玉溪市澄江县", "image": "", "rank": 24, "time": 1.5, "location": {"lat": 24.67941490881611, "lng": 102.91455487234985}, "feature": {"sight_features": "", "sight_content": ""}}, {"title": "大槟榔园", "address": "玉溪市新平彝族傣族自治县嘎洒镇", "image": "", "rank": 25, "time": 2, "location": {"lat": 24.054786394626703, "lng": 101.58203064048566}, "feature": {"sight_features": "", "sight_content": ""}}, {"title": "聂耳音乐广场", "address": "玉溪市红塔区棋阳路延长线", "image": "", "rank": 26, "time": 2, "location": {"lat": 24.368475982674195, "lng": 102.56269162610745}, "feature": {"sight_features": "", "sight_content": ""}}, {"title": "界鱼石", "address": "玉溪市江川县海门", "image": "", "rank": 27, "time": null, "location": {"lat": 24.357607112234625, "lng": 102.76972833382203}, "feature": {"sight_features": "", "sight_content": ""}}, {"title": "新河口湖滨公园", "address": "玉溪市澄江县抚仙湖北岸", "image": "", "rank": 28, "time": 2, "location": {"lat": 24.632017921754773, "lng": 102.94171906952167}, "feature": {"sight_features": "", "sight_content": ""}}, {"title": "笔架山", "address": "玉溪市澄江县禄充村抚仙湖禄充风景区内", "image": "", "rank": 29, "time": 2.5, "location": {"lat": 24.56330219055585, "lng": 102.84896186615217}, "feature": {"sight_features": "", "sight_content": ""}}, {"title": "烟事博物馆", "address": "玉溪市红塔区红塔山烟事博物馆", "image": "", "rank": 30, "time": 2, "location": {"lat": 24.352653088617547, "lng": 102.54325870518608}, "feature": {"sight_features": "", "sight_content": ""}}, {"title": "李家山青铜器博物馆", "address": "玉溪市江川县大街镇星云路西段1号（抚仙路与兴江路相交处）", "image": "", "rank": 31, "time": 2.0, "location": {"lat": 24.29770068034622, "lng": 102.75283436962906}, "feature": {"sight_features": "", "sight_content": ""}}, {"title": "樱花谷", "address": "玉溪市澄江县抚仙湖环湖路7号水下古城旁", "image": "", "rank": 32, "time": 1.5, "location": {"lat": 24.5737040450753, "lng": 102.96704897175799}, "feature": {"sight_features": "", "sight_content": ""}}, {"title": "汇龙生态园温泉", "address": "玉溪市红塔区西南部玉溪汇龙生态园", "image": "", "rank": 33, "time": 2, "location": {"lat": 24.339034207238875, "lng": 102.49769172702085}, "feature": {"sight_features": "特色1 距省会城市昆明90公里，距市区5公里，交通十分便利。 特色2 汇龙生态园占地20万㎡，是集餐饮、度假、休闲、温泉、会展会议为一体的多功能休闲场所。 特色3 同时也配备了许多亲子互动的小型电子游戏。共60余个项目供您游玩。", "sight_content": "汇龙温泉由室内游泳馆和露天温泉组成，室内游泳馆配备标准游泳池、泡池、干蒸、湿蒸房等。\n露天温泉有十多个露天温泉浴池和地热熏蒸、3D影视厅、休息按摩厅、休闲餐吧、棋牌室、茶吧、书吧等休闲场所。\n整体设计以古建筑的厚重与现代简约相结合，从室内走出室外，让人有种“豁然开朗”仿若走进“世外桃源”的感觉。"}}, {"title": "玉溪博物馆", "address": "中国云南省玉溪市红塔区红塔大道30号", "image": "", "rank": 34, "time": 2.5, "location": {"lat": 24.352734371920437, "lng": 102.54315967239346}, "feature": {"sight_features": "", "sight_content": ""}}, {"title": "明星景区", "address": "玉溪市江川区与澄江县的交界处抚仙湖西岸", "image": "", "rank": 35, "time": 2.0, "location": {"lat": 24.497613601045163, "lng": 102.89573031805523}, "feature": {"sight_features": "", "sight_content": ""}}, {"title": "三圣宫", "address": "", "image": "", "rank": 36, "time": 2.0, "location": {"lat": 47.34497475898385, "lng": 126.63227543036881}, "feature": {"sight_features": "", "sight_content": ""}}, {"title": "圆明寺", "address": "", "image": "", "rank": 37, "time": 2.0, "location": {"lat": 34.361859423373126, "lng": 108.74392096377086}, "feature": {"sight_features": "", "sight_content": ""}}, {"title": "佳园大澡堂", "address": "玉溪市东风北路延长线", "image": "", "rank": 38, "time": 2, "location": {"lat": 24.363407042025806, "lng": 102.56594630285043}, "feature": {"sight_features": "", "sight_content": ""}}, {"title": "两湖大瀑布", "address": "玉溪市红塔区冯家冲侧（近玉江高速路入口）", "image": "", "rank": 39, "time": 2, "location": {"lat": 24.350751351182723, "lng": 102.58993421031634}, "feature": {"sight_features": "", "sight_content": ""}}, {"title": "新平土司府", "address": "玉溪市新平彝族傣族自治县", "image": "", "rank": 40, "time": 2, "location": {"lat": 24.07626270527773, "lng": 101.9964277126142}, "feature": {"sight_features": "", "sight_content": ""}}, {"title": "红河谷热海温泉", "address": "玉溪市元江哈尼族彝族傣族自治县（元江至墨江323国道292公里处，近昆胡路）", "image": "", "rank": 41, "time": 2, "location": {"lat": 23.549112750069277, "lng": 101.92562938081859}, "feature": {"sight_features": "特色1 含多种对人体有益的矿物质。 特色2 享受健康温泉，品尝特色长街宴。 特色3 无火之炊、水上长街宴。", "sight_content": "元江红河谷热海”是元江县一个集温泉养生、度假休闲、旅游观光为一体的旅游文化开发项目，“无火之炊、水上长街宴”等项目已投入营业。15个用天然石材打磨出的小滚锅，不需要用火、用电，把各种时鲜食材放在滚锅里烫熟，就变成了美食。\n160多米长的草木棚依河而建，构成了独特“无火之炊、水上长街宴”，在享受温泉的同时，可品尝沸水煮的元江风味美食。“热海”的地热温泉温度高达94℃，每天的温泉出水量在1500方左右。\n除了美食长街宴，另有哈尼梯田温泉养生区、树屋洞穴精品酒店区、温泉热区生态氧吧区等功能区，是目前云南省首家树屋特色空中透明温泉度假休闲酒店。"}}, {"title": "阳光海岸", "address": "玉溪市江川区抚仙湖南岸孤山风景区码头旁", "image": "", "rank": 42, "time": 1.0, "location": {"lat": 24.414327861558103, "lng": 102.8436089992641}, "feature": {"sight_features": "", "sight_content": ""}}, {"title": "石门峡", "address": "玉溪市嘎洒镇石门峡风景区", "image": "", "rank": 43, "time": 2, "location": {"lat": 23.97784701716291, "lng": 101.53201175453654}, "feature": {"sight_features": "", "sight_content": ""}}, {"title": "碧云寺", "address": "江川县澄川线抚仙湖西岸碧云寺", "image": "", "rank": 44, "time": 1.0, "location": {"lat": 24.494794022135046, "lng": 102.86803710337894}, "feature": {"sight_features": "", "sight_content": ""}}, {"title": "抚仙湖奇石博物馆", "address": "玉溪市澄江县环湖北路19号", "image": "", "rank": 45, "time": 7.5, "location": {"lat": 24.611057394194155, "lng": 102.9593866054215}, "feature": {"sight_features": "特色1 抚仙湖奇石博物馆是集文化科普和珍稀品收藏为一体的多功能旅游文化艺术馆。 特色2 我馆坐落于澄江帽天山下抚仙湖北岸，东接月亮湾湿地，毗邻悦椿度假酒店，风景秀丽，环境优雅", "sight_content": "云南七宝石艺有限公司成立于2014年3月7日，前身是玉溪市国风艺术精品馆，公司坐落于抚仙湖北岸，东接月亮湾湿地，毗邻悦椿度假酒店、樱花谷旅游度假区，与禄冲风景区、孤岛风景区隔海相望，风景秀丽、环境优雅、绿树成荫。公司下设抚仙湖奇石博展馆，占地3600多平方米，成套标准化信息化办公楼，设备齐全（放映机、综合集成网络布线等一系列软硬件设施），公司拥有自己的电子商务网络服务平台-----抚仙湖奇石博物馆网（www.trlqs.com）,在平台即可了解抚仙湖、帽天山等特色资源及公司独特的艺术文化，是云南省最大的私营收藏展示艺术馆，馆内为现代艺术风格，主要收藏展示国内各类珍稀观赏石、古生物化石、矿物晶体标本及根艺，如：享誉世界的大理石画；晶莹润泽、质地华贵的云南黄龙玉；金沙江、怒江、澜沧江的水石；东川、会泽的铁胆石；青金玉，产于阿富汗，是一种古老而又神圣的玉石，呈蓝色，质地致密、细腻。明清以来帝王祭天只有天坛用青金石，清朝四品大臣，帽上顶戴也是青金石顶。滇南、滇西的宝玉石和蜚声国外的元江红宝石；文山的矿物晶体，邻国缅甸的树化玉……，总价值上亿元。是集文化科普和珍稀品收藏为一体的多功能旅游文化艺术馆。\n抚仙湖奇石博物馆坐落在《世界首批国家地质公园、澄江化石地世界自然遗产》帽天山下，附近有月亮湾湿地公园，毗邻悦春度假酒店，风景秀丽。\n我馆坐落于澄江帽天山下抚仙湖北岸，东接月亮湾湿地，毗邻悦椿度假酒店，风景秀丽，环境优雅。占地3600余平方米，现是云南省最大的私营收藏展示艺术馆，馆内为现代艺术风格，主要收藏展示国内外各类珍稀观赏石、古生物化石、矿物晶体及根艺，大小展品上万件，是集文化科普和珍稀品收藏为一体的多功能旅游文化艺术馆。\n博物馆在观赏石品质、展览效果等方面具有一定规模和档次，先后受到云南省三大协会的肯定和赞许，并颁发云南省民间收藏文化示范基地、云南省观赏石展览基地和云南省根艺美术展览学术研究示范基地，成为云南省首屈一指的旅游文化艺术博物馆。\n抚仙湖奇石博物馆坐落在《世界首批国家地质公园、澄江化石地世界自然遗产》帽天山下，附近有月亮湾湿地公园，毗邻悦春度假酒店，风景秀丽。博物馆内收藏的奇石品种和数量几乎涵盖了目前观赏奇石的所有种类，是云南省目前较大的奇石博物馆。馆内为现代艺术风格，主要展示国内各类珍稀观赏石、古生物化石，矿物晶体标本及根艺，是集文化科普和珍稀品收藏为一体的多功能旅游文化艺术馆。"}}, {"title": "哀牢山红河谷旅游景区", "address": "玉溪市新平县", "image": "", "rank": 46, "time": 2, "location": {"lat": 24.07626270527773, "lng": 101.9964277126142}, "feature": {"sight_features": "", "sight_content": ""}}, {"title": "映月潭修闲文化中心-玉泉寺(北区...", "address": "公园路101号", "image": "", "rank": 47, "time": 2, "location": {"lat": 43.88612722160242, "lng": 125.3721513503548}, "feature": {"sight_features": "", "sight_content": ""}}, {"title": "大营街", "address": "云南省玉溪市红塔区大营街镇", "image": "", "rank": 48, "time": 3.0, "location": {"lat": 24.34404816918677, "lng": 102.50453850381896}, "feature": {"sight_features": "", "sight_content": ""}}, {"title": "云南梦蓝国际潜水俱乐部", "address": "玉溪市江川县抚仙湖阳光海岸玉波苑酒店沙滩", "image": "", "rank": 49, "time": 2, "location": {"lat": 24.418801180581543, "lng": 102.84701927599596}, "feature": {"sight_features": "", "sight_content": ""}}, {"title": "玉泉湖公园", "address": "云南省玉溪市红塔区大营街", "image": "", "rank": 50, "time": 2, "location": {"lat": 24.359828930543785, "lng": 102.50747066283311}, "feature": {"sight_features": "", "sight_content": ""}}, {"title": "那诺梯田", "address": "玉溪市元江县那诺哈尼族彝族乡", "image": "", "rank": 51, "time": 3.5, "location": {"lat": 23.603000905474538, "lng": 102.00441463673134}, "feature": {"sight_features": "", "sight_content": ""}}, {"title": "玉溪体育馆", "address": "云南省玉溪市红塔区聂耳路60号", "image": "", "rank": 52, "time": 7.5, "location": {"lat": 24.354310038266547, "lng": 102.5576300662216}, "feature": {"sight_features": "", "sight_content": ""}}, {"title": "钱瓜山观景色台", "address": "瑞峰路(古窑路口)", "image": "", "rank": 53, "time": 2, "location": {"lat": 24.33546327669431, "lng": 102.55267990340539}, "feature": {"sight_features": "", "sight_content": ""}}, {"title": "象鼻山温泉森林公园", "address": "玉溪市华宁县城东南8公里", "image": "", "rank": 54, "time": 2, "location": {"lat": 24.19858102716324, "lng": 102.9354918585251}, "feature": {"sight_features": "", "sight_content": ""}}, {"title": "波息湾", "address": "玉溪市澄江县抚仙湖畔禄充风景区内", "image": "", "rank": 55, "time": 2, "location": {"lat": 24.63286643434345, "lng": 102.86805760450727}, "feature": {"sight_features": "", "sight_content": ""}}, {"title": "戛洒镇", "address": "玉溪市新平彝族傣族自治县", "image": "", "rank": 56, "time": 3.0, "location": {"lat": 24.07626270527773, "lng": 101.9964277126142}, "feature": {"sight_features": "", "sight_content": ""}}, {"title": "白龙泉", "address": "云南省玉溪市红塔区龙马山山下", "image": "", "rank": 57, "time": 2, "location": {"lat": 24.419286360320726, "lng": 102.61203686826335}, "feature": {"sight_features": "", "sight_content": ""}}, {"title": "东风游乐场", "address": "云南省玉溪市红塔区东风水库坝下", "image": "", "rank": 58, "time": 2, "location": {"lat": 24.367191734594932, "lng": 102.59848408453028}, "feature": {"sight_features": "", "sight_content": ""}}, {"title": "玉溪市第一中学", "address": "云南省玉溪市红塔区太极路21号", "image": "", "rank": 59, "time": 7.5, "location": {"lat": 24.37326481939756, "lng": 102.54781046322059}, "feature": {"sight_features": "", "sight_content": ""}}, {"title": "天子苑动漫水世界", "address": "玉溪市峨山县小街镇天子苑温泉酒店", "image": "", "rank": 60, "time": 2, "location": {"lat": 24.153450414623443, "lng": 102.48640261747724}, "feature": {"sight_features": "", "sight_content": ""}}]}