{"cityName": "盂县", "days": 2, "cityImage": "", "spots": [{"title": "藏山风景区", "address": "泉市盂县苌池镇藏山村", "image": "", "rank": 1, "time": 3.0, "location": {"lat": 38.22886549915888, "lng": 113.35035930534426}, "feature": {"sight_features": "特色1 千峰叠障，万壑含烟，洞穴幽奇，涧水潺湲。 特色2 赵氏孤儿发源地，三晋历史文化名山。 特色3 三晋历史文化名山。", "sight_content": "中国藏山旅游风景名胜区是“国家aaaa级旅游景区”、“国家水利风景区”、“山西省十佳文明景区”，首批“山西省非物质 中国·藏山文化遗产保护单位”、“三晋历史文化第一名山”。\n藏山因春秋时期藏匿“赵氏孤儿”而名扬天下，距今已有2600多年历史。藏山所彰显的忠义精神既是中华传统美德之精华，更是世界文化的重要组成部分。据《史记》记载，公元前597年，晋国司寇屠岸贾以桃园弑君之恶名强加于上卿赵盾，致使赵家被满门抄斩，唯赵盾之孙赵武（赵氏孤儿）在其父好友程婴的舍子相救下才得以幸存，后潜逃于藏山藏匿达十五个春秋。于是山以史传，史以文传，载入史册，千古流芳。\n\n\n藏山是山西旅游的东大门，位于太行山西麓，地处晋冀旅游金三角地带，与佛国五台山、革命圣地西柏坡紧相连，交通极为便利，距省会太原、河北石家庄仅百公里，深厚的文化底蕴和绚丽的自然美景将迎接着越来越多的中外游客走进藏山，领略“三晋历史文化第一名山”的忠义文化内涵！藏山景区游览面积十余平方公里，由育孤园、春秋藏孤胜地、三教文化圣地、仙人峰自然生态区四大板块，168个景点组成。在这里您可以抚历史、拜先圣、听松涛、看人间仙境、望太行雄姿。藏山殿堂楼阁、古貌苍然，湖潭澄澈、玉柱琼宫。四季迥异的景致，汇山水之灵气，缩天地之精华，如诗如画。春天崖峦滴翠，奇花异木相斗艳；夏日浓荫蔽空，暗香浮动鸟争鸣；金秋林疏叶红，果实坠地，飞禽松鼠藏食忙；冬时冰柱倒悬，白雪覆盖，玉树琼枝山骨风。藏山风景区是一块天设地造的风水宝地，山因水而含灵，水因山而增秀。碧水绕青山，奇峰对秀岭。山势海拔1700多米，仙人峰的植被覆盖率达97%，仅自然植物就有70多种，其中有30多种珍稀植物和数种名贵药材。森林内苍苔密布，枯藤盘绕，可谓争怪斗异，千姿百态。这里还是野生动物繁衍生息的乐园，走进园区，随处可见松鼠穿梭、鸟雀啁啾、山狍漫步、锦鸡起舞。迂回在玉带似的万米盘山路上，好似一处绝好的天然氧吧环绕着你，令游客目不暇接，美不胜收。"}}, {"title": "梁家寨大汖温泉度假村", "address": "阳泉市盂县大汖家庄村", "image": "", "rank": 2, "time": 2, "location": {"lat": 38.091979630200996, "lng": 113.4184204607489}, "feature": {"sight_features": "特色1 交通便利，周边旅游资源丰富。 特色2 大汖温泉区建筑设计以中式风格为核心，融合世界各地温泉之精华，文化韵味浓厚。 特色3 大汖温泉集温泉沐浴、休闲养生、水上乐园、生态旅游于一体，住宿、餐饮、娱乐、购物、会务、拓展等配套完整，综合服务设施达到国内先进水平的新型温泉旅游度假景区。", "sight_content": "大汖温泉产品的开发，融合了温泉自然、闲适、动感、健康等产品特性的同时，着意突出了温泉产品的地域特色。星罗棋布于区内的温泉池分为动感温泉区、水中风情区、养生温泉区、水上乐园区、温泉休闲区等5区，共设有40余个功能各异、大小不一的温泉泡池，构成了全新的温泉天地。\n1、动感温泉区 ：游泳池、亲亲鱼疗、石板泉 、SPA水疗\n2、水中风情区： 水上风情区是一个集飞瀑、假山、溪流、岩洞、崖壁石刻、特色温泉池于一体的一个景观温泉泡浴区。面积：10000平米，设计大小不同的温泉池21个。\n3、养生温泉区：养生温泉区分布在滹沱河一岸，以养生为主导开发出风格各异、功能有别的11个温泉池。在温泉水中加入菊花、薄荷、当归、人参、艾叶等中草药加料温泉四季皆宜，适合各类人群。\n4、水上乐园区：根据国际时尚元素全新打造的顶级水上休闲游乐项目，集惊险、刺  激、动感、娱乐、休闲于一体。是山西首家现代化大型水上主题乐园，主要项目有：儿童乐园、四彩滑道、海浪池、超级大喇叭、冲天回旋、巨兽碗 等10余个游乐项目组成。\n5、温泉休闲区：温泉接待中心设接待内大堂、更衣室、休息大厅、按摩保健、小食坊、电影院、桌球、乒乓球等服务接待设施。休闲区设：健身房、网吧、桌球、棋牌室、小食坊等多种休闲娱乐项目。"}}, {"title": "滹沱河原生态漂流", "address": "阳泉市盂县梁家寨乡梁家寨村", "image": "", "rank": 3, "time": 2, "location": {"lat": 38.452206174070994, "lng": 113.44332247043512}, "feature": {"sight_features": "", "sight_content": ""}}, {"title": "伯特利度假山庄", "address": "阳泉市盂县城北66公里处梁家寨乡寺平安村", "image": "", "rank": 4, "time": 2, "location": {"lat": 38.44496959586004, "lng": 113.48345002280324}, "feature": {"sight_features": "", "sight_content": ""}}, {"title": "寺平庄温泉", "address": "阳泉市盂县县城以北约70公里", "image": "", "rank": 5, "time": 2, "location": {"lat": 38.091979630200996, "lng": 113.4184204607489}, "feature": {"sight_features": "", "sight_content": ""}}, {"title": "华北奕丰生态园", "address": "孙家庄镇(阳五高速盂县东出口往西200米)", "image": "", "rank": 6, "time": 2, "location": {"lat": 38.091622372460186, "lng": 113.47627412033857}, "feature": {"sight_features": "特色1 休闲农业与乡村旅游示范点 特色2 总占地面积13000余亩", "sight_content": "华北奕丰生态园是国家AAA级景区，国家级、省级休闲农业与乡村旅游示范点的华北奕丰生态园。\n我们的园区位于山西省的东部，太行山的西麓的山西盂县。，地处太原与石家庄之间，交通便利，地缘优势突出，为我们园区持续健康的发展奠定了坚实基础，创造了有利条件。华北奕丰生态园由山西省盂县石店煤业有限公司投资建设，总占地面积13000余亩。\n园区分别由林业发展的金地建设体系、畜牧发展的辰西养殖体系、商品服务营销的奕源商贸体系、生态旅游发展的圣仙乐生态旅游体系五大部分。"}}, {"title": "天地根", "address": "阳泉市盂县藏山风景区内忠义苑东沟", "image": "", "rank": 7, "time": 1.0, "location": {"lat": 38.22774243151005, "lng": 113.35707616560858}, "feature": {"sight_features": "", "sight_content": ""}}, {"title": "饮马池", "address": "阳泉藏山风景区内龙凤松东北", "image": "", "rank": 8, "time": 2.0, "location": {"lat": 38.22774243151005, "lng": 113.35707616560858}, "feature": {"sight_features": "", "sight_content": ""}}, {"title": "石莲花", "address": "阳泉市盂县藏山风景区内忠义苑莲花寺后的崖壁上", "image": "", "rank": 9, "time": 1.0, "location": {"lat": 38.22774243151005, "lng": 113.35707616560858}, "feature": {"sight_features": "", "sight_content": ""}}, {"title": "滴水岩", "address": "阳泉市盂县藏山风景区东峰山脚穴内", "image": "", "rank": 10, "time": null, "location": {"lat": 38.22774243151005, "lng": 113.35707616560858}, "feature": {"sight_features": "", "sight_content": ""}}, {"title": "日落晚照", "address": "阳泉市盂县藏山风景区滴水岩右上方", "image": "", "rank": 11, "time": 1.0, "location": {"lat": 38.22774243151005, "lng": 113.35707616560858}, "feature": {"sight_features": "", "sight_content": ""}}, {"title": "仙人秀石", "address": "阳泉市盂县藏山风景区内七机岩右侧", "image": "", "rank": 12, "time": 1.0, "location": {"lat": 38.22774243151005, "lng": 113.35707616560858}, "feature": {"sight_features": "", "sight_content": ""}}, {"title": "梳洗楼", "address": "阳泉市盂县藏山风景区内藏山北崖中嶂", "image": "", "rank": 13, "time": 1.0, "location": {"lat": 38.22774243151005, "lng": 113.35707616560858}, "feature": {"sight_features": "", "sight_content": ""}}, {"title": "抱孤峰", "address": "阳泉市盂县藏山风景区内藏山口七机岩峰顶", "image": "", "rank": 14, "time": 1.0, "location": {"lat": 38.22774243151005, "lng": 113.35707616560858}, "feature": {"sight_features": "", "sight_content": ""}}, {"title": "七机岩", "address": "阳泉市盂县藏山风景区内，藏山村后北山之巅", "image": "", "rank": 15, "time": 1.0, "location": {"lat": 38.22774243151005, "lng": 113.35707616560858}, "feature": {"sight_features": "", "sight_content": ""}}, {"title": "拜水洞", "address": "阳泉市盂县藏山风景区内藏山北崖从南天门向北转西行即可到达", "image": "", "rank": 16, "time": 1.0, "location": {"lat": 38.22774243151005, "lng": 113.35707616560858}, "feature": {"sight_features": "", "sight_content": ""}}, {"title": "笏峰", "address": "阳泉市盂县藏山风景区南天门之西", "image": "", "rank": 17, "time": 1.0, "location": {"lat": 38.22774243151005, "lng": 113.35707616560858}, "feature": {"sight_features": "", "sight_content": ""}}, {"title": "宏宝祥山庄", "address": "东太路", "image": "", "rank": 18, "time": 2, "location": {"lat": 31.390728177376445, "lng": 121.36897204129616}, "feature": {"sight_features": "", "sight_content": ""}}, {"title": "汇龙山庄", "address": "214省道", "image": "", "rank": 19, "time": 2, "location": {"lat": 40.25674691410845, "lng": 116.28095415138388}, "feature": {"sight_features": "", "sight_content": ""}}, {"title": "映山红健康城", "address": "藏山北路(天海一部对面)", "image": "", "rank": 20, "time": 2, "location": {"lat": 38.09810898444528, "lng": 113.40926533163548}, "feature": {"sight_features": "", "sight_content": ""}}, {"title": "哥们情怀音乐厅", "address": "东关街聚鑫商城三层", "image": "", "rank": 21, "time": 2, "location": {"lat": 29.190050326988228, "lng": 119.87552808307929}, "feature": {"sight_features": "", "sight_content": ""}}, {"title": "联想红旗剧院志友1+1专卖", "address": "西关移动大厅西30米", "image": "", "rank": 22, "time": 2, "location": {"lat": 29.870813119271926, "lng": 121.57181872003692}, "feature": {"sight_features": "", "sight_content": ""}}, {"title": "大王庙(山北)", "address": "314省道附近(仙人乡山北村)", "image": "", "rank": 23, "time": 2, "location": {"lat": 38.1605955917037, "lng": 113.6646382621319}, "feature": {"sight_features": "", "sight_content": ""}}, {"title": "滹沱河漂流", "address": "214省道滹沱河漂流", "image": "", "rank": 24, "time": 2, "location": {"lat": 38.45528164852177, "lng": 113.43843479734176}, "feature": {"sight_features": "", "sight_content": ""}}, {"title": "龙凤松", "address": "阳泉市盂县长池镇藏山村藏山风景区入口", "image": "", "rank": 25, "time": 2, "location": {"lat": 38.22774243151005, "lng": 113.35707616560858}, "feature": {"sight_features": "", "sight_content": ""}}, {"title": "星期六儿童成长主题乐园", "address": "南高速口北200米（居馨小区对面）", "image": "", "rank": 26, "time": 2, "location": {"lat": 37.43300087182996, "lng": 116.29182104296864}, "feature": {"sight_features": "", "sight_content": ""}}, {"title": "淘气宝儿童乐园", "address": "阳泉市盂县", "image": "", "rank": 27, "time": 2, "location": {"lat": 38.091979630200996, "lng": 113.4184204607489}, "feature": {"sight_features": "", "sight_content": ""}}, {"title": "开心哈乐儿童乐园", "address": "秀水镇", "image": "", "rank": 28, "time": 2, "location": {"lat": 35.263186816909446, "lng": 115.51970402214845}, "feature": {"sight_features": "", "sight_content": ""}}, {"title": "报国寺", "address": "山西省阳泉市盂县", "image": "", "rank": 29, "time": 1.5, "location": {"lat": 38.091979630200996, "lng": 113.4184204607489}, "feature": {"sight_features": "", "sight_content": ""}}, {"title": "八义庙", "address": "阳泉市盂县城北十八公里处藏山旅游风景区内", "image": "", "rank": 30, "time": 2, "location": {"lat": 38.091979630200996, "lng": 113.4184204607489}, "feature": {"sight_features": "", "sight_content": ""}}, {"title": "火神庙", "address": "山西省阳泉市盂县苌池镇藏山旅游风景区藏山阁东100米", "image": "", "rank": 31, "time": 1.0, "location": {"lat": 38.17275797175284, "lng": 113.36045245225766}, "feature": {"sight_features": "", "sight_content": ""}}, {"title": "玉皇庙", "address": "山西省阳泉市盂县上社镇藏山旅游风景区", "image": "", "rank": 32, "time": 1.0, "location": {"lat": 38.22689089144579, "lng": 113.37544545777864}, "feature": {"sight_features": "", "sight_content": ""}}, {"title": "马王庙", "address": "山西省阳泉市盂县苌池镇藏山旅游风景区凉亭", "image": "", "rank": 33, "time": 2.5, "location": {"lat": 38.17275797175284, "lng": 113.36045245225766}, "feature": {"sight_features": "", "sight_content": ""}}, {"title": "天王殿", "address": "山西省阳泉市盂县苌池镇藏山旅游风景区莲花寺附近", "image": "", "rank": 34, "time": 2, "location": {"lat": 38.17275797175284, "lng": 113.36045245225766}, "feature": {"sight_features": "", "sight_content": ""}}, {"title": "地藏殿", "address": "山西省阳泉市盂县苌池镇藏山旅游风景区水上观音西100米", "image": "", "rank": 35, "time": 2.5, "location": {"lat": 38.17275797175284, "lng": 113.36045245225766}, "feature": {"sight_features": "", "sight_content": ""}}, {"title": "盂山神庙", "address": "山西省阳泉市盂县苌池镇藏山旅游风景区滴水岩附近", "image": "", "rank": 36, "time": 2, "location": {"lat": 38.17275797175284, "lng": 113.36045245225766}, "feature": {"sight_features": "", "sight_content": ""}}, {"title": "藏经阁", "address": "山西省阳泉市盂县苌池镇藏山旅游风景区水上观音附近", "image": "", "rank": 37, "time": 1.0, "location": {"lat": 38.17275797175284, "lng": 113.36045245225766}, "feature": {"sight_features": "", "sight_content": ""}}, {"title": "儿童乐园", "address": "阳泉市盂县城北梁家寨乡寺平安村大汖温泉度假景区水上乐园内", "image": "", "rank": 38, "time": 2, "location": {"lat": 38.44496959586004, "lng": 113.48345002280324}, "feature": {"sight_features": "", "sight_content": ""}}, {"title": "七律·寒窑", "address": "山西省阳泉市盂县城北梁家寨乡寺平安村大汖温泉度假景区水上风情区内", "image": "", "rank": 39, "time": 2, "location": {"lat": 38.44496959586004, "lng": 113.48345002280324}, "feature": {"sight_features": "", "sight_content": ""}}, {"title": "保孤祠", "address": "山西省阳泉市盂县苌池镇藏山旅游风景区赵氏孤儿藏匿地", "image": "", "rank": 40, "time": 2, "location": {"lat": 38.17275797175284, "lng": 113.36045245225766}, "feature": {"sight_features": "", "sight_content": ""}}, {"title": "土地庙", "address": "山西省阳泉市盂县苌池镇藏山旅游风景区藏山阁附近", "image": "", "rank": 41, "time": 2, "location": {"lat": 38.17275797175284, "lng": 113.36045245225766}, "feature": {"sight_features": "", "sight_content": ""}}, {"title": "盂县图书馆", "address": "城隍庙街", "image": "", "rank": 42, "time": 1.5, "location": {"lat": 40.4639186580868, "lng": 115.9819331391579}, "feature": {"sight_features": "", "sight_content": ""}}, {"title": "生态植物园", "address": "水神山北路", "image": "", "rank": 43, "time": 2, "location": {"lat": 38.118535434321316, "lng": 113.44467558712648}, "feature": {"sight_features": "", "sight_content": ""}}, {"title": "滹沱河水上乐园", "address": "214省道", "image": "", "rank": 44, "time": 2, "location": {"lat": 40.25674691410845, "lng": 116.28095415138388}, "feature": {"sight_features": "", "sight_content": ""}}, {"title": "喜赟乐儿童乐园", "address": "秀水镇凯通时尚购物广场3楼", "image": "", "rank": 45, "time": 2, "location": {"lat": 42.916949489313055, "lng": 126.44553977883912}, "feature": {"sight_features": "", "sight_content": ""}}, {"title": "古北水镇司马台民宿187号", "address": "密云县古北口镇司马台新村沙岭大街长城脚下门牌号36-2民宿187号(古北水镇-司马台长城、人间花海-薰衣草庄园、雾灵山等…)", "image": "", "rank": 46, "time": 1.0, "location": {"lat": 40.651803160069534, "lng": 117.27310123629223}, "feature": {"sight_features": "", "sight_content": ""}}, {"title": "超级工矿土产日杂", "address": "南村路与214省道交叉口北150米", "image": "", "rank": 47, "time": 2, "location": {"lat": 40.25674691410845, "lng": 116.28095415138388}, "feature": {"sight_features": "", "sight_content": ""}}, {"title": "家佳美灯饰画廊", "address": "秀水东街106附近", "image": "", "rank": 48, "time": 2, "location": {"lat": 39.922479901277214, "lng": 116.45589636470501}, "feature": {"sight_features": "", "sight_content": ""}}, {"title": "忠义文化园", "address": "藏山对面2公里", "image": "", "rank": 49, "time": 2, "location": {"lat": 38.227494495742825, "lng": 113.36200751970566}, "feature": {"sight_features": "", "sight_content": ""}}, {"title": "红旗影剧院", "address": "钟镇北路与秀水东街交叉口", "image": "", "rank": 50, "time": 2, "location": {"lat": 38.09148677280732, "lng": 113.41961517743309}, "feature": {"sight_features": "", "sight_content": ""}}, {"title": "南娄剧场", "address": "216省道附近", "image": "", "rank": 51, "time": 2, "location": {"lat": 40.32216149734673, "lng": 116.0541317406228}, "feature": {"sight_features": "", "sight_content": ""}}, {"title": "鑫睿游乐场", "address": "牛村镇华北奕丰生态园内(盂县东高速路口200米处)", "image": "", "rank": 52, "time": 2, "location": {"lat": 38.09231352004657, "lng": 113.4919694768022}, "feature": {"sight_features": "", "sight_content": ""}}, {"title": "千佛寺摩崖造像", "address": "山西省盂县肖家汇乡南兴道村", "image": "", "rank": 53, "time": 2, "location": {"lat": 38.28147820071506, "lng": 113.32910086592518}, "feature": {"sight_features": "", "sight_content": ""}}, {"title": "石川沟", "address": "阳泉市-盂县", "image": "", "rank": 54, "time": 2, "location": {"lat": 38.091979630200996, "lng": 113.4184204607489}, "feature": {"sight_features": "", "sight_content": ""}}, {"title": "大汖村", "address": "山西省盂县梁家寨乡", "image": "", "rank": 55, "time": 2, "location": {"lat": 38.45267833729472, "lng": 113.4717956541508}, "feature": {"sight_features": "", "sight_content": ""}}]}