{"cityName": "禹州", "days": 2, "cityImage": "", "spots": [{"title": "大鸿寨风景区", "address": "禹州市鸠山镇后地村", "image": "", "rank": 1, "time": 3.5, "location": {"lat": 34.24307025742615, "lng": 113.09797011366702}, "feature": {"sight_features": "特色1 长1200米的奇特大溶洞", "sight_content": "【金秋红叶节】\n大鸿寨风景区（国家AAAA级景区）集自然、山、水、洞、林为一体，其优美而丰富的自然生态旅游环境，符合人们回归自然的心理需求，是河南省少有的自然生态旅游区之一。大鸿寨风景区位于河南省禹州市西北边陲鸠山乡境内，为伏牛山系余脉。主峰大鸿寨高1156米，驻足山巅，俯视远眺，万壑纵横，群山拱围，峰峦叠翠，气象万千。大鸿寨风景区，面积30平方公里，以涌泉河流为界，自然分成南北两大区域。\n北区自西向东，巍峨雄壮的大鸿寨主峰、尖峭峻拔的摘星楼，开阔平坦的坷垃垛依次排列。在这“三峰”的怀抱里，自西向东有簸箕掌、钻天洞、烽王台、一线天、过风口、吊桥坳、和尚洞、白果树、水帘洞、白果树、水帘洞、佛爷庙、樊梨花台、老羊山等28处景观。这些景点或高悬于峭壁之上，或掩映于原始林木之间，或盘踞于沟壑之处，或令翅于高峰之巅，有的清丽、有的雄浑、有的灵空、有的凝炼、五光十色，琳琅满目。置身其间，移步换景，身若飘然；四季更替，风景变幻；昼夜有分，各具洞天；晴雨有别，致趣各般。\n\n大鸿寨红叶节，在大鸿寨红叶谷看到了满山遍野的红叶，把群山装扮的分外妖娆。在璀璨的秋日阳光下，黄栌树叶好像偷喝了酝酿醇厚而浓郁的美酒，忽地红得各有千秋：或桃红、或紫红、或嫣红、或猩红、或降红、或鲜红等，片片红叶纷纷露出灿烂的笑脸，鲜红似火，闪烁生辉，真是色彩缤纷、变化多端，令人叹为观止。秋令红叶，美如云霞，阳光照耀，绚丽多彩。树树皆秋色，山山唯落晖。这正是“只言春色能娇物，不道秋霜更媚人”。"}}, {"title": "神垕古镇", "address": "许昌市禹州市神垕镇236省道附近", "image": "", "rank": 2, "time": 1.5, "location": {"lat": 34.274375842920406, "lng": 113.28754651066133}, "feature": {"sight_features": "", "sight_content": ""}}, {"title": "逍遥观", "address": "许昌市禹州市马沟村花山坡景区向北2公里", "image": "", "rank": 3, "time": 1.0, "location": {"lat": 34.32066256190498, "lng": 113.38481094668658}, "feature": {"sight_features": "", "sight_content": ""}}, {"title": "禹州钧官窑址博物馆", "address": "许昌市禹州市钧官窑路", "image": "", "rank": 4, "time": null, "location": {"lat": 34.16819710362577, "lng": 113.48979769836735}, "feature": {"sight_features": "", "sight_content": ""}}, {"title": "白沙水库", "address": "禹州市花石乡白北村", "image": "", "rank": 5, "time": 4.0, "location": {"lat": 34.278089318505955, "lng": 113.30116113914}, "feature": {"sight_features": "", "sight_content": ""}}, {"title": "禹州森林植物园", "address": "许昌市禹州市城区东北部103省道旁", "image": "", "rank": 6, "time": 4.5, "location": {"lat": 34.09279302890878, "lng": 113.4838699222393}, "feature": {"sight_features": "", "sight_content": ""}}, {"title": "周定王陵", "address": "许昌市禹州市无梁镇", "image": "", "rank": 7, "time": 2.0, "location": {"lat": 34.295232026324065, "lng": 113.61111426891381}, "feature": {"sight_features": "", "sight_content": ""}}, {"title": "画圣祠", "address": "禹州市鸿畅镇山底吴村", "image": "", "rank": 8, "time": 1.0, "location": {"lat": 34.105216067744884, "lng": 113.35338228394474}, "feature": {"sight_features": "", "sight_content": ""}}, {"title": "大鸿寨滑雪场", "address": "许昌市禹州市鸠山镇后地村", "image": "", "rank": 9, "time": 2, "location": {"lat": 34.24307025742615, "lng": 113.09797011366702}, "feature": {"sight_features": "", "sight_content": ""}}, {"title": "伯灵翁庙", "address": "禹州市神垕镇神垕老街", "image": "", "rank": 10, "time": 2, "location": {"lat": 34.13744301851092, "lng": 113.23039837572767}, "feature": {"sight_features": "", "sight_content": ""}}, {"title": "官窑钧瓷文化交流中心", "address": "河南省许昌市禹州市府东路", "image": "", "rank": 11, "time": 2, "location": {"lat": 34.14683846545644, "lng": 113.49641958707825}, "feature": {"sight_features": "", "sight_content": ""}}, {"title": "禹州祖师庙", "address": "许昌市禹州市磨街乡侯沟", "image": "", "rank": 12, "time": 2.0, "location": {"lat": 34.157701807655975, "lng": 113.17199117219802}, "feature": {"sight_features": "", "sight_content": ""}}, {"title": "禹州宣和陶瓷博物馆", "address": "禹王大道中段", "image": "", "rank": 13, "time": 1.5, "location": {"lat": 34.149725317295854, "lng": 113.48361033081132}, "feature": {"sight_features": "", "sight_content": ""}}, {"title": "禹州市图书馆", "address": "禹王大道与府东路交叉口南165米路西", "image": "", "rank": 14, "time": 1.5, "location": {"lat": 34.144345621142214, "lng": 113.49582405723702}, "feature": {"sight_features": "", "sight_content": ""}}, {"title": "锦阳温泉", "address": "滨河大道西段老体育场北门向西300米锦阳宾馆院内", "image": "", "rank": 15, "time": 2, "location": {"lat": 37.532799288784254, "lng": 122.07509388631681}, "feature": {"sight_features": "", "sight_content": ""}}, {"title": "金马游乐园", "address": "禹王广场东门", "image": "", "rank": 16, "time": 2, "location": {"lat": 34.14704122971959, "lng": 113.49156121401572}, "feature": {"sight_features": "", "sight_content": ""}}, {"title": "豫征农业金山岭生态园", "address": "南苌庄村南600米", "image": "", "rank": 17, "time": 2, "location": {"lat": 34.30836182315856, "lng": 113.3316812476043}, "feature": {"sight_features": "", "sight_content": ""}}, {"title": "慧润阶梯悦读馆", "address": "滨河大道97附近", "image": "", "rank": 18, "time": null, "location": {"lat": 34.15862976523673, "lng": 113.48591349685515}, "feature": {"sight_features": "", "sight_content": ""}}, {"title": "瓦店遗址", "address": "河南禹州市火龙镇瓦店村 461000", "image": "", "rank": 19, "time": 2, "location": {"lat": 34.19204729448518, "lng": 113.412810169144}, "feature": {"sight_features": "", "sight_content": ""}}, {"title": "科迪食文化广场", "address": "河南省许昌市禹州市平安路与禹王大道交叉口东南50米", "image": "", "rank": 20, "time": 2, "location": {"lat": 34.151950231171796, "lng": 113.47222166206431}, "feature": {"sight_features": "", "sight_content": ""}}, {"title": "夏禹公园", "address": "府西路与禹王大道交叉口东南200米", "image": "", "rank": 21, "time": 2, "location": {"lat": 34.14665655751951, "lng": 113.49474492282789}, "feature": {"sight_features": "", "sight_content": ""}}, {"title": "山货厂清真寺", "address": "河南省许昌市禹州市夏半线永超购物中心西150米", "image": "", "rank": 22, "time": 2, "location": {"lat": 34.21026175410525, "lng": 113.62845368346078}, "feature": {"sight_features": "", "sight_content": ""}}, {"title": "红果果儿童乐园", "address": "河南省许昌市禹州市颍川街道迎宾东路博雅苑北门", "image": "", "rank": 23, "time": 2, "location": {"lat": 34.161575475341174, "lng": 113.48191827716289}, "feature": {"sight_features": "", "sight_content": ""}}, {"title": "禹州市文献博物馆", "address": "禹王大道与府东路交叉口南165米路西", "image": "", "rank": 24, "time": 1.5, "location": {"lat": 34.144345621142214, "lng": 113.49582405723702}, "feature": {"sight_features": "", "sight_content": ""}}, {"title": "金色颍河嬉水园", "address": "轩辕路商博城内南侧", "image": "", "rank": 25, "time": 2, "location": {"lat": 45.75849008530678, "lng": 126.6912963625114}, "feature": {"sight_features": "", "sight_content": ""}}, {"title": "梅月峯山庄", "address": "上堂附近", "image": "", "rank": 26, "time": 2, "location": {"lat": 27.81173064992906, "lng": 119.95370856738391}, "feature": {"sight_features": "", "sight_content": ""}}, {"title": "图书馆(山林南街店)", "address": "山林南街", "image": "", "rank": 27, "time": 2, "location": {"lat": 34.162329394115396, "lng": 113.47601864764135}, "feature": {"sight_features": "", "sight_content": ""}}, {"title": "湛江东坡荔园渡假村", "address": "广东省湛江市麻章区麻章区 524098", "image": "", "rank": 28, "time": 1.5, "location": {"lat": 21.26918876656652, "lng": 110.34057918516478}, "feature": {"sight_features": "", "sight_content": ""}}, {"title": "扒村窑址", "address": "河南禹州市浅井乡扒村 461693", "image": "", "rank": 29, "time": 2, "location": {"lat": 34.27980006514189, "lng": 113.45464053506394}, "feature": {"sight_features": "", "sight_content": ""}}, {"title": "国宝洞藏·国藏郎(禹州市总代理)", "address": "画圣路与迎宾东路交叉口西南100米", "image": "", "rank": 30, "time": 2, "location": {"lat": 34.16085998452019, "lng": 113.49317376672822}, "feature": {"sight_features": "", "sight_content": ""}}, {"title": "龙泉寺", "address": "河南省许昌市禹州市大鸿寨景区", "image": "", "rank": 31, "time": 3.0, "location": {"lat": 34.24067710352528, "lng": 113.1030124129861}, "feature": {"sight_features": "", "sight_content": ""}}, {"title": "松树庙", "address": "平顶山市郏县", "image": "", "rank": 32, "time": 2, "location": {"lat": 33.977486289176724, "lng": 113.21960622765287}, "feature": {"sight_features": "", "sight_content": ""}}, {"title": "大悲禅寺", "address": "河南省许昌市禹州市", "image": "", "rank": 33, "time": 0.75, "location": {"lat": 34.14608219502903, "lng": 113.49550522435729}, "feature": {"sight_features": "", "sight_content": ""}}, {"title": "禹州城隍庙", "address": "河南省许昌市禹州市西大街", "image": "", "rank": 34, "time": 2.25, "location": {"lat": 34.16916605138488, "lng": 113.47724883930844}, "feature": {"sight_features": "", "sight_content": ""}}, {"title": "方氏总祠堂", "address": "许昌市禹州市", "image": "", "rank": 35, "time": 2, "location": {"lat": 34.14608219502903, "lng": 113.49550522435729}, "feature": {"sight_features": "", "sight_content": ""}}, {"title": "禹州上宅公园世纪", "address": "振兴路与颖北大道交汇处", "image": "", "rank": 36, "time": 1.5, "location": {"lat": 34.42866977916716, "lng": 112.76695565066915}, "feature": {"sight_features": "", "sight_content": ""}}, {"title": "张良文化度假村美食庄园", "address": "颖北大道东段颖河迎宾馆(东北门)附近", "image": "", "rank": 37, "time": 2, "location": {"lat": 34.16663509419369, "lng": 113.50274001074813}, "feature": {"sight_features": "", "sight_content": ""}}, {"title": "海贝儿儿童主题乐园", "address": "颍川办禹王大道禹王广场三楼北厅", "image": "", "rank": 38, "time": 2, "location": {"lat": 34.14704122971959, "lng": 113.49156121401572}, "feature": {"sight_features": "", "sight_content": ""}}, {"title": "怀帮会馆", "address": "河南省许昌市禹州市建功路", "image": "", "rank": 39, "time": null, "location": {"lat": 34.17223582296599, "lng": 113.47353702746663}, "feature": {"sight_features": "", "sight_content": ""}}, {"title": "天宝洞藏国藏郎顺店直营店", "address": "河南省许昌市禹州市顺店镇毛石线惠乐生活广场西北100米", "image": "", "rank": 40, "time": 2, "location": {"lat": 34.241902472765204, "lng": 113.34960042673079}, "feature": {"sight_features": "", "sight_content": ""}}, {"title": "河南古陶瓷博物馆", "address": "禹州市钧官窑址博物馆", "image": "", "rank": 41, "time": 2, "location": {"lat": 34.17262052257328, "lng": 113.48546664321547}, "feature": {"sight_features": "", "sight_content": ""}}, {"title": "钧瓷行业协会大师艺术馆", "address": "药城路", "image": "", "rank": 42, "time": 2, "location": {"lat": 34.16656152121395, "lng": 113.49627416309416}, "feature": {"sight_features": "", "sight_content": ""}}, {"title": "云都温泉", "address": "滨河大道与夏都路交叉口向东80米(城上城小区对面)", "image": "", "rank": 43, "time": 2, "location": {"lat": 34.161091024277155, "lng": 113.47075559962457}, "feature": {"sight_features": "", "sight_content": ""}}, {"title": "科学技术馆", "address": "府西路", "image": "", "rank": 44, "time": 2, "location": {"lat": 40.16020843938858, "lng": 116.83628235429431}, "feature": {"sight_features": "", "sight_content": ""}}, {"title": "孔家钧瓷艺术馆", "address": "府东路", "image": "", "rank": 45, "time": 2, "location": {"lat": 40.052764939970075, "lng": 117.41601319795963}, "feature": {"sight_features": "", "sight_content": ""}}, {"title": "晓东美术工作室", "address": "颖河大街与连堂路交叉口往北70米路东(近千钧画具)", "image": "", "rank": 46, "time": 2, "location": {"lat": 34.17498972288428, "lng": 113.47971984061374}, "feature": {"sight_features": "", "sight_content": ""}}, {"title": "一品画廊", "address": "一峰超市桥北邻向西30米", "image": "", "rank": 47, "time": 2, "location": {"lat": 23.32128661222331, "lng": 113.24099968675924}, "feature": {"sight_features": "", "sight_content": ""}}, {"title": "芭啦啦水上乐园", "address": "南四环梁北世纪弘景生态园对面", "image": "", "rank": 48, "time": 2, "location": {"lat": 34.135169607324464, "lng": 113.44881133628762}, "feature": {"sight_features": "", "sight_content": ""}}, {"title": "张俊科钧窑艺术馆", "address": "钧官窑路117号", "image": "", "rank": 49, "time": 2, "location": {"lat": 34.16150541135391, "lng": 113.48865977704905}, "feature": {"sight_features": "", "sight_content": ""}}, {"title": "宝瓷林艺术馆", "address": "迎宾东路95附近", "image": "", "rank": 50, "time": 2, "location": {"lat": 34.161814377864516, "lng": 113.48825865399476}, "feature": {"sight_features": "", "sight_content": ""}}, {"title": "桂花园农家院", "address": "016县道褚河乡政府向北2公里路东", "image": "", "rank": 51, "time": 2, "location": {"lat": 34.13813029865831, "lng": 113.55858792032052}, "feature": {"sight_features": "", "sight_content": ""}}, {"title": "水魔方水上乐园(禹州店)", "address": "北关花园北关大桥北500米城管大楼东侧(7路车终点站)", "image": "", "rank": 52, "time": 2, "location": {"lat": 34.720504959169205, "lng": 116.59808531709794}, "feature": {"sight_features": "", "sight_content": ""}}, {"title": "植物园水上乐园", "address": "禹州植物园内水上乐园", "image": "", "rank": 53, "time": 2, "location": {"lat": 34.14608219502903, "lng": 113.49550522435729}, "feature": {"sight_features": "", "sight_content": ""}}, {"title": "阳仔的家", "address": "山货乡二组", "image": "", "rank": 54, "time": 2, "location": {"lat": 38.96605193212037, "lng": 117.65862022261642}, "feature": {"sight_features": "", "sight_content": ""}}, {"title": "禹州市腊梅园水行", "address": "陶瓷城东路(永辉超市西边)", "image": "", "rank": 55, "time": 1.5, "location": {"lat": 29.033825814348393, "lng": 106.65577085735312}, "feature": {"sight_features": "", "sight_content": ""}}, {"title": "泓硕生态园", "address": "鸿畅镇南田庄村", "image": "", "rank": 56, "time": 2, "location": {"lat": 34.11137425064877, "lng": 113.32868925425576}, "feature": {"sight_features": "", "sight_content": ""}}, {"title": "大洪寨玉山专业合作社", "address": "河南省许昌市禹州市", "image": "", "rank": 57, "time": 2, "location": {"lat": 34.14608219502903, "lng": 113.49550522435729}, "feature": {"sight_features": "", "sight_content": ""}}, {"title": "金色颖河", "address": "花园路62号", "image": "", "rank": 58, "time": 2, "location": {"lat": 37.68760961129073, "lng": 112.75272918630763}, "feature": {"sight_features": "", "sight_content": ""}}, {"title": "杨志钧瓷艺术馆", "address": "神垕汽车站向东200米", "image": "", "rank": 59, "time": 2, "location": {"lat": 34.12700490657197, "lng": 113.24200700266354}, "feature": {"sight_features": "", "sight_content": ""}}, {"title": "治国麦草画艺术馆", "address": "阳翟大道北100米", "image": "", "rank": 60, "time": 2, "location": {"lat": 34.143166131314565, "lng": 113.47795808384758}, "feature": {"sight_features": "", "sight_content": ""}}]}