{"cityName": "扎赉特旗", "days": 2, "cityImage": "", "spots": [{"title": "扎赉特旗森林公园", "address": "基督教堂西南侧", "image": "", "rank": 1, "time": 4.0, "location": {"lat": 39.619174922019354, "lng": 116.70788090029238}, "feature": {"sight_features": "", "sight_content": ""}}, {"title": "开心哈乐室内儿童游乐园", "address": "音德尔镇德克士东侧胡同内", "image": "", "rank": 2, "time": 2, "location": {"lat": 39.736145293587825, "lng": 116.14825031434533}, "feature": {"sight_features": "", "sight_content": ""}}, {"title": "达格吐", "address": "兴安盟扎赉特旗", "image": "", "rank": 3, "time": 2, "location": {"lat": 46.72918953935754, "lng": 122.90644442882986}, "feature": {"sight_features": "", "sight_content": ""}}, {"title": "木华黎广场", "address": "中心西街与光明南路交叉口西北200米", "image": "", "rank": 4, "time": 2, "location": {"lat": 46.72600801273793, "lng": 122.90710560414286}, "feature": {"sight_features": "", "sight_content": ""}}, {"title": "浴都休闲广场", "address": "裕国花园(东北门)附近", "image": "", "rank": 5, "time": 2, "location": {"lat": 24.929325329719784, "lng": 103.14676932862056}, "feature": {"sight_features": "", "sight_content": ""}}, {"title": "星期六儿童成长主题乐园", "address": "音德尔镇音德尔第一小学对面", "image": "", "rank": 6, "time": 2, "location": {"lat": 46.735431682572276, "lng": 122.90957042690285}, "feature": {"sight_features": "", "sight_content": ""}}, {"title": "新元广场", "address": "新林中学附近", "image": "", "rank": 7, "time": 2, "location": {"lat": 47.248920956152055, "lng": 122.48661301965035}, "feature": {"sight_features": "", "sight_content": ""}}, {"title": "地球人电竞网吧", "address": "兴安盟-扎赉特旗-音德尔镇蒙佳花园小区15号楼12号门市", "image": "", "rank": 8, "time": 2, "location": {"lat": 46.73984252380391, "lng": 122.94039838466561}, "feature": {"sight_features": "", "sight_content": ""}}, {"title": "火狐狸休闲广场", "address": "中心西街与音德尔南路交叉口北100米", "image": "", "rank": 9, "time": 2, "location": {"lat": 46.72869532107337, "lng": 122.91430906931552}, "feature": {"sight_features": "", "sight_content": ""}}, {"title": "佛净堂", "address": "民族路与神山西街交叉口西南100米", "image": "", "rank": 10, "time": null, "location": {"lat": 31.909199228140412, "lng": 121.30903625505988}, "feature": {"sight_features": "", "sight_content": ""}}]}