{"cityName": "枣庄", "days": "", "cityImage": "", "spots": [{"title": "台儿庄古城", "address": "枣庄市台儿庄区华兴路东段", "image": "", "rank": 1, "time": 3.0, "location": {"lat": 34.56657483982404, "lng": 117.73850669960188}, "feature": {"sight_features": "特色1 清朝乾隆赐名“天下第一庄”，一河渔火，歌声十里，夜不罢市 特色2 中国首座二战纪念城市，最后一段活着的古运河 特色3 永不落幕的非遗博览会，中国民居建筑博物馆", "sight_content": "﻿中国首座二战纪念城市。被世人誉为“中华民族扬威不屈之地”，有53处战争遗迹保存完好。运河文化活化石、中国民居建筑博物馆。八种建筑风格集于一体，七十二座庙宇汇于一城，是古运河畔唯一一座南北交融、中西合璧的历史文化名城。最后一段活着的古运河。拥有京杭运河唯一一处古驳岸、古码头等水工遗存完整的6华里古运河，被世界旅游组织称为“活着的古运河”。中华古水城。城内拥有18个汪塘和30华里的水街水巷，可以舟楫摇曳、遍游全城。全国首家海峡两岸交流基地。2009年12月被国台办批准为海峡两岸交流基地，是海峡两岸经济、政治、文化交流的重要载体。永不落幕的非遗博览会。汇聚了数百个国家级非物质文化遗产项目，传承人现场制作与游客互动，实现了活态传承，古城内“月月有主题、天天看非遗”。齐鲁文化新地标。荣获山东省“十佳景区”和“齐鲁文化新地标”榜首。\n\n\n“台儿庄”的名字始见于《明史》和明代碑文。《明史·河渠志》称“台庄”，明正德年间所立之泰山庙碑文中称“台家庄集”，崇祯十二年（1639年）立于黄林庄前之河防碑中始用今名“台儿庄”。台儿庄为山东省枣庄市辖区，地处苏鲁两省交界处，总面积538.5平方公里，辖5个镇1个街道，351个行政村。台儿庄为山东南大门、江苏北屏障，历来为兵家、商家必争之地。1938年春，发生在此的台儿庄大战，歼敌万余人，英雄的台儿庄被誉为“中华民族扬威不屈之地”。被世界旅游组织誉为“活着的运河”、“京杭运河仅存的遗产村庄”，重建后的台儿庄古城，将成为世界上继华沙、庞贝、丽江之后，第四座重建的古城，世界第三座二战城市，全国海峡两岸交流基地。\n\n\n台儿庄古城，占地2平方公里，11个功能分区、8大景区和29个景点。八种建筑风格融为一体，七十二座庙宇汇于一城，南北交融、中西合璧，是运河文化的活化石；拥有京杭运河仅存的最后3公里古运河，被世界旅游组织称为“活着的运河”，是京杭运河最后一段活着的运河；城内拥有18个汪塘和7公里的水街水巷，可以舟楫摇曳、遍游全城，是名副其实的东方古水城。同时这里也是国台办批准的全国海峡两岸交流基地，是两岸交流的重要平台。\n台儿庄古城景区在文化展示上，围绕大战文化、运河文化和鲁南文化，规划建设运河奏折展馆、兰祺书寓等博物馆，逐步将整个古城打造成为一本大百科全书；在经营业态上，主要以国内高端品牌的酒吧、茶楼、客栈和运河沿线及山东非物质文化遗产展示为主，用“创态”的理念，丰富业态的主题文化内涵。\n\n\n在景区运营管理上，叫响“天下第一庄”品牌，打造精品旅游，按照国家aaaaa级景区标准进行运营管理，把台儿庄古城打造成为集“运河文化”和“大战文化”为一城，融“齐鲁豪情”和“江南韵致”为一域，极具人文魅力的旅游目的地，成为沿运独有、世界知名的旅游休闲度假区，成为世界文化遗产中的一颗明珠、一块瑰宝。"}}, {"title": "微山湖红荷湿地景区", "address": "枣庄市滕州市滨湖镇", "image": "", "rank": 2, "time": 3.5, "location": {"lat": 35.125378181167314, "lng": 116.89057049468768}, "feature": {"sight_features": "特色1 夏季来坐游船观赏万顷红荷铺满湖面，其景美不胜收。 特色2 参观湿地博物馆，登湖中小岛参观《铁道游击队》的拍摄地。", "sight_content": "‍滕州市微山湖古镇荣获“影响世界的—中国文化旅游名镇”荣誉称号，滕州市微山湖湿地红荷风景区荣获“影响世界的—中国文化旅游名景”荣誉称号。\n\n\n滕州微山湖湿地红荷旅游区位于滕州市西部滨湖镇境内，总面积90平方公。这里有55公里的湖岸线、丰富的物种资源、十万多亩的野生红荷、数十平方公里的芦荡湿地及国内罕见的水上森林，风光旖旎，美不胜收，不仅是体验水乡风韵、感受湿地风情、尽览生态胜景的胜地，也是人们休闲度假的旅游胜地。\n\n\n滕州微山湖湿地红荷旅游区现已被评为国家aaaa旅游景区、国家湿地公园、国家级水利风景区、全国环境教育示范基地、全国湿地红荷标准化示范区、全国摄影家协会拍摄基地、全国垂钓协会比赛基地、山东省消费者满意单位，影响力辐射国内外。滕州微山湖湿地红荷风景区是“泰山—曲阜”旅游热线上的新亮点。微山湖湿地红荷旅游区，拥有久负盛名的万顷红荷，百里芦荡，素有中国\"荷都\"之称。\n\n\n万顷红荷，百里芦荡，鸥鹭翔集，碧水白矾，构成了微山湖独有的风韵。景区内还有古龙泉，牧仙洞，元明百寿石坊等景点和\"鱼舟唱晚\"，\"芦荡飞雪\"等奇景。\n\n\n网红桥简介：\n夏游万顷红荷，苇浪翻波，现更能体验不一样的玩法。\n一桥架南北，步步惊心思绪飞。全程396米，江北最长的网红吊桥、溜索。步惊心桥:不一样的网红桥，推出网红新玩法，吊桥全长396米，让你在桥上领略不一样的荷花美。\n索引天下客，坐瞰荷花美，高空溜索，集惊险刺激于一身，索长396米，让您在体验刺激的同时还能在高空上观看不一样的景观。\n漫步湖端，步步惊心；天空之索，放胆滑来。\n盛夏的湿地是一个美丽的季节，可以在步步惊心桥上观赏荷花的盛开，可以在滑索上全方位体验荷花不一样的美，湿地的夏应该是满目的绿，漫野的红荷，睡莲的盛开让我们更能感受到湿地的热情。"}}, {"title": "抱犊崮国家森林公园", "address": "枣庄市山亭区北庄镇", "image": "", "rank": 3, "time": 3.0, "location": {"lat": 34.97242883606399, "lng": 117.69315464191318}, "feature": {"sight_features": "特色1 松柏茂盛，苍翠欲滴，奇花异草，满崮烂漫 特色2 有山东省的“百鸟园”，3000余只世界各地珍稀鸟禽在此安家 特色3 分为巢云竹林、桃源仙境、君山望海、凤落古崖4 个景区", "sight_content": "抱犊崮国家森林公园位于山东枣庄境内20公里处，以君临天下的气势，庄重雄奇的内涵俯瞰拥抱着鲁南大地。《辞海》这样来说“崮”：“崮是四周陡峭顶平的山，如山东省的抱犊崮。”抱犊崮以其“雄”、“奇”、“险”、“秀”而为鲁南72崮之首，被称为“天下第一崮”。\n\n抱犊崮就像一本厚重的地质史书记载了几十亿年的沧桑变化，具有跨越二十六亿年典型发育的寒武纪地质岩层。进入景区，华北地区地质剖面便一目了然，让游人感到高山仰止，惊叹造物主的鬼斧神工。这座山汉代称“楼山”，魏晋称“仙台山”，明清时叫“君山”。又因相传“昔有王老抱犊耕其上，后仙去”而得名抱犊崮。景区负氧离子含量每立方厘米7万2千个，为天然氧吧。抱犊崮秉承着日月精华，叠换着四季景色：春报桃李争艳放，夏暑浓荫不侵肌。秋染红叶醉菲芳，冬雪绽玉松梅奇。游人拾阶而上，三清观、会仙亭、桃源洞、泻月侵云、古洞水帘、摩崖石刻十八罗汉。让人目不暇接，留连忘返。放眼崮顶，是60余亩开阔的土地，云牵梦绕，林茂草丰。踏上崮顶的望海石，远眺云海日出，“一览众山小”，更令人心旷神怡。\n\n东晋道家抱朴子把抱犊崮与泰山、峨嵋山、罗浮山同列为“图经宇内三十二福地”。 《峄县志》把“君山望海”列为峄县八景之冠。    1923年，这里发生了震惊世界的“民国大劫案”。1939年，罗荣桓元帅率八路军115师创建了抱犊崮抗日根据地，建立了鲁南农村第一个党支部、鲁南第一个县级人民抗日政权。同时，这里还是“铁道游击队”的后方根据地。\n\n近年来，通过进一步保护开发，抱犊崮已成为国家森林公园、国家地质公园、国家水利风景区、全国农业旅游示范点、国家“4a”级景区、省级风景名胜区、省级自然保护区、省级科普教育基地、山东十佳森林公园、山东十大魅力景区、山东自驾车旅游首选目的地之一。 抱犊崮有山东省较大的“百鸟园”，3000余只世界各地珍稀鸟禽在此安家，使这里真正成为人与自然共处的和谐乐园。\n抱犊崮新建了上山索道，让游人可以轻松登临崮顶。景区新上娱乐项目，真人cs丛林野战，已向游客开放。游人在这里可以亲身体验战火纷飞的激战场面！同时，体验惊险刺激的高坡滑草，感受急速滑行的快乐瞬间，让您的抱犊崮之旅更加充实！"}}, {"title": "冠世榴园", "address": "枣庄市区南部、峄城区西部的群山之阳", "image": "", "rank": 4, "time": 3.5, "location": {"lat": 34.77859987301135, "lng": 117.59639060966718}, "feature": {"sight_features": "", "sight_content": "冠世榴园风景区 是中国首家石榴主题生态祥和文化景区，位于山东省枣庄市峄城区西部的群山之阳，东西蜿蜒35公里，南北宽2.5公里，面积达15余万亩，有榴树535余万株，48个品种，始建于西汉成帝年间，距今已有2000年的历史，素以历史之久、面积之大、株数之多、品色之全、果质之优而闻名海内外，被誉为“天下第一榴园”。\n冠世榴园，不仅是我国重要的石榴林果生产基地，还是一处集自然风景、生态园林、民俗宗教、人文历史及观光游览、休闲度假为一体的生态文化旅游区，素有“生态游明珠”的美誉，先后被列为世界基尼斯之最、国家4a级旅游区、首批全国农业旅游示范点、省级风景名胜区、省级自然保护区、山东省文明景区。并先后荣获“好客山东旅游景区金榜品牌”、“好客山东十佳工农业旅游示范点”、“2010中国旅游品牌总评榜山东分榜最受欢迎自驾游景区”、“2010品牌山东“最具竞争力景区”、“山东省自驾游示范点”、“全省十大森林生态景观”和“山东省十佳森林旅游胜地”、山东省服务名牌、全省科普教育基地等荣誉称号。\n冠世榴园景区由六处景点组合而成，是以千年古檀林木景观和万亩榴园著称，以连绵起伏的山岳及崖岩地质景观为骨架，以石榴—青檀文化及鲁南文脉为灵魂的石榴主题生态祥和文化旅游区。有景区东大门之称的青檀寺景点，位于东西两山峡谷之中，谷中以青檀树为主，成形的有2万多株，树龄在1500年以上的有36棵，是我国江北面积最大的一片青檀林，极为罕见。青檀寺始建于唐代开元年间，原名为云峰寺，后因谷内长满青檀树而更名为青檀寺，经过多次修复完善，已成为鲁南地区香火旺盛、佛教旅游的名刹圣地。\n冠世榴园景区内还拥有几处有着厚重历史的万福园、三近书院、匡衡祠等景点。万福园是整个冠世榴园景区的发祥地，占地一万余亩，有古石榴树一万棵，有如意湖、恩赐泉、滴水阁、百子园、等景点，是求爱得爱、求子生子、求学好学、求福有福的人间天堂；三近书院为仿明建筑，兵部右侍郎遗风在，依稀处处翰墨香，再现了贾三近当年著书立说的具体场景；匡衡祠堂传佳话，“凿壁偷光”成栋梁。匡衡祠建在匡衡墓北侧，有门坊、神道、碑亭等建筑，游人到此，多为凭吊先贤、激励后学。"}}, {"title": "熊耳山国家地质公园", "address": "枣庄市山亭区北庄镇熊耳山风景区", "image": "", "rank": 5, "time": null, "location": {"lat": 34.999393095441825, "lng": 117.59063314777227}, "feature": {"sight_features": "特色1 罕见的双龙大裂谷 特色2 这里的景色，永远都是无霾模式", "sight_content": "熊耳山国家地质公园位于山东省枣庄市东北部北庄镇境内，因其主峰远看像一只大熊耳，故名熊耳山。\n\n在莽莽沧沧八百里沂蒙山脉深处，有一座闻名遐迩的熊耳山国家地质公园，因主峰远看像一只大熊耳故得名。她以熊耳山为主体，集群崮、裂谷、溶洞、温泉、崩塌地质灾害遗址等多种地质奇观为一体。是国家级地质公园、森林公园、典型地震遗址和全国农业旅游示范点。园内山峦树木叠嶂，奇峰异石林立，河流幽谷纵横，名胜古迹众生，犹如置身于一处“天然聚宝盆”。\n\n“全国罕见，山东仅有”的双龙大裂谷是公园的主要地质奇观。属5亿年前的海相沉积，造成山体滑坡，带动山顶出现裂隙而成。裂隙两条，俯看似两条播云撒雨的蛟龙，故称“双龙大裂谷”。裂谷呈“v”字形，东西绵延1000多米，深处达百余米，深邃陡峭，悬如天梯，几乎直上直下。宽处壁似双仞直插云间，岩上古木苍藤，浮云飘渺；窄处双壁合拢似刀切斧劈，眼前青天一线，荧如灯烛。谷内怪石嶙峋，纵横交错，谷天相应，曲径通幽，时而豁然开朗，时而遮天蔽日，犹如天街走廊，又似穿越时空隧道。裂谷钟乳奇石千姿百态，绝无仅有的落珠壁，摇摇欲坠的飞来石，面如刀削的千仞壁，奇妙壮观的一线天，栩栩如生的金光女神等奇观密布，胜景不绝，崖壁云烟氤氲，只堪鸟飞猿跃，人莫妄攀。走出裂谷，驻足苍台古径之上，但见山岚四合，绿野浮动，田庐错落，伽河如带，顿生“登临芳心远，身与壁云齐”之感。\n\n熊耳山西麓，满山遍野散落着奇形怪状的巨石，大则重千吨，小则几十吨。石石相叠、形态各异，仿佛刚从山顶滚落而下，这就是国家典型地震遗址“龙抓崖”，主要受1668年郯城大地震引发了大山崩造成的。当时一个小山村被埋没在乱石之下，掩埋的石碾石碓半边残露，闭目凝神300多年前地动山摇，山崩地裂的轰鸣声仿佛依然回响在耳畔。目前龙抓崖被国家地震局命名为全国仅有的四个崩塌地质遗址之一。中国熊耳山地震科普馆建成向游人开放。    熊耳山东畔，奇异绚丽的天生溶洞群风光无限，形态各异，令人目不暇接，叹为观止。黄龙洞保持了五亿年前原有的古老石纹和地质地貌，钟乳奇石蜿蜒攀附如巨龙腾飞，洞内的侏罗纪恐龙公园，使人恍如置身于神秘的远古时代。熊耳山周围民风民俗淳朴，古今掌故丰富，自然环境优美，流淌千年不息的西伽河，气势恢弘的抱犊平湖，钟灵毓秀的龙床峡瀑，享有葡萄世博园之誉的洪门生态村，诞生全国第一部村级民俗志的红山峪民俗村，孔子听歌处的沧浪渊等像镶嵌在公园里的一颗颗耀眼的明珠，吸引着各方游客的纷至踏来。走进了熊耳山，便走进了大地传奇、山川奇异、精灵空间，同自然同自己作了一次刻骨铭心的对话，一次振聋发聩的生命呐喊，一次与自然贴近最温馨的接触。"}}, {"title": "仙坛山温泉小镇", "address": "枣庄市市中区枣台路仙坛山风景区内", "image": "", "rank": 6, "time": 2, "location": {"lat": 34.78634354393382, "lng": 117.62128211636535}, "feature": {"sight_features": "特色1 原生态温泉养生和休闲功能", "sight_content": "仙坛山温泉小镇旅游度假有限公司是由山东中翔集团有限公司投资兴建的一处旅游度假休闲中心，是枣庄市50个城市转型工程之一，是江北地区最具生态特色的休闲、旅游、度假景区之一。 仙坛山温泉小镇位于枣庄仙坛山风景区内，以峄县八景之首“仙坛晓翠”为背景，依托姑嫂山、胭脂山、白马泉等景点形成一道靓丽的风景线。整个项目重点突出露天温泉的养生、休闲功能，由六个部分组成：即室内温泉洗浴区、露天温泉养生区、特色酒店区、会议餐饮区、时尚运动区、温泉别墅区。仙坛山温泉小镇的温泉水采自仙坛山地下1300米深处，富含人体所需的锌、铁、钙等多种矿物质。温泉建设引入日本温泉客房设计理念，把露天温泉池引入客房内。温泉汤屋是独立的精致别院，庭院内四季常绿，景色怡人。温泉客房内配备一系列高科技人性化的辅助设备，为游客提供餐饮、理疗等系列服务。\n仙坛山温泉小镇距峄城区冠世榴园3公里。三面青山环绕，景区内人文景观积淀深厚，自然植被保护完整。仙坛山1959年被山东省林业厅命名为“山东省森林公园”。公司内充分利用山体、水体、林体资源，创造出人与自然和谐共存的生态环境，是一个游憩、度假疗养、会议、文化娱乐的怡人场所。目前，仙坛山温泉小镇已被确定为市政府服务业“7个1”重点项目，3A景区已经获批，正在申请4A级景区。2011年荣获枣庄二日游工作“先进单位”荣誉称号，荣获徐州“最受欢迎的自驾游目的地”、上海广播电视台“指定休闲养生基地”、华东地区“游客最喜欢的十大旅游温泉”和“华东最美温泉”、中国“2012十大首选旅游度假酒店”等荣誉称号。"}}, {"title": "新盈泰生态温泉度假村", "address": "滕州市平行南路原104国道路西", "image": "", "rank": 7, "time": 2, "location": {"lat": 34.94743255351319, "lng": 117.17076842852876}, "feature": {"sight_features": "特色1 全世界都在寻找的稀有铁泉 特色2 设有免费宽屏影院、休息室、棋牌室、按摩室、图书室、健身房等 特色3 温泉中心建筑面积20000平方米，日接待能力可达2000人集温泉养生、观景休闲、健身疗养、自助餐饮多种功能于一体", "sight_content": "盈泰温泉度假村中心占地面积2万平方米，日平均可接待3000人。盈泰温泉度假村是以温泉洗浴、观景休闲、健身疗养为一体的娱乐场所。\n盈泰温泉度假村分上下两层，一层设有男、女宾洗浴区、嬉水大厅、游泳馆、茶艺馆、健身房、理发室等；二楼设有豪华休息室、自助餐厅中医理疗室、棋牌室、按摩室等。盈泰温泉度假村来自地下1580米深处，出水温度42.8度。水质清澈柔滑，富含多种矿物质。由于盈泰温泉度假村所处的独特地层结构，使得温泉水中含铁量极高，十分罕见。又由于盈泰温泉水和空气接触后氧化，造成了铁离子的沉淀，故而水质发黄。经科学调查证明，盈泰温泉水发黄时，方为泡温泉的最佳时间，特别是盈泰温泉水中的铁离子更容易被人体吸收，可明显起到补血、养颜、改善微循环的作用。\n经日本温泉协会鉴定，盈泰温泉水中含二价铁离子40mg/升以上，是名副其实的真正“铁泉”，被世界温泉协会誉称为“全世界都在寻找的稀有铁泉”。"}}, {"title": "翼云石头部落", "address": "枣庄市山亭区兴隆庄村", "image": "", "rank": 8, "time": 7.5, "location": {"lat": 35.10569198076537, "lng": 117.4674431655763}, "feature": {"sight_features": "特色1 山、水、村有机结合", "sight_content": "‍‍翼云石头部落旅游度假区主要以石板房、翼云山、翼云湖为核心，融入鲁南民俗和小邾国悠久历史，利用山、水、村等元素，开发建设集石板房山村探秘、民俗文化体验、田园农耕参与、城郊山水度假和山水游乐、商务会议、自驾野外宿营等功能于一体的综合性旅游度假区。翼云石头部落旅游度假区地处山东省枣庄‍‍市山亭区，距城区3公里、京沪高铁滕州站20公里、京福高速滕州山亭出入口35公里、枣临高速枣庄出入口50公里，交通便利，区位优势明显。该区背靠鲁南第一高峰翼云山，东接有高山下明珠之称的翼云湖，山水之间坐落着拥有我省现存规模最大、保存最完整的鲁南山区民居之一——石板房的古村落。这里山、水、村有机结合、相映成辉、相得益彰，是人们旅游、休闲度假的好去处。\n主要分三大分区：\n‍‍一是石头部落区。该分区是一处以观光体验和农耕参与、高山游乐为主题的观光型旅游分区。主要以鲁南民居为载体，把具有显著地方特色的石屋、石楼、石街、石径修旧如旧，再现人们记忆中的古山村。并融入鲁南地区各种民俗文化和民间技艺，重现往日“乡野民风”。在开发建设‍‍的大小不同、布局各异的民居中，有老百姓生活居住的居住房，增加村落的生活气息；有展示当地民间工艺、制作工艺的展示房，增加村庄的文化内涵；有功能齐全、外观原真的休闲度假房，满足游客的多种需求。在村后还有各种形式的高山游乐项目，实现旅游与体验的完美结合。\n二是高山峡谷度假区。该分区依托山谷，建坝蓄水，在水的两侧开发建设不同风格、不同特色的各式度假房院，充分利用地形、地貌，形成了低错落、生态自然、功能齐全的度假区；开发建设民居化的各式农家乐区，让游客参与其中，共享农家生活；在山坡平坦之处开发建设大型的三棵树餐饮中心、商务会议中心和高山荷塘汽车营地，中高端的各式度假形式都能完美体验。\n\n三是翼云湖滨水休闲游乐区。该分区是在四周群山环抱，碧水荡漾的翼云湖畔开发建设的高端滨水休闲游乐区。有各式各样的亲水游乐项目，有规模宏大的人造沙滩，有大小不同的游船观光和功能齐全的滨水休闲别墅。"}}, {"title": "台儿庄大战纪念馆", "address": "枣庄市台儿庄区沿河南路6号", "image": "", "rank": 9, "time": 2, "location": {"lat": 34.5646465031821, "lng": 117.73804925638537}, "feature": {"sight_features": "特色1 为纪念台儿庄战役而修建", "sight_content": "台儿庄大战纪念馆坐落在山东省枣庄市风景如画的古运河畔的台儿庄城西南郊，与大战时的火车站隔河相望。展览馆共有三个展室，建筑面积1400平方米，馆内陈列着台儿庄大战时中日双方资料、文物千余件，书画馆珍藏着参战将士和亲属以及著名书画家、政界人士的书画作品近千件。整个纪念馆融展览馆、书画馆、影视馆、全景画馆为一体，气势雄伟，庄严肃穆。影视馆主要播放当年外国战地记者拍摄的珍贵记录片和参战将士访谈录及《血战台儿庄》影片。\n\n\n全景画馆是我国唯一一家以抗战为题材的大型全景画馆，它是18边形的筒式建筑，高28米，直径43米，建筑面积3100平方米，《血战台儿庄》全景画馆包括绘画、地面塑型、灯光、音响和解说五个部分，将历史真实与艺术真实融为一体，生动地再现了中国军队在台儿庄以阵地战迎击日军，浴血奋战，直到取得胜利的历史过程，并选择北大门激战、清真寺争夺战、西北门争夺战等典型战斗场景为表现重点，整个画面高16.5米，周长124米，画面首尾相连成全周形，巨幅画面与逼真的地面塑型有机结合，配有特殊的灯光、立体音响，战斗气息极为浓烈，给人以身临其境之感。馆前三十八级台阶意味着一九三八年发生了震惊中外的中日台儿庄大战；二十四根立柱支撑着白色天棚，象征着中华民族顶天立地，永远屹立于世界民族之林；纪念馆馆名由著名书法家启功先生题写；主体建筑物前方矗立着台儿庄大战纪念碑，碑名由原国防部部长张爱萍将军题写，碑文由全国人大常委会副委员长程思远撰文、著名书法家权希军书写。整个纪念馆融展览馆、书画馆、影视馆、全景画馆为一体，气势雄伟，庄严肃穆。"}}, {"title": "运河湿地公园", "address": "枣庄市台儿庄运河大道", "image": "", "rank": 10, "time": 2.5, "location": {"lat": 34.582837811736184, "lng": 117.73281663128127}, "feature": {"sight_features": "特色1 个性独具的原始时尚休闲景区", "sight_content": "台儿庄运河湿地景区位于台儿庄运河大桥西侧，依京杭大运河而建，与台儿庄古城交相辉映，绵延13华里，占地20000余亩，是中国第一家以运河湿地为主题的景区。作为天然湿地，该地区原为运河北岸的一处秀丽湖湾，水壤交错，有茭芦莲菱、鱼虾蜄蛤之利，更有白鹭飞天、蛙鸣鸟啾之境。\n景区是一个自然与文化相融的个性独具的原始时尚休闲景区，汇集了生态环境、度假休闲、旅游观光、科普教育等功能于一体。景区在突出“自然、生态、野趣”的基础上，融入观景、人文、休闲和游乐等要素，形成了形成了以荷花岛为龙头、1600米云水曲径两翼展开，6华里的游船线路连接了生态垂钓园、自由采摘园、农事体验园、百荷观赏园、湿地动植物园“一线连五园”的旅游观光格局。岛屿、码头遥遥相望，各具特色，有机的把天然与人工、水文与人文、原生与后生广袤与细致结合起来，集“运河文化”和“湿地文化”为一体，融“鲁南风俗”和“江南韵致”为一域，是极具自然魅力的旅游目的地，也是沿运独有的旅游度假区。来到台儿庄，既看了古运河，又亲临了大战故地，触发了思古之情，享受了时尚生活，同时欣赏了“一川稻田绿，十里荷花香，千池虾跳，万顷碧波流”的“世外桃源”， 使人们融入了大自然的韵律，心旷神恰，全面展现了现代水上田园的自然生态景观和极高的观赏游憩价值。\n北起北京，南到杭州的京杭大运河是世界上最长的古代运河。台儿庄运河从烟波浩淼的微山湖东口，一条蜿蜒曲折的河流迤逦向东，流经广袤鲁南大地进江苏入中运河，号称\"活着的运河\"，全长42．5公里的台儿庄运河是整个京杭大运河中唯一完全东西流向的一段。在这个鲁南重镇，运河不仅带来经济繁荣，造就了十里港湾不夜城，留下了\"京杭大运河仅存的古运河段\"月河古道，同时还亲历了一场对中华民族生死攸关的大战，其历史风貌果然非其他地方可比。"}}, {"title": "龟山风景区", "address": "枣庄市市中区孟庄镇周村水库龟山风景区", "image": "", "rank": 11, "time": 2.5, "location": {"lat": 34.95279069681163, "lng": 117.69079006106504}, "feature": {"sight_features": "", "sight_content": "龟山风景区位于枣庄市区东北16公里的孟庄镇境内，紧濒境内惟一的中型水库——周村水库，北临国家级森林公园——抱犊崮，西、南两面群山环抱，含龟山、蛇山、黄山三山，流域面积约6000亩。\n景区现有景点数十个，较大的有溶洞、观音堂、山寨、木乃伊古墓、九龙石、老鹰石、八卦园、猴山、水上乐园等。改革开放的春风，使这座尘封多年的历史名山，以崭新的姿态，展示在世人面前。龟山，因山体形状酷似伏卧龟而得名，龟山海拔高度300余米，山顶周围悬崖峭壁，密布历代绿林豪杰设置的旗杆眼座，惟有南、北两面可自然上下。\n龟、蛇二山之间有龟山窝泉，泉水顺山涧而下，叮咚作响。山上还有清朝嘉庆年间木乃伊古墓一座及龟山寺遗址一处，山西侧山崖有多处自然溶洞，洞内有形态各异的钟乳、石笋等，山东省地质公园。 龟山历史悠久。从殷朝到明清，先人活动的踪迹遍布山顶，镌刻精细的八卦图，香烟缭绕的紫云观，雄伟壮观的古山寨依稀可见。\n山上峰雄石奇，林木茂密，春天花海一片，秋天硕果累累，一年四季郁郁郁葱葱。山下是周村水库，粼粼波光，叶叶扁舟，美不胜收。山水映照，交相生辉，真是一幅活脱脱的山水画。鲁南第一溶洞更令人连连称奇。溶洞全长600多米，洞连洞，纵横交错。洞内钟乳石倒挂，石笋林立，滴水叮咚，石壁耸立，既奇妙又壮观。尤其是钟乳石和石笋，千姿百态，栩栩如生。"}}, {"title": "铁道游击队影视城", "address": "枣庄市薛城区永兴路265号铁道游击队纪念园（临山公园）", "image": "", "rank": 12, "time": 2, "location": {"lat": 34.796430058129395, "lng": 117.28994841714857}, "feature": {"sight_features": "特色1 《铁道游击队》拍摄地", "sight_content": "铁道游击队影视城是为配合大型红色经典电视连续剧《铁道游击队》拍摄，薛城区委、区政府以建设全国百家红色旅游经典景区、爱国主义教育基地和影视剧拍摄基地为目标，规划、建设了具有民国特色建筑风格的铁道游击队影视城。\n\n\n自2006年3月面向社会全面开放，产生了重要而积极的影响，掀起了一股学习爱国主义精神的热潮，被列为全国30条“红色旅游”精品路线、100个重点建设的红色经典景区，并被命名为全国第3批爱国主义教育示范基地，是枣庄“二日游”品牌和“红色旅游”线路的重要组成部分。现影视城占地50余亩，建筑面积11800平方米，是一座具有民国时期建筑风格的城池。影视城内“枣庄老洋街”贯穿东西，街巷两侧店铺林立，块石路面自然有序。现依山建有“南圩子”、“大兵营”、“园中园”、“中陈郝古瓷窑展览馆”、“大茶房”、“合盛号当铺”、“鸽子楼”、“德顺兴药店”、“西城门”、“三星楼”、“正泰国际洋行”、“万福楼”、“鲁南奇石馆”、“高家大院”、“太史第”、“大东旅社”、“张府”、“义和炭厂”、“同乐戏院”、“沙沟炮楼”、“方炮楼”、“鲁南民俗博物馆”、“石牌坊”等建筑物，具有鲜明的清末民初的建筑风格，再现了当年老枣庄的人文历史风貌。\n\n\n开城以来，先后有红色经典剧《铁道游击队》、《铁道游击队2—战后篇》、《小小飞虎队》、《刘少奇故事》、《解放》、《生死十日》、《沂蒙》、《干的漂亮》等近60部影视剧在城内拍摄完成。"}}, {"title": "金水湾水上乐园", "address": "枣庄薛城光明大道杨峪风景区", "image": "", "rank": 13, "time": 2, "location": {"lat": 34.79832735891486, "lng": 117.42164371131986}, "feature": {"sight_features": "", "sight_content": ""}}, {"title": "铁道游击队纪念园", "address": "枣庄市薛城区泰山中路", "image": "", "rank": 14, "time": 2, "location": {"lat": 34.79771014339619, "lng": 117.28305704217452}, "feature": {"sight_features": "", "sight_content": ""}}, {"title": "滕州汉画像石馆", "address": "枣庄滕州市府前东路1号", "image": "", "rank": 15, "time": 2, "location": {"lat": 34.981585648988826, "lng": 117.05381645406534}, "feature": {"sight_features": "", "sight_content": ""}}, {"title": "东湖公园", "address": "山东省枣庄市市中区衡山路", "image": "", "rank": 16, "time": null, "location": {"lat": 34.84626027442913, "lng": 117.53056570857534}, "feature": {"sight_features": "", "sight_content": ""}}, {"title": "台儿庄古城滑雪场", "address": "枣庄市台儿庄区马兰屯镇台儿庄滑雪场及水上乐园", "image": "", "rank": 17, "time": 2, "location": {"lat": 34.60831816458388, "lng": 117.67731176212548}, "feature": {"sight_features": "", "sight_content": ""}}, {"title": "台儿庄战史陈列馆", "address": "文化路(近兴中路)", "image": "", "rank": 18, "time": 2, "location": {"lat": 21.613120740296736, "lng": 110.29141390234825}, "feature": {"sight_features": "", "sight_content": ""}}, {"title": "墨子纪念馆", "address": "枣庄滕州市塔寺街78号", "image": "", "rank": 19, "time": 2, "location": {"lat": 35.09116159809079, "lng": 117.17899063772602}, "feature": {"sight_features": "", "sight_content": ""}}, {"title": "莲青山省级地质公园", "address": "枣庄市滕州市东郭镇莲青山风景区", "image": "", "rank": 20, "time": 2, "location": {"lat": 35.27691954019191, "lng": 117.33281166732016}, "feature": {"sight_features": "特色1 旅游资源丰富，文化积淀深厚", "sight_content": "国家aaa级风景名胜区、国家森林公园，省级地质公园、山东十大影视拍摄地——莲青山风景区位于滕州市东北部东郭镇境内。规划控制面积84平方公里。北依齐鲁孔孟圣地；南领苏淮平原；东连沂蒙山；西接微山湖。莲青山山脉有大小山头99座，总面积140平方公里，主峰摩天岭海拔603米，是鲁南地区的第二高峰，莲青山北部有两万亩原始森林，森林覆盖率达到93%。古皇城位于莲青山山脉上，背依主峰，面积33万平方米，城前建有御桥，桥前有一小山作为屏风，构成三山加一头之地势。皇城择地势险峻而建，进可攻，退可守，有一夫当关，万夫莫开之势。\n\n\n摩天岭南麓林木覆盖率达95％以上，多为五角枫、榆等珍贵名木；其中，四季常青的松柏流翠欲滴，形态各异，微风吹过，飒飒作响，“青山松涛”由此成名。由摩天岭南行约两公里，即是奇石遍布的“旱海奇观”；连绵起伏的群山之中，岩石裸露，山峰林立，远望如一望无际的大海，古人称之为“旱海”，海内巨石、奇石遍布，有的像人，有的似物，飞禽走兽无所不有。据地质专家考证，“旱海”由变质岩系组成，岩层由太古界泰山群时期发育而成，全为花岗岩石结构。"}}, {"title": "滕国故城", "address": "滕州市姜屯镇滕城文公台", "image": "", "rank": 21, "time": 2, "location": {"lat": 35.05007751376366, "lng": 117.09738914550498}, "feature": {"sight_features": "", "sight_content": ""}}, {"title": "东方怡源温泉度假村", "address": "枣庄市峄城区仙人洞风景区", "image": "", "rank": 22, "time": 1.5, "location": {"lat": 34.780355477747975, "lng": 117.6558697629585}, "feature": {"sight_features": "特色1 含多种对人体有益的微量元素", "sight_content": "东方怡源度假村坐落于风景秀丽的枣庄市峄城区仙人洞风景区，占地面积10万多平方米，总投资3.5亿元斥资兴建。度假村依山而建，流水潺潺，楼台亭阁如明珠洒落，小桥长廊似玉带环绕，具有古典韵味的建筑风格在鲁南地区独树一帜。是一家按五星级标准建造的的以温泉为特色，集休闲、娱乐、住宿、餐饮、商务功能为一体的综合性豪华度假村。\n\n\n度假村内的泉水日夜喷薄而出，四时不竭，常年保持在35℃左右，日开采量可达2000 立方米。温泉属氯化钠型热矿水，泉水富含偏硅酸、碘、锶等多种有益人体健康的矿物质元素，具有调节植物神经、促进新陈代谢、改善心血管功能、调节内分泌、增进新陈代谢、提高机体免疫力等功效，是不可多得的天然优质温泉。\n养生温泉“仙山温泉”——真山真水真享受\n\n\n“仙山温泉”温泉区设有温泉热水池、SPA水疗池及特色温泉汤池，矿物盐浴，矿砂浴等功能配套设备供游客尽情享受。同时还配套设有按摩房、咖啡屋、棋牌室、网吧等温泉服务设施，温泉休息大厅免费为沐浴温泉的客人提供各种新鲜时令水果及饮品、包点等。\n度假客房“仙山客栈”——真情真意真舒适\n\n\n“仙山客栈”拥有84间特色度假客房，标准间61间，豪华商务套房5间；VIP豪华别苑区18间，四周环境私密、安静。房间装饰古色古香、高贵雅致、温馨舒适，窗外风景怡人、赏心悦目。四期工程增加客用住房174间，目前已拥有592个床位。\n养生餐饮“仙山益膳斋”——真材真料真味道\n\n\n“仙山益膳斋” 有高档包房共计35间，其中生态大棚能同时容纳1000余人用餐，餐厅从原材料源头上严格把关，出品突出真材真料和绿色生态、健康养生，是品味美食和举办各类宴会的理想场所。另外，度假村国际会议中心设有各类大中小型会议室共8间，会议设施一流，中心会议大厅宽敞舒适、视野开阔，配有同声传译，可接纳800人的大型会议，又可分隔组合成中型会议室，可以满足不同需求使用，是机关企事业单位举办各类会务活动的绝佳场所。还设有高档KTV、健身房等娱乐设施，让宾客在动与静之间充分享受无穷乐趣。“崖门流水碧悠悠，仙人山下风光秀；温泉水汩腾云雾，神仙一泡不罢休”东方怡源度假村为您和您的家人、朋友打造一个远离尘嚣的仙境。"}}, {"title": "李宗仁史料馆", "address": "山东省枣庄市台儿庄区康宁路8号 ‎", "image": "", "rank": 23, "time": 2, "location": {"lat": 34.56426022073161, "lng": 117.73323080940952}, "feature": {"sight_features": "", "sight_content": "‍‍‍‍‍‍三面环水，碧波荡漾，绿树成荫，环境优雅，为当地的一大旅游景点。\n李宗仁史料馆坐落在运河北岸、月河西岸，原火车站遗址上，与台儿庄大战纪念馆隔河相望，为造型独特的哥特式建筑。三面环水，碧波荡漾，绿树成荫，环境优雅，为当地的一大旅游景点。全面介绍了李宗仁先生的一生，特别是挥师抗战御倭和回归祖国前后的爱国壮举。全国人大常委会副委员长程思远先生题写了馆名。李宗仁史料馆共分5个展厅和1个影视厅，以李宗仁先生一生“青春戎马，晚节黄花”和他指挥的著名台儿庄大战这一重大历史事件为主线，以大量翔实、珍贵的历史资料、百余件极其宝贵的李宗仁先生的遗物、原始影视录像，全面展示了李宗仁先生曲折的爱国人生。‍‍‍‍‍‍"}}, {"title": "铁道游击队纪念碑", "address": "铁道游击队纪念园内", "image": "", "rank": 24, "time": 2, "location": {"lat": 26.09609196373828, "lng": 119.3181262525748}, "feature": {"sight_features": "", "sight_content": ""}}, {"title": "船形街", "address": "枣庄市台儿庄区台儿庄古城", "image": "", "rank": 25, "time": 2, "location": {"lat": 34.56300300138232, "lng": 117.75199883424293}, "feature": {"sight_features": "", "sight_content": ""}}, {"title": "人民公园", "address": "枣庄市市中区解放北路中段（近汽车站）", "image": "", "rank": 26, "time": 2.5, "location": {"lat": 34.86996272506961, "lng": 117.56256581399447}, "feature": {"sight_features": "", "sight_content": ""}}, {"title": "双龙湖观鸟园", "address": "枣庄市台儿庄区华兴路南首老大桥下", "image": "", "rank": 27, "time": 2, "location": {"lat": 34.56657483982404, "lng": 117.73850669960188}, "feature": {"sight_features": "", "sight_content": "双龙湖湿地观鸟园位于山东省枣庄市台儿庄区兴中路延长线老大桥南首两侧，如如一页扁舟游曳在运河之中，恰如镶嵌在古运河上一颗璀璨的明珠。湿地气候宜人，地理位置优越，位于枣庄、临沂、徐州三城市之间，距三城市车程均为1小时左右，多条道路（S234省道新、运河大道、运河北岸路等）贯穿整个湿地，交通极为便利，是避暑、度假、自驾游的理想圣地，又是重要的“短程度假地”。\n\n\n景区内拥有各种观赏鸟类140余种，共计5000余只，景区内随处可见天鹅、大雁、丹顶鹤、斑头鸭、鸳鸯鸟等珍稀鸟类，因景区鸟类资源丰富，因此得名观鸟园。\n\n\n星罗棋布的荷塘，郁郁葱葱的菖蒲，随风起伏的苇荡，苍翠多姿的竹林，悠然自在的亭阁，寄托心愿的许愿树，一望无际的紫色马鞭花海，还有天鹅、大雁、丹顶鹤、斑嘴鸭、鸳鸯鸟等珍稀鸟类在这里栖息，温驯伶俐的羊驼，开屏起舞的孔雀，五彩斑斓的锦鲤在水中自由自在地游弋，栈桥贯穿整个区域，景观建筑与自然环境融为一体，生态与文化完美结合。\n\n\n游客游在园中，在栈道上慢慢踱步前行，呼吸着新鲜的空气，不由得心旷自由自在地徜徉在湿地之中，与日月星辰、花鸟鱼虫一同感受、吟唱，体验喧闹之外的心灵迪荡之地，浮华背后的灵魂栖息之所。"}}, {"title": "光明广场", "address": "山东省枣庄市市中区光明中路", "image": "", "rank": 28, "time": null, "location": {"lat": 34.84846033274946, "lng": 117.5719401215676}, "feature": {"sight_features": "", "sight_content": ""}}, {"title": "王学仲艺术馆", "address": "枣庄滕州市塔寺街20号", "image": "", "rank": 29, "time": 2, "location": {"lat": 35.09186820309673, "lng": 117.1792201538855}, "feature": {"sight_features": "", "sight_content": ""}}, {"title": "汉诺庄园", "address": "枣庄市山亭区新城汉诺路6号35.094916", "image": "", "rank": 30, "time": 2, "location": {"lat": 35.098929161209625, "lng": 117.48074656083983}, "feature": {"sight_features": "", "sight_content": ""}}, {"title": "万福园", "address": "枣庄市峄城区榴园镇朱村万福园景区", "image": "", "rank": 31, "time": 2, "location": {"lat": 34.77830086170529, "lng": 117.49067927488069}, "feature": {"sight_features": "", "sight_content": ""}}, {"title": "莲青山滑雪场", "address": "枣庄市滕州市莲青山滑雪度假中心", "image": "", "rank": 32, "time": 2, "location": {"lat": 35.27201983566741, "lng": 117.31000157850558}, "feature": {"sight_features": "", "sight_content": ""}}, {"title": "莲青山情人谷风景区", "address": "枣庄市滕州市东郭镇莲青山风景区", "image": "", "rank": 33, "time": 2, "location": {"lat": 35.27691954019191, "lng": 117.33281166732016}, "feature": {"sight_features": "", "sight_content": ""}}, {"title": "墨子塑像", "address": "枣庄中心火车站广场", "image": "", "rank": 34, "time": 2, "location": {"lat": 35.086605106061356, "lng": 117.1616962615224}, "feature": {"sight_features": "", "sight_content": ""}}, {"title": "活力湾欢乐世界", "address": "枣庄市薛城区泰山北路大桥以西蟠龙河河道北侧田湾村南侧", "image": "", "rank": 35, "time": 2, "location": {"lat": 34.839589617264984, "lng": 117.2866409820236}, "feature": {"sight_features": "", "sight_content": "活力湾欢乐世界选址奚公山蟠龙河文化旅游综合体项目区内。\n\n\n建设有摩天轮、过山车、大摆锤、激流勇进、丛林飞鼠、火箭蹦极、飞舞狂车、摇头飞椅、跳楼机、梦幻城、水世界、海洋世界、自控飞机、迷你穿梳、摩天换车、太空漫步、豪华碰碰车、豪华木马、滑翔飞翼、6D影院、激战鲨鱼岛、狂呼等29个子项目。"}}, {"title": "台儿庄湿地水上冰雪游乐园", "address": "枣庄市台儿庄古城停车场西行1.5km（台儿庄湿地公园对面）", "image": "", "rank": 36, "time": 1.0, "location": {"lat": 34.56553202021967, "lng": 117.74531816940252}, "feature": {"sight_features": "", "sight_content": ""}}, {"title": "芳林嫂故居", "address": "滕州市湿地红荷风景区小李庄内", "image": "", "rank": 37, "time": 2, "location": {"lat": 35.17061766610082, "lng": 117.17453001278396}, "feature": {"sight_features": "", "sight_content": ""}}, {"title": "莲花山生态园", "address": "枣庄市市中区永安乡于山前村", "image": "", "rank": 38, "time": 2, "location": {"lat": 34.8045223345467, "lng": 117.51194390542133}, "feature": {"sight_features": "", "sight_content": ""}}, {"title": "小李庄", "address": "滨湖镇微山湖红荷旅游风景区内", "image": "", "rank": 39, "time": 2, "location": {"lat": 35.12438346107492, "lng": 116.8517929877044}, "feature": {"sight_features": "", "sight_content": ""}}, {"title": "甘泉禅寺", "address": "枣庄市市中区齐村镇甘泉寺", "image": "", "rank": 40, "time": 2, "location": {"lat": 34.93166515001943, "lng": 117.57994666288309}, "feature": {"sight_features": "", "sight_content": ""}}, {"title": "MC真人密室逃脱", "address": "枣庄市滕州市大同南路问天广场南188米路西", "image": "", "rank": 41, "time": 2, "location": {"lat": 35.08227651865605, "lng": 117.16365254724505}, "feature": {"sight_features": "", "sight_content": ""}}, {"title": "葫芦套景区", "address": "枣庄市山亭区徐庄镇葫芦套村西首", "image": "", "rank": 42, "time": 2, "location": {"lat": 35.043148665568914, "lng": 117.60385262064015}, "feature": {"sight_features": "", "sight_content": "葫芦套景区位于徐庄镇镇驻地东南1公里，该村处连环山套之中，拥有山场1万多亩。\n森林覆盖率达95%，被评为“山东省旅游特色村”。"}}, {"title": "荆河公园", "address": "枣庄市滕州市善国南路50号", "image": "", "rank": 43, "time": 2, "location": {"lat": 35.08316050940242, "lng": 117.1734175314777}, "feature": {"sight_features": "", "sight_content": ""}}, {"title": "孟尝君陵园", "address": "官桥镇南1公里，薛国故城内东北隅", "image": "", "rank": 44, "time": 2, "location": {"lat": 34.912690646240854, "lng": 117.20176805337259}, "feature": {"sight_features": "", "sight_content": ""}}, {"title": "凤凰乐园", "address": "枣庄市滕州市高铁新区北辛东路凤凰乐园", "image": "", "rank": 45, "time": 5.5, "location": {"lat": 35.115116756417315, "lng": 117.21267216804277}, "feature": {"sight_features": "", "sight_content": ""}}, {"title": "枣庄革命烈士陵园", "address": "山东省枣庄市市中区兴华东路1号", "image": "", "rank": 46, "time": 3.0, "location": {"lat": 34.84498236750517, "lng": 117.57090746728214}, "feature": {"sight_features": "", "sight_content": ""}}, {"title": "微山湖湿地公园", "address": "滕州市滨湖镇微山湖湿地红河旅游风景区", "image": "", "rank": 47, "time": 3.0, "location": {"lat": 35.125378181167314, "lng": 116.89057049468768}, "feature": {"sight_features": "", "sight_content": ""}}, {"title": "贺敬之文学馆", "address": "山东省枣庄市台儿庄区沿河南路 ‎", "image": "", "rank": 48, "time": 2, "location": {"lat": 34.565040080366074, "lng": 117.7357842688725}, "feature": {"sight_features": "", "sight_content": "‍‍‍‍‍‍‍‍全面地介绍了贺敬之的人生历程，以及辉煌的文学成就。‍‍\n贺敬之文学馆坐落于风景秀丽的古运河畔，与台儿庄大战纪念馆毗邻。整个建筑风格独特，古朴典雅。馆内设有展览厅、影视厅、书库、书画厅、文物厅等。文学馆全面介绍了贺敬之及夫人、著名作家、诗人柯岩（长诗《周总理，你在哪里》、电视连续剧《寻找回来的世界》的作者）的人生历程和辉煌的文学成就，生动地再现了一代诗人、作家的风范。\n馆内陈列了贺敬之藏书1万余册，实物展品300余件，珍贵图片200余幅，并展出了200余幅名人墨宝真迹。 馆内设有展览厅、影视厅、书库、书画厅、多功能厅等，以珍贵图片、文物、录像、声、光、电、绘画、塑形等手段，全面地介绍了贺敬之的人生历程，以及辉煌的文学成就，生动地表现了一位诗人，歌剧作家高级领导干部的风范。\n贺敬之文学馆是一个资料全面、内容充实、为文学研究提供服务方便，在全国具有权威性的文学研究基地，是宣传党的文艺思想、路线方针，宣传革命文艺的优良传统民‍‍族精神和时代精神的一扇窗口，也是培养文学新秀，创作新秀作品的一个良好阵地。‍‍‍‍‍‍‍‍"}}, {"title": "枣庄老街", "address": "枣庄市市中区西昌路中段路西", "image": "", "rank": 49, "time": 3.0, "location": {"lat": 34.86996272506961, "lng": 117.56256581399447}, "feature": {"sight_features": "", "sight_content": ""}}, {"title": "刘村梨园风景区", "address": "枣庄市滕州市柴胡店镇刘村万亩梨园东部", "image": "", "rank": 50, "time": 2, "location": {"lat": 34.904035019880745, "lng": 117.25785598299082}, "feature": {"sight_features": "", "sight_content": ""}}, {"title": "莲青山漂流", "address": "枣庄市滕州市东郭镇", "image": "", "rank": 51, "time": 2, "location": {"lat": 35.22142667341157, "lng": 117.27142364715912}, "feature": {"sight_features": "", "sight_content": ""}}, {"title": "滕州博物馆", "address": "山东省滕州市龙山路82号", "image": "", "rank": 52, "time": 2.5, "location": {"lat": 35.10588162731244, "lng": 117.17006827663802}, "feature": {"sight_features": "", "sight_content": ""}}, {"title": "台儿庄运河展馆", "address": "山东省枣庄市台儿庄区兴中路", "image": "", "rank": 53, "time": 2, "location": {"lat": 34.57562457174382, "lng": 117.74202801767557}, "feature": {"sight_features": "", "sight_content": ""}}, {"title": "卧龙公园", "address": "东盛路", "image": "", "rank": 54, "time": 1.5, "location": {"lat": 41.95880989382563, "lng": 126.45767027995424}, "feature": {"sight_features": "", "sight_content": ""}}, {"title": "中医博物馆", "address": "山东省枣庄市台儿庄区月河街14-1号", "image": "", "rank": 55, "time": 1.5, "location": {"lat": 34.56309603157266, "lng": 117.75287803459132}, "feature": {"sight_features": "", "sight_content": ""}}, {"title": "祥和庄园", "address": "枣庄市台儿庄区阿里山路10007号", "image": "", "rank": 56, "time": 2, "location": {"lat": 34.62372797747198, "lng": 117.61745852387742}, "feature": {"sight_features": "", "sight_content": "祥和庄园景区占地10000余亩，被誉为万亩生态园，是国家3A级生态旅游景区。位于举世闻名的“天下第一庄”台儿庄境内，多条经济要道穿境而过，南跨千年京杭古运河，东临有“中国最美水乡”之誉的台儿庄古城，西靠主干线京台高速，规模大、投资高，地理位置优越，交通便利，环境优良。\n祥和庄园景区依托古运河悠久的人文历史，遵循“自然、生态、体验、文化”四位一体现代休闲观光旅游线路，令您在感受美景的同时兼可品味祥和庄园景区特有的生态风韵。\n归来牧歌 江北祥和\n真正属于北方孩子们的牧歌记忆应当是在田间地头\n东有溪水潺潺，\n西有小山数座，\n顽童伴着耕牛在树下嬉戏，\n母亲在屋里煮着一罐散发出阵阵苜蓿香气的牛奶。\n如今，田园牧歌早已在城市的车水马龙里渐渐远去，\n总有某一个瞬间，\n你特别想给孩子分享，\n属于我们那个青草芬芳、阳光明媚、恬淡自在的童年，\n而不是酒店里人工模拟的天然亲子乐园，\n也不是远方江南古镇的多雨诗意。\n只是简简单单地，\n晒太阳、玩泥巴、喂小兔、摘果子……"}}, {"title": "北台上遗址", "address": "滕州市羊庄镇北台上村西的大台一带", "image": "", "rank": 57, "time": 2, "location": {"lat": 34.97814535722946, "lng": 117.35284273305653}, "feature": {"sight_features": "", "sight_content": ""}}, {"title": "枣庄市博物馆", "address": "山东省枣庄市市中区龙庭北路", "image": "", "rank": 58, "time": 2.5, "location": {"lat": 34.86996272506961, "lng": 117.56256581399447}, "feature": {"sight_features": "", "sight_content": ""}}, {"title": "留园山庄", "address": "245省道", "image": "", "rank": 59, "time": 2, "location": {"lat": 41.481926629134875, "lng": 114.46674909937065}, "feature": {"sight_features": "", "sight_content": ""}}]}