{"cityName": "泽州", "days": 2, "cityImage": "", "spots": [{"title": "大阳古镇", "address": "晋城市泽州县大东线", "image": "", "rank": 1, "time": 2, "location": {"lat": 35.64118123031313, "lng": 112.74818250729095}, "feature": {"sight_features": "特色1 34万平方米明清古建筑群 特色2 被誉为“秦汉以来中国古城镇的活化石”。", "sight_content": "大阳古镇古称阳阿，历时两千六百多年绵延不断，历史上秦皇置县、汉主封国、西燕设郡；在漫长的历史中，沉淀出了丰富的礼乐文化、宫廷文化、仕官文化、工商业文化和军事、红色文化。明清时期，勤劳智慧的大阳人将煤和铁的价值发挥到了极致，手工钢针远销海外，被誉为”煤铁之乡“、“九州针都”。历史之悠久，规模之宏大，文化之璀璨，尚居之繁丽，大阳古镇居三晋大地古城镇之首，被誉为“三晋一镇”。\n大阳古镇城镇结构的形成受到中国早期自然崇拜“灵龟”理念的影响，同时其结构布局受《易经》文化影响呈“雷天大壮”卦象，其现存的城池楼阁、古街古巷、官居商宅等规模宏大的建筑群构成一个完整的文化脉络，被誉为“秦汉以来中国古城镇的活化石”。\n2008年，大阳古镇被授予“中国历史文化名镇”称号，2011年被评为“中国民间文化艺术之乡”，2016年成为“中国华侨国际文化交流基地”。"}}, {"title": "东六庄人民剧场", "address": "金村镇东六庄小学附近", "image": "", "rank": 2, "time": 2, "location": {"lat": 35.51650973260866, "lng": 112.95520375294991}, "feature": {"sight_features": "", "sight_content": ""}}, {"title": "桂核农业采摘园", "address": "李寨乡", "image": "", "rank": 3, "time": 2, "location": {"lat": 35.43316248437333, "lng": 112.68814297036148}, "feature": {"sight_features": "", "sight_content": ""}}, {"title": "山西神农农业开发有限公司生物科...", "address": "渠头小学附近", "image": "", "rank": 4, "time": 2, "location": {"lat": 39.68656265648935, "lng": 116.73589047931404}, "feature": {"sight_features": "", "sight_content": ""}}, {"title": "晋城二仙观", "address": "山西省泽州县金村乡南村 048000", "image": "", "rank": 5, "time": 3.0, "location": {"lat": 35.46991128411509, "lng": 112.80282190669806}, "feature": {"sight_features": "", "sight_content": ""}}, {"title": "底道街生态休闲农庄", "address": "底道街村", "image": "", "rank": 6, "time": 2, "location": {"lat": 35.45588827519909, "lng": 112.6793607233737}, "feature": {"sight_features": "", "sight_content": ""}}, {"title": "周村东岳庙 Dongyue Temple of Z...", "address": "山西省泽州县周村镇周村", "image": "", "rank": 7, "time": 2, "location": {"lat": 35.48913014788163, "lng": 112.6767983410421}, "feature": {"sight_features": "", "sight_content": ""}}, {"title": "晋城崇寿寺", "address": "山西省泽州县西部村", "image": "", "rank": 8, "time": 3.0, "location": {"lat": 35.59976972948786, "lng": 112.7944012195933}, "feature": {"sight_features": "", "sight_content": ""}}, {"title": "水晶之恋音乐吧", "address": "晋城市-泽州县-公路街南50米", "image": "", "rank": 9, "time": 2, "location": {"lat": 35.5319208090862, "lng": 112.6881494148052}, "feature": {"sight_features": "", "sight_content": ""}}, {"title": "郭壁村", "address": "山西晋城", "image": "", "rank": 10, "time": 2, "location": {"lat": 35.49628458647257, "lng": 112.85857823132879}, "feature": {"sight_features": "", "sight_content": ""}}, {"title": "丹河大桥", "address": "山西省晋城太行山西麓", "image": "", "rank": 11, "time": 2, "location": {"lat": 35.27411367560584, "lng": 112.15851489643032}, "feature": {"sight_features": "", "sight_content": ""}}]}