{"cityName": "札达", "days": 2, "cityImage": "", "spots": [{"title": "古格王国遗址", "address": "阿里地区扎达县托林镇西北的象泉河南岸", "image": "", "rank": 1, "time": 1.5, "location": {"lat": 31.487843059662076, "lng": 79.8090617328716}, "feature": {"sight_features": "", "sight_content": ""}}, {"title": "札达土林", "address": "阿里地区札达县境内", "image": "", "rank": 2, "time": 1.5, "location": {"lat": 31.48534307001444, "lng": 79.80932321217843}, "feature": {"sight_features": "", "sight_content": ""}}, {"title": "托林寺", "address": "西藏自治区札达县象泉河畔", "image": "", "rank": 3, "time": 1.0, "location": {"lat": 31.48534307001444, "lng": 79.80932321217843}, "feature": {"sight_features": "", "sight_content": ""}}, {"title": "皮央东嘎洞窟遗址", "address": "阿里地区札达县", "image": "", "rank": 4, "time": 1.0, "location": {"lat": 31.48534307001444, "lng": 79.80932321217843}, "feature": {"sight_features": "", "sight_content": ""}}, {"title": "干尸洞", "address": "阿里地区札达县托林镇西北的象泉河南岸古格王国遗址北面约600米远", "image": "", "rank": 5, "time": 0.75, "location": {"lat": 31.46874630123224, "lng": 79.67868047074775}, "feature": {"sight_features": "", "sight_content": ""}}, {"title": "烈士陵园", "address": "西藏自治区阿里地区札达县", "image": "", "rank": 6, "time": 2, "location": {"lat": 31.48534307001444, "lng": 79.80932321217843}, "feature": {"sight_features": "", "sight_content": ""}}, {"title": "札达县托林广场", "address": "托林镇札达县托林广场", "image": "", "rank": 7, "time": 2, "location": {"lat": 31.487785919074256, "lng": 79.80780875891917}, "feature": {"sight_features": "", "sight_content": ""}}, {"title": "香孜遗址", "address": "香孜乡", "image": "", "rank": 8, "time": 2, "location": {"lat": 31.83606014644828, "lng": 79.63479541359922}, "feature": {"sight_features": "", "sight_content": ""}}, {"title": "西夏邦马风景区", "address": "喜玛拉雅山脉中段，位于主脊线偏北10公里、呈东南西北走向的枯岗曰山脉的东南部，地处东经85.7°,北纬28.3°。", "image": "", "rank": 9, "time": null, "location": {"lat": 38.496817469603855, "lng": 106.15658124015063}, "feature": {"sight_features": "", "sight_content": ""}}]}