{"cityName": "扎兰屯", "days": 2, "cityImage": "", "spots": [{"title": "吊桥公园", "address": "呼伦贝尔市扎兰屯市市中央北路1号", "image": "", "rank": 1, "time": 3.5, "location": {"lat": 48.01769474572268, "lng": 122.74558953234575}, "feature": {"sight_features": "", "sight_content": ""}}, {"title": "柴河森林公园", "address": "呼伦贝尔市扎兰屯市西南185公里的柴河镇境内", "image": "", "rank": 2, "time": 4.5, "location": {"lat": 47.568819457623405, "lng": 121.32166642529228}, "feature": {"sight_features": "", "sight_content": ""}}, {"title": "扎兰屯", "address": "呼伦贝尔市扎兰屯市", "image": "", "rank": 3, "time": 3.0, "location": {"lat": 48.01995552010966, "lng": 122.74445371485892}, "feature": {"sight_features": "", "sight_content": ""}}, {"title": "秀水山庄", "address": "呼伦贝尔市扎兰屯市区北8公里，311县道附近", "image": "", "rank": 4, "time": null, "location": {"lat": 48.02695755612904, "lng": 122.7417977847881}, "feature": {"sight_features": "", "sight_content": ""}}, {"title": "柴河", "address": "呼伦贝尔市扎兰屯市", "image": "", "rank": 5, "time": 3.0, "location": {"lat": 48.01995552010966, "lng": 122.74445371485892}, "feature": {"sight_features": "", "sight_content": ""}}, {"title": "秀水风景区", "address": "呼伦贝尔市扎兰屯市311县道", "image": "", "rank": 6, "time": 1.5, "location": {"lat": 48.02695755612904, "lng": 122.7417977847881}, "feature": {"sight_features": "", "sight_content": ""}}, {"title": "中东铁路博物馆", "address": "呼伦贝尔市扎兰屯市区北部火车站西侧1000米", "image": "", "rank": 7, "time": 1.0, "location": {"lat": 48.01995552010966, "lng": 122.74445371485892}, "feature": {"sight_features": "", "sight_content": ""}}, {"title": "金龙山温泉", "address": "扎兰屯市卧牛河镇五星村六组", "image": "", "rank": 8, "time": 2, "location": {"lat": 48.07808315989447, "lng": 122.61424597867911}, "feature": {"sight_features": "", "sight_content": ""}}, {"title": "鹿鸣山庄", "address": "呼伦贝尔扎兰屯市南木鄂伦春民族乡林海路", "image": "", "rank": 9, "time": 2, "location": {"lat": 48.18111188045787, "lng": 122.37645513726677}, "feature": {"sight_features": "", "sight_content": ""}}, {"title": "成吉思汗驿站", "address": "呼伦贝尔市扎兰屯市成吉思汗镇南部", "image": "", "rank": 10, "time": null, "location": {"lat": 47.753940262798615, "lng": 122.83785834500681}, "feature": {"sight_features": "", "sight_content": ""}}, {"title": "柴河月亮小镇", "address": "内蒙古呼伦贝尔市扎兰屯市柴河月亮小镇", "image": "", "rank": 11, "time": 2, "location": {"lat": 47.560714246082824, "lng": 121.30795717739585}, "feature": {"sight_features": "", "sight_content": ""}}, {"title": "扎兰屯市博物馆", "address": "内蒙古呼伦贝尔扎兰屯市其他吊桥路8-1号（311县道）", "image": "", "rank": 12, "time": 2.5, "location": {"lat": 48.02449626473631, "lng": 122.7422324927905}, "feature": {"sight_features": "", "sight_content": ""}}, {"title": "汇丰草莓采摘园", "address": "蘑菇气镇爱国村", "image": "", "rank": 13, "time": 2, "location": {"lat": 47.500191804921535, "lng": 122.37274968902116}, "feature": {"sight_features": "", "sight_content": ""}}, {"title": "翠屏山杜鹃坡", "address": "呼伦贝尔市扎兰屯市", "image": "", "rank": 14, "time": 2, "location": {"lat": 48.01995552010966, "lng": 122.74445371485892}, "feature": {"sight_features": "", "sight_content": ""}}, {"title": "伪兴安东省历史陈列室", "address": "内蒙古呼伦贝尔扎兰屯市兴华办铁路小学对面", "image": "", "rank": 15, "time": 2, "location": {"lat": 49.21844647556481, "lng": 119.77237049946636}, "feature": {"sight_features": "", "sight_content": ""}}, {"title": "五星村", "address": "内蒙古自治区呼伦贝尔市扎兰屯市五星村", "image": "", "rank": 16, "time": 2, "location": {"lat": 48.07808315989447, "lng": 122.61424597867911}, "feature": {"sight_features": "", "sight_content": ""}}, {"title": "汗庭家园漂流", "address": "内蒙古呼伦贝尔市扎兰屯市鄂伦春民族乡木天植艺园东北200米", "image": "", "rank": 17, "time": 2, "location": {"lat": 48.18263219745494, "lng": 122.3690882316947}, "feature": {"sight_features": "", "sight_content": ""}}, {"title": "喵Sir密室逃脱俱乐部", "address": "中央北路73号百兴商场东门南三百米", "image": "", "rank": 18, "time": 2, "location": {"lat": 43.174481388870745, "lng": 124.37702941266535}, "feature": {"sight_features": "", "sight_content": ""}}, {"title": "马场饭庄", "address": "卧牛河镇", "image": "", "rank": 19, "time": 2, "location": {"lat": 48.104540076099596, "lng": 122.68255806674536}, "feature": {"sight_features": "", "sight_content": ""}}, {"title": "夜扎兰音乐厅", "address": "建设路附近", "image": "", "rank": 20, "time": 2, "location": {"lat": 39.08959553212996, "lng": 117.0126917080218}, "feature": {"sight_features": "", "sight_content": ""}}, {"title": "鄂伦春民族乡", "address": "黑龙江省塔河县十八站乡 150000", "image": "", "rank": 21, "time": 2, "location": {"lat": 52.43740731418984, "lng": 125.41368894790695}, "feature": {"sight_features": "", "sight_content": ""}}, {"title": "扎兰屯风景名胜区", "address": "内蒙古自治区扎兰屯市境内 162650", "image": "", "rank": 22, "time": 2.0, "location": {"lat": 48.01995552010966, "lng": 122.74445371485892}, "feature": {"sight_features": "", "sight_content": ""}}, {"title": "贝尔民族艺术馆", "address": "内蒙古自治区扎兰屯市311县道附近", "image": "", "rank": 23, "time": 2, "location": {"lat": 48.02695755612904, "lng": 122.7417977847881}, "feature": {"sight_features": "", "sight_content": ""}}, {"title": "飞来佛", "address": "兴安盟阿尔山市蒙古、锡林郭勒、科尔沁、呼伦贝尔四大草原交汇处阿尔山国家森林公园内", "image": "", "rank": 24, "time": 2, "location": {"lat": 47.340155609052175, "lng": 120.70034710152949}, "feature": {"sight_features": "", "sight_content": ""}}, {"title": "锡林九曲", "address": "内蒙古自治区呼伦贝尔市扎兰屯市柴河林业局", "image": "", "rank": 25, "time": 1.0, "location": {"lat": 47.56282912685247, "lng": 121.3150493362277}, "feature": {"sight_features": "", "sight_content": ""}}, {"title": "玉溪公园", "address": "内蒙古自治区呼伦贝尔市牙克石市塔尔气镇", "image": "", "rank": 26, "time": 3.0, "location": {"lat": 47.98912320889425, "lng": 121.20301364229418}, "feature": {"sight_features": "", "sight_content": ""}}, {"title": "三角地公园", "address": "内蒙古自治区呼伦贝尔市牙克石市", "image": "", "rank": 27, "time": 2, "location": {"lat": 49.292023693206346, "lng": 120.718346837101}, "feature": {"sight_features": "", "sight_content": ""}}, {"title": "百业成儿童乐园", "address": "百业成家园B区百业成儿童乐园二楼", "image": "", "rank": 28, "time": 2, "location": {"lat": 47.99905858866014, "lng": 122.75911621671509}, "feature": {"sight_features": "", "sight_content": ""}}, {"title": "乌兰夫文化休闲广场", "address": "呼伦贝尔市扎兰屯市", "image": "", "rank": 29, "time": 2, "location": {"lat": 48.01995552010966, "lng": 122.74445371485892}, "feature": {"sight_features": "", "sight_content": ""}}, {"title": "内蒙古自治区扎兰屯市天主教会", "address": "葛根路附近", "image": "", "rank": 30, "time": 2, "location": {"lat": 48.013470366657415, "lng": 122.74588795392769}, "feature": {"sight_features": "", "sight_content": ""}}, {"title": "金东北路界壕边堡遗址", "address": "齐齐哈尔市龙江县", "image": "", "rank": 31, "time": 2, "location": {"lat": 47.343605740150764, "lng": 123.2115389834243}, "feature": {"sight_features": "", "sight_content": ""}}, {"title": "月亮天池火山地貌游览区", "address": "柴河镇", "image": "", "rank": 32, "time": 2, "location": {"lat": 47.568819457623405, "lng": 121.32166642529228}, "feature": {"sight_features": "", "sight_content": ""}}, {"title": "扎兰屯市书画馆", "address": "布特哈北路", "image": "", "rank": 33, "time": 1.5, "location": {"lat": 48.48423588219004, "lng": 124.51275735584973}, "feature": {"sight_features": "", "sight_content": ""}}, {"title": "达斡尔民俗博物馆", "address": "一兰街", "image": "", "rank": 34, "time": 2, "location": {"lat": 48.01733372135635, "lng": 123.00708626630197}, "feature": {"sight_features": "", "sight_content": ""}}, {"title": "扎兰屯市图书馆", "address": "中央北路6号", "image": "", "rank": 35, "time": 1.5, "location": {"lat": 48.025002501294395, "lng": 122.74202428623433}, "feature": {"sight_features": "", "sight_content": ""}}, {"title": "迪亚画艺", "address": "桥南西街", "image": "", "rank": 36, "time": 2, "location": {"lat": 40.200088648078335, "lng": 116.59970268023643}, "feature": {"sight_features": "", "sight_content": ""}}, {"title": "鄂伦春民俗博物馆", "address": "林海街鄂伦春民俗博物馆", "image": "", "rank": 37, "time": 2, "location": {"lat": 48.18158913634763, "lng": 122.36775843681096}, "feature": {"sight_features": "", "sight_content": ""}}, {"title": "楠木漂流", "address": "明月街明月花园内", "image": "", "rank": 38, "time": 2, "location": {"lat": 29.114567948661215, "lng": 119.66512244632844}, "feature": {"sight_features": "", "sight_content": ""}}, {"title": "儿童游乐园", "address": "发达广场2楼", "image": "", "rank": 39, "time": 2, "location": {"lat": 48.0023082720539, "lng": 122.75710401237272}, "feature": {"sight_features": "", "sight_content": ""}}, {"title": "宝贝乐园儿童游乐城", "address": "中央北路98号", "image": "", "rank": 40, "time": 2, "location": {"lat": 48.011929903066985, "lng": 122.74988206396532}, "feature": {"sight_features": "", "sight_content": ""}}, {"title": "美术联盟", "address": "布特哈北路130附近", "image": "", "rank": 41, "time": 2, "location": {"lat": 48.010159171663325, "lng": 122.75579179762725}, "feature": {"sight_features": "", "sight_content": ""}}, {"title": "政协书画院", "address": "成吉思汗路", "image": "", "rank": 42, "time": 2, "location": {"lat": 48.00171485918286, "lng": 122.75018966682845}, "feature": {"sight_features": "", "sight_content": ""}}, {"title": "福尔阳光温泉会馆(扎兰屯店)", "address": "人民医院附近", "image": "", "rank": 43, "time": 2, "location": {"lat": 30.53991874190456, "lng": 114.30324689654964}, "feature": {"sight_features": "", "sight_content": ""}}, {"title": "斯贝斯", "address": "建设路附近", "image": "", "rank": 44, "time": 2, "location": {"lat": 39.08959553212996, "lng": 117.0126917080218}, "feature": {"sight_features": "", "sight_content": ""}}, {"title": "乐中天五星码头漂流", "address": "雅鲁河内302省道", "image": "", "rank": 45, "time": 2, "location": {"lat": 47.69753423432841, "lng": 122.84016630386205}, "feature": {"sight_features": "", "sight_content": ""}}, {"title": "二人转剧场", "address": "成吉思汗路", "image": "", "rank": 46, "time": 2, "location": {"lat": 48.00171485918286, "lng": 122.75018966682845}, "feature": {"sight_features": "", "sight_content": ""}}, {"title": "扎兰屯市塞外步行街", "address": "内蒙古自治区扎兰屯市建设路", "image": "", "rank": 47, "time": 1.5, "location": {"lat": 48.00786564961971, "lng": 122.75569864484305}, "feature": {"sight_features": "", "sight_content": ""}}, {"title": "靠河队", "address": "呼伦贝尔市-扎兰屯市", "image": "", "rank": 48, "time": 2, "location": {"lat": 48.01995552010966, "lng": 122.74445371485892}, "feature": {"sight_features": "", "sight_content": ""}}, {"title": "高山湿地生态涵养区", "address": "内蒙古自治区呼伦贝尔市扎兰屯市", "image": "", "rank": 49, "time": 2, "location": {"lat": 48.01995552010966, "lng": 122.74445371485892}, "feature": {"sight_features": "", "sight_content": ""}}, {"title": "卧牛泡子", "address": "内蒙古自治区呼伦贝尔市扎兰屯市柴河镇", "image": "", "rank": 50, "time": 2, "location": {"lat": 47.568819457623405, "lng": 121.32166642529228}, "feature": {"sight_features": "", "sight_content": ""}}, {"title": "月牙岛公园", "address": "呼伦贝尔市扎兰屯市柴河镇", "image": "", "rank": 51, "time": 2, "location": {"lat": 47.568819457623405, "lng": 121.32166642529228}, "feature": {"sight_features": "", "sight_content": ""}}, {"title": "月亮天池", "address": "内蒙古自治区呼伦贝尔扎兰屯市", "image": "", "rank": 52, "time": 2, "location": {"lat": 49.21844647556481, "lng": 119.77237049946636}, "feature": {"sight_features": "", "sight_content": ""}}, {"title": "山水岩壁画", "address": "内蒙古自治区呼伦贝尔扎兰屯", "image": "", "rank": 53, "time": 2, "location": {"lat": 49.21844647556481, "lng": 119.77237049946636}, "feature": {"sight_features": "", "sight_content": ""}}]}