{"cityName": "湛江", "days": "2", "cityImage": "", "spots": [{"title": "湖光岩", "address": "湛江市麻章区湖光镇", "image": "", "rank": 1, "time": 3.0, "location": {"lat": 21.104448503356814, "lng": 110.27117170877287}, "feature": {"sight_features": "特色1 四山环一湖，湖水明如镜 特色2 湖光岩火山口风景区是我国现存的三座火山湖之一，是雷州半岛上风景奇特的游览胜地。 特色3 湖光岩与德国的玛珥湖结为“姐妹湖”", "sight_content": "湖光岩位于湛江市区西南方向18公里处，其面积4.7平方公里，保护控制面积38平方公里，湖水面积2.3平方公里，湖深446米，其中火山泥沉积物420米，水深20多米，湖面低于海平面，旱不涸涝不溢。与金鹿园、南亚热带作物植物园共同构成环湖生态旅游圈。\n湖光岩不仅具有极高的科研价值，也是省级首批风景名胜区、国家级地质公园。年游客量近100万人次。湖内有建于隋朝末的楞严寺和白衣庵，湖四周原始雨林区，山上有近百种鸟和几十种生动物，据说湖里有巨大的鱼和龟，人称“龙鱼神龟”。\n湖光岩终年气温比湖外低3°C，凉爽宜人，空气负离子浓度很高，湖水含有很高的锶。\n湖光岩还有很多有趣的谜团，其一，湖光岩与外界地表水系不相通，但湖水旱不涸涝不溢，这满湖碧水从何而来又往何而去，让人大惑不解；其二，湖水清澈见底，自净能力强，沿湖有茂盛的草木，但湖面几乎没有漂浮之树叶等杂物；其三，水中无蛇无蛙，但鱼类丰富，最大者长近2米，重达上百斤……寻幽探奇也为旅游增添了乐趣。"}}, {"title": "霞山观海长廊", "address": "湛江市霞山区观海路9号", "image": "", "rank": 2, "time": 1.5, "location": {"lat": 21.211352440746616, "lng": 110.42539820108426}, "feature": {"sight_features": "", "sight_content": ""}}, {"title": "东海岛", "address": "湛江市麻章区东简镇涛声北路", "image": "", "rank": 3, "time": 4.0, "location": {"lat": 21.029467848633526, "lng": 110.55099053154545}, "feature": {"sight_features": "", "sight_content": ""}}, {"title": "特呈岛", "address": "湛江市霞山区", "image": "", "rank": 4, "time": 3.5, "location": {"lat": 21.19822718530276, "lng": 110.40442535095987}, "feature": {"sight_features": "特色1 特呈岛内空气清新，气候四季如春 特色2 有红树林，洗太庙，抗日革命旧址等景点。", "sight_content": "湛江特呈岛度假村位于生机盎然，如诗如画的特呈岛，是国内罕见的天然温泉海岛度假村。特呈岛与湛江城区隔海相望，东临太平洋，距市区2.8海里，乘游船8分钟可抵岛，交通便捷。全岛面积3.6平方公里，共有7条自然村，居民4500人，常住人口约2000人。有树龄500多年的天然红树林，1000多亩和大片生态湿地，400多年历史的洗太庙、抗日革命旧址，还有白沙滩、红怪石（火山石，有较高科研、欣赏价值）。\n【特呈渔岛度假村】\n特呈岛又称“红岛”，红土地、红怪石等。岛内空气清新，气候四季如春，有1000多亩树龄近500年的国家重点保护红树林、400多年历史的洗太庙、抗日革命旧址，还有白沙滩、红怪石（火山石，有较高科研、欣赏价值）。岛上有近百棵参天古榕和断续分布的热带灌丛，沙滩3公里，且沿岸有近千亩受国家保护的天然红树林。“\n【渔岛风光】\n度假村现有雷州半岛传统风貌的品质茅草别墅、功能完备自成体系的四合院、自然派温泉池、渔岛风味餐厅、热带海岛风格的酒吧街、条件优越国内罕见的露营地…是湛江乃至粤西地区性价比高的会议、旅游、休闲、度假、户外之地。\n【海上特色木屋】\n度假村建有雷州半岛传统风貌的茅草别墅、功能完备自成体系的四合院、自然派温泉。\n【特色温泉区】\n坐落在渔岛上的特色温泉体验；白沙滩、红怪石（火山石）、大海、海鸥、渔船和采海人相映衬托，就象一幅色彩斑斓的油画，让人流连忘返。迎着悠悠的海风，向人展示着特呈岛古老而独特的海岛文化。"}}, {"title": "金鹿园", "address": "湛江市麻章区湖光镇湖光岩北路2号", "image": "", "rank": 5, "time": 1.0, "location": {"lat": 21.153821934074536, "lng": 110.30112380877195}, "feature": {"sight_features": "", "sight_content": ""}}, {"title": "海滨公园", "address": "湛江市霞山区海滨大道南4号", "image": "", "rank": 6, "time": 1.5, "location": {"lat": 21.203946279523393, "lng": 110.4226221693643}, "feature": {"sight_features": "", "sight_content": ""}}, {"title": "寸金桥", "address": "湛江市赤坎区跃进路95号寸金桥公园内", "image": "", "rank": 7, "time": 1.0, "location": {"lat": 21.27830246422046, "lng": 110.36407826711132}, "feature": {"sight_features": "", "sight_content": ""}}, {"title": "广州湾法国公使署旧址", "address": "湛江市霞山区海滨大道南", "image": "", "rank": 8, "time": 1.0, "location": {"lat": 21.213083533054917, "lng": 110.41842936073687}, "feature": {"sight_features": "", "sight_content": ""}}, {"title": "中澳友谊花园", "address": "湛江市海滨大道", "image": "", "rank": 9, "time": 2.0, "location": {"lat": 21.265298792348467, "lng": 110.40295374417899}, "feature": {"sight_features": "", "sight_content": ""}}, {"title": "南三岛", "address": "湛江市霞山区南三岛东海岸旅游区", "image": "", "rank": 10, "time": 3.0, "location": {"lat": 21.19498053024714, "lng": 110.49374020988742}, "feature": {"sight_features": "", "sight_content": ""}}, {"title": "霞山天主教堂", "address": "湛江市霞山区绿荫路85号", "image": "", "rank": 11, "time": 1.0, "location": {"lat": 21.201446136604368, "lng": 110.42072830868878}, "feature": {"sight_features": "", "sight_content": ""}}, {"title": "蛤岭村", "address": "湛江市吴川市吴阳镇", "image": "", "rank": 12, "time": 2.0, "location": {"lat": 21.318655779331905, "lng": 110.67246212802347}, "feature": {"sight_features": "", "sight_content": ""}}, {"title": "金沙湾海滨浴场", "address": "湛江市赤坎区金沙湾海滨浴场(万象金沙湾广场南)", "image": "", "rank": 13, "time": 2, "location": {"lat": 21.27132300316713, "lng": 110.3994893786758}, "feature": {"sight_features": "", "sight_content": ""}}, {"title": "湛江红嘴鸥游船", "address": "湛江市霞山区东堤路15号渔人码头", "image": "", "rank": 14, "time": 2, "location": {"lat": 21.196298813419162, "lng": 110.42430934341665}, "feature": {"sight_features": "特色1 乘游船、观海景、吹海风、游军港", "sight_content": "湛江市红嘴鸥旅游船务有限公司成立于2002年，是湛江一家有资质经营港湾游的船舶公司。目前拥有两艘玻璃钢材质的游船，分别是红嘴鸥一号和红嘴鸥三号。分别载客153和137人。游客可以在一、二层船舱内或二层甲板欣赏美丽的湛江港湾风光。\n\n湛江港，1956年开港的湛江港，是新中国第一个自行设计，自行建造的现代化深水良港。半个世纪过去了，湛江港发生了翻天覆地的变化，港口作业区不断扩展，设施日益完善，货物吞吐量一再飙升，建成了国家级枢纽港。\n广东马尔代夫之称的特呈岛。她拥有天然的五百年红树林古群落，四百多年历史的冼太庙以及粤西地区较大的岛上温泉别墅度假村。\n我国有三大舰队：北海舰队、东海舰队和南海舰队。南海舰队是我国海军三大舰队之中防御海域较大、综合实力较强、拥有驱护数量较多，也是一个拥有两个海军陆战旅的一支舰队。\n目前拥有我国海军大型船坞登陆舰3艘，我国海军先进的052D型导弹驱逐舰4艘等等。南海舰队司令部设在湛江市区，军港设在麻斜共分为8个码头，全长约7公里，因此被称之为十里军港。如果有幸还能亲眼目睹军舰出港执行任务的壮观场景。\n湛江标志性的建筑——海湾大桥，全长为3981米，目前是广东省净空高度第二高的一座桥，设计是5万吨级以下的船舶不等潮水可以自由通行。\n湛江市奥林匹克体育中心位于海湾大桥的北侧,是广东省第十四届省运会的主会馆，体育馆以海之贝为理念，以海螺为母体，建筑形体简洁，综合球馆，游泳馆，跳水馆，三馆串联，形如三片白色的贝壳，自由散落在沙滩上，体现了海湾城市特有的建筑风格。\n高楼林立建设中湛江的金沙湾中央商务区，这个区域将彻底改写湛江城市功能和形象。湛江展开CBD蓝图，意味着同时展开了成为国际性区域中心城市的雄心。这里，承载着湛江城市发展的梦想。\n长廊观海为湛江著名的八景之一。观海长廊南起海滨公园北至渔港港公园全长2.5公里，有月亮岛，观海台，紫荆广场，海螺广场，种有品种繁多的亚热带植物，错落有序，层次分明。在观海长廊的岸边，可以看到很多低矮茂密的植物，这些植物被称为海上森林的红树林，每年冬季，成千上万只红嘴鸥都会从遥远的西伯利亚飞抵湛江越冬，成为一道美丽风景。红嘴鸥是吉祥的海鸟，哪里海景秀丽，鱼肥水美，民风祥和，生态良好，哪里就是红嘴鸥的家。"}}, {"title": "湛江海湾大桥", "address": "湛江市坡头区081省道", "image": "", "rank": 15, "time": 1.5, "location": {"lat": 21.2503767385989, "lng": 110.46256709710735}, "feature": {"sight_features": "", "sight_content": ""}}, {"title": "海滨火山温泉", "address": "湛江市霞山区海滨大道中2号", "image": "", "rank": 16, "time": 2, "location": {"lat": 21.2257879278729, "lng": 110.42646761223422}, "feature": {"sight_features": "特色1 位于闹市中心的火山地热温泉 特色2 一个缓解压力，享受惬意人生的理想之地。", "sight_content": "【温泉区结构】\n海滨火山温泉包括一个大泡池、四个中泡池，露天温泉区有SPA水疗区、鱼疗区、石板熨背、干湿蒸，养生汤屋以及功能各异的大小温泉泡池三十七个，还有恒温泳池一个。其中水疗区功能齐全，有针灸按摩池、旋转喷射池、各类高压气泡水柱、各式水疗按摩、水上氧吧带、瀑布按摩区、雾化喷淋、冰池、维其浴等。其他还设有篮球、网球、沙滩排球、水边吧等康体、休闲、娱乐服务项目。\n【水质特点】\n\n海滨火山温泉为国内罕见的位于市中心的火山地热温泉。温泉源自600多米地底深处，经地质矿产部广东省中心试验室专家检测，测定泉水属于氟硅型热矿水，富含偏硅酸、氟、铁、溴、碘、锶、硒、硫化氢等23种有益于人体健康的微量元素和化合物，每升温泉水含矿物质达23毫克，泉水出水温度46℃，日流量最大达1500立方米以上，水质无色透明纯净，不受地表污染。海滨火山温泉坚持每天都更换温泉汤，严格对温泉浴池等进行清洁，保证水质纯净无污染。\n【温泉功效】\n\n海滨火山温泉水质富含偏硅酸，铜，锶，硒等多种有益人体健康的矿物质。\n【美誉及定位】\n\n湛江海滨火山温泉为国家AAAA级景区,被誉为“闹市中的世外桃源”，有“湛江明珠”温泉之称。湛江海滨火山温泉致力于打造都市人健康养生，缓解压力，美容养颜，休闲度假，享受惬意人生的理想之地。\n【环境概述】\n\n近两万平方米的“海滨火山温泉”区以热带海滨园林风光为基调，古榕、棕榈、翠竹、瀑布及小桥流水、卵石小道构建成一个充满热带椰风的海滨温泉休闲健身娱乐区。景观美如仙境，流泉蜿蜒，风景秀丽，空气格外清新，形形式式的亭台楼榭与花草绿水交相辉映，一派恬静秀丽的海岛、田园风光。当华灯初上，红男绿女，皆入水中，洗凝脂之泉水，作随心之泳姿，天高水阔，如鱼如蛙，悠闲自得，何等畅美。池畔周围，霓虹彩灯照射之下，只见水光粼粼、雾气腾腾，冉冉上升、袅袅绕绕、如画如云，人居其间，似幻亦真，顿觉忘情于胸外，发人生如浮云之感慨。一如美国大文豪马克·吐温在享受过温泉后由衷地感叹：“5分钟后你会忘记自己，20分钟后你会忘记世界。”\n【海滨火山温泉的前世今生：二亿年前的水】\n\n通过物理探测、地质分析，海滨火山温泉温泉与世界地质公园湖光岩和海南岛同处于环太平洋地震带，直接与广东雷琼地区地底火山岩层深层断裂带相连，具有极高的科学、文化价值。海滨火山温泉所处地底火山岩层是一个以碱性玄武岩为主、兼有拉斑玄武岩的复合岩区，喷发于新生代，以中心式喷发为主，形成于晚二叠世（二叠纪分为早二叠世, 中二叠世和晚二叠世。二叠纪开始于距今约2.95亿年，延至2.5亿年），一般厚度为600～1500米。玄武岩的主要成份是二氧化硅、三氧化二铝、氧化铁、氧化钙、氧化镁（还有少量的氧化钾、氧化钠），其中二氧化硅含量最多，约占百分之四十五至五十左右。\n\n海滨火山温泉热水井的得来还有一段鲜为人知的故事：1983年，胡耀邦总书记视察湛江，下榻海滨宾馆7号楼，因宾馆门外自来水管突然爆裂，致使停水6个小时。接待任务结束后，市委、市政府领导指示要打深水井，为接待工作应急备用，因此请704地质队打井，当打到300米时，出的水非常清澈，故此突发奇想，如果打深点，水质可能会更好，因此继续打，到600米时，出的水水温达46度，使用后身上滑滑的，就不敢再使用，封了井。直至2004年，宾馆将水送地质矿产部广东省中心实验室检测，测定泉水属于氟硅型热矿水，富含偏硅酸、氟、铁、溴、碘、氡、锶、硒、硫化氢等23种有益于人体健康的微量元素和化合物，每升温泉水含矿物质达23毫克，纯净无污染，对神经疼、风湿、皮肤病等多种疾病有特殊疗效，特别是美容、减肥的速效良方。宾馆根据水资源情况，决定上温泉浴区项目，启封了这口热水井，才有了今天的海滨火山温泉。\n【养生汤屋】\n\n海滨火山温泉养生汤屋以养生为主题，再加入温泉泡池入户的形式，将古典文化与地域文化特色相结合，营造出十分具有特色的泡汤环境，新颖却又不失浪漫。汤屋以古代温泉文化的首席代言人、中国宫廷四大美人之一的杨贵妃浴汤为文化主题，打造别具一格、韵意深远的中式古典风温泉养生汤屋。\n养生汤屋坐落于环境幽静的AAAA级旅游度假区内，汤屋内设精致素雅，设备齐全，采用柔和的灯光与低调华丽的悠闲风情室内设计，巧妙地融入杨贵妃浴汤的文化氛围，每间汤屋均配有【独立的室内浴室】、【独立的卧室】和【独立的户外温泉泡池】，营造出静谧诱人的意境和清雅闲适的气氛。绿荫下静枕一弯热泉 ，乐享千年积淀的温柔乡,让身心灵的全然放松，令您时刻享受心灵养生的愉快。\n【石板温泉】\n\n将富含偏硅酸、锂、锶等40多种有益人体微量元素的温泉水在平滑的石板下流过，以此不断为石板加热，游人只要躺在石板上，就可以接受到温泉水传递而来的热量，人们都尝试着这样一种新奇的享受温泉方式，尽情享受温泉疗效。\n\n通过温泉水导热到表层板岩，人体躲卧在渐热的石面上直接传热，享受石疗，从而改善血液循环，祛风除湿，对胃寒、关节痛有很好的辅助功效。\n【光波浴的功效有很多，其中一点是燃烧卡路里与控制体重】\n当您在享受光波浴时，生命之光远红外线可以到达人体4.5厘米深处，细胞吸收能量，产生汗液，血液循环加快，脂肪燃烧热量，在20分钟的远红外桑拿房内，您可以释放相当于慢跑30分钟燃烧的热量\n【畔海楼加西亚西餐厅】\n\n加西亚西餐厅提供中西式自助餐，“加勒比巴西烤肉”是湛江市首个引进国外天然烤肉技术的餐饮项目。拥有180个餐位，可安排各类中小型聚会。\n【悠璐瑜伽】\n\n悠璐瑜伽——粤西首家纯正印度瑜伽会所，是中国瑜伽联盟之一，拥有纯正的瑜伽习练场所，教学场地遵循简练、自然、和谐的理念，多次被评为全国最受欢迎瑜伽馆。\n悠璐瑜伽坐落于海滨火山温泉内，园内拥有千年古木、青山绿水、花香鸟语，空气新怡，\n人仿佛置身仙境，真正达到天人合一、万物和平共处的美好境界，使你在嘈杂的都市中觅得一方脱世净土，并享受课后温泉，享受人生半日闲。\n【畔海楼会议室】\n\n畔海楼会议室共有三间,位于畔海楼二楼,面积不同,风格各异,能满足各种类型会议需要。其中蓝月厅面积150平方米、畔月厅面积139平方米，适用于中小型会议和宴会。银月厅面积62平方米，适用于董事会等小型座谈会。\n【球场】\n\n一网打尽篮球、网球、沙滩排球的好去处：运动风席卷全球，海滨火山温泉紧跟潮流，日前开放体育项目有：篮球、网球、沙滩排球。坐落在负氧离子环绕，鸟语花香的环境中，抽个周末，邀三五球友，一试身手。满目绿色外加大汗淋漓，活力健儿们的球技发挥一定不错呢！"}}, {"title": "渔港公园", "address": "湛江市霞山区海洋路", "image": "", "rank": 17, "time": 2, "location": {"lat": 21.22369211678578, "lng": 110.42835578394094}, "feature": {"sight_features": "", "sight_content": ""}}, {"title": "灯楼角", "address": "广东省湛江市徐闻县", "image": "", "rank": 18, "time": 4.0, "location": {"lat": 20.33172368670216, "lng": 110.18247274427223}, "feature": {"sight_features": "", "sight_content": ""}}, {"title": "海洋大学水生生物博物馆", "address": "广东省湛江市霞山区解放东路", "image": "", "rank": 19, "time": 1.5, "location": {"lat": 21.20281823717263, "lng": 110.41902505945933}, "feature": {"sight_features": "", "sight_content": ""}}, {"title": "龙海天", "address": "湛江市麻章区东海岛", "image": "", "rank": 20, "time": 2, "location": {"lat": 20.96585627306069, "lng": 110.52428074491063}, "feature": {"sight_features": "", "sight_content": ""}}, {"title": "普瑞美温泉", "address": "海滨大道北128号民大喜来登酒店负一楼(金沙湾)", "image": "", "rank": 21, "time": 2, "location": {"lat": 21.26677671318559, "lng": 110.40135072069187}, "feature": {"sight_features": "特色1 健康、养生、绿色、休闲。", "sight_content": "普瑞美水疗集团成立于2004年，是世界的专业水疗管理公司，总部位于德国汉堡。旗下现有二十余家水疗中心，遍布全球主要大型城市。与国际知名五星级酒店集团喜达屋、希尔顿、Arosa等有多个合作项目。\n湛江普瑞美温泉（广东民大投资集团旗下全资子公司）是普瑞美水疗集团旗下合作的中国水疗温泉会所，位于湛江民大喜来登酒店负一层，经营场所分2层面积共约8000平方米，是一家集洗浴、温泉、足浴、保健按摩、特色SPA、餐饮、棋牌、儿童乐园等于一体的一站式休闲养生会所。\n【温泉中心】\n“健康、养生、绿色、休闲”的普瑞美温泉设有男女功能区域，温泉按摩池、游泳池、儿童嬉水池、干/湿蒸桑拿房、体验式淋浴室 、克奈普足浴区、清凉维他命冰吧、全自动无极自控休闲放松区、影音区、特色元素餐厅、儿童乐园等，是您商务宴请，亲友相聚， 阖家出游的不二之选。\n【元素餐厅】\n特色主食、特选例汤、西式糕点、精美小吃、新鲜的果蔬沙拉、流行饮料...多种美食可以自由选择，应有尽有。\n【特色SPA按摩】\n普瑞美温泉引进德国专业按摩技术，运用不同的按摩手法，人体的皮肤、肌肉、关节神经、血管等处，让局部的血液循环，肌肉放松。"}}, {"title": "硇洲灯塔", "address": "湛江市硇洲镇孟岗村东南海边的高坡上，硇洲岛海拔81.6米的马鞍山上", "image": "", "rank": 22, "time": 0.25, "location": {"lat": 20.91575116262877, "lng": 110.6080665981041}, "feature": {"sight_features": "", "sight_content": ""}}, {"title": "硇洲岛", "address": "湛江市章区市东南40公里", "image": "", "rank": 23, "time": 3.0, "location": {"lat": 20.95467795361196, "lng": 110.52432921388271}, "feature": {"sight_features": "", "sight_content": ""}}, {"title": "南国热带花园", "address": "体育南路(近体育馆)", "image": "", "rank": 24, "time": 2, "location": {"lat": 32.050825494259556, "lng": 118.87700032027804}, "feature": {"sight_features": "", "sight_content": ""}}, {"title": "广东海洋大学", "address": "湛江市麻章区鹏程路湖光岩东", "image": "", "rank": 25, "time": 2.5, "location": {"lat": 21.153821934074536, "lng": 110.30112380877195}, "feature": {"sight_features": "", "sight_content": ""}}, {"title": "寸金公园", "address": "赤坎区西侧(近湛江师范大学)", "image": "", "rank": 26, "time": 2, "location": {"lat": 21.272134812703147, "lng": 110.372532540958}, "feature": {"sight_features": "", "sight_content": ""}}, {"title": "吉兆湾", "address": "湛江市吴川市吉兆湾旅游区沿海路（近海边）", "image": "", "rank": 27, "time": 2, "location": {"lat": 21.3927164451242, "lng": 110.8705161951688}, "feature": {"sight_features": "", "sight_content": ""}}, {"title": "雷祖祠", "address": "湛江市雷州市州城西南五里的英榜山上", "image": "", "rank": 28, "time": 1.0, "location": {"lat": 20.919880592716495, "lng": 110.10258050647992}, "feature": {"sight_features": "", "sight_content": ""}}, {"title": "鼎龙吉兆湾高尔夫球会", "address": "湛江市吴川市覃巴镇吉兆湾六鳌度假小区", "image": "", "rank": 29, "time": 2, "location": {"lat": 21.392662766611984, "lng": 110.87051727313542}, "feature": {"sight_features": "", "sight_content": ""}}, {"title": "湛江博物馆", "address": "广东省湛江市赤坎区寸金桥公园", "image": "", "rank": 30, "time": 2.5, "location": {"lat": 21.276623898664567, "lng": 110.36052412315887}, "feature": {"sight_features": "", "sight_content": ""}}, {"title": "三元塔公园", "address": "湛江市雷州市雷城镇曲街4号（原雷城“南门头”）东侧", "image": "", "rank": 31, "time": 2.0, "location": {"lat": 20.916077009043715, "lng": 110.09931789769928}, "feature": {"sight_features": "", "sight_content": ""}}, {"title": "南亚热带植物园", "address": "湛江市麻章区湖秀新村", "image": "", "rank": 32, "time": 2.5, "location": {"lat": 21.169922999039493, "lng": 110.26831688488004}, "feature": {"sight_features": "", "sight_content": ""}}, {"title": "乌石镇", "address": "湛江市雷州市乌石镇", "image": "", "rank": 33, "time": 3.0, "location": {"lat": 20.562546499702133, "lng": 109.86668044912678}, "feature": {"sight_features": "", "sight_content": ""}}, {"title": "雷州古城", "address": "湛江市雷州市", "image": "", "rank": 34, "time": 7.5, "location": {"lat": 20.919880592716495, "lng": 110.10258050647992}, "feature": {"sight_features": "", "sight_content": ""}}, {"title": "海安杏磊湾温泉", "address": "湛江市徐闻县海安经济开发区杏磊湾温泉度假村", "image": "", "rank": 35, "time": 1.0, "location": {"lat": 20.27992488977857, "lng": 110.20987252386057}, "feature": {"sight_features": "特色1 养生美容温泉", "sight_content": "海安杏磊湾温泉度假村是大陆最南端的亚热带生态滨海度假中心和温泉度假酒店；它由徐闻县海安旅游渡假中心有限公司投资兴建、由海南金银岛酒店管理有限公司管理的一家集滨海、旅游、休闲、度假为一体的四星级酒店。\n海安杏磊湾温泉度假村位于湛江市徐闻县海安经济开发区杏磊湾温泉度假村，是集旅游，休闲度假,现代商务为一体的综合性酒店，毗邻古代“海上丝绸之路”始发港——海安港，座落于徐闻县经济开发区地王路段、207国道边，紧靠海岸客运码头，距离徐闻县城和粤海铁路海岸北港仅10分钟车程，交通十分便利。\n\n温泉度假村共投入300多万元进行园林绿化建设，杏磊湾温泉度假村绿化面积达35265平方米，绿化率达98.6%，绿化覆盖面积38791平方米，绿化覆盖率达72.3%，2009年12月，杏磊湾温泉度假村度假村通过了市绿化委员会专家们的评审，被评为市园林式单位。此外，该度假村于今年9月还被省旅游局授于首批国民旅游休闲示范单位称号。\n\n海安杏磊湾温泉度假村为您提供120套各类豪华海景客房、中西餐厅、茶艺馆、大堂吧、会议中心、室外温泉游泳池、夜总会、网球场、SPA水疗中心、水上乐园等服务设施。将成为粤西第一个亚热带生态滨海度假中心和著名的温泉度假圣地。海安杏磊湾——您旅游、休闲度假、商务会议的最佳选择地。\n酒店环境优雅，风格时尚，拥有56间豪华客房，内部设施齐全，装饰高雅别致，有餐厅，咖啡厅，会议室，棋牌室，商场等多种服务设施，并设有大型停车场。于2006年开始营业，酒店本着“会馆式的管理、保姆式的服务”的理念，为您提供自然、热忱、健康、温馨的服务。"}}, {"title": "宋皇井", "address": "湛江市麻章硇洲岛宋皇井", "image": "", "rank": 36, "time": 0.5, "location": {"lat": 20.91575116262877, "lng": 110.6080665981041}, "feature": {"sight_features": "", "sight_content": ""}}, {"title": "霞湖公园", "address": "人民大道南(近怡福国际)", "image": "", "rank": 37, "time": 2.5, "location": {"lat": 21.19960050098084, "lng": 110.41437924973626}, "feature": {"sight_features": "", "sight_content": ""}}, {"title": "雷州西湖公园", "address": "湛江市雷州市西湖大道37号", "image": "", "rank": 38, "time": 1.0, "location": {"lat": 20.916588979333643, "lng": 110.09880799972926}, "feature": {"sight_features": "", "sight_content": ""}}, {"title": "金速赛车馆", "address": "湛江市赤坎区海滨大道北国际会展中心1号馆", "image": "", "rank": 39, "time": 2, "location": {"lat": 21.27014407449762, "lng": 110.39686252855182}, "feature": {"sight_features": "", "sight_content": ""}}, {"title": "湛江三岭山森林公园", "address": "湛江市霞山区百蓬路", "image": "", "rank": 40, "time": 3.5, "location": {"lat": 21.182888557118353, "lng": 110.39781130715318}, "feature": {"sight_features": "", "sight_content": ""}}, {"title": "鑫沙海滩度假村", "address": "湛江市东海岛东简镇龙海天涛声南路9号", "image": "", "rank": 41, "time": 2, "location": {"lat": 21.015546104766013, "lng": 110.54633179520609}, "feature": {"sight_features": "", "sight_content": ""}}, {"title": "徐闻古港", "address": "湛江市徐闻县南山镇大汉三墩旅游区东北400米", "image": "", "rank": 42, "time": 2.0, "location": {"lat": 20.250743278775605, "lng": 110.14104121253783}, "feature": {"sight_features": "", "sight_content": ""}}, {"title": "海滨公园游乐场", "address": "广东湛江霞山区海滨公园内", "image": "", "rank": 43, "time": 2, "location": {"lat": 21.20354266517097, "lng": 110.42290312339553}, "feature": {"sight_features": "", "sight_content": ""}}, {"title": "鹤地水库风景区", "address": "湛江市廉江市河唇镇", "image": "", "rank": 44, "time": 2.5, "location": {"lat": 21.739441157278346, "lng": 110.30239514911909}, "feature": {"sight_features": "", "sight_content": ""}}, {"title": "北桥公园", "address": "南桥河与北桥河交汇处", "image": "", "rank": 45, "time": 2, "location": {"lat": 30.6784727534774, "lng": 106.47233877097716}, "feature": {"sight_features": "", "sight_content": ""}}, {"title": "海东度假村", "address": "湛江市坡头区海东快线南66号", "image": "", "rank": 46, "time": 2, "location": {"lat": 21.286412281099885, "lng": 110.48471697268687}, "feature": {"sight_features": "特色1 全国罕见的雷州半岛火山岩层地热咸水温泉 特色2 度假村包含冲浪河漂流，木屋景观，农业生态园。", "sight_content": "‍‍‍‍\n海东度假村位于湛江市坡头区海东快线南66号，用地面积56692平方米，总建筑面积23000平方米，其中：客房、餐饮18000平方米，游客中心1000平方米，附属用房3000平方米。包含假日酒店、咸水温泉水上乐园、烧烤区、农家乐、等区域，涵盖洗浴、冲浪河漂流、木屋景观、农业生态园、田园风光，酒店住宿等游玩项目。\n海东度假村以中西合璧悠闲风情的设计为主，拥有223间客房，有特色园林房、豪华大床房及家庭套房等多种房型，温泉采用当地丰富的咸水温泉资源，设有1大池2儿童池，36个小池，还有国家标准的游泳池，漂流、冲浪、水疗SPA、干湿蒸等。\n海东度假村温泉是全国罕见的雷州半岛火山岩层地热咸水温泉，源自于700多米的地底深处，水温常年高达47~48度以上，日流量最大19000立方米以上。经地质矿产部广东省中心实验室检测，测定泉水属于氟硅型热矿水，富含重碳酸磷、硫酸盐、硼、铅锌、钡、偏硅酸、氟、铁、溴、碘、氡、锶、硒、硫化氢等28种有益于人体健康的微量元素和化合物，每升温泉水含矿物质达53毫克，纯净无污染，对神经疼、风湿、皮肤病等多种疾病有特殊疗效，特别是美容、减肥、养生的速效良方。\n冲浪池，是目前粤西地区规模最大的冲浪池，处于海东度假村水上乐园中心，属于温泉区面积最大的一个水池，长25米，宽15-20米不等，由浅入深分为浅水区、中水区、深水区（1.8米）。\n采用先进的设备及技术能造出钻石浪、波浪浪、摇摆浪、排浪等数十种浪花，最高的浪达到80厘米。让你仿佛置身于浩瀚的大海，切身感受大海的拥抱。\n漂流河全长300余米，水深1.2米，河流穿越天山涧与瀑布下，飞花碎玉，组成了奔腾翻涌壮观的景象，河上的溶洞、拱门山、仿赵州桥、情侣桥、竹桥、石景桥与漂流河浑然一体。"}}, {"title": "湛江森林公园欢乐世界", "address": "湛江市霞山区西南三公里处湛江森林公园内", "image": "", "rank": 47, "time": 1.5, "location": {"lat": 21.17970082706301, "lng": 110.34813672194319}, "feature": {"sight_features": "", "sight_content": ""}}, {"title": "白沙湾海上浴场", "address": "徐闻县白沙湾", "image": "", "rank": 48, "time": 2, "location": {"lat": 20.266765785944873, "lng": 110.27796829634386}, "feature": {"sight_features": "", "sight_content": ""}}, {"title": "乐8小城湛江店", "address": "湛江市赤坎区海田路138号", "image": "", "rank": 49, "time": 2, "location": {"lat": 21.29830573968799, "lng": 110.38134482817742}, "feature": {"sight_features": "", "sight_content": ""}}, {"title": "角尾祥光", "address": "徐闻县角尾乡灯楼脚", "image": "", "rank": 50, "time": 1.0, "location": {"lat": 20.2852671115474, "lng": 109.9667102279026}, "feature": {"sight_features": "", "sight_content": ""}}, {"title": "广州湾法国警察署", "address": "湛江市霞山区海滨大道南3号", "image": "", "rank": 51, "time": 2, "location": {"lat": 21.204158404396136, "lng": 110.422194798118}, "feature": {"sight_features": "", "sight_content": ""}}, {"title": "德萨斯水世界", "address": "湛江市吴川市覃巴镇碧桂园鼎龙湾", "image": "", "rank": 52, "time": 0.75, "location": {"lat": 21.397053713839764, "lng": 110.90383740615145}, "feature": {"sight_features": "特色1 清凉热情水乐园，充满美国西部风情！", "sight_content": "德萨斯水世界坐落于湛江市吴川碧桂园﹒鼎龙湾国家海洋生态度假区内，占地500亩。项目重金聘请全球顶尖的水上乐园专业设计公司Water Technology Inc.(WTI)操刀主创，按照世界顶级水上乐园的标准进行设计，整体规划完美结合鼎龙湾国家海洋度假区的地理及自然条件，选取了地理位置及自然条件非常接近的美国德克萨斯州作为项目的主题设计元素，将牛仔文化以及以往的石油开采热潮等文化主题融入园区，配以当地的风化沙漠景观，充满美国西部风情。\n德萨斯水世界项目建设预计分二期完成，一期面积约10万平方米，二期面积约3.8万平方米，可同时容纳游客数量4万人。\n德萨斯水世界共设七大区域，分别是达拉斯城、阿拉莫海、响尾蛇峡谷、黑金油田、仙人掌镇、佩科斯河谷、格兰德河谷。在这七大区域内，设置有大型造浪池、互动水寨、漂流河、儿童戏水乐园以及水上过山车、穿山蛇滑道、大喇叭滑道、大碗滑道、冲天回旋滑道、合家欢滑道、急速滑道、水环人体滑道等三十多种滑道组合。"}}, {"title": "海石滩泳场（那晏海石滩）", "address": "湛江市麻章区开发区288省道", "image": "", "rank": 53, "time": 2, "location": {"lat": 21.08507842395199, "lng": 110.33468369593528}, "feature": {"sight_features": "", "sight_content": ""}}, {"title": "乐儿乐儿童乐园（遂溪店）", "address": "湛江市遂溪县遂城镇府前路兴华广场二楼", "image": "", "rank": 54, "time": 2, "location": {"lat": 21.379860263532244, "lng": 110.25582545359819}, "feature": {"sight_features": "", "sight_content": ""}}, {"title": "湛江森林公园", "address": "湛江市霞山区友谊街道环湖路森林公园", "image": "", "rank": 55, "time": 4.0, "location": {"lat": 21.17970082706301, "lng": 110.34813672194319}, "feature": {"sight_features": "", "sight_content": ""}}, {"title": "白沙湾", "address": "湛江市徐闻县", "image": "", "rank": 56, "time": 1.5, "location": {"lat": 20.33172368670216, "lng": 110.18247274427223}, "feature": {"sight_features": "", "sight_content": ""}}, {"title": "湖光农场", "address": "湛江市麻章区国营湖光农场", "image": "", "rank": 57, "time": 2, "location": {"lat": 21.206354223299403, "lng": 110.25277036057675}, "feature": {"sight_features": "", "sight_content": ""}}, {"title": "樟树湾大酒店温泉", "address": "湛江市雷州市雷城区文化路8号樟树湾温泉", "image": "", "rank": 58, "time": 2, "location": {"lat": 20.713947373730747, "lng": 110.18878806197151}, "feature": {"sight_features": "特色1 配备全园林式露天泳池", "sight_content": "樟树湾温泉露天温泉区含1个大人游池、1个儿童游池、50个大小不一的温泉池、2个汗蒸房、1个热石板区。\n火山温泉及泳池 Volcanic Hot Spring and Swimming Pool\n全园林式露天泳池、天然火山温泉，含有丰富的矿物质。绚丽迷人的热带植物，青麻石、鹅卵石点缀，乔木、灌木高低错落，层次分明，每位客户可充分体验东南亚风情度假生活。早年雷州农村用作洗蕃薯的石缸，由原重75吨整石的雷州火山石雕凿而成，是温泉区当之无愧的“十八金缸”。周围更可举办PARTY，是同学聚会或商业聚会的好场所。\n宝贝水上乐园 Kids’ Water Park\n\n以宝贝开心，全家开心主题打造，具有超大玩乐空间，发现轻松的水疗之旅。顶尖的配套设施，多样的特色服务，清新宜人的环境以及优质服务，深受许多家庭、小朋友的喜爱，让您和孩子们都纵享美好假期时光。特别在炎热的宁夏，让您体验从所未有的水上之乐。"}}, {"title": "康琦赛", "address": "湛江市麻章区瑞云北路大路前村", "image": "", "rank": 59, "time": 2, "location": {"lat": 21.298097749638966, "lng": 110.32322974104252}, "feature": {"sight_features": "", "sight_content": ""}}, {"title": "十贤祠", "address": "环城东路190号", "image": "", "rank": 60, "time": 1.0, "location": {"lat": 30.872187677347853, "lng": 120.11369620703357}, "feature": {"sight_features": "", "sight_content": ""}}]}