{"cityName": "漳浦", "days": 2, "cityImage": "", "spots": [{"title": "漳州东南花都", "address": "漳州市漳浦县马口镇（324国道旁）", "image": "", "rank": 1, "time": 2.5, "location": {"lat": 24.20287375459583, "lng": 117.59624542756282}, "feature": {"sight_features": "", "sight_content": ""}}, {"title": "翡翠湾旅游度假中心", "address": "漳州漳浦县六鳌镇鳌西村翡翠湾旅游度假中心", "image": "", "rank": 2, "time": 2, "location": {"lat": 23.94786505464594, "lng": 117.77443564046429}, "feature": {"sight_features": "特色1 素有东方的佛罗里达海岸之称 特色2 翡翠湾素有中国的佛罗里达海岸之称。 特色3 温柔六鳌海，天堂翡翠湾。", "sight_content": "翡翠湾素有东方的佛罗里达海岸之称，是中国大陆架中著名的优美海滩之一。享有“温柔六鳌海，天堂翡翠湾”的盛誉。\n景区的沙雕园，汇集经典之作，有人物，有卡通，无一不惟妙惟肖，栩栩如生，生动至极让人震撼。您可以寻个周末，找个假期，约三两好友，来景区放松身心、陶冶情操、领略沙雕文化的精彩，还可能随时与精彩邂逅，同经典逢缘。"}}, {"title": "天福茶博物院", "address": "漳州市漳浦县盘陀镇", "image": "", "rank": 3, "time": 1.5, "location": {"lat": 24.059811798100114, "lng": 117.51123223931418}, "feature": {"sight_features": "特色1 认识茶叶，了解茶艺", "sight_content": "天福茶博物院位于中国福建省漳州市漳浦县324国道旁，始建于2000年初，2002年建成开院。整个博物院总占地130亩，现为aaaa级旅游景区，农业部首批全国农业旅游示范点。\n院内有5幢主建物：1）主展馆：以生动的模型、灯箱及图片展示中国云南野生大茶树群落、中华茶文化、世界各国茶情及茶文化、民族饮茶风情、现代茶艺、茶与诗、茶与书画、茶与健康及茶业科技等；附设天福史馆展示天福集团的发展历程；2）茶道教室：一楼设有茶艺表演厅和溢香轩、品茗阁等环境优雅的品茗场所，兼作茶道教学；二楼为设施先进的国际会议厅；3）日本茶道馆(福慧庵)：日本式庭院及茶室，设有精亭(四叠半)、俭亭（八叠）、敬亭（立礼席）分别代表三个不同时代风格的日本茶室；4）韩国茶礼馆：按照韩国传统茶室的建筑风格，采用原杉木构构建而成；5）书画馆：一楼有典藏书画厅展示本馆收藏字画，活动展厅不定期举办个人或主题书画展；二楼设联谊厅不定期举办笔会及现场挥毫；附设奇石斋，展售各种奇石、雕刻等工艺品。\n院内还有汉亭、唐山、宋桥、元塘、明湖、清池、兰亭曲水、武人茶苑、茗风石刻等景观。环境幽雅自然，是一个聚学术研究、文化传承、教育娱乐为一体的综合景点，使参观者能在娱乐中获得茶学知识，认识茶叶，了解茶艺及传承茶文化。"}}, {"title": "“唐山过台湾”石雕园", "address": "漳州市漳浦县厦汕高速公路天福服务区（漳浦赤土）", "image": "", "rank": 4, "time": 2.5, "location": {"lat": 24.122126498012182, "lng": 117.7511460262948}, "feature": {"sight_features": "特色1 精美的石头会唱歌，会述说历史", "sight_content": "天福石雕园是厦汕（漳诏）高速天福服务区的核心部分，厦汕高速漳浦天福服务区占地近2000亩，包含有服务区、石雕园、观光茶园、“皮定钧将军”纪念园等四大部分，由天福集团总裁李瑞河投资创办的，“唐山过台湾”石雕园占地500多亩，投资近三千万人民币，于2003年11月27日正式开业。\n石雕园以“唐山过台湾”为主题，以天福集团总裁李瑞河先生的家史为蓝本，讲述多数台湾人的祖辈从大陆移居台湾，艰苦奋斗，创造辉煌，然后再回到大陆来投资兴业，回馈桑梓的故事，体现海峡两岸同根同源、同文同种、一脉相承的关系。参观石雕园可以进一步了解两岸的渊源，更好地促进两岸的沟通与交流，密切两岸的经贸合作，增进情谊和凝聚力。\n“唐山过台湾”石雕园主题部分共分为四个区和一座闽台民俗馆。主要以“唐山过台湾，筚路辟新天。百年传薪火，数代系茶园。花甲再创业，芳草报故园。豪情惊陆圣，茗谱大同篇。”主线，石雕园主要利用山上丰富的自然石资源，以石雕语言为载体，采用圆雕、浮雕、刻线雕、防真雕等多种手法，来讲述两岸同胞同根同源，一脉相承的史实。是首批全国农业旅游师范点，也是漳浦县爱国主义教育基地。\n闽台民俗馆是一座最具代表性的闽南地区古民居，同时它也是台湾早期民居的典型，是按当地一座民国时期的传统民居原样设计建造的。民俗馆里收集许多当时的器具，谷桶、犁耙、水车、筐、还有坛坛罐罐、制茶的机器、娶亲的花轿等。虽然都很粗糙、平凡，但也忠实地反映了闽台地区数百年来慢慢形成的独特的文化，是这一地区人们日常生活、生产、文化活动的见证。"}}, {"title": "抽象画廊", "address": "漳州市漳浦市六鳌半岛东海岸，六鳌镇新厝村", "image": "", "rank": 5, "time": 1.5, "location": {"lat": 23.935082392428377, "lng": 117.7592206771314}, "feature": {"sight_features": "", "sight_content": "抽象画廊位于漳浦六鳌半岛东海岸，六鳌镇新厝村，是一处风化花岗岩海岸风光，在六鳌半岛中段崂岈山东面突出部，崂岈山海蚀风化花岗岩、抽象岩画群，是我国海岸上一处罕见奇观\n景区面积约0.5平方公里。在海浪中冲拍、潮汐洗刷的地方，除了净洁的细沙，便是坚硬的顽石。景区的主体在海滨的山丘上，景区内沟壑连绵，每一沟壑便是皱皱叠叠的画卷。"}}, {"title": "赵家堡", "address": "漳州市漳浦县湖西乡硕高山麓", "image": "", "rank": 6, "time": 1.5, "location": {"lat": 24.182620474212666, "lng": 117.83221042521787}, "feature": {"sight_features": "", "sight_content": ""}}, {"title": "六鳌翡翠湾", "address": "漳州市漳浦县六鳌半岛", "image": "", "rank": 7, "time": 2, "location": {"lat": 23.935082392428377, "lng": 117.7592206771314}, "feature": {"sight_features": "", "sight_content": ""}}, {"title": "古雷碧海国际度假村", "address": "漳州市漳浦县古雷港经济开发区北部碧海国际度假村", "image": "", "rank": 8, "time": 2, "location": {"lat": 23.77372681220124, "lng": 117.59818567763318}, "feature": {"sight_features": "", "sight_content": ""}}, {"title": "海缘湾", "address": "漳州市漳浦县六鳌半岛鳌西村", "image": "", "rank": 9, "time": 2, "location": {"lat": 23.935082392428377, "lng": 117.7592206771314}, "feature": {"sight_features": "", "sight_content": ""}}, {"title": "特种兵真人cs彩弹(天福茶学院店)", "address": "国道324线盘陀镇天鹅湖畔侧天鹅湖温泉宾馆旁", "image": "", "rank": 10, "time": 2, "location": {"lat": 24.08540742786123, "lng": 117.54235365461217}, "feature": {"sight_features": "", "sight_content": ""}}, {"title": "六鳌翡翠湾滨海度假景区", "address": "六鳌半岛鳌西村", "image": "", "rank": 11, "time": 2, "location": {"lat": 23.935082392428377, "lng": 117.7592206771314}, "feature": {"sight_features": "", "sight_content": ""}}, {"title": "月光沙滩", "address": "水仙大街月光沙滩", "image": "", "rank": 12, "time": 1.5, "location": {"lat": 24.50719526828313, "lng": 117.71497658049026}, "feature": {"sight_features": "", "sight_content": ""}}, {"title": "漳州东南花都花乐谷魔法奇幻主题...", "address": "福建省漳浦县马口镇", "image": "", "rank": 13, "time": 4.0, "location": {"lat": 24.123461614811962, "lng": 117.62044335256876}, "feature": {"sight_features": "", "sight_content": ""}}, {"title": "雀之庄", "address": "罗山村东罗岩风景区", "image": "", "rank": 14, "time": 2, "location": {"lat": 24.145890384354, "lng": 117.6563092627382}, "feature": {"sight_features": "", "sight_content": ""}}, {"title": "沐翔轩温泉", "address": "盘陀镇官陂雀埔自然村(进村第一家温泉)", "image": "", "rank": 15, "time": 2, "location": {"lat": 44.97485663870472, "lng": 81.03114554648644}, "feature": {"sight_features": "", "sight_content": ""}}, {"title": "花博会", "address": "324国道", "image": "", "rank": 16, "time": 2, "location": {"lat": 23.154734358898722, "lng": 114.20469410313481}, "feature": {"sight_features": "", "sight_content": ""}}, {"title": "蜜原生态农场", "address": "漳州市漳浦县前亭镇圩仔村后街69-1号", "image": "", "rank": 17, "time": 2, "location": {"lat": 24.238680885763213, "lng": 117.9812034740706}, "feature": {"sight_features": "", "sight_content": "蜜原生态农场园区总面积约1000亩，游客可来此参观游玩，农场有天鹅湖区、垂钓区、樱花步道、烤肉区等多种游玩项目。"}}, {"title": "兴兴温泉", "address": "盘陀镇雀浦温泉村", "image": "", "rank": 18, "time": 2, "location": {"lat": 24.059811798100114, "lng": 117.51123223931418}, "feature": {"sight_features": "", "sight_content": ""}}, {"title": "绿宏生态园林工程有限公司漳州苗...", "address": "324国道附近", "image": "", "rank": 19, "time": 2, "location": {"lat": 23.154734358898722, "lng": 114.20469410313481}, "feature": {"sight_features": "", "sight_content": ""}}, {"title": "快乐100空中主题乐园", "address": "梦时代9楼", "image": "", "rank": 20, "time": 2, "location": {"lat": 28.68054756780601, "lng": 115.96765198673047}, "feature": {"sight_features": "", "sight_content": ""}}, {"title": "御汤温泉", "address": "漳州市漳浦县盘陀镇雀埔温泉村入口100米处", "image": "", "rank": 21, "time": 2, "location": {"lat": 24.065140754272708, "lng": 117.52312520868581}, "feature": {"sight_features": "", "sight_content": "御汤温泉于村口不远，有泳池、水疗、桑拿房、露天温泉、儿童水上乐园等休闲娱乐设施，可拥抱大自然、泡泉养生。"}}, {"title": "汇香坊香薰图书馆", "address": "金浦大道118号附近", "image": "", "rank": 22, "time": 2, "location": {"lat": 24.108866906978015, "lng": 117.61592092331082}, "feature": {"sight_features": "", "sight_content": ""}}, {"title": "蔡新故居", "address": "漳州市漳浦县", "image": "", "rank": 23, "time": 2, "location": {"lat": 24.123461614811962, "lng": 117.62044335256876}, "feature": {"sight_features": "", "sight_content": ""}}, {"title": "兴教寺", "address": "漳州市漳浦县大亭路72号", "image": "", "rank": 24, "time": 1.0, "location": {"lat": 24.130965974115018, "lng": 117.6252848545539}, "feature": {"sight_features": "", "sight_content": ""}}, {"title": "佛昙影剧院", "address": "201省道附近", "image": "", "rank": 25, "time": 2, "location": {"lat": 38.686331107748025, "lng": 113.87626234527481}, "feature": {"sight_features": "", "sight_content": ""}}, {"title": "基督教福音堂", "address": "福建省漳州市漳浦县麦市街", "image": "", "rank": 26, "time": 2, "location": {"lat": 24.12269785895157, "lng": 117.63273244592438}, "feature": {"sight_features": "", "sight_content": ""}}, {"title": "赵家堡与诒安堡", "address": "福建省漳浦县湖西乡 363205", "image": "", "rank": 27, "time": 2.0, "location": {"lat": 24.182620474212666, "lng": 117.83221042521787}, "feature": {"sight_features": "", "sight_content": ""}}, {"title": "魏氏家庙", "address": "福建省漳州市漳浦县深土镇深土村北门", "image": "", "rank": 28, "time": 2, "location": {"lat": 24.03378195709854, "lng": 117.83131886418596}, "feature": {"sight_features": "", "sight_content": ""}}, {"title": "儿童乐园", "address": "福建省漳州市漳浦县绥安镇新都城市广场附近", "image": "", "rank": 29, "time": 2, "location": {"lat": 24.125077515632945, "lng": 117.618070960955}, "feature": {"sight_features": "", "sight_content": ""}}, {"title": "西湖宫", "address": "福建省漳州市漳浦县中华路", "image": "", "rank": 30, "time": 2, "location": {"lat": 24.124499173673655, "lng": 117.60894607868939}, "feature": {"sight_features": "", "sight_content": ""}}, {"title": "桥头公园", "address": "府前街南50米", "image": "", "rank": 31, "time": 2, "location": {"lat": 40.21732144300696, "lng": 116.66222689966413}, "feature": {"sight_features": "", "sight_content": ""}}, {"title": "琦奇儿童乐园", "address": "漳州漳浦县许官巷4号万新广场2层", "image": "", "rank": 32, "time": 2, "location": {"lat": 24.12513337001751, "lng": 117.62536921891585}, "feature": {"sight_features": "", "sight_content": ""}}, {"title": "漳浦县杜浔龙狮岩", "address": "福建省漳州市漳浦县G15(沈海高速)", "image": "", "rank": 33, "time": 2, "location": {"lat": 24.123461614811962, "lng": 117.62044335256876}, "feature": {"sight_features": "", "sight_content": ""}}, {"title": "鳌武庙", "address": "漳州市漳浦县六鳌古城内", "image": "", "rank": 34, "time": 2, "location": {"lat": 24.123461614811962, "lng": 117.62044335256876}, "feature": {"sight_features": "", "sight_content": ""}}, {"title": "胡氏家庙世经堂", "address": "绥安镇鹿溪村", "image": "", "rank": 35, "time": 2, "location": {"lat": 24.099553420056953, "lng": 117.63825744072437}, "feature": {"sight_features": "", "sight_content": ""}}, {"title": "童乐宝儿童乐园", "address": "绥安镇朝阳路131号朝阳饭店对面100米", "image": "", "rank": 36, "time": 2, "location": {"lat": 24.125508372311405, "lng": 117.62782437860267}, "feature": {"sight_features": "", "sight_content": ""}}, {"title": "扬基植物园", "address": "寨窑村", "image": "", "rank": 37, "time": 2, "location": {"lat": 24.160565403672656, "lng": 117.59602718244264}, "feature": {"sight_features": "", "sight_content": ""}}, {"title": "观音亭", "address": "324国道南100米", "image": "", "rank": 38, "time": 1.0, "location": {"lat": 23.153903654296187, "lng": 114.20469410313481}, "feature": {"sight_features": "", "sight_content": ""}}, {"title": "涂氏宗祠", "address": "福建省漳浦县盘陀镇山边村", "image": "", "rank": 39, "time": 2, "location": {"lat": 24.059811798100114, "lng": 117.51123223931418}, "feature": {"sight_features": "", "sight_content": ""}}, {"title": "长桥基督教堂", "address": "长桥镇政府南50米", "image": "", "rank": 40, "time": null, "location": {"lat": 24.244926638837924, "lng": 117.66480208826414}, "feature": {"sight_features": "", "sight_content": ""}}, {"title": "漳州高速交通安全主题公园", "address": "福建省漳州市天福服务区", "image": "", "rank": 41, "time": null, "location": {"lat": 24.12131835035372, "lng": 117.75114262980166}, "feature": {"sight_features": "", "sight_content": ""}}, {"title": "法泉寺", "address": "福建省漳州市漳浦县S201", "image": "", "rank": 42, "time": 1.5, "location": {"lat": 24.123461614811962, "lng": 117.62044335256876}, "feature": {"sight_features": "", "sight_content": ""}}, {"title": "真耶稣教会", "address": "福建省漳州市漳浦县程长线", "image": "", "rank": 43, "time": 2, "location": {"lat": 24.244464830989525, "lng": 117.58534862240819}, "feature": {"sight_features": "", "sight_content": ""}}, {"title": "铁炉元帅公庙", "address": "龙湖大道西150米", "image": "", "rank": 44, "time": null, "location": {"lat": 30.567812610818194, "lng": 104.20420657708777}, "feature": {"sight_features": "", "sight_content": ""}}, {"title": "漳浦县白鹭森林公园", "address": "福建省漳浦县赤土乡东部", "image": "", "rank": 45, "time": 2, "location": {"lat": 24.16196588849666, "lng": 117.75674505584169}, "feature": {"sight_features": "", "sight_content": ""}}, {"title": "欧阳宗祠(漳浦)", "address": "黄路坂", "image": "", "rank": 46, "time": 2, "location": {"lat": 23.97104097194824, "lng": 117.61049089197948}, "feature": {"sight_features": "", "sight_content": ""}}, {"title": "黄金沙滩", "address": "漳州市漳浦县六鳌抽象画廊景区内", "image": "", "rank": 47, "time": 0.75, "location": {"lat": 24.123461614811962, "lng": 117.62044335256876}, "feature": {"sight_features": "", "sight_content": ""}}, {"title": "翁氏大宗祠", "address": "官浔镇溪坂村", "image": "", "rank": 48, "time": 2, "location": {"lat": 24.32781563434818, "lng": 117.70246964625193}, "feature": {"sight_features": "", "sight_content": ""}}, {"title": "珍珠湾度假村", "address": "福建省漳州市漳浦县六鳌镇后江村", "image": "", "rank": 49, "time": 2, "location": {"lat": 23.92562850200956, "lng": 117.77760097713112}, "feature": {"sight_features": "", "sight_content": ""}}, {"title": "真耶稣教会", "address": "福建省漳州市漳浦县G324(福昆线)", "image": "", "rank": 50, "time": null, "location": {"lat": 24.123461614811962, "lng": 117.62044335256876}, "feature": {"sight_features": "", "sight_content": ""}}, {"title": "假日新天地", "address": "绥安镇交警大队隔壁", "image": "", "rank": 51, "time": 2, "location": {"lat": 24.126104197922782, "lng": 117.6318827603021}, "feature": {"sight_features": "", "sight_content": ""}}, {"title": "台湾丰山生态园", "address": "长桥镇海峡花卉集散中心", "image": "", "rank": 52, "time": 2, "location": {"lat": 24.283972865569837, "lng": 117.6937683743223}, "feature": {"sight_features": "", "sight_content": ""}}, {"title": "漳州市古雷港高真寺", "address": "福建省漳州市漳浦县X511", "image": "", "rank": 53, "time": 4.0, "location": {"lat": 24.123461614811962, "lng": 117.62044335256876}, "feature": {"sight_features": "", "sight_content": ""}}, {"title": "正阳宫", "address": "二零一省道", "image": "", "rank": 54, "time": 2, "location": {"lat": 29.260670158858183, "lng": 119.27289340543204}, "feature": {"sight_features": "", "sight_content": ""}}, {"title": "艾德湾亲子探索乐园", "address": "漳州市漳浦县绥安镇万新商业广场2层东侧", "image": "", "rank": 55, "time": 2, "location": {"lat": 24.121234267104647, "lng": 117.6191952154529}, "feature": {"sight_features": "", "sight_content": "艾德湾亲子探索乐园里有融合科技力量与探索精神的儿童互动成长空间，玩出新奇童年。乐园内有酷跳大蹦床、勇敢者之墙、弹性立体迷宫、AR奇幻空间等。"}}, {"title": "白天鹅温泉", "address": "324国道", "image": "", "rank": 56, "time": 2, "location": {"lat": 23.154734358898722, "lng": 114.20469410313481}, "feature": {"sight_features": "", "sight_content": ""}}, {"title": "得您画廊", "address": "青年路55号", "image": "", "rank": 57, "time": 2, "location": {"lat": 39.94014771051902, "lng": 116.52327521575278}, "feature": {"sight_features": "", "sight_content": ""}}, {"title": "黄道周纪念馆", "address": "东郊石斋村", "image": "", "rank": 58, "time": 2, "location": {"lat": 24.123474682678946, "lng": 117.63348604250119}, "feature": {"sight_features": "", "sight_content": ""}}, {"title": "革命历史纪念馆", "address": "龙泉路", "image": "", "rank": 59, "time": 2, "location": {"lat": 37.69756886512517, "lng": 114.99052607114223}, "feature": {"sight_features": "", "sight_content": ""}}, {"title": "漳浦科技馆", "address": "金浦路", "image": "", "rank": 60, "time": 2.5, "location": {"lat": 31.292094464949184, "lng": 120.75754634450877}, "feature": {"sight_features": "", "sight_content": ""}}]}