{"cityName": "彰武", "days": 2, "cityImage": "", "spots": [{"title": "千佛山风景区", "address": "辽宁省阜新市彰武县大四家子镇", "image": "", "rank": 1, "time": 3.5, "location": {"lat": 42.573155007635094, "lng": 122.90536602637785}, "feature": {"sight_features": "", "sight_content": ""}}, {"title": "圣经寺", "address": "阜新市彰武县", "image": "", "rank": 2, "time": 1.0, "location": {"lat": 42.392706534363775, "lng": 122.54544932020693}, "feature": {"sight_features": "", "sight_content": ""}}, {"title": "辽宁绿维农业有机庄园", "address": "大冷镇蛤蟆屯", "image": "", "rank": 3, "time": 2, "location": {"lat": 42.621561450862345, "lng": 122.33727252667894}, "feature": {"sight_features": "", "sight_content": ""}}, {"title": "榆公汤泉", "address": "凯旋城西200米", "image": "", "rank": 4, "time": 2, "location": {"lat": 29.61148603798567, "lng": 115.91177707141797}, "feature": {"sight_features": "", "sight_content": ""}}, {"title": "彰武体育休闲广场", "address": "建华路98号", "image": "", "rank": 5, "time": 2, "location": {"lat": 42.39901263670764, "lng": 122.55339617990096}, "feature": {"sight_features": "", "sight_content": ""}}, {"title": "金刚绵府", "address": "辽宁省阜新市彰武县老城街62号", "image": "", "rank": 6, "time": 2, "location": {"lat": 42.38800252273135, "lng": 122.54418600711739}, "feature": {"sight_features": "", "sight_content": ""}}, {"title": "啤酒广场", "address": "文化路19附近", "image": "", "rank": 7, "time": 2, "location": {"lat": 39.835553824700085, "lng": 118.13727595450348}, "feature": {"sight_features": "", "sight_content": ""}}, {"title": "龙华寺", "address": "辽宁省阜新市彰武县板清线", "image": "", "rank": 8, "time": 2.0, "location": {"lat": 42.66653461515775, "lng": 122.2352293038661}, "feature": {"sight_features": "", "sight_content": ""}}, {"title": "彰武大觉寺", "address": "阜新市彰武县哈尔套黑龙山村", "image": "", "rank": 9, "time": 1.5, "location": {"lat": 42.392706534363775, "lng": 122.54544932020693}, "feature": {"sight_features": "", "sight_content": ""}}, {"title": "文化广场", "address": "辽宁省阜新市彰武县", "image": "", "rank": 10, "time": 1.5, "location": {"lat": 42.392706534363775, "lng": 122.54544932020693}, "feature": {"sight_features": "", "sight_content": ""}}, {"title": "天歌广场", "address": "彰武镇人民大街53-3号", "image": "", "rank": 11, "time": null, "location": {"lat": 42.39386326942967, "lng": 122.54974487971491}, "feature": {"sight_features": "", "sight_content": ""}}, {"title": "四海休闲广场", "address": "阜新市彰武县", "image": "", "rank": 12, "time": 2, "location": {"lat": 42.392706534363775, "lng": 122.54544932020693}, "feature": {"sight_features": "", "sight_content": ""}}, {"title": "皇冠度假村", "address": "大清沟鱼羊府附近", "image": "", "rank": 13, "time": 2, "location": {"lat": 42.69110896998512, "lng": 122.22878719573185}, "feature": {"sight_features": "", "sight_content": ""}}, {"title": "高山台公园", "address": "柳河大桥西", "image": "", "rank": 14, "time": 2, "location": {"lat": 40.640983987896036, "lng": 118.14408723655824}, "feature": {"sight_features": "", "sight_content": ""}}, {"title": "阿尔乡文化广场", "address": "304国道东50米", "image": "", "rank": 15, "time": 2, "location": {"lat": 43.502248226779166, "lng": 122.23626711622178}, "feature": {"sight_features": "", "sight_content": ""}}, {"title": "大千画廊", "address": "老城街73-13号附近", "image": "", "rank": 16, "time": 2, "location": {"lat": 42.38874344637733, "lng": 122.54008145880154}, "feature": {"sight_features": "", "sight_content": ""}}, {"title": "彰武二人转大剧院", "address": "文化路17号附近", "image": "", "rank": 17, "time": 2, "location": {"lat": 39.73851253186168, "lng": 116.15142060786302}, "feature": {"sight_features": "", "sight_content": ""}}, {"title": "意归园", "address": "大冷镇中窑村盘山楼水库", "image": "", "rank": 18, "time": 2, "location": {"lat": 42.64674558008967, "lng": 122.36294283550848}, "feature": {"sight_features": "", "sight_content": ""}}, {"title": "高山台生态采摘园", "address": "034县道与211省道交叉口西150米", "image": "", "rank": 19, "time": 2, "location": {"lat": 44.15223194167098, "lng": 126.64303478022592}, "feature": {"sight_features": "", "sight_content": ""}}, {"title": "白音花村", "address": "阜新市-彰武县", "image": "", "rank": 20, "time": 2, "location": {"lat": 42.392706534363775, "lng": 122.54544932020693}, "feature": {"sight_features": "", "sight_content": ""}}]}