{"cityName": "张家川", "days": 2, "cityImage": "", "spots": [{"title": "三国古战场遗址街亭", "address": "天水市秦安县陇城镇", "image": "", "rank": 1, "time": 0.5, "location": {"lat": 34.99373053207718, "lng": 106.004224622809}, "feature": {"sight_features": "", "sight_content": ""}}, {"title": "天水街亭温泉", "address": "甘肃省张家川回族自治县街亭古镇1号 741020", "image": "", "rank": 2, "time": 2.5, "location": {"lat": 34.99490501301995, "lng": 106.21139036270586}, "feature": {"sight_features": "", "sight_content": ""}}, {"title": "天水五龙山", "address": "甘肃省张家川回族自治县马鹿乡 741500", "image": "", "rank": 3, "time": 2.5, "location": {"lat": 34.91808365960887, "lng": 106.46378780352259}, "feature": {"sight_features": "", "sight_content": ""}}, {"title": "关山云凤风景名胜区太极八卦事景...", "address": "天水市张家川回族自治县", "image": "", "rank": 4, "time": 2, "location": {"lat": 34.99490501301995, "lng": 106.21139036270586}, "feature": {"sight_features": "", "sight_content": ""}}, {"title": "西桥头清真寺", "address": "甘肃省天水市张家川回族自治县张家川镇解放西路交通大厦", "image": "", "rank": 5, "time": 2, "location": {"lat": 34.998313958189215, "lng": 106.21335073571859}, "feature": {"sight_features": "", "sight_content": ""}}, {"title": "马家塬遗址公园", "address": "张家川回族自治县木河乡桃园村", "image": "", "rank": 6, "time": 2, "location": {"lat": 35.05048625109865, "lng": 106.17500274722678}, "feature": {"sight_features": "", "sight_content": ""}}, {"title": "张家川回族自治县博物馆", "address": "滨河西路6号", "image": "", "rank": 7, "time": 2, "location": {"lat": 32.98541985177753, "lng": 112.53180226477798}, "feature": {"sight_features": "", "sight_content": ""}}, {"title": "凰翔剧场", "address": "305省道附近", "image": "", "rank": 8, "time": 2, "location": {"lat": 38.97180225572126, "lng": 112.6319987223776}, "feature": {"sight_features": "", "sight_content": ""}}, {"title": "星月步行街", "address": "甘肃省张家川回族自治县星月步行街", "image": "", "rank": 9, "time": 2, "location": {"lat": 34.99997922384665, "lng": 106.21884400236979}, "feature": {"sight_features": "", "sight_content": ""}}]}