{"cityName": "漳州", "days": "", "cityImage": "", "spots": [{"title": "云水谣古镇", "address": "漳州市南靖县书洋镇云水谣古镇", "image": "", "rank": 1, "time": 2.5, "location": {"lat": 24.670027991943606, "lng": 117.10233196148076}, "feature": {"sight_features": "特色1 观客家土楼建筑，享受美妙闲暇时光。", "sight_content": "云水谣古镇是个历史悠久的古老村落，村中幽长古道、百年老榕、神奇土楼，还有那灵山碧水，无不给人以超然的感觉。南靖县长教风景区拥有世界文化遗产和贵楼、怀远楼、千年古榕树群、一条百年老街、千年古道。溪岸边由13棵百年、千年老榕组成榕树群蔚为壮观，其中一棵老榕树树冠覆盖面积1933平方米，树丫长达30多米，树干底端要10多个大人才能合抱，是一棵目前我省已发现的巨大榕树。村中最引人注目的是山脚下、溪岸旁、田野上星罗棋布的一座座土楼。\n这些从元朝中期就开始建造的土楼，目前保存完好的就有53座。这些土楼姿态万千，除了有建在沼泽地上堪称“天下奇景”的和贵楼，及工艺最精美、保护最完好的双环圆土楼――怀远楼外，还有吊脚楼、竹竿楼、府第式土楼等，土楼风景别具一格。云水谣古镇独有的自然景观和独特的人文资源，吸引了一批又一批电影导演、制作人到此取景拍片。1997年至今，已有《寻找远方的家》、《沧海百年》等8部电影、电视剧、MTV在这里拍摄取景。2005年底，由十届全国政协副主席、台盟中央名誉主席张克辉以自己和几位台胞的生活阅历为原型创作的电影文学剧本《寻找》改编的电影《云水谣》也曾在此拍摄。\n和贵楼：运用县浮原理，以松木为介质，采用桩基、筏基综合运用技术，在3000平方米的沼泽地上建起的方形土楼，整座土楼宛若陆上的“诺亚方舟”。土楼墙体高厚比在二百多年前就达到13：1，具有突出的建筑成就和极高的建筑技术研究价值。怀远楼：充分利用大型河卵石和夯土墙两种材料的不同特性，采用成熟的“倾壁造”技术营建的鼓形土楼，是中原版筑技术经过几千年积累提高的结晶，是夯土文明最高成就的代表。楼内楹联诗对、雕梁画栋诠释了“忠孝为本、耕读传家”的思想；是闽南建筑风格与中国儒家文化完美结合的杰出典范；是中国近代重要历史事件的实物见证。\n‍"}}, {"title": "田螺坑土楼群", "address": "漳州市南靖县书洋镇", "image": "", "rank": 2, "time": 1.5, "location": {"lat": 24.613000185300155, "lng": 117.10084313148835}, "feature": {"sight_features": "特色1 特有的山区建筑模式", "sight_content": "“不到田螺坑，不算真正看土楼。”四菜一汤原名田螺坑土楼群，是福建土楼标志性建筑，是福建土楼的名片。联合国科教文组织顾问史蒂汶斯·安德列称田螺坑土楼群是“世界上特有的神话般的山区建筑模式”。 四座圆楼簇拥着一座方楼，像是一朵怒放的梅花，美妙绝伦，璀璨夺目，又像是一支气势磅礴的五重奏交响曲，在青山秀水间激越地奏响。公路随着山势蜿蜒而下。随着观看角度的变化，田螺坑景观魔术般地不断变幻，圆楼时而在前时而退后，方楼时而隐蔽时而暴露。\n来到坡底公路上，抬头往上一看，田螺坑土楼群犹如布达拉宫横空出世，巍峨耸立，庄严肃穆，在阳光下一派金碧辉煌。这四座圆楼的建造者以顺地势增减一层屋柱高度的方法，成功地在第二层取得了平面，大大方便了居住。2003年11月被公布为中国首批历史文化名村。2008年被列入世界文化遗产名录。 2011年被评为国家5A级景区。\n裕昌楼建于1308年，是福建土楼现存最古老的土楼。裕昌楼是早期股份制的产物，由刘、罗、张、唐、范五姓族人共同出资建造，共有五层18.2米，房室270间。全楼有五部楼梯，分为五大卦，底层厨房内设有水井，共22口，是福建土楼中水井最多的土楼。楼内天井中心建有单层的圆形祖堂，堂前用卵石铺成的一个阴阳八卦，分五格，代表“金、木、水、火、土”。裕昌楼的特点是柱子东倒西歪，倾斜度为15度，看起来摇摇欲坠，但经受七百年风雨侵蚀和无数次地震的考验，至今依然如故，有惊无险，成为古民居建筑的活标本。\n\n塔下村，历史悠久，风光秀丽，文化底蕴丰厚，是首批“中国景观村落”、“省级历史文化名村”。素有“灵秀水乡，梦幻家园”的美名。古村落地形为“一水依两岸”的狭长地带，一条长约1公里的蜿蜒山溪从峡谷中穿过，水色清明澄碧，溪流上有11座风格各异的石拱桥，沿溪两岸有42座土楼，一座座土楼在青山秀水环抱下，远远望去，俨然一幅幅超凡脱俗的明清山水画，因此，塔下也获得了“闽南周庄”的美誉。塔下村张氏家庙德远堂，全国重点文物保护单位。是目前中国可见到的、最完整的古代姓氏祠堂建筑之一，堂前立着24支石龙旗杆。"}}, {"title": "东山岛", "address": "漳州市东山县东山岛", "image": "", "rank": 3, "time": 1.5, "location": {"lat": 23.620224046661793, "lng": 117.40753956143277}, "feature": {"sight_features": "特色1 享受海边的乐趣。 特色2 比鼓浪屿更清澈的海湾，在这里你可以看潮汐、日出，出海捕鱼，尽情享受海边乐趣。", "sight_content": "东山县简称陵岛，岛形似蝴蝶。岛上乌礁湾、东沈湾、马銮湾三湾相连，各具特色。乌礁湾的沙滩很宽，沙子细软。海风拂过脸颊，一层层薄沙打着转儿轻轻飘起，海水冲上沙滩，发出“哗哗”的声响；乌礁湾是当地特别保护渔湾，以自然美景著称；马銮湾则以海滨浴场闻名，并有海上运动俱乐部，在享受阳光、海水沙滩之际，还能领略帆板、冲浪运动的刺激。"}}, {"title": "云水谣景区", "address": "漳州市梅林镇璞山村", "image": "", "rank": 4, "time": 4.0, "location": {"lat": 24.66503403936622, "lng": 117.10277714372525}, "feature": {"sight_features": "", "sight_content": ""}}, {"title": "马銮湾", "address": "漳州市东山县康美镇西南", "image": "", "rank": 5, "time": 2, "location": {"lat": 23.74020665127779, "lng": 117.4927829781971}, "feature": {"sight_features": "特色1 东山岛的热门海滩，水上娱乐项目众多，很适合亲子出行。", "sight_content": "马銮湾位于东山岛马銮村东面海滨，是一个天然秀丽的大海湾。它的海湾长2500米，呈现月牙形，北角有妈祖山，东南角有赤屿、头屿、二屿、三屿等。由于马銮湾的海水很温顺，它并没有暗礁、且污染和风浪都较小，而且沙滩细软、洁白，有圈起来的海滨浴场，非常适合游泳玩耍。"}}, {"title": "云洞岩", "address": "漳州市龙文区蓝田镇蔡坂村(G324)", "image": "", "rank": 6, "time": 2.0, "location": {"lat": 24.516240926390374, "lng": 117.7669676997791}, "feature": {"sight_features": "", "sight_content": ""}}, {"title": "漳州土楼", "address": "漳州市南靖县书洋上坂村田寮坑", "image": "", "rank": 7, "time": 3.0, "location": {"lat": 24.55231226224456, "lng": 117.6166505962153}, "feature": {"sight_features": "", "sight_content": ""}}, {"title": "火山岛旅游休闲度假区", "address": "漳州市漳浦县前亭镇火山岛度假村(滨海火山国家地质公园)", "image": "", "rank": 8, "time": 2.5, "location": {"lat": 24.213247429137652, "lng": 118.02991206375582}, "feature": {"sight_features": "特色1 欣赏滨海火山地质地貌", "sight_content": "火山岛离厦门只有一个小时的车程，可以说是触手可及的世界奇观。看点主要有三个（香山半岛、林进屿、南碇岛），是中国特有的滨海火山地质地貌风景。它位于台湾海峡西岸、福建省漳州市漳浦县前亭镇海滨一带，海陆域规划面积约100平方公里。\n\n\n火山岛遗迹以第三纪中心式火山喷发构造形迹和后期风化侵蚀而成的地貌景观，有玄武岩石柱、古火山口、火山喷气口和玄武岩的西瓜皮构造。整个火山岛景区有着典型的沙滩美景，碧海蓝天、水清沙幼，椰林阵阵，适合休闲观光，度假小憩；还有独具特色的火山地质构造，尤其是南碇岛上的石柱瀑布群，是探奇驴友和摄影者的新大陆。\n火山岛是国内特有的滨海火山地质公园，核心景区包括香山半岛、林进屿和南碇岛，覆盖海陆面积100平方公里。现在的景区设施已经完善，有观光车、高规格酒店、生态木屋别墅群、渔夫厝、草坪餐吧和房车营地，游艇也即将被引进。若是想体验出海打渔的渔夫原生态生活，还可以参加“渔夫乐“活动，与朋友和船长出海捕鱼，即烹海鲜，逍遥无边。"}}, {"title": "灵通山", "address": "漳州市平和县", "image": "", "rank": 9, "time": 2.5, "location": {"lat": 24.368365040125912, "lng": 117.32255159131472}, "feature": {"sight_features": "", "sight_content": ""}}, {"title": "十里蓝山", "address": "漳州市长泰县马洋溪生态旅游区山重村境内", "image": "", "rank": 10, "time": 2.5, "location": {"lat": 24.62566816328589, "lng": 117.88917836723385}, "feature": {"sight_features": "特色1 畅游花海，欣赏四季花色，来一次放松身心的田园之旅吧。 特色2 田园生态美的视觉享受和清新鲜活的身心愉悦。 特色3 一望无际、色彩斑斓的视觉盛宴。", "sight_content": "玛琪雅朵花海坐落在山重村仙灵旗山之上，旅游项目位于福建省漳州市长泰马洋溪生态旅游区山重村，距长泰县城25公里，距漳州市区40公里，距厦门杏林大桥20公里，位于闽南黄金旅游圈和厦门城市郊野休闲旅游圈之内十里蓝山玛琪雅朵花海景致壮美，在这里，300亩的山地顺着起伏的山势，种植的各色草花、油菜花、三角梅、紫薇等花卉竞相开放，形成一望无际的色彩斑斓的风景线。\n\n玛琪雅朵花海以其富有浓郁欧洲风情的特有景观，为旅游文化重镇古山重注入了更为鲜活和丰富的文化内涵，当人们畅游花海俯身亲吻花香时, 得到的是田园生态美的视觉享受和清新鲜活的身心愉悦。\n玛琪雅朵”是意大利最美丽、最高贵的一种鲜花名称，后为意大利一个民族部落信仰，成为美和纯朴生活的象征。如今，玛琪雅朵花海这一富有浓郁欧洲风情的特有景观，为旅游文化重镇古山重注入了更为鲜活和丰富的文化内涵，项目计划总投资10亿元人民币，拟开发和建设酒店、会所、花海、景观特色园区、寻梦谷瀑布群等。\n\n寻梦谷被誉为“闽南第一瀑布群”，位于漳州马洋溪生态旅游区、国家森林公园天柱山东麓，是闽南黄金旅游圈和厦门城市郊野休闲旅游带的一颗绿色明珠，景区距长泰县城仅30公里、距厦门集美区灌口镇国道仅18公里。"}}, {"title": "金汤湾海水温泉度假村", "address": "漳州市云霄县陈岱镇岱南村海水温泉度假地1号（与东山岛交界处的八尺门大桥旁", "image": "", "rank": 11, "time": 2, "location": {"lat": 23.785092672646424, "lng": 117.41987365091137}, "feature": {"sight_features": "特色1 古罗马式建筑风格的温泉度假村。 特色2 环境清幽，实力演绎着海与泉的神奇。", "sight_content": "金汤湾海水温泉补水系统丰富，日出水量2000吨以上，出水温度高达65度。该温泉不仅矿化度高（每公升矿物质含量高达21克），更因含有珍稀的医疗级氡气放射能，被海内外温泉专家誉为“温泉贵族”。北纬23°，穿过神秘的巴哈马、华丽的迪拜、隽美的突尼斯以及风情万种的夏威夷……完美的黄金回归线，拥享适宜人类居住的资源与温度。金汤湾，倾卧23°的优雅，在这条绵延古老的地脉之上，演绎着海与泉的神奇。\n金汤湾海水温泉富含多种有益人体的矿物质及微量元素，并含有氡气放射能。其中锂、锶、氟、铁、氡、偏硅酸、偏硼酸、偏砷酸均达到医疗价值浓度。锶、氟、偏硅酸、偏砷酸的含量更是达到矿泉命名浓度，是世界罕见且独特的高品质复合型医疗级温泉。经专家研究，浸泡金汤湾海水温泉可舒缓神经、减轻疲劳、促进新陈代谢并对于软化皮肤角质、增强皮肤弹性等皮肤保养方面功效显著。如结合各项疗法，对于骨骼关节、心肺血管、消化系统等方面的疾病有显著疗效。"}}, {"title": "平和县三平风景区", "address": "漳州市平和县三平风景区", "image": "", "rank": 12, "time": 3.0, "location": {"lat": 24.355431136491976, "lng": 117.49687672887939}, "feature": {"sight_features": "", "sight_content": ""}}, {"title": "和贵楼", "address": "漳州市南靖县梅林镇璞山村", "image": "", "rank": 13, "time": 1.5, "location": {"lat": 24.66503403936622, "lng": 117.10277714372525}, "feature": {"sight_features": "", "sight_content": ""}}, {"title": "怀远楼", "address": "漳州市南靖县书洋镇", "image": "", "rank": 14, "time": 1.5, "location": {"lat": 24.613000185300155, "lng": 117.10084313148835}, "feature": {"sight_features": "", "sight_content": ""}}, {"title": "东山岛风动石", "address": "漳州市东山岛东北部铜陵镇", "image": "", "rank": 15, "time": 3.5, "location": {"lat": 23.73331702566947, "lng": 117.52545268232919}, "feature": {"sight_features": "特色1 被古代文人誉为'天下第一奇石' 特色2 东山岛的标志性景观。", "sight_content": "东山风动石座落在东山古城东门海滨石崖上的素的东山风动石，一直是岛上人民最引以为荣、视如珍宝的自然奇观，是旅游者喜爱的美景之一。东山风动石以奇、险、悬而居全国60多块风动石之最，被古代文人誉为“天下第一奇石”，现在它已经是东山岛的标志性景观。人们常说，到了闽南，不到东山，是一件憾事；而到了东山，不到东山风动石，则更是一大憾事。的确如此。这风动巨石耸立在陡崖上，高4.37米，宽44.47米，长4.46米，重约200顿，上尖底圆，状似仙桃，巍然“搁”在一块卧地凸起且向海倾 斜的磐石上，两石的接触面仅为十余平方厘米。狂风吹来时，巨石轻轻摇晃不定，人若仰卧盘石上，跷起双足蹬推，巨石也摇晃起来，但又不会倒下。人们站在东山风动石下面，有一种惊险的感觉，叹为天下奇观，故名“风动石”，诗曰：“风吹一石万钧动”。东山风动石上有明永历戊子(1648年)秋巡抚路振飞题刻的“铜山三忠臣：黄道周、陈瑸、陈士奇”。盘石右侧有明代霞山居士题写的“东壁星晖”四个大字，左边竖起石碑由明水师提督程朝京题诗。\n\n东山风动石还有一段美丽的传说，明朝嘉靖年间，海上倭寇侵扰东山岛，企图抢走这奇异的风动石，用了数艘兵舰，套上绳索，拼命拉它，可是倭寇费尽了力气，只听到“嘣”了几声，绳索全断了，倭寇纷纷掉落海里，十分狼狈，东山风动石却依然屹立在原地。关于东山风动石，历代名人吟唱甚多，如明代文三俊诗曰：“是石是星丽太空，非风摇石石摇风。云根直缔槐杓上，月馆堪梯小八鸿”。是故，游人一见此石，总叹为观止，心领神会其美之时，留一影以为快。风动石与周围景色交相辉映形成。难怪，文人墨客会在此留下：“这里风景独好”的赞叹。"}}, {"title": "塔下村", "address": "漳州市南靖县书洋镇西部", "image": "", "rank": 16, "time": 1.5, "location": {"lat": 24.613000185300155, "lng": 117.10084313148835}, "feature": {"sight_features": "", "sight_content": ""}}, {"title": "裕昌楼", "address": "漳州市南靖县书洋镇下版村上节106", "image": "", "rank": 17, "time": 1.5, "location": {"lat": 24.598623680390965, "lng": 117.0537206376212}, "feature": {"sight_features": "", "sight_content": ""}}, {"title": "东门屿", "address": "漳州市东山县铜陵镇环城路", "image": "", "rank": 18, "time": 3.5, "location": {"lat": 23.734910655624148, "lng": 117.5184458077265}, "feature": {"sight_features": "特色1 海岸独特，奇石众多 特色2 滨海度假首选之地。", "sight_content": "东门屿的主峰如同一个巨大的盆景。岩石叠起的山峰，怪石嶙峋，高耸于东山港出洋之要冲，一片坦荡的水，一座突兀的峰，相映成趣。沿着树木掩映的石径小道拾级而上，登上塔屿海拔91米的主峰，就可以见到文峰塔。塔为八角形密檐式实心建筑，共七层，由花岗岩砌成，是明嘉靖5年（526年）由福建巡海道蔡潮所建。东门屿不大，也不高，面积只有1平方公里，山峰海拔也只有91米。屿上因海岸独特，奇石众多，再加上优美的自然风光，吸引了一批又一批影视工作者，至今已有20多部的电影、电视剧在这里拍摄。 我国首部科幻影片《珊瑚岛上的死光》中的“马太博士岛”就是东门屿。《西游记》《海之恋》《八仙过海》等电影、电视剧，也都是将东门屿作为外景的拍摄基地。东门屿如此吸引电视、电影艺术家的，是她的自然景观，是神韵天成，不需任何雕饰的天然美景。东门屿因此也被称为“天然影棚”。 东门屿整岛呈“工”字型，分为南段、中段、北段三个部分。 东门屿南段由几座小山丘组成，是屿上景观最丰富、最集中的地段。以天然的礁石形成的、形态各异的奇石怪洞景观，散布其间，移步换景，满眼皆美；有众多的人文景观，点缀其中，内涵丰富。屿上的绿化率极高，树木青翠，海风吹来，带着淡淡的泥土气息，沁人心脾。自然景观主要有鹰嘴岩、渔翁垂钓、神龟迎客、壁虎戏象、蛤蟆望天、鸳鸯耍猴等。\n人文景观主要有东明寺、文峰塔、云山石室、文昌阁、种德居等。 东门屿中段是连接南段和北段的纽带，主要是一段长约200米的条形沙滩，中间一条防风林带将沙滩分为东西两部分，东边的沙滩叫“北澳尾”，西边的沙滩称 “大澳底”，东西两个沙滩都是游泳戏浪的好去处。米黄色的沙滩，略显弧形，拱着一湾洁净的海水，恰成一巨大的“x”形。 刮风时，别处是海浪汹涌，而这里只是微波细浪；微风之时，别处是细浪逶迤，而这里的水面却是波平如镜，是良好的天然海滨浴场。中间的防风林带已开辟成林场，引种了大量的果树，如柑桔等；栽培了各种的花卉，如三角梅，夹竹桃等。玩海之余，可以品尝水果，欣赏花卉，也是一种不错的享受。 东门屿的北段称“佛澳”，沿海滨的四周是礁石和小沙滩，中间有几座小山丘，山上植被绿化，以防风防沙和抗碱树种为主，如木麻黄、相思树等。在该段南海滨，有一座始建于明代的东明寺，原来只是一座小庙，近年来海内外信众募集巨资进行扩建，建成了万佛宝殿、天王殿、卧佛坛等庙宇，共计六千多平方米，形成了一个颇具规模的佛教寺庙群。 寺的南面有小沙滩、礁石、洞穴，并有众多的石刻碑刻点缀其中。周围自然景色秀美，山林郁郁葱葱，幽静宜人。"}}, {"title": "漳州东南花都", "address": "漳州市漳浦县马口镇（324国道旁）", "image": "", "rank": 19, "time": 2.5, "location": {"lat": 24.20287375459583, "lng": 117.59624542756282}, "feature": {"sight_features": "", "sight_content": ""}}, {"title": "长泰漂流", "address": "漳州市长泰县十里村1号", "image": "", "rank": 20, "time": 2.5, "location": {"lat": 24.593787791827594, "lng": 117.82029360583496}, "feature": {"sight_features": "特色1 水道长，落差大", "sight_content": "长泰漂流，全程8公里，落差62米，途经60多道弯，70余个跌水区，两岸奇石林立，山林错落，波浪翻涌的激流段占一半以上，一路惊天动地却有惊无险。国际划联委员会赞叹长泰漂流河道自然天成，不可多得。长泰漂流时而搏浪飞舟，时而波平浪静，远尘嚣而返璞，近山野而归真，体验一次，回味一生。\n长泰漂流与中国第一个国际皮划艇激流回旋赛场、中国皮划艇激流回旋运动基地同一河道，先后被省体育总局、省旅游局确定为福建省全民健身活动中心、福建省漂流旅游定点单位。\n溪流中千姿百态的奇石，两岸茂林修竹、参差错落，鸟鸣、山花又能带给您一种融入大自然的感受。专业水上安全员全程引导保护，可使全程漂流安全无虞。上流两座拦水坝的建成，使得航道冬季依然水流激荡，在中国率先实现了四季激流漂流。\n长泰漂流景区内更设有真人CS及野战CS项目，在这里，让我们寻找CS对抗带来的刺激与快乐；在这里，让我们体会团结一致带来的感动与荣耀。"}}, {"title": "翡翠湾旅游度假中心", "address": "漳州漳浦县六鳌镇鳌西村翡翠湾旅游度假中心", "image": "", "rank": 21, "time": 2, "location": {"lat": 23.94786505464594, "lng": 117.77443564046429}, "feature": {"sight_features": "特色1 素有东方的佛罗里达海岸之称 特色2 翡翠湾素有中国的佛罗里达海岸之称。 特色3 温柔六鳌海，天堂翡翠湾。", "sight_content": "翡翠湾素有东方的佛罗里达海岸之称，是中国大陆架中著名的优美海滩之一。享有“温柔六鳌海，天堂翡翠湾”的盛誉。\n景区的沙雕园，汇集经典之作，有人物，有卡通，无一不惟妙惟肖，栩栩如生，生动至极让人震撼。您可以寻个周末，找个假期，约三两好友，来景区放松身心、陶冶情操、领略沙雕文化的精彩，还可能随时与精彩邂逅，同经典逢缘。"}}, {"title": "天福茶博物院", "address": "漳州市漳浦县盘陀镇", "image": "", "rank": 22, "time": 1.5, "location": {"lat": 24.059811798100114, "lng": 117.51123223931418}, "feature": {"sight_features": "特色1 认识茶叶，了解茶艺", "sight_content": "天福茶博物院位于中国福建省漳州市漳浦县324国道旁，始建于2000年初，2002年建成开院。整个博物院总占地130亩，现为aaaa级旅游景区，农业部首批全国农业旅游示范点。\n院内有5幢主建物：1）主展馆：以生动的模型、灯箱及图片展示中国云南野生大茶树群落、中华茶文化、世界各国茶情及茶文化、民族饮茶风情、现代茶艺、茶与诗、茶与书画、茶与健康及茶业科技等；附设天福史馆展示天福集团的发展历程；2）茶道教室：一楼设有茶艺表演厅和溢香轩、品茗阁等环境优雅的品茗场所，兼作茶道教学；二楼为设施先进的国际会议厅；3）日本茶道馆(福慧庵)：日本式庭院及茶室，设有精亭(四叠半)、俭亭（八叠）、敬亭（立礼席）分别代表三个不同时代风格的日本茶室；4）韩国茶礼馆：按照韩国传统茶室的建筑风格，采用原杉木构构建而成；5）书画馆：一楼有典藏书画厅展示本馆收藏字画，活动展厅不定期举办个人或主题书画展；二楼设联谊厅不定期举办笔会及现场挥毫；附设奇石斋，展售各种奇石、雕刻等工艺品。\n院内还有汉亭、唐山、宋桥、元塘、明湖、清池、兰亭曲水、武人茶苑、茗风石刻等景观。环境幽雅自然，是一个聚学术研究、文化传承、教育娱乐为一体的综合景点，使参观者能在娱乐中获得茶学知识，认识茶叶，了解茶艺及传承茶文化。"}}, {"title": "河坑土楼群", "address": "漳州市南靖县书洋镇曲江圩河坑自然村。", "image": "", "rank": 23, "time": 1.5, "location": {"lat": 24.613000185300155, "lng": 117.10084313148835}, "feature": {"sight_features": "", "sight_content": ""}}, {"title": "龙佳生态温泉山庄", "address": "漳州市龙海市台商投资区角美镇龙佳山庄", "image": "", "rank": 24, "time": 2, "location": {"lat": 24.52535574314822, "lng": 117.90310944987468}, "feature": {"sight_features": "特色1 含多种对人体有益的微量元素 特色2 \"以生态农业、温泉养生为主题的旅游度假山庄 \"", "sight_content": "龙佳生态温泉山庄位于闽南金三角--漳（州）、厦（门）、泉（州）中心的龙海市角美区，距漳州市区25公里、厦门市区25公里、泉州市区90公里，建于一九九八年，占地1600亩，山庄规划为景观游览区、民俗文化区、素质拓展区、温泉别墅区、休闲度假区、野生动物区、立体农业区及龙佳生态科技研究开发中心和龙佳培训与管理中心。\n龙佳生态温泉山庄是一个以生态农业、温泉养生为主题，融知识性、趣味性、娱乐性等为一体的旅游度假山庄。龙佳温泉系漳州市以生态温泉为主题的特色景点，现已建成：室内温泉、露天温泉以及温泉泳池等等，内设小食坊、休闲健身区以及理疗保健区等等，是休闲、交友、健身、疗养商洽的好去处。\n龙泉阁是龙佳生态温泉山庄特色产品温泉的经营场所，主题建筑采用唐宫园林式风格，占地100多亩，由室内温泉、露天温泉以及温泉別墅区三个部分组成，配套有休息厅，贵宾房、小食坊、温泉客房、度假别墅、商场、会议室、大堂吧等。露天温泉共有50多个功能不同的特色泡池，分为花瓣区、酒泉区、中药区、养生区、水疗区 、石板理疗区、鱼疗区、水果区等。龙佳温泉属偏硅酸钠盐泉，水储量丰富，日出水量2000多立方，泉源出水温度75度，水质富含偏硅酸、钾、镁、铁、钠、铜、锂、氡等多种对人体有益的矿物质和微量元素，具有较高的医疗保健价值，对神经痛、风湿、关节炎、心脑血管等多种疾病具有特殊疗效，能起到舒经活血、强身健体、润肤养颜、安神定惊、抵抗衰老等保健作用。\n龙佳生态园占地1000亩，园内环境优美，空气清新，主要景点有云梯、石文化广场、龙腾汇（龙佳书画院）、度假木屋区、滑草场、大佛宫、龙宫、生日园、茗香小筑、妈祖庙、名人长廊等，生态色彩浓厚，是游客休闲品茗、商务会务、生态住宿、观光度假的理想场所。"}}, {"title": "“唐山过台湾”石雕园", "address": "漳州市漳浦县厦汕高速公路天福服务区（漳浦赤土）", "image": "", "rank": 25, "time": 2.5, "location": {"lat": 24.122126498012182, "lng": 117.7511460262948}, "feature": {"sight_features": "特色1 精美的石头会唱歌，会述说历史", "sight_content": "天福石雕园是厦汕（漳诏）高速天福服务区的核心部分，厦汕高速漳浦天福服务区占地近2000亩，包含有服务区、石雕园、观光茶园、“皮定钧将军”纪念园等四大部分，由天福集团总裁李瑞河投资创办的，“唐山过台湾”石雕园占地500多亩，投资近三千万人民币，于2003年11月27日正式开业。\n石雕园以“唐山过台湾”为主题，以天福集团总裁李瑞河先生的家史为蓝本，讲述多数台湾人的祖辈从大陆移居台湾，艰苦奋斗，创造辉煌，然后再回到大陆来投资兴业，回馈桑梓的故事，体现海峡两岸同根同源、同文同种、一脉相承的关系。参观石雕园可以进一步了解两岸的渊源，更好地促进两岸的沟通与交流，密切两岸的经贸合作，增进情谊和凝聚力。\n“唐山过台湾”石雕园主题部分共分为四个区和一座闽台民俗馆。主要以“唐山过台湾，筚路辟新天。百年传薪火，数代系茶园。花甲再创业，芳草报故园。豪情惊陆圣，茗谱大同篇。”主线，石雕园主要利用山上丰富的自然石资源，以石雕语言为载体，采用圆雕、浮雕、刻线雕、防真雕等多种手法，来讲述两岸同胞同根同源，一脉相承的史实。是首批全国农业旅游师范点，也是漳浦县爱国主义教育基地。\n闽台民俗馆是一座最具代表性的闽南地区古民居，同时它也是台湾早期民居的典型，是按当地一座民国时期的传统民居原样设计建造的。民俗馆里收集许多当时的器具，谷桶、犁耙、水车、筐、还有坛坛罐罐、制茶的机器、娶亲的花轿等。虽然都很粗糙、平凡，但也忠实地反映了闽台地区数百年来慢慢形成的独特的文化，是这一地区人们日常生活、生产、文化活动的见证。"}}, {"title": "漳州云顶温泉SPA主题公园", "address": "漳州市云霄县陈政路382号（位于将军山公园大门前右侧）", "image": "", "rank": 26, "time": 4.0, "location": {"lat": 23.955412313729777, "lng": 117.32590848444505}, "feature": {"sight_features": "特色1 特有PH7.7的碳酸氢钠泉 特色2 享受健康美人汤温泉，动感spa体验", "sight_content": "漳州云顶温泉SPA主题公园位于云霄县将军山公园，按五星级标准打造，厦深高铁、沈海高速均途径此地，是土楼式的温泉客房酒店。\n318间奢华温泉房均引入美人汤泉，云顶温泉日出水量约1700吨，涌出时为65℃，富含钠、镁、钙、钾、碳酸离子等矿物质成分，为稀有的碳酸氢钠泉俗称“美人汤”。\n泉色净无味，沐后光滑柔细不黏腻，园区拥有动感泡池32个，美人汤泉与顶级SPA设备完美结合，让您享受健康汤泉同时，体验动感SPA带来的无穷乐趣。\n大型公共水疗区包括动感SPA温泉AB池、高温池、休闲泡池、五味池、百米滑道、游泳池、龙泉谷、维琪淋浴、气泡坐浴、雨淋浴、SPA水疗池、贯顶喷嘴、冰水池、热水池、五味池、干蒸房、湿蒸房、红外线按摩房及儿童戏水池等一系列水疗娱乐项目，功能全面、顶级进口水疗设备，聚休闲娱乐一体的超大型SPA主题公园！\n\n\n酒店拥有317间（套）豪华客房，每间客房内均有“美人汤”碳酸氢钠天然温泉。\n温馨提示\n入浴前应先彻底洗净身体\n患有传染性疾病者禁止入浴\n酒醉、空腹及饱食后，不宜入浴\n泡浴中若有任何不适，请立即离池并通知服务人员"}}, {"title": "镇海角", "address": "漳州市龙海市隆教畲族乡镇海村", "image": "", "rank": 27, "time": 2.0, "location": {"lat": 24.26256846274656, "lng": 118.1032984927757}, "feature": {"sight_features": "", "sight_content": ""}}, {"title": "半月山温泉", "address": "漳州市林墩工业区池仔头半月山温泉", "image": "", "rank": 28, "time": 2, "location": {"lat": 24.785229159653483, "lng": 117.92500281790909}, "feature": {"sight_features": "特色1 世界珍稀高锶苏打温泉。 特色2 昔日瑶池天上水，今朝半月山下泉。 特色3 是放松身心的好地方。", "sight_content": "半月山温泉景区地处闽南金三角厦漳泉交汇之处---长泰林墩，属“三地”一小时经济圈范畴，距厦门机场仅45公里，地理位置优越。景区以自然生态为主题，总规划占地面积1500亩，拟总投资20亿元人民币。是集温泉养生、五星级度假酒店和高端旅游地产于一体的综合性旅游度假区。\n神奇自涌的“美人汤”，顶级温泉的称谓。自涌温泉水温58℃，日出水量5000立方米，属世界珍稀富锶苏打温泉，水质温和，呈弱碱性。含有多种对人体有益的矿物质和微量元素，如锶（0.6mg/L）、锂、锌、铁、铝、碘等。锶是人体必需的微量元素，与骨骼的形成、血管的功能及构造、神经及肌肉的兴奋密切相关。\n“美人汤”是矿物质及微量元素易于被人体吸收的淡水，清澈、微甜，更能均衡补充人体生理所需，调节人体平衡。对恢复血管弹性、调节心脑血管机能、动脉硬化、神经功能紊乱、风湿、皮肤保养、胃炎及消化道溃疡具有显著的辅助疗效。经常浸泡其中，具有显著的抗氧化、防衰老等美容养颜之功效。自古就有“昔日瑶池天上水，今朝半月山下泉”之美誉。"}}, {"title": "大地土楼群", "address": "福建省漳州市华安县344县道", "image": "", "rank": 29, "time": 1.0, "location": {"lat": 25.023237966390838, "lng": 117.71090154959649}, "feature": {"sight_features": "", "sight_content": ""}}, {"title": "小黄山景区", "address": "漳州市长泰县马洋溪旅游区旺亭村旺头社", "image": "", "rank": 30, "time": 3.5, "location": {"lat": 24.583093898602336, "lng": 117.82731206229057}, "feature": {"sight_features": "特色1 颇有“黄山一角”的俊秀与神奇 特色2 天生一个仙人洞，无限风光在险峰", "sight_content": "这里松石野趣，独具特色，森林葱茏，香花秀草，巉岩丽景，深潭幽洞。身临其中山上的松树和奇石颇有“黄山一角”的俊秀与神奇，因而得“小黄山”之名。\n游人在小黄山广场集合拍照、由哲门进山、过必经之道、穿仙人洞、登险峰“铁三角”、赏龟圣听涛、蛇王戏珠、官帽石、拜关爷圣王。\n\n感受“真美小黄山，善勤聚贤缘”之乐。飞渡空谷、从容溜索、铁道攀岩，体验空中飞人与蜘蛛侠那勇敢与豪迈！"}}, {"title": "南山寺", "address": "漳州市芗城区九龙江南岸的丹霞山山麓", "image": "", "rank": 31, "time": null, "location": {"lat": 24.496688866017188, "lng": 117.699578546986}, "feature": {"sight_features": "", "sight_content": ""}}, {"title": "二宜楼", "address": "漳州市华安县仙都镇大地村近344县道", "image": "", "rank": 32, "time": 1.0, "location": {"lat": 25.023237966390838, "lng": 117.71090154959649}, "feature": {"sight_features": "", "sight_content": ""}}, {"title": "威镇阁", "address": "漳州市新华南路", "image": "", "rank": 33, "time": 1.0, "location": {"lat": 24.507545763160707, "lng": 117.66347046802404}, "feature": {"sight_features": "", "sight_content": ""}}, {"title": "长泰古山重", "address": "福建省漳州市长泰县马洋溪生态旅游区山重村", "image": "", "rank": 34, "time": 2.5, "location": {"lat": 24.62566816328589, "lng": 117.88917836723385}, "feature": {"sight_features": "特色1 国家生态示范村，也是全国特色景观旅游名村", "sight_content": "福建长泰古山重景区，养在深闺、群山环抱、蓝天白云下潺潺溪水围绕着的美丽山重古村落有着800年的历史， 坐落在与厦门灌口镇相隔的长泰县，位于海拔近千米的仙林旗山和钉顶尾山脚下， 因地处大山深处，民风纯朴，村里村外遍种桃花、梨花、李花、油菜花... 近千亩的翠绿农田里玉米、包菜、油菜、豌豆、土豆、番薯、茄子、花菜、水稻应有尽有... 溪道幽长的水云涧，轻雾飘渺，古樟、红榕散落两岸，让您不觉间已超然于山水。\n山重村四面环山，青山叠翠，秀水涟漾，长泰马洋溪更在此发源，“三重山、三重山”给山重村披上了一层神秘的面纱，颇有“山重水复疑无路，柳暗花明又一村”之意境。 山重村素有“千年古村落，山水花中游”之美称，每年春季的油菜花、桃花、李花最吸引游客，也因此，景区极力打造“花果世界”、“田园风光”、“民宿王国”、“农耕体验”等特色乡村旅游产品，更有地瓜、砂仁、土鸡蛋、玉米等丰富的农特产品，景区内还有千年古樟树、宋代石佛塔、明代昭灵宫、子龙庙、水云涧、百年古民居、薛氏、林氏家庙等历史文化资源。游客在观赏山重乡村自然美景之余，还可“吃农家菜，住农家屋、干农家活”，尽享乡村野趣，让身心回归自然，返璞归真。"}}, {"title": "华安土楼", "address": "漳州市华安县沙建镇", "image": "", "rank": 35, "time": 2.0, "location": {"lat": 24.741118704592566, "lng": 117.5775704312542}, "feature": {"sight_features": "", "sight_content": ""}}, {"title": "南太武高尔夫俱乐部", "address": "漳州市开发区南滨大道289号", "image": "", "rank": 36, "time": 2, "location": {"lat": 24.385863033511885, "lng": 118.05655603513917}, "feature": {"sight_features": "", "sight_content": ""}}, {"title": "顺裕楼", "address": "漳州市南靖县书洋镇石桥村", "image": "", "rank": 37, "time": 1.5, "location": {"lat": 24.670901993496187, "lng": 117.06358778433962}, "feature": {"sight_features": "", "sight_content": ""}}, {"title": "三平寺", "address": "漳州市平和县", "image": "", "rank": 38, "time": 1.0, "location": {"lat": 24.368365040125912, "lng": 117.32255159131472}, "feature": {"sight_features": "", "sight_content": ""}}, {"title": "抽象画廊", "address": "漳州市漳浦市六鳌半岛东海岸，六鳌镇新厝村", "image": "", "rank": 39, "time": 1.5, "location": {"lat": 23.935082392428377, "lng": 117.7592206771314}, "feature": {"sight_features": "", "sight_content": "抽象画廊位于漳浦六鳌半岛东海岸，六鳌镇新厝村，是一处风化花岗岩海岸风光，在六鳌半岛中段崂岈山东面突出部，崂岈山海蚀风化花岗岩、抽象岩画群，是我国海岸上一处罕见奇观\n景区面积约0.5平方公里。在海浪中冲拍、潮汐洗刷的地方，除了净洁的细沙，便是坚硬的顽石。景区的主体在海滨的山丘上，景区内沟壑连绵，每一沟壑便是皱皱叠叠的画卷。"}}, {"title": "九侯山", "address": "漳州市诏安县金星乡湖内村九侯山", "image": "", "rank": 40, "time": 2.5, "location": {"lat": 23.80965413066329, "lng": 117.21657457911544}, "feature": {"sight_features": "", "sight_content": ""}}, {"title": "将军山公园", "address": "漳州市云霄县城关陈政路", "image": "", "rank": 41, "time": 2.5, "location": {"lat": 23.953966471447746, "lng": 117.33422057629225}, "feature": {"sight_features": "", "sight_content": ""}}, {"title": "赵家堡", "address": "漳州市漳浦县湖西乡硕高山麓", "image": "", "rank": 42, "time": 1.5, "location": {"lat": 24.182620474212666, "lng": 117.83221042521787}, "feature": {"sight_features": "", "sight_content": ""}}, {"title": "佰翔圆山花泉（温泉）", "address": "漳州市芗城区大桥路1号（战备大桥南侧）", "image": "", "rank": 43, "time": 2, "location": {"lat": 24.49927554150496, "lng": 117.65923089989992}, "feature": {"sight_features": "特色1 源自地下百米深处天然热泉", "sight_content": "圆山花泉座落于闽南金三角地区,素有“东南花都”之称的漳州市九龙江畔，温泉公园占地2.5万平米，紧邻市中心，繁华而不失清幽，宁静而不失典雅，沐浴其中静享泡汤乐趣，闻花之芬芳，听天籁之音，悟养生之道，是您感受“离尘不离城”的温泉养生首选。\n源自地下百米深处天然热泉，出水温度高达90℃，日出水量1000余吨，泉水无色，透明，味微咸，矿化度达8300mg/L,为高矿化度医疗型热矿泉；其富含的氟、溴、碘、锶、铁、锂、钡、偏硼酸等10余种矿物质含量达到《国家医疗矿泉水水质标准》，其中氟含量达到国家标准２倍，锶含量达到国家标准４倍。\n泉水对各种风湿骨痛、腰肌劳损、劲椎病、腰椎病、肩周炎、等均有较强的医疗功效；长期沐浴还有安神、提升睡眠质量、修复受损细胞、淡化肌肤色泽、抵抗衰老等特殊美容功效。\n圆山花泉共有28个温泉泡池，12间特色功能房，室内温泉馆、spa水疗池、特色泡池区、四大美人汤、四季中药养生泉及休闲餐厅等设施设备。泉水源自地下百米深处天然热泉，出水温度高达90℃，日出水量1000余吨，泉水无色，透明，味微咸，富含近20种对人体有益的微量元素。"}}, {"title": "长泰山重村", "address": "漳州市长泰县陈巷镇东边，距离漳州四十多公里", "image": "", "rank": 44, "time": 5.5, "location": {"lat": 24.68383210427108, "lng": 117.85236079400407}, "feature": {"sight_features": "", "sight_content": ""}}, {"title": "树海瀑布", "address": "漳州市南靖县船场镇下山村", "image": "", "rank": 45, "time": 2.0, "location": {"lat": 24.573734737358492, "lng": 117.17023901614597}, "feature": {"sight_features": "", "sight_content": ""}}, {"title": "上坪土楼群", "address": "漳州市华安县沙建镇上坪", "image": "", "rank": 46, "time": 1.0, "location": {"lat": 24.77905538648069, "lng": 117.50598837191838}, "feature": {"sight_features": "", "sight_content": ""}}, {"title": "漳州古城", "address": "漳州市芗城区，东入口位于修文东路与新华南路交汇处，西入口位于钟法路与振成巷交汇处，北入口位于延安南路北段、中山公园东门口。", "image": "", "rank": 47, "time": 2.0, "location": {"lat": 24.511001945338133, "lng": 117.65997815354153}, "feature": {"sight_features": "", "sight_content": ""}}, {"title": "玛琪雅朵花海", "address": "漳州市长泰县马洋溪生态旅游区山重村境内", "image": "", "rank": 48, "time": 2, "location": {"lat": 24.62566816328589, "lng": 117.88917836723385}, "feature": {"sight_features": "特色1 富有浓郁欧洲风情", "sight_content": "玛琪雅朵花海坐落在山重村仙灵旗山之巅，旅游项目位于福建省漳州市长泰马洋溪生态旅游区山重村，距长泰县城25公里，距漳州市区40公里，距厦门杏林大桥20公里，位于闽南黄金旅游圈和厦门城市郊野休闲旅游圈之内十里蓝山玛琪雅朵花海景致壮美，在这里，300亩的山地顺着起伏的山势，种植的各色草花、油菜花、三角梅、紫薇等花卉竞相开放，形成一望无际的色彩斑斓的风景线。\n\n玛琪雅朵花海以其富有浓郁欧洲风情的特有景观，为旅游文化重镇古山重注入了更为鲜活和丰富的文化内涵，当人们畅游花海俯身亲吻花香时, 得到的是田园生态美的视觉享受和清新鲜活的身心愉悦。\n玛琪雅朵”是意大利美丽而高贵的一种鲜花名称，后为意大利一个民族部落信仰，成为美和纯朴生活的象征。如今，玛琪雅朵花海这一富有浓郁欧洲风情的特有景观，为旅游文化重镇古山重注入了更为鲜活和丰富的文化内涵，项目计划总投资10亿元人民币，拟开发和建设酒店、会所、花海、景观特色园区、寻梦谷瀑布群等。"}}, {"title": "金谷温泉", "address": "漳州龙海市东泗乡东泗村", "image": "", "rank": 49, "time": 2, "location": {"lat": 24.377977277392485, "lng": 117.79425904311277}, "feature": {"sight_features": "", "sight_content": ""}}, {"title": "百花村", "address": "漳州市龙海县九湖乡百花村", "image": "", "rank": 50, "time": 1.5, "location": {"lat": 24.4803946214543, "lng": 117.66465768026362}, "feature": {"sight_features": "", "sight_content": ""}}, {"title": "陈政墓", "address": "漳州市城关西侧城政路将军山公园附近", "image": "", "rank": 51, "time": 1.0, "location": {"lat": 23.955412313729777, "lng": 117.32590848444505}, "feature": {"sight_features": "", "sight_content": ""}}, {"title": "龙佳游乐园", "address": "漳州市台商投资区角美镇龙佳生态温泉山庄", "image": "", "rank": 52, "time": 2, "location": {"lat": 24.534205590552506, "lng": 117.87554500100504}, "feature": {"sight_features": "", "sight_content": ""}}, {"title": "漳州水世界魔幻主题公园", "address": "漳州市芗城区南坑北路64号（魔幻主题公园内）", "image": "", "rank": 53, "time": 7.5, "location": {"lat": 24.538684750973516, "lng": 117.66143083751685}, "feature": {"sight_features": "特色1 嗨翻天音乐海浪区 特色2 浪花四溅水管式滑道，童趣盎然水寨 特色3 水世界有六大主题项目，陆世界则多达14个项目", "sight_content": "漳州水世界魔幻主题公园位于芗城区南坑北路64号，是一个魔幻主题系列公园，占地面积30000平方米，水世界有六大主题项目，陆世界则多达14个项目。\n逆天高度，超级大喇叭-福建省径口最大的喇叭之一， 嗨翻天音乐海浪区\n浪花四溅水管式滑道 童趣盎然水寨\n欢乐水球 飞行塔—体验“空中飞人”的乐趣\n海盗船—左摇右摆、惊险刺激，挑战你的心跳 果虫车—“糖宝”造型的可爱小火车\n还有太空漫步、飞车、激战沙鱼岛 自控飞机、鬼屋、小摆锤"}}, {"title": "六鳌翡翠湾", "address": "漳州市漳浦县六鳌半岛", "image": "", "rank": 54, "time": 2, "location": {"lat": 23.935082392428377, "lng": 117.7592206771314}, "feature": {"sight_features": "", "sight_content": ""}}, {"title": "埭美村", "address": "漳州市龙海市东园镇埭尾村埭美自然村", "image": "", "rank": 55, "time": 2, "location": {"lat": 24.367398707330622, "lng": 117.86508021432594}, "feature": {"sight_features": "", "sight_content": ""}}, {"title": "在别处密室逃吧", "address": "福建漳州芗城区瑞京路瑞京花园北区4幢208室", "image": "", "rank": 56, "time": 2, "location": {"lat": 24.516412803746427, "lng": 117.65249400562834}, "feature": {"sight_features": "", "sight_content": ""}}, {"title": "世界竹种源", "address": "漳州市华安县华丰镇、城关九龙平湖北侧的龟仔垅山", "image": "", "rank": 57, "time": 1.0, "location": {"lat": 25.01112859085186, "lng": 117.55768292821946}, "feature": {"sight_features": "", "sight_content": ""}}, {"title": "十里蓝山寻梦谷", "address": "漳州市长泰县马洋溪生态旅游区山重村境内", "image": "", "rank": 58, "time": 2, "location": {"lat": 24.62566816328589, "lng": 117.88917836723385}, "feature": {"sight_features": "", "sight_content": ""}}, {"title": "绳武楼", "address": "漳州市平和县芦溪镇蕉路村", "image": "", "rank": 59, "time": 1.0, "location": {"lat": 24.485480083802205, "lng": 117.05844669567037}, "feature": {"sight_features": "", "sight_content": "绳武楼历经嘉庆至光绪五朝，终于建成，长达一百多年。楼中共有二十四个开间，处处可见石雕、木雕、泥塑、壁画等，富丽精工，精美绝伦。仅木雕就有六百四十六处，无一雷同，散见于屏风、壁橱、门窗、梯手上，既有人物花草、文字对联，又有飞禽走兽、诗画结合，动静相宜，被称为“木雕博物馆”。"}}, {"title": "哈溪激流探险", "address": "漳州市诏安县红星乡西埔村五洞作业区", "image": "", "rank": 60, "time": 2, "location": {"lat": 23.88163298554228, "lng": 117.11718978908539}, "feature": {"sight_features": "特色1 10公里惊艳峡谷，208米垂直落差", "sight_content": "‍‍哈溪激流探险景区，10公里惊艳峡谷，208米垂直落差，5m³/秒磅礴水量，1.5小时巅峰体验，专业级河道设计。皮艇时左时右，或直下入潭，或连续冲滩，始终与浪共舞。在漂流间隙，感受两岸原生态的自然风光，看青山戏绿水，刺激与美景共存，快乐无与伦比。\n景区位于赏梅胜地——福建省诏安县，诏安是全国闻名的“青梅之乡”、“中国书画艺术之乡”、“中国硒都”、“中国长寿之乡”，境内乌山被列为国家森林公园。漂流距乌山风景区仅7公里，距沈海高速诏安南出口24公里，诏安动车站16公里，沈海高速复线诏安出口32公里。地理位置十分优越，对外交通特别便利。"}}]}