{"cityName": "扎囊", "days": 2, "cityImage": "", "spots": [{"title": "桑耶寺", "address": "山南市扎囊县桑耶镇", "image": "", "rank": 1, "time": 2.5, "location": {"lat": 29.423162431510832, "lng": 91.52267273219901}, "feature": {"sight_features": "", "sight_content": ""}}, {"title": "青朴修行地", "address": "山南市扎囊县桑耶寺东北15华里的纳瑞山腰", "image": "", "rank": 2, "time": 1.5, "location": {"lat": 29.329361165325057, "lng": 91.51043232520541}, "feature": {"sight_features": "", "sight_content": ""}}, {"title": "敏珠林寺", "address": "山南市扎囊县扎期乡敏竹林村", "image": "", "rank": 3, "time": 2.0, "location": {"lat": 29.25116431579497, "lng": 91.34362712763867}, "feature": {"sight_features": "", "sight_content": ""}}, {"title": "海不日神山", "address": "山南市扎囊县", "image": "", "rank": 4, "time": 1.0, "location": {"lat": 29.25116431579497, "lng": 91.34362712763867}, "feature": {"sight_features": "", "sight_content": ""}}, {"title": "朗赛岭庄园", "address": "山南市扎囊县101省道南100米", "image": "", "rank": 5, "time": 1.0, "location": {"lat": 29.25116431579497, "lng": 91.34362712763867}, "feature": {"sight_features": "", "sight_content": ""}}, {"title": "扎塘寺", "address": "山南市扎囊县扎塘镇", "image": "", "rank": 6, "time": 1.0, "location": {"lat": 29.23787596291345, "lng": 91.3044897208539}, "feature": {"sight_features": "", "sight_content": ""}}, {"title": "聂玛隆圣洞", "address": "山南市扎囊县", "image": "", "rank": 7, "time": 1.0, "location": {"lat": 29.25116431579497, "lng": 91.34362712763867}, "feature": {"sight_features": "", "sight_content": ""}}, {"title": "扎羊宗溶洞", "address": "山南市扎囊县", "image": "", "rank": 8, "time": 1.0, "location": {"lat": 29.25116431579497, "lng": 91.34362712763867}, "feature": {"sight_features": "", "sight_content": ""}}, {"title": "札玛止桑宫", "address": "山南市扎囊县", "image": "", "rank": 9, "time": 1.0, "location": {"lat": 29.25116431579497, "lng": 91.34362712763867}, "feature": {"sight_features": "", "sight_content": ""}}, {"title": "桑耶渡口", "address": "山南市扎囊县扎其乡东北方向", "image": "", "rank": 10, "time": 0.75, "location": {"lat": 29.196201139030777, "lng": 91.49312435225532}, "feature": {"sight_features": "", "sight_content": ""}}, {"title": "康松桑卡林", "address": "西藏自治区扎囊县桑耶寺南约1.5公里处 850800", "image": "", "rank": 11, "time": 2, "location": {"lat": 29.329361165325057, "lng": 91.51029757937896}, "feature": {"sight_features": "", "sight_content": ""}}, {"title": "囊色林庄园", "address": "西藏自治区扎囊县扎囊乡 850800", "image": "", "rank": 12, "time": 2, "location": {"lat": 29.25116431579497, "lng": 91.34362712763867}, "feature": {"sight_features": "", "sight_content": ""}}, {"title": "札玛桑宫殿遗址", "address": "西藏自治区乃东县桑耶寺北面 856100", "image": "", "rank": 13, "time": 2, "location": {"lat": 29.213115944370983, "lng": 91.83204010058172}, "feature": {"sight_features": "", "sight_content": ""}}, {"title": "青浦山洞", "address": "西藏自治区拉萨市桑耶寺东北部", "image": "", "rank": 14, "time": 2.0, "location": {"lat": 29.65004027476773, "lng": 91.12082391546393}, "feature": {"sight_features": "", "sight_content": ""}}, {"title": "松卡石塔", "address": "西藏自治区扎囊县桑耶寺以西15公里 850800", "image": "", "rank": 15, "time": 2, "location": {"lat": 29.329361165325057, "lng": 91.37555175292678}, "feature": {"sight_features": "", "sight_content": ""}}, {"title": "达杰群典", "address": "西藏自治区山南市扎囊县", "image": "", "rank": 16, "time": 2, "location": {"lat": 29.25116431579497, "lng": 91.34362712763867}, "feature": {"sight_features": "", "sight_content": ""}}, {"title": "扎央宗", "address": "西藏自治区山南地区扎囊县东南 19 公里", "image": "", "rank": 17, "time": 2, "location": {"lat": 29.280298216649335, "lng": 91.57892291585088}, "feature": {"sight_features": "", "sight_content": ""}}]}