{"cityName": "漳平", "days": 2, "cityImage": "", "spots": [{"title": "永福樱花园", "address": "龙岩市漳平市永福镇李庄村", "image": "", "rank": 1, "time": 2.5, "location": {"lat": 25.051211981102963, "lng": 117.31949947437941}, "feature": {"sight_features": "", "sight_content": ""}}, {"title": "九鹏溪", "address": "龙岩市漳平市南洋乡梧溪村", "image": "", "rank": 2, "time": 2, "location": {"lat": 25.440141992179132, "lng": 117.35524023801509}, "feature": {"sight_features": "特色1 感受舟行碧波上，人在画中游", "sight_content": "九鹏溪风景区位于福建省龙岩漳平市南洋乡，是天台山国家森林公园核心景区之一。景区充分发挥茶山水景特色，围绕“水上茶乡”定位，以水体景观为主体，融合森林旅游、人文旅游等特色。明代航海家王景弘从这里走向了世界，徐霞客曾两度泛舟九鹏溪。九鹏溪层层叠叠的茶园随山势起伏，山风吹拂，宛如绿波荡漾，连空气中也弥漫着清幽的茶香，在此作一番亲近自然的野游，置身在翡翠碧绿的茶园茶丛中，令人心旷神怡。九鹏溪两岸山势险峻，古木参天，多是葱茏的原始阔叶树林。原生态的森林环境，造就了幽爽清新的空气，空气负氧离子含量达到每立方厘米9820个以上，是一处不可多得的天然氧吧。\n景区标志物--九鹏迎宾。根据九鹏溪的美丽传说建成的一个假山造型，九鹏展翅，欢迎光临！九鹏溪位于九龙江的上游，相传古代有九只大鹏在此展翅直冲云霄，由此得名九鹏溪。鹏是古代传说中的一种神鸟，庄子在《逍遥游》中描述到鹏，在水为鲲，在天为鹏，胸怀大志，向往高飞，一展翅则九千里，自由遨翔于天地山水之间。九鹏溪的两岸是属于次生阔叶林，原始的自然风光与九鹏溪形成了一幅秀丽的风景，使这里成了水上观光胜地。游览九鹏溪，可以让你感受到舟行碧波上，人在画中游。"}}, {"title": "馨温泉饭庄", "address": "涵梅村梅水坑(梅水坑车站)", "image": "", "rank": 3, "time": 2, "location": {"lat": 25.23492869960714, "lng": 117.53556297160328}, "feature": {"sight_features": "", "sight_content": ""}}, {"title": "龙车革命纪念馆", "address": "308省道", "image": "", "rank": 4, "time": 2, "location": {"lat": 40.337133976011295, "lng": 116.52614205897426}, "feature": {"sight_features": "", "sight_content": ""}}, {"title": "榉子洲公园", "address": "龙岩市漳平市林隆路与桂北路交叉口北150米", "image": "", "rank": 5, "time": 2, "location": {"lat": 25.293312044992906, "lng": 117.43183376682325}, "feature": {"sight_features": "", "sight_content": ""}}, {"title": "少年儿童图书馆", "address": "和平南路68", "image": "", "rank": 6, "time": 2, "location": {"lat": 30.887208654660437, "lng": 121.32120604985461}, "feature": {"sight_features": "", "sight_content": ""}}, {"title": "铃福花场", "address": "308省道西50米", "image": "", "rank": 7, "time": 2, "location": {"lat": 40.337133976011295, "lng": 116.52569290621926}, "feature": {"sight_features": "", "sight_content": ""}}, {"title": "花乡人家农家乐", "address": "永福镇西山村", "image": "", "rank": 8, "time": 2, "location": {"lat": 25.029448025450808, "lng": 117.30781104647744}, "feature": {"sight_features": "", "sight_content": ""}}, {"title": "官田山水生态园", "address": "官田乡官西村", "image": "", "rank": 9, "time": 2, "location": {"lat": 25.052031015819697, "lng": 117.48249736753498}, "feature": {"sight_features": "", "sight_content": ""}}, {"title": "铭恩寺", "address": "福建省龙岩市漳平市X671(漳华线)", "image": "", "rank": 10, "time": 1.5, "location": {"lat": 25.211754005549714, "lng": 117.42348106438054}, "feature": {"sight_features": "", "sight_content": ""}}, {"title": "水美寺", "address": "671县道(永福西山)", "image": "", "rank": 11, "time": 2, "location": {"lat": 24.98557797308376, "lng": 109.98959083099726}, "feature": {"sight_features": "", "sight_content": ""}}, {"title": "显灵宫", "address": "漳平市拱桥镇梧地村村口", "image": "", "rank": 12, "time": 2, "location": {"lat": 25.266917242082627, "lng": 117.35210391841282}, "feature": {"sight_features": "", "sight_content": ""}}, {"title": "小神龙游乐园", "address": "龙岩市漳平市解放路182号", "image": "", "rank": 13, "time": 2, "location": {"lat": 25.298363695716006, "lng": 117.42606649902729}, "feature": {"sight_features": "", "sight_content": ""}}, {"title": "岩泉寺", "address": "福建省龙岩市漳平市S7211(永漳高速)", "image": "", "rank": 14, "time": 2, "location": {"lat": 25.295743499251625, "lng": 117.426556325259}, "feature": {"sight_features": "", "sight_content": ""}}, {"title": "新桥影剧院", "address": "604县道新桥镇附近", "image": "", "rank": 15, "time": 2.0, "location": {"lat": 25.613273638528895, "lng": 117.36591854742228}, "feature": {"sight_features": "", "sight_content": ""}}, {"title": "漳平永福花乡", "address": "福建省漳平市漳平市 364400", "image": "", "rank": 16, "time": 2.5, "location": {"lat": 25.295743499251625, "lng": 117.426556325259}, "feature": {"sight_features": "", "sight_content": ""}}, {"title": "漳平奇石文化城", "address": "福建省漳平市208省道", "image": "", "rank": 17, "time": 2.5, "location": {"lat": 25.55069888191158, "lng": 117.38701246757009}, "feature": {"sight_features": "", "sight_content": ""}}, {"title": "红四军出击闽中纪念馆", "address": "象湖镇杨美村", "image": "", "rank": 18, "time": 2, "location": {"lat": 25.44359461046854, "lng": 117.66044030118387}, "feature": {"sight_features": "", "sight_content": ""}}, {"title": "红四军前敌委员会旧址", "address": "龙岩市漳平市", "image": "", "rank": 19, "time": 2, "location": {"lat": 25.295743499251625, "lng": 117.426556325259}, "feature": {"sight_features": "", "sight_content": ""}}, {"title": "乐贝儿儿童乐园", "address": "赤山路26", "image": "", "rank": 20, "time": 2, "location": {"lat": 25.300164148216332, "lng": 117.42554677000179}, "feature": {"sight_features": "", "sight_content": ""}}, {"title": "菁城基督教堂", "address": "208省道附近", "image": "", "rank": 21, "time": 2, "location": {"lat": 39.82817275160928, "lng": 115.96548677323707}, "feature": {"sight_features": "", "sight_content": ""}}, {"title": "迎恩宫", "address": "景弘路附近", "image": "", "rank": 22, "time": 2, "location": {"lat": 25.29799346022995, "lng": 117.43109433742262}, "feature": {"sight_features": "", "sight_content": ""}}, {"title": "漳平市溪南镇基督教堂", "address": "福建省龙岩市漳平市南洲东路溪南镇基督教堂", "image": "", "rank": 23, "time": 2.5, "location": {"lat": 25.406914251136325, "lng": 117.58978359533661}, "feature": {"sight_features": "", "sight_content": ""}}, {"title": "麒龙寺", "address": "和平南路529号", "image": "", "rank": 24, "time": 2, "location": {"lat": 25.28363709984462, "lng": 117.43606083682282}, "feature": {"sight_features": "", "sight_content": ""}}, {"title": "官东庵", "address": "308省道附近", "image": "", "rank": 25, "time": 2, "location": {"lat": 40.337133976011295, "lng": 116.52614205897426}, "feature": {"sight_features": "", "sight_content": ""}}, {"title": "慈航阁", "address": "西环路215号附近", "image": "", "rank": 26, "time": 2, "location": {"lat": 44.15488765685551, "lng": 125.83854919601559}, "feature": {"sight_features": "", "sight_content": ""}}, {"title": "龙孝岩漂流", "address": "龙岩市漳平市拱桥镇下界村", "image": "", "rank": 27, "time": 2, "location": {"lat": 25.230253453801303, "lng": 117.30824416807214}, "feature": {"sight_features": "", "sight_content": "福建省漳平市龙孝岩漂流的起漂点在拱桥中界村，横跨两岸的罗山廊桥是一道亮丽的风景，终点在下界村金花茶园，漂流全程约7公里，落差105米，分为勇士漂（即全程漂，约1小时40分钟）和亲子漂（即半程漂，约1小时）。"}}, {"title": "农民画院", "address": "和平南路735号", "image": "", "rank": 28, "time": 2, "location": {"lat": 25.278846275836955, "lng": 117.44157248998938}, "feature": {"sight_features": "", "sight_content": ""}}, {"title": "漳平市档案馆", "address": "和平中路91号", "image": "", "rank": 29, "time": 1.0, "location": {"lat": 25.297953210813997, "lng": 117.42628782174216}, "feature": {"sight_features": "", "sight_content": ""}}, {"title": "陈佳和纪念馆", "address": "和平路66号", "image": "", "rank": 30, "time": 2, "location": {"lat": 39.74765521080055, "lng": 118.70675407087477}, "feature": {"sight_features": "", "sight_content": ""}}, {"title": "漳平市博物馆", "address": "东山公园内", "image": "", "rank": 31, "time": 2.5, "location": {"lat": 23.377638801862325, "lng": 104.26692397097436}, "feature": {"sight_features": "", "sight_content": ""}}, {"title": "水上半岛", "address": "水上茶乡九鹏溪", "image": "", "rank": 32, "time": 2, "location": {"lat": 25.626455172757748, "lng": 117.3296894370641}, "feature": {"sight_features": "", "sight_content": ""}}, {"title": "赤水供销合作社旅社", "address": "赤水镇街道", "image": "", "rank": 33, "time": 1.5, "location": {"lat": 26.70362951888886, "lng": 116.37535721191384}, "feature": {"sight_features": "", "sight_content": ""}}, {"title": "西雾山庄", "address": "和平北路", "image": "", "rank": 34, "time": 2, "location": {"lat": 39.0310008667807, "lng": 117.67665967856257}, "feature": {"sight_features": "", "sight_content": ""}}, {"title": "永福人家农家乐", "address": "671县道东50米三华园艺旁", "image": "", "rank": 35, "time": 2, "location": {"lat": 21.321737409708145, "lng": 110.37570167296559}, "feature": {"sight_features": "", "sight_content": ""}}, {"title": "百乐汇·三乡文化步行街", "address": "福建省漳平市外环西路附近", "image": "", "rank": 36, "time": 2, "location": {"lat": 25.306265908780084, "lng": 117.42287426080537}, "feature": {"sight_features": "", "sight_content": ""}}, {"title": "万成·百乐汇步行街", "address": "福建省漳平市和平北路与站前路交叉口", "image": "", "rank": 37, "time": 2, "location": {"lat": 25.310329568593893, "lng": 117.42339081611752}, "feature": {"sight_features": "", "sight_content": ""}}, {"title": "五一林场大山货场", "address": "龙岩市-漳平市-308省道西50米", "image": "", "rank": 38, "time": 2, "location": {"lat": 25.064369026473052, "lng": 117.40294167002051}, "feature": {"sight_features": "", "sight_content": ""}}, {"title": "台品樱花园", "address": "龙岩市漳平市永福镇358国道", "image": "", "rank": 39, "time": 2, "location": {"lat": 25.06257722910607, "lng": 117.31350195561014}, "feature": {"sight_features": "", "sight_content": ""}}]}